{"last_updated":1704100051,"ttl":30,"version":"2.2","data":{"bikes":[{"bike_id":"19681d20-0e94-4d95-bd6e-75843e212133","system_id":"levelo_inurba_marseille","lat":43.313391,"lon":5.36706,"is_reserved":false,"is_disabled":false,"rental_uris":{"android":"levelo://app?vid=19681d20-0e94-4d95-bd6e-75843e212133","ios":"levelo://app?vid=19681d20-0e94-4d95-bd6e-75843e212133"},"vehicle_type_id":"4","last_reported":1704100051,"current_range_meters":30000,"station_id":"ce4bgr92rcd13ifvqc6g","pricing_plan_id":"free"},{"bike_id":"ba3aba46-f07f-46b5-a5d6-23b5891b61b4","system_id":"levelo_inurba_marseille","lat":43.31341,"lon":5.367098,"is_reserved":false,"is_disabled":false,"rental_uris":{"android":"levelo://app?vid=ba3aba46-f07f-46b5-a5d6-23b5891b61b4","ios":"levelo://app?vid=ba3aba46-f07f-46b5-a5d6-23b5891b61b4"},"vehicle_type_id":"4","last_reported":1704100051,"current_range_meters":25200,"station_id":"ce4bgr92rcd13ifvqc6g","pricing_plan_id":"free"},{"bike_id":"1862bd8e-99d5-4a12-9621-aed23de87e43","system_id":"levelo_inurba_marseille","lat":43.31341,"lon":5.367098,"is_reserved":false,"is_disabled":false,"rental_uris":{"android":"levelo://app?vid=1862bd8e-99d5-4a12-9621-aed23de87e43","ios":"levelo://app?vid=1862bd8e-99d5-4a12-9621-aed23de87e43"},"vehicle_type_id":"4","last_reported":1704100051,"current_range_meters":31600,"station_id":"ce4bgr92rcd13ifvqc6g","pricing_plan_id":"free"},{"bike_id":"3d0c4403-5c9c-41f7-b424-8f0b0b359a4c","system_id":"levelo_inurba_marseille","lat":43.31341,"lon":5.367098,"is_reserved":false,"is_disabled":false,"rental_uris":{"android":"levelo://app?vid=3d0c4403-5c9c-41f7-b424-8f0b0b359a4c","ios":"levelo://app?vid=3d0c4403-5c9c-41f7-b424-8f0b0b359a4c"},"vehicle_type_id":"4","last_reported":1704100051,"current_range_meters":21600,"station_id":"ce4bgr92rcd13ifvqc6g","pricing_plan_id":"free"},{"bike_id":"889b30bc-6836-4e38-abd7-178148c049c7","system_id":"levelo_inurba_marseille","lat":43.314811,"lon":5.373103,"is_reserved":false,"is_disabled":false,"rental_uris":{"android":"levelo://app?vid=889b30bc-6836-4e38-abd7-178148c049c7","ios":"levelo://app?vid=889b30bc-6836-4e38-abd7-178148c049c7"},"vehicle_type_id":"4","last_reported":1704100051,"current_range_meters":31200,"station_id":"ce4bgt12rcd13ifvqcd0","pricing_plan_id":"free"},{"bike_id":"a67098e8-629f-466d-a7a5-082807bca2f7","system_id":"levelo_inurba_marseille","lat":43.314811,"lon":5.373104,"is_reserved":false,"is_disabled":false,"rental_uris":{"android":"levelo://app?vid=a67098e8-629f-466d-a7a5-082807bca2f7","ios":"levelo://app?vid=a67098e8-629f-466d-a7a5-082807bca2f7"},"vehicle_type_id":"4","last_reported":1704100051,"current_range_meters":31600,"station_id":"ce4bgt12rcd13ifvqcd0","pricing_plan_id":"free"},{"bike_id":"95411977-43c0-4220-ad6c-6d06548f7b35","system_id":"levelo_inurba_marseille","lat":43.314811,"lon":5.373103,"is_reserved":false,"is_disabled":false,"rental_uris":{"android":"levelo://app?vid=95411977-43c0-4220-ad6c-6d06548f7b35","ios":"levelo://app?vid=95411977-43c0-4220-ad6c-6d06548f7b35"},"vehicle_type_id":"4","last_reported":1704100051,"current_range_meters":24000,"station_id":"ce4bgt12rcd13ifvqcd0","pricing_plan_id":"free"},{"bike_id":"677453f6-9acf-4638-b44f-cb0bfc3710f4","system_id":"levelo_inurba_marseille","lat":43.314811,"lon":5.373103,"is_reserved":false,"is_disabled":false,"rental_uris":{"android":"levelo://app?vid=677453f6-9acf-4638-b44f-cb0bfc3710f4","ios":"levelo://app?vid=677453f6-9acf-4638-b44f-cb0bfc3710f4"},"vehicle_type_id":"4","last_reported":1704100051,"current_range_meters":13600,"station_id":"ce4bgt12rcd13ifvqcd0","pricing_plan_id":"free"},{"bike_id":"4f24b8ad-02e7-4e1a-8f7c-e64056a5c9c1","system_id":"levelo_inurba_marseille","lat":43.314811,"lon":5.373104,"is_reserved":false,"is_disabled":false,"rental_uris":{"android":"levelo://app?vid=4f24b8ad-02e7-4e1a-8f7c-e64056a5c9c1","ios":"levelo://app?vid=4f24b8ad-02e7-4e1a-8f7c-e64056a5c9c1"},"vehicle_type_id":"4","last_reported":1704100051,"current_range_meters":24000,"station_id":"ce4bgt12rcd13ifvqcd0","pricing_plan_id":"free"},{"bike_id":"c8db761f-a274-4a11-905d-fd913fd3fbe4","system_id":"levelo_inurba_marseille","lat":43.309039,"lon":5.371797,"is_reserved":false,"is_disabled":false,"rental_uris":{"android":"levelo://app?vid=c8db761f-a274-4a11-905d-fd913fd3fbe4","ios":"levelo://app?vid=c8db761f-a274-4a11-905d-fd913fd3fbe4"},"vehicle_type_id":"4","last_reported":1704100051,"current_range_meters":28400,"station_id":"ce4bguh2rcd13ifvqckg","pricing_plan_id":"free"},{"bike_id":"42450fe8-f2b8-4fb9-b545-2a9a74f93631","system_id":"levelo_inurba_marseille","lat":43.30545,"lon":5.36703,"is_reserved":false,"is_disabled":false,"rental_uris":{"android":"levelo://app?vid=42450fe8-f2b8-4fb9-b545-2a9a74f93631","ios":"levelo://app?vid=42450fe8-f2b8-4fb9-b545-2a9a74f93631"},"vehicle_type_id":"4","last_reported":1704100051,"current_range_meters":31600,"station_id":"ce4bgrp2rcd13ifvqc9g","pricing_plan_id":"free"},{"bike_id":"6cc10ba3-514e-4b87-b859-081a0f2df958","system_id":"levelo_inurba_marseille","lat":43.305706,"lon":5.365654,"is_reserved":false,"is_disabled":false,"rental_uris":{"android":"levelo://app?vid=6cc10ba3-514e-4b87-b859-081a0f2df958","ios":"levelo://app?vid=6cc10ba3-514e-4b87-b859-081a0f2df958"},"vehicle_type_id":"4","last_reported":1704100051,"current_range_meters":24400,"station_id":"ce4bgs12rcd13ifvqcag","pricing_plan_id":"free"},{"bike_id":"4111f68d-aebb-42f7-8b49-47b885edbbc0","system_id":"levelo_inurba_marseille","lat":43.305989,"lon":5.37225,"is_reserved":false,"is_disabled":false,"rental_uris":{"android":"levelo://app?vid=4111f68d-aebb-42f7-8b49-47b885edbbc0","ios":"levelo://app?vid=4111f68d-aebb-42f7-8b49-47b885edbbc0"},"vehicle_type_id":"4","last_reported":1704100051,"current_range_meters":30000,"station_id":"ce4bgqh2rcd13ifvqc4g","pricing_plan_id":"free"},{"bike_id":"b1168300-4048-42a1-90db-b6bcec8558b6","system_id":"levelo_inurba_marseille","lat":43.305989,"lon":5.37225,"is_reserved":false,"is_disabled":false,"rental_uris":{"android":"levelo://app?vid=b1168300-4048-42a1-90db-b6bcec8558b6","ios":"levelo://app?vid=b1168300-4048-42a1-90db-b6bcec8558b6"},"vehicle_type_id":"4","last_reported":1704100051,"current_range_meters":31200,"station_id":"ce4bgqh2rcd13ifvqc4g","pricing_plan_id":"free"},{"bike_id":"5a35c6dd-93b2-49f7-9a6e-ea28ee09d459","system_id":"levelo_inurba_marseille","lat":43.311131,"lon":5.377651,"is_reserved":false,"is_disabled":false,"rental_uris":{"android":"levelo://app?vid=5a35c6dd-93b2-49f7-9a6e-ea28ee09d459","ios":"levelo://app?vid=5a35c6dd-93b2-49f7-9a6e-ea28ee09d459"},"vehicle_type_id":"4","last_reported":1704100051,"current_range_meters":24400,"station_id":"ce4bgt92rcd13ifvqcg0","pricing_plan_id":"free"},{"bike_id":"d14979d8-4199-447e-94f6-8c249d32fc0b","system_id":"levelo_inurba_marseille","lat":43.311131,"lon":5.377651,"is_reserved":false,"is_disabled":false,"rental_uris":{"android":"levelo://app?vid=d14979d8-4199-447e-94f6-8c249d32fc0b","ios":"levelo://app?vid=d14979d8-4199-447e-94f6-8c249d32fc0b"},"vehicle_type_id":"4","last_reported":1704100051,"current_range_meters":26800,"station_id":"ce4bgt92rcd13ifvqcg0","pricing_plan_id":"free"},{"bike_id":"25af9e1c-886c-4f64-92f2-5ca68e46ae4a","system_id":"levelo_inurba_marseille","lat":43.31722,"lon":5.37668,"is_reserved":false,"is_disabled":false,"rental_uris":{"android":"levelo://app?vid=25af9e1c-886c-4f64-92f2-5ca68e46ae4a","ios":"levelo://app?vid=25af9e1c-886c-4f64-92f2-5ca68e46ae4a"},"vehicle_type_id":"4","last_reported":1704100051,"current_range_meters":18800,"station_id":"","pricing_plan_id":"free"},{"bike_id":"12361c67-a6ab-4df2-b2ff-ecdb1599267d","system_id":"levelo_inurba_marseille","lat":43.307945,"lon":5.376487,"is_reserved":false,"is_disabled":false,"rental_uris":{"android":"levelo://app?vid=12361c67-a6ab-4df2-b2ff-ecdb1599267d","ios":"levelo://app?vid=12361c67-a6ab-4df2-b2ff-ecdb1599267d"},"vehicle_type_id":"4","last_reported":1704100051,"current_range_meters":30400,"station_id":"ce4bgv92rcd13ifvqcq0","pricing_plan_id":"free"},{"bike_id":"b70fb076-a113-4290-9e16-3c036d19d828","system_id":"levelo_inurba_marseille","lat":43.307945,"lon":5.376487,"is_reserved":false,"is_disabled":false,"rental_uris":{"android":"levelo://app?vid=b70fb076-a113-4290-9e16-3c036d19d828","ios":"levelo://app?vid=b70fb076-a113-4290-9e16-3c036d19d828"},"vehicle_type_id":"4","last_reported":1704100051,"current_range_meters":31200,"station_id":"ce4bgv92rcd13ifvqcq0","pricing_plan_id":"free"},{"bike_id":"64a93320-b6f7-4f00-82e1-5c71938933c4","system_id":"levelo_inurba_marseille","lat":43.31648,"lon":5.37786,"is_reserved":false,"is_disabled":false,"rental_uris":{"android":"levelo://app?vid=64a93320-b6f7-4f00-82e1-5c71938933c4","ios":"levelo://app?vid=64a93320-b6f7-4f00-82e1-5c71938933c4"},"vehicle_type_id":"4","last_reported":1704100051,"current_range_meters":19600,"station_id":"","pricing_plan_id":"free"},{"bike_id":"694e5b99-2d62-424a-87a3-a632ed4e788f","system_id":"levelo_inurba_marseille","lat":43.317075,"lon":5.377367,"is_reserved":false,"is_disabled":false,"rental_uris":{"android":"levelo://app?vid=694e5b99-2d62-424a-87a3-a632ed4e788f","ios":"levelo://app?vid=694e5b99-2d62-424a-87a3-a632ed4e788f"},"vehicle_type_id":"4","last_reported":1704100051,"current_range_meters":28800,"station_id":"ce4bgth2rcd13ifvqch0","pricing_plan_id":"free"},{"bike_id":"30b109af-1814-4147-9d77-7c3db47a4ae7","system_id":"levelo_inurba_marseille","lat":43.30304,"lon":5.368987,"is_reserved":false,"is_disabled":false,"rental_uris":{"android":"levelo://app?vid=30b109af-1814-4147-9d77-7c3db47a4ae7","ios":"levelo://app?vid=30b109af-1814-4147-9d77-7c3db47a4ae7"},"vehicle_type_id":"4","last_reported":1704100051,"current_range_meters":29600,"station_id":"ce4bgqh2rcd13ifvqc5g","pricing_plan_id":"free"},{"bike_id":"2eee3bee-8a58-4598-b69c-08fea2289695","system_id":"levelo_inurba_marseille","lat":43.315293,"lon":5.380349,"is_reserved":false,"is_disabled":false,"rental_uris":{"android":"levelo://app?vid=2eee3bee-8a58-4598-b69c-08fea2289695","ios":"levelo://app?vid=2eee3bee-8a58-4598-b69c-08fea2289695"},"vehicle_type_id":"4","last_reported":1704100051,"current_range_meters":1200,"station_id":"ce4bhsp2rcd13ifvqi50","pricing_plan_id":"free"},{"bike_id":"894426c0-37b4-483a-97c2-cd8d0de3fd40","system_id":"levelo_inurba_marseille","lat":43.301939,"lon":5.366286,"is_reserved":false,"is_disabled":false,"rental_uris":{"android":"levelo://app?vid=894426c0-37b4-483a-97c2-cd8d0de3fd40","ios":"levelo://app?vid=894426c0-37b4-483a-97c2-cd8d0de3fd40"},"vehicle_type_id":"4","last_reported":1704100051,"current_range_meters":28000,"station_id":"ce4bgrh2rcd13ifvqc8g","pricing_plan_id":"free"},{"bike_id":"d719e38e-bdab-435e-b50d-ec73b9c76d97","system_id":"levelo_inurba_marseille","lat":43.301939,"lon":5.366286,"is_reserved":false,"is_disabled":false,"rental_uris":{"android":"levelo://app?vid=d719e38e-bdab-435e-b50d-ec73b9c76d97","ios":"levelo://app?vid=d719e38e-bdab-435e-b50d-ec73b9c76d97"},"vehicle_type_id":"4","last_reported":1704100051,"current_range_meters":28400,"station_id":"ce4bgrh2rcd13ifvqc8g","pricing_plan_id":"free"},{"bike_id":"a5291874-f635-43ed-9c4e-b592f5564ee1","system_id":"levelo_inurba_marseille","lat":43.328371,"lon":5.366912,"is_reserved":false,"is_disabled":false,"rental_uris":{"android":"levelo://app?vid=a5291874-f635-43ed-9c4e-b592f5564ee1","ios":"levelo://app?vid=a5291874-f635-43ed-9c4e-b592f5564ee1"},"vehicle_type_id":"4","last_reported":1704100051,"current_range_meters":5600,"station_id":"ce4bhs92rcd13ifvqi0g","pricing_plan_id":"free"},{"bike_id":"dffc2115-7fb4-446b-a125-f242d4063b8a","system_id":"levelo_inurba_marseille","lat":43.304708,"lon":5.379039,"is_reserved":false,"is_disabled":false,"rental_uris":{"android":"levelo://app?vid=dffc2115-7fb4-446b-a125-f242d4063b8a","ios":"levelo://app?vid=dffc2115-7fb4-446b-a125-f242d4063b8a"},"vehicle_type_id":"4","last_reported":1704100051,"current_range_meters":15600,"station_id":"","pricing_plan_id":"free"},{"bike_id":"7e806bf7-783d-4158-874c-6a80edaf949f","system_id":"levelo_inurba_marseille","lat":43.304606,"lon":5.379026,"is_reserved":false,"is_disabled":false,"rental_uris":{"android":"levelo://app?vid=7e806bf7-783d-4158-874c-6a80edaf949f","ios":"levelo://app?vid=7e806bf7-783d-4158-874c-6a80edaf949f"},"vehicle_type_id":"4","last_reported":1704100051,"current_range_meters":19200,"station_id":"ce4bgup2rcd13ifvqcn0","pricing_plan_id":"free"},{"bike_id":"79f0d8a4-334f-4f3c-a8df-bf0b7ddfd4c9","system_id":"levelo_inurba_marseille","lat":43.324765,"lon":5.365835,"is_reserved":false,"is_disabled":false,"rental_uris":{"android":"levelo://app?vid=79f0d8a4-334f-4f3c-a8df-bf0b7ddfd4c9","ios":"levelo://app?vid=79f0d8a4-334f-4f3c-a8df-bf0b7ddfd4c9"},"vehicle_type_id":"4","last_reported":1704100051,"current_range_meters":7200,"station_id":"ce4bhs12rcd13ifvqhvg","pricing_plan_id":"free"},{"bike_id":"12cc3e03-e48b-4f30-bfc9-f1b37a6da005","system_id":"levelo_inurba_marseille","lat":43.302784,"lon":5.377158,"is_reserved":false,"is_disabled":false,"rental_uris":{"android":"levelo://app?vid=12cc3e03-e48b-4f30-bfc9-f1b37a6da005","ios":"levelo://app?vid=12cc3e03-e48b-4f30-bfc9-f1b37a6da005"},"vehicle_type_id":"4","last_reported":1704100051,"current_range_meters":31200,"station_id":"ce4bguh2rcd13ifvqcj0","pricing_plan_id":"free"},{"bike_id":"37654fee-c31e-4e93-a13c-b8fb11c15bab","system_id":"levelo_inurba_marseille","lat":43.302784,"lon":5.377158,"is_reserved":false,"is_disabled":false,"rental_uris":{"android":"levelo://app?vid=37654fee-c31e-4e93-a13c-b8fb11c15bab","ios":"levelo://app?vid=37654fee-c31e-4e93-a13c-b8fb11c15bab"},"vehicle_type_id":"4","last_reported":1704100051,"current_range_meters":30000,"station_id":"ce4bguh2rcd13ifvqcj0","pricing_plan_id":"free"},{"bike_id":"92ee0dcb-b929-4f63-994f-6a3bf0d92887","system_id":"levelo_inurba_marseille","lat":43.302784,"lon":5.377158,"is_reserved":false,"is_disabled":false,"rental_uris":{"android":"levelo://app?vid=92ee0dcb-b929-4f63-994f-6a3bf0d92887","ios":"levelo://app?vid=92ee0dcb-b929-4f63-994f-6a3bf0d92887"},"vehicle_type_id":"4","last_reported":1704100051,"current_range_meters":20800,"station_id":"ce4bguh2rcd13ifvqcj0","pricing_plan_id":"free"},{"bike_id":"f1c4a9f6-f95e-4244-be32-9b3daec9f8d4","system_id":"levelo_inurba_marseille","lat":43.319935,"lon":5.381699,"is_reserved":false,"is_disabled":false,"rental_uris":{"android":"levelo://app?vid=f1c4a9f6-f95e-4244-be32-9b3daec9f8d4","ios":"levelo://app?vid=f1c4a9f6-f95e-4244-be32-9b3daec9f8d4"},"vehicle_type_id":"4","last_reported":1704100051,"current_range_meters":26400,"station_id":"ce4bhr12rcd13ifvqhpg","pricing_plan_id":"free"},{"bike_id":"3c847989-638b-46f4-99eb-472ba4fee795","system_id":"levelo_inurba_marseille","lat":43.299724,"lon":5.371829,"is_reserved":false,"is_disabled":false,"rental_uris":{"android":"levelo://app?vid=3c847989-638b-46f4-99eb-472ba4fee795","ios":"levelo://app?vid=3c847989-638b-46f4-99eb-472ba4fee795"},"vehicle_type_id":"4","last_reported":1704100051,"current_range_meters":24800,"station_id":"ce4bgr92rcd13ifvqc7g","pricing_plan_id":"free"},{"bike_id":"5a7b6f71-2a1a-475e-9087-fdbf7ac8818b","system_id":"levelo_inurba_marseille","lat":43.299902,"lon":5.37441,"is_reserved":false,"is_disabled":false,"rental_uris":{"android":"levelo://app?vid=5a7b6f71-2a1a-475e-9087-fdbf7ac8818b","ios":"levelo://app?vid=5a7b6f71-2a1a-475e-9087-fdbf7ac8818b"},"vehicle_type_id":"4","last_reported":1704100051,"current_range_meters":23200,"station_id":"","pricing_plan_id":"free"},{"bike_id":"9ff63ba7-8b76-48ae-b634-44707f108f45","system_id":"levelo_inurba_marseille","lat":43.3054,"lon":5.38423,"is_reserved":false,"is_disabled":false,"rental_uris":{"android":"levelo://app?vid=9ff63ba7-8b76-48ae-b634-44707f108f45","ios":"levelo://app?vid=9ff63ba7-8b76-48ae-b634-44707f108f45"},"vehicle_type_id":"4","last_reported":1704100051,"current_range_meters":22800,"station_id":"ce4bgg92rcd13ifvqb30","pricing_plan_id":"free"},{"bike_id":"71eeeaa7-6136-4fb1-9ab8-782652ffbdcf","system_id":"levelo_inurba_marseille","lat":43.305364,"lon":5.384119,"is_reserved":false,"is_disabled":false,"rental_uris":{"android":"levelo://app?vid=71eeeaa7-6136-4fb1-9ab8-782652ffbdcf","ios":"levelo://app?vid=71eeeaa7-6136-4fb1-9ab8-782652ffbdcf"},"vehicle_type_id":"4","last_reported":1704100051,"current_range_meters":25600,"station_id":"ce4bgg92rcd13ifvqb30","pricing_plan_id":"free"},{"bike_id":"e5b50afb-65cc-4da8-b29b-670c0e765452","system_id":"levelo_inurba_marseille","lat":43.299243,"lon":5.374807,"is_reserved":false,"is_disabled":false,"rental_uris":{"android":"levelo://app?vid=e5b50afb-65cc-4da8-b29b-670c0e765452","ios":"levelo://app?vid=e5b50afb-65cc-4da8-b29b-670c0e765452"},"vehicle_type_id":"4","last_reported":1704100051,"current_range_meters":27600,"station_id":"ce4bgjh2rcd13ifvqbg0","pricing_plan_id":"free"},{"bike_id":"ef2976e0-b53a-43f8-aa13-b237c1219885","system_id":"levelo_inurba_marseille","lat":43.311722,"lon":5.387247,"is_reserved":false,"is_disabled":false,"rental_uris":{"android":"levelo://app?vid=ef2976e0-b53a-43f8-aa13-b237c1219885","ios":"levelo://app?vid=ef2976e0-b53a-43f8-aa13-b237c1219885"},"vehicle_type_id":"4","last_reported":1704100051,"current_range_meters":25200,"station_id":"ce4bgv12rcd13ifvqcp0","pricing_plan_id":"free"},{"bike_id":"60e99bf4-0f04-42fc-99e1-58e074fe7583","system_id":"levelo_inurba_marseille","lat":43.297794,"lon":5.370888,"is_reserved":false,"is_disabled":false,"rental_uris":{"android":"levelo://app?vid=60e99bf4-0f04-42fc-99e1-58e074fe7583","ios":"levelo://app?vid=60e99bf4-0f04-42fc-99e1-58e074fe7583"},"vehicle_type_id":"4","last_reported":1704100051,"current_range_meters":30800,"station_id":"ce4bgop2rcd13ifvqc1g","pricing_plan_id":"free"},{"bike_id":"ea7074d7-b7c9-4941-82c2-dff391bae9cb","system_id":"levelo_inurba_marseille","lat":43.32786,"lon":5.36704,"is_reserved":false,"is_disabled":false,"rental_uris":{"android":"levelo://app?vid=ea7074d7-b7c9-4941-82c2-dff391bae9cb","ios":"levelo://app?vid=ea7074d7-b7c9-4941-82c2-dff391bae9cb"},"vehicle_type_id":"4","last_reported":1704100051,"current_range_meters":21200,"station_id":"","pricing_plan_id":"free"},{"bike_id":"24ffdf1f-7583-489b-8900-24345e72b645","system_id":"levelo_inurba_marseille","lat":43.297774,"lon":5.370875,"is_reserved":false,"is_disabled":false,"rental_uris":{"android":"levelo://app?vid=24ffdf1f-7583-489b-8900-24345e72b645","ios":"levelo://app?vid=24ffdf1f-7583-489b-8900-24345e72b645"},"vehicle_type_id":"4","last_reported":1704100051,"current_range_meters":31200,"station_id":"ce4bgop2rcd13ifvqc1g","pricing_plan_id":"free"},{"bike_id":"7dacb968-7456-46f9-98a4-1c1aa118f5e2","system_id":"levelo_inurba_marseille","lat":43.32281,"lon":5.38271,"is_reserved":false,"is_disabled":false,"rental_uris":{"android":"levelo://app?vid=7dacb968-7456-46f9-98a4-1c1aa118f5e2","ios":"levelo://app?vid=7dacb968-7456-46f9-98a4-1c1aa118f5e2"},"vehicle_type_id":"4","last_reported":1704100051,"current_range_meters":22000,"station_id":"ce4bhr12rcd13ifvqhqg","pricing_plan_id":"free"},{"bike_id":"7892f7ad-391a-4b01-9629-9863c77731a1","system_id":"levelo_inurba_marseille","lat":43.32288,"lon":5.38273,"is_reserved":false,"is_disabled":false,"rental_uris":{"android":"levelo://app?vid=7892f7ad-391a-4b01-9629-9863c77731a1","ios":"levelo://app?vid=7892f7ad-391a-4b01-9629-9863c77731a1"},"vehicle_type_id":"4","last_reported":1704100051,"current_range_meters":30800,"station_id":"ce4bhr12rcd13ifvqhqg","pricing_plan_id":"free"},{"bike_id":"a814d147-e775-45a2-b5cb-60efdd10d17b","system_id":"levelo_inurba_marseille","lat":43.322872,"lon":5.382756,"is_reserved":false,"is_disabled":false,"rental_uris":{"android":"levelo://app?vid=a814d147-e775-45a2-b5cb-60efdd10d17b","ios":"levelo://app?vid=a814d147-e775-45a2-b5cb-60efdd10d17b"},"vehicle_type_id":"4","last_reported":1704100051,"current_range_meters":31200,"station_id":"ce4bhr12rcd13ifvqhqg","pricing_plan_id":"free"},{"bike_id":"a677cd10-a09b-4b2e-bffd-45b05d2c9229","system_id":"levelo_inurba_marseille","lat":43.32823,"lon":5.36677,"is_reserved":false,"is_disabled":false,"rental_uris":{"android":"levelo://app?vid=a677cd10-a09b-4b2e-bffd-45b05d2c9229","ios":"levelo://app?vid=a677cd10-a09b-4b2e-bffd-45b05d2c9229"},"vehicle_type_id":"4","last_reported":1704100051,"current_range_meters":9200,"station_id":"ce4bhs92rcd13ifvqi0g","pricing_plan_id":"free"},{"bike_id":"3406ac08-144e-419c-8a8c-9c89910b5b78","system_id":"levelo_inurba_marseille","lat":43.328248,"lon":5.36683,"is_reserved":false,"is_disabled":false,"rental_uris":{"android":"levelo://app?vid=3406ac08-144e-419c-8a8c-9c89910b5b78","ios":"levelo://app?vid=3406ac08-144e-419c-8a8c-9c89910b5b78"},"vehicle_type_id":"4","last_reported":1704100051,"current_range_meters":23600,"station_id":"","pricing_plan_id":"free"},{"bike_id":"904f83aa-e9ab-401d-84c1-9edfed82b884","system_id":"levelo_inurba_marseille","lat":43.32829,"lon":5.36683,"is_reserved":false,"is_disabled":false,"rental_uris":{"android":"levelo://app?vid=904f83aa-e9ab-401d-84c1-9edfed82b884","ios":"levelo://app?vid=904f83aa-e9ab-401d-84c1-9edfed82b884"},"vehicle_type_id":"4","last_reported":1704100051,"current_range_meters":18800,"station_id":"ce4bhs92rcd13ifvqi0g","pricing_plan_id":"free"},{"bike_id":"8233d320-3015-483d-9317-9f5ea8045c87","system_id":"levelo_inurba_marseille","lat":43.3283,"lon":5.36692,"is_reserved":false,"is_disabled":false,"rental_uris":{"android":"levelo://app?vid=8233d320-3015-483d-9317-9f5ea8045c87","ios":"levelo://app?vid=8233d320-3015-483d-9317-9f5ea8045c87"},"vehicle_type_id":"4","last_reported":1704100051,"current_range_meters":8000,"station_id":"ce4bhs92rcd13ifvqi0g","pricing_plan_id":"free"},{"bike_id":"370cccf7-c9ba-46c2-819b-c8e8cacc4c21","system_id":"levelo_inurba_marseille","lat":43.3277,"lon":5.37458,"is_reserved":false,"is_disabled":false,"rental_uris":{"android":"levelo://app?vid=370cccf7-c9ba-46c2-819b-c8e8cacc4c21","ios":"levelo://app?vid=370cccf7-c9ba-46c2-819b-c8e8cacc4c21"},"vehicle_type_id":"4","last_reported":1704100051,"current_range_meters":13200,"station_id":"","pricing_plan_id":"free"},{"bike_id":"921b424d-ad0d-4c7a-9d74-66e3a49bfa19","system_id":"levelo_inurba_marseille","lat":43.32934,"lon":5.36612,"is_reserved":false,"is_disabled":false,"rental_uris":{"android":"levelo://app?vid=921b424d-ad0d-4c7a-9d74-66e3a49bfa19","ios":"levelo://app?vid=921b424d-ad0d-4c7a-9d74-66e3a49bfa19"},"vehicle_type_id":"4","last_reported":1704100051,"current_range_meters":0,"station_id":"","pricing_plan_id":"free"},{"bike_id":"3c90f582-3712-4611-8314-3448b8679e93","system_id":"levelo_inurba_marseille","lat":43.296131,"lon":5.370791,"is_reserved":false,"is_disabled":false,"rental_uris":{"android":"levelo://app?vid=3c90f582-3712-4611-8314-3448b8679e93","ios":"levelo://app?vid=3c90f582-3712-4611-8314-3448b8679e93"},"vehicle_type_id":"4","last_reported":1704100051,"current_range_meters":19600,"station_id":"ce4bgnh2rcd13ifvqc0g","pricing_plan_id":"free"},{"bike_id":"e389eb11-80d3-408f-8ecf-1a84d7445c55","system_id":"levelo_inurba_marseille","lat":43.295869,"lon":5.367446,"is_reserved":false,"is_disabled":false,"rental_uris":{"android":"levelo://app?vid=e389eb11-80d3-408f-8ecf-1a84d7445c55","ios":"levelo://app?vid=e389eb11-80d3-408f-8ecf-1a84d7445c55"},"vehicle_type_id":"4","last_reported":1704100051,"current_range_meters":21200,"station_id":"ce4bgph2rcd13ifvqc2g","pricing_plan_id":"free"},{"bike_id":"4ae69e5f-83ad-492f-890f-df2a1375e94c","system_id":"levelo_inurba_marseille","lat":43.296131,"lon":5.370773,"is_reserved":false,"is_disabled":false,"rental_uris":{"android":"levelo://app?vid=4ae69e5f-83ad-492f-890f-df2a1375e94c","ios":"levelo://app?vid=4ae69e5f-83ad-492f-890f-df2a1375e94c"},"vehicle_type_id":"4","last_reported":1704100051,"current_range_meters":30400,"station_id":"ce4bgnh2rcd13ifvqc0g","pricing_plan_id":"free"},{"bike_id":"f80d98b6-4ef0-4f42-a012-efe74c77ebf8","system_id":"levelo_inurba_marseille","lat":43.295793,"lon":5.367403,"is_reserved":false,"is_disabled":false,"rental_uris":{"android":"levelo://app?vid=f80d98b6-4ef0-4f42-a012-efe74c77ebf8","ios":"levelo://app?vid=f80d98b6-4ef0-4f42-a012-efe74c77ebf8"},"vehicle_type_id":"4","last_reported":1704100051,"current_range_meters":16000,"station_id":"ce4bgph2rcd13ifvqc2g","pricing_plan_id":"free"},{"bike_id":"7534aad2-fc8d-4fe6-9e18-0d59b37dcf1e","system_id":"levelo_inurba_marseille","lat":43.296921,"lon":5.376579,"is_reserved":false,"is_disabled":false,"rental_uris":{"android":"levelo://app?vid=7534aad2-fc8d-4fe6-9e18-0d59b37dcf1e","ios":"levelo://app?vid=7534aad2-fc8d-4fe6-9e18-0d59b37dcf1e"},"vehicle_type_id":"4","last_reported":1704100051,"current_range_meters":31600,"station_id":"ce4bgkh2rcd13ifvqbl0","pricing_plan_id":"free"},{"bike_id":"9accff70-d116-4c89-baf3-fdea0afd83eb","system_id":"levelo_inurba_marseille","lat":43.299028,"lon":5.381509,"is_reserved":false,"is_disabled":false,"rental_uris":{"android":"levelo://app?vid=9accff70-d116-4c89-baf3-fdea0afd83eb","ios":"levelo://app?vid=9accff70-d116-4c89-baf3-fdea0afd83eb"},"vehicle_type_id":"4","last_reported":1704100051,"current_range_meters":28800,"station_id":"ce4bgj12rcd13ifvqbc0","pricing_plan_id":"free"},{"bike_id":"546cc730-04ef-45f3-a0c3-47b1116d42de","system_id":"levelo_inurba_marseille","lat":43.296921,"lon":5.376579,"is_reserved":false,"is_disabled":false,"rental_uris":{"android":"levelo://app?vid=546cc730-04ef-45f3-a0c3-47b1116d42de","ios":"levelo://app?vid=546cc730-04ef-45f3-a0c3-47b1116d42de"},"vehicle_type_id":"4","last_reported":1704100051,"current_range_meters":26800,"station_id":"ce4bgkh2rcd13ifvqbl0","pricing_plan_id":"free"},{"bike_id":"cd3ba189-5e0b-4df8-86aa-d21fd790e352","system_id":"levelo_inurba_marseille","lat":43.296263,"lon":5.377094,"is_reserved":false,"is_disabled":false,"rental_uris":{"android":"levelo://app?vid=cd3ba189-5e0b-4df8-86aa-d21fd790e352","ios":"levelo://app?vid=cd3ba189-5e0b-4df8-86aa-d21fd790e352"},"vehicle_type_id":"4","last_reported":1704100051,"current_range_meters":21600,"station_id":"ce4bgi92rcd13ifvqb90","pricing_plan_id":"free"},{"bike_id":"a676bf9d-5e8e-4a48-8fa0-52f5c1fa6cd0","system_id":"levelo_inurba_marseille","lat":43.297873,"lon":5.381179,"is_reserved":false,"is_disabled":false,"rental_uris":{"android":"levelo://app?vid=a676bf9d-5e8e-4a48-8fa0-52f5c1fa6cd0","ios":"levelo://app?vid=a676bf9d-5e8e-4a48-8fa0-52f5c1fa6cd0"},"vehicle_type_id":"4","last_reported":1704100051,"current_range_meters":17600,"station_id":"ce4bgip2rcd13ifvqbb0","pricing_plan_id":"free"},{"bike_id":"d60802d6-4f47-444a-b234-883690eec05b","system_id":"levelo_inurba_marseille","lat":43.33062,"lon":5.3627,"is_reserved":false,"is_disabled":false,"rental_uris":{"android":"levelo://app?vid=d60802d6-4f47-444a-b234-883690eec05b","ios":"levelo://app?vid=d60802d6-4f47-444a-b234-883690eec05b"},"vehicle_type_id":"4","last_reported":1704100051,"current_range_meters":20000,"station_id":"","pricing_plan_id":"free"},{"bike_id":"a4f5486f-ce3d-4f22-ae0c-8d00949f3477","system_id":"levelo_inurba_marseille","lat":43.29556,"lon":5.375149,"is_reserved":false,"is_disabled":false,"rental_uris":{"android":"levelo://app?vid=a4f5486f-ce3d-4f22-ae0c-8d00949f3477","ios":"levelo://app?vid=a4f5486f-ce3d-4f22-ae0c-8d00949f3477"},"vehicle_type_id":"4","last_reported":1704100051,"current_range_meters":28800,"station_id":"ce4bgh92rcd13ifvqb50","pricing_plan_id":"free"},{"bike_id":"7119845d-00aa-4d9f-be8c-fc97d41f1380","system_id":"levelo_inurba_marseille","lat":43.297594,"lon":5.381134,"is_reserved":false,"is_disabled":false,"rental_uris":{"android":"levelo://app?vid=7119845d-00aa-4d9f-be8c-fc97d41f1380","ios":"levelo://app?vid=7119845d-00aa-4d9f-be8c-fc97d41f1380"},"vehicle_type_id":"4","last_reported":1704100051,"current_range_meters":8800,"station_id":"ce4bgip2rcd13ifvqbb0","pricing_plan_id":"free"},{"bike_id":"626950dd-5fc0-4078-936d-1a497156df2d","system_id":"levelo_inurba_marseille","lat":43.299717,"lon":5.384845,"is_reserved":false,"is_disabled":false,"rental_uris":{"android":"levelo://app?vid=626950dd-5fc0-4078-936d-1a497156df2d","ios":"levelo://app?vid=626950dd-5fc0-4078-936d-1a497156df2d"},"vehicle_type_id":"4","last_reported":1704100051,"current_range_meters":22800,"station_id":"ce4bgj92rcd13ifvqbd0","pricing_plan_id":"free"},{"bike_id":"aed562bb-89cb-4a93-83b9-9a29ffd2ec1a","system_id":"levelo_inurba_marseille","lat":43.299724,"lon":5.384848,"is_reserved":false,"is_disabled":false,"rental_uris":{"android":"levelo://app?vid=aed562bb-89cb-4a93-83b9-9a29ffd2ec1a","ios":"levelo://app?vid=aed562bb-89cb-4a93-83b9-9a29ffd2ec1a"},"vehicle_type_id":"4","last_reported":1704100051,"current_range_meters":28800,"station_id":"ce4bgj92rcd13ifvqbd0","pricing_plan_id":"free"},{"bike_id":"545ffa0b-32c2-45c2-b00c-94e9432aecc7","system_id":"levelo_inurba_marseille","lat":43.32367,"lon":5.388836,"is_reserved":false,"is_disabled":false,"rental_uris":{"android":"levelo://app?vid=545ffa0b-32c2-45c2-b00c-94e9432aecc7","ios":"levelo://app?vid=545ffa0b-32c2-45c2-b00c-94e9432aecc7"},"vehicle_type_id":"4","last_reported":1704100051,"current_range_meters":30400,"station_id":"ce4bhqp2rcd13ifvqhog","pricing_plan_id":"free"},{"bike_id":"fbe9cf4d-5756-4294-b6ea-069aba55d2fb","system_id":"levelo_inurba_marseille","lat":43.32367,"lon":5.388836,"is_reserved":false,"is_disabled":false,"rental_uris":{"android":"levelo://app?vid=fbe9cf4d-5756-4294-b6ea-069aba55d2fb","ios":"levelo://app?vid=fbe9cf4d-5756-4294-b6ea-069aba55d2fb"},"vehicle_type_id":"4","last_reported":1704100051,"current_range_meters":30400,"station_id":"ce4bhqp2rcd13ifvqhog","pricing_plan_id":"free"},{"bike_id":"fb64b198-2a57-4dbc-a2a6-55bc6bb760f2","system_id":"levelo_inurba_marseille","lat":43.32367,"lon":5.388836,"is_reserved":false,"is_disabled":false,"rental_uris":{"android":"levelo://app?vid=fb64b198-2a57-4dbc-a2a6-55bc6bb760f2","ios":"levelo://app?vid=fb64b198-2a57-4dbc-a2a6-55bc6bb760f2"},"vehicle_type_id":"4","last_reported":1704100051,"current_range_meters":30400,"station_id":"ce4bhqp2rcd13ifvqhog","pricing_plan_id":"free"},{"bike_id":"060f56e2-e696-470c-831e-785ee8beb32f","system_id":"levelo_inurba_marseille","lat":43.29601,"lon":5.381084,"is_reserved":false,"is_disabled":false,"rental_uris":{"android":"levelo://app?vid=060f56e2-e696-470c-831e-785ee8beb32f","ios":"levelo://app?vid=060f56e2-e696-470c-831e-785ee8beb32f"},"vehicle_type_id":"4","last_reported":1704100051,"current_range_meters":27600,"station_id":"ce4bgl12rcd13ifvqbo0","pricing_plan_id":"free"},{"bike_id":"9bf7edfc-0fa8-4160-be7c-f49ac050a504","system_id":"levelo_inurba_marseille","lat":43.29601,"lon":5.381084,"is_reserved":false,"is_disabled":false,"rental_uris":{"android":"levelo://app?vid=9bf7edfc-0fa8-4160-be7c-f49ac050a504","ios":"levelo://app?vid=9bf7edfc-0fa8-4160-be7c-f49ac050a504"},"vehicle_type_id":"4","last_reported":1704100051,"current_range_meters":27600,"station_id":"ce4bgl12rcd13ifvqbo0","pricing_plan_id":"free"},{"bike_id":"b5e6630f-11ce-400e-b6e7-c31aaad28b48","system_id":"levelo_inurba_marseille","lat":43.29602,"lon":5.381084,"is_reserved":false,"is_disabled":false,"rental_uris":{"android":"levelo://app?vid=b5e6630f-11ce-400e-b6e7-c31aaad28b48","ios":"levelo://app?vid=b5e6630f-11ce-400e-b6e7-c31aaad28b48"},"vehicle_type_id":"4","last_reported":1704100051,"current_range_meters":18400,"station_id":"ce4bgl12rcd13ifvqbo0","pricing_plan_id":"free"},{"bike_id":"5d25e26e-3e35-4c55-8efc-5274d0f2b30c","system_id":"levelo_inurba_marseille","lat":43.298681,"lon":5.397225,"is_reserved":false,"is_disabled":false,"rental_uris":{"android":"levelo://app?vid=5d25e26e-3e35-4c55-8efc-5274d0f2b30c","ios":"levelo://app?vid=5d25e26e-3e35-4c55-8efc-5274d0f2b30c"},"vehicle_type_id":"4","last_reported":1704100051,"current_range_meters":28000,"station_id":"ce4bh0h2rcd13ifvqd50","pricing_plan_id":"free"},{"bike_id":"aeb5e4fa-6ed2-4234-8625-b1d06e6652f3","system_id":"levelo_inurba_marseille","lat":43.30603,"lon":5.3935,"is_reserved":false,"is_disabled":false,"rental_uris":{"android":"levelo://app?vid=aeb5e4fa-6ed2-4234-8625-b1d06e6652f3","ios":"levelo://app?vid=aeb5e4fa-6ed2-4234-8625-b1d06e6652f3"},"vehicle_type_id":"4","last_reported":1704100051,"current_range_meters":20800,"station_id":"ce4bh0p2rcd13ifvqd80","pricing_plan_id":"free"},{"bike_id":"044725cd-7e51-447b-8f52-120027858a3c","system_id":"levelo_inurba_marseille","lat":43.292311,"lon":5.360731,"is_reserved":false,"is_disabled":false,"rental_uris":{"android":"levelo://app?vid=044725cd-7e51-447b-8f52-120027858a3c","ios":"levelo://app?vid=044725cd-7e51-447b-8f52-120027858a3c"},"vehicle_type_id":"4","last_reported":1704100051,"current_range_meters":26800,"station_id":"ce4bhbh2rcd13ifvqeqg","pricing_plan_id":"free"},{"bike_id":"d1a81558-5e2b-42c4-9c2e-366cb66892b9","system_id":"levelo_inurba_marseille","lat":43.292311,"lon":5.360731,"is_reserved":false,"is_disabled":false,"rental_uris":{"android":"levelo://app?vid=d1a81558-5e2b-42c4-9c2e-366cb66892b9","ios":"levelo://app?vid=d1a81558-5e2b-42c4-9c2e-366cb66892b9"},"vehicle_type_id":"4","last_reported":1704100051,"current_range_meters":27600,"station_id":"ce4bhbh2rcd13ifvqeqg","pricing_plan_id":"free"},{"bike_id":"c5b09c0b-9152-4015-840b-604eecc2d635","system_id":"levelo_inurba_marseille","lat":43.292311,"lon":5.360731,"is_reserved":false,"is_disabled":false,"rental_uris":{"android":"levelo://app?vid=c5b09c0b-9152-4015-840b-604eecc2d635","ios":"levelo://app?vid=c5b09c0b-9152-4015-840b-604eecc2d635"},"vehicle_type_id":"4","last_reported":1704100051,"current_range_meters":20800,"station_id":"ce4bhbh2rcd13ifvqeqg","pricing_plan_id":"free"},{"bike_id":"5e3a9138-fa42-40c7-aa68-35ddb7519362","system_id":"levelo_inurba_marseille","lat":43.292311,"lon":5.360731,"is_reserved":false,"is_disabled":false,"rental_uris":{"android":"levelo://app?vid=5e3a9138-fa42-40c7-aa68-35ddb7519362","ios":"levelo://app?vid=5e3a9138-fa42-40c7-aa68-35ddb7519362"},"vehicle_type_id":"4","last_reported":1704100051,"current_range_meters":22800,"station_id":"ce4bhbh2rcd13ifvqeqg","pricing_plan_id":"free"},{"bike_id":"668942d6-33c2-433a-a4c3-8da233302454","system_id":"levelo_inurba_marseille","lat":43.313291,"lon":5.396838,"is_reserved":false,"is_disabled":false,"rental_uris":{"android":"levelo://app?vid=668942d6-33c2-433a-a4c3-8da233302454","ios":"levelo://app?vid=668942d6-33c2-433a-a4c3-8da233302454"},"vehicle_type_id":"4","last_reported":1704100051,"current_range_meters":30800,"station_id":"ce4bgvp2rcd13ifvqcu0","pricing_plan_id":"free"},{"bike_id":"6cf282af-f015-416e-ae8e-36842ec1d2f2","system_id":"levelo_inurba_marseille","lat":43.309047,"lon":5.396551,"is_reserved":false,"is_disabled":false,"rental_uris":{"android":"levelo://app?vid=6cf282af-f015-416e-ae8e-36842ec1d2f2","ios":"levelo://app?vid=6cf282af-f015-416e-ae8e-36842ec1d2f2"},"vehicle_type_id":"4","last_reported":1704100051,"current_range_meters":27200,"station_id":"ce4bh012rcd13ifvqcv0","pricing_plan_id":"free"},{"bike_id":"b651b9ff-93e5-4791-9ecf-bba08b1d65c0","system_id":"levelo_inurba_marseille","lat":43.290327,"lon":5.375711,"is_reserved":false,"is_disabled":false,"rental_uris":{"android":"levelo://app?vid=b651b9ff-93e5-4791-9ecf-bba08b1d65c0","ios":"levelo://app?vid=b651b9ff-93e5-4791-9ecf-bba08b1d65c0"},"vehicle_type_id":"4","last_reported":1704100051,"current_range_meters":22000,"station_id":"ce4bh692rcd13ifvqe90","pricing_plan_id":"free"},{"bike_id":"96add341-4afc-4690-89ed-63b7367fd33c","system_id":"levelo_inurba_marseille","lat":43.289184,"lon":5.366408,"is_reserved":false,"is_disabled":false,"rental_uris":{"android":"levelo://app?vid=96add341-4afc-4690-89ed-63b7367fd33c","ios":"levelo://app?vid=96add341-4afc-4690-89ed-63b7367fd33c"},"vehicle_type_id":"4","last_reported":1704100051,"current_range_meters":25600,"station_id":"ce4bhap2rcd13ifvqek0","pricing_plan_id":"free"},{"bike_id":"a53020a9-ffe7-499f-af4d-e22def7ec0d3","system_id":"levelo_inurba_marseille","lat":43.289468,"lon":5.363719,"is_reserved":false,"is_disabled":false,"rental_uris":{"android":"levelo://app?vid=a53020a9-ffe7-499f-af4d-e22def7ec0d3","ios":"levelo://app?vid=a53020a9-ffe7-499f-af4d-e22def7ec0d3"},"vehicle_type_id":"4","last_reported":1704100051,"current_range_meters":26800,"station_id":"ce4bhc92rcd13ifvqetg","pricing_plan_id":"free"},{"bike_id":"6af5d335-5cd1-4585-a6f0-a6e99c645196","system_id":"levelo_inurba_marseille","lat":43.289468,"lon":5.363719,"is_reserved":false,"is_disabled":false,"rental_uris":{"android":"levelo://app?vid=6af5d335-5cd1-4585-a6f0-a6e99c645196","ios":"levelo://app?vid=6af5d335-5cd1-4585-a6f0-a6e99c645196"},"vehicle_type_id":"4","last_reported":1704100051,"current_range_meters":30400,"station_id":"ce4bhc92rcd13ifvqetg","pricing_plan_id":"free"},{"bike_id":"0cc7d38a-31a6-4f68-b621-15dff6c2bb66","system_id":"levelo_inurba_marseille","lat":43.292644,"lon":5.384257,"is_reserved":false,"is_disabled":false,"rental_uris":{"android":"levelo://app?vid=0cc7d38a-31a6-4f68-b621-15dff6c2bb66","ios":"levelo://app?vid=0cc7d38a-31a6-4f68-b621-15dff6c2bb66"},"vehicle_type_id":"4","last_reported":1704100051,"current_range_meters":26000,"station_id":"ce4bh692rcd13ifvqea0","pricing_plan_id":"free"},{"bike_id":"8d023cb1-4ca1-4a02-a294-704f94bd547b","system_id":"levelo_inurba_marseille","lat":43.3042,"lon":5.39747,"is_reserved":false,"is_disabled":false,"rental_uris":{"android":"levelo://app?vid=8d023cb1-4ca1-4a02-a294-704f94bd547b","ios":"levelo://app?vid=8d023cb1-4ca1-4a02-a294-704f94bd547b"},"vehicle_type_id":"4","last_reported":1704100051,"current_range_meters":29200,"station_id":"ce4bh092rcd13ifvqd20","pricing_plan_id":"free"},{"bike_id":"df7848f8-31ab-473f-9a21-20a54afe0084","system_id":"levelo_inurba_marseille","lat":43.304292,"lon":5.397521,"is_reserved":false,"is_disabled":false,"rental_uris":{"android":"levelo://app?vid=df7848f8-31ab-473f-9a21-20a54afe0084","ios":"levelo://app?vid=df7848f8-31ab-473f-9a21-20a54afe0084"},"vehicle_type_id":"4","last_reported":1704100051,"current_range_meters":13200,"station_id":"","pricing_plan_id":"free"},{"bike_id":"9d832f49-b330-492c-bca5-26b211dfab4e","system_id":"levelo_inurba_marseille","lat":43.30431,"lon":5.39754,"is_reserved":false,"is_disabled":false,"rental_uris":{"android":"levelo://app?vid=9d832f49-b330-492c-bca5-26b211dfab4e","ios":"levelo://app?vid=9d832f49-b330-492c-bca5-26b211dfab4e"},"vehicle_type_id":"4","last_reported":1704100051,"current_range_meters":12400,"station_id":"ce4bh092rcd13ifvqd20","pricing_plan_id":"free"},{"bike_id":"063d79c4-5717-41b9-8324-853db99889ec","system_id":"levelo_inurba_marseille","lat":43.30422,"lon":5.39753,"is_reserved":false,"is_disabled":false,"rental_uris":{"android":"levelo://app?vid=063d79c4-5717-41b9-8324-853db99889ec","ios":"levelo://app?vid=063d79c4-5717-41b9-8324-853db99889ec"},"vehicle_type_id":"4","last_reported":1704100051,"current_range_meters":22400,"station_id":"ce4bh092rcd13ifvqd20","pricing_plan_id":"free"},{"bike_id":"31a6626c-39fa-468c-851a-2f305d7308d6","system_id":"levelo_inurba_marseille","lat":43.304281,"lon":5.397599,"is_reserved":false,"is_disabled":false,"rental_uris":{"android":"levelo://app?vid=31a6626c-39fa-468c-851a-2f305d7308d6","ios":"levelo://app?vid=31a6626c-39fa-468c-851a-2f305d7308d6"},"vehicle_type_id":"4","last_reported":1704100051,"current_range_meters":2400,"station_id":"ce4bh092rcd13ifvqd20","pricing_plan_id":"free"},{"bike_id":"ee9c374a-110f-459f-8c32-8eaa03a75358","system_id":"levelo_inurba_marseille","lat":43.290104,"lon":5.356111,"is_reserved":false,"is_disabled":false,"rental_uris":{"android":"levelo://app?vid=ee9c374a-110f-459f-8c32-8eaa03a75358","ios":"levelo://app?vid=ee9c374a-110f-459f-8c32-8eaa03a75358"},"vehicle_type_id":"4","last_reported":1704100051,"current_range_meters":28400,"station_id":"ce4bhb92rcd13ifvqen0","pricing_plan_id":"free"},{"bike_id":"2b7df1ba-d4c7-47bd-ad62-4d6e0668f1a4","system_id":"levelo_inurba_marseille","lat":43.297879,"lon":5.393433,"is_reserved":false,"is_disabled":false,"rental_uris":{"android":"levelo://app?vid=2b7df1ba-d4c7-47bd-ad62-4d6e0668f1a4","ios":"levelo://app?vid=2b7df1ba-d4c7-47bd-ad62-4d6e0668f1a4"},"vehicle_type_id":"4","last_reported":1704100051,"current_range_meters":24400,"station_id":"chh1huq6cuj3fo74tm60","pricing_plan_id":"free"},{"bike_id":"7387261b-9bbb-49a4-a5b5-6a9abbf4d393","system_id":"levelo_inurba_marseille","lat":43.295169,"lon":5.390426,"is_reserved":false,"is_disabled":false,"rental_uris":{"android":"levelo://app?vid=7387261b-9bbb-49a4-a5b5-6a9abbf4d393","ios":"levelo://app?vid=7387261b-9bbb-49a4-a5b5-6a9abbf4d393"},"vehicle_type_id":"4","last_reported":1704100051,"current_range_meters":30400,"station_id":"ce4bh3p2rcd13ifvqdp0","pricing_plan_id":"free"},{"bike_id":"f5f383b0-6363-402d-95af-f2b428f4ca84","system_id":"levelo_inurba_marseille","lat":43.295169,"lon":5.390426,"is_reserved":false,"is_disabled":false,"rental_uris":{"android":"levelo://app?vid=f5f383b0-6363-402d-95af-f2b428f4ca84","ios":"levelo://app?vid=f5f383b0-6363-402d-95af-f2b428f4ca84"},"vehicle_type_id":"4","last_reported":1704100051,"current_range_meters":26800,"station_id":"ce4bh3p2rcd13ifvqdp0","pricing_plan_id":"free"},{"bike_id":"fdfb70d8-9890-422e-9251-12e030bcfb72","system_id":"levelo_inurba_marseille","lat":43.330442,"lon":5.389148,"is_reserved":false,"is_disabled":false,"rental_uris":{"android":"levelo://app?vid=fdfb70d8-9890-422e-9251-12e030bcfb72","ios":"levelo://app?vid=fdfb70d8-9890-422e-9251-12e030bcfb72"},"vehicle_type_id":"4","last_reported":1704100051,"current_range_meters":18400,"station_id":"ce4bhr92rcd13ifvqhrg","pricing_plan_id":"free"},{"bike_id":"3c5fc9fe-c078-404a-80d7-321a790bcff9","system_id":"levelo_inurba_marseille","lat":43.295169,"lon":5.390426,"is_reserved":false,"is_disabled":false,"rental_uris":{"android":"levelo://app?vid=3c5fc9fe-c078-404a-80d7-321a790bcff9","ios":"levelo://app?vid=3c5fc9fe-c078-404a-80d7-321a790bcff9"},"vehicle_type_id":"4","last_reported":1704100051,"current_range_meters":26000,"station_id":"ce4bh3p2rcd13ifvqdp0","pricing_plan_id":"free"},{"bike_id":"13d41c86-d361-4b17-ae49-6b5491dd4e85","system_id":"levelo_inurba_marseille","lat":43.330442,"lon":5.389148,"is_reserved":false,"is_disabled":false,"rental_uris":{"android":"levelo://app?vid=13d41c86-d361-4b17-ae49-6b5491dd4e85","ios":"levelo://app?vid=13d41c86-d361-4b17-ae49-6b5491dd4e85"},"vehicle_type_id":"4","last_reported":1704100051,"current_range_meters":29600,"station_id":"ce4bhr92rcd13ifvqhrg","pricing_plan_id":"free"},{"bike_id":"7d3f0707-26fc-41d0-8f63-88674e57e19c","system_id":"levelo_inurba_marseille","lat":43.330442,"lon":5.389148,"is_reserved":false,"is_disabled":false,"rental_uris":{"android":"levelo://app?vid=7d3f0707-26fc-41d0-8f63-88674e57e19c","ios":"levelo://app?vid=7d3f0707-26fc-41d0-8f63-88674e57e19c"},"vehicle_type_id":"4","last_reported":1704100051,"current_range_meters":12000,"station_id":"ce4bhr92rcd13ifvqhrg","pricing_plan_id":"free"},{"bike_id":"0792451a-b41a-49fc-9eee-66d8d0a36133","system_id":"levelo_inurba_marseille","lat":43.295169,"lon":5.390426,"is_reserved":false,"is_disabled":false,"rental_uris":{"android":"levelo://app?vid=0792451a-b41a-49fc-9eee-66d8d0a36133","ios":"levelo://app?vid=0792451a-b41a-49fc-9eee-66d8d0a36133"},"vehicle_type_id":"4","last_reported":1704100051,"current_range_meters":26000,"station_id":"ce4bh3p2rcd13ifvqdp0","pricing_plan_id":"free"},{"bike_id":"983ae15b-e6ac-4e63-857d-b1c023399b7b","system_id":"levelo_inurba_marseille","lat":43.330442,"lon":5.389148,"is_reserved":false,"is_disabled":false,"rental_uris":{"android":"levelo://app?vid=983ae15b-e6ac-4e63-857d-b1c023399b7b","ios":"levelo://app?vid=983ae15b-e6ac-4e63-857d-b1c023399b7b"},"vehicle_type_id":"4","last_reported":1704100051,"current_range_meters":28400,"station_id":"ce4bhr92rcd13ifvqhrg","pricing_plan_id":"free"},{"bike_id":"e070face-c9dc-473f-b403-1d5da7a61001","system_id":"levelo_inurba_marseille","lat":43.290094,"lon":5.381264,"is_reserved":false,"is_disabled":false,"rental_uris":{"android":"levelo://app?vid=e070face-c9dc-473f-b403-1d5da7a61001","ios":"levelo://app?vid=e070face-c9dc-473f-b403-1d5da7a61001"},"vehicle_type_id":"4","last_reported":1704100051,"current_range_meters":26800,"station_id":"ce4bh4p2rcd13ifvqe1g","pricing_plan_id":"free"},{"bike_id":"4281d230-8c6f-4d78-8148-9d01f308b6c9","system_id":"levelo_inurba_marseille","lat":43.303837,"lon":5.418724,"is_reserved":false,"is_disabled":false,"rental_uris":{"android":"levelo://app?vid=4281d230-8c6f-4d78-8148-9d01f308b6c9","ios":"levelo://app?vid=4281d230-8c6f-4d78-8148-9d01f308b6c9"},"vehicle_type_id":"4","last_reported":1704100051,"current_range_meters":22400,"station_id":"ce4bhop2rcd13ifvqh7g","pricing_plan_id":"free"},{"bike_id":"51547583-08e8-454e-9693-b465f0327b02","system_id":"levelo_inurba_marseille","lat":43.28856,"lon":5.358371,"is_reserved":false,"is_disabled":false,"rental_uris":{"android":"levelo://app?vid=51547583-08e8-454e-9693-b465f0327b02","ios":"levelo://app?vid=51547583-08e8-454e-9693-b465f0327b02"},"vehicle_type_id":"4","last_reported":1704100051,"current_range_meters":31200,"station_id":"ce4bhb12rcd13ifvqem0","pricing_plan_id":"free"},{"bike_id":"847fd9f7-26a3-4e89-b060-88498a4c5875","system_id":"levelo_inurba_marseille","lat":43.312609,"lon":5.401662,"is_reserved":false,"is_disabled":false,"rental_uris":{"android":"levelo://app?vid=847fd9f7-26a3-4e89-b060-88498a4c5875","ios":"levelo://app?vid=847fd9f7-26a3-4e89-b060-88498a4c5875"},"vehicle_type_id":"4","last_reported":1704100051,"current_range_meters":0,"station_id":"ce4bh092rcd13ifvqd30","pricing_plan_id":"free"},{"bike_id":"50e0d16c-cd20-400f-9694-08ea7fe19be8","system_id":"levelo_inurba_marseille","lat":43.30942,"lon":5.40134,"is_reserved":false,"is_disabled":false,"rental_uris":{"android":"levelo://app?vid=50e0d16c-cd20-400f-9694-08ea7fe19be8","ios":"levelo://app?vid=50e0d16c-cd20-400f-9694-08ea7fe19be8"},"vehicle_type_id":"4","last_reported":1704100051,"current_range_meters":4800,"station_id":"ce4bgvp2rcd13ifvqct0","pricing_plan_id":"free"},{"bike_id":"94d205cd-b17d-4b80-9f6b-9aef56339c17","system_id":"levelo_inurba_marseille","lat":43.312609,"lon":5.401662,"is_reserved":false,"is_disabled":false,"rental_uris":{"android":"levelo://app?vid=94d205cd-b17d-4b80-9f6b-9aef56339c17","ios":"levelo://app?vid=94d205cd-b17d-4b80-9f6b-9aef56339c17"},"vehicle_type_id":"4","last_reported":1704100051,"current_range_meters":8800,"station_id":"ce4bh092rcd13ifvqd30","pricing_plan_id":"free"},{"bike_id":"ad16626a-eded-4ccd-8a7d-60418570e591","system_id":"levelo_inurba_marseille","lat":43.309371,"lon":5.401449,"is_reserved":false,"is_disabled":false,"rental_uris":{"android":"levelo://app?vid=ad16626a-eded-4ccd-8a7d-60418570e591","ios":"levelo://app?vid=ad16626a-eded-4ccd-8a7d-60418570e591"},"vehicle_type_id":"4","last_reported":1704100051,"current_range_meters":28800,"station_id":"ce4bgvp2rcd13ifvqct0","pricing_plan_id":"free"},{"bike_id":"0a4ff4c2-5407-45a7-8bd8-681bae981765","system_id":"levelo_inurba_marseille","lat":43.312609,"lon":5.401662,"is_reserved":false,"is_disabled":false,"rental_uris":{"android":"levelo://app?vid=0a4ff4c2-5407-45a7-8bd8-681bae981765","ios":"levelo://app?vid=0a4ff4c2-5407-45a7-8bd8-681bae981765"},"vehicle_type_id":"4","last_reported":1704100051,"current_range_meters":0,"station_id":"ce4bh092rcd13ifvqd30","pricing_plan_id":"free"},{"bike_id":"bf36012b-cd70-4675-a60b-613d398ab376","system_id":"levelo_inurba_marseille","lat":43.30642,"lon":5.401031,"is_reserved":false,"is_disabled":false,"rental_uris":{"android":"levelo://app?vid=bf36012b-cd70-4675-a60b-613d398ab376","ios":"levelo://app?vid=bf36012b-cd70-4675-a60b-613d398ab376"},"vehicle_type_id":"4","last_reported":1704100051,"current_range_meters":24800,"station_id":"ce4bh112rcd13ifvqda0","pricing_plan_id":"free"},{"bike_id":"d628ee32-1c50-4c11-9b99-9f24a97552ff","system_id":"levelo_inurba_marseille","lat":43.309371,"lon":5.401449,"is_reserved":false,"is_disabled":false,"rental_uris":{"android":"levelo://app?vid=d628ee32-1c50-4c11-9b99-9f24a97552ff","ios":"levelo://app?vid=d628ee32-1c50-4c11-9b99-9f24a97552ff"},"vehicle_type_id":"4","last_reported":1704100051,"current_range_meters":23200,"station_id":"ce4bgvp2rcd13ifvqct0","pricing_plan_id":"free"},{"bike_id":"eb3ae86c-2054-4803-a383-f0a5e653abd9","system_id":"levelo_inurba_marseille","lat":43.301117,"lon":5.398795,"is_reserved":false,"is_disabled":false,"rental_uris":{"android":"levelo://app?vid=eb3ae86c-2054-4803-a383-f0a5e653abd9","ios":"levelo://app?vid=eb3ae86c-2054-4803-a383-f0a5e653abd9"},"vehicle_type_id":"4","last_reported":1704100051,"current_range_meters":27200,"station_id":"ce4bh0h2rcd13ifvqd40","pricing_plan_id":"free"},{"bike_id":"133140b9-2d9b-44d4-927b-6b4e2588f628","system_id":"levelo_inurba_marseille","lat":43.298681,"lon":5.397225,"is_reserved":false,"is_disabled":false,"rental_uris":{"android":"levelo://app?vid=133140b9-2d9b-44d4-927b-6b4e2588f628","ios":"levelo://app?vid=133140b9-2d9b-44d4-927b-6b4e2588f628"},"vehicle_type_id":"4","last_reported":1704100051,"current_range_meters":26800,"station_id":"ce4bh0h2rcd13ifvqd50","pricing_plan_id":"free"},{"bike_id":"753348a2-941d-4b13-9aea-1f3b95c16e3c","system_id":"levelo_inurba_marseille","lat":43.286591,"lon":5.363346,"is_reserved":false,"is_disabled":false,"rental_uris":{"android":"levelo://app?vid=753348a2-941d-4b13-9aea-1f3b95c16e3c","ios":"levelo://app?vid=753348a2-941d-4b13-9aea-1f3b95c16e3c"},"vehicle_type_id":"4","last_reported":1704100051,"current_range_meters":31200,"station_id":"ce4bhah2rcd13ifvqej0","pricing_plan_id":"free"},{"bike_id":"12eb869d-7aa7-49cd-b610-46ac47dafd6d","system_id":"levelo_inurba_marseille","lat":43.286961,"lon":5.373785,"is_reserved":false,"is_disabled":false,"rental_uris":{"android":"levelo://app?vid=12eb869d-7aa7-49cd-b610-46ac47dafd6d","ios":"levelo://app?vid=12eb869d-7aa7-49cd-b610-46ac47dafd6d"},"vehicle_type_id":"4","last_reported":1704100051,"current_range_meters":24800,"station_id":"ce4bh3p2rcd13ifvqdq0","pricing_plan_id":"free"},{"bike_id":"8f86b6e9-fc13-4a10-84aa-29b2d74c7608","system_id":"levelo_inurba_marseille","lat":43.286591,"lon":5.363346,"is_reserved":false,"is_disabled":false,"rental_uris":{"android":"levelo://app?vid=8f86b6e9-fc13-4a10-84aa-29b2d74c7608","ios":"levelo://app?vid=8f86b6e9-fc13-4a10-84aa-29b2d74c7608"},"vehicle_type_id":"4","last_reported":1704100051,"current_range_meters":26800,"station_id":"ce4bhah2rcd13ifvqej0","pricing_plan_id":"free"},{"bike_id":"ac7b866f-77c5-4f8e-9c2e-59c215ad3166","system_id":"levelo_inurba_marseille","lat":43.295196,"lon":5.39397,"is_reserved":false,"is_disabled":false,"rental_uris":{"android":"levelo://app?vid=ac7b866f-77c5-4f8e-9c2e-59c215ad3166","ios":"levelo://app?vid=ac7b866f-77c5-4f8e-9c2e-59c215ad3166"},"vehicle_type_id":"4","last_reported":1704100051,"current_range_meters":400,"station_id":"ce4bh292rcd13ifvqdf0","pricing_plan_id":"free"},{"bike_id":"785057e4-a4b4-441c-a441-d264c94794ed","system_id":"levelo_inurba_marseille","lat":43.295194,"lon":5.39397,"is_reserved":false,"is_disabled":false,"rental_uris":{"android":"levelo://app?vid=785057e4-a4b4-441c-a441-d264c94794ed","ios":"levelo://app?vid=785057e4-a4b4-441c-a441-d264c94794ed"},"vehicle_type_id":"4","last_reported":1704100051,"current_range_meters":0,"station_id":"ce4bh292rcd13ifvqdf0","pricing_plan_id":"free"},{"bike_id":"7cf22cec-4334-49f0-8e7c-9064c07425fb","system_id":"levelo_inurba_marseille","lat":43.295196,"lon":5.39397,"is_reserved":false,"is_disabled":false,"rental_uris":{"android":"levelo://app?vid=7cf22cec-4334-49f0-8e7c-9064c07425fb","ios":"levelo://app?vid=7cf22cec-4334-49f0-8e7c-9064c07425fb"},"vehicle_type_id":"4","last_reported":1704100051,"current_range_meters":20800,"station_id":"ce4bh292rcd13ifvqdf0","pricing_plan_id":"free"},{"bike_id":"f8698ac3-02b9-46f1-981d-c9335383ad4d","system_id":"levelo_inurba_marseille","lat":43.295194,"lon":5.39397,"is_reserved":false,"is_disabled":false,"rental_uris":{"android":"levelo://app?vid=f8698ac3-02b9-46f1-981d-c9335383ad4d","ios":"levelo://app?vid=f8698ac3-02b9-46f1-981d-c9335383ad4d"},"vehicle_type_id":"4","last_reported":1704100051,"current_range_meters":19600,"station_id":"ce4bh292rcd13ifvqdf0","pricing_plan_id":"free"},{"bike_id":"37a2a7e6-112e-41e3-85ea-13c411fe146b","system_id":"levelo_inurba_marseille","lat":43.290336,"lon":5.386425,"is_reserved":false,"is_disabled":false,"rental_uris":{"android":"levelo://app?vid=37a2a7e6-112e-41e3-85ea-13c411fe146b","ios":"levelo://app?vid=37a2a7e6-112e-41e3-85ea-13c411fe146b"},"vehicle_type_id":"4","last_reported":1704100051,"current_range_meters":22400,"station_id":"ce4bh4p2rcd13ifvqe0g","pricing_plan_id":"free"},{"bike_id":"a32f45e5-7b35-4e4c-b435-e11c51b0e22a","system_id":"levelo_inurba_marseille","lat":43.284214,"lon":5.349706,"is_reserved":false,"is_disabled":false,"rental_uris":{"android":"levelo://app?vid=a32f45e5-7b35-4e4c-b435-e11c51b0e22a","ios":"levelo://app?vid=a32f45e5-7b35-4e4c-b435-e11c51b0e22a"},"vehicle_type_id":"4","last_reported":1704100051,"current_range_meters":18400,"station_id":"ce4bhbh2rcd13ifvqepg","pricing_plan_id":"free"},{"bike_id":"ae0fd938-f7c5-4c2b-a600-cbfe2628e765","system_id":"levelo_inurba_marseille","lat":43.29197,"lon":5.39329,"is_reserved":false,"is_disabled":false,"rental_uris":{"android":"levelo://app?vid=ae0fd938-f7c5-4c2b-a600-cbfe2628e765","ios":"levelo://app?vid=ae0fd938-f7c5-4c2b-a600-cbfe2628e765"},"vehicle_type_id":"4","last_reported":1704100051,"current_range_meters":26400,"station_id":"ce4bh192rcd13ifvqdd0","pricing_plan_id":"free"},{"bike_id":"dd8e8ce6-ee97-4550-8572-bf239e7f9510","system_id":"levelo_inurba_marseille","lat":43.284538,"lon":5.358657,"is_reserved":false,"is_disabled":false,"rental_uris":{"android":"levelo://app?vid=dd8e8ce6-ee97-4550-8572-bf239e7f9510","ios":"levelo://app?vid=dd8e8ce6-ee97-4550-8572-bf239e7f9510"},"vehicle_type_id":"4","last_reported":1704100051,"current_range_meters":26800,"station_id":"ce4bhah2rcd13ifvqei0","pricing_plan_id":"free"},{"bike_id":"6d6fe783-1222-4da5-8869-6556a448e627","system_id":"levelo_inurba_marseille","lat":43.285856,"lon":5.350771,"is_reserved":false,"is_disabled":false,"rental_uris":{"android":"levelo://app?vid=6d6fe783-1222-4da5-8869-6556a448e627","ios":"levelo://app?vid=6d6fe783-1222-4da5-8869-6556a448e627"},"vehicle_type_id":"4","last_reported":1704100051,"current_range_meters":30800,"station_id":"ce4bhch2rcd13ifvqeug","pricing_plan_id":"free"},{"bike_id":"93f1d54e-ba6c-4f06-a606-3a080313111d","system_id":"levelo_inurba_marseille","lat":43.285856,"lon":5.350771,"is_reserved":false,"is_disabled":false,"rental_uris":{"android":"levelo://app?vid=93f1d54e-ba6c-4f06-a606-3a080313111d","ios":"levelo://app?vid=93f1d54e-ba6c-4f06-a606-3a080313111d"},"vehicle_type_id":"4","last_reported":1704100051,"current_range_meters":21200,"station_id":"ce4bhch2rcd13ifvqeug","pricing_plan_id":"free"},{"bike_id":"483d05e9-94e2-4fd3-b55a-84b8972f23be","system_id":"levelo_inurba_marseille","lat":43.285848,"lon":5.350787,"is_reserved":false,"is_disabled":false,"rental_uris":{"android":"levelo://app?vid=483d05e9-94e2-4fd3-b55a-84b8972f23be","ios":"levelo://app?vid=483d05e9-94e2-4fd3-b55a-84b8972f23be"},"vehicle_type_id":"4","last_reported":1704100051,"current_range_meters":21200,"station_id":"ce4bhch2rcd13ifvqeug","pricing_plan_id":"free"},{"bike_id":"2e9e36c0-6122-4cfe-bac7-03161815aaa3","system_id":"levelo_inurba_marseille","lat":43.285856,"lon":5.350771,"is_reserved":false,"is_disabled":false,"rental_uris":{"android":"levelo://app?vid=2e9e36c0-6122-4cfe-bac7-03161815aaa3","ios":"levelo://app?vid=2e9e36c0-6122-4cfe-bac7-03161815aaa3"},"vehicle_type_id":"4","last_reported":1704100051,"current_range_meters":29600,"station_id":"ce4bhch2rcd13ifvqeug","pricing_plan_id":"free"},{"bike_id":"1b114ff4-acf6-4ea3-a5f5-1f9d854ad175","system_id":"levelo_inurba_marseille","lat":43.285856,"lon":5.350771,"is_reserved":false,"is_disabled":false,"rental_uris":{"android":"levelo://app?vid=1b114ff4-acf6-4ea3-a5f5-1f9d854ad175","ios":"levelo://app?vid=1b114ff4-acf6-4ea3-a5f5-1f9d854ad175"},"vehicle_type_id":"4","last_reported":1704100051,"current_range_meters":28000,"station_id":"ce4bhch2rcd13ifvqeug","pricing_plan_id":"free"},{"bike_id":"a6e8f322-2ea4-4879-96e8-683bd623d03c","system_id":"levelo_inurba_marseille","lat":43.285856,"lon":5.350771,"is_reserved":false,"is_disabled":false,"rental_uris":{"android":"levelo://app?vid=a6e8f322-2ea4-4879-96e8-683bd623d03c","ios":"levelo://app?vid=a6e8f322-2ea4-4879-96e8-683bd623d03c"},"vehicle_type_id":"4","last_reported":1704100051,"current_range_meters":13600,"station_id":"ce4bhch2rcd13ifvqeug","pricing_plan_id":"free"},{"bike_id":"cb2ee55a-ee57-41e5-b85f-bae49a78399d","system_id":"levelo_inurba_marseille","lat":43.28614,"lon":5.351,"is_reserved":false,"is_disabled":false,"rental_uris":{"android":"levelo://app?vid=cb2ee55a-ee57-41e5-b85f-bae49a78399d","ios":"levelo://app?vid=cb2ee55a-ee57-41e5-b85f-bae49a78399d"},"vehicle_type_id":"4","last_reported":1704100051,"current_range_meters":21200,"station_id":"ce4bhch2rcd13ifvqeug","pricing_plan_id":"free"},{"bike_id":"9712f9d9-d7ea-4e92-a7aa-c97565ad50a6","system_id":"levelo_inurba_marseille","lat":43.28613,"lon":5.35099,"is_reserved":false,"is_disabled":false,"rental_uris":{"android":"levelo://app?vid=9712f9d9-d7ea-4e92-a7aa-c97565ad50a6","ios":"levelo://app?vid=9712f9d9-d7ea-4e92-a7aa-c97565ad50a6"},"vehicle_type_id":"4","last_reported":1704100051,"current_range_meters":24400,"station_id":"ce4bhch2rcd13ifvqeug","pricing_plan_id":"free"},{"bike_id":"498530ed-bb8c-4d7a-8d52-9d782cfbfd44","system_id":"levelo_inurba_marseille","lat":43.290466,"lon":5.392524,"is_reserved":false,"is_disabled":false,"rental_uris":{"android":"levelo://app?vid=498530ed-bb8c-4d7a-8d52-9d782cfbfd44","ios":"levelo://app?vid=498530ed-bb8c-4d7a-8d52-9d782cfbfd44"},"vehicle_type_id":"4","last_reported":1704100051,"current_range_meters":1600,"station_id":"","pricing_plan_id":"free"},{"bike_id":"c183a73d-a524-4337-b676-43f7789a3af5","system_id":"levelo_inurba_marseille","lat":43.283998,"lon":5.375062,"is_reserved":false,"is_disabled":false,"rental_uris":{"android":"levelo://app?vid=c183a73d-a524-4337-b676-43f7789a3af5","ios":"levelo://app?vid=c183a73d-a524-4337-b676-43f7789a3af5"},"vehicle_type_id":"4","last_reported":1704100051,"current_range_meters":28400,"station_id":"ce4bh412rcd13ifvqds0","pricing_plan_id":"free"},{"bike_id":"fe5e9184-0079-45ef-8e10-4eace9743de4","system_id":"levelo_inurba_marseille","lat":43.295669,"lon":5.399651,"is_reserved":false,"is_disabled":false,"rental_uris":{"android":"levelo://app?vid=fe5e9184-0079-45ef-8e10-4eace9743de4","ios":"levelo://app?vid=fe5e9184-0079-45ef-8e10-4eace9743de4"},"vehicle_type_id":"4","last_reported":1704100051,"current_range_meters":17200,"station_id":"","pricing_plan_id":"free"},{"bike_id":"4c1e0d8e-f42a-4ff2-82be-eb70e1c68140","system_id":"levelo_inurba_marseille","lat":43.295713,"lon":5.399639,"is_reserved":false,"is_disabled":false,"rental_uris":{"android":"levelo://app?vid=4c1e0d8e-f42a-4ff2-82be-eb70e1c68140","ios":"levelo://app?vid=4c1e0d8e-f42a-4ff2-82be-eb70e1c68140"},"vehicle_type_id":"4","last_reported":1704100051,"current_range_meters":30400,"station_id":"ce4bh312rcd13ifvqdj0","pricing_plan_id":"free"},{"bike_id":"a988206a-5075-42c1-90bb-44559a8d8d95","system_id":"levelo_inurba_marseille","lat":43.295713,"lon":5.399639,"is_reserved":false,"is_disabled":false,"rental_uris":{"android":"levelo://app?vid=a988206a-5075-42c1-90bb-44559a8d8d95","ios":"levelo://app?vid=a988206a-5075-42c1-90bb-44559a8d8d95"},"vehicle_type_id":"4","last_reported":1704100051,"current_range_meters":31200,"station_id":"ce4bh312rcd13ifvqdj0","pricing_plan_id":"free"},{"bike_id":"1104ccd1-9157-49ab-841b-de621b8c2554","system_id":"levelo_inurba_marseille","lat":43.286687,"lon":5.386584,"is_reserved":false,"is_disabled":false,"rental_uris":{"android":"levelo://app?vid=1104ccd1-9157-49ab-841b-de621b8c2554","ios":"levelo://app?vid=1104ccd1-9157-49ab-841b-de621b8c2554"},"vehicle_type_id":"4","last_reported":1704100051,"current_range_meters":14400,"station_id":"ce4bh492rcd13ifvqdug","pricing_plan_id":"free"},{"bike_id":"1e1351b8-98c2-4e11-ae64-720c92776dc3","system_id":"levelo_inurba_marseille","lat":43.319179,"lon":5.407725,"is_reserved":false,"is_disabled":false,"rental_uris":{"android":"levelo://app?vid=1e1351b8-98c2-4e11-ae64-720c92776dc3","ios":"levelo://app?vid=1e1351b8-98c2-4e11-ae64-720c92776dc3"},"vehicle_type_id":"4","last_reported":1704100051,"current_range_meters":26800,"station_id":"ce4bhq12rcd13ifvqhig","pricing_plan_id":"free"},{"bike_id":"ed4bdaa8-1388-432c-9707-9410a7cddf90","system_id":"levelo_inurba_marseille","lat":43.319179,"lon":5.407725,"is_reserved":false,"is_disabled":false,"rental_uris":{"android":"levelo://app?vid=ed4bdaa8-1388-432c-9707-9410a7cddf90","ios":"levelo://app?vid=ed4bdaa8-1388-432c-9707-9410a7cddf90"},"vehicle_type_id":"4","last_reported":1704100051,"current_range_meters":21200,"station_id":"ce4bhq12rcd13ifvqhig","pricing_plan_id":"free"},{"bike_id":"8af6642b-e526-4770-8a06-6b115e68c32b","system_id":"levelo_inurba_marseille","lat":43.33728,"lon":5.39177,"is_reserved":false,"is_disabled":false,"rental_uris":{"android":"levelo://app?vid=8af6642b-e526-4770-8a06-6b115e68c32b","ios":"levelo://app?vid=8af6642b-e526-4770-8a06-6b115e68c32b"},"vehicle_type_id":"4","last_reported":1704100051,"current_range_meters":25600,"station_id":"ce4bhr92rcd13ifvqhsg","pricing_plan_id":"free"},{"bike_id":"1860c054-e673-4084-804e-8832a59aeb53","system_id":"levelo_inurba_marseille","lat":43.337168,"lon":5.391825,"is_reserved":false,"is_disabled":false,"rental_uris":{"android":"levelo://app?vid=1860c054-e673-4084-804e-8832a59aeb53","ios":"levelo://app?vid=1860c054-e673-4084-804e-8832a59aeb53"},"vehicle_type_id":"4","last_reported":1704100051,"current_range_meters":29200,"station_id":"ce4bhr92rcd13ifvqhsg","pricing_plan_id":"free"},{"bike_id":"9c89ccbb-1205-42f3-9670-7f7c8e469aa6","system_id":"levelo_inurba_marseille","lat":43.323464,"lon":5.406297,"is_reserved":false,"is_disabled":false,"rental_uris":{"android":"levelo://app?vid=9c89ccbb-1205-42f3-9670-7f7c8e469aa6","ios":"levelo://app?vid=9c89ccbb-1205-42f3-9670-7f7c8e469aa6"},"vehicle_type_id":"4","last_reported":1704100051,"current_range_meters":28000,"station_id":"ce4bhq92rcd13ifvqhjg","pricing_plan_id":"free"},{"bike_id":"4757ef8b-2edd-47d2-895c-62015e471eff","system_id":"levelo_inurba_marseille","lat":43.284793,"lon":5.384113,"is_reserved":false,"is_disabled":false,"rental_uris":{"android":"levelo://app?vid=4757ef8b-2edd-47d2-895c-62015e471eff","ios":"levelo://app?vid=4757ef8b-2edd-47d2-895c-62015e471eff"},"vehicle_type_id":"4","last_reported":1704100051,"current_range_meters":24400,"station_id":"ce4bh512rcd13ifvqe3g","pricing_plan_id":"free"},{"bike_id":"cd40f12f-969d-4461-bb26-5730689c65fa","system_id":"levelo_inurba_marseille","lat":43.297946,"lon":5.404063,"is_reserved":false,"is_disabled":false,"rental_uris":{"android":"levelo://app?vid=cd40f12f-969d-4461-bb26-5730689c65fa","ios":"levelo://app?vid=cd40f12f-969d-4461-bb26-5730689c65fa"},"vehicle_type_id":"4","last_reported":1704100051,"current_range_meters":26400,"station_id":"ce4bh112rcd13ifvqd90","pricing_plan_id":"free"},{"bike_id":"73baccf2-2f35-40cb-b44e-6d50cd41c007","system_id":"levelo_inurba_marseille","lat":43.29795,"lon":5.404086,"is_reserved":false,"is_disabled":false,"rental_uris":{"android":"levelo://app?vid=73baccf2-2f35-40cb-b44e-6d50cd41c007","ios":"levelo://app?vid=73baccf2-2f35-40cb-b44e-6d50cd41c007"},"vehicle_type_id":"4","last_reported":1704100051,"current_range_meters":23600,"station_id":"ce4bh112rcd13ifvqd90","pricing_plan_id":"free"},{"bike_id":"796dadc1-2613-4ec1-a4dd-ba41f9b18f47","system_id":"levelo_inurba_marseille","lat":43.288501,"lon":5.393087,"is_reserved":false,"is_disabled":false,"rental_uris":{"android":"levelo://app?vid=796dadc1-2613-4ec1-a4dd-ba41f9b18f47","ios":"levelo://app?vid=796dadc1-2613-4ec1-a4dd-ba41f9b18f47"},"vehicle_type_id":"4","last_reported":1704100051,"current_range_meters":31200,"station_id":"ce4bh2p2rcd13ifvqdi0","pricing_plan_id":"free"},{"bike_id":"4d596014-02c1-43ee-b3e0-efc2b6f1b029","system_id":"levelo_inurba_marseille","lat":43.275625,"lon":5.384392,"is_reserved":false,"is_disabled":false,"rental_uris":{"android":"levelo://app?vid=4d596014-02c1-43ee-b3e0-efc2b6f1b029","ios":"levelo://app?vid=4d596014-02c1-43ee-b3e0-efc2b6f1b029"},"vehicle_type_id":"4","last_reported":1704100051,"current_range_meters":21600,"station_id":"ce4bhh92rcd13ifvqfi0","pricing_plan_id":"free"},{"bike_id":"d731d671-a3f5-4243-ac4b-1201edd40e88","system_id":"levelo_inurba_marseille","lat":43.284217,"lon":5.349697,"is_reserved":false,"is_disabled":false,"rental_uris":{"android":"levelo://app?vid=d731d671-a3f5-4243-ac4b-1201edd40e88","ios":"levelo://app?vid=d731d671-a3f5-4243-ac4b-1201edd40e88"},"vehicle_type_id":"4","last_reported":1704100051,"current_range_meters":31200,"station_id":"ce4bhbh2rcd13ifvqepg","pricing_plan_id":"free"},{"bike_id":"6e2658c3-ee1d-4a87-bc80-9fc40d9c8421","system_id":"levelo_inurba_marseille","lat":43.284219,"lon":5.3497,"is_reserved":false,"is_disabled":false,"rental_uris":{"android":"levelo://app?vid=6e2658c3-ee1d-4a87-bc80-9fc40d9c8421","ios":"levelo://app?vid=6e2658c3-ee1d-4a87-bc80-9fc40d9c8421"},"vehicle_type_id":"4","last_reported":1704100051,"current_range_meters":27200,"station_id":"ce4bhbh2rcd13ifvqepg","pricing_plan_id":"free"},{"bike_id":"815df7b1-eb70-49f9-9b93-bdef005a1639","system_id":"levelo_inurba_marseille","lat":43.284219,"lon":5.3497,"is_reserved":false,"is_disabled":false,"rental_uris":{"android":"levelo://app?vid=815df7b1-eb70-49f9-9b93-bdef005a1639","ios":"levelo://app?vid=815df7b1-eb70-49f9-9b93-bdef005a1639"},"vehicle_type_id":"4","last_reported":1704100051,"current_range_meters":30800,"station_id":"ce4bhbh2rcd13ifvqepg","pricing_plan_id":"free"},{"bike_id":"07ce3283-9bab-40bf-8b26-72b3cfef7452","system_id":"levelo_inurba_marseille","lat":43.284219,"lon":5.3497,"is_reserved":false,"is_disabled":false,"rental_uris":{"android":"levelo://app?vid=07ce3283-9bab-40bf-8b26-72b3cfef7452","ios":"levelo://app?vid=07ce3283-9bab-40bf-8b26-72b3cfef7452"},"vehicle_type_id":"4","last_reported":1704100051,"current_range_meters":31600,"station_id":"ce4bhbh2rcd13ifvqepg","pricing_plan_id":"free"},{"bike_id":"ca15616b-bc32-4f31-a472-8a68ce715a48","system_id":"levelo_inurba_marseille","lat":43.284219,"lon":5.3497,"is_reserved":false,"is_disabled":false,"rental_uris":{"android":"levelo://app?vid=ca15616b-bc32-4f31-a472-8a68ce715a48","ios":"levelo://app?vid=ca15616b-bc32-4f31-a472-8a68ce715a48"},"vehicle_type_id":"4","last_reported":1704100051,"current_range_meters":4800,"station_id":"ce4bhbh2rcd13ifvqepg","pricing_plan_id":"free"},{"bike_id":"fddd2611-feab-4620-876b-52cc1e62e134","system_id":"levelo_inurba_marseille","lat":43.284219,"lon":5.3497,"is_reserved":false,"is_disabled":false,"rental_uris":{"android":"levelo://app?vid=fddd2611-feab-4620-876b-52cc1e62e134","ios":"levelo://app?vid=fddd2611-feab-4620-876b-52cc1e62e134"},"vehicle_type_id":"4","last_reported":1704100051,"current_range_meters":31600,"station_id":"ce4bhbh2rcd13ifvqepg","pricing_plan_id":"free"},{"bike_id":"d3ce4a56-4493-4b64-9fa2-2546baae3bf6","system_id":"levelo_inurba_marseille","lat":43.289363,"lon":5.396322,"is_reserved":false,"is_disabled":false,"rental_uris":{"android":"levelo://app?vid=d3ce4a56-4493-4b64-9fa2-2546baae3bf6","ios":"levelo://app?vid=d3ce4a56-4493-4b64-9fa2-2546baae3bf6"},"vehicle_type_id":"4","last_reported":1704100051,"current_range_meters":24000,"station_id":"ce4bh3h2rcd13ifvqdn0","pricing_plan_id":"free"},{"bike_id":"bdf49905-920b-42a7-b34a-4afd69b8e0b3","system_id":"levelo_inurba_marseille","lat":43.28271,"lon":5.35065,"is_reserved":false,"is_disabled":false,"rental_uris":{"android":"levelo://app?vid=bdf49905-920b-42a7-b34a-4afd69b8e0b3","ios":"levelo://app?vid=bdf49905-920b-42a7-b34a-4afd69b8e0b3"},"vehicle_type_id":"4","last_reported":1704100051,"current_range_meters":16400,"station_id":"ce4bhbp2rcd13ifvqerg","pricing_plan_id":"free"},{"bike_id":"906badcf-d8c0-4cd9-9d8a-e48749822c0c","system_id":"levelo_inurba_marseille","lat":43.283502,"lon":5.386471,"is_reserved":false,"is_disabled":false,"rental_uris":{"android":"levelo://app?vid=906badcf-d8c0-4cd9-9d8a-e48749822c0c","ios":"levelo://app?vid=906badcf-d8c0-4cd9-9d8a-e48749822c0c"},"vehicle_type_id":"4","last_reported":1704100051,"current_range_meters":28000,"station_id":"ce4bh492rcd13ifvqdvg","pricing_plan_id":"free"},{"bike_id":"478ea88e-c405-403d-a627-8dfc8e2d7cbc","system_id":"levelo_inurba_marseille","lat":43.28039,"lon":5.36937,"is_reserved":false,"is_disabled":false,"rental_uris":{"android":"levelo://app?vid=478ea88e-c405-403d-a627-8dfc8e2d7cbc","ios":"levelo://app?vid=478ea88e-c405-403d-a627-8dfc8e2d7cbc"},"vehicle_type_id":"4","last_reported":1704100051,"current_range_meters":31200,"station_id":"ce4bha12rcd13ifvqef0","pricing_plan_id":"free"},{"bike_id":"784d0d32-a607-4226-b336-1b61e44b43e3","system_id":"levelo_inurba_marseille","lat":43.280366,"lon":5.369392,"is_reserved":false,"is_disabled":false,"rental_uris":{"android":"levelo://app?vid=784d0d32-a607-4226-b336-1b61e44b43e3","ios":"levelo://app?vid=784d0d32-a607-4226-b336-1b61e44b43e3"},"vehicle_type_id":"4","last_reported":1704100051,"current_range_meters":29600,"station_id":"ce4bha12rcd13ifvqef0","pricing_plan_id":"free"},{"bike_id":"90ec1a9d-ccff-4a21-9cfc-32fb0df34b6c","system_id":"levelo_inurba_marseille","lat":43.280382,"lon":5.369291,"is_reserved":false,"is_disabled":false,"rental_uris":{"android":"levelo://app?vid=90ec1a9d-ccff-4a21-9cfc-32fb0df34b6c","ios":"levelo://app?vid=90ec1a9d-ccff-4a21-9cfc-32fb0df34b6c"},"vehicle_type_id":"4","last_reported":1704100051,"current_range_meters":30400,"station_id":"ce4bha12rcd13ifvqef0","pricing_plan_id":"free"},{"bike_id":"77b1be3b-5ad4-468a-a9de-f30fb56e94ca","system_id":"levelo_inurba_marseille","lat":43.280382,"lon":5.369291,"is_reserved":false,"is_disabled":false,"rental_uris":{"android":"levelo://app?vid=77b1be3b-5ad4-468a-a9de-f30fb56e94ca","ios":"levelo://app?vid=77b1be3b-5ad4-468a-a9de-f30fb56e94ca"},"vehicle_type_id":"4","last_reported":1704100051,"current_range_meters":30000,"station_id":"ce4bha12rcd13ifvqef0","pricing_plan_id":"free"},{"bike_id":"92b4fd33-3133-4c8a-b8e7-7c2f680a9df5","system_id":"levelo_inurba_marseille","lat":43.292571,"lon":5.409107,"is_reserved":false,"is_disabled":false,"rental_uris":{"android":"levelo://app?vid=92b4fd33-3133-4c8a-b8e7-7c2f680a9df5","ios":"levelo://app?vid=92b4fd33-3133-4c8a-b8e7-7c2f680a9df5"},"vehicle_type_id":"4","last_reported":1704100051,"current_range_meters":18400,"station_id":"ce4bh192rcd13ifvqdc0","pricing_plan_id":"free"},{"bike_id":"1df8fc05-2e03-46a3-81d2-82c36938aca9","system_id":"levelo_inurba_marseille","lat":43.28573,"lon":5.394992,"is_reserved":false,"is_disabled":false,"rental_uris":{"android":"levelo://app?vid=1df8fc05-2e03-46a3-81d2-82c36938aca9","ios":"levelo://app?vid=1df8fc05-2e03-46a3-81d2-82c36938aca9"},"vehicle_type_id":"4","last_reported":1704100051,"current_range_meters":26400,"station_id":"ce4bh292rcd13ifvqdg0","pricing_plan_id":"free"},{"bike_id":"f182ad30-578d-439a-b895-037c49f93cbb","system_id":"levelo_inurba_marseille","lat":43.28573,"lon":5.394992,"is_reserved":false,"is_disabled":false,"rental_uris":{"android":"levelo://app?vid=f182ad30-578d-439a-b895-037c49f93cbb","ios":"levelo://app?vid=f182ad30-578d-439a-b895-037c49f93cbb"},"vehicle_type_id":"4","last_reported":1704100051,"current_range_meters":28800,"station_id":"ce4bh292rcd13ifvqdg0","pricing_plan_id":"free"},{"bike_id":"64188e5f-ba41-4f73-8ef2-66a949ae074f","system_id":"levelo_inurba_marseille","lat":43.326605,"lon":5.409903,"is_reserved":false,"is_disabled":false,"rental_uris":{"android":"levelo://app?vid=64188e5f-ba41-4f73-8ef2-66a949ae074f","ios":"levelo://app?vid=64188e5f-ba41-4f73-8ef2-66a949ae074f"},"vehicle_type_id":"4","last_reported":1704100051,"current_range_meters":21200,"station_id":"ce4bhpp2rcd13ifvqhgg","pricing_plan_id":"free"},{"bike_id":"f9b0a9c8-24c1-4156-a225-5ec62d466306","system_id":"levelo_inurba_marseille","lat":43.326605,"lon":5.409903,"is_reserved":false,"is_disabled":false,"rental_uris":{"android":"levelo://app?vid=f9b0a9c8-24c1-4156-a225-5ec62d466306","ios":"levelo://app?vid=f9b0a9c8-24c1-4156-a225-5ec62d466306"},"vehicle_type_id":"4","last_reported":1704100051,"current_range_meters":17200,"station_id":"ce4bhpp2rcd13ifvqhgg","pricing_plan_id":"free"},{"bike_id":"7c55af57-c780-4eb0-bb61-99e712d20ce8","system_id":"levelo_inurba_marseille","lat":43.326605,"lon":5.409903,"is_reserved":false,"is_disabled":false,"rental_uris":{"android":"levelo://app?vid=7c55af57-c780-4eb0-bb61-99e712d20ce8","ios":"levelo://app?vid=7c55af57-c780-4eb0-bb61-99e712d20ce8"},"vehicle_type_id":"4","last_reported":1704100051,"current_range_meters":30800,"station_id":"ce4bhpp2rcd13ifvqhgg","pricing_plan_id":"free"},{"bike_id":"6f3995e4-4163-4426-b8ef-cdf23e3f8ce3","system_id":"levelo_inurba_marseille","lat":43.304188,"lon":5.412904,"is_reserved":false,"is_disabled":false,"rental_uris":{"android":"levelo://app?vid=6f3995e4-4163-4426-b8ef-cdf23e3f8ce3","ios":"levelo://app?vid=6f3995e4-4163-4426-b8ef-cdf23e3f8ce3"},"vehicle_type_id":"4","last_reported":1704100051,"current_range_meters":27200,"station_id":"ce4bhop2rcd13ifvqh8g","pricing_plan_id":"free"},{"bike_id":"cbb9e2cc-a472-4c54-92f5-3a275548a944","system_id":"levelo_inurba_marseille","lat":43.304188,"lon":5.412904,"is_reserved":false,"is_disabled":false,"rental_uris":{"android":"levelo://app?vid=cbb9e2cc-a472-4c54-92f5-3a275548a944","ios":"levelo://app?vid=cbb9e2cc-a472-4c54-92f5-3a275548a944"},"vehicle_type_id":"4","last_reported":1704100051,"current_range_meters":28000,"station_id":"ce4bhop2rcd13ifvqh8g","pricing_plan_id":"free"},{"bike_id":"c4132c7f-76ff-41d5-b88c-db7d184b8c09","system_id":"levelo_inurba_marseille","lat":43.279087,"lon":5.380114,"is_reserved":false,"is_disabled":false,"rental_uris":{"android":"levelo://app?vid=c4132c7f-76ff-41d5-b88c-db7d184b8c09","ios":"levelo://app?vid=c4132c7f-76ff-41d5-b88c-db7d184b8c09"},"vehicle_type_id":"4","last_reported":1704100051,"current_range_meters":25600,"station_id":"ce4bhf92rcd13ifvqf50","pricing_plan_id":"free"},{"bike_id":"e2b70482-983a-4eb3-855b-92ebd77ef153","system_id":"levelo_inurba_marseille","lat":43.279742,"lon":5.38744,"is_reserved":false,"is_disabled":false,"rental_uris":{"android":"levelo://app?vid=e2b70482-983a-4eb3-855b-92ebd77ef153","ios":"levelo://app?vid=e2b70482-983a-4eb3-855b-92ebd77ef153"},"vehicle_type_id":"4","last_reported":1704100051,"current_range_meters":29200,"station_id":"ce4bhg12rcd13ifvqf80","pricing_plan_id":"free"},{"bike_id":"015a45af-9099-4bca-9baa-d553bec05e68","system_id":"levelo_inurba_marseille","lat":43.279742,"lon":5.38744,"is_reserved":false,"is_disabled":false,"rental_uris":{"android":"levelo://app?vid=015a45af-9099-4bca-9baa-d553bec05e68","ios":"levelo://app?vid=015a45af-9099-4bca-9baa-d553bec05e68"},"vehicle_type_id":"4","last_reported":1704100051,"current_range_meters":31200,"station_id":"ce4bhg12rcd13ifvqf80","pricing_plan_id":"free"},{"bike_id":"ceb76a9e-d08f-4f43-9105-3a62ac6c2fe5","system_id":"levelo_inurba_marseille","lat":43.279742,"lon":5.38744,"is_reserved":false,"is_disabled":false,"rental_uris":{"android":"levelo://app?vid=ceb76a9e-d08f-4f43-9105-3a62ac6c2fe5","ios":"levelo://app?vid=ceb76a9e-d08f-4f43-9105-3a62ac6c2fe5"},"vehicle_type_id":"4","last_reported":1704100051,"current_range_meters":26000,"station_id":"ce4bhg12rcd13ifvqf80","pricing_plan_id":"free"},{"bike_id":"f563e24c-50a7-4d61-87ca-a61665f61479","system_id":"levelo_inurba_marseille","lat":43.320045,"lon":5.415048,"is_reserved":false,"is_disabled":false,"rental_uris":{"android":"levelo://app?vid=f563e24c-50a7-4d61-87ca-a61665f61479","ios":"levelo://app?vid=f563e24c-50a7-4d61-87ca-a61665f61479"},"vehicle_type_id":"4","last_reported":1704100051,"current_range_meters":24000,"station_id":"ce4bhq92rcd13ifvqhkg","pricing_plan_id":"free"},{"bike_id":"1fb8b3d9-4f81-41b4-a93b-bbd0cee0edb7","system_id":"levelo_inurba_marseille","lat":43.279742,"lon":5.38744,"is_reserved":false,"is_disabled":false,"rental_uris":{"android":"levelo://app?vid=1fb8b3d9-4f81-41b4-a93b-bbd0cee0edb7","ios":"levelo://app?vid=1fb8b3d9-4f81-41b4-a93b-bbd0cee0edb7"},"vehicle_type_id":"4","last_reported":1704100051,"current_range_meters":27600,"station_id":"ce4bhg12rcd13ifvqf80","pricing_plan_id":"free"},{"bike_id":"3b58789a-b344-4ae4-ba73-fa3de2c62c54","system_id":"levelo_inurba_marseille","lat":43.279742,"lon":5.38744,"is_reserved":false,"is_disabled":false,"rental_uris":{"android":"levelo://app?vid=3b58789a-b344-4ae4-ba73-fa3de2c62c54","ios":"levelo://app?vid=3b58789a-b344-4ae4-ba73-fa3de2c62c54"},"vehicle_type_id":"4","last_reported":1704100051,"current_range_meters":31200,"station_id":"ce4bhg12rcd13ifvqf80","pricing_plan_id":"free"},{"bike_id":"4b647f7c-7637-4d83-9c3a-3a9ed3b89804","system_id":"levelo_inurba_marseille","lat":43.336134,"lon":5.410341,"is_reserved":false,"is_disabled":false,"rental_uris":{"android":"levelo://app?vid=4b647f7c-7637-4d83-9c3a-3a9ed3b89804","ios":"levelo://app?vid=4b647f7c-7637-4d83-9c3a-3a9ed3b89804"},"vehicle_type_id":"4","last_reported":1704100051,"current_range_meters":30400,"station_id":"ce4bhqh2rcd13ifvqhmg","pricing_plan_id":"free"},{"bike_id":"7389963c-4373-432e-983b-bc3036ac7d53","system_id":"levelo_inurba_marseille","lat":43.292569,"lon":5.409107,"is_reserved":false,"is_disabled":false,"rental_uris":{"android":"levelo://app?vid=7389963c-4373-432e-983b-bc3036ac7d53","ios":"levelo://app?vid=7389963c-4373-432e-983b-bc3036ac7d53"},"vehicle_type_id":"4","last_reported":1704100051,"current_range_meters":28800,"station_id":"ce4bh192rcd13ifvqdc0","pricing_plan_id":"free"},{"bike_id":"4f17febb-a0f1-47f8-bda9-35e9d4699cf7","system_id":"levelo_inurba_marseille","lat":43.27618,"lon":5.361009,"is_reserved":false,"is_disabled":false,"rental_uris":{"android":"levelo://app?vid=4f17febb-a0f1-47f8-bda9-35e9d4699cf7","ios":"levelo://app?vid=4f17febb-a0f1-47f8-bda9-35e9d4699cf7"},"vehicle_type_id":"4","last_reported":1704100051,"current_range_meters":23200,"station_id":"ce4bgj92rcd13ifvqbe0","pricing_plan_id":"free"},{"bike_id":"d7b74a6d-0877-49d9-9407-79f632a404ca","system_id":"levelo_inurba_marseille","lat":43.27618,"lon":5.361009,"is_reserved":false,"is_disabled":false,"rental_uris":{"android":"levelo://app?vid=d7b74a6d-0877-49d9-9407-79f632a404ca","ios":"levelo://app?vid=d7b74a6d-0877-49d9-9407-79f632a404ca"},"vehicle_type_id":"4","last_reported":1704100051,"current_range_meters":30800,"station_id":"ce4bgj92rcd13ifvqbe0","pricing_plan_id":"free"},{"bike_id":"1b879387-a5db-4e3b-8561-28e8076ac370","system_id":"levelo_inurba_marseille","lat":43.276179,"lon":5.361009,"is_reserved":false,"is_disabled":false,"rental_uris":{"android":"levelo://app?vid=1b879387-a5db-4e3b-8561-28e8076ac370","ios":"levelo://app?vid=1b879387-a5db-4e3b-8561-28e8076ac370"},"vehicle_type_id":"4","last_reported":1704100051,"current_range_meters":22800,"station_id":"ce4bgj92rcd13ifvqbe0","pricing_plan_id":"free"},{"bike_id":"46656abe-8be6-4082-81d8-1b69a947c7dc","system_id":"levelo_inurba_marseille","lat":43.280784,"lon":5.396622,"is_reserved":false,"is_disabled":false,"rental_uris":{"android":"levelo://app?vid=46656abe-8be6-4082-81d8-1b69a947c7dc","ios":"levelo://app?vid=46656abe-8be6-4082-81d8-1b69a947c7dc"},"vehicle_type_id":"4","last_reported":1704100051,"current_range_meters":30000,"station_id":"ce4bho12rcd13ifvqh2g","pricing_plan_id":"free"},{"bike_id":"e1838f9f-299f-437d-abd8-4f286644fe17","system_id":"levelo_inurba_marseille","lat":43.280784,"lon":5.396622,"is_reserved":false,"is_disabled":false,"rental_uris":{"android":"levelo://app?vid=e1838f9f-299f-437d-abd8-4f286644fe17","ios":"levelo://app?vid=e1838f9f-299f-437d-abd8-4f286644fe17"},"vehicle_type_id":"4","last_reported":1704100051,"current_range_meters":26800,"station_id":"ce4bho12rcd13ifvqh2g","pricing_plan_id":"free"},{"bike_id":"34daea28-8992-4678-a245-7adf6c2df2f0","system_id":"levelo_inurba_marseille","lat":43.278401,"lon":5.392152,"is_reserved":false,"is_disabled":false,"rental_uris":{"android":"levelo://app?vid=34daea28-8992-4678-a245-7adf6c2df2f0","ios":"levelo://app?vid=34daea28-8992-4678-a245-7adf6c2df2f0"},"vehicle_type_id":"4","last_reported":1704100051,"current_range_meters":26000,"station_id":"ce4bhjp2rcd13ifvqga0","pricing_plan_id":"free"},{"bike_id":"b53a9def-597c-4d87-8a4e-4c2177f1839c","system_id":"levelo_inurba_marseille","lat":43.278399,"lon":5.392139,"is_reserved":false,"is_disabled":false,"rental_uris":{"android":"levelo://app?vid=b53a9def-597c-4d87-8a4e-4c2177f1839c","ios":"levelo://app?vid=b53a9def-597c-4d87-8a4e-4c2177f1839c"},"vehicle_type_id":"4","last_reported":1704100051,"current_range_meters":22000,"station_id":"ce4bhjp2rcd13ifvqga0","pricing_plan_id":"free"},{"bike_id":"368ee7d7-ca1c-486e-8d04-99e33067d674","system_id":"levelo_inurba_marseille","lat":43.278399,"lon":5.392139,"is_reserved":false,"is_disabled":false,"rental_uris":{"android":"levelo://app?vid=368ee7d7-ca1c-486e-8d04-99e33067d674","ios":"levelo://app?vid=368ee7d7-ca1c-486e-8d04-99e33067d674"},"vehicle_type_id":"4","last_reported":1704100051,"current_range_meters":26000,"station_id":"ce4bhjp2rcd13ifvqga0","pricing_plan_id":"free"},{"bike_id":"56769768-ae89-4924-81c7-5b38f1e3fd1c","system_id":"levelo_inurba_marseille","lat":43.275625,"lon":5.384392,"is_reserved":false,"is_disabled":false,"rental_uris":{"android":"levelo://app?vid=56769768-ae89-4924-81c7-5b38f1e3fd1c","ios":"levelo://app?vid=56769768-ae89-4924-81c7-5b38f1e3fd1c"},"vehicle_type_id":"4","last_reported":1704100051,"current_range_meters":22800,"station_id":"ce4bhh92rcd13ifvqfi0","pricing_plan_id":"free"},{"bike_id":"44fea3e7-1f36-4452-9530-2d42c71f56e8","system_id":"levelo_inurba_marseille","lat":43.273609,"lon":5.362708,"is_reserved":false,"is_disabled":false,"rental_uris":{"android":"levelo://app?vid=44fea3e7-1f36-4452-9530-2d42c71f56e8","ios":"levelo://app?vid=44fea3e7-1f36-4452-9530-2d42c71f56e8"},"vehicle_type_id":"4","last_reported":1704100051,"current_range_meters":30000,"station_id":"ce4bhbh2rcd13ifvqeo0","pricing_plan_id":"free"},{"bike_id":"824ef797-2a4e-4785-bf6d-29e20bce20dc","system_id":"levelo_inurba_marseille","lat":43.273613,"lon":5.362705,"is_reserved":false,"is_disabled":false,"rental_uris":{"android":"levelo://app?vid=824ef797-2a4e-4785-bf6d-29e20bce20dc","ios":"levelo://app?vid=824ef797-2a4e-4785-bf6d-29e20bce20dc"},"vehicle_type_id":"4","last_reported":1704100051,"current_range_meters":28800,"station_id":"ce4bhbh2rcd13ifvqeo0","pricing_plan_id":"free"},{"bike_id":"6062380a-6af2-4bc6-9057-30fe66edd11a","system_id":"levelo_inurba_marseille","lat":43.275625,"lon":5.384392,"is_reserved":false,"is_disabled":false,"rental_uris":{"android":"levelo://app?vid=6062380a-6af2-4bc6-9057-30fe66edd11a","ios":"levelo://app?vid=6062380a-6af2-4bc6-9057-30fe66edd11a"},"vehicle_type_id":"4","last_reported":1704100051,"current_range_meters":25200,"station_id":"ce4bhh92rcd13ifvqfi0","pricing_plan_id":"free"},{"bike_id":"397158e4-4280-4303-9c12-7481d5f0dd18","system_id":"levelo_inurba_marseille","lat":43.336134,"lon":5.410341,"is_reserved":false,"is_disabled":false,"rental_uris":{"android":"levelo://app?vid=397158e4-4280-4303-9c12-7481d5f0dd18","ios":"levelo://app?vid=397158e4-4280-4303-9c12-7481d5f0dd18"},"vehicle_type_id":"4","last_reported":1704100051,"current_range_meters":31200,"station_id":"ce4bhqh2rcd13ifvqhmg","pricing_plan_id":"free"},{"bike_id":"4d05d184-fbc7-459b-9155-c27fc2b76dab","system_id":"levelo_inurba_marseille","lat":43.340804,"lon":5.410219,"is_reserved":false,"is_disabled":false,"rental_uris":{"android":"levelo://app?vid=4d05d184-fbc7-459b-9155-c27fc2b76dab","ios":"levelo://app?vid=4d05d184-fbc7-459b-9155-c27fc2b76dab"},"vehicle_type_id":"4","last_reported":1704100051,"current_range_meters":24400,"station_id":"ce4bhqh2rcd13ifvqhlg","pricing_plan_id":"free"},{"bike_id":"f291a200-8743-4f4e-96b1-9bfa3ab6b0d2","system_id":"levelo_inurba_marseille","lat":43.336134,"lon":5.410341,"is_reserved":false,"is_disabled":false,"rental_uris":{"android":"levelo://app?vid=f291a200-8743-4f4e-96b1-9bfa3ab6b0d2","ios":"levelo://app?vid=f291a200-8743-4f4e-96b1-9bfa3ab6b0d2"},"vehicle_type_id":"4","last_reported":1704100051,"current_range_meters":24000,"station_id":"ce4bhqh2rcd13ifvqhmg","pricing_plan_id":"free"},{"bike_id":"8588751c-146b-43e8-9cef-4436cc04a621","system_id":"levelo_inurba_marseille","lat":43.275625,"lon":5.384392,"is_reserved":false,"is_disabled":false,"rental_uris":{"android":"levelo://app?vid=8588751c-146b-43e8-9cef-4436cc04a621","ios":"levelo://app?vid=8588751c-146b-43e8-9cef-4436cc04a621"},"vehicle_type_id":"4","last_reported":1704100051,"current_range_meters":28000,"station_id":"ce4bhh92rcd13ifvqfi0","pricing_plan_id":"free"},{"bike_id":"34d822eb-d7b4-4db3-8a0c-fbbb1d4aa17d","system_id":"levelo_inurba_marseille","lat":43.276769,"lon":5.388787,"is_reserved":false,"is_disabled":false,"rental_uris":{"android":"levelo://app?vid=34d822eb-d7b4-4db3-8a0c-fbbb1d4aa17d","ios":"levelo://app?vid=34d822eb-d7b4-4db3-8a0c-fbbb1d4aa17d"},"vehicle_type_id":"4","last_reported":1704100051,"current_range_meters":28000,"station_id":"ce4bhi12rcd13ifvqfo0","pricing_plan_id":"free"},{"bike_id":"d28334e4-340b-403b-a4f9-6cf4990a38be","system_id":"levelo_inurba_marseille","lat":43.276771,"lon":5.388799,"is_reserved":false,"is_disabled":false,"rental_uris":{"android":"levelo://app?vid=d28334e4-340b-403b-a4f9-6cf4990a38be","ios":"levelo://app?vid=d28334e4-340b-403b-a4f9-6cf4990a38be"},"vehicle_type_id":"4","last_reported":1704100051,"current_range_meters":22800,"station_id":"ce4bhi12rcd13ifvqfo0","pricing_plan_id":"free"},{"bike_id":"838e390a-0d2f-44c2-87a4-d40aabcd8ccc","system_id":"levelo_inurba_marseille","lat":43.27671,"lon":5.389198,"is_reserved":false,"is_disabled":false,"rental_uris":{"android":"levelo://app?vid=838e390a-0d2f-44c2-87a4-d40aabcd8ccc","ios":"levelo://app?vid=838e390a-0d2f-44c2-87a4-d40aabcd8ccc"},"vehicle_type_id":"4","last_reported":1704100051,"current_range_meters":1600,"station_id":"","pricing_plan_id":"free"},{"bike_id":"ad8ead7b-2150-462d-9ff1-f4303c6e32bd","system_id":"levelo_inurba_marseille","lat":43.279952,"lon":5.400085,"is_reserved":false,"is_disabled":false,"rental_uris":{"android":"levelo://app?vid=ad8ead7b-2150-462d-9ff1-f4303c6e32bd","ios":"levelo://app?vid=ad8ead7b-2150-462d-9ff1-f4303c6e32bd"},"vehicle_type_id":"4","last_reported":1704100051,"current_range_meters":25200,"station_id":"ce4bho92rcd13ifvqh4g","pricing_plan_id":"free"},{"bike_id":"44749cbd-26a9-4762-974c-6e727b31c7e6","system_id":"levelo_inurba_marseille","lat":43.310785,"lon":5.424305,"is_reserved":false,"is_disabled":false,"rental_uris":{"android":"levelo://app?vid=44749cbd-26a9-4762-974c-6e727b31c7e6","ios":"levelo://app?vid=44749cbd-26a9-4762-974c-6e727b31c7e6"},"vehicle_type_id":"4","last_reported":1704100051,"current_range_meters":20400,"station_id":"ce4bhp92rcd13ifvqhag","pricing_plan_id":"free"},{"bike_id":"9538348d-498b-442e-aa22-ec1eec7d72dc","system_id":"levelo_inurba_marseille","lat":43.310785,"lon":5.424305,"is_reserved":false,"is_disabled":false,"rental_uris":{"android":"levelo://app?vid=9538348d-498b-442e-aa22-ec1eec7d72dc","ios":"levelo://app?vid=9538348d-498b-442e-aa22-ec1eec7d72dc"},"vehicle_type_id":"4","last_reported":1704100051,"current_range_meters":19600,"station_id":"ce4bhp92rcd13ifvqhag","pricing_plan_id":"free"},{"bike_id":"5285e27f-da4f-4726-9ead-ee955e24ad2a","system_id":"levelo_inurba_marseille","lat":43.310785,"lon":5.424305,"is_reserved":false,"is_disabled":false,"rental_uris":{"android":"levelo://app?vid=5285e27f-da4f-4726-9ead-ee955e24ad2a","ios":"levelo://app?vid=5285e27f-da4f-4726-9ead-ee955e24ad2a"},"vehicle_type_id":"4","last_reported":1704100051,"current_range_meters":31200,"station_id":"ce4bhp92rcd13ifvqhag","pricing_plan_id":"free"},{"bike_id":"12fd7da5-1c60-4e1a-a821-f23edb8827e2","system_id":"levelo_inurba_marseille","lat":43.274103,"lon":5.394016,"is_reserved":false,"is_disabled":false,"rental_uris":{"android":"levelo://app?vid=12fd7da5-1c60-4e1a-a821-f23edb8827e2","ios":"levelo://app?vid=12fd7da5-1c60-4e1a-a821-f23edb8827e2"},"vehicle_type_id":"4","last_reported":1704100051,"current_range_meters":30000,"station_id":"ce4bhdp2rcd13ifvqf20","pricing_plan_id":"free"},{"bike_id":"cdfa6dd1-e517-46ca-b0db-875a041abec8","system_id":"levelo_inurba_marseille","lat":43.304096,"lon":5.425385,"is_reserved":false,"is_disabled":false,"rental_uris":{"android":"levelo://app?vid=cdfa6dd1-e517-46ca-b0db-875a041abec8","ios":"levelo://app?vid=cdfa6dd1-e517-46ca-b0db-875a041abec8"},"vehicle_type_id":"4","last_reported":1704100051,"current_range_meters":25200,"station_id":"ce4bhoh2rcd13ifvqh6g","pricing_plan_id":"free"},{"bike_id":"637959c9-e2c1-4e1d-b896-d4e55c95413e","system_id":"levelo_inurba_marseille","lat":43.304088,"lon":5.425388,"is_reserved":false,"is_disabled":false,"rental_uris":{"android":"levelo://app?vid=637959c9-e2c1-4e1d-b896-d4e55c95413e","ios":"levelo://app?vid=637959c9-e2c1-4e1d-b896-d4e55c95413e"},"vehicle_type_id":"4","last_reported":1704100051,"current_range_meters":30800,"station_id":"ce4bhoh2rcd13ifvqh6g","pricing_plan_id":"free"},{"bike_id":"6bdf129d-6c7f-49c2-9be6-40cfce5a300a","system_id":"levelo_inurba_marseille","lat":43.304088,"lon":5.425388,"is_reserved":false,"is_disabled":false,"rental_uris":{"android":"levelo://app?vid=6bdf129d-6c7f-49c2-9be6-40cfce5a300a","ios":"levelo://app?vid=6bdf129d-6c7f-49c2-9be6-40cfce5a300a"},"vehicle_type_id":"4","last_reported":1704100051,"current_range_meters":28000,"station_id":"ce4bhoh2rcd13ifvqh6g","pricing_plan_id":"free"},{"bike_id":"926e2c6a-f6fc-4efb-862c-83f5befd1c16","system_id":"levelo_inurba_marseille","lat":43.29553,"lon":5.42276,"is_reserved":false,"is_disabled":false,"rental_uris":{"android":"levelo://app?vid=926e2c6a-f6fc-4efb-862c-83f5befd1c16","ios":"levelo://app?vid=926e2c6a-f6fc-4efb-862c-83f5befd1c16"},"vehicle_type_id":"4","last_reported":1704100051,"current_range_meters":30400,"station_id":"ce4bhph2rcd13ifvqhdg","pricing_plan_id":"free"},{"bike_id":"b19e697b-5ca1-4ee7-b81f-ccc785c0b784","system_id":"levelo_inurba_marseille","lat":43.295523,"lon":5.422926,"is_reserved":false,"is_disabled":false,"rental_uris":{"android":"levelo://app?vid=b19e697b-5ca1-4ee7-b81f-ccc785c0b784","ios":"levelo://app?vid=b19e697b-5ca1-4ee7-b81f-ccc785c0b784"},"vehicle_type_id":"4","last_reported":1704100051,"current_range_meters":28800,"station_id":"ce4bhph2rcd13ifvqhdg","pricing_plan_id":"free"},{"bike_id":"306afd85-beb4-4f6c-b611-066e0436e9ba","system_id":"levelo_inurba_marseille","lat":43.29551,"lon":5.42284,"is_reserved":false,"is_disabled":false,"rental_uris":{"android":"levelo://app?vid=306afd85-beb4-4f6c-b611-066e0436e9ba","ios":"levelo://app?vid=306afd85-beb4-4f6c-b611-066e0436e9ba"},"vehicle_type_id":"4","last_reported":1704100051,"current_range_meters":30800,"station_id":"ce4bhph2rcd13ifvqhdg","pricing_plan_id":"free"},{"bike_id":"d548d66b-88c9-49f9-867c-e26df10c9510","system_id":"levelo_inurba_marseille","lat":43.29553,"lon":5.42286,"is_reserved":false,"is_disabled":false,"rental_uris":{"android":"levelo://app?vid=d548d66b-88c9-49f9-867c-e26df10c9510","ios":"levelo://app?vid=d548d66b-88c9-49f9-867c-e26df10c9510"},"vehicle_type_id":"4","last_reported":1704100051,"current_range_meters":28800,"station_id":"ce4bhph2rcd13ifvqhdg","pricing_plan_id":"free"},{"bike_id":"d43b069a-b4c3-4456-9015-7d86fd2b6cfd","system_id":"levelo_inurba_marseille","lat":43.295523,"lon":5.422926,"is_reserved":false,"is_disabled":false,"rental_uris":{"android":"levelo://app?vid=d43b069a-b4c3-4456-9015-7d86fd2b6cfd","ios":"levelo://app?vid=d43b069a-b4c3-4456-9015-7d86fd2b6cfd"},"vehicle_type_id":"4","last_reported":1704100051,"current_range_meters":19600,"station_id":"ce4bhph2rcd13ifvqhdg","pricing_plan_id":"free"},{"bike_id":"3460faa3-3efa-4ced-a2dd-75c84b806075","system_id":"levelo_inurba_marseille","lat":43.278128,"lon":5.407195,"is_reserved":false,"is_disabled":false,"rental_uris":{"android":"levelo://app?vid=3460faa3-3efa-4ced-a2dd-75c84b806075","ios":"levelo://app?vid=3460faa3-3efa-4ced-a2dd-75c84b806075"},"vehicle_type_id":"4","last_reported":1704100051,"current_range_meters":31200,"station_id":"ce4bhnh2rcd13ifvqgtg","pricing_plan_id":"free"},{"bike_id":"f0a7805d-8667-4510-82e9-ef78b1699166","system_id":"levelo_inurba_marseille","lat":43.278128,"lon":5.407195,"is_reserved":false,"is_disabled":false,"rental_uris":{"android":"levelo://app?vid=f0a7805d-8667-4510-82e9-ef78b1699166","ios":"levelo://app?vid=f0a7805d-8667-4510-82e9-ef78b1699166"},"vehicle_type_id":"4","last_reported":1704100051,"current_range_meters":13200,"station_id":"ce4bhnh2rcd13ifvqgtg","pricing_plan_id":"free"},{"bike_id":"239d771d-83d7-4686-baac-f6b254c8347d","system_id":"levelo_inurba_marseille","lat":43.278128,"lon":5.407195,"is_reserved":false,"is_disabled":false,"rental_uris":{"android":"levelo://app?vid=239d771d-83d7-4686-baac-f6b254c8347d","ios":"levelo://app?vid=239d771d-83d7-4686-baac-f6b254c8347d"},"vehicle_type_id":"4","last_reported":1704100051,"current_range_meters":30000,"station_id":"ce4bhnh2rcd13ifvqgtg","pricing_plan_id":"free"},{"bike_id":"49ed539d-a525-408e-a3e9-48585140e904","system_id":"levelo_inurba_marseille","lat":43.278128,"lon":5.407195,"is_reserved":false,"is_disabled":false,"rental_uris":{"android":"levelo://app?vid=49ed539d-a525-408e-a3e9-48585140e904","ios":"levelo://app?vid=49ed539d-a525-408e-a3e9-48585140e904"},"vehicle_type_id":"4","last_reported":1704100051,"current_range_meters":31200,"station_id":"ce4bhnh2rcd13ifvqgtg","pricing_plan_id":"free"},{"bike_id":"5a56cf51-2f32-419b-81fd-bc35c7d8ef9d","system_id":"levelo_inurba_marseille","lat":43.269467,"lon":5.386439,"is_reserved":false,"is_disabled":false,"rental_uris":{"android":"levelo://app?vid=5a56cf51-2f32-419b-81fd-bc35c7d8ef9d","ios":"levelo://app?vid=5a56cf51-2f32-419b-81fd-bc35c7d8ef9d"},"vehicle_type_id":"4","last_reported":1704100051,"current_range_meters":26800,"station_id":"ce4bhh92rcd13ifvqfh0","pricing_plan_id":"free"},{"bike_id":"8f002fa8-6f9c-4630-8343-b12b1ef9b9ad","system_id":"levelo_inurba_marseille","lat":43.269467,"lon":5.386439,"is_reserved":false,"is_disabled":false,"rental_uris":{"android":"levelo://app?vid=8f002fa8-6f9c-4630-8343-b12b1ef9b9ad","ios":"levelo://app?vid=8f002fa8-6f9c-4630-8343-b12b1ef9b9ad"},"vehicle_type_id":"4","last_reported":1704100051,"current_range_meters":31200,"station_id":"ce4bhh92rcd13ifvqfh0","pricing_plan_id":"free"},{"bike_id":"ce9af740-b6f6-4d36-b727-80a14c223ef9","system_id":"levelo_inurba_marseille","lat":43.279465,"lon":5.410561,"is_reserved":false,"is_disabled":false,"rental_uris":{"android":"levelo://app?vid=ce9af740-b6f6-4d36-b727-80a14c223ef9","ios":"levelo://app?vid=ce9af740-b6f6-4d36-b727-80a14c223ef9"},"vehicle_type_id":"4","last_reported":1704100051,"current_range_meters":3600,"station_id":"ce4bhnp2rcd13ifvqh0g","pricing_plan_id":"free"},{"bike_id":"0f431921-4dd9-4037-a211-457cf805d9f2","system_id":"levelo_inurba_marseille","lat":43.279465,"lon":5.410561,"is_reserved":false,"is_disabled":false,"rental_uris":{"android":"levelo://app?vid=0f431921-4dd9-4037-a211-457cf805d9f2","ios":"levelo://app?vid=0f431921-4dd9-4037-a211-457cf805d9f2"},"vehicle_type_id":"4","last_reported":1704100051,"current_range_meters":26400,"station_id":"ce4bhnp2rcd13ifvqh0g","pricing_plan_id":"free"},{"bike_id":"4e7b82a4-f271-4a72-bdbd-460d1cfbd58d","system_id":"levelo_inurba_marseille","lat":43.27181,"lon":5.404997,"is_reserved":false,"is_disabled":false,"rental_uris":{"android":"levelo://app?vid=4e7b82a4-f271-4a72-bdbd-460d1cfbd58d","ios":"levelo://app?vid=4e7b82a4-f271-4a72-bdbd-460d1cfbd58d"},"vehicle_type_id":"4","last_reported":1704100051,"current_range_meters":11600,"station_id":"","pricing_plan_id":"free"},{"bike_id":"3ed4222d-3eb5-439b-8911-728f19db683e","system_id":"levelo_inurba_marseille","lat":43.308051,"lon":5.43527,"is_reserved":false,"is_disabled":false,"rental_uris":{"android":"levelo://app?vid=3ed4222d-3eb5-439b-8911-728f19db683e","ios":"levelo://app?vid=3ed4222d-3eb5-439b-8911-728f19db683e"},"vehicle_type_id":"4","last_reported":1704100051,"current_range_meters":26800,"station_id":"ce4bhph2rcd13ifvqheg","pricing_plan_id":"free"},{"bike_id":"dac5ea74-92f7-462e-b536-31f322bb01c0","system_id":"levelo_inurba_marseille","lat":43.331893,"lon":5.431791,"is_reserved":false,"is_disabled":false,"rental_uris":{"android":"levelo://app?vid=dac5ea74-92f7-462e-b536-31f322bb01c0","ios":"levelo://app?vid=dac5ea74-92f7-462e-b536-31f322bb01c0"},"vehicle_type_id":"4","last_reported":1704100051,"current_range_meters":8000,"station_id":"","pricing_plan_id":"free"},{"bike_id":"2fd605f7-2b4d-4a09-87a0-12e6dcb5514a","system_id":"levelo_inurba_marseille","lat":43.261782,"lon":5.374515,"is_reserved":false,"is_disabled":false,"rental_uris":{"android":"levelo://app?vid=2fd605f7-2b4d-4a09-87a0-12e6dcb5514a","ios":"levelo://app?vid=2fd605f7-2b4d-4a09-87a0-12e6dcb5514a"},"vehicle_type_id":"4","last_reported":1704100051,"current_range_meters":20400,"station_id":"ce4bhgp2rcd13ifvqfc0","pricing_plan_id":"free"},{"bike_id":"09f009bd-9e78-4a83-b2bb-05fc1c2bb7eb","system_id":"levelo_inurba_marseille","lat":43.317104,"lon":5.436818,"is_reserved":false,"is_disabled":false,"rental_uris":{"android":"levelo://app?vid=09f009bd-9e78-4a83-b2bb-05fc1c2bb7eb","ios":"levelo://app?vid=09f009bd-9e78-4a83-b2bb-05fc1c2bb7eb"},"vehicle_type_id":"4","last_reported":1704100051,"current_range_meters":31200,"station_id":"ce4bhp92rcd13ifvqhcg","pricing_plan_id":"free"},{"bike_id":"1462c9a7-3d14-4dd6-82f9-e9bb21b1f3dc","system_id":"levelo_inurba_marseille","lat":43.317104,"lon":5.436818,"is_reserved":false,"is_disabled":false,"rental_uris":{"android":"levelo://app?vid=1462c9a7-3d14-4dd6-82f9-e9bb21b1f3dc","ios":"levelo://app?vid=1462c9a7-3d14-4dd6-82f9-e9bb21b1f3dc"},"vehicle_type_id":"4","last_reported":1704100051,"current_range_meters":22800,"station_id":"ce4bhp92rcd13ifvqhcg","pricing_plan_id":"free"},{"bike_id":"8c7df74b-a509-49f1-af95-b0a69adf8f56","system_id":"levelo_inurba_marseille","lat":43.31716,"lon":5.43711,"is_reserved":false,"is_disabled":false,"rental_uris":{"android":"levelo://app?vid=8c7df74b-a509-49f1-af95-b0a69adf8f56","ios":"levelo://app?vid=8c7df74b-a509-49f1-af95-b0a69adf8f56"},"vehicle_type_id":"4","last_reported":1704100051,"current_range_meters":23600,"station_id":"ce4bhp92rcd13ifvqhcg","pricing_plan_id":"free"},{"bike_id":"a150474d-40b8-4ec3-b199-4c73eaa64b79","system_id":"levelo_inurba_marseille","lat":43.262012,"lon":5.379307,"is_reserved":false,"is_disabled":false,"rental_uris":{"android":"levelo://app?vid=a150474d-40b8-4ec3-b199-4c73eaa64b79","ios":"levelo://app?vid=a150474d-40b8-4ec3-b199-4c73eaa64b79"},"vehicle_type_id":"4","last_reported":1704100051,"current_range_meters":28400,"station_id":"ce4bhjp2rcd13ifvqg90","pricing_plan_id":"free"},{"bike_id":"24a8f553-12c1-4d7b-acf9-7cb382e5158b","system_id":"levelo_inurba_marseille","lat":43.26802,"lon":5.40265,"is_reserved":false,"is_disabled":false,"rental_uris":{"android":"levelo://app?vid=24a8f553-12c1-4d7b-acf9-7cb382e5158b","ios":"levelo://app?vid=24a8f553-12c1-4d7b-acf9-7cb382e5158b"},"vehicle_type_id":"4","last_reported":1704100051,"current_range_meters":27200,"station_id":"ce501612rcd8frsf0b60","pricing_plan_id":"free"},{"bike_id":"998cbe97-b23d-4803-8a45-4e42215098ea","system_id":"levelo_inurba_marseille","lat":43.2651,"lon":5.39469,"is_reserved":false,"is_disabled":false,"rental_uris":{"android":"levelo://app?vid=998cbe97-b23d-4803-8a45-4e42215098ea","ios":"levelo://app?vid=998cbe97-b23d-4803-8a45-4e42215098ea"},"vehicle_type_id":"4","last_reported":1704100051,"current_range_meters":26800,"station_id":"ce4bhi12rcd13ifvqfq0","pricing_plan_id":"free"},