{"last_updated":1737436138,"ttl":60,"version":"2.2","data":{"bikes":[{"bike_id":"2d837e6e-a55b-44a6-8c8b-9ab1fd8a260a","system_id":"levelo_inurba_marseille","lat":43.31083,"lon":5.42424,"is_reserved":false,"is_disabled":false,"rental_uris":{"android":"levelo://app?vid=2d837e6e-a55b-44a6-8c8b-9ab1fd8a260a","ios":"levelo://app?vid=2d837e6e-a55b-44a6-8c8b-9ab1fd8a260a"},"vehicle_type_id":"4","last_reported":1737436139,"current_range_meters":39200,"station_id":"ce4bhp92rcd13ifvqhag","pricing_plan_id":"cebpf4jnsgd1na2vs0mg"},{"bike_id":"16a6e79b-15d3-42d6-9173-c187c18a1c2e","system_id":"levelo_inurba_marseille","lat":43.30887,"lon":5.396403,"is_reserved":false,"is_disabled":false,"rental_uris":{"android":"levelo://app?vid=16a6e79b-15d3-42d6-9173-c187c18a1c2e","ios":"levelo://app?vid=16a6e79b-15d3-42d6-9173-c187c18a1c2e"},"vehicle_type_id":"4","last_reported":1737436139,"current_range_meters":32000,"station_id":"ce4bh012rcd13ifvqcv0","pricing_plan_id":"cebpf4jnsgd1na2vs0mg"},{"bike_id":"26349406-6333-4a68-8e5b-ffab94e5879a","system_id":"levelo_inurba_marseille","lat":43.29526,"lon":5.39049,"is_reserved":false,"is_disabled":false,"rental_uris":{"android":"levelo://app?vid=26349406-6333-4a68-8e5b-ffab94e5879a","ios":"levelo://app?vid=26349406-6333-4a68-8e5b-ffab94e5879a"},"vehicle_type_id":"4","last_reported":1737436139,"current_range_meters":14400,"station_id":"ce4bh3p2rcd13ifvqdp0","pricing_plan_id":"cebpf4jnsgd1na2vs0mg"},{"bike_id":"a3d0aefc-a2f5-45cd-9489-1be9c32278de","system_id":"levelo_inurba_marseille","lat":43.23978,"lon":5.36619,"is_reserved":false,"is_disabled":false,"rental_uris":{"android":"levelo://app?vid=a3d0aefc-a2f5-45cd-9489-1be9c32278de","ios":"levelo://app?vid=a3d0aefc-a2f5-45cd-9489-1be9c32278de"},"vehicle_type_id":"4","last_reported":1737436139,"current_range_meters":30000,"station_id":"ce4bhi12rcd13ifvqfp0","pricing_plan_id":"cebpf4jnsgd1na2vs0mg"},{"bike_id":"ff1df0fd-be2f-4894-8690-e8a61da9c700","system_id":"levelo_inurba_marseille","lat":43.28704,"lon":5.37383,"is_reserved":false,"is_disabled":true,"rental_uris":{"android":"levelo://app?vid=ff1df0fd-be2f-4894-8690-e8a61da9c700","ios":"levelo://app?vid=ff1df0fd-be2f-4894-8690-e8a61da9c700"},"vehicle_type_id":"4","last_reported":1737436139,"current_range_meters":38400,"station_id":"ce4bh3p2rcd13ifvqdq0","pricing_plan_id":"cebpf4jnsgd1na2vs0mg"},{"bike_id":"434a60f9-dcd2-4593-9cfa-9bfbda6fb835","system_id":"levelo_inurba_marseille","lat":43.282713,"lon":5.35078,"is_reserved":false,"is_disabled":false,"rental_uris":{"android":"levelo://app?vid=434a60f9-dcd2-4593-9cfa-9bfbda6fb835","ios":"levelo://app?vid=434a60f9-dcd2-4593-9cfa-9bfbda6fb835"},"vehicle_type_id":"4","last_reported":1737436139,"current_range_meters":39200,"station_id":"ce4bhbp2rcd13ifvqerg","pricing_plan_id":"cebpf4jnsgd1na2vs0mg"},{"bike_id":"d7e75527-c346-4215-8d90-37cb08e036e7","system_id":"levelo_inurba_marseille","lat":43.305975,"lon":5.393419,"is_reserved":false,"is_disabled":false,"rental_uris":{"android":"levelo://app?vid=d7e75527-c346-4215-8d90-37cb08e036e7","ios":"levelo://app?vid=d7e75527-c346-4215-8d90-37cb08e036e7"},"vehicle_type_id":"4","last_reported":1737436139,"current_range_meters":38000,"station_id":"ce4bh0p2rcd13ifvqd80","pricing_plan_id":"cebpf4jnsgd1na2vs0mg"},{"bike_id":"5cb1264a-175f-4702-b950-5c526f1c16bb","system_id":"levelo_inurba_marseille","lat":43.28698,"lon":5.3739,"is_reserved":false,"is_disabled":false,"rental_uris":{"android":"levelo://app?vid=5cb1264a-175f-4702-b950-5c526f1c16bb","ios":"levelo://app?vid=5cb1264a-175f-4702-b950-5c526f1c16bb"},"vehicle_type_id":"4","last_reported":1737436139,"current_range_meters":37600,"station_id":"ce4bh3p2rcd13ifvqdq0","pricing_plan_id":"cebpf4jnsgd1na2vs0mg"},{"bike_id":"a3b3d045-dd7b-4eb3-bd8d-20ffd36b83c0","system_id":"levelo_inurba_marseille","lat":43.309338,"lon":5.401572,"is_reserved":false,"is_disabled":false,"rental_uris":{"android":"levelo://app?vid=a3b3d045-dd7b-4eb3-bd8d-20ffd36b83c0","ios":"levelo://app?vid=a3b3d045-dd7b-4eb3-bd8d-20ffd36b83c0"},"vehicle_type_id":"4","last_reported":1737436139,"current_range_meters":38400,"station_id":"ce4bgvp2rcd13ifvqct0","pricing_plan_id":"cebpf4jnsgd1na2vs0mg"},{"bike_id":"1bc9b8ac-6094-4fdd-b6fc-7aa8848ee904","system_id":"levelo_inurba_marseille","lat":43.30811,"lon":5.43514,"is_reserved":false,"is_disabled":false,"rental_uris":{"android":"levelo://app?vid=1bc9b8ac-6094-4fdd-b6fc-7aa8848ee904","ios":"levelo://app?vid=1bc9b8ac-6094-4fdd-b6fc-7aa8848ee904"},"vehicle_type_id":"4","last_reported":1737436139,"current_range_meters":12000,"station_id":"ce4bhph2rcd13ifvqheg","pricing_plan_id":"cebpf4jnsgd1na2vs0mg"},{"bike_id":"f7f5b063-963a-44bd-8272-8ba2bb78525d","system_id":"levelo_inurba_marseille","lat":43.31711,"lon":5.37742,"is_reserved":false,"is_disabled":false,"rental_uris":{"android":"levelo://app?vid=f7f5b063-963a-44bd-8272-8ba2bb78525d","ios":"levelo://app?vid=f7f5b063-963a-44bd-8272-8ba2bb78525d"},"vehicle_type_id":"4","last_reported":1737436139,"current_range_meters":18800,"station_id":"ce4bgth2rcd13ifvqch0","pricing_plan_id":"cebpf4jnsgd1na2vs0mg"},{"bike_id":"222cf047-f998-4d64-843c-220b836d2dc0","system_id":"levelo_inurba_marseille","lat":43.29672,"lon":5.37291,"is_reserved":false,"is_disabled":false,"rental_uris":{"android":"levelo://app?vid=222cf047-f998-4d64-843c-220b836d2dc0","ios":"levelo://app?vid=222cf047-f998-4d64-843c-220b836d2dc0"},"vehicle_type_id":"4","last_reported":1737436139,"current_range_meters":38800,"station_id":"ce4bgk12rcd13ifvqbj0","pricing_plan_id":"cebpf4jnsgd1na2vs0mg"},{"bike_id":"0ff58aa0-dd1c-4ede-94b0-2d113acb8f6f","system_id":"levelo_inurba_marseille","lat":43.27615,"lon":5.36107,"is_reserved":false,"is_disabled":false,"rental_uris":{"android":"levelo://app?vid=0ff58aa0-dd1c-4ede-94b0-2d113acb8f6f","ios":"levelo://app?vid=0ff58aa0-dd1c-4ede-94b0-2d113acb8f6f"},"vehicle_type_id":"4","last_reported":1737436139,"current_range_meters":26000,"station_id":"ce4bgj92rcd13ifvqbe0","pricing_plan_id":"cebpf4jnsgd1na2vs0mg"},{"bike_id":"e3d5a69f-7604-4ab5-bfce-dc9cf0dd7b56","system_id":"levelo_inurba_marseille","lat":43.29566,"lon":5.39969,"is_reserved":false,"is_disabled":true,"rental_uris":{"android":"levelo://app?vid=e3d5a69f-7604-4ab5-bfce-dc9cf0dd7b56","ios":"levelo://app?vid=e3d5a69f-7604-4ab5-bfce-dc9cf0dd7b56"},"vehicle_type_id":"4","last_reported":1737436139,"current_range_meters":37600,"station_id":"ce4bh312rcd13ifvqdj0","pricing_plan_id":"cebpf4jnsgd1na2vs0mg"},{"bike_id":"0201f603-d5d0-4632-997b-bedabf6b9fc6","system_id":"levelo_inurba_marseille","lat":43.2926,"lon":5.40901,"is_reserved":false,"is_disabled":false,"rental_uris":{"android":"levelo://app?vid=0201f603-d5d0-4632-997b-bedabf6b9fc6","ios":"levelo://app?vid=0201f603-d5d0-4632-997b-bedabf6b9fc6"},"vehicle_type_id":"4","last_reported":1737436139,"current_range_meters":37600,"station_id":"ce4bh192rcd13ifvqdc0","pricing_plan_id":"cebpf4jnsgd1na2vs0mg"},{"bike_id":"f3b3ab0f-c6dd-4c46-a81a-8afa3cc6374b","system_id":"levelo_inurba_marseille","lat":43.30233,"lon":5.39475,"is_reserved":false,"is_disabled":false,"rental_uris":{"android":"levelo://app?vid=f3b3ab0f-c6dd-4c46-a81a-8afa3cc6374b","ios":"levelo://app?vid=f3b3ab0f-c6dd-4c46-a81a-8afa3cc6374b"},"vehicle_type_id":"4","last_reported":1737436139,"current_range_meters":38400,"station_id":"ce4bh0p2rcd13ifvqd70","pricing_plan_id":"cebpf4jnsgd1na2vs0mg"},{"bike_id":"6d38c9b3-d1d0-4471-85ef-1836c051c027","system_id":"levelo_inurba_marseille","lat":43.31752,"lon":5.39007,"is_reserved":false,"is_disabled":false,"rental_uris":{"android":"levelo://app?vid=6d38c9b3-d1d0-4471-85ef-1836c051c027","ios":"levelo://app?vid=6d38c9b3-d1d0-4471-85ef-1836c051c027"},"vehicle_type_id":"4","last_reported":1737436139,"current_range_meters":28400,"station_id":"ce4bhqp2rcd13ifvqhng","pricing_plan_id":"cebpf4jnsgd1na2vs0mg"},{"bike_id":"fcf9f59d-f488-4081-8a0e-520b1462b18b","system_id":"levelo_inurba_marseille","lat":43.28706,"lon":5.37915,"is_reserved":false,"is_disabled":false,"rental_uris":{"android":"levelo://app?vid=fcf9f59d-f488-4081-8a0e-520b1462b18b","ios":"levelo://app?vid=fcf9f59d-f488-4081-8a0e-520b1462b18b"},"vehicle_type_id":"4","last_reported":1737436139,"current_range_meters":25200,"station_id":"ce4bh9p2rcd13ifvqec0","pricing_plan_id":"cebpf4jnsgd1na2vs0mg"},{"bike_id":"48d60ac7-a2bd-44ea-8ae7-f8e68106fc06","system_id":"levelo_inurba_marseille","lat":43.29257,"lon":5.38431,"is_reserved":false,"is_disabled":true,"rental_uris":{"android":"levelo://app?vid=48d60ac7-a2bd-44ea-8ae7-f8e68106fc06","ios":"levelo://app?vid=48d60ac7-a2bd-44ea-8ae7-f8e68106fc06"},"vehicle_type_id":"4","last_reported":1737436139,"current_range_meters":33600,"station_id":"ce4bh692rcd13ifvqea0","pricing_plan_id":"cebpf4jnsgd1na2vs0mg"},{"bike_id":"b0e7983b-5548-4a70-bd89-42b576e56206","system_id":"levelo_inurba_marseille","lat":43.28261,"lon":5.35071,"is_reserved":false,"is_disabled":false,"rental_uris":{"android":"levelo://app?vid=b0e7983b-5548-4a70-bd89-42b576e56206","ios":"levelo://app?vid=b0e7983b-5548-4a70-bd89-42b576e56206"},"vehicle_type_id":"4","last_reported":1737436139,"current_range_meters":20800,"station_id":"ce4bhbp2rcd13ifvqerg","pricing_plan_id":"cebpf4jnsgd1na2vs0mg"},{"bike_id":"763ed4fc-16fd-47a0-aedf-62c028daa66f","system_id":"levelo_inurba_marseille","lat":43.36395,"lon":5.35572,"is_reserved":false,"is_disabled":false,"rental_uris":{"android":"levelo://app?vid=763ed4fc-16fd-47a0-aedf-62c028daa66f","ios":"levelo://app?vid=763ed4fc-16fd-47a0-aedf-62c028daa66f"},"vehicle_type_id":"4","last_reported":1737436139,"current_range_meters":6400,"station_id":"","pricing_plan_id":"cebpf4jnsgd1na2vs0mg"},{"bike_id":"54e47bbf-d358-4fc6-9623-23d2eb6b92a9","system_id":"levelo_inurba_marseille","lat":43.276747,"lon":5.388474,"is_reserved":false,"is_disabled":true,"rental_uris":{"android":"levelo://app?vid=54e47bbf-d358-4fc6-9623-23d2eb6b92a9","ios":"levelo://app?vid=54e47bbf-d358-4fc6-9623-23d2eb6b92a9"},"vehicle_type_id":"4","last_reported":1737436139,"current_range_meters":14000,"station_id":"","pricing_plan_id":"cebpf4jnsgd1na2vs0mg"},{"bike_id":"a2771881-b956-4a9a-9bc9-a89642d437c9","system_id":"levelo_inurba_marseille","lat":43.23199,"lon":5.35555,"is_reserved":false,"is_disabled":false,"rental_uris":{"android":"levelo://app?vid=a2771881-b956-4a9a-9bc9-a89642d437c9","ios":"levelo://app?vid=a2771881-b956-4a9a-9bc9-a89642d437c9"},"vehicle_type_id":"4","last_reported":1737436139,"current_range_meters":38000,"station_id":"ce4bhu92rcd13ifvqi70","pricing_plan_id":"cebpf4jnsgd1na2vs0mg"},{"bike_id":"3b26ab37-3b51-49df-bcb5-b23c8b5b2a76","system_id":"levelo_inurba_marseille","lat":43.32115,"lon":5.36768,"is_reserved":false,"is_disabled":false,"rental_uris":{"android":"levelo://app?vid=3b26ab37-3b51-49df-bcb5-b23c8b5b2a76","ios":"levelo://app?vid=3b26ab37-3b51-49df-bcb5-b23c8b5b2a76"},"vehicle_type_id":"4","last_reported":1737436139,"current_range_meters":14800,"station_id":"ce4bhrh2rcd13ifvqhug","pricing_plan_id":"cebpf4jnsgd1na2vs0mg"},{"bike_id":"1f46188d-5e81-46fa-8687-79c4e15ba169","system_id":"levelo_inurba_marseille","lat":43.258622,"lon":5.399123,"is_reserved":false,"is_disabled":false,"rental_uris":{"android":"levelo://app?vid=1f46188d-5e81-46fa-8687-79c4e15ba169","ios":"levelo://app?vid=1f46188d-5e81-46fa-8687-79c4e15ba169"},"vehicle_type_id":"4","last_reported":1737436139,"current_range_meters":38800,"station_id":"ce4bhl92rcd13ifvqghg","pricing_plan_id":"cebpf4jnsgd1na2vs0mg"},{"bike_id":"49f2e7c8-670e-4cb2-9503-594807ca0aad","system_id":"levelo_inurba_marseille","lat":43.27835,"lon":5.39211,"is_reserved":false,"is_disabled":false,"rental_uris":{"android":"levelo://app?vid=49f2e7c8-670e-4cb2-9503-594807ca0aad","ios":"levelo://app?vid=49f2e7c8-670e-4cb2-9503-594807ca0aad"},"vehicle_type_id":"4","last_reported":1737436139,"current_range_meters":20400,"station_id":"ce4bhjp2rcd13ifvqga0","pricing_plan_id":"cebpf4jnsgd1na2vs0mg"},{"bike_id":"eab45ce9-f931-4048-8712-ef4ff14837a7","system_id":"levelo_inurba_marseille","lat":43.31168,"lon":5.38732,"is_reserved":false,"is_disabled":false,"rental_uris":{"android":"levelo://app?vid=eab45ce9-f931-4048-8712-ef4ff14837a7","ios":"levelo://app?vid=eab45ce9-f931-4048-8712-ef4ff14837a7"},"vehicle_type_id":"4","last_reported":1737436139,"current_range_meters":38000,"station_id":"ce4bgv12rcd13ifvqcp0","pricing_plan_id":"cebpf4jnsgd1na2vs0mg"},{"bike_id":"09c82fde-d64b-4f74-9640-7b61c315deb5","system_id":"levelo_inurba_marseille","lat":43.29794,"lon":5.39354,"is_reserved":false,"is_disabled":true,"rental_uris":{"android":"levelo://app?vid=09c82fde-d64b-4f74-9640-7b61c315deb5","ios":"levelo://app?vid=09c82fde-d64b-4f74-9640-7b61c315deb5"},"vehicle_type_id":"4","last_reported":1737436139,"current_range_meters":37600,"station_id":"chh1huq6cuj3fo74tm60","pricing_plan_id":"cebpf4jnsgd1na2vs0mg"},{"bike_id":"079bb072-bfe9-4cb5-9947-3f9e03f9ed52","system_id":"levelo_inurba_marseille","lat":43.2927,"lon":5.40131,"is_reserved":false,"is_disabled":false,"rental_uris":{"android":"levelo://app?vid=079bb072-bfe9-4cb5-9947-3f9e03f9ed52","ios":"levelo://app?vid=079bb072-bfe9-4cb5-9947-3f9e03f9ed52"},"vehicle_type_id":"4","last_reported":1737436139,"current_range_meters":34800,"station_id":"ce4bh312rcd13ifvqdk0","pricing_plan_id":"cebpf4jnsgd1na2vs0mg"},{"bike_id":"fdd43749-8090-4a9c-a08e-7437e54d93f0","system_id":"levelo_inurba_marseille","lat":43.27211,"lon":5.39188,"is_reserved":false,"is_disabled":false,"rental_uris":{"android":"levelo://app?vid=fdd43749-8090-4a9c-a08e-7437e54d93f0","ios":"levelo://app?vid=fdd43749-8090-4a9c-a08e-7437e54d93f0"},"vehicle_type_id":"4","last_reported":1737436139,"current_range_meters":28400,"station_id":"ce4bhhp2rcd13ifvqfm0","pricing_plan_id":"cebpf4jnsgd1na2vs0mg"},{"bike_id":"c29020e0-83ef-4b06-ac4f-c4422257f84a","system_id":"levelo_inurba_marseille","lat":43.363964,"lon":5.356004,"is_reserved":false,"is_disabled":false,"rental_uris":{"android":"levelo://app?vid=c29020e0-83ef-4b06-ac4f-c4422257f84a","ios":"levelo://app?vid=c29020e0-83ef-4b06-ac4f-c4422257f84a"},"vehicle_type_id":"4","last_reported":1737436139,"current_range_meters":10000,"station_id":"","pricing_plan_id":"cebpf4jnsgd1na2vs0mg"},{"bike_id":"80f92e05-422e-45b3-9d9f-66c23a3baa48","system_id":"levelo_inurba_marseille","lat":43.28141,"lon":5.42626,"is_reserved":false,"is_disabled":false,"rental_uris":{"android":"levelo://app?vid=80f92e05-422e-45b3-9d9f-66c23a3baa48","ios":"levelo://app?vid=80f92e05-422e-45b3-9d9f-66c23a3baa48"},"vehicle_type_id":"4","last_reported":1737436139,"current_range_meters":27600,"station_id":"ce4bhnh2rcd13ifvqgug","pricing_plan_id":"cebpf4jnsgd1na2vs0mg"},{"bike_id":"414603a2-f495-4e60-9a1e-27b48ae935b9","system_id":"levelo_inurba_marseille","lat":43.29534,"lon":5.39044,"is_reserved":false,"is_disabled":false,"rental_uris":{"android":"levelo://app?vid=414603a2-f495-4e60-9a1e-27b48ae935b9","ios":"levelo://app?vid=414603a2-f495-4e60-9a1e-27b48ae935b9"},"vehicle_type_id":"4","last_reported":1737436139,"current_range_meters":38800,"station_id":"ce4bh3p2rcd13ifvqdp0","pricing_plan_id":"cebpf4jnsgd1na2vs0mg"},{"bike_id":"e9ed4198-3645-4c82-a7b1-536b1aba6d12","system_id":"levelo_inurba_marseille","lat":43.323636,"lon":5.388876,"is_reserved":false,"is_disabled":false,"rental_uris":{"android":"levelo://app?vid=e9ed4198-3645-4c82-a7b1-536b1aba6d12","ios":"levelo://app?vid=e9ed4198-3645-4c82-a7b1-536b1aba6d12"},"vehicle_type_id":"4","last_reported":1737436139,"current_range_meters":38800,"station_id":"ce4bhqp2rcd13ifvqhog","pricing_plan_id":"cebpf4jnsgd1na2vs0mg"},{"bike_id":"a4929f10-be42-40bd-9958-40ba2c4eec72","system_id":"levelo_inurba_marseille","lat":43.33014,"lon":5.39026,"is_reserved":false,"is_disabled":false,"rental_uris":{"android":"levelo://app?vid=a4929f10-be42-40bd-9958-40ba2c4eec72","ios":"levelo://app?vid=a4929f10-be42-40bd-9958-40ba2c4eec72"},"vehicle_type_id":"4","last_reported":1737436139,"current_range_meters":16000,"station_id":"ce4bhr92rcd13ifvqhrg","pricing_plan_id":"cebpf4jnsgd1na2vs0mg"},{"bike_id":"ab7b1d7a-8ae0-4c4a-9611-7e663b41825a","system_id":"levelo_inurba_marseille","lat":43.322856,"lon":5.382913,"is_reserved":false,"is_disabled":false,"rental_uris":{"android":"levelo://app?vid=ab7b1d7a-8ae0-4c4a-9611-7e663b41825a","ios":"levelo://app?vid=ab7b1d7a-8ae0-4c4a-9611-7e663b41825a"},"vehicle_type_id":"4","last_reported":1737436139,"current_range_meters":38800,"station_id":"ce4bhr12rcd13ifvqhqg","pricing_plan_id":"cebpf4jnsgd1na2vs0mg"},{"bike_id":"d4a18e16-6eb1-455f-9f8d-52c212244e83","system_id":"levelo_inurba_marseille","lat":43.2781,"lon":5.40503,"is_reserved":false,"is_disabled":true,"rental_uris":{"android":"levelo://app?vid=d4a18e16-6eb1-455f-9f8d-52c212244e83","ios":"levelo://app?vid=d4a18e16-6eb1-455f-9f8d-52c212244e83"},"vehicle_type_id":"4","last_reported":1737436139,"current_range_meters":0,"station_id":"","pricing_plan_id":"cebpf4jnsgd1na2vs0mg"},{"bike_id":"629f0718-cf09-4c6c-aac5-30e94504c5f3","system_id":"levelo_inurba_marseille","lat":43.268052,"lon":5.402561,"is_reserved":false,"is_disabled":false,"rental_uris":{"android":"levelo://app?vid=629f0718-cf09-4c6c-aac5-30e94504c5f3","ios":"levelo://app?vid=629f0718-cf09-4c6c-aac5-30e94504c5f3"},"vehicle_type_id":"4","last_reported":1737436139,"current_range_meters":39200,"station_id":"ce501612rcd8frsf0b60","pricing_plan_id":"cebpf4jnsgd1na2vs0mg"},{"bike_id":"4a31d953-a351-4e4b-a04e-ac11058ef623","system_id":"levelo_inurba_marseille","lat":43.27834,"lon":5.40708,"is_reserved":false,"is_disabled":false,"rental_uris":{"android":"levelo://app?vid=4a31d953-a351-4e4b-a04e-ac11058ef623","ios":"levelo://app?vid=4a31d953-a351-4e4b-a04e-ac11058ef623"},"vehicle_type_id":"4","last_reported":1737436139,"current_range_meters":28000,"station_id":"ce4bhnh2rcd13ifvqgtg","pricing_plan_id":"cebpf4jnsgd1na2vs0mg"},{"bike_id":"f84f394e-2917-447e-93c4-9487928d7f87","system_id":"levelo_inurba_marseille","lat":43.27822,"lon":5.40725,"is_reserved":false,"is_disabled":false,"rental_uris":{"android":"levelo://app?vid=f84f394e-2917-447e-93c4-9487928d7f87","ios":"levelo://app?vid=f84f394e-2917-447e-93c4-9487928d7f87"},"vehicle_type_id":"4","last_reported":1737436139,"current_range_meters":38400,"station_id":"ce4bhnh2rcd13ifvqgtg","pricing_plan_id":"cebpf4jnsgd1na2vs0mg"},{"bike_id":"30b5edee-161e-45ab-852e-b4ceef7c68a9","system_id":"levelo_inurba_marseille","lat":43.231529,"lon":5.437233,"is_reserved":false,"is_disabled":false,"rental_uris":{"android":"levelo://app?vid=30b5edee-161e-45ab-852e-b4ceef7c68a9","ios":"levelo://app?vid=30b5edee-161e-45ab-852e-b4ceef7c68a9"},"vehicle_type_id":"4","last_reported":1737436139,"current_range_meters":38800,"station_id":"ce4bhmp2rcd13ifvqgog","pricing_plan_id":"cebpf4jnsgd1na2vs0mg"},{"bike_id":"a5f0a85d-e511-441d-8563-576f08845eeb","system_id":"levelo_inurba_marseille","lat":43.30887,"lon":5.39623,"is_reserved":false,"is_disabled":false,"rental_uris":{"android":"levelo://app?vid=a5f0a85d-e511-441d-8563-576f08845eeb","ios":"levelo://app?vid=a5f0a85d-e511-441d-8563-576f08845eeb"},"vehicle_type_id":"4","last_reported":1737436139,"current_range_meters":28400,"station_id":"ce4bh012rcd13ifvqcv0","pricing_plan_id":"cebpf4jnsgd1na2vs0mg"},{"bike_id":"a7a469bb-9876-4757-8816-55025c18f7f5","system_id":"levelo_inurba_marseille","lat":43.29192,"lon":5.358,"is_reserved":false,"is_disabled":false,"rental_uris":{"android":"levelo://app?vid=a7a469bb-9876-4757-8816-55025c18f7f5","ios":"levelo://app?vid=a7a469bb-9876-4757-8816-55025c18f7f5"},"vehicle_type_id":"4","last_reported":1737436139,"current_range_meters":38000,"station_id":"ce4bhb12rcd13ifvqel0","pricing_plan_id":"cebpf4jnsgd1na2vs0mg"},{"bike_id":"e8c1ad96-5496-4bfb-8d3b-e114b1929cc8","system_id":"levelo_inurba_marseille","lat":43.25722,"lon":5.41108,"is_reserved":false,"is_disabled":false,"rental_uris":{"android":"levelo://app?vid=e8c1ad96-5496-4bfb-8d3b-e114b1929cc8","ios":"levelo://app?vid=e8c1ad96-5496-4bfb-8d3b-e114b1929cc8"},"vehicle_type_id":"4","last_reported":1737436139,"current_range_meters":37600,"station_id":"ce4bhkp2rcd13ifvqgd0","pricing_plan_id":"cebpf4jnsgd1na2vs0mg"},{"bike_id":"de8d9fdf-7b46-48ad-a51d-f0132537ad32","system_id":"levelo_inurba_marseille","lat":43.32351,"lon":5.38875,"is_reserved":false,"is_disabled":false,"rental_uris":{"android":"levelo://app?vid=de8d9fdf-7b46-48ad-a51d-f0132537ad32","ios":"levelo://app?vid=de8d9fdf-7b46-48ad-a51d-f0132537ad32"},"vehicle_type_id":"4","last_reported":1737436139,"current_range_meters":22400,"station_id":"ce4bhqp2rcd13ifvqhog","pricing_plan_id":"cebpf4jnsgd1na2vs0mg"},{"bike_id":"263584a7-b721-4333-8e39-8a470df48382","system_id":"levelo_inurba_marseille","lat":43.26221,"lon":5.40455,"is_reserved":false,"is_disabled":false,"rental_uris":{"android":"levelo://app?vid=263584a7-b721-4333-8e39-8a470df48382","ios":"levelo://app?vid=263584a7-b721-4333-8e39-8a470df48382"},"vehicle_type_id":"4","last_reported":1737436139,"current_range_meters":28000,"station_id":"","pricing_plan_id":"cebpf4jnsgd1na2vs0mg"},{"bike_id":"d5f1bcbb-0836-4bf4-9eda-14c775db600d","system_id":"levelo_inurba_marseille","lat":43.30394,"lon":5.397536,"is_reserved":false,"is_disabled":false,"rental_uris":{"android":"levelo://app?vid=d5f1bcbb-0836-4bf4-9eda-14c775db600d","ios":"levelo://app?vid=d5f1bcbb-0836-4bf4-9eda-14c775db600d"},"vehicle_type_id":"4","last_reported":1737436139,"current_range_meters":38000,"station_id":"ce4bh092rcd13ifvqd20","pricing_plan_id":"cebpf4jnsgd1na2vs0mg"},{"bike_id":"db090fa3-42a7-4621-ba95-24031c78cef7","system_id":"levelo_inurba_marseille","lat":43.26495,"lon":5.39563,"is_reserved":false,"is_disabled":true,"rental_uris":{"android":"levelo://app?vid=db090fa3-42a7-4621-ba95-24031c78cef7","ios":"levelo://app?vid=db090fa3-42a7-4621-ba95-24031c78cef7"},"vehicle_type_id":"4","last_reported":1737436139,"current_range_meters":0,"station_id":"ce4bhi12rcd13ifvqfq0","pricing_plan_id":"cebpf4jnsgd1na2vs0mg"},{"bike_id":"2cca0472-e2a4-439d-914d-f9fce7966f79","system_id":"levelo_inurba_marseille","lat":43.28852,"lon":5.35808,"is_reserved":false,"is_disabled":false,"rental_uris":{"android":"levelo://app?vid=2cca0472-e2a4-439d-914d-f9fce7966f79","ios":"levelo://app?vid=2cca0472-e2a4-439d-914d-f9fce7966f79"},"vehicle_type_id":"4","last_reported":1737436139,"current_range_meters":38800,"station_id":"ce4bhb12rcd13ifvqem0","pricing_plan_id":"cebpf4jnsgd1na2vs0mg"},{"bike_id":"97c9f760-eae3-41a1-b6c5-9a4aa00bae53","system_id":"levelo_inurba_marseille","lat":43.28368,"lon":5.38638,"is_reserved":false,"is_disabled":false,"rental_uris":{"android":"levelo://app?vid=97c9f760-eae3-41a1-b6c5-9a4aa00bae53","ios":"levelo://app?vid=97c9f760-eae3-41a1-b6c5-9a4aa00bae53"},"vehicle_type_id":"4","last_reported":1737436139,"current_range_meters":39200,"station_id":"ce4bh492rcd13ifvqdvg","pricing_plan_id":"cebpf4jnsgd1na2vs0mg"},{"bike_id":"1df86f32-2cf2-4763-b0a8-e4c3956472b6","system_id":"levelo_inurba_marseille","lat":43.28708,"lon":5.37385,"is_reserved":false,"is_disabled":false,"rental_uris":{"android":"levelo://app?vid=1df86f32-2cf2-4763-b0a8-e4c3956472b6","ios":"levelo://app?vid=1df86f32-2cf2-4763-b0a8-e4c3956472b6"},"vehicle_type_id":"4","last_reported":1737436139,"current_range_meters":16000,"station_id":"ce4bh3p2rcd13ifvqdq0","pricing_plan_id":"cebpf4jnsgd1na2vs0mg"},{"bike_id":"a182fc4c-8bc2-4ced-a900-365aea0e4cec","system_id":"levelo_inurba_marseille","lat":43.279986,"lon":5.400266,"is_reserved":false,"is_disabled":false,"rental_uris":{"android":"levelo://app?vid=a182fc4c-8bc2-4ced-a900-365aea0e4cec","ios":"levelo://app?vid=a182fc4c-8bc2-4ced-a900-365aea0e4cec"},"vehicle_type_id":"4","last_reported":1737436139,"current_range_meters":33200,"station_id":"ce4bho92rcd13ifvqh4g","pricing_plan_id":"cebpf4jnsgd1na2vs0mg"},{"bike_id":"62bf0473-baaf-4ced-b8ff-c57da3495cce","system_id":"levelo_inurba_marseille","lat":43.29877,"lon":5.39732,"is_reserved":false,"is_disabled":false,"rental_uris":{"android":"levelo://app?vid=62bf0473-baaf-4ced-b8ff-c57da3495cce","ios":"levelo://app?vid=62bf0473-baaf-4ced-b8ff-c57da3495cce"},"vehicle_type_id":"4","last_reported":1737436139,"current_range_meters":38800,"station_id":"ce4bh0h2rcd13ifvqd50","pricing_plan_id":"cebpf4jnsgd1na2vs0mg"},{"bike_id":"35f17cf8-4827-4bc9-a34c-2d3cc931696f","system_id":"levelo_inurba_marseille","lat":43.29632,"lon":5.4059,"is_reserved":false,"is_disabled":false,"rental_uris":{"android":"levelo://app?vid=35f17cf8-4827-4bc9-a34c-2d3cc931696f","ios":"levelo://app?vid=35f17cf8-4827-4bc9-a34c-2d3cc931696f"},"vehicle_type_id":"4","last_reported":1737436139,"current_range_meters":38800,"station_id":"ce4bh0h2rcd13ifvqd60","pricing_plan_id":"cebpf4jnsgd1na2vs0mg"},{"bike_id":"fcc5ea4d-68d6-426d-96c7-13ae6f33ba8d","system_id":"levelo_inurba_marseille","lat":43.30126,"lon":5.39864,"is_reserved":false,"is_disabled":false,"rental_uris":{"android":"levelo://app?vid=fcc5ea4d-68d6-426d-96c7-13ae6f33ba8d","ios":"levelo://app?vid=fcc5ea4d-68d6-426d-96c7-13ae6f33ba8d"},"vehicle_type_id":"4","last_reported":1737436139,"current_range_meters":8800,"station_id":"ce4bh0h2rcd13ifvqd40","pricing_plan_id":"cebpf4jnsgd1na2vs0mg"},{"bike_id":"b01a0517-838b-46fa-b08a-ced719493443","system_id":"levelo_inurba_marseille","lat":43.29877,"lon":5.39736,"is_reserved":false,"is_disabled":false,"rental_uris":{"android":"levelo://app?vid=b01a0517-838b-46fa-b08a-ced719493443","ios":"levelo://app?vid=b01a0517-838b-46fa-b08a-ced719493443"},"vehicle_type_id":"4","last_reported":1737436139,"current_range_meters":38800,"station_id":"ce4bh0h2rcd13ifvqd50","pricing_plan_id":"cebpf4jnsgd1na2vs0mg"},{"bike_id":"3860f79b-6390-4baa-9962-103869425bc6","system_id":"levelo_inurba_marseille","lat":43.29893,"lon":5.43672,"is_reserved":false,"is_disabled":false,"rental_uris":{"android":"levelo://app?vid=3860f79b-6390-4baa-9962-103869425bc6","ios":"levelo://app?vid=3860f79b-6390-4baa-9962-103869425bc6"},"vehicle_type_id":"4","last_reported":1737436139,"current_range_meters":14400,"station_id":"ce4bhpp2rcd13ifvqhfg","pricing_plan_id":"cebpf4jnsgd1na2vs0mg"},{"bike_id":"c6aec08a-95b2-468e-b6ba-3552b798296e","system_id":"levelo_inurba_marseille","lat":43.33621,"lon":5.40983,"is_reserved":false,"is_disabled":false,"rental_uris":{"android":"levelo://app?vid=c6aec08a-95b2-468e-b6ba-3552b798296e","ios":"levelo://app?vid=c6aec08a-95b2-468e-b6ba-3552b798296e"},"vehicle_type_id":"4","last_reported":1737436139,"current_range_meters":29600,"station_id":"ce4bhqh2rcd13ifvqhmg","pricing_plan_id":"cebpf4jnsgd1na2vs0mg"},{"bike_id":"57b9fcf7-ed67-49fd-bf0a-8cfaa7d29c57","system_id":"levelo_inurba_marseille","lat":43.29886,"lon":5.39733,"is_reserved":false,"is_disabled":false,"rental_uris":{"android":"levelo://app?vid=57b9fcf7-ed67-49fd-bf0a-8cfaa7d29c57","ios":"levelo://app?vid=57b9fcf7-ed67-49fd-bf0a-8cfaa7d29c57"},"vehicle_type_id":"4","last_reported":1737436139,"current_range_meters":25600,"station_id":"ce4bh0h2rcd13ifvqd50","pricing_plan_id":"cebpf4jnsgd1na2vs0mg"},{"bike_id":"91c7ab48-9e00-4e35-be55-19c2af9c2a6c","system_id":"levelo_inurba_marseille","lat":43.31366,"lon":5.38497,"is_reserved":false,"is_disabled":false,"rental_uris":{"android":"levelo://app?vid=91c7ab48-9e00-4e35-be55-19c2af9c2a6c","ios":"levelo://app?vid=91c7ab48-9e00-4e35-be55-19c2af9c2a6c"},"vehicle_type_id":"4","last_reported":1737436139,"current_range_meters":38800,"station_id":"ce4bgt92rcd13ifvqcf0","pricing_plan_id":"cebpf4jnsgd1na2vs0mg"},{"bike_id":"f77bba92-4bd7-4b47-82bd-449cc86c42a5","system_id":"levelo_inurba_marseille","lat":43.32335,"lon":5.40616,"is_reserved":false,"is_disabled":false,"rental_uris":{"android":"levelo://app?vid=f77bba92-4bd7-4b47-82bd-449cc86c42a5","ios":"levelo://app?vid=f77bba92-4bd7-4b47-82bd-449cc86c42a5"},"vehicle_type_id":"4","last_reported":1737436139,"current_range_meters":33200,"station_id":"ce4bhq92rcd13ifvqhjg","pricing_plan_id":"cebpf4jnsgd1na2vs0mg"},{"bike_id":"f1f5e33d-2d8c-4533-8e21-efc4c8a6790b","system_id":"levelo_inurba_marseille","lat":43.28463,"lon":5.39249,"is_reserved":false,"is_disabled":false,"rental_uris":{"android":"levelo://app?vid=f1f5e33d-2d8c-4533-8e21-efc4c8a6790b","ios":"levelo://app?vid=f1f5e33d-2d8c-4533-8e21-efc4c8a6790b"},"vehicle_type_id":"4","last_reported":1737436139,"current_range_meters":38800,"station_id":"ce4bhoh2rcd13ifvqh5g","pricing_plan_id":"cebpf4jnsgd1na2vs0mg"},{"bike_id":"a36b9fb5-2bd8-4acb-a1f7-387150f52ee2","system_id":"levelo_inurba_marseille","lat":43.28902,"lon":5.35807,"is_reserved":false,"is_disabled":false,"rental_uris":{"android":"levelo://app?vid=a36b9fb5-2bd8-4acb-a1f7-387150f52ee2","ios":"levelo://app?vid=a36b9fb5-2bd8-4acb-a1f7-387150f52ee2"},"vehicle_type_id":"4","last_reported":1737436139,"current_range_meters":38800,"station_id":"ce4bhb12rcd13ifvqem0","pricing_plan_id":"cebpf4jnsgd1na2vs0mg"},{"bike_id":"8d392e92-e3c9-4e4d-9d12-6b9a7a4ebd37","system_id":"levelo_inurba_marseille","lat":43.29794,"lon":5.37101,"is_reserved":false,"is_disabled":false,"rental_uris":{"android":"levelo://app?vid=8d392e92-e3c9-4e4d-9d12-6b9a7a4ebd37","ios":"levelo://app?vid=8d392e92-e3c9-4e4d-9d12-6b9a7a4ebd37"},"vehicle_type_id":"4","last_reported":1737436139,"current_range_meters":38800,"station_id":"ce4bgop2rcd13ifvqc1g","pricing_plan_id":"cebpf4jnsgd1na2vs0mg"},{"bike_id":"218637f8-c406-4114-98c5-7ae81f36ee0c","system_id":"levelo_inurba_marseille","lat":43.308015,"lon":5.435184,"is_reserved":false,"is_disabled":false,"rental_uris":{"android":"levelo://app?vid=218637f8-c406-4114-98c5-7ae81f36ee0c","ios":"levelo://app?vid=218637f8-c406-4114-98c5-7ae81f36ee0c"},"vehicle_type_id":"4","last_reported":1737436139,"current_range_meters":7200,"station_id":"ce4bhph2rcd13ifvqheg","pricing_plan_id":"cebpf4jnsgd1na2vs0mg"},{"bike_id":"e7ad8032-7d51-432d-8891-1b85f3e7060a","system_id":"levelo_inurba_marseille","lat":43.280206,"lon":5.369391,"is_reserved":false,"is_disabled":false,"rental_uris":{"android":"levelo://app?vid=e7ad8032-7d51-432d-8891-1b85f3e7060a","ios":"levelo://app?vid=e7ad8032-7d51-432d-8891-1b85f3e7060a"},"vehicle_type_id":"4","last_reported":1737436139,"current_range_meters":37600,"station_id":"ce4bha12rcd13ifvqef0","pricing_plan_id":"cebpf4jnsgd1na2vs0mg"},{"bike_id":"ad6c039d-169e-4be2-9f20-740d5f479877","system_id":"levelo_inurba_marseille","lat":43.29548,"lon":5.39037,"is_reserved":false,"is_disabled":false,"rental_uris":{"android":"levelo://app?vid=ad6c039d-169e-4be2-9f20-740d5f479877","ios":"levelo://app?vid=ad6c039d-169e-4be2-9f20-740d5f479877"},"vehicle_type_id":"4","last_reported":1737436139,"current_range_meters":38800,"station_id":"ce4bh3p2rcd13ifvqdp0","pricing_plan_id":"cebpf4jnsgd1na2vs0mg"},{"bike_id":"616d4f49-a5fd-43a7-9261-6729c7c62b8d","system_id":"levelo_inurba_marseille","lat":43.29886,"lon":5.39744,"is_reserved":false,"is_disabled":false,"rental_uris":{"android":"levelo://app?vid=616d4f49-a5fd-43a7-9261-6729c7c62b8d","ios":"levelo://app?vid=616d4f49-a5fd-43a7-9261-6729c7c62b8d"},"vehicle_type_id":"4","last_reported":1737436139,"current_range_meters":38400,"station_id":"ce4bh0h2rcd13ifvqd50","pricing_plan_id":"cebpf4jnsgd1na2vs0mg"},{"bike_id":"8f19bb60-efdc-441c-a044-6daca3222de1","system_id":"levelo_inurba_marseille","lat":43.28662,"lon":5.36352,"is_reserved":false,"is_disabled":false,"rental_uris":{"android":"levelo://app?vid=8f19bb60-efdc-441c-a044-6daca3222de1","ios":"levelo://app?vid=8f19bb60-efdc-441c-a044-6daca3222de1"},"vehicle_type_id":"4","last_reported":1737436139,"current_range_meters":38800,"station_id":"ce4bhah2rcd13ifvqej0","pricing_plan_id":"cebpf4jnsgd1na2vs0mg"},{"bike_id":"724cc43c-9f87-4afe-ac3d-7d41bc77c0b1","system_id":"levelo_inurba_marseille","lat":43.29048,"lon":5.35912,"is_reserved":false,"is_disabled":false,"rental_uris":{"android":"levelo://app?vid=724cc43c-9f87-4afe-ac3d-7d41bc77c0b1","ios":"levelo://app?vid=724cc43c-9f87-4afe-ac3d-7d41bc77c0b1"},"vehicle_type_id":"4","last_reported":1737436139,"current_range_meters":38800,"station_id":"ce4bha92rcd13ifvqeg0","pricing_plan_id":"cebpf4jnsgd1na2vs0mg"},{"bike_id":"73f33307-f189-4765-b4cf-109038e52a65","system_id":"levelo_inurba_marseille","lat":43.2847,"lon":5.38555,"is_reserved":false,"is_disabled":false,"rental_uris":{"android":"levelo://app?vid=73f33307-f189-4765-b4cf-109038e52a65","ios":"levelo://app?vid=73f33307-f189-4765-b4cf-109038e52a65"},"vehicle_type_id":"4","last_reported":1737436139,"current_range_meters":38000,"station_id":"ce4bh8p2rcd13ifvqeb0","pricing_plan_id":"cebpf4jnsgd1na2vs0mg"},{"bike_id":"6d06bc90-1d32-4516-9bc9-b423317e82c4","system_id":"levelo_inurba_marseille","lat":43.317059,"lon":5.377679,"is_reserved":false,"is_disabled":true,"rental_uris":{"android":"levelo://app?vid=6d06bc90-1d32-4516-9bc9-b423317e82c4","ios":"levelo://app?vid=6d06bc90-1d32-4516-9bc9-b423317e82c4"},"vehicle_type_id":"4","last_reported":1737436139,"current_range_meters":26800,"station_id":"ce4bgth2rcd13ifvqch0","pricing_plan_id":"cebpf4jnsgd1na2vs0mg"},{"bike_id":"cce12ba0-0821-48ca-b8d2-faf222123b01","system_id":"levelo_inurba_marseille","lat":43.279885,"lon":5.400208,"is_reserved":false,"is_disabled":false,"rental_uris":{"android":"levelo://app?vid=cce12ba0-0821-48ca-b8d2-faf222123b01","ios":"levelo://app?vid=cce12ba0-0821-48ca-b8d2-faf222123b01"},"vehicle_type_id":"4","last_reported":1737436139,"current_range_meters":38800,"station_id":"ce4bho92rcd13ifvqh4g","pricing_plan_id":"cebpf4jnsgd1na2vs0mg"},{"bike_id":"68c49633-2755-4511-925d-0fdf7592e8b5","system_id":"levelo_inurba_marseille","lat":43.30465,"lon":5.37903,"is_reserved":false,"is_disabled":false,"rental_uris":{"android":"levelo://app?vid=68c49633-2755-4511-925d-0fdf7592e8b5","ios":"levelo://app?vid=68c49633-2755-4511-925d-0fdf7592e8b5"},"vehicle_type_id":"4","last_reported":1737436139,"current_range_meters":32400,"station_id":"ce4bgup2rcd13ifvqcn0","pricing_plan_id":"cebpf4jnsgd1na2vs0mg"},{"bike_id":"1dc37bf7-8f6f-45cf-988b-e29cb54fc0ad","system_id":"levelo_inurba_marseille","lat":43.286864,"lon":5.386708,"is_reserved":false,"is_disabled":false,"rental_uris":{"android":"levelo://app?vid=1dc37bf7-8f6f-45cf-988b-e29cb54fc0ad","ios":"levelo://app?vid=1dc37bf7-8f6f-45cf-988b-e29cb54fc0ad"},"vehicle_type_id":"4","last_reported":1737436139,"current_range_meters":38000,"station_id":"ce4bh492rcd13ifvqdug","pricing_plan_id":"cebpf4jnsgd1na2vs0mg"},{"bike_id":"b6cc31be-151e-4d56-8839-e71a9cd45b18","system_id":"levelo_inurba_marseille","lat":43.231934,"lon":5.355601,"is_reserved":false,"is_disabled":false,"rental_uris":{"android":"levelo://app?vid=b6cc31be-151e-4d56-8839-e71a9cd45b18","ios":"levelo://app?vid=b6cc31be-151e-4d56-8839-e71a9cd45b18"},"vehicle_type_id":"4","last_reported":1737436139,"current_range_meters":38400,"station_id":"ce4bhu92rcd13ifvqi70","pricing_plan_id":"cebpf4jnsgd1na2vs0mg"},{"bike_id":"4104cbba-088f-4383-b2a0-261d17699731","system_id":"levelo_inurba_marseille","lat":43.23965,"lon":5.36643,"is_reserved":false,"is_disabled":false,"rental_uris":{"android":"levelo://app?vid=4104cbba-088f-4383-b2a0-261d17699731","ios":"levelo://app?vid=4104cbba-088f-4383-b2a0-261d17699731"},"vehicle_type_id":"4","last_reported":1737436139,"current_range_meters":29600,"station_id":"ce4bhi12rcd13ifvqfp0","pricing_plan_id":"cebpf4jnsgd1na2vs0mg"},{"bike_id":"28bc3cb4-2612-400a-83bf-7b03d2d7e732","system_id":"levelo_inurba_marseille","lat":43.25127,"lon":5.40339,"is_reserved":false,"is_disabled":false,"rental_uris":{"android":"levelo://app?vid=28bc3cb4-2612-400a-83bf-7b03d2d7e732","ios":"levelo://app?vid=28bc3cb4-2612-400a-83bf-7b03d2d7e732"},"vehicle_type_id":"4","last_reported":1737436139,"current_range_meters":16400,"station_id":"ce4bhlh2rcd13ifvqgig","pricing_plan_id":"cebpf4jnsgd1na2vs0mg"},{"bike_id":"d45376d5-97b9-4926-ac67-381cc768c519","system_id":"levelo_inurba_marseille","lat":43.29791,"lon":5.40416,"is_reserved":false,"is_disabled":false,"rental_uris":{"android":"levelo://app?vid=d45376d5-97b9-4926-ac67-381cc768c519","ios":"levelo://app?vid=d45376d5-97b9-4926-ac67-381cc768c519"},"vehicle_type_id":"4","last_reported":1737436139,"current_range_meters":38000,"station_id":"ce4bh112rcd13ifvqd90","pricing_plan_id":"cebpf4jnsgd1na2vs0mg"},{"bike_id":"e769477c-b503-4bb8-b7d3-b7f7ff9ddf2d","system_id":"levelo_inurba_marseille","lat":43.291986,"lon":5.369082,"is_reserved":false,"is_disabled":false,"rental_uris":{"android":"levelo://app?vid=e769477c-b503-4bb8-b7d3-b7f7ff9ddf2d","ios":"levelo://app?vid=e769477c-b503-4bb8-b7d3-b7f7ff9ddf2d"},"vehicle_type_id":"4","last_reported":1737436139,"current_range_meters":11600,"station_id":"","pricing_plan_id":"cebpf4jnsgd1na2vs0mg"},{"bike_id":"28ef1c1e-dd89-43e8-817b-9b489831397b","system_id":"levelo_inurba_marseille","lat":43.27114,"lon":5.396058,"is_reserved":false,"is_disabled":true,"rental_uris":{"android":"levelo://app?vid=28ef1c1e-dd89-43e8-817b-9b489831397b","ios":"levelo://app?vid=28ef1c1e-dd89-43e8-817b-9b489831397b"},"vehicle_type_id":"4","last_reported":1737436139,"current_range_meters":0,"station_id":"","pricing_plan_id":"cebpf4jnsgd1na2vs0mg"},{"bike_id":"776f7a4d-f452-49fc-8e87-1dac725c40a0","system_id":"levelo_inurba_marseille","lat":43.24182,"lon":5.39729,"is_reserved":false,"is_disabled":false,"rental_uris":{"android":"levelo://app?vid=776f7a4d-f452-49fc-8e87-1dac725c40a0","ios":"levelo://app?vid=776f7a4d-f452-49fc-8e87-1dac725c40a0"},"vehicle_type_id":"4","last_reported":1737436139,"current_range_meters":34800,"station_id":"ce4bhn12rcd13ifvqgpg","pricing_plan_id":"cebpf4jnsgd1na2vs0mg"},{"bike_id":"ef9f5283-1c36-47ba-ba58-583e077e7770","system_id":"levelo_inurba_marseille","lat":43.23189,"lon":5.39974,"is_reserved":false,"is_disabled":false,"rental_uris":{"android":"levelo://app?vid=ef9f5283-1c36-47ba-ba58-583e077e7770","ios":"levelo://app?vid=ef9f5283-1c36-47ba-ba58-583e077e7770"},"vehicle_type_id":"4","last_reported":1737436139,"current_range_meters":39200,"station_id":"ce4bhn12rcd13ifvqgqg","pricing_plan_id":"cebpf4jnsgd1na2vs0mg"},{"bike_id":"973357c8-dead-42ca-92e9-500225bc994c","system_id":"levelo_inurba_marseille","lat":43.3303,"lon":5.39053,"is_reserved":false,"is_disabled":false,"rental_uris":{"android":"levelo://app?vid=973357c8-dead-42ca-92e9-500225bc994c","ios":"levelo://app?vid=973357c8-dead-42ca-92e9-500225bc994c"},"vehicle_type_id":"4","last_reported":1737436139,"current_range_meters":39200,"station_id":"ce4bhr92rcd13ifvqhrg","pricing_plan_id":"cebpf4jnsgd1na2vs0mg"},{"bike_id":"156ad80c-63be-4203-86af-9e373a3a959a","system_id":"levelo_inurba_marseille","lat":43.286631,"lon":5.363614,"is_reserved":false,"is_disabled":false,"rental_uris":{"android":"levelo://app?vid=156ad80c-63be-4203-86af-9e373a3a959a","ios":"levelo://app?vid=156ad80c-63be-4203-86af-9e373a3a959a"},"vehicle_type_id":"4","last_reported":1737436139,"current_range_meters":38800,"station_id":"ce4bhah2rcd13ifvqej0","pricing_plan_id":"cebpf4jnsgd1na2vs0mg"},{"bike_id":"0819d272-57a1-4229-b5b1-2e5abe9114be","system_id":"levelo_inurba_marseille","lat":43.3043,"lon":5.38897,"is_reserved":false,"is_disabled":false,"rental_uris":{"android":"levelo://app?vid=0819d272-57a1-4229-b5b1-2e5abe9114be","ios":"levelo://app?vid=0819d272-57a1-4229-b5b1-2e5abe9114be"},"vehicle_type_id":"4","last_reported":1737436139,"current_range_meters":11200,"station_id":"ce4bgk12rcd13ifvqbi0","pricing_plan_id":"cebpf4jnsgd1na2vs0mg"},{"bike_id":"1b1bb88d-f87c-46f1-a1e5-c09d43bc7504","system_id":"levelo_inurba_marseille","lat":43.2978,"lon":5.37083,"is_reserved":false,"is_disabled":false,"rental_uris":{"android":"levelo://app?vid=1b1bb88d-f87c-46f1-a1e5-c09d43bc7504","ios":"levelo://app?vid=1b1bb88d-f87c-46f1-a1e5-c09d43bc7504"},"vehicle_type_id":"4","last_reported":1737436139,"current_range_meters":14000,"station_id":"ce4bgop2rcd13ifvqc1g","pricing_plan_id":"cebpf4jnsgd1na2vs0mg"},{"bike_id":"5fa49ac5-f5fb-407d-9f73-7837cb4b4991","system_id":"levelo_inurba_marseille","lat":43.286206,"lon":5.351094,"is_reserved":false,"is_disabled":false,"rental_uris":{"android":"levelo://app?vid=5fa49ac5-f5fb-407d-9f73-7837cb4b4991","ios":"levelo://app?vid=5fa49ac5-f5fb-407d-9f73-7837cb4b4991"},"vehicle_type_id":"4","last_reported":1737436139,"current_range_meters":32000,"station_id":"ce4bhch2rcd13ifvqeug","pricing_plan_id":"cebpf4jnsgd1na2vs0mg"},{"bike_id":"4a61c313-14d2-4abc-89d4-a7e228d4ddd4","system_id":"levelo_inurba_marseille","lat":43.3081,"lon":5.38154,"is_reserved":false,"is_disabled":false,"rental_uris":{"android":"levelo://app?vid=4a61c313-14d2-4abc-89d4-a7e228d4ddd4","ios":"levelo://app?vid=4a61c313-14d2-4abc-89d4-a7e228d4ddd4"},"vehicle_type_id":"4","last_reported":1737436139,"current_range_meters":24800,"station_id":"ce4bgt12rcd13ifvqce0","pricing_plan_id":"cebpf4jnsgd1na2vs0mg"},{"bike_id":"f476d878-7cd0-4f0c-8ec2-9d9f08b67a27","system_id":"levelo_inurba_marseille","lat":43.31278,"lon":5.40162,"is_reserved":false,"is_disabled":false,"rental_uris":{"android":"levelo://app?vid=f476d878-7cd0-4f0c-8ec2-9d9f08b67a27","ios":"levelo://app?vid=f476d878-7cd0-4f0c-8ec2-9d9f08b67a27"},"vehicle_type_id":"4","last_reported":1737436139,"current_range_meters":37600,"station_id":"ce4bh092rcd13ifvqd30","pricing_plan_id":"cebpf4jnsgd1na2vs0mg"},{"bike_id":"30a9705f-1cf5-434a-9b8c-a71e5c229e93","system_id":"levelo_inurba_marseille","lat":43.308867,"lon":5.396462,"is_reserved":false,"is_disabled":false,"rental_uris":{"android":"levelo://app?vid=30a9705f-1cf5-434a-9b8c-a71e5c229e93","ios":"levelo://app?vid=30a9705f-1cf5-434a-9b8c-a71e5c229e93"},"vehicle_type_id":"4","last_reported":1737436139,"current_range_meters":25200,"station_id":"ce4bh012rcd13ifvqcv0","pricing_plan_id":"cebpf4jnsgd1na2vs0mg"},{"bike_id":"dd35f002-39c9-4904-b3f3-4dd627dfaabd","system_id":"levelo_inurba_marseille","lat":43.29611,"lon":5.40586,"is_reserved":false,"is_disabled":false,"rental_uris":{"android":"levelo://app?vid=dd35f002-39c9-4904-b3f3-4dd627dfaabd","ios":"levelo://app?vid=dd35f002-39c9-4904-b3f3-4dd627dfaabd"},"vehicle_type_id":"4","last_reported":1737436139,"current_range_meters":38000,"station_id":"ce4bh0h2rcd13ifvqd60","pricing_plan_id":"cebpf4jnsgd1na2vs0mg"},{"bike_id":"f070b28a-7465-4116-be0d-7b048963a2ee","system_id":"levelo_inurba_marseille","lat":43.29297,"lon":5.40117,"is_reserved":false,"is_disabled":false,"rental_uris":{"android":"levelo://app?vid=f070b28a-7465-4116-be0d-7b048963a2ee","ios":"levelo://app?vid=f070b28a-7465-4116-be0d-7b048963a2ee"},"vehicle_type_id":"4","last_reported":1737436139,"current_range_meters":38000,"station_id":"ce4bh312rcd13ifvqdk0","pricing_plan_id":"cebpf4jnsgd1na2vs0mg"},{"bike_id":"1bc4f972-1eb6-4a1e-8920-bbde83f7ed86","system_id":"levelo_inurba_marseille","lat":43.3093,"lon":5.36845,"is_reserved":false,"is_disabled":false,"rental_uris":{"android":"levelo://app?vid=1bc4f972-1eb6-4a1e-8920-bbde83f7ed86","ios":"levelo://app?vid=1bc4f972-1eb6-4a1e-8920-bbde83f7ed86"},"vehicle_type_id":"4","last_reported":1737436139,"current_range_meters":38000,"station_id":"ce4bgn92rcd13ifvqbvg","pricing_plan_id":"cebpf4jnsgd1na2vs0mg"},{"bike_id":"e7030034-320d-4608-a776-a72500cf3c13","system_id":"levelo_inurba_marseille","lat":43.30326,"lon":5.40432,"is_reserved":false,"is_disabled":false,"rental_uris":{"android":"levelo://app?vid=e7030034-320d-4608-a776-a72500cf3c13","ios":"levelo://app?vid=e7030034-320d-4608-a776-a72500cf3c13"},"vehicle_type_id":"4","last_reported":1737436139,"current_range_meters":34000,"station_id":"ce4bh012rcd13ifvqd10","pricing_plan_id":"cebpf4jnsgd1na2vs0mg"},{"bike_id":"01a07bd9-36a1-4c19-a88b-7c9e3a6ee490","system_id":"levelo_inurba_marseille","lat":43.25089,"lon":5.39513,"is_reserved":false,"is_disabled":false,"rental_uris":{"android":"levelo://app?vid=01a07bd9-36a1-4c19-a88b-7c9e3a6ee490","ios":"levelo://app?vid=01a07bd9-36a1-4c19-a88b-7c9e3a6ee490"},"vehicle_type_id":"4","last_reported":1737436139,"current_range_meters":27200,"station_id":"ce4bhm12rcd13ifvqgkg","pricing_plan_id":"cebpf4jnsgd1na2vs0mg"},{"bike_id":"30868fb9-be18-4137-b148-fea1b914be52","system_id":"levelo_inurba_marseille","lat":43.28002,"lon":5.40011,"is_reserved":false,"is_disabled":false,"rental_uris":{"android":"levelo://app?vid=30868fb9-be18-4137-b148-fea1b914be52","ios":"levelo://app?vid=30868fb9-be18-4137-b148-fea1b914be52"},"vehicle_type_id":"4","last_reported":1737436139,"current_range_meters":35200,"station_id":"ce4bho92rcd13ifvqh4g","pricing_plan_id":"cebpf4jnsgd1na2vs0mg"},{"bike_id":"77ff5724-d727-4cb9-9e22-72b1fa336373","system_id":"levelo_inurba_marseille","lat":43.23066,"lon":5.35497,"is_reserved":false,"is_disabled":false,"rental_uris":{"android":"levelo://app?vid=77ff5724-d727-4cb9-9e22-72b1fa336373","ios":"levelo://app?vid=77ff5724-d727-4cb9-9e22-72b1fa336373"},"vehicle_type_id":"4","last_reported":1737436139,"current_range_meters":10000,"station_id":"cpo3342slgdg3j2ifvpg","pricing_plan_id":"cebpf4jnsgd1na2vs0mg"},{"bike_id":"ec46ee25-07c5-496b-970c-cee81379a2ba","system_id":"levelo_inurba_marseille","lat":43.24655,"lon":5.38893,"is_reserved":false,"is_disabled":false,"rental_uris":{"android":"levelo://app?vid=ec46ee25-07c5-496b-970c-cee81379a2ba","ios":"levelo://app?vid=ec46ee25-07c5-496b-970c-cee81379a2ba"},"vehicle_type_id":"4","last_reported":1737436139,"current_range_meters":38000,"station_id":"ce4bhg12rcd13ifvqf60","pricing_plan_id":"cebpf4jnsgd1na2vs0mg"},{"bike_id":"6171bf13-539d-4db9-9369-d1761955dd53","system_id":"levelo_inurba_marseille","lat":43.30151,"lon":5.3809,"is_reserved":false,"is_disabled":false,"rental_uris":{"android":"levelo://app?vid=6171bf13-539d-4db9-9369-d1761955dd53","ios":"levelo://app?vid=6171bf13-539d-4db9-9369-d1761955dd53"},"vehicle_type_id":"4","last_reported":1737436139,"current_range_meters":30800,"station_id":"ce4bgjp2rcd13ifvqbh0","pricing_plan_id":"cebpf4jnsgd1na2vs0mg"},{"bike_id":"b0977a80-6e3f-461c-8852-5c7538e5b942","system_id":"levelo_inurba_marseille","lat":43.30268,"lon":5.3771,"is_reserved":false,"is_disabled":false,"rental_uris":{"android":"levelo://app?vid=b0977a80-6e3f-461c-8852-5c7538e5b942","ios":"levelo://app?vid=b0977a80-6e3f-461c-8852-5c7538e5b942"},"vehicle_type_id":"4","last_reported":1737436139,"current_range_meters":22400,"station_id":"ce4bguh2rcd13ifvqcj0","pricing_plan_id":"cebpf4jnsgd1na2vs0mg"},{"bike_id":"ef00dd28-9ff7-4102-a96b-f3c8768f47ca","system_id":"levelo_inurba_marseille","lat":43.28106,"lon":5.37839,"is_reserved":false,"is_disabled":false,"rental_uris":{"android":"levelo://app?vid=ef00dd28-9ff7-4102-a96b-f3c8768f47ca","ios":"levelo://app?vid=ef00dd28-9ff7-4102-a96b-f3c8768f47ca"},"vehicle_type_id":"4","last_reported":1737436139,"current_range_meters":38800,"station_id":"ce4bha12rcd13ifvqee0","pricing_plan_id":"cebpf4jnsgd1na2vs0mg"},{"bike_id":"3f73cdce-5679-4f8e-bdfa-397be04d5b8c","system_id":"levelo_inurba_marseille","lat":43.29524,"lon":5.39032,"is_reserved":false,"is_disabled":false,"rental_uris":{"android":"levelo://app?vid=3f73cdce-5679-4f8e-bdfa-397be04d5b8c","ios":"levelo://app?vid=3f73cdce-5679-4f8e-bdfa-397be04d5b8c"},"vehicle_type_id":"4","last_reported":1737436139,"current_range_meters":36000,"station_id":"ce4bh3p2rcd13ifvqdp0","pricing_plan_id":"cebpf4jnsgd1na2vs0mg"},{"bike_id":"be6540b7-7d75-4ee5-9d69-49255103c2e1","system_id":"levelo_inurba_marseille","lat":43.28699,"lon":5.37394,"is_reserved":false,"is_disabled":false,"rental_uris":{"android":"levelo://app?vid=be6540b7-7d75-4ee5-9d69-49255103c2e1","ios":"levelo://app?vid=be6540b7-7d75-4ee5-9d69-49255103c2e1"},"vehicle_type_id":"4","last_reported":1737436139,"current_range_meters":22400,"station_id":"ce4bh3p2rcd13ifvqdq0","pricing_plan_id":"cebpf4jnsgd1na2vs0mg"},{"bike_id":"2fe00ee8-6da5-45f1-b974-c51928fce30d","system_id":"levelo_inurba_marseille","lat":43.257184,"lon":5.411154,"is_reserved":false,"is_disabled":false,"rental_uris":{"android":"levelo://app?vid=2fe00ee8-6da5-45f1-b974-c51928fce30d","ios":"levelo://app?vid=2fe00ee8-6da5-45f1-b974-c51928fce30d"},"vehicle_type_id":"4","last_reported":1737436139,"current_range_meters":38800,"station_id":"ce4bhkp2rcd13ifvqgd0","pricing_plan_id":"cebpf4jnsgd1na2vs0mg"},{"bike_id":"49cdd9d0-bce7-4168-b807-5a16c335f2c6","system_id":"levelo_inurba_marseille","lat":43.28462,"lon":5.35873,"is_reserved":false,"is_disabled":false,"rental_uris":{"android":"levelo://app?vid=49cdd9d0-bce7-4168-b807-5a16c335f2c6","ios":"levelo://app?vid=49cdd9d0-bce7-4168-b807-5a16c335f2c6"},"vehicle_type_id":"4","last_reported":1737436139,"current_range_meters":36800,"station_id":"ce4bhah2rcd13ifvqei0","pricing_plan_id":"cebpf4jnsgd1na2vs0mg"},{"bike_id":"7f095a12-4f92-4659-8967-ab82406b1c77","system_id":"levelo_inurba_marseille","lat":43.23168,"lon":5.39962,"is_reserved":false,"is_disabled":false,"rental_uris":{"android":"levelo://app?vid=7f095a12-4f92-4659-8967-ab82406b1c77","ios":"levelo://app?vid=7f095a12-4f92-4659-8967-ab82406b1c77"},"vehicle_type_id":"4","last_reported":1737436139,"current_range_meters":39200,"station_id":"ce4bhn12rcd13ifvqgqg","pricing_plan_id":"cebpf4jnsgd1na2vs0mg"},{"bike_id":"aa720aaf-80a4-4d1e-a239-c9eefeb2c46d","system_id":"levelo_inurba_marseille","lat":43.30362,"lon":5.41876,"is_reserved":false,"is_disabled":false,"rental_uris":{"android":"levelo://app?vid=aa720aaf-80a4-4d1e-a239-c9eefeb2c46d","ios":"levelo://app?vid=aa720aaf-80a4-4d1e-a239-c9eefeb2c46d"},"vehicle_type_id":"4","last_reported":1737436139,"current_range_meters":38400,"station_id":"ce4bhop2rcd13ifvqh7g","pricing_plan_id":"cebpf4jnsgd1na2vs0mg"},{"bike_id":"5d54aab2-88c1-48af-a910-7cc379c457ee","system_id":"levelo_inurba_marseille","lat":43.28834,"lon":5.35853,"is_reserved":false,"is_disabled":false,"rental_uris":{"android":"levelo://app?vid=5d54aab2-88c1-48af-a910-7cc379c457ee","ios":"levelo://app?vid=5d54aab2-88c1-48af-a910-7cc379c457ee"},"vehicle_type_id":"4","last_reported":1737436139,"current_range_meters":38800,"station_id":"ce4bhb12rcd13ifvqem0","pricing_plan_id":"cebpf4jnsgd1na2vs0mg"},{"bike_id":"76fc3200-f33f-4190-ae84-57b96cd0c3c7","system_id":"levelo_inurba_marseille","lat":43.24819,"lon":5.37453,"is_reserved":false,"is_disabled":false,"rental_uris":{"android":"levelo://app?vid=76fc3200-f33f-4190-ae84-57b96cd0c3c7","ios":"levelo://app?vid=76fc3200-f33f-4190-ae84-57b96cd0c3c7"},"vehicle_type_id":"4","last_reported":1737436139,"current_range_meters":38800,"station_id":"ce4bhgh2rcd13ifvqfb0","pricing_plan_id":"cebpf4jnsgd1na2vs0mg"},{"bike_id":"06d7b650-1ece-4daf-acd1-ba5375622409","system_id":"levelo_inurba_marseille","lat":43.2953,"lon":5.39043,"is_reserved":false,"is_disabled":false,"rental_uris":{"android":"levelo://app?vid=06d7b650-1ece-4daf-acd1-ba5375622409","ios":"levelo://app?vid=06d7b650-1ece-4daf-acd1-ba5375622409"},"vehicle_type_id":"4","last_reported":1737436139,"current_range_meters":37600,"station_id":"ce4bh3p2rcd13ifvqdp0","pricing_plan_id":"cebpf4jnsgd1na2vs0mg"},{"bike_id":"f4769da4-49a1-4f09-884e-dbb121e5aacd","system_id":"levelo_inurba_marseille","lat":43.28154,"lon":5.42643,"is_reserved":false,"is_disabled":false,"rental_uris":{"android":"levelo://app?vid=f4769da4-49a1-4f09-884e-dbb121e5aacd","ios":"levelo://app?vid=f4769da4-49a1-4f09-884e-dbb121e5aacd"},"vehicle_type_id":"4","last_reported":1737436139,"current_range_meters":32400,"station_id":"ce4bhnh2rcd13ifvqgug","pricing_plan_id":"cebpf4jnsgd1na2vs0mg"},{"bike_id":"eaa638d9-7e2e-43a0-989a-f3e72ed09d7b","system_id":"levelo_inurba_marseille","lat":43.27908,"lon":5.37996,"is_reserved":false,"is_disabled":false,"rental_uris":{"android":"levelo://app?vid=eaa638d9-7e2e-43a0-989a-f3e72ed09d7b","ios":"levelo://app?vid=eaa638d9-7e2e-43a0-989a-f3e72ed09d7b"},"vehicle_type_id":"4","last_reported":1737436139,"current_range_meters":28000,"station_id":"ce4bhf92rcd13ifvqf50","pricing_plan_id":"cebpf4jnsgd1na2vs0mg"},{"bike_id":"4c707804-82f9-40c7-bd5a-c2828deb4c32","system_id":"levelo_inurba_marseille","lat":43.31172,"lon":5.38707,"is_reserved":false,"is_disabled":false,"rental_uris":{"android":"levelo://app?vid=4c707804-82f9-40c7-bd5a-c2828deb4c32","ios":"levelo://app?vid=4c707804-82f9-40c7-bd5a-c2828deb4c32"},"vehicle_type_id":"4","last_reported":1737436139,"current_range_meters":36800,"station_id":"ce4bgv12rcd13ifvqcp0","pricing_plan_id":"cebpf4jnsgd1na2vs0mg"},{"bike_id":"9a29d2fd-f204-4cd2-8075-881b8211a878","system_id":"levelo_inurba_marseille","lat":43.28082,"lon":5.39655,"is_reserved":false,"is_disabled":false,"rental_uris":{"android":"levelo://app?vid=9a29d2fd-f204-4cd2-8075-881b8211a878","ios":"levelo://app?vid=9a29d2fd-f204-4cd2-8075-881b8211a878"},"vehicle_type_id":"4","last_reported":1737436139,"current_range_meters":26000,"station_id":"ce4bho12rcd13ifvqh2g","pricing_plan_id":"cebpf4jnsgd1na2vs0mg"},{"bike_id":"4e004fb1-e426-458a-a785-f1c5b03c515a","system_id":"levelo_inurba_marseille","lat":43.28709,"lon":5.39976,"is_reserved":false,"is_disabled":false,"rental_uris":{"android":"levelo://app?vid=4e004fb1-e426-458a-a785-f1c5b03c515a","ios":"levelo://app?vid=4e004fb1-e426-458a-a785-f1c5b03c515a"},"vehicle_type_id":"4","last_reported":1737436139,"current_range_meters":38800,"station_id":"ce4bho92rcd13ifvqh3g","pricing_plan_id":"cebpf4jnsgd1na2vs0mg"},{"bike_id":"6909e9ee-c3d1-4d8d-b1d7-5a03148e19f1","system_id":"levelo_inurba_marseille","lat":43.27997,"lon":5.40006,"is_reserved":false,"is_disabled":false,"rental_uris":{"android":"levelo://app?vid=6909e9ee-c3d1-4d8d-b1d7-5a03148e19f1","ios":"levelo://app?vid=6909e9ee-c3d1-4d8d-b1d7-5a03148e19f1"},"vehicle_type_id":"4","last_reported":1737436139,"current_range_meters":33200,"station_id":"ce4bho92rcd13ifvqh4g","pricing_plan_id":"cebpf4jnsgd1na2vs0mg"},{"bike_id":"80bcc3e7-77de-44a5-8965-f19acb6d7452","system_id":"levelo_inurba_marseille","lat":43.3304,"lon":5.39035,"is_reserved":false,"is_disabled":false,"rental_uris":{"android":"levelo://app?vid=80bcc3e7-77de-44a5-8965-f19acb6d7452","ios":"levelo://app?vid=80bcc3e7-77de-44a5-8965-f19acb6d7452"},"vehicle_type_id":"4","last_reported":1737436139,"current_range_meters":39200,"station_id":"ce4bhr92rcd13ifvqhrg","pricing_plan_id":"cebpf4jnsgd1na2vs0mg"},{"bike_id":"dcda65e2-f8e1-4db2-80d2-ac1e7c6ed43f","system_id":"levelo_inurba_marseille","lat":43.30791,"lon":5.38143,"is_reserved":false,"is_disabled":false,"rental_uris":{"android":"levelo://app?vid=dcda65e2-f8e1-4db2-80d2-ac1e7c6ed43f","ios":"levelo://app?vid=dcda65e2-f8e1-4db2-80d2-ac1e7c6ed43f"},"vehicle_type_id":"4","last_reported":1737436139,"current_range_meters":33200,"station_id":"ce4bgt12rcd13ifvqce0","pricing_plan_id":"cebpf4jnsgd1na2vs0mg"},{"bike_id":"2e52a33e-99e9-49f6-85c9-ec26006a5d2d","system_id":"levelo_inurba_marseille","lat":43.305916,"lon":5.393485,"is_reserved":false,"is_disabled":false,"rental_uris":{"android":"levelo://app?vid=2e52a33e-99e9-49f6-85c9-ec26006a5d2d","ios":"levelo://app?vid=2e52a33e-99e9-49f6-85c9-ec26006a5d2d"},"vehicle_type_id":"4","last_reported":1737436139,"current_range_meters":31200,"station_id":"ce4bh0p2rcd13ifvqd80","pricing_plan_id":"cebpf4jnsgd1na2vs0mg"},{"bike_id":"5c647c6a-f36f-4ac4-a081-cf09345ba7c6","system_id":"levelo_inurba_marseille","lat":43.25871,"lon":5.39903,"is_reserved":false,"is_disabled":false,"rental_uris":{"android":"levelo://app?vid=5c647c6a-f36f-4ac4-a081-cf09345ba7c6","ios":"levelo://app?vid=5c647c6a-f36f-4ac4-a081-cf09345ba7c6"},"vehicle_type_id":"4","last_reported":1737436139,"current_range_meters":38800,"station_id":"ce4bhl92rcd13ifvqghg","pricing_plan_id":"cebpf4jnsgd1na2vs0mg"},{"bike_id":"fecdf35a-1464-4217-ba93-ef7c6566c9ce","system_id":"levelo_inurba_marseille","lat":43.2825,"lon":5.35049,"is_reserved":false,"is_disabled":false,"rental_uris":{"android":"levelo://app?vid=fecdf35a-1464-4217-ba93-ef7c6566c9ce","ios":"levelo://app?vid=fecdf35a-1464-4217-ba93-ef7c6566c9ce"},"vehicle_type_id":"4","last_reported":1737436139,"current_range_meters":28000,"station_id":"ce4bhbp2rcd13ifvqerg","pricing_plan_id":"cebpf4jnsgd1na2vs0mg"},{"bike_id":"c777044a-a5b8-4f74-909a-f584e9be19a8","system_id":"levelo_inurba_marseille","lat":43.265605,"lon":5.390374,"is_reserved":false,"is_disabled":false,"rental_uris":{"android":"levelo://app?vid=c777044a-a5b8-4f74-909a-f584e9be19a8","ios":"levelo://app?vid=c777044a-a5b8-4f74-909a-f584e9be19a8"},"vehicle_type_id":"4","last_reported":1737436139,"current_range_meters":28000,"station_id":"ce4bhe12rcd13ifvqf30","pricing_plan_id":"cebpf4jnsgd1na2vs0mg"},{"bike_id":"d28024cc-129a-417d-96b5-73626aa40eb5","system_id":"levelo_inurba_marseille","lat":43.2903,"lon":5.38624,"is_reserved":false,"is_disabled":false,"rental_uris":{"android":"levelo://app?vid=d28024cc-129a-417d-96b5-73626aa40eb5","ios":"levelo://app?vid=d28024cc-129a-417d-96b5-73626aa40eb5"},"vehicle_type_id":"4","last_reported":1737436139,"current_range_meters":38000,"station_id":"ce4bh4p2rcd13ifvqe0g","pricing_plan_id":"cebpf4jnsgd1na2vs0mg"},{"bike_id":"a8741c65-adc7-476f-bf86-1cf96d5d21fd","system_id":"levelo_inurba_marseille","lat":43.28411,"lon":5.3752,"is_reserved":false,"is_disabled":false,"rental_uris":{"android":"levelo://app?vid=a8741c65-adc7-476f-bf86-1cf96d5d21fd","ios":"levelo://app?vid=a8741c65-adc7-476f-bf86-1cf96d5d21fd"},"vehicle_type_id":"4","last_reported":1737436139,"current_range_meters":38800,"station_id":"ce4bh412rcd13ifvqds0","pricing_plan_id":"cebpf4jnsgd1na2vs0mg"},{"bike_id":"ef452395-3be9-454d-b5f5-c3f11f867018","system_id":"levelo_inurba_marseille","lat":43.31521,"lon":5.38033,"is_reserved":false,"is_disabled":false,"rental_uris":{"android":"levelo://app?vid=ef452395-3be9-454d-b5f5-c3f11f867018","ios":"levelo://app?vid=ef452395-3be9-454d-b5f5-c3f11f867018"},"vehicle_type_id":"4","last_reported":1737436139,"current_range_meters":31200,"station_id":"ce4bhsp2rcd13ifvqi50","pricing_plan_id":"cebpf4jnsgd1na2vs0mg"},{"bike_id":"b887ec45-2824-4a19-a327-1b38cefbc7dc","system_id":"levelo_inurba_marseille","lat":43.308994,"lon":5.368496,"is_reserved":false,"is_disabled":true,"rental_uris":{"android":"levelo://app?vid=b887ec45-2824-4a19-a327-1b38cefbc7dc","ios":"levelo://app?vid=b887ec45-2824-4a19-a327-1b38cefbc7dc"},"vehicle_type_id":"4","last_reported":1737436139,"current_range_meters":32000,"station_id":"ce4bgn92rcd13ifvqbvg","pricing_plan_id":"cebpf4jnsgd1na2vs0mg"},{"bike_id":"68e40f89-e6fb-4b2b-ac6f-49cf6a245ce1","system_id":"levelo_inurba_marseille","lat":43.251178,"lon":5.403261,"is_reserved":false,"is_disabled":false,"rental_uris":{"android":"levelo://app?vid=68e40f89-e6fb-4b2b-ac6f-49cf6a245ce1","ios":"levelo://app?vid=68e40f89-e6fb-4b2b-ac6f-49cf6a245ce1"},"vehicle_type_id":"4","last_reported":1737436139,"current_range_meters":29600,"station_id":"ce4bhlh2rcd13ifvqgig","pricing_plan_id":"cebpf4jnsgd1na2vs0mg"},{"bike_id":"41377ca0-a1f0-4559-b784-108df3d23a17","system_id":"levelo_inurba_marseille","lat":43.3361,"lon":5.41018,"is_reserved":false,"is_disabled":false,"rental_uris":{"android":"levelo://app?vid=41377ca0-a1f0-4559-b784-108df3d23a17","ios":"levelo://app?vid=41377ca0-a1f0-4559-b784-108df3d23a17"},"vehicle_type_id":"4","last_reported":1737436139,"current_range_meters":30800,"station_id":"ce4bhqh2rcd13ifvqhmg","pricing_plan_id":"cebpf4jnsgd1na2vs0mg"},{"bike_id":"4b344f4f-63b5-4284-b400-eb66c5cbadff","system_id":"levelo_inurba_marseille","lat":43.31272,"lon":5.40172,"is_reserved":false,"is_disabled":false,"rental_uris":{"android":"levelo://app?vid=4b344f4f-63b5-4284-b400-eb66c5cbadff","ios":"levelo://app?vid=4b344f4f-63b5-4284-b400-eb66c5cbadff"},"vehicle_type_id":"4","last_reported":1737436139,"current_range_meters":27200,"station_id":"ce4bh092rcd13ifvqd30","pricing_plan_id":"cebpf4jnsgd1na2vs0mg"},{"bike_id":"b39f6109-7f56-4b17-b737-eaa8ed0334b8","system_id":"levelo_inurba_marseille","lat":43.30466,"lon":5.37898,"is_reserved":false,"is_disabled":true,"rental_uris":{"android":"levelo://app?vid=b39f6109-7f56-4b17-b737-eaa8ed0334b8","ios":"levelo://app?vid=b39f6109-7f56-4b17-b737-eaa8ed0334b8"},"vehicle_type_id":"4","last_reported":1737436139,"current_range_meters":36400,"station_id":"ce4bgup2rcd13ifvqcn0","pricing_plan_id":"cebpf4jnsgd1na2vs0mg"},{"bike_id":"db9233a0-541f-470e-96f3-96db6f81cf0f","system_id":"levelo_inurba_marseille","lat":43.27811,"lon":5.40699,"is_reserved":false,"is_disabled":false,"rental_uris":{"android":"levelo://app?vid=db9233a0-541f-470e-96f3-96db6f81cf0f","ios":"levelo://app?vid=db9233a0-541f-470e-96f3-96db6f81cf0f"},"vehicle_type_id":"4","last_reported":1737436139,"current_range_meters":24400,"station_id":"ce4bhnh2rcd13ifvqgtg","pricing_plan_id":"cebpf4jnsgd1na2vs0mg"},{"bike_id":"fca9abe0-24b5-4252-ad2b-5d5e2a7f9797","system_id":"levelo_inurba_marseille","lat":43.29277,"lon":5.36856,"is_reserved":false,"is_disabled":false,"rental_uris":{"android":"levelo://app?vid=fca9abe0-24b5-4252-ad2b-5d5e2a7f9797","ios":"levelo://app?vid=fca9abe0-24b5-4252-ad2b-5d5e2a7f9797"},"vehicle_type_id":"4","last_reported":1737436139,"current_range_meters":28800,"station_id":"ce4bhbp2rcd13ifvqesg","pricing_plan_id":"cebpf4jnsgd1na2vs0mg"},{"bike_id":"a950e413-b77d-4b41-8f97-0834f313c21f","system_id":"levelo_inurba_marseille","lat":43.299178,"lon":5.374651,"is_reserved":false,"is_disabled":false,"rental_uris":{"android":"levelo://app?vid=a950e413-b77d-4b41-8f97-0834f313c21f","ios":"levelo://app?vid=a950e413-b77d-4b41-8f97-0834f313c21f"},"vehicle_type_id":"4","last_reported":1737436139,"current_range_meters":38000,"station_id":"ce4bgjh2rcd13ifvqbg0","pricing_plan_id":"cebpf4jnsgd1na2vs0mg"},{"bike_id":"08f67f24-9e69-4d0e-a5a0-2b30ac65212d","system_id":"levelo_inurba_marseille","lat":43.31344,"lon":5.39701,"is_reserved":false,"is_disabled":false,"rental_uris":{"android":"levelo://app?vid=08f67f24-9e69-4d0e-a5a0-2b30ac65212d","ios":"levelo://app?vid=08f67f24-9e69-4d0e-a5a0-2b30ac65212d"},"vehicle_type_id":"4","last_reported":1737436139,"current_range_meters":39200,"station_id":"ce4bgvp2rcd13ifvqcu0","pricing_plan_id":"cebpf4jnsgd1na2vs0mg"},{"bike_id":"ca297010-5c72-47d6-b03a-6ec90012fb07","system_id":"levelo_inurba_marseille","lat":43.268101,"lon":5.402566,"is_reserved":false,"is_disabled":false,"rental_uris":{"android":"levelo://app?vid=ca297010-5c72-47d6-b03a-6ec90012fb07","ios":"levelo://app?vid=ca297010-5c72-47d6-b03a-6ec90012fb07"},"vehicle_type_id":"4","last_reported":1737436139,"current_range_meters":11200,"station_id":"ce501612rcd8frsf0b60","pricing_plan_id":"cebpf4jnsgd1na2vs0mg"},{"bike_id":"0c741d55-e6bb-4be5-8dab-c41aff9bf1f7","system_id":"levelo_inurba_marseille","lat":43.281544,"lon":5.426435,"is_reserved":false,"is_disabled":false,"rental_uris":{"android":"levelo://app?vid=0c741d55-e6bb-4be5-8dab-c41aff9bf1f7","ios":"levelo://app?vid=0c741d55-e6bb-4be5-8dab-c41aff9bf1f7"},"vehicle_type_id":"4","last_reported":1737436139,"current_range_meters":38000,"station_id":"ce4bhnh2rcd13ifvqgug","pricing_plan_id":"cebpf4jnsgd1na2vs0mg"},{"bike_id":"c6235259-7780-4563-831e-5f71fd754b90","system_id":"levelo_inurba_marseille","lat":43.29233,"lon":5.40893,"is_reserved":false,"is_disabled":false,"rental_uris":{"android":"levelo://app?vid=c6235259-7780-4563-831e-5f71fd754b90","ios":"levelo://app?vid=c6235259-7780-4563-831e-5f71fd754b90"},"vehicle_type_id":"4","last_reported":1737436139,"current_range_meters":32000,"station_id":"ce4bh192rcd13ifvqdc0","pricing_plan_id":"cebpf4jnsgd1na2vs0mg"},{"bike_id":"de5adbf7-c4d4-49e3-ba68-72cc812f5662","system_id":"levelo_inurba_marseille","lat":43.295981,"lon":5.377213,"is_reserved":false,"is_disabled":true,"rental_uris":{"android":"levelo://app?vid=de5adbf7-c4d4-49e3-ba68-72cc812f5662","ios":"levelo://app?vid=de5adbf7-c4d4-49e3-ba68-72cc812f5662"},"vehicle_type_id":"4","last_reported":1737436139,"current_range_meters":38000,"station_id":"ce4bgi92rcd13ifvqb90","pricing_plan_id":"cebpf4jnsgd1na2vs0mg"},{"bike_id":"b697c026-1a3f-4173-8937-04c71439dde2","system_id":"levelo_inurba_marseille","lat":43.298,"lon":5.39335,"is_reserved":false,"is_disabled":false,"rental_uris":{"android":"levelo://app?vid=b697c026-1a3f-4173-8937-04c71439dde2","ios":"levelo://app?vid=b697c026-1a3f-4173-8937-04c71439dde2"},"vehicle_type_id":"4","last_reported":1737436139,"current_range_meters":34800,"station_id":"chh1huq6cuj3fo74tm60","pricing_plan_id":"cebpf4jnsgd1na2vs0mg"},{"bike_id":"15e163a8-a719-47cc-8649-f9068b3f66eb","system_id":"levelo_inurba_marseille","lat":43.24672,"lon":5.38181,"is_reserved":false,"is_disabled":false,"rental_uris":{"android":"levelo://app?vid=15e163a8-a719-47cc-8649-f9068b3f66eb","ios":"levelo://app?vid=15e163a8-a719-47cc-8649-f9068b3f66eb"},"vehicle_type_id":"4","last_reported":1737436139,"current_range_meters":24800,"station_id":"ce4bhih2rcd13ifvqfr0","pricing_plan_id":"cebpf4jnsgd1na2vs0mg"},{"bike_id":"de0e2046-c69d-4a1d-a36c-55284d20df28","system_id":"levelo_inurba_marseille","lat":43.29703,"lon":5.36588,"is_reserved":false,"is_disabled":false,"rental_uris":{"android":"levelo://app?vid=de0e2046-c69d-4a1d-a36c-55284d20df28","ios":"levelo://app?vid=de0e2046-c69d-4a1d-a36c-55284d20df28"},"vehicle_type_id":"4","last_reported":1737436139,"current_range_meters":38800,"station_id":"ce4bgn12rcd13ifvqbt0","pricing_plan_id":"cebpf4jnsgd1na2vs0mg"},{"bike_id":"a64eab1e-dbe6-4f77-87db-641966b43236","system_id":"levelo_inurba_marseille","lat":43.25085,"lon":5.39511,"is_reserved":false,"is_disabled":false,"rental_uris":{"android":"levelo://app?vid=a64eab1e-dbe6-4f77-87db-641966b43236","ios":"levelo://app?vid=a64eab1e-dbe6-4f77-87db-641966b43236"},"vehicle_type_id":"4","last_reported":1737436139,"current_range_meters":31200,"station_id":"ce4bhm12rcd13ifvqgkg","pricing_plan_id":"cebpf4jnsgd1na2vs0mg"},{"bike_id":"07ff9b6a-df59-4190-9009-d72a7d347da0","system_id":"levelo_inurba_marseille","lat":43.31767,"lon":5.39006,"is_reserved":false,"is_disabled":false,"rental_uris":{"android":"levelo://app?vid=07ff9b6a-df59-4190-9009-d72a7d347da0","ios":"levelo://app?vid=07ff9b6a-df59-4190-9009-d72a7d347da0"},"vehicle_type_id":"4","last_reported":1737436139,"current_range_meters":38000,"station_id":"ce4bhqp2rcd13ifvqhng","pricing_plan_id":"cebpf4jnsgd1na2vs0mg"},{"bike_id":"3c19884d-bb21-42e2-ae9c-8e80a218508d","system_id":"levelo_inurba_marseille","lat":43.28932,"lon":5.36413,"is_reserved":false,"is_disabled":false,"rental_uris":{"android":"levelo://app?vid=3c19884d-bb21-42e2-ae9c-8e80a218508d","ios":"levelo://app?vid=3c19884d-bb21-42e2-ae9c-8e80a218508d"},"vehicle_type_id":"4","last_reported":1737436139,"current_range_meters":39200,"station_id":"ce4bhc92rcd13ifvqetg","pricing_plan_id":"cebpf4jnsgd1na2vs0mg"},{"bike_id":"9504b7e0-2f20-49ea-814e-e380f0d8ec79","system_id":"levelo_inurba_marseille","lat":43.321086,"lon":5.367814,"is_reserved":false,"is_disabled":false,"rental_uris":{"android":"levelo://app?vid=9504b7e0-2f20-49ea-814e-e380f0d8ec79","ios":"levelo://app?vid=9504b7e0-2f20-49ea-814e-e380f0d8ec79"},"vehicle_type_id":"4","last_reported":1737436139,"current_range_meters":38800,"station_id":"ce4bhrh2rcd13ifvqhug","pricing_plan_id":"cebpf4jnsgd1na2vs0mg"},{"bike_id":"def4261b-ecda-4bf3-aa61-0e5e8ee4c990","system_id":"levelo_inurba_marseille","lat":43.32318,"lon":5.4063,"is_reserved":false,"is_disabled":false,"rental_uris":{"android":"levelo://app?vid=def4261b-ecda-4bf3-aa61-0e5e8ee4c990","ios":"levelo://app?vid=def4261b-ecda-4bf3-aa61-0e5e8ee4c990"},"vehicle_type_id":"4","last_reported":1737436139,"current_range_meters":39200,"station_id":"ce4bhq92rcd13ifvqhjg","pricing_plan_id":"cebpf4jnsgd1na2vs0mg"},{"bike_id":"f7817e8d-eab7-43f4-8262-b0948daf0edd","system_id":"levelo_inurba_marseille","lat":43.317031,"lon":5.37759,"is_reserved":false,"is_disabled":false,"rental_uris":{"android":"levelo://app?vid=f7817e8d-eab7-43f4-8262-b0948daf0edd","ios":"levelo://app?vid=f7817e8d-eab7-43f4-8262-b0948daf0edd"},"vehicle_type_id":"4","last_reported":1737436139,"current_range_meters":39200,"station_id":"ce4bgth2rcd13ifvqch0","pricing_plan_id":"cebpf4jnsgd1na2vs0mg"},{"bike_id":"c5b1bb1a-781d-4a34-a876-7b91eb7cd37f","system_id":"levelo_inurba_marseille","lat":43.28614,"lon":5.35092,"is_reserved":false,"is_disabled":false,"rental_uris":{"android":"levelo://app?vid=c5b1bb1a-781d-4a34-a876-7b91eb7cd37f","ios":"levelo://app?vid=c5b1bb1a-781d-4a34-a876-7b91eb7cd37f"},"vehicle_type_id":"4","last_reported":1737436139,"current_range_meters":32400,"station_id":"ce4bhch2rcd13ifvqeug","pricing_plan_id":"cebpf4jnsgd1na2vs0mg"},{"bike_id":"794621e3-3124-4bb3-96e3-bbeccc7c03ca","system_id":"levelo_inurba_marseille","lat":43.27866,"lon":5.40804,"is_reserved":false,"is_disabled":false,"rental_uris":{"android":"levelo://app?vid=794621e3-3124-4bb3-96e3-bbeccc7c03ca","ios":"levelo://app?vid=794621e3-3124-4bb3-96e3-bbeccc7c03ca"},"vehicle_type_id":"4","last_reported":1737436139,"current_range_meters":28400,"station_id":"","pricing_plan_id":"cebpf4jnsgd1na2vs0mg"},{"bike_id":"e49401c7-f7a8-418d-8b78-718a422cd25d","system_id":"levelo_inurba_marseille","lat":43.29173,"lon":5.37148,"is_reserved":false,"is_disabled":true,"rental_uris":{"android":"levelo://app?vid=e49401c7-f7a8-418d-8b78-718a422cd25d","ios":"levelo://app?vid=e49401c7-f7a8-418d-8b78-718a422cd25d"},"vehicle_type_id":"4","last_reported":1737436139,"current_range_meters":26000,"station_id":"ce4bha92rcd13ifvqeh0","pricing_plan_id":"cebpf4jnsgd1na2vs0mg"},{"bike_id":"da3a7eb9-5fa6-49b3-9e5b-6452969eedf1","system_id":"levelo_inurba_marseille","lat":43.2439,"lon":5.37054,"is_reserved":false,"is_disabled":true,"rental_uris":{"android":"levelo://app?vid=da3a7eb9-5fa6-49b3-9e5b-6452969eedf1","ios":"levelo://app?vid=da3a7eb9-5fa6-49b3-9e5b-6452969eedf1"},"vehicle_type_id":"4","last_reported":1737436139,"current_range_meters":22000,"station_id":"ce4bhhh2rcd13ifvqfk0","pricing_plan_id":"cebpf4jnsgd1na2vs0mg"},{"bike_id":"4c8a17e6-5fe2-478c-8010-199a6c58273e","system_id":"levelo_inurba_marseille","lat":43.299759,"lon":5.371684,"is_reserved":false,"is_disabled":false,"rental_uris":{"android":"levelo://app?vid=4c8a17e6-5fe2-478c-8010-199a6c58273e","ios":"levelo://app?vid=4c8a17e6-5fe2-478c-8010-199a6c58273e"},"vehicle_type_id":"4","last_reported":1737436139,"current_range_meters":38000,"station_id":"ce4bgr92rcd13ifvqc7g","pricing_plan_id":"cebpf4jnsgd1na2vs0mg"},{"bike_id":"46fff60c-da93-4e15-9cbf-bedd254fc83d","system_id":"levelo_inurba_marseille","lat":43.22969,"lon":5.35397,"is_reserved":false,"is_disabled":false,"rental_uris":{"android":"levelo://app?vid=46fff60c-da93-4e15-9cbf-bedd254fc83d","ios":"levelo://app?vid=46fff60c-da93-4e15-9cbf-bedd254fc83d"},"vehicle_type_id":"4","last_reported":1737436139,"current_range_meters":37600,"station_id":"cpo3532slgdg3j2ikp40","pricing_plan_id":"cebpf4jnsgd1na2vs0mg"},{"bike_id":"026c5cbe-081d-480e-8260-80cc91166677","system_id":"levelo_inurba_marseille","lat":43.2872,"lon":5.39983,"is_reserved":false,"is_disabled":true,"rental_uris":{"android":"levelo://app?vid=026c5cbe-081d-480e-8260-80cc91166677","ios":"levelo://app?vid=026c5cbe-081d-480e-8260-80cc91166677"},"vehicle_type_id":"4","last_reported":1737436139,"current_range_meters":0,"station_id":"ce4bho92rcd13ifvqh3g","pricing_plan_id":"cebpf4jnsgd1na2vs0mg"},{"bike_id":"08703af1-d322-4439-9877-0571ecdb6de8","system_id":"levelo_inurba_marseille","lat":43.31197,"lon":5.38704,"is_reserved":false,"is_disabled":false,"rental_uris":{"android":"levelo://app?vid=08703af1-d322-4439-9877-0571ecdb6de8","ios":"levelo://app?vid=08703af1-d322-4439-9877-0571ecdb6de8"},"vehicle_type_id":"4","last_reported":1737436139,"current_range_meters":36400,"station_id":"ce4bgv12rcd13ifvqcp0","pricing_plan_id":"cebpf4jnsgd1na2vs0mg"},{"bike_id":"201184dd-de12-42f6-b9a8-f94cf04ddff5","system_id":"levelo_inurba_marseille","lat":43.31278,"lon":5.40166,"is_reserved":false,"is_disabled":false,"rental_uris":{"android":"levelo://app?vid=201184dd-de12-42f6-b9a8-f94cf04ddff5","ios":"levelo://app?vid=201184dd-de12-42f6-b9a8-f94cf04ddff5"},"vehicle_type_id":"4","last_reported":1737436139,"current_range_meters":28800,"station_id":"ce4bh092rcd13ifvqd30","pricing_plan_id":"cebpf4jnsgd1na2vs0mg"},{"bike_id":"67ee2edb-ba3f-40fe-af75-3f046440f4f7","system_id":"levelo_inurba_marseille","lat":43.30243,"lon":5.40072,"is_reserved":false,"is_disabled":false,"rental_uris":{"android":"levelo://app?vid=67ee2edb-ba3f-40fe-af75-3f046440f4f7","ios":"levelo://app?vid=67ee2edb-ba3f-40fe-af75-3f046440f4f7"},"vehicle_type_id":"4","last_reported":1737436139,"current_range_meters":38000,"station_id":"ce4bgvh2rcd13ifvqcs0","pricing_plan_id":"cebpf4jnsgd1na2vs0mg"},{"bike_id":"a36ee2d1-1d7f-42c5-9a98-f1d3e9db357d","system_id":"levelo_inurba_marseille","lat":43.23946,"lon":5.36634,"is_reserved":false,"is_disabled":false,"rental_uris":{"android":"levelo://app?vid=a36ee2d1-1d7f-42c5-9a98-f1d3e9db357d","ios":"levelo://app?vid=a36ee2d1-1d7f-42c5-9a98-f1d3e9db357d"},"vehicle_type_id":"4","last_reported":1737436139,"current_range_meters":19600,"station_id":"ce4bhi12rcd13ifvqfp0","pricing_plan_id":"cebpf4jnsgd1na2vs0mg"},{"bike_id":"50e3917b-db84-45da-b5b8-a9b2bdbb9561","system_id":"levelo_inurba_marseille","lat":43.29596,"lon":5.38541,"is_reserved":false,"is_disabled":false,"rental_uris":{"android":"levelo://app?vid=50e3917b-db84-45da-b5b8-a9b2bdbb9561","ios":"levelo://app?vid=50e3917b-db84-45da-b5b8-a9b2bdbb9561"},"vehicle_type_id":"4","last_reported":1737436139,"current_range_meters":28000,"station_id":"","pricing_plan_id":"cebpf4jnsgd1na2vs0mg"},{"bike_id":"a8a68a08-c628-497b-bfe5-57204ba5cc39","system_id":"levelo_inurba_marseille","lat":43.28159,"lon":5.42639,"is_reserved":false,"is_disabled":false,"rental_uris":{"android":"levelo://app?vid=a8a68a08-c628-497b-bfe5-57204ba5cc39","ios":"levelo://app?vid=a8a68a08-c628-497b-bfe5-57204ba5cc39"},"vehicle_type_id":"4","last_reported":1737436139,"current_range_meters":39200,"station_id":"ce4bhnh2rcd13ifvqgug","pricing_plan_id":"cebpf4jnsgd1na2vs0mg"},{"bike_id":"910c1c8e-72a6-432d-b380-8feaf18dbd89","system_id":"levelo_inurba_marseille","lat":43.28556,"lon":5.39503,"is_reserved":false,"is_disabled":true,"rental_uris":{"android":"levelo://app?vid=910c1c8e-72a6-432d-b380-8feaf18dbd89","ios":"levelo://app?vid=910c1c8e-72a6-432d-b380-8feaf18dbd89"},"vehicle_type_id":"4","last_reported":1737436139,"current_range_meters":14000,"station_id":"ce4bh292rcd13ifvqdg0","pricing_plan_id":"cebpf4jnsgd1na2vs0mg"},{"bike_id":"4bc49912-71c9-48b2-8244-21e1aeecfe85","system_id":"levelo_inurba_marseille","lat":43.29525,"lon":5.3904,"is_reserved":false,"is_disabled":false,"rental_uris":{"android":"levelo://app?vid=4bc49912-71c9-48b2-8244-21e1aeecfe85","ios":"levelo://app?vid=4bc49912-71c9-48b2-8244-21e1aeecfe85"},"vehicle_type_id":"4","last_reported":1737436139,"current_range_meters":39200,"station_id":"ce4bh3p2rcd13ifvqdp0","pricing_plan_id":"cebpf4jnsgd1na2vs0mg"},{"bike_id":"4b88b371-38a3-443d-96cf-2b99cc4f3954","system_id":"levelo_inurba_marseille","lat":43.297272,"lon":5.376947,"is_reserved":false,"is_disabled":true,"rental_uris":{"android":"levelo://app?vid=4b88b371-38a3-443d-96cf-2b99cc4f3954","ios":"levelo://app?vid=4b88b371-38a3-443d-96cf-2b99cc4f3954"},"vehicle_type_id":"4","last_reported":1737436139,"current_range_meters":38800,"station_id":"ce4bgkh2rcd13ifvqbl0","pricing_plan_id":"cebpf4jnsgd1na2vs0mg"},{"bike_id":"b6b92975-9652-4954-a2f5-7f59d0814769","system_id":"levelo_inurba_marseille","lat":43.30926,"lon":5.40155,"is_reserved":false,"is_disabled":false,"rental_uris":{"android":"levelo://app?vid=b6b92975-9652-4954-a2f5-7f59d0814769","ios":"levelo://app?vid=b6b92975-9652-4954-a2f5-7f59d0814769"},"vehicle_type_id":"4","last_reported":1737436139,"current_range_meters":38800,"station_id":"ce4bgvp2rcd13ifvqct0","pricing_plan_id":"cebpf4jnsgd1na2vs0mg"},{"bike_id":"8b4019b1-336c-4cba-b37d-d3b7cc1a9f6e","system_id":"levelo_inurba_marseille","lat":43.29782,"lon":5.39319,"is_reserved":false,"is_disabled":false,"rental_uris":{"android":"levelo://app?vid=8b4019b1-336c-4cba-b37d-d3b7cc1a9f6e","ios":"levelo://app?vid=8b4019b1-336c-4cba-b37d-d3b7cc1a9f6e"},"vehicle_type_id":"4","last_reported":1737436139,"current_range_meters":8400,"station_id":"chh1huq6cuj3fo74tm60","pricing_plan_id":"cebpf4jnsgd1na2vs0mg"},{"bike_id":"43ad3133-2f4d-44c3-9ef3-1073f215f719","system_id":"levelo_inurba_marseille","lat":43.31088,"lon":5.42454,"is_reserved":false,"is_disabled":false,"rental_uris":{"android":"levelo://app?vid=43ad3133-2f4d-44c3-9ef3-1073f215f719","ios":"levelo://app?vid=43ad3133-2f4d-44c3-9ef3-1073f215f719"},"vehicle_type_id":"4","last_reported":1737436139,"current_range_meters":20000,"station_id":"ce4bhp92rcd13ifvqhag","pricing_plan_id":"cebpf4jnsgd1na2vs0mg"},{"bike_id":"e74789ca-b0e5-4949-a7c4-507c382d1652","system_id":"levelo_inurba_marseille","lat":43.312656,"lon":5.401645,"is_reserved":false,"is_disabled":false,"rental_uris":{"android":"levelo://app?vid=e74789ca-b0e5-4949-a7c4-507c382d1652","ios":"levelo://app?vid=e74789ca-b0e5-4949-a7c4-507c382d1652"},"vehicle_type_id":"4","last_reported":1737436139,"current_range_meters":34000,"station_id":"ce4bh092rcd13ifvqd30","pricing_plan_id":"cebpf4jnsgd1na2vs0mg"},{"bike_id":"7ed62c12-e1f9-4b2c-935b-6efd4f0f7302","system_id":"levelo_inurba_marseille","lat":43.30618,"lon":5.39295,"is_reserved":false,"is_disabled":false,"rental_uris":{"android":"levelo://app?vid=7ed62c12-e1f9-4b2c-935b-6efd4f0f7302","ios":"levelo://app?vid=7ed62c12-e1f9-4b2c-935b-6efd4f0f7302"},"vehicle_type_id":"4","last_reported":1737436139,"current_range_meters":34000,"station_id":"ce4bh0p2rcd13ifvqd80","pricing_plan_id":"cebpf4jnsgd1na2vs0mg"},{"bike_id":"5d3cffa1-ec4b-4267-9e2c-8166abf220de","system_id":"levelo_inurba_marseille","lat":43.30796,"lon":5.38153,"is_reserved":false,"is_disabled":false,"rental_uris":{"android":"levelo://app?vid=5d3cffa1-ec4b-4267-9e2c-8166abf220de","ios":"levelo://app?vid=5d3cffa1-ec4b-4267-9e2c-8166abf220de"},"vehicle_type_id":"4","last_reported":1737436139,"current_range_meters":8400,"station_id":"ce4bgt12rcd13ifvqce0","pricing_plan_id":"cebpf4jnsgd1na2vs0mg"},{"bike_id":"53a56d87-3330-4a04-ac5d-8290ef1b226e","system_id":"levelo_inurba_marseille","lat":43.31542,"lon":5.38023,"is_reserved":false,"is_disabled":false,"rental_uris":{"android":"levelo://app?vid=53a56d87-3330-4a04-ac5d-8290ef1b226e","ios":"levelo://app?vid=53a56d87-3330-4a04-ac5d-8290ef1b226e"},"vehicle_type_id":"4","last_reported":1737436139,"current_range_meters":38800,"station_id":"ce4bhsp2rcd13ifvqi50","pricing_plan_id":"cebpf4jnsgd1na2vs0mg"},{"bike_id":"95ea00aa-ca76-4e7a-86a1-450db46c5b23","system_id":"levelo_inurba_marseille","lat":43.3117,"lon":5.3872,"is_reserved":false,"is_disabled":false,"rental_uris":{"android":"levelo://app?vid=95ea00aa-ca76-4e7a-86a1-450db46c5b23","ios":"levelo://app?vid=95ea00aa-ca76-4e7a-86a1-450db46c5b23"},"vehicle_type_id":"4","last_reported":1737436139,"current_range_meters":25200,"station_id":"ce4bgv12rcd13ifvqcp0","pricing_plan_id":"cebpf4jnsgd1na2vs0mg"},{"bike_id":"ac6e766d-3ee0-4fd0-96fa-5117cf5b2f8e","system_id":"levelo_inurba_marseille","lat":43.27558,"lon":5.38415,"is_reserved":false,"is_disabled":false,"rental_uris":{"android":"levelo://app?vid=ac6e766d-3ee0-4fd0-96fa-5117cf5b2f8e","ios":"levelo://app?vid=ac6e766d-3ee0-4fd0-96fa-5117cf5b2f8e"},"vehicle_type_id":"4","last_reported":1737436139,"current_range_meters":38400,"station_id":"ce4bhh92rcd13ifvqfi0","pricing_plan_id":"cebpf4jnsgd1na2vs0mg"},{"bike_id":"57dba698-b1a7-4110-be15-02a59616b149","system_id":"levelo_inurba_marseille","lat":43.27846,"lon":5.39212,"is_reserved":false,"is_disabled":false,"rental_uris":{"android":"levelo://app?vid=57dba698-b1a7-4110-be15-02a59616b149","ios":"levelo://app?vid=57dba698-b1a7-4110-be15-02a59616b149"},"vehicle_type_id":"4","last_reported":1737436139,"current_range_meters":9200,"station_id":"ce4bhjp2rcd13ifvqga0","pricing_plan_id":"cebpf4jnsgd1na2vs0mg"},{"bike_id":"a4c27cc3-c38b-466c-95a1-4dd1f3789e48","system_id":"levelo_inurba_marseille","lat":43.33033,"lon":5.38999,"is_reserved":false,"is_disabled":false,"rental_uris":{"android":"levelo://app?vid=a4c27cc3-c38b-466c-95a1-4dd1f3789e48","ios":"levelo://app?vid=a4c27cc3-c38b-466c-95a1-4dd1f3789e48"},"vehicle_type_id":"4","last_reported":1737436139,"current_range_meters":38000,"station_id":"ce4bhr92rcd13ifvqhrg","pricing_plan_id":"cebpf4jnsgd1na2vs0mg"},{"bike_id":"f2390374-e060-4fe1-bcfa-cb2711193e58","system_id":"levelo_inurba_marseille","lat":43.25078,"lon":5.39489,"is_reserved":false,"is_disabled":false,"rental_uris":{"android":"levelo://app?vid=f2390374-e060-4fe1-bcfa-cb2711193e58","ios":"levelo://app?vid=f2390374-e060-4fe1-bcfa-cb2711193e58"},"vehicle_type_id":"4","last_reported":1737436139,"current_range_meters":32000,"station_id":"ce4bhm12rcd13ifvqgkg","pricing_plan_id":"cebpf4jnsgd1na2vs0mg"},{"bike_id":"906aae91-9789-46af-b4fa-d50a906587bd","system_id":"levelo_inurba_marseille","lat":43.30247,"lon":5.4008,"is_reserved":false,"is_disabled":false,"rental_uris":{"android":"levelo://app?vid=906aae91-9789-46af-b4fa-d50a906587bd","ios":"levelo://app?vid=906aae91-9789-46af-b4fa-d50a906587bd"},"vehicle_type_id":"4","last_reported":1737436139,"current_range_meters":38800,"station_id":"ce4bgvh2rcd13ifvqcs0","pricing_plan_id":"cebpf4jnsgd1na2vs0mg"},{"bike_id":"9f3ee6aa-4bec-4f76-91c0-b7e5047ea1b6","system_id":"levelo_inurba_marseille","lat":43.28399,"lon":5.37521,"is_reserved":false,"is_disabled":false,"rental_uris":{"android":"levelo://app?vid=9f3ee6aa-4bec-4f76-91c0-b7e5047ea1b6","ios":"levelo://app?vid=9f3ee6aa-4bec-4f76-91c0-b7e5047ea1b6"},"vehicle_type_id":"4","last_reported":1737436139,"current_range_meters":36800,"station_id":"ce4bh412rcd13ifvqds0","pricing_plan_id":"cebpf4jnsgd1na2vs0mg"},{"bike_id":"6fa96e81-a119-436e-b985-1cf31a85cc4c","system_id":"levelo_inurba_marseille","lat":43.27897,"lon":5.37993,"is_reserved":false,"is_disabled":false,"rental_uris":{"android":"levelo://app?vid=6fa96e81-a119-436e-b985-1cf31a85cc4c","ios":"levelo://app?vid=6fa96e81-a119-436e-b985-1cf31a85cc4c"},"vehicle_type_id":"4","last_reported":1737436139,"current_range_meters":30800,"station_id":"ce4bhf92rcd13ifvqf50","pricing_plan_id":"cebpf4jnsgd1na2vs0mg"},{"bike_id":"31896e0f-b5d7-4acb-9bb6-8fbf4a29bddc","system_id":"levelo_inurba_marseille","lat":43.307856,"lon":5.376545,"is_reserved":false,"is_disabled":false,"rental_uris":{"android":"levelo://app?vid=31896e0f-b5d7-4acb-9bb6-8fbf4a29bddc","ios":"levelo://app?vid=31896e0f-b5d7-4acb-9bb6-8fbf4a29bddc"},"vehicle_type_id":"4","last_reported":1737436139,"current_range_meters":27600,"station_id":"ce4bgv92rcd13ifvqcq0","pricing_plan_id":"cebpf4jnsgd1na2vs0mg"},{"bike_id":"40e5a64d-65b5-4754-b8f6-3564af0d8c58","system_id":"levelo_inurba_marseille","lat":43.23126,"lon":5.43738,"is_reserved":false,"is_disabled":false,"rental_uris":{"android":"levelo://app?vid=40e5a64d-65b5-4754-b8f6-3564af0d8c58","ios":"levelo://app?vid=40e5a64d-65b5-4754-b8f6-3564af0d8c58"},"vehicle_type_id":"4","last_reported":1737436139,"current_range_meters":6800,"station_id":"ce4bhmp2rcd13ifvqgog","pricing_plan_id":"cebpf4jnsgd1na2vs0mg"},{"bike_id":"d5f81245-54b7-4268-b7ff-c775903366c8","system_id":"levelo_inurba_marseille","lat":43.31698,"lon":5.37776,"is_reserved":false,"is_disabled":true,"rental_uris":{"android":"levelo://app?vid=d5f81245-54b7-4268-b7ff-c775903366c8","ios":"levelo://app?vid=d5f81245-54b7-4268-b7ff-c775903366c8"},"vehicle_type_id":"4","last_reported":1737436139,"current_range_meters":2000,"station_id":"ce4bgth2rcd13ifvqch0","pricing_plan_id":"cebpf4jnsgd1na2vs0mg"},{"bike_id":"32836426-dfc7-4f53-adf5-da81f2475316","system_id":"levelo_inurba_marseille","lat":43.30808,"lon":5.38152,"is_reserved":false,"is_disabled":false,"rental_uris":{"android":"levelo://app?vid=32836426-dfc7-4f53-adf5-da81f2475316","ios":"levelo://app?vid=32836426-dfc7-4f53-adf5-da81f2475316"},"vehicle_type_id":"4","last_reported":1737436139,"current_range_meters":20000,"station_id":"ce4bgt12rcd13ifvqce0","pricing_plan_id":"cebpf4jnsgd1na2vs0mg"},{"bike_id":"412d2955-5a84-4ed2-ac27-b087c6be0824","system_id":"levelo_inurba_marseille","lat":43.319907,"lon":5.381444,"is_reserved":false,"is_disabled":false,"rental_uris":{"android":"levelo://app?vid=412d2955-5a84-4ed2-ac27-b087c6be0824","ios":"levelo://app?vid=412d2955-5a84-4ed2-ac27-b087c6be0824"},"vehicle_type_id":"4","last_reported":1737436139,"current_range_meters":36800,"station_id":"ce4bhr12rcd13ifvqhpg","pricing_plan_id":"cebpf4jnsgd1na2vs0mg"},{"bike_id":"db783558-fd78-4108-888d-e637d89ab3dd","system_id":"levelo_inurba_marseille","lat":43.2557,"lon":5.38193,"is_reserved":false,"is_disabled":false,"rental_uris":{"android":"levelo://app?vid=db783558-fd78-4108-888d-e637d89ab3dd","ios":"levelo://app?vid=db783558-fd78-4108-888d-e637d89ab3dd"},"vehicle_type_id":"4","last_reported":1737436139,"current_range_meters":38800,"station_id":"ce4bhih2rcd13ifvqfs0","pricing_plan_id":"cebpf4jnsgd1na2vs0mg"},{"bike_id":"0e55de22-ee77-43a3-9d28-87cdb62c7b4f","system_id":"levelo_inurba_marseille","lat":43.28711,"lon":5.3609,"is_reserved":false,"is_disabled":false,"rental_uris":{"android":"levelo://app?vid=0e55de22-ee77-43a3-9d28-87cdb62c7b4f","ios":"levelo://app?vid=0e55de22-ee77-43a3-9d28-87cdb62c7b4f"},"vehicle_type_id":"4","last_reported":1737436139,"current_range_meters":38800,"station_id":"cki0cbj6b192h4jlfktg","pricing_plan_id":"cebpf4jnsgd1na2vs0mg"},{"bike_id":"2893081e-c520-4bfc-ab5e-f25f3b4b1457","system_id":"levelo_inurba_marseille","lat":43.2827,"lon":5.35088,"is_reserved":false,"is_disabled":false,"rental_uris":{"android":"levelo://app?vid=2893081e-c520-4bfc-ab5e-f25f3b4b1457","ios":"levelo://app?vid=2893081e-c520-4bfc-ab5e-f25f3b4b1457"},"vehicle_type_id":"4","last_reported":1737436139,"current_range_meters":28000,"station_id":"ce4bhbp2rcd13ifvqerg","pricing_plan_id":"cebpf4jnsgd1na2vs0mg"},{"bike_id":"ecfe519b-d32f-41a5-916b-36c0348680a7","system_id":"levelo_inurba_marseille","lat":43.3015,"lon":5.3986,"is_reserved":false,"is_disabled":false,"rental_uris":{"android":"levelo://app?vid=ecfe519b-d32f-41a5-916b-36c0348680a7","ios":"levelo://app?vid=ecfe519b-d32f-41a5-916b-36c0348680a7"},"vehicle_type_id":"4","last_reported":1737436139,"current_range_meters":37600,"station_id":"ce4bh0h2rcd13ifvqd40","pricing_plan_id":"cebpf4jnsgd1na2vs0mg"},{"bike_id":"36b02f5b-366d-4c8d-ac75-9c5f7c4d6ba1","system_id":"levelo_inurba_marseille","lat":43.31276,"lon":5.40161,"is_reserved":false,"is_disabled":false,"rental_uris":{"android":"levelo://app?vid=36b02f5b-366d-4c8d-ac75-9c5f7c4d6ba1","ios":"levelo://app?vid=36b02f5b-366d-4c8d-ac75-9c5f7c4d6ba1"},"vehicle_type_id":"4","last_reported":1737436139,"current_range_meters":39200,"station_id":"ce4bh092rcd13ifvqd30","pricing_plan_id":"cebpf4jnsgd1na2vs0mg"},{"bike_id":"5ed39c14-e8bd-44c4-b099-27258efede40","system_id":"levelo_inurba_marseille","lat":43.30149,"lon":5.38078,"is_reserved":false,"is_disabled":false,"rental_uris":{"android":"levelo://app?vid=5ed39c14-e8bd-44c4-b099-27258efede40","ios":"levelo://app?vid=5ed39c14-e8bd-44c4-b099-27258efede40"},"vehicle_type_id":"4","last_reported":1737436139,"current_range_meters":11600,"station_id":"ce4bgjp2rcd13ifvqbh0","pricing_plan_id":"cebpf4jnsgd1na2vs0mg"},{"bike_id":"0e37a4bd-7850-41b7-91e1-556e8b5c7017","system_id":"levelo_inurba_marseille","lat":43.28162,"lon":5.42626,"is_reserved":false,"is_disabled":false,"rental_uris":{"android":"levelo://app?vid=0e37a4bd-7850-41b7-91e1-556e8b5c7017","ios":"levelo://app?vid=0e37a4bd-7850-41b7-91e1-556e8b5c7017"},"vehicle_type_id":"4","last_reported":1737436139,"current_range_meters":27600,"station_id":"ce4bhnh2rcd13ifvqgug","pricing_plan_id":"cebpf4jnsgd1na2vs0mg"},{"bike_id":"9099465c-e42b-455f-892a-773115556934","system_id":"levelo_inurba_marseille","lat":43.31539,"lon":5.38027,"is_reserved":false,"is_disabled":false,"rental_uris":{"android":"levelo://app?vid=9099465c-e42b-455f-892a-773115556934","ios":"levelo://app?vid=9099465c-e42b-455f-892a-773115556934"},"vehicle_type_id":"4","last_reported":1737436139,"current_range_meters":38800,"station_id":"ce4bhsp2rcd13ifvqi50","pricing_plan_id":"cebpf4jnsgd1na2vs0mg"},{"bike_id":"b4ec25ca-88b3-4cf7-ad65-78739e526ead","system_id":"levelo_inurba_marseille","lat":43.28855,"lon":5.39301,"is_reserved":false,"is_disabled":false,"rental_uris":{"android":"levelo://app?vid=b4ec25ca-88b3-4cf7-ad65-78739e526ead","ios":"levelo://app?vid=b4ec25ca-88b3-4cf7-ad65-78739e526ead"},"vehicle_type_id":"4","last_reported":1737436139,"current_range_meters":37600,"station_id":"ce4bh2p2rcd13ifvqdi0","pricing_plan_id":"cebpf4jnsgd1na2vs0mg"},{"bike_id":"efcc716b-2d37-4b9a-8156-06013547ef4e","system_id":"levelo_inurba_marseille","lat":43.279999,"lon":5.400209,"is_reserved":false,"is_disabled":false,"rental_uris":{"android":"levelo://app?vid=efcc716b-2d37-4b9a-8156-06013547ef4e","ios":"levelo://app?vid=efcc716b-2d37-4b9a-8156-06013547ef4e"},"vehicle_type_id":"4","last_reported":1737436139,"current_range_meters":20000,"station_id":"ce4bho92rcd13ifvqh4g","pricing_plan_id":"cebpf4jnsgd1na2vs0mg"},{"bike_id":"5957b55c-bbf3-4d79-a9fa-182e34bda710","system_id":"levelo_inurba_marseille","lat":43.26678,"lon":5.40284,"is_reserved":false,"is_disabled":false,"rental_uris":{"android":"levelo://app?vid=5957b55c-bbf3-4d79-a9fa-182e34bda710","ios":"levelo://app?vid=5957b55c-bbf3-4d79-a9fa-182e34bda710"},"vehicle_type_id":"4","last_reported":1737436139,"current_range_meters":8400,"station_id":"","pricing_plan_id":"cebpf4jnsgd1na2vs0mg"},{"bike_id":"380fe268-78de-4206-955a-560ab674eeab","system_id":"levelo_inurba_marseille","lat":43.28439,"lon":5.39194,"is_reserved":false,"is_disabled":false,"rental_uris":{"android":"levelo://app?vid=380fe268-78de-4206-955a-560ab674eeab","ios":"levelo://app?vid=380fe268-78de-4206-955a-560ab674eeab"},"vehicle_type_id":"4","last_reported":1737436139,"current_range_meters":39200,"station_id":"ce4bhoh2rcd13ifvqh5g","pricing_plan_id":"cebpf4jnsgd1na2vs0mg"},{"bike_id":"b61b6964-fc82-49bb-90b2-f89705b5be90","system_id":"levelo_inurba_marseille","lat":43.304159,"lon":5.412846,"is_reserved":false,"is_disabled":false,"rental_uris":{"android":"levelo://app?vid=b61b6964-fc82-49bb-90b2-f89705b5be90","ios":"levelo://app?vid=b61b6964-fc82-49bb-90b2-f89705b5be90"},"vehicle_type_id":"4","last_reported":1737436139,"current_range_meters":36800,"station_id":"ce4bhop2rcd13ifvqh8g","pricing_plan_id":"cebpf4jnsgd1na2vs0mg"},{"bike_id":"668f9767-c78d-438a-96bb-c0760f782967","system_id":"levelo_inurba_marseille","lat":43.262104,"lon":5.379189,"is_reserved":false,"is_disabled":false,"rental_uris":{"android":"levelo://app?vid=668f9767-c78d-438a-96bb-c0760f782967","ios":"levelo://app?vid=668f9767-c78d-438a-96bb-c0760f782967"},"vehicle_type_id":"4","last_reported":1737436139,"current_range_meters":28800,"station_id":"ce4bhjp2rcd13ifvqg90","pricing_plan_id":"cebpf4jnsgd1na2vs0mg"},{"bike_id":"19b99117-ca2c-41ff-b4a2-4386488e4773","system_id":"levelo_inurba_marseille","lat":43.31072,"lon":5.38356,"is_reserved":false,"is_disabled":false,"rental_uris":{"android":"levelo://app?vid=19b99117-ca2c-41ff-b4a2-4386488e4773","ios":"levelo://app?vid=19b99117-ca2c-41ff-b4a2-4386488e4773"},"vehicle_type_id":"4","last_reported":1737436139,"current_range_meters":25200,"station_id":"ce4bgv92rcd13ifvqcr0","pricing_plan_id":"cebpf4jnsgd1na2vs0mg"},{"bike_id":"f12aed8b-8f71-4d26-81ab-45ae907f9bc5","system_id":"levelo_inurba_marseille","lat":43.28266,"lon":5.35063,"is_reserved":false,"is_disabled":false,"rental_uris":{"android":"levelo://app?vid=f12aed8b-8f71-4d26-81ab-45ae907f9bc5","ios":"levelo://app?vid=f12aed8b-8f71-4d26-81ab-45ae907f9bc5"},"vehicle_type_id":"4","last_reported":1737436139,"current_range_meters":38800,"station_id":"ce4bhbp2rcd13ifvqerg","pricing_plan_id":"cebpf4jnsgd1na2vs0mg"},{"bike_id":"4f40d972-06fd-42b6-87d8-47b7f66628c5","system_id":"levelo_inurba_marseille","lat":43.23963,"lon":5.36627,"is_reserved":false,"is_disabled":false,"rental_uris":{"android":"levelo://app?vid=4f40d972-06fd-42b6-87d8-47b7f66628c5","ios":"levelo://app?vid=4f40d972-06fd-42b6-87d8-47b7f66628c5"},"vehicle_type_id":"4","last_reported":1737436139,"current_range_meters":2800,"station_id":"ce4bhi12rcd13ifvqfp0","pricing_plan_id":"cebpf4jnsgd1na2vs0mg"},{"bike_id":"d13e1ce9-dfb9-4338-9d34-66a2c5529080","system_id":"levelo_inurba_marseille","lat":43.28013,"lon":5.36949,"is_reserved":false,"is_disabled":false,"rental_uris":{"android":"levelo://app?vid=d13e1ce9-dfb9-4338-9d34-66a2c5529080","ios":"levelo://app?vid=d13e1ce9-dfb9-4338-9d34-66a2c5529080"},"vehicle_type_id":"4","last_reported":1737436139,"current_range_meters":37600,"station_id":"ce4bha12rcd13ifvqef0","pricing_plan_id":"cebpf4jnsgd1na2vs0mg"},{"bike_id":"787c4109-780f-4716-bda4-acf6121abe72","system_id":"levelo_inurba_marseille","lat":43.29274,"lon":5.40129,"is_reserved":false,"is_disabled":false,"rental_uris":{"android":"levelo://app?vid=787c4109-780f-4716-bda4-acf6121abe72","ios":"levelo://app?vid=787c4109-780f-4716-bda4-acf6121abe72"},"vehicle_type_id":"4","last_reported":1737436139,"current_range_meters":35600,"station_id":"ce4bh312rcd13ifvqdk0","pricing_plan_id":"cebpf4jnsgd1na2vs0mg"},{"bike_id":"8a0b14e2-52d8-4680-82c0-475610217fd9","system_id":"levelo_inurba_marseille","lat":43.2799,"lon":5.36892,"is_reserved":false,"is_disabled":false,"rental_uris":{"android":"levelo://app?vid=8a0b14e2-52d8-4680-82c0-475610217fd9","ios":"levelo://app?vid=8a0b14e2-52d8-4680-82c0-475610217fd9"},"vehicle_type_id":"4","last_reported":1737436139,"current_range_meters":38000,"station_id":"ce4bha12rcd13ifvqef0","pricing_plan_id":"cebpf4jnsgd1na2vs0mg"},{"bike_id":"228d4274-5f58-4358-8ddb-c0d44329a1bf","system_id":"levelo_inurba_marseille","lat":43.309293,"lon":5.401598,"is_reserved":false,"is_disabled":false,"rental_uris":{"android":"levelo://app?vid=228d4274-5f58-4358-8ddb-c0d44329a1bf","ios":"levelo://app?vid=228d4274-5f58-4358-8ddb-c0d44329a1bf"},"vehicle_type_id":"4","last_reported":1737436139,"current_range_meters":39200,"station_id":"ce4bgvp2rcd13ifvqct0","pricing_plan_id":"cebpf4jnsgd1na2vs0mg"},{"bike_id":"0a33a129-3448-4d8c-a48e-f94a32359da5","system_id":"levelo_inurba_marseille","lat":43.30894,"lon":5.37199,"is_reserved":false,"is_disabled":false,"rental_uris":{"android":"levelo://app?vid=0a33a129-3448-4d8c-a48e-f94a32359da5","ios":"levelo://app?vid=0a33a129-3448-4d8c-a48e-f94a32359da5"},"vehicle_type_id":"4","last_reported":1737436139,"current_range_meters":38400,"station_id":"ce4bguh2rcd13ifvqckg","pricing_plan_id":"cebpf4jnsgd1na2vs0mg"},{"bike_id":"5731cd32-e18c-4dbb-9b82-289b20681341","system_id":"levelo_inurba_marseille","lat":43.30425,"lon":5.39763,"is_reserved":false,"is_disabled":false,"rental_uris":{"android":"levelo://app?vid=5731cd32-e18c-4dbb-9b82-289b20681341","ios":"levelo://app?vid=5731cd32-e18c-4dbb-9b82-289b20681341"},"vehicle_type_id":"4","last_reported":1737436139,"current_range_meters":38800,"station_id":"ce4bh092rcd13ifvqd20","pricing_plan_id":"cebpf4jnsgd1na2vs0mg"},{"bike_id":"03fb29f2-1269-4635-bb09-90c9ff46f885","system_id":"levelo_inurba_marseille","lat":43.295999,"lon":5.380961,"is_reserved":false,"is_disabled":false,"rental_uris":{"android":"levelo://app?vid=03fb29f2-1269-4635-bb09-90c9ff46f885","ios":"levelo://app?vid=03fb29f2-1269-4635-bb09-90c9ff46f885"},"vehicle_type_id":"4","last_reported":1737436139,"current_range_meters":36800,"station_id":"ce4bgl12rcd13ifvqbo0","pricing_plan_id":"cebpf4jnsgd1na2vs0mg"},{"bike_id":"964ce173-84ec-41ca-ab18-97532a895c83","system_id":"levelo_inurba_marseille","lat":43.31074,"lon":5.38348,"is_reserved":false,"is_disabled":false,"rental_uris":{"android":"levelo://app?vid=964ce173-84ec-41ca-ab18-97532a895c83","ios":"levelo://app?vid=964ce173-84ec-41ca-ab18-97532a895c83"},"vehicle_type_id":"4","last_reported":1737436139,"current_range_meters":30800,"station_id":"ce4bgv92rcd13ifvqcr0","pricing_plan_id":"cebpf4jnsgd1na2vs0mg"},{"bike_id":"6116d7f9-1e8a-4a79-8080-3af906745c55","system_id":"levelo_inurba_marseille","lat":43.28454,"lon":5.35887,"is_reserved":false,"is_disabled":false,"rental_uris":{"android":"levelo://app?vid=6116d7f9-1e8a-4a79-8080-3af906745c55","ios":"levelo://app?vid=6116d7f9-1e8a-4a79-8080-3af906745c55"},"vehicle_type_id":"4","last_reported":1737436139,"current_range_meters":28800,"station_id":"ce4bhah2rcd13ifvqei0","pricing_plan_id":"cebpf4jnsgd1na2vs0mg"},{"bike_id":"3133a507-5996-4484-a064-80f7bc3eca44","system_id":"levelo_inurba_marseille","lat":43.303191,"lon":5.404495,"is_reserved":false,"is_disabled":false,"rental_uris":{"android":"levelo://app?vid=3133a507-5996-4484-a064-80f7bc3eca44","ios":"levelo://app?vid=3133a507-5996-4484-a064-80f7bc3eca44"},"vehicle_type_id":"4","last_reported":1737436139,"current_range_meters":38800,"station_id":"ce4bh012rcd13ifvqd10","pricing_plan_id":"cebpf4jnsgd1na2vs0mg"},{"bike_id":"187a71e0-c1c3-4e71-8a26-0d48a596fe6b","system_id":"levelo_inurba_marseille","lat":43.25087,"lon":5.395264,"is_reserved":false,"is_disabled":false,"rental_uris":{"android":"levelo://app?vid=187a71e0-c1c3-4e71-8a26-0d48a596fe6b","ios":"levelo://app?vid=187a71e0-c1c3-4e71-8a26-0d48a596fe6b"},"vehicle_type_id":"4","last_reported":1737436139,"current_range_meters":27600,"station_id":"ce4bhm12rcd13ifvqgkg","pricing_plan_id":"cebpf4jnsgd1na2vs0mg"},{"bike_id":"5b4a5c93-c345-4b32-961a-b6e3d1fd64a4","system_id":"levelo_inurba_marseille","lat":43.29224,"lon":5.3607,"is_reserved":false,"is_disabled":false,"rental_uris":{"android":"levelo://app?vid=5b4a5c93-c345-4b32-961a-b6e3d1fd64a4","ios":"levelo://app?vid=5b4a5c93-c345-4b32-961a-b6e3d1fd64a4"},"vehicle_type_id":"4","last_reported":1737436139,"current_range_meters":38400,"station_id":"ce4bhbh2rcd13ifvqeqg","pricing_plan_id":"cebpf4jnsgd1na2vs0mg"},{"bike_id":"031daf93-5330-43a6-8c58-9ff174dc0a37","system_id":"levelo_inurba_marseille","lat":43.28928,"lon":5.36648,"is_reserved":false,"is_disabled":false,"rental_uris":{"android":"levelo://app?vid=031daf93-5330-43a6-8c58-9ff174dc0a37","ios":"levelo://app?vid=031daf93-5330-43a6-8c58-9ff174dc0a37"},"vehicle_type_id":"4","last_reported":1737436139,"current_range_meters":36400,"station_id":"ce4bhap2rcd13ifvqek0","pricing_plan_id":"cebpf4jnsgd1na2vs0mg"},{"bike_id":"259e9165-0cfd-4102-82f0-813d391e62b0","system_id":"levelo_inurba_marseille","lat":43.30595,"lon":5.39355,"is_reserved":false,"is_disabled":false,"rental_uris":{"android":"levelo://app?vid=259e9165-0cfd-4102-82f0-813d391e62b0","ios":"levelo://app?vid=259e9165-0cfd-4102-82f0-813d391e62b0"},"vehicle_type_id":"4","last_reported":1737436139,"current_range_meters":38800,"station_id":"ce4bh0p2rcd13ifvqd80","pricing_plan_id":"cebpf4jnsgd1na2vs0mg"},{"bike_id":"7e1e3e5c-3b71-4538-93eb-de319f9bfe1b","system_id":"levelo_inurba_marseille","lat":43.29708,"lon":5.36599,"is_reserved":false,"is_disabled":false,"rental_uris":{"android":"levelo://app?vid=7e1e3e5c-3b71-4538-93eb-de319f9bfe1b","ios":"levelo://app?vid=7e1e3e5c-3b71-4538-93eb-de319f9bfe1b"},"vehicle_type_id":"4","last_reported":1737436139,"current_range_meters":38400,"station_id":"ce4bgn12rcd13ifvqbt0","pricing_plan_id":"cebpf4jnsgd1na2vs0mg"},{"bike_id":"b9e0727d-9e96-4b04-ad6d-34a11adfc953","system_id":"levelo_inurba_marseille","lat":43.23143,"lon":5.43709,"is_reserved":false,"is_disabled":false,"rental_uris":{"android":"levelo://app?vid=b9e0727d-9e96-4b04-ad6d-34a11adfc953","ios":"levelo://app?vid=b9e0727d-9e96-4b04-ad6d-34a11adfc953"},"vehicle_type_id":"4","last_reported":1737436139,"current_range_meters":37600,"station_id":"ce4bhmp2rcd13ifvqgog","pricing_plan_id":"cebpf4jnsgd1na2vs0mg"},{"bike_id":"9f3c892f-5e98-4686-913a-2029f2b3cc60","system_id":"levelo_inurba_marseille","lat":43.2872,"lon":5.3607,"is_reserved":false,"is_disabled":false,"rental_uris":{"android":"levelo://app?vid=9f3c892f-5e98-4686-913a-2029f2b3cc60","ios":"levelo://app?vid=9f3c892f-5e98-4686-913a-2029f2b3cc60"},"vehicle_type_id":"4","last_reported":1737436139,"current_range_meters":38800,"station_id":"cki0cbj6b192h4jlfktg","pricing_plan_id":"cebpf4jnsgd1na2vs0mg"},{"bike_id":"7367feb8-850f-40bd-9f83-f7a7405621fa","system_id":"levelo_inurba_marseille","lat":43.30804,"lon":5.4352,"is_reserved":false,"is_disabled":false,"rental_uris":{"android":"levelo://app?vid=7367feb8-850f-40bd-9f83-f7a7405621fa","ios":"levelo://app?vid=7367feb8-850f-40bd-9f83-f7a7405621fa"},"vehicle_type_id":"4","last_reported":1737436139,"current_range_meters":9600,"station_id":"ce4bhph2rcd13ifvqheg","pricing_plan_id":"cebpf4jnsgd1na2vs0mg"},