{"last_updated":1729022995,"ttl":60,"version":"2.2","data":{"bikes":[{"bike_id":"488cc52e-690c-4348-900f-2cee32ad7416","system_id":"levelo_inurba_marseille","lat":43.31721,"lon":5.42404,"is_reserved":false,"is_disabled":false,"rental_uris":{"android":"levelo://app?vid=488cc52e-690c-4348-900f-2cee32ad7416","ios":"levelo://app?vid=488cc52e-690c-4348-900f-2cee32ad7416"},"vehicle_type_id":"4","last_reported":1729022995,"current_range_meters":23200,"station_id":"ce4bhp92rcd13ifvqhbg","pricing_plan_id":"cebpf4jnsgd1na2vs0mg"},{"bike_id":"9b607989-8c79-4373-b159-5b60a2b1a70f","system_id":"levelo_inurba_marseille","lat":43.30261,"lon":5.400623,"is_reserved":false,"is_disabled":false,"rental_uris":{"android":"levelo://app?vid=9b607989-8c79-4373-b159-5b60a2b1a70f","ios":"levelo://app?vid=9b607989-8c79-4373-b159-5b60a2b1a70f"},"vehicle_type_id":"4","last_reported":1729022995,"current_range_meters":33600,"station_id":"ce4bgvh2rcd13ifvqcs0","pricing_plan_id":"cebpf4jnsgd1na2vs0mg"},{"bike_id":"805cf10d-9632-4f1a-9f3a-80b24a4fbac6","system_id":"levelo_inurba_marseille","lat":43.29809,"lon":5.4151,"is_reserved":false,"is_disabled":false,"rental_uris":{"android":"levelo://app?vid=805cf10d-9632-4f1a-9f3a-80b24a4fbac6","ios":"levelo://app?vid=805cf10d-9632-4f1a-9f3a-80b24a4fbac6"},"vehicle_type_id":"4","last_reported":1729022995,"current_range_meters":9200,"station_id":"","pricing_plan_id":"cebpf4jnsgd1na2vs0mg"},{"bike_id":"cfc7efa0-6f9e-48e8-8b40-963a46f3a1d4","system_id":"levelo_inurba_marseille","lat":43.25859,"lon":5.39905,"is_reserved":false,"is_disabled":false,"rental_uris":{"android":"levelo://app?vid=cfc7efa0-6f9e-48e8-8b40-963a46f3a1d4","ios":"levelo://app?vid=cfc7efa0-6f9e-48e8-8b40-963a46f3a1d4"},"vehicle_type_id":"4","last_reported":1729022995,"current_range_meters":12800,"station_id":"ce4bhl92rcd13ifvqghg","pricing_plan_id":"cebpf4jnsgd1na2vs0mg"},{"bike_id":"f476a508-f776-4ed1-b083-250f93cad8da","system_id":"levelo_inurba_marseille","lat":43.27211,"lon":5.39185,"is_reserved":false,"is_disabled":false,"rental_uris":{"android":"levelo://app?vid=f476a508-f776-4ed1-b083-250f93cad8da","ios":"levelo://app?vid=f476a508-f776-4ed1-b083-250f93cad8da"},"vehicle_type_id":"4","last_reported":1729022995,"current_range_meters":20000,"station_id":"","pricing_plan_id":"cebpf4jnsgd1na2vs0mg"},{"bike_id":"69197799-1c4b-46f8-85b6-3058b9ee9332","system_id":"levelo_inurba_marseille","lat":43.29536,"lon":5.38551,"is_reserved":false,"is_disabled":false,"rental_uris":{"android":"levelo://app?vid=69197799-1c4b-46f8-85b6-3058b9ee9332","ios":"levelo://app?vid=69197799-1c4b-46f8-85b6-3058b9ee9332"},"vehicle_type_id":"4","last_reported":1729022995,"current_range_meters":5600,"station_id":"ce4bgih2rcd13ifvqba0","pricing_plan_id":"cebpf4jnsgd1na2vs0mg"},{"bike_id":"f2fdf74f-5e15-4827-9d38-65a4050d017a","system_id":"levelo_inurba_marseille","lat":43.28079,"lon":5.39652,"is_reserved":false,"is_disabled":false,"rental_uris":{"android":"levelo://app?vid=f2fdf74f-5e15-4827-9d38-65a4050d017a","ios":"levelo://app?vid=f2fdf74f-5e15-4827-9d38-65a4050d017a"},"vehicle_type_id":"4","last_reported":1729022995,"current_range_meters":25600,"station_id":"ce4bho12rcd13ifvqh2g","pricing_plan_id":"cebpf4jnsgd1na2vs0mg"},{"bike_id":"8aca930d-2c77-435a-bbcd-cf4f4d726973","system_id":"levelo_inurba_marseille","lat":43.28412,"lon":5.37515,"is_reserved":false,"is_disabled":false,"rental_uris":{"android":"levelo://app?vid=8aca930d-2c77-435a-bbcd-cf4f4d726973","ios":"levelo://app?vid=8aca930d-2c77-435a-bbcd-cf4f4d726973"},"vehicle_type_id":"4","last_reported":1729022995,"current_range_meters":36000,"station_id":"ce4bh412rcd13ifvqds0","pricing_plan_id":"cebpf4jnsgd1na2vs0mg"},{"bike_id":"c69e1a2a-8fda-4587-86a2-12d44d9552e0","system_id":"levelo_inurba_marseille","lat":43.32289,"lon":5.38274,"is_reserved":false,"is_disabled":false,"rental_uris":{"android":"levelo://app?vid=c69e1a2a-8fda-4587-86a2-12d44d9552e0","ios":"levelo://app?vid=c69e1a2a-8fda-4587-86a2-12d44d9552e0"},"vehicle_type_id":"4","last_reported":1729022995,"current_range_meters":37600,"station_id":"ce4bhr12rcd13ifvqhqg","pricing_plan_id":"cebpf4jnsgd1na2vs0mg"},{"bike_id":"10c9d11a-47e2-4fb4-b6e7-9e1c028b8b06","system_id":"levelo_inurba_marseille","lat":43.28266,"lon":5.35068,"is_reserved":false,"is_disabled":false,"rental_uris":{"android":"levelo://app?vid=10c9d11a-47e2-4fb4-b6e7-9e1c028b8b06","ios":"levelo://app?vid=10c9d11a-47e2-4fb4-b6e7-9e1c028b8b06"},"vehicle_type_id":"4","last_reported":1729022995,"current_range_meters":38800,"station_id":"ce4bhbp2rcd13ifvqerg","pricing_plan_id":"cebpf4jnsgd1na2vs0mg"},{"bike_id":"15040670-0e01-4dd0-94e2-8abde680a735","system_id":"levelo_inurba_marseille","lat":43.293077,"lon":5.372141,"is_reserved":false,"is_disabled":false,"rental_uris":{"android":"levelo://app?vid=15040670-0e01-4dd0-94e2-8abde680a735","ios":"levelo://app?vid=15040670-0e01-4dd0-94e2-8abde680a735"},"vehicle_type_id":"4","last_reported":1729022995,"current_range_meters":10800,"station_id":"ce4bgh92rcd13ifvqb40","pricing_plan_id":"cebpf4jnsgd1na2vs0mg"},{"bike_id":"8b82c247-a271-415b-8cc7-d8e7c89bc5a9","system_id":"levelo_inurba_marseille","lat":43.31083,"lon":5.42429,"is_reserved":false,"is_disabled":false,"rental_uris":{"android":"levelo://app?vid=8b82c247-a271-415b-8cc7-d8e7c89bc5a9","ios":"levelo://app?vid=8b82c247-a271-415b-8cc7-d8e7c89bc5a9"},"vehicle_type_id":"4","last_reported":1729022995,"current_range_meters":32000,"station_id":"ce4bhp92rcd13ifvqhag","pricing_plan_id":"cebpf4jnsgd1na2vs0mg"},{"bike_id":"9d0a8f78-029e-4443-87b4-4430d1f80208","system_id":"levelo_inurba_marseille","lat":43.31494,"lon":5.37312,"is_reserved":false,"is_disabled":false,"rental_uris":{"android":"levelo://app?vid=9d0a8f78-029e-4443-87b4-4430d1f80208","ios":"levelo://app?vid=9d0a8f78-029e-4443-87b4-4430d1f80208"},"vehicle_type_id":"4","last_reported":1729022995,"current_range_meters":14800,"station_id":"ce4bgt12rcd13ifvqcd0","pricing_plan_id":"cebpf4jnsgd1na2vs0mg"},{"bike_id":"5554a15a-3e77-4957-960a-9fd3bb5c6cef","system_id":"levelo_inurba_marseille","lat":43.31992,"lon":5.38146,"is_reserved":false,"is_disabled":false,"rental_uris":{"android":"levelo://app?vid=5554a15a-3e77-4957-960a-9fd3bb5c6cef","ios":"levelo://app?vid=5554a15a-3e77-4957-960a-9fd3bb5c6cef"},"vehicle_type_id":"4","last_reported":1729022995,"current_range_meters":24800,"station_id":"ce4bhr12rcd13ifvqhpg","pricing_plan_id":"cebpf4jnsgd1na2vs0mg"},{"bike_id":"fc513162-491b-43ed-9fc5-83f808600523","system_id":"levelo_inurba_marseille","lat":43.27437,"lon":5.39442,"is_reserved":false,"is_disabled":false,"rental_uris":{"android":"levelo://app?vid=fc513162-491b-43ed-9fc5-83f808600523","ios":"levelo://app?vid=fc513162-491b-43ed-9fc5-83f808600523"},"vehicle_type_id":"4","last_reported":1729022995,"current_range_meters":5600,"station_id":"ce4bhdp2rcd13ifvqf20","pricing_plan_id":"cebpf4jnsgd1na2vs0mg"},{"bike_id":"e5ecd4aa-5fa6-4015-b957-3ea7844a8883","system_id":"levelo_inurba_marseille","lat":43.28409,"lon":5.34983,"is_reserved":false,"is_disabled":false,"rental_uris":{"android":"levelo://app?vid=e5ecd4aa-5fa6-4015-b957-3ea7844a8883","ios":"levelo://app?vid=e5ecd4aa-5fa6-4015-b957-3ea7844a8883"},"vehicle_type_id":"4","last_reported":1729022995,"current_range_meters":38800,"station_id":"ce4bhbh2rcd13ifvqepg","pricing_plan_id":"cebpf4jnsgd1na2vs0mg"},{"bike_id":"9e492257-6a8a-4b5c-80a3-b345d6032a6d","system_id":"levelo_inurba_marseille","lat":43.282779,"lon":5.351597,"is_reserved":false,"is_disabled":false,"rental_uris":{"android":"levelo://app?vid=9e492257-6a8a-4b5c-80a3-b345d6032a6d","ios":"levelo://app?vid=9e492257-6a8a-4b5c-80a3-b345d6032a6d"},"vehicle_type_id":"4","last_reported":1729022995,"current_range_meters":8400,"station_id":"ce4bhbp2rcd13ifvqerg","pricing_plan_id":"cebpf4jnsgd1na2vs0mg"},{"bike_id":"3668da75-c41f-466b-8262-09a17c054d21","system_id":"levelo_inurba_marseille","lat":43.31081,"lon":5.42432,"is_reserved":false,"is_disabled":false,"rental_uris":{"android":"levelo://app?vid=3668da75-c41f-466b-8262-09a17c054d21","ios":"levelo://app?vid=3668da75-c41f-466b-8262-09a17c054d21"},"vehicle_type_id":"4","last_reported":1729022995,"current_range_meters":8800,"station_id":"ce4bhp92rcd13ifvqhag","pricing_plan_id":"cebpf4jnsgd1na2vs0mg"},{"bike_id":"1dd67b65-e0eb-4561-857c-80a371fc277c","system_id":"levelo_inurba_marseille","lat":43.30295,"lon":5.39214,"is_reserved":false,"is_disabled":false,"rental_uris":{"android":"levelo://app?vid=1dd67b65-e0eb-4561-857c-80a371fc277c","ios":"levelo://app?vid=1dd67b65-e0eb-4561-857c-80a371fc277c"},"vehicle_type_id":"4","last_reported":1729022995,"current_range_meters":38000,"station_id":"ce4bgkh2rcd13ifvqbk0","pricing_plan_id":"cebpf4jnsgd1na2vs0mg"},{"bike_id":"5ce7e684-6080-4737-924f-bcde89aacdbc","system_id":"levelo_inurba_marseille","lat":43.33723,"lon":5.39192,"is_reserved":false,"is_disabled":false,"rental_uris":{"android":"levelo://app?vid=5ce7e684-6080-4737-924f-bcde89aacdbc","ios":"levelo://app?vid=5ce7e684-6080-4737-924f-bcde89aacdbc"},"vehicle_type_id":"4","last_reported":1729022995,"current_range_meters":26800,"station_id":"ce4bhr92rcd13ifvqhsg","pricing_plan_id":"cebpf4jnsgd1na2vs0mg"},{"bike_id":"da5391cb-84c5-43ef-a8d9-7a39f828194d","system_id":"levelo_inurba_marseille","lat":43.29032,"lon":5.35916,"is_reserved":false,"is_disabled":false,"rental_uris":{"android":"levelo://app?vid=da5391cb-84c5-43ef-a8d9-7a39f828194d","ios":"levelo://app?vid=da5391cb-84c5-43ef-a8d9-7a39f828194d"},"vehicle_type_id":"4","last_reported":1729022995,"current_range_meters":21600,"station_id":"ce4bha92rcd13ifvqeg0","pricing_plan_id":"cebpf4jnsgd1na2vs0mg"},{"bike_id":"c5f5cb1d-6115-4834-a655-3c011396eda6","system_id":"levelo_inurba_marseille","lat":43.23182,"lon":5.39988,"is_reserved":false,"is_disabled":false,"rental_uris":{"android":"levelo://app?vid=c5f5cb1d-6115-4834-a655-3c011396eda6","ios":"levelo://app?vid=c5f5cb1d-6115-4834-a655-3c011396eda6"},"vehicle_type_id":"4","last_reported":1729022995,"current_range_meters":24800,"station_id":"ce4bhn12rcd13ifvqgqg","pricing_plan_id":"cebpf4jnsgd1na2vs0mg"},{"bike_id":"86602803-31fa-46e9-bbfc-08d9cd2028de","system_id":"levelo_inurba_marseille","lat":43.25927,"lon":5.40921,"is_reserved":false,"is_disabled":false,"rental_uris":{"android":"levelo://app?vid=86602803-31fa-46e9-bbfc-08d9cd2028de","ios":"levelo://app?vid=86602803-31fa-46e9-bbfc-08d9cd2028de"},"vehicle_type_id":"4","last_reported":1729022995,"current_range_meters":11200,"station_id":"ce4bhm92rcd13ifvqglg","pricing_plan_id":"cebpf4jnsgd1na2vs0mg"},{"bike_id":"92205cba-a776-455b-b519-18ced88a912f","system_id":"levelo_inurba_marseille","lat":43.29052,"lon":5.35908,"is_reserved":false,"is_disabled":false,"rental_uris":{"android":"levelo://app?vid=92205cba-a776-455b-b519-18ced88a912f","ios":"levelo://app?vid=92205cba-a776-455b-b519-18ced88a912f"},"vehicle_type_id":"4","last_reported":1729022995,"current_range_meters":32000,"station_id":"ce4bha92rcd13ifvqeg0","pricing_plan_id":"cebpf4jnsgd1na2vs0mg"},{"bike_id":"603d0d6d-25d7-4f59-8b9b-ce924365799f","system_id":"levelo_inurba_marseille","lat":43.28271,"lon":5.3508,"is_reserved":false,"is_disabled":false,"rental_uris":{"android":"levelo://app?vid=603d0d6d-25d7-4f59-8b9b-ce924365799f","ios":"levelo://app?vid=603d0d6d-25d7-4f59-8b9b-ce924365799f"},"vehicle_type_id":"4","last_reported":1729022995,"current_range_meters":38800,"station_id":"ce4bhbp2rcd13ifvqerg","pricing_plan_id":"cebpf4jnsgd1na2vs0mg"},{"bike_id":"e1d58c43-4cbf-43b6-b30f-9ba3cf6d397e","system_id":"levelo_inurba_marseille","lat":43.27563,"lon":5.38423,"is_reserved":false,"is_disabled":false,"rental_uris":{"android":"levelo://app?vid=e1d58c43-4cbf-43b6-b30f-9ba3cf6d397e","ios":"levelo://app?vid=e1d58c43-4cbf-43b6-b30f-9ba3cf6d397e"},"vehicle_type_id":"4","last_reported":1729022995,"current_range_meters":36400,"station_id":"ce4bhh92rcd13ifvqfi0","pricing_plan_id":"cebpf4jnsgd1na2vs0mg"},{"bike_id":"c87ea7fc-8658-4fe5-9323-997ad23c2057","system_id":"levelo_inurba_marseille","lat":43.31167,"lon":5.38717,"is_reserved":false,"is_disabled":false,"rental_uris":{"android":"levelo://app?vid=c87ea7fc-8658-4fe5-9323-997ad23c2057","ios":"levelo://app?vid=c87ea7fc-8658-4fe5-9323-997ad23c2057"},"vehicle_type_id":"4","last_reported":1729022995,"current_range_meters":21600,"station_id":"ce4bgv12rcd13ifvqcp0","pricing_plan_id":"cebpf4jnsgd1na2vs0mg"},{"bike_id":"a303803f-aabf-4f43-95f1-5b32cb63b28c","system_id":"levelo_inurba_marseille","lat":43.32044,"lon":5.41544,"is_reserved":false,"is_disabled":false,"rental_uris":{"android":"levelo://app?vid=a303803f-aabf-4f43-95f1-5b32cb63b28c","ios":"levelo://app?vid=a303803f-aabf-4f43-95f1-5b32cb63b28c"},"vehicle_type_id":"4","last_reported":1729022995,"current_range_meters":26000,"station_id":"ce4bhq92rcd13ifvqhkg","pricing_plan_id":"cebpf4jnsgd1na2vs0mg"},{"bike_id":"a4e0ecf5-e792-4bd6-8132-6b62272b4e5d","system_id":"levelo_inurba_marseille","lat":43.31362,"lon":5.38496,"is_reserved":false,"is_disabled":false,"rental_uris":{"android":"levelo://app?vid=a4e0ecf5-e792-4bd6-8132-6b62272b4e5d","ios":"levelo://app?vid=a4e0ecf5-e792-4bd6-8132-6b62272b4e5d"},"vehicle_type_id":"4","last_reported":1729022995,"current_range_meters":37600,"station_id":"ce4bgt92rcd13ifvqcf0","pricing_plan_id":"cebpf4jnsgd1na2vs0mg"},{"bike_id":"a7ff9e42-e3e4-48e1-9d6a-70e06dd8acba","system_id":"levelo_inurba_marseille","lat":43.30433,"lon":5.39754,"is_reserved":false,"is_disabled":false,"rental_uris":{"android":"levelo://app?vid=a7ff9e42-e3e4-48e1-9d6a-70e06dd8acba","ios":"levelo://app?vid=a7ff9e42-e3e4-48e1-9d6a-70e06dd8acba"},"vehicle_type_id":"4","last_reported":1729022995,"current_range_meters":6800,"station_id":"ce4bh092rcd13ifvqd20","pricing_plan_id":"cebpf4jnsgd1na2vs0mg"},{"bike_id":"19fc3e4d-7ba2-44ee-bd3e-51f95e26c015","system_id":"levelo_inurba_marseille","lat":43.28417,"lon":5.34982,"is_reserved":false,"is_disabled":false,"rental_uris":{"android":"levelo://app?vid=19fc3e4d-7ba2-44ee-bd3e-51f95e26c015","ios":"levelo://app?vid=19fc3e4d-7ba2-44ee-bd3e-51f95e26c015"},"vehicle_type_id":"4","last_reported":1729022995,"current_range_meters":22800,"station_id":"ce4bhbh2rcd13ifvqepg","pricing_plan_id":"cebpf4jnsgd1na2vs0mg"},{"bike_id":"755a7622-70a2-4447-afe8-59317900f64c","system_id":"levelo_inurba_marseille","lat":43.28082,"lon":5.39657,"is_reserved":false,"is_disabled":false,"rental_uris":{"android":"levelo://app?vid=755a7622-70a2-4447-afe8-59317900f64c","ios":"levelo://app?vid=755a7622-70a2-4447-afe8-59317900f64c"},"vehicle_type_id":"4","last_reported":1729022995,"current_range_meters":28000,"station_id":"ce4bho12rcd13ifvqh2g","pricing_plan_id":"cebpf4jnsgd1na2vs0mg"},{"bike_id":"ed3051eb-cf38-46ec-8360-eb19d0c0d570","system_id":"levelo_inurba_marseille","lat":43.34139,"lon":5.40904,"is_reserved":false,"is_disabled":false,"rental_uris":{"android":"levelo://app?vid=ed3051eb-cf38-46ec-8360-eb19d0c0d570","ios":"levelo://app?vid=ed3051eb-cf38-46ec-8360-eb19d0c0d570"},"vehicle_type_id":"4","last_reported":1729022995,"current_range_meters":9200,"station_id":"ce4bhqh2rcd13ifvqhlg","pricing_plan_id":"cebpf4jnsgd1na2vs0mg"},{"bike_id":"44467c07-1a43-43d3-88c9-8cd20cd16ea6","system_id":"levelo_inurba_marseille","lat":43.30592,"lon":5.3936,"is_reserved":false,"is_disabled":false,"rental_uris":{"android":"levelo://app?vid=44467c07-1a43-43d3-88c9-8cd20cd16ea6","ios":"levelo://app?vid=44467c07-1a43-43d3-88c9-8cd20cd16ea6"},"vehicle_type_id":"4","last_reported":1729022995,"current_range_meters":39200,"station_id":"ce4bh0p2rcd13ifvqd80","pricing_plan_id":"cebpf4jnsgd1na2vs0mg"},{"bike_id":"7d3a2f0e-08c1-4945-9dce-b78170c6ba69","system_id":"levelo_inurba_marseille","lat":43.292633,"lon":5.368432,"is_reserved":false,"is_disabled":false,"rental_uris":{"android":"levelo://app?vid=7d3a2f0e-08c1-4945-9dce-b78170c6ba69","ios":"levelo://app?vid=7d3a2f0e-08c1-4945-9dce-b78170c6ba69"},"vehicle_type_id":"4","last_reported":1729022995,"current_range_meters":9600,"station_id":"ce4bhbp2rcd13ifvqesg","pricing_plan_id":"cebpf4jnsgd1na2vs0mg"},{"bike_id":"3844cb20-25fe-4258-a26f-c81b00efbc21","system_id":"levelo_inurba_marseille","lat":43.28841,"lon":5.39314,"is_reserved":false,"is_disabled":false,"rental_uris":{"android":"levelo://app?vid=3844cb20-25fe-4258-a26f-c81b00efbc21","ios":"levelo://app?vid=3844cb20-25fe-4258-a26f-c81b00efbc21"},"vehicle_type_id":"4","last_reported":1729022995,"current_range_meters":35600,"station_id":"ce4bh2p2rcd13ifvqdi0","pricing_plan_id":"cebpf4jnsgd1na2vs0mg"},{"bike_id":"6e7afd62-d736-4ed9-9248-f4f82a390064","system_id":"levelo_inurba_marseille","lat":43.33603,"lon":5.4104,"is_reserved":false,"is_disabled":false,"rental_uris":{"android":"levelo://app?vid=6e7afd62-d736-4ed9-9248-f4f82a390064","ios":"levelo://app?vid=6e7afd62-d736-4ed9-9248-f4f82a390064"},"vehicle_type_id":"4","last_reported":1729022995,"current_range_meters":24000,"station_id":"ce4bhqh2rcd13ifvqhmg","pricing_plan_id":"cebpf4jnsgd1na2vs0mg"},{"bike_id":"5f866cdd-5cee-442e-81d2-26f78a203ab9","system_id":"levelo_inurba_marseille","lat":43.31992,"lon":5.38151,"is_reserved":false,"is_disabled":false,"rental_uris":{"android":"levelo://app?vid=5f866cdd-5cee-442e-81d2-26f78a203ab9","ios":"levelo://app?vid=5f866cdd-5cee-442e-81d2-26f78a203ab9"},"vehicle_type_id":"4","last_reported":1729022995,"current_range_meters":30400,"station_id":"ce4bhr12rcd13ifvqhpg","pricing_plan_id":"cebpf4jnsgd1na2vs0mg"},{"bike_id":"c58611c9-5610-40ca-9dff-13b158d6d313","system_id":"levelo_inurba_marseille","lat":43.31683,"lon":5.3774,"is_reserved":false,"is_disabled":false,"rental_uris":{"android":"levelo://app?vid=c58611c9-5610-40ca-9dff-13b158d6d313","ios":"levelo://app?vid=c58611c9-5610-40ca-9dff-13b158d6d313"},"vehicle_type_id":"4","last_reported":1729022995,"current_range_meters":28800,"station_id":"ce4bgth2rcd13ifvqch0","pricing_plan_id":"cebpf4jnsgd1na2vs0mg"},{"bike_id":"eb646d5e-71f3-41a5-8f49-b168b4fba9d8","system_id":"levelo_inurba_marseille","lat":43.27816,"lon":5.40717,"is_reserved":false,"is_disabled":false,"rental_uris":{"android":"levelo://app?vid=eb646d5e-71f3-41a5-8f49-b168b4fba9d8","ios":"levelo://app?vid=eb646d5e-71f3-41a5-8f49-b168b4fba9d8"},"vehicle_type_id":"4","last_reported":1729022995,"current_range_meters":16000,"station_id":"ce4bhnh2rcd13ifvqgtg","pricing_plan_id":"cebpf4jnsgd1na2vs0mg"},{"bike_id":"ded83da2-ac47-4af4-99a1-215e896c1d92","system_id":"levelo_inurba_marseille","lat":43.28272,"lon":5.35079,"is_reserved":false,"is_disabled":false,"rental_uris":{"android":"levelo://app?vid=ded83da2-ac47-4af4-99a1-215e896c1d92","ios":"levelo://app?vid=ded83da2-ac47-4af4-99a1-215e896c1d92"},"vehicle_type_id":"4","last_reported":1729022995,"current_range_meters":38800,"station_id":"ce4bhbp2rcd13ifvqerg","pricing_plan_id":"cebpf4jnsgd1na2vs0mg"},{"bike_id":"a73d10fb-4ec6-4d9f-bfb7-260211ec0ae2","system_id":"levelo_inurba_marseille","lat":43.29522,"lon":5.38557,"is_reserved":false,"is_disabled":false,"rental_uris":{"android":"levelo://app?vid=a73d10fb-4ec6-4d9f-bfb7-260211ec0ae2","ios":"levelo://app?vid=a73d10fb-4ec6-4d9f-bfb7-260211ec0ae2"},"vehicle_type_id":"4","last_reported":1729022995,"current_range_meters":28400,"station_id":"ce4bgih2rcd13ifvqba0","pricing_plan_id":"cebpf4jnsgd1na2vs0mg"},{"bike_id":"084e47c8-48d5-43d2-8d74-c79e9f45d071","system_id":"levelo_inurba_marseille","lat":43.30617,"lon":5.37218,"is_reserved":false,"is_disabled":false,"rental_uris":{"android":"levelo://app?vid=084e47c8-48d5-43d2-8d74-c79e9f45d071","ios":"levelo://app?vid=084e47c8-48d5-43d2-8d74-c79e9f45d071"},"vehicle_type_id":"4","last_reported":1729022995,"current_range_meters":8000,"station_id":"ce4bgqh2rcd13ifvqc4g","pricing_plan_id":"cebpf4jnsgd1na2vs0mg"},{"bike_id":"05adb47d-1266-4e21-ab38-5e328a4b3445","system_id":"levelo_inurba_marseille","lat":43.33035,"lon":5.39039,"is_reserved":false,"is_disabled":false,"rental_uris":{"android":"levelo://app?vid=05adb47d-1266-4e21-ab38-5e328a4b3445","ios":"levelo://app?vid=05adb47d-1266-4e21-ab38-5e328a4b3445"},"vehicle_type_id":"4","last_reported":1729022995,"current_range_meters":22800,"station_id":"ce4bhr92rcd13ifvqhrg","pricing_plan_id":"cebpf4jnsgd1na2vs0mg"},{"bike_id":"5902dad7-c198-468e-b08f-c44503fb5c53","system_id":"levelo_inurba_marseille","lat":43.30133,"lon":5.38764,"is_reserved":false,"is_disabled":false,"rental_uris":{"android":"levelo://app?vid=5902dad7-c198-468e-b08f-c44503fb5c53","ios":"levelo://app?vid=5902dad7-c198-468e-b08f-c44503fb5c53"},"vehicle_type_id":"4","last_reported":1729022995,"current_range_meters":4800,"station_id":"ce4bghh2rcd13ifvqb60","pricing_plan_id":"cebpf4jnsgd1na2vs0mg"},{"bike_id":"89ed3754-5900-4885-b3cd-b3ff6b2ae5c8","system_id":"levelo_inurba_marseille","lat":43.30294,"lon":5.39199,"is_reserved":false,"is_disabled":false,"rental_uris":{"android":"levelo://app?vid=89ed3754-5900-4885-b3cd-b3ff6b2ae5c8","ios":"levelo://app?vid=89ed3754-5900-4885-b3cd-b3ff6b2ae5c8"},"vehicle_type_id":"4","last_reported":1729022995,"current_range_meters":25200,"station_id":"ce4bgkh2rcd13ifvqbk0","pricing_plan_id":"cebpf4jnsgd1na2vs0mg"},{"bike_id":"e439f200-513f-4baf-a94e-9c58b6122e2f","system_id":"levelo_inurba_marseille","lat":43.278194,"lon":5.407261,"is_reserved":false,"is_disabled":false,"rental_uris":{"android":"levelo://app?vid=e439f200-513f-4baf-a94e-9c58b6122e2f","ios":"levelo://app?vid=e439f200-513f-4baf-a94e-9c58b6122e2f"},"vehicle_type_id":"4","last_reported":1729022995,"current_range_meters":28000,"station_id":"ce4bhnh2rcd13ifvqgtg","pricing_plan_id":"cebpf4jnsgd1na2vs0mg"},{"bike_id":"87f25d93-c253-4592-b77b-9821fe50b33f","system_id":"levelo_inurba_marseille","lat":43.30539,"lon":5.36708,"is_reserved":false,"is_disabled":false,"rental_uris":{"android":"levelo://app?vid=87f25d93-c253-4592-b77b-9821fe50b33f","ios":"levelo://app?vid=87f25d93-c253-4592-b77b-9821fe50b33f"},"vehicle_type_id":"4","last_reported":1729022995,"current_range_meters":32800,"station_id":"ce4bgrp2rcd13ifvqc9g","pricing_plan_id":"cebpf4jnsgd1na2vs0mg"},{"bike_id":"694d89bd-bac3-4c55-9600-80fe90f45ec4","system_id":"levelo_inurba_marseille","lat":43.3361,"lon":5.41028,"is_reserved":false,"is_disabled":false,"rental_uris":{"android":"levelo://app?vid=694d89bd-bac3-4c55-9600-80fe90f45ec4","ios":"levelo://app?vid=694d89bd-bac3-4c55-9600-80fe90f45ec4"},"vehicle_type_id":"4","last_reported":1729022995,"current_range_meters":30400,"station_id":"ce4bhqh2rcd13ifvqhmg","pricing_plan_id":"cebpf4jnsgd1na2vs0mg"},{"bike_id":"5bee4394-3c6f-4e0b-ae7f-af2244610f6e","system_id":"levelo_inurba_marseille","lat":43.31993,"lon":5.38157,"is_reserved":false,"is_disabled":false,"rental_uris":{"android":"levelo://app?vid=5bee4394-3c6f-4e0b-ae7f-af2244610f6e","ios":"levelo://app?vid=5bee4394-3c6f-4e0b-ae7f-af2244610f6e"},"vehicle_type_id":"4","last_reported":1729022995,"current_range_meters":32000,"station_id":"ce4bhr12rcd13ifvqhpg","pricing_plan_id":"cebpf4jnsgd1na2vs0mg"},{"bike_id":"c0670d96-b06e-446b-a07e-6b5eeebc59d7","system_id":"levelo_inurba_marseille","lat":43.274948,"lon":5.424466,"is_reserved":false,"is_disabled":false,"rental_uris":{"android":"levelo://app?vid=c0670d96-b06e-446b-a07e-6b5eeebc59d7","ios":"levelo://app?vid=c0670d96-b06e-446b-a07e-6b5eeebc59d7"},"vehicle_type_id":"4","last_reported":1729022995,"current_range_meters":10800,"station_id":"ce4bhn92rcd13ifvqgrg","pricing_plan_id":"cebpf4jnsgd1na2vs0mg"},{"bike_id":"f3c1853e-8b8e-47e4-8746-d00e45b18cdc","system_id":"levelo_inurba_marseille","lat":43.32478,"lon":5.3657,"is_reserved":false,"is_disabled":false,"rental_uris":{"android":"levelo://app?vid=f3c1853e-8b8e-47e4-8746-d00e45b18cdc","ios":"levelo://app?vid=f3c1853e-8b8e-47e4-8746-d00e45b18cdc"},"vehicle_type_id":"4","last_reported":1729022995,"current_range_meters":16000,"station_id":"ce4bhs12rcd13ifvqhvg","pricing_plan_id":"cebpf4jnsgd1na2vs0mg"},{"bike_id":"a0d3d324-fa7e-4417-aee7-85012ecab44e","system_id":"levelo_inurba_marseille","lat":43.34185,"lon":5.44502,"is_reserved":false,"is_disabled":false,"rental_uris":{"android":"levelo://app?vid=a0d3d324-fa7e-4417-aee7-85012ecab44e","ios":"levelo://app?vid=a0d3d324-fa7e-4417-aee7-85012ecab44e"},"vehicle_type_id":"4","last_reported":1729022995,"current_range_meters":22800,"station_id":"","pricing_plan_id":"cebpf4jnsgd1na2vs0mg"},{"bike_id":"2297a50d-fc0b-452f-8576-9b5fda1dd252","system_id":"levelo_inurba_marseille","lat":43.28716,"lon":5.37924,"is_reserved":false,"is_disabled":false,"rental_uris":{"android":"levelo://app?vid=2297a50d-fc0b-452f-8576-9b5fda1dd252","ios":"levelo://app?vid=2297a50d-fc0b-452f-8576-9b5fda1dd252"},"vehicle_type_id":"4","last_reported":1729022995,"current_range_meters":20000,"station_id":"ce4bh9p2rcd13ifvqec0","pricing_plan_id":"cebpf4jnsgd1na2vs0mg"},{"bike_id":"4374e203-7909-4d0a-b94c-bc92742c6476","system_id":"levelo_inurba_marseille","lat":43.303314,"lon":5.404464,"is_reserved":false,"is_disabled":false,"rental_uris":{"android":"levelo://app?vid=4374e203-7909-4d0a-b94c-bc92742c6476","ios":"levelo://app?vid=4374e203-7909-4d0a-b94c-bc92742c6476"},"vehicle_type_id":"4","last_reported":1729022995,"current_range_meters":22000,"station_id":"ce4bh012rcd13ifvqd10","pricing_plan_id":"cebpf4jnsgd1na2vs0mg"},{"bike_id":"0142a146-5907-4ea0-b218-4c7a416a60ba","system_id":"levelo_inurba_marseille","lat":43.29518,"lon":5.39037,"is_reserved":false,"is_disabled":false,"rental_uris":{"android":"levelo://app?vid=0142a146-5907-4ea0-b218-4c7a416a60ba","ios":"levelo://app?vid=0142a146-5907-4ea0-b218-4c7a416a60ba"},"vehicle_type_id":"4","last_reported":1729022995,"current_range_meters":27200,"station_id":"ce4bh3p2rcd13ifvqdp0","pricing_plan_id":"cebpf4jnsgd1na2vs0mg"},{"bike_id":"f618b2b2-5566-4050-87c4-12be64058ea9","system_id":"levelo_inurba_marseille","lat":43.30595,"lon":5.39362,"is_reserved":false,"is_disabled":false,"rental_uris":{"android":"levelo://app?vid=f618b2b2-5566-4050-87c4-12be64058ea9","ios":"levelo://app?vid=f618b2b2-5566-4050-87c4-12be64058ea9"},"vehicle_type_id":"4","last_reported":1729022995,"current_range_meters":8400,"station_id":"ce4bh0p2rcd13ifvqd80","pricing_plan_id":"cebpf4jnsgd1na2vs0mg"},{"bike_id":"304a2d48-cecb-41b4-9d5c-49528f04f880","system_id":"levelo_inurba_marseille","lat":43.32042,"lon":5.41537,"is_reserved":false,"is_disabled":false,"rental_uris":{"android":"levelo://app?vid=304a2d48-cecb-41b4-9d5c-49528f04f880","ios":"levelo://app?vid=304a2d48-cecb-41b4-9d5c-49528f04f880"},"vehicle_type_id":"4","last_reported":1729022995,"current_range_meters":22400,"station_id":"ce4bhq92rcd13ifvqhkg","pricing_plan_id":"cebpf4jnsgd1na2vs0mg"},{"bike_id":"0994d7f0-fa2e-480f-b967-2b1e1b476b78","system_id":"levelo_inurba_marseille","lat":43.23195,"lon":5.35549,"is_reserved":false,"is_disabled":false,"rental_uris":{"android":"levelo://app?vid=0994d7f0-fa2e-480f-b967-2b1e1b476b78","ios":"levelo://app?vid=0994d7f0-fa2e-480f-b967-2b1e1b476b78"},"vehicle_type_id":"4","last_reported":1729022995,"current_range_meters":25200,"station_id":"ce4bhu92rcd13ifvqi70","pricing_plan_id":"cebpf4jnsgd1na2vs0mg"},{"bike_id":"63c47bc5-f167-4a5a-a9c2-0376516d4eba","system_id":"levelo_inurba_marseille","lat":43.279061,"lon":5.380277,"is_reserved":false,"is_disabled":false,"rental_uris":{"android":"levelo://app?vid=63c47bc5-f167-4a5a-a9c2-0376516d4eba","ios":"levelo://app?vid=63c47bc5-f167-4a5a-a9c2-0376516d4eba"},"vehicle_type_id":"4","last_reported":1729022995,"current_range_meters":29600,"station_id":"ce4bhf92rcd13ifvqf50","pricing_plan_id":"cebpf4jnsgd1na2vs0mg"},{"bike_id":"4d423de8-5e22-441a-8848-ae5dc9d8eb39","system_id":"levelo_inurba_marseille","lat":43.33726,"lon":5.37455,"is_reserved":false,"is_disabled":false,"rental_uris":{"android":"levelo://app?vid=4d423de8-5e22-441a-8848-ae5dc9d8eb39","ios":"levelo://app?vid=4d423de8-5e22-441a-8848-ae5dc9d8eb39"},"vehicle_type_id":"4","last_reported":1729022995,"current_range_meters":8800,"station_id":"","pricing_plan_id":"cebpf4jnsgd1na2vs0mg"},{"bike_id":"770d253c-36e6-4bf4-9662-e16838d2225f","system_id":"levelo_inurba_marseille","lat":43.2904,"lon":5.35912,"is_reserved":false,"is_disabled":false,"rental_uris":{"android":"levelo://app?vid=770d253c-36e6-4bf4-9662-e16838d2225f","ios":"levelo://app?vid=770d253c-36e6-4bf4-9662-e16838d2225f"},"vehicle_type_id":"4","last_reported":1729022995,"current_range_meters":11600,"station_id":"ce4bha92rcd13ifvqeg0","pricing_plan_id":"cebpf4jnsgd1na2vs0mg"},{"bike_id":"932a4496-434b-42ff-aecc-aa86dc444381","system_id":"levelo_inurba_marseille","lat":43.3117,"lon":5.38716,"is_reserved":false,"is_disabled":false,"rental_uris":{"android":"levelo://app?vid=932a4496-434b-42ff-aecc-aa86dc444381","ios":"levelo://app?vid=932a4496-434b-42ff-aecc-aa86dc444381"},"vehicle_type_id":"4","last_reported":1729022995,"current_range_meters":36400,"station_id":"ce4bgv12rcd13ifvqcp0","pricing_plan_id":"cebpf4jnsgd1na2vs0mg"},{"bike_id":"820a06de-fd2c-43b8-b05c-8ca93d414b29","system_id":"levelo_inurba_marseille","lat":43.28265,"lon":5.35069,"is_reserved":false,"is_disabled":false,"rental_uris":{"android":"levelo://app?vid=820a06de-fd2c-43b8-b05c-8ca93d414b29","ios":"levelo://app?vid=820a06de-fd2c-43b8-b05c-8ca93d414b29"},"vehicle_type_id":"4","last_reported":1729022995,"current_range_meters":16000,"station_id":"ce4bhbp2rcd13ifvqerg","pricing_plan_id":"cebpf4jnsgd1na2vs0mg"},{"bike_id":"8e08741b-2c89-4b9b-a445-450ad67c8860","system_id":"levelo_inurba_marseille","lat":43.30882,"lon":5.39629,"is_reserved":false,"is_disabled":false,"rental_uris":{"android":"levelo://app?vid=8e08741b-2c89-4b9b-a445-450ad67c8860","ios":"levelo://app?vid=8e08741b-2c89-4b9b-a445-450ad67c8860"},"vehicle_type_id":"4","last_reported":1729022995,"current_range_meters":34800,"station_id":"ce4bh012rcd13ifvqcv0","pricing_plan_id":"cebpf4jnsgd1na2vs0mg"},{"bike_id":"e99a52f8-b6fe-4163-8a7e-6999bf0d41a5","system_id":"levelo_inurba_marseille","lat":43.29979,"lon":5.37169,"is_reserved":false,"is_disabled":false,"rental_uris":{"android":"levelo://app?vid=e99a52f8-b6fe-4163-8a7e-6999bf0d41a5","ios":"levelo://app?vid=e99a52f8-b6fe-4163-8a7e-6999bf0d41a5"},"vehicle_type_id":"4","last_reported":1729022995,"current_range_meters":4800,"station_id":"ce4bgr92rcd13ifvqc7g","pricing_plan_id":"cebpf4jnsgd1na2vs0mg"},{"bike_id":"af0db547-7f78-4fcf-bdeb-d0ba640199ab","system_id":"levelo_inurba_marseille","lat":43.29975,"lon":5.37187,"is_reserved":false,"is_disabled":false,"rental_uris":{"android":"levelo://app?vid=af0db547-7f78-4fcf-bdeb-d0ba640199ab","ios":"levelo://app?vid=af0db547-7f78-4fcf-bdeb-d0ba640199ab"},"vehicle_type_id":"4","last_reported":1729022995,"current_range_meters":24800,"station_id":"ce4bgr92rcd13ifvqc7g","pricing_plan_id":"cebpf4jnsgd1na2vs0mg"},{"bike_id":"466e7f15-d638-41ba-ad2b-7ee0a816fd35","system_id":"levelo_inurba_marseille","lat":43.310958,"lon":5.37753,"is_reserved":false,"is_disabled":false,"rental_uris":{"android":"levelo://app?vid=466e7f15-d638-41ba-ad2b-7ee0a816fd35","ios":"levelo://app?vid=466e7f15-d638-41ba-ad2b-7ee0a816fd35"},"vehicle_type_id":"4","last_reported":1729022995,"current_range_meters":22400,"station_id":"ce4bgt12rcd13ifvqcd0","pricing_plan_id":"cebpf4jnsgd1na2vs0mg"},{"bike_id":"43d7328a-a7d5-4056-83ea-5ffd6f01b045","system_id":"levelo_inurba_marseille","lat":43.287018,"lon":5.399902,"is_reserved":false,"is_disabled":false,"rental_uris":{"android":"levelo://app?vid=43d7328a-a7d5-4056-83ea-5ffd6f01b045","ios":"levelo://app?vid=43d7328a-a7d5-4056-83ea-5ffd6f01b045"},"vehicle_type_id":"4","last_reported":1729022995,"current_range_meters":16800,"station_id":"ce4bho92rcd13ifvqh3g","pricing_plan_id":"cebpf4jnsgd1na2vs0mg"},{"bike_id":"f9bd20aa-623e-4ff4-975c-7d4cfab24d90","system_id":"levelo_inurba_marseille","lat":43.23186,"lon":5.39998,"is_reserved":false,"is_disabled":false,"rental_uris":{"android":"levelo://app?vid=f9bd20aa-623e-4ff4-975c-7d4cfab24d90","ios":"levelo://app?vid=f9bd20aa-623e-4ff4-975c-7d4cfab24d90"},"vehicle_type_id":"4","last_reported":1729022995,"current_range_meters":28400,"station_id":"ce4bhn12rcd13ifvqgqg","pricing_plan_id":"cebpf4jnsgd1na2vs0mg"},{"bike_id":"dcd63edb-94cb-4fba-96f6-8a4d39570278","system_id":"levelo_inurba_marseille","lat":43.26784,"lon":5.39415,"is_reserved":false,"is_disabled":false,"rental_uris":{"android":"levelo://app?vid=dcd63edb-94cb-4fba-96f6-8a4d39570278","ios":"levelo://app?vid=dcd63edb-94cb-4fba-96f6-8a4d39570278"},"vehicle_type_id":"4","last_reported":1729022995,"current_range_meters":16400,"station_id":"ce4bhh12rcd13ifvqfg0","pricing_plan_id":"cebpf4jnsgd1na2vs0mg"},{"bike_id":"2d20b1fd-e978-4149-8726-26f04d6ecba6","system_id":"levelo_inurba_marseille","lat":43.29863,"lon":5.39744,"is_reserved":false,"is_disabled":false,"rental_uris":{"android":"levelo://app?vid=2d20b1fd-e978-4149-8726-26f04d6ecba6","ios":"levelo://app?vid=2d20b1fd-e978-4149-8726-26f04d6ecba6"},"vehicle_type_id":"4","last_reported":1729022995,"current_range_meters":28800,"station_id":"ce4bh0h2rcd13ifvqd50","pricing_plan_id":"cebpf4jnsgd1na2vs0mg"},{"bike_id":"75ee2c98-9745-4c13-9bad-121108492cf6","system_id":"levelo_inurba_marseille","lat":43.2843,"lon":5.39188,"is_reserved":false,"is_disabled":false,"rental_uris":{"android":"levelo://app?vid=75ee2c98-9745-4c13-9bad-121108492cf6","ios":"levelo://app?vid=75ee2c98-9745-4c13-9bad-121108492cf6"},"vehicle_type_id":"4","last_reported":1729022995,"current_range_meters":10000,"station_id":"ce4bhoh2rcd13ifvqh5g","pricing_plan_id":"cebpf4jnsgd1na2vs0mg"},{"bike_id":"2e27b999-0e69-425d-9c42-718e8c04baec","system_id":"levelo_inurba_marseille","lat":43.28411,"lon":5.37524,"is_reserved":false,"is_disabled":false,"rental_uris":{"android":"levelo://app?vid=2e27b999-0e69-425d-9c42-718e8c04baec","ios":"levelo://app?vid=2e27b999-0e69-425d-9c42-718e8c04baec"},"vehicle_type_id":"4","last_reported":1729022995,"current_range_meters":26800,"station_id":"ce4bh412rcd13ifvqds0","pricing_plan_id":"cebpf4jnsgd1na2vs0mg"},{"bike_id":"1bae4104-feb2-4ff5-a21d-98e5f929332f","system_id":"levelo_inurba_marseille","lat":43.28037,"lon":5.36942,"is_reserved":false,"is_disabled":false,"rental_uris":{"android":"levelo://app?vid=1bae4104-feb2-4ff5-a21d-98e5f929332f","ios":"levelo://app?vid=1bae4104-feb2-4ff5-a21d-98e5f929332f"},"vehicle_type_id":"4","last_reported":1729022995,"current_range_meters":30000,"station_id":"ce4bha12rcd13ifvqef0","pricing_plan_id":"cebpf4jnsgd1na2vs0mg"},{"bike_id":"e084d3b6-fcfe-4f8b-9130-92054313ed0a","system_id":"levelo_inurba_marseille","lat":43.322996,"lon":5.38528,"is_reserved":false,"is_disabled":false,"rental_uris":{"android":"levelo://app?vid=e084d3b6-fcfe-4f8b-9130-92054313ed0a","ios":"levelo://app?vid=e084d3b6-fcfe-4f8b-9130-92054313ed0a"},"vehicle_type_id":"4","last_reported":1729022995,"current_range_meters":3600,"station_id":"","pricing_plan_id":"cebpf4jnsgd1na2vs0mg"},{"bike_id":"87bfd9a1-d584-4acd-8bfc-d0e9e6fe105a","system_id":"levelo_inurba_marseille","lat":43.2829,"lon":5.38552,"is_reserved":false,"is_disabled":false,"rental_uris":{"android":"levelo://app?vid=87bfd9a1-d584-4acd-8bfc-d0e9e6fe105a","ios":"levelo://app?vid=87bfd9a1-d584-4acd-8bfc-d0e9e6fe105a"},"vehicle_type_id":"4","last_reported":1729022995,"current_range_meters":6000,"station_id":"","pricing_plan_id":"cebpf4jnsgd1na2vs0mg"},{"bike_id":"694c2298-ab83-4eb3-9546-0dc084870396","system_id":"levelo_inurba_marseille","lat":43.312271,"lon":5.369048,"is_reserved":false,"is_disabled":false,"rental_uris":{"android":"levelo://app?vid=694c2298-ab83-4eb3-9546-0dc084870396","ios":"levelo://app?vid=694c2298-ab83-4eb3-9546-0dc084870396"},"vehicle_type_id":"4","last_reported":1729022995,"current_range_meters":39200,"station_id":"ce4bgl92rcd13ifvqbq0","pricing_plan_id":"cebpf4jnsgd1na2vs0mg"},{"bike_id":"2140b6a3-5118-4150-823e-9225aeb56201","system_id":"levelo_inurba_marseille","lat":43.23188,"lon":5.35544,"is_reserved":false,"is_disabled":false,"rental_uris":{"android":"levelo://app?vid=2140b6a3-5118-4150-823e-9225aeb56201","ios":"levelo://app?vid=2140b6a3-5118-4150-823e-9225aeb56201"},"vehicle_type_id":"4","last_reported":1729022995,"current_range_meters":8400,"station_id":"ce4bhu92rcd13ifvqi70","pricing_plan_id":"cebpf4jnsgd1na2vs0mg"},{"bike_id":"52e37773-79c6-4443-94d6-5ed359faaaf0","system_id":"levelo_inurba_marseille","lat":43.30008,"lon":5.37635,"is_reserved":false,"is_disabled":false,"rental_uris":{"android":"levelo://app?vid=52e37773-79c6-4443-94d6-5ed359faaaf0","ios":"levelo://app?vid=52e37773-79c6-4443-94d6-5ed359faaaf0"},"vehicle_type_id":"4","last_reported":1729022995,"current_range_meters":18000,"station_id":"","pricing_plan_id":"cebpf4jnsgd1na2vs0mg"},{"bike_id":"2ef7640c-0ce7-4225-943a-0140a011a40d","system_id":"levelo_inurba_marseille","lat":43.2938,"lon":5.37242,"is_reserved":false,"is_disabled":false,"rental_uris":{"android":"levelo://app?vid=2ef7640c-0ce7-4225-943a-0140a011a40d","ios":"levelo://app?vid=2ef7640c-0ce7-4225-943a-0140a011a40d"},"vehicle_type_id":"4","last_reported":1729022995,"current_range_meters":37600,"station_id":"","pricing_plan_id":"cebpf4jnsgd1na2vs0mg"},{"bike_id":"103f921b-c6d2-4b04-ba1a-06583d6d71c4","system_id":"levelo_inurba_marseille","lat":43.30884,"lon":5.39636,"is_reserved":false,"is_disabled":false,"rental_uris":{"android":"levelo://app?vid=103f921b-c6d2-4b04-ba1a-06583d6d71c4","ios":"levelo://app?vid=103f921b-c6d2-4b04-ba1a-06583d6d71c4"},"vehicle_type_id":"4","last_reported":1729022995,"current_range_meters":3600,"station_id":"ce4bh012rcd13ifvqcv0","pricing_plan_id":"cebpf4jnsgd1na2vs0mg"},{"bike_id":"a2633ada-9a98-4125-b6e7-14adf81b357f","system_id":"levelo_inurba_marseille","lat":43.31882,"lon":5.40746,"is_reserved":false,"is_disabled":false,"rental_uris":{"android":"levelo://app?vid=a2633ada-9a98-4125-b6e7-14adf81b357f","ios":"levelo://app?vid=a2633ada-9a98-4125-b6e7-14adf81b357f"},"vehicle_type_id":"4","last_reported":1729022995,"current_range_meters":4800,"station_id":"ce4bhq12rcd13ifvqhig","pricing_plan_id":"cebpf4jnsgd1na2vs0mg"},{"bike_id":"679f4f3c-0203-4f7d-9836-538010d8d024","system_id":"levelo_inurba_marseille","lat":43.2803,"lon":5.3694,"is_reserved":false,"is_disabled":false,"rental_uris":{"android":"levelo://app?vid=679f4f3c-0203-4f7d-9836-538010d8d024","ios":"levelo://app?vid=679f4f3c-0203-4f7d-9836-538010d8d024"},"vehicle_type_id":"4","last_reported":1729022995,"current_range_meters":38800,"station_id":"ce4bha12rcd13ifvqef0","pricing_plan_id":"cebpf4jnsgd1na2vs0mg"},{"bike_id":"b44ca85b-fffc-4654-8efe-b3d329e7c53e","system_id":"levelo_inurba_marseille","lat":43.28077,"lon":5.39659,"is_reserved":false,"is_disabled":false,"rental_uris":{"android":"levelo://app?vid=b44ca85b-fffc-4654-8efe-b3d329e7c53e","ios":"levelo://app?vid=b44ca85b-fffc-4654-8efe-b3d329e7c53e"},"vehicle_type_id":"4","last_reported":1729022995,"current_range_meters":28000,"station_id":"ce4bho12rcd13ifvqh2g","pricing_plan_id":"cebpf4jnsgd1na2vs0mg"},{"bike_id":"d089d4bd-ba4c-4843-966d-a02f53ca9726","system_id":"levelo_inurba_marseille","lat":43.31108,"lon":5.37769,"is_reserved":false,"is_disabled":false,"rental_uris":{"android":"levelo://app?vid=d089d4bd-ba4c-4843-966d-a02f53ca9726","ios":"levelo://app?vid=d089d4bd-ba4c-4843-966d-a02f53ca9726"},"vehicle_type_id":"4","last_reported":1729022995,"current_range_meters":38800,"station_id":"ce4bgt92rcd13ifvqcg0","pricing_plan_id":"cebpf4jnsgd1na2vs0mg"},{"bike_id":"8c18e7a3-256d-4a3b-b531-a11dc24afda6","system_id":"levelo_inurba_marseille","lat":43.31996,"lon":5.38157,"is_reserved":false,"is_disabled":false,"rental_uris":{"android":"levelo://app?vid=8c18e7a3-256d-4a3b-b531-a11dc24afda6","ios":"levelo://app?vid=8c18e7a3-256d-4a3b-b531-a11dc24afda6"},"vehicle_type_id":"4","last_reported":1729022995,"current_range_meters":24400,"station_id":"ce4bhr12rcd13ifvqhpg","pricing_plan_id":"cebpf4jnsgd1na2vs0mg"},{"bike_id":"03063610-0b5b-4927-9694-1b13b4db3239","system_id":"levelo_inurba_marseille","lat":43.26194,"lon":5.3745,"is_reserved":false,"is_disabled":false,"rental_uris":{"android":"levelo://app?vid=03063610-0b5b-4927-9694-1b13b4db3239","ios":"levelo://app?vid=03063610-0b5b-4927-9694-1b13b4db3239"},"vehicle_type_id":"4","last_reported":1729022995,"current_range_meters":37600,"station_id":"ce4bhgp2rcd13ifvqfc0","pricing_plan_id":"cebpf4jnsgd1na2vs0mg"},{"bike_id":"37e1f7b9-12a7-444a-9ec8-690164efbd86","system_id":"levelo_inurba_marseille","lat":43.26556,"lon":5.37294,"is_reserved":false,"is_disabled":false,"rental_uris":{"android":"levelo://app?vid=37e1f7b9-12a7-444a-9ec8-690164efbd86","ios":"levelo://app?vid=37e1f7b9-12a7-444a-9ec8-690164efbd86"},"vehicle_type_id":"4","last_reported":1729022995,"current_range_meters":38800,"station_id":"ce4bhg12rcd13ifvqf70","pricing_plan_id":"cebpf4jnsgd1na2vs0mg"},{"bike_id":"89211ee2-076f-4df3-92bd-cd8885f2e76d","system_id":"levelo_inurba_marseille","lat":43.23194,"lon":5.35557,"is_reserved":false,"is_disabled":false,"rental_uris":{"android":"levelo://app?vid=89211ee2-076f-4df3-92bd-cd8885f2e76d","ios":"levelo://app?vid=89211ee2-076f-4df3-92bd-cd8885f2e76d"},"vehicle_type_id":"4","last_reported":1729022995,"current_range_meters":38800,"station_id":"ce4bhu92rcd13ifvqi70","pricing_plan_id":"cebpf4jnsgd1na2vs0mg"},{"bike_id":"9dabbb9f-2820-49db-acc7-73662a324005","system_id":"levelo_inurba_marseille","lat":43.33721,"lon":5.39195,"is_reserved":false,"is_disabled":false,"rental_uris":{"android":"levelo://app?vid=9dabbb9f-2820-49db-acc7-73662a324005","ios":"levelo://app?vid=9dabbb9f-2820-49db-acc7-73662a324005"},"vehicle_type_id":"4","last_reported":1729022995,"current_range_meters":36000,"station_id":"ce4bhr92rcd13ifvqhsg","pricing_plan_id":"cebpf4jnsgd1na2vs0mg"},{"bike_id":"f8278ac5-d1d7-48a6-8828-cd0ddbd5e94e","system_id":"levelo_inurba_marseille","lat":43.30804,"lon":5.43522,"is_reserved":false,"is_disabled":false,"rental_uris":{"android":"levelo://app?vid=f8278ac5-d1d7-48a6-8828-cd0ddbd5e94e","ios":"levelo://app?vid=f8278ac5-d1d7-48a6-8828-cd0ddbd5e94e"},"vehicle_type_id":"4","last_reported":1729022995,"current_range_meters":12000,"station_id":"ce4bhph2rcd13ifvqheg","pricing_plan_id":"cebpf4jnsgd1na2vs0mg"},{"bike_id":"e62b0ecd-fdee-4405-8efa-6bf7eb29bc8f","system_id":"levelo_inurba_marseille","lat":43.2798,"lon":5.38731,"is_reserved":false,"is_disabled":false,"rental_uris":{"android":"levelo://app?vid=e62b0ecd-fdee-4405-8efa-6bf7eb29bc8f","ios":"levelo://app?vid=e62b0ecd-fdee-4405-8efa-6bf7eb29bc8f"},"vehicle_type_id":"4","last_reported":1729022995,"current_range_meters":3200,"station_id":"ce4bhg12rcd13ifvqf80","pricing_plan_id":"cebpf4jnsgd1na2vs0mg"},{"bike_id":"999cff5a-be88-4f3c-b4d9-5eb43168e445","system_id":"levelo_inurba_marseille","lat":43.29526,"lon":5.3905,"is_reserved":false,"is_disabled":false,"rental_uris":{"android":"levelo://app?vid=999cff5a-be88-4f3c-b4d9-5eb43168e445","ios":"levelo://app?vid=999cff5a-be88-4f3c-b4d9-5eb43168e445"},"vehicle_type_id":"4","last_reported":1729022995,"current_range_meters":38800,"station_id":"ce4bh3p2rcd13ifvqdp0","pricing_plan_id":"cebpf4jnsgd1na2vs0mg"},{"bike_id":"f1027063-93a6-4efb-a9de-6e3fb7a8ab29","system_id":"levelo_inurba_marseille","lat":43.29059,"lon":5.37163,"is_reserved":false,"is_disabled":false,"rental_uris":{"android":"levelo://app?vid=f1027063-93a6-4efb-a9de-6e3fb7a8ab29","ios":"levelo://app?vid=f1027063-93a6-4efb-a9de-6e3fb7a8ab29"},"vehicle_type_id":"4","last_reported":1729022995,"current_range_meters":6800,"station_id":"ce4bh5p2rcd13ifvqe4g","pricing_plan_id":"cebpf4jnsgd1na2vs0mg"},{"bike_id":"9d4bab5e-1c54-4d3e-99f1-fbc1f46fff3f","system_id":"levelo_inurba_marseille","lat":43.28435,"lon":5.39186,"is_reserved":false,"is_disabled":false,"rental_uris":{"android":"levelo://app?vid=9d4bab5e-1c54-4d3e-99f1-fbc1f46fff3f","ios":"levelo://app?vid=9d4bab5e-1c54-4d3e-99f1-fbc1f46fff3f"},"vehicle_type_id":"4","last_reported":1729022995,"current_range_meters":36400,"station_id":"ce4bhoh2rcd13ifvqh5g","pricing_plan_id":"cebpf4jnsgd1na2vs0mg"},{"bike_id":"b6d06cff-ac1e-4ccb-bb13-38d6bd7afddf","system_id":"levelo_inurba_marseille","lat":43.28107,"lon":5.37843,"is_reserved":false,"is_disabled":false,"rental_uris":{"android":"levelo://app?vid=b6d06cff-ac1e-4ccb-bb13-38d6bd7afddf","ios":"levelo://app?vid=b6d06cff-ac1e-4ccb-bb13-38d6bd7afddf"},"vehicle_type_id":"4","last_reported":1729022995,"current_range_meters":37600,"station_id":"ce4bha12rcd13ifvqee0","pricing_plan_id":"cebpf4jnsgd1na2vs0mg"},{"bike_id":"bfe6236b-33bf-4eaa-8a74-a6587f86e48e","system_id":"levelo_inurba_marseille","lat":43.25827,"lon":5.39427,"is_reserved":false,"is_disabled":false,"rental_uris":{"android":"levelo://app?vid=bfe6236b-33bf-4eaa-8a74-a6587f86e48e","ios":"levelo://app?vid=bfe6236b-33bf-4eaa-8a74-a6587f86e48e"},"vehicle_type_id":"4","last_reported":1729022995,"current_range_meters":28000,"station_id":"ce4bhip2rcd13ifvqft0","pricing_plan_id":"cebpf4jnsgd1na2vs0mg"},{"bike_id":"1643d94e-1263-4403-ae53-d258057220f2","system_id":"levelo_inurba_marseille","lat":43.3133,"lon":5.39695,"is_reserved":false,"is_disabled":false,"rental_uris":{"android":"levelo://app?vid=1643d94e-1263-4403-ae53-d258057220f2","ios":"levelo://app?vid=1643d94e-1263-4403-ae53-d258057220f2"},"vehicle_type_id":"4","last_reported":1729022995,"current_range_meters":38800,"station_id":"ce4bgvp2rcd13ifvqcu0","pricing_plan_id":"cebpf4jnsgd1na2vs0mg"},{"bike_id":"9f8de861-2299-4cbf-a378-67c1496f018d","system_id":"levelo_inurba_marseille","lat":43.31065,"lon":5.38354,"is_reserved":false,"is_disabled":false,"rental_uris":{"android":"levelo://app?vid=9f8de861-2299-4cbf-a378-67c1496f018d","ios":"levelo://app?vid=9f8de861-2299-4cbf-a378-67c1496f018d"},"vehicle_type_id":"4","last_reported":1729022995,"current_range_meters":38800,"station_id":"ce4bgv92rcd13ifvqcr0","pricing_plan_id":"cebpf4jnsgd1na2vs0mg"},{"bike_id":"faa18d53-4135-4ac2-bc40-06c958fe3cb1","system_id":"levelo_inurba_marseille","lat":43.302547,"lon":5.400703,"is_reserved":false,"is_disabled":false,"rental_uris":{"android":"levelo://app?vid=faa18d53-4135-4ac2-bc40-06c958fe3cb1","ios":"levelo://app?vid=faa18d53-4135-4ac2-bc40-06c958fe3cb1"},"vehicle_type_id":"4","last_reported":1729022995,"current_range_meters":39200,"station_id":"ce4bgvh2rcd13ifvqcs0","pricing_plan_id":"cebpf4jnsgd1na2vs0mg"},{"bike_id":"ff96eee3-1ac8-4888-9ae7-e4b6cc8154af","system_id":"levelo_inurba_marseille","lat":43.33739,"lon":5.3746,"is_reserved":false,"is_disabled":false,"rental_uris":{"android":"levelo://app?vid=ff96eee3-1ac8-4888-9ae7-e4b6cc8154af","ios":"levelo://app?vid=ff96eee3-1ac8-4888-9ae7-e4b6cc8154af"},"vehicle_type_id":"4","last_reported":1729022995,"current_range_meters":32400,"station_id":"","pricing_plan_id":"cebpf4jnsgd1na2vs0mg"},{"bike_id":"95073d4b-9f20-4e79-b8a6-bff95d6698ab","system_id":"levelo_inurba_marseille","lat":43.27817,"lon":5.40718,"is_reserved":false,"is_disabled":false,"rental_uris":{"android":"levelo://app?vid=95073d4b-9f20-4e79-b8a6-bff95d6698ab","ios":"levelo://app?vid=95073d4b-9f20-4e79-b8a6-bff95d6698ab"},"vehicle_type_id":"4","last_reported":1729022995,"current_range_meters":9600,"station_id":"ce4bhnh2rcd13ifvqgtg","pricing_plan_id":"cebpf4jnsgd1na2vs0mg"},{"bike_id":"5d098c1b-4f61-4fa0-b5bf-29729894a9a0","system_id":"levelo_inurba_marseille","lat":43.31108,"lon":5.37773,"is_reserved":false,"is_disabled":false,"rental_uris":{"android":"levelo://app?vid=5d098c1b-4f61-4fa0-b5bf-29729894a9a0","ios":"levelo://app?vid=5d098c1b-4f61-4fa0-b5bf-29729894a9a0"},"vehicle_type_id":"4","last_reported":1729022995,"current_range_meters":37600,"station_id":"ce4bgt92rcd13ifvqcg0","pricing_plan_id":"cebpf4jnsgd1na2vs0mg"},{"bike_id":"2850f2f0-982c-4108-9513-cd0600f09bae","system_id":"levelo_inurba_marseille","lat":43.31121,"lon":5.37767,"is_reserved":false,"is_disabled":false,"rental_uris":{"android":"levelo://app?vid=2850f2f0-982c-4108-9513-cd0600f09bae","ios":"levelo://app?vid=2850f2f0-982c-4108-9513-cd0600f09bae"},"vehicle_type_id":"4","last_reported":1729022995,"current_range_meters":38800,"station_id":"ce4bgt92rcd13ifvqcg0","pricing_plan_id":"cebpf4jnsgd1na2vs0mg"},{"bike_id":"5282ae9c-f854-433d-a9bb-0ada28eafbcc","system_id":"levelo_inurba_marseille","lat":43.29925,"lon":5.36549,"is_reserved":false,"is_disabled":false,"rental_uris":{"android":"levelo://app?vid=5282ae9c-f854-433d-a9bb-0ada28eafbcc","ios":"levelo://app?vid=5282ae9c-f854-433d-a9bb-0ada28eafbcc"},"vehicle_type_id":"4","last_reported":1729022995,"current_range_meters":35200,"station_id":"ce4bgm92rcd13ifvqbr0","pricing_plan_id":"cebpf4jnsgd1na2vs0mg"},{"bike_id":"0bbee4f3-101d-402d-9e58-10a4dd0447e6","system_id":"levelo_inurba_marseille","lat":43.27939,"lon":5.41046,"is_reserved":false,"is_disabled":false,"rental_uris":{"android":"levelo://app?vid=0bbee4f3-101d-402d-9e58-10a4dd0447e6","ios":"levelo://app?vid=0bbee4f3-101d-402d-9e58-10a4dd0447e6"},"vehicle_type_id":"4","last_reported":1729022995,"current_range_meters":34800,"station_id":"ce4bhnp2rcd13ifvqh0g","pricing_plan_id":"cebpf4jnsgd1na2vs0mg"},{"bike_id":"518eae26-0512-481d-a6d0-d16cfd19fb16","system_id":"levelo_inurba_marseille","lat":43.27816,"lon":5.40717,"is_reserved":false,"is_disabled":false,"rental_uris":{"android":"levelo://app?vid=518eae26-0512-481d-a6d0-d16cfd19fb16","ios":"levelo://app?vid=518eae26-0512-481d-a6d0-d16cfd19fb16"},"vehicle_type_id":"4","last_reported":1729022995,"current_range_meters":11600,"station_id":"ce4bhnh2rcd13ifvqgtg","pricing_plan_id":"cebpf4jnsgd1na2vs0mg"},{"bike_id":"79991d3d-436d-404c-880e-51d74dc7bda4","system_id":"levelo_inurba_marseille","lat":43.25584,"lon":5.38241,"is_reserved":false,"is_disabled":false,"rental_uris":{"android":"levelo://app?vid=79991d3d-436d-404c-880e-51d74dc7bda4","ios":"levelo://app?vid=79991d3d-436d-404c-880e-51d74dc7bda4"},"vehicle_type_id":"4","last_reported":1729022995,"current_range_meters":38800,"station_id":"ce4bhih2rcd13ifvqfs0","pricing_plan_id":"cebpf4jnsgd1na2vs0mg"},{"bike_id":"3d2a3428-1782-4835-ae61-b4cc1330d3aa","system_id":"levelo_inurba_marseille","lat":43.31724,"lon":5.42398,"is_reserved":false,"is_disabled":false,"rental_uris":{"android":"levelo://app?vid=3d2a3428-1782-4835-ae61-b4cc1330d3aa","ios":"levelo://app?vid=3d2a3428-1782-4835-ae61-b4cc1330d3aa"},"vehicle_type_id":"4","last_reported":1729022995,"current_range_meters":24400,"station_id":"ce4bhp92rcd13ifvqhbg","pricing_plan_id":"cebpf4jnsgd1na2vs0mg"},{"bike_id":"be72c578-896b-4ac6-aa2a-37dbe7eeec18","system_id":"levelo_inurba_marseille","lat":43.28615,"lon":5.35105,"is_reserved":false,"is_disabled":false,"rental_uris":{"android":"levelo://app?vid=be72c578-896b-4ac6-aa2a-37dbe7eeec18","ios":"levelo://app?vid=be72c578-896b-4ac6-aa2a-37dbe7eeec18"},"vehicle_type_id":"4","last_reported":1729022995,"current_range_meters":38800,"station_id":"ce4bhch2rcd13ifvqeug","pricing_plan_id":"cebpf4jnsgd1na2vs0mg"},{"bike_id":"292b9425-1372-40d4-bf0a-fe57aa779a41","system_id":"levelo_inurba_marseille","lat":43.23063,"lon":5.35495,"is_reserved":false,"is_disabled":false,"rental_uris":{"android":"levelo://app?vid=292b9425-1372-40d4-bf0a-fe57aa779a41","ios":"levelo://app?vid=292b9425-1372-40d4-bf0a-fe57aa779a41"},"vehicle_type_id":"4","last_reported":1729022995,"current_range_meters":32000,"station_id":"cpo3342slgdg3j2ifvpg","pricing_plan_id":"cebpf4jnsgd1na2vs0mg"},{"bike_id":"fa42a4e3-7fdd-4beb-a025-d17a981c212c","system_id":"levelo_inurba_marseille","lat":43.28721,"lon":5.37938,"is_reserved":false,"is_disabled":false,"rental_uris":{"android":"levelo://app?vid=fa42a4e3-7fdd-4beb-a025-d17a981c212c","ios":"levelo://app?vid=fa42a4e3-7fdd-4beb-a025-d17a981c212c"},"vehicle_type_id":"4","last_reported":1729022995,"current_range_meters":37600,"station_id":"ce4bh9p2rcd13ifvqec0","pricing_plan_id":"cebpf4jnsgd1na2vs0mg"},{"bike_id":"335ca5e2-3010-4e5a-89b7-bd4e95d68c87","system_id":"levelo_inurba_marseille","lat":43.28842,"lon":5.39314,"is_reserved":false,"is_disabled":false,"rental_uris":{"android":"levelo://app?vid=335ca5e2-3010-4e5a-89b7-bd4e95d68c87","ios":"levelo://app?vid=335ca5e2-3010-4e5a-89b7-bd4e95d68c87"},"vehicle_type_id":"4","last_reported":1729022995,"current_range_meters":12000,"station_id":"ce4bh2p2rcd13ifvqdi0","pricing_plan_id":"cebpf4jnsgd1na2vs0mg"},{"bike_id":"a1636881-5425-4211-a193-ac69af1c8de1","system_id":"levelo_inurba_marseille","lat":43.28076,"lon":5.39645,"is_reserved":false,"is_disabled":false,"rental_uris":{"android":"levelo://app?vid=a1636881-5425-4211-a193-ac69af1c8de1","ios":"levelo://app?vid=a1636881-5425-4211-a193-ac69af1c8de1"},"vehicle_type_id":"4","last_reported":1729022995,"current_range_meters":19600,"station_id":"ce4bho12rcd13ifvqh2g","pricing_plan_id":"cebpf4jnsgd1na2vs0mg"},{"bike_id":"060b348f-c9d5-4041-9410-e88c0c18a895","system_id":"levelo_inurba_marseille","lat":43.27969,"lon":5.38746,"is_reserved":false,"is_disabled":false,"rental_uris":{"android":"levelo://app?vid=060b348f-c9d5-4041-9410-e88c0c18a895","ios":"levelo://app?vid=060b348f-c9d5-4041-9410-e88c0c18a895"},"vehicle_type_id":"4","last_reported":1729022995,"current_range_meters":33600,"station_id":"ce4bhg12rcd13ifvqf80","pricing_plan_id":"cebpf4jnsgd1na2vs0mg"},{"bike_id":"9e5c6458-de7e-45fb-88e0-38ed61c26e96","system_id":"levelo_inurba_marseille","lat":43.310576,"lon":5.377918,"is_reserved":false,"is_disabled":false,"rental_uris":{"android":"levelo://app?vid=9e5c6458-de7e-45fb-88e0-38ed61c26e96","ios":"levelo://app?vid=9e5c6458-de7e-45fb-88e0-38ed61c26e96"},"vehicle_type_id":"4","last_reported":1729022995,"current_range_meters":38800,"station_id":"ce4bgt92rcd13ifvqcg0","pricing_plan_id":"cebpf4jnsgd1na2vs0mg"},{"bike_id":"8e1d4e0d-5507-46d6-90b0-3fb646d87956","system_id":"levelo_inurba_marseille","lat":43.33607,"lon":5.41037,"is_reserved":false,"is_disabled":false,"rental_uris":{"android":"levelo://app?vid=8e1d4e0d-5507-46d6-90b0-3fb646d87956","ios":"levelo://app?vid=8e1d4e0d-5507-46d6-90b0-3fb646d87956"},"vehicle_type_id":"4","last_reported":1729022995,"current_range_meters":27200,"station_id":"ce4bhqh2rcd13ifvqhmg","pricing_plan_id":"cebpf4jnsgd1na2vs0mg"},{"bike_id":"df7acb4d-6a30-48e5-9f4c-47c90a3a855e","system_id":"levelo_inurba_marseille","lat":43.28461,"lon":5.39188,"is_reserved":false,"is_disabled":false,"rental_uris":{"android":"levelo://app?vid=df7acb4d-6a30-48e5-9f4c-47c90a3a855e","ios":"levelo://app?vid=df7acb4d-6a30-48e5-9f4c-47c90a3a855e"},"vehicle_type_id":"4","last_reported":1729022995,"current_range_meters":30800,"station_id":"ce4bhoh2rcd13ifvqh5g","pricing_plan_id":"cebpf4jnsgd1na2vs0mg"},{"bike_id":"564cfaa7-3c1d-432d-a6d3-213f7d0f4d6b","system_id":"levelo_inurba_marseille","lat":43.31074,"lon":5.38349,"is_reserved":false,"is_disabled":false,"rental_uris":{"android":"levelo://app?vid=564cfaa7-3c1d-432d-a6d3-213f7d0f4d6b","ios":"levelo://app?vid=564cfaa7-3c1d-432d-a6d3-213f7d0f4d6b"},"vehicle_type_id":"4","last_reported":1729022995,"current_range_meters":38800,"station_id":"ce4bgv92rcd13ifvqcr0","pricing_plan_id":"cebpf4jnsgd1na2vs0mg"},{"bike_id":"829c3391-a466-4425-bff9-104ed574e5d5","system_id":"levelo_inurba_marseille","lat":43.30142,"lon":5.38769,"is_reserved":false,"is_disabled":false,"rental_uris":{"android":"levelo://app?vid=829c3391-a466-4425-bff9-104ed574e5d5","ios":"levelo://app?vid=829c3391-a466-4425-bff9-104ed574e5d5"},"vehicle_type_id":"4","last_reported":1729022995,"current_range_meters":33200,"station_id":"ce4bghh2rcd13ifvqb60","pricing_plan_id":"cebpf4jnsgd1na2vs0mg"},{"bike_id":"d06f24f3-1961-4c39-8b26-c72733863fe9","system_id":"levelo_inurba_marseille","lat":43.33781,"lon":5.37443,"is_reserved":false,"is_disabled":false,"rental_uris":{"android":"levelo://app?vid=d06f24f3-1961-4c39-8b26-c72733863fe9","ios":"levelo://app?vid=d06f24f3-1961-4c39-8b26-c72733863fe9"},"vehicle_type_id":"4","last_reported":1729022995,"current_range_meters":22800,"station_id":"","pricing_plan_id":"cebpf4jnsgd1na2vs0mg"},{"bike_id":"c6fdf331-9c74-4a97-8d72-f054a727b453","system_id":"levelo_inurba_marseille","lat":43.29786,"lon":5.39349,"is_reserved":false,"is_disabled":false,"rental_uris":{"android":"levelo://app?vid=c6fdf331-9c74-4a97-8d72-f054a727b453","ios":"levelo://app?vid=c6fdf331-9c74-4a97-8d72-f054a727b453"},"vehicle_type_id":"4","last_reported":1729022995,"current_range_meters":35600,"station_id":"chh1huq6cuj3fo74tm60","pricing_plan_id":"cebpf4jnsgd1na2vs0mg"},{"bike_id":"4f1712a5-53a6-4922-be42-d162dd37a0f1","system_id":"levelo_inurba_marseille","lat":43.29441,"lon":5.39761,"is_reserved":false,"is_disabled":false,"rental_uris":{"android":"levelo://app?vid=4f1712a5-53a6-4922-be42-d162dd37a0f1","ios":"levelo://app?vid=4f1712a5-53a6-4922-be42-d162dd37a0f1"},"vehicle_type_id":"4","last_reported":1729022995,"current_range_meters":21600,"station_id":"ce4bh3h2rcd13ifvqdo0","pricing_plan_id":"cebpf4jnsgd1na2vs0mg"},{"bike_id":"545a78d8-b6e7-40e7-a85e-8ad9321503ab","system_id":"levelo_inurba_marseille","lat":43.31359,"lon":5.38499,"is_reserved":false,"is_disabled":false,"rental_uris":{"android":"levelo://app?vid=545a78d8-b6e7-40e7-a85e-8ad9321503ab","ios":"levelo://app?vid=545a78d8-b6e7-40e7-a85e-8ad9321503ab"},"vehicle_type_id":"4","last_reported":1729022995,"current_range_meters":37600,"station_id":"ce4bgt92rcd13ifvqcf0","pricing_plan_id":"cebpf4jnsgd1na2vs0mg"},{"bike_id":"47aa425b-f562-432e-91b5-e9fd8aa70675","system_id":"levelo_inurba_marseille","lat":43.3079,"lon":5.38147,"is_reserved":false,"is_disabled":false,"rental_uris":{"android":"levelo://app?vid=47aa425b-f562-432e-91b5-e9fd8aa70675","ios":"levelo://app?vid=47aa425b-f562-432e-91b5-e9fd8aa70675"},"vehicle_type_id":"4","last_reported":1729022995,"current_range_meters":9200,"station_id":"ce4bgt12rcd13ifvqce0","pricing_plan_id":"cebpf4jnsgd1na2vs0mg"},{"bike_id":"d41309ab-1a1f-4395-acaa-455483c3f8e1","system_id":"levelo_inurba_marseille","lat":43.23195,"lon":5.3555,"is_reserved":false,"is_disabled":false,"rental_uris":{"android":"levelo://app?vid=d41309ab-1a1f-4395-acaa-455483c3f8e1","ios":"levelo://app?vid=d41309ab-1a1f-4395-acaa-455483c3f8e1"},"vehicle_type_id":"4","last_reported":1729022995,"current_range_meters":30800,"station_id":"ce4bhu92rcd13ifvqi70","pricing_plan_id":"cebpf4jnsgd1na2vs0mg"},{"bike_id":"75132e05-6043-4b4b-8feb-5c6575560faf","system_id":"levelo_inurba_marseille","lat":43.31114,"lon":5.37773,"is_reserved":false,"is_disabled":false,"rental_uris":{"android":"levelo://app?vid=75132e05-6043-4b4b-8feb-5c6575560faf","ios":"levelo://app?vid=75132e05-6043-4b4b-8feb-5c6575560faf"},"vehicle_type_id":"4","last_reported":1729022995,"current_range_meters":38800,"station_id":"ce4bgt92rcd13ifvqcg0","pricing_plan_id":"cebpf4jnsgd1na2vs0mg"},{"bike_id":"5f4729b7-c87b-4508-9da9-87f5a93f295a","system_id":"levelo_inurba_marseille","lat":43.29521,"lon":5.39392,"is_reserved":false,"is_disabled":false,"rental_uris":{"android":"levelo://app?vid=5f4729b7-c87b-4508-9da9-87f5a93f295a","ios":"levelo://app?vid=5f4729b7-c87b-4508-9da9-87f5a93f295a"},"vehicle_type_id":"4","last_reported":1729022995,"current_range_meters":2800,"station_id":"ce4bh292rcd13ifvqdf0","pricing_plan_id":"cebpf4jnsgd1na2vs0mg"},{"bike_id":"8e620ce5-5c6f-42a7-9a04-9fdc021ec245","system_id":"levelo_inurba_marseille","lat":43.29791,"lon":5.39344,"is_reserved":false,"is_disabled":false,"rental_uris":{"android":"levelo://app?vid=8e620ce5-5c6f-42a7-9a04-9fdc021ec245","ios":"levelo://app?vid=8e620ce5-5c6f-42a7-9a04-9fdc021ec245"},"vehicle_type_id":"4","last_reported":1729022995,"current_range_meters":38800,"station_id":"chh1huq6cuj3fo74tm60","pricing_plan_id":"cebpf4jnsgd1na2vs0mg"},{"bike_id":"65ab3205-2526-4cea-bd8a-3a8a451552c7","system_id":"levelo_inurba_marseille","lat":43.26947,"lon":5.38627,"is_reserved":false,"is_disabled":false,"rental_uris":{"android":"levelo://app?vid=65ab3205-2526-4cea-bd8a-3a8a451552c7","ios":"levelo://app?vid=65ab3205-2526-4cea-bd8a-3a8a451552c7"},"vehicle_type_id":"4","last_reported":1729022995,"current_range_meters":38800,"station_id":"ce4bhh92rcd13ifvqfh0","pricing_plan_id":"cebpf4jnsgd1na2vs0mg"},{"bike_id":"d0ebdc0c-b17d-43ed-9e7f-bb8fb83ecb14","system_id":"levelo_inurba_marseille","lat":43.25106,"lon":5.40329,"is_reserved":false,"is_disabled":false,"rental_uris":{"android":"levelo://app?vid=d0ebdc0c-b17d-43ed-9e7f-bb8fb83ecb14","ios":"levelo://app?vid=d0ebdc0c-b17d-43ed-9e7f-bb8fb83ecb14"},"vehicle_type_id":"4","last_reported":1729022995,"current_range_meters":26800,"station_id":"ce4bhlh2rcd13ifvqgig","pricing_plan_id":"cebpf4jnsgd1na2vs0mg"},{"bike_id":"f9090864-a36b-45b0-829c-85757d1c6432","system_id":"levelo_inurba_marseille","lat":43.24805,"lon":5.37458,"is_reserved":false,"is_disabled":false,"rental_uris":{"android":"levelo://app?vid=f9090864-a36b-45b0-829c-85757d1c6432","ios":"levelo://app?vid=f9090864-a36b-45b0-829c-85757d1c6432"},"vehicle_type_id":"4","last_reported":1729022995,"current_range_meters":16400,"station_id":"ce4bhgh2rcd13ifvqfb0","pricing_plan_id":"cebpf4jnsgd1na2vs0mg"},{"bike_id":"e0e6b59a-abde-4d9c-aa8c-f7f63d50017e","system_id":"levelo_inurba_marseille","lat":43.27144,"lon":5.40704,"is_reserved":false,"is_disabled":false,"rental_uris":{"android":"levelo://app?vid=e0e6b59a-abde-4d9c-aa8c-f7f63d50017e","ios":"levelo://app?vid=e0e6b59a-abde-4d9c-aa8c-f7f63d50017e"},"vehicle_type_id":"4","last_reported":1729022995,"current_range_meters":8800,"station_id":"cjm6bp8fraef2m0cb0m0","pricing_plan_id":"cebpf4jnsgd1na2vs0mg"},{"bike_id":"0920e1c9-29da-4efe-a20e-33b672711333","system_id":"levelo_inurba_marseille","lat":43.29009,"lon":5.39221,"is_reserved":false,"is_disabled":false,"rental_uris":{"android":"levelo://app?vid=0920e1c9-29da-4efe-a20e-33b672711333","ios":"levelo://app?vid=0920e1c9-29da-4efe-a20e-33b672711333"},"vehicle_type_id":"4","last_reported":1729022995,"current_range_meters":35200,"station_id":"","pricing_plan_id":"cebpf4jnsgd1na2vs0mg"},{"bike_id":"93681c2c-ec24-4f49-938c-982413b49506","system_id":"levelo_inurba_marseille","lat":43.29971,"lon":5.3718,"is_reserved":false,"is_disabled":false,"rental_uris":{"android":"levelo://app?vid=93681c2c-ec24-4f49-938c-982413b49506","ios":"levelo://app?vid=93681c2c-ec24-4f49-938c-982413b49506"},"vehicle_type_id":"4","last_reported":1729022995,"current_range_meters":23200,"station_id":"ce4bgr92rcd13ifvqc7g","pricing_plan_id":"cebpf4jnsgd1na2vs0mg"},{"bike_id":"8eadc391-d5a2-437c-9391-66e326b9669e","system_id":"levelo_inurba_marseille","lat":43.30132,"lon":5.3986,"is_reserved":false,"is_disabled":false,"rental_uris":{"android":"levelo://app?vid=8eadc391-d5a2-437c-9391-66e326b9669e","ios":"levelo://app?vid=8eadc391-d5a2-437c-9391-66e326b9669e"},"vehicle_type_id":"4","last_reported":1729022995,"current_range_meters":21600,"station_id":"ce4bh0h2rcd13ifvqd40","pricing_plan_id":"cebpf4jnsgd1na2vs0mg"},{"bike_id":"3949c3cb-9623-4dbe-9840-29c02318f1bc","system_id":"levelo_inurba_marseille","lat":43.23181,"lon":5.3999,"is_reserved":false,"is_disabled":false,"rental_uris":{"android":"levelo://app?vid=3949c3cb-9623-4dbe-9840-29c02318f1bc","ios":"levelo://app?vid=3949c3cb-9623-4dbe-9840-29c02318f1bc"},"vehicle_type_id":"4","last_reported":1729022995,"current_range_meters":22800,"station_id":"ce4bhn12rcd13ifvqgqg","pricing_plan_id":"cebpf4jnsgd1na2vs0mg"},{"bike_id":"1af2813b-98a0-4b62-aaf8-89652b30f639","system_id":"levelo_inurba_marseille","lat":43.22933,"lon":5.35381,"is_reserved":false,"is_disabled":false,"rental_uris":{"android":"levelo://app?vid=1af2813b-98a0-4b62-aaf8-89652b30f639","ios":"levelo://app?vid=1af2813b-98a0-4b62-aaf8-89652b30f639"},"vehicle_type_id":"4","last_reported":1729022995,"current_range_meters":28400,"station_id":"cpo3532slgdg3j2ikp40","pricing_plan_id":"cebpf4jnsgd1na2vs0mg"},{"bike_id":"8fd90c87-8e87-4af8-975f-33520dce9b3e","system_id":"levelo_inurba_marseille","lat":43.27899,"lon":5.38002,"is_reserved":false,"is_disabled":false,"rental_uris":{"android":"levelo://app?vid=8fd90c87-8e87-4af8-975f-33520dce9b3e","ios":"levelo://app?vid=8fd90c87-8e87-4af8-975f-33520dce9b3e"},"vehicle_type_id":"4","last_reported":1729022995,"current_range_meters":8000,"station_id":"ce4bhf92rcd13ifvqf50","pricing_plan_id":"cebpf4jnsgd1na2vs0mg"},{"bike_id":"c5af4ecd-4e19-4991-8d5d-6c1027d6164f","system_id":"levelo_inurba_marseille","lat":43.30798,"lon":5.4353,"is_reserved":false,"is_disabled":false,"rental_uris":{"android":"levelo://app?vid=c5af4ecd-4e19-4991-8d5d-6c1027d6164f","ios":"levelo://app?vid=c5af4ecd-4e19-4991-8d5d-6c1027d6164f"},"vehicle_type_id":"4","last_reported":1729022995,"current_range_meters":15200,"station_id":"ce4bhph2rcd13ifvqheg","pricing_plan_id":"cebpf4jnsgd1na2vs0mg"},{"bike_id":"f93454e1-a669-4c63-a4ca-b572042c7971","system_id":"levelo_inurba_marseille","lat":43.23192,"lon":5.35558,"is_reserved":false,"is_disabled":false,"rental_uris":{"android":"levelo://app?vid=f93454e1-a669-4c63-a4ca-b572042c7971","ios":"levelo://app?vid=f93454e1-a669-4c63-a4ca-b572042c7971"},"vehicle_type_id":"4","last_reported":1729022995,"current_range_meters":24400,"station_id":"ce4bhu92rcd13ifvqi70","pricing_plan_id":"cebpf4jnsgd1na2vs0mg"},{"bike_id":"33884dc5-0a79-40bd-96e2-5d6c1d19c5ca","system_id":"levelo_inurba_marseille","lat":43.22928,"lon":5.35376,"is_reserved":false,"is_disabled":false,"rental_uris":{"android":"levelo://app?vid=33884dc5-0a79-40bd-96e2-5d6c1d19c5ca","ios":"levelo://app?vid=33884dc5-0a79-40bd-96e2-5d6c1d19c5ca"},"vehicle_type_id":"4","last_reported":1729022995,"current_range_meters":8000,"station_id":"cpo3532slgdg3j2ikp40","pricing_plan_id":"cebpf4jnsgd1na2vs0mg"},{"bike_id":"80732912-37a2-49d4-9217-9fe018e8bd74","system_id":"levelo_inurba_marseille","lat":43.25106,"lon":5.40325,"is_reserved":false,"is_disabled":false,"rental_uris":{"android":"levelo://app?vid=80732912-37a2-49d4-9217-9fe018e8bd74","ios":"levelo://app?vid=80732912-37a2-49d4-9217-9fe018e8bd74"},"vehicle_type_id":"4","last_reported":1729022995,"current_range_meters":3200,"station_id":"ce4bhlh2rcd13ifvqgig","pricing_plan_id":"cebpf4jnsgd1na2vs0mg"},{"bike_id":"c7fe9f72-46fa-4809-82b0-be9205b47911","system_id":"levelo_inurba_marseille","lat":43.28434,"lon":5.39184,"is_reserved":false,"is_disabled":false,"rental_uris":{"android":"levelo://app?vid=c7fe9f72-46fa-4809-82b0-be9205b47911","ios":"levelo://app?vid=c7fe9f72-46fa-4809-82b0-be9205b47911"},"vehicle_type_id":"4","last_reported":1729022995,"current_range_meters":35600,"station_id":"ce4bhoh2rcd13ifvqh5g","pricing_plan_id":"cebpf4jnsgd1na2vs0mg"},{"bike_id":"417572d0-476f-41ee-af9d-deef4872931b","system_id":"levelo_inurba_marseille","lat":43.2794,"lon":5.41046,"is_reserved":false,"is_disabled":false,"rental_uris":{"android":"levelo://app?vid=417572d0-476f-41ee-af9d-deef4872931b","ios":"levelo://app?vid=417572d0-476f-41ee-af9d-deef4872931b"},"vehicle_type_id":"4","last_reported":1729022995,"current_range_meters":4400,"station_id":"ce4bhnp2rcd13ifvqh0g","pricing_plan_id":"cebpf4jnsgd1na2vs0mg"},{"bike_id":"e4871b44-e714-485e-94a9-9f225940e2dc","system_id":"levelo_inurba_marseille","lat":43.28027,"lon":5.3694,"is_reserved":false,"is_disabled":false,"rental_uris":{"android":"levelo://app?vid=e4871b44-e714-485e-94a9-9f225940e2dc","ios":"levelo://app?vid=e4871b44-e714-485e-94a9-9f225940e2dc"},"vehicle_type_id":"4","last_reported":1729022995,"current_range_meters":38800,"station_id":"ce4bha12rcd13ifvqef0","pricing_plan_id":"cebpf4jnsgd1na2vs0mg"},{"bike_id":"f33dc8dc-8be7-424a-b472-4a824e2d5fc5","system_id":"levelo_inurba_marseille","lat":43.31145,"lon":5.423,"is_reserved":false,"is_disabled":false,"rental_uris":{"android":"levelo://app?vid=f33dc8dc-8be7-424a-b472-4a824e2d5fc5","ios":"levelo://app?vid=f33dc8dc-8be7-424a-b472-4a824e2d5fc5"},"vehicle_type_id":"4","last_reported":1729022995,"current_range_meters":3600,"station_id":"ce4bh012rcd13ifvqcv0","pricing_plan_id":"cebpf4jnsgd1na2vs0mg"},{"bike_id":"571ea329-32e9-4604-b87c-11d33dee6fac","system_id":"levelo_inurba_marseille","lat":43.31324,"lon":5.39693,"is_reserved":false,"is_disabled":false,"rental_uris":{"android":"levelo://app?vid=571ea329-32e9-4604-b87c-11d33dee6fac","ios":"levelo://app?vid=571ea329-32e9-4604-b87c-11d33dee6fac"},"vehicle_type_id":"4","last_reported":1729022995,"current_range_meters":27600,"station_id":"ce4bgvp2rcd13ifvqcu0","pricing_plan_id":"cebpf4jnsgd1na2vs0mg"},{"bike_id":"167a3dcd-afcd-457e-8998-67360ace43c0","system_id":"levelo_inurba_marseille","lat":43.3375,"lon":5.37436,"is_reserved":false,"is_disabled":false,"rental_uris":{"android":"levelo://app?vid=167a3dcd-afcd-457e-8998-67360ace43c0","ios":"levelo://app?vid=167a3dcd-afcd-457e-8998-67360ace43c0"},"vehicle_type_id":"4","last_reported":1729022995,"current_range_meters":33200,"station_id":"","pricing_plan_id":"cebpf4jnsgd1na2vs0mg"},{"bike_id":"64525a93-3365-4983-934d-4cad1f9c4c87","system_id":"levelo_inurba_marseille","lat":43.2906,"lon":5.35917,"is_reserved":false,"is_disabled":false,"rental_uris":{"android":"levelo://app?vid=64525a93-3365-4983-934d-4cad1f9c4c87","ios":"levelo://app?vid=64525a93-3365-4983-934d-4cad1f9c4c87"},"vehicle_type_id":"4","last_reported":1729022995,"current_range_meters":39200,"station_id":"ce4bha92rcd13ifvqeg0","pricing_plan_id":"cebpf4jnsgd1na2vs0mg"},{"bike_id":"ced0cd89-7e9c-4b83-a2b3-423d2ae68b8c","system_id":"levelo_inurba_marseille","lat":43.2815,"lon":5.4264,"is_reserved":false,"is_disabled":false,"rental_uris":{"android":"levelo://app?vid=ced0cd89-7e9c-4b83-a2b3-423d2ae68b8c","ios":"levelo://app?vid=ced0cd89-7e9c-4b83-a2b3-423d2ae68b8c"},"vehicle_type_id":"4","last_reported":1729022995,"current_range_meters":3600,"station_id":"ce4bhnh2rcd13ifvqgug","pricing_plan_id":"cebpf4jnsgd1na2vs0mg"},{"bike_id":"1b246a74-3904-4e3a-ade3-027e7c44d83f","system_id":"levelo_inurba_marseille","lat":43.247996,"lon":5.375122,"is_reserved":false,"is_disabled":false,"rental_uris":{"android":"levelo://app?vid=1b246a74-3904-4e3a-ade3-027e7c44d83f","ios":"levelo://app?vid=1b246a74-3904-4e3a-ade3-027e7c44d83f"},"vehicle_type_id":"4","last_reported":1729022995,"current_range_meters":38800,"station_id":"","pricing_plan_id":"cebpf4jnsgd1na2vs0mg"},{"bike_id":"1706b05a-c9c7-44eb-a3de-e63e980f195e","system_id":"levelo_inurba_marseille","lat":43.31882,"lon":5.40741,"is_reserved":false,"is_disabled":false,"rental_uris":{"android":"levelo://app?vid=1706b05a-c9c7-44eb-a3de-e63e980f195e","ios":"levelo://app?vid=1706b05a-c9c7-44eb-a3de-e63e980f195e"},"vehicle_type_id":"4","last_reported":1729022995,"current_range_meters":3200,"station_id":"ce4bhq12rcd13ifvqhig","pricing_plan_id":"cebpf4jnsgd1na2vs0mg"},{"bike_id":"2ae7cb6e-e949-4f32-b410-0e62af4ecc02","system_id":"levelo_inurba_marseille","lat":43.23171,"lon":5.39987,"is_reserved":false,"is_disabled":false,"rental_uris":{"android":"levelo://app?vid=2ae7cb6e-e949-4f32-b410-0e62af4ecc02","ios":"levelo://app?vid=2ae7cb6e-e949-4f32-b410-0e62af4ecc02"},"vehicle_type_id":"4","last_reported":1729022995,"current_range_meters":37600,"station_id":"ce4bhn12rcd13ifvqgqg","pricing_plan_id":"cebpf4jnsgd1na2vs0mg"},{"bike_id":"95dcff11-6c66-40bf-8f99-7fcdba9e7747","system_id":"levelo_inurba_marseille","lat":43.27827,"lon":5.39206,"is_reserved":false,"is_disabled":false,"rental_uris":{"android":"levelo://app?vid=95dcff11-6c66-40bf-8f99-7fcdba9e7747","ios":"levelo://app?vid=95dcff11-6c66-40bf-8f99-7fcdba9e7747"},"vehicle_type_id":"4","last_reported":1729022995,"current_range_meters":38400,"station_id":"ce4bhjp2rcd13ifvqga0","pricing_plan_id":"cebpf4jnsgd1na2vs0mg"},{"bike_id":"d0b06fe2-4e24-454b-8cab-da62e6dcc068","system_id":"levelo_inurba_marseille","lat":43.32292,"lon":5.38261,"is_reserved":false,"is_disabled":false,"rental_uris":{"android":"levelo://app?vid=d0b06fe2-4e24-454b-8cab-da62e6dcc068","ios":"levelo://app?vid=d0b06fe2-4e24-454b-8cab-da62e6dcc068"},"vehicle_type_id":"4","last_reported":1729022995,"current_range_meters":38000,"station_id":"ce4bhr12rcd13ifvqhqg","pricing_plan_id":"cebpf4jnsgd1na2vs0mg"},{"bike_id":"1b87c42d-7c50-4b92-8a66-53344aea6fcd","system_id":"levelo_inurba_marseille","lat":43.29896,"lon":5.4367,"is_reserved":false,"is_disabled":false,"rental_uris":{"android":"levelo://app?vid=1b87c42d-7c50-4b92-8a66-53344aea6fcd","ios":"levelo://app?vid=1b87c42d-7c50-4b92-8a66-53344aea6fcd"},"vehicle_type_id":"4","last_reported":1729022995,"current_range_meters":26800,"station_id":"ce4bhpp2rcd13ifvqhfg","pricing_plan_id":"cebpf4jnsgd1na2vs0mg"},{"bike_id":"176c51f8-dbe6-4a14-9671-48f1da4ce89a","system_id":"levelo_inurba_marseille","lat":43.28023,"lon":5.3695,"is_reserved":false,"is_disabled":false,"rental_uris":{"android":"levelo://app?vid=176c51f8-dbe6-4a14-9671-48f1da4ce89a","ios":"levelo://app?vid=176c51f8-dbe6-4a14-9671-48f1da4ce89a"},"vehicle_type_id":"4","last_reported":1729022995,"current_range_meters":6800,"station_id":"ce4bha12rcd13ifvqef0","pricing_plan_id":"cebpf4jnsgd1na2vs0mg"},{"bike_id":"4451d1e2-5dd3-45d3-ab7e-2e9330f778cc","system_id":"levelo_inurba_marseille","lat":43.29272,"lon":5.40116,"is_reserved":false,"is_disabled":false,"rental_uris":{"android":"levelo://app?vid=4451d1e2-5dd3-45d3-ab7e-2e9330f778cc","ios":"levelo://app?vid=4451d1e2-5dd3-45d3-ab7e-2e9330f778cc"},"vehicle_type_id":"4","last_reported":1729022995,"current_range_meters":10800,"station_id":"ce4bh312rcd13ifvqdk0","pricing_plan_id":"cebpf4jnsgd1na2vs0mg"},{"bike_id":"24d35238-2fa7-4fd0-873f-edfdf1f33d95","system_id":"levelo_inurba_marseille","lat":43.31751,"lon":5.42348,"is_reserved":false,"is_disabled":false,"rental_uris":{"android":"levelo://app?vid=24d35238-2fa7-4fd0-873f-edfdf1f33d95","ios":"levelo://app?vid=24d35238-2fa7-4fd0-873f-edfdf1f33d95"},"vehicle_type_id":"4","last_reported":1729022995,"current_range_meters":38800,"station_id":"ce4bhp92rcd13ifvqhbg","pricing_plan_id":"cebpf4jnsgd1na2vs0mg"},{"bike_id":"018b3299-bac3-4e4f-8787-ed481b860dca","system_id":"levelo_inurba_marseille","lat":43.31172,"lon":5.38717,"is_reserved":false,"is_disabled":false,"rental_uris":{"android":"levelo://app?vid=018b3299-bac3-4e4f-8787-ed481b860dca","ios":"levelo://app?vid=018b3299-bac3-4e4f-8787-ed481b860dca"},"vehicle_type_id":"4","last_reported":1729022995,"current_range_meters":20000,"station_id":"ce4bgv12rcd13ifvqcp0","pricing_plan_id":"cebpf4jnsgd1na2vs0mg"},{"bike_id":"81377dd3-ebb4-48c5-8ba0-e485cc924052","system_id":"levelo_inurba_marseille","lat":43.27065,"lon":5.40259,"is_reserved":false,"is_disabled":false,"rental_uris":{"android":"levelo://app?vid=81377dd3-ebb4-48c5-8ba0-e485cc924052","ios":"levelo://app?vid=81377dd3-ebb4-48c5-8ba0-e485cc924052"},"vehicle_type_id":"4","last_reported":1729022995,"current_range_meters":16000,"station_id":"ce4bhk92rcd13ifvqgc0","pricing_plan_id":"cebpf4jnsgd1na2vs0mg"},{"bike_id":"5a63799a-d9e5-4d78-a2bb-4e19b7b89a7e","system_id":"levelo_inurba_marseille","lat":43.25577,"lon":5.38236,"is_reserved":false,"is_disabled":false,"rental_uris":{"android":"levelo://app?vid=5a63799a-d9e5-4d78-a2bb-4e19b7b89a7e","ios":"levelo://app?vid=5a63799a-d9e5-4d78-a2bb-4e19b7b89a7e"},"vehicle_type_id":"4","last_reported":1729022995,"current_range_meters":38400,"station_id":"ce4bhih2rcd13ifvqfs0","pricing_plan_id":"cebpf4jnsgd1na2vs0mg"},{"bike_id":"ec118f6a-fcc0-41a9-94fc-dd12b675b87d","system_id":"levelo_inurba_marseille","lat":43.31324,"lon":5.39694,"is_reserved":false,"is_disabled":false,"rental_uris":{"android":"levelo://app?vid=ec118f6a-fcc0-41a9-94fc-dd12b675b87d","ios":"levelo://app?vid=ec118f6a-fcc0-41a9-94fc-dd12b675b87d"},"vehicle_type_id":"4","last_reported":1729022995,"current_range_meters":38800,"station_id":"ce4bgvp2rcd13ifvqcu0","pricing_plan_id":"cebpf4jnsgd1na2vs0mg"},{"bike_id":"c94d3112-017a-46fc-86b5-6a58beef3113","system_id":"levelo_inurba_marseille","lat":43.31758,"lon":5.3902,"is_reserved":false,"is_disabled":false,"rental_uris":{"android":"levelo://app?vid=c94d3112-017a-46fc-86b5-6a58beef3113","ios":"levelo://app?vid=c94d3112-017a-46fc-86b5-6a58beef3113"},"vehicle_type_id":"4","last_reported":1729022995,"current_range_meters":38800,"station_id":"ce4bhqp2rcd13ifvqhng","pricing_plan_id":"cebpf4jnsgd1na2vs0mg"},{"bike_id":"c8b4926f-7f22-41a2-9cd4-86dd25b543b9","system_id":"levelo_inurba_marseille","lat":43.2844,"lon":5.39199,"is_reserved":false,"is_disabled":false,"rental_uris":{"android":"levelo://app?vid=c8b4926f-7f22-41a2-9cd4-86dd25b543b9","ios":"levelo://app?vid=c8b4926f-7f22-41a2-9cd4-86dd25b543b9"},"vehicle_type_id":"4","last_reported":1729022995,"current_range_meters":36800,"station_id":"ce4bhoh2rcd13ifvqh5g","pricing_plan_id":"cebpf4jnsgd1na2vs0mg"},{"bike_id":"f269126c-1b0b-4a1a-a1d6-f8c3716f5336","system_id":"levelo_inurba_marseille","lat":43.23197,"lon":5.35554,"is_reserved":false,"is_disabled":false,"rental_uris":{"android":"levelo://app?vid=f269126c-1b0b-4a1a-a1d6-f8c3716f5336","ios":"levelo://app?vid=f269126c-1b0b-4a1a-a1d6-f8c3716f5336"},"vehicle_type_id":"4","last_reported":1729022995,"current_range_meters":31200,"station_id":"ce4bhu92rcd13ifvqi70","pricing_plan_id":"cebpf4jnsgd1na2vs0mg"},{"bike_id":"da46988c-13da-4b0e-ab82-7f2792a179de","system_id":"levelo_inurba_marseille","lat":43.28455,"lon":5.35887,"is_reserved":false,"is_disabled":false,"rental_uris":{"android":"levelo://app?vid=da46988c-13da-4b0e-ab82-7f2792a179de","ios":"levelo://app?vid=da46988c-13da-4b0e-ab82-7f2792a179de"},"vehicle_type_id":"4","last_reported":1729022995,"current_range_meters":9600,"station_id":"ce4bhah2rcd13ifvqei0","pricing_plan_id":"cebpf4jnsgd1na2vs0mg"},{"bike_id":"42063ee5-f485-42d6-9395-008ca5d7dda0","system_id":"levelo_inurba_marseille","lat":43.23961,"lon":5.36642,"is_reserved":false,"is_disabled":false,"rental_uris":{"android":"levelo://app?vid=42063ee5-f485-42d6-9395-008ca5d7dda0","ios":"levelo://app?vid=42063ee5-f485-42d6-9395-008ca5d7dda0"},"vehicle_type_id":"4","last_reported":1729022995,"current_range_meters":800,"station_id":"ce4bhi12rcd13ifvqfp0","pricing_plan_id":"cebpf4jnsgd1na2vs0mg"},{"bike_id":"3064e5e9-de54-44b9-9eb7-6c03ac9cf33b","system_id":"levelo_inurba_marseille","lat":43.33023,"lon":5.39044,"is_reserved":false,"is_disabled":false,"rental_uris":{"android":"levelo://app?vid=3064e5e9-de54-44b9-9eb7-6c03ac9cf33b","ios":"levelo://app?vid=3064e5e9-de54-44b9-9eb7-6c03ac9cf33b"},"vehicle_type_id":"4","last_reported":1729022995,"current_range_meters":38800,"station_id":"ce4bhr92rcd13ifvqhrg","pricing_plan_id":"cebpf4jnsgd1na2vs0mg"},{"bike_id":"3c97a126-163e-463d-a36c-b318eb9c184a","system_id":"levelo_inurba_marseille","lat":43.27912,"lon":5.39576,"is_reserved":false,"is_disabled":false,"rental_uris":{"android":"levelo://app?vid=3c97a126-163e-463d-a36c-b318eb9c184a","ios":"levelo://app?vid=3c97a126-163e-463d-a36c-b318eb9c184a"},"vehicle_type_id":"4","last_reported":1729022995,"current_range_meters":16800,"station_id":"ce4bhf92rcd13ifvqf40","pricing_plan_id":"cebpf4jnsgd1na2vs0mg"},{"bike_id":"b6a13d35-57ac-4d7b-b87a-4e69f460021d","system_id":"levelo_inurba_marseille","lat":43.33725,"lon":5.39184,"is_reserved":false,"is_disabled":false,"rental_uris":{"android":"levelo://app?vid=b6a13d35-57ac-4d7b-b87a-4e69f460021d","ios":"levelo://app?vid=b6a13d35-57ac-4d7b-b87a-4e69f460021d"},"vehicle_type_id":"4","last_reported":1729022995,"current_range_meters":22400,"station_id":"ce4bhr92rcd13ifvqhsg","pricing_plan_id":"cebpf4jnsgd1na2vs0mg"},{"bike_id":"94d48054-be54-488d-a425-2deb433f452c","system_id":"levelo_inurba_marseille","lat":43.29804,"lon":5.36433,"is_reserved":false,"is_disabled":false,"rental_uris":{"android":"levelo://app?vid=94d48054-be54-488d-a425-2deb433f452c","ios":"levelo://app?vid=94d48054-be54-488d-a425-2deb433f452c"},"vehicle_type_id":"4","last_reported":1729022995,"current_range_meters":24000,"station_id":"ce4bgnh2rcd13ifvqc0g","pricing_plan_id":"cebpf4jnsgd1na2vs0mg"},{"bike_id":"592cb529-9947-425c-a74b-0252578fcfe7","system_id":"levelo_inurba_marseille","lat":43.28612,"lon":5.35101,"is_reserved":false,"is_disabled":false,"rental_uris":{"android":"levelo://app?vid=592cb529-9947-425c-a74b-0252578fcfe7","ios":"levelo://app?vid=592cb529-9947-425c-a74b-0252578fcfe7"},"vehicle_type_id":"4","last_reported":1729022995,"current_range_meters":28000,"station_id":"ce4bhch2rcd13ifvqeug","pricing_plan_id":"cebpf4jnsgd1na2vs0mg"},{"bike_id":"50b1661a-1af2-445b-9b50-915ef50b2bb1","system_id":"levelo_inurba_marseille","lat":43.25585,"lon":5.3824,"is_reserved":false,"is_disabled":false,"rental_uris":{"android":"levelo://app?vid=50b1661a-1af2-445b-9b50-915ef50b2bb1","ios":"levelo://app?vid=50b1661a-1af2-445b-9b50-915ef50b2bb1"},"vehicle_type_id":"4","last_reported":1729022995,"current_range_meters":38800,"station_id":"ce4bhih2rcd13ifvqfs0","pricing_plan_id":"cebpf4jnsgd1na2vs0mg"},{"bike_id":"9645dc6d-bd7c-41ba-b741-da969e8d4140","system_id":"levelo_inurba_marseille","lat":43.26797,"lon":5.40268,"is_reserved":false,"is_disabled":false,"rental_uris":{"android":"levelo://app?vid=9645dc6d-bd7c-41ba-b741-da969e8d4140","ios":"levelo://app?vid=9645dc6d-bd7c-41ba-b741-da969e8d4140"},"vehicle_type_id":"4","last_reported":1729022995,"current_range_meters":26000,"station_id":"ce501612rcd8frsf0b60","pricing_plan_id":"cebpf4jnsgd1na2vs0mg"},{"bike_id":"a636c030-df86-4407-8a6a-1484a5889fe1","system_id":"levelo_inurba_marseille","lat":43.31071,"lon":5.38357,"is_reserved":false,"is_disabled":false,"rental_uris":{"android":"levelo://app?vid=a636c030-df86-4407-8a6a-1484a5889fe1","ios":"levelo://app?vid=a636c030-df86-4407-8a6a-1484a5889fe1"},"vehicle_type_id":"4","last_reported":1729022995,"current_range_meters":19200,"station_id":"ce4bgv92rcd13ifvqcr0","pricing_plan_id":"cebpf4jnsgd1na2vs0mg"},{"bike_id":"1616c9ce-4d58-4b41-a0ce-686df9d6f698","system_id":"levelo_inurba_marseille","lat":43.27814,"lon":5.40726,"is_reserved":false,"is_disabled":false,"rental_uris":{"android":"levelo://app?vid=1616c9ce-4d58-4b41-a0ce-686df9d6f698","ios":"levelo://app?vid=1616c9ce-4d58-4b41-a0ce-686df9d6f698"},"vehicle_type_id":"4","last_reported":1729022995,"current_range_meters":17600,"station_id":"ce4bhnh2rcd13ifvqgtg","pricing_plan_id":"cebpf4jnsgd1na2vs0mg"},{"bike_id":"3a0a740b-7b93-430b-a710-a2db8ca3614c","system_id":"levelo_inurba_marseille","lat":43.28105,"lon":5.3784,"is_reserved":false,"is_disabled":false,"rental_uris":{"android":"levelo://app?vid=3a0a740b-7b93-430b-a710-a2db8ca3614c","ios":"levelo://app?vid=3a0a740b-7b93-430b-a710-a2db8ca3614c"},"vehicle_type_id":"4","last_reported":1729022995,"current_range_meters":6000,"station_id":"ce4bha12rcd13ifvqee0","pricing_plan_id":"cebpf4jnsgd1na2vs0mg"},{"bike_id":"0fbd1502-a8ec-4428-b14a-1658b90f24a3","system_id":"levelo_inurba_marseille","lat":43.29983,"lon":5.38495,"is_reserved":false,"is_disabled":false,"rental_uris":{"android":"levelo://app?vid=0fbd1502-a8ec-4428-b14a-1658b90f24a3","ios":"levelo://app?vid=0fbd1502-a8ec-4428-b14a-1658b90f24a3"},"vehicle_type_id":"4","last_reported":1729022995,"current_range_meters":38800,"station_id":"ce4bgj92rcd13ifvqbd0","pricing_plan_id":"cebpf4jnsgd1na2vs0mg"},{"bike_id":"936a8bf4-b3d4-436b-bfc6-8b0bf222c610","system_id":"levelo_inurba_marseille","lat":43.29864,"lon":5.39738,"is_reserved":false,"is_disabled":false,"rental_uris":{"android":"levelo://app?vid=936a8bf4-b3d4-436b-bfc6-8b0bf222c610","ios":"levelo://app?vid=936a8bf4-b3d4-436b-bfc6-8b0bf222c610"},"vehicle_type_id":"4","last_reported":1729022995,"current_range_meters":38400,"station_id":"ce4bh0h2rcd13ifvqd50","pricing_plan_id":"cebpf4jnsgd1na2vs0mg"},{"bike_id":"09b5985d-90ee-42fc-ac04-42c5f825f1d8","system_id":"levelo_inurba_marseille","lat":43.29045,"lon":5.3591,"is_reserved":false,"is_disabled":false,"rental_uris":{"android":"levelo://app?vid=09b5985d-90ee-42fc-ac04-42c5f825f1d8","ios":"levelo://app?vid=09b5985d-90ee-42fc-ac04-42c5f825f1d8"},"vehicle_type_id":"4","last_reported":1729022995,"current_range_meters":22400,"station_id":"ce4bha92rcd13ifvqeg0","pricing_plan_id":"cebpf4jnsgd1na2vs0mg"},{"bike_id":"55848b43-a29c-46a8-85b8-67445b4979b4","system_id":"levelo_inurba_marseille","lat":43.28263,"lon":5.35073,"is_reserved":false,"is_disabled":false,"rental_uris":{"android":"levelo://app?vid=55848b43-a29c-46a8-85b8-67445b4979b4","ios":"levelo://app?vid=55848b43-a29c-46a8-85b8-67445b4979b4"},"vehicle_type_id":"4","last_reported":1729022995,"current_range_meters":8800,"station_id":"ce4bhbp2rcd13ifvqerg","pricing_plan_id":"cebpf4jnsgd1na2vs0mg"},{"bike_id":"5733b1f7-5fa2-499b-811b-2dba7a37ff2b","system_id":"levelo_inurba_marseille","lat":43.29595,"lon":5.38104,"is_reserved":false,"is_disabled":false,"rental_uris":{"android":"levelo://app?vid=5733b1f7-5fa2-499b-811b-2dba7a37ff2b","ios":"levelo://app?vid=5733b1f7-5fa2-499b-811b-2dba7a37ff2b"},"vehicle_type_id":"4","last_reported":1729022995,"current_range_meters":26000,"station_id":"ce4bgl12rcd13ifvqbo0","pricing_plan_id":"cebpf4jnsgd1na2vs0mg"},{"bike_id":"d066e3db-c343-46b8-a055-d346b427af13","system_id":"levelo_inurba_marseille","lat":43.29098,"lon":5.38146,"is_reserved":false,"is_disabled":false,"rental_uris":{"android":"levelo://app?vid=d066e3db-c343-46b8-a055-d346b427af13","ios":"levelo://app?vid=d066e3db-c343-46b8-a055-d346b427af13"},"vehicle_type_id":"4","last_reported":1729022995,"current_range_meters":17200,"station_id":"ce4bh512rcd13ifvqe2g","pricing_plan_id":"cebpf4jnsgd1na2vs0mg"},{"bike_id":"eca5c077-4a7c-4af8-a26f-d0b957acc9dd","system_id":"levelo_inurba_marseille","lat":43.32288,"lon":5.38255,"is_reserved":false,"is_disabled":false,"rental_uris":{"android":"levelo://app?vid=eca5c077-4a7c-4af8-a26f-d0b957acc9dd","ios":"levelo://app?vid=eca5c077-4a7c-4af8-a26f-d0b957acc9dd"},"vehicle_type_id":"4","last_reported":1729022995,"current_range_meters":38000,"station_id":"ce4bhr12rcd13ifvqhqg","pricing_plan_id":"cebpf4jnsgd1na2vs0mg"},{"bike_id":"0e41df3a-0ace-488c-be65-6a9fd2305448","system_id":"levelo_inurba_marseille","lat":43.33756,"lon":5.37448,"is_reserved":false,"is_disabled":false,"rental_uris":{"android":"levelo://app?vid=0e41df3a-0ace-488c-be65-6a9fd2305448","ios":"levelo://app?vid=0e41df3a-0ace-488c-be65-6a9fd2305448"},"vehicle_type_id":"4","last_reported":1729022995,"current_range_meters":33600,"station_id":"","pricing_plan_id":"cebpf4jnsgd1na2vs0mg"},{"bike_id":"05fc81f2-8ebe-4ff8-9ce6-de3b0491953a","system_id":"levelo_inurba_marseille","lat":43.29029,"lon":5.37565,"is_reserved":false,"is_disabled":false,"rental_uris":{"android":"levelo://app?vid=05fc81f2-8ebe-4ff8-9ce6-de3b0491953a","ios":"levelo://app?vid=05fc81f2-8ebe-4ff8-9ce6-de3b0491953a"},"vehicle_type_id":"4","last_reported":1729022995,"current_range_meters":12000,"station_id":"ce4bh692rcd13ifvqe90","pricing_plan_id":"cebpf4jnsgd1na2vs0mg"},{"bike_id":"ea22812b-eeb3-4df4-b579-91edf1da4541","system_id":"levelo_inurba_marseille","lat":43.30298,"lon":5.39197,"is_reserved":false,"is_disabled":false,"rental_uris":{"android":"levelo://app?vid=ea22812b-eeb3-4df4-b579-91edf1da4541","ios":"levelo://app?vid=ea22812b-eeb3-4df4-b579-91edf1da4541"},"vehicle_type_id":"4","last_reported":1729022995,"current_range_meters":34800,"station_id":"ce4bgkh2rcd13ifvqbk0","pricing_plan_id":"cebpf4jnsgd1na2vs0mg"},{"bike_id":"f845bebc-9c8b-4334-9370-4a3ee766b53f","system_id":"levelo_inurba_marseille","lat":43.29013,"lon":5.3561,"is_reserved":false,"is_disabled":false,"rental_uris":{"android":"levelo://app?vid=f845bebc-9c8b-4334-9370-4a3ee766b53f","ios":"levelo://app?vid=f845bebc-9c8b-4334-9370-4a3ee766b53f"},"vehicle_type_id":"4","last_reported":1729022995,"current_range_meters":38800,"station_id":"ce4bhb92rcd13ifvqen0","pricing_plan_id":"cebpf4jnsgd1na2vs0mg"},{"bike_id":"3fccda81-7e7f-435b-a3d1-e1e8545e2bd6","system_id":"levelo_inurba_marseille","lat":43.29572,"lon":5.39976,"is_reserved":false,"is_disabled":false,"rental_uris":{"android":"levelo://app?vid=3fccda81-7e7f-435b-a3d1-e1e8545e2bd6","ios":"levelo://app?vid=3fccda81-7e7f-435b-a3d1-e1e8545e2bd6"},"vehicle_type_id":"4","last_reported":1729022995,"current_range_meters":36800,"station_id":"ce4bh312rcd13ifvqdj0","pricing_plan_id":"cebpf4jnsgd1na2vs0mg"},{"bike_id":"d6efa8d9-2e19-466b-b6fc-b94e6164acef","system_id":"levelo_inurba_marseille","lat":43.311445,"lon":5.377548,"is_reserved":false,"is_disabled":false,"rental_uris":{"android":"levelo://app?vid=d6efa8d9-2e19-466b-b6fc-b94e6164acef","ios":"levelo://app?vid=d6efa8d9-2e19-466b-b6fc-b94e6164acef"},"vehicle_type_id":"4","last_reported":1729022995,"current_range_meters":38800,"station_id":"ce4bgt92rcd13ifvqcg0","pricing_plan_id":"cebpf4jnsgd1na2vs0mg"},{"bike_id":"5c92325b-0ce9-4445-856e-3926e7528dd6","system_id":"levelo_inurba_marseille","lat":43.25085,"lon":5.39518,"is_reserved":false,"is_disabled":false,"rental_uris":{"android":"levelo://app?vid=5c92325b-0ce9-4445-856e-3926e7528dd6","ios":"levelo://app?vid=5c92325b-0ce9-4445-856e-3926e7528dd6"},"vehicle_type_id":"4","last_reported":1729022995,"current_range_meters":5600,"station_id":"ce4bhm12rcd13ifvqgkg","pricing_plan_id":"cebpf4jnsgd1na2vs0mg"},{"bike_id":"bbef8bbd-cb4e-4c67-809f-5f5a552d6c19","system_id":"levelo_inurba_marseille","lat":43.25589,"lon":5.382476,"is_reserved":false,"is_disabled":false,"rental_uris":{"android":"levelo://app?vid=bbef8bbd-cb4e-4c67-809f-5f5a552d6c19","ios":"levelo://app?vid=bbef8bbd-cb4e-4c67-809f-5f5a552d6c19"},"vehicle_type_id":"4","last_reported":1729022995,"current_range_meters":6800,"station_id":"ce4bhih2rcd13ifvqfs0","pricing_plan_id":"cebpf4jnsgd1na2vs0mg"},{"bike_id":"52db023b-2920-47bd-a1c6-7c1624bd40de","system_id":"levelo_inurba_marseille","lat":43.30777,"lon":5.37648,"is_reserved":false,"is_disabled":false,"rental_uris":{"android":"levelo://app?vid=52db023b-2920-47bd-a1c6-7c1624bd40de","ios":"levelo://app?vid=52db023b-2920-47bd-a1c6-7c1624bd40de"},"vehicle_type_id":"4","last_reported":1729022995,"current_range_meters":39200,"station_id":"ce4bgv92rcd13ifvqcq0","pricing_plan_id":"cebpf4jnsgd1na2vs0mg"},{"bike_id":"82575f8d-4baf-4c57-9d13-df62f1e20796","system_id":"levelo_inurba_marseille","lat":43.31377,"lon":5.38501,"is_reserved":false,"is_disabled":false,"rental_uris":{"android":"levelo://app?vid=82575f8d-4baf-4c57-9d13-df62f1e20796","ios":"levelo://app?vid=82575f8d-4baf-4c57-9d13-df62f1e20796"},"vehicle_type_id":"4","last_reported":1729022995,"current_range_meters":38000,"station_id":"ce4bgt92rcd13ifvqcf0","pricing_plan_id":"cebpf4jnsgd1na2vs0mg"},{"bike_id":"a43c4f22-5dce-46bb-8d25-7e4e9a631a78","system_id":"levelo_inurba_marseille","lat":43.308,"lon":5.38149,"is_reserved":false,"is_disabled":false,"rental_uris":{"android":"levelo://app?vid=a43c4f22-5dce-46bb-8d25-7e4e9a631a78","ios":"levelo://app?vid=a43c4f22-5dce-46bb-8d25-7e4e9a631a78"},"vehicle_type_id":"4","last_reported":1729022995,"current_range_meters":38800,"station_id":"ce4bgt12rcd13ifvqce0","pricing_plan_id":"cebpf4jnsgd1na2vs0mg"},{"bike_id":"f562fb83-7f77-4395-a5a0-76a5bed2154c","system_id":"levelo_inurba_marseille","lat":43.2619,"lon":5.37451,"is_reserved":false,"is_disabled":false,"rental_uris":{"android":"levelo://app?vid=f562fb83-7f77-4395-a5a0-76a5bed2154c","ios":"levelo://app?vid=f562fb83-7f77-4395-a5a0-76a5bed2154c"},"vehicle_type_id":"4","last_reported":1729022995,"current_range_meters":38800,"station_id":"ce4bhgp2rcd13ifvqfc0","pricing_plan_id":"cebpf4jnsgd1na2vs0mg"},{"bike_id":"20e157b9-e3ea-4f3e-932a-40a73d4d2734","system_id":"levelo_inurba_marseille","lat":43.23186,"lon":5.39983,"is_reserved":false,"is_disabled":false,"rental_uris":{"android":"levelo://app?vid=20e157b9-e3ea-4f3e-932a-40a73d4d2734","ios":"levelo://app?vid=20e157b9-e3ea-4f3e-932a-40a73d4d2734"},"vehicle_type_id":"4","last_reported":1729022995,"current_range_meters":9600,"station_id":"ce4bhn12rcd13ifvqgqg","pricing_plan_id":"cebpf4jnsgd1na2vs0mg"},{"bike_id":"32c9ec73-e9a8-4685-b8f4-d84a7b209628","system_id":"levelo_inurba_marseille","lat":43.31116,"lon":5.37776,"is_reserved":false,"is_disabled":false,"rental_uris":{"android":"levelo://app?vid=32c9ec73-e9a8-4685-b8f4-d84a7b209628","ios":"levelo://app?vid=32c9ec73-e9a8-4685-b8f4-d84a7b209628"},"vehicle_type_id":"4","last_reported":1729022995,"current_range_meters":38800,"station_id":"ce4bgt92rcd13ifvqcg0","pricing_plan_id":"cebpf4jnsgd1na2vs0mg"},{"bike_id":"e7838990-26eb-492c-ac63-2a965bc41037","system_id":"levelo_inurba_marseille","lat":43.32268,"lon":5.38948,"is_reserved":false,"is_disabled":false,"rental_uris":{"android":"levelo://app?vid=e7838990-26eb-492c-ac63-2a965bc41037","ios":"levelo://app?vid=e7838990-26eb-492c-ac63-2a965bc41037"},"vehicle_type_id":"4","last_reported":1729022995,"current_range_meters":19200,"station_id":"","pricing_plan_id":"cebpf4jnsgd1na2vs0mg"},{"bike_id":"ffbc6c31-5cd0-4ab5-bd6d-1fdfbde77aac","system_id":"levelo_inurba_marseille","lat":43.28035,"lon":5.36953,"is_reserved":false,"is_disabled":false,"rental_uris":{"android":"levelo://app?vid=ffbc6c31-5cd0-4ab5-bd6d-1fdfbde77aac","ios":"levelo://app?vid=ffbc6c31-5cd0-4ab5-bd6d-1fdfbde77aac"},"vehicle_type_id":"4","last_reported":1729022995,"current_range_meters":39200,"station_id":"ce4bha12rcd13ifvqef0","pricing_plan_id":"cebpf4jnsgd1na2vs0mg"},{"bike_id":"693383dd-49a2-4dec-9cbe-3bb2b5090ac0","system_id":"levelo_inurba_marseille","lat":43.26212,"lon":5.37442,"is_reserved":false,"is_disabled":false,"rental_uris":{"android":"levelo://app?vid=693383dd-49a2-4dec-9cbe-3bb2b5090ac0","ios":"levelo://app?vid=693383dd-49a2-4dec-9cbe-3bb2b5090ac0"},"vehicle_type_id":"4","last_reported":1729022995,"current_range_meters":6400,"station_id":"ce4bhgp2rcd13ifvqfc0","pricing_plan_id":"cebpf4jnsgd1na2vs0mg"},{"bike_id":"6ed80952-27fa-4112-bdd0-484f62b1fe60","system_id":"levelo_inurba_marseille","lat":43.28054,"lon":5.40973,"is_reserved":false,"is_disabled":false,"rental_uris":{"android":"levelo://app?vid=6ed80952-27fa-4112-bdd0-484f62b1fe60","ios":"levelo://app?vid=6ed80952-27fa-4112-bdd0-484f62b1fe60"},"vehicle_type_id":"4","last_reported":1729022995,"current_range_meters":14000,"station_id":"","pricing_plan_id":"cebpf4jnsgd1na2vs0mg"},{"bike_id":"1b5795e9-268a-4cac-8032-ec4ad6269f71","system_id":"levelo_inurba_marseille","lat":43.29898,"lon":5.43671,"is_reserved":false,"is_disabled":false,"rental_uris":{"android":"levelo://app?vid=1b5795e9-268a-4cac-8032-ec4ad6269f71","ios":"levelo://app?vid=1b5795e9-268a-4cac-8032-ec4ad6269f71"},"vehicle_type_id":"4","last_reported":1729022995,"current_range_meters":17200,"station_id":"ce4bhpp2rcd13ifvqhfg","pricing_plan_id":"cebpf4jnsgd1na2vs0mg"},{"bike_id":"30998e11-fd5e-4da2-94c1-e456d02dba1f","system_id":"levelo_inurba_marseille","lat":43.27414,"lon":5.3942,"is_reserved":false,"is_disabled":false,"rental_uris":{"android":"levelo://app?vid=30998e11-fd5e-4da2-94c1-e456d02dba1f","ios":"levelo://app?vid=30998e11-fd5e-4da2-94c1-e456d02dba1f"},"vehicle_type_id":"4","last_reported":1729022995,"current_range_meters":6400,"station_id":"ce4bhdp2rcd13ifvqf20","pricing_plan_id":"cebpf4jnsgd1na2vs0mg"},{"bike_id":"4c23acdf-b1ee-4488-811d-cb660b62fab4","system_id":"levelo_inurba_marseille","lat":43.28458,"lon":5.35894,"is_reserved":false,"is_disabled":false,"rental_uris":{"android":"levelo://app?vid=4c23acdf-b1ee-4488-811d-cb660b62fab4","ios":"levelo://app?vid=4c23acdf-b1ee-4488-811d-cb660b62fab4"},"vehicle_type_id":"4","last_reported":1729022995,"current_range_meters":17600,"station_id":"ce4bhah2rcd13ifvqei0","pricing_plan_id":"cebpf4jnsgd1na2vs0mg"},{"bike_id":"adaafd01-903e-491d-9373-bd03a4c53d2f","system_id":"levelo_inurba_marseille","lat":43.29564,"lon":5.3997,"is_reserved":false,"is_disabled":false,"rental_uris":{"android":"levelo://app?vid=adaafd01-903e-491d-9373-bd03a4c53d2f","ios":"levelo://app?vid=adaafd01-903e-491d-9373-bd03a4c53d2f"},"vehicle_type_id":"4","last_reported":1729022995,"current_range_meters":31200,"station_id":"ce4bh312rcd13ifvqdj0","pricing_plan_id":"cebpf4jnsgd1na2vs0mg"},{"bike_id":"9f4cdccc-7323-4e50-9615-60ebe2c86555","system_id":"levelo_inurba_marseille","lat":43.30886,"lon":5.39637,"is_reserved":false,"is_disabled":false,"rental_uris":{"android":"levelo://app?vid=9f4cdccc-7323-4e50-9615-60ebe2c86555","ios":"levelo://app?vid=9f4cdccc-7323-4e50-9615-60ebe2c86555"},"vehicle_type_id":"4","last_reported":1729022995,"current_range_meters":11200,"station_id":"ce4bh012rcd13ifvqcv0","pricing_plan_id":"cebpf4jnsgd1na2vs0mg"},{"bike_id":"a1e0278e-920e-4eea-a381-891331e8e403","system_id":"levelo_inurba_marseille","lat":43.23201,"lon":5.35553,"is_reserved":false,"is_disabled":false,"rental_uris":{"android":"levelo://app?vid=a1e0278e-920e-4eea-a381-891331e8e403","ios":"levelo://app?vid=a1e0278e-920e-4eea-a381-891331e8e403"},"vehicle_type_id":"4","last_reported":1729022995,"current_range_meters":4400,"station_id":"ce4bhu92rcd13ifvqi70","pricing_plan_id":"cebpf4jnsgd1na2vs0mg"},{"bike_id":"42bfce44-bd11-44db-bd13-cebcf924884a","system_id":"levelo_inurba_marseille","lat":43.278155,"lon":5.407182,"is_reserved":false,"is_disabled":false,"rental_uris":{"android":"levelo://app?vid=42bfce44-bd11-44db-bd13-cebcf924884a","ios":"levelo://app?vid=42bfce44-bd11-44db-bd13-cebcf924884a"},"vehicle_type_id":"4","last_reported":1729022995,"current_range_meters":8800,"station_id":"","pricing_plan_id":"cebpf4jnsgd1na2vs0mg"},{"bike_id":"7987501e-d52c-4e1c-ac7b-66861e86d835","system_id":"levelo_inurba_marseille","lat":43.2845,"lon":5.39175,"is_reserved":false,"is_disabled":false,"rental_uris":{"android":"levelo://app?vid=7987501e-d52c-4e1c-ac7b-66861e86d835","ios":"levelo://app?vid=7987501e-d52c-4e1c-ac7b-66861e86d835"},"vehicle_type_id":"4","last_reported":1729022995,"current_range_meters":10800,"station_id":"ce4bhoh2rcd13ifvqh5g","pricing_plan_id":"cebpf4jnsgd1na2vs0mg"},{"bike_id":"c775de9c-93f9-41de-8168-6de7560d0ef1","system_id":"levelo_inurba_marseille","lat":43.28458,"lon":5.35887,"is_reserved":false,"is_disabled":false,"rental_uris":{"android":"levelo://app?vid=c775de9c-93f9-41de-8168-6de7560d0ef1","ios":"levelo://app?vid=c775de9c-93f9-41de-8168-6de7560d0ef1"},"vehicle_type_id":"4","last_reported":1729022995,"current_range_meters":38800,"station_id":"ce4bhah2rcd13ifvqei0","pricing_plan_id":"cebpf4jnsgd1na2vs0mg"},{"bike_id":"fa41eec5-6df4-444f-8b18-f2cddaebea8b","system_id":"levelo_inurba_marseille","lat":43.29799,"lon":5.38077,"is_reserved":false,"is_disabled":false,"rental_uris":{"android":"levelo://app?vid=fa41eec5-6df4-444f-8b18-f2cddaebea8b","ios":"levelo://app?vid=fa41eec5-6df4-444f-8b18-f2cddaebea8b"},"vehicle_type_id":"4","last_reported":1729022995,"current_range_meters":39200,"station_id":"ce4bgip2rcd13ifvqbb0","pricing_plan_id":"cebpf4jnsgd1na2vs0mg"},{"bike_id":"4e3bf16f-98d7-44c7-96cd-64b6f1f19a6d","system_id":"levelo_inurba_marseille","lat":43.31494,"lon":5.37311,"is_reserved":false,"is_disabled":false,"rental_uris":{"android":"levelo://app?vid=4e3bf16f-98d7-44c7-96cd-64b6f1f19a6d","ios":"levelo://app?vid=4e3bf16f-98d7-44c7-96cd-64b6f1f19a6d"},"vehicle_type_id":"4","last_reported":1729022995,"current_range_meters":15200,"station_id":"ce4bgt12rcd13ifvqcd0","pricing_plan_id":"cebpf4jnsgd1na2vs0mg"},{"bike_id":"d9078194-a921-4535-b19f-e0cff9bfb02e","system_id":"levelo_inurba_marseille","lat":43.28616,"lon":5.35103,"is_reserved":false,"is_disabled":false,"rental_uris":{"android":"levelo://app?vid=d9078194-a921-4535-b19f-e0cff9bfb02e","ios":"levelo://app?vid=d9078194-a921-4535-b19f-e0cff9bfb02e"},"vehicle_type_id":"4","last_reported":1729022995,"current_range_meters":38800,"station_id":"ce4bhch2rcd13ifvqeug","pricing_plan_id":"cebpf4jnsgd1na2vs0mg"},{"bike_id":"40a9f07f-a092-4d6c-a7c6-e193177b62a1","system_id":"levelo_inurba_marseille","lat":43.25717,"lon":5.38237,"is_reserved":false,"is_disabled":false,"rental_uris":{"android":"levelo://app?vid=40a9f07f-a092-4d6c-a7c6-e193177b62a1","ios":"levelo://app?vid=40a9f07f-a092-4d6c-a7c6-e193177b62a1"},"vehicle_type_id":"4","last_reported":1729022995,"current_range_meters":9600,"station_id":"ce4bhih2rcd13ifvqfs0","pricing_plan_id":"cebpf4jnsgd1na2vs0mg"},{"bike_id":"b50f5257-4726-4db7-a03f-3d1ff62574e7","system_id":"levelo_inurba_marseille","lat":43.25213,"lon":5.38224,"is_reserved":false,"is_disabled":false,"rental_uris":{"android":"levelo://app?vid=b50f5257-4726-4db7-a03f-3d1ff62574e7","ios":"levelo://app?vid=b50f5257-4726-4db7-a03f-3d1ff62574e7"},"vehicle_type_id":"4","last_reported":1729022995,"current_range_meters":15200,"station_id":"","pricing_plan_id":"cebpf4jnsgd1na2vs0mg"},