{"last_updated":1751904818,"ttl":60,"version":"2.2","data":{"bikes":[{"bike_id":"3da29fb8-fc97-44c6-b9ac-31dd456b2fd4","system_id":"levelo_inurba_marseille","lat":43.33771,"lon":5.37424,"is_reserved":false,"is_disabled":true,"rental_uris":{"android":"levelo://app?vid=3da29fb8-fc97-44c6-b9ac-31dd456b2fd4","ios":"levelo://app?vid=3da29fb8-fc97-44c6-b9ac-31dd456b2fd4"},"vehicle_type_id":"4","last_reported":1751904818,"current_range_meters":0,"station_id":"","pricing_plan_id":"cebpf4jnsgd1na2vs0mg"},{"bike_id":"01861ad8-a8d7-4be6-816e-651927c87584","system_id":"levelo_inurba_marseille","lat":43.33751,"lon":5.37456,"is_reserved":false,"is_disabled":true,"rental_uris":{"android":"levelo://app?vid=01861ad8-a8d7-4be6-816e-651927c87584","ios":"levelo://app?vid=01861ad8-a8d7-4be6-816e-651927c87584"},"vehicle_type_id":"4","last_reported":1751904818,"current_range_meters":0,"station_id":"","pricing_plan_id":"cebpf4jnsgd1na2vs0mg"},{"bike_id":"95c194a9-5cae-4867-bc56-f8781828dc70","system_id":"levelo_inurba_marseille","lat":43.337444,"lon":5.374475,"is_reserved":false,"is_disabled":true,"rental_uris":{"android":"levelo://app?vid=95c194a9-5cae-4867-bc56-f8781828dc70","ios":"levelo://app?vid=95c194a9-5cae-4867-bc56-f8781828dc70"},"vehicle_type_id":"4","last_reported":1751904818,"current_range_meters":0,"station_id":"","pricing_plan_id":"cebpf4jnsgd1na2vs0mg"},{"bike_id":"429755f4-6cf1-492c-a57b-e839f31f82b2","system_id":"levelo_inurba_marseille","lat":43.309395,"lon":5.4015,"is_reserved":false,"is_disabled":true,"rental_uris":{"android":"levelo://app?vid=429755f4-6cf1-492c-a57b-e839f31f82b2","ios":"levelo://app?vid=429755f4-6cf1-492c-a57b-e839f31f82b2"},"vehicle_type_id":"4","last_reported":1751904818,"current_range_meters":0,"station_id":"ce4bgvp2rcd13ifvqct0","pricing_plan_id":"cebpf4jnsgd1na2vs0mg"},{"bike_id":"fc11f1e3-fd7d-492a-8c42-2fb8faf16c6a","system_id":"levelo_inurba_marseille","lat":43.303718,"lon":5.424932,"is_reserved":false,"is_disabled":true,"rental_uris":{"android":"levelo://app?vid=fc11f1e3-fd7d-492a-8c42-2fb8faf16c6a","ios":"levelo://app?vid=fc11f1e3-fd7d-492a-8c42-2fb8faf16c6a"},"vehicle_type_id":"4","last_reported":1751904818,"current_range_meters":0,"station_id":"ce4bhoh2rcd13ifvqh6g","pricing_plan_id":"cebpf4jnsgd1na2vs0mg"},{"bike_id":"d5f9af9f-92b3-4be1-a54e-5adeeeace6f8","system_id":"levelo_inurba_marseille","lat":43.23189,"lon":5.35559,"is_reserved":false,"is_disabled":true,"rental_uris":{"android":"levelo://app?vid=d5f9af9f-92b3-4be1-a54e-5adeeeace6f8","ios":"levelo://app?vid=d5f9af9f-92b3-4be1-a54e-5adeeeace6f8"},"vehicle_type_id":"4","last_reported":1751904818,"current_range_meters":0,"station_id":"ce4bhu92rcd13ifvqi70","pricing_plan_id":"cebpf4jnsgd1na2vs0mg"},{"bike_id":"3d508917-55ee-42b6-894b-89c2a444dc06","system_id":"levelo_inurba_marseille","lat":43.22521,"lon":5.34756,"is_reserved":false,"is_disabled":true,"rental_uris":{"android":"levelo://app?vid=3d508917-55ee-42b6-894b-89c2a444dc06","ios":"levelo://app?vid=3d508917-55ee-42b6-894b-89c2a444dc06"},"vehicle_type_id":"4","last_reported":1751904818,"current_range_meters":0,"station_id":"st_cvj5dfep6f1abm77gieg","pricing_plan_id":"cebpf4jnsgd1na2vs0mg"},{"bike_id":"e86ba8c9-208d-482c-a826-4c100938472a","system_id":"levelo_inurba_marseille","lat":43.21196,"lon":5.35064,"is_reserved":false,"is_disabled":true,"rental_uris":{"android":"levelo://app?vid=e86ba8c9-208d-482c-a826-4c100938472a","ios":"levelo://app?vid=e86ba8c9-208d-482c-a826-4c100938472a"},"vehicle_type_id":"4","last_reported":1751904818,"current_range_meters":0,"station_id":"st_cvj6sg6p6f1abm77japg","pricing_plan_id":"cebpf4jnsgd1na2vs0mg"},{"bike_id":"8c711134-272b-4ddc-976c-a6ab9ec4f840","system_id":"levelo_inurba_marseille","lat":43.28937,"lon":5.36638,"is_reserved":false,"is_disabled":true,"rental_uris":{"android":"levelo://app?vid=8c711134-272b-4ddc-976c-a6ab9ec4f840","ios":"levelo://app?vid=8c711134-272b-4ddc-976c-a6ab9ec4f840"},"vehicle_type_id":"4","last_reported":1751904818,"current_range_meters":400,"station_id":"ce4bhap2rcd13ifvqek0","pricing_plan_id":"cebpf4jnsgd1na2vs0mg"},{"bike_id":"c38e3b7d-1b89-4353-9fb1-dbc86dd5bc1a","system_id":"levelo_inurba_marseille","lat":43.29013,"lon":5.35611,"is_reserved":false,"is_disabled":true,"rental_uris":{"android":"levelo://app?vid=c38e3b7d-1b89-4353-9fb1-dbc86dd5bc1a","ios":"levelo://app?vid=c38e3b7d-1b89-4353-9fb1-dbc86dd5bc1a"},"vehicle_type_id":"4","last_reported":1751904818,"current_range_meters":400,"station_id":"ce4bhb92rcd13ifvqen0","pricing_plan_id":"cebpf4jnsgd1na2vs0mg"},{"bike_id":"320f2087-8a64-4584-b864-57ce7fa18178","system_id":"levelo_inurba_marseille","lat":43.28268,"lon":5.35058,"is_reserved":false,"is_disabled":true,"rental_uris":{"android":"levelo://app?vid=320f2087-8a64-4584-b864-57ce7fa18178","ios":"levelo://app?vid=320f2087-8a64-4584-b864-57ce7fa18178"},"vehicle_type_id":"4","last_reported":1751904818,"current_range_meters":400,"station_id":"ce4bhbp2rcd13ifvqerg","pricing_plan_id":"cebpf4jnsgd1na2vs0mg"},{"bike_id":"f0a19a9e-f150-4c1e-bcc6-db3195370cac","system_id":"levelo_inurba_marseille","lat":43.327,"lon":5.43122,"is_reserved":false,"is_disabled":true,"rental_uris":{"android":"levelo://app?vid=f0a19a9e-f150-4c1e-bcc6-db3195370cac","ios":"levelo://app?vid=f0a19a9e-f150-4c1e-bcc6-db3195370cac"},"vehicle_type_id":"4","last_reported":1751904818,"current_range_meters":800,"station_id":"","pricing_plan_id":"cebpf4jnsgd1na2vs0mg"},{"bike_id":"b068fda7-d382-4ca6-a992-b6638a944dd8","system_id":"levelo_inurba_marseille","lat":43.2884,"lon":5.3932,"is_reserved":false,"is_disabled":true,"rental_uris":{"android":"levelo://app?vid=b068fda7-d382-4ca6-a992-b6638a944dd8","ios":"levelo://app?vid=b068fda7-d382-4ca6-a992-b6638a944dd8"},"vehicle_type_id":"4","last_reported":1751904818,"current_range_meters":800,"station_id":"ce4bh2p2rcd13ifvqdi0","pricing_plan_id":"cebpf4jnsgd1na2vs0mg"},{"bike_id":"4ab1bb59-55d5-45a8-8f25-11fadd572b33","system_id":"levelo_inurba_marseille","lat":43.27511,"lon":5.4245,"is_reserved":false,"is_disabled":true,"rental_uris":{"android":"levelo://app?vid=4ab1bb59-55d5-45a8-8f25-11fadd572b33","ios":"levelo://app?vid=4ab1bb59-55d5-45a8-8f25-11fadd572b33"},"vehicle_type_id":"4","last_reported":1751904818,"current_range_meters":800,"station_id":"ce4bhn92rcd13ifvqgrg","pricing_plan_id":"cebpf4jnsgd1na2vs0mg"},{"bike_id":"3b03a310-d859-4f9d-a215-abd626b2c8a2","system_id":"levelo_inurba_marseille","lat":43.34141,"lon":5.40902,"is_reserved":false,"is_disabled":true,"rental_uris":{"android":"levelo://app?vid=3b03a310-d859-4f9d-a215-abd626b2c8a2","ios":"levelo://app?vid=3b03a310-d859-4f9d-a215-abd626b2c8a2"},"vehicle_type_id":"4","last_reported":1751904818,"current_range_meters":800,"station_id":"ce4bhqh2rcd13ifvqhlg","pricing_plan_id":"cebpf4jnsgd1na2vs0mg"},{"bike_id":"66cb33e9-42b8-41f1-bb97-f70088873cd1","system_id":"levelo_inurba_marseille","lat":43.29718,"lon":5.36613,"is_reserved":false,"is_disabled":true,"rental_uris":{"android":"levelo://app?vid=66cb33e9-42b8-41f1-bb97-f70088873cd1","ios":"levelo://app?vid=66cb33e9-42b8-41f1-bb97-f70088873cd1"},"vehicle_type_id":"4","last_reported":1751904818,"current_range_meters":1200,"station_id":"ce4bgn12rcd13ifvqbt0","pricing_plan_id":"cebpf4jnsgd1na2vs0mg"},{"bike_id":"b3865439-9bd5-42a9-ae53-d4b85356e632","system_id":"levelo_inurba_marseille","lat":43.28729,"lon":5.37937,"is_reserved":false,"is_disabled":true,"rental_uris":{"android":"levelo://app?vid=b3865439-9bd5-42a9-ae53-d4b85356e632","ios":"levelo://app?vid=b3865439-9bd5-42a9-ae53-d4b85356e632"},"vehicle_type_id":"4","last_reported":1751904818,"current_range_meters":1200,"station_id":"ce4bh9p2rcd13ifvqec0","pricing_plan_id":"cebpf4jnsgd1na2vs0mg"},{"bike_id":"81088101-d12c-45d9-810b-8ce54db23213","system_id":"levelo_inurba_marseille","lat":43.29296,"lon":5.37452,"is_reserved":false,"is_disabled":true,"rental_uris":{"android":"levelo://app?vid=81088101-d12c-45d9-810b-8ce54db23213","ios":"levelo://app?vid=81088101-d12c-45d9-810b-8ce54db23213"},"vehicle_type_id":"4","last_reported":1751904818,"current_range_meters":1600,"station_id":"ce4bgi12rcd13ifvqb70","pricing_plan_id":"cebpf4jnsgd1na2vs0mg"},{"bike_id":"e8a478d5-226c-40f0-b0d0-55d59b2616f9","system_id":"levelo_inurba_marseille","lat":43.298798,"lon":5.389065,"is_reserved":false,"is_disabled":true,"rental_uris":{"android":"levelo://app?vid=e8a478d5-226c-40f0-b0d0-55d59b2616f9","ios":"levelo://app?vid=e8a478d5-226c-40f0-b0d0-55d59b2616f9"},"vehicle_type_id":"4","last_reported":1751904818,"current_range_meters":2000,"station_id":"","pricing_plan_id":"cebpf4jnsgd1na2vs0mg"},{"bike_id":"fc455885-5148-44f8-ac03-9e7ec3006e0f","system_id":"levelo_inurba_marseille","lat":43.30355,"lon":5.4188,"is_reserved":false,"is_disabled":true,"rental_uris":{"android":"levelo://app?vid=fc455885-5148-44f8-ac03-9e7ec3006e0f","ios":"levelo://app?vid=fc455885-5148-44f8-ac03-9e7ec3006e0f"},"vehicle_type_id":"4","last_reported":1751904818,"current_range_meters":2000,"station_id":"ce4bhop2rcd13ifvqh7g","pricing_plan_id":"cebpf4jnsgd1na2vs0mg"},{"bike_id":"c32a44ab-b078-4729-9be5-e0735978229d","system_id":"levelo_inurba_marseille","lat":43.21217,"lon":5.350547,"is_reserved":false,"is_disabled":true,"rental_uris":{"android":"levelo://app?vid=c32a44ab-b078-4729-9be5-e0735978229d","ios":"levelo://app?vid=c32a44ab-b078-4729-9be5-e0735978229d"},"vehicle_type_id":"4","last_reported":1751904818,"current_range_meters":2000,"station_id":"st_cvj6sg6p6f1abm77japg","pricing_plan_id":"cebpf4jnsgd1na2vs0mg"},{"bike_id":"68a1126d-7649-41cb-93ac-cd17a454d5cc","system_id":"levelo_inurba_marseille","lat":43.26195,"lon":5.37446,"is_reserved":false,"is_disabled":false,"rental_uris":{"android":"levelo://app?vid=68a1126d-7649-41cb-93ac-cd17a454d5cc","ios":"levelo://app?vid=68a1126d-7649-41cb-93ac-cd17a454d5cc"},"vehicle_type_id":"4","last_reported":1751904818,"current_range_meters":2800,"station_id":"ce4bhgp2rcd13ifvqfc0","pricing_plan_id":"cebpf4jnsgd1na2vs0mg"},{"bike_id":"5a90de0a-54c5-4fa2-8cde-411ab439f9c0","system_id":"levelo_inurba_marseille","lat":43.28413,"lon":5.34977,"is_reserved":false,"is_disabled":false,"rental_uris":{"android":"levelo://app?vid=5a90de0a-54c5-4fa2-8cde-411ab439f9c0","ios":"levelo://app?vid=5a90de0a-54c5-4fa2-8cde-411ab439f9c0"},"vehicle_type_id":"4","last_reported":1751904818,"current_range_meters":3200,"station_id":"ce4bhbh2rcd13ifvqepg","pricing_plan_id":"cebpf4jnsgd1na2vs0mg"},{"bike_id":"c1db412d-0291-4313-8844-246a008dd3b8","system_id":"levelo_inurba_marseille","lat":43.28618,"lon":5.35107,"is_reserved":false,"is_disabled":false,"rental_uris":{"android":"levelo://app?vid=c1db412d-0291-4313-8844-246a008dd3b8","ios":"levelo://app?vid=c1db412d-0291-4313-8844-246a008dd3b8"},"vehicle_type_id":"4","last_reported":1751904818,"current_range_meters":3200,"station_id":"ce4bhch2rcd13ifvqeug","pricing_plan_id":"cebpf4jnsgd1na2vs0mg"},{"bike_id":"e3b26e6a-c361-4c93-9a35-7aa7007a7e42","system_id":"levelo_inurba_marseille","lat":43.28153,"lon":5.42638,"is_reserved":false,"is_disabled":false,"rental_uris":{"android":"levelo://app?vid=e3b26e6a-c361-4c93-9a35-7aa7007a7e42","ios":"levelo://app?vid=e3b26e6a-c361-4c93-9a35-7aa7007a7e42"},"vehicle_type_id":"4","last_reported":1751904818,"current_range_meters":3600,"station_id":"ce4bhnh2rcd13ifvqgug","pricing_plan_id":"cebpf4jnsgd1na2vs0mg"},{"bike_id":"78b348f2-11f4-4543-861c-473a035e6c89","system_id":"levelo_inurba_marseille","lat":43.30935,"lon":5.40145,"is_reserved":false,"is_disabled":false,"rental_uris":{"android":"levelo://app?vid=78b348f2-11f4-4543-861c-473a035e6c89","ios":"levelo://app?vid=78b348f2-11f4-4543-861c-473a035e6c89"},"vehicle_type_id":"4","last_reported":1751904818,"current_range_meters":4000,"station_id":"ce4bgvp2rcd13ifvqct0","pricing_plan_id":"cebpf4jnsgd1na2vs0mg"},{"bike_id":"e541fb0c-5ff2-4b05-9dde-87f37285a893","system_id":"levelo_inurba_marseille","lat":43.27968,"lon":5.38741,"is_reserved":false,"is_disabled":false,"rental_uris":{"android":"levelo://app?vid=e541fb0c-5ff2-4b05-9dde-87f37285a893","ios":"levelo://app?vid=e541fb0c-5ff2-4b05-9dde-87f37285a893"},"vehicle_type_id":"4","last_reported":1751904818,"current_range_meters":4000,"station_id":"ce4bhg12rcd13ifvqf80","pricing_plan_id":"cebpf4jnsgd1na2vs0mg"},{"bike_id":"398a5f18-9cc2-4fbc-a3a2-c8c525137b21","system_id":"levelo_inurba_marseille","lat":43.26193,"lon":5.37448,"is_reserved":false,"is_disabled":false,"rental_uris":{"android":"levelo://app?vid=398a5f18-9cc2-4fbc-a3a2-c8c525137b21","ios":"levelo://app?vid=398a5f18-9cc2-4fbc-a3a2-c8c525137b21"},"vehicle_type_id":"4","last_reported":1751904818,"current_range_meters":4400,"station_id":"ce4bhgp2rcd13ifvqfc0","pricing_plan_id":"cebpf4jnsgd1na2vs0mg"},{"bike_id":"86c92dc1-b4da-49d9-acb8-ba390f939865","system_id":"levelo_inurba_marseille","lat":43.33083,"lon":5.39229,"is_reserved":false,"is_disabled":false,"rental_uris":{"android":"levelo://app?vid=86c92dc1-b4da-49d9-acb8-ba390f939865","ios":"levelo://app?vid=86c92dc1-b4da-49d9-acb8-ba390f939865"},"vehicle_type_id":"4","last_reported":1751904818,"current_range_meters":4800,"station_id":"","pricing_plan_id":"cebpf4jnsgd1na2vs0mg"},{"bike_id":"e6e47fcf-de78-4337-963a-66769d7fc84b","system_id":"levelo_inurba_marseille","lat":43.30895,"lon":5.37181,"is_reserved":false,"is_disabled":false,"rental_uris":{"android":"levelo://app?vid=e6e47fcf-de78-4337-963a-66769d7fc84b","ios":"levelo://app?vid=e6e47fcf-de78-4337-963a-66769d7fc84b"},"vehicle_type_id":"4","last_reported":1751904818,"current_range_meters":5600,"station_id":"ce4bguh2rcd13ifvqckg","pricing_plan_id":"cebpf4jnsgd1na2vs0mg"},{"bike_id":"3cb3c224-2f0d-46bd-938e-564e1c4f48ff","system_id":"levelo_inurba_marseille","lat":43.30929,"lon":5.40139,"is_reserved":false,"is_disabled":false,"rental_uris":{"android":"levelo://app?vid=3cb3c224-2f0d-46bd-938e-564e1c4f48ff","ios":"levelo://app?vid=3cb3c224-2f0d-46bd-938e-564e1c4f48ff"},"vehicle_type_id":"4","last_reported":1751904818,"current_range_meters":5600,"station_id":"ce4bgvp2rcd13ifvqct0","pricing_plan_id":"cebpf4jnsgd1na2vs0mg"},{"bike_id":"e1121679-6e2a-49ee-80a9-b635a255b18f","system_id":"levelo_inurba_marseille","lat":43.33608,"lon":5.41034,"is_reserved":false,"is_disabled":false,"rental_uris":{"android":"levelo://app?vid=e1121679-6e2a-49ee-80a9-b635a255b18f","ios":"levelo://app?vid=e1121679-6e2a-49ee-80a9-b635a255b18f"},"vehicle_type_id":"4","last_reported":1751904818,"current_range_meters":5600,"station_id":"ce4bhqh2rcd13ifvqhmg","pricing_plan_id":"cebpf4jnsgd1na2vs0mg"},{"bike_id":"77ceeb0a-5dd8-45de-93d3-1027cd3c0bac","system_id":"levelo_inurba_marseille","lat":43.28238,"lon":5.35086,"is_reserved":false,"is_disabled":false,"rental_uris":{"android":"levelo://app?vid=77ceeb0a-5dd8-45de-93d3-1027cd3c0bac","ios":"levelo://app?vid=77ceeb0a-5dd8-45de-93d3-1027cd3c0bac"},"vehicle_type_id":"4","last_reported":1751904818,"current_range_meters":6000,"station_id":"ce4bhbp2rcd13ifvqerg","pricing_plan_id":"cebpf4jnsgd1na2vs0mg"},{"bike_id":"ed290504-6948-4f69-8584-2e2b0286febf","system_id":"levelo_inurba_marseille","lat":43.2122,"lon":5.3515,"is_reserved":false,"is_disabled":false,"rental_uris":{"android":"levelo://app?vid=ed290504-6948-4f69-8584-2e2b0286febf","ios":"levelo://app?vid=ed290504-6948-4f69-8584-2e2b0286febf"},"vehicle_type_id":"4","last_reported":1751904818,"current_range_meters":6400,"station_id":"","pricing_plan_id":"cebpf4jnsgd1na2vs0mg"},{"bike_id":"de5c1bb2-488d-4dc9-9962-d457e339e29a","system_id":"levelo_inurba_marseille","lat":43.28524,"lon":5.36015,"is_reserved":false,"is_disabled":false,"rental_uris":{"android":"levelo://app?vid=de5c1bb2-488d-4dc9-9962-d457e339e29a","ios":"levelo://app?vid=de5c1bb2-488d-4dc9-9962-d457e339e29a"},"vehicle_type_id":"4","last_reported":1751904818,"current_range_meters":6400,"station_id":"ce4bhah2rcd13ifvqei0","pricing_plan_id":"cebpf4jnsgd1na2vs0mg"},{"bike_id":"45ee75d9-c8de-48d8-ae8d-7681d4da61f3","system_id":"levelo_inurba_marseille","lat":43.29519,"lon":5.3904,"is_reserved":false,"is_disabled":false,"rental_uris":{"android":"levelo://app?vid=45ee75d9-c8de-48d8-ae8d-7681d4da61f3","ios":"levelo://app?vid=45ee75d9-c8de-48d8-ae8d-7681d4da61f3"},"vehicle_type_id":"4","last_reported":1751904818,"current_range_meters":6800,"station_id":"ce4bh3p2rcd13ifvqdp0","pricing_plan_id":"cebpf4jnsgd1na2vs0mg"},{"bike_id":"033f511b-9764-4c6e-b188-851e05f46824","system_id":"levelo_inurba_marseille","lat":43.28441,"lon":5.39181,"is_reserved":false,"is_disabled":false,"rental_uris":{"android":"levelo://app?vid=033f511b-9764-4c6e-b188-851e05f46824","ios":"levelo://app?vid=033f511b-9764-4c6e-b188-851e05f46824"},"vehicle_type_id":"4","last_reported":1751904818,"current_range_meters":6800,"station_id":"ce4bhoh2rcd13ifvqh5g","pricing_plan_id":"cebpf4jnsgd1na2vs0mg"},{"bike_id":"627b2b06-da8a-466f-9608-3cef29636059","system_id":"levelo_inurba_marseille","lat":43.21747,"lon":5.34605,"is_reserved":false,"is_disabled":false,"rental_uris":{"android":"levelo://app?vid=627b2b06-da8a-466f-9608-3cef29636059","ios":"levelo://app?vid=627b2b06-da8a-466f-9608-3cef29636059"},"vehicle_type_id":"4","last_reported":1751904818,"current_range_meters":7200,"station_id":"st_cvj6r9ubvosntc0bgbag","pricing_plan_id":"cebpf4jnsgd1na2vs0mg"},{"bike_id":"fe44924c-dcf0-4048-a1ad-9e680cc9c00c","system_id":"levelo_inurba_marseille","lat":43.260197,"lon":5.417438,"is_reserved":false,"is_disabled":false,"rental_uris":{"android":"levelo://app?vid=fe44924c-dcf0-4048-a1ad-9e680cc9c00c","ios":"levelo://app?vid=fe44924c-dcf0-4048-a1ad-9e680cc9c00c"},"vehicle_type_id":"4","last_reported":1751904818,"current_range_meters":8400,"station_id":"","pricing_plan_id":"cebpf4jnsgd1na2vs0mg"},{"bike_id":"e4883fe1-a80d-465f-a593-af04432fd90c","system_id":"levelo_inurba_marseille","lat":43.29632,"lon":5.40594,"is_reserved":false,"is_disabled":false,"rental_uris":{"android":"levelo://app?vid=e4883fe1-a80d-465f-a593-af04432fd90c","ios":"levelo://app?vid=e4883fe1-a80d-465f-a593-af04432fd90c"},"vehicle_type_id":"4","last_reported":1751904818,"current_range_meters":8400,"station_id":"ce4bh0h2rcd13ifvqd60","pricing_plan_id":"cebpf4jnsgd1na2vs0mg"},{"bike_id":"6d33db41-5e1f-4420-ab6a-0786d24f8ba9","system_id":"levelo_inurba_marseille","lat":43.290081,"lon":5.356133,"is_reserved":false,"is_disabled":false,"rental_uris":{"android":"levelo://app?vid=6d33db41-5e1f-4420-ab6a-0786d24f8ba9","ios":"levelo://app?vid=6d33db41-5e1f-4420-ab6a-0786d24f8ba9"},"vehicle_type_id":"4","last_reported":1751904818,"current_range_meters":8400,"station_id":"ce4bhb92rcd13ifvqen0","pricing_plan_id":"cebpf4jnsgd1na2vs0mg"},{"bike_id":"01ab6706-a8a0-40de-b4eb-78b183284f3a","system_id":"levelo_inurba_marseille","lat":43.294196,"lon":5.386107,"is_reserved":false,"is_disabled":false,"rental_uris":{"android":"levelo://app?vid=01ab6706-a8a0-40de-b4eb-78b183284f3a","ios":"levelo://app?vid=01ab6706-a8a0-40de-b4eb-78b183284f3a"},"vehicle_type_id":"4","last_reported":1751904818,"current_range_meters":8400,"station_id":"ce4bhbh2rcd13ifvqeqg","pricing_plan_id":"cebpf4jnsgd1na2vs0mg"},{"bike_id":"d6c5e041-56d5-44d3-8767-93bb0abd1776","system_id":"levelo_inurba_marseille","lat":43.21745,"lon":5.34591,"is_reserved":false,"is_disabled":false,"rental_uris":{"android":"levelo://app?vid=d6c5e041-56d5-44d3-8767-93bb0abd1776","ios":"levelo://app?vid=d6c5e041-56d5-44d3-8767-93bb0abd1776"},"vehicle_type_id":"4","last_reported":1751904818,"current_range_meters":8400,"station_id":"st_cvj6r9ubvosntc0bgbag","pricing_plan_id":"cebpf4jnsgd1na2vs0mg"},{"bike_id":"653697c4-c439-4a6d-869a-0ee928b604f9","system_id":"levelo_inurba_marseille","lat":43.260334,"lon":5.417599,"is_reserved":false,"is_disabled":false,"rental_uris":{"android":"levelo://app?vid=653697c4-c439-4a6d-869a-0ee928b604f9","ios":"levelo://app?vid=653697c4-c439-4a6d-869a-0ee928b604f9"},"vehicle_type_id":"4","last_reported":1751904818,"current_range_meters":9200,"station_id":"","pricing_plan_id":"cebpf4jnsgd1na2vs0mg"},{"bike_id":"5b93aa69-8335-4999-bb36-14034aa1a628","system_id":"levelo_inurba_marseille","lat":43.29356,"lon":5.37844,"is_reserved":false,"is_disabled":false,"rental_uris":{"android":"levelo://app?vid=5b93aa69-8335-4999-bb36-14034aa1a628","ios":"levelo://app?vid=5b93aa69-8335-4999-bb36-14034aa1a628"},"vehicle_type_id":"4","last_reported":1751904818,"current_range_meters":9200,"station_id":"ce4bgjh2rcd13ifvqbf0","pricing_plan_id":"cebpf4jnsgd1na2vs0mg"},{"bike_id":"73eab00a-c8d1-43b0-b3d6-3ffdd4d18a5c","system_id":"levelo_inurba_marseille","lat":43.26821,"lon":5.4112,"is_reserved":false,"is_disabled":false,"rental_uris":{"android":"levelo://app?vid=73eab00a-c8d1-43b0-b3d6-3ffdd4d18a5c","ios":"levelo://app?vid=73eab00a-c8d1-43b0-b3d6-3ffdd4d18a5c"},"vehicle_type_id":"4","last_reported":1751904818,"current_range_meters":9600,"station_id":"","pricing_plan_id":"cebpf4jnsgd1na2vs0mg"},{"bike_id":"94add758-2002-4c40-881c-d3fe45161db7","system_id":"levelo_inurba_marseille","lat":43.30522,"lon":5.3654,"is_reserved":false,"is_disabled":false,"rental_uris":{"android":"levelo://app?vid=94add758-2002-4c40-881c-d3fe45161db7","ios":"levelo://app?vid=94add758-2002-4c40-881c-d3fe45161db7"},"vehicle_type_id":"4","last_reported":1751904818,"current_range_meters":9600,"station_id":"ce4bgs12rcd13ifvqcag","pricing_plan_id":"cebpf4jnsgd1na2vs0mg"},{"bike_id":"c943ea79-e742-4684-bbbb-729c41b087de","system_id":"levelo_inurba_marseille","lat":43.30358,"lon":5.41872,"is_reserved":false,"is_disabled":false,"rental_uris":{"android":"levelo://app?vid=c943ea79-e742-4684-bbbb-729c41b087de","ios":"levelo://app?vid=c943ea79-e742-4684-bbbb-729c41b087de"},"vehicle_type_id":"4","last_reported":1751904818,"current_range_meters":9600,"station_id":"ce4bhop2rcd13ifvqh7g","pricing_plan_id":"cebpf4jnsgd1na2vs0mg"},{"bike_id":"f49dc601-5a7b-4ab9-a1c5-37487fd595e3","system_id":"levelo_inurba_marseille","lat":43.3188,"lon":5.40747,"is_reserved":false,"is_disabled":false,"rental_uris":{"android":"levelo://app?vid=f49dc601-5a7b-4ab9-a1c5-37487fd595e3","ios":"levelo://app?vid=f49dc601-5a7b-4ab9-a1c5-37487fd595e3"},"vehicle_type_id":"4","last_reported":1751904818,"current_range_meters":9600,"station_id":"ce4bhq12rcd13ifvqhig","pricing_plan_id":"cebpf4jnsgd1na2vs0mg"},{"bike_id":"d645d5d1-9c5a-4ece-819f-8a39c31ebae3","system_id":"levelo_inurba_marseille","lat":43.31881,"lon":5.40738,"is_reserved":false,"is_disabled":false,"rental_uris":{"android":"levelo://app?vid=d645d5d1-9c5a-4ece-819f-8a39c31ebae3","ios":"levelo://app?vid=d645d5d1-9c5a-4ece-819f-8a39c31ebae3"},"vehicle_type_id":"4","last_reported":1751904818,"current_range_meters":9600,"station_id":"ce4bhq12rcd13ifvqhig","pricing_plan_id":"cebpf4jnsgd1na2vs0mg"},{"bike_id":"7b527f00-f6ea-4963-b59d-8da04a2feedb","system_id":"levelo_inurba_marseille","lat":43.320839,"lon":5.401213,"is_reserved":false,"is_disabled":false,"rental_uris":{"android":"levelo://app?vid=7b527f00-f6ea-4963-b59d-8da04a2feedb","ios":"levelo://app?vid=7b527f00-f6ea-4963-b59d-8da04a2feedb"},"vehicle_type_id":"4","last_reported":1751904818,"current_range_meters":10000,"station_id":"","pricing_plan_id":"cebpf4jnsgd1na2vs0mg"},{"bike_id":"88ea42cb-cf0f-4e4a-8442-732645bc4ba5","system_id":"levelo_inurba_marseille","lat":43.310748,"lon":5.367229,"is_reserved":false,"is_disabled":false,"rental_uris":{"android":"levelo://app?vid=88ea42cb-cf0f-4e4a-8442-732645bc4ba5","ios":"levelo://app?vid=88ea42cb-cf0f-4e4a-8442-732645bc4ba5"},"vehicle_type_id":"4","last_reported":1751904818,"current_range_meters":10000,"station_id":"","pricing_plan_id":"cebpf4jnsgd1na2vs0mg"},{"bike_id":"896fdd25-43cf-45f6-a1ab-b13292cfeae9","system_id":"levelo_inurba_marseille","lat":43.27423,"lon":5.39417,"is_reserved":false,"is_disabled":false,"rental_uris":{"android":"levelo://app?vid=896fdd25-43cf-45f6-a1ab-b13292cfeae9","ios":"levelo://app?vid=896fdd25-43cf-45f6-a1ab-b13292cfeae9"},"vehicle_type_id":"4","last_reported":1751904818,"current_range_meters":10000,"station_id":"ce4bhdp2rcd13ifvqf20","pricing_plan_id":"cebpf4jnsgd1na2vs0mg"},{"bike_id":"80955d0f-8669-4c02-b90f-c6fe20790c37","system_id":"levelo_inurba_marseille","lat":43.23205,"lon":5.35051,"is_reserved":false,"is_disabled":false,"rental_uris":{"android":"levelo://app?vid=80955d0f-8669-4c02-b90f-c6fe20790c37","ios":"levelo://app?vid=80955d0f-8669-4c02-b90f-c6fe20790c37"},"vehicle_type_id":"4","last_reported":1751904818,"current_range_meters":10800,"station_id":"","pricing_plan_id":"cebpf4jnsgd1na2vs0mg"},{"bike_id":"aa85b73a-c5a5-4ae2-923a-448b2a160940","system_id":"levelo_inurba_marseille","lat":43.29791,"lon":5.3709,"is_reserved":false,"is_disabled":false,"rental_uris":{"android":"levelo://app?vid=aa85b73a-c5a5-4ae2-923a-448b2a160940","ios":"levelo://app?vid=aa85b73a-c5a5-4ae2-923a-448b2a160940"},"vehicle_type_id":"4","last_reported":1751904818,"current_range_meters":10800,"station_id":"ce4bgop2rcd13ifvqc1g","pricing_plan_id":"cebpf4jnsgd1na2vs0mg"},{"bike_id":"ffbd99c2-b057-4f2c-8d43-6b781c56aeb1","system_id":"levelo_inurba_marseille","lat":43.28424,"lon":5.34974,"is_reserved":false,"is_disabled":false,"rental_uris":{"android":"levelo://app?vid=ffbd99c2-b057-4f2c-8d43-6b781c56aeb1","ios":"levelo://app?vid=ffbd99c2-b057-4f2c-8d43-6b781c56aeb1"},"vehicle_type_id":"4","last_reported":1751904818,"current_range_meters":10800,"station_id":"ce4bhbh2rcd13ifvqepg","pricing_plan_id":"cebpf4jnsgd1na2vs0mg"},{"bike_id":"3b22f952-d0bc-4c00-8fd3-7e27b88aea23","system_id":"levelo_inurba_marseille","lat":43.29659,"lon":5.36245,"is_reserved":false,"is_disabled":false,"rental_uris":{"android":"levelo://app?vid=3b22f952-d0bc-4c00-8fd3-7e27b88aea23","ios":"levelo://app?vid=3b22f952-d0bc-4c00-8fd3-7e27b88aea23"},"vehicle_type_id":"4","last_reported":1751904818,"current_range_meters":11200,"station_id":"","pricing_plan_id":"cebpf4jnsgd1na2vs0mg"},{"bike_id":"f853937d-5cf0-4b15-b7c8-f6d7502b5f81","system_id":"levelo_inurba_marseille","lat":43.29843,"lon":5.36272,"is_reserved":false,"is_disabled":false,"rental_uris":{"android":"levelo://app?vid=f853937d-5cf0-4b15-b7c8-f6d7502b5f81","ios":"levelo://app?vid=f853937d-5cf0-4b15-b7c8-f6d7502b5f81"},"vehicle_type_id":"4","last_reported":1751904818,"current_range_meters":11200,"station_id":"ce4bgpp2rcd13ifvqc3g","pricing_plan_id":"cebpf4jnsgd1na2vs0mg"},{"bike_id":"9e9e0b5e-0d45-400f-b781-430fdc4129c5","system_id":"levelo_inurba_marseille","lat":43.30524,"lon":5.36698,"is_reserved":false,"is_disabled":false,"rental_uris":{"android":"levelo://app?vid=9e9e0b5e-0d45-400f-b781-430fdc4129c5","ios":"levelo://app?vid=9e9e0b5e-0d45-400f-b781-430fdc4129c5"},"vehicle_type_id":"4","last_reported":1751904818,"current_range_meters":11200,"station_id":"ce4bgrp2rcd13ifvqc9g","pricing_plan_id":"cebpf4jnsgd1na2vs0mg"},{"bike_id":"3234a0d4-fe08-481f-ab57-e0b3b726ab84","system_id":"levelo_inurba_marseille","lat":43.29883,"lon":5.3891,"is_reserved":false,"is_disabled":false,"rental_uris":{"android":"levelo://app?vid=3234a0d4-fe08-481f-ab57-e0b3b726ab84","ios":"levelo://app?vid=3234a0d4-fe08-481f-ab57-e0b3b726ab84"},"vehicle_type_id":"4","last_reported":1751904818,"current_range_meters":11200,"station_id":"ce4bh392rcd13ifvqdl0","pricing_plan_id":"cebpf4jnsgd1na2vs0mg"},{"bike_id":"d7c98398-5a53-4716-8cab-100afa19c41b","system_id":"levelo_inurba_marseille","lat":43.27499,"lon":5.4245,"is_reserved":false,"is_disabled":false,"rental_uris":{"android":"levelo://app?vid=d7c98398-5a53-4716-8cab-100afa19c41b","ios":"levelo://app?vid=d7c98398-5a53-4716-8cab-100afa19c41b"},"vehicle_type_id":"4","last_reported":1751904818,"current_range_meters":11200,"station_id":"ce4bhn92rcd13ifvqgrg","pricing_plan_id":"cebpf4jnsgd1na2vs0mg"},{"bike_id":"87390c0a-b8a4-4c72-8833-6a2e3cb0f6fb","system_id":"levelo_inurba_marseille","lat":43.28036,"lon":5.36957,"is_reserved":false,"is_disabled":false,"rental_uris":{"android":"levelo://app?vid=87390c0a-b8a4-4c72-8833-6a2e3cb0f6fb","ios":"levelo://app?vid=87390c0a-b8a4-4c72-8833-6a2e3cb0f6fb"},"vehicle_type_id":"4","last_reported":1751904818,"current_range_meters":11600,"station_id":"ce4bha12rcd13ifvqef0","pricing_plan_id":"cebpf4jnsgd1na2vs0mg"},{"bike_id":"b7d07193-0d6c-429d-b7c7-aeb93ee227f7","system_id":"levelo_inurba_marseille","lat":43.28273,"lon":5.35059,"is_reserved":false,"is_disabled":false,"rental_uris":{"android":"levelo://app?vid=b7d07193-0d6c-429d-b7c7-aeb93ee227f7","ios":"levelo://app?vid=b7d07193-0d6c-429d-b7c7-aeb93ee227f7"},"vehicle_type_id":"4","last_reported":1751904818,"current_range_meters":11600,"station_id":"ce4bhbp2rcd13ifvqerg","pricing_plan_id":"cebpf4jnsgd1na2vs0mg"},{"bike_id":"37f2becd-23f9-4f13-a711-38b8024eeec7","system_id":"levelo_inurba_marseille","lat":43.33768,"lon":5.37516,"is_reserved":false,"is_disabled":false,"rental_uris":{"android":"levelo://app?vid=37f2becd-23f9-4f13-a711-38b8024eeec7","ios":"levelo://app?vid=37f2becd-23f9-4f13-a711-38b8024eeec7"},"vehicle_type_id":"4","last_reported":1751904818,"current_range_meters":12000,"station_id":"","pricing_plan_id":"cebpf4jnsgd1na2vs0mg"},{"bike_id":"2f0d8cee-e5f5-4316-a5fd-e5d033ce6983","system_id":"levelo_inurba_marseille","lat":43.29935,"lon":5.36552,"is_reserved":false,"is_disabled":false,"rental_uris":{"android":"levelo://app?vid=2f0d8cee-e5f5-4316-a5fd-e5d033ce6983","ios":"levelo://app?vid=2f0d8cee-e5f5-4316-a5fd-e5d033ce6983"},"vehicle_type_id":"4","last_reported":1751904818,"current_range_meters":12000,"station_id":"ce4bgm92rcd13ifvqbr0","pricing_plan_id":"cebpf4jnsgd1na2vs0mg"},{"bike_id":"c9bac7d9-1f26-4738-8982-15112818c851","system_id":"levelo_inurba_marseille","lat":43.29799,"lon":5.40392,"is_reserved":false,"is_disabled":false,"rental_uris":{"android":"levelo://app?vid=c9bac7d9-1f26-4738-8982-15112818c851","ios":"levelo://app?vid=c9bac7d9-1f26-4738-8982-15112818c851"},"vehicle_type_id":"4","last_reported":1751904818,"current_range_meters":12000,"station_id":"ce4bh112rcd13ifvqd90","pricing_plan_id":"cebpf4jnsgd1na2vs0mg"},{"bike_id":"94046fd4-c889-4d29-b444-c6e23e39b74f","system_id":"levelo_inurba_marseille","lat":43.29446,"lon":5.39745,"is_reserved":false,"is_disabled":false,"rental_uris":{"android":"levelo://app?vid=94046fd4-c889-4d29-b444-c6e23e39b74f","ios":"levelo://app?vid=94046fd4-c889-4d29-b444-c6e23e39b74f"},"vehicle_type_id":"4","last_reported":1751904818,"current_range_meters":12000,"station_id":"ce4bh3h2rcd13ifvqdo0","pricing_plan_id":"cebpf4jnsgd1na2vs0mg"},{"bike_id":"ccc29df5-1113-42b5-b8de-771b9f206409","system_id":"levelo_inurba_marseille","lat":43.26257,"lon":5.37411,"is_reserved":false,"is_disabled":false,"rental_uris":{"android":"levelo://app?vid=ccc29df5-1113-42b5-b8de-771b9f206409","ios":"levelo://app?vid=ccc29df5-1113-42b5-b8de-771b9f206409"},"vehicle_type_id":"4","last_reported":1751904818,"current_range_meters":12400,"station_id":"","pricing_plan_id":"cebpf4jnsgd1na2vs0mg"},{"bike_id":"4c5bebda-0650-4091-851e-bdbb4adedf1d","system_id":"levelo_inurba_marseille","lat":43.31323,"lon":5.39691,"is_reserved":false,"is_disabled":false,"rental_uris":{"android":"levelo://app?vid=4c5bebda-0650-4091-851e-bdbb4adedf1d","ios":"levelo://app?vid=4c5bebda-0650-4091-851e-bdbb4adedf1d"},"vehicle_type_id":"4","last_reported":1751904818,"current_range_meters":12400,"station_id":"ce4bgvp2rcd13ifvqcu0","pricing_plan_id":"cebpf4jnsgd1na2vs0mg"},{"bike_id":"f0277a9d-a3f9-4f9b-a0cb-9b35d5106092","system_id":"levelo_inurba_marseille","lat":43.26216,"lon":5.37436,"is_reserved":false,"is_disabled":false,"rental_uris":{"android":"levelo://app?vid=f0277a9d-a3f9-4f9b-a0cb-9b35d5106092","ios":"levelo://app?vid=f0277a9d-a3f9-4f9b-a0cb-9b35d5106092"},"vehicle_type_id":"4","last_reported":1751904818,"current_range_meters":12400,"station_id":"ce4bhgp2rcd13ifvqfc0","pricing_plan_id":"cebpf4jnsgd1na2vs0mg"},{"bike_id":"a31d7b1d-f875-4f27-b8f6-640a4ac62493","system_id":"levelo_inurba_marseille","lat":43.33697,"lon":5.39194,"is_reserved":false,"is_disabled":false,"rental_uris":{"android":"levelo://app?vid=a31d7b1d-f875-4f27-b8f6-640a4ac62493","ios":"levelo://app?vid=a31d7b1d-f875-4f27-b8f6-640a4ac62493"},"vehicle_type_id":"4","last_reported":1751904818,"current_range_meters":12400,"station_id":"ce4bhr92rcd13ifvqhsg","pricing_plan_id":"cebpf4jnsgd1na2vs0mg"},{"bike_id":"7bc47c46-f827-43ab-986e-291a63ca48dc","system_id":"levelo_inurba_marseille","lat":43.32738,"lon":5.42366,"is_reserved":false,"is_disabled":false,"rental_uris":{"android":"levelo://app?vid=7bc47c46-f827-43ab-986e-291a63ca48dc","ios":"levelo://app?vid=7bc47c46-f827-43ab-986e-291a63ca48dc"},"vehicle_type_id":"4","last_reported":1751904818,"current_range_meters":12800,"station_id":"","pricing_plan_id":"cebpf4jnsgd1na2vs0mg"},{"bike_id":"78c65a7f-d308-40b5-accc-8e6897ac9f8a","system_id":"levelo_inurba_marseille","lat":43.3011,"lon":5.37775,"is_reserved":false,"is_disabled":false,"rental_uris":{"android":"levelo://app?vid=78c65a7f-d308-40b5-accc-8e6897ac9f8a","ios":"levelo://app?vid=78c65a7f-d308-40b5-accc-8e6897ac9f8a"},"vehicle_type_id":"4","last_reported":1751904818,"current_range_meters":12800,"station_id":"","pricing_plan_id":"cebpf4jnsgd1na2vs0mg"},{"bike_id":"6f1f39ad-3ba6-4ff4-b80f-a4570471c4f5","system_id":"levelo_inurba_marseille","lat":43.29516,"lon":5.39407,"is_reserved":false,"is_disabled":false,"rental_uris":{"android":"levelo://app?vid=6f1f39ad-3ba6-4ff4-b80f-a4570471c4f5","ios":"levelo://app?vid=6f1f39ad-3ba6-4ff4-b80f-a4570471c4f5"},"vehicle_type_id":"4","last_reported":1751904818,"current_range_meters":12800,"station_id":"ce4bh292rcd13ifvqdf0","pricing_plan_id":"cebpf4jnsgd1na2vs0mg"},{"bike_id":"5d87d2f0-0381-45d1-bd6c-56a88d1f4530","system_id":"levelo_inurba_marseille","lat":43.28488,"lon":5.38571,"is_reserved":false,"is_disabled":false,"rental_uris":{"android":"levelo://app?vid=5d87d2f0-0381-45d1-bd6c-56a88d1f4530","ios":"levelo://app?vid=5d87d2f0-0381-45d1-bd6c-56a88d1f4530"},"vehicle_type_id":"4","last_reported":1751904818,"current_range_meters":12800,"station_id":"ce4bh8p2rcd13ifvqeb0","pricing_plan_id":"cebpf4jnsgd1na2vs0mg"},{"bike_id":"6864ae25-8875-4f21-8665-abe8fe6857c6","system_id":"levelo_inurba_marseille","lat":43.27907,"lon":5.38014,"is_reserved":false,"is_disabled":false,"rental_uris":{"android":"levelo://app?vid=6864ae25-8875-4f21-8665-abe8fe6857c6","ios":"levelo://app?vid=6864ae25-8875-4f21-8665-abe8fe6857c6"},"vehicle_type_id":"4","last_reported":1751904818,"current_range_meters":12800,"station_id":"ce4bhf92rcd13ifvqf50","pricing_plan_id":"cebpf4jnsgd1na2vs0mg"},{"bike_id":"c581da00-5551-4214-9817-2b041f9717e1","system_id":"levelo_inurba_marseille","lat":43.260344,"lon":5.375463,"is_reserved":false,"is_disabled":false,"rental_uris":{"android":"levelo://app?vid=c581da00-5551-4214-9817-2b041f9717e1","ios":"levelo://app?vid=c581da00-5551-4214-9817-2b041f9717e1"},"vehicle_type_id":"4","last_reported":1751904818,"current_range_meters":12800,"station_id":"ce4bhgh2rcd13ifvqfa0","pricing_plan_id":"cebpf4jnsgd1na2vs0mg"},{"bike_id":"29102da4-02a2-4f9c-99ed-89cdef887179","system_id":"levelo_inurba_marseille","lat":43.22513,"lon":5.34765,"is_reserved":false,"is_disabled":false,"rental_uris":{"android":"levelo://app?vid=29102da4-02a2-4f9c-99ed-89cdef887179","ios":"levelo://app?vid=29102da4-02a2-4f9c-99ed-89cdef887179"},"vehicle_type_id":"4","last_reported":1751904818,"current_range_meters":12800,"station_id":"st_cvj5dfep6f1abm77gieg","pricing_plan_id":"cebpf4jnsgd1na2vs0mg"},{"bike_id":"a70cfab5-f447-4d61-b80a-343a49825360","system_id":"levelo_inurba_marseille","lat":43.31498,"lon":5.39105,"is_reserved":false,"is_disabled":false,"rental_uris":{"android":"levelo://app?vid=a70cfab5-f447-4d61-b80a-343a49825360","ios":"levelo://app?vid=a70cfab5-f447-4d61-b80a-343a49825360"},"vehicle_type_id":"4","last_reported":1751904818,"current_range_meters":13600,"station_id":"","pricing_plan_id":"cebpf4jnsgd1na2vs0mg"},{"bike_id":"949188bf-6148-425e-828f-98a1d9650134","system_id":"levelo_inurba_marseille","lat":43.3249,"lon":5.36563,"is_reserved":false,"is_disabled":false,"rental_uris":{"android":"levelo://app?vid=949188bf-6148-425e-828f-98a1d9650134","ios":"levelo://app?vid=949188bf-6148-425e-828f-98a1d9650134"},"vehicle_type_id":"4","last_reported":1751904818,"current_range_meters":13600,"station_id":"ce4bhs12rcd13ifvqhvg","pricing_plan_id":"cebpf4jnsgd1na2vs0mg"},{"bike_id":"20c0674d-b5fd-4e8e-88c4-fe181160a0e2","system_id":"levelo_inurba_marseille","lat":43.217417,"lon":5.346017,"is_reserved":false,"is_disabled":false,"rental_uris":{"android":"levelo://app?vid=20c0674d-b5fd-4e8e-88c4-fe181160a0e2","ios":"levelo://app?vid=20c0674d-b5fd-4e8e-88c4-fe181160a0e2"},"vehicle_type_id":"4","last_reported":1751904818,"current_range_meters":13600,"station_id":"st_cvj6r9ubvosntc0bgbag","pricing_plan_id":"cebpf4jnsgd1na2vs0mg"},{"bike_id":"e56b6846-9109-4879-a40c-134736dc084d","system_id":"levelo_inurba_marseille","lat":43.29798,"lon":5.38106,"is_reserved":false,"is_disabled":false,"rental_uris":{"android":"levelo://app?vid=e56b6846-9109-4879-a40c-134736dc084d","ios":"levelo://app?vid=e56b6846-9109-4879-a40c-134736dc084d"},"vehicle_type_id":"4","last_reported":1751904818,"current_range_meters":14000,"station_id":"ce4bgip2rcd13ifvqbb0","pricing_plan_id":"cebpf4jnsgd1na2vs0mg"},{"bike_id":"d7988964-28c6-4fac-b7a3-c9a2ca519892","system_id":"levelo_inurba_marseille","lat":43.286201,"lon":5.351074,"is_reserved":false,"is_disabled":false,"rental_uris":{"android":"levelo://app?vid=d7988964-28c6-4fac-b7a3-c9a2ca519892","ios":"levelo://app?vid=d7988964-28c6-4fac-b7a3-c9a2ca519892"},"vehicle_type_id":"4","last_reported":1751904818,"current_range_meters":14000,"station_id":"ce4bhch2rcd13ifvqeug","pricing_plan_id":"cebpf4jnsgd1na2vs0mg"},{"bike_id":"8ba28f87-aaaf-472e-bd84-01d2e1f413a6","system_id":"levelo_inurba_marseille","lat":43.24808,"lon":5.37456,"is_reserved":false,"is_disabled":false,"rental_uris":{"android":"levelo://app?vid=8ba28f87-aaaf-472e-bd84-01d2e1f413a6","ios":"levelo://app?vid=8ba28f87-aaaf-472e-bd84-01d2e1f413a6"},"vehicle_type_id":"4","last_reported":1751904818,"current_range_meters":14000,"station_id":"ce4bhgh2rcd13ifvqfb0","pricing_plan_id":"cebpf4jnsgd1na2vs0mg"},{"bike_id":"16133e31-e340-4e89-bb18-c779e8208f28","system_id":"levelo_inurba_marseille","lat":43.28434,"lon":5.39178,"is_reserved":false,"is_disabled":false,"rental_uris":{"android":"levelo://app?vid=16133e31-e340-4e89-bb18-c779e8208f28","ios":"levelo://app?vid=16133e31-e340-4e89-bb18-c779e8208f28"},"vehicle_type_id":"4","last_reported":1751904818,"current_range_meters":14000,"station_id":"ce4bhoh2rcd13ifvqh5g","pricing_plan_id":"cebpf4jnsgd1na2vs0mg"},{"bike_id":"5ec4874c-03c6-4a0e-89ff-0413efb1d60d","system_id":"levelo_inurba_marseille","lat":43.31992,"lon":5.36752,"is_reserved":false,"is_disabled":false,"rental_uris":{"android":"levelo://app?vid=5ec4874c-03c6-4a0e-89ff-0413efb1d60d","ios":"levelo://app?vid=5ec4874c-03c6-4a0e-89ff-0413efb1d60d"},"vehicle_type_id":"4","last_reported":1751904818,"current_range_meters":14000,"station_id":"ce4bhrh2rcd13ifvqhug","pricing_plan_id":"cebpf4jnsgd1na2vs0mg"},{"bike_id":"c3ada3f1-ddde-4bf5-8936-f4ee5b898c22","system_id":"levelo_inurba_marseille","lat":43.27634,"lon":5.36104,"is_reserved":false,"is_disabled":false,"rental_uris":{"android":"levelo://app?vid=c3ada3f1-ddde-4bf5-8936-f4ee5b898c22","ios":"levelo://app?vid=c3ada3f1-ddde-4bf5-8936-f4ee5b898c22"},"vehicle_type_id":"4","last_reported":1751904818,"current_range_meters":14800,"station_id":"ce4bgj92rcd13ifvqbe0","pricing_plan_id":"cebpf4jnsgd1na2vs0mg"},{"bike_id":"95a2b2fa-f984-43db-92a6-91a2e79ce0ec","system_id":"levelo_inurba_marseille","lat":43.30423,"lon":5.38893,"is_reserved":false,"is_disabled":false,"rental_uris":{"android":"levelo://app?vid=95a2b2fa-f984-43db-92a6-91a2e79ce0ec","ios":"levelo://app?vid=95a2b2fa-f984-43db-92a6-91a2e79ce0ec"},"vehicle_type_id":"4","last_reported":1751904818,"current_range_meters":14800,"station_id":"ce4bgk12rcd13ifvqbi0","pricing_plan_id":"cebpf4jnsgd1na2vs0mg"},{"bike_id":"2ddd6815-6193-4bc9-bd9f-34f36bc7c904","system_id":"levelo_inurba_marseille","lat":43.28397,"lon":5.35006,"is_reserved":false,"is_disabled":false,"rental_uris":{"android":"levelo://app?vid=2ddd6815-6193-4bc9-bd9f-34f36bc7c904","ios":"levelo://app?vid=2ddd6815-6193-4bc9-bd9f-34f36bc7c904"},"vehicle_type_id":"4","last_reported":1751904818,"current_range_meters":14800,"station_id":"ce4bhbh2rcd13ifvqepg","pricing_plan_id":"cebpf4jnsgd1na2vs0mg"},{"bike_id":"54fae710-4224-4454-989b-246dc7067300","system_id":"levelo_inurba_marseille","lat":43.28413,"lon":5.35011,"is_reserved":false,"is_disabled":false,"rental_uris":{"android":"levelo://app?vid=54fae710-4224-4454-989b-246dc7067300","ios":"levelo://app?vid=54fae710-4224-4454-989b-246dc7067300"},"vehicle_type_id":"4","last_reported":1751904818,"current_range_meters":14800,"station_id":"ce4bhbh2rcd13ifvqepg","pricing_plan_id":"cebpf4jnsgd1na2vs0mg"},{"bike_id":"4a3154ac-3048-463e-9c11-90185238f36f","system_id":"levelo_inurba_marseille","lat":43.33753,"lon":5.37487,"is_reserved":false,"is_disabled":false,"rental_uris":{"android":"levelo://app?vid=4a3154ac-3048-463e-9c11-90185238f36f","ios":"levelo://app?vid=4a3154ac-3048-463e-9c11-90185238f36f"},"vehicle_type_id":"4","last_reported":1751904818,"current_range_meters":15200,"station_id":"","pricing_plan_id":"cebpf4jnsgd1na2vs0mg"},{"bike_id":"392961d1-de4a-4366-9776-7571a93ee130","system_id":"levelo_inurba_marseille","lat":43.29944,"lon":5.3652,"is_reserved":false,"is_disabled":false,"rental_uris":{"android":"levelo://app?vid=392961d1-de4a-4366-9776-7571a93ee130","ios":"levelo://app?vid=392961d1-de4a-4366-9776-7571a93ee130"},"vehicle_type_id":"4","last_reported":1751904818,"current_range_meters":15200,"station_id":"ce4bgm92rcd13ifvqbr0","pricing_plan_id":"cebpf4jnsgd1na2vs0mg"},{"bike_id":"14eb3966-bda1-4d8a-870a-e8e8bf20a1db","system_id":"levelo_inurba_marseille","lat":43.30146,"lon":5.39848,"is_reserved":false,"is_disabled":false,"rental_uris":{"android":"levelo://app?vid=14eb3966-bda1-4d8a-870a-e8e8bf20a1db","ios":"levelo://app?vid=14eb3966-bda1-4d8a-870a-e8e8bf20a1db"},"vehicle_type_id":"4","last_reported":1751904818,"current_range_meters":15200,"station_id":"ce4bh0h2rcd13ifvqd40","pricing_plan_id":"cebpf4jnsgd1na2vs0mg"},{"bike_id":"29d54943-5098-4f41-873e-fb6741e746ca","system_id":"levelo_inurba_marseille","lat":43.283296,"lon":5.350267,"is_reserved":false,"is_disabled":false,"rental_uris":{"android":"levelo://app?vid=29d54943-5098-4f41-873e-fb6741e746ca","ios":"levelo://app?vid=29d54943-5098-4f41-873e-fb6741e746ca"},"vehicle_type_id":"4","last_reported":1751904818,"current_range_meters":16000,"station_id":"","pricing_plan_id":"cebpf4jnsgd1na2vs0mg"},{"bike_id":"ebd51b2b-ef1d-4679-83f8-06b8c2bf8dcc","system_id":"levelo_inurba_marseille","lat":43.28408,"lon":5.34994,"is_reserved":false,"is_disabled":false,"rental_uris":{"android":"levelo://app?vid=ebd51b2b-ef1d-4679-83f8-06b8c2bf8dcc","ios":"levelo://app?vid=ebd51b2b-ef1d-4679-83f8-06b8c2bf8dcc"},"vehicle_type_id":"4","last_reported":1751904818,"current_range_meters":16000,"station_id":"ce4bhbh2rcd13ifvqepg","pricing_plan_id":"cebpf4jnsgd1na2vs0mg"},{"bike_id":"7f189570-d86b-4e22-b750-cde58fa14537","system_id":"levelo_inurba_marseille","lat":43.28419,"lon":5.34969,"is_reserved":false,"is_disabled":false,"rental_uris":{"android":"levelo://app?vid=7f189570-d86b-4e22-b750-cde58fa14537","ios":"levelo://app?vid=7f189570-d86b-4e22-b750-cde58fa14537"},"vehicle_type_id":"4","last_reported":1751904818,"current_range_meters":16000,"station_id":"ce4bhbh2rcd13ifvqepg","pricing_plan_id":"cebpf4jnsgd1na2vs0mg"},{"bike_id":"942a983a-7094-47d3-97b7-ba4ab853d965","system_id":"levelo_inurba_marseille","lat":43.27071,"lon":5.42284,"is_reserved":false,"is_disabled":false,"rental_uris":{"android":"levelo://app?vid=942a983a-7094-47d3-97b7-ba4ab853d965","ios":"levelo://app?vid=942a983a-7094-47d3-97b7-ba4ab853d965"},"vehicle_type_id":"4","last_reported":1751904818,"current_range_meters":16000,"station_id":"ce4bhk92rcd13ifvqgb0","pricing_plan_id":"cebpf4jnsgd1na2vs0mg"},{"bike_id":"e79346c8-86fc-4daa-86ef-e1e68b65043e","system_id":"levelo_inurba_marseille","lat":43.24084,"lon":5.37745,"is_reserved":false,"is_disabled":false,"rental_uris":{"android":"levelo://app?vid=e79346c8-86fc-4daa-86ef-e1e68b65043e","ios":"levelo://app?vid=e79346c8-86fc-4daa-86ef-e1e68b65043e"},"vehicle_type_id":"4","last_reported":1751904818,"current_range_meters":16000,"station_id":"ce4bhnp2rcd13ifvqgvg","pricing_plan_id":"cebpf4jnsgd1na2vs0mg"},{"bike_id":"88448def-5dd0-4785-bf46-b6c2e5cfe176","system_id":"levelo_inurba_marseille","lat":43.22505,"lon":5.34756,"is_reserved":false,"is_disabled":false,"rental_uris":{"android":"levelo://app?vid=88448def-5dd0-4785-bf46-b6c2e5cfe176","ios":"levelo://app?vid=88448def-5dd0-4785-bf46-b6c2e5cfe176"},"vehicle_type_id":"4","last_reported":1751904818,"current_range_meters":16000,"station_id":"st_cvj5dfep6f1abm77gieg","pricing_plan_id":"cebpf4jnsgd1na2vs0mg"},{"bike_id":"1fd20299-d0ac-4820-8d0a-7d8c8c9ea9ba","system_id":"levelo_inurba_marseille","lat":43.28454,"lon":5.35886,"is_reserved":false,"is_disabled":false,"rental_uris":{"android":"levelo://app?vid=1fd20299-d0ac-4820-8d0a-7d8c8c9ea9ba","ios":"levelo://app?vid=1fd20299-d0ac-4820-8d0a-7d8c8c9ea9ba"},"vehicle_type_id":"4","last_reported":1751904818,"current_range_meters":16400,"station_id":"ce4bhah2rcd13ifvqei0","pricing_plan_id":"cebpf4jnsgd1na2vs0mg"},{"bike_id":"2090512e-543d-4a55-b888-2423e2f84234","system_id":"levelo_inurba_marseille","lat":43.24084,"lon":5.3769,"is_reserved":false,"is_disabled":false,"rental_uris":{"android":"levelo://app?vid=2090512e-543d-4a55-b888-2423e2f84234","ios":"levelo://app?vid=2090512e-543d-4a55-b888-2423e2f84234"},"vehicle_type_id":"4","last_reported":1751904818,"current_range_meters":16400,"station_id":"ce4bhnp2rcd13ifvqgvg","pricing_plan_id":"cebpf4jnsgd1na2vs0mg"},{"bike_id":"9bfc7d3d-4e60-4f8a-9c32-ef3d0e77ec5b","system_id":"levelo_inurba_marseille","lat":43.21198,"lon":5.3508,"is_reserved":false,"is_disabled":false,"rental_uris":{"android":"levelo://app?vid=9bfc7d3d-4e60-4f8a-9c32-ef3d0e77ec5b","ios":"levelo://app?vid=9bfc7d3d-4e60-4f8a-9c32-ef3d0e77ec5b"},"vehicle_type_id":"4","last_reported":1751904818,"current_range_meters":16400,"station_id":"st_cvj6sg6p6f1abm77japg","pricing_plan_id":"cebpf4jnsgd1na2vs0mg"},{"bike_id":"6ffc31bf-be63-440b-8353-4ff83386083b","system_id":"levelo_inurba_marseille","lat":43.29879,"lon":5.36417,"is_reserved":false,"is_disabled":false,"rental_uris":{"android":"levelo://app?vid=6ffc31bf-be63-440b-8353-4ff83386083b","ios":"levelo://app?vid=6ffc31bf-be63-440b-8353-4ff83386083b"},"vehicle_type_id":"4","last_reported":1751904818,"current_range_meters":16800,"station_id":"","pricing_plan_id":"cebpf4jnsgd1na2vs0mg"},{"bike_id":"43d0a216-171e-45fe-88be-8650fec68cf8","system_id":"levelo_inurba_marseille","lat":43.2127,"lon":5.35194,"is_reserved":false,"is_disabled":false,"rental_uris":{"android":"levelo://app?vid=43d0a216-171e-45fe-88be-8650fec68cf8","ios":"levelo://app?vid=43d0a216-171e-45fe-88be-8650fec68cf8"},"vehicle_type_id":"4","last_reported":1751904818,"current_range_meters":16800,"station_id":"","pricing_plan_id":"cebpf4jnsgd1na2vs0mg"},{"bike_id":"51608197-0c43-41fb-ad6b-ce0298cbd12f","system_id":"levelo_inurba_marseille","lat":43.286958,"lon":5.37383,"is_reserved":false,"is_disabled":false,"rental_uris":{"android":"levelo://app?vid=51608197-0c43-41fb-ad6b-ce0298cbd12f","ios":"levelo://app?vid=51608197-0c43-41fb-ad6b-ce0298cbd12f"},"vehicle_type_id":"4","last_reported":1751904818,"current_range_meters":16800,"station_id":"ce4bh3p2rcd13ifvqdq0","pricing_plan_id":"cebpf4jnsgd1na2vs0mg"},{"bike_id":"7a23839a-f7cf-4c2f-a369-6cffa98b0c1c","system_id":"levelo_inurba_marseille","lat":43.27812,"lon":5.40715,"is_reserved":false,"is_disabled":false,"rental_uris":{"android":"levelo://app?vid=7a23839a-f7cf-4c2f-a369-6cffa98b0c1c","ios":"levelo://app?vid=7a23839a-f7cf-4c2f-a369-6cffa98b0c1c"},"vehicle_type_id":"4","last_reported":1751904818,"current_range_meters":16800,"station_id":"ce4bhnh2rcd13ifvqgtg","pricing_plan_id":"cebpf4jnsgd1na2vs0mg"},{"bike_id":"762784bc-76e0-4220-961c-3afad064fde2","system_id":"levelo_inurba_marseille","lat":43.32085,"lon":5.36764,"is_reserved":false,"is_disabled":false,"rental_uris":{"android":"levelo://app?vid=762784bc-76e0-4220-961c-3afad064fde2","ios":"levelo://app?vid=762784bc-76e0-4220-961c-3afad064fde2"},"vehicle_type_id":"4","last_reported":1751904818,"current_range_meters":16800,"station_id":"ce4bhrh2rcd13ifvqhug","pricing_plan_id":"cebpf4jnsgd1na2vs0mg"},{"bike_id":"c374c9dc-0308-494f-9168-9837a1742863","system_id":"levelo_inurba_marseille","lat":43.29714,"lon":5.36613,"is_reserved":false,"is_disabled":false,"rental_uris":{"android":"levelo://app?vid=c374c9dc-0308-494f-9168-9837a1742863","ios":"levelo://app?vid=c374c9dc-0308-494f-9168-9837a1742863"},"vehicle_type_id":"4","last_reported":1751904818,"current_range_meters":17200,"station_id":"ce4bgn12rcd13ifvqbt0","pricing_plan_id":"cebpf4jnsgd1na2vs0mg"},{"bike_id":"063dd36d-c92d-4b80-aeec-0f37de7c5ccd","system_id":"levelo_inurba_marseille","lat":43.29032,"lon":5.37562,"is_reserved":false,"is_disabled":false,"rental_uris":{"android":"levelo://app?vid=063dd36d-c92d-4b80-aeec-0f37de7c5ccd","ios":"levelo://app?vid=063dd36d-c92d-4b80-aeec-0f37de7c5ccd"},"vehicle_type_id":"4","last_reported":1751904818,"current_range_meters":17200,"station_id":"ce4bh692rcd13ifvqe90","pricing_plan_id":"cebpf4jnsgd1na2vs0mg"},{"bike_id":"a19af955-9f5f-4ebf-9657-f7a0141cb78d","system_id":"levelo_inurba_marseille","lat":43.28423,"lon":5.34988,"is_reserved":false,"is_disabled":false,"rental_uris":{"android":"levelo://app?vid=a19af955-9f5f-4ebf-9657-f7a0141cb78d","ios":"levelo://app?vid=a19af955-9f5f-4ebf-9657-f7a0141cb78d"},"vehicle_type_id":"4","last_reported":1751904818,"current_range_meters":17200,"station_id":"ce4bhbh2rcd13ifvqepg","pricing_plan_id":"cebpf4jnsgd1na2vs0mg"},{"bike_id":"51396e92-cfc7-46e6-b99e-e246d5ee546a","system_id":"levelo_inurba_marseille","lat":43.30357,"lon":5.41881,"is_reserved":false,"is_disabled":false,"rental_uris":{"android":"levelo://app?vid=51396e92-cfc7-46e6-b99e-e246d5ee546a","ios":"levelo://app?vid=51396e92-cfc7-46e6-b99e-e246d5ee546a"},"vehicle_type_id":"4","last_reported":1751904818,"current_range_meters":17200,"station_id":"ce4bhop2rcd13ifvqh7g","pricing_plan_id":"cebpf4jnsgd1na2vs0mg"},{"bike_id":"89aed59f-866e-4768-b8b5-54548cd7d320","system_id":"levelo_inurba_marseille","lat":43.22504,"lon":5.34772,"is_reserved":false,"is_disabled":false,"rental_uris":{"android":"levelo://app?vid=89aed59f-866e-4768-b8b5-54548cd7d320","ios":"levelo://app?vid=89aed59f-866e-4768-b8b5-54548cd7d320"},"vehicle_type_id":"4","last_reported":1751904818,"current_range_meters":17200,"station_id":"st_cvj5dfep6f1abm77gieg","pricing_plan_id":"cebpf4jnsgd1na2vs0mg"},{"bike_id":"bfd8a722-c419-4db7-9a26-a31dc649146e","system_id":"levelo_inurba_marseille","lat":43.21189,"lon":5.35068,"is_reserved":false,"is_disabled":false,"rental_uris":{"android":"levelo://app?vid=bfd8a722-c419-4db7-9a26-a31dc649146e","ios":"levelo://app?vid=bfd8a722-c419-4db7-9a26-a31dc649146e"},"vehicle_type_id":"4","last_reported":1751904818,"current_range_meters":17200,"station_id":"st_cvj6sg6p6f1abm77japg","pricing_plan_id":"cebpf4jnsgd1na2vs0mg"},{"bike_id":"6a3a3e65-1839-43d5-b574-3a73e4e32dac","system_id":"levelo_inurba_marseille","lat":43.32321,"lon":5.3887,"is_reserved":false,"is_disabled":false,"rental_uris":{"android":"levelo://app?vid=6a3a3e65-1839-43d5-b574-3a73e4e32dac","ios":"levelo://app?vid=6a3a3e65-1839-43d5-b574-3a73e4e32dac"},"vehicle_type_id":"4","last_reported":1751904818,"current_range_meters":17600,"station_id":"","pricing_plan_id":"cebpf4jnsgd1na2vs0mg"},{"bike_id":"888522e3-39b6-4ff3-ad74-ff6c6f771157","system_id":"levelo_inurba_marseille","lat":43.29492,"lon":5.40267,"is_reserved":false,"is_disabled":false,"rental_uris":{"android":"levelo://app?vid=888522e3-39b6-4ff3-ad74-ff6c6f771157","ios":"levelo://app?vid=888522e3-39b6-4ff3-ad74-ff6c6f771157"},"vehicle_type_id":"4","last_reported":1751904818,"current_range_meters":17600,"station_id":"","pricing_plan_id":"cebpf4jnsgd1na2vs0mg"},{"bike_id":"a8ff1d8a-b097-49e9-9967-27e4880d7ffc","system_id":"levelo_inurba_marseille","lat":43.28842,"lon":5.39304,"is_reserved":false,"is_disabled":false,"rental_uris":{"android":"levelo://app?vid=a8ff1d8a-b097-49e9-9967-27e4880d7ffc","ios":"levelo://app?vid=a8ff1d8a-b097-49e9-9967-27e4880d7ffc"},"vehicle_type_id":"4","last_reported":1751904818,"current_range_meters":17600,"station_id":"ce4bh2p2rcd13ifvqdi0","pricing_plan_id":"cebpf4jnsgd1na2vs0mg"},{"bike_id":"84b0e2ef-4c29-4378-a3f1-180b841d1633","system_id":"levelo_inurba_marseille","lat":43.28034,"lon":5.36962,"is_reserved":false,"is_disabled":false,"rental_uris":{"android":"levelo://app?vid=84b0e2ef-4c29-4378-a3f1-180b841d1633","ios":"levelo://app?vid=84b0e2ef-4c29-4378-a3f1-180b841d1633"},"vehicle_type_id":"4","last_reported":1751904818,"current_range_meters":17600,"station_id":"ce4bha12rcd13ifvqef0","pricing_plan_id":"cebpf4jnsgd1na2vs0mg"},{"bike_id":"d5ef770d-9759-47e3-b3a5-7d2785ef76db","system_id":"levelo_inurba_marseille","lat":43.32929,"lon":5.39031,"is_reserved":false,"is_disabled":false,"rental_uris":{"android":"levelo://app?vid=d5ef770d-9759-47e3-b3a5-7d2785ef76db","ios":"levelo://app?vid=d5ef770d-9759-47e3-b3a5-7d2785ef76db"},"vehicle_type_id":"4","last_reported":1751904818,"current_range_meters":18000,"station_id":"","pricing_plan_id":"cebpf4jnsgd1na2vs0mg"},{"bike_id":"afd2c671-b274-4716-95f7-9abfdfc6dc55","system_id":"levelo_inurba_marseille","lat":43.31464,"lon":5.37387,"is_reserved":false,"is_disabled":false,"rental_uris":{"android":"levelo://app?vid=afd2c671-b274-4716-95f7-9abfdfc6dc55","ios":"levelo://app?vid=afd2c671-b274-4716-95f7-9abfdfc6dc55"},"vehicle_type_id":"4","last_reported":1751904818,"current_range_meters":18000,"station_id":"","pricing_plan_id":"cebpf4jnsgd1na2vs0mg"},{"bike_id":"9db15efa-62b5-43dc-beab-14a16c0840b9","system_id":"levelo_inurba_marseille","lat":43.304524,"lon":5.415534,"is_reserved":false,"is_disabled":false,"rental_uris":{"android":"levelo://app?vid=9db15efa-62b5-43dc-beab-14a16c0840b9","ios":"levelo://app?vid=9db15efa-62b5-43dc-beab-14a16c0840b9"},"vehicle_type_id":"4","last_reported":1751904818,"current_range_meters":18000,"station_id":"","pricing_plan_id":"cebpf4jnsgd1na2vs0mg"},{"bike_id":"b8c79791-9a0c-496f-95fa-bb3cf2de2192","system_id":"levelo_inurba_marseille","lat":43.31269,"lon":5.40177,"is_reserved":false,"is_disabled":false,"rental_uris":{"android":"levelo://app?vid=b8c79791-9a0c-496f-95fa-bb3cf2de2192","ios":"levelo://app?vid=b8c79791-9a0c-496f-95fa-bb3cf2de2192"},"vehicle_type_id":"4","last_reported":1751904818,"current_range_meters":18000,"station_id":"ce4bh092rcd13ifvqd30","pricing_plan_id":"cebpf4jnsgd1na2vs0mg"},{"bike_id":"e92b287d-d096-41e8-a8dc-5a20d4e20f73","system_id":"levelo_inurba_marseille","lat":43.28866,"lon":5.35846,"is_reserved":false,"is_disabled":false,"rental_uris":{"android":"levelo://app?vid=e92b287d-d096-41e8-a8dc-5a20d4e20f73","ios":"levelo://app?vid=e92b287d-d096-41e8-a8dc-5a20d4e20f73"},"vehicle_type_id":"4","last_reported":1751904818,"current_range_meters":18000,"station_id":"ce4bhb12rcd13ifvqem0","pricing_plan_id":"cebpf4jnsgd1na2vs0mg"},{"bike_id":"5f663f1f-def5-40cc-9abe-924bd04570e3","system_id":"levelo_inurba_marseille","lat":43.28411,"lon":5.35013,"is_reserved":false,"is_disabled":false,"rental_uris":{"android":"levelo://app?vid=5f663f1f-def5-40cc-9abe-924bd04570e3","ios":"levelo://app?vid=5f663f1f-def5-40cc-9abe-924bd04570e3"},"vehicle_type_id":"4","last_reported":1751904818,"current_range_meters":18000,"station_id":"ce4bhbh2rcd13ifvqepg","pricing_plan_id":"cebpf4jnsgd1na2vs0mg"},{"bike_id":"5f0cb5fa-5d79-44ba-96b7-1fc05932b63e","system_id":"levelo_inurba_marseille","lat":43.28268,"lon":5.35066,"is_reserved":false,"is_disabled":false,"rental_uris":{"android":"levelo://app?vid=5f0cb5fa-5d79-44ba-96b7-1fc05932b63e","ios":"levelo://app?vid=5f0cb5fa-5d79-44ba-96b7-1fc05932b63e"},"vehicle_type_id":"4","last_reported":1751904818,"current_range_meters":18000,"station_id":"ce4bhbp2rcd13ifvqerg","pricing_plan_id":"cebpf4jnsgd1na2vs0mg"},{"bike_id":"86a1300d-a610-4541-92ef-48f124fb320d","system_id":"levelo_inurba_marseille","lat":43.26565,"lon":5.39013,"is_reserved":false,"is_disabled":false,"rental_uris":{"android":"levelo://app?vid=86a1300d-a610-4541-92ef-48f124fb320d","ios":"levelo://app?vid=86a1300d-a610-4541-92ef-48f124fb320d"},"vehicle_type_id":"4","last_reported":1751904818,"current_range_meters":18000,"station_id":"ce4bhe12rcd13ifvqf30","pricing_plan_id":"cebpf4jnsgd1na2vs0mg"},{"bike_id":"893951ee-f938-493c-a58b-38a2fe772611","system_id":"levelo_inurba_marseille","lat":43.281555,"lon":5.426416,"is_reserved":false,"is_disabled":false,"rental_uris":{"android":"levelo://app?vid=893951ee-f938-493c-a58b-38a2fe772611","ios":"levelo://app?vid=893951ee-f938-493c-a58b-38a2fe772611"},"vehicle_type_id":"4","last_reported":1751904818,"current_range_meters":18000,"station_id":"ce4bhnh2rcd13ifvqgug","pricing_plan_id":"cebpf4jnsgd1na2vs0mg"},{"bike_id":"61890ca5-e3a7-4367-be8b-10c873215b90","system_id":"levelo_inurba_marseille","lat":43.21737,"lon":5.34581,"is_reserved":false,"is_disabled":false,"rental_uris":{"android":"levelo://app?vid=61890ca5-e3a7-4367-be8b-10c873215b90","ios":"levelo://app?vid=61890ca5-e3a7-4367-be8b-10c873215b90"},"vehicle_type_id":"4","last_reported":1751904818,"current_range_meters":18000,"station_id":"st_cvj6r9ubvosntc0bgbag","pricing_plan_id":"cebpf4jnsgd1na2vs0mg"},{"bike_id":"51890362-46b0-4ee7-9f02-afbf036d064e","system_id":"levelo_inurba_marseille","lat":43.211966,"lon":5.350808,"is_reserved":false,"is_disabled":false,"rental_uris":{"android":"levelo://app?vid=51890362-46b0-4ee7-9f02-afbf036d064e","ios":"levelo://app?vid=51890362-46b0-4ee7-9f02-afbf036d064e"},"vehicle_type_id":"4","last_reported":1751904818,"current_range_meters":18000,"station_id":"st_cvj6sg6p6f1abm77japg","pricing_plan_id":"cebpf4jnsgd1na2vs0mg"},{"bike_id":"084f14d4-0bc9-446c-902e-a4f3b90135fe","system_id":"levelo_inurba_marseille","lat":43.32419,"lon":5.42911,"is_reserved":false,"is_disabled":false,"rental_uris":{"android":"levelo://app?vid=084f14d4-0bc9-446c-902e-a4f3b90135fe","ios":"levelo://app?vid=084f14d4-0bc9-446c-902e-a4f3b90135fe"},"vehicle_type_id":"4","last_reported":1751904818,"current_range_meters":18800,"station_id":"","pricing_plan_id":"cebpf4jnsgd1na2vs0mg"},{"bike_id":"3c35c1cb-c3a7-4f8d-81dc-c78b3d7ef6f7","system_id":"levelo_inurba_marseille","lat":43.31211,"lon":5.37211,"is_reserved":false,"is_disabled":false,"rental_uris":{"android":"levelo://app?vid=3c35c1cb-c3a7-4f8d-81dc-c78b3d7ef6f7","ios":"levelo://app?vid=3c35c1cb-c3a7-4f8d-81dc-c78b3d7ef6f7"},"vehicle_type_id":"4","last_reported":1751904818,"current_range_meters":18800,"station_id":"","pricing_plan_id":"cebpf4jnsgd1na2vs0mg"},{"bike_id":"195ccb74-550e-4eab-b87c-c17757baa2db","system_id":"levelo_inurba_marseille","lat":43.31069,"lon":5.3835,"is_reserved":false,"is_disabled":false,"rental_uris":{"android":"levelo://app?vid=195ccb74-550e-4eab-b87c-c17757baa2db","ios":"levelo://app?vid=195ccb74-550e-4eab-b87c-c17757baa2db"},"vehicle_type_id":"4","last_reported":1751904818,"current_range_meters":18800,"station_id":"ce4bgv92rcd13ifvqcr0","pricing_plan_id":"cebpf4jnsgd1na2vs0mg"},{"bike_id":"c33ea1c8-fa67-41c6-932b-1f890eb66bc5","system_id":"levelo_inurba_marseille","lat":43.30135,"lon":5.39849,"is_reserved":false,"is_disabled":false,"rental_uris":{"android":"levelo://app?vid=c33ea1c8-fa67-41c6-932b-1f890eb66bc5","ios":"levelo://app?vid=c33ea1c8-fa67-41c6-932b-1f890eb66bc5"},"vehicle_type_id":"4","last_reported":1751904818,"current_range_meters":18800,"station_id":"ce4bh0h2rcd13ifvqd40","pricing_plan_id":"cebpf4jnsgd1na2vs0mg"},{"bike_id":"09dcdd3d-671c-456e-8641-64deab7c10ec","system_id":"levelo_inurba_marseille","lat":43.284162,"lon":5.3751,"is_reserved":false,"is_disabled":false,"rental_uris":{"android":"levelo://app?vid=09dcdd3d-671c-456e-8641-64deab7c10ec","ios":"levelo://app?vid=09dcdd3d-671c-456e-8641-64deab7c10ec"},"vehicle_type_id":"4","last_reported":1751904818,"current_range_meters":18800,"station_id":"ce4bh3p2rcd13ifvqdq0","pricing_plan_id":"cebpf4jnsgd1na2vs0mg"},{"bike_id":"87c2d236-4978-4760-be77-27d7f5a212e4","system_id":"levelo_inurba_marseille","lat":43.29644,"lon":5.36205,"is_reserved":false,"is_disabled":false,"rental_uris":{"android":"levelo://app?vid=87c2d236-4978-4760-be77-27d7f5a212e4","ios":"levelo://app?vid=87c2d236-4978-4760-be77-27d7f5a212e4"},"vehicle_type_id":"4","last_reported":1751904818,"current_range_meters":19200,"station_id":"","pricing_plan_id":"cebpf4jnsgd1na2vs0mg"},{"bike_id":"951afddf-dbcc-4224-bfab-31fafab0030d","system_id":"levelo_inurba_marseille","lat":43.276089,"lon":5.361119,"is_reserved":false,"is_disabled":false,"rental_uris":{"android":"levelo://app?vid=951afddf-dbcc-4224-bfab-31fafab0030d","ios":"levelo://app?vid=951afddf-dbcc-4224-bfab-31fafab0030d"},"vehicle_type_id":"4","last_reported":1751904818,"current_range_meters":19200,"station_id":"ce4bgj92rcd13ifvqbe0","pricing_plan_id":"cebpf4jnsgd1na2vs0mg"},{"bike_id":"18afadb3-09cc-426d-b8cf-64e031a7f344","system_id":"levelo_inurba_marseille","lat":43.31882,"lon":5.40748,"is_reserved":false,"is_disabled":false,"rental_uris":{"android":"levelo://app?vid=18afadb3-09cc-426d-b8cf-64e031a7f344","ios":"levelo://app?vid=18afadb3-09cc-426d-b8cf-64e031a7f344"},"vehicle_type_id":"4","last_reported":1751904818,"current_range_meters":19200,"station_id":"ce4bhq12rcd13ifvqhig","pricing_plan_id":"cebpf4jnsgd1na2vs0mg"},{"bike_id":"fdcee4cc-41b8-404e-8d8c-edddde2a639f","system_id":"levelo_inurba_marseille","lat":43.299203,"lon":5.365488,"is_reserved":false,"is_disabled":false,"rental_uris":{"android":"levelo://app?vid=fdcee4cc-41b8-404e-8d8c-edddde2a639f","ios":"levelo://app?vid=fdcee4cc-41b8-404e-8d8c-edddde2a639f"},"vehicle_type_id":"4","last_reported":1751904818,"current_range_meters":19600,"station_id":"ce4bgm92rcd13ifvqbr0","pricing_plan_id":"cebpf4jnsgd1na2vs0mg"},{"bike_id":"8f79dc00-a15d-4197-9ff0-cceb654c0ae7","system_id":"levelo_inurba_marseille","lat":43.29438,"lon":5.38664,"is_reserved":false,"is_disabled":false,"rental_uris":{"android":"levelo://app?vid=8f79dc00-a15d-4197-9ff0-cceb654c0ae7","ios":"levelo://app?vid=8f79dc00-a15d-4197-9ff0-cceb654c0ae7"},"vehicle_type_id":"4","last_reported":1751904818,"current_range_meters":19600,"station_id":"ce4bh2h2rcd13ifvqdh0","pricing_plan_id":"cebpf4jnsgd1na2vs0mg"},{"bike_id":"7962def1-426a-4fe9-90d5-89007e478448","system_id":"levelo_inurba_marseille","lat":43.28618,"lon":5.35105,"is_reserved":false,"is_disabled":false,"rental_uris":{"android":"levelo://app?vid=7962def1-426a-4fe9-90d5-89007e478448","ios":"levelo://app?vid=7962def1-426a-4fe9-90d5-89007e478448"},"vehicle_type_id":"4","last_reported":1751904818,"current_range_meters":19600,"station_id":"ce4bhch2rcd13ifvqeug","pricing_plan_id":"cebpf4jnsgd1na2vs0mg"},{"bike_id":"582dde94-116f-4917-92c7-3dd1031f1e1d","system_id":"levelo_inurba_marseille","lat":43.2466,"lon":5.38165,"is_reserved":false,"is_disabled":false,"rental_uris":{"android":"levelo://app?vid=582dde94-116f-4917-92c7-3dd1031f1e1d","ios":"levelo://app?vid=582dde94-116f-4917-92c7-3dd1031f1e1d"},"vehicle_type_id":"4","last_reported":1751904818,"current_range_meters":19600,"station_id":"ce4bhih2rcd13ifvqfr0","pricing_plan_id":"cebpf4jnsgd1na2vs0mg"},{"bike_id":"5959f819-01d5-46f4-8020-5607ae97d978","system_id":"levelo_inurba_marseille","lat":43.24162,"lon":5.36397,"is_reserved":false,"is_disabled":false,"rental_uris":{"android":"levelo://app?vid=5959f819-01d5-46f4-8020-5607ae97d978","ios":"levelo://app?vid=5959f819-01d5-46f4-8020-5607ae97d978"},"vehicle_type_id":"4","last_reported":1751904818,"current_range_meters":19600,"station_id":"cpo36qri1sfpv3e86is0","pricing_plan_id":"cebpf4jnsgd1na2vs0mg"},{"bike_id":"a7c9f70f-9a0d-416c-b8fd-c3c4e2af0fcb","system_id":"levelo_inurba_marseille","lat":43.2175,"lon":5.34605,"is_reserved":false,"is_disabled":false,"rental_uris":{"android":"levelo://app?vid=a7c9f70f-9a0d-416c-b8fd-c3c4e2af0fcb","ios":"levelo://app?vid=a7c9f70f-9a0d-416c-b8fd-c3c4e2af0fcb"},"vehicle_type_id":"4","last_reported":1751904818,"current_range_meters":19600,"station_id":"st_cvj6r9ubvosntc0bgbag","pricing_plan_id":"cebpf4jnsgd1na2vs0mg"},{"bike_id":"801010f3-3933-4c1e-b9e2-ddb04e16be7c","system_id":"levelo_inurba_marseille","lat":43.29944,"lon":5.36532,"is_reserved":false,"is_disabled":false,"rental_uris":{"android":"levelo://app?vid=801010f3-3933-4c1e-b9e2-ddb04e16be7c","ios":"levelo://app?vid=801010f3-3933-4c1e-b9e2-ddb04e16be7c"},"vehicle_type_id":"4","last_reported":1751904818,"current_range_meters":20000,"station_id":"ce4bgm92rcd13ifvqbr0","pricing_plan_id":"cebpf4jnsgd1na2vs0mg"},{"bike_id":"fc52a1d7-1b04-47c4-8a12-9adb7e677289","system_id":"levelo_inurba_marseille","lat":43.28453,"lon":5.359,"is_reserved":false,"is_disabled":false,"rental_uris":{"android":"levelo://app?vid=fc52a1d7-1b04-47c4-8a12-9adb7e677289","ios":"levelo://app?vid=fc52a1d7-1b04-47c4-8a12-9adb7e677289"},"vehicle_type_id":"4","last_reported":1751904818,"current_range_meters":20000,"station_id":"ce4bhah2rcd13ifvqei0","pricing_plan_id":"cebpf4jnsgd1na2vs0mg"},{"bike_id":"87b46f9d-0d89-48e6-866d-12eb9ae69e76","system_id":"levelo_inurba_marseille","lat":43.284241,"lon":5.34987,"is_reserved":false,"is_disabled":false,"rental_uris":{"android":"levelo://app?vid=87b46f9d-0d89-48e6-866d-12eb9ae69e76","ios":"levelo://app?vid=87b46f9d-0d89-48e6-866d-12eb9ae69e76"},"vehicle_type_id":"4","last_reported":1751904818,"current_range_meters":20000,"station_id":"ce4bhb12rcd13ifvqel0","pricing_plan_id":"cebpf4jnsgd1na2vs0mg"},{"bike_id":"0cc3231e-ffee-4111-bbf5-1fd80b1e8f64","system_id":"levelo_inurba_marseille","lat":43.288607,"lon":5.35843,"is_reserved":false,"is_disabled":false,"rental_uris":{"android":"levelo://app?vid=0cc3231e-ffee-4111-bbf5-1fd80b1e8f64","ios":"levelo://app?vid=0cc3231e-ffee-4111-bbf5-1fd80b1e8f64"},"vehicle_type_id":"4","last_reported":1751904818,"current_range_meters":20000,"station_id":"ce4bhb12rcd13ifvqem0","pricing_plan_id":"cebpf4jnsgd1na2vs0mg"},{"bike_id":"d2668446-d88a-4603-bb70-2818f226d6ed","system_id":"levelo_inurba_marseille","lat":43.27916,"lon":5.39577,"is_reserved":false,"is_disabled":false,"rental_uris":{"android":"levelo://app?vid=d2668446-d88a-4603-bb70-2818f226d6ed","ios":"levelo://app?vid=d2668446-d88a-4603-bb70-2818f226d6ed"},"vehicle_type_id":"4","last_reported":1751904818,"current_range_meters":20000,"station_id":"ce4bhf92rcd13ifvqf40","pricing_plan_id":"cebpf4jnsgd1na2vs0mg"},{"bike_id":"52688825-f4d7-4e9a-827f-efecf9584e95","system_id":"levelo_inurba_marseille","lat":43.23966,"lon":5.36632,"is_reserved":false,"is_disabled":false,"rental_uris":{"android":"levelo://app?vid=52688825-f4d7-4e9a-827f-efecf9584e95","ios":"levelo://app?vid=52688825-f4d7-4e9a-827f-efecf9584e95"},"vehicle_type_id":"4","last_reported":1751904818,"current_range_meters":20000,"station_id":"ce4bhi12rcd13ifvqfp0","pricing_plan_id":"cebpf4jnsgd1na2vs0mg"},{"bike_id":"35d41f41-e942-42c5-97f1-40ccdd96f7a4","system_id":"levelo_inurba_marseille","lat":43.212017,"lon":5.350796,"is_reserved":false,"is_disabled":false,"rental_uris":{"android":"levelo://app?vid=35d41f41-e942-42c5-97f1-40ccdd96f7a4","ios":"levelo://app?vid=35d41f41-e942-42c5-97f1-40ccdd96f7a4"},"vehicle_type_id":"4","last_reported":1751904818,"current_range_meters":20000,"station_id":"st_cvj6sg6p6f1abm77japg","pricing_plan_id":"cebpf4jnsgd1na2vs0mg"},{"bike_id":"ea7df389-5dc0-4c58-88fe-80a5af035925","system_id":"levelo_inurba_marseille","lat":43.29846,"lon":5.36421,"is_reserved":false,"is_disabled":false,"rental_uris":{"android":"levelo://app?vid=ea7df389-5dc0-4c58-88fe-80a5af035925","ios":"levelo://app?vid=ea7df389-5dc0-4c58-88fe-80a5af035925"},"vehicle_type_id":"4","last_reported":1751904818,"current_range_meters":20800,"station_id":"","pricing_plan_id":"cebpf4jnsgd1na2vs0mg"},{"bike_id":"7707ca73-35c8-4acf-9906-39b802222140","system_id":"levelo_inurba_marseille","lat":43.28703,"lon":5.37393,"is_reserved":false,"is_disabled":false,"rental_uris":{"android":"levelo://app?vid=7707ca73-35c8-4acf-9906-39b802222140","ios":"levelo://app?vid=7707ca73-35c8-4acf-9906-39b802222140"},"vehicle_type_id":"4","last_reported":1751904818,"current_range_meters":20800,"station_id":"ce4bh3p2rcd13ifvqdq0","pricing_plan_id":"cebpf4jnsgd1na2vs0mg"},{"bike_id":"f773ebc2-8912-4539-9156-9719f3ff1e1d","system_id":"levelo_inurba_marseille","lat":43.2841,"lon":5.34996,"is_reserved":false,"is_disabled":false,"rental_uris":{"android":"levelo://app?vid=f773ebc2-8912-4539-9156-9719f3ff1e1d","ios":"levelo://app?vid=f773ebc2-8912-4539-9156-9719f3ff1e1d"},"vehicle_type_id":"4","last_reported":1751904818,"current_range_meters":20800,"station_id":"ce4bhbh2rcd13ifvqepg","pricing_plan_id":"cebpf4jnsgd1na2vs0mg"},{"bike_id":"da3c16a7-1722-44ec-a60c-bdcaac1fbdad","system_id":"levelo_inurba_marseille","lat":43.28625,"lon":5.35105,"is_reserved":false,"is_disabled":false,"rental_uris":{"android":"levelo://app?vid=da3c16a7-1722-44ec-a60c-bdcaac1fbdad","ios":"levelo://app?vid=da3c16a7-1722-44ec-a60c-bdcaac1fbdad"},"vehicle_type_id":"4","last_reported":1751904818,"current_range_meters":20800,"station_id":"ce4bhch2rcd13ifvqeug","pricing_plan_id":"cebpf4jnsgd1na2vs0mg"},{"bike_id":"92c6a9d9-2b7f-4402-84f4-471caf5ebfd6","system_id":"levelo_inurba_marseille","lat":43.24658,"lon":5.38161,"is_reserved":false,"is_disabled":false,"rental_uris":{"android":"levelo://app?vid=92c6a9d9-2b7f-4402-84f4-471caf5ebfd6","ios":"levelo://app?vid=92c6a9d9-2b7f-4402-84f4-471caf5ebfd6"},"vehicle_type_id":"4","last_reported":1751904818,"current_range_meters":20800,"station_id":"ce4bhih2rcd13ifvqfr0","pricing_plan_id":"cebpf4jnsgd1na2vs0mg"},{"bike_id":"49ed7bda-465b-47ad-8f5e-76769a5d169c","system_id":"levelo_inurba_marseille","lat":43.24071,"lon":5.37752,"is_reserved":false,"is_disabled":false,"rental_uris":{"android":"levelo://app?vid=49ed7bda-465b-47ad-8f5e-76769a5d169c","ios":"levelo://app?vid=49ed7bda-465b-47ad-8f5e-76769a5d169c"},"vehicle_type_id":"4","last_reported":1751904818,"current_range_meters":20800,"station_id":"ce4bhnp2rcd13ifvqgvg","pricing_plan_id":"cebpf4jnsgd1na2vs0mg"},{"bike_id":"b287377f-3d0b-47ac-86fe-9e0dfc1563de","system_id":"levelo_inurba_marseille","lat":43.22509,"lon":5.34764,"is_reserved":false,"is_disabled":false,"rental_uris":{"android":"levelo://app?vid=b287377f-3d0b-47ac-86fe-9e0dfc1563de","ios":"levelo://app?vid=b287377f-3d0b-47ac-86fe-9e0dfc1563de"},"vehicle_type_id":"4","last_reported":1751904818,"current_range_meters":20800,"station_id":"st_cvj5dfep6f1abm77gieg","pricing_plan_id":"cebpf4jnsgd1na2vs0mg"},{"bike_id":"4b3b8476-2898-433d-8d4f-e9eeb1b68b7f","system_id":"levelo_inurba_marseille","lat":43.30545,"lon":5.36555,"is_reserved":false,"is_disabled":false,"rental_uris":{"android":"levelo://app?vid=4b3b8476-2898-433d-8d4f-e9eeb1b68b7f","ios":"levelo://app?vid=4b3b8476-2898-433d-8d4f-e9eeb1b68b7f"},"vehicle_type_id":"4","last_reported":1751904818,"current_range_meters":21600,"station_id":"ce4bgs12rcd13ifvqcag","pricing_plan_id":"cebpf4jnsgd1na2vs0mg"},{"bike_id":"ae357e56-7e55-48ea-9513-f715b059004f","system_id":"levelo_inurba_marseille","lat":43.29883,"lon":5.38929,"is_reserved":false,"is_disabled":false,"rental_uris":{"android":"levelo://app?vid=ae357e56-7e55-48ea-9513-f715b059004f","ios":"levelo://app?vid=ae357e56-7e55-48ea-9513-f715b059004f"},"vehicle_type_id":"4","last_reported":1751904818,"current_range_meters":21600,"station_id":"ce4bh392rcd13ifvqdl0","pricing_plan_id":"cebpf4jnsgd1na2vs0mg"},{"bike_id":"75ac2496-2dd6-4c9e-99ee-0fb10163afaa","system_id":"levelo_inurba_marseille","lat":43.28456,"lon":5.35889,"is_reserved":false,"is_disabled":false,"rental_uris":{"android":"levelo://app?vid=75ac2496-2dd6-4c9e-99ee-0fb10163afaa","ios":"levelo://app?vid=75ac2496-2dd6-4c9e-99ee-0fb10163afaa"},"vehicle_type_id":"4","last_reported":1751904818,"current_range_meters":21600,"station_id":"ce4bhah2rcd13ifvqei0","pricing_plan_id":"cebpf4jnsgd1na2vs0mg"},{"bike_id":"39ef1911-b504-4b50-bf2c-8fdd4b5840b2","system_id":"levelo_inurba_marseille","lat":43.27374,"lon":5.36249,"is_reserved":false,"is_disabled":false,"rental_uris":{"android":"levelo://app?vid=39ef1911-b504-4b50-bf2c-8fdd4b5840b2","ios":"levelo://app?vid=39ef1911-b504-4b50-bf2c-8fdd4b5840b2"},"vehicle_type_id":"4","last_reported":1751904818,"current_range_meters":21600,"station_id":"ce4bhbh2rcd13ifvqeo0","pricing_plan_id":"cebpf4jnsgd1na2vs0mg"},{"bike_id":"0131c550-b612-45bd-a506-bba22591f5e4","system_id":"levelo_inurba_marseille","lat":43.26927,"lon":5.38922,"is_reserved":false,"is_disabled":false,"rental_uris":{"android":"levelo://app?vid=0131c550-b612-45bd-a506-bba22591f5e4","ios":"levelo://app?vid=0131c550-b612-45bd-a506-bba22591f5e4"},"vehicle_type_id":"4","last_reported":1751904818,"current_range_meters":21600,"station_id":"ce4bhhh2rcd13ifvqfl0","pricing_plan_id":"cebpf4jnsgd1na2vs0mg"},{"bike_id":"01eefa69-41cf-4ef1-8741-21f87f1d39b3","system_id":"levelo_inurba_marseille","lat":43.28849,"lon":5.35849,"is_reserved":false,"is_disabled":false,"rental_uris":{"android":"levelo://app?vid=01eefa69-41cf-4ef1-8741-21f87f1d39b3","ios":"levelo://app?vid=01eefa69-41cf-4ef1-8741-21f87f1d39b3"},"vehicle_type_id":"4","last_reported":1751904818,"current_range_meters":22000,"station_id":"ce4bhb12rcd13ifvqem0","pricing_plan_id":"cebpf4jnsgd1na2vs0mg"},{"bike_id":"b7b3fd28-f832-495c-a917-2e780a627133","system_id":"levelo_inurba_marseille","lat":43.28153,"lon":5.42644,"is_reserved":false,"is_disabled":false,"rental_uris":{"android":"levelo://app?vid=b7b3fd28-f832-495c-a917-2e780a627133","ios":"levelo://app?vid=b7b3fd28-f832-495c-a917-2e780a627133"},"vehicle_type_id":"4","last_reported":1751904818,"current_range_meters":22000,"station_id":"ce4bhnh2rcd13ifvqgug","pricing_plan_id":"cebpf4jnsgd1na2vs0mg"},{"bike_id":"6ec6d991-05db-4193-a8b3-dcfd8f81ab5a","system_id":"levelo_inurba_marseille","lat":43.30204,"lon":5.37629,"is_reserved":false,"is_disabled":false,"rental_uris":{"android":"levelo://app?vid=6ec6d991-05db-4193-a8b3-dcfd8f81ab5a","ios":"levelo://app?vid=6ec6d991-05db-4193-a8b3-dcfd8f81ab5a"},"vehicle_type_id":"4","last_reported":1751904818,"current_range_meters":22400,"station_id":"","pricing_plan_id":"cebpf4jnsgd1na2vs0mg"},{"bike_id":"f5c16f07-bc6f-4121-91a7-5ad90eec4f34","system_id":"levelo_inurba_marseille","lat":43.31214,"lon":5.37322,"is_reserved":false,"is_disabled":false,"rental_uris":{"android":"levelo://app?vid=f5c16f07-bc6f-4121-91a7-5ad90eec4f34","ios":"levelo://app?vid=f5c16f07-bc6f-4121-91a7-5ad90eec4f34"},"vehicle_type_id":"4","last_reported":1751904818,"current_range_meters":22400,"station_id":"","pricing_plan_id":"cebpf4jnsgd1na2vs0mg"},{"bike_id":"347b526f-725d-4020-b24d-f161e386ef7d","system_id":"levelo_inurba_marseille","lat":43.30803,"lon":5.38163,"is_reserved":false,"is_disabled":false,"rental_uris":{"android":"levelo://app?vid=347b526f-725d-4020-b24d-f161e386ef7d","ios":"levelo://app?vid=347b526f-725d-4020-b24d-f161e386ef7d"},"vehicle_type_id":"4","last_reported":1751904818,"current_range_meters":22400,"station_id":"ce4bgt12rcd13ifvqce0","pricing_plan_id":"cebpf4jnsgd1na2vs0mg"},{"bike_id":"6d898e1b-ea8e-489a-b4d3-25334c2e12ef","system_id":"levelo_inurba_marseille","lat":43.27916,"lon":5.39579,"is_reserved":false,"is_disabled":false,"rental_uris":{"android":"levelo://app?vid=6d898e1b-ea8e-489a-b4d3-25334c2e12ef","ios":"levelo://app?vid=6d898e1b-ea8e-489a-b4d3-25334c2e12ef"},"vehicle_type_id":"4","last_reported":1751904818,"current_range_meters":22400,"station_id":"ce4bhf92rcd13ifvqf40","pricing_plan_id":"cebpf4jnsgd1na2vs0mg"},{"bike_id":"18ada8ec-1676-4f33-9f1c-e7b13948f3ee","system_id":"levelo_inurba_marseille","lat":43.21751,"lon":5.34597,"is_reserved":false,"is_disabled":false,"rental_uris":{"android":"levelo://app?vid=18ada8ec-1676-4f33-9f1c-e7b13948f3ee","ios":"levelo://app?vid=18ada8ec-1676-4f33-9f1c-e7b13948f3ee"},"vehicle_type_id":"4","last_reported":1751904818,"current_range_meters":22400,"station_id":"st_cvj6r9ubvosntc0bgbag","pricing_plan_id":"cebpf4jnsgd1na2vs0mg"},{"bike_id":"e4793d5e-b4cd-4c12-b9d4-446cb97752b9","system_id":"levelo_inurba_marseille","lat":43.292745,"lon":5.39054,"is_reserved":false,"is_disabled":false,"rental_uris":{"android":"levelo://app?vid=e4793d5e-b4cd-4c12-b9d4-446cb97752b9","ios":"levelo://app?vid=e4793d5e-b4cd-4c12-b9d4-446cb97752b9"},"vehicle_type_id":"4","last_reported":1751904818,"current_range_meters":22800,"station_id":"","pricing_plan_id":"cebpf4jnsgd1na2vs0mg"},{"bike_id":"7d189fb6-c2de-46be-aa41-a048bc00b4f1","system_id":"levelo_inurba_marseille","lat":43.296498,"lon":5.373725,"is_reserved":false,"is_disabled":false,"rental_uris":{"android":"levelo://app?vid=7d189fb6-c2de-46be-aa41-a048bc00b4f1","ios":"levelo://app?vid=7d189fb6-c2de-46be-aa41-a048bc00b4f1"},"vehicle_type_id":"4","last_reported":1751904818,"current_range_meters":22800,"station_id":"","pricing_plan_id":"cebpf4jnsgd1na2vs0mg"},{"bike_id":"d8127552-4074-43b9-a86a-00c41c4f2d34","system_id":"levelo_inurba_marseille","lat":43.294315,"lon":5.401685,"is_reserved":false,"is_disabled":false,"rental_uris":{"android":"levelo://app?vid=d8127552-4074-43b9-a86a-00c41c4f2d34","ios":"levelo://app?vid=d8127552-4074-43b9-a86a-00c41c4f2d34"},"vehicle_type_id":"4","last_reported":1751904818,"current_range_meters":22800,"station_id":"ce4bh0h2rcd13ifvqd40","pricing_plan_id":"cebpf4jnsgd1na2vs0mg"},{"bike_id":"72a13181-6d6d-40c1-a17a-8562d95d38ff","system_id":"levelo_inurba_marseille","lat":43.273736,"lon":5.362571,"is_reserved":false,"is_disabled":false,"rental_uris":{"android":"levelo://app?vid=72a13181-6d6d-40c1-a17a-8562d95d38ff","ios":"levelo://app?vid=72a13181-6d6d-40c1-a17a-8562d95d38ff"},"vehicle_type_id":"4","last_reported":1751904818,"current_range_meters":22800,"station_id":"ce4bhbh2rcd13ifvqeo0","pricing_plan_id":"cebpf4jnsgd1na2vs0mg"},{"bike_id":"cc1b2903-dac3-4bba-a0d6-c28034bf4a29","system_id":"levelo_inurba_marseille","lat":43.28423,"lon":5.3499,"is_reserved":false,"is_disabled":false,"rental_uris":{"android":"levelo://app?vid=cc1b2903-dac3-4bba-a0d6-c28034bf4a29","ios":"levelo://app?vid=cc1b2903-dac3-4bba-a0d6-c28034bf4a29"},"vehicle_type_id":"4","last_reported":1751904818,"current_range_meters":22800,"station_id":"ce4bhbh2rcd13ifvqepg","pricing_plan_id":"cebpf4jnsgd1na2vs0mg"},{"bike_id":"9acaf492-0aa9-4161-9004-ba225ab63f0b","system_id":"levelo_inurba_marseille","lat":43.27911,"lon":5.39579,"is_reserved":false,"is_disabled":false,"rental_uris":{"android":"levelo://app?vid=9acaf492-0aa9-4161-9004-ba225ab63f0b","ios":"levelo://app?vid=9acaf492-0aa9-4161-9004-ba225ab63f0b"},"vehicle_type_id":"4","last_reported":1751904818,"current_range_meters":22800,"station_id":"ce4bhf92rcd13ifvqf40","pricing_plan_id":"cebpf4jnsgd1na2vs0mg"},{"bike_id":"56eb3fdf-ea87-4fcf-85df-3680fa66363e","system_id":"levelo_inurba_marseille","lat":43.22504,"lon":5.34785,"is_reserved":false,"is_disabled":false,"rental_uris":{"android":"levelo://app?vid=56eb3fdf-ea87-4fcf-85df-3680fa66363e","ios":"levelo://app?vid=56eb3fdf-ea87-4fcf-85df-3680fa66363e"},"vehicle_type_id":"4","last_reported":1751904818,"current_range_meters":22800,"station_id":"st_cvj5dfep6f1abm77gieg","pricing_plan_id":"cebpf4jnsgd1na2vs0mg"},{"bike_id":"06feb6af-5eb5-49ba-8d41-8d2f4dbe1ee1","system_id":"levelo_inurba_marseille","lat":43.2994,"lon":5.36562,"is_reserved":false,"is_disabled":false,"rental_uris":{"android":"levelo://app?vid=06feb6af-5eb5-49ba-8d41-8d2f4dbe1ee1","ios":"levelo://app?vid=06feb6af-5eb5-49ba-8d41-8d2f4dbe1ee1"},"vehicle_type_id":"4","last_reported":1751904818,"current_range_meters":23200,"station_id":"","pricing_plan_id":"cebpf4jnsgd1na2vs0mg"},{"bike_id":"8449844b-e7d4-4a28-92aa-9f46bab26803","system_id":"levelo_inurba_marseille","lat":43.29708,"lon":5.36608,"is_reserved":false,"is_disabled":false,"rental_uris":{"android":"levelo://app?vid=8449844b-e7d4-4a28-92aa-9f46bab26803","ios":"levelo://app?vid=8449844b-e7d4-4a28-92aa-9f46bab26803"},"vehicle_type_id":"4","last_reported":1751904818,"current_range_meters":23200,"station_id":"ce4bgn12rcd13ifvqbt0","pricing_plan_id":"cebpf4jnsgd1na2vs0mg"},{"bike_id":"c2b72fe0-bae6-4c7b-ad48-9e771b203dc8","system_id":"levelo_inurba_marseille","lat":43.31358,"lon":5.38493,"is_reserved":false,"is_disabled":false,"rental_uris":{"android":"levelo://app?vid=c2b72fe0-bae6-4c7b-ad48-9e771b203dc8","ios":"levelo://app?vid=c2b72fe0-bae6-4c7b-ad48-9e771b203dc8"},"vehicle_type_id":"4","last_reported":1751904818,"current_range_meters":23200,"station_id":"ce4bgt92rcd13ifvqcf0","pricing_plan_id":"cebpf4jnsgd1na2vs0mg"},{"bike_id":"e5bc0dad-fdd4-4533-8af4-0b353ac73f82","system_id":"levelo_inurba_marseille","lat":43.28744,"lon":5.3608,"is_reserved":false,"is_disabled":false,"rental_uris":{"android":"levelo://app?vid=e5bc0dad-fdd4-4533-8af4-0b353ac73f82","ios":"levelo://app?vid=e5bc0dad-fdd4-4533-8af4-0b353ac73f82"},"vehicle_type_id":"4","last_reported":1751904818,"current_range_meters":23200,"station_id":"cki0cbj6b192h4jlfktg","pricing_plan_id":"cebpf4jnsgd1na2vs0mg"},{"bike_id":"1e91cee9-7d4a-458c-9805-68ef6c30eb40","system_id":"levelo_inurba_marseille","lat":43.21745,"lon":5.34608,"is_reserved":false,"is_disabled":false,"rental_uris":{"android":"levelo://app?vid=1e91cee9-7d4a-458c-9805-68ef6c30eb40","ios":"levelo://app?vid=1e91cee9-7d4a-458c-9805-68ef6c30eb40"},"vehicle_type_id":"4","last_reported":1751904818,"current_range_meters":23200,"station_id":"st_cvj6r9ubvosntc0bgbag","pricing_plan_id":"cebpf4jnsgd1na2vs0mg"},{"bike_id":"dd424475-1b09-4cb5-b79b-f20728299dd6","system_id":"levelo_inurba_marseille","lat":43.21194,"lon":5.35074,"is_reserved":false,"is_disabled":false,"rental_uris":{"android":"levelo://app?vid=dd424475-1b09-4cb5-b79b-f20728299dd6","ios":"levelo://app?vid=dd424475-1b09-4cb5-b79b-f20728299dd6"},"vehicle_type_id":"4","last_reported":1751904818,"current_range_meters":23200,"station_id":"st_cvj6sg6p6f1abm77japg","pricing_plan_id":"cebpf4jnsgd1na2vs0mg"},{"bike_id":"d0f90c24-dd03-411b-9731-55305f76b7c8","system_id":"levelo_inurba_marseille","lat":43.21194,"lon":5.35075,"is_reserved":false,"is_disabled":false,"rental_uris":{"android":"levelo://app?vid=d0f90c24-dd03-411b-9731-55305f76b7c8","ios":"levelo://app?vid=d0f90c24-dd03-411b-9731-55305f76b7c8"},"vehicle_type_id":"4","last_reported":1751904818,"current_range_meters":23200,"station_id":"st_cvj6sg6p6f1abm77japg","pricing_plan_id":"cebpf4jnsgd1na2vs0mg"},{"bike_id":"b2caa530-bb19-4cc6-a6bd-61e3e1d7432e","system_id":"levelo_inurba_marseille","lat":43.33763,"lon":5.37461,"is_reserved":false,"is_disabled":false,"rental_uris":{"android":"levelo://app?vid=b2caa530-bb19-4cc6-a6bd-61e3e1d7432e","ios":"levelo://app?vid=b2caa530-bb19-4cc6-a6bd-61e3e1d7432e"},"vehicle_type_id":"4","last_reported":1751904818,"current_range_meters":24000,"station_id":"","pricing_plan_id":"cebpf4jnsgd1na2vs0mg"},{"bike_id":"4bce306b-c412-4edc-b3b6-1a8e68eb07fb","system_id":"levelo_inurba_marseille","lat":43.30798,"lon":5.3816,"is_reserved":false,"is_disabled":false,"rental_uris":{"android":"levelo://app?vid=4bce306b-c412-4edc-b3b6-1a8e68eb07fb","ios":"levelo://app?vid=4bce306b-c412-4edc-b3b6-1a8e68eb07fb"},"vehicle_type_id":"4","last_reported":1751904818,"current_range_meters":24000,"station_id":"ce4bgt12rcd13ifvqce0","pricing_plan_id":"cebpf4jnsgd1na2vs0mg"},{"bike_id":"b31aad5b-3d9d-46df-b17f-252a9c5b72ed","system_id":"levelo_inurba_marseille","lat":43.29271,"lon":5.40901,"is_reserved":false,"is_disabled":false,"rental_uris":{"android":"levelo://app?vid=b31aad5b-3d9d-46df-b17f-252a9c5b72ed","ios":"levelo://app?vid=b31aad5b-3d9d-46df-b17f-252a9c5b72ed"},"vehicle_type_id":"4","last_reported":1751904818,"current_range_meters":24000,"station_id":"ce4bh192rcd13ifvqdc0","pricing_plan_id":"cebpf4jnsgd1na2vs0mg"},{"bike_id":"a514d0b5-0b91-46c1-9a80-14b7c94526d5","system_id":"levelo_inurba_marseille","lat":43.28948,"lon":5.36394,"is_reserved":false,"is_disabled":false,"rental_uris":{"android":"levelo://app?vid=a514d0b5-0b91-46c1-9a80-14b7c94526d5","ios":"levelo://app?vid=a514d0b5-0b91-46c1-9a80-14b7c94526d5"},"vehicle_type_id":"4","last_reported":1751904818,"current_range_meters":24000,"station_id":"ce4bhc92rcd13ifvqetg","pricing_plan_id":"cebpf4jnsgd1na2vs0mg"},{"bike_id":"83dbba05-deb8-49dc-8d3e-94d8c075d051","system_id":"levelo_inurba_marseille","lat":43.26561,"lon":5.39028,"is_reserved":false,"is_disabled":false,"rental_uris":{"android":"levelo://app?vid=83dbba05-deb8-49dc-8d3e-94d8c075d051","ios":"levelo://app?vid=83dbba05-deb8-49dc-8d3e-94d8c075d051"},"vehicle_type_id":"4","last_reported":1751904818,"current_range_meters":24000,"station_id":"ce4bhe12rcd13ifvqf30","pricing_plan_id":"cebpf4jnsgd1na2vs0mg"},{"bike_id":"94bcf33e-82ca-43a2-8282-77d86a0f06b7","system_id":"levelo_inurba_marseille","lat":43.2605,"lon":5.39396,"is_reserved":false,"is_disabled":false,"rental_uris":{"android":"levelo://app?vid=94bcf33e-82ca-43a2-8282-77d86a0f06b7","ios":"levelo://app?vid=94bcf33e-82ca-43a2-8282-77d86a0f06b7"},"vehicle_type_id":"4","last_reported":1751904818,"current_range_meters":24000,"station_id":"ce4bhh92rcd13ifvqfj0","pricing_plan_id":"cebpf4jnsgd1na2vs0mg"},{"bike_id":"266df3b8-00d5-4034-a2ae-976152e70090","system_id":"levelo_inurba_marseille","lat":43.24061,"lon":5.37767,"is_reserved":false,"is_disabled":false,"rental_uris":{"android":"levelo://app?vid=266df3b8-00d5-4034-a2ae-976152e70090","ios":"levelo://app?vid=266df3b8-00d5-4034-a2ae-976152e70090"},"vehicle_type_id":"4","last_reported":1751904818,"current_range_meters":24000,"station_id":"ce4bhnp2rcd13ifvqgvg","pricing_plan_id":"cebpf4jnsgd1na2vs0mg"},{"bike_id":"8a2956a7-64c7-4dc5-8644-a21ada237114","system_id":"levelo_inurba_marseille","lat":43.24076,"lon":5.37758,"is_reserved":false,"is_disabled":false,"rental_uris":{"android":"levelo://app?vid=8a2956a7-64c7-4dc5-8644-a21ada237114","ios":"levelo://app?vid=8a2956a7-64c7-4dc5-8644-a21ada237114"},"vehicle_type_id":"4","last_reported":1751904818,"current_range_meters":24000,"station_id":"ce4bhnp2rcd13ifvqgvg","pricing_plan_id":"cebpf4jnsgd1na2vs0mg"},{"bike_id":"8d7d2a5c-aa11-4174-b2cf-75134651f34e","system_id":"levelo_inurba_marseille","lat":43.30799,"lon":5.43525,"is_reserved":false,"is_disabled":false,"rental_uris":{"android":"levelo://app?vid=8d7d2a5c-aa11-4174-b2cf-75134651f34e","ios":"levelo://app?vid=8d7d2a5c-aa11-4174-b2cf-75134651f34e"},"vehicle_type_id":"4","last_reported":1751904818,"current_range_meters":24000,"station_id":"ce4bhph2rcd13ifvqheg","pricing_plan_id":"cebpf4jnsgd1na2vs0mg"},{"bike_id":"b6d9b946-f66a-4c6f-96e5-5d23e176360c","system_id":"levelo_inurba_marseille","lat":43.3129,"lon":5.38193,"is_reserved":false,"is_disabled":false,"rental_uris":{"android":"levelo://app?vid=b6d9b946-f66a-4c6f-96e5-5d23e176360c","ios":"levelo://app?vid=b6d9b946-f66a-4c6f-96e5-5d23e176360c"},"vehicle_type_id":"4","last_reported":1751904818,"current_range_meters":24400,"station_id":"","pricing_plan_id":"cebpf4jnsgd1na2vs0mg"},{"bike_id":"786ba7b8-ab7e-4386-b568-0367c772d553","system_id":"levelo_inurba_marseille","lat":43.29695,"lon":5.36603,"is_reserved":false,"is_disabled":false,"rental_uris":{"android":"levelo://app?vid=786ba7b8-ab7e-4386-b568-0367c772d553","ios":"levelo://app?vid=786ba7b8-ab7e-4386-b568-0367c772d553"},"vehicle_type_id":"4","last_reported":1751904818,"current_range_meters":24400,"station_id":"ce4bgn12rcd13ifvqbt0","pricing_plan_id":"cebpf4jnsgd1na2vs0mg"},{"bike_id":"4d204027-e58f-4770-9c2e-43b395582ed1","system_id":"levelo_inurba_marseille","lat":43.30926,"lon":5.40154,"is_reserved":false,"is_disabled":false,"rental_uris":{"android":"levelo://app?vid=4d204027-e58f-4770-9c2e-43b395582ed1","ios":"levelo://app?vid=4d204027-e58f-4770-9c2e-43b395582ed1"},"vehicle_type_id":"4","last_reported":1751904818,"current_range_meters":24400,"station_id":"ce4bgvp2rcd13ifvqct0","pricing_plan_id":"cebpf4jnsgd1na2vs0mg"},{"bike_id":"b8eafbcc-ab5f-4174-a60a-71da1290c240","system_id":"levelo_inurba_marseille","lat":43.28279,"lon":5.35087,"is_reserved":false,"is_disabled":false,"rental_uris":{"android":"levelo://app?vid=b8eafbcc-ab5f-4174-a60a-71da1290c240","ios":"levelo://app?vid=b8eafbcc-ab5f-4174-a60a-71da1290c240"},"vehicle_type_id":"4","last_reported":1751904818,"current_range_meters":24400,"station_id":"ce4bhbp2rcd13ifvqerg","pricing_plan_id":"cebpf4jnsgd1na2vs0mg"},{"bike_id":"833d2b0f-34c3-41c9-9c20-d9cf3aba15ce","system_id":"levelo_inurba_marseille","lat":43.26061,"lon":5.3939,"is_reserved":false,"is_disabled":false,"rental_uris":{"android":"levelo://app?vid=833d2b0f-34c3-41c9-9c20-d9cf3aba15ce","ios":"levelo://app?vid=833d2b0f-34c3-41c9-9c20-d9cf3aba15ce"},"vehicle_type_id":"4","last_reported":1751904818,"current_range_meters":24400,"station_id":"ce4bhh92rcd13ifvqfj0","pricing_plan_id":"cebpf4jnsgd1na2vs0mg"},{"bike_id":"d8013721-56b7-480a-a738-be5fd073071e","system_id":"levelo_inurba_marseille","lat":43.24666,"lon":5.38164,"is_reserved":false,"is_disabled":false,"rental_uris":{"android":"levelo://app?vid=d8013721-56b7-480a-a738-be5fd073071e","ios":"levelo://app?vid=d8013721-56b7-480a-a738-be5fd073071e"},"vehicle_type_id":"4","last_reported":1751904818,"current_range_meters":24400,"station_id":"ce4bhih2rcd13ifvqfr0","pricing_plan_id":"cebpf4jnsgd1na2vs0mg"},{"bike_id":"697d5fc4-b988-4a4e-8323-c1ce5ed61a61","system_id":"levelo_inurba_marseille","lat":43.21197,"lon":5.3512,"is_reserved":false,"is_disabled":false,"rental_uris":{"android":"levelo://app?vid=697d5fc4-b988-4a4e-8323-c1ce5ed61a61","ios":"levelo://app?vid=697d5fc4-b988-4a4e-8323-c1ce5ed61a61"},"vehicle_type_id":"4","last_reported":1751904818,"current_range_meters":24400,"station_id":"st_cvj6sg6p6f1abm77japg","pricing_plan_id":"cebpf4jnsgd1na2vs0mg"},{"bike_id":"320f2a33-deaa-4e0a-a3d5-c39ce8ad680a","system_id":"levelo_inurba_marseille","lat":43.315528,"lon":5.374466,"is_reserved":false,"is_disabled":false,"rental_uris":{"android":"levelo://app?vid=320f2a33-deaa-4e0a-a3d5-c39ce8ad680a","ios":"levelo://app?vid=320f2a33-deaa-4e0a-a3d5-c39ce8ad680a"},"vehicle_type_id":"4","last_reported":1751904818,"current_range_meters":24800,"station_id":"","pricing_plan_id":"cebpf4jnsgd1na2vs0mg"},{"bike_id":"882fbe30-5052-4b96-a16b-d071975545e1","system_id":"levelo_inurba_marseille","lat":43.29615,"lon":5.37731,"is_reserved":false,"is_disabled":false,"rental_uris":{"android":"levelo://app?vid=882fbe30-5052-4b96-a16b-d071975545e1","ios":"levelo://app?vid=882fbe30-5052-4b96-a16b-d071975545e1"},"vehicle_type_id":"4","last_reported":1751904818,"current_range_meters":24800,"station_id":"ce4bgi92rcd13ifvqb90","pricing_plan_id":"cebpf4jnsgd1na2vs0mg"},{"bike_id":"ebefc63b-748b-4cfc-b1d7-e5f431e29aea","system_id":"levelo_inurba_marseille","lat":43.30946,"lon":5.39032,"is_reserved":false,"is_disabled":false,"rental_uris":{"android":"levelo://app?vid=ebefc63b-748b-4cfc-b1d7-e5f431e29aea","ios":"levelo://app?vid=ebefc63b-748b-4cfc-b1d7-e5f431e29aea"},"vehicle_type_id":"4","last_reported":1751904818,"current_range_meters":24800,"station_id":"ce4bgup2rcd13ifvqco0","pricing_plan_id":"cebpf4jnsgd1na2vs0mg"},{"bike_id":"4602b4d5-fb0f-4088-8c71-02f297e1f5a5","system_id":"levelo_inurba_marseille","lat":43.2885,"lon":5.39322,"is_reserved":false,"is_disabled":false,"rental_uris":{"android":"levelo://app?vid=4602b4d5-fb0f-4088-8c71-02f297e1f5a5","ios":"levelo://app?vid=4602b4d5-fb0f-4088-8c71-02f297e1f5a5"},"vehicle_type_id":"4","last_reported":1751904818,"current_range_meters":24800,"station_id":"ce4bh2p2rcd13ifvqdi0","pricing_plan_id":"cebpf4jnsgd1na2vs0mg"},{"bike_id":"ad432de7-9523-40ba-9b6a-2a3423d37d7c","system_id":"levelo_inurba_marseille","lat":43.28614,"lon":5.351094,"is_reserved":false,"is_disabled":false,"rental_uris":{"android":"levelo://app?vid=ad432de7-9523-40ba-9b6a-2a3423d37d7c","ios":"levelo://app?vid=ad432de7-9523-40ba-9b6a-2a3423d37d7c"},"vehicle_type_id":"4","last_reported":1751904818,"current_range_meters":24800,"station_id":"ce4bhch2rcd13ifvqeug","pricing_plan_id":"cebpf4jnsgd1na2vs0mg"},{"bike_id":"6fd8c4d8-d8e8-4c1a-85b2-3b8b9c6b7841","system_id":"levelo_inurba_marseille","lat":43.24661,"lon":5.3816,"is_reserved":false,"is_disabled":false,"rental_uris":{"android":"levelo://app?vid=6fd8c4d8-d8e8-4c1a-85b2-3b8b9c6b7841","ios":"levelo://app?vid=6fd8c4d8-d8e8-4c1a-85b2-3b8b9c6b7841"},"vehicle_type_id":"4","last_reported":1751904818,"current_range_meters":24800,"station_id":"ce4bhih2rcd13ifvqfr0","pricing_plan_id":"cebpf4jnsgd1na2vs0mg"},{"bike_id":"4dd8771f-8de7-4d22-8525-dd86faaf4cad","system_id":"levelo_inurba_marseille","lat":43.23185,"lon":5.39992,"is_reserved":false,"is_disabled":false,"rental_uris":{"android":"levelo://app?vid=4dd8771f-8de7-4d22-8525-dd86faaf4cad","ios":"levelo://app?vid=4dd8771f-8de7-4d22-8525-dd86faaf4cad"},"vehicle_type_id":"4","last_reported":1751904818,"current_range_meters":24800,"station_id":"ce4bhn12rcd13ifvqgqg","pricing_plan_id":"cebpf4jnsgd1na2vs0mg"},{"bike_id":"c644ed47-4912-45f2-a70b-498427133b7c","system_id":"levelo_inurba_marseille","lat":43.2808,"lon":5.3966,"is_reserved":false,"is_disabled":false,"rental_uris":{"android":"levelo://app?vid=c644ed47-4912-45f2-a70b-498427133b7c","ios":"levelo://app?vid=c644ed47-4912-45f2-a70b-498427133b7c"},"vehicle_type_id":"4","last_reported":1751904818,"current_range_meters":24800,"station_id":"ce4bho12rcd13ifvqh2g","pricing_plan_id":"cebpf4jnsgd1na2vs0mg"},{"bike_id":"94c3b36c-69e3-4f66-84ff-f2b8f011dec1","system_id":"levelo_inurba_marseille","lat":43.29553,"lon":5.42292,"is_reserved":false,"is_disabled":false,"rental_uris":{"android":"levelo://app?vid=94c3b36c-69e3-4f66-84ff-f2b8f011dec1","ios":"levelo://app?vid=94c3b36c-69e3-4f66-84ff-f2b8f011dec1"},"vehicle_type_id":"4","last_reported":1751904818,"current_range_meters":24800,"station_id":"ce4bhph2rcd13ifvqhdg","pricing_plan_id":"cebpf4jnsgd1na2vs0mg"},{"bike_id":"b28aa0a0-791c-4a08-9a16-c7bf6ea0ed5a","system_id":"levelo_inurba_marseille","lat":43.22539,"lon":5.34786,"is_reserved":false,"is_disabled":false,"rental_uris":{"android":"levelo://app?vid=b28aa0a0-791c-4a08-9a16-c7bf6ea0ed5a","ios":"levelo://app?vid=b28aa0a0-791c-4a08-9a16-c7bf6ea0ed5a"},"vehicle_type_id":"4","last_reported":1751904818,"current_range_meters":24800,"station_id":"st_cvj5dfep6f1abm77gieg","pricing_plan_id":"cebpf4jnsgd1na2vs0mg"},{"bike_id":"999f2a33-af15-4ca0-853a-d2550f2d6574","system_id":"levelo_inurba_marseille","lat":43.23452,"lon":5.35933,"is_reserved":false,"is_disabled":false,"rental_uris":{"android":"levelo://app?vid=999f2a33-af15-4ca0-853a-d2550f2d6574","ios":"levelo://app?vid=999f2a33-af15-4ca0-853a-d2550f2d6574"},"vehicle_type_id":"4","last_reported":1751904818,"current_range_meters":25200,"station_id":"","pricing_plan_id":"cebpf4jnsgd1na2vs0mg"},{"bike_id":"fd2095ad-cce6-410f-b9a7-c1db2c6b3d52","system_id":"levelo_inurba_marseille","lat":43.27648,"lon":5.36556,"is_reserved":false,"is_disabled":false,"rental_uris":{"android":"levelo://app?vid=fd2095ad-cce6-410f-b9a7-c1db2c6b3d52","ios":"levelo://app?vid=fd2095ad-cce6-410f-b9a7-c1db2c6b3d52"},"vehicle_type_id":"4","last_reported":1751904818,"current_range_meters":25200,"station_id":"","pricing_plan_id":"cebpf4jnsgd1na2vs0mg"},{"bike_id":"24e6a998-c0ce-4663-a8f0-26705af34ead","system_id":"levelo_inurba_marseille","lat":43.231229,"lon":5.363243,"is_reserved":false,"is_disabled":false,"rental_uris":{"android":"levelo://app?vid=24e6a998-c0ce-4663-a8f0-26705af34ead","ios":"levelo://app?vid=24e6a998-c0ce-4663-a8f0-26705af34ead"},"vehicle_type_id":"4","last_reported":1751904818,"current_range_meters":25200,"station_id":"","pricing_plan_id":"cebpf4jnsgd1na2vs0mg"},{"bike_id":"41e4d7dc-0914-46e5-b94c-56fdf83964cf","system_id":"levelo_inurba_marseille","lat":43.2762,"lon":5.36107,"is_reserved":false,"is_disabled":false,"rental_uris":{"android":"levelo://app?vid=41e4d7dc-0914-46e5-b94c-56fdf83964cf","ios":"levelo://app?vid=41e4d7dc-0914-46e5-b94c-56fdf83964cf"},"vehicle_type_id":"4","last_reported":1751904818,"current_range_meters":25200,"station_id":"ce4bgj92rcd13ifvqbe0","pricing_plan_id":"cebpf4jnsgd1na2vs0mg"},{"bike_id":"94f124f5-0f14-4552-aaaa-c757f849f483","system_id":"levelo_inurba_marseille","lat":43.30328,"lon":5.404365,"is_reserved":false,"is_disabled":false,"rental_uris":{"android":"levelo://app?vid=94f124f5-0f14-4552-aaaa-c757f849f483","ios":"levelo://app?vid=94f124f5-0f14-4552-aaaa-c757f849f483"},"vehicle_type_id":"4","last_reported":1751904818,"current_range_meters":25200,"station_id":"ce4bh012rcd13ifvqd10","pricing_plan_id":"cebpf4jnsgd1na2vs0mg"},{"bike_id":"a9ff70ea-93fe-4c89-8209-150167a92a05","system_id":"levelo_inurba_marseille","lat":43.28942,"lon":5.39627,"is_reserved":false,"is_disabled":false,"rental_uris":{"android":"levelo://app?vid=a9ff70ea-93fe-4c89-8209-150167a92a05","ios":"levelo://app?vid=a9ff70ea-93fe-4c89-8209-150167a92a05"},"vehicle_type_id":"4","last_reported":1751904818,"current_range_meters":25200,"station_id":"ce4bh3h2rcd13ifvqdn0","pricing_plan_id":"cebpf4jnsgd1na2vs0mg"},{"bike_id":"9925ab80-041e-47ff-8a2b-acb8bbcd7d2d","system_id":"levelo_inurba_marseille","lat":43.28432,"lon":5.34977,"is_reserved":false,"is_disabled":false,"rental_uris":{"android":"levelo://app?vid=9925ab80-041e-47ff-8a2b-acb8bbcd7d2d","ios":"levelo://app?vid=9925ab80-041e-47ff-8a2b-acb8bbcd7d2d"},"vehicle_type_id":"4","last_reported":1751904818,"current_range_meters":25200,"station_id":"ce4bhbh2rcd13ifvqepg","pricing_plan_id":"cebpf4jnsgd1na2vs0mg"},{"bike_id":"c2c7e44d-241b-4841-a52e-18c1c69fcaa5","system_id":"levelo_inurba_marseille","lat":43.317124,"lon":5.437088,"is_reserved":false,"is_disabled":false,"rental_uris":{"android":"levelo://app?vid=c2c7e44d-241b-4841-a52e-18c1c69fcaa5","ios":"levelo://app?vid=c2c7e44d-241b-4841-a52e-18c1c69fcaa5"},"vehicle_type_id":"4","last_reported":1751904818,"current_range_meters":25200,"station_id":"ce4bhp92rcd13ifvqhcg","pricing_plan_id":"cebpf4jnsgd1na2vs0mg"},{"bike_id":"07c168bd-5cb9-4377-8c7c-b5f833a2b88b","system_id":"levelo_inurba_marseille","lat":43.32288,"lon":5.38266,"is_reserved":false,"is_disabled":false,"rental_uris":{"android":"levelo://app?vid=07c168bd-5cb9-4377-8c7c-b5f833a2b88b","ios":"levelo://app?vid=07c168bd-5cb9-4377-8c7c-b5f833a2b88b"},"vehicle_type_id":"4","last_reported":1751904818,"current_range_meters":25200,"station_id":"ce4bhr12rcd13ifvqhqg","pricing_plan_id":"cebpf4jnsgd1na2vs0mg"},{"bike_id":"7165b186-4736-4db7-88ee-de9b9293cc89","system_id":"levelo_inurba_marseille","lat":43.31975,"lon":5.36996,"is_reserved":false,"is_disabled":false,"rental_uris":{"android":"levelo://app?vid=7165b186-4736-4db7-88ee-de9b9293cc89","ios":"levelo://app?vid=7165b186-4736-4db7-88ee-de9b9293cc89"},"vehicle_type_id":"4","last_reported":1751904818,"current_range_meters":25600,"station_id":"","pricing_plan_id":"cebpf4jnsgd1na2vs0mg"},{"bike_id":"b16656ef-491d-4a37-8ddc-0603ee161d7b","system_id":"levelo_inurba_marseille","lat":43.23133,"lon":5.36608,"is_reserved":false,"is_disabled":false,"rental_uris":{"android":"levelo://app?vid=b16656ef-491d-4a37-8ddc-0603ee161d7b","ios":"levelo://app?vid=b16656ef-491d-4a37-8ddc-0603ee161d7b"},"vehicle_type_id":"4","last_reported":1751904818,"current_range_meters":25600,"station_id":"","pricing_plan_id":"cebpf4jnsgd1na2vs0mg"},{"bike_id":"6de89680-5458-4259-89df-7265a9df224a","system_id":"levelo_inurba_marseille","lat":43.30542,"lon":5.38427,"is_reserved":false,"is_disabled":false,"rental_uris":{"android":"levelo://app?vid=6de89680-5458-4259-89df-7265a9df224a","ios":"levelo://app?vid=6de89680-5458-4259-89df-7265a9df224a"},"vehicle_type_id":"4","last_reported":1751904818,"current_range_meters":25600,"station_id":"ce4bgg92rcd13ifvqb30","pricing_plan_id":"cebpf4jnsgd1na2vs0mg"},{"bike_id":"b5de011b-98c0-4912-ad2c-ee47b051a310","system_id":"levelo_inurba_marseille","lat":43.30429,"lon":5.38887,"is_reserved":false,"is_disabled":false,"rental_uris":{"android":"levelo://app?vid=b5de011b-98c0-4912-ad2c-ee47b051a310","ios":"levelo://app?vid=b5de011b-98c0-4912-ad2c-ee47b051a310"},