{"last_updated":1726071027,"ttl":30,"version":"2.2","data":{"bikes":[{"bike_id":"588a92d1-b353-41b2-9133-3da27562c333","system_id":"levelo_inurba_marseille","lat":43.26569,"lon":5.37272,"is_reserved":false,"is_disabled":false,"rental_uris":{"android":"levelo://app?vid=588a92d1-b353-41b2-9133-3da27562c333","ios":"levelo://app?vid=588a92d1-b353-41b2-9133-3da27562c333"},"vehicle_type_id":"4","last_reported":1726071028,"current_range_meters":37600,"station_id":"ce4bhg12rcd13ifvqf70","pricing_plan_id":"cebpf4jnsgd1na2vs0mg"},{"bike_id":"e47608f5-fb77-4c87-8859-8546754d7a53","system_id":"levelo_inurba_marseille","lat":43.25728,"lon":5.41107,"is_reserved":false,"is_disabled":false,"rental_uris":{"android":"levelo://app?vid=e47608f5-fb77-4c87-8859-8546754d7a53","ios":"levelo://app?vid=e47608f5-fb77-4c87-8859-8546754d7a53"},"vehicle_type_id":"4","last_reported":1726071028,"current_range_meters":8800,"station_id":"ce4bhkp2rcd13ifvqgd0","pricing_plan_id":"cebpf4jnsgd1na2vs0mg"},{"bike_id":"ac791e3e-bed6-4b58-b4d6-25288193f468","system_id":"levelo_inurba_marseille","lat":43.26211,"lon":5.37441,"is_reserved":false,"is_disabled":false,"rental_uris":{"android":"levelo://app?vid=ac791e3e-bed6-4b58-b4d6-25288193f468","ios":"levelo://app?vid=ac791e3e-bed6-4b58-b4d6-25288193f468"},"vehicle_type_id":"4","last_reported":1726071028,"current_range_meters":23200,"station_id":"ce4bhgp2rcd13ifvqfc0","pricing_plan_id":"cebpf4jnsgd1na2vs0mg"},{"bike_id":"83e1be90-c0fb-45d7-9666-56c30f67d305","system_id":"levelo_inurba_marseille","lat":43.2843,"lon":5.34979,"is_reserved":false,"is_disabled":false,"rental_uris":{"android":"levelo://app?vid=83e1be90-c0fb-45d7-9666-56c30f67d305","ios":"levelo://app?vid=83e1be90-c0fb-45d7-9666-56c30f67d305"},"vehicle_type_id":"4","last_reported":1726071028,"current_range_meters":36400,"station_id":"ce4bhbh2rcd13ifvqepg","pricing_plan_id":"cebpf4jnsgd1na2vs0mg"},{"bike_id":"ea2ddb7b-9622-4f69-a771-c53556b72d68","system_id":"levelo_inurba_marseille","lat":43.25083,"lon":5.39519,"is_reserved":false,"is_disabled":false,"rental_uris":{"android":"levelo://app?vid=ea2ddb7b-9622-4f69-a771-c53556b72d68","ios":"levelo://app?vid=ea2ddb7b-9622-4f69-a771-c53556b72d68"},"vehicle_type_id":"4","last_reported":1726071028,"current_range_meters":39200,"station_id":"ce4bhm12rcd13ifvqgkg","pricing_plan_id":"cebpf4jnsgd1na2vs0mg"},{"bike_id":"b2209165-0dc0-40e8-a828-b20400ca6442","system_id":"levelo_inurba_marseille","lat":43.30419,"lon":5.41289,"is_reserved":false,"is_disabled":false,"rental_uris":{"android":"levelo://app?vid=b2209165-0dc0-40e8-a828-b20400ca6442","ios":"levelo://app?vid=b2209165-0dc0-40e8-a828-b20400ca6442"},"vehicle_type_id":"4","last_reported":1726071028,"current_range_meters":28800,"station_id":"ce4bhop2rcd13ifvqh8g","pricing_plan_id":"cebpf4jnsgd1na2vs0mg"},{"bike_id":"49ce5143-0bf9-474b-ac98-b3caa6f0941c","system_id":"levelo_inurba_marseille","lat":43.28616,"lon":5.35101,"is_reserved":false,"is_disabled":false,"rental_uris":{"android":"levelo://app?vid=49ce5143-0bf9-474b-ac98-b3caa6f0941c","ios":"levelo://app?vid=49ce5143-0bf9-474b-ac98-b3caa6f0941c"},"vehicle_type_id":"4","last_reported":1726071028,"current_range_meters":17200,"station_id":"ce4bhch2rcd13ifvqeug","pricing_plan_id":"cebpf4jnsgd1na2vs0mg"},{"bike_id":"3007fa08-9fa0-4eae-a511-94a61c70b12f","system_id":"levelo_inurba_marseille","lat":43.31489,"lon":5.37304,"is_reserved":false,"is_disabled":false,"rental_uris":{"android":"levelo://app?vid=3007fa08-9fa0-4eae-a511-94a61c70b12f","ios":"levelo://app?vid=3007fa08-9fa0-4eae-a511-94a61c70b12f"},"vehicle_type_id":"4","last_reported":1726071028,"current_range_meters":6400,"station_id":"ce4bgt12rcd13ifvqcd0","pricing_plan_id":"cebpf4jnsgd1na2vs0mg"},{"bike_id":"f90da357-2380-42d5-8063-35c97d25011a","system_id":"levelo_inurba_marseille","lat":43.294222,"lon":5.3862,"is_reserved":false,"is_disabled":false,"rental_uris":{"android":"levelo://app?vid=f90da357-2380-42d5-8063-35c97d25011a","ios":"levelo://app?vid=f90da357-2380-42d5-8063-35c97d25011a"},"vehicle_type_id":"4","last_reported":1726071028,"current_range_meters":14800,"station_id":"ce4bh2h2rcd13ifvqdh0","pricing_plan_id":"cebpf4jnsgd1na2vs0mg"},{"bike_id":"6745458d-0556-4f2b-94c3-9f5b93b740a5","system_id":"levelo_inurba_marseille","lat":43.26811,"lon":5.39367,"is_reserved":false,"is_disabled":false,"rental_uris":{"android":"levelo://app?vid=6745458d-0556-4f2b-94c3-9f5b93b740a5","ios":"levelo://app?vid=6745458d-0556-4f2b-94c3-9f5b93b740a5"},"vehicle_type_id":"4","last_reported":1726071028,"current_range_meters":19600,"station_id":"ce4bhh12rcd13ifvqfg0","pricing_plan_id":"cebpf4jnsgd1na2vs0mg"},{"bike_id":"42828f35-0794-4c7f-bd6b-237845e6ef60","system_id":"levelo_inurba_marseille","lat":43.279144,"lon":5.395726,"is_reserved":false,"is_disabled":false,"rental_uris":{"android":"levelo://app?vid=42828f35-0794-4c7f-bd6b-237845e6ef60","ios":"levelo://app?vid=42828f35-0794-4c7f-bd6b-237845e6ef60"},"vehicle_type_id":"4","last_reported":1726071028,"current_range_meters":8000,"station_id":"ce4bhf92rcd13ifvqf40","pricing_plan_id":"cebpf4jnsgd1na2vs0mg"},{"bike_id":"02f25521-9081-4f2b-8359-c698b95964af","system_id":"levelo_inurba_marseille","lat":43.31692,"lon":5.40463,"is_reserved":false,"is_disabled":false,"rental_uris":{"android":"levelo://app?vid=02f25521-9081-4f2b-8359-c698b95964af","ios":"levelo://app?vid=02f25521-9081-4f2b-8359-c698b95964af"},"vehicle_type_id":"4","last_reported":1726071028,"current_range_meters":18000,"station_id":"ce4bh012rcd13ifvqd00","pricing_plan_id":"cebpf4jnsgd1na2vs0mg"},{"bike_id":"e7a5839c-8fe9-4805-a0e8-ec1c242be023","system_id":"levelo_inurba_marseille","lat":43.29899,"lon":5.38099,"is_reserved":false,"is_disabled":false,"rental_uris":{"android":"levelo://app?vid=e7a5839c-8fe9-4805-a0e8-ec1c242be023","ios":"levelo://app?vid=e7a5839c-8fe9-4805-a0e8-ec1c242be023"},"vehicle_type_id":"4","last_reported":1726071028,"current_range_meters":10000,"station_id":"ce4bgj12rcd13ifvqbc0","pricing_plan_id":"cebpf4jnsgd1na2vs0mg"},{"bike_id":"f62bbbf1-8fdd-41b9-bc88-1fbbe07a50c6","system_id":"levelo_inurba_marseille","lat":43.28722,"lon":5.3609,"is_reserved":false,"is_disabled":false,"rental_uris":{"android":"levelo://app?vid=f62bbbf1-8fdd-41b9-bc88-1fbbe07a50c6","ios":"levelo://app?vid=f62bbbf1-8fdd-41b9-bc88-1fbbe07a50c6"},"vehicle_type_id":"4","last_reported":1726071028,"current_range_meters":800,"station_id":"cki0cbj6b192h4jlfktg","pricing_plan_id":"cebpf4jnsgd1na2vs0mg"},{"bike_id":"afb9ba8c-2c04-4d46-b03f-34540d0c6f61","system_id":"levelo_inurba_marseille","lat":43.26688,"lon":5.38273,"is_reserved":false,"is_disabled":false,"rental_uris":{"android":"levelo://app?vid=afb9ba8c-2c04-4d46-b03f-34540d0c6f61","ios":"levelo://app?vid=afb9ba8c-2c04-4d46-b03f-34540d0c6f61"},"vehicle_type_id":"4","last_reported":1726071028,"current_range_meters":5600,"station_id":"ce4bhg92rcd13ifvqf90","pricing_plan_id":"cebpf4jnsgd1na2vs0mg"},{"bike_id":"d8114da8-923a-45d4-9eae-237998754a47","system_id":"levelo_inurba_marseille","lat":43.297846,"lon":5.393492,"is_reserved":false,"is_disabled":false,"rental_uris":{"android":"levelo://app?vid=d8114da8-923a-45d4-9eae-237998754a47","ios":"levelo://app?vid=d8114da8-923a-45d4-9eae-237998754a47"},"vehicle_type_id":"4","last_reported":1726071028,"current_range_meters":6800,"station_id":"chh1huq6cuj3fo74tm60","pricing_plan_id":"cebpf4jnsgd1na2vs0mg"},{"bike_id":"a5ca1270-be4b-486d-8cdb-4a1b1254d058","system_id":"levelo_inurba_marseille","lat":43.30151,"lon":5.38775,"is_reserved":false,"is_disabled":false,"rental_uris":{"android":"levelo://app?vid=a5ca1270-be4b-486d-8cdb-4a1b1254d058","ios":"levelo://app?vid=a5ca1270-be4b-486d-8cdb-4a1b1254d058"},"vehicle_type_id":"4","last_reported":1726071028,"current_range_meters":35600,"station_id":"ce4bghh2rcd13ifvqb60","pricing_plan_id":"cebpf4jnsgd1na2vs0mg"},{"bike_id":"c3a84de0-e074-45d2-96a4-3ff17abba9fe","system_id":"levelo_inurba_marseille","lat":43.2408,"lon":5.3774,"is_reserved":false,"is_disabled":false,"rental_uris":{"android":"levelo://app?vid=c3a84de0-e074-45d2-96a4-3ff17abba9fe","ios":"levelo://app?vid=c3a84de0-e074-45d2-96a4-3ff17abba9fe"},"vehicle_type_id":"4","last_reported":1726071028,"current_range_meters":14000,"station_id":"ce4bhnp2rcd13ifvqgvg","pricing_plan_id":"cebpf4jnsgd1na2vs0mg"},{"bike_id":"837d6186-7780-4cc2-9c2a-c3df769f334e","system_id":"levelo_inurba_marseille","lat":43.30937,"lon":5.40139,"is_reserved":false,"is_disabled":false,"rental_uris":{"android":"levelo://app?vid=837d6186-7780-4cc2-9c2a-c3df769f334e","ios":"levelo://app?vid=837d6186-7780-4cc2-9c2a-c3df769f334e"},"vehicle_type_id":"4","last_reported":1726071028,"current_range_meters":2000,"station_id":"ce4bgvp2rcd13ifvqct0","pricing_plan_id":"cebpf4jnsgd1na2vs0mg"},{"bike_id":"3d7b480a-20ce-40c5-93d7-d9771eb0912a","system_id":"levelo_inurba_marseille","lat":43.30646,"lon":5.40089,"is_reserved":false,"is_disabled":false,"rental_uris":{"android":"levelo://app?vid=3d7b480a-20ce-40c5-93d7-d9771eb0912a","ios":"levelo://app?vid=3d7b480a-20ce-40c5-93d7-d9771eb0912a"},"vehicle_type_id":"4","last_reported":1726071028,"current_range_meters":17600,"station_id":"ce4bh112rcd13ifvqda0","pricing_plan_id":"cebpf4jnsgd1na2vs0mg"},{"bike_id":"caacde92-96a1-477e-b94e-482808276e2c","system_id":"levelo_inurba_marseille","lat":43.29363,"lon":5.37832,"is_reserved":false,"is_disabled":false,"rental_uris":{"android":"levelo://app?vid=caacde92-96a1-477e-b94e-482808276e2c","ios":"levelo://app?vid=caacde92-96a1-477e-b94e-482808276e2c"},"vehicle_type_id":"4","last_reported":1726071028,"current_range_meters":37600,"station_id":"ce4bgjh2rcd13ifvqbf0","pricing_plan_id":"cebpf4jnsgd1na2vs0mg"},{"bike_id":"f97d1ebb-d606-4bfb-9f71-6cb2f9930fe5","system_id":"levelo_inurba_marseille","lat":43.261781,"lon":5.374533,"is_reserved":false,"is_disabled":false,"rental_uris":{"android":"levelo://app?vid=f97d1ebb-d606-4bfb-9f71-6cb2f9930fe5","ios":"levelo://app?vid=f97d1ebb-d606-4bfb-9f71-6cb2f9930fe5"},"vehicle_type_id":"4","last_reported":1726071028,"current_range_meters":14800,"station_id":"ce4bhgp2rcd13ifvqfc0","pricing_plan_id":"cebpf4jnsgd1na2vs0mg"},{"bike_id":"bf588980-2f0a-463a-9d8a-980054503cae","system_id":"levelo_inurba_marseille","lat":43.29712,"lon":5.36597,"is_reserved":false,"is_disabled":false,"rental_uris":{"android":"levelo://app?vid=bf588980-2f0a-463a-9d8a-980054503cae","ios":"levelo://app?vid=bf588980-2f0a-463a-9d8a-980054503cae"},"vehicle_type_id":"4","last_reported":1726071028,"current_range_meters":38400,"station_id":"ce4bgn12rcd13ifvqbt0","pricing_plan_id":"cebpf4jnsgd1na2vs0mg"},{"bike_id":"de5d6abe-602a-4526-afde-51724c4a19b7","system_id":"levelo_inurba_marseille","lat":43.29306,"lon":5.37421,"is_reserved":false,"is_disabled":false,"rental_uris":{"android":"levelo://app?vid=de5d6abe-602a-4526-afde-51724c4a19b7","ios":"levelo://app?vid=de5d6abe-602a-4526-afde-51724c4a19b7"},"vehicle_type_id":"4","last_reported":1726071028,"current_range_meters":11200,"station_id":"ce4bgi12rcd13ifvqb70","pricing_plan_id":"cebpf4jnsgd1na2vs0mg"},{"bike_id":"57279865-f0a2-4516-9dd4-834f33bac6c4","system_id":"levelo_inurba_marseille","lat":43.29001,"lon":5.35604,"is_reserved":false,"is_disabled":false,"rental_uris":{"android":"levelo://app?vid=57279865-f0a2-4516-9dd4-834f33bac6c4","ios":"levelo://app?vid=57279865-f0a2-4516-9dd4-834f33bac6c4"},"vehicle_type_id":"4","last_reported":1726071028,"current_range_meters":9600,"station_id":"ce4bhb92rcd13ifvqen0","pricing_plan_id":"cebpf4jnsgd1na2vs0mg"},{"bike_id":"a36a6131-7175-4d21-afcf-16a3b952996a","system_id":"levelo_inurba_marseille","lat":43.30825,"lon":5.37656,"is_reserved":false,"is_disabled":false,"rental_uris":{"android":"levelo://app?vid=a36a6131-7175-4d21-afcf-16a3b952996a","ios":"levelo://app?vid=a36a6131-7175-4d21-afcf-16a3b952996a"},"vehicle_type_id":"4","last_reported":1726071028,"current_range_meters":9200,"station_id":"ce4bgv92rcd13ifvqcq0","pricing_plan_id":"cebpf4jnsgd1na2vs0mg"},{"bike_id":"6025db89-7a9c-4108-a04d-9d6ce91192ff","system_id":"levelo_inurba_marseille","lat":43.28615,"lon":5.3511,"is_reserved":false,"is_disabled":false,"rental_uris":{"android":"levelo://app?vid=6025db89-7a9c-4108-a04d-9d6ce91192ff","ios":"levelo://app?vid=6025db89-7a9c-4108-a04d-9d6ce91192ff"},"vehicle_type_id":"4","last_reported":1726071028,"current_range_meters":8400,"station_id":"ce4bhch2rcd13ifvqeug","pricing_plan_id":"cebpf4jnsgd1na2vs0mg"},{"bike_id":"b00a9d5a-7111-4a36-96a5-df376625ca50","system_id":"levelo_inurba_marseille","lat":43.27915,"lon":5.39576,"is_reserved":false,"is_disabled":false,"rental_uris":{"android":"levelo://app?vid=b00a9d5a-7111-4a36-96a5-df376625ca50","ios":"levelo://app?vid=b00a9d5a-7111-4a36-96a5-df376625ca50"},"vehicle_type_id":"4","last_reported":1726071028,"current_range_meters":9200,"station_id":"ce4bhf92rcd13ifvqf40","pricing_plan_id":"cebpf4jnsgd1na2vs0mg"},{"bike_id":"3433584c-cd30-4c97-b4dc-8bcf66524c34","system_id":"levelo_inurba_marseille","lat":43.26194,"lon":5.37447,"is_reserved":false,"is_disabled":false,"rental_uris":{"android":"levelo://app?vid=3433584c-cd30-4c97-b4dc-8bcf66524c34","ios":"levelo://app?vid=3433584c-cd30-4c97-b4dc-8bcf66524c34"},"vehicle_type_id":"4","last_reported":1726071028,"current_range_meters":3200,"station_id":"ce4bhgp2rcd13ifvqfc0","pricing_plan_id":"cebpf4jnsgd1na2vs0mg"},{"bike_id":"7f0fa295-7bbc-47ab-bf2c-fa7029114e98","system_id":"levelo_inurba_marseille","lat":43.24998,"lon":5.38929,"is_reserved":false,"is_disabled":false,"rental_uris":{"android":"levelo://app?vid=7f0fa295-7bbc-47ab-bf2c-fa7029114e98","ios":"levelo://app?vid=7f0fa295-7bbc-47ab-bf2c-fa7029114e98"},"vehicle_type_id":"4","last_reported":1726071028,"current_range_meters":38800,"station_id":"ce4bhgp2rcd13ifvqfd0","pricing_plan_id":"cebpf4jnsgd1na2vs0mg"},{"bike_id":"257df995-474c-489e-93e6-1898def2a181","system_id":"levelo_inurba_marseille","lat":43.337444,"lon":5.374475,"is_reserved":false,"is_disabled":false,"rental_uris":{"android":"levelo://app?vid=257df995-474c-489e-93e6-1898def2a181","ios":"levelo://app?vid=257df995-474c-489e-93e6-1898def2a181"},"vehicle_type_id":"4","last_reported":1726071028,"current_range_meters":16000,"station_id":"","pricing_plan_id":"cebpf4jnsgd1na2vs0mg"},{"bike_id":"fd17a8e7-e7f2-4a63-8e67-7f477e66864f","system_id":"levelo_inurba_marseille","lat":43.26557,"lon":5.3728,"is_reserved":false,"is_disabled":false,"rental_uris":{"android":"levelo://app?vid=fd17a8e7-e7f2-4a63-8e67-7f477e66864f","ios":"levelo://app?vid=fd17a8e7-e7f2-4a63-8e67-7f477e66864f"},"vehicle_type_id":"4","last_reported":1726071028,"current_range_meters":6800,"station_id":"ce4bhg12rcd13ifvqf70","pricing_plan_id":"cebpf4jnsgd1na2vs0mg"},{"bike_id":"304b452e-7cf5-4e0a-a44a-fd83a323b520","system_id":"levelo_inurba_marseille","lat":43.2942,"lon":5.38617,"is_reserved":false,"is_disabled":false,"rental_uris":{"android":"levelo://app?vid=304b452e-7cf5-4e0a-a44a-fd83a323b520","ios":"levelo://app?vid=304b452e-7cf5-4e0a-a44a-fd83a323b520"},"vehicle_type_id":"4","last_reported":1726071028,"current_range_meters":37600,"station_id":"ce4bh2h2rcd13ifvqdh0","pricing_plan_id":"cebpf4jnsgd1na2vs0mg"},{"bike_id":"9ef2875e-94aa-4b7d-b6a0-74eb2ac11719","system_id":"levelo_inurba_marseille","lat":43.300478,"lon":5.389969,"is_reserved":false,"is_disabled":false,"rental_uris":{"android":"levelo://app?vid=9ef2875e-94aa-4b7d-b6a0-74eb2ac11719","ios":"levelo://app?vid=9ef2875e-94aa-4b7d-b6a0-74eb2ac11719"},"vehicle_type_id":"4","last_reported":1726071028,"current_range_meters":16000,"station_id":"ce4bh192rcd13ifvqdb0","pricing_plan_id":"cebpf4jnsgd1na2vs0mg"},{"bike_id":"c6312812-209a-435f-94be-b15bb61d9226","system_id":"levelo_inurba_marseille","lat":43.26676,"lon":5.38264,"is_reserved":false,"is_disabled":false,"rental_uris":{"android":"levelo://app?vid=c6312812-209a-435f-94be-b15bb61d9226","ios":"levelo://app?vid=c6312812-209a-435f-94be-b15bb61d9226"},"vehicle_type_id":"4","last_reported":1726071028,"current_range_meters":19600,"station_id":"ce4bhg92rcd13ifvqf90","pricing_plan_id":"cebpf4jnsgd1na2vs0mg"},{"bike_id":"46b10063-cfeb-442f-b303-1fabe780207b","system_id":"levelo_inurba_marseille","lat":43.23964,"lon":5.36628,"is_reserved":false,"is_disabled":false,"rental_uris":{"android":"levelo://app?vid=46b10063-cfeb-442f-b303-1fabe780207b","ios":"levelo://app?vid=46b10063-cfeb-442f-b303-1fabe780207b"},"vehicle_type_id":"4","last_reported":1726071028,"current_range_meters":17200,"station_id":"ce4bhi12rcd13ifvqfp0","pricing_plan_id":"cebpf4jnsgd1na2vs0mg"},{"bike_id":"96fa1b51-b1cd-453a-94ef-d9121511d381","system_id":"levelo_inurba_marseille","lat":43.28356,"lon":5.38106,"is_reserved":false,"is_disabled":false,"rental_uris":{"android":"levelo://app?vid=96fa1b51-b1cd-453a-94ef-d9121511d381","ios":"levelo://app?vid=96fa1b51-b1cd-453a-94ef-d9121511d381"},"vehicle_type_id":"4","last_reported":1726071028,"current_range_meters":6000,"station_id":"ce4bh412rcd13ifvqdr0","pricing_plan_id":"cebpf4jnsgd1na2vs0mg"},{"bike_id":"88cf5dd6-c835-4104-9def-26019de205df","system_id":"levelo_inurba_marseille","lat":43.29893,"lon":5.43661,"is_reserved":false,"is_disabled":false,"rental_uris":{"android":"levelo://app?vid=88cf5dd6-c835-4104-9def-26019de205df","ios":"levelo://app?vid=88cf5dd6-c835-4104-9def-26019de205df"},"vehicle_type_id":"4","last_reported":1726071028,"current_range_meters":33600,"station_id":"ce4bhpp2rcd13ifvqhfg","pricing_plan_id":"cebpf4jnsgd1na2vs0mg"},{"bike_id":"68b73672-f1b6-42f0-8fc4-3a3bbd767c9e","system_id":"levelo_inurba_marseille","lat":43.29055,"lon":5.35909,"is_reserved":false,"is_disabled":false,"rental_uris":{"android":"levelo://app?vid=68b73672-f1b6-42f0-8fc4-3a3bbd767c9e","ios":"levelo://app?vid=68b73672-f1b6-42f0-8fc4-3a3bbd767c9e"},"vehicle_type_id":"4","last_reported":1726071028,"current_range_meters":13600,"station_id":"ce4bha92rcd13ifvqeg0","pricing_plan_id":"cebpf4jnsgd1na2vs0mg"},{"bike_id":"46fed3f8-27ec-4816-b0fa-a182a2b87203","system_id":"levelo_inurba_marseille","lat":43.3302,"lon":5.39041,"is_reserved":false,"is_disabled":false,"rental_uris":{"android":"levelo://app?vid=46fed3f8-27ec-4816-b0fa-a182a2b87203","ios":"levelo://app?vid=46fed3f8-27ec-4816-b0fa-a182a2b87203"},"vehicle_type_id":"4","last_reported":1726071028,"current_range_meters":12800,"station_id":"ce4bhr92rcd13ifvqhrg","pricing_plan_id":"cebpf4jnsgd1na2vs0mg"},{"bike_id":"8e06870f-59b1-4019-8c4e-0fd97a649554","system_id":"levelo_inurba_marseille","lat":43.28002,"lon":5.40011,"is_reserved":false,"is_disabled":false,"rental_uris":{"android":"levelo://app?vid=8e06870f-59b1-4019-8c4e-0fd97a649554","ios":"levelo://app?vid=8e06870f-59b1-4019-8c4e-0fd97a649554"},"vehicle_type_id":"4","last_reported":1726071028,"current_range_meters":15200,"station_id":"ce4bho92rcd13ifvqh4g","pricing_plan_id":"cebpf4jnsgd1na2vs0mg"},{"bike_id":"802b1ba1-bb14-48eb-acfc-b10fed1077ed","system_id":"levelo_inurba_marseille","lat":43.29571,"lon":5.39969,"is_reserved":false,"is_disabled":false,"rental_uris":{"android":"levelo://app?vid=802b1ba1-bb14-48eb-acfc-b10fed1077ed","ios":"levelo://app?vid=802b1ba1-bb14-48eb-acfc-b10fed1077ed"},"vehicle_type_id":"4","last_reported":1726071028,"current_range_meters":12000,"station_id":"ce4bh312rcd13ifvqdj0","pricing_plan_id":"cebpf4jnsgd1na2vs0mg"},{"bike_id":"2e330c0b-597a-4d54-a5de-eb50a375a091","system_id":"levelo_inurba_marseille","lat":43.24655,"lon":5.38891,"is_reserved":false,"is_disabled":false,"rental_uris":{"android":"levelo://app?vid=2e330c0b-597a-4d54-a5de-eb50a375a091","ios":"levelo://app?vid=2e330c0b-597a-4d54-a5de-eb50a375a091"},"vehicle_type_id":"4","last_reported":1726071028,"current_range_meters":19200,"station_id":"ce4bhg12rcd13ifvqf60","pricing_plan_id":"cebpf4jnsgd1na2vs0mg"},{"bike_id":"ad023fe6-eeb2-49e9-84f7-43241866f7f3","system_id":"levelo_inurba_marseille","lat":43.306581,"lon":5.40089,"is_reserved":false,"is_disabled":false,"rental_uris":{"android":"levelo://app?vid=ad023fe6-eeb2-49e9-84f7-43241866f7f3","ios":"levelo://app?vid=ad023fe6-eeb2-49e9-84f7-43241866f7f3"},"vehicle_type_id":"4","last_reported":1726071028,"current_range_meters":6000,"station_id":"ce4bh112rcd13ifvqda0","pricing_plan_id":"cebpf4jnsgd1na2vs0mg"},{"bike_id":"91fce6cf-0af2-4d89-84b8-e2ab9664d9dc","system_id":"levelo_inurba_marseille","lat":43.29964,"lon":5.41319,"is_reserved":false,"is_disabled":false,"rental_uris":{"android":"levelo://app?vid=91fce6cf-0af2-4d89-84b8-e2ab9664d9dc","ios":"levelo://app?vid=91fce6cf-0af2-4d89-84b8-e2ab9664d9dc"},"vehicle_type_id":"4","last_reported":1726071028,"current_range_meters":26000,"station_id":"ce4bhp12rcd13ifvqh9g","pricing_plan_id":"cebpf4jnsgd1na2vs0mg"},{"bike_id":"f657fd88-6956-4b9e-987b-07745f983ac4","system_id":"levelo_inurba_marseille","lat":43.28851,"lon":5.35842,"is_reserved":false,"is_disabled":false,"rental_uris":{"android":"levelo://app?vid=f657fd88-6956-4b9e-987b-07745f983ac4","ios":"levelo://app?vid=f657fd88-6956-4b9e-987b-07745f983ac4"},"vehicle_type_id":"4","last_reported":1726071028,"current_range_meters":30000,"station_id":"ce4bhb12rcd13ifvqem0","pricing_plan_id":"cebpf4jnsgd1na2vs0mg"},{"bike_id":"4360e10a-6a10-439f-89dc-181c14549ec7","system_id":"levelo_inurba_marseille","lat":43.29033,"lon":5.38619,"is_reserved":false,"is_disabled":false,"rental_uris":{"android":"levelo://app?vid=4360e10a-6a10-439f-89dc-181c14549ec7","ios":"levelo://app?vid=4360e10a-6a10-439f-89dc-181c14549ec7"},"vehicle_type_id":"4","last_reported":1726071028,"current_range_meters":3200,"station_id":"ce4bh4p2rcd13ifvqe0g","pricing_plan_id":"cebpf4jnsgd1na2vs0mg"},{"bike_id":"dd7f6df3-46e6-4f22-b872-d4de8dbafbeb","system_id":"levelo_inurba_marseille","lat":43.28277,"lon":5.35065,"is_reserved":false,"is_disabled":false,"rental_uris":{"android":"levelo://app?vid=dd7f6df3-46e6-4f22-b872-d4de8dbafbeb","ios":"levelo://app?vid=dd7f6df3-46e6-4f22-b872-d4de8dbafbeb"},"vehicle_type_id":"4","last_reported":1726071028,"current_range_meters":24800,"station_id":"ce4bhbp2rcd13ifvqerg","pricing_plan_id":"cebpf4jnsgd1na2vs0mg"},{"bike_id":"322d1794-9f74-426d-839c-253dd0c1a8be","system_id":"levelo_inurba_marseille","lat":43.303,"lon":5.39215,"is_reserved":false,"is_disabled":false,"rental_uris":{"android":"levelo://app?vid=322d1794-9f74-426d-839c-253dd0c1a8be","ios":"levelo://app?vid=322d1794-9f74-426d-839c-253dd0c1a8be"},"vehicle_type_id":"4","last_reported":1726071028,"current_range_meters":23200,"station_id":"ce4bgkh2rcd13ifvqbk0","pricing_plan_id":"cebpf4jnsgd1na2vs0mg"},{"bike_id":"d83af0d6-0ad9-4323-9127-c98e3904332d","system_id":"levelo_inurba_marseille","lat":43.29978,"lon":5.38481,"is_reserved":false,"is_disabled":false,"rental_uris":{"android":"levelo://app?vid=d83af0d6-0ad9-4323-9127-c98e3904332d","ios":"levelo://app?vid=d83af0d6-0ad9-4323-9127-c98e3904332d"},"vehicle_type_id":"4","last_reported":1726071028,"current_range_meters":2000,"station_id":"ce4bgj92rcd13ifvqbd0","pricing_plan_id":"cebpf4jnsgd1na2vs0mg"},{"bike_id":"5c70df26-4b90-4d40-86d0-169a5d39cf40","system_id":"levelo_inurba_marseille","lat":43.24809,"lon":5.37454,"is_reserved":false,"is_disabled":false,"rental_uris":{"android":"levelo://app?vid=5c70df26-4b90-4d40-86d0-169a5d39cf40","ios":"levelo://app?vid=5c70df26-4b90-4d40-86d0-169a5d39cf40"},"vehicle_type_id":"4","last_reported":1726071028,"current_range_meters":8800,"station_id":"ce4bhgh2rcd13ifvqfb0","pricing_plan_id":"cebpf4jnsgd1na2vs0mg"},{"bike_id":"1120eb83-85a8-4cf2-ae65-e4a717185f38","system_id":"levelo_inurba_marseille","lat":43.29287,"lon":5.40127,"is_reserved":false,"is_disabled":false,"rental_uris":{"android":"levelo://app?vid=1120eb83-85a8-4cf2-ae65-e4a717185f38","ios":"levelo://app?vid=1120eb83-85a8-4cf2-ae65-e4a717185f38"},"vehicle_type_id":"4","last_reported":1726071028,"current_range_meters":38800,"station_id":"ce4bh312rcd13ifvqdk0","pricing_plan_id":"cebpf4jnsgd1na2vs0mg"},{"bike_id":"2280a9f3-60d3-488c-b037-78bba17bcd0c","system_id":"levelo_inurba_marseille","lat":43.31272,"lon":5.40176,"is_reserved":false,"is_disabled":false,"rental_uris":{"android":"levelo://app?vid=2280a9f3-60d3-488c-b037-78bba17bcd0c","ios":"levelo://app?vid=2280a9f3-60d3-488c-b037-78bba17bcd0c"},"vehicle_type_id":"4","last_reported":1726071028,"current_range_meters":13600,"station_id":"ce4bh092rcd13ifvqd30","pricing_plan_id":"cebpf4jnsgd1na2vs0mg"},{"bike_id":"69165d19-3524-4128-a55e-229672fd4423","system_id":"levelo_inurba_marseille","lat":43.24389,"lon":5.37061,"is_reserved":false,"is_disabled":false,"rental_uris":{"android":"levelo://app?vid=69165d19-3524-4128-a55e-229672fd4423","ios":"levelo://app?vid=69165d19-3524-4128-a55e-229672fd4423"},"vehicle_type_id":"4","last_reported":1726071028,"current_range_meters":16400,"station_id":"ce4bhhh2rcd13ifvqfk0","pricing_plan_id":"cebpf4jnsgd1na2vs0mg"},{"bike_id":"90cf8044-f07a-43a9-a9ae-2b77e5ef8950","system_id":"levelo_inurba_marseille","lat":43.3042,"lon":5.41278,"is_reserved":false,"is_disabled":false,"rental_uris":{"android":"levelo://app?vid=90cf8044-f07a-43a9-a9ae-2b77e5ef8950","ios":"levelo://app?vid=90cf8044-f07a-43a9-a9ae-2b77e5ef8950"},"vehicle_type_id":"4","last_reported":1726071028,"current_range_meters":18000,"station_id":"ce4bhop2rcd13ifvqh8g","pricing_plan_id":"cebpf4jnsgd1na2vs0mg"},{"bike_id":"fd40a7b9-3b8f-4095-aa36-d9d4e408beea","system_id":"levelo_inurba_marseille","lat":43.270678,"lon":5.402608,"is_reserved":false,"is_disabled":false,"rental_uris":{"android":"levelo://app?vid=fd40a7b9-3b8f-4095-aa36-d9d4e408beea","ios":"levelo://app?vid=fd40a7b9-3b8f-4095-aa36-d9d4e408beea"},"vehicle_type_id":"4","last_reported":1726071028,"current_range_meters":6800,"station_id":"ce4bhk92rcd13ifvqgc0","pricing_plan_id":"cebpf4jnsgd1na2vs0mg"},{"bike_id":"04e32109-6f70-4652-ab59-42c79101b53a","system_id":"levelo_inurba_marseille","lat":43.295612,"lon":5.422879,"is_reserved":false,"is_disabled":false,"rental_uris":{"android":"levelo://app?vid=04e32109-6f70-4652-ab59-42c79101b53a","ios":"levelo://app?vid=04e32109-6f70-4652-ab59-42c79101b53a"},"vehicle_type_id":"4","last_reported":1726071028,"current_range_meters":30000,"station_id":"","pricing_plan_id":"cebpf4jnsgd1na2vs0mg"},{"bike_id":"da82eff2-90d8-4815-8fc1-08143b7b9a71","system_id":"levelo_inurba_marseille","lat":43.28726,"lon":5.37949,"is_reserved":false,"is_disabled":false,"rental_uris":{"android":"levelo://app?vid=da82eff2-90d8-4815-8fc1-08143b7b9a71","ios":"levelo://app?vid=da82eff2-90d8-4815-8fc1-08143b7b9a71"},"vehicle_type_id":"4","last_reported":1726071028,"current_range_meters":21600,"station_id":"ce4bh9p2rcd13ifvqec0","pricing_plan_id":"cebpf4jnsgd1na2vs0mg"},{"bike_id":"3c5b2a8f-82e3-41df-a6d3-c73fd636365a","system_id":"levelo_inurba_marseille","lat":43.25111,"lon":5.40321,"is_reserved":false,"is_disabled":false,"rental_uris":{"android":"levelo://app?vid=3c5b2a8f-82e3-41df-a6d3-c73fd636365a","ios":"levelo://app?vid=3c5b2a8f-82e3-41df-a6d3-c73fd636365a"},"vehicle_type_id":"4","last_reported":1726071028,"current_range_meters":22400,"station_id":"ce4bhlh2rcd13ifvqgig","pricing_plan_id":"cebpf4jnsgd1na2vs0mg"},{"bike_id":"35d6f27b-c497-4c62-a1ad-ca5a3fdaded9","system_id":"levelo_inurba_marseille","lat":43.31767,"lon":5.39006,"is_reserved":false,"is_disabled":false,"rental_uris":{"android":"levelo://app?vid=35d6f27b-c497-4c62-a1ad-ca5a3fdaded9","ios":"levelo://app?vid=35d6f27b-c497-4c62-a1ad-ca5a3fdaded9"},"vehicle_type_id":"4","last_reported":1726071028,"current_range_meters":31200,"station_id":"ce4bhqp2rcd13ifvqhng","pricing_plan_id":"cebpf4jnsgd1na2vs0mg"},{"bike_id":"8fa87e54-6918-4414-893c-61387a229692","system_id":"levelo_inurba_marseille","lat":43.23202,"lon":5.35543,"is_reserved":false,"is_disabled":false,"rental_uris":{"android":"levelo://app?vid=8fa87e54-6918-4414-893c-61387a229692","ios":"levelo://app?vid=8fa87e54-6918-4414-893c-61387a229692"},"vehicle_type_id":"4","last_reported":1726071028,"current_range_meters":8800,"station_id":"ce4bhu92rcd13ifvqi70","pricing_plan_id":"cebpf4jnsgd1na2vs0mg"},{"bike_id":"729f692d-02cf-40a7-81c2-6c7c7fd098f7","system_id":"levelo_inurba_marseille","lat":43.2792,"lon":5.39574,"is_reserved":false,"is_disabled":false,"rental_uris":{"android":"levelo://app?vid=729f692d-02cf-40a7-81c2-6c7c7fd098f7","ios":"levelo://app?vid=729f692d-02cf-40a7-81c2-6c7c7fd098f7"},"vehicle_type_id":"4","last_reported":1726071028,"current_range_meters":28400,"station_id":"ce4bhf92rcd13ifvqf40","pricing_plan_id":"cebpf4jnsgd1na2vs0mg"},{"bike_id":"4eb5cf07-a838-47ac-bfa9-94266ba671b6","system_id":"levelo_inurba_marseille","lat":43.25087,"lon":5.39516,"is_reserved":false,"is_disabled":false,"rental_uris":{"android":"levelo://app?vid=4eb5cf07-a838-47ac-bfa9-94266ba671b6","ios":"levelo://app?vid=4eb5cf07-a838-47ac-bfa9-94266ba671b6"},"vehicle_type_id":"4","last_reported":1726071028,"current_range_meters":16800,"station_id":"ce4bhm12rcd13ifvqgkg","pricing_plan_id":"cebpf4jnsgd1na2vs0mg"},{"bike_id":"862a98c8-adbd-4fec-a723-41baabf1e76f","system_id":"levelo_inurba_marseille","lat":43.30649,"lon":5.401,"is_reserved":false,"is_disabled":false,"rental_uris":{"android":"levelo://app?vid=862a98c8-adbd-4fec-a723-41baabf1e76f","ios":"levelo://app?vid=862a98c8-adbd-4fec-a723-41baabf1e76f"},"vehicle_type_id":"4","last_reported":1726071028,"current_range_meters":1600,"station_id":"ce4bh112rcd13ifvqda0","pricing_plan_id":"cebpf4jnsgd1na2vs0mg"},{"bike_id":"1dce079d-d8ef-4efa-bf13-b1e090bccf42","system_id":"levelo_inurba_marseille","lat":43.28459,"lon":5.35894,"is_reserved":false,"is_disabled":false,"rental_uris":{"android":"levelo://app?vid=1dce079d-d8ef-4efa-bf13-b1e090bccf42","ios":"levelo://app?vid=1dce079d-d8ef-4efa-bf13-b1e090bccf42"},"vehicle_type_id":"4","last_reported":1726071028,"current_range_meters":1200,"station_id":"ce4bhah2rcd13ifvqei0","pricing_plan_id":"cebpf4jnsgd1na2vs0mg"},{"bike_id":"68b5a546-92d3-4b09-877b-fe68afb460c2","system_id":"levelo_inurba_marseille","lat":43.30088,"lon":5.39082,"is_reserved":false,"is_disabled":false,"rental_uris":{"android":"levelo://app?vid=68b5a546-92d3-4b09-877b-fe68afb460c2","ios":"levelo://app?vid=68b5a546-92d3-4b09-877b-fe68afb460c2"},"vehicle_type_id":"4","last_reported":1726071028,"current_range_meters":36400,"station_id":"ce4bh192rcd13ifvqdb0","pricing_plan_id":"cebpf4jnsgd1na2vs0mg"},{"bike_id":"20830e58-6dfa-4d74-b146-cb3e5ad772ce","system_id":"levelo_inurba_marseille","lat":43.28996,"lon":5.35611,"is_reserved":false,"is_disabled":false,"rental_uris":{"android":"levelo://app?vid=20830e58-6dfa-4d74-b146-cb3e5ad772ce","ios":"levelo://app?vid=20830e58-6dfa-4d74-b146-cb3e5ad772ce"},"vehicle_type_id":"4","last_reported":1726071028,"current_range_meters":30800,"station_id":"ce4bhb92rcd13ifvqen0","pricing_plan_id":"cebpf4jnsgd1na2vs0mg"},{"bike_id":"f6a93621-4347-4693-aab9-5eab92aa684e","system_id":"levelo_inurba_marseille","lat":43.25492,"lon":5.37654,"is_reserved":false,"is_disabled":false,"rental_uris":{"android":"levelo://app?vid=f6a93621-4347-4693-aab9-5eab92aa684e","ios":"levelo://app?vid=f6a93621-4347-4693-aab9-5eab92aa684e"},"vehicle_type_id":"4","last_reported":1726071028,"current_range_meters":38400,"station_id":"ce4bhh12rcd13ifvqff0","pricing_plan_id":"cebpf4jnsgd1na2vs0mg"},{"bike_id":"7c6d7e04-1961-4660-934c-f979749f7bb8","system_id":"levelo_inurba_marseille","lat":43.31067,"lon":5.38357,"is_reserved":false,"is_disabled":false,"rental_uris":{"android":"levelo://app?vid=7c6d7e04-1961-4660-934c-f979749f7bb8","ios":"levelo://app?vid=7c6d7e04-1961-4660-934c-f979749f7bb8"},"vehicle_type_id":"4","last_reported":1726071028,"current_range_meters":33200,"station_id":"ce4bgv92rcd13ifvqcr0","pricing_plan_id":"cebpf4jnsgd1na2vs0mg"},{"bike_id":"ea31f0b9-fc8c-420d-b410-67dcd70c48ab","system_id":"levelo_inurba_marseille","lat":43.33027,"lon":5.39036,"is_reserved":false,"is_disabled":false,"rental_uris":{"android":"levelo://app?vid=ea31f0b9-fc8c-420d-b410-67dcd70c48ab","ios":"levelo://app?vid=ea31f0b9-fc8c-420d-b410-67dcd70c48ab"},"vehicle_type_id":"4","last_reported":1726071028,"current_range_meters":38000,"station_id":"ce4bhr92rcd13ifvqhrg","pricing_plan_id":"cebpf4jnsgd1na2vs0mg"},{"bike_id":"dd2d66a6-976d-43e6-83be-d6211ff78acc","system_id":"levelo_inurba_marseille","lat":43.33723,"lon":5.39187,"is_reserved":false,"is_disabled":false,"rental_uris":{"android":"levelo://app?vid=dd2d66a6-976d-43e6-83be-d6211ff78acc","ios":"levelo://app?vid=dd2d66a6-976d-43e6-83be-d6211ff78acc"},"vehicle_type_id":"4","last_reported":1726071028,"current_range_meters":16400,"station_id":"ce4bhr92rcd13ifvqhsg","pricing_plan_id":"cebpf4jnsgd1na2vs0mg"},{"bike_id":"aff9cd53-c5b0-411b-8b9f-752cc7ce54aa","system_id":"levelo_inurba_marseille","lat":43.23196,"lon":5.35549,"is_reserved":false,"is_disabled":false,"rental_uris":{"android":"levelo://app?vid=aff9cd53-c5b0-411b-8b9f-752cc7ce54aa","ios":"levelo://app?vid=aff9cd53-c5b0-411b-8b9f-752cc7ce54aa"},"vehicle_type_id":"4","last_reported":1726071028,"current_range_meters":32800,"station_id":"ce4bhu92rcd13ifvqi70","pricing_plan_id":"cebpf4jnsgd1na2vs0mg"},{"bike_id":"3ecb7736-0b73-4a62-80fa-cc4ddb34488f","system_id":"levelo_inurba_marseille","lat":43.26552,"lon":5.37294,"is_reserved":false,"is_disabled":false,"rental_uris":{"android":"levelo://app?vid=3ecb7736-0b73-4a62-80fa-cc4ddb34488f","ios":"levelo://app?vid=3ecb7736-0b73-4a62-80fa-cc4ddb34488f"},"vehicle_type_id":"4","last_reported":1726071028,"current_range_meters":5600,"station_id":"ce4bhg12rcd13ifvqf70","pricing_plan_id":"cebpf4jnsgd1na2vs0mg"},{"bike_id":"14c8876f-4394-41fd-95b8-21458e0032c0","system_id":"levelo_inurba_marseille","lat":43.264069,"lon":5.392308,"is_reserved":false,"is_disabled":false,"rental_uris":{"android":"levelo://app?vid=14c8876f-4394-41fd-95b8-21458e0032c0","ios":"levelo://app?vid=14c8876f-4394-41fd-95b8-21458e0032c0"},"vehicle_type_id":"4","last_reported":1726071028,"current_range_meters":800,"station_id":"ce4bh2p2rcd13ifvqdi0","pricing_plan_id":"cebpf4jnsgd1na2vs0mg"},{"bike_id":"afa5bb0e-2553-47fe-a393-e95ffc9a8e5c","system_id":"levelo_inurba_marseille","lat":43.28444,"lon":5.39199,"is_reserved":false,"is_disabled":false,"rental_uris":{"android":"levelo://app?vid=afa5bb0e-2553-47fe-a393-e95ffc9a8e5c","ios":"levelo://app?vid=afa5bb0e-2553-47fe-a393-e95ffc9a8e5c"},"vehicle_type_id":"4","last_reported":1726071028,"current_range_meters":16400,"station_id":"ce4bhoh2rcd13ifvqh5g","pricing_plan_id":"cebpf4jnsgd1na2vs0mg"},{"bike_id":"5876c5ef-9fac-478d-bd3c-ea1780c21005","system_id":"levelo_inurba_marseille","lat":43.33755,"lon":5.37446,"is_reserved":false,"is_disabled":false,"rental_uris":{"android":"levelo://app?vid=5876c5ef-9fac-478d-bd3c-ea1780c21005","ios":"levelo://app?vid=5876c5ef-9fac-478d-bd3c-ea1780c21005"},"vehicle_type_id":"4","last_reported":1726071028,"current_range_meters":38800,"station_id":"","pricing_plan_id":"cebpf4jnsgd1na2vs0mg"},{"bike_id":"e677b515-5319-4216-9c4c-b1dda00cce1f","system_id":"levelo_inurba_marseille","lat":43.229446,"lon":5.353475,"is_reserved":false,"is_disabled":false,"rental_uris":{"android":"levelo://app?vid=e677b515-5319-4216-9c4c-b1dda00cce1f","ios":"levelo://app?vid=e677b515-5319-4216-9c4c-b1dda00cce1f"},"vehicle_type_id":"4","last_reported":1726071028,"current_range_meters":32400,"station_id":"ce4bhgh2rcd13ifvqfb0","pricing_plan_id":"cebpf4jnsgd1na2vs0mg"},{"bike_id":"eb991b35-1764-40cd-9ba4-b8738c306a92","system_id":"levelo_inurba_marseille","lat":43.28476,"lon":5.38414,"is_reserved":false,"is_disabled":false,"rental_uris":{"android":"levelo://app?vid=eb991b35-1764-40cd-9ba4-b8738c306a92","ios":"levelo://app?vid=eb991b35-1764-40cd-9ba4-b8738c306a92"},"vehicle_type_id":"4","last_reported":1726071028,"current_range_meters":30800,"station_id":"ce4bh512rcd13ifvqe3g","pricing_plan_id":"cebpf4jnsgd1na2vs0mg"},{"bike_id":"4c82a2cb-cb04-4b0a-a92e-ca6e0aded96e","system_id":"levelo_inurba_marseille","lat":43.297117,"lon":5.366052,"is_reserved":false,"is_disabled":false,"rental_uris":{"android":"levelo://app?vid=4c82a2cb-cb04-4b0a-a92e-ca6e0aded96e","ios":"levelo://app?vid=4c82a2cb-cb04-4b0a-a92e-ca6e0aded96e"},"vehicle_type_id":"4","last_reported":1726071028,"current_range_meters":35200,"station_id":"ce4bgn12rcd13ifvqbt0","pricing_plan_id":"cebpf4jnsgd1na2vs0mg"},{"bike_id":"f9ce26e1-b687-4b9f-a33d-f85d6af9240e","system_id":"levelo_inurba_marseille","lat":43.33024,"lon":5.39041,"is_reserved":false,"is_disabled":false,"rental_uris":{"android":"levelo://app?vid=f9ce26e1-b687-4b9f-a33d-f85d6af9240e","ios":"levelo://app?vid=f9ce26e1-b687-4b9f-a33d-f85d6af9240e"},"vehicle_type_id":"4","last_reported":1726071028,"current_range_meters":26000,"station_id":"ce4bhr92rcd13ifvqhrg","pricing_plan_id":"cebpf4jnsgd1na2vs0mg"},{"bike_id":"efbf06ee-bb40-4322-9757-88162fe3fa29","system_id":"levelo_inurba_marseille","lat":43.2803,"lon":5.36946,"is_reserved":false,"is_disabled":false,"rental_uris":{"android":"levelo://app?vid=efbf06ee-bb40-4322-9757-88162fe3fa29","ios":"levelo://app?vid=efbf06ee-bb40-4322-9757-88162fe3fa29"},"vehicle_type_id":"4","last_reported":1726071028,"current_range_meters":13600,"station_id":"ce4bha12rcd13ifvqef0","pricing_plan_id":"cebpf4jnsgd1na2vs0mg"},{"bike_id":"0d335b6f-7149-4a93-a2cf-1ebdefda3fa4","system_id":"levelo_inurba_marseille","lat":43.29029,"lon":5.38654,"is_reserved":false,"is_disabled":false,"rental_uris":{"android":"levelo://app?vid=0d335b6f-7149-4a93-a2cf-1ebdefda3fa4","ios":"levelo://app?vid=0d335b6f-7149-4a93-a2cf-1ebdefda3fa4"},"vehicle_type_id":"4","last_reported":1726071028,"current_range_meters":27600,"station_id":"ce4bh4p2rcd13ifvqe0g","pricing_plan_id":"cebpf4jnsgd1na2vs0mg"},{"bike_id":"e1043ab9-c849-491c-9b47-409209213629","system_id":"levelo_inurba_marseille","lat":43.29265,"lon":5.38447,"is_reserved":false,"is_disabled":false,"rental_uris":{"android":"levelo://app?vid=e1043ab9-c849-491c-9b47-409209213629","ios":"levelo://app?vid=e1043ab9-c849-491c-9b47-409209213629"},"vehicle_type_id":"4","last_reported":1726071028,"current_range_meters":6800,"station_id":"ce4bh692rcd13ifvqea0","pricing_plan_id":"cebpf4jnsgd1na2vs0mg"},{"bike_id":"b28082b1-d8bf-4f14-a250-444a77586ed2","system_id":"levelo_inurba_marseille","lat":43.25572,"lon":5.38228,"is_reserved":false,"is_disabled":false,"rental_uris":{"android":"levelo://app?vid=b28082b1-d8bf-4f14-a250-444a77586ed2","ios":"levelo://app?vid=b28082b1-d8bf-4f14-a250-444a77586ed2"},"vehicle_type_id":"4","last_reported":1726071028,"current_range_meters":26800,"station_id":"ce4bhih2rcd13ifvqfs0","pricing_plan_id":"cebpf4jnsgd1na2vs0mg"},{"bike_id":"ba698d04-e6bd-4773-8331-513f4ee79672","system_id":"levelo_inurba_marseille","lat":43.29188,"lon":5.35812,"is_reserved":false,"is_disabled":false,"rental_uris":{"android":"levelo://app?vid=ba698d04-e6bd-4773-8331-513f4ee79672","ios":"levelo://app?vid=ba698d04-e6bd-4773-8331-513f4ee79672"},"vehicle_type_id":"4","last_reported":1726071028,"current_range_meters":33200,"station_id":"ce4bhb12rcd13ifvqel0","pricing_plan_id":"cebpf4jnsgd1na2vs0mg"},{"bike_id":"a37ca338-c901-4163-9402-0214dcf98cb9","system_id":"levelo_inurba_marseille","lat":43.289795,"lon":5.378385,"is_reserved":false,"is_disabled":false,"rental_uris":{"android":"levelo://app?vid=a37ca338-c901-4163-9402-0214dcf98cb9","ios":"levelo://app?vid=a37ca338-c901-4163-9402-0214dcf98cb9"},"vehicle_type_id":"4","last_reported":1726071028,"current_range_meters":39200,"station_id":"ce4bh492rcd13ifvqdug","pricing_plan_id":"cebpf4jnsgd1na2vs0mg"},{"bike_id":"cc6a5eb6-989b-4bfe-96e9-2d4e72cb0a1a","system_id":"levelo_inurba_marseille","lat":43.282714,"lon":5.350612,"is_reserved":false,"is_disabled":false,"rental_uris":{"android":"levelo://app?vid=cc6a5eb6-989b-4bfe-96e9-2d4e72cb0a1a","ios":"levelo://app?vid=cc6a5eb6-989b-4bfe-96e9-2d4e72cb0a1a"},"vehicle_type_id":"4","last_reported":1726071028,"current_range_meters":22000,"station_id":"ce4bhbp2rcd13ifvqerg","pricing_plan_id":"cebpf4jnsgd1na2vs0mg"},{"bike_id":"2c4c95cf-8d50-406b-9727-fccf6d3e1aef","system_id":"levelo_inurba_marseille","lat":43.26213,"lon":5.37436,"is_reserved":false,"is_disabled":false,"rental_uris":{"android":"levelo://app?vid=2c4c95cf-8d50-406b-9727-fccf6d3e1aef","ios":"levelo://app?vid=2c4c95cf-8d50-406b-9727-fccf6d3e1aef"},"vehicle_type_id":"4","last_reported":1726071028,"current_range_meters":4000,"station_id":"ce4bhgp2rcd13ifvqfc0","pricing_plan_id":"cebpf4jnsgd1na2vs0mg"},{"bike_id":"c8e0fcb6-1d3f-4d83-b861-1f56e6b3ab2c","system_id":"levelo_inurba_marseille","lat":43.32269,"lon":5.38264,"is_reserved":false,"is_disabled":false,"rental_uris":{"android":"levelo://app?vid=c8e0fcb6-1d3f-4d83-b861-1f56e6b3ab2c","ios":"levelo://app?vid=c8e0fcb6-1d3f-4d83-b861-1f56e6b3ab2c"},"vehicle_type_id":"4","last_reported":1726071028,"current_range_meters":31200,"station_id":"ce4bhr12rcd13ifvqhqg","pricing_plan_id":"cebpf4jnsgd1na2vs0mg"},{"bike_id":"a92c8240-5a0f-4307-91ce-4a4da62e107a","system_id":"levelo_inurba_marseille","lat":43.28038,"lon":5.36952,"is_reserved":false,"is_disabled":false,"rental_uris":{"android":"levelo://app?vid=a92c8240-5a0f-4307-91ce-4a4da62e107a","ios":"levelo://app?vid=a92c8240-5a0f-4307-91ce-4a4da62e107a"},"vehicle_type_id":"4","last_reported":1726071028,"current_range_meters":2800,"station_id":"ce4bha12rcd13ifvqef0","pricing_plan_id":"cebpf4jnsgd1na2vs0mg"},{"bike_id":"1a6c14eb-e96b-416a-81c8-3e67ff37618b","system_id":"levelo_inurba_marseille","lat":43.33026,"lon":5.39036,"is_reserved":false,"is_disabled":false,"rental_uris":{"android":"levelo://app?vid=1a6c14eb-e96b-416a-81c8-3e67ff37618b","ios":"levelo://app?vid=1a6c14eb-e96b-416a-81c8-3e67ff37618b"},"vehicle_type_id":"4","last_reported":1726071028,"current_range_meters":34800,"station_id":"ce4bhr92rcd13ifvqhrg","pricing_plan_id":"cebpf4jnsgd1na2vs0mg"},{"bike_id":"aca0d45f-c154-4487-8bda-36d22e9568d7","system_id":"levelo_inurba_marseille","lat":43.29559,"lon":5.4228,"is_reserved":false,"is_disabled":false,"rental_uris":{"android":"levelo://app?vid=aca0d45f-c154-4487-8bda-36d22e9568d7","ios":"levelo://app?vid=aca0d45f-c154-4487-8bda-36d22e9568d7"},"vehicle_type_id":"4","last_reported":1726071028,"current_range_meters":4000,"station_id":"ce4bhph2rcd13ifvqhdg","pricing_plan_id":"cebpf4jnsgd1na2vs0mg"},{"bike_id":"1a6e695f-6050-4563-b2d5-eaa9b2c5fb78","system_id":"levelo_inurba_marseille","lat":43.289131,"lon":5.384046,"is_reserved":false,"is_disabled":false,"rental_uris":{"android":"levelo://app?vid=1a6e695f-6050-4563-b2d5-eaa9b2c5fb78","ios":"levelo://app?vid=1a6e695f-6050-4563-b2d5-eaa9b2c5fb78"},"vehicle_type_id":"4","last_reported":1726071028,"current_range_meters":36800,"station_id":"ce4bh612rcd13ifvqe6g","pricing_plan_id":"cebpf4jnsgd1na2vs0mg"},{"bike_id":"7e82e845-9732-470e-8197-6d3e4d2d118b","system_id":"levelo_inurba_marseille","lat":43.33025,"lon":5.39038,"is_reserved":false,"is_disabled":false,"rental_uris":{"android":"levelo://app?vid=7e82e845-9732-470e-8197-6d3e4d2d118b","ios":"levelo://app?vid=7e82e845-9732-470e-8197-6d3e4d2d118b"},"vehicle_type_id":"4","last_reported":1726071028,"current_range_meters":10000,"station_id":"ce4bhr92rcd13ifvqhrg","pricing_plan_id":"cebpf4jnsgd1na2vs0mg"},{"bike_id":"5f8714c2-4691-49c6-af6f-ae88c4dd369a","system_id":"levelo_inurba_marseille","lat":43.27999,"lon":5.40012,"is_reserved":false,"is_disabled":false,"rental_uris":{"android":"levelo://app?vid=5f8714c2-4691-49c6-af6f-ae88c4dd369a","ios":"levelo://app?vid=5f8714c2-4691-49c6-af6f-ae88c4dd369a"},"vehicle_type_id":"4","last_reported":1726071028,"current_range_meters":6000,"station_id":"ce4bho92rcd13ifvqh4g","pricing_plan_id":"cebpf4jnsgd1na2vs0mg"},{"bike_id":"5dccfa46-a07a-46b8-a4ad-b71d4abb1374","system_id":"levelo_inurba_marseille","lat":43.311703,"lon":5.387233,"is_reserved":false,"is_disabled":false,"rental_uris":{"android":"levelo://app?vid=5dccfa46-a07a-46b8-a4ad-b71d4abb1374","ios":"levelo://app?vid=5dccfa46-a07a-46b8-a4ad-b71d4abb1374"},"vehicle_type_id":"4","last_reported":1726071028,"current_range_meters":24400,"station_id":"ce4bgv12rcd13ifvqcp0","pricing_plan_id":"cebpf4jnsgd1na2vs0mg"},{"bike_id":"23a7a17c-d024-4ef6-bfc5-640c1becb748","system_id":"levelo_inurba_marseille","lat":43.28728,"lon":5.37931,"is_reserved":false,"is_disabled":false,"rental_uris":{"android":"levelo://app?vid=23a7a17c-d024-4ef6-bfc5-640c1becb748","ios":"levelo://app?vid=23a7a17c-d024-4ef6-bfc5-640c1becb748"},"vehicle_type_id":"4","last_reported":1726071028,"current_range_meters":5600,"station_id":"ce4bh9p2rcd13ifvqec0","pricing_plan_id":"cebpf4jnsgd1na2vs0mg"},{"bike_id":"880b0681-7fd8-4c24-aa0b-38c581aa5e38","system_id":"levelo_inurba_marseille","lat":43.24663,"lon":5.38164,"is_reserved":false,"is_disabled":false,"rental_uris":{"android":"levelo://app?vid=880b0681-7fd8-4c24-aa0b-38c581aa5e38","ios":"levelo://app?vid=880b0681-7fd8-4c24-aa0b-38c581aa5e38"},"vehicle_type_id":"4","last_reported":1726071028,"current_range_meters":12400,"station_id":"ce4bhih2rcd13ifvqfr0","pricing_plan_id":"cebpf4jnsgd1na2vs0mg"},{"bike_id":"077d5053-7181-42e1-a069-238a2e52d080","system_id":"levelo_inurba_marseille","lat":43.31761,"lon":5.39011,"is_reserved":false,"is_disabled":false,"rental_uris":{"android":"levelo://app?vid=077d5053-7181-42e1-a069-238a2e52d080","ios":"levelo://app?vid=077d5053-7181-42e1-a069-238a2e52d080"},"vehicle_type_id":"4","last_reported":1726071028,"current_range_meters":22800,"station_id":"ce4bhqp2rcd13ifvqhng","pricing_plan_id":"cebpf4jnsgd1na2vs0mg"},{"bike_id":"fd109a8b-89d4-4395-a7d3-9be8ce533562","system_id":"levelo_inurba_marseille","lat":43.29007,"lon":5.35614,"is_reserved":false,"is_disabled":false,"rental_uris":{"android":"levelo://app?vid=fd109a8b-89d4-4395-a7d3-9be8ce533562","ios":"levelo://app?vid=fd109a8b-89d4-4395-a7d3-9be8ce533562"},"vehicle_type_id":"4","last_reported":1726071028,"current_range_meters":6400,"station_id":"ce4bhb92rcd13ifvqen0","pricing_plan_id":"cebpf4jnsgd1na2vs0mg"},{"bike_id":"f400d370-a20e-4ced-86f0-64f62510749c","system_id":"levelo_inurba_marseille","lat":43.3237,"lon":5.38926,"is_reserved":false,"is_disabled":false,"rental_uris":{"android":"levelo://app?vid=f400d370-a20e-4ced-86f0-64f62510749c","ios":"levelo://app?vid=f400d370-a20e-4ced-86f0-64f62510749c"},"vehicle_type_id":"4","last_reported":1726071028,"current_range_meters":13600,"station_id":"","pricing_plan_id":"cebpf4jnsgd1na2vs0mg"},{"bike_id":"ede0aed3-c023-4853-89b7-450f0ea2a60b","system_id":"levelo_inurba_marseille","lat":43.30416,"lon":5.41276,"is_reserved":false,"is_disabled":false,"rental_uris":{"android":"levelo://app?vid=ede0aed3-c023-4853-89b7-450f0ea2a60b","ios":"levelo://app?vid=ede0aed3-c023-4853-89b7-450f0ea2a60b"},"vehicle_type_id":"4","last_reported":1726071028,"current_range_meters":25200,"station_id":"ce4bhop2rcd13ifvqh8g","pricing_plan_id":"cebpf4jnsgd1na2vs0mg"},{"bike_id":"1b9fd256-780b-4362-9133-00bbb27e7829","system_id":"levelo_inurba_marseille","lat":43.27617,"lon":5.36109,"is_reserved":false,"is_disabled":false,"rental_uris":{"android":"levelo://app?vid=1b9fd256-780b-4362-9133-00bbb27e7829","ios":"levelo://app?vid=1b9fd256-780b-4362-9133-00bbb27e7829"},"vehicle_type_id":"4","last_reported":1726071028,"current_range_meters":10000,"station_id":"ce4bgj92rcd13ifvqbe0","pricing_plan_id":"cebpf4jnsgd1na2vs0mg"},{"bike_id":"143049cf-4830-4219-a121-2a60df83aa5d","system_id":"levelo_inurba_marseille","lat":43.337444,"lon":5.374475,"is_reserved":false,"is_disabled":false,"rental_uris":{"android":"levelo://app?vid=143049cf-4830-4219-a121-2a60df83aa5d","ios":"levelo://app?vid=143049cf-4830-4219-a121-2a60df83aa5d"},"vehicle_type_id":"4","last_reported":1726071028,"current_range_meters":32000,"station_id":"","pricing_plan_id":"cebpf4jnsgd1na2vs0mg"},{"bike_id":"e69a597e-c18b-4145-996c-f13023c9bdb3","system_id":"levelo_inurba_marseille","lat":43.30157,"lon":5.38784,"is_reserved":false,"is_disabled":false,"rental_uris":{"android":"levelo://app?vid=e69a597e-c18b-4145-996c-f13023c9bdb3","ios":"levelo://app?vid=e69a597e-c18b-4145-996c-f13023c9bdb3"},"vehicle_type_id":"4","last_reported":1726071028,"current_range_meters":35600,"station_id":"ce4bghh2rcd13ifvqb60","pricing_plan_id":"cebpf4jnsgd1na2vs0mg"},{"bike_id":"047ad47f-12d9-4e34-a265-8098020725b2","system_id":"levelo_inurba_marseille","lat":43.24807,"lon":5.3746,"is_reserved":false,"is_disabled":false,"rental_uris":{"android":"levelo://app?vid=047ad47f-12d9-4e34-a265-8098020725b2","ios":"levelo://app?vid=047ad47f-12d9-4e34-a265-8098020725b2"},"vehicle_type_id":"4","last_reported":1726071028,"current_range_meters":20800,"station_id":"ce4bhgh2rcd13ifvqfb0","pricing_plan_id":"cebpf4jnsgd1na2vs0mg"},{"bike_id":"7086a522-75e8-483d-a960-9f4082b77047","system_id":"levelo_inurba_marseille","lat":43.31367,"lon":5.38485,"is_reserved":false,"is_disabled":false,"rental_uris":{"android":"levelo://app?vid=7086a522-75e8-483d-a960-9f4082b77047","ios":"levelo://app?vid=7086a522-75e8-483d-a960-9f4082b77047"},"vehicle_type_id":"4","last_reported":1726071028,"current_range_meters":18800,"station_id":"ce4bgt92rcd13ifvqcf0","pricing_plan_id":"cebpf4jnsgd1na2vs0mg"},{"bike_id":"1ba09b20-ef18-4e06-96e8-904f3640959b","system_id":"levelo_inurba_marseille","lat":43.233804,"lon":5.399391,"is_reserved":false,"is_disabled":false,"rental_uris":{"android":"levelo://app?vid=1ba09b20-ef18-4e06-96e8-904f3640959b","ios":"levelo://app?vid=1ba09b20-ef18-4e06-96e8-904f3640959b"},"vehicle_type_id":"4","last_reported":1726071028,"current_range_meters":14000,"station_id":"ce4bhn12rcd13ifvqgqg","pricing_plan_id":"cebpf4jnsgd1na2vs0mg"},{"bike_id":"cec131b6-6c84-4899-9723-159f4b060af5","system_id":"levelo_inurba_marseille","lat":43.31711,"lon":5.37658,"is_reserved":false,"is_disabled":false,"rental_uris":{"android":"levelo://app?vid=cec131b6-6c84-4899-9723-159f4b060af5","ios":"levelo://app?vid=cec131b6-6c84-4899-9723-159f4b060af5"},"vehicle_type_id":"4","last_reported":1726071028,"current_range_meters":6800,"station_id":"","pricing_plan_id":"cebpf4jnsgd1na2vs0mg"},{"bike_id":"f2b3b549-7f8a-4eae-b464-4b6623533f44","system_id":"levelo_inurba_marseille","lat":43.33749,"lon":5.37451,"is_reserved":false,"is_disabled":false,"rental_uris":{"android":"levelo://app?vid=f2b3b549-7f8a-4eae-b464-4b6623533f44","ios":"levelo://app?vid=f2b3b549-7f8a-4eae-b464-4b6623533f44"},"vehicle_type_id":"4","last_reported":1726071028,"current_range_meters":32000,"station_id":"","pricing_plan_id":"cebpf4jnsgd1na2vs0mg"},{"bike_id":"ae717849-7689-468e-ad0d-4a0364318046","system_id":"levelo_inurba_marseille","lat":43.29047,"lon":5.39949,"is_reserved":false,"is_disabled":false,"rental_uris":{"android":"levelo://app?vid=ae717849-7689-468e-ad0d-4a0364318046","ios":"levelo://app?vid=ae717849-7689-468e-ad0d-4a0364318046"},"vehicle_type_id":"4","last_reported":1726071028,"current_range_meters":36000,"station_id":"ce4bh392rcd13ifvqdm0","pricing_plan_id":"cebpf4jnsgd1na2vs0mg"},{"bike_id":"e83913c9-aaef-4024-b6cc-8b804b5c6d0e","system_id":"levelo_inurba_marseille","lat":43.31396,"lon":5.40279,"is_reserved":false,"is_disabled":false,"rental_uris":{"android":"levelo://app?vid=e83913c9-aaef-4024-b6cc-8b804b5c6d0e","ios":"levelo://app?vid=e83913c9-aaef-4024-b6cc-8b804b5c6d0e"},"vehicle_type_id":"4","last_reported":1726071028,"current_range_meters":22400,"station_id":"ce4bh012rcd13ifvqd00","pricing_plan_id":"cebpf4jnsgd1na2vs0mg"},{"bike_id":"6df62b2e-a065-4a6b-951a-7205c58a5bff","system_id":"levelo_inurba_marseille","lat":43.243866,"lon":5.370562,"is_reserved":false,"is_disabled":false,"rental_uris":{"android":"levelo://app?vid=6df62b2e-a065-4a6b-951a-7205c58a5bff","ios":"levelo://app?vid=6df62b2e-a065-4a6b-951a-7205c58a5bff"},"vehicle_type_id":"4","last_reported":1726071028,"current_range_meters":27600,"station_id":"ce4bhhh2rcd13ifvqfk0","pricing_plan_id":"cebpf4jnsgd1na2vs0mg"},{"bike_id":"38a69614-fc80-4fe6-9020-2aa2f561d214","system_id":"levelo_inurba_marseille","lat":43.2668,"lon":5.38264,"is_reserved":false,"is_disabled":false,"rental_uris":{"android":"levelo://app?vid=38a69614-fc80-4fe6-9020-2aa2f561d214","ios":"levelo://app?vid=38a69614-fc80-4fe6-9020-2aa2f561d214"},"vehicle_type_id":"4","last_reported":1726071028,"current_range_meters":38800,"station_id":"ce4bhg92rcd13ifvqf90","pricing_plan_id":"cebpf4jnsgd1na2vs0mg"},{"bike_id":"0f4446b8-1c47-426f-bd42-dafbe0625597","system_id":"levelo_inurba_marseille","lat":43.29258,"lon":5.38449,"is_reserved":false,"is_disabled":false,"rental_uris":{"android":"levelo://app?vid=0f4446b8-1c47-426f-bd42-dafbe0625597","ios":"levelo://app?vid=0f4446b8-1c47-426f-bd42-dafbe0625597"},"vehicle_type_id":"4","last_reported":1726071028,"current_range_meters":19200,"station_id":"ce4bh692rcd13ifvqea0","pricing_plan_id":"cebpf4jnsgd1na2vs0mg"},{"bike_id":"11dbe029-1355-4bf7-8aeb-5d13ce051ec3","system_id":"levelo_inurba_marseille","lat":43.26061,"lon":5.39389,"is_reserved":false,"is_disabled":false,"rental_uris":{"android":"levelo://app?vid=11dbe029-1355-4bf7-8aeb-5d13ce051ec3","ios":"levelo://app?vid=11dbe029-1355-4bf7-8aeb-5d13ce051ec3"},"vehicle_type_id":"4","last_reported":1726071028,"current_range_meters":20800,"station_id":"ce4bhh92rcd13ifvqfj0","pricing_plan_id":"cebpf4jnsgd1na2vs0mg"},{"bike_id":"ab039a80-6794-4c79-8dbd-da7ebba56d7c","system_id":"levelo_inurba_marseille","lat":43.28118,"lon":5.39263,"is_reserved":false,"is_disabled":false,"rental_uris":{"android":"levelo://app?vid=ab039a80-6794-4c79-8dbd-da7ebba56d7c","ios":"levelo://app?vid=ab039a80-6794-4c79-8dbd-da7ebba56d7c"},"vehicle_type_id":"4","last_reported":1726071028,"current_range_meters":20000,"station_id":"","pricing_plan_id":"cebpf4jnsgd1na2vs0mg"},{"bike_id":"1b0a6cc4-7109-421c-9dd1-f4c22a464f0b","system_id":"levelo_inurba_marseille","lat":43.29419,"lon":5.38617,"is_reserved":false,"is_disabled":false,"rental_uris":{"android":"levelo://app?vid=1b0a6cc4-7109-421c-9dd1-f4c22a464f0b","ios":"levelo://app?vid=1b0a6cc4-7109-421c-9dd1-f4c22a464f0b"},"vehicle_type_id":"4","last_reported":1726071028,"current_range_meters":26800,"station_id":"ce4bh2h2rcd13ifvqdh0","pricing_plan_id":"cebpf4jnsgd1na2vs0mg"},{"bike_id":"4974bcdc-d666-4a63-9cbd-d85c85596e71","system_id":"levelo_inurba_marseille","lat":43.30925,"lon":5.40141,"is_reserved":false,"is_disabled":false,"rental_uris":{"android":"levelo://app?vid=4974bcdc-d666-4a63-9cbd-d85c85596e71","ios":"levelo://app?vid=4974bcdc-d666-4a63-9cbd-d85c85596e71"},"vehicle_type_id":"4","last_reported":1726071028,"current_range_meters":20000,"station_id":"ce4bgvp2rcd13ifvqct0","pricing_plan_id":"cebpf4jnsgd1na2vs0mg"},{"bike_id":"4106d2c5-318d-46a7-b584-b265efc4abef","system_id":"levelo_inurba_marseille","lat":43.28617,"lon":5.35101,"is_reserved":false,"is_disabled":false,"rental_uris":{"android":"levelo://app?vid=4106d2c5-318d-46a7-b584-b265efc4abef","ios":"levelo://app?vid=4106d2c5-318d-46a7-b584-b265efc4abef"},"vehicle_type_id":"4","last_reported":1726071028,"current_range_meters":3600,"station_id":"ce4bhch2rcd13ifvqeug","pricing_plan_id":"cebpf4jnsgd1na2vs0mg"},{"bike_id":"57683dc0-fdb6-489d-93e8-4a4be8d588c6","system_id":"levelo_inurba_marseille","lat":43.295532,"lon":5.422966,"is_reserved":false,"is_disabled":false,"rental_uris":{"android":"levelo://app?vid=57683dc0-fdb6-489d-93e8-4a4be8d588c6","ios":"levelo://app?vid=57683dc0-fdb6-489d-93e8-4a4be8d588c6"},"vehicle_type_id":"4","last_reported":1726071028,"current_range_meters":18800,"station_id":"ce4bhph2rcd13ifvqhdg","pricing_plan_id":"cebpf4jnsgd1na2vs0mg"},{"bike_id":"e1d36761-b1e0-464c-8f55-c87008dbd172","system_id":"levelo_inurba_marseille","lat":43.27813,"lon":5.40707,"is_reserved":false,"is_disabled":false,"rental_uris":{"android":"levelo://app?vid=e1d36761-b1e0-464c-8f55-c87008dbd172","ios":"levelo://app?vid=e1d36761-b1e0-464c-8f55-c87008dbd172"},"vehicle_type_id":"4","last_reported":1726071028,"current_range_meters":3600,"station_id":"ce4bhnh2rcd13ifvqgtg","pricing_plan_id":"cebpf4jnsgd1na2vs0mg"},{"bike_id":"3c45e72c-a88e-44aa-8bca-e1a0ffd178f8","system_id":"levelo_inurba_marseille","lat":43.27524,"lon":5.43425,"is_reserved":false,"is_disabled":false,"rental_uris":{"android":"levelo://app?vid=3c45e72c-a88e-44aa-8bca-e1a0ffd178f8","ios":"levelo://app?vid=3c45e72c-a88e-44aa-8bca-e1a0ffd178f8"},"vehicle_type_id":"4","last_reported":1726071028,"current_range_meters":5600,"station_id":"","pricing_plan_id":"cebpf4jnsgd1na2vs0mg"},{"bike_id":"f05fc4e7-5435-424e-8f86-827fdf979fe4","system_id":"levelo_inurba_marseille","lat":43.2955,"lon":5.42278,"is_reserved":false,"is_disabled":false,"rental_uris":{"android":"levelo://app?vid=f05fc4e7-5435-424e-8f86-827fdf979fe4","ios":"levelo://app?vid=f05fc4e7-5435-424e-8f86-827fdf979fe4"},"vehicle_type_id":"4","last_reported":1726071028,"current_range_meters":34000,"station_id":"ce4bhph2rcd13ifvqhdg","pricing_plan_id":"cebpf4jnsgd1na2vs0mg"},{"bike_id":"f58772ed-080f-4a06-947e-cfd3417ad257","system_id":"levelo_inurba_marseille","lat":43.30416,"lon":5.41276,"is_reserved":false,"is_disabled":false,"rental_uris":{"android":"levelo://app?vid=f58772ed-080f-4a06-947e-cfd3417ad257","ios":"levelo://app?vid=f58772ed-080f-4a06-947e-cfd3417ad257"},"vehicle_type_id":"4","last_reported":1726071028,"current_range_meters":19200,"station_id":"ce4bhop2rcd13ifvqh8g","pricing_plan_id":"cebpf4jnsgd1na2vs0mg"},{"bike_id":"f3872451-dc6a-457c-ace5-6606df9ed7e4","system_id":"levelo_inurba_marseille","lat":43.26213,"lon":5.37446,"is_reserved":false,"is_disabled":false,"rental_uris":{"android":"levelo://app?vid=f3872451-dc6a-457c-ace5-6606df9ed7e4","ios":"levelo://app?vid=f3872451-dc6a-457c-ace5-6606df9ed7e4"},"vehicle_type_id":"4","last_reported":1726071028,"current_range_meters":11200,"station_id":"ce4bhgp2rcd13ifvqfc0","pricing_plan_id":"cebpf4jnsgd1na2vs0mg"},{"bike_id":"6cc95b7a-cb37-48e2-8682-a1d2bf2d8e96","system_id":"levelo_inurba_marseille","lat":43.30534,"lon":5.3655,"is_reserved":false,"is_disabled":false,"rental_uris":{"android":"levelo://app?vid=6cc95b7a-cb37-48e2-8682-a1d2bf2d8e96","ios":"levelo://app?vid=6cc95b7a-cb37-48e2-8682-a1d2bf2d8e96"},"vehicle_type_id":"4","last_reported":1726071028,"current_range_meters":6800,"station_id":"ce4bgs12rcd13ifvqcag","pricing_plan_id":"cebpf4jnsgd1na2vs0mg"},{"bike_id":"ee41233d-7057-4ec4-b3c6-63f582836de8","system_id":"levelo_inurba_marseille","lat":43.22934,"lon":5.35376,"is_reserved":false,"is_disabled":false,"rental_uris":{"android":"levelo://app?vid=ee41233d-7057-4ec4-b3c6-63f582836de8","ios":"levelo://app?vid=ee41233d-7057-4ec4-b3c6-63f582836de8"},"vehicle_type_id":"4","last_reported":1726071028,"current_range_meters":32000,"station_id":"cpo3532slgdg3j2ikp40","pricing_plan_id":"cebpf4jnsgd1na2vs0mg"},{"bike_id":"e37f769a-1e77-4c32-83af-8e1ca50daf0f","system_id":"levelo_inurba_marseille","lat":43.24074,"lon":5.37756,"is_reserved":false,"is_disabled":false,"rental_uris":{"android":"levelo://app?vid=e37f769a-1e77-4c32-83af-8e1ca50daf0f","ios":"levelo://app?vid=e37f769a-1e77-4c32-83af-8e1ca50daf0f"},"vehicle_type_id":"4","last_reported":1726071028,"current_range_meters":7200,"station_id":"ce4bhnp2rcd13ifvqgvg","pricing_plan_id":"cebpf4jnsgd1na2vs0mg"},{"bike_id":"2d71b7d9-2276-4075-8e09-35f06f9d7936","system_id":"levelo_inurba_marseille","lat":43.30318,"lon":5.36898,"is_reserved":false,"is_disabled":false,"rental_uris":{"android":"levelo://app?vid=2d71b7d9-2276-4075-8e09-35f06f9d7936","ios":"levelo://app?vid=2d71b7d9-2276-4075-8e09-35f06f9d7936"},"vehicle_type_id":"4","last_reported":1726071028,"current_range_meters":13600,"station_id":"ce4bgqh2rcd13ifvqc5g","pricing_plan_id":"cebpf4jnsgd1na2vs0mg"},{"bike_id":"99929ab7-89dd-4d3c-b411-6d13cf180e00","system_id":"levelo_inurba_marseille","lat":43.29415,"lon":5.38623,"is_reserved":false,"is_disabled":false,"rental_uris":{"android":"levelo://app?vid=99929ab7-89dd-4d3c-b411-6d13cf180e00","ios":"levelo://app?vid=99929ab7-89dd-4d3c-b411-6d13cf180e00"},"vehicle_type_id":"4","last_reported":1726071028,"current_range_meters":39200,"station_id":"ce4bh2h2rcd13ifvqdh0","pricing_plan_id":"cebpf4jnsgd1na2vs0mg"},{"bike_id":"8c3decf2-9c61-4d24-b061-fc734d638759","system_id":"levelo_inurba_marseille","lat":43.28893,"lon":5.39493,"is_reserved":false,"is_disabled":false,"rental_uris":{"android":"levelo://app?vid=8c3decf2-9c61-4d24-b061-fc734d638759","ios":"levelo://app?vid=8c3decf2-9c61-4d24-b061-fc734d638759"},"vehicle_type_id":"4","last_reported":1726071028,"current_range_meters":4800,"station_id":"","pricing_plan_id":"cebpf4jnsgd1na2vs0mg"},{"bike_id":"b76153c9-aefe-47de-b185-848f8fe4994b","system_id":"levelo_inurba_marseille","lat":43.30094,"lon":5.39098,"is_reserved":false,"is_disabled":false,"rental_uris":{"android":"levelo://app?vid=b76153c9-aefe-47de-b185-848f8fe4994b","ios":"levelo://app?vid=b76153c9-aefe-47de-b185-848f8fe4994b"},"vehicle_type_id":"4","last_reported":1726071028,"current_range_meters":20400,"station_id":"ce4bh192rcd13ifvqdb0","pricing_plan_id":"cebpf4jnsgd1na2vs0mg"},{"bike_id":"92ee407c-4175-41c0-872d-b39bba12b990","system_id":"levelo_inurba_marseille","lat":43.28076,"lon":5.39648,"is_reserved":false,"is_disabled":false,"rental_uris":{"android":"levelo://app?vid=92ee407c-4175-41c0-872d-b39bba12b990","ios":"levelo://app?vid=92ee407c-4175-41c0-872d-b39bba12b990"},"vehicle_type_id":"4","last_reported":1726071028,"current_range_meters":27200,"station_id":"ce4bho12rcd13ifvqh2g","pricing_plan_id":"cebpf4jnsgd1na2vs0mg"},{"bike_id":"145e757d-7c8d-4441-86a9-bbce820736a9","system_id":"levelo_inurba_marseille","lat":43.28103,"lon":5.37834,"is_reserved":false,"is_disabled":false,"rental_uris":{"android":"levelo://app?vid=145e757d-7c8d-4441-86a9-bbce820736a9","ios":"levelo://app?vid=145e757d-7c8d-4441-86a9-bbce820736a9"},"vehicle_type_id":"4","last_reported":1726071028,"current_range_meters":17200,"station_id":"ce4bha12rcd13ifvqee0","pricing_plan_id":"cebpf4jnsgd1na2vs0mg"},{"bike_id":"20929f51-935c-48d4-967b-2954de27f46c","system_id":"levelo_inurba_marseille","lat":43.30419,"lon":5.41284,"is_reserved":false,"is_disabled":false,"rental_uris":{"android":"levelo://app?vid=20929f51-935c-48d4-967b-2954de27f46c","ios":"levelo://app?vid=20929f51-935c-48d4-967b-2954de27f46c"},"vehicle_type_id":"4","last_reported":1726071028,"current_range_meters":40000,"station_id":"ce4bhop2rcd13ifvqh8g","pricing_plan_id":"cebpf4jnsgd1na2vs0mg"},{"bike_id":"ce85287f-5e13-4afc-84aa-de24cd1be6e8","system_id":"levelo_inurba_marseille","lat":43.27997,"lon":5.40009,"is_reserved":false,"is_disabled":false,"rental_uris":{"android":"levelo://app?vid=ce85287f-5e13-4afc-84aa-de24cd1be6e8","ios":"levelo://app?vid=ce85287f-5e13-4afc-84aa-de24cd1be6e8"},"vehicle_type_id":"4","last_reported":1726071028,"current_range_meters":12000,"station_id":"ce4bho92rcd13ifvqh4g","pricing_plan_id":"cebpf4jnsgd1na2vs0mg"},{"bike_id":"5235fcb9-945e-4fa8-9d44-fc921edb2a90","system_id":"levelo_inurba_marseille","lat":43.29046,"lon":5.35904,"is_reserved":false,"is_disabled":false,"rental_uris":{"android":"levelo://app?vid=5235fcb9-945e-4fa8-9d44-fc921edb2a90","ios":"levelo://app?vid=5235fcb9-945e-4fa8-9d44-fc921edb2a90"},"vehicle_type_id":"4","last_reported":1726071028,"current_range_meters":4000,"station_id":"ce4bha92rcd13ifvqeg0","pricing_plan_id":"cebpf4jnsgd1na2vs0mg"},{"bike_id":"1f061f5a-5958-482f-a8ab-8006ec21780c","system_id":"levelo_inurba_marseille","lat":43.245453,"lon":5.395211,"is_reserved":false,"is_disabled":false,"rental_uris":{"android":"levelo://app?vid=1f061f5a-5958-482f-a8ab-8006ec21780c","ios":"levelo://app?vid=1f061f5a-5958-482f-a8ab-8006ec21780c"},"vehicle_type_id":"4","last_reported":1726071028,"current_range_meters":2000,"station_id":"ce4bhlp2rcd13ifvqgjg","pricing_plan_id":"cebpf4jnsgd1na2vs0mg"},{"bike_id":"91b0cf8b-a805-45c1-b597-e4f8d6cbe2fb","system_id":"levelo_inurba_marseille","lat":43.29558,"lon":5.42289,"is_reserved":false,"is_disabled":false,"rental_uris":{"android":"levelo://app?vid=91b0cf8b-a805-45c1-b597-e4f8d6cbe2fb","ios":"levelo://app?vid=91b0cf8b-a805-45c1-b597-e4f8d6cbe2fb"},"vehicle_type_id":"4","last_reported":1726071028,"current_range_meters":25600,"station_id":"ce4bhph2rcd13ifvqhdg","pricing_plan_id":"cebpf4jnsgd1na2vs0mg"},{"bike_id":"f5f53db7-567c-4100-80ce-92519c9ec2b1","system_id":"levelo_inurba_marseille","lat":43.29895,"lon":5.43667,"is_reserved":false,"is_disabled":false,"rental_uris":{"android":"levelo://app?vid=f5f53db7-567c-4100-80ce-92519c9ec2b1","ios":"levelo://app?vid=f5f53db7-567c-4100-80ce-92519c9ec2b1"},"vehicle_type_id":"4","last_reported":1726071028,"current_range_meters":10000,"station_id":"ce4bhpp2rcd13ifvqhfg","pricing_plan_id":"cebpf4jnsgd1na2vs0mg"},{"bike_id":"2dca4a70-6592-4a48-b7ff-cf8cb17678e5","system_id":"levelo_inurba_marseille","lat":43.2481,"lon":5.37455,"is_reserved":false,"is_disabled":false,"rental_uris":{"android":"levelo://app?vid=2dca4a70-6592-4a48-b7ff-cf8cb17678e5","ios":"levelo://app?vid=2dca4a70-6592-4a48-b7ff-cf8cb17678e5"},"vehicle_type_id":"4","last_reported":1726071028,"current_range_meters":24000,"station_id":"ce4bhgh2rcd13ifvqfb0","pricing_plan_id":"cebpf4jnsgd1na2vs0mg"},{"bike_id":"40dfebef-2ba6-432f-b0c2-3f92ebc8255b","system_id":"levelo_inurba_marseille","lat":43.25501,"lon":5.37647,"is_reserved":false,"is_disabled":false,"rental_uris":{"android":"levelo://app?vid=40dfebef-2ba6-432f-b0c2-3f92ebc8255b","ios":"levelo://app?vid=40dfebef-2ba6-432f-b0c2-3f92ebc8255b"},"vehicle_type_id":"4","last_reported":1726071028,"current_range_meters":5600,"station_id":"ce4bhh12rcd13ifvqff0","pricing_plan_id":"cebpf4jnsgd1na2vs0mg"},{"bike_id":"8347053f-d836-42c4-a4dd-8a1a4e119106","system_id":"levelo_inurba_marseille","lat":43.33024,"lon":5.39038,"is_reserved":false,"is_disabled":false,"rental_uris":{"android":"levelo://app?vid=8347053f-d836-42c4-a4dd-8a1a4e119106","ios":"levelo://app?vid=8347053f-d836-42c4-a4dd-8a1a4e119106"},"vehicle_type_id":"4","last_reported":1726071028,"current_range_meters":24800,"station_id":"ce4bhr92rcd13ifvqhrg","pricing_plan_id":"cebpf4jnsgd1na2vs0mg"},{"bike_id":"cae46dfe-97e8-4c5c-9017-c5b9215c92a8","system_id":"levelo_inurba_marseille","lat":43.27814,"lon":5.40708,"is_reserved":false,"is_disabled":false,"rental_uris":{"android":"levelo://app?vid=cae46dfe-97e8-4c5c-9017-c5b9215c92a8","ios":"levelo://app?vid=cae46dfe-97e8-4c5c-9017-c5b9215c92a8"},"vehicle_type_id":"4","last_reported":1726071028,"current_range_meters":5600,"station_id":"ce4bhnh2rcd13ifvqgtg","pricing_plan_id":"cebpf4jnsgd1na2vs0mg"},{"bike_id":"de9e305a-9e44-4f7f-a432-42f57c6cf1c9","system_id":"levelo_inurba_marseille","lat":43.29961,"lon":5.41321,"is_reserved":false,"is_disabled":false,"rental_uris":{"android":"levelo://app?vid=de9e305a-9e44-4f7f-a432-42f57c6cf1c9","ios":"levelo://app?vid=de9e305a-9e44-4f7f-a432-42f57c6cf1c9"},"vehicle_type_id":"4","last_reported":1726071028,"current_range_meters":38800,"station_id":"ce4bhp12rcd13ifvqh9g","pricing_plan_id":"cebpf4jnsgd1na2vs0mg"},{"bike_id":"660a750b-6a78-462f-af8c-42c84c32c7b1","system_id":"levelo_inurba_marseille","lat":43.30121,"lon":5.39853,"is_reserved":false,"is_disabled":false,"rental_uris":{"android":"levelo://app?vid=660a750b-6a78-462f-af8c-42c84c32c7b1","ios":"levelo://app?vid=660a750b-6a78-462f-af8c-42c84c32c7b1"},"vehicle_type_id":"4","last_reported":1726071028,"current_range_meters":20400,"station_id":"ce4bh0h2rcd13ifvqd40","pricing_plan_id":"cebpf4jnsgd1na2vs0mg"},{"bike_id":"2717c33f-c49e-4225-9ca3-5bc8304c822f","system_id":"levelo_inurba_marseille","lat":43.2866,"lon":5.36359,"is_reserved":false,"is_disabled":false,"rental_uris":{"android":"levelo://app?vid=2717c33f-c49e-4225-9ca3-5bc8304c822f","ios":"levelo://app?vid=2717c33f-c49e-4225-9ca3-5bc8304c822f"},"vehicle_type_id":"4","last_reported":1726071028,"current_range_meters":30800,"station_id":"ce4bhah2rcd13ifvqej0","pricing_plan_id":"cebpf4jnsgd1na2vs0mg"},{"bike_id":"230e3a22-1a03-408c-b711-7f167a488065","system_id":"levelo_inurba_marseille","lat":43.30571,"lon":5.38121,"is_reserved":false,"is_disabled":false,"rental_uris":{"android":"levelo://app?vid=230e3a22-1a03-408c-b711-7f167a488065","ios":"levelo://app?vid=230e3a22-1a03-408c-b711-7f167a488065"},"vehicle_type_id":"4","last_reported":1726071028,"current_range_meters":8400,"station_id":"ce4bgup2rcd13ifvqcn0","pricing_plan_id":"cebpf4jnsgd1na2vs0mg"},{"bike_id":"6e497a58-a7bb-43b8-890f-4730b2bec2fe","system_id":"levelo_inurba_marseille","lat":43.28613,"lon":5.35103,"is_reserved":false,"is_disabled":false,"rental_uris":{"android":"levelo://app?vid=6e497a58-a7bb-43b8-890f-4730b2bec2fe","ios":"levelo://app?vid=6e497a58-a7bb-43b8-890f-4730b2bec2fe"},"vehicle_type_id":"4","last_reported":1726071028,"current_range_meters":30000,"station_id":"ce4bhch2rcd13ifvqeug","pricing_plan_id":"cebpf4jnsgd1na2vs0mg"},{"bike_id":"3c5b7035-1b0f-434d-ad3c-c5734c75c524","system_id":"levelo_inurba_marseille","lat":43.29895,"lon":5.43655,"is_reserved":false,"is_disabled":false,"rental_uris":{"android":"levelo://app?vid=3c5b7035-1b0f-434d-ad3c-c5734c75c524","ios":"levelo://app?vid=3c5b7035-1b0f-434d-ad3c-c5734c75c524"},"vehicle_type_id":"4","last_reported":1726071028,"current_range_meters":1600,"station_id":"ce4bhpp2rcd13ifvqhfg","pricing_plan_id":"cebpf4jnsgd1na2vs0mg"},{"bike_id":"09386cfa-c6a0-4ab5-ab07-5155f7041bec","system_id":"levelo_inurba_marseille","lat":43.32993,"lon":5.36837,"is_reserved":false,"is_disabled":false,"rental_uris":{"android":"levelo://app?vid=09386cfa-c6a0-4ab5-ab07-5155f7041bec","ios":"levelo://app?vid=09386cfa-c6a0-4ab5-ab07-5155f7041bec"},"vehicle_type_id":"4","last_reported":1726071028,"current_range_meters":22000,"station_id":"","pricing_plan_id":"cebpf4jnsgd1na2vs0mg"},{"bike_id":"de421b2f-f6f0-4135-a5cf-d1a7f246d859","system_id":"levelo_inurba_marseille","lat":43.27814,"lon":5.40716,"is_reserved":false,"is_disabled":false,"rental_uris":{"android":"levelo://app?vid=de421b2f-f6f0-4135-a5cf-d1a7f246d859","ios":"levelo://app?vid=de421b2f-f6f0-4135-a5cf-d1a7f246d859"},"vehicle_type_id":"4","last_reported":1726071028,"current_range_meters":32400,"station_id":"ce4bhnh2rcd13ifvqgtg","pricing_plan_id":"cebpf4jnsgd1na2vs0mg"},{"bike_id":"9b769d86-5767-4731-b3ee-8b15c3feb2bf","system_id":"levelo_inurba_marseille","lat":43.29552,"lon":5.42287,"is_reserved":false,"is_disabled":false,"rental_uris":{"android":"levelo://app?vid=9b769d86-5767-4731-b3ee-8b15c3feb2bf","ios":"levelo://app?vid=9b769d86-5767-4731-b3ee-8b15c3feb2bf"},"vehicle_type_id":"4","last_reported":1726071028,"current_range_meters":28400,"station_id":"ce4bhph2rcd13ifvqhdg","pricing_plan_id":"cebpf4jnsgd1na2vs0mg"},{"bike_id":"00964224-31d0-44ca-8e58-2b6ea4b0b2da","system_id":"levelo_inurba_marseille","lat":43.30141,"lon":5.3878,"is_reserved":false,"is_disabled":false,"rental_uris":{"android":"levelo://app?vid=00964224-31d0-44ca-8e58-2b6ea4b0b2da","ios":"levelo://app?vid=00964224-31d0-44ca-8e58-2b6ea4b0b2da"},"vehicle_type_id":"4","last_reported":1726071028,"current_range_meters":37600,"station_id":"ce4bghh2rcd13ifvqb60","pricing_plan_id":"cebpf4jnsgd1na2vs0mg"},{"bike_id":"b453a2db-e024-4222-8067-2668eb2eead8","system_id":"levelo_inurba_marseille","lat":43.2762,"lon":5.36104,"is_reserved":false,"is_disabled":false,"rental_uris":{"android":"levelo://app?vid=b453a2db-e024-4222-8067-2668eb2eead8","ios":"levelo://app?vid=b453a2db-e024-4222-8067-2668eb2eead8"},"vehicle_type_id":"4","last_reported":1726071028,"current_range_meters":23200,"station_id":"ce4bgj92rcd13ifvqbe0","pricing_plan_id":"cebpf4jnsgd1na2vs0mg"},{"bike_id":"5804faad-a203-40ad-b05d-11dbefd3c644","system_id":"levelo_inurba_marseille","lat":43.28573,"lon":5.3949,"is_reserved":false,"is_disabled":false,"rental_uris":{"android":"levelo://app?vid=5804faad-a203-40ad-b05d-11dbefd3c644","ios":"levelo://app?vid=5804faad-a203-40ad-b05d-11dbefd3c644"},"vehicle_type_id":"4","last_reported":1726071028,"current_range_meters":38800,"station_id":"ce4bh292rcd13ifvqdg0","pricing_plan_id":"cebpf4jnsgd1na2vs0mg"},{"bike_id":"3733ce87-1517-4fff-baed-857c89644a87","system_id":"levelo_inurba_marseille","lat":43.25497,"lon":5.37651,"is_reserved":false,"is_disabled":false,"rental_uris":{"android":"levelo://app?vid=3733ce87-1517-4fff-baed-857c89644a87","ios":"levelo://app?vid=3733ce87-1517-4fff-baed-857c89644a87"},"vehicle_type_id":"4","last_reported":1726071028,"current_range_meters":38000,"station_id":"ce4bhh12rcd13ifvqff0","pricing_plan_id":"cebpf4jnsgd1na2vs0mg"},{"bike_id":"9188f37f-edbf-4356-93b5-7cfb6680a543","system_id":"levelo_inurba_marseille","lat":43.33024,"lon":5.39045,"is_reserved":false,"is_disabled":false,"rental_uris":{"android":"levelo://app?vid=9188f37f-edbf-4356-93b5-7cfb6680a543","ios":"levelo://app?vid=9188f37f-edbf-4356-93b5-7cfb6680a543"},"vehicle_type_id":"4","last_reported":1726071028,"current_range_meters":32000,"station_id":"ce4bhr92rcd13ifvqhrg","pricing_plan_id":"cebpf4jnsgd1na2vs0mg"},{"bike_id":"8013a7fc-86c9-405f-9e7b-ed589925b7dd","system_id":"levelo_inurba_marseille","lat":43.31086,"lon":5.40094,"is_reserved":false,"is_disabled":false,"rental_uris":{"android":"levelo://app?vid=8013a7fc-86c9-405f-9e7b-ed589925b7dd","ios":"levelo://app?vid=8013a7fc-86c9-405f-9e7b-ed589925b7dd"},"vehicle_type_id":"4","last_reported":1726071028,"current_range_meters":7200,"station_id":"","pricing_plan_id":"cebpf4jnsgd1na2vs0mg"},{"bike_id":"7ff65f4c-31e2-4306-95df-1677f44412f6","system_id":"levelo_inurba_marseille","lat":43.31757,"lon":5.39012,"is_reserved":false,"is_disabled":false,"rental_uris":{"android":"levelo://app?vid=7ff65f4c-31e2-4306-95df-1677f44412f6","ios":"levelo://app?vid=7ff65f4c-31e2-4306-95df-1677f44412f6"},"vehicle_type_id":"4","last_reported":1726071028,"current_range_meters":17200,"station_id":"ce4bhqp2rcd13ifvqhng","pricing_plan_id":"cebpf4jnsgd1na2vs0mg"},{"bike_id":"138c118a-3df9-46e8-9078-2970c26c9200","system_id":"levelo_inurba_marseille","lat":43.27833,"lon":5.39203,"is_reserved":false,"is_disabled":false,"rental_uris":{"android":"levelo://app?vid=138c118a-3df9-46e8-9078-2970c26c9200","ios":"levelo://app?vid=138c118a-3df9-46e8-9078-2970c26c9200"},"vehicle_type_id":"4","last_reported":1726071028,"current_range_meters":16800,"station_id":"ce4bhjp2rcd13ifvqga0","pricing_plan_id":"cebpf4jnsgd1na2vs0mg"},{"bike_id":"01ac9959-90b2-493c-a8fd-75170bf3edc4","system_id":"levelo_inurba_marseille","lat":43.33041,"lon":5.36455,"is_reserved":false,"is_disabled":false,"rental_uris":{"android":"levelo://app?vid=01ac9959-90b2-493c-a8fd-75170bf3edc4","ios":"levelo://app?vid=01ac9959-90b2-493c-a8fd-75170bf3edc4"},"vehicle_type_id":"4","last_reported":1726071028,"current_range_meters":22800,"station_id":"","pricing_plan_id":"cebpf4jnsgd1na2vs0mg"},{"bike_id":"e4890c4f-eb3f-42f0-aa17-b83b3634114e","system_id":"levelo_inurba_marseille","lat":43.29267,"lon":5.38445,"is_reserved":false,"is_disabled":false,"rental_uris":{"android":"levelo://app?vid=e4890c4f-eb3f-42f0-aa17-b83b3634114e","ios":"levelo://app?vid=e4890c4f-eb3f-42f0-aa17-b83b3634114e"},"vehicle_type_id":"4","last_reported":1726071028,"current_range_meters":16800,"station_id":"ce4bh692rcd13ifvqea0","pricing_plan_id":"cebpf4jnsgd1na2vs0mg"},{"bike_id":"bf676ffd-e62e-405f-a261-3bcf60644718","system_id":"levelo_inurba_marseille","lat":43.292919,"lon":5.38504,"is_reserved":false,"is_disabled":false,"rental_uris":{"android":"levelo://app?vid=bf676ffd-e62e-405f-a261-3bcf60644718","ios":"levelo://app?vid=bf676ffd-e62e-405f-a261-3bcf60644718"},"vehicle_type_id":"4","last_reported":1726071028,"current_range_meters":16400,"station_id":"","pricing_plan_id":"cebpf4jnsgd1na2vs0mg"},{"bike_id":"c8ffe1a4-d5ac-47d7-b575-d227fcada124","system_id":"levelo_inurba_marseille","lat":43.26207,"lon":5.3744,"is_reserved":false,"is_disabled":false,"rental_uris":{"android":"levelo://app?vid=c8ffe1a4-d5ac-47d7-b575-d227fcada124","ios":"levelo://app?vid=c8ffe1a4-d5ac-47d7-b575-d227fcada124"},"vehicle_type_id":"4","last_reported":1726071028,"current_range_meters":17600,"station_id":"ce4bhgp2rcd13ifvqfc0","pricing_plan_id":"cebpf4jnsgd1na2vs0mg"},{"bike_id":"8766ebb2-5c20-4f5e-b16a-86c8dbf2f7c7","system_id":"levelo_inurba_marseille","lat":43.29893,"lon":5.43676,"is_reserved":false,"is_disabled":false,"rental_uris":{"android":"levelo://app?vid=8766ebb2-5c20-4f5e-b16a-86c8dbf2f7c7","ios":"levelo://app?vid=8766ebb2-5c20-4f5e-b16a-86c8dbf2f7c7"},"vehicle_type_id":"4","last_reported":1726071028,"current_range_meters":20400,"station_id":"ce4bhpp2rcd13ifvqhfg","pricing_plan_id":"cebpf4jnsgd1na2vs0mg"},{"bike_id":"8097c7c6-b594-47e2-a488-8de5c902a5f7","system_id":"levelo_inurba_marseille","lat":43.29375,"lon":5.37867,"is_reserved":false,"is_disabled":false,"rental_uris":{"android":"levelo://app?vid=8097c7c6-b594-47e2-a488-8de5c902a5f7","ios":"levelo://app?vid=8097c7c6-b594-47e2-a488-8de5c902a5f7"},"vehicle_type_id":"4","last_reported":1726071028,"current_range_meters":2000,"station_id":"ce4bgjh2rcd13ifvqbf0","pricing_plan_id":"cebpf4jnsgd1na2vs0mg"},{"bike_id":"9a631045-7095-428e-90da-0f3d311025c9","system_id":"levelo_inurba_marseille","lat":43.31076,"lon":5.424249,"is_reserved":false,"is_disabled":false,"rental_uris":{"android":"levelo://app?vid=9a631045-7095-428e-90da-0f3d311025c9","ios":"levelo://app?vid=9a631045-7095-428e-90da-0f3d311025c9"},"vehicle_type_id":"4","last_reported":1726071028,"current_range_meters":20400,"station_id":"ce4bhp92rcd13ifvqhag","pricing_plan_id":"cebpf4jnsgd1na2vs0mg"},{"bike_id":"82950c91-da58-4e63-b46c-ba17dab62e90","system_id":"levelo_inurba_marseille","lat":43.29422,"lon":5.38616,"is_reserved":false,"is_disabled":false,"rental_uris":{"android":"levelo://app?vid=82950c91-da58-4e63-b46c-ba17dab62e90","ios":"levelo://app?vid=82950c91-da58-4e63-b46c-ba17dab62e90"},"vehicle_type_id":"4","last_reported":1726071028,"current_range_meters":35200,"station_id":"ce4bh2h2rcd13ifvqdh0","pricing_plan_id":"cebpf4jnsgd1na2vs0mg"},{"bike_id":"db24b084-20e6-4432-ac42-6786467dc495","system_id":"levelo_inurba_marseille","lat":43.31894,"lon":5.37216,"is_reserved":false,"is_disabled":false,"rental_uris":{"android":"levelo://app?vid=db24b084-20e6-4432-ac42-6786467dc495","ios":"levelo://app?vid=db24b084-20e6-4432-ac42-6786467dc495"},"vehicle_type_id":"4","last_reported":1726071028,"current_range_meters":36400,"station_id":"","pricing_plan_id":"cebpf4jnsgd1na2vs0mg"},{"bike_id":"f86e5f6b-f6d4-4e43-b4d1-cdd67dc79b5f","system_id":"levelo_inurba_marseille","lat":43.31073,"lon":5.383576,"is_reserved":false,"is_disabled":false,"rental_uris":{"android":"levelo://app?vid=f86e5f6b-f6d4-4e43-b4d1-cdd67dc79b5f","ios":"levelo://app?vid=f86e5f6b-f6d4-4e43-b4d1-cdd67dc79b5f"},"vehicle_type_id":"4","last_reported":1726071028,"current_range_meters":32000,"station_id":"ce4bgv92rcd13ifvqcr0","pricing_plan_id":"cebpf4jnsgd1na2vs0mg"},{"bike_id":"593aca02-2ef0-426e-b546-fb1ca332ee04","system_id":"levelo_inurba_marseille","lat":43.2952,"lon":5.39034,"is_reserved":false,"is_disabled":false,"rental_uris":{"android":"levelo://app?vid=593aca02-2ef0-426e-b546-fb1ca332ee04","ios":"levelo://app?vid=593aca02-2ef0-426e-b546-fb1ca332ee04"},"vehicle_type_id":"4","last_reported":1726071028,"current_range_meters":6400,"station_id":"ce4bh3p2rcd13ifvqdp0","pricing_plan_id":"cebpf4jnsgd1na2vs0mg"},{"bike_id":"d6fac30d-45ac-48c3-a214-0081fd6f3f52","system_id":"levelo_inurba_marseille","lat":43.26208,"lon":5.37441,"is_reserved":false,"is_disabled":false,"rental_uris":{"android":"levelo://app?vid=d6fac30d-45ac-48c3-a214-0081fd6f3f52","ios":"levelo://app?vid=d6fac30d-45ac-48c3-a214-0081fd6f3f52"},"vehicle_type_id":"4","last_reported":1726071028,"current_range_meters":26800,"station_id":"ce4bhgp2rcd13ifvqfc0","pricing_plan_id":"cebpf4jnsgd1na2vs0mg"},{"bike_id":"70ed98ec-a4ef-4cef-b964-ac0483fe6a88","system_id":"levelo_inurba_marseille","lat":43.260315,"lon":5.375455,"is_reserved":false,"is_disabled":false,"rental_uris":{"android":"levelo://app?vid=70ed98ec-a4ef-4cef-b964-ac0483fe6a88","ios":"levelo://app?vid=70ed98ec-a4ef-4cef-b964-ac0483fe6a88"},"vehicle_type_id":"4","last_reported":1726071028,"current_range_meters":23200,"station_id":"ce4bhgh2rcd13ifvqfa0","pricing_plan_id":"cebpf4jnsgd1na2vs0mg"},{"bike_id":"837b6cac-17aa-43df-963d-e3f75e0f6c12","system_id":"levelo_inurba_marseille","lat":43.27976,"lon":5.38739,"is_reserved":false,"is_disabled":false,"rental_uris":{"android":"levelo://app?vid=837b6cac-17aa-43df-963d-e3f75e0f6c12","ios":"levelo://app?vid=837b6cac-17aa-43df-963d-e3f75e0f6c12"},"vehicle_type_id":"4","last_reported":1726071028,"current_range_meters":21600,"station_id":"ce4bhg12rcd13ifvqf80","pricing_plan_id":"cebpf4jnsgd1na2vs0mg"},{"bike_id":"729b0da5-227d-48bc-9f68-904f838e5be4","system_id":"levelo_inurba_marseille","lat":43.29271,"lon":5.40113,"is_reserved":false,"is_disabled":false,"rental_uris":{"android":"levelo://app?vid=729b0da5-227d-48bc-9f68-904f838e5be4","ios":"levelo://app?vid=729b0da5-227d-48bc-9f68-904f838e5be4"},"vehicle_type_id":"4","last_reported":1726071028,"current_range_meters":36400,"station_id":"ce4bh312rcd13ifvqdk0","pricing_plan_id":"cebpf4jnsgd1na2vs0mg"},{"bike_id":"58fa1f09-83c6-47f4-9163-48c0f73b4584","system_id":"levelo_inurba_marseille","lat":43.290092,"lon":5.386697,"is_reserved":false,"is_disabled":false,"rental_uris":{"android":"levelo://app?vid=58fa1f09-83c6-47f4-9163-48c0f73b4584","ios":"levelo://app?vid=58fa1f09-83c6-47f4-9163-48c0f73b4584"},"vehicle_type_id":"4","last_reported":1726071028,"current_range_meters":9200,"station_id":"ce4bh4p2rcd13ifvqe0g","pricing_plan_id":"cebpf4jnsgd1na2vs0mg"},{"bike_id":"519c0214-d88b-4859-9d64-e1d881f0004c","system_id":"levelo_inurba_marseille","lat":43.28725,"lon":5.37935,"is_reserved":false,"is_disabled":false,"rental_uris":{"android":"levelo://app?vid=519c0214-d88b-4859-9d64-e1d881f0004c","ios":"levelo://app?vid=519c0214-d88b-4859-9d64-e1d881f0004c"},"vehicle_type_id":"4","last_reported":1726071028,"current_range_meters":29600,"station_id":"ce4bh9p2rcd13ifvqec0","pricing_plan_id":"cebpf4jnsgd1na2vs0mg"},{"bike_id":"1babe19f-8402-42c7-b5c3-32a475551e64","system_id":"levelo_inurba_marseille","lat":43.33025,"lon":5.3904,"is_reserved":false,"is_disabled":false,"rental_uris":{"android":"levelo://app?vid=1babe19f-8402-42c7-b5c3-32a475551e64","ios":"levelo://app?vid=1babe19f-8402-42c7-b5c3-32a475551e64"},"vehicle_type_id":"4","last_reported":1726071028,"current_range_meters":20000,"station_id":"ce4bhr92rcd13ifvqhrg","pricing_plan_id":"cebpf4jnsgd1na2vs0mg"},{"bike_id":"739bab8d-6221-4edc-879e-8e248fb6a039","system_id":"levelo_inurba_marseille","lat":43.32884,"lon":5.38772,"is_reserved":false,"is_disabled":false,"rental_uris":{"android":"levelo://app?vid=739bab8d-6221-4edc-879e-8e248fb6a039","ios":"levelo://app?vid=739bab8d-6221-4edc-879e-8e248fb6a039"},"vehicle_type_id":"4","last_reported":1726071028,"current_range_meters":4400,"station_id":"","pricing_plan_id":"cebpf4jnsgd1na2vs0mg"},{"bike_id":"39fc7f1e-85aa-4548-8433-e08def10a909","system_id":"levelo_inurba_marseille","lat":43.30339,"lon":5.418671,"is_reserved":false,"is_disabled":false,"rental_uris":{"android":"levelo://app?vid=39fc7f1e-85aa-4548-8433-e08def10a909","ios":"levelo://app?vid=39fc7f1e-85aa-4548-8433-e08def10a909"},"vehicle_type_id":"4","last_reported":1726071028,"current_range_meters":4800,"station_id":"ce4bhop2rcd13ifvqh7g","pricing_plan_id":"cebpf4jnsgd1na2vs0mg"},{"bike_id":"b79838ca-786e-4b64-afc8-032066ceb0d1","system_id":"levelo_inurba_marseille","lat":43.29524,"lon":5.3905,"is_reserved":false,"is_disabled":false,"rental_uris":{"android":"levelo://app?vid=b79838ca-786e-4b64-afc8-032066ceb0d1","ios":"levelo://app?vid=b79838ca-786e-4b64-afc8-032066ceb0d1"},"vehicle_type_id":"4","last_reported":1726071028,"current_range_meters":2000,"station_id":"ce4bh3p2rcd13ifvqdp0","pricing_plan_id":"cebpf4jnsgd1na2vs0mg"},{"bike_id":"c2789524-7fa2-47af-83c7-17cdee833300","system_id":"levelo_inurba_marseille","lat":43.27366,"lon":5.36255,"is_reserved":false,"is_disabled":false,"rental_uris":{"android":"levelo://app?vid=c2789524-7fa2-47af-83c7-17cdee833300","ios":"levelo://app?vid=c2789524-7fa2-47af-83c7-17cdee833300"},"vehicle_type_id":"4","last_reported":1726071028,"current_range_meters":11200,"station_id":"ce4bhbh2rcd13ifvqeo0","pricing_plan_id":"cebpf4jnsgd1na2vs0mg"},{"bike_id":"d9d7700a-f7be-4b51-8e54-dc818c95a63f","system_id":"levelo_inurba_marseille","lat":43.299,"lon":5.43667,"is_reserved":false,"is_disabled":false,"rental_uris":{"android":"levelo://app?vid=d9d7700a-f7be-4b51-8e54-dc818c95a63f","ios":"levelo://app?vid=d9d7700a-f7be-4b51-8e54-dc818c95a63f"},"vehicle_type_id":"4","last_reported":1726071028,"current_range_meters":28400,"station_id":"ce4bhpp2rcd13ifvqhfg","pricing_plan_id":"cebpf4jnsgd1na2vs0mg"},{"bike_id":"ca3fbe9f-f11b-4d3c-b5cc-6b612647784a","system_id":"levelo_inurba_marseille","lat":43.24072,"lon":5.37759,"is_reserved":false,"is_disabled":false,"rental_uris":{"android":"levelo://app?vid=ca3fbe9f-f11b-4d3c-b5cc-6b612647784a","ios":"levelo://app?vid=ca3fbe9f-f11b-4d3c-b5cc-6b612647784a"},"vehicle_type_id":"4","last_reported":1726071028,"current_range_meters":5600,"station_id":"ce4bhnp2rcd13ifvqgvg","pricing_plan_id":"cebpf4jnsgd1na2vs0mg"},{"bike_id":"e5e35da7-1b2e-45e2-b391-4af2feb99048","system_id":"levelo_inurba_marseille","lat":43.25729,"lon":5.41106,"is_reserved":false,"is_disabled":false,"rental_uris":{"android":"levelo://app?vid=e5e35da7-1b2e-45e2-b391-4af2feb99048","ios":"levelo://app?vid=e5e35da7-1b2e-45e2-b391-4af2feb99048"},"vehicle_type_id":"4","last_reported":1726071028,"current_range_meters":6000,"station_id":"ce4bhkp2rcd13ifvqgd0","pricing_plan_id":"cebpf4jnsgd1na2vs0mg"},{"bike_id":"43230722-76fd-4349-b32e-6a05a72abd3a","system_id":"levelo_inurba_marseille","lat":43.25824,"lon":5.39434,"is_reserved":false,"is_disabled":false,"rental_uris":{"android":"levelo://app?vid=43230722-76fd-4349-b32e-6a05a72abd3a","ios":"levelo://app?vid=43230722-76fd-4349-b32e-6a05a72abd3a"},"vehicle_type_id":"4","last_reported":1726071028,"current_range_meters":22000,"station_id":"ce4bhip2rcd13ifvqft0","pricing_plan_id":"cebpf4jnsgd1na2vs0mg"},{"bike_id":"62f91497-efb4-49ec-bfc0-e402cc375973","system_id":"levelo_inurba_marseille","lat":43.33726,"lon":5.39186,"is_reserved":false,"is_disabled":false,"rental_uris":{"android":"levelo://app?vid=62f91497-efb4-49ec-bfc0-e402cc375973","ios":"levelo://app?vid=62f91497-efb4-49ec-bfc0-e402cc375973"},"vehicle_type_id":"4","last_reported":1726071028,"current_range_meters":38400,"station_id":"ce4bhr92rcd13ifvqhsg","pricing_plan_id":"cebpf4jnsgd1na2vs0mg"},{"bike_id":"378ccda0-6f2e-4e00-b37c-9c67329928ad","system_id":"levelo_inurba_marseille","lat":43.26216,"lon":5.37438,"is_reserved":false,"is_disabled":false,"rental_uris":{"android":"levelo://app?vid=378ccda0-6f2e-4e00-b37c-9c67329928ad","ios":"levelo://app?vid=378ccda0-6f2e-4e00-b37c-9c67329928ad"},"vehicle_type_id":"4","last_reported":1726071028,"current_range_meters":28400,"station_id":"ce4bhgp2rcd13ifvqfc0","pricing_plan_id":"cebpf4jnsgd1na2vs0mg"},{"bike_id":"021fbf55-4d02-4dee-ba3b-62efbb0ebc30","system_id":"levelo_inurba_marseille","lat":43.30934,"lon":5.40139,"is_reserved":false,"is_disabled":false,"rental_uris":{"android":"levelo://app?vid=021fbf55-4d02-4dee-ba3b-62efbb0ebc30","ios":"levelo://app?vid=021fbf55-4d02-4dee-ba3b-62efbb0ebc30"},"vehicle_type_id":"4","last_reported":1726071028,"current_range_meters":16000,"station_id":"ce4bgvp2rcd13ifvqct0","pricing_plan_id":"cebpf4jnsgd1na2vs0mg"},{"bike_id":"e5b997fc-4d50-4bfb-b357-4642fd27a3d0","system_id":"levelo_inurba_marseille","lat":43.25494,"lon":5.37643,"is_reserved":false,"is_disabled":false,"rental_uris":{"android":"levelo://app?vid=e5b997fc-4d50-4bfb-b357-4642fd27a3d0","ios":"levelo://app?vid=e5b997fc-4d50-4bfb-b357-4642fd27a3d0"},"vehicle_type_id":"4","last_reported":1726071028,"current_range_meters":37600,"station_id":"ce4bhh12rcd13ifvqff0","pricing_plan_id":"cebpf4jnsgd1na2vs0mg"},{"bike_id":"d589e93e-f2ff-4b02-b127-c696283dfb1a","system_id":"levelo_inurba_marseille","lat":43.29061,"lon":5.35902,"is_reserved":false,"is_disabled":false,"rental_uris":{"android":"levelo://app?vid=d589e93e-f2ff-4b02-b127-c696283dfb1a","ios":"levelo://app?vid=d589e93e-f2ff-4b02-b127-c696283dfb1a"},"vehicle_type_id":"4","last_reported":1726071028,"current_range_meters":16400,"station_id":"ce4bha92rcd13ifvqeg0","pricing_plan_id":"cebpf4jnsgd1na2vs0mg"},{"bike_id":"3ed26e72-9ac5-43c9-9889-f48cea494bca","system_id":"levelo_inurba_marseille","lat":43.31707,"lon":5.37728,"is_reserved":false,"is_disabled":false,"rental_uris":{"android":"levelo://app?vid=3ed26e72-9ac5-43c9-9889-f48cea494bca","ios":"levelo://app?vid=3ed26e72-9ac5-43c9-9889-f48cea494bca"},"vehicle_type_id":"4","last_reported":1726071028,"current_range_meters":8000,"station_id":"ce4bgth2rcd13ifvqch0","pricing_plan_id":"cebpf4jnsgd1na2vs0mg"},{"bike_id":"b4c6be0e-9968-4638-9f99-ddd49db5a3c4","system_id":"levelo_inurba_marseille","lat":43.25495,"lon":5.37654,"is_reserved":false,"is_disabled":false,"rental_uris":{"android":"levelo://app?vid=b4c6be0e-9968-4638-9f99-ddd49db5a3c4","ios":"levelo://app?vid=b4c6be0e-9968-4638-9f99-ddd49db5a3c4"},"vehicle_type_id":"4","last_reported":1726071028,"current_range_meters":38800,"station_id":"ce4bhh12rcd13ifvqff0","pricing_plan_id":"cebpf4jnsgd1na2vs0mg"},{"bike_id":"d9da3198-e34a-4682-8823-115ef7383f08","system_id":"levelo_inurba_marseille","lat":43.31327,"lon":5.39696,"is_reserved":false,"is_disabled":false,"rental_uris":{"android":"levelo://app?vid=d9da3198-e34a-4682-8823-115ef7383f08","ios":"levelo://app?vid=d9da3198-e34a-4682-8823-115ef7383f08"},"vehicle_type_id":"4","last_reported":1726071028,"current_range_meters":6000,"station_id":"ce4bgvp2rcd13ifvqcu0","pricing_plan_id":"cebpf4jnsgd1na2vs0mg"},{"bike_id":"65293aa9-8e82-4376-8ed3-98d31092c8d9","system_id":"levelo_inurba_marseille","lat":43.31758,"lon":5.39015,"is_reserved":false,"is_disabled":false,"rental_uris":{"android":"levelo://app?vid=65293aa9-8e82-4376-8ed3-98d31092c8d9","ios":"levelo://app?vid=65293aa9-8e82-4376-8ed3-98d31092c8d9"},"vehicle_type_id":"4","last_reported":1726071028,"current_range_meters":3200,"station_id":"ce4bhqp2rcd13ifvqhng","pricing_plan_id":"cebpf4jnsgd1na2vs0mg"},{"bike_id":"ed0ac0d0-3625-4762-a862-7b34db12f707","system_id":"levelo_inurba_marseille","lat":43.2781,"lon":5.40704,"is_reserved":false,"is_disabled":false,"rental_uris":{"android":"levelo://app?vid=ed0ac0d0-3625-4762-a862-7b34db12f707","ios":"levelo://app?vid=ed0ac0d0-3625-4762-a862-7b34db12f707"},"vehicle_type_id":"4","last_reported":1726071028,"current_range_meters":14800,"station_id":"ce4bhnh2rcd13ifvqgtg","pricing_plan_id":"cebpf4jnsgd1na2vs0mg"},{"bike_id":"10761ee5-da16-4e6b-9a9c-b2fe7e520a2b","system_id":"levelo_inurba_marseille","lat":43.28036,"lon":5.3695,"is_reserved":false,"is_disabled":false,"rental_uris":{"android":"levelo://app?vid=10761ee5-da16-4e6b-9a9c-b2fe7e520a2b","ios":"levelo://app?vid=10761ee5-da16-4e6b-9a9c-b2fe7e520a2b"},"vehicle_type_id":"4","last_reported":1726071028,"current_range_meters":6800,"station_id":"ce4bha12rcd13ifvqef0","pricing_plan_id":"cebpf4jnsgd1na2vs0mg"},{"bike_id":"156f4c26-fb37-4feb-b4a9-70fe0c59e681","system_id":"levelo_inurba_marseille","lat":43.26682,"lon":5.38269,"is_reserved":false,"is_disabled":false,"rental_uris":{"android":"levelo://app?vid=156f4c26-fb37-4feb-b4a9-70fe0c59e681","ios":"levelo://app?vid=156f4c26-fb37-4feb-b4a9-70fe0c59e681"},"vehicle_type_id":"4","last_reported":1726071028,"current_range_meters":28800,"station_id":"ce4bhg92rcd13ifvqf90","pricing_plan_id":"cebpf4jnsgd1na2vs0mg"},{"bike_id":"e35f1d7f-72a8-494b-9971-8db0ca424dec","system_id":"levelo_inurba_marseille","lat":43.23197,"lon":5.35547,"is_reserved":false,"is_disabled":false,"rental_uris":{"android":"levelo://app?vid=e35f1d7f-72a8-494b-9971-8db0ca424dec","ios":"levelo://app?vid=e35f1d7f-72a8-494b-9971-8db0ca424dec"},"vehicle_type_id":"4","last_reported":1726071028,"current_range_meters":10000,"station_id":"ce4bhu92rcd13ifvqi70","pricing_plan_id":"cebpf4jnsgd1na2vs0mg"},{"bike_id":"9bbc402b-392c-4b79-b977-2bbf49421b2a","system_id":"levelo_inurba_marseille","lat":43.24799,"lon":5.37446,"is_reserved":false,"is_disabled":false,"rental_uris":{"android":"levelo://app?vid=9bbc402b-392c-4b79-b977-2bbf49421b2a","ios":"levelo://app?vid=9bbc402b-392c-4b79-b977-2bbf49421b2a"},"vehicle_type_id":"4","last_reported":1726071028,"current_range_meters":37600,"station_id":"ce4bhgh2rcd13ifvqfb0","pricing_plan_id":"cebpf4jnsgd1na2vs0mg"},{"bike_id":"b20513b8-7765-4bdb-83d0-6961b741da0a","system_id":"levelo_inurba_marseille","lat":43.33775,"lon":5.37468,"is_reserved":false,"is_disabled":false,"rental_uris":{"android":"levelo://app?vid=b20513b8-7765-4bdb-83d0-6961b741da0a","ios":"levelo://app?vid=b20513b8-7765-4bdb-83d0-6961b741da0a"},"vehicle_type_id":"4","last_reported":1726071028,"current_range_meters":24800,"station_id":"","pricing_plan_id":"cebpf4jnsgd1na2vs0mg"},{"bike_id":"2ac4bcea-a520-47f7-9ad7-e320bc4e29b7","system_id":"levelo_inurba_marseille","lat":43.32288,"lon":5.38255,"is_reserved":false,"is_disabled":false,"rental_uris":{"android":"levelo://app?vid=2ac4bcea-a520-47f7-9ad7-e320bc4e29b7","ios":"levelo://app?vid=2ac4bcea-a520-47f7-9ad7-e320bc4e29b7"},"vehicle_type_id":"4","last_reported":1726071028,"current_range_meters":20800,"station_id":"ce4bhr12rcd13ifvqhqg","pricing_plan_id":"cebpf4jnsgd1na2vs0mg"},{"bike_id":"53d9797f-10f6-4226-b6bc-dea29dfe3683","system_id":"levelo_inurba_marseille","lat":43.30292,"lon":5.37703,"is_reserved":false,"is_disabled":false,"rental_uris":{"android":"levelo://app?vid=53d9797f-10f6-4226-b6bc-dea29dfe3683","ios":"levelo://app?vid=53d9797f-10f6-4226-b6bc-dea29dfe3683"},"vehicle_type_id":"4","last_reported":1726071028,"current_range_meters":31200,"station_id":"ce4bguh2rcd13ifvqcj0","pricing_plan_id":"cebpf4jnsgd1na2vs0mg"},{"bike_id":"b8555dfb-d113-4e56-bcf9-e42b8d3ab0fa","system_id":"levelo_inurba_marseille","lat":43.32738,"lon":5.38441,"is_reserved":false,"is_disabled":false,"rental_uris":{"android":"levelo://app?vid=b8555dfb-d113-4e56-bcf9-e42b8d3ab0fa","ios":"levelo://app?vid=b8555dfb-d113-4e56-bcf9-e42b8d3ab0fa"},"vehicle_type_id":"4","last_reported":1726071028,"current_range_meters":4800,"station_id":"","pricing_plan_id":"cebpf4jnsgd1na2vs0mg"},{"bike_id":"eafddd79-5b86-4bc2-b0b3-a4611a18a320","system_id":"levelo_inurba_marseille","lat":43.26215,"lon":5.37443,"is_reserved":false,"is_disabled":false,"rental_uris":{"android":"levelo://app?vid=eafddd79-5b86-4bc2-b0b3-a4611a18a320","ios":"levelo://app?vid=eafddd79-5b86-4bc2-b0b3-a4611a18a320"},"vehicle_type_id":"4","last_reported":1726071028,"current_range_meters":31200,"station_id":"ce4bhgp2rcd13ifvqfc0","pricing_plan_id":"cebpf4jnsgd1na2vs0mg"},{"bike_id":"9a405d17-ba86-47b0-a745-a91ff4f09221","system_id":"levelo_inurba_marseille","lat":43.28448,"lon":5.38673,"is_reserved":false,"is_disabled":false,"rental_uris":{"android":"levelo://app?vid=9a405d17-ba86-47b0-a745-a91ff4f09221","ios":"levelo://app?vid=9a405d17-ba86-47b0-a745-a91ff4f09221"},"vehicle_type_id":"4","last_reported":1726071028,"current_range_meters":18800,"station_id":"ce4bh512rcd13ifvqe3g","pricing_plan_id":"cebpf4jnsgd1na2vs0mg"},{"bike_id":"dab753ba-e64e-4a7e-ba3a-a3847c91c3ee","system_id":"levelo_inurba_marseille","lat":43.30143,"lon":5.39884,"is_reserved":false,"is_disabled":false,"rental_uris":{"android":"levelo://app?vid=dab753ba-e64e-4a7e-ba3a-a3847c91c3ee","ios":"levelo://app?vid=dab753ba-e64e-4a7e-ba3a-a3847c91c3ee"},"vehicle_type_id":"4","last_reported":1726071028,"current_range_meters":34000,"station_id":"ce4bh0h2rcd13ifvqd40","pricing_plan_id":"cebpf4jnsgd1na2vs0mg"},{"bike_id":"26597365-d309-4e79-bfc9-7f467ce49c34","system_id":"levelo_inurba_marseille","lat":43.33025,"lon":5.39038,"is_reserved":false,"is_disabled":false,"rental_uris":{"android":"levelo://app?vid=26597365-d309-4e79-bfc9-7f467ce49c34","ios":"levelo://app?vid=26597365-d309-4e79-bfc9-7f467ce49c34"},"vehicle_type_id":"4","last_reported":1726071028,"current_range_meters":22000,"station_id":"ce4bhr92rcd13ifvqhrg","pricing_plan_id":"cebpf4jnsgd1na2vs0mg"},{"bike_id":"eca81d3c-ab39-46b0-b381-1f7134a6ed49","system_id":"levelo_inurba_marseille","lat":43.29004,"lon":5.35601,"is_reserved":false,"is_disabled":false,"rental_uris":{"android":"levelo://app?vid=eca81d3c-ab39-46b0-b381-1f7134a6ed49","ios":"levelo://app?vid=eca81d3c-ab39-46b0-b381-1f7134a6ed49"},"vehicle_type_id":"4","last_reported":1726071028,"current_range_meters":4000,"station_id":"ce4bhb92rcd13ifvqen0","pricing_plan_id":"cebpf4jnsgd1na2vs0mg"},{"bike_id":"5d7c2da2-e401-4242-af0b-c829da79d5a7","system_id":"levelo_inurba_marseille","lat":43.27178,"lon":5.40994,"is_reserved":false,"is_disabled":false,"rental_uris":{"android":"levelo://app?vid=5d7c2da2-e401-4242-af0b-c829da79d5a7","ios":"levelo://app?vid=5d7c2da2-e401-4242-af0b-c829da79d5a7"},"vehicle_type_id":"4","last_reported":1726071028,"current_range_meters":28800,"station_id":"ce4bhl12rcd13ifvqgf0","pricing_plan_id":"cebpf4jnsgd1na2vs0mg"},{"bike_id":"4e0f8070-ac61-427c-bca8-f8723a410757","system_id":"levelo_inurba_marseille","lat":43.26216,"lon":5.37441,"is_reserved":false,"is_disabled":false,"rental_uris":{"android":"levelo://app?vid=4e0f8070-ac61-427c-bca8-f8723a410757","ios":"levelo://app?vid=4e0f8070-ac61-427c-bca8-f8723a410757"},"vehicle_type_id":"4","last_reported":1726071028,"current_range_meters":4800,"station_id":"ce4bhgp2rcd13ifvqfc0","pricing_plan_id":"cebpf4jnsgd1na2vs0mg"},{"bike_id":"da3db04b-a8c4-4f91-a75e-8d638f5d99c7","system_id":"levelo_inurba_marseille","lat":43.27056,"lon":5.40255,"is_reserved":false,"is_disabled":false,"rental_uris":{"android":"levelo://app?vid=da3db04b-a8c4-4f91-a75e-8d638f5d99c7","ios":"levelo://app?vid=da3db04b-a8c4-4f91-a75e-8d638f5d99c7"},"vehicle_type_id":"4","last_reported":1726071028,"current_range_meters":24400,"station_id":"ce4bhk92rcd13ifvqgc0","pricing_plan_id":"cebpf4jnsgd1na2vs0mg"},{"bike_id":"c063002b-1cec-4c94-aed2-99ce46feb8c7","system_id":"levelo_inurba_marseille","lat":43.29258,"lon":5.40897,"is_reserved":false,"is_disabled":false,"rental_uris":{"android":"levelo://app?vid=c063002b-1cec-4c94-aed2-99ce46feb8c7","ios":"levelo://app?vid=c063002b-1cec-4c94-aed2-99ce46feb8c7"},"vehicle_type_id":"4","last_reported":1726071028,"current_range_meters":9200,"station_id":"ce4bh192rcd13ifvqdc0","pricing_plan_id":"cebpf4jnsgd1na2vs0mg"},{"bike_id":"8a85f820-32d5-418c-b69e-caedfe559197","system_id":"levelo_inurba_marseille","lat":43.31762,"lon":5.39011,"is_reserved":false,"is_disabled":false,"rental_uris":{"android":"levelo://app?vid=8a85f820-32d5-418c-b69e-caedfe559197","ios":"levelo://app?vid=8a85f820-32d5-418c-b69e-caedfe559197"},"vehicle_type_id":"4","last_reported":1726071028,"current_range_meters":10000,"station_id":"ce4bhqp2rcd13ifvqhng","pricing_plan_id":"cebpf4jnsgd1na2vs0mg"},{"bike_id":"46bdc8dc-35b6-40e9-b99b-f35ab0901fe1","system_id":"levelo_inurba_marseille","lat":43.33024,"lon":5.39038,"is_reserved":false,"is_disabled":false,"rental_uris":{"android":"levelo://app?vid=46bdc8dc-35b6-40e9-b99b-f35ab0901fe1","ios":"levelo://app?vid=46bdc8dc-35b6-40e9-b99b-f35ab0901fe1"},"vehicle_type_id":"4","last_reported":1726071028,"current_range_meters":15200,"station_id":"ce4bhr92rcd13ifvqhrg","pricing_plan_id":"cebpf4jnsgd1na2vs0mg"},{"bike_id":"5b963b53-3e9b-4439-a703-66def05a7aab","system_id":"levelo_inurba_marseille","lat":43.28376,"lon":5.38643,"is_reserved":false,"is_disabled":false,"rental_uris":{"android":"levelo://app?vid=5b963b53-3e9b-4439-a703-66def05a7aab","ios":"levelo://app?vid=5b963b53-3e9b-4439-a703-66def05a7aab"},"vehicle_type_id":"4","last_reported":1726071028,"current_range_meters":5600,"station_id":"ce4bh492rcd13ifvqdvg","pricing_plan_id":"cebpf4jnsgd1na2vs0mg"},{"bike_id":"6f02e70b-16c3-4785-8f35-f4106b395808","system_id":"levelo_inurba_marseille","lat":43.31489,"lon":5.37304,"is_reserved":false,"is_disabled":false,"rental_uris":{"android":"levelo://app?vid=6f02e70b-16c3-4785-8f35-f4106b395808","ios":"levelo://app?vid=6f02e70b-16c3-4785-8f35-f4106b395808"},"vehicle_type_id":"4","last_reported":1726071028,"current_range_meters":20800,"station_id":"ce4bgt12rcd13ifvqcd0","pricing_plan_id":"cebpf4jnsgd1na2vs0mg"},