{"last_updated":1744017096,"ttl":60,"version":"2.2","data":{"bikes":[{"bike_id":"8eca79b9-27bb-4c08-8402-b0eb44a67407","system_id":"levelo_inurba_marseille","lat":43.28492,"lon":5.38434,"is_reserved":false,"is_disabled":false,"rental_uris":{"android":"levelo://app?vid=8eca79b9-27bb-4c08-8402-b0eb44a67407","ios":"levelo://app?vid=8eca79b9-27bb-4c08-8402-b0eb44a67407"},"vehicle_type_id":"4","last_reported":1744017096,"current_range_meters":2800,"station_id":"ce4bh512rcd13ifvqe3g","pricing_plan_id":"cebpf4jnsgd1na2vs0mg"},{"bike_id":"65e67c43-7949-43a4-976e-6c19af0e95f7","system_id":"levelo_inurba_marseille","lat":43.25593,"lon":5.38244,"is_reserved":false,"is_disabled":false,"rental_uris":{"android":"levelo://app?vid=65e67c43-7949-43a4-976e-6c19af0e95f7","ios":"levelo://app?vid=65e67c43-7949-43a4-976e-6c19af0e95f7"},"vehicle_type_id":"4","last_reported":1744017096,"current_range_meters":2800,"station_id":"ce4bhih2rcd13ifvqfs0","pricing_plan_id":"cebpf4jnsgd1na2vs0mg"},{"bike_id":"f367dbc2-3695-4221-aeb5-8cf6faae6ec4","system_id":"levelo_inurba_marseille","lat":43.30518,"lon":5.3652,"is_reserved":false,"is_disabled":false,"rental_uris":{"android":"levelo://app?vid=f367dbc2-3695-4221-aeb5-8cf6faae6ec4","ios":"levelo://app?vid=f367dbc2-3695-4221-aeb5-8cf6faae6ec4"},"vehicle_type_id":"4","last_reported":1744017096,"current_range_meters":2800,"station_id":"ce4bgs12rcd13ifvqcag","pricing_plan_id":"cebpf4jnsgd1na2vs0mg"},{"bike_id":"9278748f-fc10-494c-984d-5d002d924cec","system_id":"levelo_inurba_marseille","lat":43.275027,"lon":5.424623,"is_reserved":false,"is_disabled":false,"rental_uris":{"android":"levelo://app?vid=9278748f-fc10-494c-984d-5d002d924cec","ios":"levelo://app?vid=9278748f-fc10-494c-984d-5d002d924cec"},"vehicle_type_id":"4","last_reported":1744017096,"current_range_meters":2800,"station_id":"ce4bhn92rcd13ifvqgrg","pricing_plan_id":"cebpf4jnsgd1na2vs0mg"},{"bike_id":"f86cc2cd-7959-4959-bc7f-b10918cdd349","system_id":"levelo_inurba_marseille","lat":43.241683,"lon":5.363968,"is_reserved":false,"is_disabled":true,"rental_uris":{"android":"levelo://app?vid=f86cc2cd-7959-4959-bc7f-b10918cdd349","ios":"levelo://app?vid=f86cc2cd-7959-4959-bc7f-b10918cdd349"},"vehicle_type_id":"4","last_reported":1744017096,"current_range_meters":3200,"station_id":"ce4bh412rcd13ifvqdr0","pricing_plan_id":"cebpf4jnsgd1na2vs0mg"},{"bike_id":"1d062cdf-9708-4718-8bc1-20857fc8e949","system_id":"levelo_inurba_marseille","lat":43.2994,"lon":5.3654,"is_reserved":false,"is_disabled":false,"rental_uris":{"android":"levelo://app?vid=1d062cdf-9708-4718-8bc1-20857fc8e949","ios":"levelo://app?vid=1d062cdf-9708-4718-8bc1-20857fc8e949"},"vehicle_type_id":"4","last_reported":1744017096,"current_range_meters":3200,"station_id":"ce4bgm92rcd13ifvqbr0","pricing_plan_id":"cebpf4jnsgd1na2vs0mg"},{"bike_id":"ff0bf536-2b89-407c-ab01-d0def97fd01a","system_id":"levelo_inurba_marseille","lat":43.29602,"lon":5.38103,"is_reserved":false,"is_disabled":false,"rental_uris":{"android":"levelo://app?vid=ff0bf536-2b89-407c-ab01-d0def97fd01a","ios":"levelo://app?vid=ff0bf536-2b89-407c-ab01-d0def97fd01a"},"vehicle_type_id":"4","last_reported":1744017096,"current_range_meters":2800,"station_id":"ce4bgl12rcd13ifvqbo0","pricing_plan_id":"cebpf4jnsgd1na2vs0mg"},{"bike_id":"4a1c4443-b498-4ac3-ba74-90ed91307b4d","system_id":"levelo_inurba_marseille","lat":43.30423,"lon":5.397439,"is_reserved":false,"is_disabled":false,"rental_uris":{"android":"levelo://app?vid=4a1c4443-b498-4ac3-ba74-90ed91307b4d","ios":"levelo://app?vid=4a1c4443-b498-4ac3-ba74-90ed91307b4d"},"vehicle_type_id":"4","last_reported":1744017096,"current_range_meters":3200,"station_id":"ce4bh092rcd13ifvqd20","pricing_plan_id":"cebpf4jnsgd1na2vs0mg"},{"bike_id":"7e9f16f7-394c-490d-95de-69098b11fce3","system_id":"levelo_inurba_marseille","lat":43.31229,"lon":5.36856,"is_reserved":false,"is_disabled":false,"rental_uris":{"android":"levelo://app?vid=7e9f16f7-394c-490d-95de-69098b11fce3","ios":"levelo://app?vid=7e9f16f7-394c-490d-95de-69098b11fce3"},"vehicle_type_id":"4","last_reported":1744017096,"current_range_meters":3200,"station_id":"ce4bgl92rcd13ifvqbq0","pricing_plan_id":"cebpf4jnsgd1na2vs0mg"},{"bike_id":"460daa0b-fe97-44f9-86cc-dde262fd9032","system_id":"levelo_inurba_marseille","lat":43.231464,"lon":5.355242,"is_reserved":false,"is_disabled":false,"rental_uris":{"android":"levelo://app?vid=460daa0b-fe97-44f9-86cc-dde262fd9032","ios":"levelo://app?vid=460daa0b-fe97-44f9-86cc-dde262fd9032"},"vehicle_type_id":"4","last_reported":1744017096,"current_range_meters":3600,"station_id":"ce4bhip2rcd13ifvqft0","pricing_plan_id":"cebpf4jnsgd1na2vs0mg"},{"bike_id":"0d96216e-6006-40a6-91ec-33efdf4df2b1","system_id":"levelo_inurba_marseille","lat":43.31353,"lon":5.38494,"is_reserved":false,"is_disabled":true,"rental_uris":{"android":"levelo://app?vid=0d96216e-6006-40a6-91ec-33efdf4df2b1","ios":"levelo://app?vid=0d96216e-6006-40a6-91ec-33efdf4df2b1"},"vehicle_type_id":"4","last_reported":1744017096,"current_range_meters":3600,"station_id":"ce4bgt92rcd13ifvqcf0","pricing_plan_id":"cebpf4jnsgd1na2vs0mg"},{"bike_id":"7456b723-45af-48d1-9fae-cb0105a2b430","system_id":"levelo_inurba_marseille","lat":43.26793,"lon":5.39455,"is_reserved":false,"is_disabled":false,"rental_uris":{"android":"levelo://app?vid=7456b723-45af-48d1-9fae-cb0105a2b430","ios":"levelo://app?vid=7456b723-45af-48d1-9fae-cb0105a2b430"},"vehicle_type_id":"4","last_reported":1744017096,"current_range_meters":3600,"station_id":"ce4bhh12rcd13ifvqfg0","pricing_plan_id":"cebpf4jnsgd1na2vs0mg"},{"bike_id":"9378cab7-1ef7-47d6-af28-c6473192be1a","system_id":"levelo_inurba_marseille","lat":43.311809,"lon":5.407691,"is_reserved":false,"is_disabled":false,"rental_uris":{"android":"levelo://app?vid=9378cab7-1ef7-47d6-af28-c6473192be1a","ios":"levelo://app?vid=9378cab7-1ef7-47d6-af28-c6473192be1a"},"vehicle_type_id":"4","last_reported":1744017096,"current_range_meters":4000,"station_id":"","pricing_plan_id":"cebpf4jnsgd1na2vs0mg"},{"bike_id":"4b45cffc-07b9-451d-92f2-73eb155f6115","system_id":"levelo_inurba_marseille","lat":43.26555,"lon":5.37283,"is_reserved":false,"is_disabled":false,"rental_uris":{"android":"levelo://app?vid=4b45cffc-07b9-451d-92f2-73eb155f6115","ios":"levelo://app?vid=4b45cffc-07b9-451d-92f2-73eb155f6115"},"vehicle_type_id":"4","last_reported":1744017096,"current_range_meters":4000,"station_id":"ce4bhg12rcd13ifvqf70","pricing_plan_id":"cebpf4jnsgd1na2vs0mg"},{"bike_id":"4e582c25-e642-441c-a4f8-5abff6a5cc59","system_id":"levelo_inurba_marseille","lat":43.273085,"lon":5.391315,"is_reserved":false,"is_disabled":true,"rental_uris":{"android":"levelo://app?vid=4e582c25-e642-441c-a4f8-5abff6a5cc59","ios":"levelo://app?vid=4e582c25-e642-441c-a4f8-5abff6a5cc59"},"vehicle_type_id":"4","last_reported":1744017096,"current_range_meters":4400,"station_id":"ce4bhgp2rcd13ifvqfe0","pricing_plan_id":"cebpf4jnsgd1na2vs0mg"},{"bike_id":"eb79d1f9-7c91-4ea2-b5f8-796189743e1a","system_id":"levelo_inurba_marseille","lat":43.3425,"lon":5.38102,"is_reserved":false,"is_disabled":true,"rental_uris":{"android":"levelo://app?vid=eb79d1f9-7c91-4ea2-b5f8-796189743e1a","ios":"levelo://app?vid=eb79d1f9-7c91-4ea2-b5f8-796189743e1a"},"vehicle_type_id":"4","last_reported":1744017096,"current_range_meters":4800,"station_id":"","pricing_plan_id":"cebpf4jnsgd1na2vs0mg"},{"bike_id":"684edc64-77e0-469c-9e39-6531ce559d51","system_id":"levelo_inurba_marseille","lat":43.2417,"lon":5.39704,"is_reserved":false,"is_disabled":false,"rental_uris":{"android":"levelo://app?vid=684edc64-77e0-469c-9e39-6531ce559d51","ios":"levelo://app?vid=684edc64-77e0-469c-9e39-6531ce559d51"},"vehicle_type_id":"4","last_reported":1744017096,"current_range_meters":4800,"station_id":"ce4bhn12rcd13ifvqgpg","pricing_plan_id":"cebpf4jnsgd1na2vs0mg"},{"bike_id":"97045fe9-f264-4b05-93e3-8dc052408e14","system_id":"levelo_inurba_marseille","lat":43.3151,"lon":5.3729,"is_reserved":false,"is_disabled":false,"rental_uris":{"android":"levelo://app?vid=97045fe9-f264-4b05-93e3-8dc052408e14","ios":"levelo://app?vid=97045fe9-f264-4b05-93e3-8dc052408e14"},"vehicle_type_id":"4","last_reported":1744017096,"current_range_meters":4800,"station_id":"ce4bgt12rcd13ifvqcd0","pricing_plan_id":"cebpf4jnsgd1na2vs0mg"},{"bike_id":"620b9284-a283-4a50-82ff-ec39b41f1a89","system_id":"levelo_inurba_marseille","lat":43.30438,"lon":5.37851,"is_reserved":false,"is_disabled":false,"rental_uris":{"android":"levelo://app?vid=620b9284-a283-4a50-82ff-ec39b41f1a89","ios":"levelo://app?vid=620b9284-a283-4a50-82ff-ec39b41f1a89"},"vehicle_type_id":"4","last_reported":1744017096,"current_range_meters":4800,"station_id":"ce4bgup2rcd13ifvqcn0","pricing_plan_id":"cebpf4jnsgd1na2vs0mg"},{"bike_id":"5f45df12-9e62-4ccf-b1c8-61f93021ee7e","system_id":"levelo_inurba_marseille","lat":43.28481,"lon":5.38424,"is_reserved":false,"is_disabled":true,"rental_uris":{"android":"levelo://app?vid=5f45df12-9e62-4ccf-b1c8-61f93021ee7e","ios":"levelo://app?vid=5f45df12-9e62-4ccf-b1c8-61f93021ee7e"},"vehicle_type_id":"4","last_reported":1744017096,"current_range_meters":5600,"station_id":"ce4bh512rcd13ifvqe3g","pricing_plan_id":"cebpf4jnsgd1na2vs0mg"},{"bike_id":"46aaf249-f504-46ae-93ce-7245839b78b5","system_id":"levelo_inurba_marseille","lat":43.2575,"lon":5.38646,"is_reserved":false,"is_disabled":true,"rental_uris":{"android":"levelo://app?vid=46aaf249-f504-46ae-93ce-7245839b78b5","ios":"levelo://app?vid=46aaf249-f504-46ae-93ce-7245839b78b5"},"vehicle_type_id":"4","last_reported":1744017096,"current_range_meters":5600,"station_id":"","pricing_plan_id":"cebpf4jnsgd1na2vs0mg"},{"bike_id":"90b5b390-c640-46ab-b1a8-b8ab403d6dd5","system_id":"levelo_inurba_marseille","lat":43.25943,"lon":5.40902,"is_reserved":false,"is_disabled":false,"rental_uris":{"android":"levelo://app?vid=90b5b390-c640-46ab-b1a8-b8ab403d6dd5","ios":"levelo://app?vid=90b5b390-c640-46ab-b1a8-b8ab403d6dd5"},"vehicle_type_id":"4","last_reported":1744017096,"current_range_meters":5600,"station_id":"ce4bhm92rcd13ifvqglg","pricing_plan_id":"cebpf4jnsgd1na2vs0mg"},{"bike_id":"1581fd1f-6b05-440d-988e-e1026f61bf76","system_id":"levelo_inurba_marseille","lat":43.29522,"lon":5.39394,"is_reserved":false,"is_disabled":false,"rental_uris":{"android":"levelo://app?vid=1581fd1f-6b05-440d-988e-e1026f61bf76","ios":"levelo://app?vid=1581fd1f-6b05-440d-988e-e1026f61bf76"},"vehicle_type_id":"4","last_reported":1744017096,"current_range_meters":5600,"station_id":"ce4bh292rcd13ifvqdf0","pricing_plan_id":"cebpf4jnsgd1na2vs0mg"},{"bike_id":"694a7586-f602-4016-b8b3-0e6d68879fbd","system_id":"levelo_inurba_marseille","lat":43.3134,"lon":5.36743,"is_reserved":false,"is_disabled":false,"rental_uris":{"android":"levelo://app?vid=694a7586-f602-4016-b8b3-0e6d68879fbd","ios":"levelo://app?vid=694a7586-f602-4016-b8b3-0e6d68879fbd"},"vehicle_type_id":"4","last_reported":1744017096,"current_range_meters":5600,"station_id":"ce4bgr92rcd13ifvqc6g","pricing_plan_id":"cebpf4jnsgd1na2vs0mg"},{"bike_id":"4815b711-7def-4ca4-828f-f82d5b3e3191","system_id":"levelo_inurba_marseille","lat":43.23165,"lon":5.4375,"is_reserved":false,"is_disabled":false,"rental_uris":{"android":"levelo://app?vid=4815b711-7def-4ca4-828f-f82d5b3e3191","ios":"levelo://app?vid=4815b711-7def-4ca4-828f-f82d5b3e3191"},"vehicle_type_id":"4","last_reported":1744017096,"current_range_meters":5600,"station_id":"ce4bhmp2rcd13ifvqgog","pricing_plan_id":"cebpf4jnsgd1na2vs0mg"},{"bike_id":"660d99f1-cadb-413d-82ad-e49e35dc1993","system_id":"levelo_inurba_marseille","lat":43.309,"lon":5.39068,"is_reserved":false,"is_disabled":false,"rental_uris":{"android":"levelo://app?vid=660d99f1-cadb-413d-82ad-e49e35dc1993","ios":"levelo://app?vid=660d99f1-cadb-413d-82ad-e49e35dc1993"},"vehicle_type_id":"4","last_reported":1744017096,"current_range_meters":6000,"station_id":"ce4bgup2rcd13ifvqco0","pricing_plan_id":"cebpf4jnsgd1na2vs0mg"},{"bike_id":"2fe9a66c-2512-40ef-8d0d-a70ae0137933","system_id":"levelo_inurba_marseille","lat":43.30239,"lon":5.40036,"is_reserved":false,"is_disabled":true,"rental_uris":{"android":"levelo://app?vid=2fe9a66c-2512-40ef-8d0d-a70ae0137933","ios":"levelo://app?vid=2fe9a66c-2512-40ef-8d0d-a70ae0137933"},"vehicle_type_id":"4","last_reported":1744017096,"current_range_meters":6400,"station_id":"ce4bgvh2rcd13ifvqcs0","pricing_plan_id":"cebpf4jnsgd1na2vs0mg"},{"bike_id":"09764cee-8724-44c1-b501-307abe5b537a","system_id":"levelo_inurba_marseille","lat":43.32123,"lon":5.36788,"is_reserved":false,"is_disabled":false,"rental_uris":{"android":"levelo://app?vid=09764cee-8724-44c1-b501-307abe5b537a","ios":"levelo://app?vid=09764cee-8724-44c1-b501-307abe5b537a"},"vehicle_type_id":"4","last_reported":1744017096,"current_range_meters":6400,"station_id":"ce4bhrh2rcd13ifvqhug","pricing_plan_id":"cebpf4jnsgd1na2vs0mg"},{"bike_id":"247334b9-410a-47dc-9f01-060c6ed76061","system_id":"levelo_inurba_marseille","lat":43.29003,"lon":5.35606,"is_reserved":false,"is_disabled":false,"rental_uris":{"android":"levelo://app?vid=247334b9-410a-47dc-9f01-060c6ed76061","ios":"levelo://app?vid=247334b9-410a-47dc-9f01-060c6ed76061"},"vehicle_type_id":"4","last_reported":1744017096,"current_range_meters":8400,"station_id":"ce4bhb92rcd13ifvqen0","pricing_plan_id":"cebpf4jnsgd1na2vs0mg"},{"bike_id":"38ae81b3-edcc-4763-8880-8b0fde623123","system_id":"levelo_inurba_marseille","lat":43.23148,"lon":5.43695,"is_reserved":false,"is_disabled":false,"rental_uris":{"android":"levelo://app?vid=38ae81b3-edcc-4763-8880-8b0fde623123","ios":"levelo://app?vid=38ae81b3-edcc-4763-8880-8b0fde623123"},"vehicle_type_id":"4","last_reported":1744017096,"current_range_meters":6400,"station_id":"ce4bhmp2rcd13ifvqgog","pricing_plan_id":"cebpf4jnsgd1na2vs0mg"},{"bike_id":"c7f769a0-9ae3-4891-a95a-079fb88a4ee7","system_id":"levelo_inurba_marseille","lat":43.25105,"lon":5.40316,"is_reserved":false,"is_disabled":false,"rental_uris":{"android":"levelo://app?vid=c7f769a0-9ae3-4891-a95a-079fb88a4ee7","ios":"levelo://app?vid=c7f769a0-9ae3-4891-a95a-079fb88a4ee7"},"vehicle_type_id":"4","last_reported":1744017096,"current_range_meters":6400,"station_id":"ce4bhlh2rcd13ifvqgig","pricing_plan_id":"cebpf4jnsgd1na2vs0mg"},{"bike_id":"45656cd8-d332-4461-af1d-d61ecbca0668","system_id":"levelo_inurba_marseille","lat":43.3234,"lon":5.36764,"is_reserved":false,"is_disabled":false,"rental_uris":{"android":"levelo://app?vid=45656cd8-d332-4461-af1d-d61ecbca0668","ios":"levelo://app?vid=45656cd8-d332-4461-af1d-d61ecbca0668"},"vehicle_type_id":"4","last_reported":1744017096,"current_range_meters":6800,"station_id":"","pricing_plan_id":"cebpf4jnsgd1na2vs0mg"},{"bike_id":"1d6f3057-f8f7-4009-89c3-a3edbfb45073","system_id":"levelo_inurba_marseille","lat":43.28157,"lon":5.42666,"is_reserved":false,"is_disabled":false,"rental_uris":{"android":"levelo://app?vid=1d6f3057-f8f7-4009-89c3-a3edbfb45073","ios":"levelo://app?vid=1d6f3057-f8f7-4009-89c3-a3edbfb45073"},"vehicle_type_id":"4","last_reported":1744017096,"current_range_meters":6800,"station_id":"ce4bhnh2rcd13ifvqgug","pricing_plan_id":"cebpf4jnsgd1na2vs0mg"},{"bike_id":"3b00ff80-4208-4d41-a2d1-4d71d840c23f","system_id":"levelo_inurba_marseille","lat":43.25931,"lon":5.40894,"is_reserved":false,"is_disabled":false,"rental_uris":{"android":"levelo://app?vid=3b00ff80-4208-4d41-a2d1-4d71d840c23f","ios":"levelo://app?vid=3b00ff80-4208-4d41-a2d1-4d71d840c23f"},"vehicle_type_id":"4","last_reported":1744017096,"current_range_meters":6800,"station_id":"ce4bhm92rcd13ifvqglg","pricing_plan_id":"cebpf4jnsgd1na2vs0mg"},{"bike_id":"85b5802f-c53f-4b16-a2b8-76aacc9ae178","system_id":"levelo_inurba_marseille","lat":43.229249,"lon":5.353855,"is_reserved":false,"is_disabled":false,"rental_uris":{"android":"levelo://app?vid=85b5802f-c53f-4b16-a2b8-76aacc9ae178","ios":"levelo://app?vid=85b5802f-c53f-4b16-a2b8-76aacc9ae178"},"vehicle_type_id":"4","last_reported":1744017096,"current_range_meters":6800,"station_id":"cpo3532slgdg3j2ikp40","pricing_plan_id":"cebpf4jnsgd1na2vs0mg"},{"bike_id":"4795dd4e-a533-4c9e-85a8-4200bbf6916d","system_id":"levelo_inurba_marseille","lat":43.29103,"lon":5.3816,"is_reserved":false,"is_disabled":false,"rental_uris":{"android":"levelo://app?vid=4795dd4e-a533-4c9e-85a8-4200bbf6916d","ios":"levelo://app?vid=4795dd4e-a533-4c9e-85a8-4200bbf6916d"},"vehicle_type_id":"4","last_reported":1744017096,"current_range_meters":8000,"station_id":"ce4bh512rcd13ifvqe2g","pricing_plan_id":"cebpf4jnsgd1na2vs0mg"},{"bike_id":"f6f892ea-20b7-490b-9e1f-87ca751b7cb0","system_id":"levelo_inurba_marseille","lat":43.26703,"lon":5.38245,"is_reserved":false,"is_disabled":false,"rental_uris":{"android":"levelo://app?vid=f6f892ea-20b7-490b-9e1f-87ca751b7cb0","ios":"levelo://app?vid=f6f892ea-20b7-490b-9e1f-87ca751b7cb0"},"vehicle_type_id":"4","last_reported":1744017096,"current_range_meters":6800,"station_id":"ce4bhg92rcd13ifvqf90","pricing_plan_id":"cebpf4jnsgd1na2vs0mg"},{"bike_id":"aadcaab6-3f58-49b0-b851-d7f9a21b0c79","system_id":"levelo_inurba_marseille","lat":43.28948,"lon":5.36384,"is_reserved":false,"is_disabled":false,"rental_uris":{"android":"levelo://app?vid=aadcaab6-3f58-49b0-b851-d7f9a21b0c79","ios":"levelo://app?vid=aadcaab6-3f58-49b0-b851-d7f9a21b0c79"},"vehicle_type_id":"4","last_reported":1744017096,"current_range_meters":7200,"station_id":"ce4bhc92rcd13ifvqetg","pricing_plan_id":"cebpf4jnsgd1na2vs0mg"},{"bike_id":"cfd88b3d-03c8-409a-9de6-0e545ea8e071","system_id":"levelo_inurba_marseille","lat":43.258233,"lon":5.394371,"is_reserved":false,"is_disabled":false,"rental_uris":{"android":"levelo://app?vid=cfd88b3d-03c8-409a-9de6-0e545ea8e071","ios":"levelo://app?vid=cfd88b3d-03c8-409a-9de6-0e545ea8e071"},"vehicle_type_id":"4","last_reported":1744017096,"current_range_meters":7200,"station_id":"ce4bhip2rcd13ifvqft0","pricing_plan_id":"cebpf4jnsgd1na2vs0mg"},{"bike_id":"79918876-1741-4b78-8919-1e1a26b9b883","system_id":"levelo_inurba_marseille","lat":43.29003,"lon":5.35607,"is_reserved":false,"is_disabled":false,"rental_uris":{"android":"levelo://app?vid=79918876-1741-4b78-8919-1e1a26b9b883","ios":"levelo://app?vid=79918876-1741-4b78-8919-1e1a26b9b883"},"vehicle_type_id":"4","last_reported":1744017096,"current_range_meters":7200,"station_id":"ce4bhb92rcd13ifvqen0","pricing_plan_id":"cebpf4jnsgd1na2vs0mg"},{"bike_id":"1111276b-a0c5-4976-a72d-0d6680a0f189","system_id":"levelo_inurba_marseille","lat":43.33604,"lon":5.4103,"is_reserved":false,"is_disabled":false,"rental_uris":{"android":"levelo://app?vid=1111276b-a0c5-4976-a72d-0d6680a0f189","ios":"levelo://app?vid=1111276b-a0c5-4976-a72d-0d6680a0f189"},"vehicle_type_id":"4","last_reported":1744017096,"current_range_meters":7200,"station_id":"ce4bhqh2rcd13ifvqhmg","pricing_plan_id":"cebpf4jnsgd1na2vs0mg"},{"bike_id":"736c7c4f-11f4-465d-93d2-a6a56fe6182a","system_id":"levelo_inurba_marseille","lat":43.31214,"lon":5.36854,"is_reserved":false,"is_disabled":false,"rental_uris":{"android":"levelo://app?vid=736c7c4f-11f4-465d-93d2-a6a56fe6182a","ios":"levelo://app?vid=736c7c4f-11f4-465d-93d2-a6a56fe6182a"},"vehicle_type_id":"4","last_reported":1744017096,"current_range_meters":7200,"station_id":"ce4bgl92rcd13ifvqbq0","pricing_plan_id":"cebpf4jnsgd1na2vs0mg"},{"bike_id":"a5762f83-7939-4772-8b9d-d9ece69741e7","system_id":"levelo_inurba_marseille","lat":43.31372,"lon":5.36691,"is_reserved":false,"is_disabled":false,"rental_uris":{"android":"levelo://app?vid=a5762f83-7939-4772-8b9d-d9ece69741e7","ios":"levelo://app?vid=a5762f83-7939-4772-8b9d-d9ece69741e7"},"vehicle_type_id":"4","last_reported":1744017096,"current_range_meters":7200,"station_id":"ce4bgr92rcd13ifvqc6g","pricing_plan_id":"cebpf4jnsgd1na2vs0mg"},{"bike_id":"ad4d36ee-4ace-4017-b1a2-48c4f7e23651","system_id":"levelo_inurba_marseille","lat":43.2592,"lon":5.40875,"is_reserved":false,"is_disabled":false,"rental_uris":{"android":"levelo://app?vid=ad4d36ee-4ace-4017-b1a2-48c4f7e23651","ios":"levelo://app?vid=ad4d36ee-4ace-4017-b1a2-48c4f7e23651"},"vehicle_type_id":"4","last_reported":1744017096,"current_range_meters":7200,"station_id":"ce4bhm92rcd13ifvqglg","pricing_plan_id":"cebpf4jnsgd1na2vs0mg"},{"bike_id":"ffb3b973-6d95-4a0d-82b8-ea54757ecbf9","system_id":"levelo_inurba_marseille","lat":43.290218,"lon":5.386475,"is_reserved":false,"is_disabled":false,"rental_uris":{"android":"levelo://app?vid=ffb3b973-6d95-4a0d-82b8-ea54757ecbf9","ios":"levelo://app?vid=ffb3b973-6d95-4a0d-82b8-ea54757ecbf9"},"vehicle_type_id":"4","last_reported":1744017096,"current_range_meters":7200,"station_id":"ce4bhah2rcd13ifvqej0","pricing_plan_id":"cebpf4jnsgd1na2vs0mg"},{"bike_id":"b98e5565-d9af-4ead-80a1-563ccc79fd36","system_id":"levelo_inurba_marseille","lat":43.27666,"lon":5.38865,"is_reserved":false,"is_disabled":false,"rental_uris":{"android":"levelo://app?vid=b98e5565-d9af-4ead-80a1-563ccc79fd36","ios":"levelo://app?vid=b98e5565-d9af-4ead-80a1-563ccc79fd36"},"vehicle_type_id":"4","last_reported":1744017096,"current_range_meters":8000,"station_id":"ce4bhi12rcd13ifvqfo0","pricing_plan_id":"cebpf4jnsgd1na2vs0mg"},{"bike_id":"599cd34c-20ae-429b-a3d3-757fcae68040","system_id":"levelo_inurba_marseille","lat":43.312037,"lon":5.36848,"is_reserved":false,"is_disabled":false,"rental_uris":{"android":"levelo://app?vid=599cd34c-20ae-429b-a3d3-757fcae68040","ios":"levelo://app?vid=599cd34c-20ae-429b-a3d3-757fcae68040"},"vehicle_type_id":"4","last_reported":1744017096,"current_range_meters":8000,"station_id":"ce4bgl92rcd13ifvqbq0","pricing_plan_id":"cebpf4jnsgd1na2vs0mg"},{"bike_id":"da2d057d-b3e2-4a7b-8f1b-e83ff2e14dcf","system_id":"levelo_inurba_marseille","lat":43.250098,"lon":5.389168,"is_reserved":false,"is_disabled":false,"rental_uris":{"android":"levelo://app?vid=da2d057d-b3e2-4a7b-8f1b-e83ff2e14dcf","ios":"levelo://app?vid=da2d057d-b3e2-4a7b-8f1b-e83ff2e14dcf"},"vehicle_type_id":"4","last_reported":1744017096,"current_range_meters":8000,"station_id":"ce4bhgp2rcd13ifvqfd0","pricing_plan_id":"cebpf4jnsgd1na2vs0mg"},{"bike_id":"00393ee2-317d-4e98-a30d-fd25773ef49f","system_id":"levelo_inurba_marseille","lat":43.3522,"lon":5.3577,"is_reserved":false,"is_disabled":false,"rental_uris":{"android":"levelo://app?vid=00393ee2-317d-4e98-a30d-fd25773ef49f","ios":"levelo://app?vid=00393ee2-317d-4e98-a30d-fd25773ef49f"},"vehicle_type_id":"4","last_reported":1744017096,"current_range_meters":8000,"station_id":"","pricing_plan_id":"cebpf4jnsgd1na2vs0mg"},{"bike_id":"66d3c653-594b-4400-afb6-f7cc09dbfefa","system_id":"levelo_inurba_marseille","lat":43.290405,"lon":5.399987,"is_reserved":false,"is_disabled":true,"rental_uris":{"android":"levelo://app?vid=66d3c653-594b-4400-afb6-f7cc09dbfefa","ios":"levelo://app?vid=66d3c653-594b-4400-afb6-f7cc09dbfefa"},"vehicle_type_id":"4","last_reported":1744017096,"current_range_meters":8000,"station_id":"ce4bh392rcd13ifvqdm0","pricing_plan_id":"cebpf4jnsgd1na2vs0mg"},{"bike_id":"e60ad756-e8d9-4dcd-90ed-2b91dae23a38","system_id":"levelo_inurba_marseille","lat":43.27975,"lon":5.38731,"is_reserved":false,"is_disabled":false,"rental_uris":{"android":"levelo://app?vid=e60ad756-e8d9-4dcd-90ed-2b91dae23a38","ios":"levelo://app?vid=e60ad756-e8d9-4dcd-90ed-2b91dae23a38"},"vehicle_type_id":"4","last_reported":1744017096,"current_range_meters":8800,"station_id":"ce4bhg12rcd13ifvqf80","pricing_plan_id":"cebpf4jnsgd1na2vs0mg"},{"bike_id":"d66890eb-a849-4361-8afb-8574c3836f73","system_id":"levelo_inurba_marseille","lat":43.2609,"lon":5.38743,"is_reserved":false,"is_disabled":false,"rental_uris":{"android":"levelo://app?vid=d66890eb-a849-4361-8afb-8574c3836f73","ios":"levelo://app?vid=d66890eb-a849-4361-8afb-8574c3836f73"},"vehicle_type_id":"4","last_reported":1744017096,"current_range_meters":8000,"station_id":"","pricing_plan_id":"cebpf4jnsgd1na2vs0mg"},{"bike_id":"ea5585fb-5555-49b1-83ce-b77c352506c2","system_id":"levelo_inurba_marseille","lat":43.26001,"lon":5.40806,"is_reserved":false,"is_disabled":false,"rental_uris":{"android":"levelo://app?vid=ea5585fb-5555-49b1-83ce-b77c352506c2","ios":"levelo://app?vid=ea5585fb-5555-49b1-83ce-b77c352506c2"},"vehicle_type_id":"4","last_reported":1744017096,"current_range_meters":8000,"station_id":"","pricing_plan_id":"cebpf4jnsgd1na2vs0mg"},{"bike_id":"1f8d1e21-f657-42c0-bf7b-10b968483646","system_id":"levelo_inurba_marseille","lat":43.31182,"lon":5.36883,"is_reserved":false,"is_disabled":false,"rental_uris":{"android":"levelo://app?vid=1f8d1e21-f657-42c0-bf7b-10b968483646","ios":"levelo://app?vid=1f8d1e21-f657-42c0-bf7b-10b968483646"},"vehicle_type_id":"4","last_reported":1744017096,"current_range_meters":8000,"station_id":"","pricing_plan_id":"cebpf4jnsgd1na2vs0mg"},{"bike_id":"136b6e45-ee21-453e-aa22-e07947db9071","system_id":"levelo_inurba_marseille","lat":43.231542,"lon":5.437031,"is_reserved":false,"is_disabled":true,"rental_uris":{"android":"levelo://app?vid=136b6e45-ee21-453e-aa22-e07947db9071","ios":"levelo://app?vid=136b6e45-ee21-453e-aa22-e07947db9071"},"vehicle_type_id":"4","last_reported":1744017096,"current_range_meters":8000,"station_id":"ce4bhmp2rcd13ifvqgog","pricing_plan_id":"cebpf4jnsgd1na2vs0mg"},{"bike_id":"1266949c-9467-4ff8-bfa0-e172d7be7f64","system_id":"levelo_inurba_marseille","lat":43.30991,"lon":5.36693,"is_reserved":false,"is_disabled":true,"rental_uris":{"android":"levelo://app?vid=1266949c-9467-4ff8-bfa0-e172d7be7f64","ios":"levelo://app?vid=1266949c-9467-4ff8-bfa0-e172d7be7f64"},"vehicle_type_id":"4","last_reported":1744017096,"current_range_meters":8400,"station_id":"","pricing_plan_id":"cebpf4jnsgd1na2vs0mg"},{"bike_id":"72543552-8188-4373-8db0-bd2f24c14e7b","system_id":"levelo_inurba_marseille","lat":43.3229,"lon":5.37642,"is_reserved":false,"is_disabled":false,"rental_uris":{"android":"levelo://app?vid=72543552-8188-4373-8db0-bd2f24c14e7b","ios":"levelo://app?vid=72543552-8188-4373-8db0-bd2f24c14e7b"},"vehicle_type_id":"4","last_reported":1744017096,"current_range_meters":8400,"station_id":"","pricing_plan_id":"cebpf4jnsgd1na2vs0mg"},{"bike_id":"590bd0e2-9f1d-4e6f-9e37-05bb0e5ae5dc","system_id":"levelo_inurba_marseille","lat":43.29874,"lon":5.36418,"is_reserved":false,"is_disabled":false,"rental_uris":{"android":"levelo://app?vid=590bd0e2-9f1d-4e6f-9e37-05bb0e5ae5dc","ios":"levelo://app?vid=590bd0e2-9f1d-4e6f-9e37-05bb0e5ae5dc"},"vehicle_type_id":"4","last_reported":1744017096,"current_range_meters":8400,"station_id":"","pricing_plan_id":"cebpf4jnsgd1na2vs0mg"},{"bike_id":"61bfea5c-2aae-4b18-af06-ea796e88019a","system_id":"levelo_inurba_marseille","lat":43.26768,"lon":5.39425,"is_reserved":false,"is_disabled":false,"rental_uris":{"android":"levelo://app?vid=61bfea5c-2aae-4b18-af06-ea796e88019a","ios":"levelo://app?vid=61bfea5c-2aae-4b18-af06-ea796e88019a"},"vehicle_type_id":"4","last_reported":1744017096,"current_range_meters":8400,"station_id":"ce4bhh12rcd13ifvqfg0","pricing_plan_id":"cebpf4jnsgd1na2vs0mg"},{"bike_id":"c80f92fd-4871-465b-915a-8d06b51aac64","system_id":"levelo_inurba_marseille","lat":43.26789,"lon":5.39418,"is_reserved":false,"is_disabled":false,"rental_uris":{"android":"levelo://app?vid=c80f92fd-4871-465b-915a-8d06b51aac64","ios":"levelo://app?vid=c80f92fd-4871-465b-915a-8d06b51aac64"},"vehicle_type_id":"4","last_reported":1744017096,"current_range_meters":8000,"station_id":"ce4bhh12rcd13ifvqfg0","pricing_plan_id":"cebpf4jnsgd1na2vs0mg"},{"bike_id":"2cd7ef9b-a726-4134-9830-a54c0abc7b06","system_id":"levelo_inurba_marseille","lat":43.24172,"lon":5.39698,"is_reserved":false,"is_disabled":false,"rental_uris":{"android":"levelo://app?vid=2cd7ef9b-a726-4134-9830-a54c0abc7b06","ios":"levelo://app?vid=2cd7ef9b-a726-4134-9830-a54c0abc7b06"},"vehicle_type_id":"4","last_reported":1744017096,"current_range_meters":8400,"station_id":"ce4bhn12rcd13ifvqgpg","pricing_plan_id":"cebpf4jnsgd1na2vs0mg"},{"bike_id":"aba5e844-f429-4fca-8fbd-34616f5265a2","system_id":"levelo_inurba_marseille","lat":43.28159,"lon":5.42646,"is_reserved":false,"is_disabled":false,"rental_uris":{"android":"levelo://app?vid=aba5e844-f429-4fca-8fbd-34616f5265a2","ios":"levelo://app?vid=aba5e844-f429-4fca-8fbd-34616f5265a2"},"vehicle_type_id":"4","last_reported":1744017096,"current_range_meters":8400,"station_id":"ce4bhnh2rcd13ifvqgug","pricing_plan_id":"cebpf4jnsgd1na2vs0mg"},{"bike_id":"edaccf97-dc5b-4501-9f95-e0fff4b79492","system_id":"levelo_inurba_marseille","lat":43.28001,"lon":5.4166,"is_reserved":false,"is_disabled":false,"rental_uris":{"android":"levelo://app?vid=edaccf97-dc5b-4501-9f95-e0fff4b79492","ios":"levelo://app?vid=edaccf97-dc5b-4501-9f95-e0fff4b79492"},"vehicle_type_id":"4","last_reported":1744017096,"current_range_meters":8400,"station_id":"ce4bho12rcd13ifvqh1g","pricing_plan_id":"cebpf4jnsgd1na2vs0mg"},{"bike_id":"f56fa8c2-6991-4db5-9b1b-225fe2c50caf","system_id":"levelo_inurba_marseille","lat":43.28151,"lon":5.42632,"is_reserved":false,"is_disabled":false,"rental_uris":{"android":"levelo://app?vid=f56fa8c2-6991-4db5-9b1b-225fe2c50caf","ios":"levelo://app?vid=f56fa8c2-6991-4db5-9b1b-225fe2c50caf"},"vehicle_type_id":"4","last_reported":1744017096,"current_range_meters":8400,"station_id":"ce4bhnh2rcd13ifvqgug","pricing_plan_id":"cebpf4jnsgd1na2vs0mg"},{"bike_id":"989c95ad-174b-4d11-bf71-7e1e26e27127","system_id":"levelo_inurba_marseille","lat":43.24801,"lon":5.37506,"is_reserved":false,"is_disabled":false,"rental_uris":{"android":"levelo://app?vid=989c95ad-174b-4d11-bf71-7e1e26e27127","ios":"levelo://app?vid=989c95ad-174b-4d11-bf71-7e1e26e27127"},"vehicle_type_id":"4","last_reported":1744017096,"current_range_meters":8400,"station_id":"ce4bhgh2rcd13ifvqfb0","pricing_plan_id":"cebpf4jnsgd1na2vs0mg"},{"bike_id":"351b921a-1463-4cf6-859d-ca5bd51a6e76","system_id":"levelo_inurba_marseille","lat":43.31789,"lon":5.36778,"is_reserved":false,"is_disabled":false,"rental_uris":{"android":"levelo://app?vid=351b921a-1463-4cf6-859d-ca5bd51a6e76","ios":"levelo://app?vid=351b921a-1463-4cf6-859d-ca5bd51a6e76"},"vehicle_type_id":"4","last_reported":1744017096,"current_range_meters":8400,"station_id":"","pricing_plan_id":"cebpf4jnsgd1na2vs0mg"},{"bike_id":"9595b62d-9676-42e9-9df3-e2e6b968d082","system_id":"levelo_inurba_marseille","lat":43.24803,"lon":5.37508,"is_reserved":false,"is_disabled":false,"rental_uris":{"android":"levelo://app?vid=9595b62d-9676-42e9-9df3-e2e6b968d082","ios":"levelo://app?vid=9595b62d-9676-42e9-9df3-e2e6b968d082"},"vehicle_type_id":"4","last_reported":1744017096,"current_range_meters":8400,"station_id":"","pricing_plan_id":"cebpf4jnsgd1na2vs0mg"},{"bike_id":"fe3c5771-886e-47e6-93fc-4aaead5f7c0f","system_id":"levelo_inurba_marseille","lat":43.25918,"lon":5.40902,"is_reserved":false,"is_disabled":false,"rental_uris":{"android":"levelo://app?vid=fe3c5771-886e-47e6-93fc-4aaead5f7c0f","ios":"levelo://app?vid=fe3c5771-886e-47e6-93fc-4aaead5f7c0f"},"vehicle_type_id":"4","last_reported":1744017096,"current_range_meters":8400,"station_id":"ce4bhm92rcd13ifvqglg","pricing_plan_id":"cebpf4jnsgd1na2vs0mg"},{"bike_id":"51dc91b9-6d5a-402c-b834-40d787c8b874","system_id":"levelo_inurba_marseille","lat":43.27059,"lon":5.4026,"is_reserved":false,"is_disabled":false,"rental_uris":{"android":"levelo://app?vid=51dc91b9-6d5a-402c-b834-40d787c8b874","ios":"levelo://app?vid=51dc91b9-6d5a-402c-b834-40d787c8b874"},"vehicle_type_id":"4","last_reported":1744017096,"current_range_meters":8400,"station_id":"ce4bhk92rcd13ifvqgc0","pricing_plan_id":"cebpf4jnsgd1na2vs0mg"},{"bike_id":"dd6333b1-78ba-4390-9f9a-5b0223395c64","system_id":"levelo_inurba_marseille","lat":43.27052,"lon":5.40262,"is_reserved":false,"is_disabled":false,"rental_uris":{"android":"levelo://app?vid=dd6333b1-78ba-4390-9f9a-5b0223395c64","ios":"levelo://app?vid=dd6333b1-78ba-4390-9f9a-5b0223395c64"},"vehicle_type_id":"4","last_reported":1744017096,"current_range_meters":8400,"station_id":"ce4bhk92rcd13ifvqgc0","pricing_plan_id":"cebpf4jnsgd1na2vs0mg"},{"bike_id":"c3e6d442-6282-4c88-9f90-93d85aff9e76","system_id":"levelo_inurba_marseille","lat":43.28165,"lon":5.42672,"is_reserved":false,"is_disabled":false,"rental_uris":{"android":"levelo://app?vid=c3e6d442-6282-4c88-9f90-93d85aff9e76","ios":"levelo://app?vid=c3e6d442-6282-4c88-9f90-93d85aff9e76"},"vehicle_type_id":"4","last_reported":1744017096,"current_range_meters":8800,"station_id":"ce4bhnh2rcd13ifvqgug","pricing_plan_id":"cebpf4jnsgd1na2vs0mg"},{"bike_id":"606675f6-9cae-427a-83c9-8a064752327b","system_id":"levelo_inurba_marseille","lat":43.3236,"lon":5.36758,"is_reserved":false,"is_disabled":false,"rental_uris":{"android":"levelo://app?vid=606675f6-9cae-427a-83c9-8a064752327b","ios":"levelo://app?vid=606675f6-9cae-427a-83c9-8a064752327b"},"vehicle_type_id":"4","last_reported":1744017096,"current_range_meters":8800,"station_id":"ce4bhsh2rcd13ifvqi2g","pricing_plan_id":"cebpf4jnsgd1na2vs0mg"},{"bike_id":"19379d7b-b3b4-46ff-9af1-6370bf06ecc3","system_id":"levelo_inurba_marseille","lat":43.28994,"lon":5.35589,"is_reserved":false,"is_disabled":true,"rental_uris":{"android":"levelo://app?vid=19379d7b-b3b4-46ff-9af1-6370bf06ecc3","ios":"levelo://app?vid=19379d7b-b3b4-46ff-9af1-6370bf06ecc3"},"vehicle_type_id":"4","last_reported":1744017096,"current_range_meters":8800,"station_id":"ce4bhb92rcd13ifvqen0","pricing_plan_id":"cebpf4jnsgd1na2vs0mg"},{"bike_id":"4003179f-5fe8-4310-b51b-eeff6010d228","system_id":"levelo_inurba_marseille","lat":43.26225,"lon":5.40449,"is_reserved":false,"is_disabled":false,"rental_uris":{"android":"levelo://app?vid=4003179f-5fe8-4310-b51b-eeff6010d228","ios":"levelo://app?vid=4003179f-5fe8-4310-b51b-eeff6010d228"},"vehicle_type_id":"4","last_reported":1744017096,"current_range_meters":9200,"station_id":"ce4bhmh2rcd13ifvqgmg","pricing_plan_id":"cebpf4jnsgd1na2vs0mg"},{"bike_id":"8a38320c-a733-4cf5-8c8e-152497fe8f8f","system_id":"levelo_inurba_marseille","lat":43.281521,"lon":5.426384,"is_reserved":false,"is_disabled":false,"rental_uris":{"android":"levelo://app?vid=8a38320c-a733-4cf5-8c8e-152497fe8f8f","ios":"levelo://app?vid=8a38320c-a733-4cf5-8c8e-152497fe8f8f"},"vehicle_type_id":"4","last_reported":1744017096,"current_range_meters":9200,"station_id":"ce4bhnh2rcd13ifvqgug","pricing_plan_id":"cebpf4jnsgd1na2vs0mg"},{"bike_id":"33448e42-2dee-4e4d-933a-57b94ec14f0c","system_id":"levelo_inurba_marseille","lat":43.29155,"lon":5.35516,"is_reserved":false,"is_disabled":true,"rental_uris":{"android":"levelo://app?vid=33448e42-2dee-4e4d-933a-57b94ec14f0c","ios":"levelo://app?vid=33448e42-2dee-4e4d-933a-57b94ec14f0c"},"vehicle_type_id":"4","last_reported":1744017096,"current_range_meters":9200,"station_id":"","pricing_plan_id":"cebpf4jnsgd1na2vs0mg"},{"bike_id":"8539495d-a8db-48e8-999c-a0eec7f95200","system_id":"levelo_inurba_marseille","lat":43.25491,"lon":5.37647,"is_reserved":false,"is_disabled":false,"rental_uris":{"android":"levelo://app?vid=8539495d-a8db-48e8-999c-a0eec7f95200","ios":"levelo://app?vid=8539495d-a8db-48e8-999c-a0eec7f95200"},"vehicle_type_id":"4","last_reported":1744017096,"current_range_meters":9200,"station_id":"ce4bhh12rcd13ifvqff0","pricing_plan_id":"cebpf4jnsgd1na2vs0mg"},{"bike_id":"e87f6dac-423b-47a3-adf9-37c636cdc241","system_id":"levelo_inurba_marseille","lat":43.25931,"lon":5.40892,"is_reserved":false,"is_disabled":false,"rental_uris":{"android":"levelo://app?vid=e87f6dac-423b-47a3-adf9-37c636cdc241","ios":"levelo://app?vid=e87f6dac-423b-47a3-adf9-37c636cdc241"},"vehicle_type_id":"4","last_reported":1744017096,"current_range_meters":9600,"station_id":"ce4bhm92rcd13ifvqglg","pricing_plan_id":"cebpf4jnsgd1na2vs0mg"},{"bike_id":"4cb9d295-8413-44c5-b0a6-ccaed0341ea7","system_id":"levelo_inurba_marseille","lat":43.28495,"lon":5.38421,"is_reserved":false,"is_disabled":false,"rental_uris":{"android":"levelo://app?vid=4cb9d295-8413-44c5-b0a6-ccaed0341ea7","ios":"levelo://app?vid=4cb9d295-8413-44c5-b0a6-ccaed0341ea7"},"vehicle_type_id":"4","last_reported":1744017096,"current_range_meters":9600,"station_id":"ce4bh512rcd13ifvqe3g","pricing_plan_id":"cebpf4jnsgd1na2vs0mg"},{"bike_id":"a959694d-18ce-4d80-917f-23c91ed81065","system_id":"levelo_inurba_marseille","lat":43.29909,"lon":5.43671,"is_reserved":false,"is_disabled":false,"rental_uris":{"android":"levelo://app?vid=a959694d-18ce-4d80-917f-23c91ed81065","ios":"levelo://app?vid=a959694d-18ce-4d80-917f-23c91ed81065"},"vehicle_type_id":"4","last_reported":1744017096,"current_range_meters":9600,"station_id":"ce4bhpp2rcd13ifvqhfg","pricing_plan_id":"cebpf4jnsgd1na2vs0mg"},{"bike_id":"8f6ddff7-3d5d-49f7-860a-318c89cc5d7b","system_id":"levelo_inurba_marseille","lat":43.25934,"lon":5.40822,"is_reserved":false,"is_disabled":false,"rental_uris":{"android":"levelo://app?vid=8f6ddff7-3d5d-49f7-860a-318c89cc5d7b","ios":"levelo://app?vid=8f6ddff7-3d5d-49f7-860a-318c89cc5d7b"},"vehicle_type_id":"4","last_reported":1744017096,"current_range_meters":9600,"station_id":"","pricing_plan_id":"cebpf4jnsgd1na2vs0mg"},{"bike_id":"e8ddca56-8104-4384-9269-fff214fc2a3b","system_id":"levelo_inurba_marseille","lat":43.30433,"lon":5.38884,"is_reserved":false,"is_disabled":false,"rental_uris":{"android":"levelo://app?vid=e8ddca56-8104-4384-9269-fff214fc2a3b","ios":"levelo://app?vid=e8ddca56-8104-4384-9269-fff214fc2a3b"},"vehicle_type_id":"4","last_reported":1744017096,"current_range_meters":9200,"station_id":"ce4bgk12rcd13ifvqbi0","pricing_plan_id":"cebpf4jnsgd1na2vs0mg"},{"bike_id":"e4d4dc7a-abcd-4c1d-8017-887f937d011f","system_id":"levelo_inurba_marseille","lat":43.29575,"lon":5.3996,"is_reserved":false,"is_disabled":true,"rental_uris":{"android":"levelo://app?vid=e4d4dc7a-abcd-4c1d-8017-887f937d011f","ios":"levelo://app?vid=e4d4dc7a-abcd-4c1d-8017-887f937d011f"},"vehicle_type_id":"4","last_reported":1744017096,"current_range_meters":9600,"station_id":"ce4bh312rcd13ifvqdj0","pricing_plan_id":"cebpf4jnsgd1na2vs0mg"},{"bike_id":"3110801d-ed10-4433-a034-f67929502f16","system_id":"levelo_inurba_marseille","lat":43.25864,"lon":5.39898,"is_reserved":false,"is_disabled":false,"rental_uris":{"android":"levelo://app?vid=3110801d-ed10-4433-a034-f67929502f16","ios":"levelo://app?vid=3110801d-ed10-4433-a034-f67929502f16"},"vehicle_type_id":"4","last_reported":1744017096,"current_range_meters":9200,"station_id":"ce4bhl92rcd13ifvqghg","pricing_plan_id":"cebpf4jnsgd1na2vs0mg"},{"bike_id":"51afa508-e09e-4f9d-b28b-09e389bc8550","system_id":"levelo_inurba_marseille","lat":43.27374,"lon":5.36253,"is_reserved":false,"is_disabled":false,"rental_uris":{"android":"levelo://app?vid=51afa508-e09e-4f9d-b28b-09e389bc8550","ios":"levelo://app?vid=51afa508-e09e-4f9d-b28b-09e389bc8550"},"vehicle_type_id":"4","last_reported":1744017096,"current_range_meters":9600,"station_id":"ce4bhbh2rcd13ifvqeo0","pricing_plan_id":"cebpf4jnsgd1na2vs0mg"},{"bike_id":"03459487-5609-45d6-8672-77ad1a4c94a5","system_id":"levelo_inurba_marseille","lat":43.23164,"lon":5.43706,"is_reserved":false,"is_disabled":false,"rental_uris":{"android":"levelo://app?vid=03459487-5609-45d6-8672-77ad1a4c94a5","ios":"levelo://app?vid=03459487-5609-45d6-8672-77ad1a4c94a5"},"vehicle_type_id":"4","last_reported":1744017096,"current_range_meters":10000,"station_id":"ce4bhmp2rcd13ifvqgog","pricing_plan_id":"cebpf4jnsgd1na2vs0mg"},{"bike_id":"7db74496-3028-495a-ac51-961684a7a3cd","system_id":"levelo_inurba_marseille","lat":43.28474,"lon":5.38422,"is_reserved":false,"is_disabled":false,"rental_uris":{"android":"levelo://app?vid=7db74496-3028-495a-ac51-961684a7a3cd","ios":"levelo://app?vid=7db74496-3028-495a-ac51-961684a7a3cd"},"vehicle_type_id":"4","last_reported":1744017096,"current_range_meters":10000,"station_id":"ce4bh512rcd13ifvqe3g","pricing_plan_id":"cebpf4jnsgd1na2vs0mg"},{"bike_id":"3a6cf4dd-4a04-48a6-bbfb-6b1ea18759b5","system_id":"levelo_inurba_marseille","lat":43.32368,"lon":5.36767,"is_reserved":false,"is_disabled":false,"rental_uris":{"android":"levelo://app?vid=3a6cf4dd-4a04-48a6-bbfb-6b1ea18759b5","ios":"levelo://app?vid=3a6cf4dd-4a04-48a6-bbfb-6b1ea18759b5"},"vehicle_type_id":"4","last_reported":1744017096,"current_range_meters":10000,"station_id":"ce4bhsh2rcd13ifvqi2g","pricing_plan_id":"cebpf4jnsgd1na2vs0mg"},{"bike_id":"1e81c4d2-6637-42bf-8d6d-5d37c0fe2360","system_id":"levelo_inurba_marseille","lat":43.32096,"lon":5.36762,"is_reserved":false,"is_disabled":false,"rental_uris":{"android":"levelo://app?vid=1e81c4d2-6637-42bf-8d6d-5d37c0fe2360","ios":"levelo://app?vid=1e81c4d2-6637-42bf-8d6d-5d37c0fe2360"},"vehicle_type_id":"4","last_reported":1744017096,"current_range_meters":10000,"station_id":"ce4bhrh2rcd13ifvqhug","pricing_plan_id":"cebpf4jnsgd1na2vs0mg"},{"bike_id":"87bda883-ac94-49fc-94c2-3a86e52b4f97","system_id":"levelo_inurba_marseille","lat":43.30714,"lon":5.38328,"is_reserved":false,"is_disabled":false,"rental_uris":{"android":"levelo://app?vid=87bda883-ac94-49fc-94c2-3a86e52b4f97","ios":"levelo://app?vid=87bda883-ac94-49fc-94c2-3a86e52b4f97"},"vehicle_type_id":"4","last_reported":1744017096,"current_range_meters":10000,"station_id":"","pricing_plan_id":"cebpf4jnsgd1na2vs0mg"},{"bike_id":"d893a78a-9318-483a-996e-9bec91fd98dc","system_id":"levelo_inurba_marseille","lat":43.31731,"lon":5.43709,"is_reserved":false,"is_disabled":false,"rental_uris":{"android":"levelo://app?vid=d893a78a-9318-483a-996e-9bec91fd98dc","ios":"levelo://app?vid=d893a78a-9318-483a-996e-9bec91fd98dc"},"vehicle_type_id":"4","last_reported":1744017096,"current_range_meters":10000,"station_id":"ce4bhp92rcd13ifvqhcg","pricing_plan_id":"cebpf4jnsgd1na2vs0mg"},{"bike_id":"04ce681f-1add-470d-a705-28fa1ef446da","system_id":"levelo_inurba_marseille","lat":43.31377,"lon":5.36706,"is_reserved":false,"is_disabled":false,"rental_uris":{"android":"levelo://app?vid=04ce681f-1add-470d-a705-28fa1ef446da","ios":"levelo://app?vid=04ce681f-1add-470d-a705-28fa1ef446da"},"vehicle_type_id":"4","last_reported":1744017096,"current_range_meters":10000,"station_id":"ce4bgr92rcd13ifvqc6g","pricing_plan_id":"cebpf4jnsgd1na2vs0mg"},{"bike_id":"935587bd-e327-433f-b68c-6a9a15057f6f","system_id":"levelo_inurba_marseille","lat":43.31361,"lon":5.40173,"is_reserved":false,"is_disabled":false,"rental_uris":{"android":"levelo://app?vid=935587bd-e327-433f-b68c-6a9a15057f6f","ios":"levelo://app?vid=935587bd-e327-433f-b68c-6a9a15057f6f"},"vehicle_type_id":"4","last_reported":1744017096,"current_range_meters":10800,"station_id":"","pricing_plan_id":"cebpf4jnsgd1na2vs0mg"},{"bike_id":"e53b9e9b-ac51-4f70-ad60-ed3149b8c178","system_id":"levelo_inurba_marseille","lat":43.31336,"lon":5.37362,"is_reserved":false,"is_disabled":false,"rental_uris":{"android":"levelo://app?vid=e53b9e9b-ac51-4f70-ad60-ed3149b8c178","ios":"levelo://app?vid=e53b9e9b-ac51-4f70-ad60-ed3149b8c178"},"vehicle_type_id":"4","last_reported":1744017096,"current_range_meters":10800,"station_id":"","pricing_plan_id":"cebpf4jnsgd1na2vs0mg"},{"bike_id":"77f38b93-7fba-419c-bd89-44cd77690ed3","system_id":"levelo_inurba_marseille","lat":43.24186,"lon":5.39713,"is_reserved":false,"is_disabled":false,"rental_uris":{"android":"levelo://app?vid=77f38b93-7fba-419c-bd89-44cd77690ed3","ios":"levelo://app?vid=77f38b93-7fba-419c-bd89-44cd77690ed3"},"vehicle_type_id":"4","last_reported":1744017096,"current_range_meters":10800,"station_id":"ce4bhn12rcd13ifvqgpg","pricing_plan_id":"cebpf4jnsgd1na2vs0mg"},{"bike_id":"cb78134d-6ff6-4e01-be4b-5e6c66cd5d8d","system_id":"levelo_inurba_marseille","lat":43.305498,"lon":5.365174,"is_reserved":false,"is_disabled":false,"rental_uris":{"android":"levelo://app?vid=cb78134d-6ff6-4e01-be4b-5e6c66cd5d8d","ios":"levelo://app?vid=cb78134d-6ff6-4e01-be4b-5e6c66cd5d8d"},"vehicle_type_id":"4","last_reported":1744017096,"current_range_meters":10800,"station_id":"ce4bgs12rcd13ifvqcag","pricing_plan_id":"cebpf4jnsgd1na2vs0mg"},{"bike_id":"d1ca3e3f-a3af-4494-a8e3-d9258a45fcfe","system_id":"levelo_inurba_marseille","lat":43.31373,"lon":5.36661,"is_reserved":false,"is_disabled":false,"rental_uris":{"android":"levelo://app?vid=d1ca3e3f-a3af-4494-a8e3-d9258a45fcfe","ios":"levelo://app?vid=d1ca3e3f-a3af-4494-a8e3-d9258a45fcfe"},"vehicle_type_id":"4","last_reported":1744017096,"current_range_meters":11200,"station_id":"","pricing_plan_id":"cebpf4jnsgd1na2vs0mg"},{"bike_id":"af760841-aea7-41cb-bebb-0ec334811baf","system_id":"levelo_inurba_marseille","lat":43.25497,"lon":5.37664,"is_reserved":false,"is_disabled":false,"rental_uris":{"android":"levelo://app?vid=af760841-aea7-41cb-bebb-0ec334811baf","ios":"levelo://app?vid=af760841-aea7-41cb-bebb-0ec334811baf"},"vehicle_type_id":"4","last_reported":1744017096,"current_range_meters":11200,"station_id":"ce4bhh12rcd13ifvqff0","pricing_plan_id":"cebpf4jnsgd1na2vs0mg"},{"bike_id":"e0f9379f-4e29-4d2f-9389-d7a00c58e8a0","system_id":"levelo_inurba_marseille","lat":43.2415,"lon":5.39715,"is_reserved":false,"is_disabled":false,"rental_uris":{"android":"levelo://app?vid=e0f9379f-4e29-4d2f-9389-d7a00c58e8a0","ios":"levelo://app?vid=e0f9379f-4e29-4d2f-9389-d7a00c58e8a0"},"vehicle_type_id":"4","last_reported":1744017096,"current_range_meters":11200,"station_id":"ce4bhn12rcd13ifvqgpg","pricing_plan_id":"cebpf4jnsgd1na2vs0mg"},{"bike_id":"5840c1d9-6493-4ce8-8cf9-976afbbec159","system_id":"levelo_inurba_marseille","lat":43.23191,"lon":5.39992,"is_reserved":false,"is_disabled":true,"rental_uris":{"android":"levelo://app?vid=5840c1d9-6493-4ce8-8cf9-976afbbec159","ios":"levelo://app?vid=5840c1d9-6493-4ce8-8cf9-976afbbec159"},"vehicle_type_id":"4","last_reported":1744017096,"current_range_meters":11200,"station_id":"ce4bhn12rcd13ifvqgqg","pricing_plan_id":"cebpf4jnsgd1na2vs0mg"},{"bike_id":"bfaa3118-75ab-4aa4-b610-9f31273728a8","system_id":"levelo_inurba_marseille","lat":43.30968,"lon":5.39066,"is_reserved":false,"is_disabled":false,"rental_uris":{"android":"levelo://app?vid=bfaa3118-75ab-4aa4-b610-9f31273728a8","ios":"levelo://app?vid=bfaa3118-75ab-4aa4-b610-9f31273728a8"},"vehicle_type_id":"4","last_reported":1744017096,"current_range_meters":11200,"station_id":"ce4bgup2rcd13ifvqco0","pricing_plan_id":"cebpf4jnsgd1na2vs0mg"},{"bike_id":"543e8a52-25b8-474c-a2e7-31d0c99c8646","system_id":"levelo_inurba_marseille","lat":43.24173,"lon":5.39725,"is_reserved":false,"is_disabled":false,"rental_uris":{"android":"levelo://app?vid=543e8a52-25b8-474c-a2e7-31d0c99c8646","ios":"levelo://app?vid=543e8a52-25b8-474c-a2e7-31d0c99c8646"},"vehicle_type_id":"4","last_reported":1744017096,"current_range_meters":11200,"station_id":"ce4bhn12rcd13ifvqgpg","pricing_plan_id":"cebpf4jnsgd1na2vs0mg"},{"bike_id":"cc057f14-b1e1-4dee-b107-8741c01c5964","system_id":"levelo_inurba_marseille","lat":43.320957,"lon":5.367907,"is_reserved":false,"is_disabled":true,"rental_uris":{"android":"levelo://app?vid=cc057f14-b1e1-4dee-b107-8741c01c5964","ios":"levelo://app?vid=cc057f14-b1e1-4dee-b107-8741c01c5964"},"vehicle_type_id":"4","last_reported":1744017096,"current_range_meters":11200,"station_id":"ce4bhrh2rcd13ifvqhug","pricing_plan_id":"cebpf4jnsgd1na2vs0mg"},{"bike_id":"ddc18b59-559a-4a16-b480-f9ff872c3dd3","system_id":"levelo_inurba_marseille","lat":43.23144,"lon":5.43712,"is_reserved":false,"is_disabled":true,"rental_uris":{"android":"levelo://app?vid=ddc18b59-559a-4a16-b480-f9ff872c3dd3","ios":"levelo://app?vid=ddc18b59-559a-4a16-b480-f9ff872c3dd3"},"vehicle_type_id":"4","last_reported":1744017096,"current_range_meters":11200,"station_id":"ce4bhmp2rcd13ifvqgog","pricing_plan_id":"cebpf4jnsgd1na2vs0mg"},{"bike_id":"750bc9c2-8244-4f27-a571-77c62d7d6b92","system_id":"levelo_inurba_marseille","lat":43.31295,"lon":5.37747,"is_reserved":false,"is_disabled":false,"rental_uris":{"android":"levelo://app?vid=750bc9c2-8244-4f27-a571-77c62d7d6b92","ios":"levelo://app?vid=750bc9c2-8244-4f27-a571-77c62d7d6b92"},"vehicle_type_id":"4","last_reported":1744017096,"current_range_meters":11600,"station_id":"","pricing_plan_id":"cebpf4jnsgd1na2vs0mg"},{"bike_id":"f3047316-857a-48e9-b6b2-139dfda4ab14","system_id":"levelo_inurba_marseille","lat":43.30612,"lon":5.3722,"is_reserved":false,"is_disabled":true,"rental_uris":{"android":"levelo://app?vid=f3047316-857a-48e9-b6b2-139dfda4ab14","ios":"levelo://app?vid=f3047316-857a-48e9-b6b2-139dfda4ab14"},"vehicle_type_id":"4","last_reported":1744017096,"current_range_meters":11600,"station_id":"ce4bgqh2rcd13ifvqc4g","pricing_plan_id":"cebpf4jnsgd1na2vs0mg"},{"bike_id":"7956d4b7-f9df-4616-bd52-832d0af74ae0","system_id":"levelo_inurba_marseille","lat":43.25745,"lon":5.41097,"is_reserved":false,"is_disabled":false,"rental_uris":{"android":"levelo://app?vid=7956d4b7-f9df-4616-bd52-832d0af74ae0","ios":"levelo://app?vid=7956d4b7-f9df-4616-bd52-832d0af74ae0"},"vehicle_type_id":"4","last_reported":1744017096,"current_range_meters":11600,"station_id":"ce4bhkp2rcd13ifvqgd0","pricing_plan_id":"cebpf4jnsgd1na2vs0mg"},{"bike_id":"e926ae44-9c36-4909-aca0-768b34034fa9","system_id":"levelo_inurba_marseille","lat":43.319964,"lon":5.381541,"is_reserved":false,"is_disabled":true,"rental_uris":{"android":"levelo://app?vid=e926ae44-9c36-4909-aca0-768b34034fa9","ios":"levelo://app?vid=e926ae44-9c36-4909-aca0-768b34034fa9"},"vehicle_type_id":"4","last_reported":1744017096,"current_range_meters":11600,"station_id":"ce4bhr12rcd13ifvqhpg","pricing_plan_id":"cebpf4jnsgd1na2vs0mg"},{"bike_id":"2a6c70b7-3280-4c58-9c17-d39c1ef6b670","system_id":"levelo_inurba_marseille","lat":43.32362,"lon":5.36769,"is_reserved":false,"is_disabled":false,"rental_uris":{"android":"levelo://app?vid=2a6c70b7-3280-4c58-9c17-d39c1ef6b670","ios":"levelo://app?vid=2a6c70b7-3280-4c58-9c17-d39c1ef6b670"},"vehicle_type_id":"4","last_reported":1744017096,"current_range_meters":12000,"station_id":"ce4bhsh2rcd13ifvqi2g","pricing_plan_id":"cebpf4jnsgd1na2vs0mg"},{"bike_id":"da8c0fe2-acea-4fbe-9dd5-2e024f49d0af","system_id":"levelo_inurba_marseille","lat":43.29564,"lon":5.37525,"is_reserved":false,"is_disabled":false,"rental_uris":{"android":"levelo://app?vid=da8c0fe2-acea-4fbe-9dd5-2e024f49d0af","ios":"levelo://app?vid=da8c0fe2-acea-4fbe-9dd5-2e024f49d0af"},"vehicle_type_id":"4","last_reported":1744017096,"current_range_meters":12000,"station_id":"ce4bgh92rcd13ifvqb50","pricing_plan_id":"cebpf4jnsgd1na2vs0mg"},{"bike_id":"6620293f-fcd0-45df-bce2-efd7ea892a76","system_id":"levelo_inurba_marseille","lat":43.2871,"lon":5.37936,"is_reserved":false,"is_disabled":false,"rental_uris":{"android":"levelo://app?vid=6620293f-fcd0-45df-bce2-efd7ea892a76","ios":"levelo://app?vid=6620293f-fcd0-45df-bce2-efd7ea892a76"},"vehicle_type_id":"4","last_reported":1744017096,"current_range_meters":12000,"station_id":"ce4bh9p2rcd13ifvqec0","pricing_plan_id":"cebpf4jnsgd1na2vs0mg"},{"bike_id":"26c5c26d-45a9-4356-88df-a2d706c7fd43","system_id":"levelo_inurba_marseille","lat":43.298938,"lon":5.374116,"is_reserved":false,"is_disabled":false,"rental_uris":{"android":"levelo://app?vid=26c5c26d-45a9-4356-88df-a2d706c7fd43","ios":"levelo://app?vid=26c5c26d-45a9-4356-88df-a2d706c7fd43"},"vehicle_type_id":"4","last_reported":1744017096,"current_range_meters":14800,"station_id":"ce4bgt92rcd13ifvqcf0","pricing_plan_id":"cebpf4jnsgd1na2vs0mg"},{"bike_id":"b3955141-b4e4-46ef-9f72-2d6ddb89ac2c","system_id":"levelo_inurba_marseille","lat":43.23137,"lon":5.43682,"is_reserved":false,"is_disabled":false,"rental_uris":{"android":"levelo://app?vid=b3955141-b4e4-46ef-9f72-2d6ddb89ac2c","ios":"levelo://app?vid=b3955141-b4e4-46ef-9f72-2d6ddb89ac2c"},"vehicle_type_id":"4","last_reported":1744017096,"current_range_meters":12000,"station_id":"ce4bhmp2rcd13ifvqgog","pricing_plan_id":"cebpf4jnsgd1na2vs0mg"},{"bike_id":"d3398a9d-8182-4669-8042-b7dc0d8d1823","system_id":"levelo_inurba_marseille","lat":43.29892,"lon":5.4366,"is_reserved":false,"is_disabled":false,"rental_uris":{"android":"levelo://app?vid=d3398a9d-8182-4669-8042-b7dc0d8d1823","ios":"levelo://app?vid=d3398a9d-8182-4669-8042-b7dc0d8d1823"},"vehicle_type_id":"4","last_reported":1744017096,"current_range_meters":12400,"station_id":"ce4bhpp2rcd13ifvqhfg","pricing_plan_id":"cebpf4jnsgd1na2vs0mg"},{"bike_id":"4e04587e-272a-491b-8452-83b5aa07ebb1","system_id":"levelo_inurba_marseille","lat":43.28269,"lon":5.35074,"is_reserved":false,"is_disabled":false,"rental_uris":{"android":"levelo://app?vid=4e04587e-272a-491b-8452-83b5aa07ebb1","ios":"levelo://app?vid=4e04587e-272a-491b-8452-83b5aa07ebb1"},"vehicle_type_id":"4","last_reported":1744017096,"current_range_meters":12400,"station_id":"ce4bhbp2rcd13ifvqerg","pricing_plan_id":"cebpf4jnsgd1na2vs0mg"},{"bike_id":"6b79c190-08a0-493c-b3e0-7480ca940237","system_id":"levelo_inurba_marseille","lat":43.25916,"lon":5.40874,"is_reserved":false,"is_disabled":false,"rental_uris":{"android":"levelo://app?vid=6b79c190-08a0-493c-b3e0-7480ca940237","ios":"levelo://app?vid=6b79c190-08a0-493c-b3e0-7480ca940237"},"vehicle_type_id":"4","last_reported":1744017096,"current_range_meters":12400,"station_id":"ce4bhm92rcd13ifvqglg","pricing_plan_id":"cebpf4jnsgd1na2vs0mg"},{"bike_id":"4509e3b0-878a-445a-9c5e-723776639186","system_id":"levelo_inurba_marseille","lat":43.31322,"lon":5.36728,"is_reserved":false,"is_disabled":false,"rental_uris":{"android":"levelo://app?vid=4509e3b0-878a-445a-9c5e-723776639186","ios":"levelo://app?vid=4509e3b0-878a-445a-9c5e-723776639186"},"vehicle_type_id":"4","last_reported":1744017096,"current_range_meters":12400,"station_id":"ce4bgr92rcd13ifvqc6g","pricing_plan_id":"cebpf4jnsgd1na2vs0mg"},{"bike_id":"31680a03-0208-48c5-8f58-55f2ae922a13","system_id":"levelo_inurba_marseille","lat":43.25921,"lon":5.40869,"is_reserved":false,"is_disabled":false,"rental_uris":{"android":"levelo://app?vid=31680a03-0208-48c5-8f58-55f2ae922a13","ios":"levelo://app?vid=31680a03-0208-48c5-8f58-55f2ae922a13"},"vehicle_type_id":"4","last_reported":1744017096,"current_range_meters":12400,"station_id":"ce4bhm92rcd13ifvqglg","pricing_plan_id":"cebpf4jnsgd1na2vs0mg"},{"bike_id":"73272853-088e-4b39-8e6e-94fe10fc353c","system_id":"levelo_inurba_marseille","lat":43.33767,"lon":5.37485,"is_reserved":false,"is_disabled":true,"rental_uris":{"android":"levelo://app?vid=73272853-088e-4b39-8e6e-94fe10fc353c","ios":"levelo://app?vid=73272853-088e-4b39-8e6e-94fe10fc353c"},"vehicle_type_id":"4","last_reported":1744017096,"current_range_meters":12400,"station_id":"","pricing_plan_id":"cebpf4jnsgd1na2vs0mg"},{"bike_id":"04c41918-2107-4df0-8788-dc6e5c7fca6e","system_id":"levelo_inurba_marseille","lat":43.30952,"lon":5.39015,"is_reserved":false,"is_disabled":true,"rental_uris":{"android":"levelo://app?vid=04c41918-2107-4df0-8788-dc6e5c7fca6e","ios":"levelo://app?vid=04c41918-2107-4df0-8788-dc6e5c7fca6e"},"vehicle_type_id":"4","last_reported":1744017096,"current_range_meters":12800,"station_id":"ce4bgup2rcd13ifvqco0","pricing_plan_id":"cebpf4jnsgd1na2vs0mg"},{"bike_id":"8daa3e29-a6dc-495f-b0f9-540d9e71c557","system_id":"levelo_inurba_marseille","lat":43.2619,"lon":5.37447,"is_reserved":false,"is_disabled":false,"rental_uris":{"android":"levelo://app?vid=8daa3e29-a6dc-495f-b0f9-540d9e71c557","ios":"levelo://app?vid=8daa3e29-a6dc-495f-b0f9-540d9e71c557"},"vehicle_type_id":"4","last_reported":1744017096,"current_range_meters":12800,"station_id":"ce4bhgp2rcd13ifvqfc0","pricing_plan_id":"cebpf4jnsgd1na2vs0mg"},{"bike_id":"d8d37256-055c-4a2e-ad0e-32b919a34a66","system_id":"levelo_inurba_marseille","lat":43.28483,"lon":5.38425,"is_reserved":false,"is_disabled":false,"rental_uris":{"android":"levelo://app?vid=d8d37256-055c-4a2e-ad0e-32b919a34a66","ios":"levelo://app?vid=d8d37256-055c-4a2e-ad0e-32b919a34a66"},"vehicle_type_id":"4","last_reported":1744017096,"current_range_meters":12800,"station_id":"ce4bh512rcd13ifvqe3g","pricing_plan_id":"cebpf4jnsgd1na2vs0mg"},{"bike_id":"3798d351-9b1f-4e5d-85a6-c7b0db61992c","system_id":"levelo_inurba_marseille","lat":43.28438,"lon":5.39194,"is_reserved":false,"is_disabled":false,"rental_uris":{"android":"levelo://app?vid=3798d351-9b1f-4e5d-85a6-c7b0db61992c","ios":"levelo://app?vid=3798d351-9b1f-4e5d-85a6-c7b0db61992c"},"vehicle_type_id":"4","last_reported":1744017096,"current_range_meters":12400,"station_id":"ce4bhoh2rcd13ifvqh5g","pricing_plan_id":"cebpf4jnsgd1na2vs0mg"},{"bike_id":"7f9318cc-1cd9-4829-8695-4bbb9d6d1a61","system_id":"levelo_inurba_marseille","lat":43.28715,"lon":5.37932,"is_reserved":false,"is_disabled":false,"rental_uris":{"android":"levelo://app?vid=7f9318cc-1cd9-4829-8695-4bbb9d6d1a61","ios":"levelo://app?vid=7f9318cc-1cd9-4829-8695-4bbb9d6d1a61"},"vehicle_type_id":"4","last_reported":1744017096,"current_range_meters":13600,"station_id":"ce4bh9p2rcd13ifvqec0","pricing_plan_id":"cebpf4jnsgd1na2vs0mg"},{"bike_id":"d2c0f1ed-7cb7-410c-aa2f-6defec26c88a","system_id":"levelo_inurba_marseille","lat":43.28009,"lon":5.4168,"is_reserved":false,"is_disabled":false,"rental_uris":{"android":"levelo://app?vid=d2c0f1ed-7cb7-410c-aa2f-6defec26c88a","ios":"levelo://app?vid=d2c0f1ed-7cb7-410c-aa2f-6defec26c88a"},"vehicle_type_id":"4","last_reported":1744017096,"current_range_meters":13600,"station_id":"ce4bho12rcd13ifvqh1g","pricing_plan_id":"cebpf4jnsgd1na2vs0mg"},{"bike_id":"7f849341-935d-4b6d-88b0-0fbbf079e418","system_id":"levelo_inurba_marseille","lat":43.28474,"lon":5.38421,"is_reserved":false,"is_disabled":true,"rental_uris":{"android":"levelo://app?vid=7f849341-935d-4b6d-88b0-0fbbf079e418","ios":"levelo://app?vid=7f849341-935d-4b6d-88b0-0fbbf079e418"},"vehicle_type_id":"4","last_reported":1744017096,"current_range_meters":13600,"station_id":"ce4bh512rcd13ifvqe3g","pricing_plan_id":"cebpf4jnsgd1na2vs0mg"},{"bike_id":"965debe4-081f-4ce1-a884-fcf3ae2cc3a4","system_id":"levelo_inurba_marseille","lat":43.23164,"lon":5.43712,"is_reserved":false,"is_disabled":false,"rental_uris":{"android":"levelo://app?vid=965debe4-081f-4ce1-a884-fcf3ae2cc3a4","ios":"levelo://app?vid=965debe4-081f-4ce1-a884-fcf3ae2cc3a4"},"vehicle_type_id":"4","last_reported":1744017096,"current_range_meters":13600,"station_id":"ce4bhmp2rcd13ifvqgog","pricing_plan_id":"cebpf4jnsgd1na2vs0mg"},{"bike_id":"d07243bd-fee2-40c7-ae8b-24e7e52e6693","system_id":"levelo_inurba_marseille","lat":43.30463,"lon":5.37905,"is_reserved":false,"is_disabled":false,"rental_uris":{"android":"levelo://app?vid=d07243bd-fee2-40c7-ae8b-24e7e52e6693","ios":"levelo://app?vid=d07243bd-fee2-40c7-ae8b-24e7e52e6693"},"vehicle_type_id":"4","last_reported":1744017096,"current_range_meters":13600,"station_id":"ce4bgup2rcd13ifvqcn0","pricing_plan_id":"cebpf4jnsgd1na2vs0mg"},{"bike_id":"6ad98942-f835-4638-8165-7efc81273a10","system_id":"levelo_inurba_marseille","lat":43.30469,"lon":5.37916,"is_reserved":false,"is_disabled":false,"rental_uris":{"android":"levelo://app?vid=6ad98942-f835-4638-8165-7efc81273a10","ios":"levelo://app?vid=6ad98942-f835-4638-8165-7efc81273a10"},"vehicle_type_id":"4","last_reported":1744017096,"current_range_meters":13600,"station_id":"ce4bgup2rcd13ifvqcn0","pricing_plan_id":"cebpf4jnsgd1na2vs0mg"},{"bike_id":"8127a379-abcb-448e-b192-b2b588a12b57","system_id":"levelo_inurba_marseille","lat":43.25728,"lon":5.41111,"is_reserved":false,"is_disabled":false,"rental_uris":{"android":"levelo://app?vid=8127a379-abcb-448e-b192-b2b588a12b57","ios":"levelo://app?vid=8127a379-abcb-448e-b192-b2b588a12b57"},"vehicle_type_id":"4","last_reported":1744017096,"current_range_meters":13600,"station_id":"ce4bhkp2rcd13ifvqgd0","pricing_plan_id":"cebpf4jnsgd1na2vs0mg"},{"bike_id":"af69ddaf-3c35-451f-90e1-22db18d9f81c","system_id":"levelo_inurba_marseille","lat":43.30826,"lon":5.4353,"is_reserved":false,"is_disabled":false,"rental_uris":{"android":"levelo://app?vid=af69ddaf-3c35-451f-90e1-22db18d9f81c","ios":"levelo://app?vid=af69ddaf-3c35-451f-90e1-22db18d9f81c"},"vehicle_type_id":"4","last_reported":1744017096,"current_range_meters":13600,"station_id":"ce4bhph2rcd13ifvqheg","pricing_plan_id":"cebpf4jnsgd1na2vs0mg"},{"bike_id":"f3e1697d-6322-4b7c-bcd9-bfaaba5adcfb","system_id":"levelo_inurba_marseille","lat":43.31994,"lon":5.3814,"is_reserved":false,"is_disabled":true,"rental_uris":{"android":"levelo://app?vid=f3e1697d-6322-4b7c-bcd9-bfaaba5adcfb","ios":"levelo://app?vid=f3e1697d-6322-4b7c-bcd9-bfaaba5adcfb"},"vehicle_type_id":"4","last_reported":1744017096,"current_range_meters":13600,"station_id":"ce4bhr12rcd13ifvqhpg","pricing_plan_id":"cebpf4jnsgd1na2vs0mg"},{"bike_id":"adb4ee41-a46b-4f37-a518-a2b370471489","system_id":"levelo_inurba_marseille","lat":43.27317,"lon":5.4115,"is_reserved":false,"is_disabled":true,"rental_uris":{"android":"levelo://app?vid=adb4ee41-a46b-4f37-a518-a2b370471489","ios":"levelo://app?vid=adb4ee41-a46b-4f37-a518-a2b370471489"},"vehicle_type_id":"4","last_reported":1744017096,"current_range_meters":13600,"station_id":"","pricing_plan_id":"cebpf4jnsgd1na2vs0mg"},{"bike_id":"6bb42352-d3ad-4a2f-9f21-9eb6cc41e5ff","system_id":"levelo_inurba_marseille","lat":43.31217,"lon":5.36856,"is_reserved":false,"is_disabled":false,"rental_uris":{"android":"levelo://app?vid=6bb42352-d3ad-4a2f-9f21-9eb6cc41e5ff","ios":"levelo://app?vid=6bb42352-d3ad-4a2f-9f21-9eb6cc41e5ff"},"vehicle_type_id":"4","last_reported":1744017096,"current_range_meters":14000,"station_id":"ce4bgl92rcd13ifvqbq0","pricing_plan_id":"cebpf4jnsgd1na2vs0mg"},{"bike_id":"00a7e663-4b56-4cdc-be9a-13ab0452a793","system_id":"levelo_inurba_marseille","lat":43.23982,"lon":5.36611,"is_reserved":false,"is_disabled":false,"rental_uris":{"android":"levelo://app?vid=00a7e663-4b56-4cdc-be9a-13ab0452a793","ios":"levelo://app?vid=00a7e663-4b56-4cdc-be9a-13ab0452a793"},"vehicle_type_id":"4","last_reported":1744017096,"current_range_meters":14000,"station_id":"ce4bhi12rcd13ifvqfp0","pricing_plan_id":"cebpf4jnsgd1na2vs0mg"},{"bike_id":"7e68812f-f97b-4e36-9c60-ea450212fc32","system_id":"levelo_inurba_marseille","lat":43.28178,"lon":5.42653,"is_reserved":false,"is_disabled":false,"rental_uris":{"android":"levelo://app?vid=7e68812f-f97b-4e36-9c60-ea450212fc32","ios":"levelo://app?vid=7e68812f-f97b-4e36-9c60-ea450212fc32"},"vehicle_type_id":"4","last_reported":1744017096,"current_range_meters":14400,"station_id":"ce4bhnh2rcd13ifvqgug","pricing_plan_id":"cebpf4jnsgd1na2vs0mg"},{"bike_id":"e417bce5-2c9a-4495-8f13-6494dfcbe4bf","system_id":"levelo_inurba_marseille","lat":43.28353,"lon":5.38095,"is_reserved":false,"is_disabled":false,"rental_uris":{"android":"levelo://app?vid=e417bce5-2c9a-4495-8f13-6494dfcbe4bf","ios":"levelo://app?vid=e417bce5-2c9a-4495-8f13-6494dfcbe4bf"},"vehicle_type_id":"4","last_reported":1744017096,"current_range_meters":14400,"station_id":"ce4bh412rcd13ifvqdr0","pricing_plan_id":"cebpf4jnsgd1na2vs0mg"},{"bike_id":"9579ab0a-24b4-4490-a442-2b612dd0dfd9","system_id":"levelo_inurba_marseille","lat":43.26233,"lon":5.37467,"is_reserved":false,"is_disabled":false,"rental_uris":{"android":"levelo://app?vid=9579ab0a-24b4-4490-a442-2b612dd0dfd9","ios":"levelo://app?vid=9579ab0a-24b4-4490-a442-2b612dd0dfd9"},"vehicle_type_id":"4","last_reported":1744017096,"current_range_meters":14400,"station_id":"ce4bhgp2rcd13ifvqfc0","pricing_plan_id":"cebpf4jnsgd1na2vs0mg"},{"bike_id":"8be1d77b-91b9-4b0b-b846-80a5beee549f","system_id":"levelo_inurba_marseille","lat":43.26685,"lon":5.38271,"is_reserved":false,"is_disabled":false,"rental_uris":{"android":"levelo://app?vid=8be1d77b-91b9-4b0b-b846-80a5beee549f","ios":"levelo://app?vid=8be1d77b-91b9-4b0b-b846-80a5beee549f"},"vehicle_type_id":"4","last_reported":1744017096,"current_range_meters":14400,"station_id":"ce4bhg92rcd13ifvqf90","pricing_plan_id":"cebpf4jnsgd1na2vs0mg"},{"bike_id":"222e1e00-578b-4512-8bd3-f56c6fa61730","system_id":"levelo_inurba_marseille","lat":43.23964,"lon":5.36627,"is_reserved":false,"is_disabled":false,"rental_uris":{"android":"levelo://app?vid=222e1e00-578b-4512-8bd3-f56c6fa61730","ios":"levelo://app?vid=222e1e00-578b-4512-8bd3-f56c6fa61730"},"vehicle_type_id":"4","last_reported":1744017096,"current_range_meters":14400,"station_id":"ce4bhi12rcd13ifvqfp0","pricing_plan_id":"cebpf4jnsgd1na2vs0mg"},{"bike_id":"bfe57f62-0f9e-4cdc-82b0-8d00041fbc63","system_id":"levelo_inurba_marseille","lat":43.24997,"lon":5.38946,"is_reserved":false,"is_disabled":false,"rental_uris":{"android":"levelo://app?vid=bfe57f62-0f9e-4cdc-82b0-8d00041fbc63","ios":"levelo://app?vid=bfe57f62-0f9e-4cdc-82b0-8d00041fbc63"},"vehicle_type_id":"4","last_reported":1744017096,"current_range_meters":14400,"station_id":"ce4bhgp2rcd13ifvqfd0","pricing_plan_id":"cebpf4jnsgd1na2vs0mg"},{"bike_id":"92a1d5fe-b2e8-4e3c-94aa-61e0e2abcbd9","system_id":"levelo_inurba_marseille","lat":43.30146,"lon":5.380489,"is_reserved":false,"is_disabled":false,"rental_uris":{"android":"levelo://app?vid=92a1d5fe-b2e8-4e3c-94aa-61e0e2abcbd9","ios":"levelo://app?vid=92a1d5fe-b2e8-4e3c-94aa-61e0e2abcbd9"},"vehicle_type_id":"4","last_reported":1744017096,"current_range_meters":14800,"station_id":"ce4bgup2rcd13ifvqcn0","pricing_plan_id":"cebpf4jnsgd1na2vs0mg"},{"bike_id":"82f28cf6-556c-431d-a12b-bd3ce5fc2f28","system_id":"levelo_inurba_marseille","lat":43.27501,"lon":5.37752,"is_reserved":false,"is_disabled":false,"rental_uris":{"android":"levelo://app?vid=82f28cf6-556c-431d-a12b-bd3ce5fc2f28","ios":"levelo://app?vid=82f28cf6-556c-431d-a12b-bd3ce5fc2f28"},"vehicle_type_id":"4","last_reported":1744017096,"current_range_meters":14800,"station_id":"","pricing_plan_id":"cebpf4jnsgd1na2vs0mg"},{"bike_id":"07961e41-86f1-43af-9958-ee798ea80fe5","system_id":"levelo_inurba_marseille","lat":43.29864,"lon":5.36293,"is_reserved":false,"is_disabled":false,"rental_uris":{"android":"levelo://app?vid=07961e41-86f1-43af-9958-ee798ea80fe5","ios":"levelo://app?vid=07961e41-86f1-43af-9958-ee798ea80fe5"},"vehicle_type_id":"4","last_reported":1744017096,"current_range_meters":14800,"station_id":"ce4bgpp2rcd13ifvqc3g","pricing_plan_id":"cebpf4jnsgd1na2vs0mg"},{"bike_id":"4662f2c9-aa99-4430-b56d-3b091c848158","system_id":"levelo_inurba_marseille","lat":43.26196,"lon":5.37449,"is_reserved":false,"is_disabled":false,"rental_uris":{"android":"levelo://app?vid=4662f2c9-aa99-4430-b56d-3b091c848158","ios":"levelo://app?vid=4662f2c9-aa99-4430-b56d-3b091c848158"},"vehicle_type_id":"4","last_reported":1744017096,"current_range_meters":14800,"station_id":"ce4bhgp2rcd13ifvqfc0","pricing_plan_id":"cebpf4jnsgd1na2vs0mg"},{"bike_id":"d7bc828e-140a-459c-81c5-0411f9bf3660","system_id":"levelo_inurba_marseille","lat":43.3018,"lon":5.3955,"is_reserved":false,"is_disabled":false,"rental_uris":{"android":"levelo://app?vid=d7bc828e-140a-459c-81c5-0411f9bf3660","ios":"levelo://app?vid=d7bc828e-140a-459c-81c5-0411f9bf3660"},"vehicle_type_id":"4","last_reported":1744017096,"current_range_meters":14800,"station_id":"ce4bh0h2rcd13ifvqd50","pricing_plan_id":"cebpf4jnsgd1na2vs0mg"},{"bike_id":"3576b946-70b3-456f-a60a-d98e227f015c","system_id":"levelo_inurba_marseille","lat":43.30096,"lon":5.38245,"is_reserved":false,"is_disabled":false,"rental_uris":{"android":"levelo://app?vid=3576b946-70b3-456f-a60a-d98e227f015c","ios":"levelo://app?vid=3576b946-70b3-456f-a60a-d98e227f015c"},"vehicle_type_id":"4","last_reported":1744017096,"current_range_meters":14800,"station_id":"ce4bgup2rcd13ifvqcn0","pricing_plan_id":"cebpf4jnsgd1na2vs0mg"},{"bike_id":"acdfcd0c-43c9-4022-9f2f-05262f082759","system_id":"levelo_inurba_marseille","lat":43.313489,"lon":5.367254,"is_reserved":false,"is_disabled":false,"rental_uris":{"android":"levelo://app?vid=acdfcd0c-43c9-4022-9f2f-05262f082759","ios":"levelo://app?vid=acdfcd0c-43c9-4022-9f2f-05262f082759"},"vehicle_type_id":"4","last_reported":1744017096,"current_range_meters":14800,"station_id":"ce4bgr92rcd13ifvqc6g","pricing_plan_id":"cebpf4jnsgd1na2vs0mg"},{"bike_id":"37823676-6983-4c6b-857c-cf94b572aa24","system_id":"levelo_inurba_marseille","lat":43.27491,"lon":5.42419,"is_reserved":false,"is_disabled":false,"rental_uris":{"android":"levelo://app?vid=37823676-6983-4c6b-857c-cf94b572aa24","ios":"levelo://app?vid=37823676-6983-4c6b-857c-cf94b572aa24"},"vehicle_type_id":"4","last_reported":1744017096,"current_range_meters":14800,"station_id":"ce4bhn92rcd13ifvqgrg","pricing_plan_id":"cebpf4jnsgd1na2vs0mg"},{"bike_id":"66e3c87b-665f-4453-bb43-5df54ef1ab5e","system_id":"levelo_inurba_marseille","lat":43.27185,"lon":5.39173,"is_reserved":false,"is_disabled":true,"rental_uris":{"android":"levelo://app?vid=66e3c87b-665f-4453-bb43-5df54ef1ab5e","ios":"levelo://app?vid=66e3c87b-665f-4453-bb43-5df54ef1ab5e"},"vehicle_type_id":"4","last_reported":1744017096,"current_range_meters":14800,"station_id":"ce4bhhp2rcd13ifvqfm0","pricing_plan_id":"cebpf4jnsgd1na2vs0mg"},{"bike_id":"b6718462-a8cf-4ef3-9c9f-8fc06260fbda","system_id":"levelo_inurba_marseille","lat":43.24812,"lon":5.37472,"is_reserved":false,"is_disabled":true,"rental_uris":{"android":"levelo://app?vid=b6718462-a8cf-4ef3-9c9f-8fc06260fbda","ios":"levelo://app?vid=b6718462-a8cf-4ef3-9c9f-8fc06260fbda"},"vehicle_type_id":"4","last_reported":1744017096,"current_range_meters":15200,"station_id":"ce4bhgh2rcd13ifvqfb0","pricing_plan_id":"cebpf4jnsgd1na2vs0mg"},{"bike_id":"af543b65-fcf1-4025-887a-e815bb706e4c","system_id":"levelo_inurba_marseille","lat":43.28414,"lon":5.34983,"is_reserved":false,"is_disabled":false,"rental_uris":{"android":"levelo://app?vid=af543b65-fcf1-4025-887a-e815bb706e4c","ios":"levelo://app?vid=af543b65-fcf1-4025-887a-e815bb706e4c"},"vehicle_type_id":"4","last_reported":1744017096,"current_range_meters":15200,"station_id":"ce4bhbh2rcd13ifvqepg","pricing_plan_id":"cebpf4jnsgd1na2vs0mg"},{"bike_id":"19224d95-e048-4cbb-8884-43e0e6b3db9b","system_id":"levelo_inurba_marseille","lat":43.29882,"lon":5.39739,"is_reserved":false,"is_disabled":true,"rental_uris":{"android":"levelo://app?vid=19224d95-e048-4cbb-8884-43e0e6b3db9b","ios":"levelo://app?vid=19224d95-e048-4cbb-8884-43e0e6b3db9b"},"vehicle_type_id":"4","last_reported":1744017096,"current_range_meters":15200,"station_id":"ce4bh0h2rcd13ifvqd50","pricing_plan_id":"cebpf4jnsgd1na2vs0mg"},{"bike_id":"4b9dfe05-0e60-423c-af4b-3ef6e8cad4ce","system_id":"levelo_inurba_marseille","lat":43.25104,"lon":5.40351,"is_reserved":false,"is_disabled":true,"rental_uris":{"android":"levelo://app?vid=4b9dfe05-0e60-423c-af4b-3ef6e8cad4ce","ios":"levelo://app?vid=4b9dfe05-0e60-423c-af4b-3ef6e8cad4ce"},"vehicle_type_id":"4","last_reported":1744017096,"current_range_meters":15200,"station_id":"ce4bhlh2rcd13ifvqgig","pricing_plan_id":"cebpf4jnsgd1na2vs0mg"},{"bike_id":"c4f0f06b-2616-47cb-926c-4eb7554aedc0","system_id":"levelo_inurba_marseille","lat":43.25117,"lon":5.40317,"is_reserved":false,"is_disabled":false,"rental_uris":{"android":"levelo://app?vid=c4f0f06b-2616-47cb-926c-4eb7554aedc0","ios":"levelo://app?vid=c4f0f06b-2616-47cb-926c-4eb7554aedc0"},"vehicle_type_id":"4","last_reported":1744017096,"current_range_meters":15200,"station_id":"ce4bhlh2rcd13ifvqgig","pricing_plan_id":"cebpf4jnsgd1na2vs0mg"},{"bike_id":"f17ce36f-e80a-4732-89e2-7a7dfab19d87","system_id":"levelo_inurba_marseille","lat":43.29895,"lon":5.43648,"is_reserved":false,"is_disabled":false,"rental_uris":{"android":"levelo://app?vid=f17ce36f-e80a-4732-89e2-7a7dfab19d87","ios":"levelo://app?vid=f17ce36f-e80a-4732-89e2-7a7dfab19d87"},"vehicle_type_id":"4","last_reported":1744017096,"current_range_meters":16000,"station_id":"ce4bhpp2rcd13ifvqhfg","pricing_plan_id":"cebpf4jnsgd1na2vs0mg"},{"bike_id":"aefc70cd-f095-480b-9c52-2f150e2fbe89","system_id":"levelo_inurba_marseille","lat":43.30953,"lon":5.39027,"is_reserved":false,"is_disabled":false,"rental_uris":{"android":"levelo://app?vid=aefc70cd-f095-480b-9c52-2f150e2fbe89","ios":"levelo://app?vid=aefc70cd-f095-480b-9c52-2f150e2fbe89"},"vehicle_type_id":"4","last_reported":1744017096,"current_range_meters":16000,"station_id":"ce4bgup2rcd13ifvqco0","pricing_plan_id":"cebpf4jnsgd1na2vs0mg"},{"bike_id":"2d844e00-6815-41ae-85b6-f420db58ee45","system_id":"levelo_inurba_marseille","lat":43.30959,"lon":5.39048,"is_reserved":false,"is_disabled":false,"rental_uris":{"android":"levelo://app?vid=2d844e00-6815-41ae-85b6-f420db58ee45","ios":"levelo://app?vid=2d844e00-6815-41ae-85b6-f420db58ee45"},"vehicle_type_id":"4","last_reported":1744017096,"current_range_meters":16000,"station_id":"ce4bgup2rcd13ifvqco0","pricing_plan_id":"cebpf4jnsgd1na2vs0mg"},{"bike_id":"1d085f39-182d-4cda-bb2c-ac3d5d3220d2","system_id":"levelo_inurba_marseille","lat":43.23152,"lon":5.43733,"is_reserved":false,"is_disabled":false,"rental_uris":{"android":"levelo://app?vid=1d085f39-182d-4cda-bb2c-ac3d5d3220d2","ios":"levelo://app?vid=1d085f39-182d-4cda-bb2c-ac3d5d3220d2"},"vehicle_type_id":"4","last_reported":1744017096,"current_range_meters":16000,"station_id":"ce4bhmp2rcd13ifvqgog","pricing_plan_id":"cebpf4jnsgd1na2vs0mg"},{"bike_id":"db6e6f09-ab19-45bd-a1b9-8553d0074295","system_id":"levelo_inurba_marseille","lat":43.27254,"lon":5.39278,"is_reserved":false,"is_disabled":true,"rental_uris":{"android":"levelo://app?vid=db6e6f09-ab19-45bd-a1b9-8553d0074295","ios":"levelo://app?vid=db6e6f09-ab19-45bd-a1b9-8553d0074295"},"vehicle_type_id":"4","last_reported":1744017096,"current_range_meters":16000,"station_id":"","pricing_plan_id":"cebpf4jnsgd1na2vs0mg"},{"bike_id":"655358e4-2dd3-44dc-97f7-e2925a99950d","system_id":"levelo_inurba_marseille","lat":43.29257,"lon":5.37619,"is_reserved":false,"is_disabled":false,"rental_uris":{"android":"levelo://app?vid=655358e4-2dd3-44dc-97f7-e2925a99950d","ios":"levelo://app?vid=655358e4-2dd3-44dc-97f7-e2925a99950d"},"vehicle_type_id":"4","last_reported":1744017096,"current_range_meters":16000,"station_id":"ce4bgi12rcd13ifvqb80","pricing_plan_id":"cebpf4jnsgd1na2vs0mg"},{"bike_id":"10b6448a-20a4-47ea-a59a-52ae61f8fed7","system_id":"levelo_inurba_marseille","lat":43.30144,"lon":5.39862,"is_reserved":false,"is_disabled":false,"rental_uris":{"android":"levelo://app?vid=10b6448a-20a4-47ea-a59a-52ae61f8fed7","ios":"levelo://app?vid=10b6448a-20a4-47ea-a59a-52ae61f8fed7"},"vehicle_type_id":"4","last_reported":1744017096,"current_range_meters":16400,"station_id":"ce4bh0h2rcd13ifvqd40","pricing_plan_id":"cebpf4jnsgd1na2vs0mg"},{"bike_id":"e69d340d-2e0b-4c99-b38e-1ce87aea660c","system_id":"levelo_inurba_marseille","lat":43.31335,"lon":5.39691,"is_reserved":false,"is_disabled":false,"rental_uris":{"android":"levelo://app?vid=e69d340d-2e0b-4c99-b38e-1ce87aea660c","ios":"levelo://app?vid=e69d340d-2e0b-4c99-b38e-1ce87aea660c"},"vehicle_type_id":"4","last_reported":1744017096,"current_range_meters":12400,"station_id":"ce4bgvp2rcd13ifvqcu0","pricing_plan_id":"cebpf4jnsgd1na2vs0mg"},{"bike_id":"0107dae6-c519-4d03-ac55-060b64364bdc","system_id":"levelo_inurba_marseille","lat":43.29969,"lon":5.38496,"is_reserved":false,"is_disabled":false,"rental_uris":{"android":"levelo://app?vid=0107dae6-c519-4d03-ac55-060b64364bdc","ios":"levelo://app?vid=0107dae6-c519-4d03-ac55-060b64364bdc"},"vehicle_type_id":"4","last_reported":1744017096,"current_range_meters":15200,"station_id":"ce4bgj92rcd13ifvqbd0","pricing_plan_id":"cebpf4jnsgd1na2vs0mg"},{"bike_id":"fa72f055-1a4f-4aae-ba7f-195298f20402","system_id":"levelo_inurba_marseille","lat":43.29626,"lon":5.37738,"is_reserved":false,"is_disabled":false,"rental_uris":{"android":"levelo://app?vid=fa72f055-1a4f-4aae-ba7f-195298f20402","ios":"levelo://app?vid=fa72f055-1a4f-4aae-ba7f-195298f20402"},"vehicle_type_id":"4","last_reported":1744017096,"current_range_meters":15200,"station_id":"ce4bgi92rcd13ifvqb90","pricing_plan_id":"cebpf4jnsgd1na2vs0mg"},{"bike_id":"3bedc4e0-276c-4370-bf04-d84443a4b49c","system_id":"levelo_inurba_marseille","lat":43.27375,"lon":5.3626,"is_reserved":false,"is_disabled":false,"rental_uris":{"android":"levelo://app?vid=3bedc4e0-276c-4370-bf04-d84443a4b49c","ios":"levelo://app?vid=3bedc4e0-276c-4370-bf04-d84443a4b49c"},"vehicle_type_id":"4","last_reported":1744017096,"current_range_meters":16000,"station_id":"ce4bhbh2rcd13ifvqeo0","pricing_plan_id":"cebpf4jnsgd1na2vs0mg"},{"bike_id":"7d159fab-f9c3-4140-98b9-b8c1479fe0de","system_id":"levelo_inurba_marseille","lat":43.29263,"lon":5.37627,"is_reserved":false,"is_disabled":false,"rental_uris":{"android":"levelo://app?vid=7d159fab-f9c3-4140-98b9-b8c1479fe0de","ios":"levelo://app?vid=7d159fab-f9c3-4140-98b9-b8c1479fe0de"},"vehicle_type_id":"4","last_reported":1744017096,"current_range_meters":16400,"station_id":"ce4bgi12rcd13ifvqb80","pricing_plan_id":"cebpf4jnsgd1na2vs0mg"},{"bike_id":"df5912f5-b3dd-4793-b9d2-90d160a7a564","system_id":"levelo_inurba_marseille","lat":43.241762,"lon":5.397387,"is_reserved":false,"is_disabled":false,"rental_uris":{"android":"levelo://app?vid=df5912f5-b3dd-4793-b9d2-90d160a7a564","ios":"levelo://app?vid=df5912f5-b3dd-4793-b9d2-90d160a7a564"},"vehicle_type_id":"4","last_reported":1744017096,"current_range_meters":16400,"station_id":"ce4bhn12rcd13ifvqgpg","pricing_plan_id":"cebpf4jnsgd1na2vs0mg"},{"bike_id":"bff75da5-0c42-4c30-8400-2477afc24f54","system_id":"levelo_inurba_marseille","lat":43.313457,"lon":5.367219,"is_reserved":false,"is_disabled":false,"rental_uris":{"android":"levelo://app?vid=bff75da5-0c42-4c30-8400-2477afc24f54","ios":"levelo://app?vid=bff75da5-0c42-4c30-8400-2477afc24f54"},"vehicle_type_id":"4","last_reported":1744017096,"current_range_meters":16400,"station_id":"","pricing_plan_id":"cebpf4jnsgd1na2vs0mg"},{"bike_id":"55fcf60d-fab3-4759-a68f-7662e32e98b5","system_id":"levelo_inurba_marseille","lat":43.28703,"lon":5.39994,"is_reserved":false,"is_disabled":false,"rental_uris":{"android":"levelo://app?vid=55fcf60d-fab3-4759-a68f-7662e32e98b5","ios":"levelo://app?vid=55fcf60d-fab3-4759-a68f-7662e32e98b5"},"vehicle_type_id":"4","last_reported":1744017096,"current_range_meters":16000,"station_id":"ce4bho92rcd13ifvqh3g","pricing_plan_id":"cebpf4jnsgd1na2vs0mg"},{"bike_id":"fc7f1fe7-d7c3-419c-a4b6-6e9b8f11cff3","system_id":"levelo_inurba_marseille","lat":43.24168,"lon":5.39745,"is_reserved":false,"is_disabled":false,"rental_uris":{"android":"levelo://app?vid=fc7f1fe7-d7c3-419c-a4b6-6e9b8f11cff3","ios":"levelo://app?vid=fc7f1fe7-d7c3-419c-a4b6-6e9b8f11cff3"},"vehicle_type_id":"4","last_reported":1744017096,"current_range_meters":16400,"station_id":"ce4bhn12rcd13ifvqgpg","pricing_plan_id":"cebpf4jnsgd1na2vs0mg"},{"bike_id":"4e63bc7f-b907-45ea-bc67-f61c9be2b9d6","system_id":"levelo_inurba_marseille","lat":43.29963,"lon":5.38494,"is_reserved":false,"is_disabled":true,"rental_uris":{"android":"levelo://app?vid=4e63bc7f-b907-45ea-bc67-f61c9be2b9d6","ios":"levelo://app?vid=4e63bc7f-b907-45ea-bc67-f61c9be2b9d6"},"vehicle_type_id":"4","last_reported":1744017096,"current_range_meters":16400,"station_id":"ce4bgj92rcd13ifvqbd0","pricing_plan_id":"cebpf4jnsgd1na2vs0mg"},{"bike_id":"67f9198a-5c42-4888-8679-ed9fff871b15","system_id":"levelo_inurba_marseille","lat":43.25115,"lon":5.40326,"is_reserved":false,"is_disabled":false,"rental_uris":{"android":"levelo://app?vid=67f9198a-5c42-4888-8679-ed9fff871b15","ios":"levelo://app?vid=67f9198a-5c42-4888-8679-ed9fff871b15"},"vehicle_type_id":"4","last_reported":1744017096,"current_range_meters":16400,"station_id":"ce4bhlh2rcd13ifvqgig","pricing_plan_id":"cebpf4jnsgd1na2vs0mg"},{"bike_id":"45163737-8ce4-4a0a-b335-04cd36d73c79","system_id":"levelo_inurba_marseille","lat":43.32491,"lon":5.36584,"is_reserved":false,"is_disabled":false,"rental_uris":{"android":"levelo://app?vid=45163737-8ce4-4a0a-b335-04cd36d73c79","ios":"levelo://app?vid=45163737-8ce4-4a0a-b335-04cd36d73c79"},"vehicle_type_id":"4","last_reported":1744017096,"current_range_meters":16800,"station_id":"ce4bhs12rcd13ifvqhvg","pricing_plan_id":"cebpf4jnsgd1na2vs0mg"},{"bike_id":"470800db-a15f-4c06-8e2f-eb551bc78ceb","system_id":"levelo_inurba_marseille","lat":43.31367,"lon":5.36682,"is_reserved":false,"is_disabled":false,"rental_uris":{"android":"levelo://app?vid=470800db-a15f-4c06-8e2f-eb551bc78ceb","ios":"levelo://app?vid=470800db-a15f-4c06-8e2f-eb551bc78ceb"},"vehicle_type_id":"4","last_reported":1744017096,"current_range_meters":16800,"station_id":"ce4bgr92rcd13ifvqc6g","pricing_plan_id":"cebpf4jnsgd1na2vs0mg"},{"bike_id":"d94c749a-049f-46bd-b99f-252d4f10b4de","system_id":"levelo_inurba_marseille","lat":43.30896,"lon":5.36895,"is_reserved":false,"is_disabled":false,"rental_uris":{"android":"levelo://app?vid=d94c749a-049f-46bd-b99f-252d4f10b4de","ios":"levelo://app?vid=d94c749a-049f-46bd-b99f-252d4f10b4de"},"vehicle_type_id":"4","last_reported":1744017096,"current_range_meters":16800,"station_id":"ce4bgn92rcd13ifvqbvg","pricing_plan_id":"cebpf4jnsgd1na2vs0mg"},{"bike_id":"01bfe29a-0dc3-4b54-ada8-961a7f287024","system_id":"levelo_inurba_marseille","lat":43.23956,"lon":5.366396,"is_reserved":false,"is_disabled":false,"rental_uris":{"android":"levelo://app?vid=01bfe29a-0dc3-4b54-ada8-961a7f287024","ios":"levelo://app?vid=01bfe29a-0dc3-4b54-ada8-961a7f287024"},"vehicle_type_id":"4","last_reported":1744017096,"current_range_meters":16800,"station_id":"ce4bhi12rcd13ifvqfp0","pricing_plan_id":"cebpf4jnsgd1na2vs0mg"},{"bike_id":"0aa02c49-cbb3-4907-a588-f754056f3ba8","system_id":"levelo_inurba_marseille","lat":43.30815,"lon":5.38121,"is_reserved":false,"is_disabled":true,"rental_uris":{"android":"levelo://app?vid=0aa02c49-cbb3-4907-a588-f754056f3ba8","ios":"levelo://app?vid=0aa02c49-cbb3-4907-a588-f754056f3ba8"},"vehicle_type_id":"4","last_reported":1744017096,"current_range_meters":16800,"station_id":"ce4bgt12rcd13ifvqce0","pricing_plan_id":"cebpf4jnsgd1na2vs0mg"},{"bike_id":"140bcc9c-7a15-47b1-a546-a2322d7111c7","system_id":"levelo_inurba_marseille","lat":43.31254,"lon":5.36886,"is_reserved":false,"is_disabled":false,"rental_uris":{"android":"levelo://app?vid=140bcc9c-7a15-47b1-a546-a2322d7111c7","ios":"levelo://app?vid=140bcc9c-7a15-47b1-a546-a2322d7111c7"},"vehicle_type_id":"4","last_reported":1744017096,"current_range_meters":16800,"station_id":"ce4bgl92rcd13ifvqbq0","pricing_plan_id":"cebpf4jnsgd1na2vs0mg"},{"bike_id":"fd5cccc1-5f43-428f-829b-35b739912f23","system_id":"levelo_inurba_marseille","lat":43.32543,"lon":5.41428,"is_reserved":false,"is_disabled":false,"rental_uris":{"android":"levelo://app?vid=fd5cccc1-5f43-428f-829b-35b739912f23","ios":"levelo://app?vid=fd5cccc1-5f43-428f-829b-35b739912f23"},"vehicle_type_id":"4","last_reported":1744017096,"current_range_meters":16800,"station_id":"ce4bhq12rcd13ifvqhhg","pricing_plan_id":"cebpf4jnsgd1na2vs0mg"},{"bike_id":"889763a9-aa13-4a71-bb0c-e1cb1d4e9045","system_id":"levelo_inurba_marseille","lat":43.30902,"lon":5.36855,"is_reserved":false,"is_disabled":false,"rental_uris":{"android":"levelo://app?vid=889763a9-aa13-4a71-bb0c-e1cb1d4e9045","ios":"levelo://app?vid=889763a9-aa13-4a71-bb0c-e1cb1d4e9045"},"vehicle_type_id":"4","last_reported":1744017096,"current_range_meters":16800,"station_id":"ce4bgn92rcd13ifvqbvg","pricing_plan_id":"cebpf4jnsgd1na2vs0mg"},{"bike_id":"4bf17b49-7e5c-4bd9-82f8-af145dc36336","system_id":"levelo_inurba_marseille","lat":43.299208,"lon":5.374815,"is_reserved":false,"is_disabled":true,"rental_uris":{"android":"levelo://app?vid=4bf17b49-7e5c-4bd9-82f8-af145dc36336","ios":"levelo://app?vid=4bf17b49-7e5c-4bd9-82f8-af145dc36336"},"vehicle_type_id":"4","last_reported":1744017096,"current_range_meters":17200,"station_id":"","pricing_plan_id":"cebpf4jnsgd1na2vs0mg"},{"bike_id":"0e15af95-8e49-4aa4-9628-ef2a06d14e76","system_id":"levelo_inurba_marseille","lat":43.3031,"lon":5.36902,"is_reserved":false,"is_disabled":false,"rental_uris":{"android":"levelo://app?vid=0e15af95-8e49-4aa4-9628-ef2a06d14e76","ios":"levelo://app?vid=0e15af95-8e49-4aa4-9628-ef2a06d14e76"},"vehicle_type_id":"4","last_reported":1744017096,"current_range_meters":17200,"station_id":"ce4bgqh2rcd13ifvqc5g","pricing_plan_id":"cebpf4jnsgd1na2vs0mg"},{"bike_id":"9ce4d44d-47dd-4f2a-a798-d734e9cdfe8d","system_id":"levelo_inurba_marseille","lat":43.29206,"lon":5.39323,"is_reserved":false,"is_disabled":false,"rental_uris":{"android":"levelo://app?vid=9ce4d44d-47dd-4f2a-a798-d734e9cdfe8d","ios":"levelo://app?vid=9ce4d44d-47dd-4f2a-a798-d734e9cdfe8d"},"vehicle_type_id":"4","last_reported":1744017096,"current_range_meters":17200,"station_id":"ce4bh192rcd13ifvqdd0","pricing_plan_id":"cebpf4jnsgd1na2vs0mg"},{"bike_id":"7a935817-47e2-4cb3-8324-a647fdf3a140","system_id":"levelo_inurba_marseille","lat":43.295338,"lon":5.385447,"is_reserved":false,"is_disabled":true,"rental_uris":{"android":"levelo://app?vid=7a935817-47e2-4cb3-8324-a647fdf3a140","ios":"levelo://app?vid=7a935817-47e2-4cb3-8324-a647fdf3a140"},"vehicle_type_id":"4","last_reported":1744017096,"current_range_meters":17200,"station_id":"ce4bgih2rcd13ifvqba0","pricing_plan_id":"cebpf4jnsgd1na2vs0mg"},{"bike_id":"a049ace4-6875-448f-8428-6c5531853ea5","system_id":"levelo_inurba_marseille","lat":43.23156,"lon":5.43705,"is_reserved":false,"is_disabled":false,"rental_uris":{"android":"levelo://app?vid=a049ace4-6875-448f-8428-6c5531853ea5","ios":"levelo://app?vid=a049ace4-6875-448f-8428-6c5531853ea5"},"vehicle_type_id":"4","last_reported":1744017096,"current_range_meters":17200,"station_id":"ce4bhmp2rcd13ifvqgog","pricing_plan_id":"cebpf4jnsgd1na2vs0mg"},{"bike_id":"72ad159f-0f30-4e55-9112-5b52656b6665","system_id":"levelo_inurba_marseille","lat":43.29583,"lon":5.36741,"is_reserved":false,"is_disabled":false,"rental_uris":{"android":"levelo://app?vid=72ad159f-0f30-4e55-9112-5b52656b6665","ios":"levelo://app?vid=72ad159f-0f30-4e55-9112-5b52656b6665"},"vehicle_type_id":"4","last_reported":1744017096,"current_range_meters":16800,"station_id":"ce4bgkh2rcd13ifvqbl0","pricing_plan_id":"cebpf4jnsgd1na2vs0mg"},{"bike_id":"023dd1c0-4ef3-4164-af95-2a2dbe003270","system_id":"levelo_inurba_marseille","lat":43.29271,"lon":5.40908,"is_reserved":false,"is_disabled":false,"rental_uris":{"android":"levelo://app?vid=023dd1c0-4ef3-4164-af95-2a2dbe003270","ios":"levelo://app?vid=023dd1c0-4ef3-4164-af95-2a2dbe003270"},"vehicle_type_id":"4","last_reported":1744017096,"current_range_meters":17200,"station_id":"ce4bh192rcd13ifvqdc0","pricing_plan_id":"cebpf4jnsgd1na2vs0mg"},{"bike_id":"a2b55975-55e4-4a3f-8af7-2c27ff45ed68","system_id":"levelo_inurba_marseille","lat":43.28138,"lon":5.42615,"is_reserved":false,"is_disabled":true,"rental_uris":{"android":"levelo://app?vid=a2b55975-55e4-4a3f-8af7-2c27ff45ed68","ios":"levelo://app?vid=a2b55975-55e4-4a3f-8af7-2c27ff45ed68"},"vehicle_type_id":"4","last_reported":1744017096,"current_range_meters":17600,"station_id":"ce4bhnh2rcd13ifvqgug","pricing_plan_id":"cebpf4jnsgd1na2vs0mg"},{"bike_id":"9e0829d0-dc9c-45ad-978e-48b61761a490","system_id":"levelo_inurba_marseille","lat":43.30933,"lon":5.3902,"is_reserved":false,"is_disabled":false,"rental_uris":{"android":"levelo://app?vid=9e0829d0-dc9c-45ad-978e-48b61761a490","ios":"levelo://app?vid=9e0829d0-dc9c-45ad-978e-48b61761a490"},"vehicle_type_id":"4","last_reported":1744017096,"current_range_meters":17600,"station_id":"ce4bgup2rcd13ifvqco0","pricing_plan_id":"cebpf4jnsgd1na2vs0mg"},{"bike_id":"93d35b09-13da-493c-a66d-b6283fe79923","system_id":"levelo_inurba_marseille","lat":43.26868,"lon":5.3953,"is_reserved":false,"is_disabled":true,"rental_uris":{"android":"levelo://app?vid=93d35b09-13da-493c-a66d-b6283fe79923","ios":"levelo://app?vid=93d35b09-13da-493c-a66d-b6283fe79923"},"vehicle_type_id":"4","last_reported":1744017096,"current_range_meters":17600,"station_id":"ce4bhh12rcd13ifvqfg0","pricing_plan_id":"cebpf4jnsgd1na2vs0mg"},{"bike_id":"2f48ec57-d212-4e94-8bdf-81b7a8f04386","system_id":"levelo_inurba_marseille","lat":43.27192,"lon":5.39158,"is_reserved":false,"is_disabled":true,"rental_uris":{"android":"levelo://app?vid=2f48ec57-d212-4e94-8bdf-81b7a8f04386","ios":"levelo://app?vid=2f48ec57-d212-4e94-8bdf-81b7a8f04386"},"vehicle_type_id":"4","last_reported":1744017096,"current_range_meters":17600,"station_id":"ce4bhhp2rcd13ifvqfm0","pricing_plan_id":"cebpf4jnsgd1na2vs0mg"},{"bike_id":"f7ca4b30-e7d0-48eb-925a-fb767126bfcd","system_id":"levelo_inurba_marseille","lat":43.32565,"lon":5.41429,"is_reserved":false,"is_disabled":false,"rental_uris":{"android":"levelo://app?vid=f7ca4b30-e7d0-48eb-925a-fb767126bfcd","ios":"levelo://app?vid=f7ca4b30-e7d0-48eb-925a-fb767126bfcd"},"vehicle_type_id":"4","last_reported":1744017096,"current_range_meters":17600,"station_id":"ce4bhq12rcd13ifvqhhg","pricing_plan_id":"cebpf4jnsgd1na2vs0mg"},{"bike_id":"b1dba327-cfbb-4601-8ba2-3adceb4a0551","system_id":"levelo_inurba_marseille","lat":43.29261,"lon":5.40904,"is_reserved":false,"is_disabled":false,"rental_uris":{"android":"levelo://app?vid=b1dba327-cfbb-4601-8ba2-3adceb4a0551","ios":"levelo://app?vid=b1dba327-cfbb-4601-8ba2-3adceb4a0551"},"vehicle_type_id":"4","last_reported":1744017096,"current_range_meters":17600,"station_id":"ce4bh192rcd13ifvqdc0","pricing_plan_id":"cebpf4jnsgd1na2vs0mg"},{"bike_id":"351863ca-8a8c-44f1-9dd7-49fd8388172d","system_id":"levelo_inurba_marseille","lat":43.24158,"lon":5.39684,"is_reserved":false,"is_disabled":false,"rental_uris":{"android":"levelo://app?vid=351863ca-8a8c-44f1-9dd7-49fd8388172d","ios":"levelo://app?vid=351863ca-8a8c-44f1-9dd7-49fd8388172d"},"vehicle_type_id":"4","last_reported":1744017096,"current_range_meters":17600,"station_id":"ce4bhn12rcd13ifvqgpg","pricing_plan_id":"cebpf4jnsgd1na2vs0mg"},{"bike_id":"45d83681-f2eb-4a39-a20c-4022ba893ea0","system_id":"levelo_inurba_marseille","lat":43.33908,"lon":5.39206,"is_reserved":false,"is_disabled":false,"rental_uris":{"android":"levelo://app?vid=45d83681-f2eb-4a39-a20c-4022ba893ea0","ios":"levelo://app?vid=45d83681-f2eb-4a39-a20c-4022ba893ea0"},"vehicle_type_id":"4","last_reported":1744017096,"current_range_meters":17600,"station_id":"","pricing_plan_id":"cebpf4jnsgd1na2vs0mg"},{"bike_id":"a3c069ea-028a-4e12-9a5e-1ad58bd7706e","system_id":"levelo_inurba_marseille","lat":43.293813,"lon":5.379208,"is_reserved":false,"is_disabled":false,"rental_uris":{"android":"levelo://app?vid=a3c069ea-028a-4e12-9a5e-1ad58bd7706e","ios":"levelo://app?vid=a3c069ea-028a-4e12-9a5e-1ad58bd7706e"},"vehicle_type_id":"4","last_reported":1744017096,"current_range_meters":18000,"station_id":"ce4bhi12rcd13ifvqfo0","pricing_plan_id":"cebpf4jnsgd1na2vs0mg"},{"bike_id":"acecf514-9430-4d42-88a7-2a98b02c2aee","system_id":"levelo_inurba_marseille","lat":43.31959,"lon":5.36979,"is_reserved":false,"is_disabled":true,"rental_uris":{"android":"levelo://app?vid=acecf514-9430-4d42-88a7-2a98b02c2aee","ios":"levelo://app?vid=acecf514-9430-4d42-88a7-2a98b02c2aee"},"vehicle_type_id":"4","last_reported":1744017096,"current_range_meters":18000,"station_id":"","pricing_plan_id":"cebpf4jnsgd1na2vs0mg"},{"bike_id":"5505d1df-4587-47f2-9ade-d93e08b6b5c0","system_id":"levelo_inurba_marseille","lat":43.3043,"lon":5.38878,"is_reserved":false,"is_disabled":false,"rental_uris":{"android":"levelo://app?vid=5505d1df-4587-47f2-9ade-d93e08b6b5c0","ios":"levelo://app?vid=5505d1df-4587-47f2-9ade-d93e08b6b5c0"},"vehicle_type_id":"4","last_reported":1744017096,"current_range_meters":18000,"station_id":"ce4bgk12rcd13ifvqbi0","pricing_plan_id":"cebpf4jnsgd1na2vs0mg"},{"bike_id":"3e602309-c2cc-49c9-984b-ceb6bc2fb252","system_id":"levelo_inurba_marseille","lat":43.30553,"lon":5.36516,"is_reserved":false,"is_disabled":false,"rental_uris":{"android":"levelo://app?vid=3e602309-c2cc-49c9-984b-ceb6bc2fb252","ios":"levelo://app?vid=3e602309-c2cc-49c9-984b-ceb6bc2fb252"},"vehicle_type_id":"4","last_reported":1744017096,"current_range_meters":18000,"station_id":"ce4bgs12rcd13ifvqcag","pricing_plan_id":"cebpf4jnsgd1na2vs0mg"},{"bike_id":"d01814b3-39f1-4bf5-905f-07c6028f7394","system_id":"levelo_inurba_marseille","lat":43.32107,"lon":5.36765,"is_reserved":false,"is_disabled":false,"rental_uris":{"android":"levelo://app?vid=d01814b3-39f1-4bf5-905f-07c6028f7394","ios":"levelo://app?vid=d01814b3-39f1-4bf5-905f-07c6028f7394"},"vehicle_type_id":"4","last_reported":1744017096,"current_range_meters":18000,"station_id":"ce4bhrh2rcd13ifvqhug","pricing_plan_id":"cebpf4jnsgd1na2vs0mg"},{"bike_id":"e784f182-69f0-4ea3-9f98-10af9878a9b8","system_id":"levelo_inurba_marseille","lat":43.301405,"lon":5.387809,"is_reserved":false,"is_disabled":false,"rental_uris":{"android":"levelo://app?vid=e784f182-69f0-4ea3-9f98-10af9878a9b8","ios":"levelo://app?vid=e784f182-69f0-4ea3-9f98-10af9878a9b8"},"vehicle_type_id":"4","last_reported":1744017096,"current_range_meters":18000,"station_id":"ce4bh492rcd13ifvqdug","pricing_plan_id":"cebpf4jnsgd1na2vs0mg"},{"bike_id":"ba599285-5e67-44b1-a13a-06251f5dde55","system_id":"levelo_inurba_marseille","lat":43.29538,"lon":5.37485,"is_reserved":false,"is_disabled":false,"rental_uris":{"android":"levelo://app?vid=ba599285-5e67-44b1-a13a-06251f5dde55","ios":"levelo://app?vid=ba599285-5e67-44b1-a13a-06251f5dde55"},"vehicle_type_id":"4","last_reported":1744017096,"current_range_meters":18000,"station_id":"ce4bgkp2rcd13ifvqbmg","pricing_plan_id":"cebpf4jnsgd1na2vs0mg"},{"bike_id":"5f9d16aa-61b1-4636-8345-61a4681dbeec","system_id":"levelo_inurba_marseille","lat":43.3054,"lon":5.36532,"is_reserved":false,"is_disabled":false,"rental_uris":{"android":"levelo://app?vid=5f9d16aa-61b1-4636-8345-61a4681dbeec","ios":"levelo://app?vid=5f9d16aa-61b1-4636-8345-61a4681dbeec"},"vehicle_type_id":"4","last_reported":1744017096,"current_range_meters":19200,"station_id":"ce4bgs12rcd13ifvqcag","pricing_plan_id":"cebpf4jnsgd1na2vs0mg"},{"bike_id":"b9f0da64-4496-45b7-8716-b86da323f107","system_id":"levelo_inurba_marseille","lat":43.25112,"lon":5.40327,"is_reserved":false,"is_disabled":false,"rental_uris":{"android":"levelo://app?vid=b9f0da64-4496-45b7-8716-b86da323f107","ios":"levelo://app?vid=b9f0da64-4496-45b7-8716-b86da323f107"},"vehicle_type_id":"4","last_reported":1744017096,"current_range_meters":18800,"station_id":"ce4bhlh2rcd13ifvqgig","pricing_plan_id":"cebpf4jnsgd1na2vs0mg"},{"bike_id":"df1a66de-f819-4d0e-bbb1-5ed414b08e59","system_id":"levelo_inurba_marseille","lat":43.30942,"lon":5.39034,"is_reserved":false,"is_disabled":false,"rental_uris":{"android":"levelo://app?vid=df1a66de-f819-4d0e-bbb1-5ed414b08e59","ios":"levelo://app?vid=df1a66de-f819-4d0e-bbb1-5ed414b08e59"},"vehicle_type_id":"4","last_reported":1744017096,"current_range_meters":18800,"station_id":"ce4bgup2rcd13ifvqco0","pricing_plan_id":"cebpf4jnsgd1na2vs0mg"},{"bike_id":"0712cd67-e0be-4343-94b4-86306b59f54d","system_id":"levelo_inurba_marseille","lat":43.27981,"lon":5.38731,"is_reserved":false,"is_disabled":false,"rental_uris":{"android":"levelo://app?vid=0712cd67-e0be-4343-94b4-86306b59f54d","ios":"levelo://app?vid=0712cd67-e0be-4343-94b4-86306b59f54d"},"vehicle_type_id":"4","last_reported":1744017096,"current_range_meters":18800,"station_id":"ce4bhg12rcd13ifvqf80","pricing_plan_id":"cebpf4jnsgd1na2vs0mg"},{"bike_id":"31f17291-e79d-4c63-af8f-2e9fee5de049","system_id":"levelo_inurba_marseille","lat":43.28616,"lon":5.37081,"is_reserved":false,"is_disabled":false,"rental_uris":{"android":"levelo://app?vid=31f17291-e79d-4c63-af8f-2e9fee5de049","ios":"levelo://app?vid=31f17291-e79d-4c63-af8f-2e9fee5de049"},"vehicle_type_id":"4","last_reported":1744017096,"current_range_meters":18800,"station_id":"ce4bht12rcd13ifvqi60","pricing_plan_id":"cebpf4jnsgd1na2vs0mg"},{"bike_id":"1efd9f70-653c-4ef6-a175-044bff44637e","system_id":"levelo_inurba_marseille","lat":43.31381,"lon":5.36693,"is_reserved":false,"is_disabled":false,"rental_uris":{"android":"levelo://app?vid=1efd9f70-653c-4ef6-a175-044bff44637e","ios":"levelo://app?vid=1efd9f70-653c-4ef6-a175-044bff44637e"},"vehicle_type_id":"4","last_reported":1744017096,"current_range_meters":18800,"station_id":"ce4bgr92rcd13ifvqc6g","pricing_plan_id":"cebpf4jnsgd1na2vs0mg"},{"bike_id":"23a99ef1-ed33-41ea-b313-e3c0f98998b3","system_id":"levelo_inurba_marseille","lat":43.30578,"lon":5.39337,"is_reserved":false,"is_disabled":false,"rental_uris":{"android":"levelo://app?vid=23a99ef1-ed33-41ea-b313-e3c0f98998b3","ios":"levelo://app?vid=23a99ef1-ed33-41ea-b313-e3c0f98998b3"},"vehicle_type_id":"4","last_reported":1744017096,"current_range_meters":19200,"station_id":"ce4bh0p2rcd13ifvqd80","pricing_plan_id":"cebpf4jnsgd1na2vs0mg"},{"bike_id":"3ba08939-2484-41bd-9cf0-5c70ce30ce22","system_id":"levelo_inurba_marseille","lat":43.24181,"lon":5.39725,"is_reserved":false,"is_disabled":false,"rental_uris":{"android":"levelo://app?vid=3ba08939-2484-41bd-9cf0-5c70ce30ce22","ios":"levelo://app?vid=3ba08939-2484-41bd-9cf0-5c70ce30ce22"},"vehicle_type_id":"4","last_reported":1744017096,"current_range_meters":19200,"station_id":"ce4bhn12rcd13ifvqgpg","pricing_plan_id":"cebpf4jnsgd1na2vs0mg"},{"bike_id":"13e9e557-fc06-4ec7-a75f-1018321ffdd2","system_id":"levelo_inurba_marseille","lat":43.28483,"lon":5.38421,"is_reserved":false,"is_disabled":false,"rental_uris":{"android":"levelo://app?vid=13e9e557-fc06-4ec7-a75f-1018321ffdd2","ios":"levelo://app?vid=13e9e557-fc06-4ec7-a75f-1018321ffdd2"},"vehicle_type_id":"4","last_reported":1744017096,"current_range_meters":19200,"station_id":"ce4bh512rcd13ifvqe3g","pricing_plan_id":"cebpf4jnsgd1na2vs0mg"},{"bike_id":"6bb120ae-f372-49a2-992a-5944368640dc","system_id":"levelo_inurba_marseille","lat":43.275,"lon":5.42442,"is_reserved":false,"is_disabled":false,"rental_uris":{"android":"levelo://app?vid=6bb120ae-f372-49a2-992a-5944368640dc","ios":"levelo://app?vid=6bb120ae-f372-49a2-992a-5944368640dc"},"vehicle_type_id":"4","last_reported":1744017096,"current_range_meters":19200,"station_id":"ce4bhn92rcd13ifvqgrg","pricing_plan_id":"cebpf4jnsgd1na2vs0mg"},{"bike_id":"9acd2242-70f6-42a4-ad2d-12174a3d71d8","system_id":"levelo_inurba_marseille","lat":43.27682,"lon":5.38912,"is_reserved":false,"is_disabled":true,"rental_uris":{"android":"levelo://app?vid=9acd2242-70f6-42a4-ad2d-12174a3d71d8","ios":"levelo://app?vid=9acd2242-70f6-42a4-ad2d-12174a3d71d8"},"vehicle_type_id":"4","last_reported":1744017096,"current_range_meters":19200,"station_id":"ce4bhi12rcd13ifvqfo0","pricing_plan_id":"cebpf4jnsgd1na2vs0mg"},{"bike_id":"f0605370-f749-4f96-9ef9-c7070173b394","system_id":"levelo_inurba_marseille","lat":43.29915,"lon":5.38164,"is_reserved":false,"is_disabled":true,"rental_uris":{"android":"levelo://app?vid=f0605370-f749-4f96-9ef9-c7070173b394","ios":"levelo://app?vid=f0605370-f749-4f96-9ef9-c7070173b394"},"vehicle_type_id":"4","last_reported":1744017096,"current_range_meters":19200,"station_id":"ce4bgj12rcd13ifvqbc0","pricing_plan_id":"cebpf4jnsgd1na2vs0mg"},{"bike_id":"5963202a-9c08-4e04-9f07-c30eb7aa3bbe","system_id":"levelo_inurba_marseille","lat":43.31216,"lon":5.36827,"is_reserved":false,"is_disabled":false,"rental_uris":{"android":"levelo://app?vid=5963202a-9c08-4e04-9f07-c30eb7aa3bbe","ios":"levelo://app?vid=5963202a-9c08-4e04-9f07-c30eb7aa3bbe"},"vehicle_type_id":"4","last_reported":1744017096,"current_range_meters":19200,"station_id":"ce4bgl92rcd13ifvqbq0","pricing_plan_id":"cebpf4jnsgd1na2vs0mg"},{"bike_id":"8d8a8d4c-ca29-4934-8c20-ebb804a9fc69","system_id":"levelo_inurba_marseille","lat":43.29257,"lon":5.37621,"is_reserved":false,"is_disabled":false,"rental_uris":{"android":"levelo://app?vid=8d8a8d4c-ca29-4934-8c20-ebb804a9fc69","ios":"levelo://app?vid=8d8a8d4c-ca29-4934-8c20-ebb804a9fc69"},"vehicle_type_id":"4","last_reported":1744017096,"current_range_meters":19200,"station_id":"ce4bgi12rcd13ifvqb80","pricing_plan_id":"cebpf4jnsgd1na2vs0mg"},{"bike_id":"f122634c-29cd-4e50-bfeb-d1b6e5cfd499","system_id":"levelo_inurba_marseille","lat":43.29599,"lon":5.38097,"is_reserved":false,"is_disabled":true,"rental_uris":{"android":"levelo://app?vid=f122634c-29cd-4e50-bfeb-d1b6e5cfd499","ios":"levelo://app?vid=f122634c-29cd-4e50-bfeb-d1b6e5cfd499"},"vehicle_type_id":"4","last_reported":1744017096,"current_range_meters":19200,"station_id":"ce4bgl12rcd13ifvqbo0","pricing_plan_id":"cebpf4jnsgd1na2vs0mg"},{"bike_id":"c744466c-8030-40b1-b277-4c1bdcf26d5c","system_id":"levelo_inurba_marseille","lat":43.29268,"lon":5.37619,"is_reserved":false,"is_disabled":false,"rental_uris":{"android":"levelo://app?vid=c744466c-8030-40b1-b277-4c1bdcf26d5c","ios":"levelo://app?vid=c744466c-8030-40b1-b277-4c1bdcf26d5c"},"vehicle_type_id":"4","last_reported":1744017096,"current_range_meters":19200,"station_id":"ce4bgi12rcd13ifvqb80","pricing_plan_id":"cebpf4jnsgd1na2vs0mg"},{"bike_id":"68dda638-5cb9-4eef-8493-a46190512b27","system_id":"levelo_inurba_marseille","lat":43.25947,"lon":5.40917,"is_reserved":false,"is_disabled":false,"rental_uris":{"android":"levelo://app?vid=68dda638-5cb9-4eef-8493-a46190512b27","ios":"levelo://app?vid=68dda638-5cb9-4eef-8493-a46190512b27"},"vehicle_type_id":"4","last_reported":1744017096,"current_range_meters":19600,"station_id":"ce4bhm92rcd13ifvqglg","pricing_plan_id":"cebpf4jnsgd1na2vs0mg"},