{"last_updated":1723565422,"ttl":30,"version":"2.2","data":{"bikes":[{"bike_id":"9ef234df-3d49-4d62-8514-38c4bca06237","system_id":"levelo_inurba_marseille","lat":43.312239,"lon":5.368562,"is_reserved":false,"is_disabled":false,"rental_uris":{"android":"levelo://app?vid=9ef234df-3d49-4d62-8514-38c4bca06237","ios":"levelo://app?vid=9ef234df-3d49-4d62-8514-38c4bca06237"},"vehicle_type_id":"4","last_reported":1723565422,"current_range_meters":28000,"station_id":"ce4bgl92rcd13ifvqbq0","pricing_plan_id":"cebpf4jnsgd1na2vs0mg"},{"bike_id":"794e9f10-53c3-4540-a25d-26570344a089","system_id":"levelo_inurba_marseille","lat":43.30866,"lon":5.37324,"is_reserved":false,"is_disabled":false,"rental_uris":{"android":"levelo://app?vid=794e9f10-53c3-4540-a25d-26570344a089","ios":"levelo://app?vid=794e9f10-53c3-4540-a25d-26570344a089"},"vehicle_type_id":"4","last_reported":1723565422,"current_range_meters":24800,"station_id":"","pricing_plan_id":"cebpf4jnsgd1na2vs0mg"},{"bike_id":"f1f7f903-41f4-4c68-b9f3-290f26a22549","system_id":"levelo_inurba_marseille","lat":43.305712,"lon":5.365641,"is_reserved":false,"is_disabled":false,"rental_uris":{"android":"levelo://app?vid=f1f7f903-41f4-4c68-b9f3-290f26a22549","ios":"levelo://app?vid=f1f7f903-41f4-4c68-b9f3-290f26a22549"},"vehicle_type_id":"4","last_reported":1723565422,"current_range_meters":0,"station_id":"ce4bgs12rcd13ifvqcag","pricing_plan_id":"cebpf4jnsgd1na2vs0mg"},{"bike_id":"0850570b-1cc4-41da-bd19-45868cedb8d9","system_id":"levelo_inurba_marseille","lat":43.305714,"lon":5.365633,"is_reserved":false,"is_disabled":false,"rental_uris":{"android":"levelo://app?vid=0850570b-1cc4-41da-bd19-45868cedb8d9","ios":"levelo://app?vid=0850570b-1cc4-41da-bd19-45868cedb8d9"},"vehicle_type_id":"4","last_reported":1723565422,"current_range_meters":10800,"station_id":"ce4bgs12rcd13ifvqcag","pricing_plan_id":"cebpf4jnsgd1na2vs0mg"},{"bike_id":"8e113328-0281-4ed1-be5f-f58ca7827fe9","system_id":"levelo_inurba_marseille","lat":43.30538,"lon":5.36695,"is_reserved":false,"is_disabled":false,"rental_uris":{"android":"levelo://app?vid=8e113328-0281-4ed1-be5f-f58ca7827fe9","ios":"levelo://app?vid=8e113328-0281-4ed1-be5f-f58ca7827fe9"},"vehicle_type_id":"4","last_reported":1723565422,"current_range_meters":31200,"station_id":"ce4bgrp2rcd13ifvqc9g","pricing_plan_id":"cebpf4jnsgd1na2vs0mg"},{"bike_id":"16ce72aa-e515-462a-a798-442ca174bc87","system_id":"levelo_inurba_marseille","lat":43.31596,"lon":5.37609,"is_reserved":false,"is_disabled":false,"rental_uris":{"android":"levelo://app?vid=16ce72aa-e515-462a-a798-442ca174bc87","ios":"levelo://app?vid=16ce72aa-e515-462a-a798-442ca174bc87"},"vehicle_type_id":"4","last_reported":1723565422,"current_range_meters":3200,"station_id":"","pricing_plan_id":"cebpf4jnsgd1na2vs0mg"},{"bike_id":"755956ae-1203-46e6-a65a-09da7c93c5c0","system_id":"levelo_inurba_marseille","lat":43.307945,"lon":5.376487,"is_reserved":false,"is_disabled":false,"rental_uris":{"android":"levelo://app?vid=755956ae-1203-46e6-a65a-09da7c93c5c0","ios":"levelo://app?vid=755956ae-1203-46e6-a65a-09da7c93c5c0"},"vehicle_type_id":"4","last_reported":1723565422,"current_range_meters":800,"station_id":"ce4bgv92rcd13ifvqcq0","pricing_plan_id":"cebpf4jnsgd1na2vs0mg"},{"bike_id":"4fef5692-bba9-460a-a774-7053515df4ac","system_id":"levelo_inurba_marseille","lat":43.31362,"lon":5.37915,"is_reserved":false,"is_disabled":false,"rental_uris":{"android":"levelo://app?vid=4fef5692-bba9-460a-a774-7053515df4ac","ios":"levelo://app?vid=4fef5692-bba9-460a-a774-7053515df4ac"},"vehicle_type_id":"4","last_reported":1723565422,"current_range_meters":4800,"station_id":"","pricing_plan_id":"cebpf4jnsgd1na2vs0mg"},{"bike_id":"069fb723-fcb8-440c-ad29-76ff4868d8a5","system_id":"levelo_inurba_marseille","lat":43.31359,"lon":5.37919,"is_reserved":false,"is_disabled":false,"rental_uris":{"android":"levelo://app?vid=069fb723-fcb8-440c-ad29-76ff4868d8a5","ios":"levelo://app?vid=069fb723-fcb8-440c-ad29-76ff4868d8a5"},"vehicle_type_id":"4","last_reported":1723565422,"current_range_meters":14800,"station_id":"","pricing_plan_id":"cebpf4jnsgd1na2vs0mg"},{"bike_id":"e7b2bf90-071a-497e-a7b8-5d577dec8dd8","system_id":"levelo_inurba_marseille","lat":43.3137,"lon":5.3792,"is_reserved":false,"is_disabled":false,"rental_uris":{"android":"levelo://app?vid=e7b2bf90-071a-497e-a7b8-5d577dec8dd8","ios":"levelo://app?vid=e7b2bf90-071a-497e-a7b8-5d577dec8dd8"},"vehicle_type_id":"4","last_reported":1723565422,"current_range_meters":17600,"station_id":"","pricing_plan_id":"cebpf4jnsgd1na2vs0mg"},{"bike_id":"e43d9e2c-9d56-4741-96c8-9ef311a5fe37","system_id":"levelo_inurba_marseille","lat":43.308513,"lon":5.378967,"is_reserved":false,"is_disabled":false,"rental_uris":{"android":"levelo://app?vid=e43d9e2c-9d56-4741-96c8-9ef311a5fe37","ios":"levelo://app?vid=e43d9e2c-9d56-4741-96c8-9ef311a5fe37"},"vehicle_type_id":"4","last_reported":1723565422,"current_range_meters":16000,"station_id":"","pricing_plan_id":"cebpf4jnsgd1na2vs0mg"},{"bike_id":"93e069f0-8d3b-473c-bb8c-f67e28dbfaf7","system_id":"levelo_inurba_marseille","lat":43.30304,"lon":5.368987,"is_reserved":false,"is_disabled":false,"rental_uris":{"android":"levelo://app?vid=93e069f0-8d3b-473c-bb8c-f67e28dbfaf7","ios":"levelo://app?vid=93e069f0-8d3b-473c-bb8c-f67e28dbfaf7"},"vehicle_type_id":"4","last_reported":1723565422,"current_range_meters":800,"station_id":"ce4bgqh2rcd13ifvqc5g","pricing_plan_id":"cebpf4jnsgd1na2vs0mg"},{"bike_id":"878968fd-0620-44fc-baec-42d036a00967","system_id":"levelo_inurba_marseille","lat":43.301939,"lon":5.366286,"is_reserved":false,"is_disabled":false,"rental_uris":{"android":"levelo://app?vid=878968fd-0620-44fc-baec-42d036a00967","ios":"levelo://app?vid=878968fd-0620-44fc-baec-42d036a00967"},"vehicle_type_id":"4","last_reported":1723565422,"current_range_meters":11600,"station_id":"ce4bgrh2rcd13ifvqc8g","pricing_plan_id":"cebpf4jnsgd1na2vs0mg"},{"bike_id":"5ba26081-1839-4e97-900e-0b1e2d597ca2","system_id":"levelo_inurba_marseille","lat":43.284793,"lon":5.384119,"is_reserved":false,"is_disabled":false,"rental_uris":{"android":"levelo://app?vid=5ba26081-1839-4e97-900e-0b1e2d597ca2","ios":"levelo://app?vid=5ba26081-1839-4e97-900e-0b1e2d597ca2"},"vehicle_type_id":"4","last_reported":1723565422,"current_range_meters":20800,"station_id":"ce4bh512rcd13ifvqe3g","pricing_plan_id":"cebpf4jnsgd1na2vs0mg"},{"bike_id":"e7dded23-67da-4cfc-9c49-ac8bbabb61cf","system_id":"levelo_inurba_marseille","lat":43.308012,"lon":5.381511,"is_reserved":false,"is_disabled":false,"rental_uris":{"android":"levelo://app?vid=e7dded23-67da-4cfc-9c49-ac8bbabb61cf","ios":"levelo://app?vid=e7dded23-67da-4cfc-9c49-ac8bbabb61cf"},"vehicle_type_id":"4","last_reported":1723565422,"current_range_meters":6800,"station_id":"ce4bgt12rcd13ifvqce0","pricing_plan_id":"cebpf4jnsgd1na2vs0mg"},{"bike_id":"99da5622-2ad2-4ba2-8ac6-eacd8899f8e4","system_id":"levelo_inurba_marseille","lat":43.304606,"lon":5.379026,"is_reserved":false,"is_disabled":false,"rental_uris":{"android":"levelo://app?vid=99da5622-2ad2-4ba2-8ac6-eacd8899f8e4","ios":"levelo://app?vid=99da5622-2ad2-4ba2-8ac6-eacd8899f8e4"},"vehicle_type_id":"4","last_reported":1723565422,"current_range_meters":13600,"station_id":"ce4bgup2rcd13ifvqcn0","pricing_plan_id":"cebpf4jnsgd1na2vs0mg"},{"bike_id":"0e91bda8-fe20-4221-9405-8d444c1d472f","system_id":"levelo_inurba_marseille","lat":43.304606,"lon":5.379026,"is_reserved":false,"is_disabled":false,"rental_uris":{"android":"levelo://app?vid=0e91bda8-fe20-4221-9405-8d444c1d472f","ios":"levelo://app?vid=0e91bda8-fe20-4221-9405-8d444c1d472f"},"vehicle_type_id":"4","last_reported":1723565422,"current_range_meters":4400,"station_id":"ce4bgup2rcd13ifvqcn0","pricing_plan_id":"cebpf4jnsgd1na2vs0mg"},{"bike_id":"c8a18721-7ab1-4589-a98f-b93bf2341648","system_id":"levelo_inurba_marseille","lat":43.32469,"lon":5.36563,"is_reserved":false,"is_disabled":false,"rental_uris":{"android":"levelo://app?vid=c8a18721-7ab1-4589-a98f-b93bf2341648","ios":"levelo://app?vid=c8a18721-7ab1-4589-a98f-b93bf2341648"},"vehicle_type_id":"4","last_reported":1723565422,"current_range_meters":30400,"station_id":"ce4bhs12rcd13ifvqhvg","pricing_plan_id":"cebpf4jnsgd1na2vs0mg"},{"bike_id":"ca8ea04d-ec3b-44e5-900f-5825041e996c","system_id":"levelo_inurba_marseille","lat":43.32475,"lon":5.3658,"is_reserved":false,"is_disabled":false,"rental_uris":{"android":"levelo://app?vid=ca8ea04d-ec3b-44e5-900f-5825041e996c","ios":"levelo://app?vid=ca8ea04d-ec3b-44e5-900f-5825041e996c"},"vehicle_type_id":"4","last_reported":1723565422,"current_range_meters":4800,"station_id":"ce4bhs12rcd13ifvqhvg","pricing_plan_id":"cebpf4jnsgd1na2vs0mg"},{"bike_id":"f11054d9-6a7d-4eb2-80ae-84222b1237a1","system_id":"levelo_inurba_marseille","lat":43.32479,"lon":5.36573,"is_reserved":false,"is_disabled":false,"rental_uris":{"android":"levelo://app?vid=f11054d9-6a7d-4eb2-80ae-84222b1237a1","ios":"levelo://app?vid=f11054d9-6a7d-4eb2-80ae-84222b1237a1"},"vehicle_type_id":"4","last_reported":1723565422,"current_range_meters":18800,"station_id":"ce4bhs12rcd13ifvqhvg","pricing_plan_id":"cebpf4jnsgd1na2vs0mg"},{"bike_id":"b336c1a1-b0b5-4073-b395-9a13aeef8efc","system_id":"levelo_inurba_marseille","lat":43.324771,"lon":5.36557,"is_reserved":false,"is_disabled":false,"rental_uris":{"android":"levelo://app?vid=b336c1a1-b0b5-4073-b395-9a13aeef8efc","ios":"levelo://app?vid=b336c1a1-b0b5-4073-b395-9a13aeef8efc"},"vehicle_type_id":"4","last_reported":1723565422,"current_range_meters":2400,"station_id":"ce4bhs12rcd13ifvqhvg","pricing_plan_id":"cebpf4jnsgd1na2vs0mg"},{"bike_id":"4dc59ee2-510d-4346-aa02-9e1d5ab0b797","system_id":"levelo_inurba_marseille","lat":43.32481,"lon":5.3656,"is_reserved":false,"is_disabled":false,"rental_uris":{"android":"levelo://app?vid=4dc59ee2-510d-4346-aa02-9e1d5ab0b797","ios":"levelo://app?vid=4dc59ee2-510d-4346-aa02-9e1d5ab0b797"},"vehicle_type_id":"4","last_reported":1723565422,"current_range_meters":400,"station_id":"ce4bhs12rcd13ifvqhvg","pricing_plan_id":"cebpf4jnsgd1na2vs0mg"},{"bike_id":"21296c7e-2f68-4364-9be7-b485c687e3f0","system_id":"levelo_inurba_marseille","lat":43.32483,"lon":5.36568,"is_reserved":false,"is_disabled":false,"rental_uris":{"android":"levelo://app?vid=21296c7e-2f68-4364-9be7-b485c687e3f0","ios":"levelo://app?vid=21296c7e-2f68-4364-9be7-b485c687e3f0"},"vehicle_type_id":"4","last_reported":1723565422,"current_range_meters":13200,"station_id":"ce4bhs12rcd13ifvqhvg","pricing_plan_id":"cebpf4jnsgd1na2vs0mg"},{"bike_id":"2d69db05-dfdc-4f94-b158-61231f65772d","system_id":"levelo_inurba_marseille","lat":43.31367,"lon":5.38492,"is_reserved":false,"is_disabled":false,"rental_uris":{"android":"levelo://app?vid=2d69db05-dfdc-4f94-b158-61231f65772d","ios":"levelo://app?vid=2d69db05-dfdc-4f94-b158-61231f65772d"},"vehicle_type_id":"4","last_reported":1723565422,"current_range_meters":0,"station_id":"ce4bgt92rcd13ifvqcf0","pricing_plan_id":"cebpf4jnsgd1na2vs0mg"},{"bike_id":"d014e156-62a0-4a6b-8c88-bd50bc96d78d","system_id":"levelo_inurba_marseille","lat":43.299378,"lon":5.365562,"is_reserved":false,"is_disabled":false,"rental_uris":{"android":"levelo://app?vid=d014e156-62a0-4a6b-8c88-bd50bc96d78d","ios":"levelo://app?vid=d014e156-62a0-4a6b-8c88-bd50bc96d78d"},"vehicle_type_id":"4","last_reported":1723565422,"current_range_meters":0,"station_id":"","pricing_plan_id":"cebpf4jnsgd1na2vs0mg"},{"bike_id":"601c1e36-5fdd-43d7-a580-625d5b127064","system_id":"levelo_inurba_marseille","lat":43.2998,"lon":5.37177,"is_reserved":false,"is_disabled":false,"rental_uris":{"android":"levelo://app?vid=601c1e36-5fdd-43d7-a580-625d5b127064","ios":"levelo://app?vid=601c1e36-5fdd-43d7-a580-625d5b127064"},"vehicle_type_id":"4","last_reported":1723565422,"current_range_meters":0,"station_id":"ce4bgr92rcd13ifvqc7g","pricing_plan_id":"cebpf4jnsgd1na2vs0mg"},{"bike_id":"1f262e94-024c-42b8-bb22-da90134c0a14","system_id":"levelo_inurba_marseille","lat":43.299724,"lon":5.371829,"is_reserved":false,"is_disabled":false,"rental_uris":{"android":"levelo://app?vid=1f262e94-024c-42b8-bb22-da90134c0a14","ios":"levelo://app?vid=1f262e94-024c-42b8-bb22-da90134c0a14"},"vehicle_type_id":"4","last_reported":1723565422,"current_range_meters":8000,"station_id":"ce4bgr92rcd13ifvqc7g","pricing_plan_id":"cebpf4jnsgd1na2vs0mg"},{"bike_id":"911b9e54-16b5-4d14-8207-e819b0a3cb7e","system_id":"levelo_inurba_marseille","lat":43.299724,"lon":5.371829,"is_reserved":false,"is_disabled":false,"rental_uris":{"android":"levelo://app?vid=911b9e54-16b5-4d14-8207-e819b0a3cb7e","ios":"levelo://app?vid=911b9e54-16b5-4d14-8207-e819b0a3cb7e"},"vehicle_type_id":"4","last_reported":1723565422,"current_range_meters":400,"station_id":"ce4bgr92rcd13ifvqc7g","pricing_plan_id":"cebpf4jnsgd1na2vs0mg"},{"bike_id":"4462c483-6ad5-4b74-8229-63a007d9a945","system_id":"levelo_inurba_marseille","lat":43.32683,"lon":5.36714,"is_reserved":false,"is_disabled":false,"rental_uris":{"android":"levelo://app?vid=4462c483-6ad5-4b74-8229-63a007d9a945","ios":"levelo://app?vid=4462c483-6ad5-4b74-8229-63a007d9a945"},"vehicle_type_id":"4","last_reported":1723565422,"current_range_meters":16000,"station_id":"","pricing_plan_id":"cebpf4jnsgd1na2vs0mg"},{"bike_id":"73aa7cbf-ffeb-4116-bfe0-229febe8878b","system_id":"levelo_inurba_marseille","lat":43.305364,"lon":5.384119,"is_reserved":false,"is_disabled":false,"rental_uris":{"android":"levelo://app?vid=73aa7cbf-ffeb-4116-bfe0-229febe8878b","ios":"levelo://app?vid=73aa7cbf-ffeb-4116-bfe0-229febe8878b"},"vehicle_type_id":"4","last_reported":1723565422,"current_range_meters":4400,"station_id":"ce4bgg92rcd13ifvqb30","pricing_plan_id":"cebpf4jnsgd1na2vs0mg"},{"bike_id":"45c5b8fd-1af8-4a8f-be50-b612acc95f5a","system_id":"levelo_inurba_marseille","lat":43.305364,"lon":5.384119,"is_reserved":false,"is_disabled":false,"rental_uris":{"android":"levelo://app?vid=45c5b8fd-1af8-4a8f-be50-b612acc95f5a","ios":"levelo://app?vid=45c5b8fd-1af8-4a8f-be50-b612acc95f5a"},"vehicle_type_id":"4","last_reported":1723565422,"current_range_meters":12000,"station_id":"ce4bgg92rcd13ifvqb30","pricing_plan_id":"cebpf4jnsgd1na2vs0mg"},{"bike_id":"90552009-6073-4954-9c86-87750db647c1","system_id":"levelo_inurba_marseille","lat":43.305364,"lon":5.384119,"is_reserved":false,"is_disabled":false,"rental_uris":{"android":"levelo://app?vid=90552009-6073-4954-9c86-87750db647c1","ios":"levelo://app?vid=90552009-6073-4954-9c86-87750db647c1"},"vehicle_type_id":"4","last_reported":1723565422,"current_range_meters":4000,"station_id":"ce4bgg92rcd13ifvqb30","pricing_plan_id":"cebpf4jnsgd1na2vs0mg"},{"bike_id":"abe7e0ea-046f-43e0-9e8a-b4379b5dd489","system_id":"levelo_inurba_marseille","lat":43.31174,"lon":5.38709,"is_reserved":false,"is_disabled":false,"rental_uris":{"android":"levelo://app?vid=abe7e0ea-046f-43e0-9e8a-b4379b5dd489","ios":"levelo://app?vid=abe7e0ea-046f-43e0-9e8a-b4379b5dd489"},"vehicle_type_id":"4","last_reported":1723565422,"current_range_meters":4000,"station_id":"ce4bgv12rcd13ifvqcp0","pricing_plan_id":"cebpf4jnsgd1na2vs0mg"},{"bike_id":"3c68504e-67e8-4937-9129-c6c033d9109f","system_id":"levelo_inurba_marseille","lat":43.31184,"lon":5.38712,"is_reserved":false,"is_disabled":false,"rental_uris":{"android":"levelo://app?vid=3c68504e-67e8-4937-9129-c6c033d9109f","ios":"levelo://app?vid=3c68504e-67e8-4937-9129-c6c033d9109f"},"vehicle_type_id":"4","last_reported":1723565422,"current_range_meters":17600,"station_id":"ce4bgv12rcd13ifvqcp0","pricing_plan_id":"cebpf4jnsgd1na2vs0mg"},{"bike_id":"a1de4eec-9ef7-43bd-8f76-7a0d63adbf0f","system_id":"levelo_inurba_marseille","lat":43.31166,"lon":5.387215,"is_reserved":false,"is_disabled":false,"rental_uris":{"android":"levelo://app?vid=a1de4eec-9ef7-43bd-8f76-7a0d63adbf0f","ios":"levelo://app?vid=a1de4eec-9ef7-43bd-8f76-7a0d63adbf0f"},"vehicle_type_id":"4","last_reported":1723565422,"current_range_meters":13600,"station_id":"ce4bgv12rcd13ifvqcp0","pricing_plan_id":"cebpf4jnsgd1na2vs0mg"},{"bike_id":"f19b8818-3880-4a56-ac13-a6eb964f4cbe","system_id":"levelo_inurba_marseille","lat":43.297398,"lon":5.369281,"is_reserved":false,"is_disabled":false,"rental_uris":{"android":"levelo://app?vid=f19b8818-3880-4a56-ac13-a6eb964f4cbe","ios":"levelo://app?vid=f19b8818-3880-4a56-ac13-a6eb964f4cbe"},"vehicle_type_id":"4","last_reported":1723565422,"current_range_meters":13600,"station_id":"","pricing_plan_id":"cebpf4jnsgd1na2vs0mg"},{"bike_id":"239c1b47-4cf8-4238-b3b4-1df57545f594","system_id":"levelo_inurba_marseille","lat":43.297163,"lon":5.365866,"is_reserved":false,"is_disabled":false,"rental_uris":{"android":"levelo://app?vid=239c1b47-4cf8-4238-b3b4-1df57545f594","ios":"levelo://app?vid=239c1b47-4cf8-4238-b3b4-1df57545f594"},"vehicle_type_id":"4","last_reported":1723565422,"current_range_meters":1600,"station_id":"ce4bgn12rcd13ifvqbt0","pricing_plan_id":"cebpf4jnsgd1na2vs0mg"},{"bike_id":"484bca19-86c1-43d3-a3c6-64aac6eb6b24","system_id":"levelo_inurba_marseille","lat":43.2968,"lon":5.37291,"is_reserved":false,"is_disabled":false,"rental_uris":{"android":"levelo://app?vid=484bca19-86c1-43d3-a3c6-64aac6eb6b24","ios":"levelo://app?vid=484bca19-86c1-43d3-a3c6-64aac6eb6b24"},"vehicle_type_id":"4","last_reported":1723565422,"current_range_meters":26400,"station_id":"ce4bgk12rcd13ifvqbj0","pricing_plan_id":"cebpf4jnsgd1na2vs0mg"},{"bike_id":"5729409e-e1f1-4331-882f-9ab6467ab306","system_id":"levelo_inurba_marseille","lat":43.296921,"lon":5.376579,"is_reserved":false,"is_disabled":false,"rental_uris":{"android":"levelo://app?vid=5729409e-e1f1-4331-882f-9ab6467ab306","ios":"levelo://app?vid=5729409e-e1f1-4331-882f-9ab6467ab306"},"vehicle_type_id":"4","last_reported":1723565422,"current_range_meters":18000,"station_id":"ce4bgkh2rcd13ifvqbl0","pricing_plan_id":"cebpf4jnsgd1na2vs0mg"},{"bike_id":"32d57c20-e0b4-4aad-a50f-23fb3b45589e","system_id":"levelo_inurba_marseille","lat":43.30161,"lon":5.38508,"is_reserved":false,"is_disabled":false,"rental_uris":{"android":"levelo://app?vid=32d57c20-e0b4-4aad-a50f-23fb3b45589e","ios":"levelo://app?vid=32d57c20-e0b4-4aad-a50f-23fb3b45589e"},"vehicle_type_id":"4","last_reported":1723565422,"current_range_meters":20400,"station_id":"ce4bhbp2rcd13ifvqerg","pricing_plan_id":"cebpf4jnsgd1na2vs0mg"},{"bike_id":"a88a575f-dafb-4390-91f6-1b1416eb7acd","system_id":"levelo_inurba_marseille","lat":43.309589,"lon":5.390258,"is_reserved":false,"is_disabled":false,"rental_uris":{"android":"levelo://app?vid=a88a575f-dafb-4390-91f6-1b1416eb7acd","ios":"levelo://app?vid=a88a575f-dafb-4390-91f6-1b1416eb7acd"},"vehicle_type_id":"4","last_reported":1723565422,"current_range_meters":4000,"station_id":"ce4bgup2rcd13ifvqco0","pricing_plan_id":"cebpf4jnsgd1na2vs0mg"},{"bike_id":"86d4f4b1-7e00-4884-92ac-3408fb9e4f6a","system_id":"levelo_inurba_marseille","lat":43.296921,"lon":5.376579,"is_reserved":false,"is_disabled":false,"rental_uris":{"android":"levelo://app?vid=86d4f4b1-7e00-4884-92ac-3408fb9e4f6a","ios":"levelo://app?vid=86d4f4b1-7e00-4884-92ac-3408fb9e4f6a"},"vehicle_type_id":"4","last_reported":1723565422,"current_range_meters":0,"station_id":"ce4bgkh2rcd13ifvqbl0","pricing_plan_id":"cebpf4jnsgd1na2vs0mg"},{"bike_id":"145343b5-702a-4622-9a5d-d33c950f815f","system_id":"levelo_inurba_marseille","lat":43.317557,"lon":5.390173,"is_reserved":false,"is_disabled":false,"rental_uris":{"android":"levelo://app?vid=145343b5-702a-4622-9a5d-d33c950f815f","ios":"levelo://app?vid=145343b5-702a-4622-9a5d-d33c950f815f"},"vehicle_type_id":"4","last_reported":1723565422,"current_range_meters":5200,"station_id":"ce4bhqp2rcd13ifvqhng","pricing_plan_id":"cebpf4jnsgd1na2vs0mg"},{"bike_id":"6b41979c-df62-4b3b-abe8-6707c9319ea8","system_id":"levelo_inurba_marseille","lat":43.31757,"lon":5.39018,"is_reserved":false,"is_disabled":false,"rental_uris":{"android":"levelo://app?vid=6b41979c-df62-4b3b-abe8-6707c9319ea8","ios":"levelo://app?vid=6b41979c-df62-4b3b-abe8-6707c9319ea8"},"vehicle_type_id":"4","last_reported":1723565422,"current_range_meters":18000,"station_id":"ce4bhqp2rcd13ifvqhng","pricing_plan_id":"cebpf4jnsgd1na2vs0mg"},{"bike_id":"523e5971-de80-4e11-84d4-0fbcbffc4cff","system_id":"levelo_inurba_marseille","lat":43.304278,"lon":5.388868,"is_reserved":false,"is_disabled":false,"rental_uris":{"android":"levelo://app?vid=523e5971-de80-4e11-84d4-0fbcbffc4cff","ios":"levelo://app?vid=523e5971-de80-4e11-84d4-0fbcbffc4cff"},"vehicle_type_id":"4","last_reported":1723565422,"current_range_meters":29200,"station_id":"ce4bgk12rcd13ifvqbi0","pricing_plan_id":"cebpf4jnsgd1na2vs0mg"},{"bike_id":"96a9b8ec-1333-44bf-8e9b-9ee7344c7fc7","system_id":"levelo_inurba_marseille","lat":43.296277,"lon":5.377108,"is_reserved":false,"is_disabled":false,"rental_uris":{"android":"levelo://app?vid=96a9b8ec-1333-44bf-8e9b-9ee7344c7fc7","ios":"levelo://app?vid=96a9b8ec-1333-44bf-8e9b-9ee7344c7fc7"},"vehicle_type_id":"4","last_reported":1723565422,"current_range_meters":10400,"station_id":"ce4bgi92rcd13ifvqb90","pricing_plan_id":"cebpf4jnsgd1na2vs0mg"},{"bike_id":"6efe8e40-ef63-4636-9a30-2102bb634834","system_id":"levelo_inurba_marseille","lat":43.32367,"lon":5.388836,"is_reserved":false,"is_disabled":false,"rental_uris":{"android":"levelo://app?vid=6efe8e40-ef63-4636-9a30-2102bb634834","ios":"levelo://app?vid=6efe8e40-ef63-4636-9a30-2102bb634834"},"vehicle_type_id":"4","last_reported":1723565422,"current_range_meters":2400,"station_id":"ce4bhqp2rcd13ifvqhog","pricing_plan_id":"cebpf4jnsgd1na2vs0mg"},{"bike_id":"49204d73-6a09-43a6-8441-cb5af3a4f17d","system_id":"levelo_inurba_marseille","lat":43.32367,"lon":5.388836,"is_reserved":false,"is_disabled":false,"rental_uris":{"android":"levelo://app?vid=49204d73-6a09-43a6-8441-cb5af3a4f17d","ios":"levelo://app?vid=49204d73-6a09-43a6-8441-cb5af3a4f17d"},"vehicle_type_id":"4","last_reported":1723565422,"current_range_meters":5600,"station_id":"ce4bhqp2rcd13ifvqhog","pricing_plan_id":"cebpf4jnsgd1na2vs0mg"},{"bike_id":"eb4610b3-963c-4f9e-9e52-b1f62f47a354","system_id":"levelo_inurba_marseille","lat":43.32367,"lon":5.388836,"is_reserved":false,"is_disabled":false,"rental_uris":{"android":"levelo://app?vid=eb4610b3-963c-4f9e-9e52-b1f62f47a354","ios":"levelo://app?vid=eb4610b3-963c-4f9e-9e52-b1f62f47a354"},"vehicle_type_id":"4","last_reported":1723565422,"current_range_meters":2400,"station_id":"ce4bhqp2rcd13ifvqhog","pricing_plan_id":"cebpf4jnsgd1na2vs0mg"},{"bike_id":"fd056494-1ca0-48ee-8331-d1e443f55afc","system_id":"levelo_inurba_marseille","lat":43.32367,"lon":5.388836,"is_reserved":false,"is_disabled":false,"rental_uris":{"android":"levelo://app?vid=fd056494-1ca0-48ee-8331-d1e443f55afc","ios":"levelo://app?vid=fd056494-1ca0-48ee-8331-d1e443f55afc"},"vehicle_type_id":"4","last_reported":1723565422,"current_range_meters":17600,"station_id":"ce4bhqp2rcd13ifvqhog","pricing_plan_id":"cebpf4jnsgd1na2vs0mg"},{"bike_id":"81b2ac6b-270c-413a-8fdc-83d7c366ca61","system_id":"levelo_inurba_marseille","lat":43.29602,"lon":5.381084,"is_reserved":false,"is_disabled":false,"rental_uris":{"android":"levelo://app?vid=81b2ac6b-270c-413a-8fdc-83d7c366ca61","ios":"levelo://app?vid=81b2ac6b-270c-413a-8fdc-83d7c366ca61"},"vehicle_type_id":"4","last_reported":1723565422,"current_range_meters":12800,"station_id":"ce4bgl12rcd13ifvqbo0","pricing_plan_id":"cebpf4jnsgd1na2vs0mg"},{"bike_id":"ea3ee229-4a96-40d7-8319-acad7fdb35f7","system_id":"levelo_inurba_marseille","lat":43.29598,"lon":5.38101,"is_reserved":false,"is_disabled":false,"rental_uris":{"android":"levelo://app?vid=ea3ee229-4a96-40d7-8319-acad7fdb35f7","ios":"levelo://app?vid=ea3ee229-4a96-40d7-8319-acad7fdb35f7"},"vehicle_type_id":"4","last_reported":1723565422,"current_range_meters":0,"station_id":"ce4bgl12rcd13ifvqbo0","pricing_plan_id":"cebpf4jnsgd1na2vs0mg"},{"bike_id":"96543af9-7889-48bf-9d6b-0217d99ec8c1","system_id":"levelo_inurba_marseille","lat":43.292749,"lon":5.368398,"is_reserved":false,"is_disabled":false,"rental_uris":{"android":"levelo://app?vid=96543af9-7889-48bf-9d6b-0217d99ec8c1","ios":"levelo://app?vid=96543af9-7889-48bf-9d6b-0217d99ec8c1"},"vehicle_type_id":"4","last_reported":1723565422,"current_range_meters":0,"station_id":"ce4bhbp2rcd13ifvqesg","pricing_plan_id":"cebpf4jnsgd1na2vs0mg"},{"bike_id":"87bce39b-888f-45fc-a738-81087847133a","system_id":"levelo_inurba_marseille","lat":43.292749,"lon":5.368402,"is_reserved":false,"is_disabled":false,"rental_uris":{"android":"levelo://app?vid=87bce39b-888f-45fc-a738-81087847133a","ios":"levelo://app?vid=87bce39b-888f-45fc-a738-81087847133a"},"vehicle_type_id":"4","last_reported":1723565422,"current_range_meters":4000,"station_id":"ce4bhbp2rcd13ifvqesg","pricing_plan_id":"cebpf4jnsgd1na2vs0mg"},{"bike_id":"dc668875-240c-4fd0-99da-199ad63bf083","system_id":"levelo_inurba_marseille","lat":43.29278,"lon":5.36848,"is_reserved":false,"is_disabled":false,"rental_uris":{"android":"levelo://app?vid=dc668875-240c-4fd0-99da-199ad63bf083","ios":"levelo://app?vid=dc668875-240c-4fd0-99da-199ad63bf083"},"vehicle_type_id":"4","last_reported":1723565422,"current_range_meters":31200,"station_id":"ce4bhbp2rcd13ifvqesg","pricing_plan_id":"cebpf4jnsgd1na2vs0mg"},{"bike_id":"c1799a6a-4dce-4102-9fd9-f8652c743583","system_id":"levelo_inurba_marseille","lat":43.292749,"lon":5.368402,"is_reserved":false,"is_disabled":false,"rental_uris":{"android":"levelo://app?vid=c1799a6a-4dce-4102-9fd9-f8652c743583","ios":"levelo://app?vid=c1799a6a-4dce-4102-9fd9-f8652c743583"},"vehicle_type_id":"4","last_reported":1723565422,"current_range_meters":31200,"station_id":"ce4bhbp2rcd13ifvqesg","pricing_plan_id":"cebpf4jnsgd1na2vs0mg"},{"bike_id":"9088fafc-601f-42fe-88e9-54b24a19789c","system_id":"levelo_inurba_marseille","lat":43.305364,"lon":5.384119,"is_reserved":false,"is_disabled":false,"rental_uris":{"android":"levelo://app?vid=9088fafc-601f-42fe-88e9-54b24a19789c","ios":"levelo://app?vid=9088fafc-601f-42fe-88e9-54b24a19789c"},"vehicle_type_id":"4","last_reported":1723565422,"current_range_meters":12400,"station_id":"ce4bgg92rcd13ifvqb30","pricing_plan_id":"cebpf4jnsgd1na2vs0mg"},{"bike_id":"a3023ae7-d13e-452a-a7e6-93ae1067d749","system_id":"levelo_inurba_marseille","lat":43.29306,"lon":5.37461,"is_reserved":false,"is_disabled":false,"rental_uris":{"android":"levelo://app?vid=a3023ae7-d13e-452a-a7e6-93ae1067d749","ios":"levelo://app?vid=a3023ae7-d13e-452a-a7e6-93ae1067d749"},"vehicle_type_id":"4","last_reported":1723565422,"current_range_meters":28400,"station_id":"ce4bgi12rcd13ifvqb70","pricing_plan_id":"cebpf4jnsgd1na2vs0mg"},{"bike_id":"a6620a5c-fc99-4cda-a6b3-3126ed2f4bb6","system_id":"levelo_inurba_marseille","lat":43.303002,"lon":5.392142,"is_reserved":false,"is_disabled":false,"rental_uris":{"android":"levelo://app?vid=a6620a5c-fc99-4cda-a6b3-3126ed2f4bb6","ios":"levelo://app?vid=a6620a5c-fc99-4cda-a6b3-3126ed2f4bb6"},"vehicle_type_id":"4","last_reported":1723565422,"current_range_meters":4800,"station_id":"ce4bgkh2rcd13ifvqbk0","pricing_plan_id":"cebpf4jnsgd1na2vs0mg"},{"bike_id":"bcd6aa89-d159-4a4c-8318-d642b08abfc8","system_id":"levelo_inurba_marseille","lat":43.303002,"lon":5.392142,"is_reserved":false,"is_disabled":false,"rental_uris":{"android":"levelo://app?vid=bcd6aa89-d159-4a4c-8318-d642b08abfc8","ios":"levelo://app?vid=bcd6aa89-d159-4a4c-8318-d642b08abfc8"},"vehicle_type_id":"4","last_reported":1723565422,"current_range_meters":14400,"station_id":"ce4bgkh2rcd13ifvqbk0","pricing_plan_id":"cebpf4jnsgd1na2vs0mg"},{"bike_id":"ffea45c0-b817-4d3d-bf21-d4bdd7829ee5","system_id":"levelo_inurba_marseille","lat":43.302992,"lon":5.392136,"is_reserved":false,"is_disabled":false,"rental_uris":{"android":"levelo://app?vid=ffea45c0-b817-4d3d-bf21-d4bdd7829ee5","ios":"levelo://app?vid=ffea45c0-b817-4d3d-bf21-d4bdd7829ee5"},"vehicle_type_id":"4","last_reported":1723565422,"current_range_meters":1600,"station_id":"ce4bgkh2rcd13ifvqbk0","pricing_plan_id":"cebpf4jnsgd1na2vs0mg"},{"bike_id":"bf833aa1-dbfb-45fa-bf70-cfc8ca04a75b","system_id":"levelo_inurba_marseille","lat":43.29368,"lon":5.37847,"is_reserved":false,"is_disabled":false,"rental_uris":{"android":"levelo://app?vid=bf833aa1-dbfb-45fa-bf70-cfc8ca04a75b","ios":"levelo://app?vid=bf833aa1-dbfb-45fa-bf70-cfc8ca04a75b"},"vehicle_type_id":"4","last_reported":1723565422,"current_range_meters":0,"station_id":"ce4bgjh2rcd13ifvqbf0","pricing_plan_id":"cebpf4jnsgd1na2vs0mg"},{"bike_id":"3632cc41-6dce-4e7b-800d-caf4a019138d","system_id":"levelo_inurba_marseille","lat":43.2936,"lon":5.37835,"is_reserved":false,"is_disabled":false,"rental_uris":{"android":"levelo://app?vid=3632cc41-6dce-4e7b-800d-caf4a019138d","ios":"levelo://app?vid=3632cc41-6dce-4e7b-800d-caf4a019138d"},"vehicle_type_id":"4","last_reported":1723565422,"current_range_meters":30000,"station_id":"ce4bgjh2rcd13ifvqbf0","pricing_plan_id":"cebpf4jnsgd1na2vs0mg"},{"bike_id":"d76cb8e5-1fc0-4d0f-815d-88256c9372ec","system_id":"levelo_inurba_marseille","lat":43.29234,"lon":5.36069,"is_reserved":false,"is_disabled":false,"rental_uris":{"android":"levelo://app?vid=d76cb8e5-1fc0-4d0f-815d-88256c9372ec","ios":"levelo://app?vid=d76cb8e5-1fc0-4d0f-815d-88256c9372ec"},"vehicle_type_id":"4","last_reported":1723565422,"current_range_meters":6400,"station_id":"ce4bhbh2rcd13ifvqeqg","pricing_plan_id":"cebpf4jnsgd1na2vs0mg"},{"bike_id":"cafa39e3-71e5-46e2-a979-124a4dbfdfc7","system_id":"levelo_inurba_marseille","lat":43.292311,"lon":5.360731,"is_reserved":false,"is_disabled":false,"rental_uris":{"android":"levelo://app?vid=cafa39e3-71e5-46e2-a979-124a4dbfdfc7","ios":"levelo://app?vid=cafa39e3-71e5-46e2-a979-124a4dbfdfc7"},"vehicle_type_id":"4","last_reported":1723565422,"current_range_meters":27200,"station_id":"ce4bhbh2rcd13ifvqeqg","pricing_plan_id":"cebpf4jnsgd1na2vs0mg"},{"bike_id":"407eaba8-2a54-48ad-bc1d-f8dee6a8222d","system_id":"levelo_inurba_marseille","lat":43.29228,"lon":5.36046,"is_reserved":false,"is_disabled":false,"rental_uris":{"android":"levelo://app?vid=407eaba8-2a54-48ad-bc1d-f8dee6a8222d","ios":"levelo://app?vid=407eaba8-2a54-48ad-bc1d-f8dee6a8222d"},"vehicle_type_id":"4","last_reported":1723565422,"current_range_meters":30000,"station_id":"ce4bhbh2rcd13ifvqeqg","pricing_plan_id":"cebpf4jnsgd1na2vs0mg"},{"bike_id":"2b4bc1ca-0426-4ac1-85fc-e296d90e260b","system_id":"levelo_inurba_marseille","lat":43.29226,"lon":5.36046,"is_reserved":false,"is_disabled":false,"rental_uris":{"android":"levelo://app?vid=2b4bc1ca-0426-4ac1-85fc-e296d90e260b","ios":"levelo://app?vid=2b4bc1ca-0426-4ac1-85fc-e296d90e260b"},"vehicle_type_id":"4","last_reported":1723565422,"current_range_meters":31200,"station_id":"ce4bhbh2rcd13ifvqeqg","pricing_plan_id":"cebpf4jnsgd1na2vs0mg"},{"bike_id":"dca7b50e-4bad-4724-8b56-5a8072f484bc","system_id":"levelo_inurba_marseille","lat":43.29222,"lon":5.36063,"is_reserved":false,"is_disabled":false,"rental_uris":{"android":"levelo://app?vid=dca7b50e-4bad-4724-8b56-5a8072f484bc","ios":"levelo://app?vid=dca7b50e-4bad-4724-8b56-5a8072f484bc"},"vehicle_type_id":"4","last_reported":1723565422,"current_range_meters":30000,"station_id":"ce4bhbh2rcd13ifvqeqg","pricing_plan_id":"cebpf4jnsgd1na2vs0mg"},{"bike_id":"2ad3cab9-2b13-4b0c-a43b-b6b9f0e2d2ee","system_id":"levelo_inurba_marseille","lat":43.292311,"lon":5.360731,"is_reserved":false,"is_disabled":false,"rental_uris":{"android":"levelo://app?vid=2ad3cab9-2b13-4b0c-a43b-b6b9f0e2d2ee","ios":"levelo://app?vid=2ad3cab9-2b13-4b0c-a43b-b6b9f0e2d2ee"},"vehicle_type_id":"4","last_reported":1723565422,"current_range_meters":27600,"station_id":"ce4bhbh2rcd13ifvqeqg","pricing_plan_id":"cebpf4jnsgd1na2vs0mg"},{"bike_id":"bab5b819-ae9e-4c6c-b951-7ddb3a4b9d24","system_id":"levelo_inurba_marseille","lat":43.298764,"lon":5.388973,"is_reserved":false,"is_disabled":false,"rental_uris":{"android":"levelo://app?vid=bab5b819-ae9e-4c6c-b951-7ddb3a4b9d24","ios":"levelo://app?vid=bab5b819-ae9e-4c6c-b951-7ddb3a4b9d24"},"vehicle_type_id":"4","last_reported":1723565422,"current_range_meters":18400,"station_id":"ce4bh392rcd13ifvqdl0","pricing_plan_id":"cebpf4jnsgd1na2vs0mg"},{"bike_id":"aad93fb1-899d-49d8-a13b-395ab2811a9c","system_id":"levelo_inurba_marseille","lat":43.31367,"lon":5.39601,"is_reserved":false,"is_disabled":false,"rental_uris":{"android":"levelo://app?vid=aad93fb1-899d-49d8-a13b-395ab2811a9c","ios":"levelo://app?vid=aad93fb1-899d-49d8-a13b-395ab2811a9c"},"vehicle_type_id":"4","last_reported":1723565422,"current_range_meters":24400,"station_id":"","pricing_plan_id":"cebpf4jnsgd1na2vs0mg"},{"bike_id":"8220bff8-164e-4b9a-a65e-7f2d8279a2d5","system_id":"levelo_inurba_marseille","lat":43.298764,"lon":5.388973,"is_reserved":false,"is_disabled":false,"rental_uris":{"android":"levelo://app?vid=8220bff8-164e-4b9a-a65e-7f2d8279a2d5","ios":"levelo://app?vid=8220bff8-164e-4b9a-a65e-7f2d8279a2d5"},"vehicle_type_id":"4","last_reported":1723565422,"current_range_meters":24000,"station_id":"ce4bh392rcd13ifvqdl0","pricing_plan_id":"cebpf4jnsgd1na2vs0mg"},{"bike_id":"ea06b0e9-d0d7-4fc3-8206-01411346ba43","system_id":"levelo_inurba_marseille","lat":43.291675,"lon":5.371583,"is_reserved":false,"is_disabled":false,"rental_uris":{"android":"levelo://app?vid=ea06b0e9-d0d7-4fc3-8206-01411346ba43","ios":"levelo://app?vid=ea06b0e9-d0d7-4fc3-8206-01411346ba43"},"vehicle_type_id":"4","last_reported":1723565422,"current_range_meters":400,"station_id":"ce4bha92rcd13ifvqeh0","pricing_plan_id":"cebpf4jnsgd1na2vs0mg"},{"bike_id":"95937d47-3f37-48b0-8283-40626cf561e4","system_id":"levelo_inurba_marseille","lat":43.309047,"lon":5.396551,"is_reserved":false,"is_disabled":false,"rental_uris":{"android":"levelo://app?vid=95937d47-3f37-48b0-8283-40626cf561e4","ios":"levelo://app?vid=95937d47-3f37-48b0-8283-40626cf561e4"},"vehicle_type_id":"4","last_reported":1723565422,"current_range_meters":1200,"station_id":"ce4bh012rcd13ifvqcv0","pricing_plan_id":"cebpf4jnsgd1na2vs0mg"},{"bike_id":"2d251220-d0a1-4ad3-9d85-7ccc50b31030","system_id":"levelo_inurba_marseille","lat":43.29199,"lon":5.35795,"is_reserved":false,"is_disabled":false,"rental_uris":{"android":"levelo://app?vid=2d251220-d0a1-4ad3-9d85-7ccc50b31030","ios":"levelo://app?vid=2d251220-d0a1-4ad3-9d85-7ccc50b31030"},"vehicle_type_id":"4","last_reported":1723565422,"current_range_meters":0,"station_id":"ce4bhb12rcd13ifvqel0","pricing_plan_id":"cebpf4jnsgd1na2vs0mg"},{"bike_id":"b6c6e921-d13a-4804-a886-ded7faebd8ad","system_id":"levelo_inurba_marseille","lat":43.291994,"lon":5.357886,"is_reserved":false,"is_disabled":false,"rental_uris":{"android":"levelo://app?vid=b6c6e921-d13a-4804-a886-ded7faebd8ad","ios":"levelo://app?vid=b6c6e921-d13a-4804-a886-ded7faebd8ad"},"vehicle_type_id":"4","last_reported":1723565422,"current_range_meters":23600,"station_id":"ce4bhb12rcd13ifvqel0","pricing_plan_id":"cebpf4jnsgd1na2vs0mg"},{"bike_id":"b18a6d52-8c00-47a5-8cc5-39d1bf76767e","system_id":"levelo_inurba_marseille","lat":43.29198,"lon":5.35793,"is_reserved":false,"is_disabled":false,"rental_uris":{"android":"levelo://app?vid=b18a6d52-8c00-47a5-8cc5-39d1bf76767e","ios":"levelo://app?vid=b18a6d52-8c00-47a5-8cc5-39d1bf76767e"},"vehicle_type_id":"4","last_reported":1723565422,"current_range_meters":0,"station_id":"ce4bhb12rcd13ifvqel0","pricing_plan_id":"cebpf4jnsgd1na2vs0mg"},{"bike_id":"9db976e7-189d-4df9-b5a3-4072a6a5b565","system_id":"levelo_inurba_marseille","lat":43.313291,"lon":5.396838,"is_reserved":false,"is_disabled":false,"rental_uris":{"android":"levelo://app?vid=9db976e7-189d-4df9-b5a3-4072a6a5b565","ios":"levelo://app?vid=9db976e7-189d-4df9-b5a3-4072a6a5b565"},"vehicle_type_id":"4","last_reported":1723565422,"current_range_meters":11600,"station_id":"ce4bgvp2rcd13ifvqcu0","pricing_plan_id":"cebpf4jnsgd1na2vs0mg"},{"bike_id":"9d4b68a5-c93f-4844-a235-5ff4a055b660","system_id":"levelo_inurba_marseille","lat":43.292385,"lon":5.37767,"is_reserved":false,"is_disabled":false,"rental_uris":{"android":"levelo://app?vid=9d4b68a5-c93f-4844-a235-5ff4a055b660","ios":"levelo://app?vid=9d4b68a5-c93f-4844-a235-5ff4a055b660"},"vehicle_type_id":"4","last_reported":1723565422,"current_range_meters":0,"station_id":"","pricing_plan_id":"cebpf4jnsgd1na2vs0mg"},{"bike_id":"9cd32476-bf83-4e08-939e-1c0ae4e1f1eb","system_id":"levelo_inurba_marseille","lat":43.292005,"lon":5.357875,"is_reserved":false,"is_disabled":false,"rental_uris":{"android":"levelo://app?vid=9cd32476-bf83-4e08-939e-1c0ae4e1f1eb","ios":"levelo://app?vid=9cd32476-bf83-4e08-939e-1c0ae4e1f1eb"},"vehicle_type_id":"4","last_reported":1723565422,"current_range_meters":27200,"station_id":"ce4bhb12rcd13ifvqel0","pricing_plan_id":"cebpf4jnsgd1na2vs0mg"},{"bike_id":"b1239334-6997-4098-845b-c67c152f6d5e","system_id":"levelo_inurba_marseille","lat":43.313291,"lon":5.396838,"is_reserved":false,"is_disabled":false,"rental_uris":{"android":"levelo://app?vid=b1239334-6997-4098-845b-c67c152f6d5e","ios":"levelo://app?vid=b1239334-6997-4098-845b-c67c152f6d5e"},"vehicle_type_id":"4","last_reported":1723565422,"current_range_meters":5600,"station_id":"ce4bgvp2rcd13ifvqcu0","pricing_plan_id":"cebpf4jnsgd1na2vs0mg"},{"bike_id":"45229d49-abf9-443c-832a-87be10dbc653","system_id":"levelo_inurba_marseille","lat":43.309038,"lon":5.396546,"is_reserved":false,"is_disabled":false,"rental_uris":{"android":"levelo://app?vid=45229d49-abf9-443c-832a-87be10dbc653","ios":"levelo://app?vid=45229d49-abf9-443c-832a-87be10dbc653"},"vehicle_type_id":"4","last_reported":1723565422,"current_range_meters":1200,"station_id":"ce4bh012rcd13ifvqcv0","pricing_plan_id":"cebpf4jnsgd1na2vs0mg"},{"bike_id":"556da401-ab2a-4ba7-ba16-0be8b41a9e14","system_id":"levelo_inurba_marseille","lat":43.29529,"lon":5.385581,"is_reserved":false,"is_disabled":false,"rental_uris":{"android":"levelo://app?vid=556da401-ab2a-4ba7-ba16-0be8b41a9e14","ios":"levelo://app?vid=556da401-ab2a-4ba7-ba16-0be8b41a9e14"},"vehicle_type_id":"4","last_reported":1723565422,"current_range_meters":19600,"station_id":"ce4bgih2rcd13ifvqba0","pricing_plan_id":"cebpf4jnsgd1na2vs0mg"},{"bike_id":"9532c4f1-3ecc-404e-b87a-f554042e6e28","system_id":"levelo_inurba_marseille","lat":43.290779,"lon":5.371482,"is_reserved":false,"is_disabled":false,"rental_uris":{"android":"levelo://app?vid=9532c4f1-3ecc-404e-b87a-f554042e6e28","ios":"levelo://app?vid=9532c4f1-3ecc-404e-b87a-f554042e6e28"},"vehicle_type_id":"4","last_reported":1723565422,"current_range_meters":1200,"station_id":"ce4bh5p2rcd13ifvqe4g","pricing_plan_id":"cebpf4jnsgd1na2vs0mg"},{"bike_id":"c21a430a-02ee-4f4a-8e8d-abc8fa648e76","system_id":"levelo_inurba_marseille","lat":43.290631,"lon":5.359244,"is_reserved":false,"is_disabled":false,"rental_uris":{"android":"levelo://app?vid=c21a430a-02ee-4f4a-8e8d-abc8fa648e76","ios":"levelo://app?vid=c21a430a-02ee-4f4a-8e8d-abc8fa648e76"},"vehicle_type_id":"4","last_reported":1723565422,"current_range_meters":19200,"station_id":"ce4bha92rcd13ifvqeg0","pricing_plan_id":"cebpf4jnsgd1na2vs0mg"},{"bike_id":"a848b384-a377-4d05-a355-7d6c11bc6927","system_id":"levelo_inurba_marseille","lat":43.290631,"lon":5.359244,"is_reserved":false,"is_disabled":false,"rental_uris":{"android":"levelo://app?vid=a848b384-a377-4d05-a355-7d6c11bc6927","ios":"levelo://app?vid=a848b384-a377-4d05-a355-7d6c11bc6927"},"vehicle_type_id":"4","last_reported":1723565422,"current_range_meters":12800,"station_id":"ce4bha92rcd13ifvqeg0","pricing_plan_id":"cebpf4jnsgd1na2vs0mg"},{"bike_id":"37949630-31ac-4ea2-83f9-4f41a163726d","system_id":"levelo_inurba_marseille","lat":43.294153,"lon":5.386305,"is_reserved":false,"is_disabled":false,"rental_uris":{"android":"levelo://app?vid=37949630-31ac-4ea2-83f9-4f41a163726d","ios":"levelo://app?vid=37949630-31ac-4ea2-83f9-4f41a163726d"},"vehicle_type_id":"4","last_reported":1723565422,"current_range_meters":17200,"station_id":"ce4bh2h2rcd13ifvqdh0","pricing_plan_id":"cebpf4jnsgd1na2vs0mg"},{"bike_id":"8af4dab7-aa67-40a6-a386-a3e8900dc801","system_id":"levelo_inurba_marseille","lat":43.294162,"lon":5.386292,"is_reserved":false,"is_disabled":false,"rental_uris":{"android":"levelo://app?vid=8af4dab7-aa67-40a6-a386-a3e8900dc801","ios":"levelo://app?vid=8af4dab7-aa67-40a6-a386-a3e8900dc801"},"vehicle_type_id":"4","last_reported":1723565422,"current_range_meters":0,"station_id":"ce4bh2h2rcd13ifvqdh0","pricing_plan_id":"cebpf4jnsgd1na2vs0mg"},{"bike_id":"1caedafe-3b21-4452-93e1-01fdcac79d14","system_id":"levelo_inurba_marseille","lat":43.29419,"lon":5.38623,"is_reserved":false,"is_disabled":false,"rental_uris":{"android":"levelo://app?vid=1caedafe-3b21-4452-93e1-01fdcac79d14","ios":"levelo://app?vid=1caedafe-3b21-4452-93e1-01fdcac79d14"},"vehicle_type_id":"4","last_reported":1723565422,"current_range_meters":2000,"station_id":"ce4bh2h2rcd13ifvqdh0","pricing_plan_id":"cebpf4jnsgd1na2vs0mg"},{"bike_id":"2974848d-4604-4e67-9ee4-d1e17ba91976","system_id":"levelo_inurba_marseille","lat":43.29418,"lon":5.38628,"is_reserved":false,"is_disabled":false,"rental_uris":{"android":"levelo://app?vid=2974848d-4604-4e67-9ee4-d1e17ba91976","ios":"levelo://app?vid=2974848d-4604-4e67-9ee4-d1e17ba91976"},"vehicle_type_id":"4","last_reported":1723565422,"current_range_meters":0,"station_id":"ce4bh2h2rcd13ifvqdh0","pricing_plan_id":"cebpf4jnsgd1na2vs0mg"},{"bike_id":"8d476442-8144-46bb-9544-a2c233752e77","system_id":"levelo_inurba_marseille","lat":43.290327,"lon":5.375711,"is_reserved":false,"is_disabled":false,"rental_uris":{"android":"levelo://app?vid=8d476442-8144-46bb-9544-a2c233752e77","ios":"levelo://app?vid=8d476442-8144-46bb-9544-a2c233752e77"},"vehicle_type_id":"4","last_reported":1723565422,"current_range_meters":25600,"station_id":"ce4bh692rcd13ifvqe90","pricing_plan_id":"cebpf4jnsgd1na2vs0mg"},{"bike_id":"dcd4aaeb-091d-4ca6-bffa-724d1e4ad302","system_id":"levelo_inurba_marseille","lat":43.294153,"lon":5.386305,"is_reserved":false,"is_disabled":false,"rental_uris":{"android":"levelo://app?vid=dcd4aaeb-091d-4ca6-bffa-724d1e4ad302","ios":"levelo://app?vid=dcd4aaeb-091d-4ca6-bffa-724d1e4ad302"},"vehicle_type_id":"4","last_reported":1723565422,"current_range_meters":5200,"station_id":"ce4bh2h2rcd13ifvqdh0","pricing_plan_id":"cebpf4jnsgd1na2vs0mg"},{"bike_id":"795dc388-9363-4cb1-ae04-ae5f67db26d5","system_id":"levelo_inurba_marseille","lat":43.29265,"lon":5.38446,"is_reserved":false,"is_disabled":false,"rental_uris":{"android":"levelo://app?vid=795dc388-9363-4cb1-ae04-ae5f67db26d5","ios":"levelo://app?vid=795dc388-9363-4cb1-ae04-ae5f67db26d5"},"vehicle_type_id":"4","last_reported":1723565422,"current_range_meters":0,"station_id":"ce4bh692rcd13ifvqea0","pricing_plan_id":"cebpf4jnsgd1na2vs0mg"},{"bike_id":"2b1b1f88-eea6-47f8-a66a-ac2306b60460","system_id":"levelo_inurba_marseille","lat":43.29011,"lon":5.35622,"is_reserved":false,"is_disabled":false,"rental_uris":{"android":"levelo://app?vid=2b1b1f88-eea6-47f8-a66a-ac2306b60460","ios":"levelo://app?vid=2b1b1f88-eea6-47f8-a66a-ac2306b60460"},"vehicle_type_id":"4","last_reported":1723565422,"current_range_meters":24000,"station_id":"ce4bhb92rcd13ifvqen0","pricing_plan_id":"cebpf4jnsgd1na2vs0mg"},{"bike_id":"8563478a-cbed-4c5b-a635-fc2de1618501","system_id":"levelo_inurba_marseille","lat":43.29007,"lon":5.35617,"is_reserved":false,"is_disabled":false,"rental_uris":{"android":"levelo://app?vid=8563478a-cbed-4c5b-a635-fc2de1618501","ios":"levelo://app?vid=8563478a-cbed-4c5b-a635-fc2de1618501"},"vehicle_type_id":"4","last_reported":1723565422,"current_range_meters":31200,"station_id":"ce4bhb92rcd13ifvqen0","pricing_plan_id":"cebpf4jnsgd1na2vs0mg"},{"bike_id":"164c74fb-4e7d-474e-9258-24ecddccfef1","system_id":"levelo_inurba_marseille","lat":43.29007,"lon":5.35615,"is_reserved":false,"is_disabled":false,"rental_uris":{"android":"levelo://app?vid=164c74fb-4e7d-474e-9258-24ecddccfef1","ios":"levelo://app?vid=164c74fb-4e7d-474e-9258-24ecddccfef1"},"vehicle_type_id":"4","last_reported":1723565422,"current_range_meters":29600,"station_id":"ce4bhb92rcd13ifvqen0","pricing_plan_id":"cebpf4jnsgd1na2vs0mg"},{"bike_id":"5a1fcf2a-289c-4b8e-92b7-c57fe9a70b97","system_id":"levelo_inurba_marseille","lat":43.290104,"lon":5.356111,"is_reserved":false,"is_disabled":false,"rental_uris":{"android":"levelo://app?vid=5a1fcf2a-289c-4b8e-92b7-c57fe9a70b97","ios":"levelo://app?vid=5a1fcf2a-289c-4b8e-92b7-c57fe9a70b97"},"vehicle_type_id":"4","last_reported":1723565422,"current_range_meters":1200,"station_id":"ce4bhb92rcd13ifvqen0","pricing_plan_id":"cebpf4jnsgd1na2vs0mg"},{"bike_id":"1a3fa430-409a-419c-85b6-1a8b0d781509","system_id":"levelo_inurba_marseille","lat":43.29005,"lon":5.35616,"is_reserved":false,"is_disabled":false,"rental_uris":{"android":"levelo://app?vid=1a3fa430-409a-419c-85b6-1a8b0d781509","ios":"levelo://app?vid=1a3fa430-409a-419c-85b6-1a8b0d781509"},"vehicle_type_id":"4","last_reported":1723565422,"current_range_meters":18400,"station_id":"ce4bhb92rcd13ifvqen0","pricing_plan_id":"cebpf4jnsgd1na2vs0mg"},{"bike_id":"598325cb-29bb-4dc2-aa95-c330962f1389","system_id":"levelo_inurba_marseille","lat":43.290104,"lon":5.356111,"is_reserved":false,"is_disabled":false,"rental_uris":{"android":"levelo://app?vid=598325cb-29bb-4dc2-aa95-c330962f1389","ios":"levelo://app?vid=598325cb-29bb-4dc2-aa95-c330962f1389"},"vehicle_type_id":"4","last_reported":1723565422,"current_range_meters":26400,"station_id":"ce4bhb92rcd13ifvqen0","pricing_plan_id":"cebpf4jnsgd1na2vs0mg"},{"bike_id":"84c02268-b9d8-4509-92cb-4b7f5bfc8c9c","system_id":"levelo_inurba_marseille","lat":43.29005,"lon":5.35613,"is_reserved":false,"is_disabled":false,"rental_uris":{"android":"levelo://app?vid=84c02268-b9d8-4509-92cb-4b7f5bfc8c9c","ios":"levelo://app?vid=84c02268-b9d8-4509-92cb-4b7f5bfc8c9c"},"vehicle_type_id":"4","last_reported":1723565422,"current_range_meters":0,"station_id":"ce4bhb92rcd13ifvqen0","pricing_plan_id":"cebpf4jnsgd1na2vs0mg"},{"bike_id":"aa081e20-116e-430c-bad2-b2290ddf76e9","system_id":"levelo_inurba_marseille","lat":43.290103,"lon":5.356114,"is_reserved":false,"is_disabled":false,"rental_uris":{"android":"levelo://app?vid=aa081e20-116e-430c-bad2-b2290ddf76e9","ios":"levelo://app?vid=aa081e20-116e-430c-bad2-b2290ddf76e9"},"vehicle_type_id":"4","last_reported":1723565422,"current_range_meters":13600,"station_id":"ce4bhb92rcd13ifvqen0","pricing_plan_id":"cebpf4jnsgd1na2vs0mg"},{"bike_id":"39e59b46-1fe0-45eb-9a65-6ff094868c6e","system_id":"levelo_inurba_marseille","lat":43.290103,"lon":5.356114,"is_reserved":false,"is_disabled":false,"rental_uris":{"android":"levelo://app?vid=39e59b46-1fe0-45eb-9a65-6ff094868c6e","ios":"levelo://app?vid=39e59b46-1fe0-45eb-9a65-6ff094868c6e"},"vehicle_type_id":"4","last_reported":1723565422,"current_range_meters":26000,"station_id":"ce4bhb92rcd13ifvqen0","pricing_plan_id":"cebpf4jnsgd1na2vs0mg"},{"bike_id":"f1387cca-7cef-4e44-962e-e8a60ea06ae5","system_id":"levelo_inurba_marseille","lat":43.290995,"lon":5.381361,"is_reserved":false,"is_disabled":false,"rental_uris":{"android":"levelo://app?vid=f1387cca-7cef-4e44-962e-e8a60ea06ae5","ios":"levelo://app?vid=f1387cca-7cef-4e44-962e-e8a60ea06ae5"},"vehicle_type_id":"4","last_reported":1723565422,"current_range_meters":0,"station_id":"ce4bh512rcd13ifvqe2g","pricing_plan_id":"cebpf4jnsgd1na2vs0mg"},{"bike_id":"23687936-440e-4ade-bfc2-b62477d3ee53","system_id":"levelo_inurba_marseille","lat":43.29105,"lon":5.38144,"is_reserved":false,"is_disabled":false,"rental_uris":{"android":"levelo://app?vid=23687936-440e-4ade-bfc2-b62477d3ee53","ios":"levelo://app?vid=23687936-440e-4ade-bfc2-b62477d3ee53"},"vehicle_type_id":"4","last_reported":1723565422,"current_range_meters":0,"station_id":"ce4bh512rcd13ifvqe2g","pricing_plan_id":"cebpf4jnsgd1na2vs0mg"},{"bike_id":"98786c70-ef2c-49fb-a488-d75104953a57","system_id":"levelo_inurba_marseille","lat":43.290995,"lon":5.381361,"is_reserved":false,"is_disabled":false,"rental_uris":{"android":"levelo://app?vid=98786c70-ef2c-49fb-a488-d75104953a57","ios":"levelo://app?vid=98786c70-ef2c-49fb-a488-d75104953a57"},"vehicle_type_id":"4","last_reported":1723565422,"current_range_meters":8000,"station_id":"ce4bh512rcd13ifvqe2g","pricing_plan_id":"cebpf4jnsgd1na2vs0mg"},{"bike_id":"23479eec-81bb-4473-9aef-2bc8af76e5f8","system_id":"levelo_inurba_marseille","lat":43.295169,"lon":5.390426,"is_reserved":false,"is_disabled":false,"rental_uris":{"android":"levelo://app?vid=23479eec-81bb-4473-9aef-2bc8af76e5f8","ios":"levelo://app?vid=23479eec-81bb-4473-9aef-2bc8af76e5f8"},"vehicle_type_id":"4","last_reported":1723565422,"current_range_meters":10400,"station_id":"ce4bh3p2rcd13ifvqdp0","pricing_plan_id":"cebpf4jnsgd1na2vs0mg"},{"bike_id":"71deea34-4752-4dde-bfc0-27d5d311ab54","system_id":"levelo_inurba_marseille","lat":43.330442,"lon":5.389148,"is_reserved":false,"is_disabled":false,"rental_uris":{"android":"levelo://app?vid=71deea34-4752-4dde-bfc0-27d5d311ab54","ios":"levelo://app?vid=71deea34-4752-4dde-bfc0-27d5d311ab54"},"vehicle_type_id":"4","last_reported":1723565422,"current_range_meters":22800,"station_id":"ce4bhr92rcd13ifvqhrg","pricing_plan_id":"cebpf4jnsgd1na2vs0mg"},{"bike_id":"bbe80c7f-7064-44af-96f5-db2e7a320d5d","system_id":"levelo_inurba_marseille","lat":43.330442,"lon":5.389148,"is_reserved":false,"is_disabled":false,"rental_uris":{"android":"levelo://app?vid=bbe80c7f-7064-44af-96f5-db2e7a320d5d","ios":"levelo://app?vid=bbe80c7f-7064-44af-96f5-db2e7a320d5d"},"vehicle_type_id":"4","last_reported":1723565422,"current_range_meters":21200,"station_id":"ce4bhr92rcd13ifvqhrg","pricing_plan_id":"cebpf4jnsgd1na2vs0mg"},{"bike_id":"d8f63a51-8b22-4b86-a978-5633f472d505","system_id":"levelo_inurba_marseille","lat":43.330442,"lon":5.389148,"is_reserved":false,"is_disabled":false,"rental_uris":{"android":"levelo://app?vid=d8f63a51-8b22-4b86-a978-5633f472d505","ios":"levelo://app?vid=d8f63a51-8b22-4b86-a978-5633f472d505"},"vehicle_type_id":"4","last_reported":1723565422,"current_range_meters":17200,"station_id":"ce4bhr92rcd13ifvqhrg","pricing_plan_id":"cebpf4jnsgd1na2vs0mg"},{"bike_id":"52669968-24bb-444c-b41d-cf89180ac9eb","system_id":"levelo_inurba_marseille","lat":43.310608,"lon":5.400715,"is_reserved":false,"is_disabled":false,"rental_uris":{"android":"levelo://app?vid=52669968-24bb-444c-b41d-cf89180ac9eb","ios":"levelo://app?vid=52669968-24bb-444c-b41d-cf89180ac9eb"},"vehicle_type_id":"4","last_reported":1723565422,"current_range_meters":29600,"station_id":"","pricing_plan_id":"cebpf4jnsgd1na2vs0mg"},{"bike_id":"651b451e-bc73-4c0d-b254-eee1910d688c","system_id":"levelo_inurba_marseille","lat":43.295169,"lon":5.390426,"is_reserved":false,"is_disabled":false,"rental_uris":{"android":"levelo://app?vid=651b451e-bc73-4c0d-b254-eee1910d688c","ios":"levelo://app?vid=651b451e-bc73-4c0d-b254-eee1910d688c"},"vehicle_type_id":"4","last_reported":1723565422,"current_range_meters":0,"station_id":"ce4bh3p2rcd13ifvqdp0","pricing_plan_id":"cebpf4jnsgd1na2vs0mg"},{"bike_id":"448e4524-4bab-4831-817d-463aff4251d2","system_id":"levelo_inurba_marseille","lat":43.28856,"lon":5.358371,"is_reserved":false,"is_disabled":false,"rental_uris":{"android":"levelo://app?vid=448e4524-4bab-4831-817d-463aff4251d2","ios":"levelo://app?vid=448e4524-4bab-4831-817d-463aff4251d2"},"vehicle_type_id":"4","last_reported":1723565422,"current_range_meters":28000,"station_id":"ce4bhb12rcd13ifvqem0","pricing_plan_id":"cebpf4jnsgd1na2vs0mg"},{"bike_id":"4d591543-7cfc-4eff-83f7-7369b0078fa8","system_id":"levelo_inurba_marseille","lat":43.29021,"lon":5.38134,"is_reserved":false,"is_disabled":false,"rental_uris":{"android":"levelo://app?vid=4d591543-7cfc-4eff-83f7-7369b0078fa8","ios":"levelo://app?vid=4d591543-7cfc-4eff-83f7-7369b0078fa8"},"vehicle_type_id":"4","last_reported":1723565422,"current_range_meters":0,"station_id":"ce4bh4p2rcd13ifvqe1g","pricing_plan_id":"cebpf4jnsgd1na2vs0mg"},{"bike_id":"9f0725a2-770a-4aa3-87cf-47a698de7892","system_id":"levelo_inurba_marseille","lat":43.288549,"lon":5.358258,"is_reserved":false,"is_disabled":false,"rental_uris":{"android":"levelo://app?vid=9f0725a2-770a-4aa3-87cf-47a698de7892","ios":"levelo://app?vid=9f0725a2-770a-4aa3-87cf-47a698de7892"},"vehicle_type_id":"4","last_reported":1723565422,"current_range_meters":31200,"station_id":"ce4bhb12rcd13ifvqem0","pricing_plan_id":"cebpf4jnsgd1na2vs0mg"},{"bike_id":"5dad4d44-8e53-420b-ada3-c9303c895d8d","system_id":"levelo_inurba_marseille","lat":43.312609,"lon":5.401662,"is_reserved":false,"is_disabled":false,"rental_uris":{"android":"levelo://app?vid=5dad4d44-8e53-420b-ada3-c9303c895d8d","ios":"levelo://app?vid=5dad4d44-8e53-420b-ada3-c9303c895d8d"},"vehicle_type_id":"4","last_reported":1723565422,"current_range_meters":0,"station_id":"ce4bh092rcd13ifvqd30","pricing_plan_id":"cebpf4jnsgd1na2vs0mg"},{"bike_id":"ac75d8e5-5139-4e43-a64e-51e7994c2517","system_id":"levelo_inurba_marseille","lat":43.337444,"lon":5.374475,"is_reserved":false,"is_disabled":false,"rental_uris":{"android":"levelo://app?vid=ac75d8e5-5139-4e43-a64e-51e7994c2517","ios":"levelo://app?vid=ac75d8e5-5139-4e43-a64e-51e7994c2517"},"vehicle_type_id":"3","last_reported":1723565422,"current_range_meters":24800,"station_id":"","pricing_plan_id":"cebpf4jnsgd1na2vs0mg"},{"bike_id":"6086599c-14e6-492d-8b53-d8808720b8a6","system_id":"levelo_inurba_marseille","lat":43.287839,"lon":5.373678,"is_reserved":false,"is_disabled":false,"rental_uris":{"android":"levelo://app?vid=6086599c-14e6-492d-8b53-d8808720b8a6","ios":"levelo://app?vid=6086599c-14e6-492d-8b53-d8808720b8a6"},"vehicle_type_id":"4","last_reported":1723565422,"current_range_meters":4800,"station_id":"","pricing_plan_id":"cebpf4jnsgd1na2vs0mg"},{"bike_id":"c6597611-0d91-4f31-be74-4cc2b78bc7aa","system_id":"levelo_inurba_marseille","lat":43.33752,"lon":5.37461,"is_reserved":false,"is_disabled":false,"rental_uris":{"android":"levelo://app?vid=c6597611-0d91-4f31-be74-4cc2b78bc7aa","ios":"levelo://app?vid=c6597611-0d91-4f31-be74-4cc2b78bc7aa"},"vehicle_type_id":"4","last_reported":1723565422,"current_range_meters":14800,"station_id":"","pricing_plan_id":"cebpf4jnsgd1na2vs0mg"},{"bike_id":"1ece39e8-5ec5-465b-b0d5-bdea3554c74d","system_id":"levelo_inurba_marseille","lat":43.337597,"lon":5.374484,"is_reserved":false,"is_disabled":false,"rental_uris":{"android":"levelo://app?vid=1ece39e8-5ec5-465b-b0d5-bdea3554c74d","ios":"levelo://app?vid=1ece39e8-5ec5-465b-b0d5-bdea3554c74d"},"vehicle_type_id":"4","last_reported":1723565422,"current_range_meters":11600,"station_id":"","pricing_plan_id":"cebpf4jnsgd1na2vs0mg"},{"bike_id":"00cf81c2-ffe6-4a33-b73a-04b22878f4d1","system_id":"levelo_inurba_marseille","lat":43.306354,"lon":5.400864,"is_reserved":false,"is_disabled":false,"rental_uris":{"android":"levelo://app?vid=00cf81c2-ffe6-4a33-b73a-04b22878f4d1","ios":"levelo://app?vid=00cf81c2-ffe6-4a33-b73a-04b22878f4d1"},"vehicle_type_id":"4","last_reported":1723565422,"current_range_meters":0,"station_id":"ce4bh112rcd13ifvqda0","pricing_plan_id":"cebpf4jnsgd1na2vs0mg"},{"bike_id":"9f3e07ef-8b88-4f6d-adac-1c97db6f3771","system_id":"levelo_inurba_marseille","lat":43.2873,"lon":5.36091,"is_reserved":false,"is_disabled":false,"rental_uris":{"android":"levelo://app?vid=9f3e07ef-8b88-4f6d-adac-1c97db6f3771","ios":"levelo://app?vid=9f3e07ef-8b88-4f6d-adac-1c97db6f3771"},"vehicle_type_id":"4","last_reported":1723565422,"current_range_meters":14000,"station_id":"cki0cbj6b192h4jlfktg","pricing_plan_id":"cebpf4jnsgd1na2vs0mg"},{"bike_id":"e969986d-dc5b-437c-a489-0ecce2676e7d","system_id":"levelo_inurba_marseille","lat":43.28727,"lon":5.36078,"is_reserved":false,"is_disabled":false,"rental_uris":{"android":"levelo://app?vid=e969986d-dc5b-437c-a489-0ecce2676e7d","ios":"levelo://app?vid=e969986d-dc5b-437c-a489-0ecce2676e7d"},"vehicle_type_id":"4","last_reported":1723565422,"current_range_meters":7600,"station_id":"cki0cbj6b192h4jlfktg","pricing_plan_id":"cebpf4jnsgd1na2vs0mg"},{"bike_id":"b9114623-9cf0-4c5b-a25a-c82a2f5fbe44","system_id":"levelo_inurba_marseille","lat":43.33888,"lon":5.36606,"is_reserved":false,"is_disabled":false,"rental_uris":{"android":"levelo://app?vid=b9114623-9cf0-4c5b-a25a-c82a2f5fbe44","ios":"levelo://app?vid=b9114623-9cf0-4c5b-a25a-c82a2f5fbe44"},"vehicle_type_id":"4","last_reported":1723565422,"current_range_meters":0,"station_id":"","pricing_plan_id":"cebpf4jnsgd1na2vs0mg"},{"bike_id":"d7ac5527-517b-4e33-8d94-9f359f6e9e13","system_id":"levelo_inurba_marseille","lat":43.298681,"lon":5.397225,"is_reserved":false,"is_disabled":false,"rental_uris":{"android":"levelo://app?vid=d7ac5527-517b-4e33-8d94-9f359f6e9e13","ios":"levelo://app?vid=d7ac5527-517b-4e33-8d94-9f359f6e9e13"},"vehicle_type_id":"4","last_reported":1723565422,"current_range_meters":15600,"station_id":"ce4bh0h2rcd13ifvqd50","pricing_plan_id":"cebpf4jnsgd1na2vs0mg"},{"bike_id":"57dc06c8-80bc-4838-a248-88955ca3983c","system_id":"levelo_inurba_marseille","lat":43.28662,"lon":5.36359,"is_reserved":false,"is_disabled":false,"rental_uris":{"android":"levelo://app?vid=57dc06c8-80bc-4838-a248-88955ca3983c","ios":"levelo://app?vid=57dc06c8-80bc-4838-a248-88955ca3983c"},"vehicle_type_id":"4","last_reported":1723565422,"current_range_meters":22000,"station_id":"ce4bhah2rcd13ifvqej0","pricing_plan_id":"cebpf4jnsgd1na2vs0mg"},{"bike_id":"9c9c3dd6-054e-4e27-8f8c-3d65b197d2dc","system_id":"levelo_inurba_marseille","lat":43.298681,"lon":5.397225,"is_reserved":false,"is_disabled":false,"rental_uris":{"android":"levelo://app?vid=9c9c3dd6-054e-4e27-8f8c-3d65b197d2dc","ios":"levelo://app?vid=9c9c3dd6-054e-4e27-8f8c-3d65b197d2dc"},"vehicle_type_id":"4","last_reported":1723565422,"current_range_meters":0,"station_id":"ce4bh0h2rcd13ifvqd50","pricing_plan_id":"cebpf4jnsgd1na2vs0mg"},{"bike_id":"0b230eaa-452f-4c0e-8c45-473ef107d4bd","system_id":"levelo_inurba_marseille","lat":43.28657,"lon":5.36352,"is_reserved":false,"is_disabled":false,"rental_uris":{"android":"levelo://app?vid=0b230eaa-452f-4c0e-8c45-473ef107d4bd","ios":"levelo://app?vid=0b230eaa-452f-4c0e-8c45-473ef107d4bd"},"vehicle_type_id":"4","last_reported":1723565422,"current_range_meters":30800,"station_id":"ce4bhah2rcd13ifvqej0","pricing_plan_id":"cebpf4jnsgd1na2vs0mg"},{"bike_id":"989f2c71-5c57-4ff5-bd50-6d94ed9ff484","system_id":"levelo_inurba_marseille","lat":43.290336,"lon":5.386425,"is_reserved":false,"is_disabled":false,"rental_uris":{"android":"levelo://app?vid=989f2c71-5c57-4ff5-bd50-6d94ed9ff484","ios":"levelo://app?vid=989f2c71-5c57-4ff5-bd50-6d94ed9ff484"},"vehicle_type_id":"4","last_reported":1723565422,"current_range_meters":0,"station_id":"ce4bh4p2rcd13ifvqe0g","pricing_plan_id":"cebpf4jnsgd1na2vs0mg"},{"bike_id":"cc7202ce-a81f-4d55-8944-13ae2df9c6c5","system_id":"levelo_inurba_marseille","lat":43.28558,"lon":5.360647,"is_reserved":false,"is_disabled":false,"rental_uris":{"android":"levelo://app?vid=cc7202ce-a81f-4d55-8944-13ae2df9c6c5","ios":"levelo://app?vid=cc7202ce-a81f-4d55-8944-13ae2df9c6c5"},"vehicle_type_id":"4","last_reported":1723565422,"current_range_meters":14800,"station_id":"","pricing_plan_id":"cebpf4jnsgd1na2vs0mg"},{"bike_id":"cc20d6d7-a179-4670-85c3-6e168ea9fd68","system_id":"levelo_inurba_marseille","lat":43.31695,"lon":5.40475,"is_reserved":false,"is_disabled":false,"rental_uris":{"android":"levelo://app?vid=cc20d6d7-a179-4670-85c3-6e168ea9fd68","ios":"levelo://app?vid=cc20d6d7-a179-4670-85c3-6e168ea9fd68"},"vehicle_type_id":"4","last_reported":1723565422,"current_range_meters":2400,"station_id":"ce4bh012rcd13ifvqd00","pricing_plan_id":"cebpf4jnsgd1na2vs0mg"},{"bike_id":"c7d8101e-43a2-4ea2-9fc8-fae5cd852aa5","system_id":"levelo_inurba_marseille","lat":43.316821,"lon":5.404737,"is_reserved":false,"is_disabled":false,"rental_uris":{"android":"levelo://app?vid=c7d8101e-43a2-4ea2-9fc8-fae5cd852aa5","ios":"levelo://app?vid=c7d8101e-43a2-4ea2-9fc8-fae5cd852aa5"},"vehicle_type_id":"4","last_reported":1723565422,"current_range_meters":7200,"station_id":"ce4bh012rcd13ifvqd00","pricing_plan_id":"cebpf4jnsgd1na2vs0mg"},{"bike_id":"4256ba38-e13f-4ee3-b8a0-3592169a7945","system_id":"levelo_inurba_marseille","lat":43.292021,"lon":5.392966,"is_reserved":false,"is_disabled":false,"rental_uris":{"android":"levelo://app?vid=4256ba38-e13f-4ee3-b8a0-3592169a7945","ios":"levelo://app?vid=4256ba38-e13f-4ee3-b8a0-3592169a7945"},"vehicle_type_id":"4","last_reported":1723565422,"current_range_meters":0,"station_id":"ce4bh192rcd13ifvqdd0","pricing_plan_id":"cebpf4jnsgd1na2vs0mg"},{"bike_id":"ee330939-8f3d-4fa1-b3c7-c34a11ae5e39","system_id":"levelo_inurba_marseille","lat":43.29205,"lon":5.39305,"is_reserved":false,"is_disabled":false,"rental_uris":{"android":"levelo://app?vid=ee330939-8f3d-4fa1-b3c7-c34a11ae5e39","ios":"levelo://app?vid=ee330939-8f3d-4fa1-b3c7-c34a11ae5e39"},"vehicle_type_id":"4","last_reported":1723565422,"current_range_meters":0,"station_id":"ce4bh192rcd13ifvqdd0","pricing_plan_id":"cebpf4jnsgd1na2vs0mg"},{"bike_id":"55713edd-5067-436b-be77-b00f8e9ae115","system_id":"levelo_inurba_marseille","lat":43.29221,"lon":5.39353,"is_reserved":false,"is_disabled":false,"rental_uris":{"android":"levelo://app?vid=55713edd-5067-436b-be77-b00f8e9ae115","ios":"levelo://app?vid=55713edd-5067-436b-be77-b00f8e9ae115"},"vehicle_type_id":"4","last_reported":1723565422,"current_range_meters":0,"station_id":"","pricing_plan_id":"cebpf4jnsgd1na2vs0mg"},{"bike_id":"1854a201-2c4d-415b-95fa-b9ac4edfca2b","system_id":"levelo_inurba_marseille","lat":43.291894,"lon":5.393098,"is_reserved":false,"is_disabled":false,"rental_uris":{"android":"levelo://app?vid=1854a201-2c4d-415b-95fa-b9ac4edfca2b","ios":"levelo://app?vid=1854a201-2c4d-415b-95fa-b9ac4edfca2b"},"vehicle_type_id":"4","last_reported":1723565422,"current_range_meters":0,"station_id":"ce4bh192rcd13ifvqdd0","pricing_plan_id":"cebpf4jnsgd1na2vs0mg"},{"bike_id":"a6ef375c-de0e-42d7-aed1-76c3bf17fd69","system_id":"levelo_inurba_marseille","lat":43.291994,"lon":5.392907,"is_reserved":false,"is_disabled":false,"rental_uris":{"android":"levelo://app?vid=a6ef375c-de0e-42d7-aed1-76c3bf17fd69","ios":"levelo://app?vid=a6ef375c-de0e-42d7-aed1-76c3bf17fd69"},"vehicle_type_id":"4","last_reported":1723565422,"current_range_meters":22800,"station_id":"ce4bh192rcd13ifvqdd0","pricing_plan_id":"cebpf4jnsgd1na2vs0mg"},{"bike_id":"fd46cb18-5966-4c9f-8126-dc1fe60e3a4a","system_id":"levelo_inurba_marseille","lat":43.29189,"lon":5.39313,"is_reserved":false,"is_disabled":false,"rental_uris":{"android":"levelo://app?vid=fd46cb18-5966-4c9f-8126-dc1fe60e3a4a","ios":"levelo://app?vid=fd46cb18-5966-4c9f-8126-dc1fe60e3a4a"},"vehicle_type_id":"4","last_reported":1723565422,"current_range_meters":0,"station_id":"ce4bh192rcd13ifvqdd0","pricing_plan_id":"cebpf4jnsgd1na2vs0mg"},{"bike_id":"2512e639-3cb5-4241-833a-0ee981aa0ad1","system_id":"levelo_inurba_marseille","lat":43.294314,"lon":5.397498,"is_reserved":false,"is_disabled":false,"rental_uris":{"android":"levelo://app?vid=2512e639-3cb5-4241-833a-0ee981aa0ad1","ios":"levelo://app?vid=2512e639-3cb5-4241-833a-0ee981aa0ad1"},"vehicle_type_id":"4","last_reported":1723565422,"current_range_meters":1200,"station_id":"ce4bh3h2rcd13ifvqdo0","pricing_plan_id":"cebpf4jnsgd1na2vs0mg"},{"bike_id":"52fe1541-8b20-4e6e-b693-b87e9f167b30","system_id":"levelo_inurba_marseille","lat":43.284538,"lon":5.358657,"is_reserved":false,"is_disabled":false,"rental_uris":{"android":"levelo://app?vid=52fe1541-8b20-4e6e-b693-b87e9f167b30","ios":"levelo://app?vid=52fe1541-8b20-4e6e-b693-b87e9f167b30"},"vehicle_type_id":"4","last_reported":1723565422,"current_range_meters":2000,"station_id":"ce4bhah2rcd13ifvqei0","pricing_plan_id":"cebpf4jnsgd1na2vs0mg"},{"bike_id":"3fb276f0-9e03-458c-9efd-bb5b46befd15","system_id":"levelo_inurba_marseille","lat":43.294314,"lon":5.397498,"is_reserved":false,"is_disabled":false,"rental_uris":{"android":"levelo://app?vid=3fb276f0-9e03-458c-9efd-bb5b46befd15","ios":"levelo://app?vid=3fb276f0-9e03-458c-9efd-bb5b46befd15"},"vehicle_type_id":"4","last_reported":1723565422,"current_range_meters":5200,"station_id":"ce4bh3h2rcd13ifvqdo0","pricing_plan_id":"cebpf4jnsgd1na2vs0mg"},{"bike_id":"fa73b650-2bb8-4d20-87f7-98d768970f3a","system_id":"levelo_inurba_marseille","lat":43.294314,"lon":5.397498,"is_reserved":false,"is_disabled":false,"rental_uris":{"android":"levelo://app?vid=fa73b650-2bb8-4d20-87f7-98d768970f3a","ios":"levelo://app?vid=fa73b650-2bb8-4d20-87f7-98d768970f3a"},"vehicle_type_id":"4","last_reported":1723565422,"current_range_meters":4400,"station_id":"ce4bh3h2rcd13ifvqdo0","pricing_plan_id":"cebpf4jnsgd1na2vs0mg"},{"bike_id":"bfcdd1be-2484-451f-8254-502306e50daa","system_id":"levelo_inurba_marseille","lat":43.294314,"lon":5.397498,"is_reserved":false,"is_disabled":false,"rental_uris":{"android":"levelo://app?vid=bfcdd1be-2484-451f-8254-502306e50daa","ios":"levelo://app?vid=bfcdd1be-2484-451f-8254-502306e50daa"},"vehicle_type_id":"4","last_reported":1723565422,"current_range_meters":3600,"station_id":"ce4bh3h2rcd13ifvqdo0","pricing_plan_id":"cebpf4jnsgd1na2vs0mg"},{"bike_id":"be21b98e-f20e-4e99-9fb5-7c88a8a812d7","system_id":"levelo_inurba_marseille","lat":43.28621,"lon":5.35105,"is_reserved":false,"is_disabled":false,"rental_uris":{"android":"levelo://app?vid=be21b98e-f20e-4e99-9fb5-7c88a8a812d7","ios":"levelo://app?vid=be21b98e-f20e-4e99-9fb5-7c88a8a812d7"},"vehicle_type_id":"4","last_reported":1723565422,"current_range_meters":24800,"station_id":"ce4bhch2rcd13ifvqeug","pricing_plan_id":"cebpf4jnsgd1na2vs0mg"},{"bike_id":"87335f1e-8aa4-47b8-abed-715fa3b99577","system_id":"levelo_inurba_marseille","lat":43.28619,"lon":5.35111,"is_reserved":false,"is_disabled":false,"rental_uris":{"android":"levelo://app?vid=87335f1e-8aa4-47b8-abed-715fa3b99577","ios":"levelo://app?vid=87335f1e-8aa4-47b8-abed-715fa3b99577"},"vehicle_type_id":"4","last_reported":1723565422,"current_range_meters":0,"station_id":"ce4bhch2rcd13ifvqeug","pricing_plan_id":"cebpf4jnsgd1na2vs0mg"},{"bike_id":"27408b01-9e04-4f04-9965-c39eec9bc73a","system_id":"levelo_inurba_marseille","lat":43.286222,"lon":5.350998,"is_reserved":false,"is_disabled":false,"rental_uris":{"android":"levelo://app?vid=27408b01-9e04-4f04-9965-c39eec9bc73a","ios":"levelo://app?vid=27408b01-9e04-4f04-9965-c39eec9bc73a"},"vehicle_type_id":"4","last_reported":1723565422,"current_range_meters":13600,"station_id":"ce4bhch2rcd13ifvqeug","pricing_plan_id":"cebpf4jnsgd1na2vs0mg"},{"bike_id":"f61c99f9-0f7c-4eee-867d-765ae0cd6c95","system_id":"levelo_inurba_marseille","lat":43.28618,"lon":5.35109,"is_reserved":false,"is_disabled":false,"rental_uris":{"android":"levelo://app?vid=f61c99f9-0f7c-4eee-867d-765ae0cd6c95","ios":"levelo://app?vid=f61c99f9-0f7c-4eee-867d-765ae0cd6c95"},"vehicle_type_id":"4","last_reported":1723565422,"current_range_meters":3200,"station_id":"ce4bhch2rcd13ifvqeug","pricing_plan_id":"cebpf4jnsgd1na2vs0mg"},{"bike_id":"0b72c704-452e-4bd4-99a5-57d3fb68d314","system_id":"levelo_inurba_marseille","lat":43.28618,"lon":5.35108,"is_reserved":false,"is_disabled":false,"rental_uris":{"android":"levelo://app?vid=0b72c704-452e-4bd4-99a5-57d3fb68d314","ios":"levelo://app?vid=0b72c704-452e-4bd4-99a5-57d3fb68d314"},"vehicle_type_id":"4","last_reported":1723565422,"current_range_meters":10400,"station_id":"ce4bhch2rcd13ifvqeug","pricing_plan_id":"cebpf4jnsgd1na2vs0mg"},{"bike_id":"136cc811-b8e7-44f6-93a0-56b4a14b4e5f","system_id":"levelo_inurba_marseille","lat":43.28619,"lon":5.35102,"is_reserved":false,"is_disabled":false,"rental_uris":{"android":"levelo://app?vid=136cc811-b8e7-44f6-93a0-56b4a14b4e5f","ios":"levelo://app?vid=136cc811-b8e7-44f6-93a0-56b4a14b4e5f"},"vehicle_type_id":"4","last_reported":1723565422,"current_range_meters":24800,"station_id":"ce4bhch2rcd13ifvqeug","pricing_plan_id":"cebpf4jnsgd1na2vs0mg"},{"bike_id":"0f6bdc32-3a20-424e-8e2c-ad524e4b9c08","system_id":"levelo_inurba_marseille","lat":43.28615,"lon":5.35111,"is_reserved":false,"is_disabled":false,"rental_uris":{"android":"levelo://app?vid=0f6bdc32-3a20-424e-8e2c-ad524e4b9c08","ios":"levelo://app?vid=0f6bdc32-3a20-424e-8e2c-ad524e4b9c08"},"vehicle_type_id":"4","last_reported":1723565422,"current_range_meters":0,"station_id":"ce4bhch2rcd13ifvqeug","pricing_plan_id":"cebpf4jnsgd1na2vs0mg"},{"bike_id":"ca51d6fb-becb-4e6b-81a6-93e2b62ce268","system_id":"levelo_inurba_marseille","lat":43.28617,"lon":5.351024,"is_reserved":false,"is_disabled":false,"rental_uris":{"android":"levelo://app?vid=ca51d6fb-becb-4e6b-81a6-93e2b62ce268","ios":"levelo://app?vid=ca51d6fb-becb-4e6b-81a6-93e2b62ce268"},"vehicle_type_id":"4","last_reported":1723565422,"current_range_meters":30000,"station_id":"ce4bhch2rcd13ifvqeug","pricing_plan_id":"cebpf4jnsgd1na2vs0mg"},{"bike_id":"9d5ba829-5f10-43b4-918d-5a512598435a","system_id":"levelo_inurba_marseille","lat":43.28617,"lon":5.35102,"is_reserved":false,"is_disabled":false,"rental_uris":{"android":"levelo://app?vid=9d5ba829-5f10-43b4-918d-5a512598435a","ios":"levelo://app?vid=9d5ba829-5f10-43b4-918d-5a512598435a"},"vehicle_type_id":"4","last_reported":1723565422,"current_range_meters":28800,"station_id":"ce4bhch2rcd13ifvqeug","pricing_plan_id":"cebpf4jnsgd1na2vs0mg"},{"bike_id":"673a9081-290f-42ec-a009-be407e781b8a","system_id":"levelo_inurba_marseille","lat":43.28614,"lon":5.35111,"is_reserved":false,"is_disabled":false,"rental_uris":{"android":"levelo://app?vid=673a9081-290f-42ec-a009-be407e781b8a","ios":"levelo://app?vid=673a9081-290f-42ec-a009-be407e781b8a"},"vehicle_type_id":"4","last_reported":1723565422,"current_range_meters":0,"station_id":"ce4bhch2rcd13ifvqeug","pricing_plan_id":"cebpf4jnsgd1na2vs0mg"},{"bike_id":"4a457469-5c4b-4230-bd0c-67b2ceec015f","system_id":"levelo_inurba_marseille","lat":43.28616,"lon":5.35104,"is_reserved":false,"is_disabled":false,"rental_uris":{"android":"levelo://app?vid=4a457469-5c4b-4230-bd0c-67b2ceec015f","ios":"levelo://app?vid=4a457469-5c4b-4230-bd0c-67b2ceec015f"},"vehicle_type_id":"4","last_reported":1723565422,"current_range_meters":13600,"station_id":"ce4bhch2rcd13ifvqeug","pricing_plan_id":"cebpf4jnsgd1na2vs0mg"},{"bike_id":"dde3c2bd-d72a-42bd-b1b6-ea34c0a31659","system_id":"levelo_inurba_marseille","lat":43.28616,"lon":5.35104,"is_reserved":false,"is_disabled":false,"rental_uris":{"android":"levelo://app?vid=dde3c2bd-d72a-42bd-b1b6-ea34c0a31659","ios":"levelo://app?vid=dde3c2bd-d72a-42bd-b1b6-ea34c0a31659"},"vehicle_type_id":"4","last_reported":1723565422,"current_range_meters":19200,"station_id":"ce4bhch2rcd13ifvqeug","pricing_plan_id":"cebpf4jnsgd1na2vs0mg"},{"bike_id":"e3a2c0d6-dcbd-4808-b9c7-19db6f882c95","system_id":"levelo_inurba_marseille","lat":43.28614,"lon":5.35106,"is_reserved":false,"is_disabled":false,"rental_uris":{"android":"levelo://app?vid=e3a2c0d6-dcbd-4808-b9c7-19db6f882c95","ios":"levelo://app?vid=e3a2c0d6-dcbd-4808-b9c7-19db6f882c95"},"vehicle_type_id":"4","last_reported":1723565422,"current_range_meters":9200,"station_id":"ce4bhch2rcd13ifvqeug","pricing_plan_id":"cebpf4jnsgd1na2vs0mg"},{"bike_id":"4518cb33-883e-43c6-961c-8bac08742d4f","system_id":"levelo_inurba_marseille","lat":43.285856,"lon":5.350771,"is_reserved":false,"is_disabled":false,"rental_uris":{"android":"levelo://app?vid=4518cb33-883e-43c6-961c-8bac08742d4f","ios":"levelo://app?vid=4518cb33-883e-43c6-961c-8bac08742d4f"},"vehicle_type_id":"4","last_reported":1723565422,"current_range_meters":7600,"station_id":"ce4bhch2rcd13ifvqeug","pricing_plan_id":"cebpf4jnsgd1na2vs0mg"},{"bike_id":"6c0ffd1d-f067-4b88-9d35-856d0f19e399","system_id":"levelo_inurba_marseille","lat":43.28613,"lon":5.35103,"is_reserved":false,"is_disabled":false,"rental_uris":{"android":"levelo://app?vid=6c0ffd1d-f067-4b88-9d35-856d0f19e399","ios":"levelo://app?vid=6c0ffd1d-f067-4b88-9d35-856d0f19e399"},"vehicle_type_id":"4","last_reported":1723565422,"current_range_meters":31200,"station_id":"ce4bhch2rcd13ifvqeug","pricing_plan_id":"cebpf4jnsgd1na2vs0mg"},{"bike_id":"02661f1b-adb0-4703-8836-21e4ad86ee46","system_id":"levelo_inurba_marseille","lat":43.28612,"lon":5.35106,"is_reserved":false,"is_disabled":false,"rental_uris":{"android":"levelo://app?vid=02661f1b-adb0-4703-8836-21e4ad86ee46","ios":"levelo://app?vid=02661f1b-adb0-4703-8836-21e4ad86ee46"},"vehicle_type_id":"4","last_reported":1723565422,"current_range_meters":15600,"station_id":"ce4bhch2rcd13ifvqeug","pricing_plan_id":"cebpf4jnsgd1na2vs0mg"},{"bike_id":"8e3870f5-4829-45de-8443-6694f7f5805b","system_id":"levelo_inurba_marseille","lat":43.28612,"lon":5.35106,"is_reserved":false,"is_disabled":false,"rental_uris":{"android":"levelo://app?vid=8e3870f5-4829-45de-8443-6694f7f5805b","ios":"levelo://app?vid=8e3870f5-4829-45de-8443-6694f7f5805b"},"vehicle_type_id":"4","last_reported":1723565422,"current_range_meters":12800,"station_id":"ce4bhch2rcd13ifvqeug","pricing_plan_id":"cebpf4jnsgd1na2vs0mg"},{"bike_id":"b38d0c94-0106-44bd-906d-33ac7d9a66ba","system_id":"levelo_inurba_marseille","lat":43.28615,"lon":5.35095,"is_reserved":false,"is_disabled":false,"rental_uris":{"android":"levelo://app?vid=b38d0c94-0106-44bd-906d-33ac7d9a66ba","ios":"levelo://app?vid=b38d0c94-0106-44bd-906d-33ac7d9a66ba"},"vehicle_type_id":"4","last_reported":1723565422,"current_range_meters":27200,"station_id":"ce4bhch2rcd13ifvqeug","pricing_plan_id":"cebpf4jnsgd1na2vs0mg"},{"bike_id":"3e82d6b8-80e1-4e50-aab7-2313ba74befa","system_id":"levelo_inurba_marseille","lat":43.28611,"lon":5.35106,"is_reserved":false,"is_disabled":false,"rental_uris":{"android":"levelo://app?vid=3e82d6b8-80e1-4e50-aab7-2313ba74befa","ios":"levelo://app?vid=3e82d6b8-80e1-4e50-aab7-2313ba74befa"},"vehicle_type_id":"4","last_reported":1723565422,"current_range_meters":23600,"station_id":"ce4bhch2rcd13ifvqeug","pricing_plan_id":"cebpf4jnsgd1na2vs0mg"},{"bike_id":"88ef5412-0ff1-45ad-939c-52a3ac076780","system_id":"levelo_inurba_marseille","lat":43.28608,"lon":5.35095,"is_reserved":false,"is_disabled":false,"rental_uris":{"android":"levelo://app?vid=88ef5412-0ff1-45ad-939c-52a3ac076780","ios":"levelo://app?vid=88ef5412-0ff1-45ad-939c-52a3ac076780"},"vehicle_type_id":"4","last_reported":1723565422,"current_range_meters":29200,"station_id":"ce4bhch2rcd13ifvqeug","pricing_plan_id":"cebpf4jnsgd1na2vs0mg"},{"bike_id":"9eccd62d-2e36-4336-bae9-b2c78ca2f32f","system_id":"levelo_inurba_marseille","lat":43.28605,"lon":5.35095,"is_reserved":false,"is_disabled":false,"rental_uris":{"android":"levelo://app?vid=9eccd62d-2e36-4336-bae9-b2c78ca2f32f","ios":"levelo://app?vid=9eccd62d-2e36-4336-bae9-b2c78ca2f32f"},"vehicle_type_id":"4","last_reported":1723565422,"current_range_meters":30800,"station_id":"ce4bhch2rcd13ifvqeug","pricing_plan_id":"cebpf4jnsgd1na2vs0mg"},{"bike_id":"d1814038-d28d-41c7-afb7-93a4a24f6a20","system_id":"levelo_inurba_marseille","lat":43.285872,"lon":5.383624,"is_reserved":false,"is_disabled":false,"rental_uris":{"android":"levelo://app?vid=d1814038-d28d-41c7-afb7-93a4a24f6a20","ios":"levelo://app?vid=d1814038-d28d-41c7-afb7-93a4a24f6a20"},"vehicle_type_id":"4","last_reported":1723565422,"current_range_meters":400,"station_id":"","pricing_plan_id":"cebpf4jnsgd1na2vs0mg"},{"bike_id":"087f51f6-433d-4c23-9aaa-8bd08736af56","system_id":"levelo_inurba_marseille","lat":43.28686,"lon":5.3867,"is_reserved":false,"is_disabled":false,"rental_uris":{"android":"levelo://app?vid=087f51f6-433d-4c23-9aaa-8bd08736af56","ios":"levelo://app?vid=087f51f6-433d-4c23-9aaa-8bd08736af56"},"vehicle_type_id":"4","last_reported":1723565422,"current_range_meters":0,"station_id":"ce4bh492rcd13ifvqdug","pricing_plan_id":"cebpf4jnsgd1na2vs0mg"},{"bike_id":"5b6150b9-090e-48cc-b176-6329fdd729a4","system_id":"levelo_inurba_marseille","lat":43.286595,"lon":5.386795,"is_reserved":false,"is_disabled":false,"rental_uris":{"android":"levelo://app?vid=5b6150b9-090e-48cc-b176-6329fdd729a4","ios":"levelo://app?vid=5b6150b9-090e-48cc-b176-6329fdd729a4"},"vehicle_type_id":"4","last_reported":1723565422,"current_range_meters":18400,"station_id":"ce4bh492rcd13ifvqdug","pricing_plan_id":"cebpf4jnsgd1na2vs0mg"},{"bike_id":"a29e12bc-7540-4cae-8a74-0e1186a7f847","system_id":"levelo_inurba_marseille","lat":43.286595,"lon":5.386795,"is_reserved":false,"is_disabled":false,"rental_uris":{"android":"levelo://app?vid=a29e12bc-7540-4cae-8a74-0e1186a7f847","ios":"levelo://app?vid=a29e12bc-7540-4cae-8a74-0e1186a7f847"},"vehicle_type_id":"4","last_reported":1723565422,"current_range_meters":0,"station_id":"ce4bh492rcd13ifvqdug","pricing_plan_id":"cebpf4jnsgd1na2vs0mg"},{"bike_id":"79b3b04d-3207-4465-bbe6-d2792240a665","system_id":"levelo_inurba_marseille","lat":43.28672,"lon":5.38684,"is_reserved":false,"is_disabled":false,"rental_uris":{"android":"levelo://app?vid=79b3b04d-3207-4465-bbe6-d2792240a665","ios":"levelo://app?vid=79b3b04d-3207-4465-bbe6-d2792240a665"},"vehicle_type_id":"4","last_reported":1723565422,"current_range_meters":0,"station_id":"ce4bh492rcd13ifvqdug","pricing_plan_id":"cebpf4jnsgd1na2vs0mg"},{"bike_id":"3350cf8c-5436-454a-a698-abe044e1def0","system_id":"levelo_inurba_marseille","lat":43.319179,"lon":5.407725,"is_reserved":false,"is_disabled":false,"rental_uris":{"android":"levelo://app?vid=3350cf8c-5436-454a-a698-abe044e1def0","ios":"levelo://app?vid=3350cf8c-5436-454a-a698-abe044e1def0"},"vehicle_type_id":"4","last_reported":1723565422,"current_range_meters":5600,"station_id":"ce4bhq12rcd13ifvqhig","pricing_plan_id":"cebpf4jnsgd1na2vs0mg"},{"bike_id":"d1ccb5fb-4838-484d-9497-90ae76b444c7","system_id":"levelo_inurba_marseille","lat":43.319179,"lon":5.407725,"is_reserved":false,"is_disabled":false,"rental_uris":{"android":"levelo://app?vid=d1ccb5fb-4838-484d-9497-90ae76b444c7","ios":"levelo://app?vid=d1ccb5fb-4838-484d-9497-90ae76b444c7"},"vehicle_type_id":"4","last_reported":1723565422,"current_range_meters":29600,"station_id":"ce4bhq12rcd13ifvqhig","pricing_plan_id":"cebpf4jnsgd1na2vs0mg"},{"bike_id":"9119be46-0170-487f-b155-778a6b7739de","system_id":"levelo_inurba_marseille","lat":43.319179,"lon":5.407725,"is_reserved":false,"is_disabled":false,"rental_uris":{"android":"levelo://app?vid=9119be46-0170-487f-b155-778a6b7739de","ios":"levelo://app?vid=9119be46-0170-487f-b155-778a6b7739de"},"vehicle_type_id":"4","last_reported":1723565422,"current_range_meters":20000,"station_id":"ce4bhq12rcd13ifvqhig","pricing_plan_id":"cebpf4jnsgd1na2vs0mg"},{"bike_id":"d4345fe5-1b74-46a3-b9c5-51f301ece556","system_id":"levelo_inurba_marseille","lat":43.319179,"lon":5.407725,"is_reserved":false,"is_disabled":false,"rental_uris":{"android":"levelo://app?vid=d4345fe5-1b74-46a3-b9c5-51f301ece556","ios":"levelo://app?vid=d4345fe5-1b74-46a3-b9c5-51f301ece556"},"vehicle_type_id":"4","last_reported":1723565422,"current_range_meters":13200,"station_id":"ce4bhq12rcd13ifvqhig","pricing_plan_id":"cebpf4jnsgd1na2vs0mg"},{"bike_id":"e730f2a6-97fc-4417-9362-520a42b45e70","system_id":"levelo_inurba_marseille","lat":43.33717,"lon":5.391857,"is_reserved":false,"is_disabled":false,"rental_uris":{"android":"levelo://app?vid=e730f2a6-97fc-4417-9362-520a42b45e70","ios":"levelo://app?vid=e730f2a6-97fc-4417-9362-520a42b45e70"},"vehicle_type_id":"4","last_reported":1723565422,"current_range_meters":9600,"station_id":"ce4bhr92rcd13ifvqhsg","pricing_plan_id":"cebpf4jnsgd1na2vs0mg"},{"bike_id":"f6fc52f3-2518-416d-8a5f-8b9ae58b4092","system_id":"levelo_inurba_marseille","lat":43.284793,"lon":5.384113,"is_reserved":false,"is_disabled":false,"rental_uris":{"android":"levelo://app?vid=f6fc52f3-2518-416d-8a5f-8b9ae58b4092","ios":"levelo://app?vid=f6fc52f3-2518-416d-8a5f-8b9ae58b4092"},"vehicle_type_id":"4","last_reported":1723565422,"current_range_meters":20400,"station_id":"ce4bh512rcd13ifvqe3g","pricing_plan_id":"cebpf4jnsgd1na2vs0mg"},{"bike_id":"c175f992-e096-4b9e-b83d-2b11c19c23b1","system_id":"levelo_inurba_marseille","lat":43.288584,"lon":5.393134,"is_reserved":false,"is_disabled":false,"rental_uris":{"android":"levelo://app?vid=c175f992-e096-4b9e-b83d-2b11c19c23b1","ios":"levelo://app?vid=c175f992-e096-4b9e-b83d-2b11c19c23b1"},"vehicle_type_id":"4","last_reported":1723565422,"current_range_meters":0,"station_id":"ce4bh2p2rcd13ifvqdi0","pricing_plan_id":"cebpf4jnsgd1na2vs0mg"},{"bike_id":"3b9a578a-0176-4f8f-87d0-75fd30f92333","system_id":"levelo_inurba_marseille","lat":43.288501,"lon":5.393087,"is_reserved":false,"is_disabled":false,"rental_uris":{"android":"levelo://app?vid=3b9a578a-0176-4f8f-87d0-75fd30f92333","ios":"levelo://app?vid=3b9a578a-0176-4f8f-87d0-75fd30f92333"},"vehicle_type_id":"4","last_reported":1723565422,"current_range_meters":21600,"station_id":"ce4bh2p2rcd13ifvqdi0","pricing_plan_id":"cebpf4jnsgd1na2vs0mg"},{"bike_id":"78f748c7-775f-4435-8466-2c0a6473e54b","system_id":"levelo_inurba_marseille","lat":43.29795,"lon":5.404086,"is_reserved":false,"is_disabled":false,"rental_uris":{"android":"levelo://app?vid=78f748c7-775f-4435-8466-2c0a6473e54b","ios":"levelo://app?vid=78f748c7-775f-4435-8466-2c0a6473e54b"},"vehicle_type_id":"4","last_reported":1723565422,"current_range_meters":21200,"station_id":"ce4bh112rcd13ifvqd90","pricing_plan_id":"cebpf4jnsgd1na2vs0mg"},{"bike_id":"2c05e0ce-9f71-40df-9584-c933d34e83c7","system_id":"levelo_inurba_marseille","lat":43.28426,"lon":5.34992,"is_reserved":false,"is_disabled":false,"rental_uris":{"android":"levelo://app?vid=2c05e0ce-9f71-40df-9584-c933d34e83c7","ios":"levelo://app?vid=2c05e0ce-9f71-40df-9584-c933d34e83c7"},"vehicle_type_id":"4","last_reported":1723565422,"current_range_meters":19600,"station_id":"ce4bhbh2rcd13ifvqepg","pricing_plan_id":"cebpf4jnsgd1na2vs0mg"},{"bike_id":"d246a28c-7d3a-45bc-8441-b97be8b159bf","system_id":"levelo_inurba_marseille","lat":43.284219,"lon":5.3497,"is_reserved":false,"is_disabled":false,"rental_uris":{"android":"levelo://app?vid=d246a28c-7d3a-45bc-8441-b97be8b159bf","ios":"levelo://app?vid=d246a28c-7d3a-45bc-8441-b97be8b159bf"},"vehicle_type_id":"4","last_reported":1723565422,"current_range_meters":28400,"station_id":"ce4bhbh2rcd13ifvqepg","pricing_plan_id":"cebpf4jnsgd1na2vs0mg"},{"bike_id":"ec71c113-73bb-4815-819f-908b465fee6c","system_id":"levelo_inurba_marseille","lat":43.28424,"lon":5.34992,"is_reserved":false,"is_disabled":false,"rental_uris":{"android":"levelo://app?vid=ec71c113-73bb-4815-819f-908b465fee6c","ios":"levelo://app?vid=ec71c113-73bb-4815-819f-908b465fee6c"},"vehicle_type_id":"4","last_reported":1723565422,"current_range_meters":22800,"station_id":"ce4bhbh2rcd13ifvqepg","pricing_plan_id":"cebpf4jnsgd1na2vs0mg"},{"bike_id":"f798b66f-2471-41f8-b99f-3665b35b3ca2","system_id":"levelo_inurba_marseille","lat":43.28425,"lon":5.34987,"is_reserved":false,"is_disabled":false,"rental_uris":{"android":"levelo://app?vid=f798b66f-2471-41f8-b99f-3665b35b3ca2","ios":"levelo://app?vid=f798b66f-2471-41f8-b99f-3665b35b3ca2"},"vehicle_type_id":"4","last_reported":1723565422,"current_range_meters":4800,"station_id":"ce4bhbh2rcd13ifvqepg","pricing_plan_id":"cebpf4jnsgd1na2vs0mg"},{"bike_id":"ce19f366-8a8c-4ee9-87d5-5661065aa7bd","system_id":"levelo_inurba_marseille","lat":43.28425,"lon":5.34987,"is_reserved":false,"is_disabled":false,"rental_uris":{"android":"levelo://app?vid=ce19f366-8a8c-4ee9-87d5-5661065aa7bd","ios":"levelo://app?vid=ce19f366-8a8c-4ee9-87d5-5661065aa7bd"},"vehicle_type_id":"4","last_reported":1723565422,"current_range_meters":31200,"station_id":"ce4bhbh2rcd13ifvqepg","pricing_plan_id":"cebpf4jnsgd1na2vs0mg"},{"bike_id":"c02fa931-cb08-4f6b-94e8-b03a98973c8a","system_id":"levelo_inurba_marseille","lat":43.28424,"lon":5.3499,"is_reserved":false,"is_disabled":false,"rental_uris":{"android":"levelo://app?vid=c02fa931-cb08-4f6b-94e8-b03a98973c8a","ios":"levelo://app?vid=c02fa931-cb08-4f6b-94e8-b03a98973c8a"},"vehicle_type_id":"4","last_reported":1723565422,"current_range_meters":10800,"station_id":"ce4bhbh2rcd13ifvqepg","pricing_plan_id":"cebpf4jnsgd1na2vs0mg"},{"bike_id":"5c7dbf54-0ee0-4454-abc7-bd2b6537e680","system_id":"levelo_inurba_marseille","lat":43.28424,"lon":5.34988,"is_reserved":false,"is_disabled":false,"rental_uris":{"android":"levelo://app?vid=5c7dbf54-0ee0-4454-abc7-bd2b6537e680","ios":"levelo://app?vid=5c7dbf54-0ee0-4454-abc7-bd2b6537e680"},"vehicle_type_id":"4","last_reported":1723565422,"current_range_meters":13200,"station_id":"ce4bhbh2rcd13ifvqepg","pricing_plan_id":"cebpf4jnsgd1na2vs0mg"},{"bike_id":"bf2406b4-c1c3-45a8-a82b-1f5502d8242c","system_id":"levelo_inurba_marseille","lat":43.284217,"lon":5.349697,"is_reserved":false,"is_disabled":false,"rental_uris":{"android":"levelo://app?vid=bf2406b4-c1c3-45a8-a82b-1f5502d8242c","ios":"levelo://app?vid=bf2406b4-c1c3-45a8-a82b-1f5502d8242c"},"vehicle_type_id":"4","last_reported":1723565422,"current_range_meters":8400,"station_id":"ce4bhbh2rcd13ifvqepg","pricing_plan_id":"cebpf4jnsgd1na2vs0mg"},{"bike_id":"0389febf-6168-4b41-89de-171d2cb3073a","system_id":"levelo_inurba_marseille","lat":43.28423,"lon":5.34986,"is_reserved":false,"is_disabled":false,"rental_uris":{"android":"levelo://app?vid=0389febf-6168-4b41-89de-171d2cb3073a","ios":"levelo://app?vid=0389febf-6168-4b41-89de-171d2cb3073a"},"vehicle_type_id":"4","last_reported":1723565422,"current_range_meters":12000,"station_id":"ce4bhbh2rcd13ifvqepg","pricing_plan_id":"cebpf4jnsgd1na2vs0mg"},{"bike_id":"bcefd964-e91b-4888-871d-a86b6d691e33","system_id":"levelo_inurba_marseille","lat":43.28425,"lon":5.34979,"is_reserved":false,"is_disabled":false,"rental_uris":{"android":"levelo://app?vid=bcefd964-e91b-4888-871d-a86b6d691e33","ios":"levelo://app?vid=bcefd964-e91b-4888-871d-a86b6d691e33"},"vehicle_type_id":"4","last_reported":1723565422,"current_range_meters":24800,"station_id":"ce4bhbh2rcd13ifvqepg","pricing_plan_id":"cebpf4jnsgd1na2vs0mg"},{"bike_id":"ecbb7f05-efc0-4cc4-af9c-7a110d44b49d","system_id":"levelo_inurba_marseille","lat":43.28421,"lon":5.34991,"is_reserved":false,"is_disabled":false,"rental_uris":{"android":"levelo://app?vid=ecbb7f05-efc0-4cc4-af9c-7a110d44b49d","ios":"levelo://app?vid=ecbb7f05-efc0-4cc4-af9c-7a110d44b49d"},"vehicle_type_id":"4","last_reported":1723565422,"current_range_meters":26400,"station_id":"ce4bhbh2rcd13ifvqepg","pricing_plan_id":"cebpf4jnsgd1na2vs0mg"},{"bike_id":"63b2347a-53e1-4f34-a162-ab33e3c41aff","system_id":"levelo_inurba_marseille","lat":43.28422,"lon":5.34987,"is_reserved":false,"is_disabled":false,"rental_uris":{"android":"levelo://app?vid=63b2347a-53e1-4f34-a162-ab33e3c41aff","ios":"levelo://app?vid=63b2347a-53e1-4f34-a162-ab33e3c41aff"},"vehicle_type_id":"4","last_reported":1723565422,"current_range_meters":2800,"station_id":"ce4bhbh2rcd13ifvqepg","pricing_plan_id":"cebpf4jnsgd1na2vs0mg"},{"bike_id":"7e57c042-9302-490f-a6bf-fe0815b8b652","system_id":"levelo_inurba_marseille","lat":43.2842,"lon":5.34993,"is_reserved":false,"is_disabled":false,"rental_uris":{"android":"levelo://app?vid=7e57c042-9302-490f-a6bf-fe0815b8b652","ios":"levelo://app?vid=7e57c042-9302-490f-a6bf-fe0815b8b652"},"vehicle_type_id":"4","last_reported":1723565422,"current_range_meters":5600,"station_id":"ce4bhbh2rcd13ifvqepg","pricing_plan_id":"cebpf4jnsgd1na2vs0mg"},{"bike_id":"07db46d2-d4ff-4014-9652-bae6af523707","system_id":"levelo_inurba_marseille","lat":43.28419,"lon":5.34996,"is_reserved":false,"is_disabled":false,"rental_uris":{"android":"levelo://app?vid=07db46d2-d4ff-4014-9652-bae6af523707","ios":"levelo://app?vid=07db46d2-d4ff-4014-9652-bae6af523707"},"vehicle_type_id":"4","last_reported":1723565422,"current_range_meters":24000,"station_id":"ce4bhbh2rcd13ifvqepg","pricing_plan_id":"cebpf4jnsgd1na2vs0mg"},{"bike_id":"488155f1-3686-4d35-94c6-4b2773ac87cc","system_id":"levelo_inurba_marseille","lat":43.28422,"lon":5.34986,"is_reserved":false,"is_disabled":false,"rental_uris":{"android":"levelo://app?vid=488155f1-3686-4d35-94c6-4b2773ac87cc","ios":"levelo://app?vid=488155f1-3686-4d35-94c6-4b2773ac87cc"},"vehicle_type_id":"4","last_reported":1723565422,"current_range_meters":23200,"station_id":"ce4bhbh2rcd13ifvqepg","pricing_plan_id":"cebpf4jnsgd1na2vs0mg"},{"bike_id":"1752ee17-79b9-41e3-8738-90a26395a935","system_id":"levelo_inurba_marseille","lat":43.28421,"lon":5.34988,"is_reserved":false,"is_disabled":false,"rental_uris":{"android":"levelo://app?vid=1752ee17-79b9-41e3-8738-90a26395a935","ios":"levelo://app?vid=1752ee17-79b9-41e3-8738-90a26395a935"},"vehicle_type_id":"4","last_reported":1723565422,"current_range_meters":21200,"station_id":"ce4bhbh2rcd13ifvqepg","pricing_plan_id":"cebpf4jnsgd1na2vs0mg"},{"bike_id":"2e551c3b-a6ca-4ede-9fb4-389598406906","system_id":"levelo_inurba_marseille","lat":43.2842,"lon":5.3499,"is_reserved":false,"is_disabled":false,"rental_uris":{"android":"levelo://app?vid=2e551c3b-a6ca-4ede-9fb4-389598406906","ios":"levelo://app?vid=2e551c3b-a6ca-4ede-9fb4-389598406906"},"vehicle_type_id":"4","last_reported":1723565422,"current_range_meters":26000,"station_id":"ce4bhbh2rcd13ifvqepg","pricing_plan_id":"cebpf4jnsgd1na2vs0mg"},{"bike_id":"50e649fe-4e18-466d-919a-4e76ada5aee6","system_id":"levelo_inurba_marseille","lat":43.28418,"lon":5.34994,"is_reserved":false,"is_disabled":false,"rental_uris":{"android":"levelo://app?vid=50e649fe-4e18-466d-919a-4e76ada5aee6","ios":"levelo://app?vid=50e649fe-4e18-466d-919a-4e76ada5aee6"},"vehicle_type_id":"4","last_reported":1723565422,"current_range_meters":11600,"station_id":"ce4bhbh2rcd13ifvqepg","pricing_plan_id":"cebpf4jnsgd1na2vs0mg"},{"bike_id":"48b91f4f-e86f-4c77-94e3-ef65a193380f","system_id":"levelo_inurba_marseille","lat":43.284217,"lon":5.349697,"is_reserved":false,"is_disabled":false,"rental_uris":{"android":"levelo://app?vid=48b91f4f-e86f-4c77-94e3-ef65a193380f","ios":"levelo://app?vid=48b91f4f-e86f-4c77-94e3-ef65a193380f"},"vehicle_type_id":"4","last_reported":1723565422,"current_range_meters":31600,"station_id":"ce4bhbh2rcd13ifvqepg","pricing_plan_id":"cebpf4jnsgd1na2vs0mg"},{"bike_id":"ed5f07c0-d9ad-477c-99e8-d4b8dfb2a8f9","system_id":"levelo_inurba_marseille","lat":43.284217,"lon":5.349697,"is_reserved":false,"is_disabled":false,"rental_uris":{"android":"levelo://app?vid=ed5f07c0-d9ad-477c-99e8-d4b8dfb2a8f9","ios":"levelo://app?vid=ed5f07c0-d9ad-477c-99e8-d4b8dfb2a8f9"},"vehicle_type_id":"4","last_reported":1723565422,"current_range_meters":22000,"station_id":"ce4bhbh2rcd13ifvqepg","pricing_plan_id":"cebpf4jnsgd1na2vs0mg"},{"bike_id":"137136d2-a559-4267-b568-88f4791464b6","system_id":"levelo_inurba_marseille","lat":43.28419,"lon":5.34988,"is_reserved":false,"is_disabled":false,"rental_uris":{"android":"levelo://app?vid=137136d2-a559-4267-b568-88f4791464b6","ios":"levelo://app?vid=137136d2-a559-4267-b568-88f4791464b6"},"vehicle_type_id":"4","last_reported":1723565422,"current_range_meters":20800,"station_id":"ce4bhbh2rcd13ifvqepg","pricing_plan_id":"cebpf4jnsgd1na2vs0mg"},{"bike_id":"5af7df14-c209-402b-836b-0a0e425bd848","system_id":"levelo_inurba_marseille","lat":43.28418,"lon":5.34989,"is_reserved":false,"is_disabled":false,"rental_uris":{"android":"levelo://app?vid=5af7df14-c209-402b-836b-0a0e425bd848","ios":"levelo://app?vid=5af7df14-c209-402b-836b-0a0e425bd848"},"vehicle_type_id":"4","last_reported":1723565422,"current_range_meters":0,"station_id":"ce4bhbh2rcd13ifvqepg","pricing_plan_id":"cebpf4jnsgd1na2vs0mg"},{"bike_id":"6498298e-b165-43fc-b370-8f08077ef4c1","system_id":"levelo_inurba_marseille","lat":43.284195,"lon":5.349832,"is_reserved":false,"is_disabled":false,"rental_uris":{"android":"levelo://app?vid=6498298e-b165-43fc-b370-8f08077ef4c1","ios":"levelo://app?vid=6498298e-b165-43fc-b370-8f08077ef4c1"},"vehicle_type_id":"4","last_reported":1723565422,"current_range_meters":2400,"station_id":"ce4bhbh2rcd13ifvqepg","pricing_plan_id":"cebpf4jnsgd1na2vs0mg"},{"bike_id":"a802dccc-a863-4ad2-9639-bc5affce946a","system_id":"levelo_inurba_marseille","lat":43.28418,"lon":5.34987,"is_reserved":false,"is_disabled":false,"rental_uris":{"android":"levelo://app?vid=a802dccc-a863-4ad2-9639-bc5affce946a","ios":"levelo://app?vid=a802dccc-a863-4ad2-9639-bc5affce946a"},"vehicle_type_id":"4","last_reported":1723565422,"current_range_meters":30800,"station_id":"ce4bhbh2rcd13ifvqepg","pricing_plan_id":"cebpf4jnsgd1na2vs0mg"},{"bike_id":"98570d7a-f834-428a-8862-bd43510e8919","system_id":"levelo_inurba_marseille","lat":43.28416,"lon":5.34992,"is_reserved":false,"is_disabled":false,"rental_uris":{"android":"levelo://app?vid=98570d7a-f834-428a-8862-bd43510e8919","ios":"levelo://app?vid=98570d7a-f834-428a-8862-bd43510e8919"},"vehicle_type_id":"4","last_reported":1723565422,"current_range_meters":28800,"station_id":"ce4bhbh2rcd13ifvqepg","pricing_plan_id":"cebpf4jnsgd1na2vs0mg"},{"bike_id":"161280e5-c4b7-43ad-8a02-75af5232cb17","system_id":"levelo_inurba_marseille","lat":43.284217,"lon":5.349697,"is_reserved":false,"is_disabled":false,"rental_uris":{"android":"levelo://app?vid=161280e5-c4b7-43ad-8a02-75af5232cb17","ios":"levelo://app?vid=161280e5-c4b7-43ad-8a02-75af5232cb17"},"vehicle_type_id":"4","last_reported":1723565422,"current_range_meters":13600,"station_id":"ce4bhbh2rcd13ifvqepg","pricing_plan_id":"cebpf4jnsgd1na2vs0mg"},{"bike_id":"f8655de0-e0c0-468e-9723-c320b8927dcb","system_id":"levelo_inurba_marseille","lat":43.284197,"lon":5.349797,"is_reserved":false,"is_disabled":false,"rental_uris":{"android":"levelo://app?vid=f8655de0-e0c0-468e-9723-c320b8927dcb","ios":"levelo://app?vid=f8655de0-e0c0-468e-9723-c320b8927dcb"},"vehicle_type_id":"4","last_reported":1723565422,"current_range_meters":20800,"station_id":"ce4bhbh2rcd13ifvqepg","pricing_plan_id":"cebpf4jnsgd1na2vs0mg"},{"bike_id":"f24ff8db-34b2-47a0-9bbf-be56f4bc08e2","system_id":"levelo_inurba_marseille","lat":43.284217,"lon":5.349697,"is_reserved":false,"is_disabled":false,"rental_uris":{"android":"levelo://app?vid=f24ff8db-34b2-47a0-9bbf-be56f4bc08e2","ios":"levelo://app?vid=f24ff8db-34b2-47a0-9bbf-be56f4bc08e2"},"vehicle_type_id":"4","last_reported":1723565422,"current_range_meters":31600,"station_id":"ce4bhbh2rcd13ifvqepg","pricing_plan_id":"cebpf4jnsgd1na2vs0mg"},{"bike_id":"3ca3a49e-ae29-4a1a-bec6-e3b14a1102cb","system_id":"levelo_inurba_marseille","lat":43.28417,"lon":5.34988,"is_reserved":false,"is_disabled":false,"rental_uris":{"android":"levelo://app?vid=3ca3a49e-ae29-4a1a-bec6-e3b14a1102cb","ios":"levelo://app?vid=3ca3a49e-ae29-4a1a-bec6-e3b14a1102cb"},"vehicle_type_id":"4","last_reported":1723565422,"current_range_meters":4800,"station_id":"ce4bhbh2rcd13ifvqepg","pricing_plan_id":"cebpf4jnsgd1na2vs0mg"},{"bike_id":"4c9aba42-9301-4d19-b192-702a9ccce38b","system_id":"levelo_inurba_marseille","lat":43.28416,"lon":5.34991,"is_reserved":false,"is_disabled":false,"rental_uris":{"android":"levelo://app?vid=4c9aba42-9301-4d19-b192-702a9ccce38b","ios":"levelo://app?vid=4c9aba42-9301-4d19-b192-702a9ccce38b"},"vehicle_type_id":"4","last_reported":1723565422,"current_range_meters":4800,"station_id":"ce4bhbh2rcd13ifvqepg","pricing_plan_id":"cebpf4jnsgd1na2vs0mg"},{"bike_id":"f55aa9ea-3d22-4927-b2c7-0197454486a7","system_id":"levelo_inurba_marseille","lat":43.284217,"lon":5.349697,"is_reserved":false,"is_disabled":false,"rental_uris":{"android":"levelo://app?vid=f55aa9ea-3d22-4927-b2c7-0197454486a7","ios":"levelo://app?vid=f55aa9ea-3d22-4927-b2c7-0197454486a7"},"vehicle_type_id":"4","last_reported":1723565422,"current_range_meters":22000,"station_id":"ce4bhbh2rcd13ifvqepg","pricing_plan_id":"cebpf4jnsgd1na2vs0mg"},{"bike_id":"80029391-a677-4064-85fd-78448f68f6f2","system_id":"levelo_inurba_marseille","lat":43.28419,"lon":5.34981,"is_reserved":false,"is_disabled":false,"rental_uris":{"android":"levelo://app?vid=80029391-a677-4064-85fd-78448f68f6f2","ios":"levelo://app?vid=80029391-a677-4064-85fd-78448f68f6f2"},"vehicle_type_id":"4","last_reported":1723565422,"current_range_meters":15600,"station_id":"ce4bhbh2rcd13ifvqepg","pricing_plan_id":"cebpf4jnsgd1na2vs0mg"},{"bike_id":"5afd9396-b42d-47c2-b750-4c2ba47c0501","system_id":"levelo_inurba_marseille","lat":43.28418,"lon":5.34984,"is_reserved":false,"is_disabled":false,"rental_uris":{"android":"levelo://app?vid=5afd9396-b42d-47c2-b750-4c2ba47c0501","ios":"levelo://app?vid=5afd9396-b42d-47c2-b750-4c2ba47c0501"},"vehicle_type_id":"4","last_reported":1723565422,"current_range_meters":13600,"station_id":"ce4bhbh2rcd13ifvqepg","pricing_plan_id":"cebpf4jnsgd1na2vs0mg"},{"bike_id":"6446b9eb-2cfd-4bab-9ced-55b5cffc141f","system_id":"levelo_inurba_marseille","lat":43.284217,"lon":5.349697,"is_reserved":false,"is_disabled":false,"rental_uris":{"android":"levelo://app?vid=6446b9eb-2cfd-4bab-9ced-55b5cffc141f","ios":"levelo://app?vid=6446b9eb-2cfd-4bab-9ced-55b5cffc141f"},"vehicle_type_id":"4","last_reported":1723565422,"current_range_meters":27200,"station_id":"ce4bhbh2rcd13ifvqepg","pricing_plan_id":"cebpf4jnsgd1na2vs0mg"},{"bike_id":"c87e689e-6be9-4a89-b3d7-a91d7f8c3466","system_id":"levelo_inurba_marseille","lat":43.2842,"lon":5.34974,"is_reserved":false,"is_disabled":false,"rental_uris":{"android":"levelo://app?vid=c87e689e-6be9-4a89-b3d7-a91d7f8c3466","ios":"levelo://app?vid=c87e689e-6be9-4a89-b3d7-a91d7f8c3466"},"vehicle_type_id":"4","last_reported":1723565422,"current_range_meters":8800,"station_id":"ce4bhbh2rcd13ifvqepg","pricing_plan_id":"cebpf4jnsgd1na2vs0mg"},{"bike_id":"25b3a37f-b5ad-4160-a18e-4cfc82a646c9","system_id":"levelo_inurba_marseille","lat":43.28418,"lon":5.34979,"is_reserved":false,"is_disabled":false,"rental_uris":{"android":"levelo://app?vid=25b3a37f-b5ad-4160-a18e-4cfc82a646c9","ios":"levelo://app?vid=25b3a37f-b5ad-4160-a18e-4cfc82a646c9"},"vehicle_type_id":"4","last_reported":1723565422,"current_range_meters":800,"station_id":"ce4bhbh2rcd13ifvqepg","pricing_plan_id":"cebpf4jnsgd1na2vs0mg"},{"bike_id":"d825202f-3067-41da-90ee-66bd44b3a4b0","system_id":"levelo_inurba_marseille","lat":43.28418,"lon":5.34978,"is_reserved":false,"is_disabled":false,"rental_uris":{"android":"levelo://app?vid=d825202f-3067-41da-90ee-66bd44b3a4b0","ios":"levelo://app?vid=d825202f-3067-41da-90ee-66bd44b3a4b0"},"vehicle_type_id":"4","last_reported":1723565422,"current_range_meters":18000,"station_id":"ce4bhbh2rcd13ifvqepg","pricing_plan_id":"cebpf4jnsgd1na2vs0mg"},{"bike_id":"c001a949-cad6-4d1e-b479-0de449252909","system_id":"levelo_inurba_marseille","lat":43.284217,"lon":5.349697,"is_reserved":false,"is_disabled":false,"rental_uris":{"android":"levelo://app?vid=c001a949-cad6-4d1e-b479-0de449252909","ios":"levelo://app?vid=c001a949-cad6-4d1e-b479-0de449252909"},"vehicle_type_id":"4","last_reported":1723565422,"current_range_meters":15600,"station_id":"ce4bhbh2rcd13ifvqepg","pricing_plan_id":"cebpf4jnsgd1na2vs0mg"},{"bike_id":"40a2c5f0-80e0-4542-900f-169aa29c17d8","system_id":"levelo_inurba_marseille","lat":43.28412,"lon":5.34996,"is_reserved":false,"is_disabled":false,"rental_uris":{"android":"levelo://app?vid=40a2c5f0-80e0-4542-900f-169aa29c17d8","ios":"levelo://app?vid=40a2c5f0-80e0-4542-900f-169aa29c17d8"},"vehicle_type_id":"4","last_reported":1723565422,"current_range_meters":13600,"station_id":"ce4bhbh2rcd13ifvqepg","pricing_plan_id":"cebpf4jnsgd1na2vs0mg"},{"bike_id":"58a7fc12-45d0-49b1-aa29-449ee56202dd","system_id":"levelo_inurba_marseille","lat":43.28416,"lon":5.34981,"is_reserved":false,"is_disabled":false,"rental_uris":{"android":"levelo://app?vid=58a7fc12-45d0-49b1-aa29-449ee56202dd","ios":"levelo://app?vid=58a7fc12-45d0-49b1-aa29-449ee56202dd"},"vehicle_type_id":"4","last_reported":1723565422,"current_range_meters":0,"station_id":"ce4bhbh2rcd13ifvqepg","pricing_plan_id":"cebpf4jnsgd1na2vs0mg"},{"bike_id":"732006fb-6079-453a-87d4-14056063b367","system_id":"levelo_inurba_marseille","lat":43.28413,"lon":5.34989,"is_reserved":false,"is_disabled":false,"rental_uris":{"android":"levelo://app?vid=732006fb-6079-453a-87d4-14056063b367","ios":"levelo://app?vid=732006fb-6079-453a-87d4-14056063b367"},"vehicle_type_id":"4","last_reported":1723565422,"current_range_meters":25600,"station_id":"ce4bhbh2rcd13ifvqepg","pricing_plan_id":"cebpf4jnsgd1na2vs0mg"},{"bike_id":"d8ae5213-4512-4e76-a724-83f9fc0e1802","system_id":"levelo_inurba_marseille","lat":43.28411,"lon":5.34995,"is_reserved":false,"is_disabled":false,"rental_uris":{"android":"levelo://app?vid=d8ae5213-4512-4e76-a724-83f9fc0e1802","ios":"levelo://app?vid=d8ae5213-4512-4e76-a724-83f9fc0e1802"},"vehicle_type_id":"4","last_reported":1723565422,"current_range_meters":29600,"station_id":"ce4bhbh2rcd13ifvqepg","pricing_plan_id":"cebpf4jnsgd1na2vs0mg"},