{"last_updated":1739603257,"ttl":60,"version":"2.2","data":{"bikes":[{"bike_id":"6e2912ca-6fb0-4399-89bc-e8a7c3a5973e","system_id":"levelo_inurba_marseille","lat":43.31061,"lon":5.38358,"is_reserved":false,"is_disabled":false,"rental_uris":{"android":"levelo://app?vid=6e2912ca-6fb0-4399-89bc-e8a7c3a5973e","ios":"levelo://app?vid=6e2912ca-6fb0-4399-89bc-e8a7c3a5973e"},"vehicle_type_id":"4","last_reported":1739603257,"current_range_meters":36800,"station_id":"ce4bgv92rcd13ifvqcr0","pricing_plan_id":"cebpf4jnsgd1na2vs0mg"},{"bike_id":"8f8fcc2b-6a80-49a2-bcdc-2ba2085e83ae","system_id":"levelo_inurba_marseille","lat":43.31178,"lon":5.3871,"is_reserved":false,"is_disabled":false,"rental_uris":{"android":"levelo://app?vid=8f8fcc2b-6a80-49a2-bcdc-2ba2085e83ae","ios":"levelo://app?vid=8f8fcc2b-6a80-49a2-bcdc-2ba2085e83ae"},"vehicle_type_id":"4","last_reported":1739603257,"current_range_meters":38400,"station_id":"ce4bgv12rcd13ifvqcp0","pricing_plan_id":"cebpf4jnsgd1na2vs0mg"},{"bike_id":"96233cd2-5c24-4c4d-895e-87d7e7739436","system_id":"levelo_inurba_marseille","lat":43.31706,"lon":5.43704,"is_reserved":false,"is_disabled":false,"rental_uris":{"android":"levelo://app?vid=96233cd2-5c24-4c4d-895e-87d7e7739436","ios":"levelo://app?vid=96233cd2-5c24-4c4d-895e-87d7e7739436"},"vehicle_type_id":"4","last_reported":1739603257,"current_range_meters":11200,"station_id":"ce4bhp92rcd13ifvqhcg","pricing_plan_id":"cebpf4jnsgd1na2vs0mg"},{"bike_id":"4db9785e-6dc5-49f0-b203-434ad1c9660e","system_id":"levelo_inurba_marseille","lat":43.29537,"lon":5.37497,"is_reserved":false,"is_disabled":false,"rental_uris":{"android":"levelo://app?vid=4db9785e-6dc5-49f0-b203-434ad1c9660e","ios":"levelo://app?vid=4db9785e-6dc5-49f0-b203-434ad1c9660e"},"vehicle_type_id":"4","last_reported":1739603257,"current_range_meters":35600,"station_id":"ce4bgkp2rcd13ifvqbmg","pricing_plan_id":"cebpf4jnsgd1na2vs0mg"},{"bike_id":"719a875a-0651-4af4-9cdb-36248ea3b24a","system_id":"levelo_inurba_marseille","lat":43.28324,"lon":5.39,"is_reserved":false,"is_disabled":false,"rental_uris":{"android":"levelo://app?vid=719a875a-0651-4af4-9cdb-36248ea3b24a","ios":"levelo://app?vid=719a875a-0651-4af4-9cdb-36248ea3b24a"},"vehicle_type_id":"4","last_reported":1739603257,"current_range_meters":12000,"station_id":"","pricing_plan_id":"cebpf4jnsgd1na2vs0mg"},{"bike_id":"647dc012-5826-4d55-83c6-5c1184d01b44","system_id":"levelo_inurba_marseille","lat":43.30792,"lon":5.38157,"is_reserved":false,"is_disabled":false,"rental_uris":{"android":"levelo://app?vid=647dc012-5826-4d55-83c6-5c1184d01b44","ios":"levelo://app?vid=647dc012-5826-4d55-83c6-5c1184d01b44"},"vehicle_type_id":"4","last_reported":1739603257,"current_range_meters":37600,"station_id":"ce4bgt12rcd13ifvqce0","pricing_plan_id":"cebpf4jnsgd1na2vs0mg"},{"bike_id":"492c92e4-cc2e-4095-843a-e98163a264fd","system_id":"levelo_inurba_marseille","lat":43.31316,"lon":5.396975,"is_reserved":false,"is_disabled":false,"rental_uris":{"android":"levelo://app?vid=492c92e4-cc2e-4095-843a-e98163a264fd","ios":"levelo://app?vid=492c92e4-cc2e-4095-843a-e98163a264fd"},"vehicle_type_id":"4","last_reported":1739603257,"current_range_meters":14400,"station_id":"ce4bgvp2rcd13ifvqcu0","pricing_plan_id":"cebpf4jnsgd1na2vs0mg"},{"bike_id":"aeeb603c-9e21-471f-a3b4-471a46d5c228","system_id":"levelo_inurba_marseille","lat":43.24154,"lon":5.36412,"is_reserved":false,"is_disabled":false,"rental_uris":{"android":"levelo://app?vid=aeeb603c-9e21-471f-a3b4-471a46d5c228","ios":"levelo://app?vid=aeeb603c-9e21-471f-a3b4-471a46d5c228"},"vehicle_type_id":"4","last_reported":1739603257,"current_range_meters":17600,"station_id":"cpo36qri1sfpv3e86is0","pricing_plan_id":"cebpf4jnsgd1na2vs0mg"},{"bike_id":"1d4165b9-e8af-42e7-8e88-54a0f84b4f26","system_id":"levelo_inurba_marseille","lat":43.23204,"lon":5.3999,"is_reserved":false,"is_disabled":false,"rental_uris":{"android":"levelo://app?vid=1d4165b9-e8af-42e7-8e88-54a0f84b4f26","ios":"levelo://app?vid=1d4165b9-e8af-42e7-8e88-54a0f84b4f26"},"vehicle_type_id":"4","last_reported":1739603257,"current_range_meters":26800,"station_id":"ce4bhn12rcd13ifvqgqg","pricing_plan_id":"cebpf4jnsgd1na2vs0mg"},{"bike_id":"c1e76274-801b-4893-b793-e635178d8b86","system_id":"levelo_inurba_marseille","lat":43.239612,"lon":5.366304,"is_reserved":false,"is_disabled":false,"rental_uris":{"android":"levelo://app?vid=c1e76274-801b-4893-b793-e635178d8b86","ios":"levelo://app?vid=c1e76274-801b-4893-b793-e635178d8b86"},"vehicle_type_id":"4","last_reported":1739603257,"current_range_meters":38400,"station_id":"ce4bhi12rcd13ifvqfp0","pricing_plan_id":"cebpf4jnsgd1na2vs0mg"},{"bike_id":"25f20696-caff-4628-8ebd-4f2ceb016775","system_id":"levelo_inurba_marseille","lat":43.30123,"lon":5.38766,"is_reserved":false,"is_disabled":true,"rental_uris":{"android":"levelo://app?vid=25f20696-caff-4628-8ebd-4f2ceb016775","ios":"levelo://app?vid=25f20696-caff-4628-8ebd-4f2ceb016775"},"vehicle_type_id":"4","last_reported":1739603257,"current_range_meters":26000,"station_id":"ce4bghh2rcd13ifvqb60","pricing_plan_id":"cebpf4jnsgd1na2vs0mg"},{"bike_id":"34298d90-deee-4d1b-b876-3acf6304437a","system_id":"levelo_inurba_marseille","lat":43.27917,"lon":5.39577,"is_reserved":false,"is_disabled":false,"rental_uris":{"android":"levelo://app?vid=34298d90-deee-4d1b-b876-3acf6304437a","ios":"levelo://app?vid=34298d90-deee-4d1b-b876-3acf6304437a"},"vehicle_type_id":"4","last_reported":1739603257,"current_range_meters":35200,"station_id":"ce4bhf92rcd13ifvqf40","pricing_plan_id":"cebpf4jnsgd1na2vs0mg"},{"bike_id":"6e2f7af5-aff0-4075-a390-577bcab4146b","system_id":"levelo_inurba_marseille","lat":43.30881,"lon":5.39635,"is_reserved":false,"is_disabled":false,"rental_uris":{"android":"levelo://app?vid=6e2f7af5-aff0-4075-a390-577bcab4146b","ios":"levelo://app?vid=6e2f7af5-aff0-4075-a390-577bcab4146b"},"vehicle_type_id":"4","last_reported":1739603257,"current_range_meters":30800,"station_id":"ce4bh012rcd13ifvqcv0","pricing_plan_id":"cebpf4jnsgd1na2vs0mg"},{"bike_id":"f6014903-cf53-49ed-8bb6-9c2c5f5a492d","system_id":"levelo_inurba_marseille","lat":43.25086,"lon":5.39518,"is_reserved":false,"is_disabled":false,"rental_uris":{"android":"levelo://app?vid=f6014903-cf53-49ed-8bb6-9c2c5f5a492d","ios":"levelo://app?vid=f6014903-cf53-49ed-8bb6-9c2c5f5a492d"},"vehicle_type_id":"4","last_reported":1739603257,"current_range_meters":16400,"station_id":"ce4bhm12rcd13ifvqgkg","pricing_plan_id":"cebpf4jnsgd1na2vs0mg"},{"bike_id":"c74f8124-73dc-4bd8-a98e-9fa42c510bc4","system_id":"levelo_inurba_marseille","lat":43.23146,"lon":5.40005,"is_reserved":false,"is_disabled":false,"rental_uris":{"android":"levelo://app?vid=c74f8124-73dc-4bd8-a98e-9fa42c510bc4","ios":"levelo://app?vid=c74f8124-73dc-4bd8-a98e-9fa42c510bc4"},"vehicle_type_id":"4","last_reported":1739603257,"current_range_meters":26000,"station_id":"ce4bhn12rcd13ifvqgqg","pricing_plan_id":"cebpf4jnsgd1na2vs0mg"},{"bike_id":"eace11fc-366d-49db-ab9f-2f957d528477","system_id":"levelo_inurba_marseille","lat":43.25501,"lon":5.37667,"is_reserved":false,"is_disabled":false,"rental_uris":{"android":"levelo://app?vid=eace11fc-366d-49db-ab9f-2f957d528477","ios":"levelo://app?vid=eace11fc-366d-49db-ab9f-2f957d528477"},"vehicle_type_id":"4","last_reported":1739603257,"current_range_meters":37600,"station_id":"ce4bhh12rcd13ifvqff0","pricing_plan_id":"cebpf4jnsgd1na2vs0mg"},{"bike_id":"c7322498-81a4-46c8-b4c9-ec796bfac1e6","system_id":"levelo_inurba_marseille","lat":43.24168,"lon":5.36399,"is_reserved":false,"is_disabled":true,"rental_uris":{"android":"levelo://app?vid=c7322498-81a4-46c8-b4c9-ec796bfac1e6","ios":"levelo://app?vid=c7322498-81a4-46c8-b4c9-ec796bfac1e6"},"vehicle_type_id":"4","last_reported":1739603257,"current_range_meters":1200,"station_id":"cpo36qri1sfpv3e86is0","pricing_plan_id":"cebpf4jnsgd1na2vs0mg"},{"bike_id":"5d2484e8-d08f-4bba-ae77-36cb31e97e9b","system_id":"levelo_inurba_marseille","lat":43.2955,"lon":5.42266,"is_reserved":false,"is_disabled":false,"rental_uris":{"android":"levelo://app?vid=5d2484e8-d08f-4bba-ae77-36cb31e97e9b","ios":"levelo://app?vid=5d2484e8-d08f-4bba-ae77-36cb31e97e9b"},"vehicle_type_id":"4","last_reported":1739603257,"current_range_meters":38800,"station_id":"ce4bhph2rcd13ifvqhdg","pricing_plan_id":"cebpf4jnsgd1na2vs0mg"},{"bike_id":"6b42f4f1-2360-420a-81a5-fa8f868ac30d","system_id":"levelo_inurba_marseille","lat":43.271782,"lon":5.390244,"is_reserved":false,"is_disabled":false,"rental_uris":{"android":"levelo://app?vid=6b42f4f1-2360-420a-81a5-fa8f868ac30d","ios":"levelo://app?vid=6b42f4f1-2360-420a-81a5-fa8f868ac30d"},"vehicle_type_id":"4","last_reported":1739603257,"current_range_meters":34000,"station_id":"","pricing_plan_id":"cebpf4jnsgd1na2vs0mg"},{"bike_id":"bfe726e0-a711-4722-afbe-725e1c792569","system_id":"levelo_inurba_marseille","lat":43.28979,"lon":5.37831,"is_reserved":false,"is_disabled":false,"rental_uris":{"android":"levelo://app?vid=bfe726e0-a711-4722-afbe-725e1c792569","ios":"levelo://app?vid=bfe726e0-a711-4722-afbe-725e1c792569"},"vehicle_type_id":"4","last_reported":1739603257,"current_range_meters":34000,"station_id":"ce4bh9p2rcd13ifvqed0","pricing_plan_id":"cebpf4jnsgd1na2vs0mg"},{"bike_id":"e21d2e14-c5e2-4570-8b09-76ad61a62300","system_id":"levelo_inurba_marseille","lat":43.2979,"lon":5.37117,"is_reserved":false,"is_disabled":false,"rental_uris":{"android":"levelo://app?vid=e21d2e14-c5e2-4570-8b09-76ad61a62300","ios":"levelo://app?vid=e21d2e14-c5e2-4570-8b09-76ad61a62300"},"vehicle_type_id":"4","last_reported":1739603257,"current_range_meters":38800,"station_id":"ce4bgop2rcd13ifvqc1g","pricing_plan_id":"cebpf4jnsgd1na2vs0mg"},{"bike_id":"6ec6c686-c53d-4108-ad4c-4d96fea2b652","system_id":"levelo_inurba_marseille","lat":43.30648,"lon":5.40097,"is_reserved":false,"is_disabled":false,"rental_uris":{"android":"levelo://app?vid=6ec6c686-c53d-4108-ad4c-4d96fea2b652","ios":"levelo://app?vid=6ec6c686-c53d-4108-ad4c-4d96fea2b652"},"vehicle_type_id":"4","last_reported":1739603257,"current_range_meters":20400,"station_id":"ce4bh112rcd13ifvqda0","pricing_plan_id":"cebpf4jnsgd1na2vs0mg"},{"bike_id":"c1896942-1aed-4f6d-916d-158d594e7985","system_id":"levelo_inurba_marseille","lat":43.30944,"lon":5.39034,"is_reserved":false,"is_disabled":false,"rental_uris":{"android":"levelo://app?vid=c1896942-1aed-4f6d-916d-158d594e7985","ios":"levelo://app?vid=c1896942-1aed-4f6d-916d-158d594e7985"},"vehicle_type_id":"4","last_reported":1739603257,"current_range_meters":6800,"station_id":"ce4bgup2rcd13ifvqco0","pricing_plan_id":"cebpf4jnsgd1na2vs0mg"},{"bike_id":"b34c6303-752a-46a1-93ad-ddbc991e20b6","system_id":"levelo_inurba_marseille","lat":43.230688,"lon":5.354959,"is_reserved":false,"is_disabled":false,"rental_uris":{"android":"levelo://app?vid=b34c6303-752a-46a1-93ad-ddbc991e20b6","ios":"levelo://app?vid=b34c6303-752a-46a1-93ad-ddbc991e20b6"},"vehicle_type_id":"4","last_reported":1739603257,"current_range_meters":38000,"station_id":"cpo3342slgdg3j2ifvpg","pricing_plan_id":"cebpf4jnsgd1na2vs0mg"},{"bike_id":"5557cf88-c9b4-477c-9a10-d8d0753e4d48","system_id":"levelo_inurba_marseille","lat":43.27991,"lon":5.40015,"is_reserved":false,"is_disabled":false,"rental_uris":{"android":"levelo://app?vid=5557cf88-c9b4-477c-9a10-d8d0753e4d48","ios":"levelo://app?vid=5557cf88-c9b4-477c-9a10-d8d0753e4d48"},"vehicle_type_id":"4","last_reported":1739603257,"current_range_meters":28000,"station_id":"ce4bho92rcd13ifvqh4g","pricing_plan_id":"cebpf4jnsgd1na2vs0mg"},{"bike_id":"78d173ae-b715-496b-84c7-0dad149a44f3","system_id":"levelo_inurba_marseille","lat":43.29241,"lon":5.4093,"is_reserved":false,"is_disabled":false,"rental_uris":{"android":"levelo://app?vid=78d173ae-b715-496b-84c7-0dad149a44f3","ios":"levelo://app?vid=78d173ae-b715-496b-84c7-0dad149a44f3"},"vehicle_type_id":"4","last_reported":1739603257,"current_range_meters":38800,"station_id":"ce4bh192rcd13ifvqdc0","pricing_plan_id":"cebpf4jnsgd1na2vs0mg"},{"bike_id":"be919b5b-24b9-4055-ab03-4359fa0ee752","system_id":"levelo_inurba_marseille","lat":43.29026,"lon":5.38642,"is_reserved":false,"is_disabled":false,"rental_uris":{"android":"levelo://app?vid=be919b5b-24b9-4055-ab03-4359fa0ee752","ios":"levelo://app?vid=be919b5b-24b9-4055-ab03-4359fa0ee752"},"vehicle_type_id":"4","last_reported":1739603257,"current_range_meters":38000,"station_id":"ce4bh4p2rcd13ifvqe0g","pricing_plan_id":"cebpf4jnsgd1na2vs0mg"},{"bike_id":"1300f95a-15ad-4299-a221-177495e93e42","system_id":"levelo_inurba_marseille","lat":43.32653,"lon":5.40984,"is_reserved":false,"is_disabled":false,"rental_uris":{"android":"levelo://app?vid=1300f95a-15ad-4299-a221-177495e93e42","ios":"levelo://app?vid=1300f95a-15ad-4299-a221-177495e93e42"},"vehicle_type_id":"4","last_reported":1739603257,"current_range_meters":24000,"station_id":"ce4bhpp2rcd13ifvqhgg","pricing_plan_id":"cebpf4jnsgd1na2vs0mg"},{"bike_id":"0f7993d0-1d95-4387-96fe-a2c80128079f","system_id":"levelo_inurba_marseille","lat":43.30451,"lon":5.37903,"is_reserved":false,"is_disabled":false,"rental_uris":{"android":"levelo://app?vid=0f7993d0-1d95-4387-96fe-a2c80128079f","ios":"levelo://app?vid=0f7993d0-1d95-4387-96fe-a2c80128079f"},"vehicle_type_id":"4","last_reported":1739603257,"current_range_meters":18800,"station_id":"ce4bgup2rcd13ifvqcn0","pricing_plan_id":"cebpf4jnsgd1na2vs0mg"},{"bike_id":"db0c59a5-e36c-460d-a199-b553cfb8a418","system_id":"levelo_inurba_marseille","lat":43.28363,"lon":5.42972,"is_reserved":false,"is_disabled":false,"rental_uris":{"android":"levelo://app?vid=db0c59a5-e36c-460d-a199-b553cfb8a418","ios":"levelo://app?vid=db0c59a5-e36c-460d-a199-b553cfb8a418"},"vehicle_type_id":"4","last_reported":1739603257,"current_range_meters":22800,"station_id":"","pricing_plan_id":"cebpf4jnsgd1na2vs0mg"},{"bike_id":"ab5a4876-a304-42c5-b5c2-54299646e2f8","system_id":"levelo_inurba_marseille","lat":43.3068,"lon":5.4051,"is_reserved":false,"is_disabled":false,"rental_uris":{"android":"levelo://app?vid=ab5a4876-a304-42c5-b5c2-54299646e2f8","ios":"levelo://app?vid=ab5a4876-a304-42c5-b5c2-54299646e2f8"},"vehicle_type_id":"4","last_reported":1739603257,"current_range_meters":17200,"station_id":"","pricing_plan_id":"cebpf4jnsgd1na2vs0mg"},{"bike_id":"13475279-2ac4-4a8e-ba61-f31e11838811","system_id":"levelo_inurba_marseille","lat":43.302456,"lon":5.400603,"is_reserved":false,"is_disabled":false,"rental_uris":{"android":"levelo://app?vid=13475279-2ac4-4a8e-ba61-f31e11838811","ios":"levelo://app?vid=13475279-2ac4-4a8e-ba61-f31e11838811"},"vehicle_type_id":"4","last_reported":1739603257,"current_range_meters":30800,"station_id":"ce4bgvh2rcd13ifvqcs0","pricing_plan_id":"cebpf4jnsgd1na2vs0mg"},{"bike_id":"7d8530f2-44ab-44c8-bb4a-721879476948","system_id":"levelo_inurba_marseille","lat":43.315,"lon":5.37289,"is_reserved":false,"is_disabled":false,"rental_uris":{"android":"levelo://app?vid=7d8530f2-44ab-44c8-bb4a-721879476948","ios":"levelo://app?vid=7d8530f2-44ab-44c8-bb4a-721879476948"},"vehicle_type_id":"4","last_reported":1739603257,"current_range_meters":38000,"station_id":"ce4bgt12rcd13ifvqcd0","pricing_plan_id":"cebpf4jnsgd1na2vs0mg"},{"bike_id":"d430bbf5-dcb4-4006-8220-7af0587abbc5","system_id":"levelo_inurba_marseille","lat":43.2505,"lon":5.39538,"is_reserved":false,"is_disabled":false,"rental_uris":{"android":"levelo://app?vid=d430bbf5-dcb4-4006-8220-7af0587abbc5","ios":"levelo://app?vid=d430bbf5-dcb4-4006-8220-7af0587abbc5"},"vehicle_type_id":"4","last_reported":1739603257,"current_range_meters":38800,"station_id":"ce4bhm12rcd13ifvqgkg","pricing_plan_id":"cebpf4jnsgd1na2vs0mg"},{"bike_id":"2bc98702-1f60-476f-856f-79768c02d28f","system_id":"levelo_inurba_marseille","lat":43.29422,"lon":5.39748,"is_reserved":false,"is_disabled":false,"rental_uris":{"android":"levelo://app?vid=2bc98702-1f60-476f-856f-79768c02d28f","ios":"levelo://app?vid=2bc98702-1f60-476f-856f-79768c02d28f"},"vehicle_type_id":"4","last_reported":1739603257,"current_range_meters":38800,"station_id":"ce4bh3h2rcd13ifvqdo0","pricing_plan_id":"cebpf4jnsgd1na2vs0mg"},{"bike_id":"5ac1b3e9-6624-4bab-a598-45ab544a1b2f","system_id":"levelo_inurba_marseille","lat":43.26687,"lon":5.38327,"is_reserved":false,"is_disabled":false,"rental_uris":{"android":"levelo://app?vid=5ac1b3e9-6624-4bab-a598-45ab544a1b2f","ios":"levelo://app?vid=5ac1b3e9-6624-4bab-a598-45ab544a1b2f"},"vehicle_type_id":"4","last_reported":1739603257,"current_range_meters":6400,"station_id":"ce4bhg92rcd13ifvqf90","pricing_plan_id":"cebpf4jnsgd1na2vs0mg"},{"bike_id":"a2b8b535-68ab-48b4-8f05-9e1a3fd245cc","system_id":"levelo_inurba_marseille","lat":43.317548,"lon":5.390204,"is_reserved":false,"is_disabled":false,"rental_uris":{"android":"levelo://app?vid=a2b8b535-68ab-48b4-8f05-9e1a3fd245cc","ios":"levelo://app?vid=a2b8b535-68ab-48b4-8f05-9e1a3fd245cc"},"vehicle_type_id":"4","last_reported":1739603257,"current_range_meters":33200,"station_id":"ce4bhqp2rcd13ifvqhng","pricing_plan_id":"cebpf4jnsgd1na2vs0mg"},{"bike_id":"6efd9de7-fb29-4972-be54-1e784b49d1b0","system_id":"levelo_inurba_marseille","lat":43.248131,"lon":5.374634,"is_reserved":false,"is_disabled":false,"rental_uris":{"android":"levelo://app?vid=6efd9de7-fb29-4972-be54-1e784b49d1b0","ios":"levelo://app?vid=6efd9de7-fb29-4972-be54-1e784b49d1b0"},"vehicle_type_id":"4","last_reported":1739603257,"current_range_meters":34000,"station_id":"ce4bhgh2rcd13ifvqfb0","pricing_plan_id":"cebpf4jnsgd1na2vs0mg"},{"bike_id":"1f0657bb-7196-41de-84fc-c834bbf90b28","system_id":"levelo_inurba_marseille","lat":43.28068,"lon":5.39658,"is_reserved":false,"is_disabled":false,"rental_uris":{"android":"levelo://app?vid=1f0657bb-7196-41de-84fc-c834bbf90b28","ios":"levelo://app?vid=1f0657bb-7196-41de-84fc-c834bbf90b28"},"vehicle_type_id":"4","last_reported":1739603257,"current_range_meters":36800,"station_id":"ce4bho12rcd13ifvqh2g","pricing_plan_id":"cebpf4jnsgd1na2vs0mg"},{"bike_id":"4b41d80b-d642-4b62-a698-734c486ab959","system_id":"levelo_inurba_marseille","lat":43.29893,"lon":5.38157,"is_reserved":false,"is_disabled":false,"rental_uris":{"android":"levelo://app?vid=4b41d80b-d642-4b62-a698-734c486ab959","ios":"levelo://app?vid=4b41d80b-d642-4b62-a698-734c486ab959"},"vehicle_type_id":"4","last_reported":1739603257,"current_range_meters":24000,"station_id":"ce4bgj12rcd13ifvqbc0","pricing_plan_id":"cebpf4jnsgd1na2vs0mg"},{"bike_id":"cc52dec1-67b6-4c07-b07c-19c77250a425","system_id":"levelo_inurba_marseille","lat":43.31335,"lon":5.39699,"is_reserved":false,"is_disabled":false,"rental_uris":{"android":"levelo://app?vid=cc52dec1-67b6-4c07-b07c-19c77250a425","ios":"levelo://app?vid=cc52dec1-67b6-4c07-b07c-19c77250a425"},"vehicle_type_id":"4","last_reported":1739603257,"current_range_meters":38800,"station_id":"ce4bgvp2rcd13ifvqcu0","pricing_plan_id":"cebpf4jnsgd1na2vs0mg"},{"bike_id":"04826741-9203-41a1-85e6-32051bcfd227","system_id":"levelo_inurba_marseille","lat":43.24814,"lon":5.37464,"is_reserved":false,"is_disabled":true,"rental_uris":{"android":"levelo://app?vid=04826741-9203-41a1-85e6-32051bcfd227","ios":"levelo://app?vid=04826741-9203-41a1-85e6-32051bcfd227"},"vehicle_type_id":"4","last_reported":1739603257,"current_range_meters":1600,"station_id":"ce4bhgh2rcd13ifvqfb0","pricing_plan_id":"cebpf4jnsgd1na2vs0mg"},{"bike_id":"179c65d4-e637-43fd-ba13-7b8d408dfcda","system_id":"levelo_inurba_marseille","lat":43.29564,"lon":5.42255,"is_reserved":false,"is_disabled":false,"rental_uris":{"android":"levelo://app?vid=179c65d4-e637-43fd-ba13-7b8d408dfcda","ios":"levelo://app?vid=179c65d4-e637-43fd-ba13-7b8d408dfcda"},"vehicle_type_id":"4","last_reported":1739603257,"current_range_meters":18800,"station_id":"ce4bhph2rcd13ifvqhdg","pricing_plan_id":"cebpf4jnsgd1na2vs0mg"},{"bike_id":"d9d039e9-95b6-4e20-817d-1c241a2e3b8a","system_id":"levelo_inurba_marseille","lat":43.3471,"lon":5.37318,"is_reserved":false,"is_disabled":false,"rental_uris":{"android":"levelo://app?vid=d9d039e9-95b6-4e20-817d-1c241a2e3b8a","ios":"levelo://app?vid=d9d039e9-95b6-4e20-817d-1c241a2e3b8a"},"vehicle_type_id":"4","last_reported":1739603257,"current_range_meters":27600,"station_id":"","pricing_plan_id":"cebpf4jnsgd1na2vs0mg"},{"bike_id":"7a2aa0ae-fdf7-4793-9ccf-dca69e169d96","system_id":"levelo_inurba_marseille","lat":43.2925,"lon":5.40908,"is_reserved":false,"is_disabled":false,"rental_uris":{"android":"levelo://app?vid=7a2aa0ae-fdf7-4793-9ccf-dca69e169d96","ios":"levelo://app?vid=7a2aa0ae-fdf7-4793-9ccf-dca69e169d96"},"vehicle_type_id":"4","last_reported":1739603257,"current_range_meters":38800,"station_id":"ce4bh192rcd13ifvqdc0","pricing_plan_id":"cebpf4jnsgd1na2vs0mg"},{"bike_id":"97708c38-52e6-4f5f-9662-cb7bef18df90","system_id":"levelo_inurba_marseille","lat":43.30641,"lon":5.40078,"is_reserved":false,"is_disabled":false,"rental_uris":{"android":"levelo://app?vid=97708c38-52e6-4f5f-9662-cb7bef18df90","ios":"levelo://app?vid=97708c38-52e6-4f5f-9662-cb7bef18df90"},"vehicle_type_id":"4","last_reported":1739603257,"current_range_meters":32800,"station_id":"ce4bh112rcd13ifvqda0","pricing_plan_id":"cebpf4jnsgd1na2vs0mg"},{"bike_id":"e442d07b-cb2a-4a21-81d2-6ff93e19ee71","system_id":"levelo_inurba_marseille","lat":43.29536,"lon":5.39414,"is_reserved":false,"is_disabled":false,"rental_uris":{"android":"levelo://app?vid=e442d07b-cb2a-4a21-81d2-6ff93e19ee71","ios":"levelo://app?vid=e442d07b-cb2a-4a21-81d2-6ff93e19ee71"},"vehicle_type_id":"4","last_reported":1739603257,"current_range_meters":38000,"station_id":"ce4bh292rcd13ifvqdf0","pricing_plan_id":"cebpf4jnsgd1na2vs0mg"},{"bike_id":"ce50de91-d2b1-46f5-b3a9-a90deec7008f","system_id":"levelo_inurba_marseille","lat":43.28946,"lon":5.39635,"is_reserved":false,"is_disabled":true,"rental_uris":{"android":"levelo://app?vid=ce50de91-d2b1-46f5-b3a9-a90deec7008f","ios":"levelo://app?vid=ce50de91-d2b1-46f5-b3a9-a90deec7008f"},"vehicle_type_id":"4","last_reported":1739603257,"current_range_meters":16800,"station_id":"ce4bh3h2rcd13ifvqdn0","pricing_plan_id":"cebpf4jnsgd1na2vs0mg"},{"bike_id":"f92e748a-9f9b-4e54-8084-07e33515f3d5","system_id":"levelo_inurba_marseille","lat":43.27072,"lon":5.39325,"is_reserved":false,"is_disabled":true,"rental_uris":{"android":"levelo://app?vid=f92e748a-9f9b-4e54-8084-07e33515f3d5","ios":"levelo://app?vid=f92e748a-9f9b-4e54-8084-07e33515f3d5"},"vehicle_type_id":"4","last_reported":1739603257,"current_range_meters":0,"station_id":"","pricing_plan_id":"cebpf4jnsgd1na2vs0mg"},{"bike_id":"ce4127ed-14ba-47ba-8a90-81368fbd5bf4","system_id":"levelo_inurba_marseille","lat":43.30927,"lon":5.40137,"is_reserved":false,"is_disabled":false,"rental_uris":{"android":"levelo://app?vid=ce4127ed-14ba-47ba-8a90-81368fbd5bf4","ios":"levelo://app?vid=ce4127ed-14ba-47ba-8a90-81368fbd5bf4"},"vehicle_type_id":"4","last_reported":1739603257,"current_range_meters":30800,"station_id":"ce4bgvp2rcd13ifvqct0","pricing_plan_id":"cebpf4jnsgd1na2vs0mg"},{"bike_id":"704ec19d-e7c0-4858-a423-dcfa560220a5","system_id":"levelo_inurba_marseille","lat":43.23193,"lon":5.39995,"is_reserved":false,"is_disabled":false,"rental_uris":{"android":"levelo://app?vid=704ec19d-e7c0-4858-a423-dcfa560220a5","ios":"levelo://app?vid=704ec19d-e7c0-4858-a423-dcfa560220a5"},"vehicle_type_id":"4","last_reported":1739603257,"current_range_meters":30400,"station_id":"ce4bhn12rcd13ifvqgqg","pricing_plan_id":"cebpf4jnsgd1na2vs0mg"},{"bike_id":"2e0d4b9a-173f-48bf-aeee-cdbbe6dbe006","system_id":"levelo_inurba_marseille","lat":43.2844,"lon":5.35882,"is_reserved":false,"is_disabled":false,"rental_uris":{"android":"levelo://app?vid=2e0d4b9a-173f-48bf-aeee-cdbbe6dbe006","ios":"levelo://app?vid=2e0d4b9a-173f-48bf-aeee-cdbbe6dbe006"},"vehicle_type_id":"4","last_reported":1739603257,"current_range_meters":25600,"station_id":"ce4bhah2rcd13ifvqei0","pricing_plan_id":"cebpf4jnsgd1na2vs0mg"},{"bike_id":"f5740bba-e5c4-4dc5-b2ce-7702862e246d","system_id":"levelo_inurba_marseille","lat":43.28448,"lon":5.35863,"is_reserved":false,"is_disabled":false,"rental_uris":{"android":"levelo://app?vid=f5740bba-e5c4-4dc5-b2ce-7702862e246d","ios":"levelo://app?vid=f5740bba-e5c4-4dc5-b2ce-7702862e246d"},"vehicle_type_id":"4","last_reported":1739603257,"current_range_meters":20000,"station_id":"ce4bhah2rcd13ifvqei0","pricing_plan_id":"cebpf4jnsgd1na2vs0mg"},{"bike_id":"87ba58c2-e5ae-4e89-93b9-7d837886ab41","system_id":"levelo_inurba_marseille","lat":43.28403,"lon":5.37526,"is_reserved":false,"is_disabled":false,"rental_uris":{"android":"levelo://app?vid=87ba58c2-e5ae-4e89-93b9-7d837886ab41","ios":"levelo://app?vid=87ba58c2-e5ae-4e89-93b9-7d837886ab41"},"vehicle_type_id":"4","last_reported":1739603257,"current_range_meters":30400,"station_id":"ce4bh412rcd13ifvqds0","pricing_plan_id":"cebpf4jnsgd1na2vs0mg"},{"bike_id":"1083fbef-444c-4226-8dc5-ce1779211f00","system_id":"levelo_inurba_marseille","lat":43.30617,"lon":5.40073,"is_reserved":false,"is_disabled":false,"rental_uris":{"android":"levelo://app?vid=1083fbef-444c-4226-8dc5-ce1779211f00","ios":"levelo://app?vid=1083fbef-444c-4226-8dc5-ce1779211f00"},"vehicle_type_id":"4","last_reported":1739603257,"current_range_meters":32000,"station_id":"ce4bh112rcd13ifvqda0","pricing_plan_id":"cebpf4jnsgd1na2vs0mg"},{"bike_id":"9cf8e6d9-67b8-441b-8ab4-08ef8560d2b0","system_id":"levelo_inurba_marseille","lat":43.33514,"lon":5.35585,"is_reserved":false,"is_disabled":true,"rental_uris":{"android":"levelo://app?vid=9cf8e6d9-67b8-441b-8ab4-08ef8560d2b0","ios":"levelo://app?vid=9cf8e6d9-67b8-441b-8ab4-08ef8560d2b0"},"vehicle_type_id":"4","last_reported":1739603257,"current_range_meters":0,"station_id":"","pricing_plan_id":"cebpf4jnsgd1na2vs0mg"},{"bike_id":"8c0043c5-0ee5-4c77-a687-c82057fa805c","system_id":"levelo_inurba_marseille","lat":43.27986,"lon":5.40027,"is_reserved":false,"is_disabled":false,"rental_uris":{"android":"levelo://app?vid=8c0043c5-0ee5-4c77-a687-c82057fa805c","ios":"levelo://app?vid=8c0043c5-0ee5-4c77-a687-c82057fa805c"},"vehicle_type_id":"4","last_reported":1739603257,"current_range_meters":37600,"station_id":"ce4bho92rcd13ifvqh4g","pricing_plan_id":"cebpf4jnsgd1na2vs0mg"},{"bike_id":"e8383a41-ab98-41de-8229-dcb769519e9e","system_id":"levelo_inurba_marseille","lat":43.279155,"lon":5.395795,"is_reserved":false,"is_disabled":false,"rental_uris":{"android":"levelo://app?vid=e8383a41-ab98-41de-8229-dcb769519e9e","ios":"levelo://app?vid=e8383a41-ab98-41de-8229-dcb769519e9e"},"vehicle_type_id":"4","last_reported":1739603257,"current_range_meters":16400,"station_id":"ce4bhf92rcd13ifvqf40","pricing_plan_id":"cebpf4jnsgd1na2vs0mg"},{"bike_id":"6279f888-1d4b-4ebb-b3f2-c7248902b00f","system_id":"levelo_inurba_marseille","lat":43.25478,"lon":5.37653,"is_reserved":false,"is_disabled":false,"rental_uris":{"android":"levelo://app?vid=6279f888-1d4b-4ebb-b3f2-c7248902b00f","ios":"levelo://app?vid=6279f888-1d4b-4ebb-b3f2-c7248902b00f"},"vehicle_type_id":"4","last_reported":1739603257,"current_range_meters":13600,"station_id":"ce4bhh12rcd13ifvqff0","pricing_plan_id":"cebpf4jnsgd1na2vs0mg"},{"bike_id":"f9bcb86f-a6a3-429a-aba1-be70725b70c3","system_id":"levelo_inurba_marseille","lat":43.30409,"lon":5.41296,"is_reserved":false,"is_disabled":false,"rental_uris":{"android":"levelo://app?vid=f9bcb86f-a6a3-429a-aba1-be70725b70c3","ios":"levelo://app?vid=f9bcb86f-a6a3-429a-aba1-be70725b70c3"},"vehicle_type_id":"4","last_reported":1739603257,"current_range_meters":38800,"station_id":"ce4bhop2rcd13ifvqh8g","pricing_plan_id":"cebpf4jnsgd1na2vs0mg"},{"bike_id":"811b63d6-9c3c-4b06-849e-3b400f65e795","system_id":"levelo_inurba_marseille","lat":43.24654,"lon":5.38875,"is_reserved":false,"is_disabled":false,"rental_uris":{"android":"levelo://app?vid=811b63d6-9c3c-4b06-849e-3b400f65e795","ios":"levelo://app?vid=811b63d6-9c3c-4b06-849e-3b400f65e795"},"vehicle_type_id":"4","last_reported":1739603257,"current_range_meters":11200,"station_id":"ce4bhg12rcd13ifvqf60","pricing_plan_id":"cebpf4jnsgd1na2vs0mg"},{"bike_id":"e8e0bf5e-e649-40fe-b843-877cd938ff9e","system_id":"levelo_inurba_marseille","lat":43.27501,"lon":5.42477,"is_reserved":false,"is_disabled":false,"rental_uris":{"android":"levelo://app?vid=e8e0bf5e-e649-40fe-b843-877cd938ff9e","ios":"levelo://app?vid=e8e0bf5e-e649-40fe-b843-877cd938ff9e"},"vehicle_type_id":"4","last_reported":1739603257,"current_range_meters":38400,"station_id":"ce4bhn92rcd13ifvqgrg","pricing_plan_id":"cebpf4jnsgd1na2vs0mg"},{"bike_id":"3fd62a00-4402-49e6-85db-3204ba0b820d","system_id":"levelo_inurba_marseille","lat":43.30422,"lon":5.39749,"is_reserved":false,"is_disabled":false,"rental_uris":{"android":"levelo://app?vid=3fd62a00-4402-49e6-85db-3204ba0b820d","ios":"levelo://app?vid=3fd62a00-4402-49e6-85db-3204ba0b820d"},"vehicle_type_id":"4","last_reported":1739603257,"current_range_meters":15200,"station_id":"ce4bh092rcd13ifvqd20","pricing_plan_id":"cebpf4jnsgd1na2vs0mg"},{"bike_id":"30c17d1c-05b7-4e08-99da-ed8ff80fd970","system_id":"levelo_inurba_marseille","lat":43.30947,"lon":5.39045,"is_reserved":false,"is_disabled":true,"rental_uris":{"android":"levelo://app?vid=30c17d1c-05b7-4e08-99da-ed8ff80fd970","ios":"levelo://app?vid=30c17d1c-05b7-4e08-99da-ed8ff80fd970"},"vehicle_type_id":"4","last_reported":1739603257,"current_range_meters":38400,"station_id":"ce4bgup2rcd13ifvqco0","pricing_plan_id":"cebpf4jnsgd1na2vs0mg"},{"bike_id":"86081e76-774c-4e24-8176-3b3c91d007e6","system_id":"levelo_inurba_marseille","lat":43.24064,"lon":5.37782,"is_reserved":false,"is_disabled":false,"rental_uris":{"android":"levelo://app?vid=86081e76-774c-4e24-8176-3b3c91d007e6","ios":"levelo://app?vid=86081e76-774c-4e24-8176-3b3c91d007e6"},"vehicle_type_id":"4","last_reported":1739603257,"current_range_meters":28400,"station_id":"ce4bhnp2rcd13ifvqgvg","pricing_plan_id":"cebpf4jnsgd1na2vs0mg"},{"bike_id":"51ab7186-5043-4bed-baca-73708608a302","system_id":"levelo_inurba_marseille","lat":43.29584,"lon":5.37026,"is_reserved":false,"is_disabled":true,"rental_uris":{"android":"levelo://app?vid=51ab7186-5043-4bed-baca-73708608a302","ios":"levelo://app?vid=51ab7186-5043-4bed-baca-73708608a302"},"vehicle_type_id":"4","last_reported":1739603257,"current_range_meters":0,"station_id":"","pricing_plan_id":"cebpf4jnsgd1na2vs0mg"},{"bike_id":"b1891c46-c846-4717-bbd5-0865fb242fc9","system_id":"levelo_inurba_marseille","lat":43.28357,"lon":5.381,"is_reserved":false,"is_disabled":false,"rental_uris":{"android":"levelo://app?vid=b1891c46-c846-4717-bbd5-0865fb242fc9","ios":"levelo://app?vid=b1891c46-c846-4717-bbd5-0865fb242fc9"},"vehicle_type_id":"4","last_reported":1739603257,"current_range_meters":38800,"station_id":"ce4bh412rcd13ifvqdr0","pricing_plan_id":"cebpf4jnsgd1na2vs0mg"},{"bike_id":"d3fc5f7e-9983-4343-a9af-f36df7d45f29","system_id":"levelo_inurba_marseille","lat":43.23181,"lon":5.39995,"is_reserved":false,"is_disabled":false,"rental_uris":{"android":"levelo://app?vid=d3fc5f7e-9983-4343-a9af-f36df7d45f29","ios":"levelo://app?vid=d3fc5f7e-9983-4343-a9af-f36df7d45f29"},"vehicle_type_id":"4","last_reported":1739603257,"current_range_meters":16000,"station_id":"ce4bhn12rcd13ifvqgqg","pricing_plan_id":"cebpf4jnsgd1na2vs0mg"},{"bike_id":"fba31fd9-7012-49b6-a783-f5ff41b0b47d","system_id":"levelo_inurba_marseille","lat":43.231869,"lon":5.39986,"is_reserved":false,"is_disabled":false,"rental_uris":{"android":"levelo://app?vid=fba31fd9-7012-49b6-a783-f5ff41b0b47d","ios":"levelo://app?vid=fba31fd9-7012-49b6-a783-f5ff41b0b47d"},"vehicle_type_id":"4","last_reported":1739603257,"current_range_meters":24400,"station_id":"ce4bhn12rcd13ifvqgqg","pricing_plan_id":"cebpf4jnsgd1na2vs0mg"},{"bike_id":"3726052c-435c-4e9a-97b4-6741247fd797","system_id":"levelo_inurba_marseille","lat":43.284178,"lon":5.349838,"is_reserved":false,"is_disabled":false,"rental_uris":{"android":"levelo://app?vid=3726052c-435c-4e9a-97b4-6741247fd797","ios":"levelo://app?vid=3726052c-435c-4e9a-97b4-6741247fd797"},"vehicle_type_id":"4","last_reported":1739603257,"current_range_meters":29600,"station_id":"ce4bhbh2rcd13ifvqepg","pricing_plan_id":"cebpf4jnsgd1na2vs0mg"},{"bike_id":"635450e7-7bbd-4225-8704-989f96e65061","system_id":"levelo_inurba_marseille","lat":43.27491,"lon":5.42453,"is_reserved":false,"is_disabled":false,"rental_uris":{"android":"levelo://app?vid=635450e7-7bbd-4225-8704-989f96e65061","ios":"levelo://app?vid=635450e7-7bbd-4225-8704-989f96e65061"},"vehicle_type_id":"4","last_reported":1739603257,"current_range_meters":38800,"station_id":"ce4bhn92rcd13ifvqgrg","pricing_plan_id":"cebpf4jnsgd1na2vs0mg"},{"bike_id":"6243740b-900c-49eb-ab60-bae0a6738da4","system_id":"levelo_inurba_marseille","lat":43.28448,"lon":5.35896,"is_reserved":false,"is_disabled":false,"rental_uris":{"android":"levelo://app?vid=6243740b-900c-49eb-ab60-bae0a6738da4","ios":"levelo://app?vid=6243740b-900c-49eb-ab60-bae0a6738da4"},"vehicle_type_id":"4","last_reported":1739603257,"current_range_meters":38800,"station_id":"ce4bhah2rcd13ifvqei0","pricing_plan_id":"cebpf4jnsgd1na2vs0mg"},{"bike_id":"5fbe50a8-885b-4657-b77c-df4181249707","system_id":"levelo_inurba_marseille","lat":43.300808,"lon":5.404918,"is_reserved":false,"is_disabled":false,"rental_uris":{"android":"levelo://app?vid=5fbe50a8-885b-4657-b77c-df4181249707","ios":"levelo://app?vid=5fbe50a8-885b-4657-b77c-df4181249707"},"vehicle_type_id":"4","last_reported":1739603257,"current_range_meters":35200,"station_id":"","pricing_plan_id":"cebpf4jnsgd1na2vs0mg"},{"bike_id":"c40e2cb9-b89c-4dbd-956b-535ef79f1d37","system_id":"levelo_inurba_marseille","lat":43.24807,"lon":5.37464,"is_reserved":false,"is_disabled":false,"rental_uris":{"android":"levelo://app?vid=c40e2cb9-b89c-4dbd-956b-535ef79f1d37","ios":"levelo://app?vid=c40e2cb9-b89c-4dbd-956b-535ef79f1d37"},"vehicle_type_id":"4","last_reported":1739603257,"current_range_meters":24800,"station_id":"ce4bhgh2rcd13ifvqfb0","pricing_plan_id":"cebpf4jnsgd1na2vs0mg"},{"bike_id":"6d14ffd0-8cb0-40f3-8b6f-5b79b4098bae","system_id":"levelo_inurba_marseille","lat":43.28111,"lon":5.37831,"is_reserved":false,"is_disabled":false,"rental_uris":{"android":"levelo://app?vid=6d14ffd0-8cb0-40f3-8b6f-5b79b4098bae","ios":"levelo://app?vid=6d14ffd0-8cb0-40f3-8b6f-5b79b4098bae"},"vehicle_type_id":"4","last_reported":1739603257,"current_range_meters":32800,"station_id":"ce4bha12rcd13ifvqee0","pricing_plan_id":"cebpf4jnsgd1na2vs0mg"},{"bike_id":"333946c8-1518-4495-85da-e9172c26eb3f","system_id":"levelo_inurba_marseille","lat":43.28704,"lon":5.37418,"is_reserved":false,"is_disabled":false,"rental_uris":{"android":"levelo://app?vid=333946c8-1518-4495-85da-e9172c26eb3f","ios":"levelo://app?vid=333946c8-1518-4495-85da-e9172c26eb3f"},"vehicle_type_id":"4","last_reported":1739603257,"current_range_meters":39200,"station_id":"ce4bh3p2rcd13ifvqdq0","pricing_plan_id":"cebpf4jnsgd1na2vs0mg"},{"bike_id":"4afd05b5-41e1-4012-b907-304d88773920","system_id":"levelo_inurba_marseille","lat":43.239653,"lon":5.366309,"is_reserved":false,"is_disabled":true,"rental_uris":{"android":"levelo://app?vid=4afd05b5-41e1-4012-b907-304d88773920","ios":"levelo://app?vid=4afd05b5-41e1-4012-b907-304d88773920"},"vehicle_type_id":"4","last_reported":1739603257,"current_range_meters":1200,"station_id":"ce4bhi12rcd13ifvqfp0","pricing_plan_id":"cebpf4jnsgd1na2vs0mg"},{"bike_id":"6a2d6081-0a9b-4543-ac67-e0c6fd3a81c4","system_id":"levelo_inurba_marseille","lat":43.30298,"lon":5.39212,"is_reserved":false,"is_disabled":false,"rental_uris":{"android":"levelo://app?vid=6a2d6081-0a9b-4543-ac67-e0c6fd3a81c4","ios":"levelo://app?vid=6a2d6081-0a9b-4543-ac67-e0c6fd3a81c4"},"vehicle_type_id":"4","last_reported":1739603257,"current_range_meters":30800,"station_id":"ce4bgkh2rcd13ifvqbk0","pricing_plan_id":"cebpf4jnsgd1na2vs0mg"},{"bike_id":"70d0ee94-3c6b-4ef7-a30e-56f3bbbab7f5","system_id":"levelo_inurba_marseille","lat":43.28424,"lon":5.39184,"is_reserved":false,"is_disabled":false,"rental_uris":{"android":"levelo://app?vid=70d0ee94-3c6b-4ef7-a30e-56f3bbbab7f5","ios":"levelo://app?vid=70d0ee94-3c6b-4ef7-a30e-56f3bbbab7f5"},"vehicle_type_id":"4","last_reported":1739603257,"current_range_meters":39200,"station_id":"ce4bhoh2rcd13ifvqh5g","pricing_plan_id":"cebpf4jnsgd1na2vs0mg"},{"bike_id":"c8c0516c-62b0-4cbf-88f8-60819aff6581","system_id":"levelo_inurba_marseille","lat":43.254935,"lon":5.37659,"is_reserved":false,"is_disabled":true,"rental_uris":{"android":"levelo://app?vid=c8c0516c-62b0-4cbf-88f8-60819aff6581","ios":"levelo://app?vid=c8c0516c-62b0-4cbf-88f8-60819aff6581"},"vehicle_type_id":"4","last_reported":1739603257,"current_range_meters":14000,"station_id":"ce4bhh12rcd13ifvqff0","pricing_plan_id":"cebpf4jnsgd1na2vs0mg"},{"bike_id":"057a9c52-565b-427e-ab22-725f474e175e","system_id":"levelo_inurba_marseille","lat":43.308867,"lon":5.396431,"is_reserved":false,"is_disabled":false,"rental_uris":{"android":"levelo://app?vid=057a9c52-565b-427e-ab22-725f474e175e","ios":"levelo://app?vid=057a9c52-565b-427e-ab22-725f474e175e"},"vehicle_type_id":"4","last_reported":1739603257,"current_range_meters":17600,"station_id":"ce4bh012rcd13ifvqcv0","pricing_plan_id":"cebpf4jnsgd1na2vs0mg"},{"bike_id":"2cadf683-8cc6-44bf-8154-0d992a35e7fe","system_id":"levelo_inurba_marseille","lat":43.3048,"lon":5.37927,"is_reserved":false,"is_disabled":false,"rental_uris":{"android":"levelo://app?vid=2cadf683-8cc6-44bf-8154-0d992a35e7fe","ios":"levelo://app?vid=2cadf683-8cc6-44bf-8154-0d992a35e7fe"},"vehicle_type_id":"4","last_reported":1739603257,"current_range_meters":32000,"station_id":"ce4bgup2rcd13ifvqcn0","pricing_plan_id":"cebpf4jnsgd1na2vs0mg"},{"bike_id":"2e8fc403-db89-4ec8-942c-727343aeca53","system_id":"levelo_inurba_marseille","lat":43.29009,"lon":5.35625,"is_reserved":false,"is_disabled":false,"rental_uris":{"android":"levelo://app?vid=2e8fc403-db89-4ec8-942c-727343aeca53","ios":"levelo://app?vid=2e8fc403-db89-4ec8-942c-727343aeca53"},"vehicle_type_id":"4","last_reported":1739603257,"current_range_meters":38800,"station_id":"ce4bhb92rcd13ifvqen0","pricing_plan_id":"cebpf4jnsgd1na2vs0mg"},{"bike_id":"8c10e28e-5b4c-4154-8179-6f2ee2ae6eb5","system_id":"levelo_inurba_marseille","lat":43.26202,"lon":5.37938,"is_reserved":false,"is_disabled":false,"rental_uris":{"android":"levelo://app?vid=8c10e28e-5b4c-4154-8179-6f2ee2ae6eb5","ios":"levelo://app?vid=8c10e28e-5b4c-4154-8179-6f2ee2ae6eb5"},"vehicle_type_id":"4","last_reported":1739603257,"current_range_meters":38800,"station_id":"ce4bhjp2rcd13ifvqg90","pricing_plan_id":"cebpf4jnsgd1na2vs0mg"},{"bike_id":"a631f734-4aa1-4ec4-bfa7-ef8429122ef0","system_id":"levelo_inurba_marseille","lat":43.257287,"lon":5.411115,"is_reserved":false,"is_disabled":false,"rental_uris":{"android":"levelo://app?vid=a631f734-4aa1-4ec4-bfa7-ef8429122ef0","ios":"levelo://app?vid=a631f734-4aa1-4ec4-bfa7-ef8429122ef0"},"vehicle_type_id":"4","last_reported":1739603257,"current_range_meters":19600,"station_id":"ce4bhkp2rcd13ifvqgd0","pricing_plan_id":"cebpf4jnsgd1na2vs0mg"},{"bike_id":"89d8b51e-5064-4e84-9871-088b604e6647","system_id":"levelo_inurba_marseille","lat":43.25093,"lon":5.39534,"is_reserved":false,"is_disabled":false,"rental_uris":{"android":"levelo://app?vid=89d8b51e-5064-4e84-9871-088b604e6647","ios":"levelo://app?vid=89d8b51e-5064-4e84-9871-088b604e6647"},"vehicle_type_id":"4","last_reported":1739603257,"current_range_meters":8400,"station_id":"ce4bhm12rcd13ifvqgkg","pricing_plan_id":"cebpf4jnsgd1na2vs0mg"},{"bike_id":"a70729f0-bf50-486d-acf1-77ab278c9efb","system_id":"levelo_inurba_marseille","lat":43.27439,"lon":5.41043,"is_reserved":false,"is_disabled":false,"rental_uris":{"android":"levelo://app?vid=a70729f0-bf50-486d-acf1-77ab278c9efb","ios":"levelo://app?vid=a70729f0-bf50-486d-acf1-77ab278c9efb"},"vehicle_type_id":"4","last_reported":1739603257,"current_range_meters":14000,"station_id":"","pricing_plan_id":"cebpf4jnsgd1na2vs0mg"},{"bike_id":"f2294962-01ce-46fd-8a11-979901195d1d","system_id":"levelo_inurba_marseille","lat":43.24657,"lon":5.3817,"is_reserved":false,"is_disabled":false,"rental_uris":{"android":"levelo://app?vid=f2294962-01ce-46fd-8a11-979901195d1d","ios":"levelo://app?vid=f2294962-01ce-46fd-8a11-979901195d1d"},"vehicle_type_id":"4","last_reported":1739603257,"current_range_meters":38000,"station_id":"ce4bhih2rcd13ifvqfr0","pricing_plan_id":"cebpf4jnsgd1na2vs0mg"},{"bike_id":"838d55fb-dd91-42c0-bd0a-19319617ddba","system_id":"levelo_inurba_marseille","lat":43.28159,"lon":5.42658,"is_reserved":false,"is_disabled":false,"rental_uris":{"android":"levelo://app?vid=838d55fb-dd91-42c0-bd0a-19319617ddba","ios":"levelo://app?vid=838d55fb-dd91-42c0-bd0a-19319617ddba"},"vehicle_type_id":"4","last_reported":1739603257,"current_range_meters":38800,"station_id":"ce4bhnh2rcd13ifvqgug","pricing_plan_id":"cebpf4jnsgd1na2vs0mg"},{"bike_id":"498115ff-d163-4924-9cc6-afa312fea580","system_id":"levelo_inurba_marseille","lat":43.29271,"lon":5.40133,"is_reserved":false,"is_disabled":false,"rental_uris":{"android":"levelo://app?vid=498115ff-d163-4924-9cc6-afa312fea580","ios":"levelo://app?vid=498115ff-d163-4924-9cc6-afa312fea580"},"vehicle_type_id":"4","last_reported":1739603257,"current_range_meters":23200,"station_id":"ce4bh312rcd13ifvqdk0","pricing_plan_id":"cebpf4jnsgd1na2vs0mg"},{"bike_id":"349c30d9-4762-44b0-afbd-63f63400b3dd","system_id":"levelo_inurba_marseille","lat":43.2835,"lon":5.3862,"is_reserved":false,"is_disabled":false,"rental_uris":{"android":"levelo://app?vid=349c30d9-4762-44b0-afbd-63f63400b3dd","ios":"levelo://app?vid=349c30d9-4762-44b0-afbd-63f63400b3dd"},"vehicle_type_id":"4","last_reported":1739603257,"current_range_meters":34800,"station_id":"ce4bh492rcd13ifvqdvg","pricing_plan_id":"cebpf4jnsgd1na2vs0mg"},{"bike_id":"f95c598b-73a5-4793-bd58-d5ddde21f497","system_id":"levelo_inurba_marseille","lat":43.28609,"lon":5.35115,"is_reserved":false,"is_disabled":false,"rental_uris":{"android":"levelo://app?vid=f95c598b-73a5-4793-bd58-d5ddde21f497","ios":"levelo://app?vid=f95c598b-73a5-4793-bd58-d5ddde21f497"},"vehicle_type_id":"4","last_reported":1739603257,"current_range_meters":16000,"station_id":"ce4bhch2rcd13ifvqeug","pricing_plan_id":"cebpf4jnsgd1na2vs0mg"},{"bike_id":"258f2806-7b6c-4de8-8a7d-3a791724ae3d","system_id":"levelo_inurba_marseille","lat":43.28004,"lon":5.41665,"is_reserved":false,"is_disabled":false,"rental_uris":{"android":"levelo://app?vid=258f2806-7b6c-4de8-8a7d-3a791724ae3d","ios":"levelo://app?vid=258f2806-7b6c-4de8-8a7d-3a791724ae3d"},"vehicle_type_id":"4","last_reported":1739603257,"current_range_meters":38800,"station_id":"ce4bho12rcd13ifvqh1g","pricing_plan_id":"cebpf4jnsgd1na2vs0mg"},{"bike_id":"15352163-cb8d-43a1-8232-3f4b9b7e5935","system_id":"levelo_inurba_marseille","lat":43.30138,"lon":5.38061,"is_reserved":false,"is_disabled":false,"rental_uris":{"android":"levelo://app?vid=15352163-cb8d-43a1-8232-3f4b9b7e5935","ios":"levelo://app?vid=15352163-cb8d-43a1-8232-3f4b9b7e5935"},"vehicle_type_id":"4","last_reported":1739603257,"current_range_meters":37600,"station_id":"ce4bgjp2rcd13ifvqbh0","pricing_plan_id":"cebpf4jnsgd1na2vs0mg"},{"bike_id":"78580374-70a8-4853-ac6b-e6acdbe16ef7","system_id":"levelo_inurba_marseille","lat":43.248116,"lon":5.374623,"is_reserved":false,"is_disabled":true,"rental_uris":{"android":"levelo://app?vid=78580374-70a8-4853-ac6b-e6acdbe16ef7","ios":"levelo://app?vid=78580374-70a8-4853-ac6b-e6acdbe16ef7"},"vehicle_type_id":"4","last_reported":1739603257,"current_range_meters":38000,"station_id":"ce4bhgh2rcd13ifvqfb0","pricing_plan_id":"cebpf4jnsgd1na2vs0mg"},{"bike_id":"db752bab-eca8-4e94-b02a-8ad1512b568d","system_id":"levelo_inurba_marseille","lat":43.28549,"lon":5.39505,"is_reserved":false,"is_disabled":false,"rental_uris":{"android":"levelo://app?vid=db752bab-eca8-4e94-b02a-8ad1512b568d","ios":"levelo://app?vid=db752bab-eca8-4e94-b02a-8ad1512b568d"},"vehicle_type_id":"4","last_reported":1739603257,"current_range_meters":38800,"station_id":"ce4bh292rcd13ifvqdg0","pricing_plan_id":"cebpf4jnsgd1na2vs0mg"},{"bike_id":"8d89262f-7bab-408f-b55c-fa5cc065d9cf","system_id":"levelo_inurba_marseille","lat":43.27813,"lon":5.39208,"is_reserved":false,"is_disabled":false,"rental_uris":{"android":"levelo://app?vid=8d89262f-7bab-408f-b55c-fa5cc065d9cf","ios":"levelo://app?vid=8d89262f-7bab-408f-b55c-fa5cc065d9cf"},"vehicle_type_id":"4","last_reported":1739603257,"current_range_meters":38800,"station_id":"ce4bhjp2rcd13ifvqga0","pricing_plan_id":"cebpf4jnsgd1na2vs0mg"},{"bike_id":"c51e8a8c-2dd6-4e4e-982c-e2a03bb7ecf9","system_id":"levelo_inurba_marseille","lat":43.29228,"lon":5.36077,"is_reserved":false,"is_disabled":false,"rental_uris":{"android":"levelo://app?vid=c51e8a8c-2dd6-4e4e-982c-e2a03bb7ecf9","ios":"levelo://app?vid=c51e8a8c-2dd6-4e4e-982c-e2a03bb7ecf9"},"vehicle_type_id":"4","last_reported":1739603257,"current_range_meters":20800,"station_id":"ce4bhbh2rcd13ifvqeqg","pricing_plan_id":"cebpf4jnsgd1na2vs0mg"},{"bike_id":"c2a1a342-d679-4037-a27e-b2fb148f26d7","system_id":"levelo_inurba_marseille","lat":43.25585,"lon":5.3822,"is_reserved":false,"is_disabled":false,"rental_uris":{"android":"levelo://app?vid=c2a1a342-d679-4037-a27e-b2fb148f26d7","ios":"levelo://app?vid=c2a1a342-d679-4037-a27e-b2fb148f26d7"},"vehicle_type_id":"4","last_reported":1739603257,"current_range_meters":33600,"station_id":"ce4bhih2rcd13ifvqfs0","pricing_plan_id":"cebpf4jnsgd1na2vs0mg"},{"bike_id":"23849fcd-4bc4-44f6-8337-e9a9a16fe0e7","system_id":"levelo_inurba_marseille","lat":43.29744,"lon":5.47953,"is_reserved":false,"is_disabled":true,"rental_uris":{"android":"levelo://app?vid=23849fcd-4bc4-44f6-8337-e9a9a16fe0e7","ios":"levelo://app?vid=23849fcd-4bc4-44f6-8337-e9a9a16fe0e7"},"vehicle_type_id":"4","last_reported":1739603257,"current_range_meters":0,"station_id":"","pricing_plan_id":"cebpf4jnsgd1na2vs0mg"},{"bike_id":"fe413e03-56dd-476a-80ff-36fef019bea6","system_id":"levelo_inurba_marseille","lat":43.28657,"lon":5.36352,"is_reserved":false,"is_disabled":false,"rental_uris":{"android":"levelo://app?vid=fe413e03-56dd-476a-80ff-36fef019bea6","ios":"levelo://app?vid=fe413e03-56dd-476a-80ff-36fef019bea6"},"vehicle_type_id":"4","last_reported":1739603257,"current_range_meters":38800,"station_id":"ce4bhah2rcd13ifvqej0","pricing_plan_id":"cebpf4jnsgd1na2vs0mg"},{"bike_id":"39636760-e0f2-451a-8082-66e6f5a30cd1","system_id":"levelo_inurba_marseille","lat":43.28605,"lon":5.35115,"is_reserved":false,"is_disabled":false,"rental_uris":{"android":"levelo://app?vid=39636760-e0f2-451a-8082-66e6f5a30cd1","ios":"levelo://app?vid=39636760-e0f2-451a-8082-66e6f5a30cd1"},"vehicle_type_id":"4","last_reported":1739603257,"current_range_meters":35200,"station_id":"ce4bhch2rcd13ifvqeug","pricing_plan_id":"cebpf4jnsgd1na2vs0mg"},{"bike_id":"25a0020e-c454-4908-a019-edd94f18a655","system_id":"levelo_inurba_marseille","lat":43.31333,"lon":5.39711,"is_reserved":false,"is_disabled":false,"rental_uris":{"android":"levelo://app?vid=25a0020e-c454-4908-a019-edd94f18a655","ios":"levelo://app?vid=25a0020e-c454-4908-a019-edd94f18a655"},"vehicle_type_id":"4","last_reported":1739603257,"current_range_meters":27600,"station_id":"ce4bgvp2rcd13ifvqcu0","pricing_plan_id":"cebpf4jnsgd1na2vs0mg"},{"bike_id":"a2ece53b-2544-4fb6-88e7-11a8063bae1d","system_id":"levelo_inurba_marseille","lat":43.2509,"lon":5.39518,"is_reserved":false,"is_disabled":false,"rental_uris":{"android":"levelo://app?vid=a2ece53b-2544-4fb6-88e7-11a8063bae1d","ios":"levelo://app?vid=a2ece53b-2544-4fb6-88e7-11a8063bae1d"},"vehicle_type_id":"4","last_reported":1739603257,"current_range_meters":30000,"station_id":"ce4bhm12rcd13ifvqgkg","pricing_plan_id":"cebpf4jnsgd1na2vs0mg"},{"bike_id":"d1b7e7c3-d876-4585-aa93-a701646b8c19","system_id":"levelo_inurba_marseille","lat":43.23192,"lon":5.39996,"is_reserved":false,"is_disabled":false,"rental_uris":{"android":"levelo://app?vid=d1b7e7c3-d876-4585-aa93-a701646b8c19","ios":"levelo://app?vid=d1b7e7c3-d876-4585-aa93-a701646b8c19"},"vehicle_type_id":"4","last_reported":1739603257,"current_range_meters":30400,"station_id":"ce4bhn12rcd13ifvqgqg","pricing_plan_id":"cebpf4jnsgd1na2vs0mg"},{"bike_id":"dc4fc55f-0ea9-49a1-bb39-4722eda2c2cd","system_id":"levelo_inurba_marseille","lat":43.29932,"lon":5.37664,"is_reserved":false,"is_disabled":false,"rental_uris":{"android":"levelo://app?vid=dc4fc55f-0ea9-49a1-bb39-4722eda2c2cd","ios":"levelo://app?vid=dc4fc55f-0ea9-49a1-bb39-4722eda2c2cd"},"vehicle_type_id":"4","last_reported":1739603257,"current_range_meters":18800,"station_id":"","pricing_plan_id":"cebpf4jnsgd1na2vs0mg"},{"bike_id":"151b4b94-201a-42b7-9cd0-0a3bdd281af1","system_id":"levelo_inurba_marseille","lat":43.28415,"lon":5.34991,"is_reserved":false,"is_disabled":false,"rental_uris":{"android":"levelo://app?vid=151b4b94-201a-42b7-9cd0-0a3bdd281af1","ios":"levelo://app?vid=151b4b94-201a-42b7-9cd0-0a3bdd281af1"},"vehicle_type_id":"4","last_reported":1739603257,"current_range_meters":32800,"station_id":"ce4bhbh2rcd13ifvqepg","pricing_plan_id":"cebpf4jnsgd1na2vs0mg"},{"bike_id":"5e1c937e-b056-452f-bebf-7a43d441429f","system_id":"levelo_inurba_marseille","lat":43.30292,"lon":5.39216,"is_reserved":false,"is_disabled":false,"rental_uris":{"android":"levelo://app?vid=5e1c937e-b056-452f-bebf-7a43d441429f","ios":"levelo://app?vid=5e1c937e-b056-452f-bebf-7a43d441429f"},"vehicle_type_id":"4","last_reported":1739603257,"current_range_meters":36000,"station_id":"ce4bgkh2rcd13ifvqbk0","pricing_plan_id":"cebpf4jnsgd1na2vs0mg"},{"bike_id":"24584566-354f-40ca-814c-29b96ecb851c","system_id":"levelo_inurba_marseille","lat":43.28371,"lon":5.3863,"is_reserved":false,"is_disabled":false,"rental_uris":{"android":"levelo://app?vid=24584566-354f-40ca-814c-29b96ecb851c","ios":"levelo://app?vid=24584566-354f-40ca-814c-29b96ecb851c"},"vehicle_type_id":"4","last_reported":1739603257,"current_range_meters":34000,"station_id":"ce4bh492rcd13ifvqdvg","pricing_plan_id":"cebpf4jnsgd1na2vs0mg"},{"bike_id":"d2c98906-95e6-41f0-887e-addf55786d50","system_id":"levelo_inurba_marseille","lat":43.2794,"lon":5.41045,"is_reserved":false,"is_disabled":false,"rental_uris":{"android":"levelo://app?vid=d2c98906-95e6-41f0-887e-addf55786d50","ios":"levelo://app?vid=d2c98906-95e6-41f0-887e-addf55786d50"},"vehicle_type_id":"4","last_reported":1739603257,"current_range_meters":26000,"station_id":"ce4bhnp2rcd13ifvqh0g","pricing_plan_id":"cebpf4jnsgd1na2vs0mg"},{"bike_id":"1f388b23-ff75-4af4-ba17-51195a34c1ca","system_id":"levelo_inurba_marseille","lat":43.26206,"lon":5.40422,"is_reserved":false,"is_disabled":false,"rental_uris":{"android":"levelo://app?vid=1f388b23-ff75-4af4-ba17-51195a34c1ca","ios":"levelo://app?vid=1f388b23-ff75-4af4-ba17-51195a34c1ca"},"vehicle_type_id":"4","last_reported":1739603257,"current_range_meters":25200,"station_id":"ce4bhmh2rcd13ifvqgmg","pricing_plan_id":"cebpf4jnsgd1na2vs0mg"},{"bike_id":"01d15b7b-93a5-43a8-a231-5d5c8bb6f6b9","system_id":"levelo_inurba_marseille","lat":43.27974,"lon":5.38753,"is_reserved":false,"is_disabled":false,"rental_uris":{"android":"levelo://app?vid=01d15b7b-93a5-43a8-a231-5d5c8bb6f6b9","ios":"levelo://app?vid=01d15b7b-93a5-43a8-a231-5d5c8bb6f6b9"},"vehicle_type_id":"4","last_reported":1739603257,"current_range_meters":33200,"station_id":"ce4bhg12rcd13ifvqf80","pricing_plan_id":"cebpf4jnsgd1na2vs0mg"},{"bike_id":"4ad51a02-f2dd-46e4-a406-ba69455ffee4","system_id":"levelo_inurba_marseille","lat":43.28011,"lon":5.40835,"is_reserved":false,"is_disabled":false,"rental_uris":{"android":"levelo://app?vid=4ad51a02-f2dd-46e4-a406-ba69455ffee4","ios":"levelo://app?vid=4ad51a02-f2dd-46e4-a406-ba69455ffee4"},"vehicle_type_id":"4","last_reported":1739603257,"current_range_meters":9200,"station_id":"","pricing_plan_id":"cebpf4jnsgd1na2vs0mg"},{"bike_id":"c4df4f16-0512-464a-a719-0bb1f3feadb0","system_id":"levelo_inurba_marseille","lat":43.32338,"lon":5.40633,"is_reserved":false,"is_disabled":false,"rental_uris":{"android":"levelo://app?vid=c4df4f16-0512-464a-a719-0bb1f3feadb0","ios":"levelo://app?vid=c4df4f16-0512-464a-a719-0bb1f3feadb0"},"vehicle_type_id":"4","last_reported":1739603257,"current_range_meters":20800,"station_id":"ce4bhq92rcd13ifvqhjg","pricing_plan_id":"cebpf4jnsgd1na2vs0mg"},{"bike_id":"4bbe5326-37a5-4de3-89cc-8f18f745514b","system_id":"levelo_inurba_marseille","lat":43.254933,"lon":5.376619,"is_reserved":false,"is_disabled":false,"rental_uris":{"android":"levelo://app?vid=4bbe5326-37a5-4de3-89cc-8f18f745514b","ios":"levelo://app?vid=4bbe5326-37a5-4de3-89cc-8f18f745514b"},"vehicle_type_id":"4","last_reported":1739603257,"current_range_meters":25600,"station_id":"ce4bhh12rcd13ifvqff0","pricing_plan_id":"cebpf4jnsgd1na2vs0mg"},{"bike_id":"10e3c495-23d5-417b-b809-a44799fdbd36","system_id":"levelo_inurba_marseille","lat":43.28686,"lon":5.40018,"is_reserved":false,"is_disabled":false,"rental_uris":{"android":"levelo://app?vid=10e3c495-23d5-417b-b809-a44799fdbd36","ios":"levelo://app?vid=10e3c495-23d5-417b-b809-a44799fdbd36"},"vehicle_type_id":"4","last_reported":1739603257,"current_range_meters":13600,"station_id":"ce4bho92rcd13ifvqh3g","pricing_plan_id":"cebpf4jnsgd1na2vs0mg"},{"bike_id":"3d703ccc-83e7-4013-824a-7eb6ae314e4b","system_id":"levelo_inurba_marseille","lat":43.308851,"lon":5.396314,"is_reserved":false,"is_disabled":false,"rental_uris":{"android":"levelo://app?vid=3d703ccc-83e7-4013-824a-7eb6ae314e4b","ios":"levelo://app?vid=3d703ccc-83e7-4013-824a-7eb6ae314e4b"},"vehicle_type_id":"4","last_reported":1739603257,"current_range_meters":17200,"station_id":"ce4bh012rcd13ifvqcv0","pricing_plan_id":"cebpf4jnsgd1na2vs0mg"},{"bike_id":"03eba1d0-92c1-4e6e-a4d0-7c546f2439c0","system_id":"levelo_inurba_marseille","lat":43.337444,"lon":5.374475,"is_reserved":false,"is_disabled":true,"rental_uris":{"android":"levelo://app?vid=03eba1d0-92c1-4e6e-a4d0-7c546f2439c0","ios":"levelo://app?vid=03eba1d0-92c1-4e6e-a4d0-7c546f2439c0"},"vehicle_type_id":"4","last_reported":1739603257,"current_range_meters":0,"station_id":"","pricing_plan_id":"cebpf4jnsgd1na2vs0mg"},{"bike_id":"3ce9ce58-7c99-4dbb-a109-d0a36243ebfb","system_id":"levelo_inurba_marseille","lat":43.28436,"lon":5.39179,"is_reserved":false,"is_disabled":true,"rental_uris":{"android":"levelo://app?vid=3ce9ce58-7c99-4dbb-a109-d0a36243ebfb","ios":"levelo://app?vid=3ce9ce58-7c99-4dbb-a109-d0a36243ebfb"},"vehicle_type_id":"4","last_reported":1739603257,"current_range_meters":33600,"station_id":"ce4bhoh2rcd13ifvqh5g","pricing_plan_id":"cebpf4jnsgd1na2vs0mg"},{"bike_id":"37d274bc-7488-45e2-be26-b72715489ecd","system_id":"levelo_inurba_marseille","lat":43.28449,"lon":5.39211,"is_reserved":false,"is_disabled":true,"rental_uris":{"android":"levelo://app?vid=37d274bc-7488-45e2-be26-b72715489ecd","ios":"levelo://app?vid=37d274bc-7488-45e2-be26-b72715489ecd"},"vehicle_type_id":"4","last_reported":1739603257,"current_range_meters":38000,"station_id":"ce4bhoh2rcd13ifvqh5g","pricing_plan_id":"cebpf4jnsgd1na2vs0mg"},{"bike_id":"8208b9be-b2fb-4d4a-9708-6254e17f01c5","system_id":"levelo_inurba_marseille","lat":43.25487,"lon":5.37666,"is_reserved":false,"is_disabled":false,"rental_uris":{"android":"levelo://app?vid=8208b9be-b2fb-4d4a-9708-6254e17f01c5","ios":"levelo://app?vid=8208b9be-b2fb-4d4a-9708-6254e17f01c5"},"vehicle_type_id":"4","last_reported":1739603257,"current_range_meters":34800,"station_id":"ce4bhh12rcd13ifvqff0","pricing_plan_id":"cebpf4jnsgd1na2vs0mg"},{"bike_id":"3441c353-b491-45c0-96a9-12ca432004ac","system_id":"levelo_inurba_marseille","lat":43.30295,"lon":5.39207,"is_reserved":false,"is_disabled":false,"rental_uris":{"android":"levelo://app?vid=3441c353-b491-45c0-96a9-12ca432004ac","ios":"levelo://app?vid=3441c353-b491-45c0-96a9-12ca432004ac"},"vehicle_type_id":"4","last_reported":1739603257,"current_range_meters":37600,"station_id":"ce4bgkh2rcd13ifvqbk0","pricing_plan_id":"cebpf4jnsgd1na2vs0mg"},{"bike_id":"6731b96d-efef-4717-971c-9529035bf9eb","system_id":"levelo_inurba_marseille","lat":43.32285,"lon":5.38265,"is_reserved":false,"is_disabled":false,"rental_uris":{"android":"levelo://app?vid=6731b96d-efef-4717-971c-9529035bf9eb","ios":"levelo://app?vid=6731b96d-efef-4717-971c-9529035bf9eb"},"vehicle_type_id":"4","last_reported":1739603257,"current_range_meters":37600,"station_id":"ce4bhr12rcd13ifvqhqg","pricing_plan_id":"cebpf4jnsgd1na2vs0mg"},{"bike_id":"5016e875-414a-41bd-8f00-6a5845e39ba6","system_id":"levelo_inurba_marseille","lat":43.30801,"lon":5.43534,"is_reserved":false,"is_disabled":false,"rental_uris":{"android":"levelo://app?vid=5016e875-414a-41bd-8f00-6a5845e39ba6","ios":"levelo://app?vid=5016e875-414a-41bd-8f00-6a5845e39ba6"},"vehicle_type_id":"4","last_reported":1739603257,"current_range_meters":30800,"station_id":"ce4bhph2rcd13ifvqheg","pricing_plan_id":"cebpf4jnsgd1na2vs0mg"},{"bike_id":"37de05d3-3a98-4c3b-897c-2111f276da6e","system_id":"levelo_inurba_marseille","lat":43.27495,"lon":5.42483,"is_reserved":false,"is_disabled":false,"rental_uris":{"android":"levelo://app?vid=37de05d3-3a98-4c3b-897c-2111f276da6e","ios":"levelo://app?vid=37de05d3-3a98-4c3b-897c-2111f276da6e"},"vehicle_type_id":"4","last_reported":1739603257,"current_range_meters":38800,"station_id":"ce4bhn92rcd13ifvqgrg","pricing_plan_id":"cebpf4jnsgd1na2vs0mg"},{"bike_id":"683dd2bd-1e81-48dd-a1eb-4b7a7378e30c","system_id":"levelo_inurba_marseille","lat":43.243947,"lon":5.37067,"is_reserved":false,"is_disabled":false,"rental_uris":{"android":"levelo://app?vid=683dd2bd-1e81-48dd-a1eb-4b7a7378e30c","ios":"levelo://app?vid=683dd2bd-1e81-48dd-a1eb-4b7a7378e30c"},"vehicle_type_id":"4","last_reported":1739603257,"current_range_meters":16000,"station_id":"ce4bhhh2rcd13ifvqfk0","pricing_plan_id":"cebpf4jnsgd1na2vs0mg"},{"bike_id":"533f137a-d5b2-43fb-baac-5970f9b2f485","system_id":"levelo_inurba_marseille","lat":43.31325,"lon":5.39703,"is_reserved":false,"is_disabled":false,"rental_uris":{"android":"levelo://app?vid=533f137a-d5b2-43fb-baac-5970f9b2f485","ios":"levelo://app?vid=533f137a-d5b2-43fb-baac-5970f9b2f485"},"vehicle_type_id":"4","last_reported":1739603257,"current_range_meters":32000,"station_id":"ce4bgvp2rcd13ifvqcu0","pricing_plan_id":"cebpf4jnsgd1na2vs0mg"},{"bike_id":"59766873-baf5-4ee6-8740-61d6b1b267c8","system_id":"levelo_inurba_marseille","lat":43.31342,"lon":5.39717,"is_reserved":false,"is_disabled":false,"rental_uris":{"android":"levelo://app?vid=59766873-baf5-4ee6-8740-61d6b1b267c8","ios":"levelo://app?vid=59766873-baf5-4ee6-8740-61d6b1b267c8"},"vehicle_type_id":"4","last_reported":1739603257,"current_range_meters":25600,"station_id":"ce4bgvp2rcd13ifvqcu0","pricing_plan_id":"cebpf4jnsgd1na2vs0mg"},{"bike_id":"4b087907-7192-4276-99d8-c0bfb8a98ca3","system_id":"levelo_inurba_marseille","lat":43.23177,"lon":5.39988,"is_reserved":false,"is_disabled":false,"rental_uris":{"android":"levelo://app?vid=4b087907-7192-4276-99d8-c0bfb8a98ca3","ios":"levelo://app?vid=4b087907-7192-4276-99d8-c0bfb8a98ca3"},"vehicle_type_id":"4","last_reported":1739603257,"current_range_meters":33200,"station_id":"ce4bhn12rcd13ifvqgqg","pricing_plan_id":"cebpf4jnsgd1na2vs0mg"},{"bike_id":"7835558a-b893-41e9-ae25-07deb12ac2d8","system_id":"levelo_inurba_marseille","lat":43.284056,"lon":5.375209,"is_reserved":false,"is_disabled":false,"rental_uris":{"android":"levelo://app?vid=7835558a-b893-41e9-ae25-07deb12ac2d8","ios":"levelo://app?vid=7835558a-b893-41e9-ae25-07deb12ac2d8"},"vehicle_type_id":"4","last_reported":1739603257,"current_range_meters":31200,"station_id":"ce4bh412rcd13ifvqds0","pricing_plan_id":"cebpf4jnsgd1na2vs0mg"},{"bike_id":"f8ecfa2c-0790-4125-87fd-2ea00d77423e","system_id":"levelo_inurba_marseille","lat":43.27679,"lon":5.38894,"is_reserved":false,"is_disabled":false,"rental_uris":{"android":"levelo://app?vid=f8ecfa2c-0790-4125-87fd-2ea00d77423e","ios":"levelo://app?vid=f8ecfa2c-0790-4125-87fd-2ea00d77423e"},"vehicle_type_id":"4","last_reported":1739603257,"current_range_meters":38000,"station_id":"ce4bhi12rcd13ifvqfo0","pricing_plan_id":"cebpf4jnsgd1na2vs0mg"},{"bike_id":"bd1fbd17-5ecd-4c2a-9290-d1ffd1a70214","system_id":"levelo_inurba_marseille","lat":43.29551,"lon":5.42292,"is_reserved":false,"is_disabled":false,"rental_uris":{"android":"levelo://app?vid=bd1fbd17-5ecd-4c2a-9290-d1ffd1a70214","ios":"levelo://app?vid=bd1fbd17-5ecd-4c2a-9290-d1ffd1a70214"},"vehicle_type_id":"4","last_reported":1739603257,"current_range_meters":33600,"station_id":"ce4bhph2rcd13ifvqhdg","pricing_plan_id":"cebpf4jnsgd1na2vs0mg"},{"bike_id":"ac19deec-8ca4-428a-bd5d-65b9c5c06d0a","system_id":"levelo_inurba_marseille","lat":43.29418,"lon":5.39751,"is_reserved":false,"is_disabled":false,"rental_uris":{"android":"levelo://app?vid=ac19deec-8ca4-428a-bd5d-65b9c5c06d0a","ios":"levelo://app?vid=ac19deec-8ca4-428a-bd5d-65b9c5c06d0a"},"vehicle_type_id":"4","last_reported":1739603257,"current_range_meters":39200,"station_id":"ce4bh3h2rcd13ifvqdo0","pricing_plan_id":"cebpf4jnsgd1na2vs0mg"},{"bike_id":"2f708e4a-da4a-483d-a9f7-574fc8536a37","system_id":"levelo_inurba_marseille","lat":43.231474,"lon":5.437144,"is_reserved":false,"is_disabled":false,"rental_uris":{"android":"levelo://app?vid=2f708e4a-da4a-483d-a9f7-574fc8536a37","ios":"levelo://app?vid=2f708e4a-da4a-483d-a9f7-574fc8536a37"},"vehicle_type_id":"4","last_reported":1739603257,"current_range_meters":26800,"station_id":"ce4bhmp2rcd13ifvqgog","pricing_plan_id":"cebpf4jnsgd1na2vs0mg"},{"bike_id":"4b3b9205-9700-401d-9f2a-874c9dfaf0e2","system_id":"levelo_inurba_marseille","lat":43.313225,"lon":5.397034,"is_reserved":false,"is_disabled":false,"rental_uris":{"android":"levelo://app?vid=4b3b9205-9700-401d-9f2a-874c9dfaf0e2","ios":"levelo://app?vid=4b3b9205-9700-401d-9f2a-874c9dfaf0e2"},"vehicle_type_id":"4","last_reported":1739603257,"current_range_meters":30400,"station_id":"ce4bgvp2rcd13ifvqcu0","pricing_plan_id":"cebpf4jnsgd1na2vs0mg"},{"bike_id":"4f34ac20-13f8-4bff-8fa6-5425328bb98e","system_id":"levelo_inurba_marseille","lat":43.30242,"lon":5.40066,"is_reserved":false,"is_disabled":true,"rental_uris":{"android":"levelo://app?vid=4f34ac20-13f8-4bff-8fa6-5425328bb98e","ios":"levelo://app?vid=4f34ac20-13f8-4bff-8fa6-5425328bb98e"},"vehicle_type_id":"4","last_reported":1739603257,"current_range_meters":28400,"station_id":"ce4bgvh2rcd13ifvqcs0","pricing_plan_id":"cebpf4jnsgd1na2vs0mg"},{"bike_id":"005efd61-2174-41b4-931c-5db89e3de53c","system_id":"levelo_inurba_marseille","lat":43.2841,"lon":5.37516,"is_reserved":false,"is_disabled":false,"rental_uris":{"android":"levelo://app?vid=005efd61-2174-41b4-931c-5db89e3de53c","ios":"levelo://app?vid=005efd61-2174-41b4-931c-5db89e3de53c"},"vehicle_type_id":"4","last_reported":1739603257,"current_range_meters":12000,"station_id":"ce4bh412rcd13ifvqds0","pricing_plan_id":"cebpf4jnsgd1na2vs0mg"},{"bike_id":"992a58a0-449d-4c14-b63b-1be95687b874","system_id":"levelo_inurba_marseille","lat":43.2808,"lon":5.39679,"is_reserved":false,"is_disabled":false,"rental_uris":{"android":"levelo://app?vid=992a58a0-449d-4c14-b63b-1be95687b874","ios":"levelo://app?vid=992a58a0-449d-4c14-b63b-1be95687b874"},"vehicle_type_id":"4","last_reported":1739603257,"current_range_meters":37600,"station_id":"ce4bho12rcd13ifvqh2g","pricing_plan_id":"cebpf4jnsgd1na2vs0mg"},{"bike_id":"14905efe-4e39-4ed8-9fbc-7eeb1b6317d4","system_id":"levelo_inurba_marseille","lat":43.2465,"lon":5.38899,"is_reserved":false,"is_disabled":false,"rental_uris":{"android":"levelo://app?vid=14905efe-4e39-4ed8-9fbc-7eeb1b6317d4","ios":"levelo://app?vid=14905efe-4e39-4ed8-9fbc-7eeb1b6317d4"},"vehicle_type_id":"4","last_reported":1739603257,"current_range_meters":24800,"station_id":"ce4bhg12rcd13ifvqf60","pricing_plan_id":"cebpf4jnsgd1na2vs0mg"},{"bike_id":"ce082b21-f14c-4a59-959d-e202a3ae8a43","system_id":"levelo_inurba_marseille","lat":43.28724,"lon":5.3609,"is_reserved":false,"is_disabled":false,"rental_uris":{"android":"levelo://app?vid=ce082b21-f14c-4a59-959d-e202a3ae8a43","ios":"levelo://app?vid=ce082b21-f14c-4a59-959d-e202a3ae8a43"},"vehicle_type_id":"4","last_reported":1739603257,"current_range_meters":38800,"station_id":"cki0cbj6b192h4jlfktg","pricing_plan_id":"cebpf4jnsgd1na2vs0mg"},{"bike_id":"beab0e3e-da6f-4a1a-9cad-13bb86faead7","system_id":"levelo_inurba_marseille","lat":43.29919,"lon":5.36524,"is_reserved":false,"is_disabled":false,"rental_uris":{"android":"levelo://app?vid=beab0e3e-da6f-4a1a-9cad-13bb86faead7","ios":"levelo://app?vid=beab0e3e-da6f-4a1a-9cad-13bb86faead7"},"vehicle_type_id":"4","last_reported":1739603257,"current_range_meters":27200,"station_id":"ce4bgm92rcd13ifvqbr0","pricing_plan_id":"cebpf4jnsgd1na2vs0mg"},{"bike_id":"35c71859-d749-4d30-961a-91d1c38d6948","system_id":"levelo_inurba_marseille","lat":43.25079,"lon":5.39546,"is_reserved":false,"is_disabled":false,"rental_uris":{"android":"levelo://app?vid=35c71859-d749-4d30-961a-91d1c38d6948","ios":"levelo://app?vid=35c71859-d749-4d30-961a-91d1c38d6948"},"vehicle_type_id":"4","last_reported":1739603257,"current_range_meters":6800,"station_id":"ce4bhm12rcd13ifvqgkg","pricing_plan_id":"cebpf4jnsgd1na2vs0mg"},{"bike_id":"4ef4c998-999a-4009-8985-4ab44d7ddb8c","system_id":"levelo_inurba_marseille","lat":43.29032,"lon":5.38639,"is_reserved":false,"is_disabled":false,"rental_uris":{"android":"levelo://app?vid=4ef4c998-999a-4009-8985-4ab44d7ddb8c","ios":"levelo://app?vid=4ef4c998-999a-4009-8985-4ab44d7ddb8c"},"vehicle_type_id":"4","last_reported":1739603257,"current_range_meters":22800,"station_id":"ce4bh4p2rcd13ifvqe0g","pricing_plan_id":"cebpf4jnsgd1na2vs0mg"},{"bike_id":"91a08f87-e92f-4bd7-a62f-2015c6865158","system_id":"levelo_inurba_marseille","lat":43.32287,"lon":5.38299,"is_reserved":false,"is_disabled":false,"rental_uris":{"android":"levelo://app?vid=91a08f87-e92f-4bd7-a62f-2015c6865158","ios":"levelo://app?vid=91a08f87-e92f-4bd7-a62f-2015c6865158"},"vehicle_type_id":"4","last_reported":1739603257,"current_range_meters":20000,"station_id":"ce4bhr12rcd13ifvqhqg","pricing_plan_id":"cebpf4jnsgd1na2vs0mg"},{"bike_id":"e4b9f80e-c487-4b21-a9f2-cea27949e48e","system_id":"levelo_inurba_marseille","lat":43.31799,"lon":5.37396,"is_reserved":false,"is_disabled":true,"rental_uris":{"android":"levelo://app?vid=e4b9f80e-c487-4b21-a9f2-cea27949e48e","ios":"levelo://app?vid=e4b9f80e-c487-4b21-a9f2-cea27949e48e"},"vehicle_type_id":"4","last_reported":1739603257,"current_range_meters":0,"station_id":"","pricing_plan_id":"cebpf4jnsgd1na2vs0mg"},{"bike_id":"19ac7dcf-a07c-4e83-883b-89a8dcbd81d7","system_id":"levelo_inurba_marseille","lat":43.28694,"lon":5.39993,"is_reserved":false,"is_disabled":false,"rental_uris":{"android":"levelo://app?vid=19ac7dcf-a07c-4e83-883b-89a8dcbd81d7","ios":"levelo://app?vid=19ac7dcf-a07c-4e83-883b-89a8dcbd81d7"},"vehicle_type_id":"4","last_reported":1739603257,"current_range_meters":38800,"station_id":"ce4bho92rcd13ifvqh3g","pricing_plan_id":"cebpf4jnsgd1na2vs0mg"},{"bike_id":"312ffda6-57ec-493a-a409-1ceba4974ee9","system_id":"levelo_inurba_marseille","lat":43.311774,"lon":5.387159,"is_reserved":false,"is_disabled":false,"rental_uris":{"android":"levelo://app?vid=312ffda6-57ec-493a-a409-1ceba4974ee9","ios":"levelo://app?vid=312ffda6-57ec-493a-a409-1ceba4974ee9"},"vehicle_type_id":"4","last_reported":1739603257,"current_range_meters":30400,"station_id":"ce4bgv12rcd13ifvqcp0","pricing_plan_id":"cebpf4jnsgd1na2vs0mg"},{"bike_id":"7c250b8e-1ac6-4c71-8022-0dac0b00c713","system_id":"levelo_inurba_marseille","lat":43.31055,"lon":5.38347,"is_reserved":false,"is_disabled":false,"rental_uris":{"android":"levelo://app?vid=7c250b8e-1ac6-4c71-8022-0dac0b00c713","ios":"levelo://app?vid=7c250b8e-1ac6-4c71-8022-0dac0b00c713"},"vehicle_type_id":"4","last_reported":1739603257,"current_range_meters":37600,"station_id":"ce4bgv92rcd13ifvqcr0","pricing_plan_id":"cebpf4jnsgd1na2vs0mg"},{"bike_id":"14b1b08f-4458-49f9-89ff-4f2d0bf34264","system_id":"levelo_inurba_marseille","lat":43.290295,"lon":5.386552,"is_reserved":false,"is_disabled":false,"rental_uris":{"android":"levelo://app?vid=14b1b08f-4458-49f9-89ff-4f2d0bf34264","ios":"levelo://app?vid=14b1b08f-4458-49f9-89ff-4f2d0bf34264"},"vehicle_type_id":"4","last_reported":1739603257,"current_range_meters":27200,"station_id":"ce4bh4p2rcd13ifvqe0g","pricing_plan_id":"cebpf4jnsgd1na2vs0mg"},{"bike_id":"54953254-3310-4e0d-9c50-ab810a2284ac","system_id":"levelo_inurba_marseille","lat":43.320741,"lon":5.415361,"is_reserved":false,"is_disabled":false,"rental_uris":{"android":"levelo://app?vid=54953254-3310-4e0d-9c50-ab810a2284ac","ios":"levelo://app?vid=54953254-3310-4e0d-9c50-ab810a2284ac"},"vehicle_type_id":"4","last_reported":1739603257,"current_range_meters":38000,"station_id":"ce4bhq92rcd13ifvqhkg","pricing_plan_id":"cebpf4jnsgd1na2vs0mg"},{"bike_id":"a30a2e4b-bdf2-47be-8d36-867c9157f403","system_id":"levelo_inurba_marseille","lat":43.28616,"lon":5.3509,"is_reserved":false,"is_disabled":false,"rental_uris":{"android":"levelo://app?vid=a30a2e4b-bdf2-47be-8d36-867c9157f403","ios":"levelo://app?vid=a30a2e4b-bdf2-47be-8d36-867c9157f403"},"vehicle_type_id":"4","last_reported":1739603257,"current_range_meters":28000,"station_id":"ce4bhch2rcd13ifvqeug","pricing_plan_id":"cebpf4jnsgd1na2vs0mg"},{"bike_id":"e4d2c3d2-dee8-46c7-936e-eff6b8003875","system_id":"levelo_inurba_marseille","lat":43.279483,"lon":5.410479,"is_reserved":false,"is_disabled":false,"rental_uris":{"android":"levelo://app?vid=e4d2c3d2-dee8-46c7-936e-eff6b8003875","ios":"levelo://app?vid=e4d2c3d2-dee8-46c7-936e-eff6b8003875"},"vehicle_type_id":"4","last_reported":1739603257,"current_range_meters":31200,"station_id":"ce4bhnp2rcd13ifvqh0g","pricing_plan_id":"cebpf4jnsgd1na2vs0mg"},{"bike_id":"77f50df8-ca25-4b79-92ea-d528f76431b1","system_id":"levelo_inurba_marseille","lat":43.292594,"lon":5.436282,"is_reserved":false,"is_disabled":true,"rental_uris":{"android":"levelo://app?vid=77f50df8-ca25-4b79-92ea-d528f76431b1","ios":"levelo://app?vid=77f50df8-ca25-4b79-92ea-d528f76431b1"},"vehicle_type_id":"4","last_reported":1739603257,"current_range_meters":0,"station_id":"","pricing_plan_id":"cebpf4jnsgd1na2vs0mg"},{"bike_id":"ba6ee90b-9d94-4f43-8358-366faab5901e","system_id":"levelo_inurba_marseille","lat":43.280751,"lon":5.396594,"is_reserved":false,"is_disabled":false,"rental_uris":{"android":"levelo://app?vid=ba6ee90b-9d94-4f43-8358-366faab5901e","ios":"levelo://app?vid=ba6ee90b-9d94-4f43-8358-366faab5901e"},"vehicle_type_id":"4","last_reported":1739603257,"current_range_meters":35600,"station_id":"ce4bho12rcd13ifvqh2g","pricing_plan_id":"cebpf4jnsgd1na2vs0mg"},{"bike_id":"fe0f12a8-8d62-4d79-b629-bda6901e6297","system_id":"levelo_inurba_marseille","lat":43.269456,"lon":5.402656,"is_reserved":false,"is_disabled":true,"rental_uris":{"android":"levelo://app?vid=fe0f12a8-8d62-4d79-b629-bda6901e6297","ios":"levelo://app?vid=fe0f12a8-8d62-4d79-b629-bda6901e6297"},"vehicle_type_id":"4","last_reported":1739603257,"current_range_meters":32800,"station_id":"cjm6bp8fraef2m0cb0m0","pricing_plan_id":"cebpf4jnsgd1na2vs0mg"},{"bike_id":"469df817-c238-4d61-8781-dabb1a74fb52","system_id":"levelo_inurba_marseille","lat":43.30601,"lon":5.37193,"is_reserved":false,"is_disabled":false,"rental_uris":{"android":"levelo://app?vid=469df817-c238-4d61-8781-dabb1a74fb52","ios":"levelo://app?vid=469df817-c238-4d61-8781-dabb1a74fb52"},"vehicle_type_id":"4","last_reported":1739603257,"current_range_meters":34000,"station_id":"ce4bgqh2rcd13ifvqc4g","pricing_plan_id":"cebpf4jnsgd1na2vs0mg"},{"bike_id":"71b09600-92bf-4db2-a8a0-9901e3e52200","system_id":"levelo_inurba_marseille","lat":43.30142,"lon":5.37436,"is_reserved":false,"is_disabled":false,"rental_uris":{"android":"levelo://app?vid=71b09600-92bf-4db2-a8a0-9901e3e52200","ios":"levelo://app?vid=71b09600-92bf-4db2-a8a0-9901e3e52200"},"vehicle_type_id":"4","last_reported":1739603257,"current_range_meters":22800,"station_id":"ce4bgs92rcd13ifvqcc0","pricing_plan_id":"cebpf4jnsgd1na2vs0mg"},{"bike_id":"5429a055-5c17-4863-ac08-ee7234bc7af8","system_id":"levelo_inurba_marseille","lat":43.322742,"lon":5.368341,"is_reserved":false,"is_disabled":false,"rental_uris":{"android":"levelo://app?vid=5429a055-5c17-4863-ac08-ee7234bc7af8","ios":"levelo://app?vid=5429a055-5c17-4863-ac08-ee7234bc7af8"},"vehicle_type_id":"4","last_reported":1739603257,"current_range_meters":34000,"station_id":"","pricing_plan_id":"cebpf4jnsgd1na2vs0mg"},{"bike_id":"204a697f-b516-4023-ac05-6a9bbe1b84bd","system_id":"levelo_inurba_marseille","lat":43.30622,"lon":5.37219,"is_reserved":false,"is_disabled":false,"rental_uris":{"android":"levelo://app?vid=204a697f-b516-4023-ac05-6a9bbe1b84bd","ios":"levelo://app?vid=204a697f-b516-4023-ac05-6a9bbe1b84bd"},"vehicle_type_id":"4","last_reported":1739603257,"current_range_meters":38800,"station_id":"ce4bgqh2rcd13ifvqc4g","pricing_plan_id":"cebpf4jnsgd1na2vs0mg"},{"bike_id":"043c3f00-95e0-44f1-8f8f-49251bf9d051","system_id":"levelo_inurba_marseille","lat":43.24799,"lon":5.37468,"is_reserved":false,"is_disabled":false,"rental_uris":{"android":"levelo://app?vid=043c3f00-95e0-44f1-8f8f-49251bf9d051","ios":"levelo://app?vid=043c3f00-95e0-44f1-8f8f-49251bf9d051"},"vehicle_type_id":"4","last_reported":1739603257,"current_range_meters":38800,"station_id":"ce4bhgh2rcd13ifvqfb0","pricing_plan_id":"cebpf4jnsgd1na2vs0mg"},{"bike_id":"99bf1d95-622d-4147-80da-b1ea756aaa2e","system_id":"levelo_inurba_marseille","lat":43.229395,"lon":5.353721,"is_reserved":false,"is_disabled":false,"rental_uris":{"android":"levelo://app?vid=99bf1d95-622d-4147-80da-b1ea756aaa2e","ios":"levelo://app?vid=99bf1d95-622d-4147-80da-b1ea756aaa2e"},"vehicle_type_id":"4","last_reported":1739603257,"current_range_meters":7200,"station_id":"cpo3532slgdg3j2ikp40","pricing_plan_id":"cebpf4jnsgd1na2vs0mg"},{"bike_id":"ec8570bc-ba11-4f76-bc33-6a49744cc66f","system_id":"levelo_inurba_marseille","lat":43.2893,"lon":5.36634,"is_reserved":false,"is_disabled":false,"rental_uris":{"android":"levelo://app?vid=ec8570bc-ba11-4f76-bc33-6a49744cc66f","ios":"levelo://app?vid=ec8570bc-ba11-4f76-bc33-6a49744cc66f"},"vehicle_type_id":"4","last_reported":1739603257,"current_range_meters":38800,"station_id":"ce4bhap2rcd13ifvqek0","pricing_plan_id":"cebpf4jnsgd1na2vs0mg"},{"bike_id":"711a6eb2-05c7-4789-87c7-6cb301fd4d69","system_id":"levelo_inurba_marseille","lat":43.29529,"lon":5.38542,"is_reserved":false,"is_disabled":true,"rental_uris":{"android":"levelo://app?vid=711a6eb2-05c7-4789-87c7-6cb301fd4d69","ios":"levelo://app?vid=711a6eb2-05c7-4789-87c7-6cb301fd4d69"},"vehicle_type_id":"4","last_reported":1739603257,"current_range_meters":38800,"station_id":"ce4bgih2rcd13ifvqba0","pricing_plan_id":"cebpf4jnsgd1na2vs0mg"},{"bike_id":"a29676e7-55a1-49bc-919f-e8ddc6a62810","system_id":"levelo_inurba_marseille","lat":43.298509,"lon":5.362841,"is_reserved":false,"is_disabled":false,"rental_uris":{"android":"levelo://app?vid=a29676e7-55a1-49bc-919f-e8ddc6a62810","ios":"levelo://app?vid=a29676e7-55a1-49bc-919f-e8ddc6a62810"},"vehicle_type_id":"4","last_reported":1739603257,"current_range_meters":38800,"station_id":"ce4bgpp2rcd13ifvqc3g","pricing_plan_id":"cebpf4jnsgd1na2vs0mg"},{"bike_id":"bc8033eb-1ddd-44a0-a675-6f28159f11a9","system_id":"levelo_inurba_marseille","lat":43.30948,"lon":5.39047,"is_reserved":false,"is_disabled":false,"rental_uris":{"android":"levelo://app?vid=bc8033eb-1ddd-44a0-a675-6f28159f11a9","ios":"levelo://app?vid=bc8033eb-1ddd-44a0-a675-6f28159f11a9"},"vehicle_type_id":"4","last_reported":1739603257,"current_range_meters":26800,"station_id":"ce4bgup2rcd13ifvqco0","pricing_plan_id":"cebpf4jnsgd1na2vs0mg"},{"bike_id":"e171f5b3-3051-4cca-a8d4-ea41c1bf99e6","system_id":"levelo_inurba_marseille","lat":43.309512,"lon":5.390441,"is_reserved":false,"is_disabled":false,"rental_uris":{"android":"levelo://app?vid=e171f5b3-3051-4cca-a8d4-ea41c1bf99e6","ios":"levelo://app?vid=e171f5b3-3051-4cca-a8d4-ea41c1bf99e6"},"vehicle_type_id":"4","last_reported":1739603257,"current_range_meters":24800,"station_id":"ce4bgup2rcd13ifvqco0","pricing_plan_id":"cebpf4jnsgd1na2vs0mg"},{"bike_id":"981f0c84-c763-4744-ab7e-6d6374d30546","system_id":"levelo_inurba_marseille","lat":43.25496,"lon":5.376541,"is_reserved":false,"is_disabled":false,"rental_uris":{"android":"levelo://app?vid=981f0c84-c763-4744-ab7e-6d6374d30546","ios":"levelo://app?vid=981f0c84-c763-4744-ab7e-6d6374d30546"},"vehicle_type_id":"4","last_reported":1739603257,"current_range_meters":38800,"station_id":"ce4bhh12rcd13ifvqff0","pricing_plan_id":"cebpf4jnsgd1na2vs0mg"},{"bike_id":"cf32f974-176f-413e-ae8d-12ed37a9cd2b","system_id":"levelo_inurba_marseille","lat":43.288972,"lon":5.428779,"is_reserved":false,"is_disabled":false,"rental_uris":{"android":"levelo://app?vid=cf32f974-176f-413e-ae8d-12ed37a9cd2b","ios":"levelo://app?vid=cf32f974-176f-413e-ae8d-12ed37a9cd2b"},"vehicle_type_id":"4","last_reported":1739603257,"current_range_meters":10000,"station_id":"","pricing_plan_id":"cebpf4jnsgd1na2vs0mg"},{"bike_id":"c4c30d43-c99a-4375-b69e-29accecccae5","system_id":"levelo_inurba_marseille","lat":43.31172,"lon":5.38749,"is_reserved":false,"is_disabled":false,"rental_uris":{"android":"levelo://app?vid=c4c30d43-c99a-4375-b69e-29accecccae5","ios":"levelo://app?vid=c4c30d43-c99a-4375-b69e-29accecccae5"},"vehicle_type_id":"4","last_reported":1739603257,"current_range_meters":36400,"station_id":"ce4bgv12rcd13ifvqcp0","pricing_plan_id":"cebpf4jnsgd1na2vs0mg"},{"bike_id":"24c9fd7a-dfb5-4755-9c33-7fb2bb66a39c","system_id":"levelo_inurba_marseille","lat":43.31208,"lon":5.37391,"is_reserved":false,"is_disabled":false,"rental_uris":{"android":"levelo://app?vid=24c9fd7a-dfb5-4755-9c33-7fb2bb66a39c","ios":"levelo://app?vid=24c9fd7a-dfb5-4755-9c33-7fb2bb66a39c"},"vehicle_type_id":"4","last_reported":1739603257,"current_range_meters":5600,"station_id":"","pricing_plan_id":"cebpf4jnsgd1na2vs0mg"},{"bike_id":"e9a30c3e-6fb2-4962-82c7-9a735901f852","system_id":"levelo_inurba_marseille","lat":43.33606,"lon":5.4104,"is_reserved":false,"is_disabled":false,"rental_uris":{"android":"levelo://app?vid=e9a30c3e-6fb2-4962-82c7-9a735901f852","ios":"levelo://app?vid=e9a30c3e-6fb2-4962-82c7-9a735901f852"},"vehicle_type_id":"4","last_reported":1739603257,"current_range_meters":28000,"station_id":"ce4bhqh2rcd13ifvqhmg","pricing_plan_id":"cebpf4jnsgd1na2vs0mg"},{"bike_id":"f3577e40-d3b4-4c9c-af82-d1b37865ee10","system_id":"levelo_inurba_marseille","lat":43.255819,"lon":5.382325,"is_reserved":false,"is_disabled":false,"rental_uris":{"android":"levelo://app?vid=f3577e40-d3b4-4c9c-af82-d1b37865ee10","ios":"levelo://app?vid=f3577e40-d3b4-4c9c-af82-d1b37865ee10"},"vehicle_type_id":"4","last_reported":1739603257,"current_range_meters":3200,"station_id":"ce4bhih2rcd13ifvqfs0","pricing_plan_id":"cebpf4jnsgd1na2vs0mg"},{"bike_id":"874dd984-fd21-4c8c-8287-96918232b6c4","system_id":"levelo_inurba_marseille","lat":43.27992,"lon":5.40008,"is_reserved":false,"is_disabled":true,"rental_uris":{"android":"levelo://app?vid=874dd984-fd21-4c8c-8287-96918232b6c4","ios":"levelo://app?vid=874dd984-fd21-4c8c-8287-96918232b6c4"},"vehicle_type_id":"4","last_reported":1739603257,"current_range_meters":8400,"station_id":"ce4bho92rcd13ifvqh4g","pricing_plan_id":"cebpf4jnsgd1na2vs0mg"},{"bike_id":"c19e0217-4102-42c8-bb60-e561d163d075","system_id":"levelo_inurba_marseille","lat":43.29274,"lon":5.36843,"is_reserved":false,"is_disabled":false,"rental_uris":{"android":"levelo://app?vid=c19e0217-4102-42c8-bb60-e561d163d075","ios":"levelo://app?vid=c19e0217-4102-42c8-bb60-e561d163d075"},"vehicle_type_id":"4","last_reported":1739603257,"current_range_meters":38400,"station_id":"ce4bhbp2rcd13ifvqesg","pricing_plan_id":"cebpf4jnsgd1na2vs0mg"},{"bike_id":"6a29086f-7229-4285-8cb1-aad9c800b67f","system_id":"levelo_inurba_marseille","lat":43.2718,"lon":5.40967,"is_reserved":false,"is_disabled":false,"rental_uris":{"android":"levelo://app?vid=6a29086f-7229-4285-8cb1-aad9c800b67f","ios":"levelo://app?vid=6a29086f-7229-4285-8cb1-aad9c800b67f"},"vehicle_type_id":"4","last_reported":1739603257,"current_range_meters":4000,"station_id":"ce4bhl12rcd13ifvqgf0","pricing_plan_id":"cebpf4jnsgd1na2vs0mg"},{"bike_id":"53b5f8d9-591b-4722-8b93-d03568f78034","system_id":"levelo_inurba_marseille","lat":43.28442,"lon":5.35905,"is_reserved":false,"is_disabled":false,"rental_uris":{"android":"levelo://app?vid=53b5f8d9-591b-4722-8b93-d03568f78034","ios":"levelo://app?vid=53b5f8d9-591b-4722-8b93-d03568f78034"},"vehicle_type_id":"4","last_reported":1739603257,"current_range_meters":26800,"station_id":"ce4bhah2rcd13ifvqei0","pricing_plan_id":"cebpf4jnsgd1na2vs0mg"},{"bike_id":"3bc8b4ea-eacc-4ce1-b721-3d0204c64466","system_id":"levelo_inurba_marseille","lat":43.25809,"lon":5.39477,"is_reserved":false,"is_disabled":false,"rental_uris":{"android":"levelo://app?vid=3bc8b4ea-eacc-4ce1-b721-3d0204c64466","ios":"levelo://app?vid=3bc8b4ea-eacc-4ce1-b721-3d0204c64466"},"vehicle_type_id":"4","last_reported":1739603257,"current_range_meters":9600,"station_id":"ce4bhip2rcd13ifvqft0","pricing_plan_id":"cebpf4jnsgd1na2vs0mg"},{"bike_id":"27ed637d-8318-4a0e-8a49-ab44e26fbf22","system_id":"levelo_inurba_marseille","lat":43.27824,"lon":5.39209,"is_reserved":false,"is_disabled":false,"rental_uris":{"android":"levelo://app?vid=27ed637d-8318-4a0e-8a49-ab44e26fbf22","ios":"levelo://app?vid=27ed637d-8318-4a0e-8a49-ab44e26fbf22"},"vehicle_type_id":"4","last_reported":1739603257,"current_range_meters":8400,"station_id":"ce4bhjp2rcd13ifvqga0","pricing_plan_id":"cebpf4jnsgd1na2vs0mg"},{"bike_id":"4fc2ab45-7da1-498c-ace8-56cf0c9de688","system_id":"levelo_inurba_marseille","lat":43.30878,"lon":5.39653,"is_reserved":false,"is_disabled":false,"rental_uris":{"android":"levelo://app?vid=4fc2ab45-7da1-498c-ace8-56cf0c9de688","ios":"levelo://app?vid=4fc2ab45-7da1-498c-ace8-56cf0c9de688"},"vehicle_type_id":"4","last_reported":1739603257,"current_range_meters":24800,"station_id":"ce4bh012rcd13ifvqcv0","pricing_plan_id":"cebpf4jnsgd1na2vs0mg"},{"bike_id":"86871533-921f-43eb-9b93-59b96f848e22","system_id":"levelo_inurba_marseille","lat":43.30442,"lon":5.389,"is_reserved":false,"is_disabled":false,"rental_uris":{"android":"levelo://app?vid=86871533-921f-43eb-9b93-59b96f848e22","ios":"levelo://app?vid=86871533-921f-43eb-9b93-59b96f848e22"},"vehicle_type_id":"4","last_reported":1739603257,"current_range_meters":17600,"station_id":"ce4bgk12rcd13ifvqbi0","pricing_plan_id":"cebpf4jnsgd1na2vs0mg"},{"bike_id":"46f5d451-43bc-4724-ba4c-4c1a9fede2df","system_id":"levelo_inurba_marseille","lat":43.284094,"lon":5.375218,"is_reserved":false,"is_disabled":false,"rental_uris":{"android":"levelo://app?vid=46f5d451-43bc-4724-ba4c-4c1a9fede2df","ios":"levelo://app?vid=46f5d451-43bc-4724-ba4c-4c1a9fede2df"},"vehicle_type_id":"4","last_reported":1739603257,"current_range_meters":22800,"station_id":"ce4bh412rcd13ifvqds0","pricing_plan_id":"cebpf4jnsgd1na2vs0mg"},{"bike_id":"d5d2510e-3831-4865-8727-31c62951dadf","system_id":"levelo_inurba_marseille","lat":43.27056,"lon":5.40254,"is_reserved":false,"is_disabled":false,"rental_uris":{"android":"levelo://app?vid=d5d2510e-3831-4865-8727-31c62951dadf","ios":"levelo://app?vid=d5d2510e-3831-4865-8727-31c62951dadf"},"vehicle_type_id":"4","last_reported":1739603257,"current_range_meters":8000,"station_id":"ce4bhk92rcd13ifvqgc0","pricing_plan_id":"cebpf4jnsgd1na2vs0mg"},{"bike_id":"e5e5a17e-27a5-454b-904b-e271a7fe6a76","system_id":"levelo_inurba_marseille","lat":43.2807,"lon":5.39657,"is_reserved":false,"is_disabled":false,"rental_uris":{"android":"levelo://app?vid=e5e5a17e-27a5-454b-904b-e271a7fe6a76","ios":"levelo://app?vid=e5e5a17e-27a5-454b-904b-e271a7fe6a76"},"vehicle_type_id":"4","last_reported":1739603257,"current_range_meters":38800,"station_id":"ce4bho12rcd13ifvqh2g","pricing_plan_id":"cebpf4jnsgd1na2vs0mg"},{"bike_id":"bd045317-4200-485b-a6d6-e764caee6da4","system_id":"levelo_inurba_marseille","lat":43.29245,"lon":5.40905,"is_reserved":false,"is_disabled":false,"rental_uris":{"android":"levelo://app?vid=bd045317-4200-485b-a6d6-e764caee6da4","ios":"levelo://app?vid=bd045317-4200-485b-a6d6-e764caee6da4"},"vehicle_type_id":"4","last_reported":1739603257,"current_range_meters":33200,"station_id":"ce4bh192rcd13ifvqdc0","pricing_plan_id":"cebpf4jnsgd1na2vs0mg"},{"bike_id":"ddf1d674-41d6-443f-b0f1-1da7df267862","system_id":"levelo_inurba_marseille","lat":43.23052,"lon":5.35488,"is_reserved":false,"is_disabled":false,"rental_uris":{"android":"levelo://app?vid=ddf1d674-41d6-443f-b0f1-1da7df267862","ios":"levelo://app?vid=ddf1d674-41d6-443f-b0f1-1da7df267862"},"vehicle_type_id":"4","last_reported":1739603257,"current_range_meters":22400,"station_id":"cpo3342slgdg3j2ifvpg","pricing_plan_id":"cebpf4jnsgd1na2vs0mg"},{"bike_id":"3f1f46b1-b846-4336-b664-cb809e0af8d4","system_id":"levelo_inurba_marseille","lat":43.27206,"lon":5.39177,"is_reserved":false,"is_disabled":false,"rental_uris":{"android":"levelo://app?vid=3f1f46b1-b846-4336-b664-cb809e0af8d4","ios":"levelo://app?vid=3f1f46b1-b846-4336-b664-cb809e0af8d4"},"vehicle_type_id":"4","last_reported":1739603257,"current_range_meters":38000,"station_id":"ce4bhhp2rcd13ifvqfm0","pricing_plan_id":"cebpf4jnsgd1na2vs0mg"},{"bike_id":"45d478f3-34a9-4671-9e6b-3e6e52015c4f","system_id":"levelo_inurba_marseille","lat":43.30467,"lon":5.37926,"is_reserved":false,"is_disabled":false,"rental_uris":{"android":"levelo://app?vid=45d478f3-34a9-4671-9e6b-3e6e52015c4f","ios":"levelo://app?vid=45d478f3-34a9-4671-9e6b-3e6e52015c4f"},"vehicle_type_id":"4","last_reported":1739603257,"current_range_meters":39200,"station_id":"ce4bgup2rcd13ifvqcn0","pricing_plan_id":"cebpf4jnsgd1na2vs0mg"},{"bike_id":"46f7dd7f-3698-4a4b-84b6-cdfa84e75594","system_id":"levelo_inurba_marseille","lat":43.23956,"lon":5.36632,"is_reserved":false,"is_disabled":false,"rental_uris":{"android":"levelo://app?vid=46f7dd7f-3698-4a4b-84b6-cdfa84e75594","ios":"levelo://app?vid=46f7dd7f-3698-4a4b-84b6-cdfa84e75594"},"vehicle_type_id":"4","last_reported":1739603257,"current_range_meters":28000,"station_id":"ce4bhi12rcd13ifvqfp0","pricing_plan_id":"cebpf4jnsgd1na2vs0mg"},{"bike_id":"78be6242-0c31-4932-9bea-7d041837b9fe","system_id":"levelo_inurba_marseille","lat":43.31314,"lon":5.39708,"is_reserved":false,"is_disabled":false,"rental_uris":{"android":"levelo://app?vid=78be6242-0c31-4932-9bea-7d041837b9fe","ios":"levelo://app?vid=78be6242-0c31-4932-9bea-7d041837b9fe"},"vehicle_type_id":"4","last_reported":1739603257,"current_range_meters":38800,"station_id":"ce4bgvp2rcd13ifvqcu0","pricing_plan_id":"cebpf4jnsgd1na2vs0mg"},{"bike_id":"19733989-cc41-4255-a650-071ebfdc8d0a","system_id":"levelo_inurba_marseille","lat":43.30624,"lon":5.40147,"is_reserved":false,"is_disabled":false,"rental_uris":{"android":"levelo://app?vid=19733989-cc41-4255-a650-071ebfdc8d0a","ios":"levelo://app?vid=19733989-cc41-4255-a650-071ebfdc8d0a"},"vehicle_type_id":"4","last_reported":1739603257,"current_range_meters":29600,"station_id":"ce4bh112rcd13ifvqda0","pricing_plan_id":"cebpf4jnsgd1na2vs0mg"},{"bike_id":"c9645a26-5874-480f-a11e-46d2257542e0","system_id":"levelo_inurba_marseille","lat":43.27538,"lon":5.38668,"is_reserved":false,"is_disabled":false,"rental_uris":{"android":"levelo://app?vid=c9645a26-5874-480f-a11e-46d2257542e0","ios":"levelo://app?vid=c9645a26-5874-480f-a11e-46d2257542e0"},"vehicle_type_id":"4","last_reported":1739603257,"current_range_meters":30000,"station_id":"","pricing_plan_id":"cebpf4jnsgd1na2vs0mg"},{"bike_id":"4450d397-c7c4-4c68-aed9-fa811598c082","system_id":"levelo_inurba_marseille","lat":43.325437,"lon":5.365163,"is_reserved":false,"is_disabled":false,"rental_uris":{"android":"levelo://app?vid=4450d397-c7c4-4c68-aed9-fa811598c082","ios":"levelo://app?vid=4450d397-c7c4-4c68-aed9-fa811598c082"},"vehicle_type_id":"4","last_reported":1739603257,"current_range_meters":26800,"station_id":"","pricing_plan_id":"cebpf4jnsgd1na2vs0mg"},{"bike_id":"aa31df00-ff02-4d7d-b963-97d93bff2189","system_id":"levelo_inurba_marseille","lat":43.30308,"lon":5.4044,"is_reserved":false,"is_disabled":false,"rental_uris":{"android":"levelo://app?vid=aa31df00-ff02-4d7d-b963-97d93bff2189","ios":"levelo://app?vid=aa31df00-ff02-4d7d-b963-97d93bff2189"},"vehicle_type_id":"4","last_reported":1739603257,"current_range_meters":12400,"station_id":"ce4bh012rcd13ifvqd10","pricing_plan_id":"cebpf4jnsgd1na2vs0mg"},{"bike_id":"28a16aee-71d6-4cb1-b35a-d4320a6bf584","system_id":"levelo_inurba_marseille","lat":43.323629,"lon":5.388839,"is_reserved":false,"is_disabled":false,"rental_uris":{"android":"levelo://app?vid=28a16aee-71d6-4cb1-b35a-d4320a6bf584","ios":"levelo://app?vid=28a16aee-71d6-4cb1-b35a-d4320a6bf584"},"vehicle_type_id":"4","last_reported":1739603257,"current_range_meters":18800,"station_id":"ce4bhqp2rcd13ifvqhog","pricing_plan_id":"cebpf4jnsgd1na2vs0mg"},{"bike_id":"59cb679e-245c-46b7-bc74-dfa7c14bb16c","system_id":"levelo_inurba_marseille","lat":43.29007,"lon":5.356134,"is_reserved":false,"is_disabled":true,"rental_uris":{"android":"levelo://app?vid=59cb679e-245c-46b7-bc74-dfa7c14bb16c","ios":"levelo://app?vid=59cb679e-245c-46b7-bc74-dfa7c14bb16c"},"vehicle_type_id":"4","last_reported":1739603257,"current_range_meters":38400,"station_id":"ce4bhb92rcd13ifvqen0","pricing_plan_id":"cebpf4jnsgd1na2vs0mg"},{"bike_id":"8afca476-c1b3-451b-b6df-071c8da214de","system_id":"levelo_inurba_marseille","lat":43.28266,"lon":5.42392,"is_reserved":false,"is_disabled":false,"rental_uris":{"android":"levelo://app?vid=8afca476-c1b3-451b-b6df-071c8da214de","ios":"levelo://app?vid=8afca476-c1b3-451b-b6df-071c8da214de"},"vehicle_type_id":"4","last_reported":1739603257,"current_range_meters":35200,"station_id":"","pricing_plan_id":"cebpf4jnsgd1na2vs0mg"},{"bike_id":"a8bc8483-ceef-456e-92ec-efcc9ae8cb95","system_id":"levelo_inurba_marseille","lat":43.27637,"lon":5.3616,"is_reserved":false,"is_disabled":false,"rental_uris":{"android":"levelo://app?vid=a8bc8483-ceef-456e-92ec-efcc9ae8cb95","ios":"levelo://app?vid=a8bc8483-ceef-456e-92ec-efcc9ae8cb95"},"vehicle_type_id":"4","last_reported":1739603257,"current_range_meters":37600,"station_id":"ce4bgj92rcd13ifvqbe0","pricing_plan_id":"cebpf4jnsgd1na2vs0mg"},{"bike_id":"4aaa0363-f313-42f1-83f9-2f2886c48346","system_id":"levelo_inurba_marseille","lat":43.31391,"lon":5.38796,"is_reserved":false,"is_disabled":true,"rental_uris":{"android":"levelo://app?vid=4aaa0363-f313-42f1-83f9-2f2886c48346","ios":"levelo://app?vid=4aaa0363-f313-42f1-83f9-2f2886c48346"},"vehicle_type_id":"4","last_reported":1739603257,"current_range_meters":0,"station_id":"","pricing_plan_id":"cebpf4jnsgd1na2vs0mg"},{"bike_id":"06017cae-3c94-4744-9f6a-4ad249a95c61","system_id":"levelo_inurba_marseille","lat":43.27934,"lon":5.41046,"is_reserved":false,"is_disabled":false,"rental_uris":{"android":"levelo://app?vid=06017cae-3c94-4744-9f6a-4ad249a95c61","ios":"levelo://app?vid=06017cae-3c94-4744-9f6a-4ad249a95c61"},"vehicle_type_id":"4","last_reported":1739603257,"current_range_meters":36800,"station_id":"ce4bhnp2rcd13ifvqh0g","pricing_plan_id":"cebpf4jnsgd1na2vs0mg"},{"bike_id":"34c7500b-27c2-4f36-83ee-9d994a6b7ebd","system_id":"levelo_inurba_marseille","lat":43.284046,"lon":5.375168,"is_reserved":false,"is_disabled":false,"rental_uris":{"android":"levelo://app?vid=34c7500b-27c2-4f36-83ee-9d994a6b7ebd","ios":"levelo://app?vid=34c7500b-27c2-4f36-83ee-9d994a6b7ebd"},"vehicle_type_id":"4","last_reported":1739603257,"current_range_meters":18800,"station_id":"ce4bh412rcd13ifvqds0","pricing_plan_id":"cebpf4jnsgd1na2vs0mg"},{"bike_id":"b7675672-ea91-4212-a3c2-1e75ea117425","system_id":"levelo_inurba_marseille","lat":43.28175,"lon":5.42649,"is_reserved":false,"is_disabled":true,"rental_uris":{"android":"levelo://app?vid=b7675672-ea91-4212-a3c2-1e75ea117425","ios":"levelo://app?vid=b7675672-ea91-4212-a3c2-1e75ea117425"},"vehicle_type_id":"4","last_reported":1739603257,"current_range_meters":0,"station_id":"ce4bhnh2rcd13ifvqgug","pricing_plan_id":"cebpf4jnsgd1na2vs0mg"},{"bike_id":"ca61d0e9-378d-4484-bcf6-2e1ab7b5d84f","system_id":"levelo_inurba_marseille","lat":43.298527,"lon":5.362797,"is_reserved":false,"is_disabled":false,"rental_uris":{"android":"levelo://app?vid=ca61d0e9-378d-4484-bcf6-2e1ab7b5d84f","ios":"levelo://app?vid=ca61d0e9-378d-4484-bcf6-2e1ab7b5d84f"},"vehicle_type_id":"4","last_reported":1739603257,"current_range_meters":38800,"station_id":"ce4bgpp2rcd13ifvqc3g","pricing_plan_id":"cebpf4jnsgd1na2vs0mg"},{"bike_id":"8cd34743-59ad-4597-983e-df465622bf8b","system_id":"levelo_inurba_marseille","lat":43.28675,"lon":5.38688,"is_reserved":false,"is_disabled":false,"rental_uris":{"android":"levelo://app?vid=8cd34743-59ad-4597-983e-df465622bf8b","ios":"levelo://app?vid=8cd34743-59ad-4597-983e-df465622bf8b"},"vehicle_type_id":"4","last_reported":1739603257,"current_range_meters":38800,"station_id":"ce4bh492rcd13ifvqdug","pricing_plan_id":"cebpf4jnsgd1na2vs0mg"},{"bike_id":"008ed16f-d916-42dc-9845-48f81c518e29","system_id":"levelo_inurba_marseille","lat":43.302202,"lon":5.365662,"is_reserved":false,"is_disabled":false,"rental_uris":{"android":"levelo://app?vid=008ed16f-d916-42dc-9845-48f81c518e29","ios":"levelo://app?vid=008ed16f-d916-42dc-9845-48f81c518e29"},"vehicle_type_id":"4","last_reported":1739603257,"current_range_meters":38400,"station_id":"ce4bgrh2rcd13ifvqc8g","pricing_plan_id":"cebpf4jnsgd1na2vs0mg"},{"bike_id":"a66e07c4-bacf-49eb-9df1-f44729c0788f","system_id":"levelo_inurba_marseille","lat":43.29562,"lon":5.39997,"is_reserved":false,"is_disabled":false,"rental_uris":{"android":"levelo://app?vid=a66e07c4-bacf-49eb-9df1-f44729c0788f","ios":"levelo://app?vid=a66e07c4-bacf-49eb-9df1-f44729c0788f"},"vehicle_type_id":"4","last_reported":1739603257,"current_range_meters":38800,"station_id":"ce4bh312rcd13ifvqdj0","pricing_plan_id":"cebpf4jnsgd1na2vs0mg"},{"bike_id":"94d1cf71-63c3-4d38-9d17-985126d482ee","system_id":"levelo_inurba_marseille","lat":43.2953,"lon":5.394,"is_reserved":false,"is_disabled":false,"rental_uris":{"android":"levelo://app?vid=94d1cf71-63c3-4d38-9d17-985126d482ee","ios":"levelo://app?vid=94d1cf71-63c3-4d38-9d17-985126d482ee"},"vehicle_type_id":"4","last_reported":1739603257,"current_range_meters":38800,"station_id":"ce4bh292rcd13ifvqdf0","pricing_plan_id":"cebpf4jnsgd1na2vs0mg"},{"bike_id":"4df18ca1-d2d5-4e4f-84ca-1aa5f2e07468","system_id":"levelo_inurba_marseille","lat":43.279954,"lon":5.400199,"is_reserved":false,"is_disabled":false,"rental_uris":{"android":"levelo://app?vid=4df18ca1-d2d5-4e4f-84ca-1aa5f2e07468","ios":"levelo://app?vid=4df18ca1-d2d5-4e4f-84ca-1aa5f2e07468"},"vehicle_type_id":"4","last_reported":1739603257,"current_range_meters":8000,"station_id":"ce4bho92rcd13ifvqh4g","pricing_plan_id":"cebpf4jnsgd1na2vs0mg"},{"bike_id":"62862006-05b4-4c32-b74d-3d73ca0f3a49","system_id":"levelo_inurba_marseille","lat":43.29493,"lon":5.36395,"is_reserved":false,"is_disabled":true,"rental_uris":{"android":"levelo://app?vid=62862006-05b4-4c32-b74d-3d73ca0f3a49","ios":"levelo://app?vid=62862006-05b4-4c32-b74d-3d73ca0f3a49"},"vehicle_type_id":"4","last_reported":1739603257,"current_range_meters":23200,"station_id":"","pricing_plan_id":"cebpf4jnsgd1na2vs0mg"},{"bike_id":"92d1ee13-e974-447f-aca6-7b5bff8f8b19","system_id":"levelo_inurba_marseille","lat":43.280755,"lon":5.396501,"is_reserved":false,"is_disabled":false,"rental_uris":{"android":"levelo://app?vid=92d1ee13-e974-447f-aca6-7b5bff8f8b19","ios":"levelo://app?vid=92d1ee13-e974-447f-aca6-7b5bff8f8b19"},"vehicle_type_id":"4","last_reported":1739603257,"current_range_meters":38800,"station_id":"ce4bho12rcd13ifvqh2g","pricing_plan_id":"cebpf4jnsgd1na2vs0mg"},{"bike_id":"55c71887-75ae-440f-aed8-5a0380896118","system_id":"levelo_inurba_marseille","lat":43.298501,"lon":5.362921,"is_reserved":false,"is_disabled":true,"rental_uris":{"android":"levelo://app?vid=55c71887-75ae-440f-aed8-5a0380896118","ios":"levelo://app?vid=55c71887-75ae-440f-aed8-5a0380896118"},"vehicle_type_id":"4","last_reported":1739603257,"current_range_meters":33600,"station_id":"ce4bgpp2rcd13ifvqc3g","pricing_plan_id":"cebpf4jnsgd1na2vs0mg"},{"bike_id":"bd17c149-7a64-442c-bad3-25faab1e1d15","system_id":"levelo_inurba_marseille","lat":43.30313,"lon":5.39209,"is_reserved":false,"is_disabled":true,"rental_uris":{"android":"levelo://app?vid=bd17c149-7a64-442c-bad3-25faab1e1d15","ios":"levelo://app?vid=bd17c149-7a64-442c-bad3-25faab1e1d15"},"vehicle_type_id":"4","last_reported":1739603257,"current_range_meters":36400,"station_id":"ce4bgkh2rcd13ifvqbk0","pricing_plan_id":"cebpf4jnsgd1na2vs0mg"},{"bike_id":"1210d2f2-1555-4580-a1e7-40adc34d7604","system_id":"levelo_inurba_marseille","lat":43.24049,"lon":5.37763,"is_reserved":false,"is_disabled":false,"rental_uris":{"android":"levelo://app?vid=1210d2f2-1555-4580-a1e7-40adc34d7604","ios":"levelo://app?vid=1210d2f2-1555-4580-a1e7-40adc34d7604"},"vehicle_type_id":"4","last_reported":1739603257,"current_range_meters":25200,"station_id":"ce4bhnp2rcd13ifvqgvg","pricing_plan_id":"cebpf4jnsgd1na2vs0mg"},{"bike_id":"5f431628-1b2d-4a9e-9493-29ef6605563f","system_id":"levelo_inurba_marseille","lat":43.29505,"lon":5.39062,"is_reserved":false,"is_disabled":true,"rental_uris":{"android":"levelo://app?vid=5f431628-1b2d-4a9e-9493-29ef6605563f","ios":"levelo://app?vid=5f431628-1b2d-4a9e-9493-29ef6605563f"},"vehicle_type_id":"4","last_reported":1739603257,"current_range_meters":38400,"station_id":"ce4bh3p2rcd13ifvqdp0","pricing_plan_id":"cebpf4jnsgd1na2vs0mg"},{"bike_id":"3760be46-9947-4266-a54f-ee253cc823c2","system_id":"levelo_inurba_marseille","lat":43.28713,"lon":5.37402,"is_reserved":false,"is_disabled":false,"rental_uris":{"android":"levelo://app?vid=3760be46-9947-4266-a54f-ee253cc823c2","ios":"levelo://app?vid=3760be46-9947-4266-a54f-ee253cc823c2"},"vehicle_type_id":"4","last_reported":1739603257,"current_range_meters":39200,"station_id":"ce4bh3p2rcd13ifvqdq0","pricing_plan_id":"cebpf4jnsgd1na2vs0mg"},{"bike_id":"dbfb7df1-d758-448c-9075-e7feb5f00d8e","system_id":"levelo_inurba_marseille","lat":43.24079,"lon":5.37764,"is_reserved":false,"is_disabled":false,"rental_uris":{"android":"levelo://app?vid=dbfb7df1-d758-448c-9075-e7feb5f00d8e","ios":"levelo://app?vid=dbfb7df1-d758-448c-9075-e7feb5f00d8e"},"vehicle_type_id":"4","last_reported":1739603257,"current_range_meters":18800,"station_id":"ce4bhnp2rcd13ifvqgvg","pricing_plan_id":"cebpf4jnsgd1na2vs0mg"},{"bike_id":"8267c286-9820-411a-a3b7-cb6a54ba45b4","system_id":"levelo_inurba_marseille","lat":43.28935,"lon":5.36409,"is_reserved":false,"is_disabled":false,"rental_uris":{"android":"levelo://app?vid=8267c286-9820-411a-a3b7-cb6a54ba45b4","ios":"levelo://app?vid=8267c286-9820-411a-a3b7-cb6a54ba45b4"},"vehicle_type_id":"4","last_reported":1739603257,"current_range_meters":38800,"station_id":"ce4bhc92rcd13ifvqetg","pricing_plan_id":"cebpf4jnsgd1na2vs0mg"},{"bike_id":"e031351b-efdb-4640-8255-b69e1640bbff","system_id":"levelo_inurba_marseille","lat":43.24158,"lon":5.36397,"is_reserved":false,"is_disabled":false,"rental_uris":{"android":"levelo://app?vid=e031351b-efdb-4640-8255-b69e1640bbff","ios":"levelo://app?vid=e031351b-efdb-4640-8255-b69e1640bbff"},"vehicle_type_id":"4","last_reported":1739603257,"current_range_meters":30800,"station_id":"cpo36qri1sfpv3e86is0","pricing_plan_id":"cebpf4jnsgd1na2vs0mg"},{"bike_id":"e8295fae-acd2-4a26-b850-67cadf717b7d","system_id":"levelo_inurba_marseille","lat":43.29518,"lon":5.3941,"is_reserved":false,"is_disabled":false,"rental_uris":{"android":"levelo://app?vid=e8295fae-acd2-4a26-b850-67cadf717b7d","ios":"levelo://app?vid=e8295fae-acd2-4a26-b850-67cadf717b7d"},"vehicle_type_id":"4","last_reported":1739603257,"current_range_meters":38800,"station_id":"ce4bh292rcd13ifvqdf0","pricing_plan_id":"cebpf4jnsgd1na2vs0mg"},{"bike_id":"435c4be5-0960-45fb-a94f-882917046b98","system_id":"levelo_inurba_marseille","lat":43.28069,"lon":5.39703,"is_reserved":false,"is_disabled":false,"rental_uris":{"android":"levelo://app?vid=435c4be5-0960-45fb-a94f-882917046b98","ios":"levelo://app?vid=435c4be5-0960-45fb-a94f-882917046b98"},"vehicle_type_id":"4","last_reported":1739603257,"current_range_meters":10000,"station_id":"ce4bho12rcd13ifvqh2g","pricing_plan_id":"cebpf4jnsgd1na2vs0mg"},{"bike_id":"b9f015dd-964f-42e6-b816-592b49d93bf3","system_id":"levelo_inurba_marseille","lat":43.24545,"lon":5.39511,"is_reserved":false,"is_disabled":false,"rental_uris":{"android":"levelo://app?vid=b9f015dd-964f-42e6-b816-592b49d93bf3","ios":"levelo://app?vid=b9f015dd-964f-42e6-b816-592b49d93bf3"},