{"last_updated":1762766009,"ttl":60,"version":"2.2","data":{"bikes":[{"bike_id":"6783ec35-2a4f-4805-8ba5-3c70446afdc3","system_id":"levelo_inurba_marseille","lat":43.28699,"lon":5.3998,"is_reserved":false,"is_disabled":false,"rental_uris":{"android":"levelo://app?vid=6783ec35-2a4f-4805-8ba5-3c70446afdc3","ios":"levelo://app?vid=6783ec35-2a4f-4805-8ba5-3c70446afdc3"},"vehicle_type_id":"4","last_reported":1762766009,"current_range_meters":2800,"station_id":"ce4bho92rcd13ifvqh3g","pricing_plan_id":"cebpf4jnsgd1na2vs0mg"},{"bike_id":"9dda5635-a624-436d-9b12-22fb00320230","system_id":"levelo_inurba_marseille","lat":43.29322,"lon":5.37155,"is_reserved":false,"is_disabled":false,"rental_uris":{"android":"levelo://app?vid=9dda5635-a624-436d-9b12-22fb00320230","ios":"levelo://app?vid=9dda5635-a624-436d-9b12-22fb00320230"},"vehicle_type_id":"4","last_reported":1762766009,"current_range_meters":3200,"station_id":"","pricing_plan_id":"cebpf4jnsgd1na2vs0mg"},{"bike_id":"9f611ac1-6f6a-4437-9025-ea87f35606a4","system_id":"levelo_inurba_marseille","lat":43.28554,"lon":5.37768,"is_reserved":false,"is_disabled":false,"rental_uris":{"android":"levelo://app?vid=9f611ac1-6f6a-4437-9025-ea87f35606a4","ios":"levelo://app?vid=9f611ac1-6f6a-4437-9025-ea87f35606a4"},"vehicle_type_id":"4","last_reported":1762766009,"current_range_meters":3200,"station_id":"","pricing_plan_id":"cebpf4jnsgd1na2vs0mg"},{"bike_id":"04f6e0bb-dbec-4a8f-ad51-3913dfd8663d","system_id":"levelo_inurba_marseille","lat":43.29818,"lon":5.38781,"is_reserved":false,"is_disabled":false,"rental_uris":{"android":"levelo://app?vid=04f6e0bb-dbec-4a8f-ad51-3913dfd8663d","ios":"levelo://app?vid=04f6e0bb-dbec-4a8f-ad51-3913dfd8663d"},"vehicle_type_id":"4","last_reported":1762766009,"current_range_meters":3200,"station_id":"","pricing_plan_id":"cebpf4jnsgd1na2vs0mg"},{"bike_id":"eb83f795-02c3-4275-bdd4-2c8fd9134172","system_id":"levelo_inurba_marseille","lat":43.29572,"lon":5.39969,"is_reserved":false,"is_disabled":false,"rental_uris":{"android":"levelo://app?vid=eb83f795-02c3-4275-bdd4-2c8fd9134172","ios":"levelo://app?vid=eb83f795-02c3-4275-bdd4-2c8fd9134172"},"vehicle_type_id":"4","last_reported":1762766009,"current_range_meters":3200,"station_id":"ce4bh312rcd13ifvqdj0","pricing_plan_id":"cebpf4jnsgd1na2vs0mg"},{"bike_id":"f6a9555e-a2c8-427e-8a3e-5a883338c243","system_id":"levelo_inurba_marseille","lat":43.28867,"lon":5.42527,"is_reserved":false,"is_disabled":false,"rental_uris":{"android":"levelo://app?vid=f6a9555e-a2c8-427e-8a3e-5a883338c243","ios":"levelo://app?vid=f6a9555e-a2c8-427e-8a3e-5a883338c243"},"vehicle_type_id":"4","last_reported":1762766009,"current_range_meters":3200,"station_id":"st_d3b462108ojc7389ooeg","pricing_plan_id":"cebpf4jnsgd1na2vs0mg"},{"bike_id":"8040d437-b793-4c7c-83dd-8a60b4a68d3a","system_id":"levelo_inurba_marseille","lat":43.259323,"lon":5.409168,"is_reserved":false,"is_disabled":true,"rental_uris":{"android":"levelo://app?vid=8040d437-b793-4c7c-83dd-8a60b4a68d3a","ios":"levelo://app?vid=8040d437-b793-4c7c-83dd-8a60b4a68d3a"},"vehicle_type_id":"4","last_reported":1762766009,"current_range_meters":3600,"station_id":"ce4bhm92rcd13ifvqglg","pricing_plan_id":"cebpf4jnsgd1na2vs0mg"},{"bike_id":"37dea3ce-b27d-4648-8d1b-a83e86e802bc","system_id":"levelo_inurba_marseille","lat":43.27921,"lon":5.39576,"is_reserved":false,"is_disabled":false,"rental_uris":{"android":"levelo://app?vid=37dea3ce-b27d-4648-8d1b-a83e86e802bc","ios":"levelo://app?vid=37dea3ce-b27d-4648-8d1b-a83e86e802bc"},"vehicle_type_id":"4","last_reported":1762766009,"current_range_meters":3600,"station_id":"ce4bhf92rcd13ifvqf40","pricing_plan_id":"cebpf4jnsgd1na2vs0mg"},{"bike_id":"3b294fa9-3f9f-4381-a2a8-e3592d375a68","system_id":"levelo_inurba_marseille","lat":43.267,"lon":5.39703,"is_reserved":false,"is_disabled":false,"rental_uris":{"android":"levelo://app?vid=3b294fa9-3f9f-4381-a2a8-e3592d375a68","ios":"levelo://app?vid=3b294fa9-3f9f-4381-a2a8-e3592d375a68"},"vehicle_type_id":"4","last_reported":1762766009,"current_range_meters":3600,"station_id":"","pricing_plan_id":"cebpf4jnsgd1na2vs0mg"},{"bike_id":"20be87c4-afee-4a49-a220-52728fb4fb94","system_id":"levelo_inurba_marseille","lat":43.265408,"lon":5.372885,"is_reserved":false,"is_disabled":true,"rental_uris":{"android":"levelo://app?vid=20be87c4-afee-4a49-a220-52728fb4fb94","ios":"levelo://app?vid=20be87c4-afee-4a49-a220-52728fb4fb94"},"vehicle_type_id":"4","last_reported":1762766009,"current_range_meters":4000,"station_id":"ce4bhg12rcd13ifvqf70","pricing_plan_id":"cebpf4jnsgd1na2vs0mg"},{"bike_id":"78b4c311-b3d0-4884-b0da-6082785efb0e","system_id":"levelo_inurba_marseille","lat":43.28475,"lon":5.48498,"is_reserved":false,"is_disabled":false,"rental_uris":{"android":"levelo://app?vid=78b4c311-b3d0-4884-b0da-6082785efb0e","ios":"levelo://app?vid=78b4c311-b3d0-4884-b0da-6082785efb0e"},"vehicle_type_id":"4","last_reported":1762766009,"current_range_meters":4000,"station_id":"st_d3svhcjqgbts73a3dn0g","pricing_plan_id":"cebpf4jnsgd1na2vs0mg"},{"bike_id":"321d43c2-a97c-419e-a110-a172b4ee23e9","system_id":"levelo_inurba_marseille","lat":43.26152,"lon":5.41786,"is_reserved":false,"is_disabled":false,"rental_uris":{"android":"levelo://app?vid=321d43c2-a97c-419e-a110-a172b4ee23e9","ios":"levelo://app?vid=321d43c2-a97c-419e-a110-a172b4ee23e9"},"vehicle_type_id":"4","last_reported":1762766009,"current_range_meters":4000,"station_id":"","pricing_plan_id":"cebpf4jnsgd1na2vs0mg"},{"bike_id":"ba6114fd-558e-4e3e-b68c-7027f7e70564","system_id":"levelo_inurba_marseille","lat":43.30548,"lon":5.36564,"is_reserved":false,"is_disabled":false,"rental_uris":{"android":"levelo://app?vid=ba6114fd-558e-4e3e-b68c-7027f7e70564","ios":"levelo://app?vid=ba6114fd-558e-4e3e-b68c-7027f7e70564"},"vehicle_type_id":"4","last_reported":1762766009,"current_range_meters":4000,"station_id":"ce4bgs12rcd13ifvqcag","pricing_plan_id":"cebpf4jnsgd1na2vs0mg"},{"bike_id":"910cc3ae-7ba4-48e5-a244-931e2df10a06","system_id":"levelo_inurba_marseille","lat":43.27102,"lon":5.39284,"is_reserved":false,"is_disabled":false,"rental_uris":{"android":"levelo://app?vid=910cc3ae-7ba4-48e5-a244-931e2df10a06","ios":"levelo://app?vid=910cc3ae-7ba4-48e5-a244-931e2df10a06"},"vehicle_type_id":"4","last_reported":1762766009,"current_range_meters":4000,"station_id":"","pricing_plan_id":"cebpf4jnsgd1na2vs0mg"},{"bike_id":"063d8ea3-eac1-4d86-84b9-a0393ac5022f","system_id":"levelo_inurba_marseille","lat":43.28303,"lon":5.39015,"is_reserved":false,"is_disabled":true,"rental_uris":{"android":"levelo://app?vid=063d8ea3-eac1-4d86-84b9-a0393ac5022f","ios":"levelo://app?vid=063d8ea3-eac1-4d86-84b9-a0393ac5022f"},"vehicle_type_id":"4","last_reported":1762766009,"current_range_meters":4400,"station_id":"","pricing_plan_id":"cebpf4jnsgd1na2vs0mg"},{"bike_id":"6c6f65b3-0314-4d51-ad33-575d2b20e8f4","system_id":"levelo_inurba_marseille","lat":43.2174,"lon":5.34611,"is_reserved":false,"is_disabled":false,"rental_uris":{"android":"levelo://app?vid=6c6f65b3-0314-4d51-ad33-575d2b20e8f4","ios":"levelo://app?vid=6c6f65b3-0314-4d51-ad33-575d2b20e8f4"},"vehicle_type_id":"4","last_reported":1762766009,"current_range_meters":4400,"station_id":"st_cvj6r9ubvosntc0bgbag","pricing_plan_id":"cebpf4jnsgd1na2vs0mg"},{"bike_id":"0b65d485-0742-49d0-8c7b-b70591fbb2ac","system_id":"levelo_inurba_marseille","lat":43.23145,"lon":5.43725,"is_reserved":false,"is_disabled":false,"rental_uris":{"android":"levelo://app?vid=0b65d485-0742-49d0-8c7b-b70591fbb2ac","ios":"levelo://app?vid=0b65d485-0742-49d0-8c7b-b70591fbb2ac"},"vehicle_type_id":"4","last_reported":1762766009,"current_range_meters":4400,"station_id":"ce4bhmp2rcd13ifvqgog","pricing_plan_id":"cebpf4jnsgd1na2vs0mg"},{"bike_id":"a98eb5f7-2b78-4fcd-8cc1-f9604b535f51","system_id":"levelo_inurba_marseille","lat":43.30211,"lon":5.394637,"is_reserved":false,"is_disabled":false,"rental_uris":{"android":"levelo://app?vid=a98eb5f7-2b78-4fcd-8cc1-f9604b535f51","ios":"levelo://app?vid=a98eb5f7-2b78-4fcd-8cc1-f9604b535f51"},"vehicle_type_id":"4","last_reported":1762766009,"current_range_meters":4400,"station_id":"ce4bh0p2rcd13ifvqd70","pricing_plan_id":"cebpf4jnsgd1na2vs0mg"},{"bike_id":"c844113e-14a6-4a8e-888e-1422d895e633","system_id":"levelo_inurba_marseille","lat":43.259407,"lon":5.40901,"is_reserved":false,"is_disabled":false,"rental_uris":{"android":"levelo://app?vid=c844113e-14a6-4a8e-888e-1422d895e633","ios":"levelo://app?vid=c844113e-14a6-4a8e-888e-1422d895e633"},"vehicle_type_id":"4","last_reported":1762766009,"current_range_meters":4400,"station_id":"ce4bhm92rcd13ifvqglg","pricing_plan_id":"cebpf4jnsgd1na2vs0mg"},{"bike_id":"b36c7388-867a-4a7a-abfa-18d78b13beb6","system_id":"levelo_inurba_marseille","lat":43.231543,"lon":5.437135,"is_reserved":false,"is_disabled":false,"rental_uris":{"android":"levelo://app?vid=b36c7388-867a-4a7a-abfa-18d78b13beb6","ios":"levelo://app?vid=b36c7388-867a-4a7a-abfa-18d78b13beb6"},"vehicle_type_id":"4","last_reported":1762766009,"current_range_meters":4800,"station_id":"ce4bhmp2rcd13ifvqgog","pricing_plan_id":"cebpf4jnsgd1na2vs0mg"},{"bike_id":"dce6c1e6-7f1a-4c82-96b4-8ba2a1930222","system_id":"levelo_inurba_marseille","lat":43.28315,"lon":5.39971,"is_reserved":false,"is_disabled":false,"rental_uris":{"android":"levelo://app?vid=dce6c1e6-7f1a-4c82-96b4-8ba2a1930222","ios":"levelo://app?vid=dce6c1e6-7f1a-4c82-96b4-8ba2a1930222"},"vehicle_type_id":"4","last_reported":1762766009,"current_range_meters":5600,"station_id":"","pricing_plan_id":"cebpf4jnsgd1na2vs0mg"},{"bike_id":"1c189e2a-7a0e-4c97-b2bb-89da3071334b","system_id":"levelo_inurba_marseille","lat":43.326578,"lon":5.409975,"is_reserved":false,"is_disabled":false,"rental_uris":{"android":"levelo://app?vid=1c189e2a-7a0e-4c97-b2bb-89da3071334b","ios":"levelo://app?vid=1c189e2a-7a0e-4c97-b2bb-89da3071334b"},"vehicle_type_id":"4","last_reported":1762766009,"current_range_meters":5600,"station_id":"ce4bhpp2rcd13ifvqhgg","pricing_plan_id":"cebpf4jnsgd1na2vs0mg"},{"bike_id":"20ddd368-cdf1-47d0-9932-7077a9a54c71","system_id":"levelo_inurba_marseille","lat":43.29587,"lon":5.36744,"is_reserved":false,"is_disabled":false,"rental_uris":{"android":"levelo://app?vid=20ddd368-cdf1-47d0-9932-7077a9a54c71","ios":"levelo://app?vid=20ddd368-cdf1-47d0-9932-7077a9a54c71"},"vehicle_type_id":"4","last_reported":1762766009,"current_range_meters":5600,"station_id":"ce4bgph2rcd13ifvqc2g","pricing_plan_id":"cebpf4jnsgd1na2vs0mg"},{"bike_id":"e9abcbef-2e3f-41d7-aa86-40569492a8a7","system_id":"levelo_inurba_marseille","lat":43.25335,"lon":5.42175,"is_reserved":false,"is_disabled":false,"rental_uris":{"android":"levelo://app?vid=e9abcbef-2e3f-41d7-aa86-40569492a8a7","ios":"levelo://app?vid=e9abcbef-2e3f-41d7-aa86-40569492a8a7"},"vehicle_type_id":"4","last_reported":1762766009,"current_range_meters":5600,"station_id":"st_d2m65c5bi1j21697t3ng","pricing_plan_id":"cebpf4jnsgd1na2vs0mg"},{"bike_id":"b05048b6-3636-4628-97b9-678771374061","system_id":"levelo_inurba_marseille","lat":43.30451,"lon":5.36744,"is_reserved":false,"is_disabled":false,"rental_uris":{"android":"levelo://app?vid=b05048b6-3636-4628-97b9-678771374061","ios":"levelo://app?vid=b05048b6-3636-4628-97b9-678771374061"},"vehicle_type_id":"4","last_reported":1762766009,"current_range_meters":5600,"station_id":"","pricing_plan_id":"cebpf4jnsgd1na2vs0mg"},{"bike_id":"d58162db-574a-44f0-b573-b59c9312a09d","system_id":"levelo_inurba_marseille","lat":43.28281,"lon":5.35064,"is_reserved":false,"is_disabled":true,"rental_uris":{"android":"levelo://app?vid=d58162db-574a-44f0-b573-b59c9312a09d","ios":"levelo://app?vid=d58162db-574a-44f0-b573-b59c9312a09d"},"vehicle_type_id":"4","last_reported":1762766009,"current_range_meters":5600,"station_id":"ce4bhbp2rcd13ifvqerg","pricing_plan_id":"cebpf4jnsgd1na2vs0mg"},{"bike_id":"d037aee7-5bda-4713-ab2d-1623d9623914","system_id":"levelo_inurba_marseille","lat":43.29296,"lon":5.37152,"is_reserved":false,"is_disabled":false,"rental_uris":{"android":"levelo://app?vid=d037aee7-5bda-4713-ab2d-1623d9623914","ios":"levelo://app?vid=d037aee7-5bda-4713-ab2d-1623d9623914"},"vehicle_type_id":"4","last_reported":1762766009,"current_range_meters":5600,"station_id":"ce4bgh92rcd13ifvqb40","pricing_plan_id":"cebpf4jnsgd1na2vs0mg"},{"bike_id":"a11c9222-09b3-4421-8cd1-5ce6d4c1001f","system_id":"levelo_inurba_marseille","lat":43.29099,"lon":5.38117,"is_reserved":false,"is_disabled":false,"rental_uris":{"android":"levelo://app?vid=a11c9222-09b3-4421-8cd1-5ce6d4c1001f","ios":"levelo://app?vid=a11c9222-09b3-4421-8cd1-5ce6d4c1001f"},"vehicle_type_id":"4","last_reported":1762766009,"current_range_meters":5600,"station_id":"ce4bh512rcd13ifvqe2g","pricing_plan_id":"cebpf4jnsgd1na2vs0mg"},{"bike_id":"870a9ad1-db35-4ab0-bc9a-84476efc6571","system_id":"levelo_inurba_marseille","lat":43.32798,"lon":5.42656,"is_reserved":false,"is_disabled":false,"rental_uris":{"android":"levelo://app?vid=870a9ad1-db35-4ab0-bc9a-84476efc6571","ios":"levelo://app?vid=870a9ad1-db35-4ab0-bc9a-84476efc6571"},"vehicle_type_id":"4","last_reported":1762766009,"current_range_meters":5600,"station_id":"","pricing_plan_id":"cebpf4jnsgd1na2vs0mg"},{"bike_id":"1478ca2b-70a5-4541-b69d-0bf9318a6ed7","system_id":"levelo_inurba_marseille","lat":43.31487,"lon":5.37307,"is_reserved":false,"is_disabled":false,"rental_uris":{"android":"levelo://app?vid=1478ca2b-70a5-4541-b69d-0bf9318a6ed7","ios":"levelo://app?vid=1478ca2b-70a5-4541-b69d-0bf9318a6ed7"},"vehicle_type_id":"4","last_reported":1762766009,"current_range_meters":6000,"station_id":"ce4bgt12rcd13ifvqcd0","pricing_plan_id":"cebpf4jnsgd1na2vs0mg"},{"bike_id":"6a5cb119-1a64-415c-a949-ec0bb54d8799","system_id":"levelo_inurba_marseille","lat":43.33153,"lon":5.37725,"is_reserved":false,"is_disabled":false,"rental_uris":{"android":"levelo://app?vid=6a5cb119-1a64-415c-a949-ec0bb54d8799","ios":"levelo://app?vid=6a5cb119-1a64-415c-a949-ec0bb54d8799"},"vehicle_type_id":"4","last_reported":1762766009,"current_range_meters":6000,"station_id":"st_d46cu089ee8s73dldbu0","pricing_plan_id":"cebpf4jnsgd1na2vs0mg"},{"bike_id":"c1b9b09a-e16a-4c6e-a108-693de5de6f63","system_id":"levelo_inurba_marseille","lat":43.24544,"lon":5.39524,"is_reserved":false,"is_disabled":false,"rental_uris":{"android":"levelo://app?vid=c1b9b09a-e16a-4c6e-a108-693de5de6f63","ios":"levelo://app?vid=c1b9b09a-e16a-4c6e-a108-693de5de6f63"},"vehicle_type_id":"4","last_reported":1762766009,"current_range_meters":6000,"station_id":"ce4bhlp2rcd13ifvqgjg","pricing_plan_id":"cebpf4jnsgd1na2vs0mg"},{"bike_id":"16c91c78-aaed-418c-984a-daf01968f546","system_id":"levelo_inurba_marseille","lat":43.23152,"lon":5.43718,"is_reserved":false,"is_disabled":false,"rental_uris":{"android":"levelo://app?vid=16c91c78-aaed-418c-984a-daf01968f546","ios":"levelo://app?vid=16c91c78-aaed-418c-984a-daf01968f546"},"vehicle_type_id":"4","last_reported":1762766009,"current_range_meters":6000,"station_id":"ce4bhmp2rcd13ifvqgog","pricing_plan_id":"cebpf4jnsgd1na2vs0mg"},{"bike_id":"8c27c03b-fa4d-4f53-a78b-9c07f2f1f500","system_id":"levelo_inurba_marseille","lat":43.293003,"lon":5.424885,"is_reserved":false,"is_disabled":false,"rental_uris":{"android":"levelo://app?vid=8c27c03b-fa4d-4f53-a78b-9c07f2f1f500","ios":"levelo://app?vid=8c27c03b-fa4d-4f53-a78b-9c07f2f1f500"},"vehicle_type_id":"4","last_reported":1762766009,"current_range_meters":6400,"station_id":"","pricing_plan_id":"cebpf4jnsgd1na2vs0mg"},{"bike_id":"b696b6f6-4060-448f-aca2-0033b1e149bb","system_id":"levelo_inurba_marseille","lat":43.278059,"lon":5.4051,"is_reserved":false,"is_disabled":false,"rental_uris":{"android":"levelo://app?vid=b696b6f6-4060-448f-aca2-0033b1e149bb","ios":"levelo://app?vid=b696b6f6-4060-448f-aca2-0033b1e149bb"},"vehicle_type_id":"4","last_reported":1762766009,"current_range_meters":6400,"station_id":"ce4bhnh2rcd13ifvqgtg","pricing_plan_id":"cebpf4jnsgd1na2vs0mg"},{"bike_id":"825a1957-d327-49da-97b3-2485c79c40e7","system_id":"levelo_inurba_marseille","lat":43.21761,"lon":5.34593,"is_reserved":false,"is_disabled":true,"rental_uris":{"android":"levelo://app?vid=825a1957-d327-49da-97b3-2485c79c40e7","ios":"levelo://app?vid=825a1957-d327-49da-97b3-2485c79c40e7"},"vehicle_type_id":"4","last_reported":1762766009,"current_range_meters":6400,"station_id":"st_cvj6r9ubvosntc0bgbag","pricing_plan_id":"cebpf4jnsgd1na2vs0mg"},{"bike_id":"eebc9f8a-254a-4286-9970-d203c936264d","system_id":"levelo_inurba_marseille","lat":43.316586,"lon":5.374726,"is_reserved":false,"is_disabled":false,"rental_uris":{"android":"levelo://app?vid=eebc9f8a-254a-4286-9970-d203c936264d","ios":"levelo://app?vid=eebc9f8a-254a-4286-9970-d203c936264d"},"vehicle_type_id":"4","last_reported":1762766009,"current_range_meters":6400,"station_id":"","pricing_plan_id":"cebpf4jnsgd1na2vs0mg"},{"bike_id":"55154e2f-167b-4ca3-8e22-0c8d21b563be","system_id":"levelo_inurba_marseille","lat":43.26787,"lon":5.39409,"is_reserved":false,"is_disabled":false,"rental_uris":{"android":"levelo://app?vid=55154e2f-167b-4ca3-8e22-0c8d21b563be","ios":"levelo://app?vid=55154e2f-167b-4ca3-8e22-0c8d21b563be"},"vehicle_type_id":"4","last_reported":1762766009,"current_range_meters":6800,"station_id":"ce4bhh12rcd13ifvqfg0","pricing_plan_id":"cebpf4jnsgd1na2vs0mg"},{"bike_id":"15db09df-59b0-446a-87c5-e354a3319258","system_id":"levelo_inurba_marseille","lat":43.28474,"lon":5.48399,"is_reserved":false,"is_disabled":false,"rental_uris":{"android":"levelo://app?vid=15db09df-59b0-446a-87c5-e354a3319258","ios":"levelo://app?vid=15db09df-59b0-446a-87c5-e354a3319258"},"vehicle_type_id":"4","last_reported":1762766009,"current_range_meters":6800,"station_id":"","pricing_plan_id":"cebpf4jnsgd1na2vs0mg"},{"bike_id":"6e516340-9641-4325-9cd8-46780776c1ed","system_id":"levelo_inurba_marseille","lat":43.30598,"lon":5.36698,"is_reserved":false,"is_disabled":false,"rental_uris":{"android":"levelo://app?vid=6e516340-9641-4325-9cd8-46780776c1ed","ios":"levelo://app?vid=6e516340-9641-4325-9cd8-46780776c1ed"},"vehicle_type_id":"4","last_reported":1762766009,"current_range_meters":6800,"station_id":"","pricing_plan_id":"cebpf4jnsgd1na2vs0mg"},{"bike_id":"a468abfc-41a1-4cf8-84ac-466c31dd44ec","system_id":"levelo_inurba_marseille","lat":43.26805,"lon":5.39043,"is_reserved":false,"is_disabled":false,"rental_uris":{"android":"levelo://app?vid=a468abfc-41a1-4cf8-84ac-466c31dd44ec","ios":"levelo://app?vid=a468abfc-41a1-4cf8-84ac-466c31dd44ec"},"vehicle_type_id":"4","last_reported":1762766009,"current_range_meters":6800,"station_id":"","pricing_plan_id":"cebpf4jnsgd1na2vs0mg"},{"bike_id":"b39b6540-6957-4af5-87c9-12d6f4ebeb6f","system_id":"levelo_inurba_marseille","lat":43.33608,"lon":5.41032,"is_reserved":false,"is_disabled":false,"rental_uris":{"android":"levelo://app?vid=b39b6540-6957-4af5-87c9-12d6f4ebeb6f","ios":"levelo://app?vid=b39b6540-6957-4af5-87c9-12d6f4ebeb6f"},"vehicle_type_id":"4","last_reported":1762766009,"current_range_meters":6800,"station_id":"ce4bhqh2rcd13ifvqhmg","pricing_plan_id":"cebpf4jnsgd1na2vs0mg"},{"bike_id":"5794bf14-58c8-4b0e-96f2-accbf36c9ffc","system_id":"levelo_inurba_marseille","lat":43.27818,"lon":5.40717,"is_reserved":false,"is_disabled":false,"rental_uris":{"android":"levelo://app?vid=5794bf14-58c8-4b0e-96f2-accbf36c9ffc","ios":"levelo://app?vid=5794bf14-58c8-4b0e-96f2-accbf36c9ffc"},"vehicle_type_id":"4","last_reported":1762766009,"current_range_meters":6800,"station_id":"ce4bhnh2rcd13ifvqgtg","pricing_plan_id":"cebpf4jnsgd1na2vs0mg"},{"bike_id":"838e9cdb-b7e2-4e88-8b74-39a175830083","system_id":"levelo_inurba_marseille","lat":43.29963,"lon":5.38496,"is_reserved":false,"is_disabled":false,"rental_uris":{"android":"levelo://app?vid=838e9cdb-b7e2-4e88-8b74-39a175830083","ios":"levelo://app?vid=838e9cdb-b7e2-4e88-8b74-39a175830083"},"vehicle_type_id":"4","last_reported":1762766009,"current_range_meters":6800,"station_id":"ce4bgj92rcd13ifvqbd0","pricing_plan_id":"cebpf4jnsgd1na2vs0mg"},{"bike_id":"0f3caeb6-66b6-415b-9a23-7918ac426a51","system_id":"levelo_inurba_marseille","lat":43.29807,"lon":5.381,"is_reserved":false,"is_disabled":false,"rental_uris":{"android":"levelo://app?vid=0f3caeb6-66b6-415b-9a23-7918ac426a51","ios":"levelo://app?vid=0f3caeb6-66b6-415b-9a23-7918ac426a51"},"vehicle_type_id":"4","last_reported":1762766009,"current_range_meters":6800,"station_id":"ce4bgip2rcd13ifvqbb0","pricing_plan_id":"cebpf4jnsgd1na2vs0mg"},{"bike_id":"c1a8951c-0b8b-4e04-9556-ddc347871e56","system_id":"levelo_inurba_marseille","lat":43.33604,"lon":5.35437,"is_reserved":false,"is_disabled":false,"rental_uris":{"android":"levelo://app?vid=c1a8951c-0b8b-4e04-9556-ddc347871e56","ios":"levelo://app?vid=c1a8951c-0b8b-4e04-9556-ddc347871e56"},"vehicle_type_id":"4","last_reported":1762766009,"current_range_meters":6800,"station_id":"","pricing_plan_id":"cebpf4jnsgd1na2vs0mg"},{"bike_id":"682120cb-f435-4ac8-97cc-a7e9a1aac5e8","system_id":"levelo_inurba_marseille","lat":43.27076,"lon":5.42277,"is_reserved":false,"is_disabled":false,"rental_uris":{"android":"levelo://app?vid=682120cb-f435-4ac8-97cc-a7e9a1aac5e8","ios":"levelo://app?vid=682120cb-f435-4ac8-97cc-a7e9a1aac5e8"},"vehicle_type_id":"4","last_reported":1762766009,"current_range_meters":6800,"station_id":"ce4bhk92rcd13ifvqgb0","pricing_plan_id":"cebpf4jnsgd1na2vs0mg"},{"bike_id":"03c1040d-0cd6-4d1f-add6-4023bd5b5777","system_id":"levelo_inurba_marseille","lat":43.25938,"lon":5.4091,"is_reserved":false,"is_disabled":false,"rental_uris":{"android":"levelo://app?vid=03c1040d-0cd6-4d1f-add6-4023bd5b5777","ios":"levelo://app?vid=03c1040d-0cd6-4d1f-add6-4023bd5b5777"},"vehicle_type_id":"4","last_reported":1762766009,"current_range_meters":6800,"station_id":"ce4bhm92rcd13ifvqglg","pricing_plan_id":"cebpf4jnsgd1na2vs0mg"},{"bike_id":"9361caa7-6283-4f74-a012-05d0025dae29","system_id":"levelo_inurba_marseille","lat":43.24799,"lon":5.37453,"is_reserved":false,"is_disabled":false,"rental_uris":{"android":"levelo://app?vid=9361caa7-6283-4f74-a012-05d0025dae29","ios":"levelo://app?vid=9361caa7-6283-4f74-a012-05d0025dae29"},"vehicle_type_id":"4","last_reported":1762766009,"current_range_meters":7200,"station_id":"ce4bhgh2rcd13ifvqfb0","pricing_plan_id":"cebpf4jnsgd1na2vs0mg"},{"bike_id":"0b659987-f3e3-4ce8-a950-85bc5dd025a0","system_id":"levelo_inurba_marseille","lat":43.31174,"lon":5.38726,"is_reserved":false,"is_disabled":false,"rental_uris":{"android":"levelo://app?vid=0b659987-f3e3-4ce8-a950-85bc5dd025a0","ios":"levelo://app?vid=0b659987-f3e3-4ce8-a950-85bc5dd025a0"},"vehicle_type_id":"4","last_reported":1762766009,"current_range_meters":7200,"station_id":"ce4bgv12rcd13ifvqcp0","pricing_plan_id":"cebpf4jnsgd1na2vs0mg"},{"bike_id":"21dcb4e2-bef4-415f-aa59-cd0b9e2cb07b","system_id":"levelo_inurba_marseille","lat":43.22816,"lon":5.43475,"is_reserved":false,"is_disabled":false,"rental_uris":{"android":"levelo://app?vid=21dcb4e2-bef4-415f-aa59-cd0b9e2cb07b","ios":"levelo://app?vid=21dcb4e2-bef4-415f-aa59-cd0b9e2cb07b"},"vehicle_type_id":"4","last_reported":1762766009,"current_range_meters":7200,"station_id":"","pricing_plan_id":"cebpf4jnsgd1na2vs0mg"},{"bike_id":"643b19d1-719c-4c70-9c2d-de9b034bba47","system_id":"levelo_inurba_marseille","lat":43.29575,"lon":5.39985,"is_reserved":false,"is_disabled":false,"rental_uris":{"android":"levelo://app?vid=643b19d1-719c-4c70-9c2d-de9b034bba47","ios":"levelo://app?vid=643b19d1-719c-4c70-9c2d-de9b034bba47"},"vehicle_type_id":"4","last_reported":1762766009,"current_range_meters":7200,"station_id":"ce4bh312rcd13ifvqdj0","pricing_plan_id":"cebpf4jnsgd1na2vs0mg"},{"bike_id":"facb16c7-61b3-43b1-904e-2e24fd9c814c","system_id":"levelo_inurba_marseille","lat":43.30457,"lon":5.37911,"is_reserved":false,"is_disabled":false,"rental_uris":{"android":"levelo://app?vid=facb16c7-61b3-43b1-904e-2e24fd9c814c","ios":"levelo://app?vid=facb16c7-61b3-43b1-904e-2e24fd9c814c"},"vehicle_type_id":"4","last_reported":1762766009,"current_range_meters":8000,"station_id":"ce4bgup2rcd13ifvqcn0","pricing_plan_id":"cebpf4jnsgd1na2vs0mg"},{"bike_id":"46a21cfb-f74b-4e78-8efa-152fd3d808ec","system_id":"levelo_inurba_marseille","lat":43.30472,"lon":5.37911,"is_reserved":false,"is_disabled":false,"rental_uris":{"android":"levelo://app?vid=46a21cfb-f74b-4e78-8efa-152fd3d808ec","ios":"levelo://app?vid=46a21cfb-f74b-4e78-8efa-152fd3d808ec"},"vehicle_type_id":"4","last_reported":1762766009,"current_range_meters":8000,"station_id":"ce4bgup2rcd13ifvqcn0","pricing_plan_id":"cebpf4jnsgd1na2vs0mg"},{"bike_id":"7203e0af-e31e-41f0-b84f-6f5adae963c5","system_id":"levelo_inurba_marseille","lat":43.24992,"lon":5.38941,"is_reserved":false,"is_disabled":false,"rental_uris":{"android":"levelo://app?vid=7203e0af-e31e-41f0-b84f-6f5adae963c5","ios":"levelo://app?vid=7203e0af-e31e-41f0-b84f-6f5adae963c5"},"vehicle_type_id":"4","last_reported":1762766009,"current_range_meters":8000,"station_id":"ce4bhgp2rcd13ifvqfd0","pricing_plan_id":"cebpf4jnsgd1na2vs0mg"},{"bike_id":"06b572d6-d95a-4f1a-9a9a-b316897ad6d5","system_id":"levelo_inurba_marseille","lat":43.29545,"lon":5.3752,"is_reserved":false,"is_disabled":false,"rental_uris":{"android":"levelo://app?vid=06b572d6-d95a-4f1a-9a9a-b316897ad6d5","ios":"levelo://app?vid=06b572d6-d95a-4f1a-9a9a-b316897ad6d5"},"vehicle_type_id":"4","last_reported":1762766009,"current_range_meters":8000,"station_id":"ce4bgkp2rcd13ifvqbmg","pricing_plan_id":"cebpf4jnsgd1na2vs0mg"},{"bike_id":"f67f33ef-23fe-4ff5-8a43-7b241a0de7da","system_id":"levelo_inurba_marseille","lat":43.32113,"lon":5.36787,"is_reserved":false,"is_disabled":false,"rental_uris":{"android":"levelo://app?vid=f67f33ef-23fe-4ff5-8a43-7b241a0de7da","ios":"levelo://app?vid=f67f33ef-23fe-4ff5-8a43-7b241a0de7da"},"vehicle_type_id":"4","last_reported":1762766009,"current_range_meters":8400,"station_id":"ce4bhrh2rcd13ifvqhug","pricing_plan_id":"cebpf4jnsgd1na2vs0mg"},{"bike_id":"d3bdf287-30a7-4f1e-ae12-bd3584c091d8","system_id":"levelo_inurba_marseille","lat":43.28844,"lon":5.39311,"is_reserved":false,"is_disabled":false,"rental_uris":{"android":"levelo://app?vid=d3bdf287-30a7-4f1e-ae12-bd3584c091d8","ios":"levelo://app?vid=d3bdf287-30a7-4f1e-ae12-bd3584c091d8"},"vehicle_type_id":"4","last_reported":1762766009,"current_range_meters":8400,"station_id":"ce4bh2p2rcd13ifvqdi0","pricing_plan_id":"cebpf4jnsgd1na2vs0mg"},{"bike_id":"bcb7664a-39c2-46f8-930f-41cebd3d0b86","system_id":"levelo_inurba_marseille","lat":43.21209,"lon":5.35046,"is_reserved":false,"is_disabled":true,"rental_uris":{"android":"levelo://app?vid=bcb7664a-39c2-46f8-930f-41cebd3d0b86","ios":"levelo://app?vid=bcb7664a-39c2-46f8-930f-41cebd3d0b86"},"vehicle_type_id":"4","last_reported":1762766009,"current_range_meters":8400,"station_id":"st_cvj6sg6p6f1abm77japg","pricing_plan_id":"cebpf4jnsgd1na2vs0mg"},{"bike_id":"3484fbb6-5a04-4833-82a0-2f1cba3f9be5","system_id":"levelo_inurba_marseille","lat":43.21204,"lon":5.35075,"is_reserved":false,"is_disabled":false,"rental_uris":{"android":"levelo://app?vid=3484fbb6-5a04-4833-82a0-2f1cba3f9be5","ios":"levelo://app?vid=3484fbb6-5a04-4833-82a0-2f1cba3f9be5"},"vehicle_type_id":"4","last_reported":1762766009,"current_range_meters":8400,"station_id":"","pricing_plan_id":"cebpf4jnsgd1na2vs0mg"},{"bike_id":"b4bb7519-aef8-412f-a187-8d2f74f5add5","system_id":"levelo_inurba_marseille","lat":43.30098,"lon":5.39083,"is_reserved":false,"is_disabled":false,"rental_uris":{"android":"levelo://app?vid=b4bb7519-aef8-412f-a187-8d2f74f5add5","ios":"levelo://app?vid=b4bb7519-aef8-412f-a187-8d2f74f5add5"},"vehicle_type_id":"4","last_reported":1762766009,"current_range_meters":8400,"station_id":"ce4bh192rcd13ifvqdb0","pricing_plan_id":"cebpf4jnsgd1na2vs0mg"},{"bike_id":"6abba11b-eca9-4bcf-be29-28c3321e79e9","system_id":"levelo_inurba_marseille","lat":43.26569,"lon":5.38994,"is_reserved":false,"is_disabled":false,"rental_uris":{"android":"levelo://app?vid=6abba11b-eca9-4bcf-be29-28c3321e79e9","ios":"levelo://app?vid=6abba11b-eca9-4bcf-be29-28c3321e79e9"},"vehicle_type_id":"4","last_reported":1762766009,"current_range_meters":8800,"station_id":"ce4bhe12rcd13ifvqf30","pricing_plan_id":"cebpf4jnsgd1na2vs0mg"},{"bike_id":"0048371b-78b8-4e41-b20f-3db69368ec80","system_id":"levelo_inurba_marseille","lat":43.2841,"lon":5.37515,"is_reserved":false,"is_disabled":true,"rental_uris":{"android":"levelo://app?vid=0048371b-78b8-4e41-b20f-3db69368ec80","ios":"levelo://app?vid=0048371b-78b8-4e41-b20f-3db69368ec80"},"vehicle_type_id":"4","last_reported":1762766009,"current_range_meters":8800,"station_id":"ce4bh412rcd13ifvqds0","pricing_plan_id":"cebpf4jnsgd1na2vs0mg"},{"bike_id":"d6907741-003a-4b7f-9dbb-039941ccc88e","system_id":"levelo_inurba_marseille","lat":43.31813,"lon":5.40975,"is_reserved":false,"is_disabled":false,"rental_uris":{"android":"levelo://app?vid=d6907741-003a-4b7f-9dbb-039941ccc88e","ios":"levelo://app?vid=d6907741-003a-4b7f-9dbb-039941ccc88e"},"vehicle_type_id":"4","last_reported":1762766009,"current_range_meters":8800,"station_id":"","pricing_plan_id":"cebpf4jnsgd1na2vs0mg"},{"bike_id":"5a632cfb-d248-48db-b602-86b596d25c7b","system_id":"levelo_inurba_marseille","lat":43.29573,"lon":5.39985,"is_reserved":false,"is_disabled":false,"rental_uris":{"android":"levelo://app?vid=5a632cfb-d248-48db-b602-86b596d25c7b","ios":"levelo://app?vid=5a632cfb-d248-48db-b602-86b596d25c7b"},"vehicle_type_id":"4","last_reported":1762766009,"current_range_meters":8800,"station_id":"ce4bh312rcd13ifvqdj0","pricing_plan_id":"cebpf4jnsgd1na2vs0mg"},{"bike_id":"5997c6b0-b0f4-4848-a8f1-63ca201df211","system_id":"levelo_inurba_marseille","lat":43.33976,"lon":5.41582,"is_reserved":false,"is_disabled":false,"rental_uris":{"android":"levelo://app?vid=5997c6b0-b0f4-4848-a8f1-63ca201df211","ios":"levelo://app?vid=5997c6b0-b0f4-4848-a8f1-63ca201df211"},"vehicle_type_id":"4","last_reported":1762766009,"current_range_meters":8800,"station_id":"","pricing_plan_id":"cebpf4jnsgd1na2vs0mg"},{"bike_id":"d32acf6f-21aa-4fbf-bed6-33d296ca0f9f","system_id":"levelo_inurba_marseille","lat":43.21762,"lon":5.34592,"is_reserved":false,"is_disabled":false,"rental_uris":{"android":"levelo://app?vid=d32acf6f-21aa-4fbf-bed6-33d296ca0f9f","ios":"levelo://app?vid=d32acf6f-21aa-4fbf-bed6-33d296ca0f9f"},"vehicle_type_id":"4","last_reported":1762766009,"current_range_meters":9200,"station_id":"st_cvj6r9ubvosntc0bgbag","pricing_plan_id":"cebpf4jnsgd1na2vs0mg"},{"bike_id":"b6aec155-b8c9-4e36-9db9-a0dea5cf16ec","system_id":"levelo_inurba_marseille","lat":43.291969,"lon":5.358012,"is_reserved":false,"is_disabled":false,"rental_uris":{"android":"levelo://app?vid=b6aec155-b8c9-4e36-9db9-a0dea5cf16ec","ios":"levelo://app?vid=b6aec155-b8c9-4e36-9db9-a0dea5cf16ec"},"vehicle_type_id":"4","last_reported":1762766009,"current_range_meters":9200,"station_id":"ce4bhb12rcd13ifvqel0","pricing_plan_id":"cebpf4jnsgd1na2vs0mg"},{"bike_id":"4eac3eb9-9ac1-4ff6-ad57-ed359befeed2","system_id":"levelo_inurba_marseille","lat":43.22865,"lon":5.4025,"is_reserved":false,"is_disabled":false,"rental_uris":{"android":"levelo://app?vid=4eac3eb9-9ac1-4ff6-ad57-ed359befeed2","ios":"levelo://app?vid=4eac3eb9-9ac1-4ff6-ad57-ed359befeed2"},"vehicle_type_id":"4","last_reported":1762766009,"current_range_meters":9200,"station_id":"","pricing_plan_id":"cebpf4jnsgd1na2vs0mg"},{"bike_id":"944ceece-6873-4f40-b3d2-6f9b89b91f5e","system_id":"levelo_inurba_marseille","lat":43.30211,"lon":5.39465,"is_reserved":false,"is_disabled":false,"rental_uris":{"android":"levelo://app?vid=944ceece-6873-4f40-b3d2-6f9b89b91f5e","ios":"levelo://app?vid=944ceece-6873-4f40-b3d2-6f9b89b91f5e"},"vehicle_type_id":"4","last_reported":1762766009,"current_range_meters":9200,"station_id":"ce4bh0p2rcd13ifvqd70","pricing_plan_id":"cebpf4jnsgd1na2vs0mg"},{"bike_id":"46098262-b6fb-43bf-bbce-4134e8bd462e","system_id":"levelo_inurba_marseille","lat":43.2408,"lon":5.37753,"is_reserved":false,"is_disabled":false,"rental_uris":{"android":"levelo://app?vid=46098262-b6fb-43bf-bbce-4134e8bd462e","ios":"levelo://app?vid=46098262-b6fb-43bf-bbce-4134e8bd462e"},"vehicle_type_id":"4","last_reported":1762766009,"current_range_meters":9600,"station_id":"ce4bhnp2rcd13ifvqgvg","pricing_plan_id":"cebpf4jnsgd1na2vs0mg"},{"bike_id":"e5483597-d10d-4437-ba0c-12982f3a50a6","system_id":"levelo_inurba_marseille","lat":43.26596,"lon":5.39009,"is_reserved":false,"is_disabled":false,"rental_uris":{"android":"levelo://app?vid=e5483597-d10d-4437-ba0c-12982f3a50a6","ios":"levelo://app?vid=e5483597-d10d-4437-ba0c-12982f3a50a6"},"vehicle_type_id":"4","last_reported":1762766009,"current_range_meters":9600,"station_id":"ce4bhe12rcd13ifvqf30","pricing_plan_id":"cebpf4jnsgd1na2vs0mg"},{"bike_id":"f0f552c9-dd5b-44e5-8d71-e97f687d54ee","system_id":"levelo_inurba_marseille","lat":43.28423,"lon":5.34982,"is_reserved":false,"is_disabled":true,"rental_uris":{"android":"levelo://app?vid=f0f552c9-dd5b-44e5-8d71-e97f687d54ee","ios":"levelo://app?vid=f0f552c9-dd5b-44e5-8d71-e97f687d54ee"},"vehicle_type_id":"4","last_reported":1762766009,"current_range_meters":9600,"station_id":"ce4bhbh2rcd13ifvqepg","pricing_plan_id":"cebpf4jnsgd1na2vs0mg"},{"bike_id":"50da1aee-7d19-41f6-8a84-c20fda02cba2","system_id":"levelo_inurba_marseille","lat":43.273218,"lon":5.390744,"is_reserved":false,"is_disabled":false,"rental_uris":{"android":"levelo://app?vid=50da1aee-7d19-41f6-8a84-c20fda02cba2","ios":"levelo://app?vid=50da1aee-7d19-41f6-8a84-c20fda02cba2"},"vehicle_type_id":"4","last_reported":1762766009,"current_range_meters":9600,"station_id":"ce4bhgp2rcd13ifvqfe0","pricing_plan_id":"cebpf4jnsgd1na2vs0mg"},{"bike_id":"296b35f4-bf34-48bd-a614-0084f905815f","system_id":"levelo_inurba_marseille","lat":43.29922,"lon":5.36384,"is_reserved":false,"is_disabled":false,"rental_uris":{"android":"levelo://app?vid=296b35f4-bf34-48bd-a614-0084f905815f","ios":"levelo://app?vid=296b35f4-bf34-48bd-a614-0084f905815f"},"vehicle_type_id":"4","last_reported":1762766009,"current_range_meters":9600,"station_id":"","pricing_plan_id":"cebpf4jnsgd1na2vs0mg"},{"bike_id":"d8a2355e-a776-4b85-8a3e-22368796688d","system_id":"levelo_inurba_marseille","lat":43.3082,"lon":5.3685,"is_reserved":false,"is_disabled":false,"rental_uris":{"android":"levelo://app?vid=d8a2355e-a776-4b85-8a3e-22368796688d","ios":"levelo://app?vid=d8a2355e-a776-4b85-8a3e-22368796688d"},"vehicle_type_id":"4","last_reported":1762766009,"current_range_meters":9600,"station_id":"","pricing_plan_id":"cebpf4jnsgd1na2vs0mg"},{"bike_id":"cafa7506-82fc-41ee-bd9f-938b258b78e3","system_id":"levelo_inurba_marseille","lat":43.26787,"lon":5.39411,"is_reserved":false,"is_disabled":false,"rental_uris":{"android":"levelo://app?vid=cafa7506-82fc-41ee-bd9f-938b258b78e3","ios":"levelo://app?vid=cafa7506-82fc-41ee-bd9f-938b258b78e3"},"vehicle_type_id":"4","last_reported":1762766009,"current_range_meters":10000,"station_id":"ce4bhh12rcd13ifvqfg0","pricing_plan_id":"cebpf4jnsgd1na2vs0mg"},{"bike_id":"b6936378-be48-493d-ab18-7e5dfd18ae8f","system_id":"levelo_inurba_marseille","lat":43.28475,"lon":5.38415,"is_reserved":false,"is_disabled":false,"rental_uris":{"android":"levelo://app?vid=b6936378-be48-493d-ab18-7e5dfd18ae8f","ios":"levelo://app?vid=b6936378-be48-493d-ab18-7e5dfd18ae8f"},"vehicle_type_id":"4","last_reported":1762766009,"current_range_meters":10000,"station_id":"ce4bh512rcd13ifvqe3g","pricing_plan_id":"cebpf4jnsgd1na2vs0mg"},{"bike_id":"88d25b5f-faa5-4985-ac98-8396cf09fdaf","system_id":"levelo_inurba_marseille","lat":43.212051,"lon":5.350612,"is_reserved":false,"is_disabled":false,"rental_uris":{"android":"levelo://app?vid=88d25b5f-faa5-4985-ac98-8396cf09fdaf","ios":"levelo://app?vid=88d25b5f-faa5-4985-ac98-8396cf09fdaf"},"vehicle_type_id":"4","last_reported":1762766009,"current_range_meters":10000,"station_id":"st_cvj6sg6p6f1abm77japg","pricing_plan_id":"cebpf4jnsgd1na2vs0mg"},{"bike_id":"1c68d6e6-cce0-44cb-a781-43a39a3ee70a","system_id":"levelo_inurba_marseille","lat":43.303,"lon":5.392,"is_reserved":false,"is_disabled":true,"rental_uris":{"android":"levelo://app?vid=1c68d6e6-cce0-44cb-a781-43a39a3ee70a","ios":"levelo://app?vid=1c68d6e6-cce0-44cb-a781-43a39a3ee70a"},"vehicle_type_id":"4","last_reported":1762766009,"current_range_meters":10000,"station_id":"ce4bgkh2rcd13ifvqbk0","pricing_plan_id":"cebpf4jnsgd1na2vs0mg"},{"bike_id":"5e993823-f098-46e4-9fff-9d335fe5d913","system_id":"levelo_inurba_marseille","lat":43.23784,"lon":5.36629,"is_reserved":false,"is_disabled":false,"rental_uris":{"android":"levelo://app?vid=5e993823-f098-46e4-9fff-9d335fe5d913","ios":"levelo://app?vid=5e993823-f098-46e4-9fff-9d335fe5d913"},"vehicle_type_id":"4","last_reported":1762766009,"current_range_meters":10000,"station_id":"st_d3nk18o9ro0c73en2l3g","pricing_plan_id":"cebpf4jnsgd1na2vs0mg"},{"bike_id":"970709d9-5b24-44bb-beb3-4dbbfc3d4098","system_id":"levelo_inurba_marseille","lat":43.28713,"lon":5.39979,"is_reserved":false,"is_disabled":true,"rental_uris":{"android":"levelo://app?vid=970709d9-5b24-44bb-beb3-4dbbfc3d4098","ios":"levelo://app?vid=970709d9-5b24-44bb-beb3-4dbbfc3d4098"},"vehicle_type_id":"4","last_reported":1762766009,"current_range_meters":10000,"station_id":"ce4bho92rcd13ifvqh3g","pricing_plan_id":"cebpf4jnsgd1na2vs0mg"},{"bike_id":"b182d1b9-20c3-47c7-94a5-bbce8d941b24","system_id":"levelo_inurba_marseille","lat":43.23152,"lon":5.43718,"is_reserved":false,"is_disabled":false,"rental_uris":{"android":"levelo://app?vid=b182d1b9-20c3-47c7-94a5-bbce8d941b24","ios":"levelo://app?vid=b182d1b9-20c3-47c7-94a5-bbce8d941b24"},"vehicle_type_id":"4","last_reported":1762766009,"current_range_meters":10000,"station_id":"ce4bhmp2rcd13ifvqgog","pricing_plan_id":"cebpf4jnsgd1na2vs0mg"},{"bike_id":"ee931cc9-cd7f-4dbb-9e6c-ad6d4dac686b","system_id":"levelo_inurba_marseille","lat":43.32116,"lon":5.36754,"is_reserved":false,"is_disabled":false,"rental_uris":{"android":"levelo://app?vid=ee931cc9-cd7f-4dbb-9e6c-ad6d4dac686b","ios":"levelo://app?vid=ee931cc9-cd7f-4dbb-9e6c-ad6d4dac686b"},"vehicle_type_id":"4","last_reported":1762766009,"current_range_meters":10000,"station_id":"ce4bhrh2rcd13ifvqhug","pricing_plan_id":"cebpf4jnsgd1na2vs0mg"},{"bike_id":"bd7a8cc7-0ed2-4d39-b560-9cdd894a0d6a","system_id":"levelo_inurba_marseille","lat":43.28932,"lon":5.38409,"is_reserved":false,"is_disabled":false,"rental_uris":{"android":"levelo://app?vid=bd7a8cc7-0ed2-4d39-b560-9cdd894a0d6a","ios":"levelo://app?vid=bd7a8cc7-0ed2-4d39-b560-9cdd894a0d6a"},"vehicle_type_id":"4","last_reported":1762766009,"current_range_meters":10800,"station_id":"","pricing_plan_id":"cebpf4jnsgd1na2vs0mg"},{"bike_id":"d9d91017-19e5-4474-b0f8-c613656a4a3a","system_id":"levelo_inurba_marseille","lat":43.28402,"lon":5.37523,"is_reserved":false,"is_disabled":true,"rental_uris":{"android":"levelo://app?vid=d9d91017-19e5-4474-b0f8-c613656a4a3a","ios":"levelo://app?vid=d9d91017-19e5-4474-b0f8-c613656a4a3a"},"vehicle_type_id":"4","last_reported":1762766009,"current_range_meters":10800,"station_id":"ce4bh412rcd13ifvqds0","pricing_plan_id":"cebpf4jnsgd1na2vs0mg"},{"bike_id":"5374b0c7-40d1-4e1c-85c4-ad96d62e2ed7","system_id":"levelo_inurba_marseille","lat":43.2409,"lon":5.37732,"is_reserved":false,"is_disabled":false,"rental_uris":{"android":"levelo://app?vid=5374b0c7-40d1-4e1c-85c4-ad96d62e2ed7","ios":"levelo://app?vid=5374b0c7-40d1-4e1c-85c4-ad96d62e2ed7"},"vehicle_type_id":"4","last_reported":1762766009,"current_range_meters":10800,"station_id":"ce4bhnp2rcd13ifvqgvg","pricing_plan_id":"cebpf4jnsgd1na2vs0mg"},{"bike_id":"b6ba799f-93a0-474d-970a-cd786094f7da","system_id":"levelo_inurba_marseille","lat":43.28493,"lon":5.38446,"is_reserved":false,"is_disabled":true,"rental_uris":{"android":"levelo://app?vid=b6ba799f-93a0-474d-970a-cd786094f7da","ios":"levelo://app?vid=b6ba799f-93a0-474d-970a-cd786094f7da"},"vehicle_type_id":"4","last_reported":1762766009,"current_range_meters":10800,"station_id":"ce4bh512rcd13ifvqe3g","pricing_plan_id":"cebpf4jnsgd1na2vs0mg"},{"bike_id":"53a3c22e-e009-43f1-a0b0-79267b8149ff","system_id":"levelo_inurba_marseille","lat":43.29316,"lon":5.37467,"is_reserved":false,"is_disabled":false,"rental_uris":{"android":"levelo://app?vid=53a3c22e-e009-43f1-a0b0-79267b8149ff","ios":"levelo://app?vid=53a3c22e-e009-43f1-a0b0-79267b8149ff"},"vehicle_type_id":"4","last_reported":1762766009,"current_range_meters":10800,"station_id":"ce4bgi12rcd13ifvqb70","pricing_plan_id":"cebpf4jnsgd1na2vs0mg"},{"bike_id":"683b85db-4db7-402b-99fc-ef7871001ccc","system_id":"levelo_inurba_marseille","lat":43.26569,"lon":5.3902,"is_reserved":false,"is_disabled":false,"rental_uris":{"android":"levelo://app?vid=683b85db-4db7-402b-99fc-ef7871001ccc","ios":"levelo://app?vid=683b85db-4db7-402b-99fc-ef7871001ccc"},"vehicle_type_id":"4","last_reported":1762766009,"current_range_meters":10800,"station_id":"ce4bhe12rcd13ifvqf30","pricing_plan_id":"cebpf4jnsgd1na2vs0mg"},{"bike_id":"5ab6819e-916d-4fd6-a452-a0da0e035935","system_id":"levelo_inurba_marseille","lat":43.30601,"lon":5.39355,"is_reserved":false,"is_disabled":false,"rental_uris":{"android":"levelo://app?vid=5ab6819e-916d-4fd6-a452-a0da0e035935","ios":"levelo://app?vid=5ab6819e-916d-4fd6-a452-a0da0e035935"},"vehicle_type_id":"4","last_reported":1762766009,"current_range_meters":10800,"station_id":"ce4bh0p2rcd13ifvqd80","pricing_plan_id":"cebpf4jnsgd1na2vs0mg"},{"bike_id":"3a827402-d37d-4151-b6c8-4222566d1a75","system_id":"levelo_inurba_marseille","lat":43.23157,"lon":5.43706,"is_reserved":false,"is_disabled":false,"rental_uris":{"android":"levelo://app?vid=3a827402-d37d-4151-b6c8-4222566d1a75","ios":"levelo://app?vid=3a827402-d37d-4151-b6c8-4222566d1a75"},"vehicle_type_id":"4","last_reported":1762766009,"current_range_meters":10800,"station_id":"ce4bhmp2rcd13ifvqgog","pricing_plan_id":"cebpf4jnsgd1na2vs0mg"},{"bike_id":"df1d4be3-20d8-48d4-ad39-f9d7e56e86ae","system_id":"levelo_inurba_marseille","lat":43.24186,"lon":5.39723,"is_reserved":false,"is_disabled":false,"rental_uris":{"android":"levelo://app?vid=df1d4be3-20d8-48d4-ad39-f9d7e56e86ae","ios":"levelo://app?vid=df1d4be3-20d8-48d4-ad39-f9d7e56e86ae"},"vehicle_type_id":"4","last_reported":1762766009,"current_range_meters":10800,"station_id":"ce4bhn12rcd13ifvqgpg","pricing_plan_id":"cebpf4jnsgd1na2vs0mg"},{"bike_id":"f08621f1-92b2-4985-8a3a-96dd283a7c2b","system_id":"levelo_inurba_marseille","lat":43.31354,"lon":5.37932,"is_reserved":false,"is_disabled":false,"rental_uris":{"android":"levelo://app?vid=f08621f1-92b2-4985-8a3a-96dd283a7c2b","ios":"levelo://app?vid=f08621f1-92b2-4985-8a3a-96dd283a7c2b"},"vehicle_type_id":"4","last_reported":1762766009,"current_range_meters":10800,"station_id":"","pricing_plan_id":"cebpf4jnsgd1na2vs0mg"},{"bike_id":"48e3b39b-4ff6-401b-98ce-a911222a8eec","system_id":"levelo_inurba_marseille","lat":43.245275,"lon":5.395534,"is_reserved":false,"is_disabled":false,"rental_uris":{"android":"levelo://app?vid=48e3b39b-4ff6-401b-98ce-a911222a8eec","ios":"levelo://app?vid=48e3b39b-4ff6-401b-98ce-a911222a8eec"},"vehicle_type_id":"4","last_reported":1762766009,"current_range_meters":10800,"station_id":"ce4bhlp2rcd13ifvqgjg","pricing_plan_id":"cebpf4jnsgd1na2vs0mg"},{"bike_id":"382f597e-181c-4839-b1de-04339df9aa55","system_id":"levelo_inurba_marseille","lat":43.26801,"lon":5.40266,"is_reserved":false,"is_disabled":false,"rental_uris":{"android":"levelo://app?vid=382f597e-181c-4839-b1de-04339df9aa55","ios":"levelo://app?vid=382f597e-181c-4839-b1de-04339df9aa55"},"vehicle_type_id":"4","last_reported":1762766009,"current_range_meters":11200,"station_id":"ce501612rcd8frsf0b60","pricing_plan_id":"cebpf4jnsgd1na2vs0mg"},{"bike_id":"a274914b-c5b0-46b2-9fe3-8151f6638f0f","system_id":"levelo_inurba_marseille","lat":43.25947,"lon":5.40896,"is_reserved":false,"is_disabled":false,"rental_uris":{"android":"levelo://app?vid=a274914b-c5b0-46b2-9fe3-8151f6638f0f","ios":"levelo://app?vid=a274914b-c5b0-46b2-9fe3-8151f6638f0f"},"vehicle_type_id":"4","last_reported":1762766009,"current_range_meters":11200,"station_id":"ce4bhm92rcd13ifvqglg","pricing_plan_id":"cebpf4jnsgd1na2vs0mg"},{"bike_id":"98887341-9773-478e-9b04-ea8557d3e59d","system_id":"levelo_inurba_marseille","lat":43.27679,"lon":5.38895,"is_reserved":false,"is_disabled":false,"rental_uris":{"android":"levelo://app?vid=98887341-9773-478e-9b04-ea8557d3e59d","ios":"levelo://app?vid=98887341-9773-478e-9b04-ea8557d3e59d"},"vehicle_type_id":"4","last_reported":1762766009,"current_range_meters":11200,"station_id":"ce4bhi12rcd13ifvqfo0","pricing_plan_id":"cebpf4jnsgd1na2vs0mg"},{"bike_id":"592c0ecc-f3e8-4d73-b387-15c3a45407b7","system_id":"levelo_inurba_marseille","lat":43.29055,"lon":5.35926,"is_reserved":false,"is_disabled":false,"rental_uris":{"android":"levelo://app?vid=592c0ecc-f3e8-4d73-b387-15c3a45407b7","ios":"levelo://app?vid=592c0ecc-f3e8-4d73-b387-15c3a45407b7"},"vehicle_type_id":"4","last_reported":1762766009,"current_range_meters":11200,"station_id":"ce4bha92rcd13ifvqeg0","pricing_plan_id":"cebpf4jnsgd1na2vs0mg"},{"bike_id":"92f976e4-59be-4e48-bbf2-432f8404ac42","system_id":"levelo_inurba_marseille","lat":43.27428,"lon":5.39413,"is_reserved":false,"is_disabled":false,"rental_uris":{"android":"levelo://app?vid=92f976e4-59be-4e48-bbf2-432f8404ac42","ios":"levelo://app?vid=92f976e4-59be-4e48-bbf2-432f8404ac42"},"vehicle_type_id":"4","last_reported":1762766009,"current_range_meters":11200,"station_id":"ce4bhdp2rcd13ifvqf20","pricing_plan_id":"cebpf4jnsgd1na2vs0mg"},{"bike_id":"b4cb9bc3-2674-422b-8c74-5594292dd02e","system_id":"levelo_inurba_marseille","lat":43.27521,"lon":5.37492,"is_reserved":false,"is_disabled":false,"rental_uris":{"android":"levelo://app?vid=b4cb9bc3-2674-422b-8c74-5594292dd02e","ios":"levelo://app?vid=b4cb9bc3-2674-422b-8c74-5594292dd02e"},"vehicle_type_id":"4","last_reported":1762766009,"current_range_meters":11200,"station_id":"","pricing_plan_id":"cebpf4jnsgd1na2vs0mg"},{"bike_id":"080f45dc-b57e-461f-9fda-89984f522f0a","system_id":"levelo_inurba_marseille","lat":43.25938,"lon":5.40908,"is_reserved":false,"is_disabled":false,"rental_uris":{"android":"levelo://app?vid=080f45dc-b57e-461f-9fda-89984f522f0a","ios":"levelo://app?vid=080f45dc-b57e-461f-9fda-89984f522f0a"},"vehicle_type_id":"4","last_reported":1762766009,"current_range_meters":11200,"station_id":"ce4bhm92rcd13ifvqglg","pricing_plan_id":"cebpf4jnsgd1na2vs0mg"},{"bike_id":"2935b799-4b40-4041-9262-9cc2a718a3a0","system_id":"levelo_inurba_marseille","lat":43.23785,"lon":5.36633,"is_reserved":false,"is_disabled":false,"rental_uris":{"android":"levelo://app?vid=2935b799-4b40-4041-9262-9cc2a718a3a0","ios":"levelo://app?vid=2935b799-4b40-4041-9262-9cc2a718a3a0"},"vehicle_type_id":"4","last_reported":1762766009,"current_range_meters":11200,"station_id":"st_d3nk18o9ro0c73en2l3g","pricing_plan_id":"cebpf4jnsgd1na2vs0mg"},{"bike_id":"a69dd88c-c11d-4cbd-af5f-9c836f55e711","system_id":"levelo_inurba_marseille","lat":43.295577,"lon":5.422962,"is_reserved":false,"is_disabled":false,"rental_uris":{"android":"levelo://app?vid=a69dd88c-c11d-4cbd-af5f-9c836f55e711","ios":"levelo://app?vid=a69dd88c-c11d-4cbd-af5f-9c836f55e711"},"vehicle_type_id":"4","last_reported":1762766009,"current_range_meters":11200,"station_id":"ce4bhph2rcd13ifvqhdg","pricing_plan_id":"cebpf4jnsgd1na2vs0mg"},{"bike_id":"82bdd151-9574-4b21-92d4-d1ca7f2510bb","system_id":"levelo_inurba_marseille","lat":43.2985,"lon":5.36286,"is_reserved":false,"is_disabled":false,"rental_uris":{"android":"levelo://app?vid=82bdd151-9574-4b21-92d4-d1ca7f2510bb","ios":"levelo://app?vid=82bdd151-9574-4b21-92d4-d1ca7f2510bb"},"vehicle_type_id":"4","last_reported":1762766009,"current_range_meters":11600,"station_id":"ce4bgpp2rcd13ifvqc3g","pricing_plan_id":"cebpf4jnsgd1na2vs0mg"},{"bike_id":"016b49a9-b961-4839-bd19-826a055619f1","system_id":"levelo_inurba_marseille","lat":43.30186,"lon":5.38037,"is_reserved":false,"is_disabled":false,"rental_uris":{"android":"levelo://app?vid=016b49a9-b961-4839-bd19-826a055619f1","ios":"levelo://app?vid=016b49a9-b961-4839-bd19-826a055619f1"},"vehicle_type_id":"4","last_reported":1762766009,"current_range_meters":11600,"station_id":"","pricing_plan_id":"cebpf4jnsgd1na2vs0mg"},{"bike_id":"3f229283-4156-40f5-8b33-733d496807b4","system_id":"levelo_inurba_marseille","lat":43.29282,"lon":5.37286,"is_reserved":false,"is_disabled":false,"rental_uris":{"android":"levelo://app?vid=3f229283-4156-40f5-8b33-733d496807b4","ios":"levelo://app?vid=3f229283-4156-40f5-8b33-733d496807b4"},"vehicle_type_id":"4","last_reported":1762766009,"current_range_meters":11600,"station_id":"","pricing_plan_id":"cebpf4jnsgd1na2vs0mg"},{"bike_id":"dcfad8f4-2cd6-4912-99b0-ab83fb113477","system_id":"levelo_inurba_marseille","lat":43.265793,"lon":5.390049,"is_reserved":false,"is_disabled":false,"rental_uris":{"android":"levelo://app?vid=dcfad8f4-2cd6-4912-99b0-ab83fb113477","ios":"levelo://app?vid=dcfad8f4-2cd6-4912-99b0-ab83fb113477"},"vehicle_type_id":"4","last_reported":1762766009,"current_range_meters":11600,"station_id":"ce4bhe12rcd13ifvqf30","pricing_plan_id":"cebpf4jnsgd1na2vs0mg"},{"bike_id":"4b6302f6-180a-4e53-bdab-cb49670abd5a","system_id":"levelo_inurba_marseille","lat":43.29273,"lon":5.36852,"is_reserved":false,"is_disabled":false,"rental_uris":{"android":"levelo://app?vid=4b6302f6-180a-4e53-bdab-cb49670abd5a","ios":"levelo://app?vid=4b6302f6-180a-4e53-bdab-cb49670abd5a"},"vehicle_type_id":"4","last_reported":1762766009,"current_range_meters":12000,"station_id":"ce4bhbp2rcd13ifvqesg","pricing_plan_id":"cebpf4jnsgd1na2vs0mg"},{"bike_id":"ab4ac132-5519-4aac-ac12-8b8c2929bb7e","system_id":"levelo_inurba_marseille","lat":43.32302,"lon":5.38493,"is_reserved":false,"is_disabled":false,"rental_uris":{"android":"levelo://app?vid=ab4ac132-5519-4aac-ac12-8b8c2929bb7e","ios":"levelo://app?vid=ab4ac132-5519-4aac-ac12-8b8c2929bb7e"},"vehicle_type_id":"4","last_reported":1762766009,"current_range_meters":12000,"station_id":"st_d45171o9ee8s73djdqug","pricing_plan_id":"cebpf4jnsgd1na2vs0mg"},{"bike_id":"f6b2fed1-0ca2-423d-8dec-4ae2abcb7d8f","system_id":"levelo_inurba_marseille","lat":43.30739,"lon":5.42459,"is_reserved":false,"is_disabled":false,"rental_uris":{"android":"levelo://app?vid=f6b2fed1-0ca2-423d-8dec-4ae2abcb7d8f","ios":"levelo://app?vid=f6b2fed1-0ca2-423d-8dec-4ae2abcb7d8f"},"vehicle_type_id":"4","last_reported":1762766009,"current_range_meters":12000,"station_id":"st_cvj6ca6bvosntc0bfgr0","pricing_plan_id":"cebpf4jnsgd1na2vs0mg"},{"bike_id":"8142a16a-13a8-4636-80c8-f6fe96871316","system_id":"levelo_inurba_marseille","lat":43.24386,"lon":5.37082,"is_reserved":false,"is_disabled":false,"rental_uris":{"android":"levelo://app?vid=8142a16a-13a8-4636-80c8-f6fe96871316","ios":"levelo://app?vid=8142a16a-13a8-4636-80c8-f6fe96871316"},"vehicle_type_id":"4","last_reported":1762766009,"current_range_meters":12000,"station_id":"ce4bhhh2rcd13ifvqfk0","pricing_plan_id":"cebpf4jnsgd1na2vs0mg"},{"bike_id":"cf41bac8-b3bf-4d78-b58b-1504370da1f3","system_id":"levelo_inurba_marseille","lat":43.21756,"lon":5.346013,"is_reserved":false,"is_disabled":true,"rental_uris":{"android":"levelo://app?vid=cf41bac8-b3bf-4d78-b58b-1504370da1f3","ios":"levelo://app?vid=cf41bac8-b3bf-4d78-b58b-1504370da1f3"},"vehicle_type_id":"4","last_reported":1762766009,"current_range_meters":12000,"station_id":"st_cvj6r9ubvosntc0bgbag","pricing_plan_id":"cebpf4jnsgd1na2vs0mg"},{"bike_id":"2de1f10a-d720-4542-94eb-71627b6108b3","system_id":"levelo_inurba_marseille","lat":43.26199,"lon":5.37929,"is_reserved":false,"is_disabled":false,"rental_uris":{"android":"levelo://app?vid=2de1f10a-d720-4542-94eb-71627b6108b3","ios":"levelo://app?vid=2de1f10a-d720-4542-94eb-71627b6108b3"},"vehicle_type_id":"4","last_reported":1762766009,"current_range_meters":12000,"station_id":"ce4bhjp2rcd13ifvqg90","pricing_plan_id":"cebpf4jnsgd1na2vs0mg"},{"bike_id":"069efeef-bdb3-422c-a536-554a1dd528eb","system_id":"levelo_inurba_marseille","lat":43.27497,"lon":5.42449,"is_reserved":false,"is_disabled":false,"rental_uris":{"android":"levelo://app?vid=069efeef-bdb3-422c-a536-554a1dd528eb","ios":"levelo://app?vid=069efeef-bdb3-422c-a536-554a1dd528eb"},"vehicle_type_id":"4","last_reported":1762766009,"current_range_meters":12000,"station_id":"ce4bhn92rcd13ifvqgrg","pricing_plan_id":"cebpf4jnsgd1na2vs0mg"},{"bike_id":"77dd386a-c491-4903-b512-c2486567c465","system_id":"levelo_inurba_marseille","lat":43.28917,"lon":5.36624,"is_reserved":false,"is_disabled":false,"rental_uris":{"android":"levelo://app?vid=77dd386a-c491-4903-b512-c2486567c465","ios":"levelo://app?vid=77dd386a-c491-4903-b512-c2486567c465"},"vehicle_type_id":"4","last_reported":1762766009,"current_range_meters":12000,"station_id":"ce4bhap2rcd13ifvqek0","pricing_plan_id":"cebpf4jnsgd1na2vs0mg"},{"bike_id":"0d7725d3-ebe7-4d1a-947f-cf09a30a68ce","system_id":"levelo_inurba_marseille","lat":43.28906,"lon":5.39234,"is_reserved":false,"is_disabled":false,"rental_uris":{"android":"levelo://app?vid=0d7725d3-ebe7-4d1a-947f-cf09a30a68ce","ios":"levelo://app?vid=0d7725d3-ebe7-4d1a-947f-cf09a30a68ce"},"vehicle_type_id":"4","last_reported":1762766009,"current_range_meters":12000,"station_id":"","pricing_plan_id":"cebpf4jnsgd1na2vs0mg"},{"bike_id":"21617623-aaed-4c9b-8499-58fd20dbe1f9","system_id":"levelo_inurba_marseille","lat":43.23153,"lon":5.43726,"is_reserved":false,"is_disabled":false,"rental_uris":{"android":"levelo://app?vid=21617623-aaed-4c9b-8499-58fd20dbe1f9","ios":"levelo://app?vid=21617623-aaed-4c9b-8499-58fd20dbe1f9"},"vehicle_type_id":"4","last_reported":1762766009,"current_range_meters":12400,"station_id":"ce4bhmp2rcd13ifvqgog","pricing_plan_id":"cebpf4jnsgd1na2vs0mg"},{"bike_id":"4a7e2a87-1f25-4152-8095-b66c9fec7995","system_id":"levelo_inurba_marseille","lat":43.308896,"lon":5.371875,"is_reserved":false,"is_disabled":false,"rental_uris":{"android":"levelo://app?vid=4a7e2a87-1f25-4152-8095-b66c9fec7995","ios":"levelo://app?vid=4a7e2a87-1f25-4152-8095-b66c9fec7995"},"vehicle_type_id":"4","last_reported":1762766009,"current_range_meters":12400,"station_id":"","pricing_plan_id":"cebpf4jnsgd1na2vs0mg"},{"bike_id":"e2c00181-7dda-49aa-8a0f-4e560d2515ea","system_id":"levelo_inurba_marseille","lat":43.30895,"lon":5.37188,"is_reserved":false,"is_disabled":false,"rental_uris":{"android":"levelo://app?vid=e2c00181-7dda-49aa-8a0f-4e560d2515ea","ios":"levelo://app?vid=e2c00181-7dda-49aa-8a0f-4e560d2515ea"},"vehicle_type_id":"4","last_reported":1762766009,"current_range_meters":12400,"station_id":"ce4bguh2rcd13ifvqckg","pricing_plan_id":"cebpf4jnsgd1na2vs0mg"},{"bike_id":"6ac4027e-e104-4653-aff1-b787c24c7ca1","system_id":"levelo_inurba_marseille","lat":43.28148,"lon":5.42648,"is_reserved":false,"is_disabled":false,"rental_uris":{"android":"levelo://app?vid=6ac4027e-e104-4653-aff1-b787c24c7ca1","ios":"levelo://app?vid=6ac4027e-e104-4653-aff1-b787c24c7ca1"},"vehicle_type_id":"4","last_reported":1762766009,"current_range_meters":12400,"station_id":"ce4bhnh2rcd13ifvqgug","pricing_plan_id":"cebpf4jnsgd1na2vs0mg"},{"bike_id":"07618fb4-fdf4-452a-a76e-4b0defae3541","system_id":"levelo_inurba_marseille","lat":43.22536,"lon":5.34836,"is_reserved":false,"is_disabled":false,"rental_uris":{"android":"levelo://app?vid=07618fb4-fdf4-452a-a76e-4b0defae3541","ios":"levelo://app?vid=07618fb4-fdf4-452a-a76e-4b0defae3541"},"vehicle_type_id":"4","last_reported":1762766009,"current_range_meters":12400,"station_id":"","pricing_plan_id":"cebpf4jnsgd1na2vs0mg"},{"bike_id":"2b646297-8654-4539-9404-edb5238f787c","system_id":"levelo_inurba_marseille","lat":43.24094,"lon":5.37749,"is_reserved":false,"is_disabled":false,"rental_uris":{"android":"levelo://app?vid=2b646297-8654-4539-9404-edb5238f787c","ios":"levelo://app?vid=2b646297-8654-4539-9404-edb5238f787c"},"vehicle_type_id":"4","last_reported":1762766009,"current_range_meters":12400,"station_id":"ce4bhnp2rcd13ifvqgvg","pricing_plan_id":"cebpf4jnsgd1na2vs0mg"},{"bike_id":"39ff6a52-7c15-4e36-9056-950efe8be9ca","system_id":"levelo_inurba_marseille","lat":43.28472,"lon":5.48432,"is_reserved":false,"is_disabled":false,"rental_uris":{"android":"levelo://app?vid=39ff6a52-7c15-4e36-9056-950efe8be9ca","ios":"levelo://app?vid=39ff6a52-7c15-4e36-9056-950efe8be9ca"},"vehicle_type_id":"4","last_reported":1762766009,"current_range_meters":12400,"station_id":"st_d3svhcjqgbts73a3dn0g","pricing_plan_id":"cebpf4jnsgd1na2vs0mg"},{"bike_id":"80f81225-6e74-4216-89ba-d95028aacd0b","system_id":"levelo_inurba_marseille","lat":43.27514,"lon":5.42449,"is_reserved":false,"is_disabled":false,"rental_uris":{"android":"levelo://app?vid=80f81225-6e74-4216-89ba-d95028aacd0b","ios":"levelo://app?vid=80f81225-6e74-4216-89ba-d95028aacd0b"},"vehicle_type_id":"4","last_reported":1762766009,"current_range_meters":12400,"station_id":"ce4bhn92rcd13ifvqgrg","pricing_plan_id":"cebpf4jnsgd1na2vs0mg"},{"bike_id":"c34db9cf-050a-4c4b-ac45-1ad5e312cdd4","system_id":"levelo_inurba_marseille","lat":43.26576,"lon":5.40329,"is_reserved":false,"is_disabled":false,"rental_uris":{"android":"levelo://app?vid=c34db9cf-050a-4c4b-ac45-1ad5e312cdd4","ios":"levelo://app?vid=c34db9cf-050a-4c4b-ac45-1ad5e312cdd4"},"vehicle_type_id":"4","last_reported":1762766009,"current_range_meters":12800,"station_id":"ce4bhmp2rcd13ifvqgng","pricing_plan_id":"cebpf4jnsgd1na2vs0mg"},{"bike_id":"062032e1-fdcc-4a2c-85d8-7ca14269cc2e","system_id":"levelo_inurba_marseille","lat":43.31087,"lon":5.42427,"is_reserved":false,"is_disabled":false,"rental_uris":{"android":"levelo://app?vid=062032e1-fdcc-4a2c-85d8-7ca14269cc2e","ios":"levelo://app?vid=062032e1-fdcc-4a2c-85d8-7ca14269cc2e"},"vehicle_type_id":"4","last_reported":1762766009,"current_range_meters":12800,"station_id":"ce4bhp92rcd13ifvqhag","pricing_plan_id":"cebpf4jnsgd1na2vs0mg"},{"bike_id":"4ec3f419-cbd7-4847-b143-249c507d1684","system_id":"levelo_inurba_marseille","lat":43.231591,"lon":5.437586,"is_reserved":false,"is_disabled":false,"rental_uris":{"android":"levelo://app?vid=4ec3f419-cbd7-4847-b143-249c507d1684","ios":"levelo://app?vid=4ec3f419-cbd7-4847-b143-249c507d1684"},"vehicle_type_id":"4","last_reported":1762766009,"current_range_meters":12800,"station_id":"ce4bhmp2rcd13ifvqgog","pricing_plan_id":"cebpf4jnsgd1na2vs0mg"},{"bike_id":"343838e0-675d-47de-b750-38190c51ffa5","system_id":"levelo_inurba_marseille","lat":43.29626,"lon":5.37726,"is_reserved":false,"is_disabled":false,"rental_uris":{"android":"levelo://app?vid=343838e0-675d-47de-b750-38190c51ffa5","ios":"levelo://app?vid=343838e0-675d-47de-b750-38190c51ffa5"},"vehicle_type_id":"4","last_reported":1762766009,"current_range_meters":12800,"station_id":"ce4bgi92rcd13ifvqb90","pricing_plan_id":"cebpf4jnsgd1na2vs0mg"},{"bike_id":"e17839a3-96d6-489d-881e-36b6da5aeb29","system_id":"levelo_inurba_marseille","lat":43.28616,"lon":5.37043,"is_reserved":false,"is_disabled":false,"rental_uris":{"android":"levelo://app?vid=e17839a3-96d6-489d-881e-36b6da5aeb29","ios":"levelo://app?vid=e17839a3-96d6-489d-881e-36b6da5aeb29"},"vehicle_type_id":"4","last_reported":1762766009,"current_range_meters":12800,"station_id":"ce4bht12rcd13ifvqi60","pricing_plan_id":"cebpf4jnsgd1na2vs0mg"},{"bike_id":"96807a8e-1b45-4a36-b7ed-92091f4bcaf6","system_id":"levelo_inurba_marseille","lat":43.309306,"lon":5.401424,"is_reserved":false,"is_disabled":false,"rental_uris":{"android":"levelo://app?vid=96807a8e-1b45-4a36-b7ed-92091f4bcaf6","ios":"levelo://app?vid=96807a8e-1b45-4a36-b7ed-92091f4bcaf6"},"vehicle_type_id":"4","last_reported":1762766009,"current_range_meters":13600,"station_id":"","pricing_plan_id":"cebpf4jnsgd1na2vs0mg"},{"bike_id":"886acaf1-25b9-421f-879d-9d86ad53d809","system_id":"levelo_inurba_marseille","lat":43.29295,"lon":5.37456,"is_reserved":false,"is_disabled":false,"rental_uris":{"android":"levelo://app?vid=886acaf1-25b9-421f-879d-9d86ad53d809","ios":"levelo://app?vid=886acaf1-25b9-421f-879d-9d86ad53d809"},"vehicle_type_id":"4","last_reported":1762766009,"current_range_meters":13600,"station_id":"ce4bgi12rcd13ifvqb70","pricing_plan_id":"cebpf4jnsgd1na2vs0mg"},{"bike_id":"09c25eba-dad3-444f-89fb-f05e5b7693a0","system_id":"levelo_inurba_marseille","lat":43.29903,"lon":5.38143,"is_reserved":false,"is_disabled":false,"rental_uris":{"android":"levelo://app?vid=09c25eba-dad3-444f-89fb-f05e5b7693a0","ios":"levelo://app?vid=09c25eba-dad3-444f-89fb-f05e5b7693a0"},"vehicle_type_id":"4","last_reported":1762766009,"current_range_meters":13600,"station_id":"ce4bgj12rcd13ifvqbc0","pricing_plan_id":"cebpf4jnsgd1na2vs0mg"},{"bike_id":"ac8a8750-1d87-4cf8-9c77-e78b99da5512","system_id":"levelo_inurba_marseille","lat":43.23605,"lon":5.361713,"is_reserved":false,"is_disabled":false,"rental_uris":{"android":"levelo://app?vid=ac8a8750-1d87-4cf8-9c77-e78b99da5512","ios":"levelo://app?vid=ac8a8750-1d87-4cf8-9c77-e78b99da5512"},"vehicle_type_id":"4","last_reported":1762766009,"current_range_meters":13600,"station_id":"","pricing_plan_id":"cebpf4jnsgd1na2vs0mg"},{"bike_id":"896a0fc4-e98e-425f-b646-7db4d5ace172","system_id":"levelo_inurba_marseille","lat":43.3199,"lon":5.38155,"is_reserved":false,"is_disabled":false,"rental_uris":{"android":"levelo://app?vid=896a0fc4-e98e-425f-b646-7db4d5ace172","ios":"levelo://app?vid=896a0fc4-e98e-425f-b646-7db4d5ace172"},"vehicle_type_id":"4","last_reported":1762766009,"current_range_meters":13600,"station_id":"ce4bhr12rcd13ifvqhpg","pricing_plan_id":"cebpf4jnsgd1na2vs0mg"},{"bike_id":"3fe8dc5d-c387-4f1a-9c4c-484bc8924e3c","system_id":"levelo_inurba_marseille","lat":43.26223,"lon":5.40451,"is_reserved":false,"is_disabled":false,"rental_uris":{"android":"levelo://app?vid=3fe8dc5d-c387-4f1a-9c4c-484bc8924e3c","ios":"levelo://app?vid=3fe8dc5d-c387-4f1a-9c4c-484bc8924e3c"},"vehicle_type_id":"4","last_reported":1762766009,"current_range_meters":13600,"station_id":"ce4bhmh2rcd13ifvqgmg","pricing_plan_id":"cebpf4jnsgd1na2vs0mg"},{"bike_id":"8d9431f8-80ba-48bc-914d-87851dd2de94","system_id":"levelo_inurba_marseille","lat":43.25933,"lon":5.40899,"is_reserved":false,"is_disabled":false,"rental_uris":{"android":"levelo://app?vid=8d9431f8-80ba-48bc-914d-87851dd2de94","ios":"levelo://app?vid=8d9431f8-80ba-48bc-914d-87851dd2de94"},"vehicle_type_id":"4","last_reported":1762766009,"current_range_meters":13600,"station_id":"ce4bhm92rcd13ifvqglg","pricing_plan_id":"cebpf4jnsgd1na2vs0mg"},{"bike_id":"24de70df-9b80-4721-8771-f61cb7be1ef9","system_id":"levelo_inurba_marseille","lat":43.3192,"lon":5.38126,"is_reserved":false,"is_disabled":false,"rental_uris":{"android":"levelo://app?vid=24de70df-9b80-4721-8771-f61cb7be1ef9","ios":"levelo://app?vid=24de70df-9b80-4721-8771-f61cb7be1ef9"},"vehicle_type_id":"4","last_reported":1762766009,"current_range_meters":13600,"station_id":"","pricing_plan_id":"cebpf4jnsgd1na2vs0mg"},{"bike_id":"ee676784-715b-4226-9bd3-48c659f578c3","system_id":"levelo_inurba_marseille","lat":43.27505,"lon":5.4245,"is_reserved":false,"is_disabled":false,"rental_uris":{"android":"levelo://app?vid=ee676784-715b-4226-9bd3-48c659f578c3","ios":"levelo://app?vid=ee676784-715b-4226-9bd3-48c659f578c3"},"vehicle_type_id":"4","last_reported":1762766009,"current_range_meters":13600,"station_id":"ce4bhn92rcd13ifvqgrg","pricing_plan_id":"cebpf4jnsgd1na2vs0mg"},{"bike_id":"f73b4e39-69b3-4086-8d13-60b0da429e4b","system_id":"levelo_inurba_marseille","lat":43.26568,"lon":5.38991,"is_reserved":false,"is_disabled":false,"rental_uris":{"android":"levelo://app?vid=f73b4e39-69b3-4086-8d13-60b0da429e4b","ios":"levelo://app?vid=f73b4e39-69b3-4086-8d13-60b0da429e4b"},"vehicle_type_id":"4","last_reported":1762766009,"current_range_meters":13600,"station_id":"ce4bhe12rcd13ifvqf30","pricing_plan_id":"cebpf4jnsgd1na2vs0mg"},{"bike_id":"aea0e32e-8272-4665-bf98-adb18f6d7757","system_id":"levelo_inurba_marseille","lat":43.33617,"lon":5.4102,"is_reserved":false,"is_disabled":false,"rental_uris":{"android":"levelo://app?vid=aea0e32e-8272-4665-bf98-adb18f6d7757","ios":"levelo://app?vid=aea0e32e-8272-4665-bf98-adb18f6d7757"},"vehicle_type_id":"4","last_reported":1762766009,"current_range_meters":13600,"station_id":"ce4bhqh2rcd13ifvqhmg","pricing_plan_id":"cebpf4jnsgd1na2vs0mg"},{"bike_id":"8de1d747-65b6-4278-8c7a-fbdad8fb649c","system_id":"levelo_inurba_marseille","lat":43.29281,"lon":5.36851,"is_reserved":false,"is_disabled":false,"rental_uris":{"android":"levelo://app?vid=8de1d747-65b6-4278-8c7a-fbdad8fb649c","ios":"levelo://app?vid=8de1d747-65b6-4278-8c7a-fbdad8fb649c"},"vehicle_type_id":"4","last_reported":1762766009,"current_range_meters":13600,"station_id":"ce4bhbp2rcd13ifvqesg","pricing_plan_id":"cebpf4jnsgd1na2vs0mg"},{"bike_id":"93b49ebf-d9fa-49cd-9da3-22e867a810f3","system_id":"levelo_inurba_marseille","lat":43.29754,"lon":5.41121,"is_reserved":false,"is_disabled":false,"rental_uris":{"android":"levelo://app?vid=93b49ebf-d9fa-49cd-9da3-22e867a810f3","ios":"levelo://app?vid=93b49ebf-d9fa-49cd-9da3-22e867a810f3"},"vehicle_type_id":"4","last_reported":1762766009,"current_range_meters":13600,"station_id":"","pricing_plan_id":"cebpf4jnsgd1na2vs0mg"},{"bike_id":"2d003246-289e-4235-87e3-d86a55465f5e","system_id":"levelo_inurba_marseille","lat":43.29892,"lon":5.37537,"is_reserved":false,"is_disabled":false,"rental_uris":{"android":"levelo://app?vid=2d003246-289e-4235-87e3-d86a55465f5e","ios":"levelo://app?vid=2d003246-289e-4235-87e3-d86a55465f5e"},"vehicle_type_id":"4","last_reported":1762766009,"current_range_meters":14000,"station_id":"","pricing_plan_id":"cebpf4jnsgd1na2vs0mg"},{"bike_id":"29957527-d4ee-49a7-b561-7e1ae2c0cee5","system_id":"levelo_inurba_marseille","lat":43.2977,"lon":5.42777,"is_reserved":false,"is_disabled":false,"rental_uris":{"android":"levelo://app?vid=29957527-d4ee-49a7-b561-7e1ae2c0cee5","ios":"levelo://app?vid=29957527-d4ee-49a7-b561-7e1ae2c0cee5"},"vehicle_type_id":"4","last_reported":1762766009,"current_range_meters":14000,"station_id":"st_d3md5207bmas73dh9klg","pricing_plan_id":"cebpf4jnsgd1na2vs0mg"},{"bike_id":"d331b58f-0754-4181-93f7-d4d5e2f8b496","system_id":"levelo_inurba_marseille","lat":43.225347,"lon":5.348291,"is_reserved":false,"is_disabled":false,"rental_uris":{"android":"levelo://app?vid=d331b58f-0754-4181-93f7-d4d5e2f8b496","ios":"levelo://app?vid=d331b58f-0754-4181-93f7-d4d5e2f8b496"},"vehicle_type_id":"4","last_reported":1762766009,"current_range_meters":14000,"station_id":"","pricing_plan_id":"cebpf4jnsgd1na2vs0mg"},{"bike_id":"0f4f6d58-47b7-4e12-865b-8802e8d41703","system_id":"levelo_inurba_marseille","lat":43.23149,"lon":5.43719,"is_reserved":false,"is_disabled":false,"rental_uris":{"android":"levelo://app?vid=0f4f6d58-47b7-4e12-865b-8802e8d41703","ios":"levelo://app?vid=0f4f6d58-47b7-4e12-865b-8802e8d41703"},"vehicle_type_id":"4","last_reported":1762766009,"current_range_meters":14000,"station_id":"ce4bhmp2rcd13ifvqgog","pricing_plan_id":"cebpf4jnsgd1na2vs0mg"},{"bike_id":"ddc182e5-0286-4130-b141-84db33fdfa38","system_id":"levelo_inurba_marseille","lat":43.28716,"lon":5.37931,"is_reserved":false,"is_disabled":false,"rental_uris":{"android":"levelo://app?vid=ddc182e5-0286-4130-b141-84db33fdfa38","ios":"levelo://app?vid=ddc182e5-0286-4130-b141-84db33fdfa38"},"vehicle_type_id":"4","last_reported":1762766009,"current_range_meters":14400,"station_id":"ce4bh9p2rcd13ifvqec0","pricing_plan_id":"cebpf4jnsgd1na2vs0mg"},{"bike_id":"46748178-17b8-4dc8-80b3-39159ff743e0","system_id":"levelo_inurba_marseille","lat":43.300403,"lon":5.38335,"is_reserved":false,"is_disabled":false,"rental_uris":{"android":"levelo://app?vid=46748178-17b8-4dc8-80b3-39159ff743e0","ios":"levelo://app?vid=46748178-17b8-4dc8-80b3-39159ff743e0"},"vehicle_type_id":"4","last_reported":1762766009,"current_range_meters":14400,"station_id":"","pricing_plan_id":"cebpf4jnsgd1na2vs0mg"},{"bike_id":"a883b8f5-f4b3-468d-bd94-803e6672cff2","system_id":"levelo_inurba_marseille","lat":43.31221,"lon":5.36866,"is_reserved":false,"is_disabled":false,"rental_uris":{"android":"levelo://app?vid=a883b8f5-f4b3-468d-bd94-803e6672cff2","ios":"levelo://app?vid=a883b8f5-f4b3-468d-bd94-803e6672cff2"},"vehicle_type_id":"4","last_reported":1762766009,"current_range_meters":14400,"station_id":"ce4bgl92rcd13ifvqbq0","pricing_plan_id":"cebpf4jnsgd1na2vs0mg"},{"bike_id":"3ae4a2e8-d4c0-42b4-a176-909ddc88d127","system_id":"levelo_inurba_marseille","lat":43.30423,"lon":5.38864,"is_reserved":false,"is_disabled":false,"rental_uris":{"android":"levelo://app?vid=3ae4a2e8-d4c0-42b4-a176-909ddc88d127","ios":"levelo://app?vid=3ae4a2e8-d4c0-42b4-a176-909ddc88d127"},"vehicle_type_id":"4","last_reported":1762766009,"current_range_meters":14800,"station_id":"","pricing_plan_id":"cebpf4jnsgd1na2vs0mg"},{"bike_id":"f7f8c5ec-3459-4e53-b264-869ca4568d1a","system_id":"levelo_inurba_marseille","lat":43.30923,"lon":5.3684,"is_reserved":false,"is_disabled":false,"rental_uris":{"android":"levelo://app?vid=f7f8c5ec-3459-4e53-b264-869ca4568d1a","ios":"levelo://app?vid=f7f8c5ec-3459-4e53-b264-869ca4568d1a"},"vehicle_type_id":"4","last_reported":1762766009,"current_range_meters":14800,"station_id":"ce4bgn92rcd13ifvqbvg","pricing_plan_id":"cebpf4jnsgd1na2vs0mg"},{"bike_id":"bb22c2f7-42b3-49bd-88b7-bb87e27dee89","system_id":"levelo_inurba_marseille","lat":43.23193,"lon":5.35549,"is_reserved":false,"is_disabled":false,"rental_uris":{"android":"levelo://app?vid=bb22c2f7-42b3-49bd-88b7-bb87e27dee89","ios":"levelo://app?vid=bb22c2f7-42b3-49bd-88b7-bb87e27dee89"},"vehicle_type_id":"4","last_reported":1762766009,"current_range_meters":14800,"station_id":"ce4bhu92rcd13ifvqi70","pricing_plan_id":"cebpf4jnsgd1na2vs0mg"},{"bike_id":"3801f78c-6f24-4c0c-b231-07d479d348fc","system_id":"levelo_inurba_marseille","lat":43.2407,"lon":5.3775,"is_reserved":false,"is_disabled":false,"rental_uris":{"android":"levelo://app?vid=3801f78c-6f24-4c0c-b231-07d479d348fc","ios":"levelo://app?vid=3801f78c-6f24-4c0c-b231-07d479d348fc"},"vehicle_type_id":"4","last_reported":1762766009,"current_range_meters":14800,"station_id":"ce4bhnp2rcd13ifvqgvg","pricing_plan_id":"cebpf4jnsgd1na2vs0mg"},{"bike_id":"92077ffb-59a2-4dd0-9c95-33ae88f9ae38","system_id":"levelo_inurba_marseille","lat":43.246429,"lon":5.388893,"is_reserved":false,"is_disabled":false,"rental_uris":{"android":"levelo://app?vid=92077ffb-59a2-4dd0-9c95-33ae88f9ae38","ios":"levelo://app?vid=92077ffb-59a2-4dd0-9c95-33ae88f9ae38"},"vehicle_type_id":"4","last_reported":1762766009,"current_range_meters":15200,"station_id":"","pricing_plan_id":"cebpf4jnsgd1na2vs0mg"},{"bike_id":"1c6c8640-b108-4277-8d69-9014077e683f","system_id":"levelo_inurba_marseille","lat":43.33768,"lon":5.37483,"is_reserved":false,"is_disabled":false,"rental_uris":{"android":"levelo://app?vid=1c6c8640-b108-4277-8d69-9014077e683f","ios":"levelo://app?vid=1c6c8640-b108-4277-8d69-9014077e683f"},"vehicle_type_id":"4","last_reported":1762766009,"current_range_meters":15200,"station_id":"","pricing_plan_id":"cebpf4jnsgd1na2vs0mg"},{"bike_id":"e3ca31e7-8c60-464d-95fd-3aad12a4aaf3","system_id":"levelo_inurba_marseille","lat":43.30962,"lon":5.38294,"is_reserved":false,"is_disabled":false,"rental_uris":{"android":"levelo://app?vid=e3ca31e7-8c60-464d-95fd-3aad12a4aaf3","ios":"levelo://app?vid=e3ca31e7-8c60-464d-95fd-3aad12a4aaf3"},"vehicle_type_id":"4","last_reported":1762766009,"current_range_meters":15200,"station_id":"","pricing_plan_id":"cebpf4jnsgd1na2vs0mg"},{"bike_id":"fd2cb453-4347-4928-aaba-ec89a3ea4b92","system_id":"levelo_inurba_marseille","lat":43.265622,"lon":5.403218,"is_reserved":false,"is_disabled":false,"rental_uris":{"android":"levelo://app?vid=fd2cb453-4347-4928-aaba-ec89a3ea4b92","ios":"levelo://app?vid=fd2cb453-4347-4928-aaba-ec89a3ea4b92"},"vehicle_type_id":"4","last_reported":1762766009,"current_range_meters":15200,"station_id":"ce4bhmp2rcd13ifvqgng","pricing_plan_id":"cebpf4jnsgd1na2vs0mg"},{"bike_id":"d2b5623a-898e-496c-9eba-3602fcb053f5","system_id":"levelo_inurba_marseille","lat":43.25828,"lon":5.39445,"is_reserved":false,"is_disabled":false,"rental_uris":{"android":"levelo://app?vid=d2b5623a-898e-496c-9eba-3602fcb053f5","ios":"levelo://app?vid=d2b5623a-898e-496c-9eba-3602fcb053f5"},"vehicle_type_id":"4","last_reported":1762766009,"current_range_meters":15200,"station_id":"ce4bhip2rcd13ifvqft0","pricing_plan_id":"cebpf4jnsgd1na2vs0mg"},{"bike_id":"fb0e6bea-d078-4452-905b-07db49a4858c","system_id":"levelo_inurba_marseille","lat":43.284775,"lon":5.483913,"is_reserved":false,"is_disabled":false,"rental_uris":{"android":"levelo://app?vid=fb0e6bea-d078-4452-905b-07db49a4858c","ios":"levelo://app?vid=fb0e6bea-d078-4452-905b-07db49a4858c"},"vehicle_type_id":"4","last_reported":1762766009,"current_range_meters":15200,"station_id":"","pricing_plan_id":"cebpf4jnsgd1na2vs0mg"},{"bike_id":"3a04f9c7-e08e-4429-8b60-3f57df5d4f6c","system_id":"levelo_inurba_marseille","lat":43.331594,"lon":5.37685,"is_reserved":false,"is_disabled":false,"rental_uris":{"android":"levelo://app?vid=3a04f9c7-e08e-4429-8b60-3f57df5d4f6c","ios":"levelo://app?vid=3a04f9c7-e08e-4429-8b60-3f57df5d4f6c"},"vehicle_type_id":"4","last_reported":1762766009,"current_range_meters":15200,"station_id":"st_d46cu089ee8s73dldbu0","pricing_plan_id":"cebpf4jnsgd1na2vs0mg"},{"bike_id":"814a2b15-d238-4b17-bd88-3b65765d4346","system_id":"levelo_inurba_marseille","lat":43.26561,"lon":5.39016,"is_reserved":false,"is_disabled":false,"rental_uris":{"android":"levelo://app?vid=814a2b15-d238-4b17-bd88-3b65765d4346","ios":"levelo://app?vid=814a2b15-d238-4b17-bd88-3b65765d4346"},"vehicle_type_id":"4","last_reported":1762766009,"current_range_meters":15200,"station_id":"ce4bhe12rcd13ifvqf30","pricing_plan_id":"cebpf4jnsgd1na2vs0mg"},{"bike_id":"8052234b-ce02-4491-8711-1209426ec613","system_id":"levelo_inurba_marseille","lat":43.32107,"lon":5.36775,"is_reserved":false,"is_disabled":false,"rental_uris":{"android":"levelo://app?vid=8052234b-ce02-4491-8711-1209426ec613","ios":"levelo://app?vid=8052234b-ce02-4491-8711-1209426ec613"},"vehicle_type_id":"4","last_reported":1762766009,"current_range_meters":15200,"station_id":"ce4bhrh2rcd13ifvqhug","pricing_plan_id":"cebpf4jnsgd1na2vs0mg"},{"bike_id":"968a0123-9c52-42d7-bc28-9e49597d1766","system_id":"levelo_inurba_marseille","lat":43.31484,"lon":5.37303,"is_reserved":false,"is_disabled":false,"rental_uris":{"android":"levelo://app?vid=968a0123-9c52-42d7-bc28-9e49597d1766","ios":"levelo://app?vid=968a0123-9c52-42d7-bc28-9e49597d1766"},"vehicle_type_id":"4","last_reported":1762766009,"current_range_meters":16000,"station_id":"ce4bgt12rcd13ifvqcd0","pricing_plan_id":"cebpf4jnsgd1na2vs0mg"},{"bike_id":"44331fa7-9d08-4286-b964-9dc5ad26bac9","system_id":"levelo_inurba_marseille","lat":43.26231,"lon":5.40451,"is_reserved":false,"is_disabled":false,"rental_uris":{"android":"levelo://app?vid=44331fa7-9d08-4286-b964-9dc5ad26bac9","ios":"levelo://app?vid=44331fa7-9d08-4286-b964-9dc5ad26bac9"},"vehicle_type_id":"4","last_reported":1762766009,"current_range_meters":16000,"station_id":"ce4bhmh2rcd13ifvqgmg","pricing_plan_id":"cebpf4jnsgd1na2vs0mg"},{"bike_id":"99891c1d-9d50-4787-b2eb-1c68be846d92","system_id":"levelo_inurba_marseille","lat":43.3212,"lon":5.36736,"is_reserved":false,"is_disabled":false,"rental_uris":{"android":"levelo://app?vid=99891c1d-9d50-4787-b2eb-1c68be846d92","ios":"levelo://app?vid=99891c1d-9d50-4787-b2eb-1c68be846d92"},"vehicle_type_id":"4","last_reported":1762766009,"current_range_meters":16000,"station_id":"ce4bhrh2rcd13ifvqhug","pricing_plan_id":"cebpf4jnsgd1na2vs0mg"},{"bike_id":"19f0e0dd-08d5-4abf-8628-757c41cdaa59","system_id":"levelo_inurba_marseille","lat":43.273761,"lon":5.362552,"is_reserved":false,"is_disabled":false,"rental_uris":{"android":"levelo://app?vid=19f0e0dd-08d5-4abf-8628-757c41cdaa59","ios":"levelo://app?vid=19f0e0dd-08d5-4abf-8628-757c41cdaa59"},"vehicle_type_id":"4","last_reported":1762766009,"current_range_meters":16000,"station_id":"","pricing_plan_id":"cebpf4jnsgd1na2vs0mg"},{"bike_id":"3757c277-a222-4608-baf0-fb11f83a36ad","system_id":"levelo_inurba_marseille","lat":43.240747,"lon":5.37755,"is_reserved":false,"is_disabled":false,"rental_uris":{"android":"levelo://app?vid=3757c277-a222-4608-baf0-fb11f83a36ad","ios":"levelo://app?vid=3757c277-a222-4608-baf0-fb11f83a36ad"},"vehicle_type_id":"4","last_reported":1762766009,"current_range_meters":16400,"station_id":"ce4bhnp2rcd13ifvqgvg","pricing_plan_id":"cebpf4jnsgd1na2vs0mg"},{"bike_id":"1086c95b-b74f-4e99-9e15-ae33be8101e5","system_id":"levelo_inurba_marseille","lat":43.30141,"lon":5.37634,"is_reserved":false,"is_disabled":false,"rental_uris":{"android":"levelo://app?vid=1086c95b-b74f-4e99-9e15-ae33be8101e5","ios":"levelo://app?vid=1086c95b-b74f-4e99-9e15-ae33be8101e5"},"vehicle_type_id":"4","last_reported":1762766009,"current_range_meters":16400,"station_id":"","pricing_plan_id":"cebpf4jnsgd1na2vs0mg"},{"bike_id":"9ce4ffa1-cf83-43e5-93dd-b6dca783d3f2","system_id":"levelo_inurba_marseille","lat":43.297965,"lon":5.380922,"is_reserved":false,"is_disabled":false,"rental_uris":{"android":"levelo://app?vid=9ce4ffa1-cf83-43e5-93dd-b6dca783d3f2","ios":"levelo://app?vid=9ce4ffa1-cf83-43e5-93dd-b6dca783d3f2"},"vehicle_type_id":"4","last_reported":1762766009,"current_range_meters":16400,"station_id":"ce4bgip2rcd13ifvqbb0","pricing_plan_id":"cebpf4jnsgd1na2vs0mg"},{"bike_id":"fc1fec63-d498-469b-9223-77d111a9e71f","system_id":"levelo_inurba_marseille","lat":43.25588,"lon":5.38242,"is_reserved":false,"is_disabled":false,"rental_uris":{"android":"levelo://app?vid=fc1fec63-d498-469b-9223-77d111a9e71f","ios":"levelo://app?vid=fc1fec63-d498-469b-9223-77d111a9e71f"},"vehicle_type_id":"4","last_reported":1762766009,"current_range_meters":16400,"station_id":"ce4bhih2rcd13ifvqfs0","pricing_plan_id":"cebpf4jnsgd1na2vs0mg"},{"bike_id":"4ef56f27-b618-4191-843e-9c861890082c","system_id":"levelo_inurba_marseille","lat":43.28544,"lon":5.39251,"is_reserved":false,"is_disabled":true,"rental_uris":{"android":"levelo://app?vid=4ef56f27-b618-4191-843e-9c861890082c","ios":"levelo://app?vid=4ef56f27-b618-4191-843e-9c861890082c"},"vehicle_type_id":"4","last_reported":1762766009,"current_range_meters":16400,"station_id":"","pricing_plan_id":"cebpf4jnsgd1na2vs0mg"},{"bike_id":"9be94b56-15ef-463f-ba7e-e63df6171cb1","system_id":"levelo_inurba_marseille","lat":43.2172,"lon":5.34587,"is_reserved":false,"is_disabled":true,"rental_uris":{"android":"levelo://app?vid=9be94b56-15ef-463f-ba7e-e63df6171cb1","ios":"levelo://app?vid=9be94b56-15ef-463f-ba7e-e63df6171cb1"},"vehicle_type_id":"4","last_reported":1762766009,"current_range_meters":16400,"station_id":"st_cvj6r9ubvosntc0bgbag","pricing_plan_id":"cebpf4jnsgd1na2vs0mg"},{"bike_id":"33084756-8ef7-48df-8626-0860cb1babef","system_id":"levelo_inurba_marseille","lat":43.26552,"lon":5.3728,"is_reserved":false,"is_disabled":false,"rental_uris":{"android":"levelo://app?vid=33084756-8ef7-48df-8626-0860cb1babef","ios":"levelo://app?vid=33084756-8ef7-48df-8626-0860cb1babef"},"vehicle_type_id":"4","last_reported":1762766009,"current_range_meters":16800,"station_id":"ce4bhg12rcd13ifvqf70","pricing_plan_id":"cebpf4jnsgd1na2vs0mg"},{"bike_id":"b7589c36-c725-4ae0-a367-12f6a2c5f1ef","system_id":"levelo_inurba_marseille","lat":43.29808,"lon":5.44061,"is_reserved":false,"is_disabled":false,"rental_uris":{"android":"levelo://app?vid=b7589c36-c725-4ae0-a367-12f6a2c5f1ef","ios":"levelo://app?vid=b7589c36-c725-4ae0-a367-12f6a2c5f1ef"},"vehicle_type_id":"4","last_reported":1762766009,"current_range_meters":16800,"station_id":"st_d3jp68qikq2c7381ktn0","pricing_plan_id":"cebpf4jnsgd1na2vs0mg"},{"bike_id":"48093bb5-9fc9-4fc9-ab36-2e1bab5c1a76","system_id":"levelo_inurba_marseille","lat":43.30602,"lon":5.37234,"is_reserved":false,"is_disabled":false,"rental_uris":{"android":"levelo://app?vid=48093bb5-9fc9-4fc9-ab36-2e1bab5c1a76","ios":"levelo://app?vid=48093bb5-9fc9-4fc9-ab36-2e1bab5c1a76"},"vehicle_type_id":"4","last_reported":1762766009,"current_range_meters":16800,"station_id":"ce4bgqh2rcd13ifvqc4g","pricing_plan_id":"cebpf4jnsgd1na2vs0mg"},{"bike_id":"f46ad7eb-f85b-4432-be90-167e726c28e3","system_id":"levelo_inurba_marseille","lat":43.23152,"lon":5.43713,"is_reserved":false,"is_disabled":false,"rental_uris":{"android":"levelo://app?vid=f46ad7eb-f85b-4432-be90-167e726c28e3","ios":"levelo://app?vid=f46ad7eb-f85b-4432-be90-167e726c28e3"},"vehicle_type_id":"4","last_reported":1762766009,"current_range_meters":16800,"station_id":"ce4bhmp2rcd13ifvqgog","pricing_plan_id":"cebpf4jnsgd1na2vs0mg"},{"bike_id":"180a70a9-8924-4885-9ca3-10c578c02589","system_id":"levelo_inurba_marseille","lat":43.22537,"lon":5.348321,"is_reserved":false,"is_disabled":false,"rental_uris":{"android":"levelo://app?vid=180a70a9-8924-4885-9ca3-10c578c02589","ios":"levelo://app?vid=180a70a9-8924-4885-9ca3-10c578c02589"},"vehicle_type_id":"4","last_reported":1762766009,"current_range_meters":16800,"station_id":"","pricing_plan_id":"cebpf4jnsgd1na2vs0mg"},{"bike_id":"50bd906f-f66c-4773-8e69-65d41802e55d","system_id":"levelo_inurba_marseille","lat":43.22533,"lon":5.34834,"is_reserved":false,"is_disabled":false,"rental_uris":{"android":"levelo://app?vid=50bd906f-f66c-4773-8e69-65d41802e55d","ios":"levelo://app?vid=50bd906f-f66c-4773-8e69-65d41802e55d"},"vehicle_type_id":"4","last_reported":1762766009,"current_range_meters":17200,"station_id":"","pricing_plan_id":"cebpf4jnsgd1na2vs0mg"},{"bike_id":"4b68d13f-f5d9-4b23-871f-a9d0ced8871b","system_id":"levelo_inurba_marseille","lat":43.3132,"lon":5.37787,"is_reserved":false,"is_disabled":false,"rental_uris":{"android":"levelo://app?vid=4b68d13f-f5d9-4b23-871f-a9d0ced8871b","ios":"levelo://app?vid=4b68d13f-f5d9-4b23-871f-a9d0ced8871b"},"vehicle_type_id":"4","last_reported":1762766009,"current_range_meters":17200,"station_id":"","pricing_plan_id":"cebpf4jnsgd1na2vs0mg"},{"bike_id":"43f24b88-6355-4c1a-8405-f0d97384bd73","system_id":"levelo_inurba_marseille","lat":43.28038,"lon":5.369419,"is_reserved":false,"is_disabled":false,"rental_uris":{"android":"levelo://app?vid=43f24b88-6355-4c1a-8405-f0d97384bd73","ios":"levelo://app?vid=43f24b88-6355-4c1a-8405-f0d97384bd73"},"vehicle_type_id":"4","last_reported":1762766009,"current_range_meters":17200,"station_id":"ce4bha12rcd13ifvqef0","pricing_plan_id":"cebpf4jnsgd1na2vs0mg"},{"bike_id":"4c9f9c32-8f71-4790-be92-8b23c1dac120","system_id":"levelo_inurba_marseille","lat":43.34156,"lon":5.40911,"is_reserved":false,"is_disabled":false,"rental_uris":{"android":"levelo://app?vid=4c9f9c32-8f71-4790-be92-8b23c1dac120","ios":"levelo://app?vid=4c9f9c32-8f71-4790-be92-8b23c1dac120"},"vehicle_type_id":"4","last_reported":1762766009,"current_range_meters":17200,"station_id":"ce4bhqh2rcd13ifvqhlg","pricing_plan_id":"cebpf4jnsgd1na2vs0mg"},{"bike_id":"9e6d81e2-7c80-4996-931b-56e5fddffc2d","system_id":"levelo_inurba_marseille","lat":43.29002,"lon":5.35608,"is_reserved":false,"is_disabled":false,"rental_uris":{"android":"levelo://app?vid=9e6d81e2-7c80-4996-931b-56e5fddffc2d","ios":"levelo://app?vid=9e6d81e2-7c80-4996-931b-56e5fddffc2d"},"vehicle_type_id":"4","last_reported":1762766009,"current_range_meters":17200,"station_id":"ce4bhb92rcd13ifvqen0","pricing_plan_id":"cebpf4jnsgd1na2vs0mg"},{"bike_id":"1016aac3-b163-4bd4-b914-896c361c935b","system_id":"levelo_inurba_marseille","lat":43.32127,"lon":5.38852,"is_reserved":false,"is_disabled":false,"rental_uris":{"android":"levelo://app?vid=1016aac3-b163-4bd4-b914-896c361c935b","ios":"levelo://app?vid=1016aac3-b163-4bd4-b914-896c361c935b"},"vehicle_type_id":"4","last_reported":1762766009,"current_range_meters":17200,"station_id":"","pricing_plan_id":"cebpf4jnsgd1na2vs0mg"},{"bike_id":"99d9d76d-d94f-48e3-abc3-f50dd41e3269","system_id":"levelo_inurba_marseille","lat":43.31142,"lon":5.38332,"is_reserved":false,"is_disabled":false,"rental_uris":{"android":"levelo://app?vid=99d9d76d-d94f-48e3-abc3-f50dd41e3269","ios":"levelo://app?vid=99d9d76d-d94f-48e3-abc3-f50dd41e3269"},"vehicle_type_id":"4","last_reported":1762766009,"current_range_meters":17200,"station_id":"","pricing_plan_id":"cebpf4jnsgd1na2vs0mg"},{"bike_id":"0001f610-ee0b-4dfa-a101-19ef82b4afb7","system_id":"levelo_inurba_marseille","lat":43.29813,"lon":5.44068,"is_reserved":false,"is_disabled":false,"rental_uris":{"android":"levelo://app?vid=0001f610-ee0b-4dfa-a101-19ef82b4afb7","ios":"levelo://app?vid=0001f610-ee0b-4dfa-a101-19ef82b4afb7"},"vehicle_type_id":"4","last_reported":1762766009,"current_range_meters":17200,"station_id":"st_d3jp68qikq2c7381ktn0","pricing_plan_id":"cebpf4jnsgd1na2vs0mg"},{"bike_id":"007c498c-0e07-4552-b7b5-3b2488935c84","system_id":"levelo_inurba_marseille","lat":43.27209,"lon":5.39187,"is_reserved":false,"is_disabled":false,"rental_uris":{"android":"levelo://app?vid=007c498c-0e07-4552-b7b5-3b2488935c84","ios":"levelo://app?vid=007c498c-0e07-4552-b7b5-3b2488935c84"},"vehicle_type_id":"4","last_reported":1762766009,"current_range_meters":17200,"station_id":"ce4bhhp2rcd13ifvqfm0","pricing_plan_id":"cebpf4jnsgd1na2vs0mg"},{"bike_id":"00e20780-721a-4cbf-908e-71547edda3b7","system_id":"levelo_inurba_marseille","lat":43.30591,"lon":5.39347,"is_reserved":false,"is_disabled":false,"rental_uris":{"android":"levelo://app?vid=00e20780-721a-4cbf-908e-71547edda3b7","ios":"levelo://app?vid=00e20780-721a-4cbf-908e-71547edda3b7"},"vehicle_type_id":"4","last_reported":1762766009,"current_range_meters":17200,"station_id":"ce4bh0p2rcd13ifvqd80","pricing_plan_id":"cebpf4jnsgd1na2vs0mg"},{"bike_id":"b0f65dd5-7080-42f8-bb3b-b5fdbbaffdce","system_id":"levelo_inurba_marseille","lat":43.23151,"lon":5.43719,"is_reserved":false,"is_disabled":false,"rental_uris":{"android":"levelo://app?vid=b0f65dd5-7080-42f8-bb3b-b5fdbbaffdce","ios":"levelo://app?vid=b0f65dd5-7080-42f8-bb3b-b5fdbbaffdce"},"vehicle_type_id":"4","last_reported":1762766009,"current_range_meters":17200,"station_id":"ce4bhmp2rcd13ifvqgog","pricing_plan_id":"cebpf4jnsgd1na2vs0mg"},{"bike_id":"0f82dec7-4a1c-4e61-8247-5e6250dee55a","system_id":"levelo_inurba_marseille","lat":43.26563,"lon":5.39002,"is_reserved":false,"is_disabled":false,"rental_uris":{"android":"levelo://app?vid=0f82dec7-4a1c-4e61-8247-5e6250dee55a","ios":"levelo://app?vid=0f82dec7-4a1c-4e61-8247-5e6250dee55a"},"vehicle_type_id":"4","last_reported":1762766009,"current_range_meters":17200,"station_id":"ce4bhe12rcd13ifvqf30","pricing_plan_id":"cebpf4jnsgd1na2vs0mg"},{"bike_id":"af204f7b-77cf-4806-b8d8-e150fce195d8","system_id":"levelo_inurba_marseille","lat":43.24068,"lon":5.37757,"is_reserved":false,"is_disabled":false,"rental_uris":{"android":"levelo://app?vid=af204f7b-77cf-4806-b8d8-e150fce195d8","ios":"levelo://app?vid=af204f7b-77cf-4806-b8d8-e150fce195d8"},"vehicle_type_id":"4","last_reported":1762766009,"current_range_meters":17200,"station_id":"ce4bhnp2rcd13ifvqgvg","pricing_plan_id":"cebpf4jnsgd1na2vs0mg"},{"bike_id":"9cdf31ca-c1fa-4b16-8e4b-a55d157961a5","system_id":"levelo_inurba_marseille","lat":43.2849,"lon":5.38561,"is_reserved":false,"is_disabled":false,"rental_uris":{"android":"levelo://app?vid=9cdf31ca-c1fa-4b16-8e4b-a55d157961a5","ios":"levelo://app?vid=9cdf31ca-c1fa-4b16-8e4b-a55d157961a5"},"vehicle_type_id":"4","last_reported":1762766009,"current_range_meters":17200,"station_id":"ce4bh8p2rcd13ifvqeb0","pricing_plan_id":"cebpf4jnsgd1na2vs0mg"},{"bike_id":"eb981f96-c1a6-4158-ab39-357b040342db","system_id":"levelo_inurba_marseille","lat":43.27494,"lon":5.42458,"is_reserved":false,"is_disabled":false,"rental_uris":{"android":"levelo://app?vid=eb981f96-c1a6-4158-ab39-357b040342db","ios":"levelo://app?vid=eb981f96-c1a6-4158-ab39-357b040342db"},"vehicle_type_id":"4","last_reported":1762766009,"current_range_meters":17600,"station_id":"ce4bhn92rcd13ifvqgrg","pricing_plan_id":"cebpf4jnsgd1na2vs0mg"},{"bike_id":"42bbdb4f-c9b7-4299-b4a6-0178a6a32bf3","system_id":"levelo_inurba_marseille","lat":43.31819,"lon":5.37402,"is_reserved":false,"is_disabled":false,"rental_uris":{"android":"levelo://app?vid=42bbdb4f-c9b7-4299-b4a6-0178a6a32bf3","ios":"levelo://app?vid=42bbdb4f-c9b7-4299-b4a6-0178a6a32bf3"},"vehicle_type_id":"4","last_reported":1762766009,"current_range_meters":17600,"station_id":"","pricing_plan_id":"cebpf4jnsgd1na2vs0mg"},{"bike_id":"66b0d514-dae2-4dc7-bd19-b20bae729fa6","system_id":"levelo_inurba_marseille","lat":43.246434,"lon":5.388988,"is_reserved":false,"is_disabled":false,"rental_uris":{"android":"levelo://app?vid=66b0d514-dae2-4dc7-bd19-b20bae729fa6","ios":"levelo://app?vid=66b0d514-dae2-4dc7-bd19-b20bae729fa6"},"vehicle_type_id":"4","last_reported":1762766009,"current_range_meters":17600,"station_id":"ce4bhg12rcd13ifvqf60","pricing_plan_id":"cebpf4jnsgd1na2vs0mg"},{"bike_id":"a30c2ba5-a0e7-4bc0-bb91-00e54058c340","system_id":"levelo_inurba_marseille","lat":43.30198,"lon":5.39464,"is_reserved":false,"is_disabled":false,"rental_uris":{"android":"levelo://app?vid=a30c2ba5-a0e7-4bc0-bb91-00e54058c340","ios":"levelo://app?vid=a30c2ba5-a0e7-4bc0-bb91-00e54058c340"},"vehicle_type_id":"4","last_reported":1762766009,"current_range_meters":17600,"station_id":"","pricing_plan_id":"cebpf4jnsgd1na2vs0mg"},{"bike_id":"eaf38be0-8bc4-4e69-b883-b178f771e6cf","system_id":"levelo_inurba_marseille","lat":43.329129,"lon":5.361737,"is_reserved":false,"is_disabled":false,"rental_uris":{"android":"levelo://app?vid=eaf38be0-8bc4-4e69-b883-b178f771e6cf","ios":"levelo://app?vid=eaf38be0-8bc4-4e69-b883-b178f771e6cf"},"vehicle_type_id":"4","last_reported":1762766009,"current_range_meters":17600,"station_id":"","pricing_plan_id":"cebpf4jnsgd1na2vs0mg"},{"bike_id":"e8f26262-51ba-41e4-baa8-fee3433c6fb3","system_id":"levelo_inurba_marseille","lat":43.225311,"lon":5.348257,"is_reserved":false,"is_disabled":false,"rental_uris":{"android":"levelo://app?vid=e8f26262-51ba-41e4-baa8-fee3433c6fb3","ios":"levelo://app?vid=e8f26262-51ba-41e4-baa8-fee3433c6fb3"},"vehicle_type_id":"4","last_reported":1762766009,"current_range_meters":17600,"station_id":"","pricing_plan_id":"cebpf4jnsgd1na2vs0mg"},{"bike_id":"394fe008-6aee-4895-9fdf-b6a85ec32574","system_id":"levelo_inurba_marseille","lat":43.30805,"lon":5.38134,"is_reserved":false,"is_disabled":false,"rental_uris":{"android":"levelo://app?vid=394fe008-6aee-4895-9fdf-b6a85ec32574","ios":"levelo://app?vid=394fe008-6aee-4895-9fdf-b6a85ec32574"},"vehicle_type_id":"4","last_reported":1762766009,"current_range_meters":18000,"station_id":"ce4bgt12rcd13ifvqce0","pricing_plan_id":"cebpf4jnsgd1na2vs0mg"},{"bike_id":"6ae87b41-3981-4b69-b43c-0b6bde62265a","system_id":"levelo_inurba_marseille","lat":43.337739,"lon":5.37429,"is_reserved":false,"is_disabled":false,"rental_uris":{"android":"levelo://app?vid=6ae87b41-3981-4b69-b43c-0b6bde62265a","ios":"levelo://app?vid=6ae87b41-3981-4b69-b43c-0b6bde62265a"},"vehicle_type_id":"4","last_reported":1762766009,"current_range_meters":18000,"station_id":"","pricing_plan_id":"cebpf4jnsgd1na2vs0mg"},{"bike_id":"a506955a-debf-4b40-a307-aa2bd90a16c0","system_id":"levelo_inurba_marseille","lat":43.28932,"lon":5.3839,"is_reserved":false,"is_disabled":false,"rental_uris":{"android":"levelo://app?vid=a506955a-debf-4b40-a307-aa2bd90a16c0","ios":"levelo://app?vid=a506955a-debf-4b40-a307-aa2bd90a16c0"},"vehicle_type_id":"4","last_reported":1762766009,"current_range_meters":18000,"station_id":"ce4bh612rcd13ifvqe6g","pricing_plan_id":"cebpf4jnsgd1na2vs0mg"},{"bike_id":"a1841d02-b053-4f88-89ac-a2a3e0997d3f","system_id":"levelo_inurba_marseille","lat":43.217657,"lon":5.346304,"is_reserved":false,"is_disabled":false,"rental_uris":{"android":"levelo://app?vid=a1841d02-b053-4f88-89ac-a2a3e0997d3f","ios":"levelo://app?vid=a1841d02-b053-4f88-89ac-a2a3e0997d3f"},"vehicle_type_id":"4","last_reported":1762766009,"current_range_meters":18000,"station_id":"st_cvj6r9ubvosntc0bgbag","pricing_plan_id":"cebpf4jnsgd1na2vs0mg"},{"bike_id":"122bdab4-68f6-41de-a130-9cd3d01ccdfd","system_id":"levelo_inurba_marseille","lat":43.22533,"lon":5.34829,"is_reserved":false,"is_disabled":false,"rental_uris":{"android":"levelo://app?vid=122bdab4-68f6-41de-a130-9cd3d01ccdfd","ios":"levelo://app?vid=122bdab4-68f6-41de-a130-9cd3d01ccdfd"},"vehicle_type_id":"4","last_reported":1762766009,"current_range_meters":18000,"station_id":"","pricing_plan_id":"cebpf4jnsgd1na2vs0mg"},{"bike_id":"add179cc-c88d-4128-8d15-3632eecc76a6","system_id":"levelo_inurba_marseille","lat":43.30464,"lon":5.37902,"is_reserved":false,"is_disabled":false,"rental_uris":{"android":"levelo://app?vid=add179cc-c88d-4128-8d15-3632eecc76a6","ios":"levelo://app?vid=add179cc-c88d-4128-8d15-3632eecc76a6"},"vehicle_type_id":"4","last_reported":1762766009,"current_range_meters":18000,"station_id":"ce4bgup2rcd13ifvqcn0","pricing_plan_id":"cebpf4jnsgd1na2vs0mg"},{"bike_id":"bd12c88d-fd3e-4821-a166-09acb42cf785","system_id":"levelo_inurba_marseille","lat":43.2408,"lon":5.37755,"is_reserved":false,"is_disabled":false,"rental_uris":{"android":"levelo://app?vid=bd12c88d-fd3e-4821-a166-09acb42cf785","ios":"levelo://app?vid=bd12c88d-fd3e-4821-a166-09acb42cf785"},"vehicle_type_id":"4","last_reported":1762766009,"current_range_meters":18000,"station_id":"ce4bhnp2rcd13ifvqgvg","pricing_plan_id":"cebpf4jnsgd1na2vs0mg"},{"bike_id":"7101f486-0127-4fc0-93f5-4b597b09dc60","system_id":"levelo_inurba_marseille","lat":43.24077,"lon":5.37755,"is_reserved":false,"is_disabled":false,"rental_uris":{"android":"levelo://app?vid=7101f486-0127-4fc0-93f5-4b597b09dc60","ios":"levelo://app?vid=7101f486-0127-4fc0-93f5-4b597b09dc60"},"vehicle_type_id":"4","last_reported":1762766009,"current_range_meters":18000,"station_id":"ce4bhnp2rcd13ifvqgvg","pricing_plan_id":"cebpf4jnsgd1na2vs0mg"},{"bike_id":"f3c6488c-0564-4dfb-ac7d-8e2ed966c2f9","system_id":"levelo_inurba_marseille","lat":43.3414,"lon":5.40901,"is_reserved":false,"is_disabled":false,"rental_uris":{"android":"levelo://app?vid=f3c6488c-0564-4dfb-ac7d-8e2ed966c2f9","ios":"levelo://app?vid=f3c6488c-0564-4dfb-ac7d-8e2ed966c2f9"},"vehicle_type_id":"4","last_reported":1762766009,"current_range_meters":18000,"station_id":"ce4bhqh2rcd13ifvqhlg","pricing_plan_id":"cebpf4jnsgd1na2vs0mg"},{"bike_id":"db0fd77d-283f-400a-a9f0-2704580943d1","system_id":"levelo_inurba_marseille","lat":43.309541,"lon":5.390473,"is_reserved":false,"is_disabled":false,"rental_uris":{"android":"levelo://app?vid=db0fd77d-283f-400a-a9f0-2704580943d1","ios":"levelo://app?vid=db0fd77d-283f-400a-a9f0-2704580943d1"},"vehicle_type_id":"4","last_reported":1762766009,"current_range_meters":18000,"station_id":"ce4bgup2rcd13ifvqco0","pricing_plan_id":"cebpf4jnsgd1na2vs0mg"},{"bike_id":"4cae9d5c-a24c-41f1-9f54-aaa487e732a6","system_id":"levelo_inurba_marseille","lat":43.29984,"lon":5.38177,"is_reserved":false,"is_disabled":false,"rental_uris":{"android":"levelo://app?vid=4cae9d5c-a24c-41f1-9f54-aaa487e732a6","ios":"levelo://app?vid=4cae9d5c-a24c-41f1-9f54-aaa487e732a6"},"vehicle_type_id":"4","last_reported":1762766009,"current_range_meters":18800,"station_id":"","pricing_plan_id":"cebpf4jnsgd1na2vs0mg"},{"bike_id":"21e712a5-2ab0-4bee-961d-a1023862329d","system_id":"levelo_inurba_marseille","lat":43.27674,"lon":5.38901,"is_reserved":false,"is_disabled":false,"rental_uris":{"android":"levelo://app?vid=21e712a5-2ab0-4bee-961d-a1023862329d","ios":"levelo://app?vid=21e712a5-2ab0-4bee-961d-a1023862329d"},"vehicle_type_id":"4","last_reported":1762766009,"current_range_meters":18800,"station_id":"ce4bhi12rcd13ifvqfo0","pricing_plan_id":"cebpf4jnsgd1na2vs0mg"},{"bike_id":"5eb28dc9-1056-4fe2-a3f0-4c13efc57df0","system_id":"levelo_inurba_marseille","lat":43.25933,"lon":5.40902,"is_reserved":false,"is_disabled":false,"rental_uris":{"android":"levelo://app?vid=5eb28dc9-1056-4fe2-a3f0-4c13efc57df0","ios":"levelo://app?vid=5eb28dc9-1056-4fe2-a3f0-4c13efc57df0"},"vehicle_type_id":"4","last_reported":1762766009,"current_range_meters":18800,"station_id":"ce4bhm92rcd13ifvqglg","pricing_plan_id":"cebpf4jnsgd1na2vs0mg"},{"bike_id":"851e52a7-7701-41a2-9335-4b4a9404896b","system_id":"levelo_inurba_marseille","lat":43.29818,"lon":5.44068,"is_reserved":false,"is_disabled":false,"rental_uris":{"android":"levelo://app?vid=851e52a7-7701-41a2-9335-4b4a9404896b","ios":"levelo://app?vid=851e52a7-7701-41a2-9335-4b4a9404896b"},"vehicle_type_id":"4","last_reported":1762766009,"current_range_meters":18800,"station_id":"st_d3jp68qikq2c7381ktn0","pricing_plan_id":"cebpf4jnsgd1na2vs0mg"},{"bike_id":"11add6f0-c8f6-416e-994c-f77b6db82245","system_id":"levelo_inurba_marseille","lat":43.28716,"lon":5.37942,"is_reserved":false,"is_disabled":false,"rental_uris":{"android":"levelo://app?vid=11add6f0-c8f6-416e-994c-f77b6db82245","ios":"levelo://app?vid=11add6f0-c8f6-416e-994c-f77b6db82245"},"vehicle_type_id":"4","last_reported":1762766009,"current_range_meters":18800,"station_id":"ce4bh9p2rcd13ifvqec0","pricing_plan_id":"cebpf4jnsgd1na2vs0mg"},{"bike_id":"25a46c94-44b7-47af-af38-059fe57abb8e","system_id":"levelo_inurba_marseille","lat":43.285694,"lon":5.398636,"is_reserved":false,"is_disabled":false,"rental_uris":{"android":"levelo://app?vid=25a46c94-44b7-47af-af38-059fe57abb8e","ios":"levelo://app?vid=25a46c94-44b7-47af-af38-059fe57abb8e"},"vehicle_type_id":"4","last_reported":1762766009,"current_range_meters":18800,"station_id":"ce4bho92rcd13ifvqh3g","pricing_plan_id":"cebpf4jnsgd1na2vs0mg"},{"bike_id":"01f1145d-87ef-4a8b-ae3c-d5baefa96922","system_id":"levelo_inurba_marseille","lat":43.28609,"lon":5.37055,"is_reserved":false,"is_disabled":false,"rental_uris":{"android":"levelo://app?vid=01f1145d-87ef-4a8b-ae3c-d5baefa96922","ios":"levelo://app?vid=01f1145d-87ef-4a8b-ae3c-d5baefa96922"},"vehicle_type_id":"4","last_reported":1762766009,"current_range_meters":18800,"station_id":"ce4bht12rcd13ifvqi60","pricing_plan_id":"cebpf4jnsgd1na2vs0mg"},{"bike_id":"2662850b-1c1b-48f8-bfc6-a80a6f338f1e","system_id":"levelo_inurba_marseille","lat":43.25727,"lon":5.41107,"is_reserved":false,"is_disabled":false,"rental_uris":{"android":"levelo://app?vid=2662850b-1c1b-48f8-bfc6-a80a6f338f1e","ios":"levelo://app?vid=2662850b-1c1b-48f8-bfc6-a80a6f338f1e"},"vehicle_type_id":"4","last_reported":1762766009,"current_range_meters":18800,"station_id":"ce4bhkp2rcd13ifvqgd0","pricing_plan_id":"cebpf4jnsgd1na2vs0mg"},{"bike_id":"f9b0a7da-0067-40d4-8905-156f84ad8d6e","system_id":"levelo_inurba_marseille","lat":43.28737,"lon":5.37925,"is_reserved":false,"is_disabled":false,"rental_uris":{"android":"levelo://app?vid=f9b0a7da-0067-40d4-8905-156f84ad8d6e","ios":"levelo://app?vid=f9b0a7da-0067-40d4-8905-156f84ad8d6e"},"vehicle_type_id":"4","last_reported":1762766009,"current_range_meters":19200,"station_id":"ce4bh9p2rcd13ifvqec0","pricing_plan_id":"cebpf4jnsgd1na2vs0mg"},{"bike_id":"1c1e5e86-f0e6-459d-b631-49a91d6953f1","system_id":"levelo_inurba_marseille","lat":43.298453,"lon":5.362763,"is_reserved":false,"is_disabled":false,"rental_uris":{"android":"levelo://app?vid=1c1e5e86-f0e6-459d-b631-49a91d6953f1","ios":"levelo://app?vid=1c1e5e86-f0e6-459d-b631-49a91d6953f1"},"vehicle_type_id":"4","last_reported":1762766009,"current_range_meters":19200,"station_id":"ce4bgpp2rcd13ifvqc3g","pricing_plan_id":"cebpf4jnsgd1na2vs0mg"},{"bike_id":"d610cd16-c813-406e-bee7-295ec8ce6047","system_id":"levelo_inurba_marseille","lat":43.3144,"lon":5.37381,"is_reserved":false,"is_disabled":false,"rental_uris":{"android":"levelo://app?vid=d610cd16-c813-406e-bee7-295ec8ce6047","ios":"levelo://app?vid=d610cd16-c813-406e-bee7-295ec8ce6047"},"vehicle_type_id":"4","last_reported":1762766009,"current_range_meters":19200,"station_id":"","pricing_plan_id":"cebpf4jnsgd1na2vs0mg"},{"bike_id":"69118933-bbe9-4517-98b3-f83194b1bf74","system_id":"levelo_inurba_marseille","lat":43.31129,"lon":5.37757,"is_reserved":false,"is_disabled":false,"rental_uris":{"android":"levelo://app?vid=69118933-bbe9-4517-98b3-f83194b1bf74","ios":"levelo://app?vid=69118933-bbe9-4517-98b3-f83194b1bf74"},"vehicle_type_id":"4","last_reported":1762766009,"current_range_meters":19200,"station_id":"ce4bgt92rcd13ifvqcg0","pricing_plan_id":"cebpf4jnsgd1na2vs0mg"},{"bike_id":"27b4a801-4235-4582-8ab7-9991dbe54d08","system_id":"levelo_inurba_marseille","lat":43.25944,"lon":5.40892,"is_reserved":false,"is_disabled":false,"rental_uris":{"android":"levelo://app?vid=27b4a801-4235-4582-8ab7-9991dbe54d08","ios":"levelo://app?vid=27b4a801-4235-4582-8ab7-9991dbe54d08"},"vehicle_type_id":"4","last_reported":1762766009,"current_range_meters":19200,"station_id":"ce4bhm92rcd13ifvqglg","pricing_plan_id":"cebpf4jnsgd1na2vs0mg"},