{"last_updated":1716131193,"ttl":30,"version":"2.2","data":{"bikes":[{"bike_id":"1d7b9a73-dee5-4d9d-8096-0e216f39018f","system_id":"levelo_inurba_marseille","lat":43.313558,"lon":5.367112,"is_reserved":false,"is_disabled":false,"rental_uris":{"android":"levelo://app?vid=1d7b9a73-dee5-4d9d-8096-0e216f39018f","ios":"levelo://app?vid=1d7b9a73-dee5-4d9d-8096-0e216f39018f"},"vehicle_type_id":"4","last_reported":1716131193,"current_range_meters":0,"station_id":"ce4bgr92rcd13ifvqc6g","pricing_plan_id":"cebpf4jnsgd1na2vs0mg"},{"bike_id":"2e012f7b-1daa-414a-9af2-b141b7c73c6b","system_id":"levelo_inurba_marseille","lat":43.312239,"lon":5.368562,"is_reserved":false,"is_disabled":false,"rental_uris":{"android":"levelo://app?vid=2e012f7b-1daa-414a-9af2-b141b7c73c6b","ios":"levelo://app?vid=2e012f7b-1daa-414a-9af2-b141b7c73c6b"},"vehicle_type_id":"4","last_reported":1716131193,"current_range_meters":0,"station_id":"ce4bgl92rcd13ifvqbq0","pricing_plan_id":"cebpf4jnsgd1na2vs0mg"},{"bike_id":"5047ed07-32ec-4b40-8be8-18b3f43cbe61","system_id":"levelo_inurba_marseille","lat":43.31226,"lon":5.368467,"is_reserved":false,"is_disabled":false,"rental_uris":{"android":"levelo://app?vid=5047ed07-32ec-4b40-8be8-18b3f43cbe61","ios":"levelo://app?vid=5047ed07-32ec-4b40-8be8-18b3f43cbe61"},"vehicle_type_id":"4","last_reported":1716131193,"current_range_meters":23600,"station_id":"ce4bgl92rcd13ifvqbq0","pricing_plan_id":"cebpf4jnsgd1na2vs0mg"},{"bike_id":"1d7acf69-886c-494a-b847-64b09c1d4d31","system_id":"levelo_inurba_marseille","lat":43.312239,"lon":5.368562,"is_reserved":false,"is_disabled":false,"rental_uris":{"android":"levelo://app?vid=1d7acf69-886c-494a-b847-64b09c1d4d31","ios":"levelo://app?vid=1d7acf69-886c-494a-b847-64b09c1d4d31"},"vehicle_type_id":"4","last_reported":1716131193,"current_range_meters":22000,"station_id":"ce4bgl92rcd13ifvqbq0","pricing_plan_id":"cebpf4jnsgd1na2vs0mg"},{"bike_id":"8ca5bfd9-ecce-4c63-87c9-946c42763d13","system_id":"levelo_inurba_marseille","lat":43.312239,"lon":5.368562,"is_reserved":false,"is_disabled":false,"rental_uris":{"android":"levelo://app?vid=8ca5bfd9-ecce-4c63-87c9-946c42763d13","ios":"levelo://app?vid=8ca5bfd9-ecce-4c63-87c9-946c42763d13"},"vehicle_type_id":"4","last_reported":1716131193,"current_range_meters":0,"station_id":"ce4bgl92rcd13ifvqbq0","pricing_plan_id":"cebpf4jnsgd1na2vs0mg"},{"bike_id":"afab2cc5-130e-4bbc-976b-ed8f91749591","system_id":"levelo_inurba_marseille","lat":43.30947,"lon":5.370846,"is_reserved":false,"is_disabled":false,"rental_uris":{"android":"levelo://app?vid=afab2cc5-130e-4bbc-976b-ed8f91749591","ios":"levelo://app?vid=afab2cc5-130e-4bbc-976b-ed8f91749591"},"vehicle_type_id":"4","last_reported":1716131193,"current_range_meters":15200,"station_id":"","pricing_plan_id":"cebpf4jnsgd1na2vs0mg"},{"bike_id":"c2f25688-1234-48f6-a4b3-fcad4d8ad6bd","system_id":"levelo_inurba_marseille","lat":43.314811,"lon":5.373104,"is_reserved":false,"is_disabled":false,"rental_uris":{"android":"levelo://app?vid=c2f25688-1234-48f6-a4b3-fcad4d8ad6bd","ios":"levelo://app?vid=c2f25688-1234-48f6-a4b3-fcad4d8ad6bd"},"vehicle_type_id":"4","last_reported":1716131193,"current_range_meters":30000,"station_id":"ce4bgt12rcd13ifvqcd0","pricing_plan_id":"cebpf4jnsgd1na2vs0mg"},{"bike_id":"d170ba0d-45e7-40fa-8c28-104d467b82d3","system_id":"levelo_inurba_marseille","lat":43.31672,"lon":5.3722,"is_reserved":false,"is_disabled":false,"rental_uris":{"android":"levelo://app?vid=d170ba0d-45e7-40fa-8c28-104d467b82d3","ios":"levelo://app?vid=d170ba0d-45e7-40fa-8c28-104d467b82d3"},"vehicle_type_id":"4","last_reported":1716131193,"current_range_meters":22000,"station_id":"","pricing_plan_id":"cebpf4jnsgd1na2vs0mg"},{"bike_id":"4ee1e1ef-e332-4f69-8ec4-dc0426fb236b","system_id":"levelo_inurba_marseille","lat":43.305706,"lon":5.365654,"is_reserved":false,"is_disabled":false,"rental_uris":{"android":"levelo://app?vid=4ee1e1ef-e332-4f69-8ec4-dc0426fb236b","ios":"levelo://app?vid=4ee1e1ef-e332-4f69-8ec4-dc0426fb236b"},"vehicle_type_id":"4","last_reported":1716131193,"current_range_meters":16000,"station_id":"ce4bgs12rcd13ifvqcag","pricing_plan_id":"cebpf4jnsgd1na2vs0mg"},{"bike_id":"789e785b-9b44-40f7-a128-d9b66b6edb2b","system_id":"levelo_inurba_marseille","lat":43.305989,"lon":5.37225,"is_reserved":false,"is_disabled":false,"rental_uris":{"android":"levelo://app?vid=789e785b-9b44-40f7-a128-d9b66b6edb2b","ios":"levelo://app?vid=789e785b-9b44-40f7-a128-d9b66b6edb2b"},"vehicle_type_id":"4","last_reported":1716131193,"current_range_meters":21600,"station_id":"ce4bgqh2rcd13ifvqc4g","pricing_plan_id":"cebpf4jnsgd1na2vs0mg"},{"bike_id":"abbdbaa9-e7ca-424c-9e96-da1c61f64000","system_id":"levelo_inurba_marseille","lat":43.305989,"lon":5.37225,"is_reserved":false,"is_disabled":false,"rental_uris":{"android":"levelo://app?vid=abbdbaa9-e7ca-424c-9e96-da1c61f64000","ios":"levelo://app?vid=abbdbaa9-e7ca-424c-9e96-da1c61f64000"},"vehicle_type_id":"4","last_reported":1716131193,"current_range_meters":16800,"station_id":"ce4bgqh2rcd13ifvqc4g","pricing_plan_id":"cebpf4jnsgd1na2vs0mg"},{"bike_id":"d32c7c1e-92d8-42bf-9334-2a743e24a7eb","system_id":"levelo_inurba_marseille","lat":43.311125,"lon":5.377624,"is_reserved":false,"is_disabled":false,"rental_uris":{"android":"levelo://app?vid=d32c7c1e-92d8-42bf-9334-2a743e24a7eb","ios":"levelo://app?vid=d32c7c1e-92d8-42bf-9334-2a743e24a7eb"},"vehicle_type_id":"4","last_reported":1716131193,"current_range_meters":1600,"station_id":"ce4bgt92rcd13ifvqcg0","pricing_plan_id":"cebpf4jnsgd1na2vs0mg"},{"bike_id":"1395eb18-fdd6-4145-a03f-79c1909e04f4","system_id":"levelo_inurba_marseille","lat":43.311125,"lon":5.377624,"is_reserved":false,"is_disabled":false,"rental_uris":{"android":"levelo://app?vid=1395eb18-fdd6-4145-a03f-79c1909e04f4","ios":"levelo://app?vid=1395eb18-fdd6-4145-a03f-79c1909e04f4"},"vehicle_type_id":"4","last_reported":1716131193,"current_range_meters":8400,"station_id":"ce4bgt92rcd13ifvqcg0","pricing_plan_id":"cebpf4jnsgd1na2vs0mg"},{"bike_id":"433c1f7c-5fda-462a-8269-a1ef174a7b7f","system_id":"levelo_inurba_marseille","lat":43.303046,"lon":5.368981,"is_reserved":false,"is_disabled":false,"rental_uris":{"android":"levelo://app?vid=433c1f7c-5fda-462a-8269-a1ef174a7b7f","ios":"levelo://app?vid=433c1f7c-5fda-462a-8269-a1ef174a7b7f"},"vehicle_type_id":"4","last_reported":1716131193,"current_range_meters":27600,"station_id":"ce4bgqh2rcd13ifvqc5g","pricing_plan_id":"cebpf4jnsgd1na2vs0mg"},{"bike_id":"2849d109-9597-4e31-9ded-c78f4d6c891e","system_id":"levelo_inurba_marseille","lat":43.303046,"lon":5.368981,"is_reserved":false,"is_disabled":false,"rental_uris":{"android":"levelo://app?vid=2849d109-9597-4e31-9ded-c78f4d6c891e","ios":"levelo://app?vid=2849d109-9597-4e31-9ded-c78f4d6c891e"},"vehicle_type_id":"4","last_reported":1716131193,"current_range_meters":5200,"station_id":"ce4bgqh2rcd13ifvqc5g","pricing_plan_id":"cebpf4jnsgd1na2vs0mg"},{"bike_id":"77e2f33e-3ee2-4b2a-acb6-39e3361d322d","system_id":"levelo_inurba_marseille","lat":43.301939,"lon":5.366286,"is_reserved":false,"is_disabled":false,"rental_uris":{"android":"levelo://app?vid=77e2f33e-3ee2-4b2a-acb6-39e3361d322d","ios":"levelo://app?vid=77e2f33e-3ee2-4b2a-acb6-39e3361d322d"},"vehicle_type_id":"4","last_reported":1716131193,"current_range_meters":3600,"station_id":"ce4bgrh2rcd13ifvqc8g","pricing_plan_id":"cebpf4jnsgd1na2vs0mg"},{"bike_id":"1a038ce3-97fa-4f34-85ce-4bfcfac31b40","system_id":"levelo_inurba_marseille","lat":43.3081,"lon":5.38156,"is_reserved":false,"is_disabled":false,"rental_uris":{"android":"levelo://app?vid=1a038ce3-97fa-4f34-85ce-4bfcfac31b40","ios":"levelo://app?vid=1a038ce3-97fa-4f34-85ce-4bfcfac31b40"},"vehicle_type_id":"4","last_reported":1716131193,"current_range_meters":2000,"station_id":"ce4bgt12rcd13ifvqce0","pricing_plan_id":"cebpf4jnsgd1na2vs0mg"},{"bike_id":"d9daae51-14e6-4792-bd53-df6595edb0bd","system_id":"levelo_inurba_marseille","lat":43.308012,"lon":5.381511,"is_reserved":false,"is_disabled":false,"rental_uris":{"android":"levelo://app?vid=d9daae51-14e6-4792-bd53-df6595edb0bd","ios":"levelo://app?vid=d9daae51-14e6-4792-bd53-df6595edb0bd"},"vehicle_type_id":"4","last_reported":1716131193,"current_range_meters":0,"station_id":"ce4bgt12rcd13ifvqce0","pricing_plan_id":"cebpf4jnsgd1na2vs0mg"},{"bike_id":"3163dadb-d17e-4c07-9247-87f139049670","system_id":"levelo_inurba_marseille","lat":43.304702,"lon":5.37899,"is_reserved":false,"is_disabled":false,"rental_uris":{"android":"levelo://app?vid=3163dadb-d17e-4c07-9247-87f139049670","ios":"levelo://app?vid=3163dadb-d17e-4c07-9247-87f139049670"},"vehicle_type_id":"4","last_reported":1716131193,"current_range_meters":0,"station_id":"ce4bgup2rcd13ifvqcn0","pricing_plan_id":"cebpf4jnsgd1na2vs0mg"},{"bike_id":"e2c798d6-0783-401b-b632-e4a3e6db8597","system_id":"levelo_inurba_marseille","lat":43.324771,"lon":5.36557,"is_reserved":false,"is_disabled":false,"rental_uris":{"android":"levelo://app?vid=e2c798d6-0783-401b-b632-e4a3e6db8597","ios":"levelo://app?vid=e2c798d6-0783-401b-b632-e4a3e6db8597"},"vehicle_type_id":"4","last_reported":1716131193,"current_range_meters":26000,"station_id":"ce4bhs12rcd13ifvqhvg","pricing_plan_id":"cebpf4jnsgd1na2vs0mg"},{"bike_id":"58d6a1f1-8241-4702-9afd-d09bceadb108","system_id":"levelo_inurba_marseille","lat":43.324771,"lon":5.36557,"is_reserved":false,"is_disabled":false,"rental_uris":{"android":"levelo://app?vid=58d6a1f1-8241-4702-9afd-d09bceadb108","ios":"levelo://app?vid=58d6a1f1-8241-4702-9afd-d09bceadb108"},"vehicle_type_id":"4","last_reported":1716131193,"current_range_meters":0,"station_id":"ce4bhs12rcd13ifvqhvg","pricing_plan_id":"cebpf4jnsgd1na2vs0mg"},{"bike_id":"9a868f2a-dd85-4d7d-8fa1-70dc69d20b9d","system_id":"levelo_inurba_marseille","lat":43.310804,"lon":5.38359,"is_reserved":false,"is_disabled":false,"rental_uris":{"android":"levelo://app?vid=9a868f2a-dd85-4d7d-8fa1-70dc69d20b9d","ios":"levelo://app?vid=9a868f2a-dd85-4d7d-8fa1-70dc69d20b9d"},"vehicle_type_id":"4","last_reported":1716131193,"current_range_meters":2400,"station_id":"ce4bgv92rcd13ifvqcr0","pricing_plan_id":"cebpf4jnsgd1na2vs0mg"},{"bike_id":"b6615c3c-0d9b-40b1-8ca5-bcc90a43ae03","system_id":"levelo_inurba_marseille","lat":43.302784,"lon":5.377158,"is_reserved":false,"is_disabled":false,"rental_uris":{"android":"levelo://app?vid=b6615c3c-0d9b-40b1-8ca5-bcc90a43ae03","ios":"levelo://app?vid=b6615c3c-0d9b-40b1-8ca5-bcc90a43ae03"},"vehicle_type_id":"4","last_reported":1716131193,"current_range_meters":14000,"station_id":"ce4bguh2rcd13ifvqcj0","pricing_plan_id":"cebpf4jnsgd1na2vs0mg"},{"bike_id":"9add5509-f510-454b-a00b-cfedac868c43","system_id":"levelo_inurba_marseille","lat":43.319935,"lon":5.381699,"is_reserved":false,"is_disabled":false,"rental_uris":{"android":"levelo://app?vid=9add5509-f510-454b-a00b-cfedac868c43","ios":"levelo://app?vid=9add5509-f510-454b-a00b-cfedac868c43"},"vehicle_type_id":"4","last_reported":1716131193,"current_range_meters":27200,"station_id":"ce4bhr12rcd13ifvqhpg","pricing_plan_id":"cebpf4jnsgd1na2vs0mg"},{"bike_id":"2d89e531-6281-4ec6-a114-3a361a21a65f","system_id":"levelo_inurba_marseille","lat":43.32,"lon":5.38161,"is_reserved":false,"is_disabled":false,"rental_uris":{"android":"levelo://app?vid=2d89e531-6281-4ec6-a114-3a361a21a65f","ios":"levelo://app?vid=2d89e531-6281-4ec6-a114-3a361a21a65f"},"vehicle_type_id":"4","last_reported":1716131193,"current_range_meters":1600,"station_id":"ce4bhr12rcd13ifvqhpg","pricing_plan_id":"cebpf4jnsgd1na2vs0mg"},{"bike_id":"66c29aae-c270-41ee-b42e-3a5eef28139b","system_id":"levelo_inurba_marseille","lat":43.32003,"lon":5.38162,"is_reserved":false,"is_disabled":false,"rental_uris":{"android":"levelo://app?vid=66c29aae-c270-41ee-b42e-3a5eef28139b","ios":"levelo://app?vid=66c29aae-c270-41ee-b42e-3a5eef28139b"},"vehicle_type_id":"4","last_reported":1716131193,"current_range_meters":8800,"station_id":"ce4bhr12rcd13ifvqhpg","pricing_plan_id":"cebpf4jnsgd1na2vs0mg"},{"bike_id":"f704b525-ce20-4003-a92d-beba5a58a4de","system_id":"levelo_inurba_marseille","lat":43.313571,"lon":5.384829,"is_reserved":false,"is_disabled":false,"rental_uris":{"android":"levelo://app?vid=f704b525-ce20-4003-a92d-beba5a58a4de","ios":"levelo://app?vid=f704b525-ce20-4003-a92d-beba5a58a4de"},"vehicle_type_id":"4","last_reported":1716131193,"current_range_meters":14000,"station_id":"ce4bgt92rcd13ifvqcf0","pricing_plan_id":"cebpf4jnsgd1na2vs0mg"},{"bike_id":"f1a543f4-3262-48a4-8628-2e2bbfbbe3b3","system_id":"levelo_inurba_marseille","lat":43.299222,"lon":5.365554,"is_reserved":false,"is_disabled":false,"rental_uris":{"android":"levelo://app?vid=f1a543f4-3262-48a4-8628-2e2bbfbbe3b3","ios":"levelo://app?vid=f1a543f4-3262-48a4-8628-2e2bbfbbe3b3"},"vehicle_type_id":"4","last_reported":1716131193,"current_range_meters":0,"station_id":"ce4bgm92rcd13ifvqbr0","pricing_plan_id":"cebpf4jnsgd1na2vs0mg"},{"bike_id":"2afa8ff2-f50c-4719-9e97-3c480fdefb75","system_id":"levelo_inurba_marseille","lat":43.29853,"lon":5.36286,"is_reserved":false,"is_disabled":false,"rental_uris":{"android":"levelo://app?vid=2afa8ff2-f50c-4719-9e97-3c480fdefb75","ios":"levelo://app?vid=2afa8ff2-f50c-4719-9e97-3c480fdefb75"},"vehicle_type_id":"4","last_reported":1716131193,"current_range_meters":0,"station_id":"ce4bgpp2rcd13ifvqc3g","pricing_plan_id":"cebpf4jnsgd1na2vs0mg"},{"bike_id":"1eb13e45-4054-4ffe-b842-75c0ea665b9a","system_id":"levelo_inurba_marseille","lat":43.29845,"lon":5.36278,"is_reserved":false,"is_disabled":false,"rental_uris":{"android":"levelo://app?vid=1eb13e45-4054-4ffe-b842-75c0ea665b9a","ios":"levelo://app?vid=1eb13e45-4054-4ffe-b842-75c0ea665b9a"},"vehicle_type_id":"4","last_reported":1716131193,"current_range_meters":0,"station_id":"ce4bgpp2rcd13ifvqc3g","pricing_plan_id":"cebpf4jnsgd1na2vs0mg"},{"bike_id":"781e6637-fe4f-4a41-97ed-df9d5f57d354","system_id":"levelo_inurba_marseille","lat":43.30258,"lon":5.38137,"is_reserved":false,"is_disabled":false,"rental_uris":{"android":"levelo://app?vid=781e6637-fe4f-4a41-97ed-df9d5f57d354","ios":"levelo://app?vid=781e6637-fe4f-4a41-97ed-df9d5f57d354"},"vehicle_type_id":"4","last_reported":1716131193,"current_range_meters":18000,"station_id":"","pricing_plan_id":"cebpf4jnsgd1na2vs0mg"},{"bike_id":"84111740-9601-4d33-b2e2-db64a8c0227a","system_id":"levelo_inurba_marseille","lat":43.299243,"lon":5.37481,"is_reserved":false,"is_disabled":false,"rental_uris":{"android":"levelo://app?vid=84111740-9601-4d33-b2e2-db64a8c0227a","ios":"levelo://app?vid=84111740-9601-4d33-b2e2-db64a8c0227a"},"vehicle_type_id":"4","last_reported":1716131193,"current_range_meters":21600,"station_id":"ce4bgjh2rcd13ifvqbg0","pricing_plan_id":"cebpf4jnsgd1na2vs0mg"},{"bike_id":"40c62912-4ff5-495b-906a-8f7d609d15e4","system_id":"levelo_inurba_marseille","lat":43.298433,"lon":5.362774,"is_reserved":false,"is_disabled":false,"rental_uris":{"android":"levelo://app?vid=40c62912-4ff5-495b-906a-8f7d609d15e4","ios":"levelo://app?vid=40c62912-4ff5-495b-906a-8f7d609d15e4"},"vehicle_type_id":"4","last_reported":1716131193,"current_range_meters":8400,"station_id":"ce4bgpp2rcd13ifvqc3g","pricing_plan_id":"cebpf4jnsgd1na2vs0mg"},{"bike_id":"3e08a4f9-95bf-4361-a550-ffbb09a1d5a5","system_id":"levelo_inurba_marseille","lat":43.311796,"lon":5.387094,"is_reserved":false,"is_disabled":false,"rental_uris":{"android":"levelo://app?vid=3e08a4f9-95bf-4361-a550-ffbb09a1d5a5","ios":"levelo://app?vid=3e08a4f9-95bf-4361-a550-ffbb09a1d5a5"},"vehicle_type_id":"4","last_reported":1716131193,"current_range_meters":0,"station_id":"ce4bgv12rcd13ifvqcp0","pricing_plan_id":"cebpf4jnsgd1na2vs0mg"},{"bike_id":"a80878df-a0b9-48fa-aca1-aa5badcff510","system_id":"levelo_inurba_marseille","lat":43.299243,"lon":5.374807,"is_reserved":false,"is_disabled":false,"rental_uris":{"android":"levelo://app?vid=a80878df-a0b9-48fa-aca1-aa5badcff510","ios":"levelo://app?vid=a80878df-a0b9-48fa-aca1-aa5badcff510"},"vehicle_type_id":"4","last_reported":1716131193,"current_range_meters":25600,"station_id":"ce4bgjh2rcd13ifvqbg0","pricing_plan_id":"cebpf4jnsgd1na2vs0mg"},{"bike_id":"905a6237-dba6-4596-bf00-014dd5445a91","system_id":"levelo_inurba_marseille","lat":43.311722,"lon":5.387247,"is_reserved":false,"is_disabled":false,"rental_uris":{"android":"levelo://app?vid=905a6237-dba6-4596-bf00-014dd5445a91","ios":"levelo://app?vid=905a6237-dba6-4596-bf00-014dd5445a91"},"vehicle_type_id":"4","last_reported":1716131193,"current_range_meters":2000,"station_id":"ce4bgv12rcd13ifvqcp0","pricing_plan_id":"cebpf4jnsgd1na2vs0mg"},{"bike_id":"f481fbc8-f06b-4079-bdc6-e0f2ae333c60","system_id":"levelo_inurba_marseille","lat":43.311722,"lon":5.387247,"is_reserved":false,"is_disabled":false,"rental_uris":{"android":"levelo://app?vid=f481fbc8-f06b-4079-bdc6-e0f2ae333c60","ios":"levelo://app?vid=f481fbc8-f06b-4079-bdc6-e0f2ae333c60"},"vehicle_type_id":"4","last_reported":1716131193,"current_range_meters":4800,"station_id":"ce4bgv12rcd13ifvqcp0","pricing_plan_id":"cebpf4jnsgd1na2vs0mg"},{"bike_id":"b22379ec-8777-4dcd-8c0e-9642bdad8cfd","system_id":"levelo_inurba_marseille","lat":43.297774,"lon":5.370875,"is_reserved":false,"is_disabled":false,"rental_uris":{"android":"levelo://app?vid=b22379ec-8777-4dcd-8c0e-9642bdad8cfd","ios":"levelo://app?vid=b22379ec-8777-4dcd-8c0e-9642bdad8cfd"},"vehicle_type_id":"4","last_reported":1716131193,"current_range_meters":30800,"station_id":"ce4bgop2rcd13ifvqc1g","pricing_plan_id":"cebpf4jnsgd1na2vs0mg"},{"bike_id":"a78c0371-18a7-4609-8a16-1a99a180568a","system_id":"levelo_inurba_marseille","lat":43.297794,"lon":5.370888,"is_reserved":false,"is_disabled":false,"rental_uris":{"android":"levelo://app?vid=a78c0371-18a7-4609-8a16-1a99a180568a","ios":"levelo://app?vid=a78c0371-18a7-4609-8a16-1a99a180568a"},"vehicle_type_id":"4","last_reported":1716131193,"current_range_meters":30000,"station_id":"ce4bgop2rcd13ifvqc1g","pricing_plan_id":"cebpf4jnsgd1na2vs0mg"},{"bike_id":"bdcac596-343c-4f47-9e40-3eb916f1c406","system_id":"levelo_inurba_marseille","lat":43.29786,"lon":5.37097,"is_reserved":false,"is_disabled":false,"rental_uris":{"android":"levelo://app?vid=bdcac596-343c-4f47-9e40-3eb916f1c406","ios":"levelo://app?vid=bdcac596-343c-4f47-9e40-3eb916f1c406"},"vehicle_type_id":"4","last_reported":1716131193,"current_range_meters":0,"station_id":"ce4bgop2rcd13ifvqc1g","pricing_plan_id":"cebpf4jnsgd1na2vs0mg"},{"bike_id":"49bcf57f-cc4c-43f2-ba0f-303de55d40dc","system_id":"levelo_inurba_marseille","lat":43.322841,"lon":5.382624,"is_reserved":false,"is_disabled":false,"rental_uris":{"android":"levelo://app?vid=49bcf57f-cc4c-43f2-ba0f-303de55d40dc","ios":"levelo://app?vid=49bcf57f-cc4c-43f2-ba0f-303de55d40dc"},"vehicle_type_id":"4","last_reported":1716131193,"current_range_meters":11200,"station_id":"ce4bhr12rcd13ifvqhqg","pricing_plan_id":"cebpf4jnsgd1na2vs0mg"},{"bike_id":"9ea84c07-2433-41de-b2ab-0e0cc2368335","system_id":"levelo_inurba_marseille","lat":43.32284,"lon":5.382705,"is_reserved":false,"is_disabled":false,"rental_uris":{"android":"levelo://app?vid=9ea84c07-2433-41de-b2ab-0e0cc2368335","ios":"levelo://app?vid=9ea84c07-2433-41de-b2ab-0e0cc2368335"},"vehicle_type_id":"4","last_reported":1716131193,"current_range_meters":25600,"station_id":"ce4bhr12rcd13ifvqhqg","pricing_plan_id":"cebpf4jnsgd1na2vs0mg"},{"bike_id":"ccf4f0ca-53ad-4f02-8ffd-fdd64e43a437","system_id":"levelo_inurba_marseille","lat":43.32287,"lon":5.38267,"is_reserved":false,"is_disabled":false,"rental_uris":{"android":"levelo://app?vid=ccf4f0ca-53ad-4f02-8ffd-fdd64e43a437","ios":"levelo://app?vid=ccf4f0ca-53ad-4f02-8ffd-fdd64e43a437"},"vehicle_type_id":"4","last_reported":1716131193,"current_range_meters":25600,"station_id":"ce4bhr12rcd13ifvqhqg","pricing_plan_id":"cebpf4jnsgd1na2vs0mg"},{"bike_id":"6b837e63-e852-4924-9dc8-2bdb4a04902b","system_id":"levelo_inurba_marseille","lat":43.322872,"lon":5.382756,"is_reserved":false,"is_disabled":false,"rental_uris":{"android":"levelo://app?vid=6b837e63-e852-4924-9dc8-2bdb4a04902b","ios":"levelo://app?vid=6b837e63-e852-4924-9dc8-2bdb4a04902b"},"vehicle_type_id":"4","last_reported":1716131193,"current_range_meters":2000,"station_id":"ce4bhr12rcd13ifvqhqg","pricing_plan_id":"cebpf4jnsgd1na2vs0mg"},{"bike_id":"f9b21518-354d-493a-b0c6-3b22079d4f52","system_id":"levelo_inurba_marseille","lat":43.32289,"lon":5.38267,"is_reserved":false,"is_disabled":false,"rental_uris":{"android":"levelo://app?vid=f9b21518-354d-493a-b0c6-3b22079d4f52","ios":"levelo://app?vid=f9b21518-354d-493a-b0c6-3b22079d4f52"},"vehicle_type_id":"4","last_reported":1716131193,"current_range_meters":12400,"station_id":"ce4bhr12rcd13ifvqhqg","pricing_plan_id":"cebpf4jnsgd1na2vs0mg"},{"bike_id":"a0832526-408d-4d81-b3fd-c55242f8a03a","system_id":"levelo_inurba_marseille","lat":43.322872,"lon":5.382756,"is_reserved":false,"is_disabled":false,"rental_uris":{"android":"levelo://app?vid=a0832526-408d-4d81-b3fd-c55242f8a03a","ios":"levelo://app?vid=a0832526-408d-4d81-b3fd-c55242f8a03a"},"vehicle_type_id":"4","last_reported":1716131193,"current_range_meters":26400,"station_id":"ce4bhr12rcd13ifvqhqg","pricing_plan_id":"cebpf4jnsgd1na2vs0mg"},{"bike_id":"a7f35a7d-2ccc-4417-aaac-83f8effdc9f8","system_id":"levelo_inurba_marseille","lat":43.322892,"lon":5.38269,"is_reserved":false,"is_disabled":false,"rental_uris":{"android":"levelo://app?vid=a7f35a7d-2ccc-4417-aaac-83f8effdc9f8","ios":"levelo://app?vid=a7f35a7d-2ccc-4417-aaac-83f8effdc9f8"},"vehicle_type_id":"4","last_reported":1716131193,"current_range_meters":3200,"station_id":"ce4bhr12rcd13ifvqhqg","pricing_plan_id":"cebpf4jnsgd1na2vs0mg"},{"bike_id":"b5bf109c-8776-4212-954d-2d6685b0da81","system_id":"levelo_inurba_marseille","lat":43.322872,"lon":5.382756,"is_reserved":false,"is_disabled":false,"rental_uris":{"android":"levelo://app?vid=b5bf109c-8776-4212-954d-2d6685b0da81","ios":"levelo://app?vid=b5bf109c-8776-4212-954d-2d6685b0da81"},"vehicle_type_id":"4","last_reported":1716131193,"current_range_meters":14400,"station_id":"ce4bhr12rcd13ifvqhqg","pricing_plan_id":"cebpf4jnsgd1na2vs0mg"},{"bike_id":"9385d173-06b2-4fde-8d3d-ba7b1bec39da","system_id":"levelo_inurba_marseille","lat":43.322872,"lon":5.382756,"is_reserved":false,"is_disabled":false,"rental_uris":{"android":"levelo://app?vid=9385d173-06b2-4fde-8d3d-ba7b1bec39da","ios":"levelo://app?vid=9385d173-06b2-4fde-8d3d-ba7b1bec39da"},"vehicle_type_id":"4","last_reported":1716131193,"current_range_meters":800,"station_id":"ce4bhr12rcd13ifvqhqg","pricing_plan_id":"cebpf4jnsgd1na2vs0mg"},{"bike_id":"07256b73-0586-4ee0-b1b7-372e09b1cf65","system_id":"levelo_inurba_marseille","lat":43.2968,"lon":5.37291,"is_reserved":false,"is_disabled":false,"rental_uris":{"android":"levelo://app?vid=07256b73-0586-4ee0-b1b7-372e09b1cf65","ios":"levelo://app?vid=07256b73-0586-4ee0-b1b7-372e09b1cf65"},"vehicle_type_id":"4","last_reported":1716131193,"current_range_meters":18400,"station_id":"ce4bgk12rcd13ifvqbj0","pricing_plan_id":"cebpf4jnsgd1na2vs0mg"},{"bike_id":"3bf4822d-51b6-4181-8d9f-d51540866631","system_id":"levelo_inurba_marseille","lat":43.2968,"lon":5.37291,"is_reserved":false,"is_disabled":false,"rental_uris":{"android":"levelo://app?vid=3bf4822d-51b6-4181-8d9f-d51540866631","ios":"levelo://app?vid=3bf4822d-51b6-4181-8d9f-d51540866631"},"vehicle_type_id":"4","last_reported":1716131193,"current_range_meters":22000,"station_id":"ce4bgk12rcd13ifvqbj0","pricing_plan_id":"cebpf4jnsgd1na2vs0mg"},{"bike_id":"d45b576b-da4a-4517-9815-5dbc2efc64c6","system_id":"levelo_inurba_marseille","lat":43.29573,"lon":5.367355,"is_reserved":false,"is_disabled":false,"rental_uris":{"android":"levelo://app?vid=d45b576b-da4a-4517-9815-5dbc2efc64c6","ios":"levelo://app?vid=d45b576b-da4a-4517-9815-5dbc2efc64c6"},"vehicle_type_id":"4","last_reported":1716131193,"current_range_meters":4000,"station_id":"ce4bgph2rcd13ifvqc2g","pricing_plan_id":"cebpf4jnsgd1na2vs0mg"},{"bike_id":"6baf2777-f4c7-41a4-9ec1-f3838fc5fe18","system_id":"levelo_inurba_marseille","lat":43.296131,"lon":5.370791,"is_reserved":false,"is_disabled":false,"rental_uris":{"android":"levelo://app?vid=6baf2777-f4c7-41a4-9ec1-f3838fc5fe18","ios":"levelo://app?vid=6baf2777-f4c7-41a4-9ec1-f3838fc5fe18"},"vehicle_type_id":"4","last_reported":1716131193,"current_range_meters":1200,"station_id":"ce4bgnh2rcd13ifvqc0g","pricing_plan_id":"cebpf4jnsgd1na2vs0mg"},{"bike_id":"932ed3e0-f90c-45b3-910e-c56dc7f653ea","system_id":"levelo_inurba_marseille","lat":43.296129,"lon":5.370777,"is_reserved":false,"is_disabled":false,"rental_uris":{"android":"levelo://app?vid=932ed3e0-f90c-45b3-910e-c56dc7f653ea","ios":"levelo://app?vid=932ed3e0-f90c-45b3-910e-c56dc7f653ea"},"vehicle_type_id":"4","last_reported":1716131193,"current_range_meters":10000,"station_id":"ce4bgnh2rcd13ifvqc0g","pricing_plan_id":"cebpf4jnsgd1na2vs0mg"},{"bike_id":"407f1e02-2a14-4308-aa91-a3cef60b907a","system_id":"levelo_inurba_marseille","lat":43.296129,"lon":5.370777,"is_reserved":false,"is_disabled":false,"rental_uris":{"android":"levelo://app?vid=407f1e02-2a14-4308-aa91-a3cef60b907a","ios":"levelo://app?vid=407f1e02-2a14-4308-aa91-a3cef60b907a"},"vehicle_type_id":"4","last_reported":1716131193,"current_range_meters":24400,"station_id":"ce4bgnh2rcd13ifvqc0g","pricing_plan_id":"cebpf4jnsgd1na2vs0mg"},{"bike_id":"c0b498e0-13a8-4048-9ad1-239a98ef44f9","system_id":"levelo_inurba_marseille","lat":43.298797,"lon":5.37997,"is_reserved":false,"is_disabled":false,"rental_uris":{"android":"levelo://app?vid=c0b498e0-13a8-4048-9ad1-239a98ef44f9","ios":"levelo://app?vid=c0b498e0-13a8-4048-9ad1-239a98ef44f9"},"vehicle_type_id":"4","last_reported":1716131193,"current_range_meters":14400,"station_id":"","pricing_plan_id":"cebpf4jnsgd1na2vs0mg"},{"bike_id":"ba46d260-65ac-4594-bc7f-4878da0bb2df","system_id":"levelo_inurba_marseille","lat":43.29573,"lon":5.367355,"is_reserved":false,"is_disabled":false,"rental_uris":{"android":"levelo://app?vid=ba46d260-65ac-4594-bc7f-4878da0bb2df","ios":"levelo://app?vid=ba46d260-65ac-4594-bc7f-4878da0bb2df"},"vehicle_type_id":"4","last_reported":1716131193,"current_range_meters":17600,"station_id":"ce4bgph2rcd13ifvqc2g","pricing_plan_id":"cebpf4jnsgd1na2vs0mg"},{"bike_id":"b9730614-f627-45c1-96f5-eb060b4e616f","system_id":"levelo_inurba_marseille","lat":43.296935,"lon":5.376544,"is_reserved":false,"is_disabled":false,"rental_uris":{"android":"levelo://app?vid=b9730614-f627-45c1-96f5-eb060b4e616f","ios":"levelo://app?vid=b9730614-f627-45c1-96f5-eb060b4e616f"},"vehicle_type_id":"4","last_reported":1716131193,"current_range_meters":6000,"station_id":"ce4bgkh2rcd13ifvqbl0","pricing_plan_id":"cebpf4jnsgd1na2vs0mg"},{"bike_id":"b8383896-6a84-47af-af24-7ef8b5e4d667","system_id":"levelo_inurba_marseille","lat":43.299028,"lon":5.381509,"is_reserved":false,"is_disabled":false,"rental_uris":{"android":"levelo://app?vid=b8383896-6a84-47af-af24-7ef8b5e4d667","ios":"levelo://app?vid=b8383896-6a84-47af-af24-7ef8b5e4d667"},"vehicle_type_id":"4","last_reported":1716131193,"current_range_meters":6800,"station_id":"ce4bgj12rcd13ifvqbc0","pricing_plan_id":"cebpf4jnsgd1na2vs0mg"},{"bike_id":"5717d5a2-1ebc-4d66-b249-4677301f4624","system_id":"levelo_inurba_marseille","lat":43.296935,"lon":5.376544,"is_reserved":false,"is_disabled":false,"rental_uris":{"android":"levelo://app?vid=5717d5a2-1ebc-4d66-b249-4677301f4624","ios":"levelo://app?vid=5717d5a2-1ebc-4d66-b249-4677301f4624"},"vehicle_type_id":"4","last_reported":1716131193,"current_range_meters":11200,"station_id":"ce4bgkh2rcd13ifvqbl0","pricing_plan_id":"cebpf4jnsgd1na2vs0mg"},{"bike_id":"b5470b94-df03-42b1-bac1-ce9929685320","system_id":"levelo_inurba_marseille","lat":43.309589,"lon":5.390258,"is_reserved":false,"is_disabled":false,"rental_uris":{"android":"levelo://app?vid=b5470b94-df03-42b1-bac1-ce9929685320","ios":"levelo://app?vid=b5470b94-df03-42b1-bac1-ce9929685320"},"vehicle_type_id":"4","last_reported":1716131193,"current_range_meters":12400,"station_id":"ce4bgup2rcd13ifvqco0","pricing_plan_id":"cebpf4jnsgd1na2vs0mg"},{"bike_id":"0b54e17c-db73-4dd9-8960-57c6a1b3a79c","system_id":"levelo_inurba_marseille","lat":43.309589,"lon":5.390258,"is_reserved":false,"is_disabled":false,"rental_uris":{"android":"levelo://app?vid=0b54e17c-db73-4dd9-8960-57c6a1b3a79c","ios":"levelo://app?vid=0b54e17c-db73-4dd9-8960-57c6a1b3a79c"},"vehicle_type_id":"4","last_reported":1716131193,"current_range_meters":30800,"station_id":"ce4bgup2rcd13ifvqco0","pricing_plan_id":"cebpf4jnsgd1na2vs0mg"},{"bike_id":"f4d2f944-5a4c-4297-a19f-9c68f360710d","system_id":"levelo_inurba_marseille","lat":43.29615,"lon":5.37379,"is_reserved":false,"is_disabled":false,"rental_uris":{"android":"levelo://app?vid=f4d2f944-5a4c-4297-a19f-9c68f360710d","ios":"levelo://app?vid=f4d2f944-5a4c-4297-a19f-9c68f360710d"},"vehicle_type_id":"4","last_reported":1716131193,"current_range_meters":0,"station_id":"","pricing_plan_id":"cebpf4jnsgd1na2vs0mg"},{"bike_id":"37a47ebd-ddc8-4eb2-85cb-6f36025ebb1a","system_id":"levelo_inurba_marseille","lat":43.30944,"lon":5.39031,"is_reserved":false,"is_disabled":false,"rental_uris":{"android":"levelo://app?vid=37a47ebd-ddc8-4eb2-85cb-6f36025ebb1a","ios":"levelo://app?vid=37a47ebd-ddc8-4eb2-85cb-6f36025ebb1a"},"vehicle_type_id":"4","last_reported":1716131193,"current_range_meters":0,"station_id":"ce4bgup2rcd13ifvqco0","pricing_plan_id":"cebpf4jnsgd1na2vs0mg"},{"bike_id":"74e307ee-4a8e-4d65-92d0-c706bb873fb6","system_id":"levelo_inurba_marseille","lat":43.309532,"lon":5.390369,"is_reserved":false,"is_disabled":false,"rental_uris":{"android":"levelo://app?vid=74e307ee-4a8e-4d65-92d0-c706bb873fb6","ios":"levelo://app?vid=74e307ee-4a8e-4d65-92d0-c706bb873fb6"},"vehicle_type_id":"4","last_reported":1716131193,"current_range_meters":0,"station_id":"ce4bgup2rcd13ifvqco0","pricing_plan_id":"cebpf4jnsgd1na2vs0mg"},{"bike_id":"ea1c3a29-e5cd-4203-b148-0e016a50ca6c","system_id":"levelo_inurba_marseille","lat":43.309589,"lon":5.390258,"is_reserved":false,"is_disabled":false,"rental_uris":{"android":"levelo://app?vid=ea1c3a29-e5cd-4203-b148-0e016a50ca6c","ios":"levelo://app?vid=ea1c3a29-e5cd-4203-b148-0e016a50ca6c"},"vehicle_type_id":"4","last_reported":1716131193,"current_range_meters":0,"station_id":"ce4bgup2rcd13ifvqco0","pricing_plan_id":"cebpf4jnsgd1na2vs0mg"},{"bike_id":"ef964fb8-6ae8-4e46-a6d8-9798911b44da","system_id":"levelo_inurba_marseille","lat":43.31762,"lon":5.39008,"is_reserved":false,"is_disabled":false,"rental_uris":{"android":"levelo://app?vid=ef964fb8-6ae8-4e46-a6d8-9798911b44da","ios":"levelo://app?vid=ef964fb8-6ae8-4e46-a6d8-9798911b44da"},"vehicle_type_id":"4","last_reported":1716131193,"current_range_meters":7200,"station_id":"ce4bhqp2rcd13ifvqhng","pricing_plan_id":"cebpf4jnsgd1na2vs0mg"},{"bike_id":"baa235fb-7888-4fc7-ad45-fcf6180e93f2","system_id":"levelo_inurba_marseille","lat":43.317557,"lon":5.390173,"is_reserved":false,"is_disabled":false,"rental_uris":{"android":"levelo://app?vid=baa235fb-7888-4fc7-ad45-fcf6180e93f2","ios":"levelo://app?vid=baa235fb-7888-4fc7-ad45-fcf6180e93f2"},"vehicle_type_id":"4","last_reported":1716131193,"current_range_meters":15200,"station_id":"ce4bhqp2rcd13ifvqhng","pricing_plan_id":"cebpf4jnsgd1na2vs0mg"},{"bike_id":"85156a53-7691-4864-bd2e-babfa48368f4","system_id":"levelo_inurba_marseille","lat":43.317557,"lon":5.390173,"is_reserved":false,"is_disabled":false,"rental_uris":{"android":"levelo://app?vid=85156a53-7691-4864-bd2e-babfa48368f4","ios":"levelo://app?vid=85156a53-7691-4864-bd2e-babfa48368f4"},"vehicle_type_id":"4","last_reported":1716131193,"current_range_meters":7600,"station_id":"ce4bhqp2rcd13ifvqhng","pricing_plan_id":"cebpf4jnsgd1na2vs0mg"},{"bike_id":"6a5e4c70-e3c2-4fd5-9664-f2f93dcc0f35","system_id":"levelo_inurba_marseille","lat":43.295803,"lon":5.37499,"is_reserved":false,"is_disabled":false,"rental_uris":{"android":"levelo://app?vid=6a5e4c70-e3c2-4fd5-9664-f2f93dcc0f35","ios":"levelo://app?vid=6a5e4c70-e3c2-4fd5-9664-f2f93dcc0f35"},"vehicle_type_id":"4","last_reported":1716131193,"current_range_meters":800,"station_id":"ce4bgh92rcd13ifvqb50","pricing_plan_id":"cebpf4jnsgd1na2vs0mg"},{"bike_id":"8a1b439e-8bce-42b5-9335-013f8995cc6a","system_id":"levelo_inurba_marseille","lat":43.298037,"lon":5.381066,"is_reserved":false,"is_disabled":false,"rental_uris":{"android":"levelo://app?vid=8a1b439e-8bce-42b5-9335-013f8995cc6a","ios":"levelo://app?vid=8a1b439e-8bce-42b5-9335-013f8995cc6a"},"vehicle_type_id":"4","last_reported":1716131193,"current_range_meters":11200,"station_id":"ce4bgip2rcd13ifvqbb0","pricing_plan_id":"cebpf4jnsgd1na2vs0mg"},{"bike_id":"6c498f16-2be1-4cff-94e7-830bbffddea4","system_id":"levelo_inurba_marseille","lat":43.298037,"lon":5.381066,"is_reserved":false,"is_disabled":false,"rental_uris":{"android":"levelo://app?vid=6c498f16-2be1-4cff-94e7-830bbffddea4","ios":"levelo://app?vid=6c498f16-2be1-4cff-94e7-830bbffddea4"},"vehicle_type_id":"4","last_reported":1716131193,"current_range_meters":19200,"station_id":"ce4bgip2rcd13ifvqbb0","pricing_plan_id":"cebpf4jnsgd1na2vs0mg"},{"bike_id":"c41762a6-a610-48b2-a40e-7840783b248f","system_id":"levelo_inurba_marseille","lat":43.296263,"lon":5.377094,"is_reserved":false,"is_disabled":false,"rental_uris":{"android":"levelo://app?vid=c41762a6-a610-48b2-a40e-7840783b248f","ios":"levelo://app?vid=c41762a6-a610-48b2-a40e-7840783b248f"},"vehicle_type_id":"4","last_reported":1716131193,"current_range_meters":2000,"station_id":"ce4bgi92rcd13ifvqb90","pricing_plan_id":"cebpf4jnsgd1na2vs0mg"},{"bike_id":"2c318f0a-f6d6-4d42-b5cc-d5565234f845","system_id":"levelo_inurba_marseille","lat":43.298037,"lon":5.381066,"is_reserved":false,"is_disabled":false,"rental_uris":{"android":"levelo://app?vid=2c318f0a-f6d6-4d42-b5cc-d5565234f845","ios":"levelo://app?vid=2c318f0a-f6d6-4d42-b5cc-d5565234f845"},"vehicle_type_id":"4","last_reported":1716131193,"current_range_meters":0,"station_id":"ce4bgip2rcd13ifvqbb0","pricing_plan_id":"cebpf4jnsgd1na2vs0mg"},{"bike_id":"aa2e20fa-1a43-4f96-8afc-082018f6ab4c","system_id":"levelo_inurba_marseille","lat":43.304274,"lon":5.388873,"is_reserved":false,"is_disabled":false,"rental_uris":{"android":"levelo://app?vid=aa2e20fa-1a43-4f96-8afc-082018f6ab4c","ios":"levelo://app?vid=aa2e20fa-1a43-4f96-8afc-082018f6ab4c"},"vehicle_type_id":"4","last_reported":1716131193,"current_range_meters":0,"station_id":"ce4bgk12rcd13ifvqbi0","pricing_plan_id":"cebpf4jnsgd1na2vs0mg"},{"bike_id":"d80a2577-cb2e-41ce-83ca-e16ff67d56fa","system_id":"levelo_inurba_marseille","lat":43.296277,"lon":5.377108,"is_reserved":false,"is_disabled":false,"rental_uris":{"android":"levelo://app?vid=d80a2577-cb2e-41ce-83ca-e16ff67d56fa","ios":"levelo://app?vid=d80a2577-cb2e-41ce-83ca-e16ff67d56fa"},"vehicle_type_id":"4","last_reported":1716131193,"current_range_meters":12800,"station_id":"ce4bgi92rcd13ifvqb90","pricing_plan_id":"cebpf4jnsgd1na2vs0mg"},{"bike_id":"815e1a5a-a2e2-49b2-b3b6-61b4d43f52cc","system_id":"levelo_inurba_marseille","lat":43.29571,"lon":5.37524,"is_reserved":false,"is_disabled":false,"rental_uris":{"android":"levelo://app?vid=815e1a5a-a2e2-49b2-b3b6-61b4d43f52cc","ios":"levelo://app?vid=815e1a5a-a2e2-49b2-b3b6-61b4d43f52cc"},"vehicle_type_id":"4","last_reported":1716131193,"current_range_meters":0,"station_id":"ce4bgh92rcd13ifvqb50","pricing_plan_id":"cebpf4jnsgd1na2vs0mg"},{"bike_id":"6f2588e4-b106-4106-958a-8ae6284e8576","system_id":"levelo_inurba_marseille","lat":43.296263,"lon":5.377094,"is_reserved":false,"is_disabled":false,"rental_uris":{"android":"levelo://app?vid=6f2588e4-b106-4106-958a-8ae6284e8576","ios":"levelo://app?vid=6f2588e4-b106-4106-958a-8ae6284e8576"},"vehicle_type_id":"4","last_reported":1716131193,"current_range_meters":0,"station_id":"ce4bgi92rcd13ifvqb90","pricing_plan_id":"cebpf4jnsgd1na2vs0mg"},{"bike_id":"37475346-4205-4b55-b468-81e6b351f470","system_id":"levelo_inurba_marseille","lat":43.295748,"lon":5.37522,"is_reserved":false,"is_disabled":false,"rental_uris":{"android":"levelo://app?vid=37475346-4205-4b55-b468-81e6b351f470","ios":"levelo://app?vid=37475346-4205-4b55-b468-81e6b351f470"},"vehicle_type_id":"4","last_reported":1716131193,"current_range_meters":14800,"station_id":"ce4bgh92rcd13ifvqb50","pricing_plan_id":"cebpf4jnsgd1na2vs0mg"},{"bike_id":"1eb72a8a-b106-47de-99b7-0b7fe53e5bb4","system_id":"levelo_inurba_marseille","lat":43.295748,"lon":5.37522,"is_reserved":false,"is_disabled":false,"rental_uris":{"android":"levelo://app?vid=1eb72a8a-b106-47de-99b7-0b7fe53e5bb4","ios":"levelo://app?vid=1eb72a8a-b106-47de-99b7-0b7fe53e5bb4"},"vehicle_type_id":"4","last_reported":1716131193,"current_range_meters":0,"station_id":"ce4bgh92rcd13ifvqb50","pricing_plan_id":"cebpf4jnsgd1na2vs0mg"},{"bike_id":"fb0d7e33-19d4-4fb4-8f6c-44e0e4b68a71","system_id":"levelo_inurba_marseille","lat":43.296277,"lon":5.377108,"is_reserved":false,"is_disabled":false,"rental_uris":{"android":"levelo://app?vid=fb0d7e33-19d4-4fb4-8f6c-44e0e4b68a71","ios":"levelo://app?vid=fb0d7e33-19d4-4fb4-8f6c-44e0e4b68a71"},"vehicle_type_id":"4","last_reported":1716131193,"current_range_meters":26800,"station_id":"ce4bgi92rcd13ifvqb90","pricing_plan_id":"cebpf4jnsgd1na2vs0mg"},{"bike_id":"6b472e81-de0d-48a0-85c3-c01dc670e102","system_id":"levelo_inurba_marseille","lat":43.298037,"lon":5.381066,"is_reserved":false,"is_disabled":false,"rental_uris":{"android":"levelo://app?vid=6b472e81-de0d-48a0-85c3-c01dc670e102","ios":"levelo://app?vid=6b472e81-de0d-48a0-85c3-c01dc670e102"},"vehicle_type_id":"4","last_reported":1716131193,"current_range_meters":0,"station_id":"ce4bgip2rcd13ifvqbb0","pricing_plan_id":"cebpf4jnsgd1na2vs0mg"},{"bike_id":"77f855e9-50f9-400d-8a6a-4ac68fa272f4","system_id":"levelo_inurba_marseille","lat":43.296277,"lon":5.377108,"is_reserved":false,"is_disabled":false,"rental_uris":{"android":"levelo://app?vid=77f855e9-50f9-400d-8a6a-4ac68fa272f4","ios":"levelo://app?vid=77f855e9-50f9-400d-8a6a-4ac68fa272f4"},"vehicle_type_id":"4","last_reported":1716131193,"current_range_meters":2800,"station_id":"ce4bgi92rcd13ifvqb90","pricing_plan_id":"cebpf4jnsgd1na2vs0mg"},{"bike_id":"b243d59f-c7b9-4c39-b614-50f443c37b08","system_id":"levelo_inurba_marseille","lat":43.298037,"lon":5.381066,"is_reserved":false,"is_disabled":false,"rental_uris":{"android":"levelo://app?vid=b243d59f-c7b9-4c39-b614-50f443c37b08","ios":"levelo://app?vid=b243d59f-c7b9-4c39-b614-50f443c37b08"},"vehicle_type_id":"4","last_reported":1716131193,"current_range_meters":4400,"station_id":"ce4bgip2rcd13ifvqbb0","pricing_plan_id":"cebpf4jnsgd1na2vs0mg"},{"bike_id":"6822b48d-e433-48c3-84e4-5b127648cc0b","system_id":"levelo_inurba_marseille","lat":43.299717,"lon":5.384845,"is_reserved":false,"is_disabled":false,"rental_uris":{"android":"levelo://app?vid=6822b48d-e433-48c3-84e4-5b127648cc0b","ios":"levelo://app?vid=6822b48d-e433-48c3-84e4-5b127648cc0b"},"vehicle_type_id":"4","last_reported":1716131193,"current_range_meters":19200,"station_id":"ce4bgj92rcd13ifvqbd0","pricing_plan_id":"cebpf4jnsgd1na2vs0mg"},{"bike_id":"4bcdfeb0-5a96-457b-b2d3-7c8a6c796c4c","system_id":"levelo_inurba_marseille","lat":43.29524,"lon":5.37503,"is_reserved":false,"is_disabled":false,"rental_uris":{"android":"levelo://app?vid=4bcdfeb0-5a96-457b-b2d3-7c8a6c796c4c","ios":"levelo://app?vid=4bcdfeb0-5a96-457b-b2d3-7c8a6c796c4c"},"vehicle_type_id":"4","last_reported":1716131193,"current_range_meters":0,"station_id":"ce4bgkp2rcd13ifvqbmg","pricing_plan_id":"cebpf4jnsgd1na2vs0mg"},{"bike_id":"add4afe4-0e8f-4852-b4d2-520a65bfc1bc","system_id":"levelo_inurba_marseille","lat":43.29522,"lon":5.37521,"is_reserved":false,"is_disabled":false,"rental_uris":{"android":"levelo://app?vid=add4afe4-0e8f-4852-b4d2-520a65bfc1bc","ios":"levelo://app?vid=add4afe4-0e8f-4852-b4d2-520a65bfc1bc"},"vehicle_type_id":"4","last_reported":1716131193,"current_range_meters":0,"station_id":"ce4bgkp2rcd13ifvqbmg","pricing_plan_id":"cebpf4jnsgd1na2vs0mg"},{"bike_id":"64fecb63-df89-4cbf-8acb-f5a36327f5a1","system_id":"levelo_inurba_marseille","lat":43.299717,"lon":5.384845,"is_reserved":false,"is_disabled":false,"rental_uris":{"android":"levelo://app?vid=64fecb63-df89-4cbf-8acb-f5a36327f5a1","ios":"levelo://app?vid=64fecb63-df89-4cbf-8acb-f5a36327f5a1"},"vehicle_type_id":"4","last_reported":1716131193,"current_range_meters":18400,"station_id":"ce4bgj92rcd13ifvqbd0","pricing_plan_id":"cebpf4jnsgd1na2vs0mg"},{"bike_id":"139c5c91-dd8e-46c3-b26c-7e2207bda2bb","system_id":"levelo_inurba_marseille","lat":43.30089,"lon":5.38729,"is_reserved":false,"is_disabled":false,"rental_uris":{"android":"levelo://app?vid=139c5c91-dd8e-46c3-b26c-7e2207bda2bb","ios":"levelo://app?vid=139c5c91-dd8e-46c3-b26c-7e2207bda2bb"},"vehicle_type_id":"4","last_reported":1716131193,"current_range_meters":23200,"station_id":"","pricing_plan_id":"cebpf4jnsgd1na2vs0mg"},{"bike_id":"d5d2eea5-1adb-4a93-8baa-386795011fc2","system_id":"levelo_inurba_marseille","lat":43.325594,"lon":5.386439,"is_reserved":false,"is_disabled":false,"rental_uris":{"android":"levelo://app?vid=d5d2eea5-1adb-4a93-8baa-386795011fc2","ios":"levelo://app?vid=d5d2eea5-1adb-4a93-8baa-386795011fc2"},"vehicle_type_id":"4","last_reported":1716131193,"current_range_meters":0,"station_id":"","pricing_plan_id":"cebpf4jnsgd1na2vs0mg"},{"bike_id":"ed888770-8816-407e-8db4-2a39769b6e43","system_id":"levelo_inurba_marseille","lat":43.32367,"lon":5.388836,"is_reserved":false,"is_disabled":false,"rental_uris":{"android":"levelo://app?vid=ed888770-8816-407e-8db4-2a39769b6e43","ios":"levelo://app?vid=ed888770-8816-407e-8db4-2a39769b6e43"},"vehicle_type_id":"4","last_reported":1716131193,"current_range_meters":6800,"station_id":"ce4bhqp2rcd13ifvqhog","pricing_plan_id":"cebpf4jnsgd1na2vs0mg"},{"bike_id":"239f9584-6ebe-4e36-8630-df78324f3ebe","system_id":"levelo_inurba_marseille","lat":43.32367,"lon":5.388836,"is_reserved":false,"is_disabled":false,"rental_uris":{"android":"levelo://app?vid=239f9584-6ebe-4e36-8630-df78324f3ebe","ios":"levelo://app?vid=239f9584-6ebe-4e36-8630-df78324f3ebe"},"vehicle_type_id":"4","last_reported":1716131193,"current_range_meters":6000,"station_id":"ce4bhqp2rcd13ifvqhog","pricing_plan_id":"cebpf4jnsgd1na2vs0mg"},{"bike_id":"c6873a16-9535-4312-9088-203eae54472e","system_id":"levelo_inurba_marseille","lat":43.293259,"lon":5.371586,"is_reserved":false,"is_disabled":false,"rental_uris":{"android":"levelo://app?vid=c6873a16-9535-4312-9088-203eae54472e","ios":"levelo://app?vid=c6873a16-9535-4312-9088-203eae54472e"},"vehicle_type_id":"4","last_reported":1716131193,"current_range_meters":10800,"station_id":"ce4bgh92rcd13ifvqb40","pricing_plan_id":"cebpf4jnsgd1na2vs0mg"},{"bike_id":"46b9bd83-3474-4abf-9d4a-e95ed98d44f7","system_id":"levelo_inurba_marseille","lat":43.293259,"lon":5.371586,"is_reserved":false,"is_disabled":false,"rental_uris":{"android":"levelo://app?vid=46b9bd83-3474-4abf-9d4a-e95ed98d44f7","ios":"levelo://app?vid=46b9bd83-3474-4abf-9d4a-e95ed98d44f7"},"vehicle_type_id":"4","last_reported":1716131193,"current_range_meters":800,"station_id":"ce4bgh92rcd13ifvqb40","pricing_plan_id":"cebpf4jnsgd1na2vs0mg"},{"bike_id":"de7f07a8-c911-44b9-ae8a-79ee112ea558","system_id":"levelo_inurba_marseille","lat":43.292749,"lon":5.368402,"is_reserved":false,"is_disabled":false,"rental_uris":{"android":"levelo://app?vid=de7f07a8-c911-44b9-ae8a-79ee112ea558","ios":"levelo://app?vid=de7f07a8-c911-44b9-ae8a-79ee112ea558"},"vehicle_type_id":"4","last_reported":1716131193,"current_range_meters":0,"station_id":"ce4bhbp2rcd13ifvqesg","pricing_plan_id":"cebpf4jnsgd1na2vs0mg"},{"bike_id":"3017c779-60dc-4a05-ae88-a7d6c818e1df","system_id":"levelo_inurba_marseille","lat":43.292749,"lon":5.368402,"is_reserved":false,"is_disabled":false,"rental_uris":{"android":"levelo://app?vid=3017c779-60dc-4a05-ae88-a7d6c818e1df","ios":"levelo://app?vid=3017c779-60dc-4a05-ae88-a7d6c818e1df"},"vehicle_type_id":"4","last_reported":1716131193,"current_range_meters":0,"station_id":"ce4bhbp2rcd13ifvqesg","pricing_plan_id":"cebpf4jnsgd1na2vs0mg"},{"bike_id":"e939e85d-32b1-48de-9f22-d76c1fc4e1e5","system_id":"levelo_inurba_marseille","lat":43.292749,"lon":5.368402,"is_reserved":false,"is_disabled":false,"rental_uris":{"android":"levelo://app?vid=e939e85d-32b1-48de-9f22-d76c1fc4e1e5","ios":"levelo://app?vid=e939e85d-32b1-48de-9f22-d76c1fc4e1e5"},"vehicle_type_id":"4","last_reported":1716131193,"current_range_meters":0,"station_id":"ce4bhbp2rcd13ifvqesg","pricing_plan_id":"cebpf4jnsgd1na2vs0mg"},{"bike_id":"e8eb1277-8749-4909-ae0d-fc06c50bacc4","system_id":"levelo_inurba_marseille","lat":43.293009,"lon":5.374584,"is_reserved":false,"is_disabled":false,"rental_uris":{"android":"levelo://app?vid=e8eb1277-8749-4909-ae0d-fc06c50bacc4","ios":"levelo://app?vid=e8eb1277-8749-4909-ae0d-fc06c50bacc4"},"vehicle_type_id":"4","last_reported":1716131193,"current_range_meters":0,"station_id":"ce4bgi12rcd13ifvqb70","pricing_plan_id":"cebpf4jnsgd1na2vs0mg"},{"bike_id":"444a375b-c2d7-4c50-9484-e4636e6b43c9","system_id":"levelo_inurba_marseille","lat":43.293009,"lon":5.374584,"is_reserved":false,"is_disabled":false,"rental_uris":{"android":"levelo://app?vid=444a375b-c2d7-4c50-9484-e4636e6b43c9","ios":"levelo://app?vid=444a375b-c2d7-4c50-9484-e4636e6b43c9"},"vehicle_type_id":"4","last_reported":1716131193,"current_range_meters":12800,"station_id":"ce4bgi12rcd13ifvqb70","pricing_plan_id":"cebpf4jnsgd1na2vs0mg"},{"bike_id":"45df21b4-e4cf-4e06-b875-c03d7cd7cfd9","system_id":"levelo_inurba_marseille","lat":43.293009,"lon":5.374584,"is_reserved":false,"is_disabled":false,"rental_uris":{"android":"levelo://app?vid=45df21b4-e4cf-4e06-b875-c03d7cd7cfd9","ios":"levelo://app?vid=45df21b4-e4cf-4e06-b875-c03d7cd7cfd9"},"vehicle_type_id":"4","last_reported":1716131193,"current_range_meters":0,"station_id":"ce4bgi12rcd13ifvqb70","pricing_plan_id":"cebpf4jnsgd1na2vs0mg"},{"bike_id":"83712124-66de-4a71-9ab9-efcfaed6d379","system_id":"levelo_inurba_marseille","lat":43.2936,"lon":5.37835,"is_reserved":false,"is_disabled":false,"rental_uris":{"android":"levelo://app?vid=83712124-66de-4a71-9ab9-efcfaed6d379","ios":"levelo://app?vid=83712124-66de-4a71-9ab9-efcfaed6d379"},"vehicle_type_id":"4","last_reported":1716131193,"current_range_meters":23600,"station_id":"ce4bgjh2rcd13ifvqbf0","pricing_plan_id":"cebpf4jnsgd1na2vs0mg"},{"bike_id":"58454fea-3aa5-4c88-9075-c139e3e389df","system_id":"levelo_inurba_marseille","lat":43.2936,"lon":5.37835,"is_reserved":false,"is_disabled":false,"rental_uris":{"android":"levelo://app?vid=58454fea-3aa5-4c88-9075-c139e3e389df","ios":"levelo://app?vid=58454fea-3aa5-4c88-9075-c139e3e389df"},"vehicle_type_id":"4","last_reported":1716131193,"current_range_meters":4800,"station_id":"ce4bgjh2rcd13ifvqbf0","pricing_plan_id":"cebpf4jnsgd1na2vs0mg"},{"bike_id":"693084e5-a687-4fba-af09-054567fa5c54","system_id":"levelo_inurba_marseille","lat":43.2936,"lon":5.37835,"is_reserved":false,"is_disabled":false,"rental_uris":{"android":"levelo://app?vid=693084e5-a687-4fba-af09-054567fa5c54","ios":"levelo://app?vid=693084e5-a687-4fba-af09-054567fa5c54"},"vehicle_type_id":"4","last_reported":1716131193,"current_range_meters":2400,"station_id":"ce4bgjh2rcd13ifvqbf0","pricing_plan_id":"cebpf4jnsgd1na2vs0mg"},{"bike_id":"a71102aa-ccc7-446c-a625-329858d23410","system_id":"levelo_inurba_marseille","lat":43.302992,"lon":5.392136,"is_reserved":false,"is_disabled":false,"rental_uris":{"android":"levelo://app?vid=a71102aa-ccc7-446c-a625-329858d23410","ios":"levelo://app?vid=a71102aa-ccc7-446c-a625-329858d23410"},"vehicle_type_id":"4","last_reported":1716131193,"current_range_meters":0,"station_id":"ce4bgkh2rcd13ifvqbk0","pricing_plan_id":"cebpf4jnsgd1na2vs0mg"},{"bike_id":"11b9ccd6-ad6a-41da-86c7-a9d4b50c8002","system_id":"levelo_inurba_marseille","lat":43.2936,"lon":5.37835,"is_reserved":false,"is_disabled":false,"rental_uris":{"android":"levelo://app?vid=11b9ccd6-ad6a-41da-86c7-a9d4b50c8002","ios":"levelo://app?vid=11b9ccd6-ad6a-41da-86c7-a9d4b50c8002"},"vehicle_type_id":"4","last_reported":1716131193,"current_range_meters":2800,"station_id":"ce4bgjh2rcd13ifvqbf0","pricing_plan_id":"cebpf4jnsgd1na2vs0mg"},{"bike_id":"720e0964-cc1f-4820-a6c4-5483081bc579","system_id":"levelo_inurba_marseille","lat":43.293009,"lon":5.374584,"is_reserved":false,"is_disabled":false,"rental_uris":{"android":"levelo://app?vid=720e0964-cc1f-4820-a6c4-5483081bc579","ios":"levelo://app?vid=720e0964-cc1f-4820-a6c4-5483081bc579"},"vehicle_type_id":"4","last_reported":1716131193,"current_range_meters":25600,"station_id":"ce4bgi12rcd13ifvqb70","pricing_plan_id":"cebpf4jnsgd1na2vs0mg"},{"bike_id":"1f3e7094-272b-4556-8d17-ae3505035d12","system_id":"levelo_inurba_marseille","lat":43.293009,"lon":5.374584,"is_reserved":false,"is_disabled":false,"rental_uris":{"android":"levelo://app?vid=1f3e7094-272b-4556-8d17-ae3505035d12","ios":"levelo://app?vid=1f3e7094-272b-4556-8d17-ae3505035d12"},"vehicle_type_id":"4","last_reported":1716131193,"current_range_meters":400,"station_id":"ce4bgi12rcd13ifvqb70","pricing_plan_id":"cebpf4jnsgd1na2vs0mg"},{"bike_id":"8f067348-537f-4c2e-afef-fcf0bfc3bbc4","system_id":"levelo_inurba_marseille","lat":43.298764,"lon":5.388973,"is_reserved":false,"is_disabled":false,"rental_uris":{"android":"levelo://app?vid=8f067348-537f-4c2e-afef-fcf0bfc3bbc4","ios":"levelo://app?vid=8f067348-537f-4c2e-afef-fcf0bfc3bbc4"},"vehicle_type_id":"4","last_reported":1716131193,"current_range_meters":16800,"station_id":"ce4bh392rcd13ifvqdl0","pricing_plan_id":"cebpf4jnsgd1na2vs0mg"},{"bike_id":"01187c66-faaf-47a7-bd87-c9f818a5110a","system_id":"levelo_inurba_marseille","lat":43.313291,"lon":5.396838,"is_reserved":false,"is_disabled":false,"rental_uris":{"android":"levelo://app?vid=01187c66-faaf-47a7-bd87-c9f818a5110a","ios":"levelo://app?vid=01187c66-faaf-47a7-bd87-c9f818a5110a"},"vehicle_type_id":"4","last_reported":1716131193,"current_range_meters":11600,"station_id":"ce4bgvp2rcd13ifvqcu0","pricing_plan_id":"cebpf4jnsgd1na2vs0mg"},{"bike_id":"8d99b674-8d17-492e-8976-494f099dc9be","system_id":"levelo_inurba_marseille","lat":43.29192,"lon":5.35798,"is_reserved":false,"is_disabled":false,"rental_uris":{"android":"levelo://app?vid=8d99b674-8d17-492e-8976-494f099dc9be","ios":"levelo://app?vid=8d99b674-8d17-492e-8976-494f099dc9be"},"vehicle_type_id":"4","last_reported":1716131193,"current_range_meters":29600,"station_id":"ce4bhb12rcd13ifvqel0","pricing_plan_id":"cebpf4jnsgd1na2vs0mg"},{"bike_id":"9d5150b9-01f0-476b-b8db-caaf44ab7d89","system_id":"levelo_inurba_marseille","lat":43.313291,"lon":5.396838,"is_reserved":false,"is_disabled":false,"rental_uris":{"android":"levelo://app?vid=9d5150b9-01f0-476b-b8db-caaf44ab7d89","ios":"levelo://app?vid=9d5150b9-01f0-476b-b8db-caaf44ab7d89"},"vehicle_type_id":"4","last_reported":1716131193,"current_range_meters":0,"station_id":"ce4bgvp2rcd13ifvqcu0","pricing_plan_id":"cebpf4jnsgd1na2vs0mg"},{"bike_id":"b7a0d969-0e38-4d9d-8a1c-2a0e4b9c64a1","system_id":"levelo_inurba_marseille","lat":43.309047,"lon":5.396551,"is_reserved":false,"is_disabled":false,"rental_uris":{"android":"levelo://app?vid=b7a0d969-0e38-4d9d-8a1c-2a0e4b9c64a1","ios":"levelo://app?vid=b7a0d969-0e38-4d9d-8a1c-2a0e4b9c64a1"},"vehicle_type_id":"4","last_reported":1716131193,"current_range_meters":0,"station_id":"ce4bh012rcd13ifvqcv0","pricing_plan_id":"cebpf4jnsgd1na2vs0mg"},{"bike_id":"95371770-d667-4f3e-be30-584b8c0761c2","system_id":"levelo_inurba_marseille","lat":43.291994,"lon":5.357886,"is_reserved":false,"is_disabled":false,"rental_uris":{"android":"levelo://app?vid=95371770-d667-4f3e-be30-584b8c0761c2","ios":"levelo://app?vid=95371770-d667-4f3e-be30-584b8c0761c2"},"vehicle_type_id":"4","last_reported":1716131193,"current_range_meters":0,"station_id":"ce4bhb12rcd13ifvqel0","pricing_plan_id":"cebpf4jnsgd1na2vs0mg"},{"bike_id":"5ea399fc-c8ac-44a0-9acf-feb3aa7e6cd1","system_id":"levelo_inurba_marseille","lat":43.290779,"lon":5.371482,"is_reserved":false,"is_disabled":false,"rental_uris":{"android":"levelo://app?vid=5ea399fc-c8ac-44a0-9acf-feb3aa7e6cd1","ios":"levelo://app?vid=5ea399fc-c8ac-44a0-9acf-feb3aa7e6cd1"},"vehicle_type_id":"4","last_reported":1716131193,"current_range_meters":6400,"station_id":"ce4bh5p2rcd13ifvqe4g","pricing_plan_id":"cebpf4jnsgd1na2vs0mg"},{"bike_id":"8c6a528a-c4fe-460d-a937-37a280eb98cc","system_id":"levelo_inurba_marseille","lat":43.302008,"lon":5.394694,"is_reserved":false,"is_disabled":false,"rental_uris":{"android":"levelo://app?vid=8c6a528a-c4fe-460d-a937-37a280eb98cc","ios":"levelo://app?vid=8c6a528a-c4fe-460d-a937-37a280eb98cc"},"vehicle_type_id":"4","last_reported":1716131193,"current_range_meters":23200,"station_id":"ce4bh0p2rcd13ifvqd70","pricing_plan_id":"cebpf4jnsgd1na2vs0mg"},{"bike_id":"de31ddcf-4cb2-4b4e-ba0a-8ac41cb488b3","system_id":"levelo_inurba_marseille","lat":43.290356,"lon":5.359158,"is_reserved":false,"is_disabled":false,"rental_uris":{"android":"levelo://app?vid=de31ddcf-4cb2-4b4e-ba0a-8ac41cb488b3","ios":"levelo://app?vid=de31ddcf-4cb2-4b4e-ba0a-8ac41cb488b3"},"vehicle_type_id":"4","last_reported":1716131193,"current_range_meters":0,"station_id":"ce4bha92rcd13ifvqeg0","pricing_plan_id":"cebpf4jnsgd1na2vs0mg"},{"bike_id":"e1b3d59a-1aff-4a76-88fe-59d244b5c8df","system_id":"levelo_inurba_marseille","lat":43.294153,"lon":5.386305,"is_reserved":false,"is_disabled":false,"rental_uris":{"android":"levelo://app?vid=e1b3d59a-1aff-4a76-88fe-59d244b5c8df","ios":"levelo://app?vid=e1b3d59a-1aff-4a76-88fe-59d244b5c8df"},"vehicle_type_id":"4","last_reported":1716131193,"current_range_meters":8000,"station_id":"ce4bh2h2rcd13ifvqdh0","pricing_plan_id":"cebpf4jnsgd1na2vs0mg"},{"bike_id":"015b4975-0e64-4ac1-b70d-fc873368f6df","system_id":"levelo_inurba_marseille","lat":43.289184,"lon":5.366408,"is_reserved":false,"is_disabled":false,"rental_uris":{"android":"levelo://app?vid=015b4975-0e64-4ac1-b70d-fc873368f6df","ios":"levelo://app?vid=015b4975-0e64-4ac1-b70d-fc873368f6df"},"vehicle_type_id":"4","last_reported":1716131193,"current_range_meters":0,"station_id":"ce4bhap2rcd13ifvqek0","pricing_plan_id":"cebpf4jnsgd1na2vs0mg"},{"bike_id":"8f553bbe-d1e7-451c-9041-8d349cb5499e","system_id":"levelo_inurba_marseille","lat":43.294153,"lon":5.386305,"is_reserved":false,"is_disabled":false,"rental_uris":{"android":"levelo://app?vid=8f553bbe-d1e7-451c-9041-8d349cb5499e","ios":"levelo://app?vid=8f553bbe-d1e7-451c-9041-8d349cb5499e"},"vehicle_type_id":"4","last_reported":1716131193,"current_range_meters":19600,"station_id":"ce4bh2h2rcd13ifvqdh0","pricing_plan_id":"cebpf4jnsgd1na2vs0mg"},{"bike_id":"fe6a28c3-a413-414c-ad3f-de939b19297b","system_id":"levelo_inurba_marseille","lat":43.294153,"lon":5.386305,"is_reserved":false,"is_disabled":false,"rental_uris":{"android":"levelo://app?vid=fe6a28c3-a413-414c-ad3f-de939b19297b","ios":"levelo://app?vid=fe6a28c3-a413-414c-ad3f-de939b19297b"},"vehicle_type_id":"4","last_reported":1716131193,"current_range_meters":26800,"station_id":"ce4bh2h2rcd13ifvqdh0","pricing_plan_id":"cebpf4jnsgd1na2vs0mg"},{"bike_id":"1cdd68b9-6e7d-4947-8eb5-f5b13de4e93f","system_id":"levelo_inurba_marseille","lat":43.28948,"lon":5.36405,"is_reserved":false,"is_disabled":false,"rental_uris":{"android":"levelo://app?vid=1cdd68b9-6e7d-4947-8eb5-f5b13de4e93f","ios":"levelo://app?vid=1cdd68b9-6e7d-4947-8eb5-f5b13de4e93f"},"vehicle_type_id":"4","last_reported":1716131193,"current_range_meters":0,"station_id":"ce4bhc92rcd13ifvqetg","pricing_plan_id":"cebpf4jnsgd1na2vs0mg"},{"bike_id":"7441e462-cdd7-4768-8312-d80f5df0df9c","system_id":"levelo_inurba_marseille","lat":43.289468,"lon":5.363719,"is_reserved":false,"is_disabled":false,"rental_uris":{"android":"levelo://app?vid=7441e462-cdd7-4768-8312-d80f5df0df9c","ios":"levelo://app?vid=7441e462-cdd7-4768-8312-d80f5df0df9c"},"vehicle_type_id":"4","last_reported":1716131193,"current_range_meters":6400,"station_id":"ce4bhc92rcd13ifvqetg","pricing_plan_id":"cebpf4jnsgd1na2vs0mg"},{"bike_id":"8f55c9e1-3cf2-4409-9233-08a519af4e1a","system_id":"levelo_inurba_marseille","lat":43.28937,"lon":5.36627,"is_reserved":false,"is_disabled":false,"rental_uris":{"android":"levelo://app?vid=8f55c9e1-3cf2-4409-9233-08a519af4e1a","ios":"levelo://app?vid=8f55c9e1-3cf2-4409-9233-08a519af4e1a"},"vehicle_type_id":"4","last_reported":1716131193,"current_range_meters":0,"station_id":"ce4bhap2rcd13ifvqek0","pricing_plan_id":"cebpf4jnsgd1na2vs0mg"},{"bike_id":"9abb5b59-e496-4594-8e86-92cd7eb42e4a","system_id":"levelo_inurba_marseille","lat":43.289184,"lon":5.366408,"is_reserved":false,"is_disabled":false,"rental_uris":{"android":"levelo://app?vid=9abb5b59-e496-4594-8e86-92cd7eb42e4a","ios":"levelo://app?vid=9abb5b59-e496-4594-8e86-92cd7eb42e4a"},"vehicle_type_id":"4","last_reported":1716131193,"current_range_meters":21200,"station_id":"ce4bhap2rcd13ifvqek0","pricing_plan_id":"cebpf4jnsgd1na2vs0mg"},{"bike_id":"e0dd09ba-1591-4581-8491-d1bcad6d53b2","system_id":"levelo_inurba_marseille","lat":43.289468,"lon":5.363719,"is_reserved":false,"is_disabled":false,"rental_uris":{"android":"levelo://app?vid=e0dd09ba-1591-4581-8491-d1bcad6d53b2","ios":"levelo://app?vid=e0dd09ba-1591-4581-8491-d1bcad6d53b2"},"vehicle_type_id":"4","last_reported":1716131193,"current_range_meters":400,"station_id":"ce4bhc92rcd13ifvqetg","pricing_plan_id":"cebpf4jnsgd1na2vs0mg"},{"bike_id":"dd2567f0-1e88-4ab3-b704-677ca1d6d567","system_id":"levelo_inurba_marseille","lat":43.292644,"lon":5.384257,"is_reserved":false,"is_disabled":false,"rental_uris":{"android":"levelo://app?vid=dd2567f0-1e88-4ab3-b704-677ca1d6d567","ios":"levelo://app?vid=dd2567f0-1e88-4ab3-b704-677ca1d6d567"},"vehicle_type_id":"4","last_reported":1716131193,"current_range_meters":8400,"station_id":"ce4bh692rcd13ifvqea0","pricing_plan_id":"cebpf4jnsgd1na2vs0mg"},{"bike_id":"2d1717b3-12ab-4c49-a574-4a8804ba7509","system_id":"levelo_inurba_marseille","lat":43.292644,"lon":5.384257,"is_reserved":false,"is_disabled":false,"rental_uris":{"android":"levelo://app?vid=2d1717b3-12ab-4c49-a574-4a8804ba7509","ios":"levelo://app?vid=2d1717b3-12ab-4c49-a574-4a8804ba7509"},"vehicle_type_id":"4","last_reported":1716131193,"current_range_meters":25600,"station_id":"ce4bh692rcd13ifvqea0","pricing_plan_id":"cebpf4jnsgd1na2vs0mg"},{"bike_id":"9710d7e3-8500-49cc-b701-3fc99fa76ff2","system_id":"levelo_inurba_marseille","lat":43.29005,"lon":5.35615,"is_reserved":false,"is_disabled":false,"rental_uris":{"android":"levelo://app?vid=9710d7e3-8500-49cc-b701-3fc99fa76ff2","ios":"levelo://app?vid=9710d7e3-8500-49cc-b701-3fc99fa76ff2"},"vehicle_type_id":"4","last_reported":1716131193,"current_range_meters":800,"station_id":"ce4bhb92rcd13ifvqen0","pricing_plan_id":"cebpf4jnsgd1na2vs0mg"},{"bike_id":"622bc445-de57-4ffe-afae-452f92038e3c","system_id":"levelo_inurba_marseille","lat":43.29006,"lon":5.35609,"is_reserved":false,"is_disabled":false,"rental_uris":{"android":"levelo://app?vid=622bc445-de57-4ffe-afae-452f92038e3c","ios":"levelo://app?vid=622bc445-de57-4ffe-afae-452f92038e3c"},"vehicle_type_id":"4","last_reported":1716131193,"current_range_meters":14000,"station_id":"ce4bhb92rcd13ifvqen0","pricing_plan_id":"cebpf4jnsgd1na2vs0mg"},{"bike_id":"299f2845-abda-4e1b-b1ce-8cd0071e30c8","system_id":"levelo_inurba_marseille","lat":43.29006,"lon":5.35607,"is_reserved":false,"is_disabled":false,"rental_uris":{"android":"levelo://app?vid=299f2845-abda-4e1b-b1ce-8cd0071e30c8","ios":"levelo://app?vid=299f2845-abda-4e1b-b1ce-8cd0071e30c8"},"vehicle_type_id":"4","last_reported":1716131193,"current_range_meters":0,"station_id":"ce4bhb92rcd13ifvqen0","pricing_plan_id":"cebpf4jnsgd1na2vs0mg"},{"bike_id":"e4eff7fd-87ab-48cc-ba7c-83becc36b92e","system_id":"levelo_inurba_marseille","lat":43.29001,"lon":5.35615,"is_reserved":false,"is_disabled":false,"rental_uris":{"android":"levelo://app?vid=e4eff7fd-87ab-48cc-ba7c-83becc36b92e","ios":"levelo://app?vid=e4eff7fd-87ab-48cc-ba7c-83becc36b92e"},"vehicle_type_id":"4","last_reported":1716131193,"current_range_meters":0,"station_id":"ce4bhb92rcd13ifvqen0","pricing_plan_id":"cebpf4jnsgd1na2vs0mg"},{"bike_id":"137b93ee-8971-45b2-bb7e-d9bc6a954297","system_id":"levelo_inurba_marseille","lat":43.290995,"lon":5.381361,"is_reserved":false,"is_disabled":false,"rental_uris":{"android":"levelo://app?vid=137b93ee-8971-45b2-bb7e-d9bc6a954297","ios":"levelo://app?vid=137b93ee-8971-45b2-bb7e-d9bc6a954297"},"vehicle_type_id":"4","last_reported":1716131193,"current_range_meters":11600,"station_id":"ce4bh512rcd13ifvqe2g","pricing_plan_id":"cebpf4jnsgd1na2vs0mg"},{"bike_id":"cf75d5e4-5b24-4376-bbad-e824e16386e9","system_id":"levelo_inurba_marseille","lat":43.330442,"lon":5.389148,"is_reserved":false,"is_disabled":false,"rental_uris":{"android":"levelo://app?vid=cf75d5e4-5b24-4376-bbad-e824e16386e9","ios":"levelo://app?vid=cf75d5e4-5b24-4376-bbad-e824e16386e9"},"vehicle_type_id":"4","last_reported":1716131193,"current_range_meters":11600,"station_id":"ce4bhr92rcd13ifvqhrg","pricing_plan_id":"cebpf4jnsgd1na2vs0mg"},{"bike_id":"3b949a44-54ff-44d2-96fd-22a7719f598f","system_id":"levelo_inurba_marseille","lat":43.295169,"lon":5.390426,"is_reserved":false,"is_disabled":false,"rental_uris":{"android":"levelo://app?vid=3b949a44-54ff-44d2-96fd-22a7719f598f","ios":"levelo://app?vid=3b949a44-54ff-44d2-96fd-22a7719f598f"},"vehicle_type_id":"4","last_reported":1716131193,"current_range_meters":0,"station_id":"ce4bh3p2rcd13ifvqdp0","pricing_plan_id":"cebpf4jnsgd1na2vs0mg"},{"bike_id":"65c75d39-c6f4-4130-9eb3-28eb4c758430","system_id":"levelo_inurba_marseille","lat":43.28983,"lon":5.37836,"is_reserved":false,"is_disabled":false,"rental_uris":{"android":"levelo://app?vid=65c75d39-c6f4-4130-9eb3-28eb4c758430","ios":"levelo://app?vid=65c75d39-c6f4-4130-9eb3-28eb4c758430"},"vehicle_type_id":"4","last_reported":1716131193,"current_range_meters":0,"station_id":"ce4bh9p2rcd13ifvqed0","pricing_plan_id":"cebpf4jnsgd1na2vs0mg"},{"bike_id":"c51415be-18ea-4357-ae8f-1b7355c48c07","system_id":"levelo_inurba_marseille","lat":43.28981,"lon":5.37829,"is_reserved":false,"is_disabled":false,"rental_uris":{"android":"levelo://app?vid=c51415be-18ea-4357-ae8f-1b7355c48c07","ios":"levelo://app?vid=c51415be-18ea-4357-ae8f-1b7355c48c07"},"vehicle_type_id":"4","last_reported":1716131193,"current_range_meters":0,"station_id":"ce4bh9p2rcd13ifvqed0","pricing_plan_id":"cebpf4jnsgd1na2vs0mg"},{"bike_id":"a2989b1c-2db5-41af-befa-d8678b66f34c","system_id":"levelo_inurba_marseille","lat":43.297815,"lon":5.393548,"is_reserved":false,"is_disabled":false,"rental_uris":{"android":"levelo://app?vid=a2989b1c-2db5-41af-befa-d8678b66f34c","ios":"levelo://app?vid=a2989b1c-2db5-41af-befa-d8678b66f34c"},"vehicle_type_id":"4","last_reported":1716131193,"current_range_meters":0,"station_id":"chh1huq6cuj3fo74tm60","pricing_plan_id":"cebpf4jnsgd1na2vs0mg"},{"bike_id":"4f3381a9-62a5-4cd9-b4da-d92d35f59d92","system_id":"levelo_inurba_marseille","lat":43.297815,"lon":5.393548,"is_reserved":false,"is_disabled":false,"rental_uris":{"android":"levelo://app?vid=4f3381a9-62a5-4cd9-b4da-d92d35f59d92","ios":"levelo://app?vid=4f3381a9-62a5-4cd9-b4da-d92d35f59d92"},"vehicle_type_id":"4","last_reported":1716131193,"current_range_meters":15200,"station_id":"chh1huq6cuj3fo74tm60","pricing_plan_id":"cebpf4jnsgd1na2vs0mg"},{"bike_id":"d85fa1ae-54fe-4b13-95d9-b0f5e06451d8","system_id":"levelo_inurba_marseille","lat":43.295169,"lon":5.390426,"is_reserved":false,"is_disabled":false,"rental_uris":{"android":"levelo://app?vid=d85fa1ae-54fe-4b13-95d9-b0f5e06451d8","ios":"levelo://app?vid=d85fa1ae-54fe-4b13-95d9-b0f5e06451d8"},"vehicle_type_id":"4","last_reported":1716131193,"current_range_meters":0,"station_id":"ce4bh3p2rcd13ifvqdp0","pricing_plan_id":"cebpf4jnsgd1na2vs0mg"},{"bike_id":"9f41a2d7-3db1-4173-b02c-91a89154fd99","system_id":"levelo_inurba_marseille","lat":43.295169,"lon":5.390426,"is_reserved":false,"is_disabled":false,"rental_uris":{"android":"levelo://app?vid=9f41a2d7-3db1-4173-b02c-91a89154fd99","ios":"levelo://app?vid=9f41a2d7-3db1-4173-b02c-91a89154fd99"},"vehicle_type_id":"4","last_reported":1716131193,"current_range_meters":0,"station_id":"ce4bh3p2rcd13ifvqdp0","pricing_plan_id":"cebpf4jnsgd1na2vs0mg"},{"bike_id":"8229f1dd-a5ca-4081-b3ac-be478165b52a","system_id":"levelo_inurba_marseille","lat":43.28856,"lon":5.358371,"is_reserved":false,"is_disabled":false,"rental_uris":{"android":"levelo://app?vid=8229f1dd-a5ca-4081-b3ac-be478165b52a","ios":"levelo://app?vid=8229f1dd-a5ca-4081-b3ac-be478165b52a"},"vehicle_type_id":"4","last_reported":1716131193,"current_range_meters":28400,"station_id":"ce4bhb12rcd13ifvqem0","pricing_plan_id":"cebpf4jnsgd1na2vs0mg"},{"bike_id":"4fa81c91-a39d-4160-93d7-b314e9fd0ee8","system_id":"levelo_inurba_marseille","lat":43.33745,"lon":5.37453,"is_reserved":false,"is_disabled":false,"rental_uris":{"android":"levelo://app?vid=4fa81c91-a39d-4160-93d7-b314e9fd0ee8","ios":"levelo://app?vid=4fa81c91-a39d-4160-93d7-b314e9fd0ee8"},"vehicle_type_id":"4","last_reported":1716131193,"current_range_meters":9600,"station_id":"","pricing_plan_id":"cebpf4jnsgd1na2vs0mg"},{"bike_id":"8fc6ebe8-68ab-4991-9aa7-185ef6592e71","system_id":"levelo_inurba_marseille","lat":43.337568,"lon":5.37449,"is_reserved":false,"is_disabled":false,"rental_uris":{"android":"levelo://app?vid=8fc6ebe8-68ab-4991-9aa7-185ef6592e71","ios":"levelo://app?vid=8fc6ebe8-68ab-4991-9aa7-185ef6592e71"},"vehicle_type_id":"4","last_reported":1716131193,"current_range_meters":7600,"station_id":"","pricing_plan_id":"cebpf4jnsgd1na2vs0mg"},{"bike_id":"91d9714b-b35f-47ce-8f34-022bf351236f","system_id":"levelo_inurba_marseille","lat":43.337642,"lon":5.374393,"is_reserved":false,"is_disabled":false,"rental_uris":{"android":"levelo://app?vid=91d9714b-b35f-47ce-8f34-022bf351236f","ios":"levelo://app?vid=91d9714b-b35f-47ce-8f34-022bf351236f"},"vehicle_type_id":"4","last_reported":1716131193,"current_range_meters":17200,"station_id":"","pricing_plan_id":"cebpf4jnsgd1na2vs0mg"},{"bike_id":"64498979-29bb-484e-a9a9-75c4de46e44e","system_id":"levelo_inurba_marseille","lat":43.30137,"lon":5.39866,"is_reserved":false,"is_disabled":false,"rental_uris":{"android":"levelo://app?vid=64498979-29bb-484e-a9a9-75c4de46e44e","ios":"levelo://app?vid=64498979-29bb-484e-a9a9-75c4de46e44e"},"vehicle_type_id":"4","last_reported":1716131193,"current_range_meters":400,"station_id":"ce4bh0h2rcd13ifvqd40","pricing_plan_id":"cebpf4jnsgd1na2vs0mg"},{"bike_id":"f55cc2df-1fa5-4204-b5c2-1d7b374a6a21","system_id":"levelo_inurba_marseille","lat":43.301117,"lon":5.398795,"is_reserved":false,"is_disabled":false,"rental_uris":{"android":"levelo://app?vid=f55cc2df-1fa5-4204-b5c2-1d7b374a6a21","ios":"levelo://app?vid=f55cc2df-1fa5-4204-b5c2-1d7b374a6a21"},"vehicle_type_id":"4","last_reported":1716131193,"current_range_meters":0,"station_id":"ce4bh0h2rcd13ifvqd40","pricing_plan_id":"cebpf4jnsgd1na2vs0mg"},{"bike_id":"f389c787-9cc4-439a-bc84-41d932d090d2","system_id":"levelo_inurba_marseille","lat":43.28852,"lon":5.35334,"is_reserved":false,"is_disabled":false,"rental_uris":{"android":"levelo://app?vid=f389c787-9cc4-439a-bc84-41d932d090d2","ios":"levelo://app?vid=f389c787-9cc4-439a-bc84-41d932d090d2"},"vehicle_type_id":"4","last_reported":1716131193,"current_range_meters":400,"station_id":"ce4bhbh2rcd13ifvqepg","pricing_plan_id":"cebpf4jnsgd1na2vs0mg"},{"bike_id":"4048eb44-fb24-457e-84ec-98c8ec29540d","system_id":"levelo_inurba_marseille","lat":43.28659,"lon":5.36345,"is_reserved":false,"is_disabled":false,"rental_uris":{"android":"levelo://app?vid=4048eb44-fb24-457e-84ec-98c8ec29540d","ios":"levelo://app?vid=4048eb44-fb24-457e-84ec-98c8ec29540d"},"vehicle_type_id":"4","last_reported":1716131193,"current_range_meters":0,"station_id":"ce4bhah2rcd13ifvqej0","pricing_plan_id":"cebpf4jnsgd1na2vs0mg"},{"bike_id":"2b386c52-9e05-4d74-8b51-cba8d461dd93","system_id":"levelo_inurba_marseille","lat":43.290336,"lon":5.386425,"is_reserved":false,"is_disabled":false,"rental_uris":{"android":"levelo://app?vid=2b386c52-9e05-4d74-8b51-cba8d461dd93","ios":"levelo://app?vid=2b386c52-9e05-4d74-8b51-cba8d461dd93"},"vehicle_type_id":"4","last_reported":1716131193,"current_range_meters":29200,"station_id":"ce4bh4p2rcd13ifvqe0g","pricing_plan_id":"cebpf4jnsgd1na2vs0mg"},{"bike_id":"998896fa-8ae0-4c20-85f9-ca46f4b8bf8e","system_id":"levelo_inurba_marseille","lat":43.289307,"lon":5.38406,"is_reserved":false,"is_disabled":false,"rental_uris":{"android":"levelo://app?vid=998896fa-8ae0-4c20-85f9-ca46f4b8bf8e","ios":"levelo://app?vid=998896fa-8ae0-4c20-85f9-ca46f4b8bf8e"},"vehicle_type_id":"4","last_reported":1716131193,"current_range_meters":13200,"station_id":"ce4bh612rcd13ifvqe6g","pricing_plan_id":"cebpf4jnsgd1na2vs0mg"},{"bike_id":"f11e2fc2-014b-4272-8fb5-4f3c4562c759","system_id":"levelo_inurba_marseille","lat":43.290345,"lon":5.38646,"is_reserved":false,"is_disabled":false,"rental_uris":{"android":"levelo://app?vid=f11e2fc2-014b-4272-8fb5-4f3c4562c759","ios":"levelo://app?vid=f11e2fc2-014b-4272-8fb5-4f3c4562c759"},"vehicle_type_id":"4","last_reported":1716131193,"current_range_meters":0,"station_id":"ce4bh4p2rcd13ifvqe0g","pricing_plan_id":"cebpf4jnsgd1na2vs0mg"},{"bike_id":"27a6a84c-7e15-4ce3-b789-c90eee7bb57f","system_id":"levelo_inurba_marseille","lat":43.302759,"lon":5.400793,"is_reserved":false,"is_disabled":false,"rental_uris":{"android":"levelo://app?vid=27a6a84c-7e15-4ce3-b789-c90eee7bb57f","ios":"levelo://app?vid=27a6a84c-7e15-4ce3-b789-c90eee7bb57f"},"vehicle_type_id":"4","last_reported":1716131193,"current_range_meters":27200,"station_id":"ce4bgvh2rcd13ifvqcs0","pricing_plan_id":"cebpf4jnsgd1na2vs0mg"},{"bike_id":"f1e035fb-6cc0-4dc4-b530-cb4265f536f1","system_id":"levelo_inurba_marseille","lat":43.290336,"lon":5.386425,"is_reserved":false,"is_disabled":false,"rental_uris":{"android":"levelo://app?vid=f1e035fb-6cc0-4dc4-b530-cb4265f536f1","ios":"levelo://app?vid=f1e035fb-6cc0-4dc4-b530-cb4265f536f1"},"vehicle_type_id":"4","last_reported":1716131193,"current_range_meters":2400,"station_id":"ce4bh4p2rcd13ifvqe0g","pricing_plan_id":"cebpf4jnsgd1na2vs0mg"},{"bike_id":"ed4afc2c-fd87-4326-8a3f-51503de5a018","system_id":"levelo_inurba_marseille","lat":43.286039,"lon":5.370679,"is_reserved":false,"is_disabled":false,"rental_uris":{"android":"levelo://app?vid=ed4afc2c-fd87-4326-8a3f-51503de5a018","ios":"levelo://app?vid=ed4afc2c-fd87-4326-8a3f-51503de5a018"},"vehicle_type_id":"4","last_reported":1716131193,"current_range_meters":16800,"station_id":"ce4bht12rcd13ifvqi60","pricing_plan_id":"cebpf4jnsgd1na2vs0mg"},{"bike_id":"df154351-5c5e-4ab7-a15f-dd9e22588683","system_id":"levelo_inurba_marseille","lat":43.286039,"lon":5.370679,"is_reserved":false,"is_disabled":false,"rental_uris":{"android":"levelo://app?vid=df154351-5c5e-4ab7-a15f-dd9e22588683","ios":"levelo://app?vid=df154351-5c5e-4ab7-a15f-dd9e22588683"},"vehicle_type_id":"4","last_reported":1716131193,"current_range_meters":0,"station_id":"ce4bht12rcd13ifvqi60","pricing_plan_id":"cebpf4jnsgd1na2vs0mg"},{"bike_id":"93868801-fc27-47a7-ba04-0052df03c1c2","system_id":"levelo_inurba_marseille","lat":43.286039,"lon":5.370681,"is_reserved":false,"is_disabled":false,"rental_uris":{"android":"levelo://app?vid=93868801-fc27-47a7-ba04-0052df03c1c2","ios":"levelo://app?vid=93868801-fc27-47a7-ba04-0052df03c1c2"},"vehicle_type_id":"4","last_reported":1716131193,"current_range_meters":25600,"station_id":"ce4bht12rcd13ifvqi60","pricing_plan_id":"cebpf4jnsgd1na2vs0mg"},{"bike_id":"4b158732-100e-4fc7-9d9c-7423ce0db2f7","system_id":"levelo_inurba_marseille","lat":43.286039,"lon":5.370679,"is_reserved":false,"is_disabled":false,"rental_uris":{"android":"levelo://app?vid=4b158732-100e-4fc7-9d9c-7423ce0db2f7","ios":"levelo://app?vid=4b158732-100e-4fc7-9d9c-7423ce0db2f7"},"vehicle_type_id":"4","last_reported":1716131193,"current_range_meters":22000,"station_id":"ce4bht12rcd13ifvqi60","pricing_plan_id":"cebpf4jnsgd1na2vs0mg"},{"bike_id":"23353b1b-fdf8-4894-bb2e-3dfe7ea0538d","system_id":"levelo_inurba_marseille","lat":43.290345,"lon":5.38646,"is_reserved":false,"is_disabled":false,"rental_uris":{"android":"levelo://app?vid=23353b1b-fdf8-4894-bb2e-3dfe7ea0538d","ios":"levelo://app?vid=23353b1b-fdf8-4894-bb2e-3dfe7ea0538d"},"vehicle_type_id":"4","last_reported":1716131193,"current_range_meters":400,"station_id":"ce4bh4p2rcd13ifvqe0g","pricing_plan_id":"cebpf4jnsgd1na2vs0mg"},{"bike_id":"e8e5e342-501d-4b18-8659-73137af721a8","system_id":"levelo_inurba_marseille","lat":43.286591,"lon":5.363346,"is_reserved":false,"is_disabled":false,"rental_uris":{"android":"levelo://app?vid=e8e5e342-501d-4b18-8659-73137af721a8","ios":"levelo://app?vid=e8e5e342-501d-4b18-8659-73137af721a8"},"vehicle_type_id":"4","last_reported":1716131193,"current_range_meters":1200,"station_id":"ce4bhah2rcd13ifvqej0","pricing_plan_id":"cebpf4jnsgd1na2vs0mg"},{"bike_id":"42a6c2f4-4d55-4bf6-9b54-99627ebb0844","system_id":"levelo_inurba_marseille","lat":43.294314,"lon":5.397498,"is_reserved":false,"is_disabled":false,"rental_uris":{"android":"levelo://app?vid=42a6c2f4-4d55-4bf6-9b54-99627ebb0844","ios":"levelo://app?vid=42a6c2f4-4d55-4bf6-9b54-99627ebb0844"},"vehicle_type_id":"4","last_reported":1716131193,"current_range_meters":20800,"station_id":"ce4bh3h2rcd13ifvqdo0","pricing_plan_id":"cebpf4jnsgd1na2vs0mg"},{"bike_id":"cd7b0b0f-934c-4c36-bdad-4ded40040da3","system_id":"levelo_inurba_marseille","lat":43.291994,"lon":5.392907,"is_reserved":false,"is_disabled":false,"rental_uris":{"android":"levelo://app?vid=cd7b0b0f-934c-4c36-bdad-4ded40040da3","ios":"levelo://app?vid=cd7b0b0f-934c-4c36-bdad-4ded40040da3"},"vehicle_type_id":"4","last_reported":1716131193,"current_range_meters":2400,"station_id":"ce4bh192rcd13ifvqdd0","pricing_plan_id":"cebpf4jnsgd1na2vs0mg"},{"bike_id":"aef1b405-40b7-4213-a235-a5b25b57ef0d","system_id":"levelo_inurba_marseille","lat":43.303332,"lon":5.403948,"is_reserved":false,"is_disabled":false,"rental_uris":{"android":"levelo://app?vid=aef1b405-40b7-4213-a235-a5b25b57ef0d","ios":"levelo://app?vid=aef1b405-40b7-4213-a235-a5b25b57ef0d"},"vehicle_type_id":"4","last_reported":1716131193,"current_range_meters":4800,"station_id":"","pricing_plan_id":"cebpf4jnsgd1na2vs0mg"},{"bike_id":"00ef9188-3b6c-450b-8df1-67860aa44dc6","system_id":"levelo_inurba_marseille","lat":43.284538,"lon":5.358657,"is_reserved":false,"is_disabled":false,"rental_uris":{"android":"levelo://app?vid=00ef9188-3b6c-450b-8df1-67860aa44dc6","ios":"levelo://app?vid=00ef9188-3b6c-450b-8df1-67860aa44dc6"},"vehicle_type_id":"4","last_reported":1716131193,"current_range_meters":28800,"station_id":"ce4bhah2rcd13ifvqei0","pricing_plan_id":"cebpf4jnsgd1na2vs0mg"},{"bike_id":"aa6adae1-6b4f-4280-88ac-c95675ed670c","system_id":"levelo_inurba_marseille","lat":43.294314,"lon":5.397498,"is_reserved":false,"is_disabled":false,"rental_uris":{"android":"levelo://app?vid=aa6adae1-6b4f-4280-88ac-c95675ed670c","ios":"levelo://app?vid=aa6adae1-6b4f-4280-88ac-c95675ed670c"},"vehicle_type_id":"4","last_reported":1716131193,"current_range_meters":13200,"station_id":"ce4bh3h2rcd13ifvqdo0","pricing_plan_id":"cebpf4jnsgd1na2vs0mg"},{"bike_id":"c9e41553-3003-4225-82f7-c2f26c06a2ee","system_id":"levelo_inurba_marseille","lat":43.285856,"lon":5.350771,"is_reserved":false,"is_disabled":false,"rental_uris":{"android":"levelo://app?vid=c9e41553-3003-4225-82f7-c2f26c06a2ee","ios":"levelo://app?vid=c9e41553-3003-4225-82f7-c2f26c06a2ee"},"vehicle_type_id":"4","last_reported":1716131193,"current_range_meters":30800,"station_id":"ce4bhch2rcd13ifvqeug","pricing_plan_id":"cebpf4jnsgd1na2vs0mg"},{"bike_id":"79212786-568e-4eb5-8ce0-068687019dd5","system_id":"levelo_inurba_marseille","lat":43.2862,"lon":5.351,"is_reserved":false,"is_disabled":false,"rental_uris":{"android":"levelo://app?vid=79212786-568e-4eb5-8ce0-068687019dd5","ios":"levelo://app?vid=79212786-568e-4eb5-8ce0-068687019dd5"},"vehicle_type_id":"4","last_reported":1716131193,"current_range_meters":28800,"station_id":"ce4bhch2rcd13ifvqeug","pricing_plan_id":"cebpf4jnsgd1na2vs0mg"},{"bike_id":"53c07afe-7735-4a83-94f6-146241681546","system_id":"levelo_inurba_marseille","lat":43.28617,"lon":5.35108,"is_reserved":false,"is_disabled":false,"rental_uris":{"android":"levelo://app?vid=53c07afe-7735-4a83-94f6-146241681546","ios":"levelo://app?vid=53c07afe-7735-4a83-94f6-146241681546"},"vehicle_type_id":"4","last_reported":1716131193,"current_range_meters":0,"station_id":"ce4bhch2rcd13ifvqeug","pricing_plan_id":"cebpf4jnsgd1na2vs0mg"},{"bike_id":"9fbec1a6-3f76-43b0-95e5-ad127d52deeb","system_id":"levelo_inurba_marseille","lat":43.285856,"lon":5.350771,"is_reserved":false,"is_disabled":false,"rental_uris":{"android":"levelo://app?vid=9fbec1a6-3f76-43b0-95e5-ad127d52deeb","ios":"levelo://app?vid=9fbec1a6-3f76-43b0-95e5-ad127d52deeb"},"vehicle_type_id":"4","last_reported":1716131193,"current_range_meters":22400,"station_id":"ce4bhch2rcd13ifvqeug","pricing_plan_id":"cebpf4jnsgd1na2vs0mg"},{"bike_id":"41e039cf-27be-4c53-a300-41f8f42e0a88","system_id":"levelo_inurba_marseille","lat":43.285848,"lon":5.350787,"is_reserved":false,"is_disabled":false,"rental_uris":{"android":"levelo://app?vid=41e039cf-27be-4c53-a300-41f8f42e0a88","ios":"levelo://app?vid=41e039cf-27be-4c53-a300-41f8f42e0a88"},"vehicle_type_id":"4","last_reported":1716131193,"current_range_meters":21600,"station_id":"ce4bhch2rcd13ifvqeug","pricing_plan_id":"cebpf4jnsgd1na2vs0mg"},{"bike_id":"16ab8c66-0c0f-4fd0-963c-6b928393de40","system_id":"levelo_inurba_marseille","lat":43.28618,"lon":5.35101,"is_reserved":false,"is_disabled":false,"rental_uris":{"android":"levelo://app?vid=16ab8c66-0c0f-4fd0-963c-6b928393de40","ios":"levelo://app?vid=16ab8c66-0c0f-4fd0-963c-6b928393de40"},"vehicle_type_id":"4","last_reported":1716131193,"current_range_meters":30000,"station_id":"ce4bhch2rcd13ifvqeug","pricing_plan_id":"cebpf4jnsgd1na2vs0mg"},{"bike_id":"24c967b7-452d-4b9f-9836-ccd8a75a633f","system_id":"levelo_inurba_marseille","lat":43.285848,"lon":5.350787,"is_reserved":false,"is_disabled":false,"rental_uris":{"android":"levelo://app?vid=24c967b7-452d-4b9f-9836-ccd8a75a633f","ios":"levelo://app?vid=24c967b7-452d-4b9f-9836-ccd8a75a633f"},"vehicle_type_id":"4","last_reported":1716131193,"current_range_meters":3200,"station_id":"ce4bhch2rcd13ifvqeug","pricing_plan_id":"cebpf4jnsgd1na2vs0mg"},{"bike_id":"0952603c-4121-4f11-9af5-21b71842a5c6","system_id":"levelo_inurba_marseille","lat":43.283998,"lon":5.375062,"is_reserved":false,"is_disabled":false,"rental_uris":{"android":"levelo://app?vid=0952603c-4121-4f11-9af5-21b71842a5c6","ios":"levelo://app?vid=0952603c-4121-4f11-9af5-21b71842a5c6"},"vehicle_type_id":"4","last_reported":1716131193,"current_range_meters":27600,"station_id":"ce4bh412rcd13ifvqds0","pricing_plan_id":"cebpf4jnsgd1na2vs0mg"},{"bike_id":"68ccb94f-3a62-4a7c-9050-a12b07845264","system_id":"levelo_inurba_marseille","lat":43.286595,"lon":5.386795,"is_reserved":false,"is_disabled":false,"rental_uris":{"android":"levelo://app?vid=68ccb94f-3a62-4a7c-9050-a12b07845264","ios":"levelo://app?vid=68ccb94f-3a62-4a7c-9050-a12b07845264"},"vehicle_type_id":"4","last_reported":1716131193,"current_range_meters":11200,"station_id":"ce4bh492rcd13ifvqdug","pricing_plan_id":"cebpf4jnsgd1na2vs0mg"},{"bike_id":"030df6ed-d25a-4a11-bce2-371aa6dec38b","system_id":"levelo_inurba_marseille","lat":43.323464,"lon":5.406297,"is_reserved":false,"is_disabled":false,"rental_uris":{"android":"levelo://app?vid=030df6ed-d25a-4a11-bce2-371aa6dec38b","ios":"levelo://app?vid=030df6ed-d25a-4a11-bce2-371aa6dec38b"},"vehicle_type_id":"4","last_reported":1716131193,"current_range_meters":29600,"station_id":"ce4bhq92rcd13ifvqhjg","pricing_plan_id":"cebpf4jnsgd1na2vs0mg"},{"bike_id":"dd5f2e88-09b6-405e-a77d-59daa7fefce9","system_id":"levelo_inurba_marseille","lat":43.323464,"lon":5.406297,"is_reserved":false,"is_disabled":false,"rental_uris":{"android":"levelo://app?vid=dd5f2e88-09b6-405e-a77d-59daa7fefce9","ios":"levelo://app?vid=dd5f2e88-09b6-405e-a77d-59daa7fefce9"},"vehicle_type_id":"4","last_reported":1716131193,"current_range_meters":2400,"station_id":"ce4bhq92rcd13ifvqhjg","pricing_plan_id":"cebpf4jnsgd1na2vs0mg"},{"bike_id":"e50d60f2-8c13-4771-a6e0-a880fc02af11","system_id":"levelo_inurba_marseille","lat":43.337168,"lon":5.391825,"is_reserved":false,"is_disabled":false,"rental_uris":{"android":"levelo://app?vid=e50d60f2-8c13-4771-a6e0-a880fc02af11","ios":"levelo://app?vid=e50d60f2-8c13-4771-a6e0-a880fc02af11"},"vehicle_type_id":"4","last_reported":1716131193,"current_range_meters":12000,"station_id":"ce4bhr92rcd13ifvqhsg","pricing_plan_id":"cebpf4jnsgd1na2vs0mg"},{"bike_id":"6b4b2bbf-b7fb-477f-89a7-fa751b252e39","system_id":"levelo_inurba_marseille","lat":43.32336,"lon":5.40621,"is_reserved":false,"is_disabled":false,"rental_uris":{"android":"levelo://app?vid=6b4b2bbf-b7fb-477f-89a7-fa751b252e39","ios":"levelo://app?vid=6b4b2bbf-b7fb-477f-89a7-fa751b252e39"},"vehicle_type_id":"4","last_reported":1716131193,"current_range_meters":0,"station_id":"ce4bhq92rcd13ifvqhjg","pricing_plan_id":"cebpf4jnsgd1na2vs0mg"},{"bike_id":"324963ec-598e-43e6-b6dc-def0940a2be6","system_id":"levelo_inurba_marseille","lat":43.323464,"lon":5.406297,"is_reserved":false,"is_disabled":false,"rental_uris":{"android":"levelo://app?vid=324963ec-598e-43e6-b6dc-def0940a2be6","ios":"levelo://app?vid=324963ec-598e-43e6-b6dc-def0940a2be6"},"vehicle_type_id":"4","last_reported":1716131193,"current_range_meters":23200,"station_id":"ce4bhq92rcd13ifvqhjg","pricing_plan_id":"cebpf4jnsgd1na2vs0mg"},{"bike_id":"1c47809c-7db7-4988-8570-dd325ced6c5e","system_id":"levelo_inurba_marseille","lat":43.337168,"lon":5.391825,"is_reserved":false,"is_disabled":false,"rental_uris":{"android":"levelo://app?vid=1c47809c-7db7-4988-8570-dd325ced6c5e","ios":"levelo://app?vid=1c47809c-7db7-4988-8570-dd325ced6c5e"},"vehicle_type_id":"4","last_reported":1716131193,"current_range_meters":16800,"station_id":"ce4bhr92rcd13ifvqhsg","pricing_plan_id":"cebpf4jnsgd1na2vs0mg"},{"bike_id":"cde5fce9-f1d0-41b2-bf86-4ee66d5e88bf","system_id":"levelo_inurba_marseille","lat":43.323464,"lon":5.406297,"is_reserved":false,"is_disabled":false,"rental_uris":{"android":"levelo://app?vid=cde5fce9-f1d0-41b2-bf86-4ee66d5e88bf","ios":"levelo://app?vid=cde5fce9-f1d0-41b2-bf86-4ee66d5e88bf"},"vehicle_type_id":"4","last_reported":1716131193,"current_range_meters":1200,"station_id":"ce4bhq92rcd13ifvqhjg","pricing_plan_id":"cebpf4jnsgd1na2vs0mg"},{"bike_id":"dfc107b5-7ce7-4167-8d97-12e774a4b239","system_id":"levelo_inurba_marseille","lat":43.284793,"lon":5.384113,"is_reserved":false,"is_disabled":false,"rental_uris":{"android":"levelo://app?vid=dfc107b5-7ce7-4167-8d97-12e774a4b239","ios":"levelo://app?vid=dfc107b5-7ce7-4167-8d97-12e774a4b239"},"vehicle_type_id":"4","last_reported":1716131193,"current_range_meters":20800,"station_id":"ce4bh512rcd13ifvqe3g","pricing_plan_id":"cebpf4jnsgd1na2vs0mg"},{"bike_id":"2cfe0e0c-ee1d-49ee-ae25-b5c8e3fd815f","system_id":"levelo_inurba_marseille","lat":43.297946,"lon":5.404063,"is_reserved":false,"is_disabled":false,"rental_uris":{"android":"levelo://app?vid=2cfe0e0c-ee1d-49ee-ae25-b5c8e3fd815f","ios":"levelo://app?vid=2cfe0e0c-ee1d-49ee-ae25-b5c8e3fd815f"},"vehicle_type_id":"4","last_reported":1716131193,"current_range_meters":0,"station_id":"ce4bh112rcd13ifvqd90","pricing_plan_id":"cebpf4jnsgd1na2vs0mg"},{"bike_id":"0dba8d3b-4a8b-4252-8d24-c4d0f2caff4e","system_id":"levelo_inurba_marseille","lat":43.283494,"lon":5.380945,"is_reserved":false,"is_disabled":false,"rental_uris":{"android":"levelo://app?vid=0dba8d3b-4a8b-4252-8d24-c4d0f2caff4e","ios":"levelo://app?vid=0dba8d3b-4a8b-4252-8d24-c4d0f2caff4e"},"vehicle_type_id":"4","last_reported":1716131193,"current_range_meters":4000,"station_id":"ce4bh412rcd13ifvqdr0","pricing_plan_id":"cebpf4jnsgd1na2vs0mg"},{"bike_id":"97c1637f-5b01-4d05-bc46-7244de7afaf5","system_id":"levelo_inurba_marseille","lat":43.284214,"lon":5.349706,"is_reserved":false,"is_disabled":false,"rental_uris":{"android":"levelo://app?vid=97c1637f-5b01-4d05-bc46-7244de7afaf5","ios":"levelo://app?vid=97c1637f-5b01-4d05-bc46-7244de7afaf5"},"vehicle_type_id":"4","last_reported":1716131193,"current_range_meters":28800,"station_id":"ce4bhbh2rcd13ifvqepg","pricing_plan_id":"cebpf4jnsgd1na2vs0mg"},{"bike_id":"0a950479-ffba-4249-99b7-8132d1698b1d","system_id":"levelo_inurba_marseille","lat":43.284214,"lon":5.349706,"is_reserved":false,"is_disabled":false,"rental_uris":{"android":"levelo://app?vid=0a950479-ffba-4249-99b7-8132d1698b1d","ios":"levelo://app?vid=0a950479-ffba-4249-99b7-8132d1698b1d"},"vehicle_type_id":"4","last_reported":1716131193,"current_range_meters":12400,"station_id":"ce4bhbh2rcd13ifvqepg","pricing_plan_id":"cebpf4jnsgd1na2vs0mg"},{"bike_id":"b8c91c96-d942-44a5-adf1-222cd25e89ef","system_id":"levelo_inurba_marseille","lat":43.284219,"lon":5.3497,"is_reserved":false,"is_disabled":false,"rental_uris":{"android":"levelo://app?vid=b8c91c96-d942-44a5-adf1-222cd25e89ef","ios":"levelo://app?vid=b8c91c96-d942-44a5-adf1-222cd25e89ef"},"vehicle_type_id":"4","last_reported":1716131193,"current_range_meters":21600,"station_id":"ce4bhbh2rcd13ifvqepg","pricing_plan_id":"cebpf4jnsgd1na2vs0mg"},{"bike_id":"07aaf86c-f65b-4e61-ab10-5556bfd3a43f","system_id":"levelo_inurba_marseille","lat":43.284214,"lon":5.349706,"is_reserved":false,"is_disabled":false,"rental_uris":{"android":"levelo://app?vid=07aaf86c-f65b-4e61-ab10-5556bfd3a43f","ios":"levelo://app?vid=07aaf86c-f65b-4e61-ab10-5556bfd3a43f"},"vehicle_type_id":"4","last_reported":1716131193,"current_range_meters":16400,"station_id":"ce4bhbh2rcd13ifvqepg","pricing_plan_id":"cebpf4jnsgd1na2vs0mg"},{"bike_id":"d93865e4-d690-46c8-8bc8-5491ef82f7ea","system_id":"levelo_inurba_marseille","lat":43.284219,"lon":5.3497,"is_reserved":false,"is_disabled":false,"rental_uris":{"android":"levelo://app?vid=d93865e4-d690-46c8-8bc8-5491ef82f7ea","ios":"levelo://app?vid=d93865e4-d690-46c8-8bc8-5491ef82f7ea"},"vehicle_type_id":"4","last_reported":1716131193,"current_range_meters":0,"station_id":"ce4bhbh2rcd13ifvqepg","pricing_plan_id":"cebpf4jnsgd1na2vs0mg"},{"bike_id":"583acc2f-fa0f-46b4-a77d-272079356249","system_id":"levelo_inurba_marseille","lat":43.2842,"lon":5.34984,"is_reserved":false,"is_disabled":false,"rental_uris":{"android":"levelo://app?vid=583acc2f-fa0f-46b4-a77d-272079356249","ios":"levelo://app?vid=583acc2f-fa0f-46b4-a77d-272079356249"},"vehicle_type_id":"4","last_reported":1716131193,"current_range_meters":21200,"station_id":"ce4bhbh2rcd13ifvqepg","pricing_plan_id":"cebpf4jnsgd1na2vs0mg"},{"bike_id":"84cbad19-a181-4793-8737-8afbbc31cc1e","system_id":"levelo_inurba_marseille","lat":43.284219,"lon":5.3497,"is_reserved":false,"is_disabled":false,"rental_uris":{"android":"levelo://app?vid=84cbad19-a181-4793-8737-8afbbc31cc1e","ios":"levelo://app?vid=84cbad19-a181-4793-8737-8afbbc31cc1e"},"vehicle_type_id":"4","last_reported":1716131193,"current_range_meters":18400,"station_id":"ce4bhbh2rcd13ifvqepg","pricing_plan_id":"cebpf4jnsgd1na2vs0mg"},{"bike_id":"8caa2500-65a4-4220-a28c-81bd8a2e40a6","system_id":"levelo_inurba_marseille","lat":43.284219,"lon":5.3497,"is_reserved":false,"is_disabled":false,"rental_uris":{"android":"levelo://app?vid=8caa2500-65a4-4220-a28c-81bd8a2e40a6","ios":"levelo://app?vid=8caa2500-65a4-4220-a28c-81bd8a2e40a6"},"vehicle_type_id":"4","last_reported":1716131193,"current_range_meters":24800,"station_id":"ce4bhbh2rcd13ifvqepg","pricing_plan_id":"cebpf4jnsgd1na2vs0mg"},{"bike_id":"d24f7628-5d73-47ee-a997-c03a690a1405","system_id":"levelo_inurba_marseille","lat":43.284171,"lon":5.349842,"is_reserved":false,"is_disabled":false,"rental_uris":{"android":"levelo://app?vid=d24f7628-5d73-47ee-a997-c03a690a1405","ios":"levelo://app?vid=d24f7628-5d73-47ee-a997-c03a690a1405"},"vehicle_type_id":"4","last_reported":1716131193,"current_range_meters":31200,"station_id":"ce4bhbh2rcd13ifvqepg","pricing_plan_id":"cebpf4jnsgd1na2vs0mg"},{"bike_id":"76c2bcd7-5fc8-4679-bc00-7f0560dcea8e","system_id":"levelo_inurba_marseille","lat":43.28419,"lon":5.34976,"is_reserved":false,"is_disabled":false,"rental_uris":{"android":"levelo://app?vid=76c2bcd7-5fc8-4679-bc00-7f0560dcea8e","ios":"levelo://app?vid=76c2bcd7-5fc8-4679-bc00-7f0560dcea8e"},"vehicle_type_id":"4","last_reported":1716131193,"current_range_meters":22800,"station_id":"ce4bhbh2rcd13ifvqepg","pricing_plan_id":"cebpf4jnsgd1na2vs0mg"},{"bike_id":"73154daa-cae7-4918-96a9-f6ea48c35b20","system_id":"levelo_inurba_marseille","lat":43.28419,"lon":5.34975,"is_reserved":false,"is_disabled":false,"rental_uris":{"android":"levelo://app?vid=73154daa-cae7-4918-96a9-f6ea48c35b20","ios":"levelo://app?vid=73154daa-cae7-4918-96a9-f6ea48c35b20"},"vehicle_type_id":"4","last_reported":1716131193,"current_range_meters":16400,"station_id":"ce4bhbh2rcd13ifvqepg","pricing_plan_id":"cebpf4jnsgd1na2vs0mg"},{"bike_id":"1934cc4f-591c-410b-9b47-9e378007d485","system_id":"levelo_inurba_marseille","lat":43.284162,"lon":5.349821,"is_reserved":false,"is_disabled":false,"rental_uris":{"android":"levelo://app?vid=1934cc4f-591c-410b-9b47-9e378007d485","ios":"levelo://app?vid=1934cc4f-591c-410b-9b47-9e378007d485"},"vehicle_type_id":"4","last_reported":1716131193,"current_range_meters":22800,"station_id":"ce4bhbh2rcd13ifvqepg","pricing_plan_id":"cebpf4jnsgd1na2vs0mg"},{"bike_id":"ff77d0c9-5e1b-43f7-856d-523c571fe564","system_id":"levelo_inurba_marseille","lat":43.28418,"lon":5.34972,"is_reserved":false,"is_disabled":false,"rental_uris":{"android":"levelo://app?vid=ff77d0c9-5e1b-43f7-856d-523c571fe564","ios":"levelo://app?vid=ff77d0c9-5e1b-43f7-856d-523c571fe564"},"vehicle_type_id":"4","last_reported":1716131193,"current_range_meters":10800,"station_id":"ce4bhbh2rcd13ifvqepg","pricing_plan_id":"cebpf4jnsgd1na2vs0mg"},{"bike_id":"117195b8-90c3-4933-b170-387c4c61ee01","system_id":"levelo_inurba_marseille","lat":43.284153,"lon":5.349795,"is_reserved":false,"is_disabled":false,"rental_uris":{"android":"levelo://app?vid=117195b8-90c3-4933-b170-387c4c61ee01","ios":"levelo://app?vid=117195b8-90c3-4933-b170-387c4c61ee01"},"vehicle_type_id":"4","last_reported":1716131193,"current_range_meters":24000,"station_id":"ce4bhbh2rcd13ifvqepg","pricing_plan_id":"cebpf4jnsgd1na2vs0mg"},{"bike_id":"3f922d88-8eab-45f3-93f8-79a28efc56b2","system_id":"levelo_inurba_marseille","lat":43.284219,"lon":5.3497,"is_reserved":false,"is_disabled":false,"rental_uris":{"android":"levelo://app?vid=3f922d88-8eab-45f3-93f8-79a28efc56b2","ios":"levelo://app?vid=3f922d88-8eab-45f3-93f8-79a28efc56b2"},"vehicle_type_id":"4","last_reported":1716131193,"current_range_meters":25600,"station_id":"ce4bhbh2rcd13ifvqepg","pricing_plan_id":"cebpf4jnsgd1na2vs0mg"},{"bike_id":"9da66248-4816-466c-adc6-c663dd332b4c","system_id":"levelo_inurba_marseille","lat":43.28415,"lon":5.34979,"is_reserved":false,"is_disabled":false,"rental_uris":{"android":"levelo://app?vid=9da66248-4816-466c-adc6-c663dd332b4c","ios":"levelo://app?vid=9da66248-4816-466c-adc6-c663dd332b4c"},"vehicle_type_id":"4","last_reported":1716131193,"current_range_meters":0,"station_id":"ce4bhbh2rcd13ifvqepg","pricing_plan_id":"cebpf4jnsgd1na2vs0mg"},{"bike_id":"3139048e-bef7-4139-af0f-b2177fe8726a","system_id":"levelo_inurba_marseille","lat":43.28414,"lon":5.349821,"is_reserved":false,"is_disabled":false,"rental_uris":{"android":"levelo://app?vid=3139048e-bef7-4139-af0f-b2177fe8726a","ios":"levelo://app?vid=3139048e-bef7-4139-af0f-b2177fe8726a"},"vehicle_type_id":"4","last_reported":1716131193,"current_range_meters":10400,"station_id":"ce4bhbh2rcd13ifvqepg","pricing_plan_id":"cebpf4jnsgd1na2vs0mg"},{"bike_id":"9ec72623-c7e3-4dd6-b7cd-8e58dcda80ea","system_id":"levelo_inurba_marseille","lat":43.284117,"lon":5.349889,"is_reserved":false,"is_disabled":false,"rental_uris":{"android":"levelo://app?vid=9ec72623-c7e3-4dd6-b7cd-8e58dcda80ea","ios":"levelo://app?vid=9ec72623-c7e3-4dd6-b7cd-8e58dcda80ea"},"vehicle_type_id":"4","last_reported":1716131193,"current_range_meters":31600,"station_id":"ce4bhbh2rcd13ifvqepg","pricing_plan_id":"cebpf4jnsgd1na2vs0mg"},{"bike_id":"b3c91cc0-5f81-4faf-9980-2e40df1e4ada","system_id":"levelo_inurba_marseille","lat":43.28415,"lon":5.34977,"is_reserved":false,"is_disabled":false,"rental_uris":{"android":"levelo://app?vid=b3c91cc0-5f81-4faf-9980-2e40df1e4ada","ios":"levelo://app?vid=b3c91cc0-5f81-4faf-9980-2e40df1e4ada"},"vehicle_type_id":"4","last_reported":1716131193,"current_range_meters":21200,"station_id":"ce4bhbh2rcd13ifvqepg","pricing_plan_id":"cebpf4jnsgd1na2vs0mg"},{"bike_id":"6a9740ed-0253-46ef-bf54-f7718eccc2b9","system_id":"levelo_inurba_marseille","lat":43.28416,"lon":5.34973,"is_reserved":false,"is_disabled":false,"rental_uris":{"android":"levelo://app?vid=6a9740ed-0253-46ef-bf54-f7718eccc2b9","ios":"levelo://app?vid=6a9740ed-0253-46ef-bf54-f7718eccc2b9"},"vehicle_type_id":"4","last_reported":1716131193,"current_range_meters":18400,"station_id":"ce4bhbh2rcd13ifvqepg","pricing_plan_id":"cebpf4jnsgd1na2vs0mg"},{"bike_id":"91d55adc-4f6b-480b-90e0-2368c97b5c1b","system_id":"levelo_inurba_marseille","lat":43.28414,"lon":5.34979,"is_reserved":false,"is_disabled":false,"rental_uris":{"android":"levelo://app?vid=91d55adc-4f6b-480b-90e0-2368c97b5c1b","ios":"levelo://app?vid=91d55adc-4f6b-480b-90e0-2368c97b5c1b"},"vehicle_type_id":"4","last_reported":1716131193,"current_range_meters":6000,"station_id":"ce4bhbh2rcd13ifvqepg","pricing_plan_id":"cebpf4jnsgd1na2vs0mg"},{"bike_id":"8ee96f92-be3b-4a05-8554-d54d1a6d4cd3","system_id":"levelo_inurba_marseille","lat":43.284126,"lon":5.349825,"is_reserved":false,"is_disabled":false,"rental_uris":{"android":"levelo://app?vid=8ee96f92-be3b-4a05-8554-d54d1a6d4cd3","ios":"levelo://app?vid=8ee96f92-be3b-4a05-8554-d54d1a6d4cd3"},"vehicle_type_id":"4","last_reported":1716131193,"current_range_meters":12800,"station_id":"ce4bhbh2rcd13ifvqepg","pricing_plan_id":"cebpf4jnsgd1na2vs0mg"},{"bike_id":"cdfabb6a-fb1b-44ca-9c9c-f09d612c5ba4","system_id":"levelo_inurba_marseille","lat":43.284121,"lon":5.34984,"is_reserved":false,"is_disabled":false,"rental_uris":{"android":"levelo://app?vid=cdfabb6a-fb1b-44ca-9c9c-f09d612c5ba4","ios":"levelo://app?vid=cdfabb6a-fb1b-44ca-9c9c-f09d612c5ba4"},"vehicle_type_id":"4","last_reported":1716131193,"current_range_meters":22400,"station_id":"ce4bhbh2rcd13ifvqepg","pricing_plan_id":"cebpf4jnsgd1na2vs0mg"},{"bike_id":"2bff7643-1ec9-4ce9-b6a7-e0fe4e2447b9","system_id":"levelo_inurba_marseille","lat":43.28413,"lon":5.34981,"is_reserved":false,"is_disabled":false,"rental_uris":{"android":"levelo://app?vid=2bff7643-1ec9-4ce9-b6a7-e0fe4e2447b9","ios":"levelo://app?vid=2bff7643-1ec9-4ce9-b6a7-e0fe4e2447b9"},"vehicle_type_id":"4","last_reported":1716131193,"current_range_meters":14800,"station_id":"ce4bhbh2rcd13ifvqepg","pricing_plan_id":"cebpf4jnsgd1na2vs0mg"},{"bike_id":"e0638707-7ea7-4a20-81ea-102d82ceed02","system_id":"levelo_inurba_marseille","lat":43.284219,"lon":5.3497,"is_reserved":false,"is_disabled":false,"rental_uris":{"android":"levelo://app?vid=e0638707-7ea7-4a20-81ea-102d82ceed02","ios":"levelo://app?vid=e0638707-7ea7-4a20-81ea-102d82ceed02"},"vehicle_type_id":"4","last_reported":1716131193,"current_range_meters":21600,"station_id":"ce4bhbh2rcd13ifvqepg","pricing_plan_id":"cebpf4jnsgd1na2vs0mg"},{"bike_id":"5233fca5-1148-463f-9147-574c2a0f41ee","system_id":"levelo_inurba_marseille","lat":43.28412,"lon":5.349717,"is_reserved":false,"is_disabled":false,"rental_uris":{"android":"levelo://app?vid=5233fca5-1148-463f-9147-574c2a0f41ee","ios":"levelo://app?vid=5233fca5-1148-463f-9147-574c2a0f41ee"},"vehicle_type_id":"4","last_reported":1716131193,"current_range_meters":20000,"station_id":"ce4bhbh2rcd13ifvqepg","pricing_plan_id":"cebpf4jnsgd1na2vs0mg"},{"bike_id":"c1508df7-bd0a-443b-8fa6-65c2fe0344a1","system_id":"levelo_inurba_marseille","lat":43.28412,"lon":5.3497,"is_reserved":false,"is_disabled":false,"rental_uris":{"android":"levelo://app?vid=c1508df7-bd0a-443b-8fa6-65c2fe0344a1","ios":"levelo://app?vid=c1508df7-bd0a-443b-8fa6-65c2fe0344a1"},"vehicle_type_id":"4","last_reported":1716131193,"current_range_meters":18400,"station_id":"ce4bhbh2rcd13ifvqepg","pricing_plan_id":"cebpf4jnsgd1na2vs0mg"},{"bike_id":"06b4f7a8-8fe9-4062-8f95-3fbfbce30330","system_id":"levelo_inurba_marseille","lat":43.284219,"lon":5.3497,"is_reserved":false,"is_disabled":false,"rental_uris":{"android":"levelo://app?vid=06b4f7a8-8fe9-4062-8f95-3fbfbce30330","ios":"levelo://app?vid=06b4f7a8-8fe9-4062-8f95-3fbfbce30330"},"vehicle_type_id":"4","last_reported":1716131193,"current_range_meters":14400,"station_id":"ce4bhbh2rcd13ifvqepg","pricing_plan_id":"cebpf4jnsgd1na2vs0mg"},{"bike_id":"d0641dbc-c77d-4b4c-b365-95036ea7052f","system_id":"levelo_inurba_marseille","lat":43.2841,"lon":5.34976,"is_reserved":false,"is_disabled":false,"rental_uris":{"android":"levelo://app?vid=d0641dbc-c77d-4b4c-b365-95036ea7052f","ios":"levelo://app?vid=d0641dbc-c77d-4b4c-b365-95036ea7052f"},"vehicle_type_id":"4","last_reported":1716131193,"current_range_meters":14000,"station_id":"ce4bhbh2rcd13ifvqepg","pricing_plan_id":"cebpf4jnsgd1na2vs0mg"},{"bike_id":"7f4936cd-19d8-4523-a002-5e0b13071efd","system_id":"levelo_inurba_marseille","lat":43.28406,"lon":5.34983,"is_reserved":false,"is_disabled":false,"rental_uris":{"android":"levelo://app?vid=7f4936cd-19d8-4523-a002-5e0b13071efd","ios":"levelo://app?vid=7f4936cd-19d8-4523-a002-5e0b13071efd"},"vehicle_type_id":"4","last_reported":1716131193,"current_range_meters":8800,"station_id":"ce4bhbh2rcd13ifvqepg","pricing_plan_id":"cebpf4jnsgd1na2vs0mg"},{"bike_id":"cdb547a7-0948-44e7-a1fa-a734739edf85","system_id":"levelo_inurba_marseille","lat":43.28407,"lon":5.34979,"is_reserved":false,"is_disabled":false,"rental_uris":{"android":"levelo://app?vid=cdb547a7-0948-44e7-a1fa-a734739edf85","ios":"levelo://app?vid=cdb547a7-0948-44e7-a1fa-a734739edf85"},"vehicle_type_id":"4","last_reported":1716131193,"current_range_meters":6800,"station_id":"ce4bhbh2rcd13ifvqepg","pricing_plan_id":"cebpf4jnsgd1na2vs0mg"},{"bike_id":"45e01a36-a377-4ed1-8624-aa7e4f338779","system_id":"levelo_inurba_marseille","lat":43.28085,"lon":5.36817,"is_reserved":false,"is_disabled":false,"rental_uris":{"android":"levelo://app?vid=45e01a36-a377-4ed1-8624-aa7e4f338779","ios":"levelo://app?vid=45e01a36-a377-4ed1-8624-aa7e4f338779"},"vehicle_type_id":"4","last_reported":1716131193,"current_range_meters":13600,"station_id":"","pricing_plan_id":"cebpf4jnsgd1na2vs0mg"},{"bike_id":"0a1136ae-ea12-484c-8fc6-49ee12f8f58c","system_id":"levelo_inurba_marseille","lat":43.292724,"lon":5.401131,"is_reserved":false,"is_disabled":false,"rental_uris":{"android":"levelo://app?vid=0a1136ae-ea12-484c-8fc6-49ee12f8f58c","ios":"levelo://app?vid=0a1136ae-ea12-484c-8fc6-49ee12f8f58c"},"vehicle_type_id":"4","last_reported":1716131193,"current_range_meters":3200,"station_id":"ce4bh312rcd13ifvqdk0","pricing_plan_id":"cebpf4jnsgd1na2vs0mg"},{"bike_id":"a7d693b0-f845-4f15-8c2d-e804ccdac525","system_id":"levelo_inurba_marseille","lat":43.25102,"lon":5.403214,"is_reserved":false,"is_disabled":false,"rental_uris":{"android":"levelo://app?vid=a7d693b0-f845-4f15-8c2d-e804ccdac525","ios":"levelo://app?vid=a7d693b0-f845-4f15-8c2d-e804ccdac525"},"vehicle_type_id":"4","last_reported":1716131193,"current_range_meters":19600,"station_id":"ce4bhlh2rcd13ifvqgig","pricing_plan_id":"cebpf4jnsgd1na2vs0mg"},{"bike_id":"7f418cde-512e-43dc-9415-68536a0f3cf5","system_id":"levelo_inurba_marseille","lat":43.282744,"lon":5.350533,"is_reserved":false,"is_disabled":false,"rental_uris":{"android":"levelo://app?vid=7f418cde-512e-43dc-9415-68536a0f3cf5","ios":"levelo://app?vid=7f418cde-512e-43dc-9415-68536a0f3cf5"},"vehicle_type_id":"4","last_reported":1716131193,"current_range_meters":10400,"station_id":"ce4bhbp2rcd13ifvqerg","pricing_plan_id":"cebpf4jnsgd1na2vs0mg"},{"bike_id":"2efdeb28-bda6-41d7-8fcd-07ba47669e75","system_id":"levelo_inurba_marseille","lat":43.28274,"lon":5.35065,"is_reserved":false,"is_disabled":false,"rental_uris":{"android":"levelo://app?vid=2efdeb28-bda6-41d7-8fcd-07ba47669e75","ios":"levelo://app?vid=2efdeb28-bda6-41d7-8fcd-07ba47669e75"},"vehicle_type_id":"4","last_reported":1716131193,"current_range_meters":11600,"station_id":"ce4bhbp2rcd13ifvqerg","pricing_plan_id":"cebpf4jnsgd1na2vs0mg"},