{"last_updated":1703426735,"ttl":30,"version":"2.2","data":{"bikes":[{"bike_id":"f0deff4c-8471-49bd-b6bb-b8033dfcff33","system_id":"levelo_inurba_marseille","lat":43.312239,"lon":5.368562,"is_reserved":false,"is_disabled":false,"rental_uris":{"android":"levelo://app?vid=f0deff4c-8471-49bd-b6bb-b8033dfcff33","ios":"levelo://app?vid=f0deff4c-8471-49bd-b6bb-b8033dfcff33"},"vehicle_type_id":"4","last_reported":1703426735,"current_range_meters":19600,"station_id":"ce4bgl92rcd13ifvqbq0","pricing_plan_id":"free"},{"bike_id":"ff0467b3-8fdb-4044-a367-e8274678f82c","system_id":"levelo_inurba_marseille","lat":43.312239,"lon":5.368562,"is_reserved":false,"is_disabled":false,"rental_uris":{"android":"levelo://app?vid=ff0467b3-8fdb-4044-a367-e8274678f82c","ios":"levelo://app?vid=ff0467b3-8fdb-4044-a367-e8274678f82c"},"vehicle_type_id":"4","last_reported":1703426735,"current_range_meters":14000,"station_id":"ce4bgl92rcd13ifvqbq0","pricing_plan_id":"free"},{"bike_id":"8be8ef55-d0c5-47ec-beee-e1f7e4d5527c","system_id":"levelo_inurba_marseille","lat":43.312239,"lon":5.368562,"is_reserved":false,"is_disabled":false,"rental_uris":{"android":"levelo://app?vid=8be8ef55-d0c5-47ec-beee-e1f7e4d5527c","ios":"levelo://app?vid=8be8ef55-d0c5-47ec-beee-e1f7e4d5527c"},"vehicle_type_id":"4","last_reported":1703426735,"current_range_meters":31200,"station_id":"ce4bgl92rcd13ifvqbq0","pricing_plan_id":"free"},{"bike_id":"3e816422-93a3-45c7-9e2f-2507d6482ae9","system_id":"levelo_inurba_marseille","lat":43.31494,"lon":5.37308,"is_reserved":false,"is_disabled":false,"rental_uris":{"android":"levelo://app?vid=3e816422-93a3-45c7-9e2f-2507d6482ae9","ios":"levelo://app?vid=3e816422-93a3-45c7-9e2f-2507d6482ae9"},"vehicle_type_id":"4","last_reported":1703426735,"current_range_meters":18000,"station_id":"ce4bgt12rcd13ifvqcd0","pricing_plan_id":"free"},{"bike_id":"2fa890a1-bdc8-476d-93ec-4e2f0744446c","system_id":"levelo_inurba_marseille","lat":43.309039,"lon":5.371797,"is_reserved":false,"is_disabled":false,"rental_uris":{"android":"levelo://app?vid=2fa890a1-bdc8-476d-93ec-4e2f0744446c","ios":"levelo://app?vid=2fa890a1-bdc8-476d-93ec-4e2f0744446c"},"vehicle_type_id":"4","last_reported":1703426735,"current_range_meters":15200,"station_id":"ce4bguh2rcd13ifvqckg","pricing_plan_id":"free"},{"bike_id":"b4520f03-3217-42c9-997b-4a563f34b795","system_id":"levelo_inurba_marseille","lat":43.309039,"lon":5.371797,"is_reserved":false,"is_disabled":false,"rental_uris":{"android":"levelo://app?vid=b4520f03-3217-42c9-997b-4a563f34b795","ios":"levelo://app?vid=b4520f03-3217-42c9-997b-4a563f34b795"},"vehicle_type_id":"4","last_reported":1703426735,"current_range_meters":31200,"station_id":"ce4bguh2rcd13ifvqckg","pricing_plan_id":"free"},{"bike_id":"d2be49f4-d512-450f-80de-370a6da97420","system_id":"levelo_inurba_marseille","lat":43.31892,"lon":5.36882,"is_reserved":false,"is_disabled":false,"rental_uris":{"android":"levelo://app?vid=d2be49f4-d512-450f-80de-370a6da97420","ios":"levelo://app?vid=d2be49f4-d512-450f-80de-370a6da97420"},"vehicle_type_id":"4","last_reported":1703426735,"current_range_meters":10000,"station_id":"","pricing_plan_id":"free"},{"bike_id":"254a274b-cda3-4fec-a158-9abce0a21925","system_id":"levelo_inurba_marseille","lat":43.31807,"lon":5.37256,"is_reserved":false,"is_disabled":false,"rental_uris":{"android":"levelo://app?vid=254a274b-cda3-4fec-a158-9abce0a21925","ios":"levelo://app?vid=254a274b-cda3-4fec-a158-9abce0a21925"},"vehicle_type_id":"4","last_reported":1703426735,"current_range_meters":0,"station_id":"","pricing_plan_id":"free"},{"bike_id":"7bdbd231-a49f-4970-b03d-fdb092f91956","system_id":"levelo_inurba_marseille","lat":43.305714,"lon":5.365633,"is_reserved":false,"is_disabled":false,"rental_uris":{"android":"levelo://app?vid=7bdbd231-a49f-4970-b03d-fdb092f91956","ios":"levelo://app?vid=7bdbd231-a49f-4970-b03d-fdb092f91956"},"vehicle_type_id":"4","last_reported":1703426735,"current_range_meters":31200,"station_id":"ce4bgs12rcd13ifvqcag","pricing_plan_id":"free"},{"bike_id":"6fea4d7c-7f7e-42cc-9308-cbd123b0544b","system_id":"levelo_inurba_marseille","lat":43.305368,"lon":5.367343,"is_reserved":false,"is_disabled":false,"rental_uris":{"android":"levelo://app?vid=6fea4d7c-7f7e-42cc-9308-cbd123b0544b","ios":"levelo://app?vid=6fea4d7c-7f7e-42cc-9308-cbd123b0544b"},"vehicle_type_id":"4","last_reported":1703426735,"current_range_meters":17200,"station_id":"ce4bgrp2rcd13ifvqc9g","pricing_plan_id":"free"},{"bike_id":"1ef4e26c-2095-4448-bb98-e25ab1357ca6","system_id":"levelo_inurba_marseille","lat":43.3055,"lon":5.36537,"is_reserved":false,"is_disabled":false,"rental_uris":{"android":"levelo://app?vid=1ef4e26c-2095-4448-bb98-e25ab1357ca6","ios":"levelo://app?vid=1ef4e26c-2095-4448-bb98-e25ab1357ca6"},"vehicle_type_id":"4","last_reported":1703426735,"current_range_meters":4000,"station_id":"ce4bgs12rcd13ifvqcag","pricing_plan_id":"free"},{"bike_id":"7f025210-53dc-4cd5-b3ba-fbf9a9dafef4","system_id":"levelo_inurba_marseille","lat":43.305368,"lon":5.367343,"is_reserved":false,"is_disabled":false,"rental_uris":{"android":"levelo://app?vid=7f025210-53dc-4cd5-b3ba-fbf9a9dafef4","ios":"levelo://app?vid=7f025210-53dc-4cd5-b3ba-fbf9a9dafef4"},"vehicle_type_id":"4","last_reported":1703426735,"current_range_meters":1200,"station_id":"ce4bgrp2rcd13ifvqc9g","pricing_plan_id":"free"},{"bike_id":"b8d2e8f3-1ae1-4dcc-bedf-5296e8354eb4","system_id":"levelo_inurba_marseille","lat":43.305714,"lon":5.365633,"is_reserved":false,"is_disabled":false,"rental_uris":{"android":"levelo://app?vid=b8d2e8f3-1ae1-4dcc-bedf-5296e8354eb4","ios":"levelo://app?vid=b8d2e8f3-1ae1-4dcc-bedf-5296e8354eb4"},"vehicle_type_id":"4","last_reported":1703426735,"current_range_meters":20400,"station_id":"ce4bgs12rcd13ifvqcag","pricing_plan_id":"free"},{"bike_id":"f4f8a63e-3256-4a90-888f-08bbef2f9a7b","system_id":"levelo_inurba_marseille","lat":43.305714,"lon":5.365633,"is_reserved":false,"is_disabled":false,"rental_uris":{"android":"levelo://app?vid=f4f8a63e-3256-4a90-888f-08bbef2f9a7b","ios":"levelo://app?vid=f4f8a63e-3256-4a90-888f-08bbef2f9a7b"},"vehicle_type_id":"4","last_reported":1703426735,"current_range_meters":15600,"station_id":"ce4bgs12rcd13ifvqcag","pricing_plan_id":"free"},{"bike_id":"b368b902-ae85-46e6-8364-c3b439bb4fe9","system_id":"levelo_inurba_marseille","lat":43.305714,"lon":5.365633,"is_reserved":false,"is_disabled":false,"rental_uris":{"android":"levelo://app?vid=b368b902-ae85-46e6-8364-c3b439bb4fe9","ios":"levelo://app?vid=b368b902-ae85-46e6-8364-c3b439bb4fe9"},"vehicle_type_id":"4","last_reported":1703426735,"current_range_meters":31200,"station_id":"ce4bgs12rcd13ifvqcag","pricing_plan_id":"free"},{"bike_id":"3ebe9a17-b0ca-4349-a6e8-69c85fff9f6a","system_id":"levelo_inurba_marseille","lat":43.305714,"lon":5.365633,"is_reserved":false,"is_disabled":false,"rental_uris":{"android":"levelo://app?vid=3ebe9a17-b0ca-4349-a6e8-69c85fff9f6a","ios":"levelo://app?vid=3ebe9a17-b0ca-4349-a6e8-69c85fff9f6a"},"vehicle_type_id":"4","last_reported":1703426735,"current_range_meters":31200,"station_id":"ce4bgs12rcd13ifvqcag","pricing_plan_id":"free"},{"bike_id":"2c9a7495-bcb2-412c-90e6-83a5047cf9ad","system_id":"levelo_inurba_marseille","lat":43.305714,"lon":5.365633,"is_reserved":false,"is_disabled":false,"rental_uris":{"android":"levelo://app?vid=2c9a7495-bcb2-412c-90e6-83a5047cf9ad","ios":"levelo://app?vid=2c9a7495-bcb2-412c-90e6-83a5047cf9ad"},"vehicle_type_id":"4","last_reported":1703426735,"current_range_meters":14000,"station_id":"ce4bgs12rcd13ifvqcag","pricing_plan_id":"free"},{"bike_id":"f1186f59-7f84-412c-9f14-8b06c60e7c6a","system_id":"levelo_inurba_marseille","lat":43.305706,"lon":5.365654,"is_reserved":false,"is_disabled":false,"rental_uris":{"android":"levelo://app?vid=f1186f59-7f84-412c-9f14-8b06c60e7c6a","ios":"levelo://app?vid=f1186f59-7f84-412c-9f14-8b06c60e7c6a"},"vehicle_type_id":"4","last_reported":1703426735,"current_range_meters":16400,"station_id":"ce4bgs12rcd13ifvqcag","pricing_plan_id":"free"},{"bike_id":"01d3f0ff-6bf6-46ec-9718-651aac9a64c4","system_id":"levelo_inurba_marseille","lat":43.305706,"lon":5.365654,"is_reserved":false,"is_disabled":false,"rental_uris":{"android":"levelo://app?vid=01d3f0ff-6bf6-46ec-9718-651aac9a64c4","ios":"levelo://app?vid=01d3f0ff-6bf6-46ec-9718-651aac9a64c4"},"vehicle_type_id":"4","last_reported":1703426735,"current_range_meters":24800,"station_id":"ce4bgs12rcd13ifvqcag","pricing_plan_id":"free"},{"bike_id":"4414e71b-239b-4450-a317-b257c6876690","system_id":"levelo_inurba_marseille","lat":43.305706,"lon":5.365654,"is_reserved":false,"is_disabled":false,"rental_uris":{"android":"levelo://app?vid=4414e71b-239b-4450-a317-b257c6876690","ios":"levelo://app?vid=4414e71b-239b-4450-a317-b257c6876690"},"vehicle_type_id":"4","last_reported":1703426735,"current_range_meters":24800,"station_id":"ce4bgs12rcd13ifvqcag","pricing_plan_id":"free"},{"bike_id":"20f5f639-9f5b-4891-a191-3c836aa7be47","system_id":"levelo_inurba_marseille","lat":43.305706,"lon":5.365654,"is_reserved":false,"is_disabled":false,"rental_uris":{"android":"levelo://app?vid=20f5f639-9f5b-4891-a191-3c836aa7be47","ios":"levelo://app?vid=20f5f639-9f5b-4891-a191-3c836aa7be47"},"vehicle_type_id":"4","last_reported":1703426735,"current_range_meters":25200,"station_id":"ce4bgs12rcd13ifvqcag","pricing_plan_id":"free"},{"bike_id":"4c70371f-18e8-4245-b4c0-28af9d5b5fcb","system_id":"levelo_inurba_marseille","lat":43.305706,"lon":5.365654,"is_reserved":false,"is_disabled":false,"rental_uris":{"android":"levelo://app?vid=4c70371f-18e8-4245-b4c0-28af9d5b5fcb","ios":"levelo://app?vid=4c70371f-18e8-4245-b4c0-28af9d5b5fcb"},"vehicle_type_id":"4","last_reported":1703426735,"current_range_meters":30800,"station_id":"ce4bgs12rcd13ifvqcag","pricing_plan_id":"free"},{"bike_id":"4eaa17e2-b56f-40db-917d-3d3aeb528e85","system_id":"levelo_inurba_marseille","lat":43.307945,"lon":5.376487,"is_reserved":false,"is_disabled":false,"rental_uris":{"android":"levelo://app?vid=4eaa17e2-b56f-40db-917d-3d3aeb528e85","ios":"levelo://app?vid=4eaa17e2-b56f-40db-917d-3d3aeb528e85"},"vehicle_type_id":"4","last_reported":1703426735,"current_range_meters":28800,"station_id":"ce4bgv92rcd13ifvqcq0","pricing_plan_id":"free"},{"bike_id":"941919d9-99e9-4c2d-aad4-69fdfc9bb55c","system_id":"levelo_inurba_marseille","lat":43.317075,"lon":5.377367,"is_reserved":false,"is_disabled":false,"rental_uris":{"android":"levelo://app?vid=941919d9-99e9-4c2d-aad4-69fdfc9bb55c","ios":"levelo://app?vid=941919d9-99e9-4c2d-aad4-69fdfc9bb55c"},"vehicle_type_id":"4","last_reported":1703426735,"current_range_meters":31200,"station_id":"ce4bgth2rcd13ifvqch0","pricing_plan_id":"free"},{"bike_id":"9a85c67b-a63d-4e4f-a53b-8302976f6a9d","system_id":"levelo_inurba_marseille","lat":43.303046,"lon":5.368981,"is_reserved":false,"is_disabled":false,"rental_uris":{"android":"levelo://app?vid=9a85c67b-a63d-4e4f-a53b-8302976f6a9d","ios":"levelo://app?vid=9a85c67b-a63d-4e4f-a53b-8302976f6a9d"},"vehicle_type_id":"4","last_reported":1703426735,"current_range_meters":30400,"station_id":"ce4bgqh2rcd13ifvqc5g","pricing_plan_id":"free"},{"bike_id":"aca7504d-7699-4192-8269-7d820e5fb24c","system_id":"levelo_inurba_marseille","lat":43.304606,"lon":5.379026,"is_reserved":false,"is_disabled":false,"rental_uris":{"android":"levelo://app?vid=aca7504d-7699-4192-8269-7d820e5fb24c","ios":"levelo://app?vid=aca7504d-7699-4192-8269-7d820e5fb24c"},"vehicle_type_id":"4","last_reported":1703426735,"current_range_meters":15600,"station_id":"ce4bgup2rcd13ifvqcn0","pricing_plan_id":"free"},{"bike_id":"446d8fa6-81b3-427c-bd00-58d2a2e6924d","system_id":"levelo_inurba_marseille","lat":43.30468,"lon":5.37899,"is_reserved":false,"is_disabled":false,"rental_uris":{"android":"levelo://app?vid=446d8fa6-81b3-427c-bd00-58d2a2e6924d","ios":"levelo://app?vid=446d8fa6-81b3-427c-bd00-58d2a2e6924d"},"vehicle_type_id":"4","last_reported":1703426735,"current_range_meters":24400,"station_id":"ce4bgup2rcd13ifvqcn0","pricing_plan_id":"free"},{"bike_id":"e667f1aa-5cb4-4f70-8e66-71dc8f6132da","system_id":"levelo_inurba_marseille","lat":43.30466,"lon":5.37897,"is_reserved":false,"is_disabled":false,"rental_uris":{"android":"levelo://app?vid=e667f1aa-5cb4-4f70-8e66-71dc8f6132da","ios":"levelo://app?vid=e667f1aa-5cb4-4f70-8e66-71dc8f6132da"},"vehicle_type_id":"4","last_reported":1703426735,"current_range_meters":22800,"station_id":"ce4bgup2rcd13ifvqcn0","pricing_plan_id":"free"},{"bike_id":"855ba258-0c75-451b-86f8-a4947d929404","system_id":"levelo_inurba_marseille","lat":43.3047,"lon":5.37905,"is_reserved":false,"is_disabled":false,"rental_uris":{"android":"levelo://app?vid=855ba258-0c75-451b-86f8-a4947d929404","ios":"levelo://app?vid=855ba258-0c75-451b-86f8-a4947d929404"},"vehicle_type_id":"4","last_reported":1703426735,"current_range_meters":30800,"station_id":"ce4bgup2rcd13ifvqcn0","pricing_plan_id":"free"},{"bike_id":"10f9ec95-43ed-41a2-999b-2ba66fbcc700","system_id":"levelo_inurba_marseille","lat":43.30465,"lon":5.37899,"is_reserved":false,"is_disabled":false,"rental_uris":{"android":"levelo://app?vid=10f9ec95-43ed-41a2-999b-2ba66fbcc700","ios":"levelo://app?vid=10f9ec95-43ed-41a2-999b-2ba66fbcc700"},"vehicle_type_id":"4","last_reported":1703426735,"current_range_meters":18800,"station_id":"ce4bgup2rcd13ifvqcn0","pricing_plan_id":"free"},{"bike_id":"5e83298c-1e0c-42a2-9507-ae8b143aa949","system_id":"levelo_inurba_marseille","lat":43.304606,"lon":5.379026,"is_reserved":false,"is_disabled":false,"rental_uris":{"android":"levelo://app?vid=5e83298c-1e0c-42a2-9507-ae8b143aa949","ios":"levelo://app?vid=5e83298c-1e0c-42a2-9507-ae8b143aa949"},"vehicle_type_id":"4","last_reported":1703426735,"current_range_meters":24800,"station_id":"ce4bgup2rcd13ifvqcn0","pricing_plan_id":"free"},{"bike_id":"5c1dd57d-571f-4219-a983-f344ee88ef1d","system_id":"levelo_inurba_marseille","lat":43.304606,"lon":5.379026,"is_reserved":false,"is_disabled":false,"rental_uris":{"android":"levelo://app?vid=5c1dd57d-571f-4219-a983-f344ee88ef1d","ios":"levelo://app?vid=5c1dd57d-571f-4219-a983-f344ee88ef1d"},"vehicle_type_id":"4","last_reported":1703426735,"current_range_meters":31200,"station_id":"ce4bgup2rcd13ifvqcn0","pricing_plan_id":"free"},{"bike_id":"4dd00629-92ac-447e-b49f-797d483c08c7","system_id":"levelo_inurba_marseille","lat":43.304629,"lon":5.378987,"is_reserved":false,"is_disabled":false,"rental_uris":{"android":"levelo://app?vid=4dd00629-92ac-447e-b49f-797d483c08c7","ios":"levelo://app?vid=4dd00629-92ac-447e-b49f-797d483c08c7"},"vehicle_type_id":"4","last_reported":1703426735,"current_range_meters":27600,"station_id":"ce4bgup2rcd13ifvqcn0","pricing_plan_id":"free"},{"bike_id":"2397f53c-ebcf-4575-bf1f-746ca8356c04","system_id":"levelo_inurba_marseille","lat":43.30461,"lon":5.37898,"is_reserved":false,"is_disabled":false,"rental_uris":{"android":"levelo://app?vid=2397f53c-ebcf-4575-bf1f-746ca8356c04","ios":"levelo://app?vid=2397f53c-ebcf-4575-bf1f-746ca8356c04"},"vehicle_type_id":"4","last_reported":1703426735,"current_range_meters":17200,"station_id":"ce4bgup2rcd13ifvqcn0","pricing_plan_id":"free"},{"bike_id":"1e035c79-537a-48e3-ba97-e9e458d10005","system_id":"levelo_inurba_marseille","lat":43.304606,"lon":5.379026,"is_reserved":false,"is_disabled":false,"rental_uris":{"android":"levelo://app?vid=1e035c79-537a-48e3-ba97-e9e458d10005","ios":"levelo://app?vid=1e035c79-537a-48e3-ba97-e9e458d10005"},"vehicle_type_id":"4","last_reported":1703426735,"current_range_meters":26800,"station_id":"ce4bgup2rcd13ifvqcn0","pricing_plan_id":"free"},{"bike_id":"48048bdb-358c-47e4-bde7-7e70afd6c58e","system_id":"levelo_inurba_marseille","lat":43.30463,"lon":5.37902,"is_reserved":false,"is_disabled":false,"rental_uris":{"android":"levelo://app?vid=48048bdb-358c-47e4-bde7-7e70afd6c58e","ios":"levelo://app?vid=48048bdb-358c-47e4-bde7-7e70afd6c58e"},"vehicle_type_id":"4","last_reported":1703426735,"current_range_meters":31200,"station_id":"ce4bgup2rcd13ifvqcn0","pricing_plan_id":"free"},{"bike_id":"230d6e90-4bf4-4d64-9fc5-911769ccb777","system_id":"levelo_inurba_marseille","lat":43.30462,"lon":5.37901,"is_reserved":false,"is_disabled":false,"rental_uris":{"android":"levelo://app?vid=230d6e90-4bf4-4d64-9fc5-911769ccb777","ios":"levelo://app?vid=230d6e90-4bf4-4d64-9fc5-911769ccb777"},"vehicle_type_id":"4","last_reported":1703426735,"current_range_meters":20000,"station_id":"ce4bgup2rcd13ifvqcn0","pricing_plan_id":"free"},{"bike_id":"1102be0f-1591-4c4f-84b5-ab8de4fca5d4","system_id":"levelo_inurba_marseille","lat":43.304606,"lon":5.379026,"is_reserved":false,"is_disabled":false,"rental_uris":{"android":"levelo://app?vid=1102be0f-1591-4c4f-84b5-ab8de4fca5d4","ios":"levelo://app?vid=1102be0f-1591-4c4f-84b5-ab8de4fca5d4"},"vehicle_type_id":"4","last_reported":1703426735,"current_range_meters":27600,"station_id":"ce4bgup2rcd13ifvqcn0","pricing_plan_id":"free"},{"bike_id":"13c347a7-55d1-4812-bd29-e7e75e9f7f71","system_id":"levelo_inurba_marseille","lat":43.304606,"lon":5.379026,"is_reserved":false,"is_disabled":false,"rental_uris":{"android":"levelo://app?vid=13c347a7-55d1-4812-bd29-e7e75e9f7f71","ios":"levelo://app?vid=13c347a7-55d1-4812-bd29-e7e75e9f7f71"},"vehicle_type_id":"4","last_reported":1703426735,"current_range_meters":25600,"station_id":"ce4bgup2rcd13ifvqcn0","pricing_plan_id":"free"},{"bike_id":"cece7b36-f5a6-404e-8c76-f8ebc899cda1","system_id":"levelo_inurba_marseille","lat":43.304606,"lon":5.379026,"is_reserved":false,"is_disabled":false,"rental_uris":{"android":"levelo://app?vid=cece7b36-f5a6-404e-8c76-f8ebc899cda1","ios":"levelo://app?vid=cece7b36-f5a6-404e-8c76-f8ebc899cda1"},"vehicle_type_id":"4","last_reported":1703426735,"current_range_meters":27600,"station_id":"ce4bgup2rcd13ifvqcn0","pricing_plan_id":"free"},{"bike_id":"3e3cea46-211e-4934-a3a4-d8465e65e881","system_id":"levelo_inurba_marseille","lat":43.304606,"lon":5.379026,"is_reserved":false,"is_disabled":false,"rental_uris":{"android":"levelo://app?vid=3e3cea46-211e-4934-a3a4-d8465e65e881","ios":"levelo://app?vid=3e3cea46-211e-4934-a3a4-d8465e65e881"},"vehicle_type_id":"4","last_reported":1703426735,"current_range_meters":23600,"station_id":"ce4bgup2rcd13ifvqcn0","pricing_plan_id":"free"},{"bike_id":"075f6bf9-9219-4fe7-9d0a-ae8703a78d21","system_id":"levelo_inurba_marseille","lat":43.304606,"lon":5.379026,"is_reserved":false,"is_disabled":false,"rental_uris":{"android":"levelo://app?vid=075f6bf9-9219-4fe7-9d0a-ae8703a78d21","ios":"levelo://app?vid=075f6bf9-9219-4fe7-9d0a-ae8703a78d21"},"vehicle_type_id":"4","last_reported":1703426735,"current_range_meters":26000,"station_id":"ce4bgup2rcd13ifvqcn0","pricing_plan_id":"free"},{"bike_id":"ccaf289c-0d1b-4a42-a9be-815832807615","system_id":"levelo_inurba_marseille","lat":43.304606,"lon":5.379026,"is_reserved":false,"is_disabled":false,"rental_uris":{"android":"levelo://app?vid=ccaf289c-0d1b-4a42-a9be-815832807615","ios":"levelo://app?vid=ccaf289c-0d1b-4a42-a9be-815832807615"},"vehicle_type_id":"4","last_reported":1703426735,"current_range_meters":20800,"station_id":"ce4bgup2rcd13ifvqcn0","pricing_plan_id":"free"},{"bike_id":"586f1e7d-ed0f-4c45-9ced-a0ee9ff04f76","system_id":"levelo_inurba_marseille","lat":43.304606,"lon":5.379026,"is_reserved":false,"is_disabled":false,"rental_uris":{"android":"levelo://app?vid=586f1e7d-ed0f-4c45-9ced-a0ee9ff04f76","ios":"levelo://app?vid=586f1e7d-ed0f-4c45-9ced-a0ee9ff04f76"},"vehicle_type_id":"4","last_reported":1703426735,"current_range_meters":26800,"station_id":"ce4bgup2rcd13ifvqcn0","pricing_plan_id":"free"},{"bike_id":"67536569-185d-4f41-9257-e2faac6c4b77","system_id":"levelo_inurba_marseille","lat":43.30463,"lon":5.37911,"is_reserved":false,"is_disabled":false,"rental_uris":{"android":"levelo://app?vid=67536569-185d-4f41-9257-e2faac6c4b77","ios":"levelo://app?vid=67536569-185d-4f41-9257-e2faac6c4b77"},"vehicle_type_id":"4","last_reported":1703426735,"current_range_meters":23600,"station_id":"ce4bgup2rcd13ifvqcn0","pricing_plan_id":"free"},{"bike_id":"ad8caf80-c9fd-4978-a77f-21f32516b45e","system_id":"levelo_inurba_marseille","lat":43.304606,"lon":5.379026,"is_reserved":false,"is_disabled":false,"rental_uris":{"android":"levelo://app?vid=ad8caf80-c9fd-4978-a77f-21f32516b45e","ios":"levelo://app?vid=ad8caf80-c9fd-4978-a77f-21f32516b45e"},"vehicle_type_id":"4","last_reported":1703426735,"current_range_meters":16400,"station_id":"ce4bgup2rcd13ifvqcn0","pricing_plan_id":"free"},{"bike_id":"5f2c8efb-34f2-46f2-a9d1-d3627cc208c1","system_id":"levelo_inurba_marseille","lat":43.304606,"lon":5.379026,"is_reserved":false,"is_disabled":false,"rental_uris":{"android":"levelo://app?vid=5f2c8efb-34f2-46f2-a9d1-d3627cc208c1","ios":"levelo://app?vid=5f2c8efb-34f2-46f2-a9d1-d3627cc208c1"},"vehicle_type_id":"4","last_reported":1703426735,"current_range_meters":30400,"station_id":"ce4bgup2rcd13ifvqcn0","pricing_plan_id":"free"},{"bike_id":"f5c0e4d6-16bd-47eb-ba92-aa201d0984ce","system_id":"levelo_inurba_marseille","lat":43.324771,"lon":5.36557,"is_reserved":false,"is_disabled":false,"rental_uris":{"android":"levelo://app?vid=f5c0e4d6-16bd-47eb-ba92-aa201d0984ce","ios":"levelo://app?vid=f5c0e4d6-16bd-47eb-ba92-aa201d0984ce"},"vehicle_type_id":"4","last_reported":1703426735,"current_range_meters":12800,"station_id":"ce4bhs12rcd13ifvqhvg","pricing_plan_id":"free"},{"bike_id":"be0b386d-a922-4eb1-ae2e-0222c92eb282","system_id":"levelo_inurba_marseille","lat":43.324771,"lon":5.36557,"is_reserved":false,"is_disabled":false,"rental_uris":{"android":"levelo://app?vid=be0b386d-a922-4eb1-ae2e-0222c92eb282","ios":"levelo://app?vid=be0b386d-a922-4eb1-ae2e-0222c92eb282"},"vehicle_type_id":"4","last_reported":1703426735,"current_range_meters":6800,"station_id":"ce4bhs12rcd13ifvqhvg","pricing_plan_id":"free"},{"bike_id":"065b1b26-689f-4633-bf8a-499dff08b060","system_id":"levelo_inurba_marseille","lat":43.302784,"lon":5.377158,"is_reserved":false,"is_disabled":false,"rental_uris":{"android":"levelo://app?vid=065b1b26-689f-4633-bf8a-499dff08b060","ios":"levelo://app?vid=065b1b26-689f-4633-bf8a-499dff08b060"},"vehicle_type_id":"4","last_reported":1703426735,"current_range_meters":16000,"station_id":"ce4bguh2rcd13ifvqcj0","pricing_plan_id":"free"},{"bike_id":"30cb4f11-85a2-4331-a9da-8f1687427a39","system_id":"levelo_inurba_marseille","lat":43.302784,"lon":5.377158,"is_reserved":false,"is_disabled":false,"rental_uris":{"android":"levelo://app?vid=30cb4f11-85a2-4331-a9da-8f1687427a39","ios":"levelo://app?vid=30cb4f11-85a2-4331-a9da-8f1687427a39"},"vehicle_type_id":"4","last_reported":1703426735,"current_range_meters":28000,"station_id":"ce4bguh2rcd13ifvqcj0","pricing_plan_id":"free"},{"bike_id":"e741e5fd-f5d8-4637-b11e-11c8ee653921","system_id":"levelo_inurba_marseille","lat":43.302784,"lon":5.377158,"is_reserved":false,"is_disabled":false,"rental_uris":{"android":"levelo://app?vid=e741e5fd-f5d8-4637-b11e-11c8ee653921","ios":"levelo://app?vid=e741e5fd-f5d8-4637-b11e-11c8ee653921"},"vehicle_type_id":"4","last_reported":1703426735,"current_range_meters":19600,"station_id":"ce4bguh2rcd13ifvqcj0","pricing_plan_id":"free"},{"bike_id":"69599836-e945-413a-a849-741769f44bc7","system_id":"levelo_inurba_marseille","lat":43.302784,"lon":5.377158,"is_reserved":false,"is_disabled":false,"rental_uris":{"android":"levelo://app?vid=69599836-e945-413a-a849-741769f44bc7","ios":"levelo://app?vid=69599836-e945-413a-a849-741769f44bc7"},"vehicle_type_id":"4","last_reported":1703426735,"current_range_meters":29600,"station_id":"ce4bguh2rcd13ifvqcj0","pricing_plan_id":"free"},{"bike_id":"5e6d0764-5d70-4b9a-8b59-d2e48969f79b","system_id":"levelo_inurba_marseille","lat":43.303492,"lon":5.378742,"is_reserved":false,"is_disabled":false,"rental_uris":{"android":"levelo://app?vid=5e6d0764-5d70-4b9a-8b59-d2e48969f79b","ios":"levelo://app?vid=5e6d0764-5d70-4b9a-8b59-d2e48969f79b"},"vehicle_type_id":"4","last_reported":1703426735,"current_range_meters":16000,"station_id":"ce4bh612rcd13ifvqe6g","pricing_plan_id":"free"},{"bike_id":"c74e98d3-14d3-45e5-9081-a9f2b39fe4ce","system_id":"levelo_inurba_marseille","lat":43.319948,"lon":5.381441,"is_reserved":false,"is_disabled":false,"rental_uris":{"android":"levelo://app?vid=c74e98d3-14d3-45e5-9081-a9f2b39fe4ce","ios":"levelo://app?vid=c74e98d3-14d3-45e5-9081-a9f2b39fe4ce"},"vehicle_type_id":"4","last_reported":1703426735,"current_range_meters":23600,"station_id":"ce4bhr12rcd13ifvqhpg","pricing_plan_id":"free"},{"bike_id":"37849b07-689a-4a22-a25e-58a502b4967e","system_id":"levelo_inurba_marseille","lat":43.319945,"lon":5.381473,"is_reserved":false,"is_disabled":false,"rental_uris":{"android":"levelo://app?vid=37849b07-689a-4a22-a25e-58a502b4967e","ios":"levelo://app?vid=37849b07-689a-4a22-a25e-58a502b4967e"},"vehicle_type_id":"4","last_reported":1703426735,"current_range_meters":16400,"station_id":"ce4bhr12rcd13ifvqhpg","pricing_plan_id":"free"},{"bike_id":"6b293ddd-1b4c-4b04-abd1-e3b793bc7eab","system_id":"levelo_inurba_marseille","lat":43.31993,"lon":5.38155,"is_reserved":false,"is_disabled":false,"rental_uris":{"android":"levelo://app?vid=6b293ddd-1b4c-4b04-abd1-e3b793bc7eab","ios":"levelo://app?vid=6b293ddd-1b4c-4b04-abd1-e3b793bc7eab"},"vehicle_type_id":"4","last_reported":1703426735,"current_range_meters":24000,"station_id":"ce4bhr12rcd13ifvqhpg","pricing_plan_id":"free"},{"bike_id":"e4c0a221-feba-42f6-ab1b-9dede74548ec","system_id":"levelo_inurba_marseille","lat":43.319991,"lon":5.38153,"is_reserved":false,"is_disabled":false,"rental_uris":{"android":"levelo://app?vid=e4c0a221-feba-42f6-ab1b-9dede74548ec","ios":"levelo://app?vid=e4c0a221-feba-42f6-ab1b-9dede74548ec"},"vehicle_type_id":"4","last_reported":1703426735,"current_range_meters":6000,"station_id":"ce4bhr12rcd13ifvqhpg","pricing_plan_id":"free"},{"bike_id":"dc0f6af5-c02c-4610-baea-e5c6ca16f530","system_id":"levelo_inurba_marseille","lat":43.319991,"lon":5.381593,"is_reserved":false,"is_disabled":false,"rental_uris":{"android":"levelo://app?vid=dc0f6af5-c02c-4610-baea-e5c6ca16f530","ios":"levelo://app?vid=dc0f6af5-c02c-4610-baea-e5c6ca16f530"},"vehicle_type_id":"4","last_reported":1703426735,"current_range_meters":21200,"station_id":"ce4bhr12rcd13ifvqhpg","pricing_plan_id":"free"},{"bike_id":"cadb1e10-5fb2-48ea-9592-e8a389c41ffc","system_id":"levelo_inurba_marseille","lat":43.313571,"lon":5.384829,"is_reserved":false,"is_disabled":false,"rental_uris":{"android":"levelo://app?vid=cadb1e10-5fb2-48ea-9592-e8a389c41ffc","ios":"levelo://app?vid=cadb1e10-5fb2-48ea-9592-e8a389c41ffc"},"vehicle_type_id":"4","last_reported":1703426735,"current_range_meters":28000,"station_id":"ce4bgt92rcd13ifvqcf0","pricing_plan_id":"free"},{"bike_id":"c46cea99-9f5d-4cc2-a8c8-364ec698cc56","system_id":"levelo_inurba_marseille","lat":43.299222,"lon":5.365554,"is_reserved":false,"is_disabled":false,"rental_uris":{"android":"levelo://app?vid=c46cea99-9f5d-4cc2-a8c8-364ec698cc56","ios":"levelo://app?vid=c46cea99-9f5d-4cc2-a8c8-364ec698cc56"},"vehicle_type_id":"4","last_reported":1703426735,"current_range_meters":0,"station_id":"ce4bgm92rcd13ifvqbr0","pricing_plan_id":"free"},{"bike_id":"526ed58c-bb26-4c30-9520-dce7b39ac7dd","system_id":"levelo_inurba_marseille","lat":43.298433,"lon":5.362774,"is_reserved":false,"is_disabled":false,"rental_uris":{"android":"levelo://app?vid=526ed58c-bb26-4c30-9520-dce7b39ac7dd","ios":"levelo://app?vid=526ed58c-bb26-4c30-9520-dce7b39ac7dd"},"vehicle_type_id":"4","last_reported":1703426735,"current_range_meters":22000,"station_id":"ce4bgpp2rcd13ifvqc3g","pricing_plan_id":"free"},{"bike_id":"cedce08f-7e05-4203-bc64-70767cb2f46a","system_id":"levelo_inurba_marseille","lat":43.298428,"lon":5.362644,"is_reserved":false,"is_disabled":false,"rental_uris":{"android":"levelo://app?vid=cedce08f-7e05-4203-bc64-70767cb2f46a","ios":"levelo://app?vid=cedce08f-7e05-4203-bc64-70767cb2f46a"},"vehicle_type_id":"4","last_reported":1703426735,"current_range_meters":14400,"station_id":"ce4bgpp2rcd13ifvqc3g","pricing_plan_id":"free"},{"bike_id":"6781d681-f0ce-4e20-b177-2a4c03c46910","system_id":"levelo_inurba_marseille","lat":43.298403,"lon":5.362674,"is_reserved":false,"is_disabled":false,"rental_uris":{"android":"levelo://app?vid=6781d681-f0ce-4e20-b177-2a4c03c46910","ios":"levelo://app?vid=6781d681-f0ce-4e20-b177-2a4c03c46910"},"vehicle_type_id":"4","last_reported":1703426735,"current_range_meters":30800,"station_id":"ce4bgpp2rcd13ifvqc3g","pricing_plan_id":"free"},{"bike_id":"8c715aac-7afc-4086-81f8-a10728946785","system_id":"levelo_inurba_marseille","lat":43.322872,"lon":5.382756,"is_reserved":false,"is_disabled":false,"rental_uris":{"android":"levelo://app?vid=8c715aac-7afc-4086-81f8-a10728946785","ios":"levelo://app?vid=8c715aac-7afc-4086-81f8-a10728946785"},"vehicle_type_id":"4","last_reported":1703426735,"current_range_meters":26000,"station_id":"ce4bhr12rcd13ifvqhqg","pricing_plan_id":"free"},{"bike_id":"810a4137-a94b-4dde-ac74-199c9ecec1ea","system_id":"levelo_inurba_marseille","lat":43.328371,"lon":5.366912,"is_reserved":false,"is_disabled":false,"rental_uris":{"android":"levelo://app?vid=810a4137-a94b-4dde-ac74-199c9ecec1ea","ios":"levelo://app?vid=810a4137-a94b-4dde-ac74-199c9ecec1ea"},"vehicle_type_id":"4","last_reported":1703426735,"current_range_meters":23600,"station_id":"ce4bhs92rcd13ifvqi0g","pricing_plan_id":"free"},{"bike_id":"4058801a-11c6-4f71-924d-7ba58397fb0a","system_id":"levelo_inurba_marseille","lat":43.328371,"lon":5.366912,"is_reserved":false,"is_disabled":false,"rental_uris":{"android":"levelo://app?vid=4058801a-11c6-4f71-924d-7ba58397fb0a","ios":"levelo://app?vid=4058801a-11c6-4f71-924d-7ba58397fb0a"},"vehicle_type_id":"4","last_reported":1703426735,"current_range_meters":19200,"station_id":"ce4bhs92rcd13ifvqi0g","pricing_plan_id":"free"},{"bike_id":"ec8d336b-b6cc-4c71-8a3b-5b04c7cb2d9e","system_id":"levelo_inurba_marseille","lat":43.328371,"lon":5.366912,"is_reserved":false,"is_disabled":false,"rental_uris":{"android":"levelo://app?vid=ec8d336b-b6cc-4c71-8a3b-5b04c7cb2d9e","ios":"levelo://app?vid=ec8d336b-b6cc-4c71-8a3b-5b04c7cb2d9e"},"vehicle_type_id":"4","last_reported":1703426735,"current_range_meters":22800,"station_id":"ce4bhs92rcd13ifvqi0g","pricing_plan_id":"free"},{"bike_id":"cc2f4e4f-2b28-4e84-be8f-32c8a171c9e1","system_id":"levelo_inurba_marseille","lat":43.328371,"lon":5.366912,"is_reserved":false,"is_disabled":false,"rental_uris":{"android":"levelo://app?vid=cc2f4e4f-2b28-4e84-be8f-32c8a171c9e1","ios":"levelo://app?vid=cc2f4e4f-2b28-4e84-be8f-32c8a171c9e1"},"vehicle_type_id":"4","last_reported":1703426735,"current_range_meters":27200,"station_id":"ce4bhs92rcd13ifvqi0g","pricing_plan_id":"free"},{"bike_id":"4ee0ed3e-1e09-454e-9a52-cda8d01dbf3a","system_id":"levelo_inurba_marseille","lat":43.297163,"lon":5.365866,"is_reserved":false,"is_disabled":false,"rental_uris":{"android":"levelo://app?vid=4ee0ed3e-1e09-454e-9a52-cda8d01dbf3a","ios":"levelo://app?vid=4ee0ed3e-1e09-454e-9a52-cda8d01dbf3a"},"vehicle_type_id":"4","last_reported":1703426735,"current_range_meters":17600,"station_id":"ce4bgn12rcd13ifvqbt0","pricing_plan_id":"free"},{"bike_id":"5992c007-8040-4580-8529-2a7fc59b9a0e","system_id":"levelo_inurba_marseille","lat":43.297163,"lon":5.365866,"is_reserved":false,"is_disabled":false,"rental_uris":{"android":"levelo://app?vid=5992c007-8040-4580-8529-2a7fc59b9a0e","ios":"levelo://app?vid=5992c007-8040-4580-8529-2a7fc59b9a0e"},"vehicle_type_id":"4","last_reported":1703426735,"current_range_meters":8000,"station_id":"ce4bgn12rcd13ifvqbt0","pricing_plan_id":"free"},{"bike_id":"20db3409-a44b-456f-93ce-27e57c59a5db","system_id":"levelo_inurba_marseille","lat":43.297163,"lon":5.365866,"is_reserved":false,"is_disabled":false,"rental_uris":{"android":"levelo://app?vid=20db3409-a44b-456f-93ce-27e57c59a5db","ios":"levelo://app?vid=20db3409-a44b-456f-93ce-27e57c59a5db"},"vehicle_type_id":"4","last_reported":1703426735,"current_range_meters":29200,"station_id":"ce4bgn12rcd13ifvqbt0","pricing_plan_id":"free"},{"bike_id":"f23a8a7e-c976-4337-b4d7-36cf2c393008","system_id":"levelo_inurba_marseille","lat":43.297163,"lon":5.365866,"is_reserved":false,"is_disabled":false,"rental_uris":{"android":"levelo://app?vid=f23a8a7e-c976-4337-b4d7-36cf2c393008","ios":"levelo://app?vid=f23a8a7e-c976-4337-b4d7-36cf2c393008"},"vehicle_type_id":"4","last_reported":1703426735,"current_range_meters":31200,"station_id":"ce4bgn12rcd13ifvqbt0","pricing_plan_id":"free"},{"bike_id":"770546c8-799e-4ac1-beec-299534700ad0","system_id":"levelo_inurba_marseille","lat":43.297163,"lon":5.365866,"is_reserved":false,"is_disabled":false,"rental_uris":{"android":"levelo://app?vid=770546c8-799e-4ac1-beec-299534700ad0","ios":"levelo://app?vid=770546c8-799e-4ac1-beec-299534700ad0"},"vehicle_type_id":"4","last_reported":1703426735,"current_range_meters":27200,"station_id":"ce4bgn12rcd13ifvqbt0","pricing_plan_id":"free"},{"bike_id":"bdc210c2-5f29-4720-98d5-85f7aba64742","system_id":"levelo_inurba_marseille","lat":43.297163,"lon":5.365866,"is_reserved":false,"is_disabled":false,"rental_uris":{"android":"levelo://app?vid=bdc210c2-5f29-4720-98d5-85f7aba64742","ios":"levelo://app?vid=bdc210c2-5f29-4720-98d5-85f7aba64742"},"vehicle_type_id":"4","last_reported":1703426735,"current_range_meters":10400,"station_id":"ce4bgn12rcd13ifvqbt0","pricing_plan_id":"free"},{"bike_id":"8abe46c0-e53e-4198-884e-20f1478a6a73","system_id":"levelo_inurba_marseille","lat":43.297163,"lon":5.365866,"is_reserved":false,"is_disabled":false,"rental_uris":{"android":"levelo://app?vid=8abe46c0-e53e-4198-884e-20f1478a6a73","ios":"levelo://app?vid=8abe46c0-e53e-4198-884e-20f1478a6a73"},"vehicle_type_id":"4","last_reported":1703426735,"current_range_meters":31200,"station_id":"ce4bgn12rcd13ifvqbt0","pricing_plan_id":"free"},{"bike_id":"c4cadfa2-372c-43b8-a460-b535fe4e05ef","system_id":"levelo_inurba_marseille","lat":43.2968,"lon":5.37291,"is_reserved":false,"is_disabled":false,"rental_uris":{"android":"levelo://app?vid=c4cadfa2-372c-43b8-a460-b535fe4e05ef","ios":"levelo://app?vid=c4cadfa2-372c-43b8-a460-b535fe4e05ef"},"vehicle_type_id":"4","last_reported":1703426735,"current_range_meters":14400,"station_id":"ce4bgk12rcd13ifvqbj0","pricing_plan_id":"free"},{"bike_id":"7f45c48b-8399-49ee-85b6-ef7ead90a728","system_id":"levelo_inurba_marseille","lat":43.296129,"lon":5.370777,"is_reserved":false,"is_disabled":false,"rental_uris":{"android":"levelo://app?vid=7f45c48b-8399-49ee-85b6-ef7ead90a728","ios":"levelo://app?vid=7f45c48b-8399-49ee-85b6-ef7ead90a728"},"vehicle_type_id":"4","last_reported":1703426735,"current_range_meters":31200,"station_id":"ce4bgnh2rcd13ifvqc0g","pricing_plan_id":"free"},{"bike_id":"d36668cd-eda5-4dc1-843f-09404768ec84","system_id":"levelo_inurba_marseille","lat":43.296129,"lon":5.370777,"is_reserved":false,"is_disabled":false,"rental_uris":{"android":"levelo://app?vid=d36668cd-eda5-4dc1-843f-09404768ec84","ios":"levelo://app?vid=d36668cd-eda5-4dc1-843f-09404768ec84"},"vehicle_type_id":"4","last_reported":1703426735,"current_range_meters":21200,"station_id":"ce4bgnh2rcd13ifvqc0g","pricing_plan_id":"free"},{"bike_id":"c87cad6f-8872-457a-9741-d4d9ee3c7f00","system_id":"levelo_inurba_marseille","lat":43.2968,"lon":5.37291,"is_reserved":false,"is_disabled":false,"rental_uris":{"android":"levelo://app?vid=c87cad6f-8872-457a-9741-d4d9ee3c7f00","ios":"levelo://app?vid=c87cad6f-8872-457a-9741-d4d9ee3c7f00"},"vehicle_type_id":"4","last_reported":1703426735,"current_range_meters":29200,"station_id":"ce4bgk12rcd13ifvqbj0","pricing_plan_id":"free"},{"bike_id":"d9ecb24c-4287-4618-8234-979fb0b44d55","system_id":"levelo_inurba_marseille","lat":43.29624,"lon":5.3716,"is_reserved":false,"is_disabled":false,"rental_uris":{"android":"levelo://app?vid=d9ecb24c-4287-4618-8234-979fb0b44d55","ios":"levelo://app?vid=d9ecb24c-4287-4618-8234-979fb0b44d55"},"vehicle_type_id":"4","last_reported":1703426735,"current_range_meters":30800,"station_id":"ce4bgnh2rcd13ifvqc0g","pricing_plan_id":"free"},{"bike_id":"aa54c380-0e2b-4242-b8c2-213655d6ed12","system_id":"levelo_inurba_marseille","lat":43.29623,"lon":5.37155,"is_reserved":false,"is_disabled":false,"rental_uris":{"android":"levelo://app?vid=aa54c380-0e2b-4242-b8c2-213655d6ed12","ios":"levelo://app?vid=aa54c380-0e2b-4242-b8c2-213655d6ed12"},"vehicle_type_id":"4","last_reported":1703426735,"current_range_meters":22400,"station_id":"ce4bgnh2rcd13ifvqc0g","pricing_plan_id":"free"},{"bike_id":"24fa509d-b73e-415b-bca7-543c2373b486","system_id":"levelo_inurba_marseille","lat":43.296131,"lon":5.370773,"is_reserved":false,"is_disabled":false,"rental_uris":{"android":"levelo://app?vid=24fa509d-b73e-415b-bca7-543c2373b486","ios":"levelo://app?vid=24fa509d-b73e-415b-bca7-543c2373b486"},"vehicle_type_id":"4","last_reported":1703426735,"current_range_meters":28000,"station_id":"ce4bgnh2rcd13ifvqc0g","pricing_plan_id":"free"},{"bike_id":"b2ec2838-f116-43c9-bd5c-991197c4c67f","system_id":"levelo_inurba_marseille","lat":43.29622,"lon":5.371549,"is_reserved":false,"is_disabled":false,"rental_uris":{"android":"levelo://app?vid=b2ec2838-f116-43c9-bd5c-991197c4c67f","ios":"levelo://app?vid=b2ec2838-f116-43c9-bd5c-991197c4c67f"},"vehicle_type_id":"4","last_reported":1703426735,"current_range_meters":16800,"station_id":"","pricing_plan_id":"free"},{"bike_id":"ebf94bb7-d32a-48da-9a42-64ee917a3c68","system_id":"levelo_inurba_marseille","lat":43.296129,"lon":5.370777,"is_reserved":false,"is_disabled":false,"rental_uris":{"android":"levelo://app?vid=ebf94bb7-d32a-48da-9a42-64ee917a3c68","ios":"levelo://app?vid=ebf94bb7-d32a-48da-9a42-64ee917a3c68"},"vehicle_type_id":"4","last_reported":1703426735,"current_range_meters":30000,"station_id":"ce4bgnh2rcd13ifvqc0g","pricing_plan_id":"free"},{"bike_id":"ad907858-91f6-46a1-9abf-1d89ad53ac79","system_id":"levelo_inurba_marseille","lat":43.29621,"lon":5.37156,"is_reserved":false,"is_disabled":false,"rental_uris":{"android":"levelo://app?vid=ad907858-91f6-46a1-9abf-1d89ad53ac79","ios":"levelo://app?vid=ad907858-91f6-46a1-9abf-1d89ad53ac79"},"vehicle_type_id":"4","last_reported":1703426735,"current_range_meters":29600,"station_id":"ce4bgnh2rcd13ifvqc0g","pricing_plan_id":"free"},{"bike_id":"1d6fbc17-2c21-4985-ae4d-8f6f69134538","system_id":"levelo_inurba_marseille","lat":43.296131,"lon":5.370773,"is_reserved":false,"is_disabled":false,"rental_uris":{"android":"levelo://app?vid=1d6fbc17-2c21-4985-ae4d-8f6f69134538","ios":"levelo://app?vid=1d6fbc17-2c21-4985-ae4d-8f6f69134538"},"vehicle_type_id":"4","last_reported":1703426735,"current_range_meters":18400,"station_id":"ce4bgnh2rcd13ifvqc0g","pricing_plan_id":"free"},{"bike_id":"0a3135ee-7132-4914-afa3-801e618ac0bc","system_id":"levelo_inurba_marseille","lat":43.29619,"lon":5.37153,"is_reserved":false,"is_disabled":false,"rental_uris":{"android":"levelo://app?vid=0a3135ee-7132-4914-afa3-801e618ac0bc","ios":"levelo://app?vid=0a3135ee-7132-4914-afa3-801e618ac0bc"},"vehicle_type_id":"4","last_reported":1703426735,"current_range_meters":30000,"station_id":"ce4bgnh2rcd13ifvqc0g","pricing_plan_id":"free"},{"bike_id":"6c3cafe5-e8b0-4ec2-9e3c-45c84b890607","system_id":"levelo_inurba_marseille","lat":43.296131,"lon":5.370773,"is_reserved":false,"is_disabled":false,"rental_uris":{"android":"levelo://app?vid=6c3cafe5-e8b0-4ec2-9e3c-45c84b890607","ios":"levelo://app?vid=6c3cafe5-e8b0-4ec2-9e3c-45c84b890607"},"vehicle_type_id":"4","last_reported":1703426735,"current_range_meters":31200,"station_id":"ce4bgnh2rcd13ifvqc0g","pricing_plan_id":"free"},{"bike_id":"9c3ec9f6-46da-476d-bc4f-9156120c969b","system_id":"levelo_inurba_marseille","lat":43.2962,"lon":5.37164,"is_reserved":false,"is_disabled":false,"rental_uris":{"android":"levelo://app?vid=9c3ec9f6-46da-476d-bc4f-9156120c969b","ios":"levelo://app?vid=9c3ec9f6-46da-476d-bc4f-9156120c969b"},"vehicle_type_id":"4","last_reported":1703426735,"current_range_meters":27200,"station_id":"ce4bgnh2rcd13ifvqc0g","pricing_plan_id":"free"},{"bike_id":"8406974c-8661-4279-93d8-77a47db93e4e","system_id":"levelo_inurba_marseille","lat":43.29573,"lon":5.367355,"is_reserved":false,"is_disabled":false,"rental_uris":{"android":"levelo://app?vid=8406974c-8661-4279-93d8-77a47db93e4e","ios":"levelo://app?vid=8406974c-8661-4279-93d8-77a47db93e4e"},"vehicle_type_id":"4","last_reported":1703426735,"current_range_meters":23600,"station_id":"ce4bgph2rcd13ifvqc2g","pricing_plan_id":"free"},{"bike_id":"e008fcc8-1dfb-4528-b542-e9cd3b603e35","system_id":"levelo_inurba_marseille","lat":43.29618,"lon":5.37153,"is_reserved":false,"is_disabled":false,"rental_uris":{"android":"levelo://app?vid=e008fcc8-1dfb-4528-b542-e9cd3b603e35","ios":"levelo://app?vid=e008fcc8-1dfb-4528-b542-e9cd3b603e35"},"vehicle_type_id":"4","last_reported":1703426735,"current_range_meters":29600,"station_id":"ce4bgnh2rcd13ifvqc0g","pricing_plan_id":"free"},{"bike_id":"f50a843b-0050-46e7-963f-b012a72ddc30","system_id":"levelo_inurba_marseille","lat":43.296129,"lon":5.370777,"is_reserved":false,"is_disabled":false,"rental_uris":{"android":"levelo://app?vid=f50a843b-0050-46e7-963f-b012a72ddc30","ios":"levelo://app?vid=f50a843b-0050-46e7-963f-b012a72ddc30"},"vehicle_type_id":"4","last_reported":1703426735,"current_range_meters":31200,"station_id":"ce4bgnh2rcd13ifvqc0g","pricing_plan_id":"free"},{"bike_id":"f363b50e-bf22-4e3b-a3d4-988105a0c18d","system_id":"levelo_inurba_marseille","lat":43.296129,"lon":5.370777,"is_reserved":false,"is_disabled":false,"rental_uris":{"android":"levelo://app?vid=f363b50e-bf22-4e3b-a3d4-988105a0c18d","ios":"levelo://app?vid=f363b50e-bf22-4e3b-a3d4-988105a0c18d"},"vehicle_type_id":"4","last_reported":1703426735,"current_range_meters":4000,"station_id":"ce4bgnh2rcd13ifvqc0g","pricing_plan_id":"free"},{"bike_id":"58a33e4f-c7c9-4b29-8c45-287afd7c6845","system_id":"levelo_inurba_marseille","lat":43.296129,"lon":5.370777,"is_reserved":false,"is_disabled":false,"rental_uris":{"android":"levelo://app?vid=58a33e4f-c7c9-4b29-8c45-287afd7c6845","ios":"levelo://app?vid=58a33e4f-c7c9-4b29-8c45-287afd7c6845"},"vehicle_type_id":"4","last_reported":1703426735,"current_range_meters":28400,"station_id":"ce4bgnh2rcd13ifvqc0g","pricing_plan_id":"free"},{"bike_id":"c2705987-e125-470f-a1d5-c1fd00c158b6","system_id":"levelo_inurba_marseille","lat":43.29618,"lon":5.37159,"is_reserved":false,"is_disabled":false,"rental_uris":{"android":"levelo://app?vid=c2705987-e125-470f-a1d5-c1fd00c158b6","ios":"levelo://app?vid=c2705987-e125-470f-a1d5-c1fd00c158b6"},"vehicle_type_id":"4","last_reported":1703426735,"current_range_meters":24800,"station_id":"ce4bgnh2rcd13ifvqc0g","pricing_plan_id":"free"},{"bike_id":"f07c19aa-041e-4914-93e8-276232e3ce03","system_id":"levelo_inurba_marseille","lat":43.29616,"lon":5.37152,"is_reserved":false,"is_disabled":false,"rental_uris":{"android":"levelo://app?vid=f07c19aa-041e-4914-93e8-276232e3ce03","ios":"levelo://app?vid=f07c19aa-041e-4914-93e8-276232e3ce03"},"vehicle_type_id":"4","last_reported":1703426735,"current_range_meters":28800,"station_id":"ce4bgnh2rcd13ifvqc0g","pricing_plan_id":"free"},{"bike_id":"ebdf7488-b764-4ed4-86de-2b0ef9bbf3b0","system_id":"levelo_inurba_marseille","lat":43.296129,"lon":5.370777,"is_reserved":false,"is_disabled":false,"rental_uris":{"android":"levelo://app?vid=ebdf7488-b764-4ed4-86de-2b0ef9bbf3b0","ios":"levelo://app?vid=ebdf7488-b764-4ed4-86de-2b0ef9bbf3b0"},"vehicle_type_id":"4","last_reported":1703426735,"current_range_meters":31200,"station_id":"ce4bgnh2rcd13ifvqc0g","pricing_plan_id":"free"},{"bike_id":"67f72e8c-3f85-4726-9459-39d261cf4d59","system_id":"levelo_inurba_marseille","lat":43.29573,"lon":5.367355,"is_reserved":false,"is_disabled":false,"rental_uris":{"android":"levelo://app?vid=67f72e8c-3f85-4726-9459-39d261cf4d59","ios":"levelo://app?vid=67f72e8c-3f85-4726-9459-39d261cf4d59"},"vehicle_type_id":"4","last_reported":1703426735,"current_range_meters":27200,"station_id":"ce4bgph2rcd13ifvqc2g","pricing_plan_id":"free"},{"bike_id":"0fe0760d-3875-444f-8a91-2c69ae5f1197","system_id":"levelo_inurba_marseille","lat":43.296165,"lon":5.371592,"is_reserved":false,"is_disabled":false,"rental_uris":{"android":"levelo://app?vid=0fe0760d-3875-444f-8a91-2c69ae5f1197","ios":"levelo://app?vid=0fe0760d-3875-444f-8a91-2c69ae5f1197"},"vehicle_type_id":"4","last_reported":1703426735,"current_range_meters":26800,"station_id":"","pricing_plan_id":"free"},{"bike_id":"f57dbcae-1a1e-4fee-b2b3-9e00101b7f6e","system_id":"levelo_inurba_marseille","lat":43.29573,"lon":5.367355,"is_reserved":false,"is_disabled":false,"rental_uris":{"android":"levelo://app?vid=f57dbcae-1a1e-4fee-b2b3-9e00101b7f6e","ios":"levelo://app?vid=f57dbcae-1a1e-4fee-b2b3-9e00101b7f6e"},"vehicle_type_id":"4","last_reported":1703426735,"current_range_meters":29200,"station_id":"ce4bgph2rcd13ifvqc2g","pricing_plan_id":"free"},{"bike_id":"0e297ed5-35da-41fd-ac15-b784e31a66c7","system_id":"levelo_inurba_marseille","lat":43.29615,"lon":5.37152,"is_reserved":false,"is_disabled":false,"rental_uris":{"android":"levelo://app?vid=0e297ed5-35da-41fd-ac15-b784e31a66c7","ios":"levelo://app?vid=0e297ed5-35da-41fd-ac15-b784e31a66c7"},"vehicle_type_id":"4","last_reported":1703426735,"current_range_meters":26400,"station_id":"ce4bgnh2rcd13ifvqc0g","pricing_plan_id":"free"},{"bike_id":"6a16dcd8-e349-4517-bb9c-cd72e68eeda5","system_id":"levelo_inurba_marseille","lat":43.296129,"lon":5.370777,"is_reserved":false,"is_disabled":false,"rental_uris":{"android":"levelo://app?vid=6a16dcd8-e349-4517-bb9c-cd72e68eeda5","ios":"levelo://app?vid=6a16dcd8-e349-4517-bb9c-cd72e68eeda5"},"vehicle_type_id":"4","last_reported":1703426735,"current_range_meters":28800,"station_id":"ce4bgnh2rcd13ifvqc0g","pricing_plan_id":"free"},{"bike_id":"715d269b-6771-4ef6-9cf7-504e8197230b","system_id":"levelo_inurba_marseille","lat":43.29573,"lon":5.367355,"is_reserved":false,"is_disabled":false,"rental_uris":{"android":"levelo://app?vid=715d269b-6771-4ef6-9cf7-504e8197230b","ios":"levelo://app?vid=715d269b-6771-4ef6-9cf7-504e8197230b"},"vehicle_type_id":"4","last_reported":1703426735,"current_range_meters":24400,"station_id":"ce4bgph2rcd13ifvqc2g","pricing_plan_id":"free"},{"bike_id":"e2d59d3b-3a64-4862-b471-327f73cdc0dc","system_id":"levelo_inurba_marseille","lat":43.29573,"lon":5.367355,"is_reserved":false,"is_disabled":false,"rental_uris":{"android":"levelo://app?vid=e2d59d3b-3a64-4862-b471-327f73cdc0dc","ios":"levelo://app?vid=e2d59d3b-3a64-4862-b471-327f73cdc0dc"},"vehicle_type_id":"4","last_reported":1703426735,"current_range_meters":8800,"station_id":"ce4bgph2rcd13ifvqc2g","pricing_plan_id":"free"},{"bike_id":"31fcef3f-0bb5-46aa-b9e1-c583df834918","system_id":"levelo_inurba_marseille","lat":43.29573,"lon":5.367355,"is_reserved":false,"is_disabled":false,"rental_uris":{"android":"levelo://app?vid=31fcef3f-0bb5-46aa-b9e1-c583df834918","ios":"levelo://app?vid=31fcef3f-0bb5-46aa-b9e1-c583df834918"},"vehicle_type_id":"4","last_reported":1703426735,"current_range_meters":13600,"station_id":"ce4bgph2rcd13ifvqc2g","pricing_plan_id":"free"},{"bike_id":"cfee1f82-99bb-4389-98ac-d48548c4fb3d","system_id":"levelo_inurba_marseille","lat":43.29573,"lon":5.367355,"is_reserved":false,"is_disabled":false,"rental_uris":{"android":"levelo://app?vid=cfee1f82-99bb-4389-98ac-d48548c4fb3d","ios":"levelo://app?vid=cfee1f82-99bb-4389-98ac-d48548c4fb3d"},"vehicle_type_id":"4","last_reported":1703426735,"current_range_meters":31200,"station_id":"ce4bgph2rcd13ifvqc2g","pricing_plan_id":"free"},{"bike_id":"f0df8332-27a6-4ad2-83f2-fefd048166bd","system_id":"levelo_inurba_marseille","lat":43.299028,"lon":5.381509,"is_reserved":false,"is_disabled":false,"rental_uris":{"android":"levelo://app?vid=f0df8332-27a6-4ad2-83f2-fefd048166bd","ios":"levelo://app?vid=f0df8332-27a6-4ad2-83f2-fefd048166bd"},"vehicle_type_id":"4","last_reported":1703426735,"current_range_meters":25600,"station_id":"ce4bgj12rcd13ifvqbc0","pricing_plan_id":"free"},{"bike_id":"b6ae8a14-f842-48ba-837a-187d74a76e41","system_id":"levelo_inurba_marseille","lat":43.296935,"lon":5.376544,"is_reserved":false,"is_disabled":false,"rental_uris":{"android":"levelo://app?vid=b6ae8a14-f842-48ba-837a-187d74a76e41","ios":"levelo://app?vid=b6ae8a14-f842-48ba-837a-187d74a76e41"},"vehicle_type_id":"4","last_reported":1703426735,"current_range_meters":23600,"station_id":"ce4bgkh2rcd13ifvqbl0","pricing_plan_id":"free"},{"bike_id":"719efb18-8c52-40eb-af97-30a741fb022d","system_id":"levelo_inurba_marseille","lat":43.309564,"lon":5.390283,"is_reserved":false,"is_disabled":false,"rental_uris":{"android":"levelo://app?vid=719efb18-8c52-40eb-af97-30a741fb022d","ios":"levelo://app?vid=719efb18-8c52-40eb-af97-30a741fb022d"},"vehicle_type_id":"4","last_reported":1703426735,"current_range_meters":5600,"station_id":"ce4bgup2rcd13ifvqco0","pricing_plan_id":"free"},{"bike_id":"84bd42cf-6f92-4362-a899-ab0b5d1005bf","system_id":"levelo_inurba_marseille","lat":43.299028,"lon":5.381509,"is_reserved":false,"is_disabled":false,"rental_uris":{"android":"levelo://app?vid=84bd42cf-6f92-4362-a899-ab0b5d1005bf","ios":"levelo://app?vid=84bd42cf-6f92-4362-a899-ab0b5d1005bf"},"vehicle_type_id":"4","last_reported":1703426735,"current_range_meters":28400,"station_id":"ce4bgj12rcd13ifvqbc0","pricing_plan_id":"free"},{"bike_id":"3b3e62bb-c4c2-46c6-9823-9004cf81567a","system_id":"levelo_inurba_marseille","lat":43.296921,"lon":5.376579,"is_reserved":false,"is_disabled":false,"rental_uris":{"android":"levelo://app?vid=3b3e62bb-c4c2-46c6-9823-9004cf81567a","ios":"levelo://app?vid=3b3e62bb-c4c2-46c6-9823-9004cf81567a"},"vehicle_type_id":"4","last_reported":1703426735,"current_range_meters":13600,"station_id":"ce4bgkh2rcd13ifvqbl0","pricing_plan_id":"free"},{"bike_id":"ef3d7e59-c98f-41c9-ad65-09ef3d96c4ab","system_id":"levelo_inurba_marseille","lat":43.309589,"lon":5.390258,"is_reserved":false,"is_disabled":false,"rental_uris":{"android":"levelo://app?vid=ef3d7e59-c98f-41c9-ad65-09ef3d96c4ab","ios":"levelo://app?vid=ef3d7e59-c98f-41c9-ad65-09ef3d96c4ab"},"vehicle_type_id":"4","last_reported":1703426735,"current_range_meters":13600,"station_id":"ce4bgup2rcd13ifvqco0","pricing_plan_id":"free"},{"bike_id":"90d9cf58-1dc5-4d8a-824f-802a3b33bbc1","system_id":"levelo_inurba_marseille","lat":43.317557,"lon":5.390173,"is_reserved":false,"is_disabled":false,"rental_uris":{"android":"levelo://app?vid=90d9cf58-1dc5-4d8a-824f-802a3b33bbc1","ios":"levelo://app?vid=90d9cf58-1dc5-4d8a-824f-802a3b33bbc1"},"vehicle_type_id":"4","last_reported":1703426735,"current_range_meters":30800,"station_id":"ce4bhqp2rcd13ifvqhng","pricing_plan_id":"free"},{"bike_id":"84a5b5c2-0a3d-4763-aab7-f7ece2cbc495","system_id":"levelo_inurba_marseille","lat":43.317557,"lon":5.390173,"is_reserved":false,"is_disabled":false,"rental_uris":{"android":"levelo://app?vid=84a5b5c2-0a3d-4763-aab7-f7ece2cbc495","ios":"levelo://app?vid=84a5b5c2-0a3d-4763-aab7-f7ece2cbc495"},"vehicle_type_id":"4","last_reported":1703426735,"current_range_meters":3600,"station_id":"ce4bhqp2rcd13ifvqhng","pricing_plan_id":"free"},{"bike_id":"f25d341f-ec75-4380-812d-70442b148bc5","system_id":"levelo_inurba_marseille","lat":43.31753,"lon":5.39017,"is_reserved":false,"is_disabled":false,"rental_uris":{"android":"levelo://app?vid=f25d341f-ec75-4380-812d-70442b148bc5","ios":"levelo://app?vid=f25d341f-ec75-4380-812d-70442b148bc5"},"vehicle_type_id":"4","last_reported":1703426735,"current_range_meters":22400,"station_id":"ce4bhqp2rcd13ifvqhng","pricing_plan_id":"free"},{"bike_id":"3038e8a8-c44b-4f87-9b3c-9c6260ab830f","system_id":"levelo_inurba_marseille","lat":43.317557,"lon":5.390173,"is_reserved":false,"is_disabled":false,"rental_uris":{"android":"levelo://app?vid=3038e8a8-c44b-4f87-9b3c-9c6260ab830f","ios":"levelo://app?vid=3038e8a8-c44b-4f87-9b3c-9c6260ab830f"},"vehicle_type_id":"4","last_reported":1703426735,"current_range_meters":14400,"station_id":"ce4bhqp2rcd13ifvqhng","pricing_plan_id":"free"},{"bike_id":"d7d86265-55aa-489e-a138-45442feb7aeb","system_id":"levelo_inurba_marseille","lat":43.31755,"lon":5.39019,"is_reserved":false,"is_disabled":false,"rental_uris":{"android":"levelo://app?vid=d7d86265-55aa-489e-a138-45442feb7aeb","ios":"levelo://app?vid=d7d86265-55aa-489e-a138-45442feb7aeb"},"vehicle_type_id":"4","last_reported":1703426735,"current_range_meters":24000,"station_id":"ce4bhqp2rcd13ifvqhng","pricing_plan_id":"free"},{"bike_id":"a21062be-facd-4da9-bb35-0f34197ee9ee","system_id":"levelo_inurba_marseille","lat":43.3176,"lon":5.39023,"is_reserved":false,"is_disabled":false,"rental_uris":{"android":"levelo://app?vid=a21062be-facd-4da9-bb35-0f34197ee9ee","ios":"levelo://app?vid=a21062be-facd-4da9-bb35-0f34197ee9ee"},"vehicle_type_id":"4","last_reported":1703426735,"current_range_meters":18800,"station_id":"ce4bhqp2rcd13ifvqhng","pricing_plan_id":"free"},{"bike_id":"0107edc4-9a86-426d-8bf8-8abaf13c3c58","system_id":"levelo_inurba_marseille","lat":43.317557,"lon":5.390173,"is_reserved":false,"is_disabled":false,"rental_uris":{"android":"levelo://app?vid=0107edc4-9a86-426d-8bf8-8abaf13c3c58","ios":"levelo://app?vid=0107edc4-9a86-426d-8bf8-8abaf13c3c58"},"vehicle_type_id":"4","last_reported":1703426735,"current_range_meters":31200,"station_id":"ce4bhqp2rcd13ifvqhng","pricing_plan_id":"free"},{"bike_id":"0a08705d-c05e-4bd9-a3e5-495433ab69a8","system_id":"levelo_inurba_marseille","lat":43.31751,"lon":5.39027,"is_reserved":false,"is_disabled":false,"rental_uris":{"android":"levelo://app?vid=0a08705d-c05e-4bd9-a3e5-495433ab69a8","ios":"levelo://app?vid=0a08705d-c05e-4bd9-a3e5-495433ab69a8"},"vehicle_type_id":"4","last_reported":1703426735,"current_range_meters":25600,"station_id":"ce4bhqp2rcd13ifvqhng","pricing_plan_id":"free"},{"bike_id":"7339a20b-7467-424a-8897-ea67ffabf3f4","system_id":"levelo_inurba_marseille","lat":43.298037,"lon":5.381066,"is_reserved":false,"is_disabled":false,"rental_uris":{"android":"levelo://app?vid=7339a20b-7467-424a-8897-ea67ffabf3f4","ios":"levelo://app?vid=7339a20b-7467-424a-8897-ea67ffabf3f4"},"vehicle_type_id":"4","last_reported":1703426735,"current_range_meters":29200,"station_id":"ce4bgip2rcd13ifvqbb0","pricing_plan_id":"free"},{"bike_id":"458a6716-09c2-4d5b-8e90-c1904311691d","system_id":"levelo_inurba_marseille","lat":43.298037,"lon":5.381066,"is_reserved":false,"is_disabled":false,"rental_uris":{"android":"levelo://app?vid=458a6716-09c2-4d5b-8e90-c1904311691d","ios":"levelo://app?vid=458a6716-09c2-4d5b-8e90-c1904311691d"},"vehicle_type_id":"4","last_reported":1703426735,"current_range_meters":18800,"station_id":"ce4bgip2rcd13ifvqbb0","pricing_plan_id":"free"},{"bike_id":"e2338773-7211-472c-9fdc-d7663dc46120","system_id":"levelo_inurba_marseille","lat":43.296263,"lon":5.377094,"is_reserved":false,"is_disabled":false,"rental_uris":{"android":"levelo://app?vid=e2338773-7211-472c-9fdc-d7663dc46120","ios":"levelo://app?vid=e2338773-7211-472c-9fdc-d7663dc46120"},"vehicle_type_id":"4","last_reported":1703426735,"current_range_meters":20800,"station_id":"ce4bgi92rcd13ifvqb90","pricing_plan_id":"free"},{"bike_id":"ae112647-54c0-4d6f-ac5a-de30552dbb9d","system_id":"levelo_inurba_marseille","lat":43.296277,"lon":5.377108,"is_reserved":false,"is_disabled":false,"rental_uris":{"android":"levelo://app?vid=ae112647-54c0-4d6f-ac5a-de30552dbb9d","ios":"levelo://app?vid=ae112647-54c0-4d6f-ac5a-de30552dbb9d"},"vehicle_type_id":"4","last_reported":1703426735,"current_range_meters":12400,"station_id":"ce4bgi92rcd13ifvqb90","pricing_plan_id":"free"},{"bike_id":"eb725e03-0621-4656-a362-141789d8c367","system_id":"levelo_inurba_marseille","lat":43.296277,"lon":5.377108,"is_reserved":false,"is_disabled":false,"rental_uris":{"android":"levelo://app?vid=eb725e03-0621-4656-a362-141789d8c367","ios":"levelo://app?vid=eb725e03-0621-4656-a362-141789d8c367"},"vehicle_type_id":"4","last_reported":1703426735,"current_range_meters":27200,"station_id":"ce4bgi92rcd13ifvqb90","pricing_plan_id":"free"},{"bike_id":"63618ccc-f032-4306-b236-7e4155adfe4c","system_id":"levelo_inurba_marseille","lat":43.295279,"lon":5.375048,"is_reserved":false,"is_disabled":false,"rental_uris":{"android":"levelo://app?vid=63618ccc-f032-4306-b236-7e4155adfe4c","ios":"levelo://app?vid=63618ccc-f032-4306-b236-7e4155adfe4c"},"vehicle_type_id":"4","last_reported":1703426735,"current_range_meters":19200,"station_id":"ce4bgkp2rcd13ifvqbmg","pricing_plan_id":"free"},{"bike_id":"20e2d2e8-42a4-4536-af29-3a7865943174","system_id":"levelo_inurba_marseille","lat":43.299717,"lon":5.384845,"is_reserved":false,"is_disabled":false,"rental_uris":{"android":"levelo://app?vid=20e2d2e8-42a4-4536-af29-3a7865943174","ios":"levelo://app?vid=20e2d2e8-42a4-4536-af29-3a7865943174"},"vehicle_type_id":"4","last_reported":1703426735,"current_range_meters":29600,"station_id":"ce4bgj92rcd13ifvqbd0","pricing_plan_id":"free"},{"bike_id":"7aa4fb99-83a3-4ca0-ae9b-c70c9e40f811","system_id":"levelo_inurba_marseille","lat":43.299724,"lon":5.384848,"is_reserved":false,"is_disabled":false,"rental_uris":{"android":"levelo://app?vid=7aa4fb99-83a3-4ca0-ae9b-c70c9e40f811","ios":"levelo://app?vid=7aa4fb99-83a3-4ca0-ae9b-c70c9e40f811"},"vehicle_type_id":"4","last_reported":1703426735,"current_range_meters":17200,"station_id":"ce4bgj92rcd13ifvqbd0","pricing_plan_id":"free"},{"bike_id":"6f427b1a-e910-4cec-bbb5-fea41b85780e","system_id":"levelo_inurba_marseille","lat":43.295279,"lon":5.375048,"is_reserved":false,"is_disabled":false,"rental_uris":{"android":"levelo://app?vid=6f427b1a-e910-4cec-bbb5-fea41b85780e","ios":"levelo://app?vid=6f427b1a-e910-4cec-bbb5-fea41b85780e"},"vehicle_type_id":"4","last_reported":1703426735,"current_range_meters":22000,"station_id":"ce4bgkp2rcd13ifvqbmg","pricing_plan_id":"free"},{"bike_id":"2b240992-f35c-46ea-951b-4ca9f8eca6a1","system_id":"levelo_inurba_marseille","lat":43.295279,"lon":5.375048,"is_reserved":false,"is_disabled":false,"rental_uris":{"android":"levelo://app?vid=2b240992-f35c-46ea-951b-4ca9f8eca6a1","ios":"levelo://app?vid=2b240992-f35c-46ea-951b-4ca9f8eca6a1"},"vehicle_type_id":"4","last_reported":1703426735,"current_range_meters":23200,"station_id":"ce4bgkp2rcd13ifvqbmg","pricing_plan_id":"free"},{"bike_id":"816ac9fc-d00d-46d7-a31d-e1c3e5f9ee35","system_id":"levelo_inurba_marseille","lat":43.299717,"lon":5.384845,"is_reserved":false,"is_disabled":false,"rental_uris":{"android":"levelo://app?vid=816ac9fc-d00d-46d7-a31d-e1c3e5f9ee35","ios":"levelo://app?vid=816ac9fc-d00d-46d7-a31d-e1c3e5f9ee35"},"vehicle_type_id":"4","last_reported":1703426735,"current_range_meters":6400,"station_id":"ce4bgj92rcd13ifvqbd0","pricing_plan_id":"free"},{"bike_id":"ec02d419-b977-4af5-9a99-ddfe9ef75453","system_id":"levelo_inurba_marseille","lat":43.295279,"lon":5.375048,"is_reserved":false,"is_disabled":false,"rental_uris":{"android":"levelo://app?vid=ec02d419-b977-4af5-9a99-ddfe9ef75453","ios":"levelo://app?vid=ec02d419-b977-4af5-9a99-ddfe9ef75453"},"vehicle_type_id":"4","last_reported":1703426735,"current_range_meters":14400,"station_id":"ce4bgkp2rcd13ifvqbmg","pricing_plan_id":"free"},{"bike_id":"e92949b9-d61d-4fd0-bf5a-e384ecd9b11f","system_id":"levelo_inurba_marseille","lat":43.299717,"lon":5.384845,"is_reserved":false,"is_disabled":false,"rental_uris":{"android":"levelo://app?vid=e92949b9-d61d-4fd0-bf5a-e384ecd9b11f","ios":"levelo://app?vid=e92949b9-d61d-4fd0-bf5a-e384ecd9b11f"},"vehicle_type_id":"4","last_reported":1703426735,"current_range_meters":27600,"station_id":"ce4bgj92rcd13ifvqbd0","pricing_plan_id":"free"},{"bike_id":"9c919a95-fb9c-4877-85f5-8e38de29f87b","system_id":"levelo_inurba_marseille","lat":43.295279,"lon":5.375048,"is_reserved":false,"is_disabled":false,"rental_uris":{"android":"levelo://app?vid=9c919a95-fb9c-4877-85f5-8e38de29f87b","ios":"levelo://app?vid=9c919a95-fb9c-4877-85f5-8e38de29f87b"},"vehicle_type_id":"4","last_reported":1703426735,"current_range_meters":21200,"station_id":"ce4bgkp2rcd13ifvqbmg","pricing_plan_id":"free"},{"bike_id":"06a585e9-b10a-43fe-bb3e-8086b9f68053","system_id":"levelo_inurba_marseille","lat":43.295279,"lon":5.375048,"is_reserved":false,"is_disabled":false,"rental_uris":{"android":"levelo://app?vid=06a585e9-b10a-43fe-bb3e-8086b9f68053","ios":"levelo://app?vid=06a585e9-b10a-43fe-bb3e-8086b9f68053"},"vehicle_type_id":"4","last_reported":1703426735,"current_range_meters":26400,"station_id":"ce4bgkp2rcd13ifvqbmg","pricing_plan_id":"free"},{"bike_id":"795c3b4a-6827-490a-acfb-a20910b55914","system_id":"levelo_inurba_marseille","lat":43.29602,"lon":5.381084,"is_reserved":false,"is_disabled":false,"rental_uris":{"android":"levelo://app?vid=795c3b4a-6827-490a-acfb-a20910b55914","ios":"levelo://app?vid=795c3b4a-6827-490a-acfb-a20910b55914"},"vehicle_type_id":"4","last_reported":1703426735,"current_range_meters":28000,"station_id":"ce4bgl12rcd13ifvqbo0","pricing_plan_id":"free"},{"bike_id":"490f9aa6-10b3-457f-a14e-dbf7847d881f","system_id":"levelo_inurba_marseille","lat":43.293259,"lon":5.371586,"is_reserved":false,"is_disabled":false,"rental_uris":{"android":"levelo://app?vid=490f9aa6-10b3-457f-a14e-dbf7847d881f","ios":"levelo://app?vid=490f9aa6-10b3-457f-a14e-dbf7847d881f"},"vehicle_type_id":"4","last_reported":1703426735,"current_range_meters":11600,"station_id":"ce4bgh92rcd13ifvqb40","pricing_plan_id":"free"},{"bike_id":"d5e9c1fd-d7cb-48f0-9e61-3843622cb89a","system_id":"levelo_inurba_marseille","lat":43.293259,"lon":5.371586,"is_reserved":false,"is_disabled":false,"rental_uris":{"android":"levelo://app?vid=d5e9c1fd-d7cb-48f0-9e61-3843622cb89a","ios":"levelo://app?vid=d5e9c1fd-d7cb-48f0-9e61-3843622cb89a"},"vehicle_type_id":"4","last_reported":1703426735,"current_range_meters":18000,"station_id":"ce4bgh92rcd13ifvqb40","pricing_plan_id":"free"},{"bike_id":"e2dfcedb-2f10-4489-bdd9-2f0d9518524d","system_id":"levelo_inurba_marseille","lat":43.293259,"lon":5.371586,"is_reserved":false,"is_disabled":false,"rental_uris":{"android":"levelo://app?vid=e2dfcedb-2f10-4489-bdd9-2f0d9518524d","ios":"levelo://app?vid=e2dfcedb-2f10-4489-bdd9-2f0d9518524d"},"vehicle_type_id":"4","last_reported":1703426735,"current_range_meters":31200,"station_id":"ce4bgh92rcd13ifvqb40","pricing_plan_id":"free"},{"bike_id":"c41f4690-1d65-431c-8606-95477ef63eb8","system_id":"levelo_inurba_marseille","lat":43.293039,"lon":5.371787,"is_reserved":false,"is_disabled":false,"rental_uris":{"android":"levelo://app?vid=c41f4690-1d65-431c-8606-95477ef63eb8","ios":"levelo://app?vid=c41f4690-1d65-431c-8606-95477ef63eb8"},"vehicle_type_id":"4","last_reported":1703426735,"current_range_meters":8400,"station_id":"ce4bgh92rcd13ifvqb40","pricing_plan_id":"free"},{"bike_id":"ba334d81-fe1c-453e-b634-bddb925dbaf7","system_id":"levelo_inurba_marseille","lat":43.292749,"lon":5.368402,"is_reserved":false,"is_disabled":false,"rental_uris":{"android":"levelo://app?vid=ba334d81-fe1c-453e-b634-bddb925dbaf7","ios":"levelo://app?vid=ba334d81-fe1c-453e-b634-bddb925dbaf7"},"vehicle_type_id":"4","last_reported":1703426735,"current_range_meters":4000,"station_id":"ce4bhbp2rcd13ifvqesg","pricing_plan_id":"free"},{"bike_id":"bd7cc408-f4dc-48b2-a66a-38186e432638","system_id":"levelo_inurba_marseille","lat":43.293009,"lon":5.374584,"is_reserved":false,"is_disabled":false,"rental_uris":{"android":"levelo://app?vid=bd7cc408-f4dc-48b2-a66a-38186e432638","ios":"levelo://app?vid=bd7cc408-f4dc-48b2-a66a-38186e432638"},"vehicle_type_id":"4","last_reported":1703426735,"current_range_meters":8400,"station_id":"ce4bgi12rcd13ifvqb70","pricing_plan_id":"free"},{"bike_id":"c076a519-260b-4449-b1f2-a1a08d9837c1","system_id":"levelo_inurba_marseille","lat":43.29308,"lon":5.37455,"is_reserved":false,"is_disabled":false,"rental_uris":{"android":"levelo://app?vid=c076a519-260b-4449-b1f2-a1a08d9837c1","ios":"levelo://app?vid=c076a519-260b-4449-b1f2-a1a08d9837c1"},"vehicle_type_id":"4","last_reported":1703426735,"current_range_meters":15600,"station_id":"ce4bgi12rcd13ifvqb70","pricing_plan_id":"free"},{"bike_id":"d90dbccb-5e43-442a-9a9e-984bfe4d8003","system_id":"levelo_inurba_marseille","lat":43.293009,"lon":5.374584,"is_reserved":false,"is_disabled":false,"rental_uris":{"android":"levelo://app?vid=d90dbccb-5e43-442a-9a9e-984bfe4d8003","ios":"levelo://app?vid=d90dbccb-5e43-442a-9a9e-984bfe4d8003"},"vehicle_type_id":"4","last_reported":1703426735,"current_range_meters":30400,"station_id":"ce4bgi12rcd13ifvqb70","pricing_plan_id":"free"},{"bike_id":"89308b8d-a2ce-488b-8ebb-ed4b7ed05f58","system_id":"levelo_inurba_marseille","lat":43.292954,"lon":5.374436,"is_reserved":false,"is_disabled":false,"rental_uris":{"android":"levelo://app?vid=89308b8d-a2ce-488b-8ebb-ed4b7ed05f58","ios":"levelo://app?vid=89308b8d-a2ce-488b-8ebb-ed4b7ed05f58"},"vehicle_type_id":"4","last_reported":1703426735,"current_range_meters":30000,"station_id":"ce4bgi12rcd13ifvqb70","pricing_plan_id":"free"},{"bike_id":"f9125368-2fb4-482b-b2c7-969e792ac986","system_id":"levelo_inurba_marseille","lat":43.29297,"lon":5.37457,"is_reserved":false,"is_disabled":false,"rental_uris":{"android":"levelo://app?vid=f9125368-2fb4-482b-b2c7-969e792ac986","ios":"levelo://app?vid=f9125368-2fb4-482b-b2c7-969e792ac986"},"vehicle_type_id":"4","last_reported":1703426735,"current_range_meters":14000,"station_id":"ce4bgi12rcd13ifvqb70","pricing_plan_id":"free"},{"bike_id":"e7ddd1b7-bc34-476b-9f84-19f83aa23e7c","system_id":"levelo_inurba_marseille","lat":43.292943,"lon":5.3745,"is_reserved":false,"is_disabled":false,"rental_uris":{"android":"levelo://app?vid=e7ddd1b7-bc34-476b-9f84-19f83aa23e7c","ios":"levelo://app?vid=e7ddd1b7-bc34-476b-9f84-19f83aa23e7c"},"vehicle_type_id":"4","last_reported":1703426735,"current_range_meters":29600,"station_id":"ce4bgi12rcd13ifvqb70","pricing_plan_id":"free"},{"bike_id":"f1788ba2-0238-4c3f-8540-c8fc32a35326","system_id":"levelo_inurba_marseille","lat":43.29292,"lon":5.37455,"is_reserved":false,"is_disabled":false,"rental_uris":{"android":"levelo://app?vid=f1788ba2-0238-4c3f-8540-c8fc32a35326","ios":"levelo://app?vid=f1788ba2-0238-4c3f-8540-c8fc32a35326"},"vehicle_type_id":"4","last_reported":1703426735,"current_range_meters":30800,"station_id":"ce4bgi12rcd13ifvqb70","pricing_plan_id":"free"},{"bike_id":"78fb1297-c940-4fb8-b17b-e9672f38bc8b","system_id":"levelo_inurba_marseille","lat":43.2936,"lon":5.37835,"is_reserved":false,"is_disabled":false,"rental_uris":{"android":"levelo://app?vid=78fb1297-c940-4fb8-b17b-e9672f38bc8b","ios":"levelo://app?vid=78fb1297-c940-4fb8-b17b-e9672f38bc8b"},"vehicle_type_id":"4","last_reported":1703426735,"current_range_meters":24800,"station_id":"ce4bgjh2rcd13ifvqbf0","pricing_plan_id":"free"},{"bike_id":"3de34ef3-d6fc-471d-9eb4-135bbc5e0c71","system_id":"levelo_inurba_marseille","lat":43.303002,"lon":5.392142,"is_reserved":false,"is_disabled":false,"rental_uris":{"android":"levelo://app?vid=3de34ef3-d6fc-471d-9eb4-135bbc5e0c71","ios":"levelo://app?vid=3de34ef3-d6fc-471d-9eb4-135bbc5e0c71"},"vehicle_type_id":"4","last_reported":1703426735,"current_range_meters":31200,"station_id":"ce4bgkh2rcd13ifvqbk0","pricing_plan_id":"free"},{"bike_id":"8f61c38d-9c85-420a-b3cb-7fc393a31a1a","system_id":"levelo_inurba_marseille","lat":43.2936,"lon":5.37835,"is_reserved":false,"is_disabled":false,"rental_uris":{"android":"levelo://app?vid=8f61c38d-9c85-420a-b3cb-7fc393a31a1a","ios":"levelo://app?vid=8f61c38d-9c85-420a-b3cb-7fc393a31a1a"},"vehicle_type_id":"4","last_reported":1703426735,"current_range_meters":13200,"station_id":"ce4bgjh2rcd13ifvqbf0","pricing_plan_id":"free"},{"bike_id":"7dc91cab-138d-4175-9216-dbde4011a319","system_id":"levelo_inurba_marseille","lat":43.2936,"lon":5.37835,"is_reserved":false,"is_disabled":false,"rental_uris":{"android":"levelo://app?vid=7dc91cab-138d-4175-9216-dbde4011a319","ios":"levelo://app?vid=7dc91cab-138d-4175-9216-dbde4011a319"},"vehicle_type_id":"4","last_reported":1703426735,"current_range_meters":31200,"station_id":"ce4bgjh2rcd13ifvqbf0","pricing_plan_id":"free"},{"bike_id":"37260a99-7f58-4396-adde-95ac66b2ff93","system_id":"levelo_inurba_marseille","lat":43.300852,"lon":5.390859,"is_reserved":false,"is_disabled":false,"rental_uris":{"android":"levelo://app?vid=37260a99-7f58-4396-adde-95ac66b2ff93","ios":"levelo://app?vid=37260a99-7f58-4396-adde-95ac66b2ff93"},"vehicle_type_id":"4","last_reported":1703426735,"current_range_meters":29600,"station_id":"ce4bh192rcd13ifvqdb0","pricing_plan_id":"free"},{"bike_id":"32c91419-bb14-4103-a8bc-8c24ac1ced75","system_id":"levelo_inurba_marseille","lat":43.30085,"lon":5.390856,"is_reserved":false,"is_disabled":false,"rental_uris":{"android":"levelo://app?vid=32c91419-bb14-4103-a8bc-8c24ac1ced75","ios":"levelo://app?vid=32c91419-bb14-4103-a8bc-8c24ac1ced75"},"vehicle_type_id":"4","last_reported":1703426735,"current_range_meters":27200,"station_id":"ce4bh192rcd13ifvqdb0","pricing_plan_id":"free"},{"bike_id":"b991b8c3-a401-4977-b4ff-bf464eae1be8","system_id":"levelo_inurba_marseille","lat":43.29529,"lon":5.385581,"is_reserved":false,"is_disabled":false,"rental_uris":{"android":"levelo://app?vid=b991b8c3-a401-4977-b4ff-bf464eae1be8","ios":"levelo://app?vid=b991b8c3-a401-4977-b4ff-bf464eae1be8"},"vehicle_type_id":"4","last_reported":1703426735,"current_range_meters":27600,"station_id":"ce4bgih2rcd13ifvqba0","pricing_plan_id":"free"},{"bike_id":"c99f0c76-9d9f-406b-9d98-4379417403d8","system_id":"levelo_inurba_marseille","lat":43.29529,"lon":5.385581,"is_reserved":false,"is_disabled":false,"rental_uris":{"android":"levelo://app?vid=c99f0c76-9d9f-406b-9d98-4379417403d8","ios":"levelo://app?vid=c99f0c76-9d9f-406b-9d98-4379417403d8"},"vehicle_type_id":"4","last_reported":1703426735,"current_range_meters":26000,"station_id":"ce4bgih2rcd13ifvqba0","pricing_plan_id":"free"},{"bike_id":"c4f6225f-3562-4a99-96f4-e65c6f42c595","system_id":"levelo_inurba_marseille","lat":43.290779,"lon":5.371482,"is_reserved":false,"is_disabled":false,"rental_uris":{"android":"levelo://app?vid=c4f6225f-3562-4a99-96f4-e65c6f42c595","ios":"levelo://app?vid=c4f6225f-3562-4a99-96f4-e65c6f42c595"},"vehicle_type_id":"4","last_reported":1703426735,"current_range_meters":23600,"station_id":"ce4bh5p2rcd13ifvqe4g","pricing_plan_id":"free"},{"bike_id":"fdaf1c47-8b29-4bfa-83f4-7da703416d3e","system_id":"levelo_inurba_marseille","lat":43.290779,"lon":5.371482,"is_reserved":false,"is_disabled":false,"rental_uris":{"android":"levelo://app?vid=fdaf1c47-8b29-4bfa-83f4-7da703416d3e","ios":"levelo://app?vid=fdaf1c47-8b29-4bfa-83f4-7da703416d3e"},"vehicle_type_id":"4","last_reported":1703426735,"current_range_meters":4000,"station_id":"ce4bh5p2rcd13ifvqe4g","pricing_plan_id":"free"},{"bike_id":"a8cc4688-219c-417d-a51e-fbef3cc5a221","system_id":"levelo_inurba_marseille","lat":43.290779,"lon":5.371482,"is_reserved":false,"is_disabled":false,"rental_uris":{"android":"levelo://app?vid=a8cc4688-219c-417d-a51e-fbef3cc5a221","ios":"levelo://app?vid=a8cc4688-219c-417d-a51e-fbef3cc5a221"},"vehicle_type_id":"4","last_reported":1703426735,"current_range_meters":8400,"station_id":"ce4bh5p2rcd13ifvqe4g","pricing_plan_id":"free"},{"bike_id":"3538aed4-6a8a-43a0-be4a-1009debc8827","system_id":"levelo_inurba_marseille","lat":43.290779,"lon":5.371482,"is_reserved":false,"is_disabled":false,"rental_uris":{"android":"levelo://app?vid=3538aed4-6a8a-43a0-be4a-1009debc8827","ios":"levelo://app?vid=3538aed4-6a8a-43a0-be4a-1009debc8827"},"vehicle_type_id":"4","last_reported":1703426735,"current_range_meters":22000,"station_id":"ce4bh5p2rcd13ifvqe4g","pricing_plan_id":"free"},{"bike_id":"d1ce8375-5825-451d-9c04-a76c1a2d44fd","system_id":"levelo_inurba_marseille","lat":43.290779,"lon":5.371482,"is_reserved":false,"is_disabled":false,"rental_uris":{"android":"levelo://app?vid=d1ce8375-5825-451d-9c04-a76c1a2d44fd","ios":"levelo://app?vid=d1ce8375-5825-451d-9c04-a76c1a2d44fd"},"vehicle_type_id":"4","last_reported":1703426735,"current_range_meters":30400,"station_id":"ce4bh5p2rcd13ifvqe4g","pricing_plan_id":"free"},{"bike_id":"3f1802fb-8d03-4cb7-bf83-1147c318a2d8","system_id":"levelo_inurba_marseille","lat":43.302008,"lon":5.394694,"is_reserved":false,"is_disabled":false,"rental_uris":{"android":"levelo://app?vid=3f1802fb-8d03-4cb7-bf83-1147c318a2d8","ios":"levelo://app?vid=3f1802fb-8d03-4cb7-bf83-1147c318a2d8"},"vehicle_type_id":"4","last_reported":1703426735,"current_range_meters":20400,"station_id":"ce4bh0p2rcd13ifvqd70","pricing_plan_id":"free"},{"bike_id":"09693cc7-ee10-437f-9528-2333b3d10723","system_id":"levelo_inurba_marseille","lat":43.294162,"lon":5.386292,"is_reserved":false,"is_disabled":false,"rental_uris":{"android":"levelo://app?vid=09693cc7-ee10-437f-9528-2333b3d10723","ios":"levelo://app?vid=09693cc7-ee10-437f-9528-2333b3d10723"},"vehicle_type_id":"4","last_reported":1703426735,"current_range_meters":18400,"station_id":"ce4bh2h2rcd13ifvqdh0","pricing_plan_id":"free"},{"bike_id":"35854f88-e566-4b92-92d8-3610386738e4","system_id":"levelo_inurba_marseille","lat":43.294162,"lon":5.386292,"is_reserved":false,"is_disabled":false,"rental_uris":{"android":"levelo://app?vid=35854f88-e566-4b92-92d8-3610386738e4","ios":"levelo://app?vid=35854f88-e566-4b92-92d8-3610386738e4"},"vehicle_type_id":"4","last_reported":1703426735,"current_range_meters":28400,"station_id":"ce4bh2h2rcd13ifvqdh0","pricing_plan_id":"free"},{"bike_id":"c7ab3e66-e500-4d2f-b37a-ed8be5b17662","system_id":"levelo_inurba_marseille","lat":43.289184,"lon":5.366408,"is_reserved":false,"is_disabled":false,"rental_uris":{"android":"levelo://app?vid=c7ab3e66-e500-4d2f-b37a-ed8be5b17662","ios":"levelo://app?vid=c7ab3e66-e500-4d2f-b37a-ed8be5b17662"},"vehicle_type_id":"4","last_reported":1703426735,"current_range_meters":22400,"station_id":"ce4bhap2rcd13ifvqek0","pricing_plan_id":"free"},{"bike_id":"cb5d238b-cd7e-42dc-8705-7fab74c385f6","system_id":"levelo_inurba_marseille","lat":43.290103,"lon":5.356114,"is_reserved":false,"is_disabled":false,"rental_uris":{"android":"levelo://app?vid=cb5d238b-cd7e-42dc-8705-7fab74c385f6","ios":"levelo://app?vid=cb5d238b-cd7e-42dc-8705-7fab74c385f6"},"vehicle_type_id":"4","last_reported":1703426735,"current_range_meters":18400,"station_id":"ce4bhb92rcd13ifvqen0","pricing_plan_id":"free"},{"bike_id":"05bb4604-d829-4fe6-afad-a5375eafa421","system_id":"levelo_inurba_marseille","lat":43.290104,"lon":5.356111,"is_reserved":false,"is_disabled":false,"rental_uris":{"android":"levelo://app?vid=05bb4604-d829-4fe6-afad-a5375eafa421","ios":"levelo://app?vid=05bb4604-d829-4fe6-afad-a5375eafa421"},"vehicle_type_id":"4","last_reported":1703426735,"current_range_meters":20000,"station_id":"ce4bhb92rcd13ifvqen0","pricing_plan_id":"free"},{"bike_id":"988e425e-4c95-4d8c-812a-b1c09992d684","system_id":"levelo_inurba_marseille","lat":43.290103,"lon":5.356114,"is_reserved":false,"is_disabled":false,"rental_uris":{"android":"levelo://app?vid=988e425e-4c95-4d8c-812a-b1c09992d684","ios":"levelo://app?vid=988e425e-4c95-4d8c-812a-b1c09992d684"},"vehicle_type_id":"4","last_reported":1703426735,"current_range_meters":23600,"station_id":"ce4bhb92rcd13ifvqen0","pricing_plan_id":"free"},{"bike_id":"ac2745ff-ba4f-45c5-959e-14b9c786b32d","system_id":"levelo_inurba_marseille","lat":43.29091,"lon":5.38147,"is_reserved":false,"is_disabled":false,"rental_uris":{"android":"levelo://app?vid=ac2745ff-ba4f-45c5-959e-14b9c786b32d","ios":"levelo://app?vid=ac2745ff-ba4f-45c5-959e-14b9c786b32d"},"vehicle_type_id":"4","last_reported":1703426735,"current_range_meters":7600,"station_id":"ce4bh512rcd13ifvqe2g","pricing_plan_id":"free"},{"bike_id":"c0fd37e3-33b2-465f-808b-7d8c988949a7","system_id":"levelo_inurba_marseille","lat":43.29788,"lon":5.39346,"is_reserved":false,"is_disabled":false,"rental_uris":{"android":"levelo://app?vid=c0fd37e3-33b2-465f-808b-7d8c988949a7","ios":"levelo://app?vid=c0fd37e3-33b2-465f-808b-7d8c988949a7"},"vehicle_type_id":"4","last_reported":1703426735,"current_range_meters":30000,"station_id":"chh1huq6cuj3fo74tm60","pricing_plan_id":"free"},{"bike_id":"8ecab373-6160-4fc7-b559-372f6fa1f9dc","system_id":"levelo_inurba_marseille","lat":43.33022,"lon":5.39043,"is_reserved":false,"is_disabled":false,"rental_uris":{"android":"levelo://app?vid=8ecab373-6160-4fc7-b559-372f6fa1f9dc","ios":"levelo://app?vid=8ecab373-6160-4fc7-b559-372f6fa1f9dc"},"vehicle_type_id":"4","last_reported":1703426735,"current_range_meters":22000,"station_id":"","pricing_plan_id":"free"},{"bike_id":"9a23e8b7-ecaf-4903-b044-50841231227f","system_id":"levelo_inurba_marseille","lat":43.330442,"lon":5.389148,"is_reserved":false,"is_disabled":false,"rental_uris":{"android":"levelo://app?vid=9a23e8b7-ecaf-4903-b044-50841231227f","ios":"levelo://app?vid=9a23e8b7-ecaf-4903-b044-50841231227f"},"vehicle_type_id":"4","last_reported":1703426735,"current_range_meters":2400,"station_id":"ce4bhr92rcd13ifvqhrg","pricing_plan_id":"free"},{"bike_id":"cb7a592f-28cd-4c41-9b92-23f1e0c3875c","system_id":"levelo_inurba_marseille","lat":43.290104,"lon":5.356111,"is_reserved":false,"is_disabled":false,"rental_uris":{"android":"levelo://app?vid=cb7a592f-28cd-4c41-9b92-23f1e0c3875c","ios":"levelo://app?vid=cb7a592f-28cd-4c41-9b92-23f1e0c3875c"},"vehicle_type_id":"4","last_reported":1703426735,"current_range_meters":23200,"station_id":"ce4bhb92rcd13ifvqen0","pricing_plan_id":"free"},{"bike_id":"372a0d68-57a0-451e-bfda-ff24400694a1","system_id":"levelo_inurba_marseille","lat":43.28856,"lon":5.358371,"is_reserved":false,"is_disabled":false,"rental_uris":{"android":"levelo://app?vid=372a0d68-57a0-451e-bfda-ff24400694a1","ios":"levelo://app?vid=372a0d68-57a0-451e-bfda-ff24400694a1"},"vehicle_type_id":"4","last_reported":1703426735,"current_range_meters":27200,"station_id":"ce4bhb12rcd13ifvqem0","pricing_plan_id":"free"},{"bike_id":"92984b5a-0a5d-4c7a-a989-59bf952ea305","system_id":"levelo_inurba_marseille","lat":43.33761,"lon":5.37451,"is_reserved":false,"is_disabled":false,"rental_uris":{"android":"levelo://app?vid=92984b5a-0a5d-4c7a-a989-59bf952ea305","ios":"levelo://app?vid=92984b5a-0a5d-4c7a-a989-59bf952ea305"},"vehicle_type_id":"4","last_reported":1703426735,"current_range_meters":20400,"station_id":"","pricing_plan_id":"free"},{"bike_id":"1083b176-7f73-44c6-bd7b-7d1edddefeca","system_id":"levelo_inurba_marseille","lat":43.33762,"lon":5.37458,"is_reserved":false,"is_disabled":false,"rental_uris":{"android":"levelo://app?vid=1083b176-7f73-44c6-bd7b-7d1edddefeca","ios":"levelo://app?vid=1083b176-7f73-44c6-bd7b-7d1edddefeca"},"vehicle_type_id":"4","last_reported":1703426735,"current_range_meters":31200,"station_id":"","pricing_plan_id":"free"},{"bike_id":"b0530d91-7762-4149-b1a2-d8305d9ff7c2","system_id":"levelo_inurba_marseille","lat":43.286961,"lon":5.373785,"is_reserved":false,"is_disabled":false,"rental_uris":{"android":"levelo://app?vid=b0530d91-7762-4149-b1a2-d8305d9ff7c2","ios":"levelo://app?vid=b0530d91-7762-4149-b1a2-d8305d9ff7c2"},"vehicle_type_id":"4","last_reported":1703426735,"current_range_meters":31200,"station_id":"ce4bh3p2rcd13ifvqdq0","pricing_plan_id":"free"},{"bike_id":"2a9119d0-2146-4c5a-a61f-01d63e71adcf","system_id":"levelo_inurba_marseille","lat":43.295196,"lon":5.39397,"is_reserved":false,"is_disabled":false,"rental_uris":{"android":"levelo://app?vid=2a9119d0-2146-4c5a-a61f-01d63e71adcf","ios":"levelo://app?vid=2a9119d0-2146-4c5a-a61f-01d63e71adcf"},"vehicle_type_id":"4","last_reported":1703426735,"current_range_meters":17600,"station_id":"ce4bh292rcd13ifvqdf0","pricing_plan_id":"free"},{"bike_id":"bff52f1a-89a9-4182-a2a5-6248421f0fbb","system_id":"levelo_inurba_marseille","lat":43.290345,"lon":5.38646,"is_reserved":false,"is_disabled":false,"rental_uris":{"android":"levelo://app?vid=bff52f1a-89a9-4182-a2a5-6248421f0fbb","ios":"levelo://app?vid=bff52f1a-89a9-4182-a2a5-6248421f0fbb"},"vehicle_type_id":"4","last_reported":1703426735,"current_range_meters":28800,"station_id":"ce4bh4p2rcd13ifvqe0g","pricing_plan_id":"free"},{"bike_id":"b269c749-19b3-457a-9f11-021ccc443c55","system_id":"levelo_inurba_marseille","lat":43.286039,"lon":5.370679,"is_reserved":false,"is_disabled":false,"rental_uris":{"android":"levelo://app?vid=b269c749-19b3-457a-9f11-021ccc443c55","ios":"levelo://app?vid=b269c749-19b3-457a-9f11-021ccc443c55"},"vehicle_type_id":"4","last_reported":1703426735,"current_range_meters":12000,"station_id":"ce4bht12rcd13ifvqi60","pricing_plan_id":"free"},{"bike_id":"586088fd-686f-4d99-bd52-fdf5cd9b4477","system_id":"levelo_inurba_marseille","lat":43.287185,"lon":5.379373,"is_reserved":false,"is_disabled":false,"rental_uris":{"android":"levelo://app?vid=586088fd-686f-4d99-bd52-fdf5cd9b4477","ios":"levelo://app?vid=586088fd-686f-4d99-bd52-fdf5cd9b4477"},"vehicle_type_id":"4","last_reported":1703426735,"current_range_meters":23600,"station_id":"ce4bh9p2rcd13ifvqec0","pricing_plan_id":"free"},{"bike_id":"f4a9f8d6-1a1d-4d23-a195-107b25f14e03","system_id":"levelo_inurba_marseille","lat":43.291994,"lon":5.392907,"is_reserved":false,"is_disabled":false,"rental_uris":{"android":"levelo://app?vid=f4a9f8d6-1a1d-4d23-a195-107b25f14e03","ios":"levelo://app?vid=f4a9f8d6-1a1d-4d23-a195-107b25f14e03"},"vehicle_type_id":"4","last_reported":1703426735,"current_range_meters":19600,"station_id":"ce4bh192rcd13ifvqdd0","pricing_plan_id":"free"},{"bike_id":"0bb5fc14-d3b4-441c-af43-73dd06d35229","system_id":"levelo_inurba_marseille","lat":43.291994,"lon":5.392907,"is_reserved":false,"is_disabled":false,"rental_uris":{"android":"levelo://app?vid=0bb5fc14-d3b4-441c-af43-73dd06d35229","ios":"levelo://app?vid=0bb5fc14-d3b4-441c-af43-73dd06d35229"},"vehicle_type_id":"4","last_reported":1703426735,"current_range_meters":21600,"station_id":"ce4bh192rcd13ifvqdd0","pricing_plan_id":"free"},{"bike_id":"e2adfa7c-882e-48a1-9ee4-b36e6186ebbf","system_id":"levelo_inurba_marseille","lat":43.330912,"lon":5.396935,"is_reserved":false,"is_disabled":false,"rental_uris":{"android":"levelo://app?vid=e2adfa7c-882e-48a1-9ee4-b36e6186ebbf","ios":"levelo://app?vid=e2adfa7c-882e-48a1-9ee4-b36e6186ebbf"},"vehicle_type_id":"4","last_reported":1703426735,"current_range_meters":10400,"station_id":"","pricing_plan_id":"free"},{"bike_id":"a98a3403-27a8-4303-94b8-ec2a867b7921","system_id":"levelo_inurba_marseille","lat":43.284538,"lon":5.358657,"is_reserved":false,"is_disabled":false,"rental_uris":{"android":"levelo://app?vid=a98a3403-27a8-4303-94b8-ec2a867b7921","ios":"levelo://app?vid=a98a3403-27a8-4303-94b8-ec2a867b7921"},"vehicle_type_id":"4","last_reported":1703426735,"current_range_meters":14400,"station_id":"ce4bhah2rcd13ifvqei0","pricing_plan_id":"free"},{"bike_id":"757089ae-21e8-449d-92d3-5689451bcb47","system_id":"levelo_inurba_marseille","lat":43.284538,"lon":5.358657,"is_reserved":false,"is_disabled":false,"rental_uris":{"android":"levelo://app?vid=757089ae-21e8-449d-92d3-5689451bcb47","ios":"levelo://app?vid=757089ae-21e8-449d-92d3-5689451bcb47"},"vehicle_type_id":"4","last_reported":1703426735,"current_range_meters":26800,"station_id":"ce4bhah2rcd13ifvqei0","pricing_plan_id":"free"},{"bike_id":"8e4581cf-6ff7-4e15-9dcb-36bd55fb0470","system_id":"levelo_inurba_marseille","lat":43.294314,"lon":5.397498,"is_reserved":false,"is_disabled":false,"rental_uris":{"android":"levelo://app?vid=8e4581cf-6ff7-4e15-9dcb-36bd55fb0470","ios":"levelo://app?vid=8e4581cf-6ff7-4e15-9dcb-36bd55fb0470"},"vehicle_type_id":"4","last_reported":1703426735,"current_range_meters":29200,"station_id":"ce4bh3h2rcd13ifvqdo0","pricing_plan_id":"free"},{"bike_id":"6bf46765-8f7a-4fb6-a6f4-fa0a17f47ff8","system_id":"levelo_inurba_marseille","lat":43.285856,"lon":5.350771,"is_reserved":false,"is_disabled":false,"rental_uris":{"android":"levelo://app?vid=6bf46765-8f7a-4fb6-a6f4-fa0a17f47ff8","ios":"levelo://app?vid=6bf46765-8f7a-4fb6-a6f4-fa0a17f47ff8"},"vehicle_type_id":"4","last_reported":1703426735,"current_range_meters":15200,"station_id":"ce4bhch2rcd13ifvqeug","pricing_plan_id":"free"},{"bike_id":"083069fc-d174-4785-9758-dc145a0022f4","system_id":"levelo_inurba_marseille","lat":43.285848,"lon":5.350787,"is_reserved":false,"is_disabled":false,"rental_uris":{"android":"levelo://app?vid=083069fc-d174-4785-9758-dc145a0022f4","ios":"levelo://app?vid=083069fc-d174-4785-9758-dc145a0022f4"},"vehicle_type_id":"4","last_reported":1703426735,"current_range_meters":10800,"station_id":"ce4bhch2rcd13ifvqeug","pricing_plan_id":"free"},{"bike_id":"8858f503-9645-4246-941c-90962cdae6a0","system_id":"levelo_inurba_marseille","lat":43.283998,"lon":5.375062,"is_reserved":false,"is_disabled":false,"rental_uris":{"android":"levelo://app?vid=8858f503-9645-4246-941c-90962cdae6a0","ios":"levelo://app?vid=8858f503-9645-4246-941c-90962cdae6a0"},"vehicle_type_id":"4","last_reported":1703426735,"current_range_meters":18400,"station_id":"ce4bh412rcd13ifvqds0","pricing_plan_id":"free"},{"bike_id":"4d5d4d35-db76-40a0-a786-7c148aaeb2e3","system_id":"levelo_inurba_marseille","lat":43.286595,"lon":5.386795,"is_reserved":false,"is_disabled":false,"rental_uris":{"android":"levelo://app?vid=4d5d4d35-db76-40a0-a786-7c148aaeb2e3","ios":"levelo://app?vid=4d5d4d35-db76-40a0-a786-7c148aaeb2e3"},"vehicle_type_id":"4","last_reported":1703426735,"current_range_meters":23200,"station_id":"ce4bh492rcd13ifvqdug","pricing_plan_id":"free"},{"bike_id":"ff6ebe2d-10e0-4bee-8d5b-0d34d0573673","system_id":"levelo_inurba_marseille","lat":43.3372,"lon":5.39166,"is_reserved":false,"is_disabled":false,"rental_uris":{"android":"levelo://app?vid=ff6ebe2d-10e0-4bee-8d5b-0d34d0573673","ios":"levelo://app?vid=ff6ebe2d-10e0-4bee-8d5b-0d34d0573673"},"vehicle_type_id":"4","last_reported":1703426735,"current_range_meters":26000,"station_id":"ce4bhr92rcd13ifvqhsg","pricing_plan_id":"free"},{"bike_id":"e7c78373-2c44-40f9-b8d5-4445c05b40b0","system_id":"levelo_inurba_marseille","lat":43.323367,"lon":5.406136,"is_reserved":false,"is_disabled":false,"rental_uris":{"android":"levelo://app?vid=e7c78373-2c44-40f9-b8d5-4445c05b40b0","ios":"levelo://app?vid=e7c78373-2c44-40f9-b8d5-4445c05b40b0"},"vehicle_type_id":"4","last_reported":1703426735,"current_range_meters":9200,"station_id":"ce4bhq92rcd13ifvqhjg","pricing_plan_id":"free"},{"bike_id":"69752758-7c7b-4296-b45f-3ae2c0f3c131","system_id":"levelo_inurba_marseille","lat":43.323464,"lon":5.406297,"is_reserved":false,"is_disabled":false,"rental_uris":{"android":"levelo://app?vid=69752758-7c7b-4296-b45f-3ae2c0f3c131","ios":"levelo://app?vid=69752758-7c7b-4296-b45f-3ae2c0f3c131"},"vehicle_type_id":"4","last_reported":1703426735,"current_range_meters":31200,"station_id":"ce4bhq92rcd13ifvqhjg","pricing_plan_id":"free"},{"bike_id":"c20012ce-7a6a-4b25-9d7a-26d13866cd87","system_id":"levelo_inurba_marseille","lat":43.284793,"lon":5.384119,"is_reserved":false,"is_disabled":false,"rental_uris":{"android":"levelo://app?vid=c20012ce-7a6a-4b25-9d7a-26d13866cd87","ios":"levelo://app?vid=c20012ce-7a6a-4b25-9d7a-26d13866cd87"},"vehicle_type_id":"4","last_reported":1703426735,"current_range_meters":15200,"station_id":"ce4bh512rcd13ifvqe3g","pricing_plan_id":"free"},{"bike_id":"3cef5862-abcf-42c2-a6ea-831043749afa","system_id":"levelo_inurba_marseille","lat":43.284793,"lon":5.384119,"is_reserved":false,"is_disabled":false,"rental_uris":{"android":"levelo://app?vid=3cef5862-abcf-42c2-a6ea-831043749afa","ios":"levelo://app?vid=3cef5862-abcf-42c2-a6ea-831043749afa"},"vehicle_type_id":"4","last_reported":1703426735,"current_range_meters":26800,"station_id":"ce4bh512rcd13ifvqe3g","pricing_plan_id":"free"},{"bike_id":"231696c6-e7e7-4a8a-9d7b-e28398f2787b","system_id":"levelo_inurba_marseille","lat":43.284787,"lon":5.384116,"is_reserved":false,"is_disabled":false,"rental_uris":{"android":"levelo://app?vid=231696c6-e7e7-4a8a-9d7b-e28398f2787b","ios":"levelo://app?vid=231696c6-e7e7-4a8a-9d7b-e28398f2787b"},"vehicle_type_id":"4","last_reported":1703426735,"current_range_meters":14800,"station_id":"ce4bh512rcd13ifvqe3g","pricing_plan_id":"free"},{"bike_id":"d6c91a85-fc08-40d6-aaac-fedd7886b753","system_id":"levelo_inurba_marseille","lat":43.29795,"lon":5.404086,"is_reserved":false,"is_disabled":false,"rental_uris":{"android":"levelo://app?vid=d6c91a85-fc08-40d6-aaac-fedd7886b753","ios":"levelo://app?vid=d6c91a85-fc08-40d6-aaac-fedd7886b753"},"vehicle_type_id":"4","last_reported":1703426735,"current_range_meters":22000,"station_id":"ce4bh112rcd13ifvqd90","pricing_plan_id":"free"},{"bike_id":"86dc89c9-0364-44e4-bb7a-f346457e26c8","system_id":"levelo_inurba_marseille","lat":43.284219,"lon":5.3497,"is_reserved":false,"is_disabled":false,"rental_uris":{"android":"levelo://app?vid=86dc89c9-0364-44e4-bb7a-f346457e26c8","ios":"levelo://app?vid=86dc89c9-0364-44e4-bb7a-f346457e26c8"},"vehicle_type_id":"4","last_reported":1703426735,"current_range_meters":27600,"station_id":"ce4bhbh2rcd13ifvqepg","pricing_plan_id":"free"},{"bike_id":"1c4a691f-0efb-4f48-a5ff-f849391f521e","system_id":"levelo_inurba_marseille","lat":43.284219,"lon":5.3497,"is_reserved":false,"is_disabled":false,"rental_uris":{"android":"levelo://app?vid=1c4a691f-0efb-4f48-a5ff-f849391f521e","ios":"levelo://app?vid=1c4a691f-0efb-4f48-a5ff-f849391f521e"},"vehicle_type_id":"4","last_reported":1703426735,"current_range_meters":19200,"station_id":"ce4bhbh2rcd13ifvqepg","pricing_plan_id":"free"},{"bike_id":"86863c32-0efe-400e-b0a6-1204cd8fa3d3","system_id":"levelo_inurba_marseille","lat":43.284217,"lon":5.349697,"is_reserved":false,"is_disabled":false,"rental_uris":{"android":"levelo://app?vid=86863c32-0efe-400e-b0a6-1204cd8fa3d3","ios":"levelo://app?vid=86863c32-0efe-400e-b0a6-1204cd8fa3d3"},"vehicle_type_id":"4","last_reported":1703426735,"current_range_meters":11200,"station_id":"ce4bhbh2rcd13ifvqepg","pricing_plan_id":"free"},{"bike_id":"d111a0d7-2f68-43b2-bc87-96231e84c6db","system_id":"levelo_inurba_marseille","lat":43.284214,"lon":5.349706,"is_reserved":false,"is_disabled":false,"rental_uris":{"android":"levelo://app?vid=d111a0d7-2f68-43b2-bc87-96231e84c6db","ios":"levelo://app?vid=d111a0d7-2f68-43b2-bc87-96231e84c6db"},"vehicle_type_id":"4","last_reported":1703426735,"current_range_meters":29200,"station_id":"ce4bhbh2rcd13ifvqepg","pricing_plan_id":"free"},{"bike_id":"921b424d-ad0d-4c7a-9d74-66e3a49bfa19","system_id":"levelo_inurba_marseille","lat":43.33456,"lon":5.39814,"is_reserved":false,"is_disabled":false,"rental_uris":{"android":"levelo://app?vid=921b424d-ad0d-4c7a-9d74-66e3a49bfa19","ios":"levelo://app?vid=921b424d-ad0d-4c7a-9d74-66e3a49bfa19"},"vehicle_type_id":"4","last_reported":1703426735,"current_range_meters":28800,"station_id":"","pricing_plan_id":"free"},{"bike_id":"7244b12c-a4ed-4fcc-a53c-0222ae84e7e2","system_id":"levelo_inurba_marseille","lat":43.33459,"lon":5.39822,"is_reserved":false,"is_disabled":false,"rental_uris":{"android":"levelo://app?vid=7244b12c-a4ed-4fcc-a53c-0222ae84e7e2","ios":"levelo://app?vid=7244b12c-a4ed-4fcc-a53c-0222ae84e7e2"},"vehicle_type_id":"4","last_reported":1703426735,"current_range_meters":28800,"station_id":"","pricing_plan_id":"free"},{"bike_id":"6d137ffe-4ff0-40c3-857c-04cecd8f74c8","system_id":"levelo_inurba_marseille","lat":43.292724,"lon":5.401131,"is_reserved":false,"is_disabled":false,"rental_uris":{"android":"levelo://app?vid=6d137ffe-4ff0-40c3-857c-04cecd8f74c8","ios":"levelo://app?vid=6d137ffe-4ff0-40c3-857c-04cecd8f74c8"},"vehicle_type_id":"4","last_reported":1703426735,"current_range_meters":30400,"station_id":"ce4bh312rcd13ifvqdk0","pricing_plan_id":"free"},{"bike_id":"80a54f58-fd29-4f4c-926a-395e8ec25277","system_id":"levelo_inurba_marseille","lat":43.292724,"lon":5.401131,"is_reserved":false,"is_disabled":false,"rental_uris":{"android":"levelo://app?vid=80a54f58-fd29-4f4c-926a-395e8ec25277","ios":"levelo://app?vid=80a54f58-fd29-4f4c-926a-395e8ec25277"},"vehicle_type_id":"4","last_reported":1703426735,"current_range_meters":3200,"station_id":"ce4bh312rcd13ifvqdk0","pricing_plan_id":"free"},{"bike_id":"491b7ab6-184d-4075-9bd3-211d1e26673c","system_id":"levelo_inurba_marseille","lat":43.292724,"lon":5.401131,"is_reserved":false,"is_disabled":false,"rental_uris":{"android":"levelo://app?vid=491b7ab6-184d-4075-9bd3-211d1e26673c","ios":"levelo://app?vid=491b7ab6-184d-4075-9bd3-211d1e26673c"},"vehicle_type_id":"4","last_reported":1703426735,"current_range_meters":26400,"station_id":"ce4bh312rcd13ifvqdk0","pricing_plan_id":"free"},{"bike_id":"7ef5de41-f760-4206-8570-b1f4196ee5df","system_id":"levelo_inurba_marseille","lat":43.292724,"lon":5.401131,"is_reserved":false,"is_disabled":false,"rental_uris":{"android":"levelo://app?vid=7ef5de41-f760-4206-8570-b1f4196ee5df","ios":"levelo://app?vid=7ef5de41-f760-4206-8570-b1f4196ee5df"},"vehicle_type_id":"4","last_reported":1703426735,"current_range_meters":14000,"station_id":"ce4bh312rcd13ifvqdk0","pricing_plan_id":"free"},{"bike_id":"7758246c-5120-46ce-8735-64c9f1b6f27e","system_id":"levelo_inurba_marseille","lat":43.282687,"lon":5.350727,"is_reserved":false,"is_disabled":false,"rental_uris":{"android":"levelo://app?vid=7758246c-5120-46ce-8735-64c9f1b6f27e","ios":"levelo://app?vid=7758246c-5120-46ce-8735-64c9f1b6f27e"},"vehicle_type_id":"4","last_reported":1703426735,"current_range_meters":12800,"station_id":"ce4bhbp2rcd13ifvqerg","pricing_plan_id":"free"},{"bike_id":"65b1cb01-f4d3-4635-af49-6f165f576a5b","system_id":"levelo_inurba_marseille","lat":43.28268,"lon":5.35074,"is_reserved":false,"is_disabled":false,"rental_uris":{"android":"levelo://app?vid=65b1cb01-f4d3-4635-af49-6f165f576a5b","ios":"levelo://app?vid=65b1cb01-f4d3-4635-af49-6f165f576a5b"},"vehicle_type_id":"4","last_reported":1703426735,"current_range_meters":24000,"station_id":"ce4bhbp2rcd13ifvqerg","pricing_plan_id":"free"},{"bike_id":"30769cd1-63dc-4830-a5f8-48f681c6e878","system_id":"levelo_inurba_marseille","lat":43.28267,"lon":5.35069,"is_reserved":false,"is_disabled":false,"rental_uris":{"android":"levelo://app?vid=30769cd1-63dc-4830-a5f8-48f681c6e878","ios":"levelo://app?vid=30769cd1-63dc-4830-a5f8-48f681c6e878"},"vehicle_type_id":"4","last_reported":1703426735,"current_range_meters":23200,"station_id":"ce4bhbp2rcd13ifvqerg","pricing_plan_id":"free"},{"bike_id":"173cbcf9-c33a-4cf9-a128-6bb6a2ba43b0","system_id":"levelo_inurba_marseille","lat":43.28263,"lon":5.35069,"is_reserved":false,"is_disabled":false,"rental_uris":{"android":"levelo://app?vid=173cbcf9-c33a-4cf9-a128-6bb6a2ba43b0","ios":"levelo://app?vid=173cbcf9-c33a-4cf9-a128-6bb6a2ba43b0"},"vehicle_type_id":"4","last_reported":1703426735,"current_range_meters":22800,"station_id":"ce4bhbp2rcd13ifvqerg","pricing_plan_id":"free"},{"bike_id":"17021328-c747-4fa7-90d2-20eda9ac5ed6","system_id":"levelo_inurba_marseille","lat":43.280382,"lon":5.369291,"is_reserved":false,"is_disabled":false,"rental_uris":{"android":"levelo://app?vid=17021328-c747-4fa7-90d2-20eda9ac5ed6","ios":"levelo://app?vid=17021328-c747-4fa7-90d2-20eda9ac5ed6"},"vehicle_type_id":"4","last_reported":1703426735,"current_range_meters":26800,"station_id":"ce4bha12rcd13ifvqef0","pricing_plan_id":"free"},{"bike_id":"a86f153a-aebe-42fe-a221-c21e0adf786c","system_id":"levelo_inurba_marseille","lat":43.280382,"lon":5.369291,"is_reserved":false,"is_disabled":false,"rental_uris":{"android":"levelo://app?vid=a86f153a-aebe-42fe-a221-c21e0adf786c","ios":"levelo://app?vid=a86f153a-aebe-42fe-a221-c21e0adf786c"},"vehicle_type_id":"4","last_reported":1703426735,"current_range_meters":31200,"station_id":"ce4bha12rcd13ifvqef0","pricing_plan_id":"free"},{"bike_id":"db4a197a-ff4d-4607-b565-d8baba4d7fc0","system_id":"levelo_inurba_marseille","lat":43.29041,"lon":5.399634,"is_reserved":false,"is_disabled":false,"rental_uris":{"android":"levelo://app?vid=db4a197a-ff4d-4607-b565-d8baba4d7fc0","ios":"levelo://app?vid=db4a197a-ff4d-4607-b565-d8baba4d7fc0"},"vehicle_type_id":"4","last_reported":1703426735,"current_range_meters":30000,"station_id":"ce4bh392rcd13ifvqdm0","pricing_plan_id":"free"},{"bike_id":"d19bad62-cffb-4832-94c6-928e671f2c94","system_id":"levelo_inurba_marseille","lat":43.296263,"lon":5.40601,"is_reserved":false,"is_disabled":false,"rental_uris":{"android":"levelo://app?vid=d19bad62-cffb-4832-94c6-928e671f2c94","ios":"levelo://app?vid=d19bad62-cffb-4832-94c6-928e671f2c94"},"vehicle_type_id":"4","last_reported":1703426735,"current_range_meters":31200,"station_id":"ce4bh0h2rcd13ifvqd60","pricing_plan_id":"free"},{"bike_id":"410deba4-18c0-418d-a4c1-889b17cb0e7a","system_id":"levelo_inurba_marseille","lat":43.281044,"lon":5.378308,"is_reserved":false,"is_disabled":false,"rental_uris":{"android":"levelo://app?vid=410deba4-18c0-418d-a4c1-889b17cb0e7a","ios":"levelo://app?vid=410deba4-18c0-418d-a4c1-889b17cb0e7a"},"vehicle_type_id":"4","last_reported":1703426735,"current_range_meters":28000,"station_id":"ce4bha12rcd13ifvqee0","pricing_plan_id":"free"},{"bike_id":"1ba6c778-8b8b-48d7-ab43-fda635ffd1d1","system_id":"levelo_inurba_marseille","lat":43.296263,"lon":5.40601,"is_reserved":false,"is_disabled":false,"rental_uris":{"android":"levelo://app?vid=1ba6c778-8b8b-48d7-ab43-fda635ffd1d1","ios":"levelo://app?vid=1ba6c778-8b8b-48d7-ab43-fda635ffd1d1"},"vehicle_type_id":"4","last_reported":1703426735,"current_range_meters":22800,"station_id":"ce4bh0h2rcd13ifvqd60","pricing_plan_id":"free"},{"bike_id":"ebc05b82-bea7-4e39-86cc-a86201d1ecf6","system_id":"levelo_inurba_marseille","lat":43.28573,"lon":5.394992,"is_reserved":false,"is_disabled":false,"rental_uris":{"android":"levelo://app?vid=ebc05b82-bea7-4e39-86cc-a86201d1ecf6","ios":"levelo://app?vid=ebc05b82-bea7-4e39-86cc-a86201d1ecf6"},"vehicle_type_id":"4","last_reported":1703426735,"current_range_meters":13600,"station_id":"ce4bh292rcd13ifvqdg0","pricing_plan_id":"free"},{"bike_id":"4ecea232-90ad-46aa-84b7-a2ae21bd08da","system_id":"levelo_inurba_marseille","lat":43.304188,"lon":5.412904,"is_reserved":false,"is_disabled":false,"rental_uris":{"android":"levelo://app?vid=4ecea232-90ad-46aa-84b7-a2ae21bd08da","ios":"levelo://app?vid=4ecea232-90ad-46aa-84b7-a2ae21bd08da"},"vehicle_type_id":"4","last_reported":1703426735,"current_range_meters":18400,"station_id":"ce4bhop2rcd13ifvqh8g","pricing_plan_id":"free"},{"bike_id":"e8747a71-f1dd-45b2-ac13-159383f4eaae","system_id":"levelo_inurba_marseille","lat":43.287027,"lon":5.399977,"is_reserved":false,"is_disabled":false,"rental_uris":{"android":"levelo://app?vid=e8747a71-f1dd-45b2-ac13-159383f4eaae","ios":"levelo://app?vid=e8747a71-f1dd-45b2-ac13-159383f4eaae"},"vehicle_type_id":"4","last_reported":1703426735,"current_range_meters":16800,"station_id":"ce4bho92rcd13ifvqh3g","pricing_plan_id":"free"},{"bike_id":"0ae6f4aa-d214-48ae-8677-df7f2a6f8782","system_id":"levelo_inurba_marseille","lat":43.320045,"lon":5.415048,"is_reserved":false,"is_disabled":false,"rental_uris":{"android":"levelo://app?vid=0ae6f4aa-d214-48ae-8677-df7f2a6f8782","ios":"levelo://app?vid=0ae6f4aa-d214-48ae-8677-df7f2a6f8782"},"vehicle_type_id":"4","last_reported":1703426735,"current_range_meters":24800,"station_id":"ce4bhq92rcd13ifvqhkg","pricing_plan_id":"free"},{"bike_id":"251f135d-a8e9-434d-a020-d204b71cbba3","system_id":"levelo_inurba_marseille","lat":43.27618,"lon":5.361009,"is_reserved":false,"is_disabled":false,"rental_uris":{"android":"levelo://app?vid=251f135d-a8e9-434d-a020-d204b71cbba3","ios":"levelo://app?vid=251f135d-a8e9-434d-a020-d204b71cbba3"},"vehicle_type_id":"4","last_reported":1703426735,"current_range_meters":19600,"station_id":"ce4bgj92rcd13ifvqbe0","pricing_plan_id":"free"},{"bike_id":"b857871a-8b1a-485a-88c8-83ec663e2f69","system_id":"levelo_inurba_marseille","lat":43.27618,"lon":5.361009,"is_reserved":false,"is_disabled":false,"rental_uris":{"android":"levelo://app?vid=b857871a-8b1a-485a-88c8-83ec663e2f69","ios":"levelo://app?vid=b857871a-8b1a-485a-88c8-83ec663e2f69"},"vehicle_type_id":"4","last_reported":1703426735,"current_range_meters":21200,"station_id":"ce4bgj92rcd13ifvqbe0","pricing_plan_id":"free"},{"bike_id":"43a334d7-8b6f-4618-b375-e76313f3ba98","system_id":"levelo_inurba_marseille","lat":43.325233,"lon":5.414318,"is_reserved":false,"is_disabled":false,"rental_uris":{"android":"levelo://app?vid=43a334d7-8b6f-4618-b375-e76313f3ba98","ios":"levelo://app?vid=43a334d7-8b6f-4618-b375-e76313f3ba98"},"vehicle_type_id":"4","last_reported":1703426735,"current_range_meters":26400,"station_id":"ce4bhq12rcd13ifvqhhg","pricing_plan_id":"free"},