{"last_updated":1740438559,"ttl":60,"version":"2.2","data":{"bikes":[{"bike_id":"bfc97526-62a2-48cb-99f3-1b18aa89fa06","system_id":"levelo_inurba_marseille","lat":43.23187,"lon":5.39998,"is_reserved":false,"is_disabled":false,"rental_uris":{"android":"levelo://app?vid=bfc97526-62a2-48cb-99f3-1b18aa89fa06","ios":"levelo://app?vid=bfc97526-62a2-48cb-99f3-1b18aa89fa06"},"vehicle_type_id":"4","last_reported":1740438559,"current_range_meters":2800,"station_id":"ce4bhn12rcd13ifvqgqg","pricing_plan_id":"cebpf4jnsgd1na2vs0mg"},{"bike_id":"50a03b29-b76f-4fb2-91d7-00d2a75d785c","system_id":"levelo_inurba_marseille","lat":43.2927,"lon":5.37628,"is_reserved":false,"is_disabled":true,"rental_uris":{"android":"levelo://app?vid=50a03b29-b76f-4fb2-91d7-00d2a75d785c","ios":"levelo://app?vid=50a03b29-b76f-4fb2-91d7-00d2a75d785c"},"vehicle_type_id":"4","last_reported":1740438559,"current_range_meters":2800,"station_id":"ce4bgi12rcd13ifvqb80","pricing_plan_id":"cebpf4jnsgd1na2vs0mg"},{"bike_id":"413dc171-4546-4050-9354-c607ae4433bf","system_id":"levelo_inurba_marseille","lat":43.30146,"lon":5.3961,"is_reserved":false,"is_disabled":true,"rental_uris":{"android":"levelo://app?vid=413dc171-4546-4050-9354-c607ae4433bf","ios":"levelo://app?vid=413dc171-4546-4050-9354-c607ae4433bf"},"vehicle_type_id":"4","last_reported":1740438559,"current_range_meters":3200,"station_id":"","pricing_plan_id":"cebpf4jnsgd1na2vs0mg"},{"bike_id":"765fc17e-e50a-4f0b-83ff-e89b8206b447","system_id":"levelo_inurba_marseille","lat":43.28078,"lon":5.39647,"is_reserved":false,"is_disabled":true,"rental_uris":{"android":"levelo://app?vid=765fc17e-e50a-4f0b-83ff-e89b8206b447","ios":"levelo://app?vid=765fc17e-e50a-4f0b-83ff-e89b8206b447"},"vehicle_type_id":"4","last_reported":1740438559,"current_range_meters":3600,"station_id":"ce4bho12rcd13ifvqh2g","pricing_plan_id":"cebpf4jnsgd1na2vs0mg"},{"bike_id":"8c39fbcb-bc41-49a9-ad4d-cc55d2a50515","system_id":"levelo_inurba_marseille","lat":43.29509,"lon":5.39039,"is_reserved":false,"is_disabled":true,"rental_uris":{"android":"levelo://app?vid=8c39fbcb-bc41-49a9-ad4d-cc55d2a50515","ios":"levelo://app?vid=8c39fbcb-bc41-49a9-ad4d-cc55d2a50515"},"vehicle_type_id":"4","last_reported":1740438559,"current_range_meters":4000,"station_id":"ce4bh3p2rcd13ifvqdp0","pricing_plan_id":"cebpf4jnsgd1na2vs0mg"},{"bike_id":"b609ced8-e52f-4c2f-a3d6-07b4933dd33b","system_id":"levelo_inurba_marseille","lat":43.26228,"lon":5.40457,"is_reserved":false,"is_disabled":false,"rental_uris":{"android":"levelo://app?vid=b609ced8-e52f-4c2f-a3d6-07b4933dd33b","ios":"levelo://app?vid=b609ced8-e52f-4c2f-a3d6-07b4933dd33b"},"vehicle_type_id":"4","last_reported":1740438559,"current_range_meters":4000,"station_id":"ce4bhmh2rcd13ifvqgmg","pricing_plan_id":"cebpf4jnsgd1na2vs0mg"},{"bike_id":"76b417ec-d64b-4105-bb54-e1299d1ff102","system_id":"levelo_inurba_marseille","lat":43.27955,"lon":5.41041,"is_reserved":false,"is_disabled":true,"rental_uris":{"android":"levelo://app?vid=76b417ec-d64b-4105-bb54-e1299d1ff102","ios":"levelo://app?vid=76b417ec-d64b-4105-bb54-e1299d1ff102"},"vehicle_type_id":"4","last_reported":1740438559,"current_range_meters":4400,"station_id":"ce4bhnp2rcd13ifvqh0g","pricing_plan_id":"cebpf4jnsgd1na2vs0mg"},{"bike_id":"665af2df-6860-409b-8f65-24d6bda5fd47","system_id":"levelo_inurba_marseille","lat":43.26522,"lon":5.39063,"is_reserved":false,"is_disabled":false,"rental_uris":{"android":"levelo://app?vid=665af2df-6860-409b-8f65-24d6bda5fd47","ios":"levelo://app?vid=665af2df-6860-409b-8f65-24d6bda5fd47"},"vehicle_type_id":"4","last_reported":1740438559,"current_range_meters":4800,"station_id":"ce4bhe12rcd13ifvqf30","pricing_plan_id":"cebpf4jnsgd1na2vs0mg"},{"bike_id":"97d726ed-4183-4544-8274-4d89eaa2f547","system_id":"levelo_inurba_marseille","lat":43.2572,"lon":5.41108,"is_reserved":false,"is_disabled":false,"rental_uris":{"android":"levelo://app?vid=97d726ed-4183-4544-8274-4d89eaa2f547","ios":"levelo://app?vid=97d726ed-4183-4544-8274-4d89eaa2f547"},"vehicle_type_id":"4","last_reported":1740438559,"current_range_meters":6000,"station_id":"ce4bhkp2rcd13ifvqgd0","pricing_plan_id":"cebpf4jnsgd1na2vs0mg"},{"bike_id":"16a64962-c840-403e-8215-260ce50518b7","system_id":"levelo_inurba_marseille","lat":43.28173,"lon":5.42634,"is_reserved":false,"is_disabled":true,"rental_uris":{"android":"levelo://app?vid=16a64962-c840-403e-8215-260ce50518b7","ios":"levelo://app?vid=16a64962-c840-403e-8215-260ce50518b7"},"vehicle_type_id":"4","last_reported":1740438559,"current_range_meters":6400,"station_id":"ce4bhnh2rcd13ifvqgug","pricing_plan_id":"cebpf4jnsgd1na2vs0mg"},{"bike_id":"0423d920-4043-4652-b688-10bf2d3098cd","system_id":"levelo_inurba_marseille","lat":43.25557,"lon":5.38219,"is_reserved":false,"is_disabled":false,"rental_uris":{"android":"levelo://app?vid=0423d920-4043-4652-b688-10bf2d3098cd","ios":"levelo://app?vid=0423d920-4043-4652-b688-10bf2d3098cd"},"vehicle_type_id":"4","last_reported":1740438559,"current_range_meters":6000,"station_id":"ce4bhih2rcd13ifvqfs0","pricing_plan_id":"cebpf4jnsgd1na2vs0mg"},{"bike_id":"4bdb11ed-2e69-4a29-89f4-73b2de8e29b1","system_id":"levelo_inurba_marseille","lat":43.24582,"lon":5.39492,"is_reserved":false,"is_disabled":false,"rental_uris":{"android":"levelo://app?vid=4bdb11ed-2e69-4a29-89f4-73b2de8e29b1","ios":"levelo://app?vid=4bdb11ed-2e69-4a29-89f4-73b2de8e29b1"},"vehicle_type_id":"4","last_reported":1740438559,"current_range_meters":6000,"station_id":"ce4bhlp2rcd13ifvqgjg","pricing_plan_id":"cebpf4jnsgd1na2vs0mg"},{"bike_id":"80655659-a270-46de-a2c1-6ad4df112438","system_id":"levelo_inurba_marseille","lat":43.2567,"lon":5.4189,"is_reserved":false,"is_disabled":false,"rental_uris":{"android":"levelo://app?vid=80655659-a270-46de-a2c1-6ad4df112438","ios":"levelo://app?vid=80655659-a270-46de-a2c1-6ad4df112438"},"vehicle_type_id":"4","last_reported":1740438559,"current_range_meters":6400,"station_id":"","pricing_plan_id":"cebpf4jnsgd1na2vs0mg"},{"bike_id":"7764cb33-5426-4b94-909c-ac480986db17","system_id":"levelo_inurba_marseille","lat":43.28709,"lon":5.37926,"is_reserved":false,"is_disabled":false,"rental_uris":{"android":"levelo://app?vid=7764cb33-5426-4b94-909c-ac480986db17","ios":"levelo://app?vid=7764cb33-5426-4b94-909c-ac480986db17"},"vehicle_type_id":"4","last_reported":1740438559,"current_range_meters":6400,"station_id":"ce4bh9p2rcd13ifvqec0","pricing_plan_id":"cebpf4jnsgd1na2vs0mg"},{"bike_id":"3e3bde6f-8dc0-41cf-8fe6-f850e893e1da","system_id":"levelo_inurba_marseille","lat":43.27943,"lon":5.4104,"is_reserved":false,"is_disabled":false,"rental_uris":{"android":"levelo://app?vid=3e3bde6f-8dc0-41cf-8fe6-f850e893e1da","ios":"levelo://app?vid=3e3bde6f-8dc0-41cf-8fe6-f850e893e1da"},"vehicle_type_id":"4","last_reported":1740438559,"current_range_meters":6800,"station_id":"ce4bhnp2rcd13ifvqh0g","pricing_plan_id":"cebpf4jnsgd1na2vs0mg"},{"bike_id":"96abab4b-c5af-4f9f-ae32-aba47129cb81","system_id":"levelo_inurba_marseille","lat":43.26205,"lon":5.40452,"is_reserved":false,"is_disabled":false,"rental_uris":{"android":"levelo://app?vid=96abab4b-c5af-4f9f-ae32-aba47129cb81","ios":"levelo://app?vid=96abab4b-c5af-4f9f-ae32-aba47129cb81"},"vehicle_type_id":"4","last_reported":1740438559,"current_range_meters":6800,"station_id":"ce4bhmh2rcd13ifvqgmg","pricing_plan_id":"cebpf4jnsgd1na2vs0mg"},{"bike_id":"4e76829f-70cf-4d94-80fd-c186bc55f908","system_id":"levelo_inurba_marseille","lat":43.27975,"lon":5.41644,"is_reserved":false,"is_disabled":false,"rental_uris":{"android":"levelo://app?vid=4e76829f-70cf-4d94-80fd-c186bc55f908","ios":"levelo://app?vid=4e76829f-70cf-4d94-80fd-c186bc55f908"},"vehicle_type_id":"4","last_reported":1740438559,"current_range_meters":6800,"station_id":"ce4bho12rcd13ifvqh1g","pricing_plan_id":"cebpf4jnsgd1na2vs0mg"},{"bike_id":"bddf8e7b-3da7-4773-b7ae-9c6dd1337414","system_id":"levelo_inurba_marseille","lat":43.2815,"lon":5.42642,"is_reserved":false,"is_disabled":false,"rental_uris":{"android":"levelo://app?vid=bddf8e7b-3da7-4773-b7ae-9c6dd1337414","ios":"levelo://app?vid=bddf8e7b-3da7-4773-b7ae-9c6dd1337414"},"vehicle_type_id":"4","last_reported":1740438559,"current_range_meters":7200,"station_id":"ce4bhnh2rcd13ifvqgug","pricing_plan_id":"cebpf4jnsgd1na2vs0mg"},{"bike_id":"59422e92-f9f1-4326-97e8-7da3700ed321","system_id":"levelo_inurba_marseille","lat":43.264946,"lon":5.39541,"is_reserved":false,"is_disabled":false,"rental_uris":{"android":"levelo://app?vid=59422e92-f9f1-4326-97e8-7da3700ed321","ios":"levelo://app?vid=59422e92-f9f1-4326-97e8-7da3700ed321"},"vehicle_type_id":"4","last_reported":1740438559,"current_range_meters":7200,"station_id":"ce4bh312rcd13ifvqdj0","pricing_plan_id":"cebpf4jnsgd1na2vs0mg"},{"bike_id":"b22210a8-39d2-4335-8081-378ea15fc938","system_id":"levelo_inurba_marseille","lat":43.29019,"lon":5.38129,"is_reserved":false,"is_disabled":false,"rental_uris":{"android":"levelo://app?vid=b22210a8-39d2-4335-8081-378ea15fc938","ios":"levelo://app?vid=b22210a8-39d2-4335-8081-378ea15fc938"},"vehicle_type_id":"4","last_reported":1740438559,"current_range_meters":7200,"station_id":"ce4bh4p2rcd13ifvqe1g","pricing_plan_id":"cebpf4jnsgd1na2vs0mg"},{"bike_id":"9912bd3b-182f-467c-92db-65e052c11af3","system_id":"levelo_inurba_marseille","lat":43.24259,"lon":5.43839,"is_reserved":false,"is_disabled":false,"rental_uris":{"android":"levelo://app?vid=9912bd3b-182f-467c-92db-65e052c11af3","ios":"levelo://app?vid=9912bd3b-182f-467c-92db-65e052c11af3"},"vehicle_type_id":"4","last_reported":1740438559,"current_range_meters":7200,"station_id":"","pricing_plan_id":"cebpf4jnsgd1na2vs0mg"},{"bike_id":"079ede2b-32fe-4362-bd93-5c53508ec4a3","system_id":"levelo_inurba_marseille","lat":43.3238,"lon":5.38887,"is_reserved":false,"is_disabled":false,"rental_uris":{"android":"levelo://app?vid=079ede2b-32fe-4362-bd93-5c53508ec4a3","ios":"levelo://app?vid=079ede2b-32fe-4362-bd93-5c53508ec4a3"},"vehicle_type_id":"4","last_reported":1740438559,"current_range_meters":7200,"station_id":"ce4bhqp2rcd13ifvqhog","pricing_plan_id":"cebpf4jnsgd1na2vs0mg"},{"bike_id":"2ce5a7a3-ebc5-4542-8581-83c42fa52a52","system_id":"levelo_inurba_marseille","lat":43.30942,"lon":5.3903,"is_reserved":false,"is_disabled":true,"rental_uris":{"android":"levelo://app?vid=2ce5a7a3-ebc5-4542-8581-83c42fa52a52","ios":"levelo://app?vid=2ce5a7a3-ebc5-4542-8581-83c42fa52a52"},"vehicle_type_id":"4","last_reported":1740438559,"current_range_meters":8000,"station_id":"ce4bgup2rcd13ifvqco0","pricing_plan_id":"cebpf4jnsgd1na2vs0mg"},{"bike_id":"735470d2-1397-44a5-b56e-f70aa7aef316","system_id":"levelo_inurba_marseille","lat":43.25112,"lon":5.40323,"is_reserved":false,"is_disabled":false,"rental_uris":{"android":"levelo://app?vid=735470d2-1397-44a5-b56e-f70aa7aef316","ios":"levelo://app?vid=735470d2-1397-44a5-b56e-f70aa7aef316"},"vehicle_type_id":"4","last_reported":1740438559,"current_range_meters":1600,"station_id":"ce4bhlh2rcd13ifvqgig","pricing_plan_id":"cebpf4jnsgd1na2vs0mg"},{"bike_id":"4c676afd-aabb-48c7-9c62-f89205cd3f4a","system_id":"levelo_inurba_marseille","lat":43.27821,"lon":5.40698,"is_reserved":false,"is_disabled":false,"rental_uris":{"android":"levelo://app?vid=4c676afd-aabb-48c7-9c62-f89205cd3f4a","ios":"levelo://app?vid=4c676afd-aabb-48c7-9c62-f89205cd3f4a"},"vehicle_type_id":"4","last_reported":1740438559,"current_range_meters":8000,"station_id":"ce4bhnh2rcd13ifvqgtg","pricing_plan_id":"cebpf4jnsgd1na2vs0mg"},{"bike_id":"f3e2d31b-bf16-4d93-8358-e1b5fc69cdb1","system_id":"levelo_inurba_marseille","lat":43.28087,"lon":5.39892,"is_reserved":false,"is_disabled":false,"rental_uris":{"android":"levelo://app?vid=f3e2d31b-bf16-4d93-8358-e1b5fc69cdb1","ios":"levelo://app?vid=f3e2d31b-bf16-4d93-8358-e1b5fc69cdb1"},"vehicle_type_id":"4","last_reported":1740438559,"current_range_meters":8000,"station_id":"","pricing_plan_id":"cebpf4jnsgd1na2vs0mg"},{"bike_id":"17da1feb-9abe-4e1d-9544-5a842d8f1b8a","system_id":"levelo_inurba_marseille","lat":43.27802,"lon":5.40691,"is_reserved":false,"is_disabled":false,"rental_uris":{"android":"levelo://app?vid=17da1feb-9abe-4e1d-9544-5a842d8f1b8a","ios":"levelo://app?vid=17da1feb-9abe-4e1d-9544-5a842d8f1b8a"},"vehicle_type_id":"4","last_reported":1740438559,"current_range_meters":8400,"station_id":"ce4bhnh2rcd13ifvqgtg","pricing_plan_id":"cebpf4jnsgd1na2vs0mg"},{"bike_id":"87bbda1f-0db0-4d79-a046-a87b5e94995a","system_id":"levelo_inurba_marseille","lat":43.24168,"lon":5.36404,"is_reserved":false,"is_disabled":false,"rental_uris":{"android":"levelo://app?vid=87bbda1f-0db0-4d79-a046-a87b5e94995a","ios":"levelo://app?vid=87bbda1f-0db0-4d79-a046-a87b5e94995a"},"vehicle_type_id":"4","last_reported":1740438559,"current_range_meters":8400,"station_id":"cpo36qri1sfpv3e86is0","pricing_plan_id":"cebpf4jnsgd1na2vs0mg"},{"bike_id":"5f618fd8-4c1d-4b98-9d96-80413e9c5e2b","system_id":"levelo_inurba_marseille","lat":43.32344,"lon":5.40609,"is_reserved":false,"is_disabled":true,"rental_uris":{"android":"levelo://app?vid=5f618fd8-4c1d-4b98-9d96-80413e9c5e2b","ios":"levelo://app?vid=5f618fd8-4c1d-4b98-9d96-80413e9c5e2b"},"vehicle_type_id":"4","last_reported":1740438559,"current_range_meters":8400,"station_id":"ce4bhq92rcd13ifvqhjg","pricing_plan_id":"cebpf4jnsgd1na2vs0mg"},{"bike_id":"f80a79d6-1c74-4e76-8ed2-23203ade1d35","system_id":"levelo_inurba_marseille","lat":43.2781,"lon":5.40654,"is_reserved":false,"is_disabled":false,"rental_uris":{"android":"levelo://app?vid=f80a79d6-1c74-4e76-8ed2-23203ade1d35","ios":"levelo://app?vid=f80a79d6-1c74-4e76-8ed2-23203ade1d35"},"vehicle_type_id":"4","last_reported":1740438559,"current_range_meters":8400,"station_id":"","pricing_plan_id":"cebpf4jnsgd1na2vs0mg"},{"bike_id":"b2e3ecc5-9178-4f96-a507-539eb2bf82c4","system_id":"levelo_inurba_marseille","lat":43.32361,"lon":5.38877,"is_reserved":false,"is_disabled":false,"rental_uris":{"android":"levelo://app?vid=b2e3ecc5-9178-4f96-a507-539eb2bf82c4","ios":"levelo://app?vid=b2e3ecc5-9178-4f96-a507-539eb2bf82c4"},"vehicle_type_id":"4","last_reported":1740438559,"current_range_meters":8400,"station_id":"ce4bhqp2rcd13ifvqhog","pricing_plan_id":"cebpf4jnsgd1na2vs0mg"},{"bike_id":"216bb77f-c769-4011-8970-e66d63254aa2","system_id":"levelo_inurba_marseille","lat":43.29919,"lon":5.37834,"is_reserved":false,"is_disabled":false,"rental_uris":{"android":"levelo://app?vid=216bb77f-c769-4011-8970-e66d63254aa2","ios":"levelo://app?vid=216bb77f-c769-4011-8970-e66d63254aa2"},"vehicle_type_id":"4","last_reported":1740438559,"current_range_meters":8400,"station_id":"","pricing_plan_id":"cebpf4jnsgd1na2vs0mg"},{"bike_id":"21bbe193-48c3-486d-a612-2775af4e501f","system_id":"levelo_inurba_marseille","lat":43.30791,"lon":5.38158,"is_reserved":false,"is_disabled":false,"rental_uris":{"android":"levelo://app?vid=21bbe193-48c3-486d-a612-2775af4e501f","ios":"levelo://app?vid=21bbe193-48c3-486d-a612-2775af4e501f"},"vehicle_type_id":"4","last_reported":1740438559,"current_range_meters":8400,"station_id":"ce4bgt12rcd13ifvqce0","pricing_plan_id":"cebpf4jnsgd1na2vs0mg"},{"bike_id":"99e11aa5-2a69-4b97-b202-0544f0eb0875","system_id":"levelo_inurba_marseille","lat":43.28001,"lon":5.41651,"is_reserved":false,"is_disabled":false,"rental_uris":{"android":"levelo://app?vid=99e11aa5-2a69-4b97-b202-0544f0eb0875","ios":"levelo://app?vid=99e11aa5-2a69-4b97-b202-0544f0eb0875"},"vehicle_type_id":"4","last_reported":1740438559,"current_range_meters":8400,"station_id":"ce4bho12rcd13ifvqh1g","pricing_plan_id":"cebpf4jnsgd1na2vs0mg"},{"bike_id":"838cbc23-851d-4061-951a-ef34293e55b4","system_id":"levelo_inurba_marseille","lat":43.30366,"lon":5.41871,"is_reserved":false,"is_disabled":false,"rental_uris":{"android":"levelo://app?vid=838cbc23-851d-4061-951a-ef34293e55b4","ios":"levelo://app?vid=838cbc23-851d-4061-951a-ef34293e55b4"},"vehicle_type_id":"4","last_reported":1740438559,"current_range_meters":8800,"station_id":"ce4bhop2rcd13ifvqh7g","pricing_plan_id":"cebpf4jnsgd1na2vs0mg"},{"bike_id":"7e26a3e9-4c57-4918-aa17-698a0ce4ac78","system_id":"levelo_inurba_marseille","lat":43.306853,"lon":5.375321,"is_reserved":false,"is_disabled":false,"rental_uris":{"android":"levelo://app?vid=7e26a3e9-4c57-4918-aa17-698a0ce4ac78","ios":"levelo://app?vid=7e26a3e9-4c57-4918-aa17-698a0ce4ac78"},"vehicle_type_id":"4","last_reported":1740438559,"current_range_meters":8400,"station_id":"","pricing_plan_id":"cebpf4jnsgd1na2vs0mg"},{"bike_id":"bd1c9204-109d-453d-a655-cc2878aad0c5","system_id":"levelo_inurba_marseille","lat":43.29905,"lon":5.43668,"is_reserved":false,"is_disabled":false,"rental_uris":{"android":"levelo://app?vid=bd1c9204-109d-453d-a655-cc2878aad0c5","ios":"levelo://app?vid=bd1c9204-109d-453d-a655-cc2878aad0c5"},"vehicle_type_id":"4","last_reported":1740438559,"current_range_meters":8800,"station_id":"ce4bhpp2rcd13ifvqhfg","pricing_plan_id":"cebpf4jnsgd1na2vs0mg"},{"bike_id":"f5e523f2-246d-474c-808f-a050215d7059","system_id":"levelo_inurba_marseille","lat":43.23198,"lon":5.35567,"is_reserved":false,"is_disabled":false,"rental_uris":{"android":"levelo://app?vid=f5e523f2-246d-474c-808f-a050215d7059","ios":"levelo://app?vid=f5e523f2-246d-474c-808f-a050215d7059"},"vehicle_type_id":"4","last_reported":1740438559,"current_range_meters":9200,"station_id":"ce4bhu92rcd13ifvqi70","pricing_plan_id":"cebpf4jnsgd1na2vs0mg"},{"bike_id":"da0a113e-a981-49bc-a2b9-3bea86e6c760","system_id":"levelo_inurba_marseille","lat":43.3128,"lon":5.40188,"is_reserved":false,"is_disabled":false,"rental_uris":{"android":"levelo://app?vid=da0a113e-a981-49bc-a2b9-3bea86e6c760","ios":"levelo://app?vid=da0a113e-a981-49bc-a2b9-3bea86e6c760"},"vehicle_type_id":"4","last_reported":1740438559,"current_range_meters":9200,"station_id":"ce4bh092rcd13ifvqd30","pricing_plan_id":"cebpf4jnsgd1na2vs0mg"},{"bike_id":"a03f1e5c-6ee2-493b-8528-d8322245ef54","system_id":"levelo_inurba_marseille","lat":43.27898,"lon":5.39578,"is_reserved":false,"is_disabled":false,"rental_uris":{"android":"levelo://app?vid=a03f1e5c-6ee2-493b-8528-d8322245ef54","ios":"levelo://app?vid=a03f1e5c-6ee2-493b-8528-d8322245ef54"},"vehicle_type_id":"4","last_reported":1740438559,"current_range_meters":9200,"station_id":"ce4bhf92rcd13ifvqf40","pricing_plan_id":"cebpf4jnsgd1na2vs0mg"},{"bike_id":"8788e12a-f05c-45b2-9570-f7c7ac9b560c","system_id":"levelo_inurba_marseille","lat":43.2795,"lon":5.41033,"is_reserved":false,"is_disabled":false,"rental_uris":{"android":"levelo://app?vid=8788e12a-f05c-45b2-9570-f7c7ac9b560c","ios":"levelo://app?vid=8788e12a-f05c-45b2-9570-f7c7ac9b560c"},"vehicle_type_id":"4","last_reported":1740438559,"current_range_meters":9200,"station_id":"ce4bhnp2rcd13ifvqh0g","pricing_plan_id":"cebpf4jnsgd1na2vs0mg"},{"bike_id":"ab771808-fdf6-4ffc-9b5a-6ec6f2d5aa30","system_id":"levelo_inurba_marseille","lat":43.29706,"lon":5.36625,"is_reserved":false,"is_disabled":false,"rental_uris":{"android":"levelo://app?vid=ab771808-fdf6-4ffc-9b5a-6ec6f2d5aa30","ios":"levelo://app?vid=ab771808-fdf6-4ffc-9b5a-6ec6f2d5aa30"},"vehicle_type_id":"4","last_reported":1740438559,"current_range_meters":9600,"station_id":"ce4bgn12rcd13ifvqbt0","pricing_plan_id":"cebpf4jnsgd1na2vs0mg"},{"bike_id":"e49232ce-36e0-478c-a319-bb8d76abfc7f","system_id":"levelo_inurba_marseille","lat":43.29687,"lon":5.36629,"is_reserved":false,"is_disabled":false,"rental_uris":{"android":"levelo://app?vid=e49232ce-36e0-478c-a319-bb8d76abfc7f","ios":"levelo://app?vid=e49232ce-36e0-478c-a319-bb8d76abfc7f"},"vehicle_type_id":"4","last_reported":1740438559,"current_range_meters":9600,"station_id":"ce4bgn12rcd13ifvqbt0","pricing_plan_id":"cebpf4jnsgd1na2vs0mg"},{"bike_id":"044b4f75-9277-46f1-b9dc-51a9b2d09618","system_id":"levelo_inurba_marseille","lat":43.2705,"lon":5.40261,"is_reserved":false,"is_disabled":false,"rental_uris":{"android":"levelo://app?vid=044b4f75-9277-46f1-b9dc-51a9b2d09618","ios":"levelo://app?vid=044b4f75-9277-46f1-b9dc-51a9b2d09618"},"vehicle_type_id":"4","last_reported":1740438559,"current_range_meters":9600,"station_id":"ce4bhk92rcd13ifvqgc0","pricing_plan_id":"cebpf4jnsgd1na2vs0mg"},{"bike_id":"5162c2ce-a731-4d3b-a21a-a1c8cb63150f","system_id":"levelo_inurba_marseille","lat":43.31711,"lon":5.43703,"is_reserved":false,"is_disabled":false,"rental_uris":{"android":"levelo://app?vid=5162c2ce-a731-4d3b-a21a-a1c8cb63150f","ios":"levelo://app?vid=5162c2ce-a731-4d3b-a21a-a1c8cb63150f"},"vehicle_type_id":"4","last_reported":1740438559,"current_range_meters":8000,"station_id":"ce4bhp92rcd13ifvqhcg","pricing_plan_id":"cebpf4jnsgd1na2vs0mg"},{"bike_id":"597711d1-c721-467c-a7a2-993f2a1f5aef","system_id":"levelo_inurba_marseille","lat":43.29021,"lon":5.38134,"is_reserved":false,"is_disabled":false,"rental_uris":{"android":"levelo://app?vid=597711d1-c721-467c-a7a2-993f2a1f5aef","ios":"levelo://app?vid=597711d1-c721-467c-a7a2-993f2a1f5aef"},"vehicle_type_id":"4","last_reported":1740438559,"current_range_meters":9600,"station_id":"ce4bh4p2rcd13ifvqe1g","pricing_plan_id":"cebpf4jnsgd1na2vs0mg"},{"bike_id":"446313c8-37fc-4f36-b9c3-a1d481dfb62b","system_id":"levelo_inurba_marseille","lat":43.26839,"lon":5.4114,"is_reserved":false,"is_disabled":false,"rental_uris":{"android":"levelo://app?vid=446313c8-37fc-4f36-b9c3-a1d481dfb62b","ios":"levelo://app?vid=446313c8-37fc-4f36-b9c3-a1d481dfb62b"},"vehicle_type_id":"4","last_reported":1740438559,"current_range_meters":9600,"station_id":"","pricing_plan_id":"cebpf4jnsgd1na2vs0mg"},{"bike_id":"294edc22-1901-4d5e-bb34-9bc4f65c5bd4","system_id":"levelo_inurba_marseille","lat":43.23189,"lon":5.39988,"is_reserved":false,"is_disabled":false,"rental_uris":{"android":"levelo://app?vid=294edc22-1901-4d5e-bb34-9bc4f65c5bd4","ios":"levelo://app?vid=294edc22-1901-4d5e-bb34-9bc4f65c5bd4"},"vehicle_type_id":"4","last_reported":1740438559,"current_range_meters":10000,"station_id":"ce4bhn12rcd13ifvqgqg","pricing_plan_id":"cebpf4jnsgd1na2vs0mg"},{"bike_id":"19a8f35e-59c5-4bff-a8e1-1e0d52f1d0ca","system_id":"levelo_inurba_marseille","lat":43.284384,"lon":5.391898,"is_reserved":false,"is_disabled":false,"rental_uris":{"android":"levelo://app?vid=19a8f35e-59c5-4bff-a8e1-1e0d52f1d0ca","ios":"levelo://app?vid=19a8f35e-59c5-4bff-a8e1-1e0d52f1d0ca"},"vehicle_type_id":"4","last_reported":1740438559,"current_range_meters":10800,"station_id":"ce4bhoh2rcd13ifvqh5g","pricing_plan_id":"cebpf4jnsgd1na2vs0mg"},{"bike_id":"d525ca76-caa8-4a03-90d9-340115dcba41","system_id":"levelo_inurba_marseille","lat":43.29872,"lon":5.38905,"is_reserved":false,"is_disabled":false,"rental_uris":{"android":"levelo://app?vid=d525ca76-caa8-4a03-90d9-340115dcba41","ios":"levelo://app?vid=d525ca76-caa8-4a03-90d9-340115dcba41"},"vehicle_type_id":"4","last_reported":1740438559,"current_range_meters":10000,"station_id":"ce4bh392rcd13ifvqdl0","pricing_plan_id":"cebpf4jnsgd1na2vs0mg"},{"bike_id":"7f153b39-4160-49a4-801b-a907c9f4c350","system_id":"levelo_inurba_marseille","lat":43.29315,"lon":5.43465,"is_reserved":false,"is_disabled":false,"rental_uris":{"android":"levelo://app?vid=7f153b39-4160-49a4-801b-a907c9f4c350","ios":"levelo://app?vid=7f153b39-4160-49a4-801b-a907c9f4c350"},"vehicle_type_id":"4","last_reported":1740438559,"current_range_meters":4800,"station_id":"","pricing_plan_id":"cebpf4jnsgd1na2vs0mg"},{"bike_id":"60b558e9-c2ce-4e57-905e-a11156fb05d2","system_id":"levelo_inurba_marseille","lat":43.29891,"lon":5.38903,"is_reserved":false,"is_disabled":false,"rental_uris":{"android":"levelo://app?vid=60b558e9-c2ce-4e57-905e-a11156fb05d2","ios":"levelo://app?vid=60b558e9-c2ce-4e57-905e-a11156fb05d2"},"vehicle_type_id":"4","last_reported":1740438559,"current_range_meters":10000,"station_id":"ce4bh392rcd13ifvqdl0","pricing_plan_id":"cebpf4jnsgd1na2vs0mg"},{"bike_id":"1a0b050f-f33f-48d2-9894-613d93a341cc","system_id":"levelo_inurba_marseille","lat":43.23199,"lon":5.39988,"is_reserved":false,"is_disabled":false,"rental_uris":{"android":"levelo://app?vid=1a0b050f-f33f-48d2-9894-613d93a341cc","ios":"levelo://app?vid=1a0b050f-f33f-48d2-9894-613d93a341cc"},"vehicle_type_id":"4","last_reported":1740438559,"current_range_meters":10000,"station_id":"ce4bhn12rcd13ifvqgqg","pricing_plan_id":"cebpf4jnsgd1na2vs0mg"},{"bike_id":"d6e9473b-dc2e-415e-a49b-32762a351f28","system_id":"levelo_inurba_marseille","lat":43.28849,"lon":5.35827,"is_reserved":false,"is_disabled":false,"rental_uris":{"android":"levelo://app?vid=d6e9473b-dc2e-415e-a49b-32762a351f28","ios":"levelo://app?vid=d6e9473b-dc2e-415e-a49b-32762a351f28"},"vehicle_type_id":"4","last_reported":1740438559,"current_range_meters":10800,"station_id":"ce4bhb12rcd13ifvqem0","pricing_plan_id":"cebpf4jnsgd1na2vs0mg"},{"bike_id":"e37ffcf5-bb0c-47f5-a826-7f04d919fa4b","system_id":"levelo_inurba_marseille","lat":43.28471,"lon":5.35895,"is_reserved":false,"is_disabled":false,"rental_uris":{"android":"levelo://app?vid=e37ffcf5-bb0c-47f5-a826-7f04d919fa4b","ios":"levelo://app?vid=e37ffcf5-bb0c-47f5-a826-7f04d919fa4b"},"vehicle_type_id":"4","last_reported":1740438559,"current_range_meters":10800,"station_id":"ce4bhah2rcd13ifvqei0","pricing_plan_id":"cebpf4jnsgd1na2vs0mg"},{"bike_id":"ce08e129-3210-4784-8e00-3661099c392d","system_id":"levelo_inurba_marseille","lat":43.29898,"lon":5.4367,"is_reserved":false,"is_disabled":false,"rental_uris":{"android":"levelo://app?vid=ce08e129-3210-4784-8e00-3661099c392d","ios":"levelo://app?vid=ce08e129-3210-4784-8e00-3661099c392d"},"vehicle_type_id":"4","last_reported":1740438559,"current_range_meters":10800,"station_id":"ce4bhpp2rcd13ifvqhfg","pricing_plan_id":"cebpf4jnsgd1na2vs0mg"},{"bike_id":"279bcd62-078a-4beb-bbab-686b0baab501","system_id":"levelo_inurba_marseille","lat":43.292023,"lon":5.39324,"is_reserved":false,"is_disabled":false,"rental_uris":{"android":"levelo://app?vid=279bcd62-078a-4beb-bbab-686b0baab501","ios":"levelo://app?vid=279bcd62-078a-4beb-bbab-686b0baab501"},"vehicle_type_id":"4","last_reported":1740438559,"current_range_meters":14800,"station_id":"","pricing_plan_id":"cebpf4jnsgd1na2vs0mg"},{"bike_id":"7a54af2b-83b1-4aee-8413-844b3f79ac9e","system_id":"levelo_inurba_marseille","lat":43.31352,"lon":5.38492,"is_reserved":false,"is_disabled":false,"rental_uris":{"android":"levelo://app?vid=7a54af2b-83b1-4aee-8413-844b3f79ac9e","ios":"levelo://app?vid=7a54af2b-83b1-4aee-8413-844b3f79ac9e"},"vehicle_type_id":"4","last_reported":1740438559,"current_range_meters":10800,"station_id":"ce4bgt92rcd13ifvqcf0","pricing_plan_id":"cebpf4jnsgd1na2vs0mg"},{"bike_id":"0d86b6de-ddbd-4bbb-9bf1-ef0af2e74c96","system_id":"levelo_inurba_marseille","lat":43.26812,"lon":5.4026,"is_reserved":false,"is_disabled":false,"rental_uris":{"android":"levelo://app?vid=0d86b6de-ddbd-4bbb-9bf1-ef0af2e74c96","ios":"levelo://app?vid=0d86b6de-ddbd-4bbb-9bf1-ef0af2e74c96"},"vehicle_type_id":"4","last_reported":1740438559,"current_range_meters":10800,"station_id":"ce501612rcd8frsf0b60","pricing_plan_id":"cebpf4jnsgd1na2vs0mg"},{"bike_id":"054a8c13-e003-4a19-8213-3d429c22f36e","system_id":"levelo_inurba_marseille","lat":43.24168,"lon":5.36392,"is_reserved":false,"is_disabled":false,"rental_uris":{"android":"levelo://app?vid=054a8c13-e003-4a19-8213-3d429c22f36e","ios":"levelo://app?vid=054a8c13-e003-4a19-8213-3d429c22f36e"},"vehicle_type_id":"4","last_reported":1740438559,"current_range_meters":11200,"station_id":"cpo36qri1sfpv3e86is0","pricing_plan_id":"cebpf4jnsgd1na2vs0mg"},{"bike_id":"43283546-0c6f-4116-b0be-3b4e91fa7c5f","system_id":"levelo_inurba_marseille","lat":43.29375,"lon":5.38499,"is_reserved":false,"is_disabled":false,"rental_uris":{"android":"levelo://app?vid=43283546-0c6f-4116-b0be-3b4e91fa7c5f","ios":"levelo://app?vid=43283546-0c6f-4116-b0be-3b4e91fa7c5f"},"vehicle_type_id":"4","last_reported":1740438559,"current_range_meters":11200,"station_id":"","pricing_plan_id":"cebpf4jnsgd1na2vs0mg"},{"bike_id":"7017dd5d-52f3-4f63-b9b0-ffdb8d04bba3","system_id":"levelo_inurba_marseille","lat":43.297083,"lon":5.384346,"is_reserved":false,"is_disabled":false,"rental_uris":{"android":"levelo://app?vid=7017dd5d-52f3-4f63-b9b0-ffdb8d04bba3","ios":"levelo://app?vid=7017dd5d-52f3-4f63-b9b0-ffdb8d04bba3"},"vehicle_type_id":"4","last_reported":1740438559,"current_range_meters":11600,"station_id":"","pricing_plan_id":"cebpf4jnsgd1na2vs0mg"},{"bike_id":"2d9f0777-5b96-4c1e-80c5-10449636aa92","system_id":"levelo_inurba_marseille","lat":43.32373,"lon":5.38883,"is_reserved":false,"is_disabled":false,"rental_uris":{"android":"levelo://app?vid=2d9f0777-5b96-4c1e-80c5-10449636aa92","ios":"levelo://app?vid=2d9f0777-5b96-4c1e-80c5-10449636aa92"},"vehicle_type_id":"4","last_reported":1740438559,"current_range_meters":11200,"station_id":"ce4bhqp2rcd13ifvqhog","pricing_plan_id":"cebpf4jnsgd1na2vs0mg"},{"bike_id":"d630238b-e434-4009-a114-1268aae217f8","system_id":"levelo_inurba_marseille","lat":43.29201,"lon":5.39343,"is_reserved":false,"is_disabled":false,"rental_uris":{"android":"levelo://app?vid=d630238b-e434-4009-a114-1268aae217f8","ios":"levelo://app?vid=d630238b-e434-4009-a114-1268aae217f8"},"vehicle_type_id":"4","last_reported":1740438559,"current_range_meters":11600,"station_id":"ce4bh192rcd13ifvqdd0","pricing_plan_id":"cebpf4jnsgd1na2vs0mg"},{"bike_id":"c8ac5d5c-ac5b-42a0-b37c-1ee0be279889","system_id":"levelo_inurba_marseille","lat":43.28824,"lon":5.35842,"is_reserved":false,"is_disabled":false,"rental_uris":{"android":"levelo://app?vid=c8ac5d5c-ac5b-42a0-b37c-1ee0be279889","ios":"levelo://app?vid=c8ac5d5c-ac5b-42a0-b37c-1ee0be279889"},"vehicle_type_id":"4","last_reported":1740438559,"current_range_meters":11600,"station_id":"ce4bhb12rcd13ifvqem0","pricing_plan_id":"cebpf4jnsgd1na2vs0mg"},{"bike_id":"545f68d9-63a2-4948-a6b8-8f51f7c5f52a","system_id":"levelo_inurba_marseille","lat":43.28253,"lon":5.35078,"is_reserved":false,"is_disabled":false,"rental_uris":{"android":"levelo://app?vid=545f68d9-63a2-4948-a6b8-8f51f7c5f52a","ios":"levelo://app?vid=545f68d9-63a2-4948-a6b8-8f51f7c5f52a"},"vehicle_type_id":"4","last_reported":1740438559,"current_range_meters":12000,"station_id":"ce4bhbp2rcd13ifvqerg","pricing_plan_id":"cebpf4jnsgd1na2vs0mg"},{"bike_id":"d427c802-6b37-4ced-89ab-953bc91d35a8","system_id":"levelo_inurba_marseille","lat":43.28264,"lon":5.35075,"is_reserved":false,"is_disabled":false,"rental_uris":{"android":"levelo://app?vid=d427c802-6b37-4ced-89ab-953bc91d35a8","ios":"levelo://app?vid=d427c802-6b37-4ced-89ab-953bc91d35a8"},"vehicle_type_id":"4","last_reported":1740438559,"current_range_meters":12000,"station_id":"ce4bhbp2rcd13ifvqerg","pricing_plan_id":"cebpf4jnsgd1na2vs0mg"},{"bike_id":"cafd7f33-9808-404a-b6af-22e15a18d7e0","system_id":"levelo_inurba_marseille","lat":43.29034,"lon":5.35901,"is_reserved":false,"is_disabled":false,"rental_uris":{"android":"levelo://app?vid=cafd7f33-9808-404a-b6af-22e15a18d7e0","ios":"levelo://app?vid=cafd7f33-9808-404a-b6af-22e15a18d7e0"},"vehicle_type_id":"4","last_reported":1740438559,"current_range_meters":11600,"station_id":"ce4bha92rcd13ifvqeg0","pricing_plan_id":"cebpf4jnsgd1na2vs0mg"},{"bike_id":"7333f5f0-71fa-4cf2-9e94-a5d02574b956","system_id":"levelo_inurba_marseille","lat":43.28365,"lon":5.38639,"is_reserved":false,"is_disabled":false,"rental_uris":{"android":"levelo://app?vid=7333f5f0-71fa-4cf2-9e94-a5d02574b956","ios":"levelo://app?vid=7333f5f0-71fa-4cf2-9e94-a5d02574b956"},"vehicle_type_id":"4","last_reported":1740438559,"current_range_meters":11600,"station_id":"ce4bh492rcd13ifvqdvg","pricing_plan_id":"cebpf4jnsgd1na2vs0mg"},{"bike_id":"130ab319-f673-4e36-9717-343d196c6cce","system_id":"levelo_inurba_marseille","lat":43.23178,"lon":5.39988,"is_reserved":false,"is_disabled":false,"rental_uris":{"android":"levelo://app?vid=130ab319-f673-4e36-9717-343d196c6cce","ios":"levelo://app?vid=130ab319-f673-4e36-9717-343d196c6cce"},"vehicle_type_id":"4","last_reported":1740438559,"current_range_meters":12000,"station_id":"ce4bhn12rcd13ifvqgqg","pricing_plan_id":"cebpf4jnsgd1na2vs0mg"},{"bike_id":"f626466d-ed9f-4204-be4c-4efbe55a7ed0","system_id":"levelo_inurba_marseille","lat":43.25001,"lon":5.3892,"is_reserved":false,"is_disabled":false,"rental_uris":{"android":"levelo://app?vid=f626466d-ed9f-4204-be4c-4efbe55a7ed0","ios":"levelo://app?vid=f626466d-ed9f-4204-be4c-4efbe55a7ed0"},"vehicle_type_id":"4","last_reported":1740438559,"current_range_meters":4400,"station_id":"ce4bhgp2rcd13ifvqfd0","pricing_plan_id":"cebpf4jnsgd1na2vs0mg"},{"bike_id":"0bad05ad-939e-4072-80eb-2d68e698bd0b","system_id":"levelo_inurba_marseille","lat":43.29785,"lon":5.39339,"is_reserved":false,"is_disabled":false,"rental_uris":{"android":"levelo://app?vid=0bad05ad-939e-4072-80eb-2d68e698bd0b","ios":"levelo://app?vid=0bad05ad-939e-4072-80eb-2d68e698bd0b"},"vehicle_type_id":"4","last_reported":1740438559,"current_range_meters":12400,"station_id":"chh1huq6cuj3fo74tm60","pricing_plan_id":"cebpf4jnsgd1na2vs0mg"},{"bike_id":"0338d931-1b59-4131-9010-881f558f192e","system_id":"levelo_inurba_marseille","lat":43.28836,"lon":5.35853,"is_reserved":false,"is_disabled":false,"rental_uris":{"android":"levelo://app?vid=0338d931-1b59-4131-9010-881f558f192e","ios":"levelo://app?vid=0338d931-1b59-4131-9010-881f558f192e"},"vehicle_type_id":"4","last_reported":1740438559,"current_range_meters":12400,"station_id":"ce4bhb12rcd13ifvqem0","pricing_plan_id":"cebpf4jnsgd1na2vs0mg"},{"bike_id":"c806e66a-ae05-45b4-b912-01c1e8730711","system_id":"levelo_inurba_marseille","lat":43.293023,"lon":5.371558,"is_reserved":false,"is_disabled":false,"rental_uris":{"android":"levelo://app?vid=c806e66a-ae05-45b4-b912-01c1e8730711","ios":"levelo://app?vid=c806e66a-ae05-45b4-b912-01c1e8730711"},"vehicle_type_id":"4","last_reported":1740438559,"current_range_meters":12400,"station_id":"ce4bgh92rcd13ifvqb40","pricing_plan_id":"cebpf4jnsgd1na2vs0mg"},{"bike_id":"ef18fbd6-85fe-4257-aaef-cd0fcf515452","system_id":"levelo_inurba_marseille","lat":43.30334,"lon":5.40428,"is_reserved":false,"is_disabled":false,"rental_uris":{"android":"levelo://app?vid=ef18fbd6-85fe-4257-aaef-cd0fcf515452","ios":"levelo://app?vid=ef18fbd6-85fe-4257-aaef-cd0fcf515452"},"vehicle_type_id":"4","last_reported":1740438559,"current_range_meters":12400,"station_id":"ce4bh012rcd13ifvqd10","pricing_plan_id":"cebpf4jnsgd1na2vs0mg"},{"bike_id":"d90fc6d7-871e-4fc4-950b-c963063affa1","system_id":"levelo_inurba_marseille","lat":43.25076,"lon":5.39523,"is_reserved":false,"is_disabled":false,"rental_uris":{"android":"levelo://app?vid=d90fc6d7-871e-4fc4-950b-c963063affa1","ios":"levelo://app?vid=d90fc6d7-871e-4fc4-950b-c963063affa1"},"vehicle_type_id":"4","last_reported":1740438559,"current_range_meters":12400,"station_id":"ce4bhm12rcd13ifvqgkg","pricing_plan_id":"cebpf4jnsgd1na2vs0mg"},{"bike_id":"7152cafa-1634-4db9-9fd6-93705c425f63","system_id":"levelo_inurba_marseille","lat":43.32001,"lon":5.38148,"is_reserved":false,"is_disabled":false,"rental_uris":{"android":"levelo://app?vid=7152cafa-1634-4db9-9fd6-93705c425f63","ios":"levelo://app?vid=7152cafa-1634-4db9-9fd6-93705c425f63"},"vehicle_type_id":"4","last_reported":1740438559,"current_range_meters":12800,"station_id":"ce4bhr12rcd13ifvqhpg","pricing_plan_id":"cebpf4jnsgd1na2vs0mg"},{"bike_id":"18b4ecad-07e0-467d-bffe-ed8a07dff029","system_id":"levelo_inurba_marseille","lat":43.291903,"lon":5.39325,"is_reserved":false,"is_disabled":false,"rental_uris":{"android":"levelo://app?vid=18b4ecad-07e0-467d-bffe-ed8a07dff029","ios":"levelo://app?vid=18b4ecad-07e0-467d-bffe-ed8a07dff029"},"vehicle_type_id":"4","last_reported":1740438559,"current_range_meters":9600,"station_id":"ce4bh192rcd13ifvqdd0","pricing_plan_id":"cebpf4jnsgd1na2vs0mg"},{"bike_id":"6973d6f6-2714-49f6-8e4d-226f2db3c6c6","system_id":"levelo_inurba_marseille","lat":43.28255,"lon":5.35066,"is_reserved":false,"is_disabled":false,"rental_uris":{"android":"levelo://app?vid=6973d6f6-2714-49f6-8e4d-226f2db3c6c6","ios":"levelo://app?vid=6973d6f6-2714-49f6-8e4d-226f2db3c6c6"},"vehicle_type_id":"4","last_reported":1740438559,"current_range_meters":12400,"station_id":"ce4bhbp2rcd13ifvqerg","pricing_plan_id":"cebpf4jnsgd1na2vs0mg"},{"bike_id":"d9539a63-7677-4fd2-a172-046d356a2529","system_id":"levelo_inurba_marseille","lat":43.29998,"lon":5.37205,"is_reserved":false,"is_disabled":false,"rental_uris":{"android":"levelo://app?vid=d9539a63-7677-4fd2-a172-046d356a2529","ios":"levelo://app?vid=d9539a63-7677-4fd2-a172-046d356a2529"},"vehicle_type_id":"4","last_reported":1740438559,"current_range_meters":13600,"station_id":"ce4bgr92rcd13ifvqc7g","pricing_plan_id":"cebpf4jnsgd1na2vs0mg"},{"bike_id":"e5c275a2-a964-47d8-9489-ed1126cf4cef","system_id":"levelo_inurba_marseille","lat":43.29657,"lon":5.37919,"is_reserved":false,"is_disabled":false,"rental_uris":{"android":"levelo://app?vid=e5c275a2-a964-47d8-9489-ed1126cf4cef","ios":"levelo://app?vid=e5c275a2-a964-47d8-9489-ed1126cf4cef"},"vehicle_type_id":"4","last_reported":1740438559,"current_range_meters":13600,"station_id":"","pricing_plan_id":"cebpf4jnsgd1na2vs0mg"},{"bike_id":"b1e68bfa-e0ad-4a40-b063-e1ce6dcea5ff","system_id":"levelo_inurba_marseille","lat":43.28941,"lon":5.36381,"is_reserved":false,"is_disabled":false,"rental_uris":{"android":"levelo://app?vid=b1e68bfa-e0ad-4a40-b063-e1ce6dcea5ff","ios":"levelo://app?vid=b1e68bfa-e0ad-4a40-b063-e1ce6dcea5ff"},"vehicle_type_id":"4","last_reported":1740438559,"current_range_meters":12800,"station_id":"ce4bhc92rcd13ifvqetg","pricing_plan_id":"cebpf4jnsgd1na2vs0mg"},{"bike_id":"ee8d9bfc-f041-4741-b98b-ada7ac0db4d0","system_id":"levelo_inurba_marseille","lat":43.30536,"lon":5.38413,"is_reserved":false,"is_disabled":false,"rental_uris":{"android":"levelo://app?vid=ee8d9bfc-f041-4741-b98b-ada7ac0db4d0","ios":"levelo://app?vid=ee8d9bfc-f041-4741-b98b-ada7ac0db4d0"},"vehicle_type_id":"4","last_reported":1740438559,"current_range_meters":12400,"station_id":"ce4bgg92rcd13ifvqb30","pricing_plan_id":"cebpf4jnsgd1na2vs0mg"},{"bike_id":"674cb057-5d42-4512-ae8c-448c1f63016b","system_id":"levelo_inurba_marseille","lat":43.30362,"lon":5.39443,"is_reserved":false,"is_disabled":false,"rental_uris":{"android":"levelo://app?vid=674cb057-5d42-4512-ae8c-448c1f63016b","ios":"levelo://app?vid=674cb057-5d42-4512-ae8c-448c1f63016b"},"vehicle_type_id":"4","last_reported":1740438559,"current_range_meters":13600,"station_id":"","pricing_plan_id":"cebpf4jnsgd1na2vs0mg"},{"bike_id":"ce37476d-88a8-4f83-9893-e3f4fffefa17","system_id":"levelo_inurba_marseille","lat":43.29877,"lon":5.38906,"is_reserved":false,"is_disabled":false,"rental_uris":{"android":"levelo://app?vid=ce37476d-88a8-4f83-9893-e3f4fffefa17","ios":"levelo://app?vid=ce37476d-88a8-4f83-9893-e3f4fffefa17"},"vehicle_type_id":"4","last_reported":1740438559,"current_range_meters":13600,"station_id":"ce4bh392rcd13ifvqdl0","pricing_plan_id":"cebpf4jnsgd1na2vs0mg"},{"bike_id":"d2610799-3b25-4010-8a8a-a9ba4108f5fb","system_id":"levelo_inurba_marseille","lat":43.25015,"lon":5.38914,"is_reserved":false,"is_disabled":false,"rental_uris":{"android":"levelo://app?vid=d2610799-3b25-4010-8a8a-a9ba4108f5fb","ios":"levelo://app?vid=d2610799-3b25-4010-8a8a-a9ba4108f5fb"},"vehicle_type_id":"4","last_reported":1740438559,"current_range_meters":13600,"station_id":"ce4bhgp2rcd13ifvqfd0","pricing_plan_id":"cebpf4jnsgd1na2vs0mg"},{"bike_id":"6881749d-7210-4820-b4d5-9b5c0c11cb42","system_id":"levelo_inurba_marseille","lat":43.25679,"lon":5.397325,"is_reserved":false,"is_disabled":false,"rental_uris":{"android":"levelo://app?vid=6881749d-7210-4820-b4d5-9b5c0c11cb42","ios":"levelo://app?vid=6881749d-7210-4820-b4d5-9b5c0c11cb42"},"vehicle_type_id":"4","last_reported":1740438559,"current_range_meters":13600,"station_id":"","pricing_plan_id":"cebpf4jnsgd1na2vs0mg"},{"bike_id":"4303d40f-4d82-4cee-83e0-f18743480161","system_id":"levelo_inurba_marseille","lat":43.28661,"lon":5.36366,"is_reserved":false,"is_disabled":false,"rental_uris":{"android":"levelo://app?vid=4303d40f-4d82-4cee-83e0-f18743480161","ios":"levelo://app?vid=4303d40f-4d82-4cee-83e0-f18743480161"},"vehicle_type_id":"4","last_reported":1740438559,"current_range_meters":13600,"station_id":"ce4bhah2rcd13ifvqej0","pricing_plan_id":"cebpf4jnsgd1na2vs0mg"},{"bike_id":"64b31661-9e5a-46b2-8f94-ad465732c441","system_id":"levelo_inurba_marseille","lat":43.23187,"lon":5.39977,"is_reserved":false,"is_disabled":false,"rental_uris":{"android":"levelo://app?vid=64b31661-9e5a-46b2-8f94-ad465732c441","ios":"levelo://app?vid=64b31661-9e5a-46b2-8f94-ad465732c441"},"vehicle_type_id":"4","last_reported":1740438559,"current_range_meters":13600,"station_id":"ce4bhn12rcd13ifvqgqg","pricing_plan_id":"cebpf4jnsgd1na2vs0mg"},{"bike_id":"361d388e-9e5f-45a9-bd9f-c3adaaeb11e1","system_id":"levelo_inurba_marseille","lat":43.27485,"lon":5.42457,"is_reserved":false,"is_disabled":false,"rental_uris":{"android":"levelo://app?vid=361d388e-9e5f-45a9-bd9f-c3adaaeb11e1","ios":"levelo://app?vid=361d388e-9e5f-45a9-bd9f-c3adaaeb11e1"},"vehicle_type_id":"4","last_reported":1740438559,"current_range_meters":13600,"station_id":"ce4bhn92rcd13ifvqgrg","pricing_plan_id":"cebpf4jnsgd1na2vs0mg"},{"bike_id":"2f3e908d-5d68-496d-984c-5932b31947e8","system_id":"levelo_inurba_marseille","lat":43.29038,"lon":5.3995,"is_reserved":false,"is_disabled":false,"rental_uris":{"android":"levelo://app?vid=2f3e908d-5d68-496d-984c-5932b31947e8","ios":"levelo://app?vid=2f3e908d-5d68-496d-984c-5932b31947e8"},"vehicle_type_id":"4","last_reported":1740438559,"current_range_meters":13600,"station_id":"ce4bh392rcd13ifvqdm0","pricing_plan_id":"cebpf4jnsgd1na2vs0mg"},{"bike_id":"c7141c64-f04f-4dca-bf0b-c87dedcef0a3","system_id":"levelo_inurba_marseille","lat":43.30238,"lon":5.4006,"is_reserved":false,"is_disabled":false,"rental_uris":{"android":"levelo://app?vid=c7141c64-f04f-4dca-bf0b-c87dedcef0a3","ios":"levelo://app?vid=c7141c64-f04f-4dca-bf0b-c87dedcef0a3"},"vehicle_type_id":"4","last_reported":1740438559,"current_range_meters":14000,"station_id":"ce4bgvh2rcd13ifvqcs0","pricing_plan_id":"cebpf4jnsgd1na2vs0mg"},{"bike_id":"bfa9685d-08c6-470b-9281-df9fdec5f34c","system_id":"levelo_inurba_marseille","lat":43.2842,"lon":5.35,"is_reserved":false,"is_disabled":false,"rental_uris":{"android":"levelo://app?vid=bfa9685d-08c6-470b-9281-df9fdec5f34c","ios":"levelo://app?vid=bfa9685d-08c6-470b-9281-df9fdec5f34c"},"vehicle_type_id":"4","last_reported":1740438559,"current_range_meters":14000,"station_id":"ce4bhbh2rcd13ifvqepg","pricing_plan_id":"cebpf4jnsgd1na2vs0mg"},{"bike_id":"760eb658-016e-422a-925a-e97810424e09","system_id":"levelo_inurba_marseille","lat":43.27935,"lon":5.41037,"is_reserved":false,"is_disabled":false,"rental_uris":{"android":"levelo://app?vid=760eb658-016e-422a-925a-e97810424e09","ios":"levelo://app?vid=760eb658-016e-422a-925a-e97810424e09"},"vehicle_type_id":"4","last_reported":1740438559,"current_range_meters":14000,"station_id":"ce4bhnp2rcd13ifvqh0g","pricing_plan_id":"cebpf4jnsgd1na2vs0mg"},{"bike_id":"763a38cd-b50b-4187-a9a7-e0318d9aae60","system_id":"levelo_inurba_marseille","lat":43.25003,"lon":5.38917,"is_reserved":false,"is_disabled":false,"rental_uris":{"android":"levelo://app?vid=763a38cd-b50b-4187-a9a7-e0318d9aae60","ios":"levelo://app?vid=763a38cd-b50b-4187-a9a7-e0318d9aae60"},"vehicle_type_id":"4","last_reported":1740438559,"current_range_meters":14000,"station_id":"ce4bhgp2rcd13ifvqfd0","pricing_plan_id":"cebpf4jnsgd1na2vs0mg"},{"bike_id":"58f3e1c8-8a3c-4bac-a0b8-dcd83c22abb9","system_id":"levelo_inurba_marseille","lat":43.31325,"lon":5.3969,"is_reserved":false,"is_disabled":false,"rental_uris":{"android":"levelo://app?vid=58f3e1c8-8a3c-4bac-a0b8-dcd83c22abb9","ios":"levelo://app?vid=58f3e1c8-8a3c-4bac-a0b8-dcd83c22abb9"},"vehicle_type_id":"4","last_reported":1740438559,"current_range_meters":14000,"station_id":"ce4bgvp2rcd13ifvqcu0","pricing_plan_id":"cebpf4jnsgd1na2vs0mg"},{"bike_id":"e64e46d5-fee0-4a08-bbbb-70ecb47282ad","system_id":"levelo_inurba_marseille","lat":43.29508,"lon":5.39426,"is_reserved":false,"is_disabled":false,"rental_uris":{"android":"levelo://app?vid=e64e46d5-fee0-4a08-bbbb-70ecb47282ad","ios":"levelo://app?vid=e64e46d5-fee0-4a08-bbbb-70ecb47282ad"},"vehicle_type_id":"4","last_reported":1740438559,"current_range_meters":14400,"station_id":"ce4bh292rcd13ifvqdf0","pricing_plan_id":"cebpf4jnsgd1na2vs0mg"},{"bike_id":"e9323095-14bd-4c19-b22f-eb0fd501b39c","system_id":"levelo_inurba_marseille","lat":43.30325,"lon":5.40427,"is_reserved":false,"is_disabled":false,"rental_uris":{"android":"levelo://app?vid=e9323095-14bd-4c19-b22f-eb0fd501b39c","ios":"levelo://app?vid=e9323095-14bd-4c19-b22f-eb0fd501b39c"},"vehicle_type_id":"4","last_reported":1740438559,"current_range_meters":14400,"station_id":"ce4bh012rcd13ifvqd10","pricing_plan_id":"cebpf4jnsgd1na2vs0mg"},{"bike_id":"893f0949-de5b-4083-b654-3fa44fd95a90","system_id":"levelo_inurba_marseille","lat":43.29278,"lon":5.3684,"is_reserved":false,"is_disabled":false,"rental_uris":{"android":"levelo://app?vid=893f0949-de5b-4083-b654-3fa44fd95a90","ios":"levelo://app?vid=893f0949-de5b-4083-b654-3fa44fd95a90"},"vehicle_type_id":"4","last_reported":1740438559,"current_range_meters":14400,"station_id":"ce4bhbp2rcd13ifvqesg","pricing_plan_id":"cebpf4jnsgd1na2vs0mg"},{"bike_id":"4536875f-604a-454e-9383-c4f436e97a01","system_id":"levelo_inurba_marseille","lat":43.28075,"lon":5.39651,"is_reserved":false,"is_disabled":false,"rental_uris":{"android":"levelo://app?vid=4536875f-604a-454e-9383-c4f436e97a01","ios":"levelo://app?vid=4536875f-604a-454e-9383-c4f436e97a01"},"vehicle_type_id":"4","last_reported":1740438559,"current_range_meters":14400,"station_id":"ce4bho12rcd13ifvqh2g","pricing_plan_id":"cebpf4jnsgd1na2vs0mg"},{"bike_id":"d138a461-3692-438c-aa9e-f46d4dedee6d","system_id":"levelo_inurba_marseille","lat":43.25087,"lon":5.39511,"is_reserved":false,"is_disabled":false,"rental_uris":{"android":"levelo://app?vid=d138a461-3692-438c-aa9e-f46d4dedee6d","ios":"levelo://app?vid=d138a461-3692-438c-aa9e-f46d4dedee6d"},"vehicle_type_id":"4","last_reported":1740438559,"current_range_meters":14800,"station_id":"ce4bhm12rcd13ifvqgkg","pricing_plan_id":"cebpf4jnsgd1na2vs0mg"},{"bike_id":"d7b9c397-9111-46f3-85f5-c2c7bf57c877","system_id":"levelo_inurba_marseille","lat":43.29033,"lon":5.39963,"is_reserved":false,"is_disabled":false,"rental_uris":{"android":"levelo://app?vid=d7b9c397-9111-46f3-85f5-c2c7bf57c877","ios":"levelo://app?vid=d7b9c397-9111-46f3-85f5-c2c7bf57c877"},"vehicle_type_id":"4","last_reported":1740438559,"current_range_meters":13600,"station_id":"ce4bh392rcd13ifvqdm0","pricing_plan_id":"cebpf4jnsgd1na2vs0mg"},{"bike_id":"c089c19a-9e3a-4f5f-8b9c-a99d357a37fa","system_id":"levelo_inurba_marseille","lat":43.29536,"lon":5.39382,"is_reserved":false,"is_disabled":false,"rental_uris":{"android":"levelo://app?vid=c089c19a-9e3a-4f5f-8b9c-a99d357a37fa","ios":"levelo://app?vid=c089c19a-9e3a-4f5f-8b9c-a99d357a37fa"},"vehicle_type_id":"4","last_reported":1740438559,"current_range_meters":15200,"station_id":"ce4bh292rcd13ifvqdf0","pricing_plan_id":"cebpf4jnsgd1na2vs0mg"},{"bike_id":"ed8c1bab-a7b4-438a-950c-b8f0fe91dea0","system_id":"levelo_inurba_marseille","lat":43.26172,"lon":5.40494,"is_reserved":false,"is_disabled":false,"rental_uris":{"android":"levelo://app?vid=ed8c1bab-a7b4-438a-950c-b8f0fe91dea0","ios":"levelo://app?vid=ed8c1bab-a7b4-438a-950c-b8f0fe91dea0"},"vehicle_type_id":"4","last_reported":1740438559,"current_range_meters":14800,"station_id":"ce4bhmh2rcd13ifvqgmg","pricing_plan_id":"cebpf4jnsgd1na2vs0mg"},{"bike_id":"03c502df-c0d3-4ad7-b038-d3923b426e2e","system_id":"levelo_inurba_marseille","lat":43.2942,"lon":5.38623,"is_reserved":false,"is_disabled":true,"rental_uris":{"android":"levelo://app?vid=03c502df-c0d3-4ad7-b038-d3923b426e2e","ios":"levelo://app?vid=03c502df-c0d3-4ad7-b038-d3923b426e2e"},"vehicle_type_id":"4","last_reported":1740438559,"current_range_meters":14800,"station_id":"ce4bh2h2rcd13ifvqdh0","pricing_plan_id":"cebpf4jnsgd1na2vs0mg"},{"bike_id":"37df152e-bb86-475e-91f1-cd8724bc9c17","system_id":"levelo_inurba_marseille","lat":43.31764,"lon":5.39008,"is_reserved":false,"is_disabled":false,"rental_uris":{"android":"levelo://app?vid=37df152e-bb86-475e-91f1-cd8724bc9c17","ios":"levelo://app?vid=37df152e-bb86-475e-91f1-cd8724bc9c17"},"vehicle_type_id":"4","last_reported":1740438559,"current_range_meters":14800,"station_id":"ce4bhqp2rcd13ifvqhng","pricing_plan_id":"cebpf4jnsgd1na2vs0mg"},{"bike_id":"c08ee2e6-fdf1-4ded-9dac-f5139a08339c","system_id":"levelo_inurba_marseille","lat":43.297858,"lon":5.371012,"is_reserved":false,"is_disabled":false,"rental_uris":{"android":"levelo://app?vid=c08ee2e6-fdf1-4ded-9dac-f5139a08339c","ios":"levelo://app?vid=c08ee2e6-fdf1-4ded-9dac-f5139a08339c"},"vehicle_type_id":"4","last_reported":1740438559,"current_range_meters":15200,"station_id":"ce4bgop2rcd13ifvqc1g","pricing_plan_id":"cebpf4jnsgd1na2vs0mg"},{"bike_id":"de54b84e-d754-4cf9-97ed-7d6cd44576a6","system_id":"levelo_inurba_marseille","lat":43.27817,"lon":5.40714,"is_reserved":false,"is_disabled":false,"rental_uris":{"android":"levelo://app?vid=de54b84e-d754-4cf9-97ed-7d6cd44576a6","ios":"levelo://app?vid=de54b84e-d754-4cf9-97ed-7d6cd44576a6"},"vehicle_type_id":"4","last_reported":1740438559,"current_range_meters":15200,"station_id":"ce4bhnh2rcd13ifvqgtg","pricing_plan_id":"cebpf4jnsgd1na2vs0mg"},{"bike_id":"05f51bd6-bf8c-4b6c-ba2f-d7bf7cec3006","system_id":"levelo_inurba_marseille","lat":43.23186,"lon":5.35573,"is_reserved":false,"is_disabled":false,"rental_uris":{"android":"levelo://app?vid=05f51bd6-bf8c-4b6c-ba2f-d7bf7cec3006","ios":"levelo://app?vid=05f51bd6-bf8c-4b6c-ba2f-d7bf7cec3006"},"vehicle_type_id":"4","last_reported":1740438559,"current_range_meters":15200,"station_id":"ce4bhu92rcd13ifvqi70","pricing_plan_id":"cebpf4jnsgd1na2vs0mg"},{"bike_id":"92ed7cef-280a-478a-a395-78128812bf52","system_id":"levelo_inurba_marseille","lat":43.284726,"lon":5.38437,"is_reserved":false,"is_disabled":true,"rental_uris":{"android":"levelo://app?vid=92ed7cef-280a-478a-a395-78128812bf52","ios":"levelo://app?vid=92ed7cef-280a-478a-a395-78128812bf52"},"vehicle_type_id":"4","last_reported":1740438559,"current_range_meters":15200,"station_id":"ce4bh512rcd13ifvqe3g","pricing_plan_id":"cebpf4jnsgd1na2vs0mg"},{"bike_id":"3873f8b1-d159-447e-bc58-8ff33cdbd6e1","system_id":"levelo_inurba_marseille","lat":43.28867,"lon":5.3583,"is_reserved":false,"is_disabled":false,"rental_uris":{"android":"levelo://app?vid=3873f8b1-d159-447e-bc58-8ff33cdbd6e1","ios":"levelo://app?vid=3873f8b1-d159-447e-bc58-8ff33cdbd6e1"},"vehicle_type_id":"4","last_reported":1740438559,"current_range_meters":16000,"station_id":"ce4bhb12rcd13ifvqem0","pricing_plan_id":"cebpf4jnsgd1na2vs0mg"},{"bike_id":"6f9eb619-ce1a-440a-9085-673242f78425","system_id":"levelo_inurba_marseille","lat":43.29496,"lon":5.37529,"is_reserved":false,"is_disabled":true,"rental_uris":{"android":"levelo://app?vid=6f9eb619-ce1a-440a-9085-673242f78425","ios":"levelo://app?vid=6f9eb619-ce1a-440a-9085-673242f78425"},"vehicle_type_id":"4","last_reported":1740438559,"current_range_meters":16000,"station_id":"","pricing_plan_id":"cebpf4jnsgd1na2vs0mg"},{"bike_id":"ea96d41c-01a9-440f-9def-3e243141c897","system_id":"levelo_inurba_marseille","lat":43.2987,"lon":5.39744,"is_reserved":false,"is_disabled":false,"rental_uris":{"android":"levelo://app?vid=ea96d41c-01a9-440f-9def-3e243141c897","ios":"levelo://app?vid=ea96d41c-01a9-440f-9def-3e243141c897"},"vehicle_type_id":"4","last_reported":1740438559,"current_range_meters":16400,"station_id":"ce4bh0h2rcd13ifvqd50","pricing_plan_id":"cebpf4jnsgd1na2vs0mg"},{"bike_id":"1c2f3bdc-68fa-40a8-b99e-fcf41f32f9e4","system_id":"levelo_inurba_marseille","lat":43.29199,"lon":5.40487,"is_reserved":false,"is_disabled":false,"rental_uris":{"android":"levelo://app?vid=1c2f3bdc-68fa-40a8-b99e-fcf41f32f9e4","ios":"levelo://app?vid=1c2f3bdc-68fa-40a8-b99e-fcf41f32f9e4"},"vehicle_type_id":"4","last_reported":1740438559,"current_range_meters":16000,"station_id":"","pricing_plan_id":"cebpf4jnsgd1na2vs0mg"},{"bike_id":"c9a1858d-786d-4197-a639-046d237805f3","system_id":"levelo_inurba_marseille","lat":43.28401,"lon":5.37537,"is_reserved":false,"is_disabled":false,"rental_uris":{"android":"levelo://app?vid=c9a1858d-786d-4197-a639-046d237805f3","ios":"levelo://app?vid=c9a1858d-786d-4197-a639-046d237805f3"},"vehicle_type_id":"4","last_reported":1740438559,"current_range_meters":16000,"station_id":"ce4bh412rcd13ifvqds0","pricing_plan_id":"cebpf4jnsgd1na2vs0mg"},{"bike_id":"5318d280-53a7-4432-99ee-03eb47db6010","system_id":"levelo_inurba_marseille","lat":43.2808,"lon":5.39657,"is_reserved":false,"is_disabled":false,"rental_uris":{"android":"levelo://app?vid=5318d280-53a7-4432-99ee-03eb47db6010","ios":"levelo://app?vid=5318d280-53a7-4432-99ee-03eb47db6010"},"vehicle_type_id":"4","last_reported":1740438559,"current_range_meters":16000,"station_id":"ce4bho12rcd13ifvqh2g","pricing_plan_id":"cebpf4jnsgd1na2vs0mg"},{"bike_id":"e91fe3a2-3bf1-4c2b-a8af-758533abe744","system_id":"levelo_inurba_marseille","lat":43.29283,"lon":5.40133,"is_reserved":false,"is_disabled":false,"rental_uris":{"android":"levelo://app?vid=e91fe3a2-3bf1-4c2b-a8af-758533abe744","ios":"levelo://app?vid=e91fe3a2-3bf1-4c2b-a8af-758533abe744"},"vehicle_type_id":"4","last_reported":1740438559,"current_range_meters":16000,"station_id":"ce4bh312rcd13ifvqdk0","pricing_plan_id":"cebpf4jnsgd1na2vs0mg"},{"bike_id":"c33dc554-6ec4-498e-a373-244da71a4042","system_id":"levelo_inurba_marseille","lat":43.28416,"lon":5.34991,"is_reserved":false,"is_disabled":false,"rental_uris":{"android":"levelo://app?vid=c33dc554-6ec4-498e-a373-244da71a4042","ios":"levelo://app?vid=c33dc554-6ec4-498e-a373-244da71a4042"},"vehicle_type_id":"4","last_reported":1740438559,"current_range_meters":16000,"station_id":"ce4bhbh2rcd13ifvqepg","pricing_plan_id":"cebpf4jnsgd1na2vs0mg"},{"bike_id":"f5199c91-a04d-4ab5-975e-7a0c1c29ef09","system_id":"levelo_inurba_marseille","lat":43.32094,"lon":5.36776,"is_reserved":false,"is_disabled":false,"rental_uris":{"android":"levelo://app?vid=f5199c91-a04d-4ab5-975e-7a0c1c29ef09","ios":"levelo://app?vid=f5199c91-a04d-4ab5-975e-7a0c1c29ef09"},"vehicle_type_id":"4","last_reported":1740438559,"current_range_meters":16000,"station_id":"ce4bhrh2rcd13ifvqhug","pricing_plan_id":"cebpf4jnsgd1na2vs0mg"},{"bike_id":"5b8a8f3b-2f99-4faa-8d0c-8a2f1ca059ef","system_id":"levelo_inurba_marseille","lat":43.30607,"lon":5.372319,"is_reserved":false,"is_disabled":false,"rental_uris":{"android":"levelo://app?vid=5b8a8f3b-2f99-4faa-8d0c-8a2f1ca059ef","ios":"levelo://app?vid=5b8a8f3b-2f99-4faa-8d0c-8a2f1ca059ef"},"vehicle_type_id":"4","last_reported":1740438559,"current_range_meters":16400,"station_id":"ce4bgt92rcd13ifvqcf0","pricing_plan_id":"cebpf4jnsgd1na2vs0mg"},{"bike_id":"27df2c47-30b9-42a1-a17f-d05f9ce10835","system_id":"levelo_inurba_marseille","lat":43.284,"lon":5.3752,"is_reserved":false,"is_disabled":false,"rental_uris":{"android":"levelo://app?vid=27df2c47-30b9-42a1-a17f-d05f9ce10835","ios":"levelo://app?vid=27df2c47-30b9-42a1-a17f-d05f9ce10835"},"vehicle_type_id":"4","last_reported":1740438559,"current_range_meters":16400,"station_id":"ce4bh412rcd13ifvqds0","pricing_plan_id":"cebpf4jnsgd1na2vs0mg"},{"bike_id":"6239f636-804f-46f9-bccd-f6be6568ba35","system_id":"levelo_inurba_marseille","lat":43.25075,"lon":5.39514,"is_reserved":false,"is_disabled":false,"rental_uris":{"android":"levelo://app?vid=6239f636-804f-46f9-bccd-f6be6568ba35","ios":"levelo://app?vid=6239f636-804f-46f9-bccd-f6be6568ba35"},"vehicle_type_id":"4","last_reported":1740438559,"current_range_meters":16400,"station_id":"ce4bhm12rcd13ifvqgkg","pricing_plan_id":"cebpf4jnsgd1na2vs0mg"},{"bike_id":"63d2dc5a-e03c-4909-9269-36c39633100a","system_id":"levelo_inurba_marseille","lat":43.28419,"lon":5.35008,"is_reserved":false,"is_disabled":true,"rental_uris":{"android":"levelo://app?vid=63d2dc5a-e03c-4909-9269-36c39633100a","ios":"levelo://app?vid=63d2dc5a-e03c-4909-9269-36c39633100a"},"vehicle_type_id":"4","last_reported":1740438559,"current_range_meters":16400,"station_id":"ce4bhbh2rcd13ifvqepg","pricing_plan_id":"cebpf4jnsgd1na2vs0mg"},{"bike_id":"9062f7b6-9c81-49b8-a1bd-5df58202afcd","system_id":"levelo_inurba_marseille","lat":43.31714,"lon":5.43705,"is_reserved":false,"is_disabled":false,"rental_uris":{"android":"levelo://app?vid=9062f7b6-9c81-49b8-a1bd-5df58202afcd","ios":"levelo://app?vid=9062f7b6-9c81-49b8-a1bd-5df58202afcd"},"vehicle_type_id":"4","last_reported":1740438559,"current_range_meters":16400,"station_id":"ce4bhp92rcd13ifvqhcg","pricing_plan_id":"cebpf4jnsgd1na2vs0mg"},{"bike_id":"8514fc45-931a-4d33-8ebd-119ca23a33dc","system_id":"levelo_inurba_marseille","lat":43.27821,"lon":5.40688,"is_reserved":false,"is_disabled":false,"rental_uris":{"android":"levelo://app?vid=8514fc45-931a-4d33-8ebd-119ca23a33dc","ios":"levelo://app?vid=8514fc45-931a-4d33-8ebd-119ca23a33dc"},"vehicle_type_id":"4","last_reported":1740438559,"current_range_meters":16400,"station_id":"ce4bhnh2rcd13ifvqgtg","pricing_plan_id":"cebpf4jnsgd1na2vs0mg"},{"bike_id":"7aad4924-7e8f-4ab1-a74a-4d1965f5fbe6","system_id":"levelo_inurba_marseille","lat":43.30881,"lon":5.39629,"is_reserved":false,"is_disabled":false,"rental_uris":{"android":"levelo://app?vid=7aad4924-7e8f-4ab1-a74a-4d1965f5fbe6","ios":"levelo://app?vid=7aad4924-7e8f-4ab1-a74a-4d1965f5fbe6"},"vehicle_type_id":"4","last_reported":1740438559,"current_range_meters":16400,"station_id":"ce4bh012rcd13ifvqcv0","pricing_plan_id":"cebpf4jnsgd1na2vs0mg"},{"bike_id":"73747d2b-e71e-4180-a461-b9fb4a42bfe0","system_id":"levelo_inurba_marseille","lat":43.287237,"lon":5.379352,"is_reserved":false,"is_disabled":false,"rental_uris":{"android":"levelo://app?vid=73747d2b-e71e-4180-a461-b9fb4a42bfe0","ios":"levelo://app?vid=73747d2b-e71e-4180-a461-b9fb4a42bfe0"},"vehicle_type_id":"4","last_reported":1740438559,"current_range_meters":16400,"station_id":"ce4bh9p2rcd13ifvqec0","pricing_plan_id":"cebpf4jnsgd1na2vs0mg"},{"bike_id":"fb352528-6dce-483c-a4f0-c367df3759b9","system_id":"levelo_inurba_marseille","lat":43.2905,"lon":5.37552,"is_reserved":false,"is_disabled":true,"rental_uris":{"android":"levelo://app?vid=fb352528-6dce-483c-a4f0-c367df3759b9","ios":"levelo://app?vid=fb352528-6dce-483c-a4f0-c367df3759b9"},"vehicle_type_id":"4","last_reported":1740438559,"current_range_meters":16400,"station_id":"ce4bh692rcd13ifvqe90","pricing_plan_id":"cebpf4jnsgd1na2vs0mg"},{"bike_id":"55d0544f-7da3-4be4-a9d8-528863a6ad18","system_id":"levelo_inurba_marseille","lat":43.30635,"lon":5.40091,"is_reserved":false,"is_disabled":false,"rental_uris":{"android":"levelo://app?vid=55d0544f-7da3-4be4-a9d8-528863a6ad18","ios":"levelo://app?vid=55d0544f-7da3-4be4-a9d8-528863a6ad18"},"vehicle_type_id":"4","last_reported":1740438559,"current_range_meters":16800,"station_id":"ce4bh112rcd13ifvqda0","pricing_plan_id":"cebpf4jnsgd1na2vs0mg"},{"bike_id":"f7b1904a-e706-46d3-9acc-c42a6ddbcbe8","system_id":"levelo_inurba_marseille","lat":43.28704,"lon":5.39973,"is_reserved":false,"is_disabled":false,"rental_uris":{"android":"levelo://app?vid=f7b1904a-e706-46d3-9acc-c42a6ddbcbe8","ios":"levelo://app?vid=f7b1904a-e706-46d3-9acc-c42a6ddbcbe8"},"vehicle_type_id":"4","last_reported":1740438559,"current_range_meters":16800,"station_id":"ce4bho92rcd13ifvqh3g","pricing_plan_id":"cebpf4jnsgd1na2vs0mg"},{"bike_id":"c515d490-2f17-406e-8ded-4de848688876","system_id":"levelo_inurba_marseille","lat":43.26562,"lon":5.39008,"is_reserved":false,"is_disabled":false,"rental_uris":{"android":"levelo://app?vid=c515d490-2f17-406e-8ded-4de848688876","ios":"levelo://app?vid=c515d490-2f17-406e-8ded-4de848688876"},"vehicle_type_id":"4","last_reported":1740438559,"current_range_meters":16800,"station_id":"ce4bhe12rcd13ifvqf30","pricing_plan_id":"cebpf4jnsgd1na2vs0mg"},{"bike_id":"123873b6-0553-4b01-8057-3a4fedeb0171","system_id":"levelo_inurba_marseille","lat":43.25088,"lon":5.39518,"is_reserved":false,"is_disabled":false,"rental_uris":{"android":"levelo://app?vid=123873b6-0553-4b01-8057-3a4fedeb0171","ios":"levelo://app?vid=123873b6-0553-4b01-8057-3a4fedeb0171"},"vehicle_type_id":"4","last_reported":1740438559,"current_range_meters":16800,"station_id":"ce4bhm12rcd13ifvqgkg","pricing_plan_id":"cebpf4jnsgd1na2vs0mg"},{"bike_id":"46455735-1dab-4610-8eb6-3c16d93ce19b","system_id":"levelo_inurba_marseille","lat":43.27951,"lon":5.41041,"is_reserved":false,"is_disabled":false,"rental_uris":{"android":"levelo://app?vid=46455735-1dab-4610-8eb6-3c16d93ce19b","ios":"levelo://app?vid=46455735-1dab-4610-8eb6-3c16d93ce19b"},"vehicle_type_id":"4","last_reported":1740438559,"current_range_meters":16800,"station_id":"ce4bhnp2rcd13ifvqh0g","pricing_plan_id":"cebpf4jnsgd1na2vs0mg"},{"bike_id":"7eaeec7f-6e5f-4b77-9a1f-29254617a48f","system_id":"levelo_inurba_marseille","lat":43.28705,"lon":5.39973,"is_reserved":false,"is_disabled":false,"rental_uris":{"android":"levelo://app?vid=7eaeec7f-6e5f-4b77-9a1f-29254617a48f","ios":"levelo://app?vid=7eaeec7f-6e5f-4b77-9a1f-29254617a48f"},"vehicle_type_id":"4","last_reported":1740438559,"current_range_meters":17200,"station_id":"ce4bho92rcd13ifvqh3g","pricing_plan_id":"cebpf4jnsgd1na2vs0mg"},{"bike_id":"0dc77e2f-ce80-4f7e-b672-b7d704534da5","system_id":"levelo_inurba_marseille","lat":43.27998,"lon":5.40023,"is_reserved":false,"is_disabled":false,"rental_uris":{"android":"levelo://app?vid=0dc77e2f-ce80-4f7e-b672-b7d704534da5","ios":"levelo://app?vid=0dc77e2f-ce80-4f7e-b672-b7d704534da5"},"vehicle_type_id":"4","last_reported":1740438559,"current_range_meters":16800,"station_id":"ce4bho92rcd13ifvqh4g","pricing_plan_id":"cebpf4jnsgd1na2vs0mg"},{"bike_id":"db8f7a43-768b-45ca-9dfa-098c5d9697d5","system_id":"levelo_inurba_marseille","lat":43.28852,"lon":5.35827,"is_reserved":false,"is_disabled":false,"rental_uris":{"android":"levelo://app?vid=db8f7a43-768b-45ca-9dfa-098c5d9697d5","ios":"levelo://app?vid=db8f7a43-768b-45ca-9dfa-098c5d9697d5"},"vehicle_type_id":"4","last_reported":1740438559,"current_range_meters":16800,"station_id":"ce4bhb12rcd13ifvqem0","pricing_plan_id":"cebpf4jnsgd1na2vs0mg"},{"bike_id":"06ba8faf-1890-49a3-ab59-d9bac3cc50a7","system_id":"levelo_inurba_marseille","lat":43.24996,"lon":5.38953,"is_reserved":false,"is_disabled":false,"rental_uris":{"android":"levelo://app?vid=06ba8faf-1890-49a3-ab59-d9bac3cc50a7","ios":"levelo://app?vid=06ba8faf-1890-49a3-ab59-d9bac3cc50a7"},"vehicle_type_id":"4","last_reported":1740438559,"current_range_meters":17200,"station_id":"ce4bhgp2rcd13ifvqfd0","pricing_plan_id":"cebpf4jnsgd1na2vs0mg"},{"bike_id":"6bd3a0df-cd24-4e84-8935-0a8995a4bbf6","system_id":"levelo_inurba_marseille","lat":43.30073,"lon":5.39075,"is_reserved":false,"is_disabled":false,"rental_uris":{"android":"levelo://app?vid=6bd3a0df-cd24-4e84-8935-0a8995a4bbf6","ios":"levelo://app?vid=6bd3a0df-cd24-4e84-8935-0a8995a4bbf6"},"vehicle_type_id":"4","last_reported":1740438559,"current_range_meters":16800,"station_id":"ce4bh192rcd13ifvqdb0","pricing_plan_id":"cebpf4jnsgd1na2vs0mg"},{"bike_id":"aff7a8a1-5476-44b3-8b23-aa5705650095","system_id":"levelo_inurba_marseille","lat":43.29527,"lon":5.39404,"is_reserved":false,"is_disabled":false,"rental_uris":{"android":"levelo://app?vid=aff7a8a1-5476-44b3-8b23-aa5705650095","ios":"levelo://app?vid=aff7a8a1-5476-44b3-8b23-aa5705650095"},"vehicle_type_id":"4","last_reported":1740438559,"current_range_meters":17200,"station_id":"ce4bh292rcd13ifvqdf0","pricing_plan_id":"cebpf4jnsgd1na2vs0mg"},{"bike_id":"7c45866a-bd99-4c12-9747-66203f12a96e","system_id":"levelo_inurba_marseille","lat":43.231405,"lon":5.35508,"is_reserved":false,"is_disabled":false,"rental_uris":{"android":"levelo://app?vid=7c45866a-bd99-4c12-9747-66203f12a96e","ios":"levelo://app?vid=7c45866a-bd99-4c12-9747-66203f12a96e"},"vehicle_type_id":"4","last_reported":1740438559,"current_range_meters":17200,"station_id":"","pricing_plan_id":"cebpf4jnsgd1na2vs0mg"},{"bike_id":"f082692b-97a5-4c65-95bf-06ed48084027","system_id":"levelo_inurba_marseille","lat":43.24176,"lon":5.39718,"is_reserved":false,"is_disabled":false,"rental_uris":{"android":"levelo://app?vid=f082692b-97a5-4c65-95bf-06ed48084027","ios":"levelo://app?vid=f082692b-97a5-4c65-95bf-06ed48084027"},"vehicle_type_id":"4","last_reported":1740438559,"current_range_meters":17200,"station_id":"ce4bhn12rcd13ifvqgpg","pricing_plan_id":"cebpf4jnsgd1na2vs0mg"},{"bike_id":"c068dcb4-6111-4494-92b0-fe59cb336012","system_id":"levelo_inurba_marseille","lat":43.2988,"lon":5.38914,"is_reserved":false,"is_disabled":false,"rental_uris":{"android":"levelo://app?vid=c068dcb4-6111-4494-92b0-fe59cb336012","ios":"levelo://app?vid=c068dcb4-6111-4494-92b0-fe59cb336012"},"vehicle_type_id":"4","last_reported":1740438559,"current_range_meters":17200,"station_id":"ce4bh392rcd13ifvqdl0","pricing_plan_id":"cebpf4jnsgd1na2vs0mg"},{"bike_id":"48cd24b6-6d9d-440b-9450-0fec3fc9894e","system_id":"levelo_inurba_marseille","lat":43.28836,"lon":5.35867,"is_reserved":false,"is_disabled":false,"rental_uris":{"android":"levelo://app?vid=48cd24b6-6d9d-440b-9450-0fec3fc9894e","ios":"levelo://app?vid=48cd24b6-6d9d-440b-9450-0fec3fc9894e"},"vehicle_type_id":"4","last_reported":1740438559,"current_range_meters":17600,"station_id":"ce4bhb12rcd13ifvqem0","pricing_plan_id":"cebpf4jnsgd1na2vs0mg"},{"bike_id":"2897e826-ffe9-4622-99c6-b912634e5b69","system_id":"levelo_inurba_marseille","lat":43.29965,"lon":5.4132,"is_reserved":false,"is_disabled":false,"rental_uris":{"android":"levelo://app?vid=2897e826-ffe9-4622-99c6-b912634e5b69","ios":"levelo://app?vid=2897e826-ffe9-4622-99c6-b912634e5b69"},"vehicle_type_id":"4","last_reported":1740438559,"current_range_meters":16800,"station_id":"ce4bhp12rcd13ifvqh9g","pricing_plan_id":"cebpf4jnsgd1na2vs0mg"},{"bike_id":"90d7e3e7-ce3a-4f91-9370-8f5b1b58a1f7","system_id":"levelo_inurba_marseille","lat":43.28455,"lon":5.35887,"is_reserved":false,"is_disabled":false,"rental_uris":{"android":"levelo://app?vid=90d7e3e7-ce3a-4f91-9370-8f5b1b58a1f7","ios":"levelo://app?vid=90d7e3e7-ce3a-4f91-9370-8f5b1b58a1f7"},"vehicle_type_id":"4","last_reported":1740438559,"current_range_meters":17600,"station_id":"ce4bhah2rcd13ifvqei0","pricing_plan_id":"cebpf4jnsgd1na2vs0mg"},{"bike_id":"c68f3a0b-e764-4bf3-9b63-b72387fdffb5","system_id":"levelo_inurba_marseille","lat":43.28847,"lon":5.35825,"is_reserved":false,"is_disabled":false,"rental_uris":{"android":"levelo://app?vid=c68f3a0b-e764-4bf3-9b63-b72387fdffb5","ios":"levelo://app?vid=c68f3a0b-e764-4bf3-9b63-b72387fdffb5"},"vehicle_type_id":"4","last_reported":1740438559,"current_range_meters":18000,"station_id":"ce4bhb12rcd13ifvqem0","pricing_plan_id":"cebpf4jnsgd1na2vs0mg"},{"bike_id":"8140536f-d4f8-472f-83af-0e094b3f960a","system_id":"levelo_inurba_marseille","lat":43.31084,"lon":5.4243,"is_reserved":false,"is_disabled":false,"rental_uris":{"android":"levelo://app?vid=8140536f-d4f8-472f-83af-0e094b3f960a","ios":"levelo://app?vid=8140536f-d4f8-472f-83af-0e094b3f960a"},"vehicle_type_id":"4","last_reported":1740438559,"current_range_meters":18000,"station_id":"ce4bhp92rcd13ifvqhag","pricing_plan_id":"cebpf4jnsgd1na2vs0mg"},{"bike_id":"67462c7c-fcd4-47dc-94d8-9d7a33d5da2f","system_id":"levelo_inurba_marseille","lat":43.27938,"lon":5.41035,"is_reserved":false,"is_disabled":false,"rental_uris":{"android":"levelo://app?vid=67462c7c-fcd4-47dc-94d8-9d7a33d5da2f","ios":"levelo://app?vid=67462c7c-fcd4-47dc-94d8-9d7a33d5da2f"},"vehicle_type_id":"4","last_reported":1740438559,"current_range_meters":17600,"station_id":"ce4bhnp2rcd13ifvqh0g","pricing_plan_id":"cebpf4jnsgd1na2vs0mg"},{"bike_id":"c3d0fefa-5db4-49bd-a964-1a22da440d36","system_id":"levelo_inurba_marseille","lat":43.269559,"lon":5.386313,"is_reserved":false,"is_disabled":false,"rental_uris":{"android":"levelo://app?vid=c3d0fefa-5db4-49bd-a964-1a22da440d36","ios":"levelo://app?vid=c3d0fefa-5db4-49bd-a964-1a22da440d36"},"vehicle_type_id":"4","last_reported":1740438559,"current_range_meters":17600,"station_id":"","pricing_plan_id":"cebpf4jnsgd1na2vs0mg"},{"bike_id":"7951ec82-c1c3-436f-b4bb-ea3dd1dc5ab6","system_id":"levelo_inurba_marseille","lat":43.28634,"lon":5.35101,"is_reserved":false,"is_disabled":false,"rental_uris":{"android":"levelo://app?vid=7951ec82-c1c3-436f-b4bb-ea3dd1dc5ab6","ios":"levelo://app?vid=7951ec82-c1c3-436f-b4bb-ea3dd1dc5ab6"},"vehicle_type_id":"4","last_reported":1740438559,"current_range_meters":18000,"station_id":"ce4bhch2rcd13ifvqeug","pricing_plan_id":"cebpf4jnsgd1na2vs0mg"},{"bike_id":"9a11ec48-998c-4e7a-80c1-6a36f276d3e0","system_id":"levelo_inurba_marseille","lat":43.292768,"lon":5.368451,"is_reserved":false,"is_disabled":false,"rental_uris":{"android":"levelo://app?vid=9a11ec48-998c-4e7a-80c1-6a36f276d3e0","ios":"levelo://app?vid=9a11ec48-998c-4e7a-80c1-6a36f276d3e0"},"vehicle_type_id":"4","last_reported":1740438559,"current_range_meters":18800,"station_id":"ce4bhbp2rcd13ifvqesg","pricing_plan_id":"cebpf4jnsgd1na2vs0mg"},{"bike_id":"5bef056c-d61f-46ed-bbba-16214d7268b1","system_id":"levelo_inurba_marseille","lat":43.28356,"lon":5.3811,"is_reserved":false,"is_disabled":false,"rental_uris":{"android":"levelo://app?vid=5bef056c-d61f-46ed-bbba-16214d7268b1","ios":"levelo://app?vid=5bef056c-d61f-46ed-bbba-16214d7268b1"},"vehicle_type_id":"4","last_reported":1740438559,"current_range_meters":18000,"station_id":"ce4bh412rcd13ifvqdr0","pricing_plan_id":"cebpf4jnsgd1na2vs0mg"},{"bike_id":"fecb5daa-a777-44eb-ad60-faaf813f5687","system_id":"levelo_inurba_marseille","lat":43.2903,"lon":5.35914,"is_reserved":false,"is_disabled":false,"rental_uris":{"android":"levelo://app?vid=fecb5daa-a777-44eb-ad60-faaf813f5687","ios":"levelo://app?vid=fecb5daa-a777-44eb-ad60-faaf813f5687"},"vehicle_type_id":"4","last_reported":1740438559,"current_range_meters":18000,"station_id":"ce4bha92rcd13ifvqeg0","pricing_plan_id":"cebpf4jnsgd1na2vs0mg"},{"bike_id":"fc4fc2bc-cc85-4ec8-a7e7-3a6ae146cf46","system_id":"levelo_inurba_marseille","lat":43.29193,"lon":5.39321,"is_reserved":false,"is_disabled":false,"rental_uris":{"android":"levelo://app?vid=fc4fc2bc-cc85-4ec8-a7e7-3a6ae146cf46","ios":"levelo://app?vid=fc4fc2bc-cc85-4ec8-a7e7-3a6ae146cf46"},"vehicle_type_id":"4","last_reported":1740438559,"current_range_meters":18000,"station_id":"ce4bh192rcd13ifvqdd0","pricing_plan_id":"cebpf4jnsgd1na2vs0mg"},{"bike_id":"5b05002f-7e6a-4c47-97c7-0858f4fd1ce4","system_id":"levelo_inurba_marseille","lat":43.28944,"lon":5.36626,"is_reserved":false,"is_disabled":false,"rental_uris":{"android":"levelo://app?vid=5b05002f-7e6a-4c47-97c7-0858f4fd1ce4","ios":"levelo://app?vid=5b05002f-7e6a-4c47-97c7-0858f4fd1ce4"},"vehicle_type_id":"4","last_reported":1740438559,"current_range_meters":18800,"station_id":"ce4bhap2rcd13ifvqek0","pricing_plan_id":"cebpf4jnsgd1na2vs0mg"},{"bike_id":"4481209c-85f8-4ba5-af9e-b9452d34cf35","system_id":"levelo_inurba_marseille","lat":43.301843,"lon":5.366042,"is_reserved":false,"is_disabled":false,"rental_uris":{"android":"levelo://app?vid=4481209c-85f8-4ba5-af9e-b9452d34cf35","ios":"levelo://app?vid=4481209c-85f8-4ba5-af9e-b9452d34cf35"},"vehicle_type_id":"4","last_reported":1740438559,"current_range_meters":18000,"station_id":"ce4bgrh2rcd13ifvqc8g","pricing_plan_id":"cebpf4jnsgd1na2vs0mg"},{"bike_id":"97b32ca9-0b6b-4e41-8c58-cfffa4bec840","system_id":"levelo_inurba_marseille","lat":43.31118,"lon":5.37763,"is_reserved":false,"is_disabled":false,"rental_uris":{"android":"levelo://app?vid=97b32ca9-0b6b-4e41-8c58-cfffa4bec840","ios":"levelo://app?vid=97b32ca9-0b6b-4e41-8c58-cfffa4bec840"},"vehicle_type_id":"4","last_reported":1740438559,"current_range_meters":18000,"station_id":"ce4bgt92rcd13ifvqcg0","pricing_plan_id":"cebpf4jnsgd1na2vs0mg"},{"bike_id":"bb8597cb-942c-426f-8f1b-df43f7fdd99d","system_id":"levelo_inurba_marseille","lat":43.29877,"lon":5.38901,"is_reserved":false,"is_disabled":false,"rental_uris":{"android":"levelo://app?vid=bb8597cb-942c-426f-8f1b-df43f7fdd99d","ios":"levelo://app?vid=bb8597cb-942c-426f-8f1b-df43f7fdd99d"},"vehicle_type_id":"4","last_reported":1740438559,"current_range_meters":18000,"station_id":"ce4bh392rcd13ifvqdl0","pricing_plan_id":"cebpf4jnsgd1na2vs0mg"},{"bike_id":"4dc7e4f2-a657-470d-a624-4e5f489e3d1d","system_id":"levelo_inurba_marseille","lat":43.294286,"lon":5.374887,"is_reserved":false,"is_disabled":false,"rental_uris":{"android":"levelo://app?vid=4dc7e4f2-a657-470d-a624-4e5f489e3d1d","ios":"levelo://app?vid=4dc7e4f2-a657-470d-a624-4e5f489e3d1d"},"vehicle_type_id":"4","last_reported":1740438559,"current_range_meters":18800,"station_id":"","pricing_plan_id":"cebpf4jnsgd1na2vs0mg"},{"bike_id":"342f6faa-d7db-4869-a8c6-15f071610b9c","system_id":"levelo_inurba_marseille","lat":43.29895,"lon":5.43653,"is_reserved":false,"is_disabled":false,"rental_uris":{"android":"levelo://app?vid=342f6faa-d7db-4869-a8c6-15f071610b9c","ios":"levelo://app?vid=342f6faa-d7db-4869-a8c6-15f071610b9c"},"vehicle_type_id":"4","last_reported":1740438559,"current_range_meters":18800,"station_id":"ce4bhpp2rcd13ifvqhfg","pricing_plan_id":"cebpf4jnsgd1na2vs0mg"},{"bike_id":"c3eaf577-384f-49be-90a6-7d88e2904d90","system_id":"levelo_inurba_marseille","lat":43.33618,"lon":5.41024,"is_reserved":false,"is_disabled":true,"rental_uris":{"android":"levelo://app?vid=c3eaf577-384f-49be-90a6-7d88e2904d90","ios":"levelo://app?vid=c3eaf577-384f-49be-90a6-7d88e2904d90"},"vehicle_type_id":"4","last_reported":1740438559,"current_range_meters":18800,"station_id":"ce4bhqh2rcd13ifvqhmg","pricing_plan_id":"cebpf4jnsgd1na2vs0mg"},{"bike_id":"eea46f47-e6ec-4c1d-a173-6d051008e29b","system_id":"levelo_inurba_marseille","lat":43.318805,"lon":5.407372,"is_reserved":false,"is_disabled":false,"rental_uris":{"android":"levelo://app?vid=eea46f47-e6ec-4c1d-a173-6d051008e29b","ios":"levelo://app?vid=eea46f47-e6ec-4c1d-a173-6d051008e29b"},"vehicle_type_id":"4","last_reported":1740438559,"current_range_meters":18800,"station_id":"ce4bhq12rcd13ifvqhig","pricing_plan_id":"cebpf4jnsgd1na2vs0mg"},{"bike_id":"2d50fb33-49cb-450e-a873-325ea39b74f3","system_id":"levelo_inurba_marseille","lat":43.29712,"lon":5.3661,"is_reserved":false,"is_disabled":false,"rental_uris":{"android":"levelo://app?vid=2d50fb33-49cb-450e-a873-325ea39b74f3","ios":"levelo://app?vid=2d50fb33-49cb-450e-a873-325ea39b74f3"},"vehicle_type_id":"4","last_reported":1740438559,"current_range_meters":19200,"station_id":"ce4bgn12rcd13ifvqbt0","pricing_plan_id":"cebpf4jnsgd1na2vs0mg"},{"bike_id":"6ab61c77-2b78-4944-929b-3625fab47136","system_id":"levelo_inurba_marseille","lat":43.28732,"lon":5.36082,"is_reserved":false,"is_disabled":false,"rental_uris":{"android":"levelo://app?vid=6ab61c77-2b78-4944-929b-3625fab47136","ios":"levelo://app?vid=6ab61c77-2b78-4944-929b-3625fab47136"},"vehicle_type_id":"4","last_reported":1740438559,"current_range_meters":19200,"station_id":"cki0cbj6b192h4jlfktg","pricing_plan_id":"cebpf4jnsgd1na2vs0mg"},{"bike_id":"eae38a93-dd09-49e3-895a-a41c8fd42355","system_id":"levelo_inurba_marseille","lat":43.30337,"lon":5.4043,"is_reserved":false,"is_disabled":false,"rental_uris":{"android":"levelo://app?vid=eae38a93-dd09-49e3-895a-a41c8fd42355","ios":"levelo://app?vid=eae38a93-dd09-49e3-895a-a41c8fd42355"},"vehicle_type_id":"4","last_reported":1740438559,"current_range_meters":19600,"station_id":"ce4bh012rcd13ifvqd10","pricing_plan_id":"cebpf4jnsgd1na2vs0mg"},{"bike_id":"e8d8d250-4dba-405b-9c84-c803f77d975f","system_id":"levelo_inurba_marseille","lat":43.27062,"lon":5.40257,"is_reserved":false,"is_disabled":false,"rental_uris":{"android":"levelo://app?vid=e8d8d250-4dba-405b-9c84-c803f77d975f","ios":"levelo://app?vid=e8d8d250-4dba-405b-9c84-c803f77d975f"},"vehicle_type_id":"4","last_reported":1740438559,"current_range_meters":19600,"station_id":"","pricing_plan_id":"cebpf4jnsgd1na2vs0mg"},{"bike_id":"114038f4-ead0-4db8-9a49-34c2c851290e","system_id":"levelo_inurba_marseille","lat":43.280028,"lon":5.400103,"is_reserved":false,"is_disabled":false,"rental_uris":{"android":"levelo://app?vid=114038f4-ead0-4db8-9a49-34c2c851290e","ios":"levelo://app?vid=114038f4-ead0-4db8-9a49-34c2c851290e"},"vehicle_type_id":"4","last_reported":1740438559,"current_range_meters":19600,"station_id":"ce4bho92rcd13ifvqh4g","pricing_plan_id":"cebpf4jnsgd1na2vs0mg"},{"bike_id":"9bb96cdf-78d2-4f2d-a906-dc0df595fac7","system_id":"levelo_inurba_marseille","lat":43.262334,"lon":5.404631,"is_reserved":false,"is_disabled":false,"rental_uris":{"android":"levelo://app?vid=9bb96cdf-78d2-4f2d-a906-dc0df595fac7","ios":"levelo://app?vid=9bb96cdf-78d2-4f2d-a906-dc0df595fac7"},"vehicle_type_id":"4","last_reported":1740438559,"current_range_meters":19200,"station_id":"ce4bhmh2rcd13ifvqgmg","pricing_plan_id":"cebpf4jnsgd1na2vs0mg"},{"bike_id":"0405ecb7-d759-436b-8e27-cc5f65ed09ae","system_id":"levelo_inurba_marseille","lat":43.29709,"lon":5.36617,"is_reserved":false,"is_disabled":false,"rental_uris":{"android":"levelo://app?vid=0405ecb7-d759-436b-8e27-cc5f65ed09ae","ios":"levelo://app?vid=0405ecb7-d759-436b-8e27-cc5f65ed09ae"},"vehicle_type_id":"4","last_reported":1740438559,"current_range_meters":19200,"station_id":"ce4bgn12rcd13ifvqbt0","pricing_plan_id":"cebpf4jnsgd1na2vs0mg"},{"bike_id":"5d5f0c0b-9bc4-4b1f-8890-8f3a88d118b3","system_id":"levelo_inurba_marseille","lat":43.28609,"lon":5.35112,"is_reserved":false,"is_disabled":false,"rental_uris":{"android":"levelo://app?vid=5d5f0c0b-9bc4-4b1f-8890-8f3a88d118b3","ios":"levelo://app?vid=5d5f0c0b-9bc4-4b1f-8890-8f3a88d118b3"},"vehicle_type_id":"4","last_reported":1740438559,"current_range_meters":20000,"station_id":"ce4bhch2rcd13ifvqeug","pricing_plan_id":"cebpf4jnsgd1na2vs0mg"},{"bike_id":"dc89590e-d487-4263-8792-a3fa4383d98a","system_id":"levelo_inurba_marseille","lat":43.2825,"lon":5.35075,"is_reserved":false,"is_disabled":false,"rental_uris":{"android":"levelo://app?vid=dc89590e-d487-4263-8792-a3fa4383d98a","ios":"levelo://app?vid=dc89590e-d487-4263-8792-a3fa4383d98a"},"vehicle_type_id":"4","last_reported":1740438559,"current_range_meters":19600,"station_id":"ce4bhbp2rcd13ifvqerg","pricing_plan_id":"cebpf4jnsgd1na2vs0mg"},{"bike_id":"91535162-45bc-4cd6-8578-b518c091005a","system_id":"levelo_inurba_marseille","lat":43.29243,"lon":5.36872,"is_reserved":false,"is_disabled":false,"rental_uris":{"android":"levelo://app?vid=91535162-45bc-4cd6-8578-b518c091005a","ios":"levelo://app?vid=91535162-45bc-4cd6-8578-b518c091005a"},"vehicle_type_id":"4","last_reported":1740438559,"current_range_meters":19600,"station_id":"ce4bhbp2rcd13ifvqesg","pricing_plan_id":"cebpf4jnsgd1na2vs0mg"},{"bike_id":"41718f89-03f6-4ad8-8e86-f27d92547056","system_id":"levelo_inurba_marseille","lat":43.25578,"lon":5.38255,"is_reserved":false,"is_disabled":false,"rental_uris":{"android":"levelo://app?vid=41718f89-03f6-4ad8-8e86-f27d92547056","ios":"levelo://app?vid=41718f89-03f6-4ad8-8e86-f27d92547056"},"vehicle_type_id":"4","last_reported":1740438559,"current_range_meters":20000,"station_id":"ce4bhih2rcd13ifvqfs0","pricing_plan_id":"cebpf4jnsgd1na2vs0mg"},{"bike_id":"eb9a393b-65d2-4707-8a3d-b26ce65f2bf9","system_id":"levelo_inurba_marseille","lat":43.26803,"lon":5.40251,"is_reserved":false,"is_disabled":false,"rental_uris":{"android":"levelo://app?vid=eb9a393b-65d2-4707-8a3d-b26ce65f2bf9","ios":"levelo://app?vid=eb9a393b-65d2-4707-8a3d-b26ce65f2bf9"},"vehicle_type_id":"4","last_reported":1740438559,"current_range_meters":20400,"station_id":"ce501612rcd8frsf0b60","pricing_plan_id":"cebpf4jnsgd1na2vs0mg"},{"bike_id":"451ee27c-3053-4dad-97f9-30aa721d9def","system_id":"levelo_inurba_marseille","lat":43.27986,"lon":5.40007,"is_reserved":false,"is_disabled":false,"rental_uris":{"android":"levelo://app?vid=451ee27c-3053-4dad-97f9-30aa721d9def","ios":"levelo://app?vid=451ee27c-3053-4dad-97f9-30aa721d9def"},"vehicle_type_id":"4","last_reported":1740438559,"current_range_meters":20400,"station_id":"ce4bho92rcd13ifvqh4g","pricing_plan_id":"cebpf4jnsgd1na2vs0mg"},{"bike_id":"7cfdc43f-219d-4f82-a053-ace7111ace72","system_id":"levelo_inurba_marseille","lat":43.26803,"lon":5.40264,"is_reserved":false,"is_disabled":false,"rental_uris":{"android":"levelo://app?vid=7cfdc43f-219d-4f82-a053-ace7111ace72","ios":"levelo://app?vid=7cfdc43f-219d-4f82-a053-ace7111ace72"},"vehicle_type_id":"4","last_reported":1740438559,"current_range_meters":20000,"station_id":"ce501612rcd8frsf0b60","pricing_plan_id":"cebpf4jnsgd1na2vs0mg"},{"bike_id":"590f05cb-f3c0-4ffb-8b94-b5202b1da910","system_id":"levelo_inurba_marseille","lat":43.28268,"lon":5.35076,"is_reserved":false,"is_disabled":false,"rental_uris":{"android":"levelo://app?vid=590f05cb-f3c0-4ffb-8b94-b5202b1da910","ios":"levelo://app?vid=590f05cb-f3c0-4ffb-8b94-b5202b1da910"},"vehicle_type_id":"4","last_reported":1740438559,"current_range_meters":20000,"station_id":"ce4bhbp2rcd13ifvqerg","pricing_plan_id":"cebpf4jnsgd1na2vs0mg"},{"bike_id":"79486965-c088-498f-8f45-61ea909d33f7","system_id":"levelo_inurba_marseille","lat":43.31115,"lon":5.37755,"is_reserved":false,"is_disabled":true,"rental_uris":{"android":"levelo://app?vid=79486965-c088-498f-8f45-61ea909d33f7","ios":"levelo://app?vid=79486965-c088-498f-8f45-61ea909d33f7"},"vehicle_type_id":"4","last_reported":1740438559,"current_range_meters":20000,"station_id":"ce4bgt92rcd13ifvqcg0","pricing_plan_id":"cebpf4jnsgd1na2vs0mg"},{"bike_id":"221fd357-9d90-422b-a634-8c144c2aca03","system_id":"levelo_inurba_marseille","lat":43.25717,"lon":5.41115,"is_reserved":false,"is_disabled":false,"rental_uris":{"android":"levelo://app?vid=221fd357-9d90-422b-a634-8c144c2aca03","ios":"levelo://app?vid=221fd357-9d90-422b-a634-8c144c2aca03"},"vehicle_type_id":"4","last_reported":1740438559,"current_range_meters":19600,"station_id":"ce4bhkp2rcd13ifvqgd0","pricing_plan_id":"cebpf4jnsgd1na2vs0mg"},{"bike_id":"488dcb80-3c7c-4192-9cfd-0dbe2f77d628","system_id":"levelo_inurba_marseille","lat":43.29311,"lon":5.371814,"is_reserved":false,"is_disabled":false,"rental_uris":{"android":"levelo://app?vid=488dcb80-3c7c-4192-9cfd-0dbe2f77d628","ios":"levelo://app?vid=488dcb80-3c7c-4192-9cfd-0dbe2f77d628"},"vehicle_type_id":"4","last_reported":1740438559,"current_range_meters":20800,"station_id":"ce4bh392rcd13ifvqdm0","pricing_plan_id":"cebpf4jnsgd1na2vs0mg"},{"bike_id":"46d93f9d-8df9-4253-ae37-efb0674aedab","system_id":"levelo_inurba_marseille","lat":43.28096,"lon":5.39658,"is_reserved":false,"is_disabled":false,"rental_uris":{"android":"levelo://app?vid=46d93f9d-8df9-4253-ae37-efb0674aedab","ios":"levelo://app?vid=46d93f9d-8df9-4253-ae37-efb0674aedab"},"vehicle_type_id":"4","last_reported":1740438559,"current_range_meters":20000,"station_id":"ce4bho12rcd13ifvqh2g","pricing_plan_id":"cebpf4jnsgd1na2vs0mg"},{"bike_id":"e2ccd420-7f66-4cf1-ae03-c947fa626671","system_id":"levelo_inurba_marseille","lat":43.30414,"lon":5.41287,"is_reserved":false,"is_disabled":false,"rental_uris":{"android":"levelo://app?vid=e2ccd420-7f66-4cf1-ae03-c947fa626671","ios":"levelo://app?vid=e2ccd420-7f66-4cf1-ae03-c947fa626671"},"vehicle_type_id":"4","last_reported":1740438559,"current_range_meters":20400,"station_id":"ce4bhop2rcd13ifvqh8g","pricing_plan_id":"cebpf4jnsgd1na2vs0mg"},{"bike_id":"d3103336-2d71-4742-bf9a-d557baf6d26c","system_id":"levelo_inurba_marseille","lat":43.27492,"lon":5.42458,"is_reserved":false,"is_disabled":false,"rental_uris":{"android":"levelo://app?vid=d3103336-2d71-4742-bf9a-d557baf6d26c","ios":"levelo://app?vid=d3103336-2d71-4742-bf9a-d557baf6d26c"},"vehicle_type_id":"4","last_reported":1740438559,"current_range_meters":19200,"station_id":"ce4bhn92rcd13ifvqgrg","pricing_plan_id":"cebpf4jnsgd1na2vs0mg"},{"bike_id":"a2ef444c-7b72-4afb-8764-354e0ac1a462","system_id":"levelo_inurba_marseille","lat":43.31078,"lon":5.38394,"is_reserved":false,"is_disabled":false,"rental_uris":{"android":"levelo://app?vid=a2ef444c-7b72-4afb-8764-354e0ac1a462","ios":"levelo://app?vid=a2ef444c-7b72-4afb-8764-354e0ac1a462"},"vehicle_type_id":"4","last_reported":1740438559,"current_range_meters":20800,"station_id":"ce4bgv92rcd13ifvqcr0","pricing_plan_id":"cebpf4jnsgd1na2vs0mg"},{"bike_id":"99a6215f-6506-4f6e-9c5e-ddad7f4be2a5","system_id":"levelo_inurba_marseille","lat":43.29902,"lon":5.4366,"is_reserved":false,"is_disabled":false,"rental_uris":{"android":"levelo://app?vid=99a6215f-6506-4f6e-9c5e-ddad7f4be2a5","ios":"levelo://app?vid=99a6215f-6506-4f6e-9c5e-ddad7f4be2a5"},"vehicle_type_id":"4","last_reported":1740438559,"current_range_meters":20400,"station_id":"ce4bhpp2rcd13ifvqhfg","pricing_plan_id":"cebpf4jnsgd1na2vs0mg"},{"bike_id":"e58b7ce8-722c-48e0-a472-b808673407ed","system_id":"levelo_inurba_marseille","lat":43.31118,"lon":5.37757,"is_reserved":false,"is_disabled":false,"rental_uris":{"android":"levelo://app?vid=e58b7ce8-722c-48e0-a472-b808673407ed","ios":"levelo://app?vid=e58b7ce8-722c-48e0-a472-b808673407ed"},"vehicle_type_id":"4","last_reported":1740438559,"current_range_meters":20000,"station_id":"ce4bgt92rcd13ifvqcg0","pricing_plan_id":"cebpf4jnsgd1na2vs0mg"},{"bike_id":"9798fc95-a505-4780-a3e8-ca929f912450","system_id":"levelo_inurba_marseille","lat":43.30429,"lon":5.38895,"is_reserved":false,"is_disabled":false,"rental_uris":{"android":"levelo://app?vid=9798fc95-a505-4780-a3e8-ca929f912450","ios":"levelo://app?vid=9798fc95-a505-4780-a3e8-ca929f912450"},"vehicle_type_id":"4","last_reported":1740438559,"current_range_meters":20400,"station_id":"ce4bgk12rcd13ifvqbi0","pricing_plan_id":"cebpf4jnsgd1na2vs0mg"},{"bike_id":"9bcb6e74-9384-4520-a191-6ca3da24e600","system_id":"levelo_inurba_marseille","lat":43.24189,"lon":5.36396,"is_reserved":false,"is_disabled":false,"rental_uris":{"android":"levelo://app?vid=9bcb6e74-9384-4520-a191-6ca3da24e600","ios":"levelo://app?vid=9bcb6e74-9384-4520-a191-6ca3da24e600"},"vehicle_type_id":"4","last_reported":1740438559,"current_range_meters":21600,"station_id":"cpo36qri1sfpv3e86is0","pricing_plan_id":"cebpf4jnsgd1na2vs0mg"},{"bike_id":"08b558ae-f5c2-4f30-808a-f8a57fad3fc7","system_id":"levelo_inurba_marseille","lat":43.25082,"lon":5.39517,"is_reserved":false,"is_disabled":false,"rental_uris":{"android":"levelo://app?vid=08b558ae-f5c2-4f30-808a-f8a57fad3fc7","ios":"levelo://app?vid=08b558ae-f5c2-4f30-808a-f8a57fad3fc7"},"vehicle_type_id":"4","last_reported":1740438559,"current_range_meters":20800,"station_id":"ce4bhm12rcd13ifvqgkg","pricing_plan_id":"cebpf4jnsgd1na2vs0mg"},{"bike_id":"25070a9d-5335-4915-9b19-7905b74f9e03","system_id":"levelo_inurba_marseille","lat":43.29021,"lon":5.38652,"is_reserved":false,"is_disabled":false,"rental_uris":{"android":"levelo://app?vid=25070a9d-5335-4915-9b19-7905b74f9e03","ios":"levelo://app?vid=25070a9d-5335-4915-9b19-7905b74f9e03"},"vehicle_type_id":"4","last_reported":1740438559,"current_range_meters":20800,"station_id":"ce4bh4p2rcd13ifvqe0g","pricing_plan_id":"cebpf4jnsgd1na2vs0mg"},{"bike_id":"45cf12c1-bde0-40bf-882d-b8398a59cb4d","system_id":"levelo_inurba_marseille","lat":43.28151,"lon":5.4264,"is_reserved":false,"is_disabled":false,"rental_uris":{"android":"levelo://app?vid=45cf12c1-bde0-40bf-882d-b8398a59cb4d","ios":"levelo://app?vid=45cf12c1-bde0-40bf-882d-b8398a59cb4d"},"vehicle_type_id":"4","last_reported":1740438559,"current_range_meters":21600,"station_id":"ce4bhnh2rcd13ifvqgug","pricing_plan_id":"cebpf4jnsgd1na2vs0mg"},{"bike_id":"de79be54-b4b1-4e94-b963-59024d584aab","system_id":"levelo_inurba_marseille","lat":43.28716,"lon":5.37941,"is_reserved":false,"is_disabled":false,"rental_uris":{"android":"levelo://app?vid=de79be54-b4b1-4e94-b963-59024d584aab","ios":"levelo://app?vid=de79be54-b4b1-4e94-b963-59024d584aab"},"vehicle_type_id":"4","last_reported":1740438559,"current_range_meters":21600,"station_id":"ce4bh9p2rcd13ifvqec0","pricing_plan_id":"cebpf4jnsgd1na2vs0mg"},{"bike_id":"7c1b7433-681b-4e70-943b-cab2e7a14194","system_id":"levelo_inurba_marseille","lat":43.31116,"lon":5.37757,"is_reserved":false,"is_disabled":false,"rental_uris":{"android":"levelo://app?vid=7c1b7433-681b-4e70-943b-cab2e7a14194","ios":"levelo://app?vid=7c1b7433-681b-4e70-943b-cab2e7a14194"},"vehicle_type_id":"4","last_reported":1740438559,"current_range_meters":21600,"station_id":"ce4bgt92rcd13ifvqcg0","pricing_plan_id":"cebpf4jnsgd1na2vs0mg"},{"bike_id":"586310c6-e603-43d2-8fa3-9dd9a03807d6","system_id":"levelo_inurba_marseille","lat":43.31094,"lon":5.37753,"is_reserved":false,"is_disabled":false,"rental_uris":{"android":"levelo://app?vid=586310c6-e603-43d2-8fa3-9dd9a03807d6","ios":"levelo://app?vid=586310c6-e603-43d2-8fa3-9dd9a03807d6"},"vehicle_type_id":"4","last_reported":1740438559,"current_range_meters":20800,"station_id":"ce4bgt92rcd13ifvqcg0","pricing_plan_id":"cebpf4jnsgd1na2vs0mg"},{"bike_id":"2493185a-4034-4257-864e-a16b123adc10","system_id":"levelo_inurba_marseille","lat":43.30787,"lon":5.38153,"is_reserved":false,"is_disabled":false,"rental_uris":{"android":"levelo://app?vid=2493185a-4034-4257-864e-a16b123adc10","ios":"levelo://app?vid=2493185a-4034-4257-864e-a16b123adc10"},"vehicle_type_id":"4","last_reported":1740438559,"current_range_meters":21600,"station_id":"ce4bgt12rcd13ifvqce0","pricing_plan_id":"cebpf4jnsgd1na2vs0mg"},{"bike_id":"f8e8e657-be14-4ebf-9979-d6e94e7e7e85","system_id":"levelo_inurba_marseille","lat":43.27942,"lon":5.410427,"is_reserved":false,"is_disabled":false,"rental_uris":{"android":"levelo://app?vid=f8e8e657-be14-4ebf-9979-d6e94e7e7e85","ios":"levelo://app?vid=f8e8e657-be14-4ebf-9979-d6e94e7e7e85"},"vehicle_type_id":"4","last_reported":1740438559,"current_range_meters":21600,"station_id":"ce4bhnp2rcd13ifvqh0g","pricing_plan_id":"cebpf4jnsgd1na2vs0mg"},{"bike_id":"27e0906b-c710-411e-84b2-c4523bc0cda7","system_id":"levelo_inurba_marseille","lat":43.29059,"lon":5.3591,"is_reserved":false,"is_disabled":false,"rental_uris":{"android":"levelo://app?vid=27e0906b-c710-411e-84b2-c4523bc0cda7","ios":"levelo://app?vid=27e0906b-c710-411e-84b2-c4523bc0cda7"},"vehicle_type_id":"4","last_reported":1740438559,"current_range_meters":22000,"station_id":"ce4bha92rcd13ifvqeg0","pricing_plan_id":"cebpf4jnsgd1na2vs0mg"},{"bike_id":"03f8ecf4-f41c-40ac-83df-fdda1fdc2f2e","system_id":"levelo_inurba_marseille","lat":43.32369,"lon":5.3891,"is_reserved":false,"is_disabled":false,"rental_uris":{"android":"levelo://app?vid=03f8ecf4-f41c-40ac-83df-fdda1fdc2f2e","ios":"levelo://app?vid=03f8ecf4-f41c-40ac-83df-fdda1fdc2f2e"},"vehicle_type_id":"4","last_reported":1740438559,"current_range_meters":22000,"station_id":"ce4bhqp2rcd13ifvqhog","pricing_plan_id":"cebpf4jnsgd1na2vs0mg"},{"bike_id":"3652c2ba-ebbd-4e1e-906d-f53d57607269","system_id":"levelo_inurba_marseille","lat":43.28024,"lon":5.36923,"is_reserved":false,"is_disabled":false,"rental_uris":{"android":"levelo://app?vid=3652c2ba-ebbd-4e1e-906d-f53d57607269","ios":"levelo://app?vid=3652c2ba-ebbd-4e1e-906d-f53d57607269"},"vehicle_type_id":"4","last_reported":1740438559,"current_range_meters":22000,"station_id":"ce4bha12rcd13ifvqef0","pricing_plan_id":"cebpf4jnsgd1na2vs0mg"},{"bike_id":"d7b86c71-089b-48f6-a952-fb6803fe85b1","system_id":"levelo_inurba_marseille","lat":43.26086,"lon":5.40337,"is_reserved":false,"is_disabled":false,"rental_uris":{"android":"levelo://app?vid=d7b86c71-089b-48f6-a952-fb6803fe85b1","ios":"levelo://app?vid=d7b86c71-089b-48f6-a952-fb6803fe85b1"},"vehicle_type_id":"4","last_reported":1740438559,"current_range_meters":22000,"station_id":"","pricing_plan_id":"cebpf4jnsgd1na2vs0mg"},{"bike_id":"31852a57-9484-4d6b-a810-99fa57a3f774","system_id":"levelo_inurba_marseille","lat":43.28456,"lon":5.35861,"is_reserved":false,"is_disabled":false,"rental_uris":{"android":"levelo://app?vid=31852a57-9484-4d6b-a810-99fa57a3f774","ios":"levelo://app?vid=31852a57-9484-4d6b-a810-99fa57a3f774"},"vehicle_type_id":"4","last_reported":1740438559,"current_range_meters":22000,"station_id":"ce4bhah2rcd13ifvqei0","pricing_plan_id":"cebpf4jnsgd1na2vs0mg"},{"bike_id":"acd008f8-d99a-4326-a456-f534d8af383a","system_id":"levelo_inurba_marseille","lat":43.29878,"lon":5.39732,"is_reserved":false,"is_disabled":false,"rental_uris":{"android":"levelo://app?vid=acd008f8-d99a-4326-a456-f534d8af383a","ios":"levelo://app?vid=acd008f8-d99a-4326-a456-f534d8af383a"},"vehicle_type_id":"4","last_reported":1740438559,"current_range_meters":22000,"station_id":"ce4bh0h2rcd13ifvqd50","pricing_plan_id":"cebpf4jnsgd1na2vs0mg"},{"bike_id":"c96fc18e-e3be-48cb-9501-691f901bc09a","system_id":"levelo_inurba_marseille","lat":43.29906,"lon":5.43668,"is_reserved":false,"is_disabled":false,"rental_uris":{"android":"levelo://app?vid=c96fc18e-e3be-48cb-9501-691f901bc09a","ios":"levelo://app?vid=c96fc18e-e3be-48cb-9501-691f901bc09a"},"vehicle_type_id":"4","last_reported":1740438559,"current_range_meters":22000,"station_id":"ce4bhpp2rcd13ifvqhfg","pricing_plan_id":"cebpf4jnsgd1na2vs0mg"},{"bike_id":"5ef9defa-c6d2-40d8-a09d-a579c49e9b03","system_id":"levelo_inurba_marseille","lat":43.28428,"lon":5.37524,"is_reserved":false,"is_disabled":false,"rental_uris":{"android":"levelo://app?vid=5ef9defa-c6d2-40d8-a09d-a579c49e9b03","ios":"levelo://app?vid=5ef9defa-c6d2-40d8-a09d-a579c49e9b03"},"vehicle_type_id":"4","last_reported":1740438559,"current_range_meters":22400,"station_id":"ce4bh412rcd13ifvqds0","pricing_plan_id":"cebpf4jnsgd1na2vs0mg"},{"bike_id":"b7f76178-377d-4e00-871f-bf94845c2693","system_id":"levelo_inurba_marseille","lat":43.30796,"lon":5.38168,"is_reserved":false,"is_disabled":false,"rental_uris":{"android":"levelo://app?vid=b7f76178-377d-4e00-871f-bf94845c2693","ios":"levelo://app?vid=b7f76178-377d-4e00-871f-bf94845c2693"},"vehicle_type_id":"4","last_reported":1740438559,"current_range_meters":22400,"station_id":"ce4bgt12rcd13ifvqce0","pricing_plan_id":"cebpf4jnsgd1na2vs0mg"},{"bike_id":"1689280f-07a9-4fc4-8620-657cfc110c5a","system_id":"levelo_inurba_marseille","lat":43.29285,"lon":5.40885,"is_reserved":false,"is_disabled":false,"rental_uris":{"android":"levelo://app?vid=1689280f-07a9-4fc4-8620-657cfc110c5a","ios":"levelo://app?vid=1689280f-07a9-4fc4-8620-657cfc110c5a"},"vehicle_type_id":"4","last_reported":1740438559,"current_range_meters":22400,"station_id":"ce4bh192rcd13ifvqdc0","pricing_plan_id":"cebpf4jnsgd1na2vs0mg"},{"bike_id":"756972c1-70c8-45a6-88ed-a5dc01a77f62","system_id":"levelo_inurba_marseille","lat":43.28716,"lon":5.39961,"is_reserved":false,"is_disabled":false,"rental_uris":{"android":"levelo://app?vid=756972c1-70c8-45a6-88ed-a5dc01a77f62","ios":"levelo://app?vid=756972c1-70c8-45a6-88ed-a5dc01a77f62"},"vehicle_type_id":"4","last_reported":1740438559,"current_range_meters":22400,"station_id":"ce4bho92rcd13ifvqh3g","pricing_plan_id":"cebpf4jnsgd1na2vs0mg"},{"bike_id":"474602bc-c50d-42bd-bb2a-f5c9602c8ee8","system_id":"levelo_inurba_marseille","lat":43.33009,"lon":5.39026,"is_reserved":false,"is_disabled":false,"rental_uris":{"android":"levelo://app?vid=474602bc-c50d-42bd-bb2a-f5c9602c8ee8","ios":"levelo://app?vid=474602bc-c50d-42bd-bb2a-f5c9602c8ee8"},"vehicle_type_id":"4","last_reported":1740438559,"current_range_meters":22400,"station_id":"ce4bhr92rcd13ifvqhrg","pricing_plan_id":"cebpf4jnsgd1na2vs0mg"},{"bike_id":"bfa63be2-4a76-4e23-8137-fb3e2f6ee01e","system_id":"levelo_inurba_marseille","lat":43.29275,"lon":5.40148,"is_reserved":false,"is_disabled":true,"rental_uris":{"android":"levelo://app?vid=bfa63be2-4a76-4e23-8137-fb3e2f6ee01e","ios":"levelo://app?vid=bfa63be2-4a76-4e23-8137-fb3e2f6ee01e"},"vehicle_type_id":"4","last_reported":1740438559,"current_range_meters":22800,"station_id":"ce4bh312rcd13ifvqdk0","pricing_plan_id":"cebpf4jnsgd1na2vs0mg"},{"bike_id":"210d5388-34ba-40b7-b56a-1d8e212d202e","system_id":"levelo_inurba_marseille","lat":43.30276,"lon":5.4005,"is_reserved":false,"is_disabled":false,"rental_uris":{"android":"levelo://app?vid=210d5388-34ba-40b7-b56a-1d8e212d202e","ios":"levelo://app?vid=210d5388-34ba-40b7-b56a-1d8e212d202e"},"vehicle_type_id":"4","last_reported":1740438559,"current_range_meters":22000,"station_id":"ce4bgvh2rcd13ifvqcs0","pricing_plan_id":"cebpf4jnsgd1na2vs0mg"},{"bike_id":"a2818a8c-a6e3-4f5c-ad30-9bd10361a5f5","system_id":"levelo_inurba_marseille","lat":43.292757,"lon":5.401115,"is_reserved":false,"is_disabled":false,"rental_uris":{"android":"levelo://app?vid=a2818a8c-a6e3-4f5c-ad30-9bd10361a5f5","ios":"levelo://app?vid=a2818a8c-a6e3-4f5c-ad30-9bd10361a5f5"},"vehicle_type_id":"4","last_reported":1740438559,"current_range_meters":22800,"station_id":"ce4bh312rcd13ifvqdk0","pricing_plan_id":"cebpf4jnsgd1na2vs0mg"},{"bike_id":"052e2ad7-d79c-46cc-b395-ae79f0654a7a","system_id":"levelo_inurba_marseille","lat":43.28929,"lon":5.3638,"is_reserved":false,"is_disabled":false,"rental_uris":{"android":"levelo://app?vid=052e2ad7-d79c-46cc-b395-ae79f0654a7a","ios":"levelo://app?vid=052e2ad7-d79c-46cc-b395-ae79f0654a7a"},"vehicle_type_id":"4","last_reported":1740438559,"current_range_meters":22800,"station_id":"ce4bhc92rcd13ifvqetg","pricing_plan_id":"cebpf4jnsgd1na2vs0mg"},{"bike_id":"b233af78-37a2-485c-9bca-5344d967400d","system_id":"levelo_inurba_marseille","lat":43.28455,"lon":5.35877,"is_reserved":false,"is_disabled":false,"rental_uris":{"android":"levelo://app?vid=b233af78-37a2-485c-9bca-5344d967400d","ios":"levelo://app?vid=b233af78-37a2-485c-9bca-5344d967400d"},"vehicle_type_id":"4","last_reported":1740438559,"current_range_meters":22800,"station_id":"ce4bhah2rcd13ifvqei0","pricing_plan_id":"cebpf4jnsgd1na2vs0mg"},{"bike_id":"25411262-23d1-41bb-a382-a545d4af1ec3","system_id":"levelo_inurba_marseille","lat":43.25111,"lon":5.40318,"is_reserved":false,"is_disabled":false,"rental_uris":{"android":"levelo://app?vid=25411262-23d1-41bb-a382-a545d4af1ec3","ios":"levelo://app?vid=25411262-23d1-41bb-a382-a545d4af1ec3"},"vehicle_type_id":"4","last_reported":1740438559,"current_range_meters":22800,"station_id":"ce4bhlh2rcd13ifvqgig","pricing_plan_id":"cebpf4jnsgd1na2vs0mg"},{"bike_id":"a9c06b5f-6c2f-4392-a548-0468045c24ed","system_id":"levelo_inurba_marseille","lat":43.3033,"lon":5.36895,"is_reserved":false,"is_disabled":true,"rental_uris":{"android":"levelo://app?vid=a9c06b5f-6c2f-4392-a548-0468045c24ed","ios":"levelo://app?vid=a9c06b5f-6c2f-4392-a548-0468045c24ed"},"vehicle_type_id":"4","last_reported":1740438559,"current_range_meters":22800,"station_id":"ce4bgqh2rcd13ifvqc5g","pricing_plan_id":"cebpf4jnsgd1na2vs0mg"},{"bike_id":"a52c93a1-9287-4e44-9b56-bccd9b77fa30","system_id":"levelo_inurba_marseille","lat":43.30891,"lon":5.39639,"is_reserved":false,"is_disabled":false,"rental_uris":{"android":"levelo://app?vid=a52c93a1-9287-4e44-9b56-bccd9b77fa30","ios":"levelo://app?vid=a52c93a1-9287-4e44-9b56-bccd9b77fa30"},"vehicle_type_id":"4","last_reported":1740438559,"current_range_meters":22800,"station_id":"ce4bh012rcd13ifvqcv0","pricing_plan_id":"cebpf4jnsgd1na2vs0mg"},{"bike_id":"f4629c6e-36fc-402c-93ca-7566da9b882d","system_id":"levelo_inurba_marseille","lat":43.27816,"lon":5.40734,"is_reserved":false,"is_disabled":false,"rental_uris":{"android":"levelo://app?vid=f4629c6e-36fc-402c-93ca-7566da9b882d","ios":"levelo://app?vid=f4629c6e-36fc-402c-93ca-7566da9b882d"},"vehicle_type_id":"4","last_reported":1740438559,"current_range_meters":22800,"station_id":"ce4bhnh2rcd13ifvqgtg","pricing_plan_id":"cebpf4jnsgd1na2vs0mg"},{"bike_id":"3a91a508-dae3-4ab1-9f46-2aecd12761cf","system_id":"levelo_inurba_marseille","lat":43.2873,"lon":5.37929,"is_reserved":false,"is_disabled":false,"rental_uris":{"android":"levelo://app?vid=3a91a508-dae3-4ab1-9f46-2aecd12761cf","ios":"levelo://app?vid=3a91a508-dae3-4ab1-9f46-2aecd12761cf"},"vehicle_type_id":"4","last_reported":1740438559,"current_range_meters":22800,"station_id":"ce4bh9p2rcd13ifvqec0","pricing_plan_id":"cebpf4jnsgd1na2vs0mg"},{"bike_id":"7dfe2476-fa69-4615-afe7-e6111209365c","system_id":"levelo_inurba_marseille","lat":43.29532,"lon":5.39379,"is_reserved":false,"is_disabled":false,"rental_uris":{"android":"levelo://app?vid=7dfe2476-fa69-4615-afe7-e6111209365c","ios":"levelo://app?vid=7dfe2476-fa69-4615-afe7-e6111209365c"},"vehicle_type_id":"4","last_reported":1740438559,"current_range_meters":22800,"station_id":"ce4bh292rcd13ifvqdf0","pricing_plan_id":"cebpf4jnsgd1na2vs0mg"},{"bike_id":"893712ae-1fbd-4fa0-9df7-357974d44cd6","system_id":"levelo_inurba_marseille","lat":43.29644,"lon":5.37132,"is_reserved":false,"is_disabled":false,"rental_uris":{"android":"levelo://app?vid=893712ae-1fbd-4fa0-9df7-357974d44cd6","ios":"levelo://app?vid=893712ae-1fbd-4fa0-9df7-357974d44cd6"},