{"last_updated":1766099488,"ttl":60,"version":"2.2","data":{"bikes":[{"bike_id":"139abd45-45c7-43ac-8c05-0d05fbdae320","system_id":"levelo_inurba_marseille","lat":43.28526,"lon":5.441,"is_reserved":false,"is_disabled":false,"rental_uris":{"android":"levelo://app?vid=139abd45-45c7-43ac-8c05-0d05fbdae320","ios":"levelo://app?vid=139abd45-45c7-43ac-8c05-0d05fbdae320"},"vehicle_type_id":"4","last_reported":1766099489,"current_range_meters":2800,"station_id":"st_d3j3df2ikq2c7380ej80","pricing_plan_id":"cebpf4jnsgd1na2vs0mg"},{"bike_id":"ea0fbbf9-07b7-470b-83de-d4057071aeaf","system_id":"levelo_inurba_marseille","lat":43.24158,"lon":5.36401,"is_reserved":false,"is_disabled":false,"rental_uris":{"android":"levelo://app?vid=ea0fbbf9-07b7-470b-83de-d4057071aeaf","ios":"levelo://app?vid=ea0fbbf9-07b7-470b-83de-d4057071aeaf"},"vehicle_type_id":"4","last_reported":1766099489,"current_range_meters":2800,"station_id":"cpo36qri1sfpv3e86is0","pricing_plan_id":"cebpf4jnsgd1na2vs0mg"},{"bike_id":"a9da030f-a1f5-4c0e-953b-b0e51825646e","system_id":"levelo_inurba_marseille","lat":43.29515,"lon":5.39397,"is_reserved":false,"is_disabled":false,"rental_uris":{"android":"levelo://app?vid=a9da030f-a1f5-4c0e-953b-b0e51825646e","ios":"levelo://app?vid=a9da030f-a1f5-4c0e-953b-b0e51825646e"},"vehicle_type_id":"4","last_reported":1766099489,"current_range_meters":2800,"station_id":"ce4bh292rcd13ifvqdf0","pricing_plan_id":"cebpf4jnsgd1na2vs0mg"},{"bike_id":"846ba82f-b80b-4118-ba94-f1f7e836af7f","system_id":"levelo_inurba_marseille","lat":43.33757,"lon":5.374367,"is_reserved":false,"is_disabled":false,"rental_uris":{"android":"levelo://app?vid=846ba82f-b80b-4118-ba94-f1f7e836af7f","ios":"levelo://app?vid=846ba82f-b80b-4118-ba94-f1f7e836af7f"},"vehicle_type_id":"4","last_reported":1766099489,"current_range_meters":3200,"station_id":"","pricing_plan_id":"cebpf4jnsgd1na2vs0mg"},{"bike_id":"1adf3077-aaf4-43b1-880f-23e00acc4a64","system_id":"levelo_inurba_marseille","lat":43.29196,"lon":5.357753,"is_reserved":false,"is_disabled":false,"rental_uris":{"android":"levelo://app?vid=1adf3077-aaf4-43b1-880f-23e00acc4a64","ios":"levelo://app?vid=1adf3077-aaf4-43b1-880f-23e00acc4a64"},"vehicle_type_id":"4","last_reported":1766099489,"current_range_meters":3200,"station_id":"ce4bhb12rcd13ifvqel0","pricing_plan_id":"cebpf4jnsgd1na2vs0mg"},{"bike_id":"c0c621d6-d85c-44af-9490-b67957b31f20","system_id":"levelo_inurba_marseille","lat":43.295246,"lon":5.393715,"is_reserved":false,"is_disabled":false,"rental_uris":{"android":"levelo://app?vid=c0c621d6-d85c-44af-9490-b67957b31f20","ios":"levelo://app?vid=c0c621d6-d85c-44af-9490-b67957b31f20"},"vehicle_type_id":"4","last_reported":1766099489,"current_range_meters":3200,"station_id":"ce4bh292rcd13ifvqdf0","pricing_plan_id":"cebpf4jnsgd1na2vs0mg"},{"bike_id":"bb60904b-11d7-42eb-a31a-c4ad5b06c94a","system_id":"levelo_inurba_marseille","lat":43.295281,"lon":5.390367,"is_reserved":false,"is_disabled":false,"rental_uris":{"android":"levelo://app?vid=bb60904b-11d7-42eb-a31a-c4ad5b06c94a","ios":"levelo://app?vid=bb60904b-11d7-42eb-a31a-c4ad5b06c94a"},"vehicle_type_id":"4","last_reported":1766099489,"current_range_meters":3200,"station_id":"ce4bh3p2rcd13ifvqdp0","pricing_plan_id":"cebpf4jnsgd1na2vs0mg"},{"bike_id":"04aadaa9-8f9b-4247-ad57-f8dabd0adce7","system_id":"levelo_inurba_marseille","lat":43.29773,"lon":5.38125,"is_reserved":false,"is_disabled":false,"rental_uris":{"android":"levelo://app?vid=04aadaa9-8f9b-4247-ad57-f8dabd0adce7","ios":"levelo://app?vid=04aadaa9-8f9b-4247-ad57-f8dabd0adce7"},"vehicle_type_id":"4","last_reported":1766099489,"current_range_meters":3200,"station_id":"ce4bgip2rcd13ifvqbb0","pricing_plan_id":"cebpf4jnsgd1na2vs0mg"},{"bike_id":"30413465-c901-4255-9f55-f85e62e500fa","system_id":"levelo_inurba_marseille","lat":43.284826,"lon":5.391937,"is_reserved":false,"is_disabled":false,"rental_uris":{"android":"levelo://app?vid=30413465-c901-4255-9f55-f85e62e500fa","ios":"levelo://app?vid=30413465-c901-4255-9f55-f85e62e500fa"},"vehicle_type_id":"4","last_reported":1766099489,"current_range_meters":3200,"station_id":"ce4bhoh2rcd13ifvqh5g","pricing_plan_id":"cebpf4jnsgd1na2vs0mg"},{"bike_id":"f2a00277-6967-4b60-a530-aa8107223b51","system_id":"levelo_inurba_marseille","lat":43.27375,"lon":5.36261,"is_reserved":false,"is_disabled":false,"rental_uris":{"android":"levelo://app?vid=f2a00277-6967-4b60-a530-aa8107223b51","ios":"levelo://app?vid=f2a00277-6967-4b60-a530-aa8107223b51"},"vehicle_type_id":"4","last_reported":1766099489,"current_range_meters":3600,"station_id":"ce4bhbh2rcd13ifvqeo0","pricing_plan_id":"cebpf4jnsgd1na2vs0mg"},{"bike_id":"d5e6d7be-020c-4629-a4bf-763544177289","system_id":"levelo_inurba_marseille","lat":43.32234,"lon":5.37019,"is_reserved":false,"is_disabled":false,"rental_uris":{"android":"levelo://app?vid=d5e6d7be-020c-4629-a4bf-763544177289","ios":"levelo://app?vid=d5e6d7be-020c-4629-a4bf-763544177289"},"vehicle_type_id":"4","last_reported":1766099489,"current_range_meters":4000,"station_id":"","pricing_plan_id":"cebpf4jnsgd1na2vs0mg"},{"bike_id":"14c316c6-1c9d-446d-a575-85e917755c69","system_id":"levelo_inurba_marseille","lat":43.29552,"lon":5.42222,"is_reserved":false,"is_disabled":false,"rental_uris":{"android":"levelo://app?vid=14c316c6-1c9d-446d-a575-85e917755c69","ios":"levelo://app?vid=14c316c6-1c9d-446d-a575-85e917755c69"},"vehicle_type_id":"4","last_reported":1766099489,"current_range_meters":4000,"station_id":"","pricing_plan_id":"cebpf4jnsgd1na2vs0mg"},{"bike_id":"56b7a814-2782-40c3-96fc-c51134b5fdf3","system_id":"levelo_inurba_marseille","lat":43.25579,"lon":5.3823,"is_reserved":false,"is_disabled":false,"rental_uris":{"android":"levelo://app?vid=56b7a814-2782-40c3-96fc-c51134b5fdf3","ios":"levelo://app?vid=56b7a814-2782-40c3-96fc-c51134b5fdf3"},"vehicle_type_id":"4","last_reported":1766099489,"current_range_meters":4400,"station_id":"ce4bhih2rcd13ifvqfs0","pricing_plan_id":"cebpf4jnsgd1na2vs0mg"},{"bike_id":"985c4a1d-e7c1-458c-98ed-6c64eab300d2","system_id":"levelo_inurba_marseille","lat":43.282997,"lon":5.38975,"is_reserved":false,"is_disabled":false,"rental_uris":{"android":"levelo://app?vid=985c4a1d-e7c1-458c-98ed-6c64eab300d2","ios":"levelo://app?vid=985c4a1d-e7c1-458c-98ed-6c64eab300d2"},"vehicle_type_id":"4","last_reported":1766099489,"current_range_meters":4400,"station_id":"ce4bhn92rcd13ifvqgsg","pricing_plan_id":"cebpf4jnsgd1na2vs0mg"},{"bike_id":"fe08641a-d41e-41ed-ba30-66b0a67c5d3d","system_id":"levelo_inurba_marseille","lat":43.308807,"lon":5.396583,"is_reserved":false,"is_disabled":false,"rental_uris":{"android":"levelo://app?vid=fe08641a-d41e-41ed-ba30-66b0a67c5d3d","ios":"levelo://app?vid=fe08641a-d41e-41ed-ba30-66b0a67c5d3d"},"vehicle_type_id":"4","last_reported":1766099489,"current_range_meters":4800,"station_id":"ce4bh012rcd13ifvqcv0","pricing_plan_id":"cebpf4jnsgd1na2vs0mg"},{"bike_id":"88031236-6a40-4d32-a503-adc00e8f1b31","system_id":"levelo_inurba_marseille","lat":43.33767,"lon":5.374479,"is_reserved":false,"is_disabled":false,"rental_uris":{"android":"levelo://app?vid=88031236-6a40-4d32-a503-adc00e8f1b31","ios":"levelo://app?vid=88031236-6a40-4d32-a503-adc00e8f1b31"},"vehicle_type_id":"4","last_reported":1766099489,"current_range_meters":4800,"station_id":"","pricing_plan_id":"cebpf4jnsgd1na2vs0mg"},{"bike_id":"0b8ed324-0846-4be1-8827-b5d8db7fa9ab","system_id":"levelo_inurba_marseille","lat":43.285281,"lon":5.440994,"is_reserved":false,"is_disabled":true,"rental_uris":{"android":"levelo://app?vid=0b8ed324-0846-4be1-8827-b5d8db7fa9ab","ios":"levelo://app?vid=0b8ed324-0846-4be1-8827-b5d8db7fa9ab"},"vehicle_type_id":"4","last_reported":1766099489,"current_range_meters":4800,"station_id":"st_d3j3df2ikq2c7380ej80","pricing_plan_id":"cebpf4jnsgd1na2vs0mg"},{"bike_id":"dea83eb0-6335-4521-9011-3497e30288f1","system_id":"levelo_inurba_marseille","lat":43.289303,"lon":5.363959,"is_reserved":false,"is_disabled":false,"rental_uris":{"android":"levelo://app?vid=dea83eb0-6335-4521-9011-3497e30288f1","ios":"levelo://app?vid=dea83eb0-6335-4521-9011-3497e30288f1"},"vehicle_type_id":"4","last_reported":1766099489,"current_range_meters":4800,"station_id":"ce4bhc92rcd13ifvqetg","pricing_plan_id":"cebpf4jnsgd1na2vs0mg"},{"bike_id":"73b791d2-6f8a-4c76-a940-4605611964e2","system_id":"levelo_inurba_marseille","lat":43.273668,"lon":5.362524,"is_reserved":false,"is_disabled":false,"rental_uris":{"android":"levelo://app?vid=73b791d2-6f8a-4c76-a940-4605611964e2","ios":"levelo://app?vid=73b791d2-6f8a-4c76-a940-4605611964e2"},"vehicle_type_id":"4","last_reported":1766099489,"current_range_meters":5600,"station_id":"ce4bhbh2rcd13ifvqeo0","pricing_plan_id":"cebpf4jnsgd1na2vs0mg"},{"bike_id":"cc178787-4e27-477e-85ac-bb874f1df1de","system_id":"levelo_inurba_marseille","lat":43.27326,"lon":5.41062,"is_reserved":false,"is_disabled":false,"rental_uris":{"android":"levelo://app?vid=cc178787-4e27-477e-85ac-bb874f1df1de","ios":"levelo://app?vid=cc178787-4e27-477e-85ac-bb874f1df1de"},"vehicle_type_id":"4","last_reported":1766099489,"current_range_meters":5600,"station_id":"","pricing_plan_id":"cebpf4jnsgd1na2vs0mg"},{"bike_id":"b9e289e9-e1d8-4db9-8eeb-d4ae6610e1bb","system_id":"levelo_inurba_marseille","lat":43.28864,"lon":5.42513,"is_reserved":false,"is_disabled":false,"rental_uris":{"android":"levelo://app?vid=b9e289e9-e1d8-4db9-8eeb-d4ae6610e1bb","ios":"levelo://app?vid=b9e289e9-e1d8-4db9-8eeb-d4ae6610e1bb"},"vehicle_type_id":"4","last_reported":1766099489,"current_range_meters":6000,"station_id":"st_d3b462108ojc7389ooeg","pricing_plan_id":"cebpf4jnsgd1na2vs0mg"},{"bike_id":"33b451a0-a441-4300-869b-39a18ae89cae","system_id":"levelo_inurba_marseille","lat":43.30248,"lon":5.40069,"is_reserved":false,"is_disabled":false,"rental_uris":{"android":"levelo://app?vid=33b451a0-a441-4300-869b-39a18ae89cae","ios":"levelo://app?vid=33b451a0-a441-4300-869b-39a18ae89cae"},"vehicle_type_id":"4","last_reported":1766099489,"current_range_meters":6000,"station_id":"ce4bgvh2rcd13ifvqcs0","pricing_plan_id":"cebpf4jnsgd1na2vs0mg"},{"bike_id":"50e6eefe-8aea-4054-ab8f-87d6e301ff34","system_id":"levelo_inurba_marseille","lat":43.242948,"lon":5.438426,"is_reserved":false,"is_disabled":false,"rental_uris":{"android":"levelo://app?vid=50e6eefe-8aea-4054-ab8f-87d6e301ff34","ios":"levelo://app?vid=50e6eefe-8aea-4054-ab8f-87d6e301ff34"},"vehicle_type_id":"4","last_reported":1766099489,"current_range_meters":6000,"station_id":"","pricing_plan_id":"cebpf4jnsgd1na2vs0mg"},{"bike_id":"a1ac0ba7-1483-464e-9caa-755fc64f46a4","system_id":"levelo_inurba_marseille","lat":43.24065,"lon":5.3785,"is_reserved":false,"is_disabled":false,"rental_uris":{"android":"levelo://app?vid=a1ac0ba7-1483-464e-9caa-755fc64f46a4","ios":"levelo://app?vid=a1ac0ba7-1483-464e-9caa-755fc64f46a4"},"vehicle_type_id":"4","last_reported":1766099489,"current_range_meters":6000,"station_id":"","pricing_plan_id":"cebpf4jnsgd1na2vs0mg"},{"bike_id":"397c3f95-de19-4332-be04-1ce96cf86c98","system_id":"levelo_inurba_marseille","lat":43.292,"lon":5.35815,"is_reserved":false,"is_disabled":false,"rental_uris":{"android":"levelo://app?vid=397c3f95-de19-4332-be04-1ce96cf86c98","ios":"levelo://app?vid=397c3f95-de19-4332-be04-1ce96cf86c98"},"vehicle_type_id":"4","last_reported":1766099489,"current_range_meters":6000,"station_id":"ce4bhb12rcd13ifvqel0","pricing_plan_id":"cebpf4jnsgd1na2vs0mg"},{"bike_id":"fdb18b9b-3b90-486e-b306-62bb1a73300b","system_id":"levelo_inurba_marseille","lat":43.24658,"lon":5.38157,"is_reserved":false,"is_disabled":false,"rental_uris":{"android":"levelo://app?vid=fdb18b9b-3b90-486e-b306-62bb1a73300b","ios":"levelo://app?vid=fdb18b9b-3b90-486e-b306-62bb1a73300b"},"vehicle_type_id":"4","last_reported":1766099489,"current_range_meters":6400,"station_id":"ce4bhih2rcd13ifvqfr0","pricing_plan_id":"cebpf4jnsgd1na2vs0mg"},{"bike_id":"d235767a-3e44-44c9-893e-7ebda15e5a64","system_id":"levelo_inurba_marseille","lat":43.25396,"lon":5.38548,"is_reserved":false,"is_disabled":false,"rental_uris":{"android":"levelo://app?vid=d235767a-3e44-44c9-893e-7ebda15e5a64","ios":"levelo://app?vid=d235767a-3e44-44c9-893e-7ebda15e5a64"},"vehicle_type_id":"4","last_reported":1766099489,"current_range_meters":6400,"station_id":"","pricing_plan_id":"cebpf4jnsgd1na2vs0mg"},{"bike_id":"07102bbf-8e43-4cc8-abfb-b7bffaf00185","system_id":"levelo_inurba_marseille","lat":43.29391,"lon":5.36263,"is_reserved":false,"is_disabled":false,"rental_uris":{"android":"levelo://app?vid=07102bbf-8e43-4cc8-abfb-b7bffaf00185","ios":"levelo://app?vid=07102bbf-8e43-4cc8-abfb-b7bffaf00185"},"vehicle_type_id":"4","last_reported":1766099489,"current_range_meters":6400,"station_id":"","pricing_plan_id":"cebpf4jnsgd1na2vs0mg"},{"bike_id":"2dbeaaaf-2486-4823-9ae7-ab270283c8e1","system_id":"levelo_inurba_marseille","lat":43.24972,"lon":5.40488,"is_reserved":false,"is_disabled":false,"rental_uris":{"android":"levelo://app?vid=2dbeaaaf-2486-4823-9ae7-ab270283c8e1","ios":"levelo://app?vid=2dbeaaaf-2486-4823-9ae7-ab270283c8e1"},"vehicle_type_id":"4","last_reported":1766099489,"current_range_meters":6400,"station_id":"st_d2ngiaodas8pm72gd1h0","pricing_plan_id":"cebpf4jnsgd1na2vs0mg"},{"bike_id":"c7e5daf3-a6b0-4ffc-8e95-134c47362fa1","system_id":"levelo_inurba_marseille","lat":43.30101,"lon":5.36872,"is_reserved":false,"is_disabled":false,"rental_uris":{"android":"levelo://app?vid=c7e5daf3-a6b0-4ffc-8e95-134c47362fa1","ios":"levelo://app?vid=c7e5daf3-a6b0-4ffc-8e95-134c47362fa1"},"vehicle_type_id":"4","last_reported":1766099489,"current_range_meters":6400,"station_id":"","pricing_plan_id":"cebpf4jnsgd1na2vs0mg"},{"bike_id":"d2bcf7e6-9e6c-48c1-8c64-5337f19dad07","system_id":"levelo_inurba_marseille","lat":43.22872,"lon":5.39956,"is_reserved":false,"is_disabled":false,"rental_uris":{"android":"levelo://app?vid=d2bcf7e6-9e6c-48c1-8c64-5337f19dad07","ios":"levelo://app?vid=d2bcf7e6-9e6c-48c1-8c64-5337f19dad07"},"vehicle_type_id":"4","last_reported":1766099489,"current_range_meters":6400,"station_id":"","pricing_plan_id":"cebpf4jnsgd1na2vs0mg"},{"bike_id":"c220c080-e1b8-42b1-930f-df7e555bd248","system_id":"levelo_inurba_marseille","lat":43.29544,"lon":5.383437,"is_reserved":false,"is_disabled":false,"rental_uris":{"android":"levelo://app?vid=c220c080-e1b8-42b1-930f-df7e555bd248","ios":"levelo://app?vid=c220c080-e1b8-42b1-930f-df7e555bd248"},"vehicle_type_id":"4","last_reported":1766099489,"current_range_meters":6400,"station_id":"","pricing_plan_id":"cebpf4jnsgd1na2vs0mg"},{"bike_id":"5e06d2a1-727e-44ed-85df-fabb394ac7c0","system_id":"levelo_inurba_marseille","lat":43.330239,"lon":5.390464,"is_reserved":false,"is_disabled":false,"rental_uris":{"android":"levelo://app?vid=5e06d2a1-727e-44ed-85df-fabb394ac7c0","ios":"levelo://app?vid=5e06d2a1-727e-44ed-85df-fabb394ac7c0"},"vehicle_type_id":"4","last_reported":1766099489,"current_range_meters":6400,"station_id":"ce4bhr92rcd13ifvqhrg","pricing_plan_id":"cebpf4jnsgd1na2vs0mg"},{"bike_id":"b6974cac-17ff-404a-846c-ff0003a98209","system_id":"levelo_inurba_marseille","lat":43.240695,"lon":5.377639,"is_reserved":false,"is_disabled":false,"rental_uris":{"android":"levelo://app?vid=b6974cac-17ff-404a-846c-ff0003a98209","ios":"levelo://app?vid=b6974cac-17ff-404a-846c-ff0003a98209"},"vehicle_type_id":"4","last_reported":1766099489,"current_range_meters":6800,"station_id":"ce4bhnp2rcd13ifvqgvg","pricing_plan_id":"cebpf4jnsgd1na2vs0mg"},{"bike_id":"a9adc8bf-52f1-4c31-a2de-42743dd086bf","system_id":"levelo_inurba_marseille","lat":43.33723,"lon":5.3748,"is_reserved":false,"is_disabled":false,"rental_uris":{"android":"levelo://app?vid=a9adc8bf-52f1-4c31-a2de-42743dd086bf","ios":"levelo://app?vid=a9adc8bf-52f1-4c31-a2de-42743dd086bf"},"vehicle_type_id":"4","last_reported":1766099489,"current_range_meters":6800,"station_id":"","pricing_plan_id":"cebpf4jnsgd1na2vs0mg"},{"bike_id":"00fd2dcb-6faf-4c7a-8c99-525909084655","system_id":"levelo_inurba_marseille","lat":43.28165,"lon":5.42641,"is_reserved":false,"is_disabled":true,"rental_uris":{"android":"levelo://app?vid=00fd2dcb-6faf-4c7a-8c99-525909084655","ios":"levelo://app?vid=00fd2dcb-6faf-4c7a-8c99-525909084655"},"vehicle_type_id":"4","last_reported":1766099489,"current_range_meters":7200,"station_id":"ce4bhnh2rcd13ifvqgug","pricing_plan_id":"cebpf4jnsgd1na2vs0mg"},{"bike_id":"f5b4481f-e08e-4649-85dd-f9c7dba1192d","system_id":"levelo_inurba_marseille","lat":43.28777,"lon":5.38842,"is_reserved":false,"is_disabled":false,"rental_uris":{"android":"levelo://app?vid=f5b4481f-e08e-4649-85dd-f9c7dba1192d","ios":"levelo://app?vid=f5b4481f-e08e-4649-85dd-f9c7dba1192d"},"vehicle_type_id":"4","last_reported":1766099489,"current_range_meters":7200,"station_id":"","pricing_plan_id":"cebpf4jnsgd1na2vs0mg"},{"bike_id":"82eb5e0f-ca7c-40ed-a4f8-32fe351c2877","system_id":"levelo_inurba_marseille","lat":43.26551,"lon":5.37287,"is_reserved":false,"is_disabled":false,"rental_uris":{"android":"levelo://app?vid=82eb5e0f-ca7c-40ed-a4f8-32fe351c2877","ios":"levelo://app?vid=82eb5e0f-ca7c-40ed-a4f8-32fe351c2877"},"vehicle_type_id":"4","last_reported":1766099489,"current_range_meters":7200,"station_id":"ce4bhg12rcd13ifvqf70","pricing_plan_id":"cebpf4jnsgd1na2vs0mg"},{"bike_id":"cbcc8d21-c207-4b73-befa-485a65a073dc","system_id":"levelo_inurba_marseille","lat":43.30356,"lon":5.41876,"is_reserved":false,"is_disabled":false,"rental_uris":{"android":"levelo://app?vid=cbcc8d21-c207-4b73-befa-485a65a073dc","ios":"levelo://app?vid=cbcc8d21-c207-4b73-befa-485a65a073dc"},"vehicle_type_id":"4","last_reported":1766099489,"current_range_meters":7200,"station_id":"ce4bhop2rcd13ifvqh7g","pricing_plan_id":"cebpf4jnsgd1na2vs0mg"},{"bike_id":"702e52a8-4391-4f82-b6a3-64fd232112f5","system_id":"levelo_inurba_marseille","lat":43.29369,"lon":5.37852,"is_reserved":false,"is_disabled":false,"rental_uris":{"android":"levelo://app?vid=702e52a8-4391-4f82-b6a3-64fd232112f5","ios":"levelo://app?vid=702e52a8-4391-4f82-b6a3-64fd232112f5"},"vehicle_type_id":"4","last_reported":1766099489,"current_range_meters":7200,"station_id":"ce4bgjh2rcd13ifvqbf0","pricing_plan_id":"cebpf4jnsgd1na2vs0mg"},{"bike_id":"135034e9-a9ba-448f-8fb7-1a6ab7b9598e","system_id":"levelo_inurba_marseille","lat":43.26545,"lon":5.37281,"is_reserved":false,"is_disabled":true,"rental_uris":{"android":"levelo://app?vid=135034e9-a9ba-448f-8fb7-1a6ab7b9598e","ios":"levelo://app?vid=135034e9-a9ba-448f-8fb7-1a6ab7b9598e"},"vehicle_type_id":"4","last_reported":1766099489,"current_range_meters":8000,"station_id":"ce4bhg12rcd13ifvqf70","pricing_plan_id":"cebpf4jnsgd1na2vs0mg"},{"bike_id":"56faafa9-4b42-4d19-9e13-0b553252ddc5","system_id":"levelo_inurba_marseille","lat":43.28668,"lon":5.36347,"is_reserved":false,"is_disabled":false,"rental_uris":{"android":"levelo://app?vid=56faafa9-4b42-4d19-9e13-0b553252ddc5","ios":"levelo://app?vid=56faafa9-4b42-4d19-9e13-0b553252ddc5"},"vehicle_type_id":"4","last_reported":1766099489,"current_range_meters":8000,"station_id":"ce4bhah2rcd13ifvqej0","pricing_plan_id":"cebpf4jnsgd1na2vs0mg"},{"bike_id":"f9902b54-359a-4a2d-9dab-8d982ebd9f4d","system_id":"levelo_inurba_marseille","lat":43.296198,"lon":5.377091,"is_reserved":false,"is_disabled":false,"rental_uris":{"android":"levelo://app?vid=f9902b54-359a-4a2d-9dab-8d982ebd9f4d","ios":"levelo://app?vid=f9902b54-359a-4a2d-9dab-8d982ebd9f4d"},"vehicle_type_id":"4","last_reported":1766099489,"current_range_meters":8000,"station_id":"","pricing_plan_id":"cebpf4jnsgd1na2vs0mg"},{"bike_id":"da18a3b0-ce97-43eb-b181-936e440b40e5","system_id":"levelo_inurba_marseille","lat":43.316982,"lon":5.40386,"is_reserved":false,"is_disabled":false,"rental_uris":{"android":"levelo://app?vid=da18a3b0-ce97-43eb-b181-936e440b40e5","ios":"levelo://app?vid=da18a3b0-ce97-43eb-b181-936e440b40e5"},"vehicle_type_id":"4","last_reported":1766099489,"current_range_meters":8000,"station_id":"","pricing_plan_id":"cebpf4jnsgd1na2vs0mg"},{"bike_id":"8b7f2718-844c-42a0-9afd-fe4006a5010c","system_id":"levelo_inurba_marseille","lat":43.28855,"lon":5.39296,"is_reserved":false,"is_disabled":false,"rental_uris":{"android":"levelo://app?vid=8b7f2718-844c-42a0-9afd-fe4006a5010c","ios":"levelo://app?vid=8b7f2718-844c-42a0-9afd-fe4006a5010c"},"vehicle_type_id":"4","last_reported":1766099489,"current_range_meters":8400,"station_id":"ce4bh2p2rcd13ifvqdi0","pricing_plan_id":"cebpf4jnsgd1na2vs0mg"},{"bike_id":"0f0927b0-bf14-4055-96ba-f720ba9b1fff","system_id":"levelo_inurba_marseille","lat":43.27908,"lon":5.3958,"is_reserved":false,"is_disabled":false,"rental_uris":{"android":"levelo://app?vid=0f0927b0-bf14-4055-96ba-f720ba9b1fff","ios":"levelo://app?vid=0f0927b0-bf14-4055-96ba-f720ba9b1fff"},"vehicle_type_id":"4","last_reported":1766099489,"current_range_meters":8400,"station_id":"ce4bhf92rcd13ifvqf40","pricing_plan_id":"cebpf4jnsgd1na2vs0mg"},{"bike_id":"3cde007c-a409-4597-91e7-ca2461274ad1","system_id":"levelo_inurba_marseille","lat":43.26568,"lon":5.40196,"is_reserved":false,"is_disabled":false,"rental_uris":{"android":"levelo://app?vid=3cde007c-a409-4597-91e7-ca2461274ad1","ios":"levelo://app?vid=3cde007c-a409-4597-91e7-ca2461274ad1"},"vehicle_type_id":"4","last_reported":1766099489,"current_range_meters":8400,"station_id":"","pricing_plan_id":"cebpf4jnsgd1na2vs0mg"},{"bike_id":"ec63af28-be6a-4c1e-93c2-6267adad2f95","system_id":"levelo_inurba_marseille","lat":43.28414,"lon":5.37498,"is_reserved":false,"is_disabled":false,"rental_uris":{"android":"levelo://app?vid=ec63af28-be6a-4c1e-93c2-6267adad2f95","ios":"levelo://app?vid=ec63af28-be6a-4c1e-93c2-6267adad2f95"},"vehicle_type_id":"4","last_reported":1766099489,"current_range_meters":8400,"station_id":"ce4bh412rcd13ifvqds0","pricing_plan_id":"cebpf4jnsgd1na2vs0mg"},{"bike_id":"85f73172-657d-4c07-87c0-f885714ec732","system_id":"levelo_inurba_marseille","lat":43.286961,"lon":5.373759,"is_reserved":false,"is_disabled":false,"rental_uris":{"android":"levelo://app?vid=85f73172-657d-4c07-87c0-f885714ec732","ios":"levelo://app?vid=85f73172-657d-4c07-87c0-f885714ec732"},"vehicle_type_id":"4","last_reported":1766099489,"current_range_meters":8400,"station_id":"ce4bh3p2rcd13ifvqdq0","pricing_plan_id":"cebpf4jnsgd1na2vs0mg"},{"bike_id":"c2b60210-c2fc-42df-8a7f-5d2ba9cadabb","system_id":"levelo_inurba_marseille","lat":43.30958,"lon":5.39028,"is_reserved":false,"is_disabled":true,"rental_uris":{"android":"levelo://app?vid=c2b60210-c2fc-42df-8a7f-5d2ba9cadabb","ios":"levelo://app?vid=c2b60210-c2fc-42df-8a7f-5d2ba9cadabb"},"vehicle_type_id":"4","last_reported":1766099489,"current_range_meters":8400,"station_id":"ce4bgup2rcd13ifvqco0","pricing_plan_id":"cebpf4jnsgd1na2vs0mg"},{"bike_id":"aa91ca30-0559-4c14-a6d9-52c8c27c396b","system_id":"levelo_inurba_marseille","lat":43.28631,"lon":5.35109,"is_reserved":false,"is_disabled":false,"rental_uris":{"android":"levelo://app?vid=aa91ca30-0559-4c14-a6d9-52c8c27c396b","ios":"levelo://app?vid=aa91ca30-0559-4c14-a6d9-52c8c27c396b"},"vehicle_type_id":"4","last_reported":1766099489,"current_range_meters":8800,"station_id":"ce4bhch2rcd13ifvqeug","pricing_plan_id":"cebpf4jnsgd1na2vs0mg"},{"bike_id":"9282d5a7-0e9c-4010-ae8a-61b36e696bbc","system_id":"levelo_inurba_marseille","lat":43.25333,"lon":5.4217,"is_reserved":false,"is_disabled":false,"rental_uris":{"android":"levelo://app?vid=9282d5a7-0e9c-4010-ae8a-61b36e696bbc","ios":"levelo://app?vid=9282d5a7-0e9c-4010-ae8a-61b36e696bbc"},"vehicle_type_id":"4","last_reported":1766099489,"current_range_meters":8800,"station_id":"st_d2m65c5bi1j21697t3ng","pricing_plan_id":"cebpf4jnsgd1na2vs0mg"},{"bike_id":"81508f0a-e327-4705-ae72-228165570b37","system_id":"levelo_inurba_marseille","lat":43.250925,"lon":5.389482,"is_reserved":false,"is_disabled":false,"rental_uris":{"android":"levelo://app?vid=81508f0a-e327-4705-ae72-228165570b37","ios":"levelo://app?vid=81508f0a-e327-4705-ae72-228165570b37"},"vehicle_type_id":"4","last_reported":1766099489,"current_range_meters":8800,"station_id":"","pricing_plan_id":"cebpf4jnsgd1na2vs0mg"},{"bike_id":"48e30a46-3a61-4ed5-93c8-2b0ee8661bac","system_id":"levelo_inurba_marseille","lat":43.30192,"lon":5.38086,"is_reserved":false,"is_disabled":false,"rental_uris":{"android":"levelo://app?vid=48e30a46-3a61-4ed5-93c8-2b0ee8661bac","ios":"levelo://app?vid=48e30a46-3a61-4ed5-93c8-2b0ee8661bac"},"vehicle_type_id":"4","last_reported":1766099489,"current_range_meters":8800,"station_id":"","pricing_plan_id":"cebpf4jnsgd1na2vs0mg"},{"bike_id":"f87a7598-e6b9-4feb-a6e3-d98d4acd6941","system_id":"levelo_inurba_marseille","lat":43.24174,"lon":5.36407,"is_reserved":false,"is_disabled":false,"rental_uris":{"android":"levelo://app?vid=f87a7598-e6b9-4feb-a6e3-d98d4acd6941","ios":"levelo://app?vid=f87a7598-e6b9-4feb-a6e3-d98d4acd6941"},"vehicle_type_id":"4","last_reported":1766099489,"current_range_meters":8800,"station_id":"cpo36qri1sfpv3e86is0","pricing_plan_id":"cebpf4jnsgd1na2vs0mg"},{"bike_id":"7ba54602-568d-42aa-bd74-9550f527b3b9","system_id":"levelo_inurba_marseille","lat":43.28828,"lon":5.35848,"is_reserved":false,"is_disabled":false,"rental_uris":{"android":"levelo://app?vid=7ba54602-568d-42aa-bd74-9550f527b3b9","ios":"levelo://app?vid=7ba54602-568d-42aa-bd74-9550f527b3b9"},"vehicle_type_id":"4","last_reported":1766099489,"current_range_meters":8800,"station_id":"ce4bhb12rcd13ifvqem0","pricing_plan_id":"cebpf4jnsgd1na2vs0mg"},{"bike_id":"09575982-d1ce-48f3-97ed-c290bec651a2","system_id":"levelo_inurba_marseille","lat":43.28537,"lon":5.44099,"is_reserved":false,"is_disabled":false,"rental_uris":{"android":"levelo://app?vid=09575982-d1ce-48f3-97ed-c290bec651a2","ios":"levelo://app?vid=09575982-d1ce-48f3-97ed-c290bec651a2"},"vehicle_type_id":"4","last_reported":1766099489,"current_range_meters":8800,"station_id":"st_d3j3df2ikq2c7380ej80","pricing_plan_id":"cebpf4jnsgd1na2vs0mg"},{"bike_id":"88f8a6fd-3494-40d9-ae2e-f595025f46da","system_id":"levelo_inurba_marseille","lat":43.28442,"lon":5.39185,"is_reserved":false,"is_disabled":false,"rental_uris":{"android":"levelo://app?vid=88f8a6fd-3494-40d9-ae2e-f595025f46da","ios":"levelo://app?vid=88f8a6fd-3494-40d9-ae2e-f595025f46da"},"vehicle_type_id":"4","last_reported":1766099489,"current_range_meters":9200,"station_id":"ce4bhoh2rcd13ifvqh5g","pricing_plan_id":"cebpf4jnsgd1na2vs0mg"},{"bike_id":"467517c8-ed87-4e02-bef8-4ed63963538d","system_id":"levelo_inurba_marseille","lat":43.27183,"lon":5.41004,"is_reserved":false,"is_disabled":true,"rental_uris":{"android":"levelo://app?vid=467517c8-ed87-4e02-bef8-4ed63963538d","ios":"levelo://app?vid=467517c8-ed87-4e02-bef8-4ed63963538d"},"vehicle_type_id":"4","last_reported":1766099489,"current_range_meters":9200,"station_id":"ce4bhl12rcd13ifvqgf0","pricing_plan_id":"cebpf4jnsgd1na2vs0mg"},{"bike_id":"f65ad8d4-940c-4c44-8c2a-cd0c3cfcfbed","system_id":"levelo_inurba_marseille","lat":43.2669,"lon":5.38245,"is_reserved":false,"is_disabled":false,"rental_uris":{"android":"levelo://app?vid=f65ad8d4-940c-4c44-8c2a-cd0c3cfcfbed","ios":"levelo://app?vid=f65ad8d4-940c-4c44-8c2a-cd0c3cfcfbed"},"vehicle_type_id":"4","last_reported":1766099489,"current_range_meters":9200,"station_id":"ce4bhg92rcd13ifvqf90","pricing_plan_id":"cebpf4jnsgd1na2vs0mg"},{"bike_id":"40c51ff6-bcdf-4189-b2f9-53259a9dc236","system_id":"levelo_inurba_marseille","lat":43.28306,"lon":5.38919,"is_reserved":false,"is_disabled":true,"rental_uris":{"android":"levelo://app?vid=40c51ff6-bcdf-4189-b2f9-53259a9dc236","ios":"levelo://app?vid=40c51ff6-bcdf-4189-b2f9-53259a9dc236"},"vehicle_type_id":"4","last_reported":1766099489,"current_range_meters":9200,"station_id":"","pricing_plan_id":"cebpf4jnsgd1na2vs0mg"},{"bike_id":"37acae82-d1d0-450a-bf9a-b56251eaf3bb","system_id":"levelo_inurba_marseille","lat":43.22931,"lon":5.35371,"is_reserved":false,"is_disabled":false,"rental_uris":{"android":"levelo://app?vid=37acae82-d1d0-450a-bf9a-b56251eaf3bb","ios":"levelo://app?vid=37acae82-d1d0-450a-bf9a-b56251eaf3bb"},"vehicle_type_id":"4","last_reported":1766099489,"current_range_meters":9200,"station_id":"cpo3532slgdg3j2ikp40","pricing_plan_id":"cebpf4jnsgd1na2vs0mg"},{"bike_id":"9a3d7d62-61d2-4eda-b573-080611517549","system_id":"levelo_inurba_marseille","lat":43.28623,"lon":5.35101,"is_reserved":false,"is_disabled":false,"rental_uris":{"android":"levelo://app?vid=9a3d7d62-61d2-4eda-b573-080611517549","ios":"levelo://app?vid=9a3d7d62-61d2-4eda-b573-080611517549"},"vehicle_type_id":"4","last_reported":1766099489,"current_range_meters":9200,"station_id":"ce4bhch2rcd13ifvqeug","pricing_plan_id":"cebpf4jnsgd1na2vs0mg"},{"bike_id":"4ee5cbd7-d314-4a5f-b01c-b41629a1d053","system_id":"levelo_inurba_marseille","lat":43.28032,"lon":5.36927,"is_reserved":false,"is_disabled":false,"rental_uris":{"android":"levelo://app?vid=4ee5cbd7-d314-4a5f-b01c-b41629a1d053","ios":"levelo://app?vid=4ee5cbd7-d314-4a5f-b01c-b41629a1d053"},"vehicle_type_id":"4","last_reported":1766099489,"current_range_meters":9200,"station_id":"ce4bha12rcd13ifvqef0","pricing_plan_id":"cebpf4jnsgd1na2vs0mg"},{"bike_id":"c63ccd62-9e0a-4e66-92ab-9a7e6a0ecf3e","system_id":"levelo_inurba_marseille","lat":43.29018,"lon":5.39031,"is_reserved":false,"is_disabled":false,"rental_uris":{"android":"levelo://app?vid=c63ccd62-9e0a-4e66-92ab-9a7e6a0ecf3e","ios":"levelo://app?vid=c63ccd62-9e0a-4e66-92ab-9a7e6a0ecf3e"},"vehicle_type_id":"4","last_reported":1766099489,"current_range_meters":9200,"station_id":"","pricing_plan_id":"cebpf4jnsgd1na2vs0mg"},{"bike_id":"539241b1-d636-4581-87f5-003d72e485d3","system_id":"levelo_inurba_marseille","lat":43.3009,"lon":5.39069,"is_reserved":false,"is_disabled":false,"rental_uris":{"android":"levelo://app?vid=539241b1-d636-4581-87f5-003d72e485d3","ios":"levelo://app?vid=539241b1-d636-4581-87f5-003d72e485d3"},"vehicle_type_id":"4","last_reported":1766099489,"current_range_meters":9200,"station_id":"ce4bh192rcd13ifvqdb0","pricing_plan_id":"cebpf4jnsgd1na2vs0mg"},{"bike_id":"1c783e39-3092-489d-97e8-0a4c367392b3","system_id":"levelo_inurba_marseille","lat":43.30604,"lon":5.37227,"is_reserved":false,"is_disabled":false,"rental_uris":{"android":"levelo://app?vid=1c783e39-3092-489d-97e8-0a4c367392b3","ios":"levelo://app?vid=1c783e39-3092-489d-97e8-0a4c367392b3"},"vehicle_type_id":"4","last_reported":1766099489,"current_range_meters":9600,"station_id":"ce4bgqh2rcd13ifvqc4g","pricing_plan_id":"cebpf4jnsgd1na2vs0mg"},{"bike_id":"6a1e1967-fdaf-4e65-ae26-1571d7f0290c","system_id":"levelo_inurba_marseille","lat":43.337605,"lon":5.374353,"is_reserved":false,"is_disabled":false,"rental_uris":{"android":"levelo://app?vid=6a1e1967-fdaf-4e65-ae26-1571d7f0290c","ios":"levelo://app?vid=6a1e1967-fdaf-4e65-ae26-1571d7f0290c"},"vehicle_type_id":"4","last_reported":1766099489,"current_range_meters":9600,"station_id":"","pricing_plan_id":"cebpf4jnsgd1na2vs0mg"},{"bike_id":"a24ee5b6-572d-4941-9ef3-a9d89c28bd82","system_id":"levelo_inurba_marseille","lat":43.30631,"lon":5.36739,"is_reserved":false,"is_disabled":false,"rental_uris":{"android":"levelo://app?vid=a24ee5b6-572d-4941-9ef3-a9d89c28bd82","ios":"levelo://app?vid=a24ee5b6-572d-4941-9ef3-a9d89c28bd82"},"vehicle_type_id":"4","last_reported":1766099489,"current_range_meters":9600,"station_id":"ce4bgrp2rcd13ifvqc9g","pricing_plan_id":"cebpf4jnsgd1na2vs0mg"},{"bike_id":"1e6b9ab6-11b1-4c99-beb7-30b30e8ec0aa","system_id":"levelo_inurba_marseille","lat":43.25335,"lon":5.42172,"is_reserved":false,"is_disabled":false,"rental_uris":{"android":"levelo://app?vid=1e6b9ab6-11b1-4c99-beb7-30b30e8ec0aa","ios":"levelo://app?vid=1e6b9ab6-11b1-4c99-beb7-30b30e8ec0aa"},"vehicle_type_id":"4","last_reported":1766099489,"current_range_meters":9600,"station_id":"st_d2m65c5bi1j21697t3ng","pricing_plan_id":"cebpf4jnsgd1na2vs0mg"},{"bike_id":"cf0e2dfe-8751-4251-bbd3-3ad00be9f3ad","system_id":"levelo_inurba_marseille","lat":43.28486,"lon":5.48385,"is_reserved":false,"is_disabled":false,"rental_uris":{"android":"levelo://app?vid=cf0e2dfe-8751-4251-bbd3-3ad00be9f3ad","ios":"levelo://app?vid=cf0e2dfe-8751-4251-bbd3-3ad00be9f3ad"},"vehicle_type_id":"4","last_reported":1766099489,"current_range_meters":9600,"station_id":"","pricing_plan_id":"cebpf4jnsgd1na2vs0mg"},{"bike_id":"39ca6217-71c2-4cee-834d-d178880be878","system_id":"levelo_inurba_marseille","lat":43.30876,"lon":5.37174,"is_reserved":false,"is_disabled":true,"rental_uris":{"android":"levelo://app?vid=39ca6217-71c2-4cee-834d-d178880be878","ios":"levelo://app?vid=39ca6217-71c2-4cee-834d-d178880be878"},"vehicle_type_id":"4","last_reported":1766099489,"current_range_meters":9600,"station_id":"ce4bguh2rcd13ifvqckg","pricing_plan_id":"cebpf4jnsgd1na2vs0mg"},{"bike_id":"c9ebe54a-3534-4700-b029-26ecc3e08a04","system_id":"levelo_inurba_marseille","lat":43.2995,"lon":5.39907,"is_reserved":false,"is_disabled":false,"rental_uris":{"android":"levelo://app?vid=c9ebe54a-3534-4700-b029-26ecc3e08a04","ios":"levelo://app?vid=c9ebe54a-3534-4700-b029-26ecc3e08a04"},"vehicle_type_id":"4","last_reported":1766099489,"current_range_meters":9600,"station_id":"","pricing_plan_id":"cebpf4jnsgd1na2vs0mg"},{"bike_id":"83c99fb0-e698-44f7-b62d-d5157869fb05","system_id":"levelo_inurba_marseille","lat":43.25123,"lon":5.40315,"is_reserved":false,"is_disabled":false,"rental_uris":{"android":"levelo://app?vid=83c99fb0-e698-44f7-b62d-d5157869fb05","ios":"levelo://app?vid=83c99fb0-e698-44f7-b62d-d5157869fb05"},"vehicle_type_id":"4","last_reported":1766099489,"current_range_meters":9600,"station_id":"ce4bhlh2rcd13ifvqgig","pricing_plan_id":"cebpf4jnsgd1na2vs0mg"},{"bike_id":"436e467e-3ef8-4484-b12e-82fd46509f97","system_id":"levelo_inurba_marseille","lat":43.23301,"lon":5.44382,"is_reserved":false,"is_disabled":false,"rental_uris":{"android":"levelo://app?vid=436e467e-3ef8-4484-b12e-82fd46509f97","ios":"levelo://app?vid=436e467e-3ef8-4484-b12e-82fd46509f97"},"vehicle_type_id":"4","last_reported":1766099489,"current_range_meters":10000,"station_id":"","pricing_plan_id":"cebpf4jnsgd1na2vs0mg"},{"bike_id":"4a614ce4-d61c-499d-8955-0569e02f377b","system_id":"levelo_inurba_marseille","lat":43.27513,"lon":5.37265,"is_reserved":false,"is_disabled":false,"rental_uris":{"android":"levelo://app?vid=4a614ce4-d61c-499d-8955-0569e02f377b","ios":"levelo://app?vid=4a614ce4-d61c-499d-8955-0569e02f377b"},"vehicle_type_id":"4","last_reported":1766099489,"current_range_meters":10000,"station_id":"","pricing_plan_id":"cebpf4jnsgd1na2vs0mg"},{"bike_id":"6e3824f8-1bcf-4c91-a40b-ab7b5a057381","system_id":"levelo_inurba_marseille","lat":43.30353,"lon":5.418754,"is_reserved":false,"is_disabled":false,"rental_uris":{"android":"levelo://app?vid=6e3824f8-1bcf-4c91-a40b-ab7b5a057381","ios":"levelo://app?vid=6e3824f8-1bcf-4c91-a40b-ab7b5a057381"},"vehicle_type_id":"4","last_reported":1766099489,"current_range_meters":10000,"station_id":"ce4bhop2rcd13ifvqh7g","pricing_plan_id":"cebpf4jnsgd1na2vs0mg"},{"bike_id":"513d744e-24d3-4549-ac1a-e27b69ffab36","system_id":"levelo_inurba_marseille","lat":43.27209,"lon":5.39176,"is_reserved":false,"is_disabled":false,"rental_uris":{"android":"levelo://app?vid=513d744e-24d3-4549-ac1a-e27b69ffab36","ios":"levelo://app?vid=513d744e-24d3-4549-ac1a-e27b69ffab36"},"vehicle_type_id":"4","last_reported":1766099489,"current_range_meters":10000,"station_id":"ce4bhhp2rcd13ifvqfm0","pricing_plan_id":"cebpf4jnsgd1na2vs0mg"},{"bike_id":"ee6f7e5c-24b4-4046-a3ec-072080785116","system_id":"levelo_inurba_marseille","lat":43.21741,"lon":5.34602,"is_reserved":false,"is_disabled":true,"rental_uris":{"android":"levelo://app?vid=ee6f7e5c-24b4-4046-a3ec-072080785116","ios":"levelo://app?vid=ee6f7e5c-24b4-4046-a3ec-072080785116"},"vehicle_type_id":"4","last_reported":1766099489,"current_range_meters":10000,"station_id":"st_cvj6r9ubvosntc0bgbag","pricing_plan_id":"cebpf4jnsgd1na2vs0mg"},{"bike_id":"7efc1023-cb29-4136-9def-617e72f85962","system_id":"levelo_inurba_marseille","lat":43.29923,"lon":5.37463,"is_reserved":false,"is_disabled":false,"rental_uris":{"android":"levelo://app?vid=7efc1023-cb29-4136-9def-617e72f85962","ios":"levelo://app?vid=7efc1023-cb29-4136-9def-617e72f85962"},"vehicle_type_id":"4","last_reported":1766099489,"current_range_meters":10000,"station_id":"ce4bgjh2rcd13ifvqbg0","pricing_plan_id":"cebpf4jnsgd1na2vs0mg"},{"bike_id":"55e2666e-7fc1-4f40-a2e1-5f6eda32c223","system_id":"levelo_inurba_marseille","lat":43.27964,"lon":5.41053,"is_reserved":false,"is_disabled":false,"rental_uris":{"android":"levelo://app?vid=55e2666e-7fc1-4f40-a2e1-5f6eda32c223","ios":"levelo://app?vid=55e2666e-7fc1-4f40-a2e1-5f6eda32c223"},"vehicle_type_id":"4","last_reported":1766099489,"current_range_meters":10000,"station_id":"ce4bhnp2rcd13ifvqh0g","pricing_plan_id":"cebpf4jnsgd1na2vs0mg"},{"bike_id":"ee572a69-cd22-46c5-ac4b-48137de55e6b","system_id":"levelo_inurba_marseille","lat":43.30797,"lon":5.38153,"is_reserved":false,"is_disabled":false,"rental_uris":{"android":"levelo://app?vid=ee572a69-cd22-46c5-ac4b-48137de55e6b","ios":"levelo://app?vid=ee572a69-cd22-46c5-ac4b-48137de55e6b"},"vehicle_type_id":"4","last_reported":1766099489,"current_range_meters":10000,"station_id":"ce4bgt12rcd13ifvqce0","pricing_plan_id":"cebpf4jnsgd1na2vs0mg"},{"bike_id":"f0552324-7f16-45f2-af53-7d50398c0e4b","system_id":"levelo_inurba_marseille","lat":43.29191,"lon":5.3932,"is_reserved":false,"is_disabled":true,"rental_uris":{"android":"levelo://app?vid=f0552324-7f16-45f2-af53-7d50398c0e4b","ios":"levelo://app?vid=f0552324-7f16-45f2-af53-7d50398c0e4b"},"vehicle_type_id":"4","last_reported":1766099489,"current_range_meters":10000,"station_id":"ce4bh192rcd13ifvqdd0","pricing_plan_id":"cebpf4jnsgd1na2vs0mg"},{"bike_id":"e3545456-9ccd-47b9-9f35-1db0fbdf5c17","system_id":"levelo_inurba_marseille","lat":43.285272,"lon":5.440991,"is_reserved":false,"is_disabled":false,"rental_uris":{"android":"levelo://app?vid=e3545456-9ccd-47b9-9f35-1db0fbdf5c17","ios":"levelo://app?vid=e3545456-9ccd-47b9-9f35-1db0fbdf5c17"},"vehicle_type_id":"4","last_reported":1766099489,"current_range_meters":10000,"station_id":"st_d3j3df2ikq2c7380ej80","pricing_plan_id":"cebpf4jnsgd1na2vs0mg"},{"bike_id":"c5c31c7f-135d-42e3-ade3-342d2f4cfaa1","system_id":"levelo_inurba_marseille","lat":43.31717,"lon":5.42396,"is_reserved":false,"is_disabled":false,"rental_uris":{"android":"levelo://app?vid=c5c31c7f-135d-42e3-ade3-342d2f4cfaa1","ios":"levelo://app?vid=c5c31c7f-135d-42e3-ade3-342d2f4cfaa1"},"vehicle_type_id":"4","last_reported":1766099489,"current_range_meters":10000,"station_id":"ce4bhp92rcd13ifvqhbg","pricing_plan_id":"cebpf4jnsgd1na2vs0mg"},{"bike_id":"15876c77-34c5-4772-a9d7-bb250c64c412","system_id":"levelo_inurba_marseille","lat":43.29273,"lon":5.38439,"is_reserved":false,"is_disabled":false,"rental_uris":{"android":"levelo://app?vid=15876c77-34c5-4772-a9d7-bb250c64c412","ios":"levelo://app?vid=15876c77-34c5-4772-a9d7-bb250c64c412"},"vehicle_type_id":"4","last_reported":1766099489,"current_range_meters":10800,"station_id":"ce4bh692rcd13ifvqea0","pricing_plan_id":"cebpf4jnsgd1na2vs0mg"},{"bike_id":"85f12ccf-5b46-4628-894a-c4095346a940","system_id":"levelo_inurba_marseille","lat":43.27942,"lon":5.41055,"is_reserved":false,"is_disabled":true,"rental_uris":{"android":"levelo://app?vid=85f12ccf-5b46-4628-894a-c4095346a940","ios":"levelo://app?vid=85f12ccf-5b46-4628-894a-c4095346a940"},"vehicle_type_id":"4","last_reported":1766099489,"current_range_meters":10800,"station_id":"ce4bhnp2rcd13ifvqh0g","pricing_plan_id":"cebpf4jnsgd1na2vs0mg"},{"bike_id":"52b61354-da80-471d-a0ef-682891b3f0eb","system_id":"levelo_inurba_marseille","lat":43.24389,"lon":5.37095,"is_reserved":false,"is_disabled":true,"rental_uris":{"android":"levelo://app?vid=52b61354-da80-471d-a0ef-682891b3f0eb","ios":"levelo://app?vid=52b61354-da80-471d-a0ef-682891b3f0eb"},"vehicle_type_id":"4","last_reported":1766099489,"current_range_meters":10800,"station_id":"ce4bhhh2rcd13ifvqfk0","pricing_plan_id":"cebpf4jnsgd1na2vs0mg"},{"bike_id":"228ed5e4-a793-4f90-a46f-1e70b2793524","system_id":"levelo_inurba_marseille","lat":43.286238,"lon":5.398662,"is_reserved":false,"is_disabled":true,"rental_uris":{"android":"levelo://app?vid=228ed5e4-a793-4f90-a46f-1e70b2793524","ios":"levelo://app?vid=228ed5e4-a793-4f90-a46f-1e70b2793524"},"vehicle_type_id":"4","last_reported":1766099489,"current_range_meters":10800,"station_id":"st_d4a7ka997mjs738ck50g","pricing_plan_id":"cebpf4jnsgd1na2vs0mg"},{"bike_id":"c5365846-c619-4f12-8c92-97c9f9725a15","system_id":"levelo_inurba_marseille","lat":43.29528,"lon":5.37921,"is_reserved":false,"is_disabled":false,"rental_uris":{"android":"levelo://app?vid=c5365846-c619-4f12-8c92-97c9f9725a15","ios":"levelo://app?vid=c5365846-c619-4f12-8c92-97c9f9725a15"},"vehicle_type_id":"4","last_reported":1766099489,"current_range_meters":10800,"station_id":"","pricing_plan_id":"cebpf4jnsgd1na2vs0mg"},{"bike_id":"5c8be759-0f11-4129-be41-c24cc2ed7a39","system_id":"levelo_inurba_marseille","lat":43.30905,"lon":5.36856,"is_reserved":false,"is_disabled":false,"rental_uris":{"android":"levelo://app?vid=5c8be759-0f11-4129-be41-c24cc2ed7a39","ios":"levelo://app?vid=5c8be759-0f11-4129-be41-c24cc2ed7a39"},"vehicle_type_id":"4","last_reported":1766099489,"current_range_meters":10800,"station_id":"ce4bgn92rcd13ifvqbvg","pricing_plan_id":"cebpf4jnsgd1na2vs0mg"},{"bike_id":"406ef59a-d66f-41e7-baf6-b1e43a08b0b0","system_id":"levelo_inurba_marseille","lat":43.286865,"lon":5.373892,"is_reserved":false,"is_disabled":false,"rental_uris":{"android":"levelo://app?vid=406ef59a-d66f-41e7-baf6-b1e43a08b0b0","ios":"levelo://app?vid=406ef59a-d66f-41e7-baf6-b1e43a08b0b0"},"vehicle_type_id":"4","last_reported":1766099489,"current_range_meters":10800,"station_id":"ce4bh3p2rcd13ifvqdq0","pricing_plan_id":"cebpf4jnsgd1na2vs0mg"},{"bike_id":"01a22ff4-19c2-4976-a549-24240c0f7d2f","system_id":"levelo_inurba_marseille","lat":43.25326,"lon":5.42186,"is_reserved":false,"is_disabled":false,"rental_uris":{"android":"levelo://app?vid=01a22ff4-19c2-4976-a549-24240c0f7d2f","ios":"levelo://app?vid=01a22ff4-19c2-4976-a549-24240c0f7d2f"},"vehicle_type_id":"4","last_reported":1766099489,"current_range_meters":10800,"station_id":"st_d2m65c5bi1j21697t3ng","pricing_plan_id":"cebpf4jnsgd1na2vs0mg"},{"bike_id":"cccce875-5558-46d8-8531-5be1bac39f6f","system_id":"levelo_inurba_marseille","lat":43.24412,"lon":5.40134,"is_reserved":false,"is_disabled":false,"rental_uris":{"android":"levelo://app?vid=cccce875-5558-46d8-8531-5be1bac39f6f","ios":"levelo://app?vid=cccce875-5558-46d8-8531-5be1bac39f6f"},"vehicle_type_id":"4","last_reported":1766099489,"current_range_meters":10800,"station_id":"","pricing_plan_id":"cebpf4jnsgd1na2vs0mg"},{"bike_id":"374a0371-4968-4fe9-88a9-ac5ffa94b236","system_id":"levelo_inurba_marseille","lat":43.31462,"lon":5.45381,"is_reserved":false,"is_disabled":false,"rental_uris":{"android":"levelo://app?vid=374a0371-4968-4fe9-88a9-ac5ffa94b236","ios":"levelo://app?vid=374a0371-4968-4fe9-88a9-ac5ffa94b236"},"vehicle_type_id":"4","last_reported":1766099489,"current_range_meters":10800,"station_id":"","pricing_plan_id":"cebpf4jnsgd1na2vs0mg"},{"bike_id":"9859a8ec-16a9-4245-8424-35aa36622331","system_id":"levelo_inurba_marseille","lat":43.31118,"lon":5.37757,"is_reserved":false,"is_disabled":false,"rental_uris":{"android":"levelo://app?vid=9859a8ec-16a9-4245-8424-35aa36622331","ios":"levelo://app?vid=9859a8ec-16a9-4245-8424-35aa36622331"},"vehicle_type_id":"4","last_reported":1766099489,"current_range_meters":10800,"station_id":"ce4bgt92rcd13ifvqcg0","pricing_plan_id":"cebpf4jnsgd1na2vs0mg"},{"bike_id":"a6bb7fde-2db0-447e-8cac-38a0c3844ce6","system_id":"levelo_inurba_marseille","lat":43.277721,"lon":5.3882,"is_reserved":false,"is_disabled":false,"rental_uris":{"android":"levelo://app?vid=a6bb7fde-2db0-447e-8cac-38a0c3844ce6","ios":"levelo://app?vid=a6bb7fde-2db0-447e-8cac-38a0c3844ce6"},"vehicle_type_id":"4","last_reported":1766099489,"current_range_meters":11200,"station_id":"","pricing_plan_id":"cebpf4jnsgd1na2vs0mg"},{"bike_id":"1f8bf9e3-c9bd-4c05-9201-34f9580d25af","system_id":"levelo_inurba_marseille","lat":43.2119,"lon":5.35073,"is_reserved":false,"is_disabled":false,"rental_uris":{"android":"levelo://app?vid=1f8bf9e3-c9bd-4c05-9201-34f9580d25af","ios":"levelo://app?vid=1f8bf9e3-c9bd-4c05-9201-34f9580d25af"},"vehicle_type_id":"4","last_reported":1766099489,"current_range_meters":11200,"station_id":"st_cvj6sg6p6f1abm77japg","pricing_plan_id":"cebpf4jnsgd1na2vs0mg"},{"bike_id":"da0c886d-bf9d-46c9-ba41-bfd5ae0eda24","system_id":"levelo_inurba_marseille","lat":43.24152,"lon":5.3643,"is_reserved":false,"is_disabled":false,"rental_uris":{"android":"levelo://app?vid=da0c886d-bf9d-46c9-ba41-bfd5ae0eda24","ios":"levelo://app?vid=da0c886d-bf9d-46c9-ba41-bfd5ae0eda24"},"vehicle_type_id":"4","last_reported":1766099489,"current_range_meters":11200,"station_id":"cpo36qri1sfpv3e86is0","pricing_plan_id":"cebpf4jnsgd1na2vs0mg"},{"bike_id":"f26253f6-7b55-49b3-b0c9-2211785f4244","system_id":"levelo_inurba_marseille","lat":43.30209,"lon":5.36597,"is_reserved":false,"is_disabled":false,"rental_uris":{"android":"levelo://app?vid=f26253f6-7b55-49b3-b0c9-2211785f4244","ios":"levelo://app?vid=f26253f6-7b55-49b3-b0c9-2211785f4244"},"vehicle_type_id":"4","last_reported":1766099489,"current_range_meters":11200,"station_id":"ce4bgrh2rcd13ifvqc8g","pricing_plan_id":"cebpf4jnsgd1na2vs0mg"},{"bike_id":"13d3967b-4cfe-47bf-8d35-564fb9330955","system_id":"levelo_inurba_marseille","lat":43.284019,"lon":5.375057,"is_reserved":false,"is_disabled":false,"rental_uris":{"android":"levelo://app?vid=13d3967b-4cfe-47bf-8d35-564fb9330955","ios":"levelo://app?vid=13d3967b-4cfe-47bf-8d35-564fb9330955"},"vehicle_type_id":"4","last_reported":1766099489,"current_range_meters":11200,"station_id":"ce4bh412rcd13ifvqds0","pricing_plan_id":"cebpf4jnsgd1na2vs0mg"},{"bike_id":"fade1f76-6248-43fe-aeb9-7f93aeff737b","system_id":"levelo_inurba_marseille","lat":43.27931,"lon":5.39559,"is_reserved":false,"is_disabled":true,"rental_uris":{"android":"levelo://app?vid=fade1f76-6248-43fe-aeb9-7f93aeff737b","ios":"levelo://app?vid=fade1f76-6248-43fe-aeb9-7f93aeff737b"},"vehicle_type_id":"4","last_reported":1766099489,"current_range_meters":11200,"station_id":"ce4bhf92rcd13ifvqf40","pricing_plan_id":"cebpf4jnsgd1na2vs0mg"},{"bike_id":"1626daf3-5722-4708-8aed-cbc8067f87db","system_id":"levelo_inurba_marseille","lat":43.28634,"lon":5.3508,"is_reserved":false,"is_disabled":false,"rental_uris":{"android":"levelo://app?vid=1626daf3-5722-4708-8aed-cbc8067f87db","ios":"levelo://app?vid=1626daf3-5722-4708-8aed-cbc8067f87db"},"vehicle_type_id":"4","last_reported":1766099489,"current_range_meters":11200,"station_id":"ce4bhch2rcd13ifvqeug","pricing_plan_id":"cebpf4jnsgd1na2vs0mg"},{"bike_id":"d50867a0-a974-4546-a28c-eba4c2e0b399","system_id":"levelo_inurba_marseille","lat":43.23196,"lon":5.35542,"is_reserved":false,"is_disabled":false,"rental_uris":{"android":"levelo://app?vid=d50867a0-a974-4546-a28c-eba4c2e0b399","ios":"levelo://app?vid=d50867a0-a974-4546-a28c-eba4c2e0b399"},"vehicle_type_id":"4","last_reported":1766099489,"current_range_meters":11600,"station_id":"ce4bhu92rcd13ifvqi70","pricing_plan_id":"cebpf4jnsgd1na2vs0mg"},{"bike_id":"f8ebd501-fad9-48ed-a55d-564fc9324817","system_id":"levelo_inurba_marseille","lat":43.27952,"lon":5.41041,"is_reserved":false,"is_disabled":false,"rental_uris":{"android":"levelo://app?vid=f8ebd501-fad9-48ed-a55d-564fc9324817","ios":"levelo://app?vid=f8ebd501-fad9-48ed-a55d-564fc9324817"},"vehicle_type_id":"4","last_reported":1766099489,"current_range_meters":11600,"station_id":"ce4bhnp2rcd13ifvqh0g","pricing_plan_id":"cebpf4jnsgd1na2vs0mg"},{"bike_id":"8168a14b-8ee0-4440-a4b9-9a46efc3b289","system_id":"levelo_inurba_marseille","lat":43.28941,"lon":5.363756,"is_reserved":false,"is_disabled":false,"rental_uris":{"android":"levelo://app?vid=8168a14b-8ee0-4440-a4b9-9a46efc3b289","ios":"levelo://app?vid=8168a14b-8ee0-4440-a4b9-9a46efc3b289"},"vehicle_type_id":"4","last_reported":1766099489,"current_range_meters":11600,"station_id":"ce4bhc92rcd13ifvqetg","pricing_plan_id":"cebpf4jnsgd1na2vs0mg"},{"bike_id":"c3dab29f-535d-4c59-917e-f437722a4397","system_id":"levelo_inurba_marseille","lat":43.29912,"lon":5.39738,"is_reserved":false,"is_disabled":false,"rental_uris":{"android":"levelo://app?vid=c3dab29f-535d-4c59-917e-f437722a4397","ios":"levelo://app?vid=c3dab29f-535d-4c59-917e-f437722a4397"},"vehicle_type_id":"4","last_reported":1766099489,"current_range_meters":11600,"station_id":"","pricing_plan_id":"cebpf4jnsgd1na2vs0mg"},{"bike_id":"3600545b-6af9-4527-916c-36a9c126b47e","system_id":"levelo_inurba_marseille","lat":43.301412,"lon":5.374142,"is_reserved":false,"is_disabled":false,"rental_uris":{"android":"levelo://app?vid=3600545b-6af9-4527-916c-36a9c126b47e","ios":"levelo://app?vid=3600545b-6af9-4527-916c-36a9c126b47e"},"vehicle_type_id":"4","last_reported":1766099489,"current_range_meters":12000,"station_id":"ce4bgs92rcd13ifvqcc0","pricing_plan_id":"cebpf4jnsgd1na2vs0mg"},{"bike_id":"a663a1e9-000f-4f76-9823-54d90dfd1b05","system_id":"levelo_inurba_marseille","lat":43.27933,"lon":5.39575,"is_reserved":false,"is_disabled":false,"rental_uris":{"android":"levelo://app?vid=a663a1e9-000f-4f76-9823-54d90dfd1b05","ios":"levelo://app?vid=a663a1e9-000f-4f76-9823-54d90dfd1b05"},"vehicle_type_id":"4","last_reported":1766099489,"current_range_meters":12000,"station_id":"ce4bhf92rcd13ifvqf40","pricing_plan_id":"cebpf4jnsgd1na2vs0mg"},{"bike_id":"4218c3f6-4764-47cf-93fc-c76838aefb78","system_id":"levelo_inurba_marseille","lat":43.24165,"lon":5.36413,"is_reserved":false,"is_disabled":false,"rental_uris":{"android":"levelo://app?vid=4218c3f6-4764-47cf-93fc-c76838aefb78","ios":"levelo://app?vid=4218c3f6-4764-47cf-93fc-c76838aefb78"},"vehicle_type_id":"4","last_reported":1766099489,"current_range_meters":12000,"station_id":"cpo36qri1sfpv3e86is0","pricing_plan_id":"cebpf4jnsgd1na2vs0mg"},{"bike_id":"9f6c9975-15d6-48de-a383-d85662191ef8","system_id":"levelo_inurba_marseille","lat":43.21207,"lon":5.3505,"is_reserved":false,"is_disabled":false,"rental_uris":{"android":"levelo://app?vid=9f6c9975-15d6-48de-a383-d85662191ef8","ios":"levelo://app?vid=9f6c9975-15d6-48de-a383-d85662191ef8"},"vehicle_type_id":"4","last_reported":1766099489,"current_range_meters":12000,"station_id":"st_cvj6sg6p6f1abm77japg","pricing_plan_id":"cebpf4jnsgd1na2vs0mg"},{"bike_id":"f365ebf1-46c0-4bc0-ae4f-263145122a46","system_id":"levelo_inurba_marseille","lat":43.25008,"lon":5.38928,"is_reserved":false,"is_disabled":false,"rental_uris":{"android":"levelo://app?vid=f365ebf1-46c0-4bc0-ae4f-263145122a46","ios":"levelo://app?vid=f365ebf1-46c0-4bc0-ae4f-263145122a46"},"vehicle_type_id":"4","last_reported":1766099489,"current_range_meters":12000,"station_id":"ce4bhgp2rcd13ifvqfd0","pricing_plan_id":"cebpf4jnsgd1na2vs0mg"},{"bike_id":"d0dd282f-2c05-49dd-834d-6d93cee6c88a","system_id":"levelo_inurba_marseille","lat":43.30203,"lon":5.36624,"is_reserved":false,"is_disabled":true,"rental_uris":{"android":"levelo://app?vid=d0dd282f-2c05-49dd-834d-6d93cee6c88a","ios":"levelo://app?vid=d0dd282f-2c05-49dd-834d-6d93cee6c88a"},"vehicle_type_id":"4","last_reported":1766099489,"current_range_meters":12000,"station_id":"ce4bgrh2rcd13ifvqc8g","pricing_plan_id":"cebpf4jnsgd1na2vs0mg"},{"bike_id":"4967ee31-7b12-41dd-95bc-934841f68bea","system_id":"levelo_inurba_marseille","lat":43.27921,"lon":5.39574,"is_reserved":false,"is_disabled":false,"rental_uris":{"android":"levelo://app?vid=4967ee31-7b12-41dd-95bc-934841f68bea","ios":"levelo://app?vid=4967ee31-7b12-41dd-95bc-934841f68bea"},"vehicle_type_id":"4","last_reported":1766099489,"current_range_meters":12000,"station_id":"ce4bhf92rcd13ifvqf40","pricing_plan_id":"cebpf4jnsgd1na2vs0mg"},{"bike_id":"a8bb7bbc-85dc-488d-8db9-15a263115c98","system_id":"levelo_inurba_marseille","lat":43.29044,"lon":5.39962,"is_reserved":false,"is_disabled":false,"rental_uris":{"android":"levelo://app?vid=a8bb7bbc-85dc-488d-8db9-15a263115c98","ios":"levelo://app?vid=a8bb7bbc-85dc-488d-8db9-15a263115c98"},"vehicle_type_id":"4","last_reported":1766099489,"current_range_meters":12000,"station_id":"ce4bh392rcd13ifvqdm0","pricing_plan_id":"cebpf4jnsgd1na2vs0mg"},{"bike_id":"9d768434-4c5f-40b9-8540-e15e5af7a68b","system_id":"levelo_inurba_marseille","lat":43.29719,"lon":5.36607,"is_reserved":false,"is_disabled":false,"rental_uris":{"android":"levelo://app?vid=9d768434-4c5f-40b9-8540-e15e5af7a68b","ios":"levelo://app?vid=9d768434-4c5f-40b9-8540-e15e5af7a68b"},"vehicle_type_id":"4","last_reported":1766099489,"current_range_meters":12000,"station_id":"ce4bgn12rcd13ifvqbt0","pricing_plan_id":"cebpf4jnsgd1na2vs0mg"},{"bike_id":"1f056b37-e3f2-4d39-81cb-848d585f8a47","system_id":"levelo_inurba_marseille","lat":43.241656,"lon":5.364015,"is_reserved":false,"is_disabled":false,"rental_uris":{"android":"levelo://app?vid=1f056b37-e3f2-4d39-81cb-848d585f8a47","ios":"levelo://app?vid=1f056b37-e3f2-4d39-81cb-848d585f8a47"},"vehicle_type_id":"4","last_reported":1766099489,"current_range_meters":12000,"station_id":"cpo36qri1sfpv3e86is0","pricing_plan_id":"cebpf4jnsgd1na2vs0mg"},{"bike_id":"33fb061b-cc0a-44e2-a90b-8eab16db9143","system_id":"levelo_inurba_marseille","lat":43.27941,"lon":5.41047,"is_reserved":false,"is_disabled":false,"rental_uris":{"android":"levelo://app?vid=33fb061b-cc0a-44e2-a90b-8eab16db9143","ios":"levelo://app?vid=33fb061b-cc0a-44e2-a90b-8eab16db9143"},"vehicle_type_id":"4","last_reported":1766099489,"current_range_meters":12400,"station_id":"ce4bhnp2rcd13ifvqh0g","pricing_plan_id":"cebpf4jnsgd1na2vs0mg"},{"bike_id":"0a598fce-978f-4f90-b03f-b8be1902feff","system_id":"levelo_inurba_marseille","lat":43.31274,"lon":5.3783,"is_reserved":false,"is_disabled":false,"rental_uris":{"android":"levelo://app?vid=0a598fce-978f-4f90-b03f-b8be1902feff","ios":"levelo://app?vid=0a598fce-978f-4f90-b03f-b8be1902feff"},"vehicle_type_id":"4","last_reported":1766099489,"current_range_meters":12400,"station_id":"","pricing_plan_id":"cebpf4jnsgd1na2vs0mg"},{"bike_id":"56055c29-d1fb-47ce-9452-ce663cc953fd","system_id":"levelo_inurba_marseille","lat":43.31326,"lon":5.39702,"is_reserved":false,"is_disabled":false,"rental_uris":{"android":"levelo://app?vid=56055c29-d1fb-47ce-9452-ce663cc953fd","ios":"levelo://app?vid=56055c29-d1fb-47ce-9452-ce663cc953fd"},"vehicle_type_id":"4","last_reported":1766099489,"current_range_meters":12400,"station_id":"ce4bgvp2rcd13ifvqcu0","pricing_plan_id":"cebpf4jnsgd1na2vs0mg"},{"bike_id":"cf5eb2c1-c87d-4ae3-9256-41d8d82f1276","system_id":"levelo_inurba_marseille","lat":43.292317,"lon":5.360562,"is_reserved":false,"is_disabled":false,"rental_uris":{"android":"levelo://app?vid=cf5eb2c1-c87d-4ae3-9256-41d8d82f1276","ios":"levelo://app?vid=cf5eb2c1-c87d-4ae3-9256-41d8d82f1276"},"vehicle_type_id":"4","last_reported":1766099489,"current_range_meters":12400,"station_id":"ce4bhbh2rcd13ifvqeqg","pricing_plan_id":"cebpf4jnsgd1na2vs0mg"},{"bike_id":"52f275a8-c86e-47e7-94d9-64f50bc0051b","system_id":"levelo_inurba_marseille","lat":43.3093,"lon":5.40151,"is_reserved":false,"is_disabled":false,"rental_uris":{"android":"levelo://app?vid=52f275a8-c86e-47e7-94d9-64f50bc0051b","ios":"levelo://app?vid=52f275a8-c86e-47e7-94d9-64f50bc0051b"},"vehicle_type_id":"4","last_reported":1766099489,"current_range_meters":12400,"station_id":"ce4bgvp2rcd13ifvqct0","pricing_plan_id":"cebpf4jnsgd1na2vs0mg"},{"bike_id":"f3a4c2fd-c27a-4ca6-bbe5-3949d2a88808","system_id":"levelo_inurba_marseille","lat":43.28576,"lon":5.4299,"is_reserved":false,"is_disabled":false,"rental_uris":{"android":"levelo://app?vid=f3a4c2fd-c27a-4ca6-bbe5-3949d2a88808","ios":"levelo://app?vid=f3a4c2fd-c27a-4ca6-bbe5-3949d2a88808"},"vehicle_type_id":"4","last_reported":1766099489,"current_range_meters":12400,"station_id":"","pricing_plan_id":"cebpf4jnsgd1na2vs0mg"},{"bike_id":"143377de-35ef-43f1-8f05-6d7e95c5ad0e","system_id":"levelo_inurba_marseille","lat":43.27825,"lon":5.39212,"is_reserved":false,"is_disabled":false,"rental_uris":{"android":"levelo://app?vid=143377de-35ef-43f1-8f05-6d7e95c5ad0e","ios":"levelo://app?vid=143377de-35ef-43f1-8f05-6d7e95c5ad0e"},"vehicle_type_id":"4","last_reported":1766099489,"current_range_meters":12400,"station_id":"ce4bhjp2rcd13ifvqga0","pricing_plan_id":"cebpf4jnsgd1na2vs0mg"},{"bike_id":"17a49efb-d179-4b85-b20c-4afe87c0613f","system_id":"levelo_inurba_marseille","lat":43.31049,"lon":5.3712,"is_reserved":false,"is_disabled":true,"rental_uris":{"android":"levelo://app?vid=17a49efb-d179-4b85-b20c-4afe87c0613f","ios":"levelo://app?vid=17a49efb-d179-4b85-b20c-4afe87c0613f"},"vehicle_type_id":"4","last_reported":1766099489,"current_range_meters":12400,"station_id":"st_d4kl2rp97mjs73e7tdfg","pricing_plan_id":"cebpf4jnsgd1na2vs0mg"},{"bike_id":"2b1d4fd8-8af2-42da-8cd8-1c4c7bd61973","system_id":"levelo_inurba_marseille","lat":43.29189,"lon":5.35817,"is_reserved":false,"is_disabled":false,"rental_uris":{"android":"levelo://app?vid=2b1d4fd8-8af2-42da-8cd8-1c4c7bd61973","ios":"levelo://app?vid=2b1d4fd8-8af2-42da-8cd8-1c4c7bd61973"},"vehicle_type_id":"4","last_reported":1766099489,"current_range_meters":12400,"station_id":"ce4bhb12rcd13ifvqel0","pricing_plan_id":"cebpf4jnsgd1na2vs0mg"},{"bike_id":"9ce1842c-18fc-43eb-9262-95f8086e7650","system_id":"levelo_inurba_marseille","lat":43.278229,"lon":5.407018,"is_reserved":false,"is_disabled":false,"rental_uris":{"android":"levelo://app?vid=9ce1842c-18fc-43eb-9262-95f8086e7650","ios":"levelo://app?vid=9ce1842c-18fc-43eb-9262-95f8086e7650"},"vehicle_type_id":"4","last_reported":1766099489,"current_range_meters":12800,"station_id":"ce4bhnh2rcd13ifvqgtg","pricing_plan_id":"cebpf4jnsgd1na2vs0mg"},{"bike_id":"b35bf390-3731-42ac-9e87-33947aeb4efc","system_id":"levelo_inurba_marseille","lat":43.32765,"lon":5.39222,"is_reserved":false,"is_disabled":false,"rental_uris":{"android":"levelo://app?vid=b35bf390-3731-42ac-9e87-33947aeb4efc","ios":"levelo://app?vid=b35bf390-3731-42ac-9e87-33947aeb4efc"},"vehicle_type_id":"4","last_reported":1766099489,"current_range_meters":12800,"station_id":"","pricing_plan_id":"cebpf4jnsgd1na2vs0mg"},{"bike_id":"37f6a8ef-d756-4d3c-8a72-327e8b4cf991","system_id":"levelo_inurba_marseille","lat":43.320507,"lon":5.41566,"is_reserved":false,"is_disabled":false,"rental_uris":{"android":"levelo://app?vid=37f6a8ef-d756-4d3c-8a72-327e8b4cf991","ios":"levelo://app?vid=37f6a8ef-d756-4d3c-8a72-327e8b4cf991"},"vehicle_type_id":"4","last_reported":1766099489,"current_range_meters":12800,"station_id":"ce4bhq92rcd13ifvqhkg","pricing_plan_id":"cebpf4jnsgd1na2vs0mg"},{"bike_id":"3120f82a-9fe7-4303-ac93-793333395679","system_id":"levelo_inurba_marseille","lat":43.2903,"lon":5.38625,"is_reserved":false,"is_disabled":false,"rental_uris":{"android":"levelo://app?vid=3120f82a-9fe7-4303-ac93-793333395679","ios":"levelo://app?vid=3120f82a-9fe7-4303-ac93-793333395679"},"vehicle_type_id":"4","last_reported":1766099489,"current_range_meters":12800,"station_id":"ce4bh4p2rcd13ifvqe0g","pricing_plan_id":"cebpf4jnsgd1na2vs0mg"},{"bike_id":"4df7be66-552c-4f39-9c03-3678ad0a74cb","system_id":"levelo_inurba_marseille","lat":43.2816,"lon":5.42644,"is_reserved":false,"is_disabled":false,"rental_uris":{"android":"levelo://app?vid=4df7be66-552c-4f39-9c03-3678ad0a74cb","ios":"levelo://app?vid=4df7be66-552c-4f39-9c03-3678ad0a74cb"},"vehicle_type_id":"4","last_reported":1766099489,"current_range_meters":12800,"station_id":"ce4bhnh2rcd13ifvqgug","pricing_plan_id":"cebpf4jnsgd1na2vs0mg"},{"bike_id":"dfbce69e-f6e8-4b7d-b65d-85deba113350","system_id":"levelo_inurba_marseille","lat":43.28281,"lon":5.35057,"is_reserved":false,"is_disabled":false,"rental_uris":{"android":"levelo://app?vid=dfbce69e-f6e8-4b7d-b65d-85deba113350","ios":"levelo://app?vid=dfbce69e-f6e8-4b7d-b65d-85deba113350"},"vehicle_type_id":"4","last_reported":1766099489,"current_range_meters":12800,"station_id":"ce4bhbp2rcd13ifvqerg","pricing_plan_id":"cebpf4jnsgd1na2vs0mg"},{"bike_id":"0210ebe1-9910-474e-bf72-8ed9360aac2c","system_id":"levelo_inurba_marseille","lat":43.29509,"lon":5.39047,"is_reserved":false,"is_disabled":false,"rental_uris":{"android":"levelo://app?vid=0210ebe1-9910-474e-bf72-8ed9360aac2c","ios":"levelo://app?vid=0210ebe1-9910-474e-bf72-8ed9360aac2c"},"vehicle_type_id":"4","last_reported":1766099489,"current_range_meters":12800,"station_id":"ce4bh3p2rcd13ifvqdp0","pricing_plan_id":"cebpf4jnsgd1na2vs0mg"},{"bike_id":"9b3ad9e9-6c8e-47dd-9f00-d7499ff2fa77","system_id":"levelo_inurba_marseille","lat":43.21192,"lon":5.35084,"is_reserved":false,"is_disabled":false,"rental_uris":{"android":"levelo://app?vid=9b3ad9e9-6c8e-47dd-9f00-d7499ff2fa77","ios":"levelo://app?vid=9b3ad9e9-6c8e-47dd-9f00-d7499ff2fa77"},"vehicle_type_id":"4","last_reported":1766099489,"current_range_meters":12800,"station_id":"st_cvj6sg6p6f1abm77japg","pricing_plan_id":"cebpf4jnsgd1na2vs0mg"},{"bike_id":"3165b46a-3493-4d35-8deb-2335a6e8b422","system_id":"levelo_inurba_marseille","lat":43.25338,"lon":5.42174,"is_reserved":false,"is_disabled":false,"rental_uris":{"android":"levelo://app?vid=3165b46a-3493-4d35-8deb-2335a6e8b422","ios":"levelo://app?vid=3165b46a-3493-4d35-8deb-2335a6e8b422"},"vehicle_type_id":"4","last_reported":1766099489,"current_range_meters":12800,"station_id":"st_d2m65c5bi1j21697t3ng","pricing_plan_id":"cebpf4jnsgd1na2vs0mg"},{"bike_id":"1fe61e53-783b-4be3-86da-1e2214f6789d","system_id":"levelo_inurba_marseille","lat":43.2977,"lon":5.38057,"is_reserved":false,"is_disabled":false,"rental_uris":{"android":"levelo://app?vid=1fe61e53-783b-4be3-86da-1e2214f6789d","ios":"levelo://app?vid=1fe61e53-783b-4be3-86da-1e2214f6789d"},"vehicle_type_id":"4","last_reported":1766099489,"current_range_meters":12800,"station_id":"","pricing_plan_id":"cebpf4jnsgd1na2vs0mg"},{"bike_id":"4de29479-d0d0-4dc4-bce7-cdafb64ed774","system_id":"levelo_inurba_marseille","lat":43.2865,"lon":5.35067,"is_reserved":false,"is_disabled":false,"rental_uris":{"android":"levelo://app?vid=4de29479-d0d0-4dc4-bce7-cdafb64ed774","ios":"levelo://app?vid=4de29479-d0d0-4dc4-bce7-cdafb64ed774"},"vehicle_type_id":"4","last_reported":1766099489,"current_range_meters":13600,"station_id":"ce4bhch2rcd13ifvqeug","pricing_plan_id":"cebpf4jnsgd1na2vs0mg"},{"bike_id":"9f3c0044-3fd3-4dcb-bbd1-75f89d5cdde5","system_id":"levelo_inurba_marseille","lat":43.313702,"lon":5.384997,"is_reserved":false,"is_disabled":false,"rental_uris":{"android":"levelo://app?vid=9f3c0044-3fd3-4dcb-bbd1-75f89d5cdde5","ios":"levelo://app?vid=9f3c0044-3fd3-4dcb-bbd1-75f89d5cdde5"},"vehicle_type_id":"4","last_reported":1766099489,"current_range_meters":13600,"station_id":"ce4bgt92rcd13ifvqcf0","pricing_plan_id":"cebpf4jnsgd1na2vs0mg"},{"bike_id":"f2a5954f-7832-41d8-927a-0a1a2e0f9394","system_id":"levelo_inurba_marseille","lat":43.24388,"lon":5.37058,"is_reserved":false,"is_disabled":false,"rental_uris":{"android":"levelo://app?vid=f2a5954f-7832-41d8-927a-0a1a2e0f9394","ios":"levelo://app?vid=f2a5954f-7832-41d8-927a-0a1a2e0f9394"},"vehicle_type_id":"4","last_reported":1766099489,"current_range_meters":13600,"station_id":"ce4bhhh2rcd13ifvqfk0","pricing_plan_id":"cebpf4jnsgd1na2vs0mg"},{"bike_id":"305412fd-41fd-4f48-b0ce-d25b5a7eb63f","system_id":"levelo_inurba_marseille","lat":43.34593,"lon":5.38193,"is_reserved":false,"is_disabled":false,"rental_uris":{"android":"levelo://app?vid=305412fd-41fd-4f48-b0ce-d25b5a7eb63f","ios":"levelo://app?vid=305412fd-41fd-4f48-b0ce-d25b5a7eb63f"},"vehicle_type_id":"4","last_reported":1766099489,"current_range_meters":13600,"station_id":"","pricing_plan_id":"cebpf4jnsgd1na2vs0mg"},{"bike_id":"4a4511f8-e03d-4104-bc90-a58fb016d12a","system_id":"levelo_inurba_marseille","lat":43.31117,"lon":5.3779,"is_reserved":false,"is_disabled":false,"rental_uris":{"android":"levelo://app?vid=4a4511f8-e03d-4104-bc90-a58fb016d12a","ios":"levelo://app?vid=4a4511f8-e03d-4104-bc90-a58fb016d12a"},"vehicle_type_id":"4","last_reported":1766099489,"current_range_meters":13600,"station_id":"ce4bgt92rcd13ifvqcg0","pricing_plan_id":"cebpf4jnsgd1na2vs0mg"},{"bike_id":"413557ff-13d9-40fb-81ee-6ad5e7d92bea","system_id":"levelo_inurba_marseille","lat":43.211874,"lon":5.350687,"is_reserved":false,"is_disabled":false,"rental_uris":{"android":"levelo://app?vid=413557ff-13d9-40fb-81ee-6ad5e7d92bea","ios":"levelo://app?vid=413557ff-13d9-40fb-81ee-6ad5e7d92bea"},"vehicle_type_id":"4","last_reported":1766099489,"current_range_meters":13600,"station_id":"st_cvj6sg6p6f1abm77japg","pricing_plan_id":"cebpf4jnsgd1na2vs0mg"},{"bike_id":"22fa58e4-efc3-42b7-80fc-cf16b5142be5","system_id":"levelo_inurba_marseille","lat":43.24389,"lon":5.37055,"is_reserved":false,"is_disabled":false,"rental_uris":{"android":"levelo://app?vid=22fa58e4-efc3-42b7-80fc-cf16b5142be5","ios":"levelo://app?vid=22fa58e4-efc3-42b7-80fc-cf16b5142be5"},"vehicle_type_id":"4","last_reported":1766099489,"current_range_meters":13600,"station_id":"ce4bhhh2rcd13ifvqfk0","pricing_plan_id":"cebpf4jnsgd1na2vs0mg"},{"bike_id":"28e7ea25-d676-49ca-8be6-ac1c19bc94ea","system_id":"levelo_inurba_marseille","lat":43.33414,"lon":5.40056,"is_reserved":false,"is_disabled":false,"rental_uris":{"android":"levelo://app?vid=28e7ea25-d676-49ca-8be6-ac1c19bc94ea","ios":"levelo://app?vid=28e7ea25-d676-49ca-8be6-ac1c19bc94ea"},"vehicle_type_id":"4","last_reported":1766099489,"current_range_meters":13600,"station_id":"","pricing_plan_id":"cebpf4jnsgd1na2vs0mg"},{"bike_id":"e300a7d5-0244-4753-8688-d18fed221b3a","system_id":"levelo_inurba_marseille","lat":43.28398,"lon":5.37503,"is_reserved":false,"is_disabled":false,"rental_uris":{"android":"levelo://app?vid=e300a7d5-0244-4753-8688-d18fed221b3a","ios":"levelo://app?vid=e300a7d5-0244-4753-8688-d18fed221b3a"},"vehicle_type_id":"4","last_reported":1766099489,"current_range_meters":13600,"station_id":"ce4bh412rcd13ifvqds0","pricing_plan_id":"cebpf4jnsgd1na2vs0mg"},{"bike_id":"d783168f-15b2-4b2a-ad46-bc652bed9d53","system_id":"levelo_inurba_marseille","lat":43.3021,"lon":5.39458,"is_reserved":false,"is_disabled":false,"rental_uris":{"android":"levelo://app?vid=d783168f-15b2-4b2a-ad46-bc652bed9d53","ios":"levelo://app?vid=d783168f-15b2-4b2a-ad46-bc652bed9d53"},"vehicle_type_id":"4","last_reported":1766099489,"current_range_meters":14000,"station_id":"ce4bh0p2rcd13ifvqd70","pricing_plan_id":"cebpf4jnsgd1na2vs0mg"},{"bike_id":"05bc787d-b9f6-49a4-8de6-e5ed8ada89fe","system_id":"levelo_inurba_marseille","lat":43.27789,"lon":5.40735,"is_reserved":false,"is_disabled":false,"rental_uris":{"android":"levelo://app?vid=05bc787d-b9f6-49a4-8de6-e5ed8ada89fe","ios":"levelo://app?vid=05bc787d-b9f6-49a4-8de6-e5ed8ada89fe"},"vehicle_type_id":"4","last_reported":1766099489,"current_range_meters":14000,"station_id":"ce4bhnh2rcd13ifvqgtg","pricing_plan_id":"cebpf4jnsgd1na2vs0mg"},{"bike_id":"b12c4caa-9d88-4cba-acda-9a8c909ff289","system_id":"levelo_inurba_marseille","lat":43.241671,"lon":5.397241,"is_reserved":false,"is_disabled":false,"rental_uris":{"android":"levelo://app?vid=b12c4caa-9d88-4cba-acda-9a8c909ff289","ios":"levelo://app?vid=b12c4caa-9d88-4cba-acda-9a8c909ff289"},"vehicle_type_id":"4","last_reported":1766099489,"current_range_meters":14000,"station_id":"ce4bhn12rcd13ifvqgpg","pricing_plan_id":"cebpf4jnsgd1na2vs0mg"},{"bike_id":"3171c4f4-d5a9-4282-9d2c-df19a6022bc8","system_id":"levelo_inurba_marseille","lat":43.29049,"lon":5.3564,"is_reserved":false,"is_disabled":false,"rental_uris":{"android":"levelo://app?vid=3171c4f4-d5a9-4282-9d2c-df19a6022bc8","ios":"levelo://app?vid=3171c4f4-d5a9-4282-9d2c-df19a6022bc8"},"vehicle_type_id":"4","last_reported":1766099489,"current_range_meters":14000,"station_id":"ce4bhb92rcd13ifvqen0","pricing_plan_id":"cebpf4jnsgd1na2vs0mg"},{"bike_id":"c8c946b4-8534-4c16-8197-d703acec564a","system_id":"levelo_inurba_marseille","lat":43.334446,"lon":5.410232,"is_reserved":false,"is_disabled":false,"rental_uris":{"android":"levelo://app?vid=c8c946b4-8534-4c16-8197-d703acec564a","ios":"levelo://app?vid=c8c946b4-8534-4c16-8197-d703acec564a"},"vehicle_type_id":"4","last_reported":1766099489,"current_range_meters":14000,"station_id":"ce4bhqh2rcd13ifvqhmg","pricing_plan_id":"cebpf4jnsgd1na2vs0mg"},{"bike_id":"700442f5-a082-454e-8bc7-ab3bbb77bfce","system_id":"levelo_inurba_marseille","lat":43.2664,"lon":5.37464,"is_reserved":false,"is_disabled":false,"rental_uris":{"android":"levelo://app?vid=700442f5-a082-454e-8bc7-ab3bbb77bfce","ios":"levelo://app?vid=700442f5-a082-454e-8bc7-ab3bbb77bfce"},"vehicle_type_id":"4","last_reported":1766099489,"current_range_meters":14000,"station_id":"","pricing_plan_id":"cebpf4jnsgd1na2vs0mg"},{"bike_id":"00a29bb1-88ca-440d-9219-07d673c689ed","system_id":"levelo_inurba_marseille","lat":43.29806,"lon":5.36352,"is_reserved":false,"is_disabled":false,"rental_uris":{"android":"levelo://app?vid=00a29bb1-88ca-440d-9219-07d673c689ed","ios":"levelo://app?vid=00a29bb1-88ca-440d-9219-07d673c689ed"},"vehicle_type_id":"4","last_reported":1766099489,"current_range_meters":14400,"station_id":"","pricing_plan_id":"cebpf4jnsgd1na2vs0mg"},{"bike_id":"ad82dca0-c02a-4c99-94d2-64c179e4a553","system_id":"levelo_inurba_marseille","lat":43.287201,"lon":5.360807,"is_reserved":false,"is_disabled":false,"rental_uris":{"android":"levelo://app?vid=ad82dca0-c02a-4c99-94d2-64c179e4a553","ios":"levelo://app?vid=ad82dca0-c02a-4c99-94d2-64c179e4a553"},"vehicle_type_id":"4","last_reported":1766099489,"current_range_meters":14400,"station_id":"cki0cbj6b192h4jlfktg","pricing_plan_id":"cebpf4jnsgd1na2vs0mg"},{"bike_id":"2f416f89-8628-4241-b233-dd8c57827bfe","system_id":"levelo_inurba_marseille","lat":43.300469,"lon":5.389186,"is_reserved":false,"is_disabled":false,"rental_uris":{"android":"levelo://app?vid=2f416f89-8628-4241-b233-dd8c57827bfe","ios":"levelo://app?vid=2f416f89-8628-4241-b233-dd8c57827bfe"},"vehicle_type_id":"4","last_reported":1766099489,"current_range_meters":14400,"station_id":"ce4bgvh2rcd13ifvqcs0","pricing_plan_id":"cebpf4jnsgd1na2vs0mg"},{"bike_id":"8baf18d0-6725-4ba0-9f72-640cffab0f68","system_id":"levelo_inurba_marseille","lat":43.30117,"lon":5.39894,"is_reserved":false,"is_disabled":true,"rental_uris":{"android":"levelo://app?vid=8baf18d0-6725-4ba0-9f72-640cffab0f68","ios":"levelo://app?vid=8baf18d0-6725-4ba0-9f72-640cffab0f68"},"vehicle_type_id":"4","last_reported":1766099489,"current_range_meters":14800,"station_id":"ce4bh0h2rcd13ifvqd40","pricing_plan_id":"cebpf4jnsgd1na2vs0mg"},{"bike_id":"d2da6d8a-fbb9-465d-8cf8-61d1f5d1880d","system_id":"levelo_inurba_marseille","lat":43.23786,"lon":5.36633,"is_reserved":false,"is_disabled":false,"rental_uris":{"android":"levelo://app?vid=d2da6d8a-fbb9-465d-8cf8-61d1f5d1880d","ios":"levelo://app?vid=d2da6d8a-fbb9-465d-8cf8-61d1f5d1880d"},"vehicle_type_id":"4","last_reported":1766099489,"current_range_meters":14800,"station_id":"st_d3nk18o9ro0c73en2l3g","pricing_plan_id":"cebpf4jnsgd1na2vs0mg"},{"bike_id":"76fb7a73-a5f9-4340-855e-fcbbe13e759a","system_id":"levelo_inurba_marseille","lat":43.31857,"lon":5.40016,"is_reserved":false,"is_disabled":false,"rental_uris":{"android":"levelo://app?vid=76fb7a73-a5f9-4340-855e-fcbbe13e759a","ios":"levelo://app?vid=76fb7a73-a5f9-4340-855e-fcbbe13e759a"},"vehicle_type_id":"4","last_reported":1766099489,"current_range_meters":14800,"station_id":"","pricing_plan_id":"cebpf4jnsgd1na2vs0mg"},{"bike_id":"5c1f0183-cbe5-4a9e-a493-d80ce3862cbd","system_id":"levelo_inurba_marseille","lat":43.32106,"lon":5.36788,"is_reserved":false,"is_disabled":false,"rental_uris":{"android":"levelo://app?vid=5c1f0183-cbe5-4a9e-a493-d80ce3862cbd","ios":"levelo://app?vid=5c1f0183-cbe5-4a9e-a493-d80ce3862cbd"},"vehicle_type_id":"4","last_reported":1766099489,"current_range_meters":14800,"station_id":"ce4bhrh2rcd13ifvqhug","pricing_plan_id":"cebpf4jnsgd1na2vs0mg"},{"bike_id":"dcebbb45-765e-44b9-9596-1f8fdae0f25e","system_id":"levelo_inurba_marseille","lat":43.24652,"lon":5.38883,"is_reserved":false,"is_disabled":false,"rental_uris":{"android":"levelo://app?vid=dcebbb45-765e-44b9-9596-1f8fdae0f25e","ios":"levelo://app?vid=dcebbb45-765e-44b9-9596-1f8fdae0f25e"},"vehicle_type_id":"4","last_reported":1766099489,"current_range_meters":14800,"station_id":"ce4bhg12rcd13ifvqf60","pricing_plan_id":"cebpf4jnsgd1na2vs0mg"},{"bike_id":"d6bc7465-ed58-4731-8353-a1bf1c3037e6","system_id":"levelo_inurba_marseille","lat":43.265691,"lon":5.403137,"is_reserved":false,"is_disabled":false,"rental_uris":{"android":"levelo://app?vid=d6bc7465-ed58-4731-8353-a1bf1c3037e6","ios":"levelo://app?vid=d6bc7465-ed58-4731-8353-a1bf1c3037e6"},"vehicle_type_id":"4","last_reported":1766099489,"current_range_meters":14800,"station_id":"ce4bhmp2rcd13ifvqgng","pricing_plan_id":"cebpf4jnsgd1na2vs0mg"},{"bike_id":"16435ed7-3230-49ea-9045-19406603f7b6","system_id":"levelo_inurba_marseille","lat":43.29717,"lon":5.36612,"is_reserved":false,"is_disabled":false,"rental_uris":{"android":"levelo://app?vid=16435ed7-3230-49ea-9045-19406603f7b6","ios":"levelo://app?vid=16435ed7-3230-49ea-9045-19406603f7b6"},"vehicle_type_id":"4","last_reported":1766099489,"current_range_meters":14800,"station_id":"ce4bgn12rcd13ifvqbt0","pricing_plan_id":"cebpf4jnsgd1na2vs0mg"},{"bike_id":"f2267f2d-01f5-4de6-9aff-90793a44fe2c","system_id":"levelo_inurba_marseille","lat":43.290716,"lon":5.371706,"is_reserved":false,"is_disabled":false,"rental_uris":{"android":"levelo://app?vid=f2267f2d-01f5-4de6-9aff-90793a44fe2c","ios":"levelo://app?vid=f2267f2d-01f5-4de6-9aff-90793a44fe2c"},"vehicle_type_id":"4","last_reported":1766099489,"current_range_meters":14800,"station_id":"ce4bh5p2rcd13ifvqe4g","pricing_plan_id":"cebpf4jnsgd1na2vs0mg"},{"bike_id":"d6888ab2-db65-443c-8d72-10589f53745a","system_id":"levelo_inurba_marseille","lat":43.29524,"lon":5.37511,"is_reserved":false,"is_disabled":true,"rental_uris":{"android":"levelo://app?vid=d6888ab2-db65-443c-8d72-10589f53745a","ios":"levelo://app?vid=d6888ab2-db65-443c-8d72-10589f53745a"},"vehicle_type_id":"4","last_reported":1766099489,"current_range_meters":14800,"station_id":"ce4bgkp2rcd13ifvqbmg","pricing_plan_id":"cebpf4jnsgd1na2vs0mg"},{"bike_id":"5474fde9-5ed0-49e3-8fc7-9f89c5c20dfd","system_id":"levelo_inurba_marseille","lat":43.21193,"lon":5.35073,"is_reserved":false,"is_disabled":false,"rental_uris":{"android":"levelo://app?vid=5474fde9-5ed0-49e3-8fc7-9f89c5c20dfd","ios":"levelo://app?vid=5474fde9-5ed0-49e3-8fc7-9f89c5c20dfd"},"vehicle_type_id":"4","last_reported":1766099489,"current_range_meters":14800,"station_id":"st_cvj6sg6p6f1abm77japg","pricing_plan_id":"cebpf4jnsgd1na2vs0mg"},{"bike_id":"bfba6f7b-05fa-43c2-8f69-5378cb30e17d","system_id":"levelo_inurba_marseille","lat":43.28431,"lon":5.39175,"is_reserved":false,"is_disabled":false,"rental_uris":{"android":"levelo://app?vid=bfba6f7b-05fa-43c2-8f69-5378cb30e17d","ios":"levelo://app?vid=bfba6f7b-05fa-43c2-8f69-5378cb30e17d"},"vehicle_type_id":"4","last_reported":1766099489,"current_range_meters":15200,"station_id":"ce4bhoh2rcd13ifvqh5g","pricing_plan_id":"cebpf4jnsgd1na2vs0mg"},{"bike_id":"5726f472-6c40-42af-b719-63ad4dd74d25","system_id":"levelo_inurba_marseille","lat":43.31999,"lon":5.38247,"is_reserved":false,"is_disabled":false,"rental_uris":{"android":"levelo://app?vid=5726f472-6c40-42af-b719-63ad4dd74d25","ios":"levelo://app?vid=5726f472-6c40-42af-b719-63ad4dd74d25"},"vehicle_type_id":"4","last_reported":1766099489,"current_range_meters":15200,"station_id":"ce4bhr12rcd13ifvqhpg","pricing_plan_id":"cebpf4jnsgd1na2vs0mg"},{"bike_id":"128f68df-e6c8-471d-bf6e-3a9c347712de","system_id":"levelo_inurba_marseille","lat":43.29234,"lon":5.40898,"is_reserved":false,"is_disabled":false,"rental_uris":{"android":"levelo://app?vid=128f68df-e6c8-471d-bf6e-3a9c347712de","ios":"levelo://app?vid=128f68df-e6c8-471d-bf6e-3a9c347712de"},"vehicle_type_id":"4","last_reported":1766099489,"current_range_meters":15200,"station_id":"ce4bh192rcd13ifvqdc0","pricing_plan_id":"cebpf4jnsgd1na2vs0mg"},{"bike_id":"1c79eb29-135e-40c1-8651-901759d4aaa6","system_id":"levelo_inurba_marseille","lat":43.28579,"lon":5.35305,"is_reserved":false,"is_disabled":false,"rental_uris":{"android":"levelo://app?vid=1c79eb29-135e-40c1-8651-901759d4aaa6","ios":"levelo://app?vid=1c79eb29-135e-40c1-8651-901759d4aaa6"},"vehicle_type_id":"4","last_reported":1766099489,"current_range_meters":15200,"station_id":"","pricing_plan_id":"cebpf4jnsgd1na2vs0mg"},{"bike_id":"30df60d9-afa1-4ec6-ae98-845c99089db1","system_id":"levelo_inurba_marseille","lat":43.295835,"lon":5.375082,"is_reserved":false,"is_disabled":false,"rental_uris":{"android":"levelo://app?vid=30df60d9-afa1-4ec6-ae98-845c99089db1","ios":"levelo://app?vid=30df60d9-afa1-4ec6-ae98-845c99089db1"},"vehicle_type_id":"4","last_reported":1766099489,"current_range_meters":15200,"station_id":"","pricing_plan_id":"cebpf4jnsgd1na2vs0mg"},{"bike_id":"ec6401bf-06e9-4881-946b-649f2b1df2d1","system_id":"levelo_inurba_marseille","lat":43.25338,"lon":5.42162,"is_reserved":false,"is_disabled":false,"rental_uris":{"android":"levelo://app?vid=ec6401bf-06e9-4881-946b-649f2b1df2d1","ios":"levelo://app?vid=ec6401bf-06e9-4881-946b-649f2b1df2d1"},"vehicle_type_id":"4","last_reported":1766099489,"current_range_meters":15200,"station_id":"st_d2m65c5bi1j21697t3ng","pricing_plan_id":"cebpf4jnsgd1na2vs0mg"},{"bike_id":"edf23d43-33b4-421d-a5c2-5e5da13821ff","system_id":"levelo_inurba_marseille","lat":43.27892,"lon":5.38013,"is_reserved":false,"is_disabled":false,"rental_uris":{"android":"levelo://app?vid=edf23d43-33b4-421d-a5c2-5e5da13821ff","ios":"levelo://app?vid=edf23d43-33b4-421d-a5c2-5e5da13821ff"},"vehicle_type_id":"4","last_reported":1766099489,"current_range_meters":15200,"station_id":"ce4bhf92rcd13ifvqf50","pricing_plan_id":"cebpf4jnsgd1na2vs0mg"},{"bike_id":"8965bd2e-8152-488c-82f6-eca1ad732749","system_id":"levelo_inurba_marseille","lat":43.312873,"lon":5.401748,"is_reserved":false,"is_disabled":false,"rental_uris":{"android":"levelo://app?vid=8965bd2e-8152-488c-82f6-eca1ad732749","ios":"levelo://app?vid=8965bd2e-8152-488c-82f6-eca1ad732749"},"vehicle_type_id":"4","last_reported":1766099489,"current_range_meters":15200,"station_id":"ce4bh092rcd13ifvqd30","pricing_plan_id":"cebpf4jnsgd1na2vs0mg"},{"bike_id":"f8135bf2-327c-4f2d-ab23-a1544996499a","system_id":"levelo_inurba_marseille","lat":43.30891,"lon":5.37244,"is_reserved":false,"is_disabled":false,"rental_uris":{"android":"levelo://app?vid=f8135bf2-327c-4f2d-ab23-a1544996499a","ios":"levelo://app?vid=f8135bf2-327c-4f2d-ab23-a1544996499a"},"vehicle_type_id":"4","last_reported":1766099489,"current_range_meters":15200,"station_id":"ce4bguh2rcd13ifvqckg","pricing_plan_id":"cebpf4jnsgd1na2vs0mg"},{"bike_id":"51850788-6d18-4067-a22e-183a3dbd8b5e","system_id":"levelo_inurba_marseille","lat":43.28617,"lon":5.35109,"is_reserved":false,"is_disabled":false,"rental_uris":{"android":"levelo://app?vid=51850788-6d18-4067-a22e-183a3dbd8b5e","ios":"levelo://app?vid=51850788-6d18-4067-a22e-183a3dbd8b5e"},"vehicle_type_id":"4","last_reported":1766099489,"current_range_meters":15200,"station_id":"ce4bhch2rcd13ifvqeug","pricing_plan_id":"cebpf4jnsgd1na2vs0mg"},{"bike_id":"689e1e25-96b9-418c-bbe1-0e8f9558c52f","system_id":"levelo_inurba_marseille","lat":43.3138,"lon":5.37707,"is_reserved":false,"is_disabled":false,"rental_uris":{"android":"levelo://app?vid=689e1e25-96b9-418c-bbe1-0e8f9558c52f","ios":"levelo://app?vid=689e1e25-96b9-418c-bbe1-0e8f9558c52f"},"vehicle_type_id":"4","last_reported":1766099489,"current_range_meters":15200,"station_id":"","pricing_plan_id":"cebpf4jnsgd1na2vs0mg"},{"bike_id":"a8ae125c-44f7-48ad-a212-7a04204e18cd","system_id":"levelo_inurba_marseille","lat":43.30252,"lon":5.40064,"is_reserved":false,"is_disabled":false,"rental_uris":{"android":"levelo://app?vid=a8ae125c-44f7-48ad-a212-7a04204e18cd","ios":"levelo://app?vid=a8ae125c-44f7-48ad-a212-7a04204e18cd"},"vehicle_type_id":"4","last_reported":1766099489,"current_range_meters":15200,"station_id":"ce4bgvh2rcd13ifvqcs0","pricing_plan_id":"cebpf4jnsgd1na2vs0mg"},{"bike_id":"f8ac7b58-0aa1-4272-bb00-5588b57b635f","system_id":"levelo_inurba_marseille","lat":43.29788,"lon":5.40413,"is_reserved":false,"is_disabled":false,"rental_uris":{"android":"levelo://app?vid=f8ac7b58-0aa1-4272-bb00-5588b57b635f","ios":"levelo://app?vid=f8ac7b58-0aa1-4272-bb00-5588b57b635f"},"vehicle_type_id":"4","last_reported":1766099489,"current_range_meters":15200,"station_id":"ce4bh112rcd13ifvqd90","pricing_plan_id":"cebpf4jnsgd1na2vs0mg"},{"bike_id":"c2657a42-26a4-4ae0-b35b-25bd9d22776b","system_id":"levelo_inurba_marseille","lat":43.28734,"lon":5.3608,"is_reserved":false,"is_disabled":false,"rental_uris":{"android":"levelo://app?vid=c2657a42-26a4-4ae0-b35b-25bd9d22776b","ios":"levelo://app?vid=c2657a42-26a4-4ae0-b35b-25bd9d22776b"},"vehicle_type_id":"4","last_reported":1766099489,"current_range_meters":16000,"station_id":"cki0cbj6b192h4jlfktg","pricing_plan_id":"cebpf4jnsgd1na2vs0mg"},{"bike_id":"caa296d3-3cc5-4a69-b445-5ef39d3f3433","system_id":"levelo_inurba_marseille","lat":43.28576,"lon":5.39479,"is_reserved":false,"is_disabled":false,"rental_uris":{"android":"levelo://app?vid=caa296d3-3cc5-4a69-b445-5ef39d3f3433","ios":"levelo://app?vid=caa296d3-3cc5-4a69-b445-5ef39d3f3433"},"vehicle_type_id":"4","last_reported":1766099489,"current_range_meters":16000,"station_id":"ce4bh292rcd13ifvqdg0","pricing_plan_id":"cebpf4jnsgd1na2vs0mg"},{"bike_id":"34432b8d-ee07-4e27-948a-d025d4af86ca","system_id":"levelo_inurba_marseille","lat":43.295146,"lon":5.39384,"is_reserved":false,"is_disabled":false,"rental_uris":{"android":"levelo://app?vid=34432b8d-ee07-4e27-948a-d025d4af86ca","ios":"levelo://app?vid=34432b8d-ee07-4e27-948a-d025d4af86ca"},"vehicle_type_id":"4","last_reported":1766099489,"current_range_meters":16000,"station_id":"ce4bh292rcd13ifvqdf0","pricing_plan_id":"cebpf4jnsgd1na2vs0mg"},{"bike_id":"501be9e4-b50e-459c-8260-34d214ad8e5d","system_id":"levelo_inurba_marseille","lat":43.278354,"lon":5.392012,"is_reserved":false,"is_disabled":false,"rental_uris":{"android":"levelo://app?vid=501be9e4-b50e-459c-8260-34d214ad8e5d","ios":"levelo://app?vid=501be9e4-b50e-459c-8260-34d214ad8e5d"},"vehicle_type_id":"4","last_reported":1766099489,"current_range_meters":16000,"station_id":"ce4bhjp2rcd13ifvqga0","pricing_plan_id":"cebpf4jnsgd1na2vs0mg"},{"bike_id":"af783cbc-685b-4b56-93fa-6a6d328c307a","system_id":"levelo_inurba_marseille","lat":43.24991,"lon":5.38952,"is_reserved":false,"is_disabled":false,"rental_uris":{"android":"levelo://app?vid=af783cbc-685b-4b56-93fa-6a6d328c307a","ios":"levelo://app?vid=af783cbc-685b-4b56-93fa-6a6d328c307a"},"vehicle_type_id":"4","last_reported":1766099489,"current_range_meters":16000,"station_id":"ce4bhgp2rcd13ifvqfd0","pricing_plan_id":"cebpf4jnsgd1na2vs0mg"},{"bike_id":"47b454cd-01f9-4de3-b129-3f7a7abb6370","system_id":"levelo_inurba_marseille","lat":43.29217,"lon":5.36073,"is_reserved":false,"is_disabled":false,"rental_uris":{"android":"levelo://app?vid=47b454cd-01f9-4de3-b129-3f7a7abb6370","ios":"levelo://app?vid=47b454cd-01f9-4de3-b129-3f7a7abb6370"},"vehicle_type_id":"4","last_reported":1766099489,"current_range_meters":16000,"station_id":"ce4bhbh2rcd13ifvqeqg","pricing_plan_id":"cebpf4jnsgd1na2vs0mg"},{"bike_id":"b090b19d-281c-4430-bcc0-abfef338c97d","system_id":"levelo_inurba_marseille","lat":43.29541,"lon":5.3941,"is_reserved":false,"is_disabled":false,"rental_uris":{"android":"levelo://app?vid=b090b19d-281c-4430-bcc0-abfef338c97d","ios":"levelo://app?vid=b090b19d-281c-4430-bcc0-abfef338c97d"},"vehicle_type_id":"4","last_reported":1766099489,"current_range_meters":16000,"station_id":"ce4bh292rcd13ifvqdf0","pricing_plan_id":"cebpf4jnsgd1na2vs0mg"},{"bike_id":"e9d58d1e-c5b2-41a8-b6ef-892cd112849c","system_id":"levelo_inurba_marseille","lat":43.30144,"lon":5.38097,"is_reserved":false,"is_disabled":true,"rental_uris":{"android":"levelo://app?vid=e9d58d1e-c5b2-41a8-b6ef-892cd112849c","ios":"levelo://app?vid=e9d58d1e-c5b2-41a8-b6ef-892cd112849c"},"vehicle_type_id":"4","last_reported":1766099489,"current_range_meters":16000,"station_id":"ce4bgjp2rcd13ifvqbh0","pricing_plan_id":"cebpf4jnsgd1na2vs0mg"},{"bike_id":"ed0b0efc-7ff2-4ff0-8f38-23867c9755df","system_id":"levelo_inurba_marseille","lat":43.25332,"lon":5.42172,"is_reserved":false,"is_disabled":false,"rental_uris":{"android":"levelo://app?vid=ed0b0efc-7ff2-4ff0-8f38-23867c9755df","ios":"levelo://app?vid=ed0b0efc-7ff2-4ff0-8f38-23867c9755df"},"vehicle_type_id":"4","last_reported":1766099489,"current_range_meters":16000,"station_id":"st_d2m65c5bi1j21697t3ng","pricing_plan_id":"cebpf4jnsgd1na2vs0mg"},{"bike_id":"d674a729-c24a-42f8-8d99-54fc4e699b40","system_id":"levelo_inurba_marseille","lat":43.30791,"lon":5.37634,"is_reserved":false,"is_disabled":false,"rental_uris":{"android":"levelo://app?vid=d674a729-c24a-42f8-8d99-54fc4e699b40","ios":"levelo://app?vid=d674a729-c24a-42f8-8d99-54fc4e699b40"},"vehicle_type_id":"4","last_reported":1766099489,"current_range_meters":16000,"station_id":"ce4bgv92rcd13ifvqcq0","pricing_plan_id":"cebpf4jnsgd1na2vs0mg"},{"bike_id":"29ff8d65-fbca-42c1-b12e-cd4dc579808a","system_id":"levelo_inurba_marseille","lat":43.301505,"lon":5.373766,"is_reserved":false,"is_disabled":false,"rental_uris":{"android":"levelo://app?vid=29ff8d65-fbca-42c1-b12e-cd4dc579808a","ios":"levelo://app?vid=29ff8d65-fbca-42c1-b12e-cd4dc579808a"},"vehicle_type_id":"4","last_reported":1766099489,"current_range_meters":16000,"station_id":"ce4bgs92rcd13ifvqcc0","pricing_plan_id":"cebpf4jnsgd1na2vs0mg"},{"bike_id":"1b242f74-0031-42b6-9e71-062aba3f7d85","system_id":"levelo_inurba_marseille","lat":43.25337,"lon":5.42182,"is_reserved":false,"is_disabled":false,"rental_uris":{"android":"levelo://app?vid=1b242f74-0031-42b6-9e71-062aba3f7d85","ios":"levelo://app?vid=1b242f74-0031-42b6-9e71-062aba3f7d85"},"vehicle_type_id":"4","last_reported":1766099489,"current_range_meters":16000,"station_id":"st_d2m65c5bi1j21697t3ng","pricing_plan_id":"cebpf4jnsgd1na2vs0mg"},{"bike_id":"104427cb-6f2b-466d-8f9d-155b22611c5f","system_id":"levelo_inurba_marseille","lat":43.28617,"lon":5.3987,"is_reserved":false,"is_disabled":false,"rental_uris":{"android":"levelo://app?vid=104427cb-6f2b-466d-8f9d-155b22611c5f","ios":"levelo://app?vid=104427cb-6f2b-466d-8f9d-155b22611c5f"},"vehicle_type_id":"4","last_reported":1766099489,"current_range_meters":16000,"station_id":"st_d4a7ka997mjs738ck50g","pricing_plan_id":"cebpf4jnsgd1na2vs0mg"},{"bike_id":"6ef11efd-5465-4e5c-82b8-d0448b4a70fe","system_id":"levelo_inurba_marseille","lat":43.27569,"lon":5.38426,"is_reserved":false,"is_disabled":false,"rental_uris":{"android":"levelo://app?vid=6ef11efd-5465-4e5c-82b8-d0448b4a70fe","ios":"levelo://app?vid=6ef11efd-5465-4e5c-82b8-d0448b4a70fe"},"vehicle_type_id":"4","last_reported":1766099489,"current_range_meters":16000,"station_id":"ce4bhh92rcd13ifvqfi0","pricing_plan_id":"cebpf4jnsgd1na2vs0mg"},{"bike_id":"1d7a2ca0-8161-4459-b5d5-06113213bda9","system_id":"levelo_inurba_marseille","lat":43.23195,"lon":5.35577,"is_reserved":false,"is_disabled":false,"rental_uris":{"android":"levelo://app?vid=1d7a2ca0-8161-4459-b5d5-06113213bda9","ios":"levelo://app?vid=1d7a2ca0-8161-4459-b5d5-06113213bda9"},"vehicle_type_id":"4","last_reported":1766099489,"current_range_meters":16000,"station_id":"ce4bhu92rcd13ifvqi70","pricing_plan_id":"cebpf4jnsgd1na2vs0mg"},{"bike_id":"90054a0f-7707-4d38-a2c3-d622d9809e49","system_id":"levelo_inurba_marseille","lat":43.297601,"lon":5.427773,"is_reserved":false,"is_disabled":false,"rental_uris":{"android":"levelo://app?vid=90054a0f-7707-4d38-a2c3-d622d9809e49","ios":"levelo://app?vid=90054a0f-7707-4d38-a2c3-d622d9809e49"},"vehicle_type_id":"4","last_reported":1766099489,"current_range_meters":16000,"station_id":"st_d3md5207bmas73dh9klg","pricing_plan_id":"cebpf4jnsgd1na2vs0mg"},{"bike_id":"24df08af-7a2c-4580-b263-bcb3f62d73e3","system_id":"levelo_inurba_marseille","lat":43.24484,"lon":5.42525,"is_reserved":false,"is_disabled":false,"rental_uris":{"android":"levelo://app?vid=24df08af-7a2c-4580-b263-bcb3f62d73e3","ios":"levelo://app?vid=24df08af-7a2c-4580-b263-bcb3f62d73e3"},"vehicle_type_id":"4","last_reported":1766099489,"current_range_meters":16000,"station_id":"st_d4a3vfp97mjs738cd8kg","pricing_plan_id":"cebpf4jnsgd1na2vs0mg"},{"bike_id":"8e026429-22fd-4f6c-8a39-370f91c5c37e","system_id":"levelo_inurba_marseille","lat":43.24651,"lon":5.38891,"is_reserved":false,"is_disabled":false,"rental_uris":{"android":"levelo://app?vid=8e026429-22fd-4f6c-8a39-370f91c5c37e","ios":"levelo://app?vid=8e026429-22fd-4f6c-8a39-370f91c5c37e"},"vehicle_type_id":"4","last_reported":1766099489,"current_range_meters":16000,"station_id":"ce4bhg12rcd13ifvqf60","pricing_plan_id":"cebpf4jnsgd1na2vs0mg"},{"bike_id":"745a73b2-641e-464c-a252-9945eb0d64e6","system_id":"levelo_inurba_marseille","lat":43.28902,"lon":5.35768,"is_reserved":false,"is_disabled":false,"rental_uris":{"android":"levelo://app?vid=745a73b2-641e-464c-a252-9945eb0d64e6","ios":"levelo://app?vid=745a73b2-641e-464c-a252-9945eb0d64e6"},"vehicle_type_id":"4","last_reported":1766099489,"current_range_meters":16000,"station_id":"","pricing_plan_id":"cebpf4jnsgd1na2vs0mg"},{"bike_id":"4c07cab2-ebd1-434f-9787-637f4facee75","system_id":"levelo_inurba_marseille","lat":43.31709,"lon":5.37745,"is_reserved":false,"is_disabled":false,"rental_uris":{"android":"levelo://app?vid=4c07cab2-ebd1-434f-9787-637f4facee75","ios":"levelo://app?vid=4c07cab2-ebd1-434f-9787-637f4facee75"},"vehicle_type_id":"4","last_reported":1766099489,"current_range_meters":16000,"station_id":"ce4bgth2rcd13ifvqch0","pricing_plan_id":"cebpf4jnsgd1na2vs0mg"},{"bike_id":"fdde03c4-f3c6-4562-b5d1-e681d3e4b56e","system_id":"levelo_inurba_marseille","lat":43.32372,"lon":5.36728,"is_reserved":false,"is_disabled":false,"rental_uris":{"android":"levelo://app?vid=fdde03c4-f3c6-4562-b5d1-e681d3e4b56e","ios":"levelo://app?vid=fdde03c4-f3c6-4562-b5d1-e681d3e4b56e"},"vehicle_type_id":"4","last_reported":1766099489,"current_range_meters":16400,"station_id":"ce4bhsh2rcd13ifvqi2g","pricing_plan_id":"cebpf4jnsgd1na2vs0mg"},{"bike_id":"9b3d2f50-2080-48b8-b25c-38636169ad98","system_id":"levelo_inurba_marseille","lat":43.33602,"lon":5.41032,"is_reserved":false,"is_disabled":false,"rental_uris":{"android":"levelo://app?vid=9b3d2f50-2080-48b8-b25c-38636169ad98","ios":"levelo://app?vid=9b3d2f50-2080-48b8-b25c-38636169ad98"},"vehicle_type_id":"4","last_reported":1766099489,"current_range_meters":16400,"station_id":"ce4bhqh2rcd13ifvqhmg","pricing_plan_id":"cebpf4jnsgd1na2vs0mg"},{"bike_id":"eace70d9-abc4-463e-ad30-564a1fb2f71d","system_id":"levelo_inurba_marseille","lat":43.25872,"lon":5.39896,"is_reserved":false,"is_disabled":false,"rental_uris":{"android":"levelo://app?vid=eace70d9-abc4-463e-ad30-564a1fb2f71d","ios":"levelo://app?vid=eace70d9-abc4-463e-ad30-564a1fb2f71d"},"vehicle_type_id":"4","last_reported":1766099489,"current_range_meters":16400,"station_id":"ce4bhl92rcd13ifvqghg","pricing_plan_id":"cebpf4jnsgd1na2vs0mg"},{"bike_id":"78dba6dd-6531-4827-97ec-f5d27d3d4c8f","system_id":"levelo_inurba_marseille","lat":43.30131,"lon":5.39865,"is_reserved":false,"is_disabled":true,"rental_uris":{"android":"levelo://app?vid=78dba6dd-6531-4827-97ec-f5d27d3d4c8f","ios":"levelo://app?vid=78dba6dd-6531-4827-97ec-f5d27d3d4c8f"},"vehicle_type_id":"4","last_reported":1766099489,"current_range_meters":16400,"station_id":"ce4bh0h2rcd13ifvqd40","pricing_plan_id":"cebpf4jnsgd1na2vs0mg"},{"bike_id":"61ca951e-8592-4e08-979a-2290ac3fe5c2","system_id":"levelo_inurba_marseille","lat":43.25017,"lon":5.38938,"is_reserved":false,"is_disabled":false,"rental_uris":{"android":"levelo://app?vid=61ca951e-8592-4e08-979a-2290ac3fe5c2","ios":"levelo://app?vid=61ca951e-8592-4e08-979a-2290ac3fe5c2"},"vehicle_type_id":"4","last_reported":1766099489,"current_range_meters":16400,"station_id":"ce4bhgp2rcd13ifvqfd0","pricing_plan_id":"cebpf4jnsgd1na2vs0mg"},{"bike_id":"7c5b45f0-7283-41de-aee0-d73fad7d098e","system_id":"levelo_inurba_marseille","lat":43.29033,"lon":5.38654,"is_reserved":false,"is_disabled":false,"rental_uris":{"android":"levelo://app?vid=7c5b45f0-7283-41de-aee0-d73fad7d098e","ios":"levelo://app?vid=7c5b45f0-7283-41de-aee0-d73fad7d098e"},"vehicle_type_id":"4","last_reported":1766099489,"current_range_meters":16400,"station_id":"ce4bh4p2rcd13ifvqe0g","pricing_plan_id":"cebpf4jnsgd1na2vs0mg"},{"bike_id":"207776d7-b88e-48a6-b74f-2b1aae5e54c7","system_id":"levelo_inurba_marseille","lat":43.268961,"lon":5.387159,"is_reserved":false,"is_disabled":false,"rental_uris":{"android":"levelo://app?vid=207776d7-b88e-48a6-b74f-2b1aae5e54c7","ios":"levelo://app?vid=207776d7-b88e-48a6-b74f-2b1aae5e54c7"},"vehicle_type_id":"4","last_reported":1766099489,"current_range_meters":16400,"station_id":"","pricing_plan_id":"cebpf4jnsgd1na2vs0mg"},{"bike_id":"44ca8a85-9682-49ef-90e9-a5dcf03685d3","system_id":"levelo_inurba_marseille","lat":43.29533,"lon":5.38536,"is_reserved":false,"is_disabled":false,"rental_uris":{"android":"levelo://app?vid=44ca8a85-9682-49ef-90e9-a5dcf03685d3","ios":"levelo://app?vid=44ca8a85-9682-49ef-90e9-a5dcf03685d3"},"vehicle_type_id":"4","last_reported":1766099489,"current_range_meters":16400,"station_id":"ce4bgih2rcd13ifvqba0","pricing_plan_id":"cebpf4jnsgd1na2vs0mg"},{"bike_id":"2b9cd75e-1df7-4132-97f4-f5cfe2dc84b3","system_id":"levelo_inurba_marseille","lat":43.24962,"lon":5.38927,"is_reserved":false,"is_disabled":false,"rental_uris":{"android":"levelo://app?vid=2b9cd75e-1df7-4132-97f4-f5cfe2dc84b3","ios":"levelo://app?vid=2b9cd75e-1df7-4132-97f4-f5cfe2dc84b3"},"vehicle_type_id":"4","last_reported":1766099489,"current_range_meters":16400,"station_id":"ce4bhgp2rcd13ifvqfd0","pricing_plan_id":"cebpf4jnsgd1na2vs0mg"},{"bike_id":"d67904e3-d432-4bb6-9c59-13ac7cead46a","system_id":"levelo_inurba_marseille","lat":43.32357,"lon":5.36742,"is_reserved":false,"is_disabled":false,"rental_uris":{"android":"levelo://app?vid=d67904e3-d432-4bb6-9c59-13ac7cead46a","ios":"levelo://app?vid=d67904e3-d432-4bb6-9c59-13ac7cead46a"},"vehicle_type_id":"4","last_reported":1766099489,"current_range_meters":16400,"station_id":"ce4bhsh2rcd13ifvqi2g","pricing_plan_id":"cebpf4jnsgd1na2vs0mg"},{"bike_id":"14ab9105-11dd-468f-86f2-3d30dcb5b3ff","system_id":"levelo_inurba_marseille","lat":43.337444,"lon":5.374475,"is_reserved":false,"is_disabled":false,"rental_uris":{"android":"levelo://app?vid=14ab9105-11dd-468f-86f2-3d30dcb5b3ff","ios":"levelo://app?vid=14ab9105-11dd-468f-86f2-3d30dcb5b3ff"},"vehicle_type_id":"4","last_reported":1766099489,"current_range_meters":16400,"station_id":"","pricing_plan_id":"cebpf4jnsgd1na2vs0mg"},{"bike_id":"e0effb5a-e8c9-4234-ae32-e89cc890b254","system_id":"levelo_inurba_marseille","lat":43.28863,"lon":5.42516,"is_reserved":false,"is_disabled":false,"rental_uris":{"android":"levelo://app?vid=e0effb5a-e8c9-4234-ae32-e89cc890b254","ios":"levelo://app?vid=e0effb5a-e8c9-4234-ae32-e89cc890b254"},"vehicle_type_id":"4","last_reported":1766099489,"current_range_meters":16400,"station_id":"st_d3b462108ojc7389ooeg","pricing_plan_id":"cebpf4jnsgd1na2vs0mg"},{"bike_id":"0e831b8a-ba65-4401-84c3-afd3e8869534","system_id":"levelo_inurba_marseille","lat":43.29619,"lon":5.37154,"is_reserved":false,"is_disabled":false,"rental_uris":{"android":"levelo://app?vid=0e831b8a-ba65-4401-84c3-afd3e8869534","ios":"levelo://app?vid=0e831b8a-ba65-4401-84c3-afd3e8869534"},"vehicle_type_id":"4","last_reported":1766099489,"current_range_meters":16400,"station_id":"ce4bgnh2rcd13ifvqc0g","pricing_plan_id":"cebpf4jnsgd1na2vs0mg"},{"bike_id":"7d8f2c88-7736-4ba6-ad2a-846d998ec555","system_id":"levelo_inurba_marseille","lat":43.29532,"lon":5.38551,"is_reserved":false,"is_disabled":false,"rental_uris":{"android":"levelo://app?vid=7d8f2c88-7736-4ba6-ad2a-846d998ec555","ios":"levelo://app?vid=7d8f2c88-7736-4ba6-ad2a-846d998ec555"},"vehicle_type_id":"4","last_reported":1766099489,"current_range_meters":16400,"station_id":"ce4bgih2rcd13ifvqba0","pricing_plan_id":"cebpf4jnsgd1na2vs0mg"},{"bike_id":"67d835a6-21e4-471b-bcce-6e8b660c295a","system_id":"levelo_inurba_marseille","lat":43.28607,"lon":5.35127,"is_reserved":false,"is_disabled":false,"rental_uris":{"android":"levelo://app?vid=67d835a6-21e4-471b-bcce-6e8b660c295a","ios":"levelo://app?vid=67d835a6-21e4-471b-bcce-6e8b660c295a"},"vehicle_type_id":"4","last_reported":1766099489,"current_range_meters":16400,"station_id":"ce4bhch2rcd13ifvqeug","pricing_plan_id":"cebpf4jnsgd1na2vs0mg"},{"bike_id":"33e6bff6-918a-4672-9b7e-9cb3008f34d8","system_id":"levelo_inurba_marseille","lat":43.29538,"lon":5.38545,"is_reserved":false,"is_disabled":false,"rental_uris":{"android":"levelo://app?vid=33e6bff6-918a-4672-9b7e-9cb3008f34d8","ios":"levelo://app?vid=33e6bff6-918a-4672-9b7e-9cb3008f34d8"},"vehicle_type_id":"4","last_reported":1766099489,"current_range_meters":16400,"station_id":"ce4bgih2rcd13ifvqba0","pricing_plan_id":"cebpf4jnsgd1na2vs0mg"},{"bike_id":"129bbb11-0b01-41e8-8aed-15516dfb5ad6","system_id":"levelo_inurba_marseille","lat":43.24996,"lon":5.38932,"is_reserved":false,"is_disabled":false,"rental_uris":{"android":"levelo://app?vid=129bbb11-0b01-41e8-8aed-15516dfb5ad6","ios":"levelo://app?vid=129bbb11-0b01-41e8-8aed-15516dfb5ad6"},"vehicle_type_id":"4","last_reported":1766099489,"current_range_meters":16400,"station_id":"ce4bhgp2rcd13ifvqfd0","pricing_plan_id":"cebpf4jnsgd1na2vs0mg"},{"bike_id":"6ec9a6be-eed9-4adb-a34f-9a64c85ea37b","system_id":"levelo_inurba_marseille","lat":43.30672,"lon":5.3759,"is_reserved":false,"is_disabled":false,"rental_uris":{"android":"levelo://app?vid=6ec9a6be-eed9-4adb-a34f-9a64c85ea37b","ios":"levelo://app?vid=6ec9a6be-eed9-4adb-a34f-9a64c85ea37b"},"vehicle_type_id":"4","last_reported":1766099489,"current_range_meters":16400,"station_id":"","pricing_plan_id":"cebpf4jnsgd1na2vs0mg"},{"bike_id":"02cb24cc-e062-4b73-80fd-141f91a697f7","system_id":"levelo_inurba_marseille","lat":43.31561,"lon":5.37663,"is_reserved":false,"is_disabled":false,"rental_uris":{"android":"levelo://app?vid=02cb24cc-e062-4b73-80fd-141f91a697f7","ios":"levelo://app?vid=02cb24cc-e062-4b73-80fd-141f91a697f7"},"vehicle_type_id":"4","last_reported":1766099489,"current_range_meters":16400,"station_id":"","pricing_plan_id":"cebpf4jnsgd1na2vs0mg"},{"bike_id":"d3fcd822-177c-4652-bd1b-c4847def5cc0","system_id":"levelo_inurba_marseille","lat":43.30635,"lon":5.40072,"is_reserved":false,"is_disabled":false,"rental_uris":{"android":"levelo://app?vid=d3fcd822-177c-4652-bd1b-c4847def5cc0","ios":"levelo://app?vid=d3fcd822-177c-4652-bd1b-c4847def5cc0"},"vehicle_type_id":"4","last_reported":1766099489,"current_range_meters":16800,"station_id":"ce4bh112rcd13ifvqda0","pricing_plan_id":"cebpf4jnsgd1na2vs0mg"},{"bike_id":"ce4f0ffd-da11-41ea-a5a8-33cb1134d63e","system_id":"levelo_inurba_marseille","lat":43.279913,"lon":5.416609,"is_reserved":false,"is_disabled":false,"rental_uris":{"android":"levelo://app?vid=ce4f0ffd-da11-41ea-a5a8-33cb1134d63e","ios":"levelo://app?vid=ce4f0ffd-da11-41ea-a5a8-33cb1134d63e"},"vehicle_type_id":"4","last_reported":1766099489,"current_range_meters":16800,"station_id":"ce4bho12rcd13ifvqh1g","pricing_plan_id":"cebpf4jnsgd1na2vs0mg"},{"bike_id":"fcae12e9-dde1-430e-95a7-f5567d679aa5","system_id":"levelo_inurba_marseille","lat":43.29257,"lon":5.38436,"is_reserved":false,"is_disabled":true,"rental_uris":{"android":"levelo://app?vid=fcae12e9-dde1-430e-95a7-f5567d679aa5","ios":"levelo://app?vid=fcae12e9-dde1-430e-95a7-f5567d679aa5"},"vehicle_type_id":"4","last_reported":1766099489,"current_range_meters":16800,"station_id":"ce4bh692rcd13ifvqea0","pricing_plan_id":"cebpf4jnsgd1na2vs0mg"},{"bike_id":"320f03a8-c4c7-4d1f-be9f-3d7bc7f5d6b3","system_id":"levelo_inurba_marseille","lat":43.31124,"lon":5.37769,"is_reserved":false,"is_disabled":false,"rental_uris":{"android":"levelo://app?vid=320f03a8-c4c7-4d1f-be9f-3d7bc7f5d6b3","ios":"levelo://app?vid=320f03a8-c4c7-4d1f-be9f-3d7bc7f5d6b3"},"vehicle_type_id":"4","last_reported":1766099489,"current_range_meters":16800,"station_id":"ce4bgt92rcd13ifvqcg0","pricing_plan_id":"cebpf4jnsgd1na2vs0mg"},{"bike_id":"db6b0cc7-b9db-4628-83ce-019dc0f883ff","system_id":"levelo_inurba_marseille","lat":43.26578,"lon":5.39048,"is_reserved":false,"is_disabled":false,"rental_uris":{"android":"levelo://app?vid=db6b0cc7-b9db-4628-83ce-019dc0f883ff","ios":"levelo://app?vid=db6b0cc7-b9db-4628-83ce-019dc0f883ff"},