{"last_updated":1728411109,"ttl":60,"version":"2.2","data":{"bikes":[{"bike_id":"8b552e7c-6c20-4b4b-b873-c052b0c36cdf","system_id":"levelo_inurba_marseille","lat":43.27682,"lon":5.38903,"is_reserved":false,"is_disabled":false,"rental_uris":{"android":"levelo://app?vid=8b552e7c-6c20-4b4b-b873-c052b0c36cdf","ios":"levelo://app?vid=8b552e7c-6c20-4b4b-b873-c052b0c36cdf"},"vehicle_type_id":"4","last_reported":1728411109,"current_range_meters":38400,"station_id":"ce4bhi12rcd13ifvqfo0","pricing_plan_id":"cebpf4jnsgd1na2vs0mg"},{"bike_id":"a35661b2-b710-4aed-96d4-0351ce96658b","system_id":"levelo_inurba_marseille","lat":43.27616,"lon":5.36115,"is_reserved":false,"is_disabled":false,"rental_uris":{"android":"levelo://app?vid=a35661b2-b710-4aed-96d4-0351ce96658b","ios":"levelo://app?vid=a35661b2-b710-4aed-96d4-0351ce96658b"},"vehicle_type_id":"4","last_reported":1728411109,"current_range_meters":32000,"station_id":"ce4bgj92rcd13ifvqbe0","pricing_plan_id":"cebpf4jnsgd1na2vs0mg"},{"bike_id":"75f11660-7622-4c47-b2e5-57a2baeae5dd","system_id":"levelo_inurba_marseille","lat":43.27366,"lon":5.36258,"is_reserved":false,"is_disabled":false,"rental_uris":{"android":"levelo://app?vid=75f11660-7622-4c47-b2e5-57a2baeae5dd","ios":"levelo://app?vid=75f11660-7622-4c47-b2e5-57a2baeae5dd"},"vehicle_type_id":"4","last_reported":1728411109,"current_range_meters":37600,"station_id":"ce4bhbh2rcd13ifvqeo0","pricing_plan_id":"cebpf4jnsgd1na2vs0mg"},{"bike_id":"3edccbad-c604-40df-acb2-6e9d91b67298","system_id":"levelo_inurba_marseille","lat":43.23051,"lon":5.35492,"is_reserved":false,"is_disabled":false,"rental_uris":{"android":"levelo://app?vid=3edccbad-c604-40df-acb2-6e9d91b67298","ios":"levelo://app?vid=3edccbad-c604-40df-acb2-6e9d91b67298"},"vehicle_type_id":"4","last_reported":1728411109,"current_range_meters":12000,"station_id":"cpo3342slgdg3j2ifvpg","pricing_plan_id":"cebpf4jnsgd1na2vs0mg"},{"bike_id":"05b41509-0303-470c-beef-09bf8a7494f1","system_id":"levelo_inurba_marseille","lat":43.2582,"lon":5.39441,"is_reserved":false,"is_disabled":false,"rental_uris":{"android":"levelo://app?vid=05b41509-0303-470c-beef-09bf8a7494f1","ios":"levelo://app?vid=05b41509-0303-470c-beef-09bf8a7494f1"},"vehicle_type_id":"4","last_reported":1728411109,"current_range_meters":22000,"station_id":"ce4bhip2rcd13ifvqft0","pricing_plan_id":"cebpf4jnsgd1na2vs0mg"},{"bike_id":"adf7750d-2d96-49bd-88db-eeb16e7ff5b1","system_id":"levelo_inurba_marseille","lat":43.3234,"lon":5.40623,"is_reserved":false,"is_disabled":false,"rental_uris":{"android":"levelo://app?vid=adf7750d-2d96-49bd-88db-eeb16e7ff5b1","ios":"levelo://app?vid=adf7750d-2d96-49bd-88db-eeb16e7ff5b1"},"vehicle_type_id":"4","last_reported":1728411109,"current_range_meters":2800,"station_id":"","pricing_plan_id":"cebpf4jnsgd1na2vs0mg"},{"bike_id":"bfc2c562-d757-4937-a055-673f5bde1e91","system_id":"levelo_inurba_marseille","lat":43.28611,"lon":5.37065,"is_reserved":false,"is_disabled":false,"rental_uris":{"android":"levelo://app?vid=bfc2c562-d757-4937-a055-673f5bde1e91","ios":"levelo://app?vid=bfc2c562-d757-4937-a055-673f5bde1e91"},"vehicle_type_id":"4","last_reported":1728411109,"current_range_meters":3200,"station_id":"ce4bht12rcd13ifvqi60","pricing_plan_id":"cebpf4jnsgd1na2vs0mg"},{"bike_id":"2a462c9f-7c84-4d5b-afea-a4fbe34373fe","system_id":"levelo_inurba_marseille","lat":43.29547,"lon":5.42287,"is_reserved":false,"is_disabled":false,"rental_uris":{"android":"levelo://app?vid=2a462c9f-7c84-4d5b-afea-a4fbe34373fe","ios":"levelo://app?vid=2a462c9f-7c84-4d5b-afea-a4fbe34373fe"},"vehicle_type_id":"4","last_reported":1728411109,"current_range_meters":9200,"station_id":"ce4bhph2rcd13ifvqhdg","pricing_plan_id":"cebpf4jnsgd1na2vs0mg"},{"bike_id":"bfeac8a1-f0aa-40d2-843d-ed16f26d1581","system_id":"levelo_inurba_marseille","lat":43.29884,"lon":5.39742,"is_reserved":false,"is_disabled":false,"rental_uris":{"android":"levelo://app?vid=bfeac8a1-f0aa-40d2-843d-ed16f26d1581","ios":"levelo://app?vid=bfeac8a1-f0aa-40d2-843d-ed16f26d1581"},"vehicle_type_id":"4","last_reported":1728411109,"current_range_meters":37600,"station_id":"ce4bh0h2rcd13ifvqd50","pricing_plan_id":"cebpf4jnsgd1na2vs0mg"},{"bike_id":"cf8f16fb-4580-41c1-9847-689c326f31cc","system_id":"levelo_inurba_marseille","lat":43.311673,"lon":5.387248,"is_reserved":false,"is_disabled":false,"rental_uris":{"android":"levelo://app?vid=cf8f16fb-4580-41c1-9847-689c326f31cc","ios":"levelo://app?vid=cf8f16fb-4580-41c1-9847-689c326f31cc"},"vehicle_type_id":"4","last_reported":1728411109,"current_range_meters":22000,"station_id":"ce4bgv12rcd13ifvqcp0","pricing_plan_id":"cebpf4jnsgd1na2vs0mg"},{"bike_id":"f4add891-ccf1-4c28-8095-fab7df0f450b","system_id":"levelo_inurba_marseille","lat":43.271036,"lon":5.40864,"is_reserved":false,"is_disabled":false,"rental_uris":{"android":"levelo://app?vid=f4add891-ccf1-4c28-8095-fab7df0f450b","ios":"levelo://app?vid=f4add891-ccf1-4c28-8095-fab7df0f450b"},"vehicle_type_id":"4","last_reported":1728411109,"current_range_meters":21600,"station_id":"ce4bhl12rcd13ifvqgf0","pricing_plan_id":"cebpf4jnsgd1na2vs0mg"},{"bike_id":"20db563e-4aee-4d17-a6c3-e405c3838ee2","system_id":"levelo_inurba_marseille","lat":43.27898,"lon":5.38002,"is_reserved":false,"is_disabled":false,"rental_uris":{"android":"levelo://app?vid=20db563e-4aee-4d17-a6c3-e405c3838ee2","ios":"levelo://app?vid=20db563e-4aee-4d17-a6c3-e405c3838ee2"},"vehicle_type_id":"4","last_reported":1728411109,"current_range_meters":10800,"station_id":"ce4bhf92rcd13ifvqf50","pricing_plan_id":"cebpf4jnsgd1na2vs0mg"},{"bike_id":"81b07a05-4c57-4e76-99d6-5f6e3acbb201","system_id":"levelo_inurba_marseille","lat":43.23059,"lon":5.35495,"is_reserved":false,"is_disabled":false,"rental_uris":{"android":"levelo://app?vid=81b07a05-4c57-4e76-99d6-5f6e3acbb201","ios":"levelo://app?vid=81b07a05-4c57-4e76-99d6-5f6e3acbb201"},"vehicle_type_id":"4","last_reported":1728411109,"current_range_meters":6000,"station_id":"cpo3342slgdg3j2ifvpg","pricing_plan_id":"cebpf4jnsgd1na2vs0mg"},{"bike_id":"6505c150-f734-4e3a-90cd-7c8a96848e2e","system_id":"levelo_inurba_marseille","lat":43.26939,"lon":5.4025,"is_reserved":false,"is_disabled":false,"rental_uris":{"android":"levelo://app?vid=6505c150-f734-4e3a-90cd-7c8a96848e2e","ios":"levelo://app?vid=6505c150-f734-4e3a-90cd-7c8a96848e2e"},"vehicle_type_id":"4","last_reported":1728411109,"current_range_meters":6800,"station_id":"cjm6bp8fraef2m0cb0m0","pricing_plan_id":"cebpf4jnsgd1na2vs0mg"},{"bike_id":"3b465c42-6aa4-4418-8849-2ece6689b117","system_id":"levelo_inurba_marseille","lat":43.31757,"lon":5.39017,"is_reserved":false,"is_disabled":false,"rental_uris":{"android":"levelo://app?vid=3b465c42-6aa4-4418-8849-2ece6689b117","ios":"levelo://app?vid=3b465c42-6aa4-4418-8849-2ece6689b117"},"vehicle_type_id":"4","last_reported":1728411109,"current_range_meters":28800,"station_id":"ce4bhqp2rcd13ifvqhng","pricing_plan_id":"cebpf4jnsgd1na2vs0mg"},{"bike_id":"1c5e9102-64cc-4162-ac44-ab9c67ef7cf6","system_id":"levelo_inurba_marseille","lat":43.3153,"lon":5.3803,"is_reserved":false,"is_disabled":false,"rental_uris":{"android":"levelo://app?vid=1c5e9102-64cc-4162-ac44-ab9c67ef7cf6","ios":"levelo://app?vid=1c5e9102-64cc-4162-ac44-ab9c67ef7cf6"},"vehicle_type_id":"4","last_reported":1728411109,"current_range_meters":38000,"station_id":"ce4bhsp2rcd13ifvqi50","pricing_plan_id":"cebpf4jnsgd1na2vs0mg"},{"bike_id":"438662dd-dbc6-4b5e-99e9-62f11218d829","system_id":"levelo_inurba_marseille","lat":43.29524,"lon":5.38547,"is_reserved":false,"is_disabled":false,"rental_uris":{"android":"levelo://app?vid=438662dd-dbc6-4b5e-99e9-62f11218d829","ios":"levelo://app?vid=438662dd-dbc6-4b5e-99e9-62f11218d829"},"vehicle_type_id":"4","last_reported":1728411109,"current_range_meters":10800,"station_id":"ce4bgih2rcd13ifvqba0","pricing_plan_id":"cebpf4jnsgd1na2vs0mg"},{"bike_id":"19c0b79e-048f-4080-9523-df0298a2f738","system_id":"levelo_inurba_marseille","lat":43.26937,"lon":5.38916,"is_reserved":false,"is_disabled":false,"rental_uris":{"android":"levelo://app?vid=19c0b79e-048f-4080-9523-df0298a2f738","ios":"levelo://app?vid=19c0b79e-048f-4080-9523-df0298a2f738"},"vehicle_type_id":"4","last_reported":1728411109,"current_range_meters":8400,"station_id":"ce4bhhh2rcd13ifvqfl0","pricing_plan_id":"cebpf4jnsgd1na2vs0mg"},{"bike_id":"90b7b815-be07-4d3f-a351-671d7e515226","system_id":"levelo_inurba_marseille","lat":43.24644,"lon":5.38901,"is_reserved":false,"is_disabled":false,"rental_uris":{"android":"levelo://app?vid=90b7b815-be07-4d3f-a351-671d7e515226","ios":"levelo://app?vid=90b7b815-be07-4d3f-a351-671d7e515226"},"vehicle_type_id":"4","last_reported":1728411109,"current_range_meters":16800,"station_id":"ce4bhg12rcd13ifvqf60","pricing_plan_id":"cebpf4jnsgd1na2vs0mg"},{"bike_id":"066ccb90-6b9a-4302-bde4-9c97dfce747d","system_id":"levelo_inurba_marseille","lat":43.33724,"lon":5.39195,"is_reserved":false,"is_disabled":false,"rental_uris":{"android":"levelo://app?vid=066ccb90-6b9a-4302-bde4-9c97dfce747d","ios":"levelo://app?vid=066ccb90-6b9a-4302-bde4-9c97dfce747d"},"vehicle_type_id":"4","last_reported":1728411109,"current_range_meters":36000,"station_id":"ce4bhr92rcd13ifvqhsg","pricing_plan_id":"cebpf4jnsgd1na2vs0mg"},{"bike_id":"29fc9a7d-5b4e-4743-bea3-db2023c2b087","system_id":"levelo_inurba_marseille","lat":43.28725,"lon":5.37935,"is_reserved":false,"is_disabled":false,"rental_uris":{"android":"levelo://app?vid=29fc9a7d-5b4e-4743-bea3-db2023c2b087","ios":"levelo://app?vid=29fc9a7d-5b4e-4743-bea3-db2023c2b087"},"vehicle_type_id":"4","last_reported":1728411109,"current_range_meters":20000,"station_id":"ce4bh9p2rcd13ifvqec0","pricing_plan_id":"cebpf4jnsgd1na2vs0mg"},{"bike_id":"3165838d-8e4b-461d-9c0a-796956e8bcc7","system_id":"levelo_inurba_marseille","lat":43.28546,"lon":5.38216,"is_reserved":false,"is_disabled":false,"rental_uris":{"android":"levelo://app?vid=3165838d-8e4b-461d-9c0a-796956e8bcc7","ios":"levelo://app?vid=3165838d-8e4b-461d-9c0a-796956e8bcc7"},"vehicle_type_id":"4","last_reported":1728411109,"current_range_meters":8000,"station_id":"","pricing_plan_id":"cebpf4jnsgd1na2vs0mg"},{"bike_id":"35db5aab-a536-4286-87d7-90ec43783f24","system_id":"levelo_inurba_marseille","lat":43.23193,"lon":5.35554,"is_reserved":false,"is_disabled":false,"rental_uris":{"android":"levelo://app?vid=35db5aab-a536-4286-87d7-90ec43783f24","ios":"levelo://app?vid=35db5aab-a536-4286-87d7-90ec43783f24"},"vehicle_type_id":"4","last_reported":1728411109,"current_range_meters":28800,"station_id":"ce4bhu92rcd13ifvqi70","pricing_plan_id":"cebpf4jnsgd1na2vs0mg"},{"bike_id":"38ddae5c-ea52-44f4-bf89-1782607dbc3e","system_id":"levelo_inurba_marseille","lat":43.2953,"lon":5.38542,"is_reserved":false,"is_disabled":false,"rental_uris":{"android":"levelo://app?vid=38ddae5c-ea52-44f4-bf89-1782607dbc3e","ios":"levelo://app?vid=38ddae5c-ea52-44f4-bf89-1782607dbc3e"},"vehicle_type_id":"4","last_reported":1728411109,"current_range_meters":5600,"station_id":"ce4bgih2rcd13ifvqba0","pricing_plan_id":"cebpf4jnsgd1na2vs0mg"},{"bike_id":"fca8cec7-d668-4b38-9ea5-acf6788fe5c1","system_id":"levelo_inurba_marseille","lat":43.29183,"lon":5.39312,"is_reserved":false,"is_disabled":false,"rental_uris":{"android":"levelo://app?vid=fca8cec7-d668-4b38-9ea5-acf6788fe5c1","ios":"levelo://app?vid=fca8cec7-d668-4b38-9ea5-acf6788fe5c1"},"vehicle_type_id":"4","last_reported":1728411109,"current_range_meters":19600,"station_id":"ce4bh192rcd13ifvqdd0","pricing_plan_id":"cebpf4jnsgd1na2vs0mg"},{"bike_id":"f9be3472-8874-4637-81c3-c4d057676443","system_id":"levelo_inurba_marseille","lat":43.23182,"lon":5.39987,"is_reserved":false,"is_disabled":false,"rental_uris":{"android":"levelo://app?vid=f9be3472-8874-4637-81c3-c4d057676443","ios":"levelo://app?vid=f9be3472-8874-4637-81c3-c4d057676443"},"vehicle_type_id":"4","last_reported":1728411109,"current_range_meters":8000,"station_id":"ce4bhn12rcd13ifvqgqg","pricing_plan_id":"cebpf4jnsgd1na2vs0mg"},{"bike_id":"d74661f0-830d-4988-b75c-49337b55f926","system_id":"levelo_inurba_marseille","lat":43.32185,"lon":5.38652,"is_reserved":false,"is_disabled":false,"rental_uris":{"android":"levelo://app?vid=d74661f0-830d-4988-b75c-49337b55f926","ios":"levelo://app?vid=d74661f0-830d-4988-b75c-49337b55f926"},"vehicle_type_id":"4","last_reported":1728411109,"current_range_meters":30800,"station_id":"","pricing_plan_id":"cebpf4jnsgd1na2vs0mg"},{"bike_id":"f2ca1e44-e304-48eb-ae87-fe965c250b6f","system_id":"levelo_inurba_marseille","lat":43.24662,"lon":5.3817,"is_reserved":false,"is_disabled":false,"rental_uris":{"android":"levelo://app?vid=f2ca1e44-e304-48eb-ae87-fe965c250b6f","ios":"levelo://app?vid=f2ca1e44-e304-48eb-ae87-fe965c250b6f"},"vehicle_type_id":"4","last_reported":1728411109,"current_range_meters":8800,"station_id":"ce4bhih2rcd13ifvqfr0","pricing_plan_id":"cebpf4jnsgd1na2vs0mg"},{"bike_id":"489eca4c-d1e1-4792-9142-2236b59b9125","system_id":"levelo_inurba_marseille","lat":43.24831,"lon":5.37476,"is_reserved":false,"is_disabled":false,"rental_uris":{"android":"levelo://app?vid=489eca4c-d1e1-4792-9142-2236b59b9125","ios":"levelo://app?vid=489eca4c-d1e1-4792-9142-2236b59b9125"},"vehicle_type_id":"4","last_reported":1728411109,"current_range_meters":14000,"station_id":"ce4bhgh2rcd13ifvqfb0","pricing_plan_id":"cebpf4jnsgd1na2vs0mg"},{"bike_id":"61c17717-6f71-486c-b134-77b5c31fe53d","system_id":"levelo_inurba_marseille","lat":43.24805,"lon":5.37457,"is_reserved":false,"is_disabled":false,"rental_uris":{"android":"levelo://app?vid=61c17717-6f71-486c-b134-77b5c31fe53d","ios":"levelo://app?vid=61c17717-6f71-486c-b134-77b5c31fe53d"},"vehicle_type_id":"4","last_reported":1728411109,"current_range_meters":18800,"station_id":"ce4bhgh2rcd13ifvqfb0","pricing_plan_id":"cebpf4jnsgd1na2vs0mg"},{"bike_id":"f571a1da-d3b0-48bf-a72c-9f1d0a4dc260","system_id":"levelo_inurba_marseille","lat":43.2928,"lon":5.40119,"is_reserved":false,"is_disabled":false,"rental_uris":{"android":"levelo://app?vid=f571a1da-d3b0-48bf-a72c-9f1d0a4dc260","ios":"levelo://app?vid=f571a1da-d3b0-48bf-a72c-9f1d0a4dc260"},"vehicle_type_id":"4","last_reported":1728411109,"current_range_meters":3600,"station_id":"ce4bh312rcd13ifvqdk0","pricing_plan_id":"cebpf4jnsgd1na2vs0mg"},{"bike_id":"5bfdb008-40fe-40e4-ad2b-bf5efa83a43f","system_id":"levelo_inurba_marseille","lat":43.29265,"lon":5.4091,"is_reserved":false,"is_disabled":false,"rental_uris":{"android":"levelo://app?vid=5bfdb008-40fe-40e4-ad2b-bf5efa83a43f","ios":"levelo://app?vid=5bfdb008-40fe-40e4-ad2b-bf5efa83a43f"},"vehicle_type_id":"4","last_reported":1728411109,"current_range_meters":33600,"station_id":"ce4bh192rcd13ifvqdc0","pricing_plan_id":"cebpf4jnsgd1na2vs0mg"},{"bike_id":"5831aab4-5f4a-41c8-868e-a7945f073406","system_id":"levelo_inurba_marseille","lat":43.28722,"lon":5.37937,"is_reserved":false,"is_disabled":false,"rental_uris":{"android":"levelo://app?vid=5831aab4-5f4a-41c8-868e-a7945f073406","ios":"levelo://app?vid=5831aab4-5f4a-41c8-868e-a7945f073406"},"vehicle_type_id":"4","last_reported":1728411109,"current_range_meters":17600,"station_id":"ce4bh9p2rcd13ifvqec0","pricing_plan_id":"cebpf4jnsgd1na2vs0mg"},{"bike_id":"bb9a94de-4b98-40a1-b142-5ea434f344d6","system_id":"levelo_inurba_marseille","lat":43.25719,"lon":5.41111,"is_reserved":false,"is_disabled":false,"rental_uris":{"android":"levelo://app?vid=bb9a94de-4b98-40a1-b142-5ea434f344d6","ios":"levelo://app?vid=bb9a94de-4b98-40a1-b142-5ea434f344d6"},"vehicle_type_id":"4","last_reported":1728411109,"current_range_meters":2800,"station_id":"ce4bhkp2rcd13ifvqgd0","pricing_plan_id":"cebpf4jnsgd1na2vs0mg"},{"bike_id":"f4e2d5f5-8f59-4a54-8dab-9a0787522fcc","system_id":"levelo_inurba_marseille","lat":43.30211,"lon":5.39464,"is_reserved":false,"is_disabled":false,"rental_uris":{"android":"levelo://app?vid=f4e2d5f5-8f59-4a54-8dab-9a0787522fcc","ios":"levelo://app?vid=f4e2d5f5-8f59-4a54-8dab-9a0787522fcc"},"vehicle_type_id":"4","last_reported":1728411109,"current_range_meters":9200,"station_id":"ce4bh0p2rcd13ifvqd70","pricing_plan_id":"cebpf4jnsgd1na2vs0mg"},{"bike_id":"4cc27397-ade9-4a97-a537-4584a901b2a9","system_id":"levelo_inurba_marseille","lat":43.29262,"lon":5.38435,"is_reserved":false,"is_disabled":false,"rental_uris":{"android":"levelo://app?vid=4cc27397-ade9-4a97-a537-4584a901b2a9","ios":"levelo://app?vid=4cc27397-ade9-4a97-a537-4584a901b2a9"},"vehicle_type_id":"4","last_reported":1728411109,"current_range_meters":3200,"station_id":"ce4bh692rcd13ifvqea0","pricing_plan_id":"cebpf4jnsgd1na2vs0mg"},{"bike_id":"72f390d6-8036-4225-a9fd-bbdc6e34eeea","system_id":"levelo_inurba_marseille","lat":43.23193,"lon":5.39989,"is_reserved":false,"is_disabled":false,"rental_uris":{"android":"levelo://app?vid=72f390d6-8036-4225-a9fd-bbdc6e34eeea","ios":"levelo://app?vid=72f390d6-8036-4225-a9fd-bbdc6e34eeea"},"vehicle_type_id":"4","last_reported":1728411109,"current_range_meters":36400,"station_id":"ce4bhn12rcd13ifvqgqg","pricing_plan_id":"cebpf4jnsgd1na2vs0mg"},{"bike_id":"11cd30c8-d447-4a8a-ad0f-609e16e92e48","system_id":"levelo_inurba_marseille","lat":43.24802,"lon":5.37456,"is_reserved":false,"is_disabled":false,"rental_uris":{"android":"levelo://app?vid=11cd30c8-d447-4a8a-ad0f-609e16e92e48","ios":"levelo://app?vid=11cd30c8-d447-4a8a-ad0f-609e16e92e48"},"vehicle_type_id":"4","last_reported":1728411109,"current_range_meters":39200,"station_id":"ce4bhgh2rcd13ifvqfb0","pricing_plan_id":"cebpf4jnsgd1na2vs0mg"},{"bike_id":"2bb8ae6c-7b17-45f6-ae2f-a94631598955","system_id":"levelo_inurba_marseille","lat":43.22928,"lon":5.35377,"is_reserved":false,"is_disabled":false,"rental_uris":{"android":"levelo://app?vid=2bb8ae6c-7b17-45f6-ae2f-a94631598955","ios":"levelo://app?vid=2bb8ae6c-7b17-45f6-ae2f-a94631598955"},"vehicle_type_id":"4","last_reported":1728411109,"current_range_meters":20000,"station_id":"cpo3532slgdg3j2ikp40","pricing_plan_id":"cebpf4jnsgd1na2vs0mg"},{"bike_id":"1108f945-2562-4a37-b07f-6ae5d87c264e","system_id":"levelo_inurba_marseille","lat":43.337444,"lon":5.374475,"is_reserved":false,"is_disabled":false,"rental_uris":{"android":"levelo://app?vid=1108f945-2562-4a37-b07f-6ae5d87c264e","ios":"levelo://app?vid=1108f945-2562-4a37-b07f-6ae5d87c264e"},"vehicle_type_id":"4","last_reported":1728411109,"current_range_meters":36800,"station_id":"","pricing_plan_id":"cebpf4jnsgd1na2vs0mg"},{"bike_id":"c22fdad2-64a0-4224-b01d-89e6400775be","system_id":"levelo_inurba_marseille","lat":43.23958,"lon":5.36648,"is_reserved":false,"is_disabled":false,"rental_uris":{"android":"levelo://app?vid=c22fdad2-64a0-4224-b01d-89e6400775be","ios":"levelo://app?vid=c22fdad2-64a0-4224-b01d-89e6400775be"},"vehicle_type_id":"4","last_reported":1728411109,"current_range_meters":20400,"station_id":"ce4bhi12rcd13ifvqfp0","pricing_plan_id":"cebpf4jnsgd1na2vs0mg"},{"bike_id":"b4c76401-0432-4f05-908b-d6e6c8549326","system_id":"levelo_inurba_marseille","lat":43.31338,"lon":5.39709,"is_reserved":false,"is_disabled":false,"rental_uris":{"android":"levelo://app?vid=b4c76401-0432-4f05-908b-d6e6c8549326","ios":"levelo://app?vid=b4c76401-0432-4f05-908b-d6e6c8549326"},"vehicle_type_id":"4","last_reported":1728411109,"current_range_meters":0,"station_id":"ce4bgvp2rcd13ifvqcu0","pricing_plan_id":"cebpf4jnsgd1na2vs0mg"},{"bike_id":"d97ef086-b101-46be-b171-9933c814020e","system_id":"levelo_inurba_marseille","lat":43.32549,"lon":5.41436,"is_reserved":false,"is_disabled":false,"rental_uris":{"android":"levelo://app?vid=d97ef086-b101-46be-b171-9933c814020e","ios":"levelo://app?vid=d97ef086-b101-46be-b171-9933c814020e"},"vehicle_type_id":"4","last_reported":1728411109,"current_range_meters":25200,"station_id":"ce4bhq12rcd13ifvqhhg","pricing_plan_id":"cebpf4jnsgd1na2vs0mg"},{"bike_id":"75335d2f-d722-42cf-a073-0955fe1dc611","system_id":"levelo_inurba_marseille","lat":43.33017,"lon":5.3904,"is_reserved":false,"is_disabled":false,"rental_uris":{"android":"levelo://app?vid=75335d2f-d722-42cf-a073-0955fe1dc611","ios":"levelo://app?vid=75335d2f-d722-42cf-a073-0955fe1dc611"},"vehicle_type_id":"4","last_reported":1728411109,"current_range_meters":38800,"station_id":"ce4bhr92rcd13ifvqhrg","pricing_plan_id":"cebpf4jnsgd1na2vs0mg"},{"bike_id":"c12c46a4-bd86-493d-803e-5d507cd7924b","system_id":"levelo_inurba_marseille","lat":43.23197,"lon":5.35559,"is_reserved":false,"is_disabled":false,"rental_uris":{"android":"levelo://app?vid=c12c46a4-bd86-493d-803e-5d507cd7924b","ios":"levelo://app?vid=c12c46a4-bd86-493d-803e-5d507cd7924b"},"vehicle_type_id":"4","last_reported":1728411109,"current_range_meters":17200,"station_id":"ce4bhu92rcd13ifvqi70","pricing_plan_id":"cebpf4jnsgd1na2vs0mg"},{"bike_id":"1e22ea5d-d406-4b63-92d6-06a783dc0af8","system_id":"levelo_inurba_marseille","lat":43.23182,"lon":5.39982,"is_reserved":false,"is_disabled":false,"rental_uris":{"android":"levelo://app?vid=1e22ea5d-d406-4b63-92d6-06a783dc0af8","ios":"levelo://app?vid=1e22ea5d-d406-4b63-92d6-06a783dc0af8"},"vehicle_type_id":"4","last_reported":1728411109,"current_range_meters":17200,"station_id":"ce4bhn12rcd13ifvqgqg","pricing_plan_id":"cebpf4jnsgd1na2vs0mg"},{"bike_id":"8342a0a5-17b2-4524-a2d2-e2cbce1247d1","system_id":"levelo_inurba_marseille","lat":43.25088,"lon":5.39516,"is_reserved":false,"is_disabled":false,"rental_uris":{"android":"levelo://app?vid=8342a0a5-17b2-4524-a2d2-e2cbce1247d1","ios":"levelo://app?vid=8342a0a5-17b2-4524-a2d2-e2cbce1247d1"},"vehicle_type_id":"4","last_reported":1728411109,"current_range_meters":17200,"station_id":"ce4bhm12rcd13ifvqgkg","pricing_plan_id":"cebpf4jnsgd1na2vs0mg"},{"bike_id":"662f4970-f45a-4eb7-8b5b-5f2d14dbdf57","system_id":"levelo_inurba_marseille","lat":43.26684,"lon":5.38284,"is_reserved":false,"is_disabled":false,"rental_uris":{"android":"levelo://app?vid=662f4970-f45a-4eb7-8b5b-5f2d14dbdf57","ios":"levelo://app?vid=662f4970-f45a-4eb7-8b5b-5f2d14dbdf57"},"vehicle_type_id":"4","last_reported":1728411109,"current_range_meters":36400,"station_id":"ce4bhg92rcd13ifvqf90","pricing_plan_id":"cebpf4jnsgd1na2vs0mg"},{"bike_id":"0574c1a0-3cc8-4f7d-b926-8637ca5584a1","system_id":"levelo_inurba_marseille","lat":43.2827,"lon":5.35072,"is_reserved":false,"is_disabled":false,"rental_uris":{"android":"levelo://app?vid=0574c1a0-3cc8-4f7d-b926-8637ca5584a1","ios":"levelo://app?vid=0574c1a0-3cc8-4f7d-b926-8637ca5584a1"},"vehicle_type_id":"4","last_reported":1728411109,"current_range_meters":38800,"station_id":"ce4bhbp2rcd13ifvqerg","pricing_plan_id":"cebpf4jnsgd1na2vs0mg"},{"bike_id":"a7d14738-4ee9-4f75-aab7-834268842ec5","system_id":"levelo_inurba_marseille","lat":43.29569,"lon":5.37506,"is_reserved":false,"is_disabled":false,"rental_uris":{"android":"levelo://app?vid=a7d14738-4ee9-4f75-aab7-834268842ec5","ios":"levelo://app?vid=a7d14738-4ee9-4f75-aab7-834268842ec5"},"vehicle_type_id":"4","last_reported":1728411109,"current_range_meters":39200,"station_id":"ce4bgh92rcd13ifvqb50","pricing_plan_id":"cebpf4jnsgd1na2vs0mg"},{"bike_id":"0f4a81d1-178a-4423-a9c5-4f762876e359","system_id":"levelo_inurba_marseille","lat":43.28345,"lon":5.39887,"is_reserved":false,"is_disabled":false,"rental_uris":{"android":"levelo://app?vid=0f4a81d1-178a-4423-a9c5-4f762876e359","ios":"levelo://app?vid=0f4a81d1-178a-4423-a9c5-4f762876e359"},"vehicle_type_id":"4","last_reported":1728411109,"current_range_meters":32400,"station_id":"","pricing_plan_id":"cebpf4jnsgd1na2vs0mg"},{"bike_id":"ce0b03a7-4b03-4bd7-928b-a4a84159b584","system_id":"levelo_inurba_marseille","lat":43.2396,"lon":5.36642,"is_reserved":false,"is_disabled":false,"rental_uris":{"android":"levelo://app?vid=ce0b03a7-4b03-4bd7-928b-a4a84159b584","ios":"levelo://app?vid=ce0b03a7-4b03-4bd7-928b-a4a84159b584"},"vehicle_type_id":"4","last_reported":1728411109,"current_range_meters":34000,"station_id":"ce4bhi12rcd13ifvqfp0","pricing_plan_id":"cebpf4jnsgd1na2vs0mg"},{"bike_id":"2a78516c-c1c6-4ad6-bdff-2967633b24bb","system_id":"levelo_inurba_marseille","lat":43.28482,"lon":5.38413,"is_reserved":false,"is_disabled":false,"rental_uris":{"android":"levelo://app?vid=2a78516c-c1c6-4ad6-bdff-2967633b24bb","ios":"levelo://app?vid=2a78516c-c1c6-4ad6-bdff-2967633b24bb"},"vehicle_type_id":"4","last_reported":1728411109,"current_range_meters":37600,"station_id":"ce4bh512rcd13ifvqe3g","pricing_plan_id":"cebpf4jnsgd1na2vs0mg"},{"bike_id":"87e6e350-c93b-4b5d-9910-bd3dc2bbc4f3","system_id":"levelo_inurba_marseille","lat":43.2926,"lon":5.40907,"is_reserved":false,"is_disabled":false,"rental_uris":{"android":"levelo://app?vid=87e6e350-c93b-4b5d-9910-bd3dc2bbc4f3","ios":"levelo://app?vid=87e6e350-c93b-4b5d-9910-bd3dc2bbc4f3"},"vehicle_type_id":"4","last_reported":1728411109,"current_range_meters":36400,"station_id":"ce4bh192rcd13ifvqdc0","pricing_plan_id":"cebpf4jnsgd1na2vs0mg"},{"bike_id":"d00a3477-782a-4de0-b711-15ed9dd434f4","system_id":"levelo_inurba_marseille","lat":43.23054,"lon":5.35488,"is_reserved":false,"is_disabled":false,"rental_uris":{"android":"levelo://app?vid=d00a3477-782a-4de0-b711-15ed9dd434f4","ios":"levelo://app?vid=d00a3477-782a-4de0-b711-15ed9dd434f4"},"vehicle_type_id":"4","last_reported":1728411109,"current_range_meters":3600,"station_id":"cpo3342slgdg3j2ifvpg","pricing_plan_id":"cebpf4jnsgd1na2vs0mg"},{"bike_id":"a96960fb-1ae0-4688-92ce-8bc122ef6c6a","system_id":"levelo_inurba_marseille","lat":43.31342,"lon":5.39704,"is_reserved":false,"is_disabled":false,"rental_uris":{"android":"levelo://app?vid=a96960fb-1ae0-4688-92ce-8bc122ef6c6a","ios":"levelo://app?vid=a96960fb-1ae0-4688-92ce-8bc122ef6c6a"},"vehicle_type_id":"4","last_reported":1728411109,"current_range_meters":39200,"station_id":"ce4bgvp2rcd13ifvqcu0","pricing_plan_id":"cebpf4jnsgd1na2vs0mg"},{"bike_id":"1a16b4b2-3882-45ac-8e9c-156fab61c883","system_id":"levelo_inurba_marseille","lat":43.2707,"lon":5.42281,"is_reserved":false,"is_disabled":false,"rental_uris":{"android":"levelo://app?vid=1a16b4b2-3882-45ac-8e9c-156fab61c883","ios":"levelo://app?vid=1a16b4b2-3882-45ac-8e9c-156fab61c883"},"vehicle_type_id":"4","last_reported":1728411109,"current_range_meters":6000,"station_id":"ce4bhk92rcd13ifvqgb0","pricing_plan_id":"cebpf4jnsgd1na2vs0mg"},{"bike_id":"dc65dbd9-51b7-4838-8396-2ae8ba422b56","system_id":"levelo_inurba_marseille","lat":43.29777,"lon":5.39339,"is_reserved":false,"is_disabled":false,"rental_uris":{"android":"levelo://app?vid=dc65dbd9-51b7-4838-8396-2ae8ba422b56","ios":"levelo://app?vid=dc65dbd9-51b7-4838-8396-2ae8ba422b56"},"vehicle_type_id":"4","last_reported":1728411109,"current_range_meters":3200,"station_id":"chh1huq6cuj3fo74tm60","pricing_plan_id":"cebpf4jnsgd1na2vs0mg"},{"bike_id":"e8f38f77-6572-42be-9296-0cbe6e7cb972","system_id":"levelo_inurba_marseille","lat":43.23054,"lon":5.35492,"is_reserved":false,"is_disabled":false,"rental_uris":{"android":"levelo://app?vid=e8f38f77-6572-42be-9296-0cbe6e7cb972","ios":"levelo://app?vid=e8f38f77-6572-42be-9296-0cbe6e7cb972"},"vehicle_type_id":"4","last_reported":1728411109,"current_range_meters":30400,"station_id":"cpo3342slgdg3j2ifvpg","pricing_plan_id":"cebpf4jnsgd1na2vs0mg"},{"bike_id":"b2cd936e-0319-4928-9e46-ae71f3ba49f2","system_id":"levelo_inurba_marseille","lat":43.250917,"lon":5.395311,"is_reserved":false,"is_disabled":false,"rental_uris":{"android":"levelo://app?vid=b2cd936e-0319-4928-9e46-ae71f3ba49f2","ios":"levelo://app?vid=b2cd936e-0319-4928-9e46-ae71f3ba49f2"},"vehicle_type_id":"4","last_reported":1728411109,"current_range_meters":33200,"station_id":"ce4bhm12rcd13ifvqgkg","pricing_plan_id":"cebpf4jnsgd1na2vs0mg"},{"bike_id":"9f5b22bc-aec2-4d54-9c2e-239961833303","system_id":"levelo_inurba_marseille","lat":43.31121,"lon":5.3776,"is_reserved":false,"is_disabled":false,"rental_uris":{"android":"levelo://app?vid=9f5b22bc-aec2-4d54-9c2e-239961833303","ios":"levelo://app?vid=9f5b22bc-aec2-4d54-9c2e-239961833303"},"vehicle_type_id":"4","last_reported":1728411109,"current_range_meters":4400,"station_id":"ce4bgt92rcd13ifvqcg0","pricing_plan_id":"cebpf4jnsgd1na2vs0mg"},{"bike_id":"605cc2eb-6d8d-4c59-9a9a-24510fd5be62","system_id":"levelo_inurba_marseille","lat":43.24647,"lon":5.38898,"is_reserved":false,"is_disabled":false,"rental_uris":{"android":"levelo://app?vid=605cc2eb-6d8d-4c59-9a9a-24510fd5be62","ios":"levelo://app?vid=605cc2eb-6d8d-4c59-9a9a-24510fd5be62"},"vehicle_type_id":"4","last_reported":1728411109,"current_range_meters":19200,"station_id":"ce4bhg12rcd13ifvqf60","pricing_plan_id":"cebpf4jnsgd1na2vs0mg"},{"bike_id":"15866fac-d2ed-4861-a6ba-d07ae23d6b3f","system_id":"levelo_inurba_marseille","lat":43.2842,"lon":5.34987,"is_reserved":false,"is_disabled":false,"rental_uris":{"android":"levelo://app?vid=15866fac-d2ed-4861-a6ba-d07ae23d6b3f","ios":"levelo://app?vid=15866fac-d2ed-4861-a6ba-d07ae23d6b3f"},"vehicle_type_id":"4","last_reported":1728411109,"current_range_meters":38000,"station_id":"ce4bhbh2rcd13ifvqepg","pricing_plan_id":"cebpf4jnsgd1na2vs0mg"},{"bike_id":"edaf4b36-393a-4ca6-8e5f-35fb0a688fdc","system_id":"levelo_inurba_marseille","lat":43.27997,"lon":5.40014,"is_reserved":false,"is_disabled":false,"rental_uris":{"android":"levelo://app?vid=edaf4b36-393a-4ca6-8e5f-35fb0a688fdc","ios":"levelo://app?vid=edaf4b36-393a-4ca6-8e5f-35fb0a688fdc"},"vehicle_type_id":"4","last_reported":1728411109,"current_range_meters":10800,"station_id":"ce4bho92rcd13ifvqh4g","pricing_plan_id":"cebpf4jnsgd1na2vs0mg"},{"bike_id":"8ad55eee-602b-4949-a535-c4965d8587b5","system_id":"levelo_inurba_marseille","lat":43.31335,"lon":5.39699,"is_reserved":false,"is_disabled":false,"rental_uris":{"android":"levelo://app?vid=8ad55eee-602b-4949-a535-c4965d8587b5","ios":"levelo://app?vid=8ad55eee-602b-4949-a535-c4965d8587b5"},"vehicle_type_id":"4","last_reported":1728411109,"current_range_meters":39200,"station_id":"ce4bgvp2rcd13ifvqcu0","pricing_plan_id":"cebpf4jnsgd1na2vs0mg"},{"bike_id":"4230299b-aa81-4d3a-b457-3e58252c28cc","system_id":"levelo_inurba_marseille","lat":43.25723,"lon":5.4111,"is_reserved":false,"is_disabled":false,"rental_uris":{"android":"levelo://app?vid=4230299b-aa81-4d3a-b457-3e58252c28cc","ios":"levelo://app?vid=4230299b-aa81-4d3a-b457-3e58252c28cc"},"vehicle_type_id":"4","last_reported":1728411109,"current_range_meters":1600,"station_id":"ce4bhkp2rcd13ifvqgd0","pricing_plan_id":"cebpf4jnsgd1na2vs0mg"},{"bike_id":"b658c143-43b8-4433-a0d9-a48b3166f91e","system_id":"levelo_inurba_marseille","lat":43.31079,"lon":5.42433,"is_reserved":false,"is_disabled":false,"rental_uris":{"android":"levelo://app?vid=b658c143-43b8-4433-a0d9-a48b3166f91e","ios":"levelo://app?vid=b658c143-43b8-4433-a0d9-a48b3166f91e"},"vehicle_type_id":"4","last_reported":1728411109,"current_range_meters":12400,"station_id":"ce4bhp92rcd13ifvqhag","pricing_plan_id":"cebpf4jnsgd1na2vs0mg"},{"bike_id":"b5142c12-3f3f-452c-853c-bcb33ce12fbf","system_id":"levelo_inurba_marseille","lat":43.23193,"lon":5.35554,"is_reserved":false,"is_disabled":false,"rental_uris":{"android":"levelo://app?vid=b5142c12-3f3f-452c-853c-bcb33ce12fbf","ios":"levelo://app?vid=b5142c12-3f3f-452c-853c-bcb33ce12fbf"},"vehicle_type_id":"4","last_reported":1728411109,"current_range_meters":36800,"station_id":"ce4bhu92rcd13ifvqi70","pricing_plan_id":"cebpf4jnsgd1na2vs0mg"},{"bike_id":"21de6ba0-bc03-48e1-8d9f-f875bba9c5b9","system_id":"levelo_inurba_marseille","lat":43.30799,"lon":5.43523,"is_reserved":false,"is_disabled":false,"rental_uris":{"android":"levelo://app?vid=21de6ba0-bc03-48e1-8d9f-f875bba9c5b9","ios":"levelo://app?vid=21de6ba0-bc03-48e1-8d9f-f875bba9c5b9"},"vehicle_type_id":"4","last_reported":1728411109,"current_range_meters":11600,"station_id":"ce4bhph2rcd13ifvqheg","pricing_plan_id":"cebpf4jnsgd1na2vs0mg"},{"bike_id":"8e621ecf-c753-4548-a468-62b22e20d34e","system_id":"levelo_inurba_marseille","lat":43.28564,"lon":5.39497,"is_reserved":false,"is_disabled":false,"rental_uris":{"android":"levelo://app?vid=8e621ecf-c753-4548-a468-62b22e20d34e","ios":"levelo://app?vid=8e621ecf-c753-4548-a468-62b22e20d34e"},"vehicle_type_id":"4","last_reported":1728411109,"current_range_meters":6400,"station_id":"ce4bh292rcd13ifvqdg0","pricing_plan_id":"cebpf4jnsgd1na2vs0mg"},{"bike_id":"68fe04c0-5d75-45e6-beba-6d59590df5a2","system_id":"levelo_inurba_marseille","lat":43.30798,"lon":5.43522,"is_reserved":false,"is_disabled":false,"rental_uris":{"android":"levelo://app?vid=68fe04c0-5d75-45e6-beba-6d59590df5a2","ios":"levelo://app?vid=68fe04c0-5d75-45e6-beba-6d59590df5a2"},"vehicle_type_id":"4","last_reported":1728411109,"current_range_meters":9200,"station_id":"ce4bhph2rcd13ifvqheg","pricing_plan_id":"cebpf4jnsgd1na2vs0mg"},{"bike_id":"8e3669e3-0cc0-4473-bf2c-3229597f49cf","system_id":"levelo_inurba_marseille","lat":43.31177,"lon":5.38723,"is_reserved":false,"is_disabled":false,"rental_uris":{"android":"levelo://app?vid=8e3669e3-0cc0-4473-bf2c-3229597f49cf","ios":"levelo://app?vid=8e3669e3-0cc0-4473-bf2c-3229597f49cf"},"vehicle_type_id":"4","last_reported":1728411109,"current_range_meters":39200,"station_id":"ce4bgv12rcd13ifvqcp0","pricing_plan_id":"cebpf4jnsgd1na2vs0mg"},{"bike_id":"0de0d42b-a5f9-4a47-8a3c-7a17a3a62af0","system_id":"levelo_inurba_marseille","lat":43.29201,"lon":5.39303,"is_reserved":false,"is_disabled":false,"rental_uris":{"android":"levelo://app?vid=0de0d42b-a5f9-4a47-8a3c-7a17a3a62af0","ios":"levelo://app?vid=0de0d42b-a5f9-4a47-8a3c-7a17a3a62af0"},"vehicle_type_id":"4","last_reported":1728411109,"current_range_meters":10000,"station_id":"ce4bh192rcd13ifvqdd0","pricing_plan_id":"cebpf4jnsgd1na2vs0mg"},{"bike_id":"12b06a91-0302-45e4-8a90-0589d5e43c4b","system_id":"levelo_inurba_marseille","lat":43.30802,"lon":5.43525,"is_reserved":false,"is_disabled":false,"rental_uris":{"android":"levelo://app?vid=12b06a91-0302-45e4-8a90-0589d5e43c4b","ios":"levelo://app?vid=12b06a91-0302-45e4-8a90-0589d5e43c4b"},"vehicle_type_id":"4","last_reported":1728411109,"current_range_meters":30800,"station_id":"ce4bhph2rcd13ifvqheg","pricing_plan_id":"cebpf4jnsgd1na2vs0mg"},{"bike_id":"aebb02d1-357f-4fb1-8d6a-51d5b6ee158a","system_id":"levelo_inurba_marseille","lat":43.28957,"lon":5.36397,"is_reserved":false,"is_disabled":false,"rental_uris":{"android":"levelo://app?vid=aebb02d1-357f-4fb1-8d6a-51d5b6ee158a","ios":"levelo://app?vid=aebb02d1-357f-4fb1-8d6a-51d5b6ee158a"},"vehicle_type_id":"4","last_reported":1728411109,"current_range_meters":38400,"station_id":"ce4bhc92rcd13ifvqetg","pricing_plan_id":"cebpf4jnsgd1na2vs0mg"},{"bike_id":"33c6cb8e-ee03-4077-be79-05812af01969","system_id":"levelo_inurba_marseille","lat":43.29252,"lon":5.38447,"is_reserved":false,"is_disabled":false,"rental_uris":{"android":"levelo://app?vid=33c6cb8e-ee03-4077-be79-05812af01969","ios":"levelo://app?vid=33c6cb8e-ee03-4077-be79-05812af01969"},"vehicle_type_id":"4","last_reported":1728411109,"current_range_meters":14400,"station_id":"ce4bh692rcd13ifvqea0","pricing_plan_id":"cebpf4jnsgd1na2vs0mg"},{"bike_id":"0fa01937-7022-4390-85ff-df2f58fb1824","system_id":"levelo_inurba_marseille","lat":43.30273,"lon":5.36859,"is_reserved":false,"is_disabled":false,"rental_uris":{"android":"levelo://app?vid=0fa01937-7022-4390-85ff-df2f58fb1824","ios":"levelo://app?vid=0fa01937-7022-4390-85ff-df2f58fb1824"},"vehicle_type_id":"4","last_reported":1728411109,"current_range_meters":8400,"station_id":"ce4bgqh2rcd13ifvqc5g","pricing_plan_id":"cebpf4jnsgd1na2vs0mg"},{"bike_id":"017308ad-f481-4218-b7f9-5a36c9fab05f","system_id":"levelo_inurba_marseille","lat":43.23195,"lon":5.35554,"is_reserved":false,"is_disabled":false,"rental_uris":{"android":"levelo://app?vid=017308ad-f481-4218-b7f9-5a36c9fab05f","ios":"levelo://app?vid=017308ad-f481-4218-b7f9-5a36c9fab05f"},"vehicle_type_id":"4","last_reported":1728411109,"current_range_meters":22800,"station_id":"ce4bhu92rcd13ifvqi70","pricing_plan_id":"cebpf4jnsgd1na2vs0mg"},{"bike_id":"8e69303d-1d56-4a31-a345-c4fee51cf374","system_id":"levelo_inurba_marseille","lat":43.27964,"lon":5.38714,"is_reserved":false,"is_disabled":false,"rental_uris":{"android":"levelo://app?vid=8e69303d-1d56-4a31-a345-c4fee51cf374","ios":"levelo://app?vid=8e69303d-1d56-4a31-a345-c4fee51cf374"},"vehicle_type_id":"4","last_reported":1728411109,"current_range_meters":8800,"station_id":"ce4bhg12rcd13ifvqf80","pricing_plan_id":"cebpf4jnsgd1na2vs0mg"},{"bike_id":"aad9ed20-90dc-4e3a-9b4d-c90297afb60d","system_id":"levelo_inurba_marseille","lat":43.287,"lon":5.37397,"is_reserved":false,"is_disabled":false,"rental_uris":{"android":"levelo://app?vid=aad9ed20-90dc-4e3a-9b4d-c90297afb60d","ios":"levelo://app?vid=aad9ed20-90dc-4e3a-9b4d-c90297afb60d"},"vehicle_type_id":"4","last_reported":1728411109,"current_range_meters":18800,"station_id":"ce4bh3p2rcd13ifvqdq0","pricing_plan_id":"cebpf4jnsgd1na2vs0mg"},{"bike_id":"38cc6d4a-4f2e-4c02-ad1e-aa9224bedc33","system_id":"levelo_inurba_marseille","lat":43.23191,"lon":5.35557,"is_reserved":false,"is_disabled":false,"rental_uris":{"android":"levelo://app?vid=38cc6d4a-4f2e-4c02-ad1e-aa9224bedc33","ios":"levelo://app?vid=38cc6d4a-4f2e-4c02-ad1e-aa9224bedc33"},"vehicle_type_id":"4","last_reported":1728411109,"current_range_meters":9200,"station_id":"ce4bhu92rcd13ifvqi70","pricing_plan_id":"cebpf4jnsgd1na2vs0mg"},{"bike_id":"a92f6206-1720-4e29-9ed4-ca1db6a5dc4b","system_id":"levelo_inurba_marseille","lat":43.29781,"lon":5.37418,"is_reserved":false,"is_disabled":false,"rental_uris":{"android":"levelo://app?vid=a92f6206-1720-4e29-9ed4-ca1db6a5dc4b","ios":"levelo://app?vid=a92f6206-1720-4e29-9ed4-ca1db6a5dc4b"},"vehicle_type_id":"4","last_reported":1728411109,"current_range_meters":25600,"station_id":"","pricing_plan_id":"cebpf4jnsgd1na2vs0mg"},{"bike_id":"4ab9f254-ccb8-4e88-87f7-c1bcee3c3514","system_id":"levelo_inurba_marseille","lat":43.23964,"lon":5.36643,"is_reserved":false,"is_disabled":false,"rental_uris":{"android":"levelo://app?vid=4ab9f254-ccb8-4e88-87f7-c1bcee3c3514","ios":"levelo://app?vid=4ab9f254-ccb8-4e88-87f7-c1bcee3c3514"},"vehicle_type_id":"4","last_reported":1728411109,"current_range_meters":24000,"station_id":"ce4bhi12rcd13ifvqfp0","pricing_plan_id":"cebpf4jnsgd1na2vs0mg"},{"bike_id":"81804227-c392-4016-b67b-f2ce4b764b97","system_id":"levelo_inurba_marseille","lat":43.28446,"lon":5.35891,"is_reserved":false,"is_disabled":false,"rental_uris":{"android":"levelo://app?vid=81804227-c392-4016-b67b-f2ce4b764b97","ios":"levelo://app?vid=81804227-c392-4016-b67b-f2ce4b764b97"},"vehicle_type_id":"4","last_reported":1728411109,"current_range_meters":27600,"station_id":"ce4bhah2rcd13ifvqei0","pricing_plan_id":"cebpf4jnsgd1na2vs0mg"},{"bike_id":"a103c205-044b-4cf8-a6d8-1e655be6de8c","system_id":"levelo_inurba_marseille","lat":43.27624,"lon":5.36111,"is_reserved":false,"is_disabled":false,"rental_uris":{"android":"levelo://app?vid=a103c205-044b-4cf8-a6d8-1e655be6de8c","ios":"levelo://app?vid=a103c205-044b-4cf8-a6d8-1e655be6de8c"},"vehicle_type_id":"4","last_reported":1728411109,"current_range_meters":22800,"station_id":"ce4bgj92rcd13ifvqbe0","pricing_plan_id":"cebpf4jnsgd1na2vs0mg"},{"bike_id":"62b6d635-7bcb-41a7-b9d5-21dbc57fd938","system_id":"levelo_inurba_marseille","lat":43.28893,"lon":5.37409,"is_reserved":false,"is_disabled":false,"rental_uris":{"android":"levelo://app?vid=62b6d635-7bcb-41a7-b9d5-21dbc57fd938","ios":"levelo://app?vid=62b6d635-7bcb-41a7-b9d5-21dbc57fd938"},"vehicle_type_id":"4","last_reported":1728411109,"current_range_meters":34800,"station_id":"","pricing_plan_id":"cebpf4jnsgd1na2vs0mg"},{"bike_id":"a6da7fc6-409b-477e-8547-2843b022eb86","system_id":"levelo_inurba_marseille","lat":43.28474,"lon":5.38419,"is_reserved":false,"is_disabled":false,"rental_uris":{"android":"levelo://app?vid=a6da7fc6-409b-477e-8547-2843b022eb86","ios":"levelo://app?vid=a6da7fc6-409b-477e-8547-2843b022eb86"},"vehicle_type_id":"4","last_reported":1728411109,"current_range_meters":18000,"station_id":"ce4bh512rcd13ifvqe3g","pricing_plan_id":"cebpf4jnsgd1na2vs0mg"},{"bike_id":"69a7fe48-1b98-4d4e-b632-6dfbf855442a","system_id":"levelo_inurba_marseille","lat":43.31719,"lon":5.43709,"is_reserved":false,"is_disabled":false,"rental_uris":{"android":"levelo://app?vid=69a7fe48-1b98-4d4e-b632-6dfbf855442a","ios":"levelo://app?vid=69a7fe48-1b98-4d4e-b632-6dfbf855442a"},"vehicle_type_id":"4","last_reported":1728411109,"current_range_meters":30800,"station_id":"ce4bhp92rcd13ifvqhcg","pricing_plan_id":"cebpf4jnsgd1na2vs0mg"},{"bike_id":"9c81f915-8f39-4345-92ed-f7597737b221","system_id":"levelo_inurba_marseille","lat":43.299667,"lon":5.384899,"is_reserved":false,"is_disabled":false,"rental_uris":{"android":"levelo://app?vid=9c81f915-8f39-4345-92ed-f7597737b221","ios":"levelo://app?vid=9c81f915-8f39-4345-92ed-f7597737b221"},"vehicle_type_id":"4","last_reported":1728411109,"current_range_meters":11200,"station_id":"ce4bgj92rcd13ifvqbd0","pricing_plan_id":"cebpf4jnsgd1na2vs0mg"},{"bike_id":"cf927195-cafe-4fe6-8a9b-b503bf9be2b0","system_id":"levelo_inurba_marseille","lat":43.23187,"lon":5.3999,"is_reserved":false,"is_disabled":false,"rental_uris":{"android":"levelo://app?vid=cf927195-cafe-4fe6-8a9b-b503bf9be2b0","ios":"levelo://app?vid=cf927195-cafe-4fe6-8a9b-b503bf9be2b0"},"vehicle_type_id":"4","last_reported":1728411109,"current_range_meters":36000,"station_id":"ce4bhn12rcd13ifvqgqg","pricing_plan_id":"cebpf4jnsgd1na2vs0mg"},{"bike_id":"0b08e9ea-38c4-484f-a0b4-2a1cbff6f2f0","system_id":"levelo_inurba_marseille","lat":43.2798,"lon":5.40021,"is_reserved":false,"is_disabled":false,"rental_uris":{"android":"levelo://app?vid=0b08e9ea-38c4-484f-a0b4-2a1cbff6f2f0","ios":"levelo://app?vid=0b08e9ea-38c4-484f-a0b4-2a1cbff6f2f0"},"vehicle_type_id":"4","last_reported":1728411109,"current_range_meters":6800,"station_id":"ce4bho92rcd13ifvqh4g","pricing_plan_id":"cebpf4jnsgd1na2vs0mg"},{"bike_id":"36562ff1-771d-4cc0-9436-3830efb31211","system_id":"levelo_inurba_marseille","lat":43.3075,"lon":5.38221,"is_reserved":false,"is_disabled":false,"rental_uris":{"android":"levelo://app?vid=36562ff1-771d-4cc0-9436-3830efb31211","ios":"levelo://app?vid=36562ff1-771d-4cc0-9436-3830efb31211"},"vehicle_type_id":"4","last_reported":1728411109,"current_range_meters":3200,"station_id":"","pricing_plan_id":"cebpf4jnsgd1na2vs0mg"},{"bike_id":"f25c3320-3c59-4058-a283-2b0b09b21a7a","system_id":"levelo_inurba_marseille","lat":43.27177,"lon":5.410018,"is_reserved":false,"is_disabled":false,"rental_uris":{"android":"levelo://app?vid=f25c3320-3c59-4058-a283-2b0b09b21a7a","ios":"levelo://app?vid=f25c3320-3c59-4058-a283-2b0b09b21a7a"},"vehicle_type_id":"4","last_reported":1728411109,"current_range_meters":12400,"station_id":"ce4bhl12rcd13ifvqgf0","pricing_plan_id":"cebpf4jnsgd1na2vs0mg"},{"bike_id":"b5413c6b-2eb7-481e-a783-45109571f5ca","system_id":"levelo_inurba_marseille","lat":43.29196,"lon":5.3931,"is_reserved":false,"is_disabled":false,"rental_uris":{"android":"levelo://app?vid=b5413c6b-2eb7-481e-a783-45109571f5ca","ios":"levelo://app?vid=b5413c6b-2eb7-481e-a783-45109571f5ca"},"vehicle_type_id":"4","last_reported":1728411109,"current_range_meters":37600,"station_id":"ce4bh192rcd13ifvqdd0","pricing_plan_id":"cebpf4jnsgd1na2vs0mg"},{"bike_id":"9a9df624-1549-41fb-b7f5-bd4059f46f71","system_id":"levelo_inurba_marseille","lat":43.3176,"lon":5.39017,"is_reserved":false,"is_disabled":false,"rental_uris":{"android":"levelo://app?vid=9a9df624-1549-41fb-b7f5-bd4059f46f71","ios":"levelo://app?vid=9a9df624-1549-41fb-b7f5-bd4059f46f71"},"vehicle_type_id":"4","last_reported":1728411109,"current_range_meters":27200,"station_id":"ce4bhqp2rcd13ifvqhng","pricing_plan_id":"cebpf4jnsgd1na2vs0mg"},{"bike_id":"39585e24-9284-4558-bd63-27a4a9dd3a64","system_id":"levelo_inurba_marseille","lat":43.25578,"lon":5.38235,"is_reserved":false,"is_disabled":false,"rental_uris":{"android":"levelo://app?vid=39585e24-9284-4558-bd63-27a4a9dd3a64","ios":"levelo://app?vid=39585e24-9284-4558-bd63-27a4a9dd3a64"},"vehicle_type_id":"4","last_reported":1728411109,"current_range_meters":12800,"station_id":"ce4bhih2rcd13ifvqfs0","pricing_plan_id":"cebpf4jnsgd1na2vs0mg"},{"bike_id":"f276946a-c301-4fd8-9ee9-b3ea2a208df0","system_id":"levelo_inurba_marseille","lat":43.230657,"lon":5.354902,"is_reserved":false,"is_disabled":false,"rental_uris":{"android":"levelo://app?vid=f276946a-c301-4fd8-9ee9-b3ea2a208df0","ios":"levelo://app?vid=f276946a-c301-4fd8-9ee9-b3ea2a208df0"},"vehicle_type_id":"4","last_reported":1728411109,"current_range_meters":24000,"station_id":"cpo3342slgdg3j2ifvpg","pricing_plan_id":"cebpf4jnsgd1na2vs0mg"},{"bike_id":"6b5fc0c1-fdb2-4345-a75b-43b7d106abdf","system_id":"levelo_inurba_marseille","lat":43.33014,"lon":5.39033,"is_reserved":false,"is_disabled":false,"rental_uris":{"android":"levelo://app?vid=6b5fc0c1-fdb2-4345-a75b-43b7d106abdf","ios":"levelo://app?vid=6b5fc0c1-fdb2-4345-a75b-43b7d106abdf"},"vehicle_type_id":"4","last_reported":1728411109,"current_range_meters":17600,"station_id":"ce4bhr92rcd13ifvqhrg","pricing_plan_id":"cebpf4jnsgd1na2vs0mg"},{"bike_id":"fdbba320-a6cf-4fc7-b301-59b70f76cfca","system_id":"levelo_inurba_marseille","lat":43.25571,"lon":5.38232,"is_reserved":false,"is_disabled":false,"rental_uris":{"android":"levelo://app?vid=fdbba320-a6cf-4fc7-b301-59b70f76cfca","ios":"levelo://app?vid=fdbba320-a6cf-4fc7-b301-59b70f76cfca"},"vehicle_type_id":"4","last_reported":1728411109,"current_range_meters":36800,"station_id":"ce4bhih2rcd13ifvqfs0","pricing_plan_id":"cebpf4jnsgd1na2vs0mg"},{"bike_id":"a4b2cd17-81f7-4944-8c95-01556405294e","system_id":"levelo_inurba_marseille","lat":43.29539,"lon":5.39412,"is_reserved":false,"is_disabled":false,"rental_uris":{"android":"levelo://app?vid=a4b2cd17-81f7-4944-8c95-01556405294e","ios":"levelo://app?vid=a4b2cd17-81f7-4944-8c95-01556405294e"},"vehicle_type_id":"4","last_reported":1728411109,"current_range_meters":5600,"station_id":"ce4bh292rcd13ifvqdf0","pricing_plan_id":"cebpf4jnsgd1na2vs0mg"},{"bike_id":"7dd2b730-0652-4745-ba05-6d87d9c8a288","system_id":"levelo_inurba_marseille","lat":43.26937,"lon":5.40256,"is_reserved":false,"is_disabled":false,"rental_uris":{"android":"levelo://app?vid=7dd2b730-0652-4745-ba05-6d87d9c8a288","ios":"levelo://app?vid=7dd2b730-0652-4745-ba05-6d87d9c8a288"},"vehicle_type_id":"4","last_reported":1728411109,"current_range_meters":6800,"station_id":"cjm6bp8fraef2m0cb0m0","pricing_plan_id":"cebpf4jnsgd1na2vs0mg"},{"bike_id":"1630ad36-5000-4e74-8c8a-59c9f27373d0","system_id":"levelo_inurba_marseille","lat":43.3108,"lon":5.4243,"is_reserved":false,"is_disabled":false,"rental_uris":{"android":"levelo://app?vid=1630ad36-5000-4e74-8c8a-59c9f27373d0","ios":"levelo://app?vid=1630ad36-5000-4e74-8c8a-59c9f27373d0"},"vehicle_type_id":"4","last_reported":1728411109,"current_range_meters":7200,"station_id":"ce4bhp92rcd13ifvqhag","pricing_plan_id":"cebpf4jnsgd1na2vs0mg"},{"bike_id":"41b22edd-268c-4222-88bf-f8ef11dd1399","system_id":"levelo_inurba_marseille","lat":43.27997,"lon":5.40025,"is_reserved":false,"is_disabled":false,"rental_uris":{"android":"levelo://app?vid=41b22edd-268c-4222-88bf-f8ef11dd1399","ios":"levelo://app?vid=41b22edd-268c-4222-88bf-f8ef11dd1399"},"vehicle_type_id":"4","last_reported":1728411109,"current_range_meters":26000,"station_id":"ce4bho92rcd13ifvqh4g","pricing_plan_id":"cebpf4jnsgd1na2vs0mg"},{"bike_id":"5102b9e4-fde6-452f-9071-58db3beb671c","system_id":"levelo_inurba_marseille","lat":43.28003,"lon":5.40019,"is_reserved":false,"is_disabled":false,"rental_uris":{"android":"levelo://app?vid=5102b9e4-fde6-452f-9071-58db3beb671c","ios":"levelo://app?vid=5102b9e4-fde6-452f-9071-58db3beb671c"},"vehicle_type_id":"4","last_reported":1728411109,"current_range_meters":3200,"station_id":"ce4bho92rcd13ifvqh4g","pricing_plan_id":"cebpf4jnsgd1na2vs0mg"},{"bike_id":"652ea6b0-0568-4c2d-ae7b-676bb46190fb","system_id":"levelo_inurba_marseille","lat":43.29553,"lon":5.42287,"is_reserved":false,"is_disabled":false,"rental_uris":{"android":"levelo://app?vid=652ea6b0-0568-4c2d-ae7b-676bb46190fb","ios":"levelo://app?vid=652ea6b0-0568-4c2d-ae7b-676bb46190fb"},"vehicle_type_id":"4","last_reported":1728411109,"current_range_meters":6800,"station_id":"ce4bhph2rcd13ifvqhdg","pricing_plan_id":"cebpf4jnsgd1na2vs0mg"},{"bike_id":"de79306a-0a0d-4221-aeea-7d130240c030","system_id":"levelo_inurba_marseille","lat":43.29592,"lon":5.38108,"is_reserved":false,"is_disabled":false,"rental_uris":{"android":"levelo://app?vid=de79306a-0a0d-4221-aeea-7d130240c030","ios":"levelo://app?vid=de79306a-0a0d-4221-aeea-7d130240c030"},"vehicle_type_id":"4","last_reported":1728411109,"current_range_meters":11200,"station_id":"ce4bgl12rcd13ifvqbo0","pricing_plan_id":"cebpf4jnsgd1na2vs0mg"},{"bike_id":"3b80fc05-b2f9-416d-b897-bf4de0c4afc1","system_id":"levelo_inurba_marseille","lat":43.27996,"lon":5.40006,"is_reserved":false,"is_disabled":false,"rental_uris":{"android":"levelo://app?vid=3b80fc05-b2f9-416d-b897-bf4de0c4afc1","ios":"levelo://app?vid=3b80fc05-b2f9-416d-b897-bf4de0c4afc1"},"vehicle_type_id":"4","last_reported":1728411109,"current_range_meters":6800,"station_id":"ce4bho92rcd13ifvqh4g","pricing_plan_id":"cebpf4jnsgd1na2vs0mg"},{"bike_id":"9f249347-75e4-47cc-bbf5-03b5e106bc17","system_id":"levelo_inurba_marseille","lat":43.28453,"lon":5.35897,"is_reserved":false,"is_disabled":false,"rental_uris":{"android":"levelo://app?vid=9f249347-75e4-47cc-bbf5-03b5e106bc17","ios":"levelo://app?vid=9f249347-75e4-47cc-bbf5-03b5e106bc17"},"vehicle_type_id":"4","last_reported":1728411109,"current_range_meters":34000,"station_id":"ce4bhah2rcd13ifvqei0","pricing_plan_id":"cebpf4jnsgd1na2vs0mg"},{"bike_id":"4a489799-c7fc-4b6a-befb-18b51c7cac5c","system_id":"levelo_inurba_marseille","lat":43.31327,"lon":5.39704,"is_reserved":false,"is_disabled":false,"rental_uris":{"android":"levelo://app?vid=4a489799-c7fc-4b6a-befb-18b51c7cac5c","ios":"levelo://app?vid=4a489799-c7fc-4b6a-befb-18b51c7cac5c"},"vehicle_type_id":"4","last_reported":1728411109,"current_range_meters":20400,"station_id":"ce4bgvp2rcd13ifvqcu0","pricing_plan_id":"cebpf4jnsgd1na2vs0mg"},{"bike_id":"14aa3b67-793f-4fe5-8f3b-eb595e5d1c4d","system_id":"levelo_inurba_marseille","lat":43.32239,"lon":5.3866,"is_reserved":false,"is_disabled":false,"rental_uris":{"android":"levelo://app?vid=14aa3b67-793f-4fe5-8f3b-eb595e5d1c4d","ios":"levelo://app?vid=14aa3b67-793f-4fe5-8f3b-eb595e5d1c4d"},"vehicle_type_id":"4","last_reported":1728411109,"current_range_meters":18000,"station_id":"","pricing_plan_id":"cebpf4jnsgd1na2vs0mg"},{"bike_id":"e6d86d2f-929e-412d-b639-89761e6c74e0","system_id":"levelo_inurba_marseille","lat":43.337444,"lon":5.374475,"is_reserved":false,"is_disabled":false,"rental_uris":{"android":"levelo://app?vid=e6d86d2f-929e-412d-b639-89761e6c74e0","ios":"levelo://app?vid=e6d86d2f-929e-412d-b639-89761e6c74e0"},"vehicle_type_id":"4","last_reported":1728411109,"current_range_meters":29600,"station_id":"","pricing_plan_id":"cebpf4jnsgd1na2vs0mg"},{"bike_id":"d238b024-ab62-4ce1-871d-0c21a1a307a2","system_id":"levelo_inurba_marseille","lat":43.27992,"lon":5.40021,"is_reserved":false,"is_disabled":false,"rental_uris":{"android":"levelo://app?vid=d238b024-ab62-4ce1-871d-0c21a1a307a2","ios":"levelo://app?vid=d238b024-ab62-4ce1-871d-0c21a1a307a2"},"vehicle_type_id":"4","last_reported":1728411109,"current_range_meters":7200,"station_id":"ce4bho92rcd13ifvqh4g","pricing_plan_id":"cebpf4jnsgd1na2vs0mg"},{"bike_id":"faa76c66-9da5-41c1-afec-f0c38264aa94","system_id":"levelo_inurba_marseille","lat":43.22932,"lon":5.3538,"is_reserved":false,"is_disabled":false,"rental_uris":{"android":"levelo://app?vid=faa76c66-9da5-41c1-afec-f0c38264aa94","ios":"levelo://app?vid=faa76c66-9da5-41c1-afec-f0c38264aa94"},"vehicle_type_id":"4","last_reported":1728411109,"current_range_meters":27200,"station_id":"cpo3532slgdg3j2ikp40","pricing_plan_id":"cebpf4jnsgd1na2vs0mg"},{"bike_id":"49f0e0ea-c145-4a27-a696-4b9292527b15","system_id":"levelo_inurba_marseille","lat":43.28102,"lon":5.37835,"is_reserved":false,"is_disabled":false,"rental_uris":{"android":"levelo://app?vid=49f0e0ea-c145-4a27-a696-4b9292527b15","ios":"levelo://app?vid=49f0e0ea-c145-4a27-a696-4b9292527b15"},"vehicle_type_id":"4","last_reported":1728411109,"current_range_meters":4400,"station_id":"ce4bha12rcd13ifvqee0","pricing_plan_id":"cebpf4jnsgd1na2vs0mg"},{"bike_id":"ee3fb93f-6ce1-4017-a20b-a68b1249cf58","system_id":"levelo_inurba_marseille","lat":43.31753,"lon":5.39017,"is_reserved":false,"is_disabled":false,"rental_uris":{"android":"levelo://app?vid=ee3fb93f-6ce1-4017-a20b-a68b1249cf58","ios":"levelo://app?vid=ee3fb93f-6ce1-4017-a20b-a68b1249cf58"},"vehicle_type_id":"4","last_reported":1728411109,"current_range_meters":28800,"station_id":"ce4bhqp2rcd13ifvqhng","pricing_plan_id":"cebpf4jnsgd1na2vs0mg"},{"bike_id":"aaaa9c8e-18c3-4178-bed9-eb45aaeb3ccd","system_id":"levelo_inurba_marseille","lat":43.33026,"lon":5.39036,"is_reserved":false,"is_disabled":false,"rental_uris":{"android":"levelo://app?vid=aaaa9c8e-18c3-4178-bed9-eb45aaeb3ccd","ios":"levelo://app?vid=aaaa9c8e-18c3-4178-bed9-eb45aaeb3ccd"},"vehicle_type_id":"4","last_reported":1728411109,"current_range_meters":22800,"station_id":"ce4bhr92rcd13ifvqhrg","pricing_plan_id":"cebpf4jnsgd1na2vs0mg"},{"bike_id":"c190b4a1-ea1d-47e2-b2e8-eefa3099f9cc","system_id":"levelo_inurba_marseille","lat":43.23193,"lon":5.35551,"is_reserved":false,"is_disabled":false,"rental_uris":{"android":"levelo://app?vid=c190b4a1-ea1d-47e2-b2e8-eefa3099f9cc","ios":"levelo://app?vid=c190b4a1-ea1d-47e2-b2e8-eefa3099f9cc"},"vehicle_type_id":"4","last_reported":1728411109,"current_range_meters":34800,"station_id":"ce4bhu92rcd13ifvqi70","pricing_plan_id":"cebpf4jnsgd1na2vs0mg"},{"bike_id":"a5c0c595-4a4e-4656-ad80-bbb71d8442fa","system_id":"levelo_inurba_marseille","lat":43.29526,"lon":5.38544,"is_reserved":false,"is_disabled":false,"rental_uris":{"android":"levelo://app?vid=a5c0c595-4a4e-4656-ad80-bbb71d8442fa","ios":"levelo://app?vid=a5c0c595-4a4e-4656-ad80-bbb71d8442fa"},"vehicle_type_id":"4","last_reported":1728411109,"current_range_meters":30400,"station_id":"ce4bgih2rcd13ifvqba0","pricing_plan_id":"cebpf4jnsgd1na2vs0mg"},{"bike_id":"ff5ba5ff-b9bc-44eb-9be7-e35bd733d917","system_id":"levelo_inurba_marseille","lat":43.24164,"lon":5.36397,"is_reserved":false,"is_disabled":false,"rental_uris":{"android":"levelo://app?vid=ff5ba5ff-b9bc-44eb-9be7-e35bd733d917","ios":"levelo://app?vid=ff5ba5ff-b9bc-44eb-9be7-e35bd733d917"},"vehicle_type_id":"4","last_reported":1728411109,"current_range_meters":36000,"station_id":"cpo36qri1sfpv3e86is0","pricing_plan_id":"cebpf4jnsgd1na2vs0mg"},{"bike_id":"2a75358c-c53d-4d85-b84f-ba43cbf3d3c3","system_id":"levelo_inurba_marseille","lat":43.337444,"lon":5.374475,"is_reserved":false,"is_disabled":false,"rental_uris":{"android":"levelo://app?vid=2a75358c-c53d-4d85-b84f-ba43cbf3d3c3","ios":"levelo://app?vid=2a75358c-c53d-4d85-b84f-ba43cbf3d3c3"},"vehicle_type_id":"4","last_reported":1728411109,"current_range_meters":36400,"station_id":"","pricing_plan_id":"cebpf4jnsgd1na2vs0mg"},{"bike_id":"ac58df12-f2ce-4383-9148-da362a7c68ed","system_id":"levelo_inurba_marseille","lat":43.26956,"lon":5.38632,"is_reserved":false,"is_disabled":false,"rental_uris":{"android":"levelo://app?vid=ac58df12-f2ce-4383-9148-da362a7c68ed","ios":"levelo://app?vid=ac58df12-f2ce-4383-9148-da362a7c68ed"},"vehicle_type_id":"4","last_reported":1728411109,"current_range_meters":28400,"station_id":"ce4bhh92rcd13ifvqfh0","pricing_plan_id":"cebpf4jnsgd1na2vs0mg"},{"bike_id":"8620e8cd-2749-499e-af55-7e8d2937bbf9","system_id":"levelo_inurba_marseille","lat":43.290098,"lon":5.398619,"is_reserved":false,"is_disabled":false,"rental_uris":{"android":"levelo://app?vid=8620e8cd-2749-499e-af55-7e8d2937bbf9","ios":"levelo://app?vid=8620e8cd-2749-499e-af55-7e8d2937bbf9"},"vehicle_type_id":"4","last_reported":1728411109,"current_range_meters":24000,"station_id":"ce4bh9p2rcd13ifvqec0","pricing_plan_id":"cebpf4jnsgd1na2vs0mg"},{"bike_id":"c4063bb4-e98b-48fe-8a9a-6decedc0ec30","system_id":"levelo_inurba_marseille","lat":43.33019,"lon":5.39046,"is_reserved":false,"is_disabled":false,"rental_uris":{"android":"levelo://app?vid=c4063bb4-e98b-48fe-8a9a-6decedc0ec30","ios":"levelo://app?vid=c4063bb4-e98b-48fe-8a9a-6decedc0ec30"},"vehicle_type_id":"4","last_reported":1728411109,"current_range_meters":39200,"station_id":"ce4bhr92rcd13ifvqhrg","pricing_plan_id":"cebpf4jnsgd1na2vs0mg"},{"bike_id":"a7e4cdb1-1baf-425b-a401-b9ea02bc6745","system_id":"levelo_inurba_marseille","lat":43.31485,"lon":5.37305,"is_reserved":false,"is_disabled":false,"rental_uris":{"android":"levelo://app?vid=a7e4cdb1-1baf-425b-a401-b9ea02bc6745","ios":"levelo://app?vid=a7e4cdb1-1baf-425b-a401-b9ea02bc6745"},"vehicle_type_id":"4","last_reported":1728411109,"current_range_meters":30800,"station_id":"ce4bgt12rcd13ifvqcd0","pricing_plan_id":"cebpf4jnsgd1na2vs0mg"},{"bike_id":"f6a8c21d-b1f0-4240-bb8d-db34231d6f88","system_id":"levelo_inurba_marseille","lat":43.27994,"lon":5.40016,"is_reserved":false,"is_disabled":false,"rental_uris":{"android":"levelo://app?vid=f6a8c21d-b1f0-4240-bb8d-db34231d6f88","ios":"levelo://app?vid=f6a8c21d-b1f0-4240-bb8d-db34231d6f88"},"vehicle_type_id":"4","last_reported":1728411109,"current_range_meters":8400,"station_id":"ce4bho92rcd13ifvqh4g","pricing_plan_id":"cebpf4jnsgd1na2vs0mg"},{"bike_id":"11c99db9-81a3-4460-aeb0-48664bb8f780","system_id":"levelo_inurba_marseille","lat":43.28706,"lon":5.37396,"is_reserved":false,"is_disabled":false,"rental_uris":{"android":"levelo://app?vid=11c99db9-81a3-4460-aeb0-48664bb8f780","ios":"levelo://app?vid=11c99db9-81a3-4460-aeb0-48664bb8f780"},"vehicle_type_id":"4","last_reported":1728411109,"current_range_meters":28400,"station_id":"ce4bh3p2rcd13ifvqdq0","pricing_plan_id":"cebpf4jnsgd1na2vs0mg"},{"bike_id":"12d9157a-0426-4d97-95a6-f9e86bc15b89","system_id":"levelo_inurba_marseille","lat":43.22932,"lon":5.3538,"is_reserved":false,"is_disabled":false,"rental_uris":{"android":"levelo://app?vid=12d9157a-0426-4d97-95a6-f9e86bc15b89","ios":"levelo://app?vid=12d9157a-0426-4d97-95a6-f9e86bc15b89"},"vehicle_type_id":"4","last_reported":1728411109,"current_range_meters":24800,"station_id":"cpo3532slgdg3j2ikp40","pricing_plan_id":"cebpf4jnsgd1na2vs0mg"},{"bike_id":"000e46b4-74c7-4956-8887-4004c2527d6b","system_id":"levelo_inurba_marseille","lat":43.27993,"lon":5.40016,"is_reserved":false,"is_disabled":false,"rental_uris":{"android":"levelo://app?vid=000e46b4-74c7-4956-8887-4004c2527d6b","ios":"levelo://app?vid=000e46b4-74c7-4956-8887-4004c2527d6b"},"vehicle_type_id":"4","last_reported":1728411109,"current_range_meters":38800,"station_id":"ce4bho92rcd13ifvqh4g","pricing_plan_id":"cebpf4jnsgd1na2vs0mg"},{"bike_id":"3442f4f8-3418-4707-a955-0fe858fe5b6b","system_id":"levelo_inurba_marseille","lat":43.27809,"lon":5.40741,"is_reserved":false,"is_disabled":false,"rental_uris":{"android":"levelo://app?vid=3442f4f8-3418-4707-a955-0fe858fe5b6b","ios":"levelo://app?vid=3442f4f8-3418-4707-a955-0fe858fe5b6b"},"vehicle_type_id":"4","last_reported":1728411109,"current_range_meters":20800,"station_id":"ce4bhnh2rcd13ifvqgtg","pricing_plan_id":"cebpf4jnsgd1na2vs0mg"},{"bike_id":"e17a4c47-2b5e-44d5-9520-7cd2603998f2","system_id":"levelo_inurba_marseille","lat":43.23959,"lon":5.36632,"is_reserved":false,"is_disabled":false,"rental_uris":{"android":"levelo://app?vid=e17a4c47-2b5e-44d5-9520-7cd2603998f2","ios":"levelo://app?vid=e17a4c47-2b5e-44d5-9520-7cd2603998f2"},"vehicle_type_id":"4","last_reported":1728411109,"current_range_meters":24400,"station_id":"ce4bhi12rcd13ifvqfp0","pricing_plan_id":"cebpf4jnsgd1na2vs0mg"},{"bike_id":"b625834a-54ef-4eab-8c9d-e8c85e149a97","system_id":"levelo_inurba_marseille","lat":43.31081,"lon":5.4243,"is_reserved":false,"is_disabled":false,"rental_uris":{"android":"levelo://app?vid=b625834a-54ef-4eab-8c9d-e8c85e149a97","ios":"levelo://app?vid=b625834a-54ef-4eab-8c9d-e8c85e149a97"},"vehicle_type_id":"4","last_reported":1728411109,"current_range_meters":36400,"station_id":"ce4bhp92rcd13ifvqhag","pricing_plan_id":"cebpf4jnsgd1na2vs0mg"},{"bike_id":"7b02ace1-e6fd-4550-964e-732a181f3e8c","system_id":"levelo_inurba_marseille","lat":43.26211,"lon":5.37443,"is_reserved":false,"is_disabled":false,"rental_uris":{"android":"levelo://app?vid=7b02ace1-e6fd-4550-964e-732a181f3e8c","ios":"levelo://app?vid=7b02ace1-e6fd-4550-964e-732a181f3e8c"},"vehicle_type_id":"4","last_reported":1728411109,"current_range_meters":6800,"station_id":"ce4bhgp2rcd13ifvqfc0","pricing_plan_id":"cebpf4jnsgd1na2vs0mg"},{"bike_id":"a195b9a0-6c51-4858-a719-77b417937247","system_id":"levelo_inurba_marseille","lat":43.27988,"lon":5.40025,"is_reserved":false,"is_disabled":false,"rental_uris":{"android":"levelo://app?vid=a195b9a0-6c51-4858-a719-77b417937247","ios":"levelo://app?vid=a195b9a0-6c51-4858-a719-77b417937247"},"vehicle_type_id":"4","last_reported":1728411109,"current_range_meters":35200,"station_id":"ce4bho92rcd13ifvqh4g","pricing_plan_id":"cebpf4jnsgd1na2vs0mg"},{"bike_id":"82d2fa87-5a00-4089-9735-c0b02a59b444","system_id":"levelo_inurba_marseille","lat":43.30542,"lon":5.391857,"is_reserved":false,"is_disabled":false,"rental_uris":{"android":"levelo://app?vid=82d2fa87-5a00-4089-9735-c0b02a59b444","ios":"levelo://app?vid=82d2fa87-5a00-4089-9735-c0b02a59b444"},"vehicle_type_id":"4","last_reported":1728411109,"current_range_meters":10800,"station_id":"ce4bh0h2rcd13ifvqd40","pricing_plan_id":"cebpf4jnsgd1na2vs0mg"},{"bike_id":"4928bfd1-cdc8-4a77-b677-eccb8ebb7db0","system_id":"levelo_inurba_marseille","lat":43.25825,"lon":5.39436,"is_reserved":false,"is_disabled":false,"rental_uris":{"android":"levelo://app?vid=4928bfd1-cdc8-4a77-b677-eccb8ebb7db0","ios":"levelo://app?vid=4928bfd1-cdc8-4a77-b677-eccb8ebb7db0"},"vehicle_type_id":"4","last_reported":1728411109,"current_range_meters":4000,"station_id":"ce4bhip2rcd13ifvqft0","pricing_plan_id":"cebpf4jnsgd1na2vs0mg"},{"bike_id":"2ab6354b-4e96-43be-aedc-8cc67130aacd","system_id":"levelo_inurba_marseille","lat":43.30318,"lon":5.40444,"is_reserved":false,"is_disabled":false,"rental_uris":{"android":"levelo://app?vid=2ab6354b-4e96-43be-aedc-8cc67130aacd","ios":"levelo://app?vid=2ab6354b-4e96-43be-aedc-8cc67130aacd"},"vehicle_type_id":"4","last_reported":1728411109,"current_range_meters":36400,"station_id":"ce4bh012rcd13ifvqd10","pricing_plan_id":"cebpf4jnsgd1na2vs0mg"},{"bike_id":"bc865ca1-2a5b-44fe-b3dd-04aadccb155c","system_id":"levelo_inurba_marseille","lat":43.26799,"lon":5.4027,"is_reserved":false,"is_disabled":false,"rental_uris":{"android":"levelo://app?vid=bc865ca1-2a5b-44fe-b3dd-04aadccb155c","ios":"levelo://app?vid=bc865ca1-2a5b-44fe-b3dd-04aadccb155c"},"vehicle_type_id":"4","last_reported":1728411109,"current_range_meters":21600,"station_id":"ce501612rcd8frsf0b60","pricing_plan_id":"cebpf4jnsgd1na2vs0mg"},{"bike_id":"2281af1d-ddf2-4281-bbac-136e7973079a","system_id":"levelo_inurba_marseille","lat":43.24178,"lon":5.39732,"is_reserved":false,"is_disabled":false,"rental_uris":{"android":"levelo://app?vid=2281af1d-ddf2-4281-bbac-136e7973079a","ios":"levelo://app?vid=2281af1d-ddf2-4281-bbac-136e7973079a"},"vehicle_type_id":"4","last_reported":1728411109,"current_range_meters":32400,"station_id":"ce4bhn12rcd13ifvqgpg","pricing_plan_id":"cebpf4jnsgd1na2vs0mg"},{"bike_id":"af02dff9-a045-488f-a94d-09654f4aaac1","system_id":"levelo_inurba_marseille","lat":43.28458,"lon":5.35896,"is_reserved":false,"is_disabled":false,"rental_uris":{"android":"levelo://app?vid=af02dff9-a045-488f-a94d-09654f4aaac1","ios":"levelo://app?vid=af02dff9-a045-488f-a94d-09654f4aaac1"},"vehicle_type_id":"4","last_reported":1728411109,"current_range_meters":27200,"station_id":"ce4bhah2rcd13ifvqei0","pricing_plan_id":"cebpf4jnsgd1na2vs0mg"},{"bike_id":"f2b75fa6-514c-427b-a3e0-4b73644e7188","system_id":"levelo_inurba_marseille","lat":43.28456,"lon":5.35877,"is_reserved":false,"is_disabled":false,"rental_uris":{"android":"levelo://app?vid=f2b75fa6-514c-427b-a3e0-4b73644e7188","ios":"levelo://app?vid=f2b75fa6-514c-427b-a3e0-4b73644e7188"},"vehicle_type_id":"4","last_reported":1728411109,"current_range_meters":26000,"station_id":"ce4bhah2rcd13ifvqei0","pricing_plan_id":"cebpf4jnsgd1na2vs0mg"},{"bike_id":"6a992226-3bcd-4607-9d11-28c96cb3263d","system_id":"levelo_inurba_marseille","lat":43.28728,"lon":5.36078,"is_reserved":false,"is_disabled":false,"rental_uris":{"android":"levelo://app?vid=6a992226-3bcd-4607-9d11-28c96cb3263d","ios":"levelo://app?vid=6a992226-3bcd-4607-9d11-28c96cb3263d"},"vehicle_type_id":"4","last_reported":1728411109,"current_range_meters":17200,"station_id":"cki0cbj6b192h4jlfktg","pricing_plan_id":"cebpf4jnsgd1na2vs0mg"},{"bike_id":"650ab51e-7370-4612-a6a3-3dcbba4ae599","system_id":"levelo_inurba_marseille","lat":43.28618,"lon":5.35104,"is_reserved":false,"is_disabled":false,"rental_uris":{"android":"levelo://app?vid=650ab51e-7370-4612-a6a3-3dcbba4ae599","ios":"levelo://app?vid=650ab51e-7370-4612-a6a3-3dcbba4ae599"},"vehicle_type_id":"4","last_reported":1728411109,"current_range_meters":3200,"station_id":"ce4bhch2rcd13ifvqeug","pricing_plan_id":"cebpf4jnsgd1na2vs0mg"},{"bike_id":"fbab334e-6568-46ac-88f7-b856d9d2d598","system_id":"levelo_inurba_marseille","lat":43.23191,"lon":5.35562,"is_reserved":false,"is_disabled":false,"rental_uris":{"android":"levelo://app?vid=fbab334e-6568-46ac-88f7-b856d9d2d598","ios":"levelo://app?vid=fbab334e-6568-46ac-88f7-b856d9d2d598"},"vehicle_type_id":"4","last_reported":1728411109,"current_range_meters":38800,"station_id":"ce4bhu92rcd13ifvqi70","pricing_plan_id":"cebpf4jnsgd1na2vs0mg"},{"bike_id":"fbf5dfed-5858-4ec1-8306-372302d2c9c3","system_id":"levelo_inurba_marseille","lat":43.29264,"lon":5.40901,"is_reserved":false,"is_disabled":false,"rental_uris":{"android":"levelo://app?vid=fbf5dfed-5858-4ec1-8306-372302d2c9c3","ios":"levelo://app?vid=fbf5dfed-5858-4ec1-8306-372302d2c9c3"},"vehicle_type_id":"4","last_reported":1728411109,"current_range_meters":8400,"station_id":"ce4bh192rcd13ifvqdc0","pricing_plan_id":"cebpf4jnsgd1na2vs0mg"},{"bike_id":"0b3c8cec-2f4c-4b69-ab93-1e5be4e5a36b","system_id":"levelo_inurba_marseille","lat":43.28464,"lon":5.35887,"is_reserved":false,"is_disabled":false,"rental_uris":{"android":"levelo://app?vid=0b3c8cec-2f4c-4b69-ab93-1e5be4e5a36b","ios":"levelo://app?vid=0b3c8cec-2f4c-4b69-ab93-1e5be4e5a36b"},"vehicle_type_id":"4","last_reported":1728411109,"current_range_meters":34800,"station_id":"ce4bhah2rcd13ifvqei0","pricing_plan_id":"cebpf4jnsgd1na2vs0mg"},{"bike_id":"3a4ed49f-99db-448e-887b-ba4343b9b651","system_id":"levelo_inurba_marseille","lat":43.26189,"lon":5.37453,"is_reserved":false,"is_disabled":false,"rental_uris":{"android":"levelo://app?vid=3a4ed49f-99db-448e-887b-ba4343b9b651","ios":"levelo://app?vid=3a4ed49f-99db-448e-887b-ba4343b9b651"},"vehicle_type_id":"4","last_reported":1728411109,"current_range_meters":3200,"station_id":"ce4bhgp2rcd13ifvqfc0","pricing_plan_id":"cebpf4jnsgd1na2vs0mg"},{"bike_id":"b8a1d0cf-223c-4b60-a025-794ed79a9cbd","system_id":"levelo_inurba_marseille","lat":43.31065,"lon":5.38355,"is_reserved":false,"is_disabled":false,"rental_uris":{"android":"levelo://app?vid=b8a1d0cf-223c-4b60-a025-794ed79a9cbd","ios":"levelo://app?vid=b8a1d0cf-223c-4b60-a025-794ed79a9cbd"},"vehicle_type_id":"4","last_reported":1728411109,"current_range_meters":20000,"station_id":"","pricing_plan_id":"cebpf4jnsgd1na2vs0mg"},{"bike_id":"da07d2cd-7ab3-47a5-98ce-2c04b535f2ce","system_id":"levelo_inurba_marseille","lat":43.28475,"lon":5.38415,"is_reserved":false,"is_disabled":false,"rental_uris":{"android":"levelo://app?vid=da07d2cd-7ab3-47a5-98ce-2c04b535f2ce","ios":"levelo://app?vid=da07d2cd-7ab3-47a5-98ce-2c04b535f2ce"},"vehicle_type_id":"4","last_reported":1728411109,"current_range_meters":13600,"station_id":"ce4bh512rcd13ifvqe3g","pricing_plan_id":"cebpf4jnsgd1na2vs0mg"},{"bike_id":"10618fac-7e9b-48ad-a67d-2c44ef578753","system_id":"levelo_inurba_marseille","lat":43.30925,"lon":5.40146,"is_reserved":false,"is_disabled":false,"rental_uris":{"android":"levelo://app?vid=10618fac-7e9b-48ad-a67d-2c44ef578753","ios":"levelo://app?vid=10618fac-7e9b-48ad-a67d-2c44ef578753"},"vehicle_type_id":"4","last_reported":1728411109,"current_range_meters":3600,"station_id":"ce4bgvp2rcd13ifvqct0","pricing_plan_id":"cebpf4jnsgd1na2vs0mg"},{"bike_id":"ac63b881-53ef-4e4b-b5e6-9f4914bcf168","system_id":"levelo_inurba_marseille","lat":43.23057,"lon":5.35491,"is_reserved":false,"is_disabled":false,"rental_uris":{"android":"levelo://app?vid=ac63b881-53ef-4e4b-b5e6-9f4914bcf168","ios":"levelo://app?vid=ac63b881-53ef-4e4b-b5e6-9f4914bcf168"},"vehicle_type_id":"4","last_reported":1728411109,"current_range_meters":29600,"station_id":"cpo3342slgdg3j2ifvpg","pricing_plan_id":"cebpf4jnsgd1na2vs0mg"},{"bike_id":"a185443f-1207-408b-8c72-393a999c91bf","system_id":"levelo_inurba_marseille","lat":43.23962,"lon":5.36638,"is_reserved":false,"is_disabled":false,"rental_uris":{"android":"levelo://app?vid=a185443f-1207-408b-8c72-393a999c91bf","ios":"levelo://app?vid=a185443f-1207-408b-8c72-393a999c91bf"},"vehicle_type_id":"4","last_reported":1728411109,"current_range_meters":22400,"station_id":"ce4bhi12rcd13ifvqfp0","pricing_plan_id":"cebpf4jnsgd1na2vs0mg"},{"bike_id":"6fc3f430-bbc2-41b9-a4f2-b10113e81d13","system_id":"levelo_inurba_marseille","lat":43.29619,"lon":5.37712,"is_reserved":false,"is_disabled":false,"rental_uris":{"android":"levelo://app?vid=6fc3f430-bbc2-41b9-a4f2-b10113e81d13","ios":"levelo://app?vid=6fc3f430-bbc2-41b9-a4f2-b10113e81d13"},"vehicle_type_id":"4","last_reported":1728411109,"current_range_meters":22400,"station_id":"ce4bgi92rcd13ifvqb90","pricing_plan_id":"cebpf4jnsgd1na2vs0mg"},{"bike_id":"ced09e90-b14b-4862-ae9c-3ac7d5572699","system_id":"levelo_inurba_marseille","lat":43.28279,"lon":5.35058,"is_reserved":false,"is_disabled":false,"rental_uris":{"android":"levelo://app?vid=ced09e90-b14b-4862-ae9c-3ac7d5572699","ios":"levelo://app?vid=ced09e90-b14b-4862-ae9c-3ac7d5572699"},"vehicle_type_id":"4","last_reported":1728411109,"current_range_meters":36400,"station_id":"ce4bhbp2rcd13ifvqerg","pricing_plan_id":"cebpf4jnsgd1na2vs0mg"},{"bike_id":"356eee68-bc5a-43a0-8e7b-38b41fe4cb4d","system_id":"levelo_inurba_marseille","lat":43.2842,"lon":5.34989,"is_reserved":false,"is_disabled":false,"rental_uris":{"android":"levelo://app?vid=356eee68-bc5a-43a0-8e7b-38b41fe4cb4d","ios":"levelo://app?vid=356eee68-bc5a-43a0-8e7b-38b41fe4cb4d"},"vehicle_type_id":"4","last_reported":1728411109,"current_range_meters":38800,"station_id":"ce4bhbh2rcd13ifvqepg","pricing_plan_id":"cebpf4jnsgd1na2vs0mg"},{"bike_id":"7159f41a-8ecc-483e-87ba-ef8be92e143e","system_id":"levelo_inurba_marseille","lat":43.29328,"lon":5.40386,"is_reserved":false,"is_disabled":false,"rental_uris":{"android":"levelo://app?vid=7159f41a-8ecc-483e-87ba-ef8be92e143e","ios":"levelo://app?vid=7159f41a-8ecc-483e-87ba-ef8be92e143e"},"vehicle_type_id":"4","last_reported":1728411109,"current_range_meters":23200,"station_id":"","pricing_plan_id":"cebpf4jnsgd1na2vs0mg"},{"bike_id":"98f1fa3d-9921-49df-8b8f-2d8e1abb87ef","system_id":"levelo_inurba_marseille","lat":43.32728,"lon":5.38777,"is_reserved":false,"is_disabled":false,"rental_uris":{"android":"levelo://app?vid=98f1fa3d-9921-49df-8b8f-2d8e1abb87ef","ios":"levelo://app?vid=98f1fa3d-9921-49df-8b8f-2d8e1abb87ef"},"vehicle_type_id":"4","last_reported":1728411109,"current_range_meters":38800,"station_id":"","pricing_plan_id":"cebpf4jnsgd1na2vs0mg"},{"bike_id":"ee3f614b-373b-449c-a58d-35e47f5eafd2","system_id":"levelo_inurba_marseille","lat":43.23194,"lon":5.35549,"is_reserved":false,"is_disabled":false,"rental_uris":{"android":"levelo://app?vid=ee3f614b-373b-449c-a58d-35e47f5eafd2","ios":"levelo://app?vid=ee3f614b-373b-449c-a58d-35e47f5eafd2"},"vehicle_type_id":"4","last_reported":1728411109,"current_range_meters":6800,"station_id":"ce4bhu92rcd13ifvqi70","pricing_plan_id":"cebpf4jnsgd1na2vs0mg"},{"bike_id":"7b5b0940-bdce-4220-9c36-75767a888c17","system_id":"levelo_inurba_marseille","lat":43.27997,"lon":5.40005,"is_reserved":false,"is_disabled":false,"rental_uris":{"android":"levelo://app?vid=7b5b0940-bdce-4220-9c36-75767a888c17","ios":"levelo://app?vid=7b5b0940-bdce-4220-9c36-75767a888c17"},"vehicle_type_id":"4","last_reported":1728411109,"current_range_meters":36400,"station_id":"ce4bho92rcd13ifvqh4g","pricing_plan_id":"cebpf4jnsgd1na2vs0mg"},{"bike_id":"9e3fe2e1-eca8-4201-b615-2eaf2b4dc3f2","system_id":"levelo_inurba_marseille","lat":43.23196,"lon":5.35552,"is_reserved":false,"is_disabled":false,"rental_uris":{"android":"levelo://app?vid=9e3fe2e1-eca8-4201-b615-2eaf2b4dc3f2","ios":"levelo://app?vid=9e3fe2e1-eca8-4201-b615-2eaf2b4dc3f2"},"vehicle_type_id":"4","last_reported":1728411109,"current_range_meters":37600,"station_id":"ce4bhu92rcd13ifvqi70","pricing_plan_id":"cebpf4jnsgd1na2vs0mg"},{"bike_id":"e46c9b12-1f63-4350-9657-2b25bef55abb","system_id":"levelo_inurba_marseille","lat":43.25491,"lon":5.3765,"is_reserved":false,"is_disabled":false,"rental_uris":{"android":"levelo://app?vid=e46c9b12-1f63-4350-9657-2b25bef55abb","ios":"levelo://app?vid=e46c9b12-1f63-4350-9657-2b25bef55abb"},"vehicle_type_id":"4","last_reported":1728411109,"current_range_meters":36800,"station_id":"ce4bhh12rcd13ifvqff0","pricing_plan_id":"cebpf4jnsgd1na2vs0mg"},{"bike_id":"a62e60d5-76e9-4d97-8bc0-b9f335121f55","system_id":"levelo_inurba_marseille","lat":43.3172,"lon":5.42401,"is_reserved":false,"is_disabled":false,"rental_uris":{"android":"levelo://app?vid=a62e60d5-76e9-4d97-8bc0-b9f335121f55","ios":"levelo://app?vid=a62e60d5-76e9-4d97-8bc0-b9f335121f55"},"vehicle_type_id":"4","last_reported":1728411109,"current_range_meters":10800,"station_id":"ce4bhp92rcd13ifvqhbg","pricing_plan_id":"cebpf4jnsgd1na2vs0mg"},{"bike_id":"12edead2-1391-4cee-9076-dd762f676b1a","system_id":"levelo_inurba_marseille","lat":43.284883,"lon":5.384262,"is_reserved":false,"is_disabled":false,"rental_uris":{"android":"levelo://app?vid=12edead2-1391-4cee-9076-dd762f676b1a","ios":"levelo://app?vid=12edead2-1391-4cee-9076-dd762f676b1a"},"vehicle_type_id":"4","last_reported":1728411109,"current_range_meters":38800,"station_id":"ce4bh512rcd13ifvqe3g","pricing_plan_id":"cebpf4jnsgd1na2vs0mg"},{"bike_id":"7da3e4b2-7f14-4de1-84fe-a8d5a4f793da","system_id":"levelo_inurba_marseille","lat":43.30801,"lon":5.43521,"is_reserved":false,"is_disabled":false,"rental_uris":{"android":"levelo://app?vid=7da3e4b2-7f14-4de1-84fe-a8d5a4f793da","ios":"levelo://app?vid=7da3e4b2-7f14-4de1-84fe-a8d5a4f793da"},"vehicle_type_id":"4","last_reported":1728411109,"current_range_meters":21600,"station_id":"ce4bhph2rcd13ifvqheg","pricing_plan_id":"cebpf4jnsgd1na2vs0mg"},{"bike_id":"a17e9431-f1d8-425a-85de-65d0d95b787f","system_id":"levelo_inurba_marseille","lat":43.30911,"lon":5.36845,"is_reserved":false,"is_disabled":false,"rental_uris":{"android":"levelo://app?vid=a17e9431-f1d8-425a-85de-65d0d95b787f","ios":"levelo://app?vid=a17e9431-f1d8-425a-85de-65d0d95b787f"},"vehicle_type_id":"4","last_reported":1728411109,"current_range_meters":38400,"station_id":"ce4bgn92rcd13ifvqbvg","pricing_plan_id":"cebpf4jnsgd1na2vs0mg"},{"bike_id":"207f08d9-c160-4786-a5ca-57595fa0ca44","system_id":"levelo_inurba_marseille","lat":43.293013,"lon":5.371519,"is_reserved":false,"is_disabled":false,"rental_uris":{"android":"levelo://app?vid=207f08d9-c160-4786-a5ca-57595fa0ca44","ios":"levelo://app?vid=207f08d9-c160-4786-a5ca-57595fa0ca44"},"vehicle_type_id":"4","last_reported":1728411109,"current_range_meters":28800,"station_id":"ce4bgh92rcd13ifvqb40","pricing_plan_id":"cebpf4jnsgd1na2vs0mg"},{"bike_id":"e6d9651c-ac07-4b39-a415-80b5fcb1743e","system_id":"levelo_inurba_marseille","lat":43.25084,"lon":5.39523,"is_reserved":false,"is_disabled":false,"rental_uris":{"android":"levelo://app?vid=e6d9651c-ac07-4b39-a415-80b5fcb1743e","ios":"levelo://app?vid=e6d9651c-ac07-4b39-a415-80b5fcb1743e"},"vehicle_type_id":"4","last_reported":1728411109,"current_range_meters":25600,"station_id":"ce4bhm12rcd13ifvqgkg","pricing_plan_id":"cebpf4jnsgd1na2vs0mg"},{"bike_id":"dfc21774-e7c6-4759-ad88-2058278088ac","system_id":"levelo_inurba_marseille","lat":43.3153,"lon":5.38031,"is_reserved":false,"is_disabled":false,"rental_uris":{"android":"levelo://app?vid=dfc21774-e7c6-4759-ad88-2058278088ac","ios":"levelo://app?vid=dfc21774-e7c6-4759-ad88-2058278088ac"},"vehicle_type_id":"4","last_reported":1728411109,"current_range_meters":38400,"station_id":"ce4bhsp2rcd13ifvqi50","pricing_plan_id":"cebpf4jnsgd1na2vs0mg"},{"bike_id":"4552a146-c9b7-4cae-ae0f-d674570d6500","system_id":"levelo_inurba_marseille","lat":43.33024,"lon":5.39036,"is_reserved":false,"is_disabled":false,"rental_uris":{"android":"levelo://app?vid=4552a146-c9b7-4cae-ae0f-d674570d6500","ios":"levelo://app?vid=4552a146-c9b7-4cae-ae0f-d674570d6500"},"vehicle_type_id":"4","last_reported":1728411109,"current_range_meters":27600,"station_id":"ce4bhr92rcd13ifvqhrg","pricing_plan_id":"cebpf4jnsgd1na2vs0mg"},{"bike_id":"aa633575-e98c-4b00-80a5-6db29a8438f8","system_id":"levelo_inurba_marseille","lat":43.29549,"lon":5.42284,"is_reserved":false,"is_disabled":false,"rental_uris":{"android":"levelo://app?vid=aa633575-e98c-4b00-80a5-6db29a8438f8","ios":"levelo://app?vid=aa633575-e98c-4b00-80a5-6db29a8438f8"},"vehicle_type_id":"4","last_reported":1728411109,"current_range_meters":39200,"station_id":"ce4bhph2rcd13ifvqhdg","pricing_plan_id":"cebpf4jnsgd1na2vs0mg"},{"bike_id":"03fd990d-f152-41a9-8844-d61bc3042205","system_id":"levelo_inurba_marseille","lat":43.2396,"lon":5.36633,"is_reserved":false,"is_disabled":false,"rental_uris":{"android":"levelo://app?vid=03fd990d-f152-41a9-8844-d61bc3042205","ios":"levelo://app?vid=03fd990d-f152-41a9-8844-d61bc3042205"},"vehicle_type_id":"4","last_reported":1728411109,"current_range_meters":10800,"station_id":"ce4bhi12rcd13ifvqfp0","pricing_plan_id":"cebpf4jnsgd1na2vs0mg"},{"bike_id":"8b10cb9f-15d9-4eb9-a18e-896430cdcbda","system_id":"levelo_inurba_marseille","lat":43.32033,"lon":5.40822,"is_reserved":false,"is_disabled":false,"rental_uris":{"android":"levelo://app?vid=8b10cb9f-15d9-4eb9-a18e-896430cdcbda","ios":"levelo://app?vid=8b10cb9f-15d9-4eb9-a18e-896430cdcbda"},"vehicle_type_id":"4","last_reported":1728411109,"current_range_meters":27600,"station_id":"ce4bhq92rcd13ifvqhjg","pricing_plan_id":"cebpf4jnsgd1na2vs0mg"},{"bike_id":"1ed5e428-910d-45ef-8800-bd57d7ef8ae5","system_id":"levelo_inurba_marseille","lat":43.31331,"lon":5.397,"is_reserved":false,"is_disabled":false,"rental_uris":{"android":"levelo://app?vid=1ed5e428-910d-45ef-8800-bd57d7ef8ae5","ios":"levelo://app?vid=1ed5e428-910d-45ef-8800-bd57d7ef8ae5"},"vehicle_type_id":"4","last_reported":1728411109,"current_range_meters":38400,"station_id":"ce4bgvp2rcd13ifvqcu0","pricing_plan_id":"cebpf4jnsgd1na2vs0mg"},{"bike_id":"ff3d256e-b83f-4b50-bcdf-8cbbb0159b40","system_id":"levelo_inurba_marseille","lat":43.25821,"lon":5.38867,"is_reserved":false,"is_disabled":false,"rental_uris":{"android":"levelo://app?vid=ff3d256e-b83f-4b50-bcdf-8cbbb0159b40","ios":"levelo://app?vid=ff3d256e-b83f-4b50-bcdf-8cbbb0159b40"},"vehicle_type_id":"4","last_reported":1728411109,"current_range_meters":32800,"station_id":"","pricing_plan_id":"cebpf4jnsgd1na2vs0mg"},{"bike_id":"b4e6b6a8-297e-475d-bcb4-79d8b3f4a38c","system_id":"levelo_inurba_marseille","lat":43.33022,"lon":5.39036,"is_reserved":false,"is_disabled":false,"rental_uris":{"android":"levelo://app?vid=b4e6b6a8-297e-475d-bcb4-79d8b3f4a38c","ios":"levelo://app?vid=b4e6b6a8-297e-475d-bcb4-79d8b3f4a38c"},"vehicle_type_id":"4","last_reported":1728411109,"current_range_meters":38800,"station_id":"ce4bhr92rcd13ifvqhrg","pricing_plan_id":"cebpf4jnsgd1na2vs0mg"},{"bike_id":"edde507b-e30d-4ff3-8233-4743ca5a577a","system_id":"levelo_inurba_marseille","lat":43.28715,"lon":5.3738,"is_reserved":false,"is_disabled":false,"rental_uris":{"android":"levelo://app?vid=edde507b-e30d-4ff3-8233-4743ca5a577a","ios":"levelo://app?vid=edde507b-e30d-4ff3-8233-4743ca5a577a"},"vehicle_type_id":"4","last_reported":1728411109,"current_range_meters":28800,"station_id":"ce4bh3p2rcd13ifvqdq0","pricing_plan_id":"cebpf4jnsgd1na2vs0mg"},{"bike_id":"ff9250df-f516-49d1-8071-1b76513ac848","system_id":"levelo_inurba_marseille","lat":43.32478,"lon":5.36566,"is_reserved":false,"is_disabled":false,"rental_uris":{"android":"levelo://app?vid=ff9250df-f516-49d1-8071-1b76513ac848","ios":"levelo://app?vid=ff9250df-f516-49d1-8071-1b76513ac848"},"vehicle_type_id":"4","last_reported":1728411109,"current_range_meters":27200,"station_id":"ce4bhs12rcd13ifvqhvg","pricing_plan_id":"cebpf4jnsgd1na2vs0mg"},{"bike_id":"f959b3cd-3aac-4762-b8b9-a3621bb5e256","system_id":"levelo_inurba_marseille","lat":43.29867,"lon":5.38431,"is_reserved":false,"is_disabled":false,"rental_uris":{"android":"levelo://app?vid=f959b3cd-3aac-4762-b8b9-a3621bb5e256","ios":"levelo://app?vid=f959b3cd-3aac-4762-b8b9-a3621bb5e256"},"vehicle_type_id":"4","last_reported":1728411109,"current_range_meters":36800,"station_id":"ce4bgi92rcd13ifvqb90","pricing_plan_id":"cebpf4jnsgd1na2vs0mg"},{"bike_id":"1027f6bf-9b3c-41af-9f81-0c58d1959e85","system_id":"levelo_inurba_marseille","lat":43.28612,"lon":5.35098,"is_reserved":false,"is_disabled":false,"rental_uris":{"android":"levelo://app?vid=1027f6bf-9b3c-41af-9f81-0c58d1959e85","ios":"levelo://app?vid=1027f6bf-9b3c-41af-9f81-0c58d1959e85"},"vehicle_type_id":"4","last_reported":1728411109,"current_range_meters":24800,"station_id":"ce4bhch2rcd13ifvqeug","pricing_plan_id":"cebpf4jnsgd1na2vs0mg"},{"bike_id":"bee17a8b-64af-43a1-aa6e-592d10cda956","system_id":"levelo_inurba_marseille","lat":43.240692,"lon":5.377638,"is_reserved":false,"is_disabled":false,"rental_uris":{"android":"levelo://app?vid=bee17a8b-64af-43a1-aa6e-592d10cda956","ios":"levelo://app?vid=bee17a8b-64af-43a1-aa6e-592d10cda956"},"vehicle_type_id":"4","last_reported":1728411109,"current_range_meters":22000,"station_id":"ce4bhnp2rcd13ifvqgvg","pricing_plan_id":"cebpf4jnsgd1na2vs0mg"},{"bike_id":"6364b0e7-4994-4b67-a542-6a4de6841582","system_id":"levelo_inurba_marseille","lat":43.23183,"lon":5.39984,"is_reserved":false,"is_disabled":false,"rental_uris":{"android":"levelo://app?vid=6364b0e7-4994-4b67-a542-6a4de6841582","ios":"levelo://app?vid=6364b0e7-4994-4b67-a542-6a4de6841582"},"vehicle_type_id":"4","last_reported":1728411109,"current_range_meters":22800,"station_id":"ce4bhn12rcd13ifvqgqg","pricing_plan_id":"cebpf4jnsgd1na2vs0mg"},{"bike_id":"0f8e5368-fba9-4d54-a446-5b8f578eedcd","system_id":"levelo_inurba_marseille","lat":43.28001,"lon":5.40012,"is_reserved":false,"is_disabled":false,"rental_uris":{"android":"levelo://app?vid=0f8e5368-fba9-4d54-a446-5b8f578eedcd","ios":"levelo://app?vid=0f8e5368-fba9-4d54-a446-5b8f578eedcd"},"vehicle_type_id":"4","last_reported":1728411109,"current_range_meters":14800,"station_id":"ce4bho92rcd13ifvqh4g","pricing_plan_id":"cebpf4jnsgd1na2vs0mg"},{"bike_id":"a287dc34-10a8-4ec9-94f5-9773fe388172","system_id":"levelo_inurba_marseille","lat":43.314362,"lon":5.369943,"is_reserved":false,"is_disabled":false,"rental_uris":{"android":"levelo://app?vid=a287dc34-10a8-4ec9-94f5-9773fe388172","ios":"levelo://app?vid=a287dc34-10a8-4ec9-94f5-9773fe388172"},"vehicle_type_id":"4","last_reported":1728411109,"current_range_meters":13600,"station_id":"ce4bgt12rcd13ifvqcd0","pricing_plan_id":"cebpf4jnsgd1na2vs0mg"},{"bike_id":"78ede81f-e425-47b9-9d00-597d3748bdca","system_id":"levelo_inurba_marseille","lat":43.27997,"lon":5.40018,"is_reserved":false,"is_disabled":false,"rental_uris":{"android":"levelo://app?vid=78ede81f-e425-47b9-9d00-597d3748bdca","ios":"levelo://app?vid=78ede81f-e425-47b9-9d00-597d3748bdca"},"vehicle_type_id":"4","last_reported":1728411109,"current_range_meters":30400,"station_id":"ce4bho92rcd13ifvqh4g","pricing_plan_id":"cebpf4jnsgd1na2vs0mg"},{"bike_id":"90886a14-1cfd-4faa-9cb4-da24f74c6d8a","system_id":"levelo_inurba_marseille","lat":43.26064,"lon":5.39396,"is_reserved":false,"is_disabled":false,"rental_uris":{"android":"levelo://app?vid=90886a14-1cfd-4faa-9cb4-da24f74c6d8a","ios":"levelo://app?vid=90886a14-1cfd-4faa-9cb4-da24f74c6d8a"},"vehicle_type_id":"4","last_reported":1728411109,"current_range_meters":22000,"station_id":"ce4bhh92rcd13ifvqfj0","pricing_plan_id":"cebpf4jnsgd1na2vs0mg"},{"bike_id":"4a7f32a5-45f9-4e4f-8b14-ad0c04f2fc35","system_id":"levelo_inurba_marseille","lat":43.25489,"lon":5.37649,"is_reserved":false,"is_disabled":false,"rental_uris":{"android":"levelo://app?vid=4a7f32a5-45f9-4e4f-8b14-ad0c04f2fc35","ios":"levelo://app?vid=4a7f32a5-45f9-4e4f-8b14-ad0c04f2fc35"},"vehicle_type_id":"4","last_reported":1728411109,"current_range_meters":10000,"station_id":"ce4bhh12rcd13ifvqff0","pricing_plan_id":"cebpf4jnsgd1na2vs0mg"},{"bike_id":"09a16eb8-943b-4fa3-af4a-bc84f292cf52","system_id":"levelo_inurba_marseille","lat":43.30918,"lon":5.40147,"is_reserved":false,"is_disabled":false,"rental_uris":{"android":"levelo://app?vid=09a16eb8-943b-4fa3-af4a-bc84f292cf52","ios":"levelo://app?vid=09a16eb8-943b-4fa3-af4a-bc84f292cf52"},"vehicle_type_id":"4","last_reported":1728411109,"current_range_meters":4800,"station_id":"ce4bgvp2rcd13ifvqct0","pricing_plan_id":"cebpf4jnsgd1na2vs0mg"},{"bike_id":"5d98e0b3-1c48-4bce-8ffe-0e2c2ea088a0","system_id":"levelo_inurba_marseille","lat":43.23054,"lon":5.35491,"is_reserved":false,"is_disabled":false,"rental_uris":{"android":"levelo://app?vid=5d98e0b3-1c48-4bce-8ffe-0e2c2ea088a0","ios":"levelo://app?vid=5d98e0b3-1c48-4bce-8ffe-0e2c2ea088a0"},"vehicle_type_id":"4","last_reported":1728411109,"current_range_meters":30000,"station_id":"cpo3342slgdg3j2ifvpg","pricing_plan_id":"cebpf4jnsgd1na2vs0mg"},{"bike_id":"ba82f891-a771-48d7-ade4-96cbeb710675","system_id":"levelo_inurba_marseille","lat":43.27309,"lon":5.3908,"is_reserved":false,"is_disabled":false,"rental_uris":{"android":"levelo://app?vid=ba82f891-a771-48d7-ade4-96cbeb710675","ios":"levelo://app?vid=ba82f891-a771-48d7-ade4-96cbeb710675"},"vehicle_type_id":"4","last_reported":1728411109,"current_range_meters":22800,"station_id":"ce4bhgp2rcd13ifvqfe0","pricing_plan_id":"cebpf4jnsgd1na2vs0mg"},{"bike_id":"844bbe36-5537-46cb-8c0c-5ea76aec4b09","system_id":"levelo_inurba_marseille","lat":43.31688,"lon":5.40479,"is_reserved":false,"is_disabled":false,"rental_uris":{"android":"levelo://app?vid=844bbe36-5537-46cb-8c0c-5ea76aec4b09","ios":"levelo://app?vid=844bbe36-5537-46cb-8c0c-5ea76aec4b09"},"vehicle_type_id":"4","last_reported":1728411109,"current_range_meters":23200,"station_id":"ce4bh012rcd13ifvqd00","pricing_plan_id":"cebpf4jnsgd1na2vs0mg"},{"bike_id":"f15c7a05-02a7-4a5e-8ec8-0921f7ec224b","system_id":"levelo_inurba_marseille","lat":43.27835,"lon":5.39202,"is_reserved":false,"is_disabled":false,"rental_uris":{"android":"levelo://app?vid=f15c7a05-02a7-4a5e-8ec8-0921f7ec224b","ios":"levelo://app?vid=f15c7a05-02a7-4a5e-8ec8-0921f7ec224b"},"vehicle_type_id":"4","last_reported":1728411109,"current_range_meters":3600,"station_id":"ce4bhjp2rcd13ifvqga0","pricing_plan_id":"cebpf4jnsgd1na2vs0mg"},{"bike_id":"d84bf8f1-95d0-40fd-86c8-8a2f79c326bd","system_id":"levelo_inurba_marseille","lat":43.31888,"lon":5.40738,"is_reserved":false,"is_disabled":false,"rental_uris":{"android":"levelo://app?vid=d84bf8f1-95d0-40fd-86c8-8a2f79c326bd","ios":"levelo://app?vid=d84bf8f1-95d0-40fd-86c8-8a2f79c326bd"},"vehicle_type_id":"4","last_reported":1728411109,"current_range_meters":16800,"station_id":"ce4bhq12rcd13ifvqhig","pricing_plan_id":"cebpf4jnsgd1na2vs0mg"},{"bike_id":"1fe94854-bca7-4628-a77d-34cdb2a062d3","system_id":"levelo_inurba_marseille","lat":43.33022,"lon":5.39042,"is_reserved":false,"is_disabled":false,"rental_uris":{"android":"levelo://app?vid=1fe94854-bca7-4628-a77d-34cdb2a062d3","ios":"levelo://app?vid=1fe94854-bca7-4628-a77d-34cdb2a062d3"},"vehicle_type_id":"4","last_reported":1728411109,"current_range_meters":25200,"station_id":"ce4bhr92rcd13ifvqhrg","pricing_plan_id":"cebpf4jnsgd1na2vs0mg"},{"bike_id":"88c14661-7b71-4156-aab0-66bcb58731d3","system_id":"levelo_inurba_marseille","lat":43.28265,"lon":5.35062,"is_reserved":false,"is_disabled":false,"rental_uris":{"android":"levelo://app?vid=88c14661-7b71-4156-aab0-66bcb58731d3","ios":"levelo://app?vid=88c14661-7b71-4156-aab0-66bcb58731d3"},"vehicle_type_id":"4","last_reported":1728411109,"current_range_meters":38800,"station_id":"ce4bhbp2rcd13ifvqerg","pricing_plan_id":"cebpf4jnsgd1na2vs0mg"},{"bike_id":"570e5a34-8463-480f-bbc3-7dec58660b45","system_id":"levelo_inurba_marseille","lat":43.24664,"lon":5.38168,"is_reserved":false,"is_disabled":false,"rental_uris":{"android":"levelo://app?vid=570e5a34-8463-480f-bbc3-7dec58660b45","ios":"levelo://app?vid=570e5a34-8463-480f-bbc3-7dec58660b45"},"vehicle_type_id":"4","last_reported":1728411109,"current_range_meters":21600,"station_id":"ce4bhih2rcd13ifvqfr0","pricing_plan_id":"cebpf4jnsgd1na2vs0mg"},{"bike_id":"6f5b8371-f16c-4d1e-9b13-5ac1e4dcb7d1","system_id":"levelo_inurba_marseille","lat":43.275645,"lon":5.384273,"is_reserved":false,"is_disabled":false,"rental_uris":{"android":"levelo://app?vid=6f5b8371-f16c-4d1e-9b13-5ac1e4dcb7d1","ios":"levelo://app?vid=6f5b8371-f16c-4d1e-9b13-5ac1e4dcb7d1"},"vehicle_type_id":"4","last_reported":1728411109,"current_range_meters":16400,"station_id":"ce4bhh92rcd13ifvqfi0","pricing_plan_id":"cebpf4jnsgd1na2vs0mg"},{"bike_id":"02a1d63b-bb3a-4f1a-99d4-96411b7bafaa","system_id":"levelo_inurba_marseille","lat":43.31332,"lon":5.39691,"is_reserved":false,"is_disabled":false,"rental_uris":{"android":"levelo://app?vid=02a1d63b-bb3a-4f1a-99d4-96411b7bafaa","ios":"levelo://app?vid=02a1d63b-bb3a-4f1a-99d4-96411b7bafaa"},"vehicle_type_id":"4","last_reported":1728411109,"current_range_meters":8400,"station_id":"ce4bgvp2rcd13ifvqcu0","pricing_plan_id":"cebpf4jnsgd1na2vs0mg"},{"bike_id":"8bd9db10-f5f3-40e1-8966-ffe1c35b9841","system_id":"levelo_inurba_marseille","lat":43.27496,"lon":5.42455,"is_reserved":false,"is_disabled":false,"rental_uris":{"android":"levelo://app?vid=8bd9db10-f5f3-40e1-8966-ffe1c35b9841","ios":"levelo://app?vid=8bd9db10-f5f3-40e1-8966-ffe1c35b9841"},"vehicle_type_id":"4","last_reported":1728411109,"current_range_meters":28000,"station_id":"ce4bhn92rcd13ifvqgrg","pricing_plan_id":"cebpf4jnsgd1na2vs0mg"},{"bike_id":"b70e4c83-d366-468e-8cdf-8a603ae5d7cd","system_id":"levelo_inurba_marseille","lat":43.303025,"lon":5.392179,"is_reserved":false,"is_disabled":false,"rental_uris":{"android":"levelo://app?vid=b70e4c83-d366-468e-8cdf-8a603ae5d7cd","ios":"levelo://app?vid=b70e4c83-d366-468e-8cdf-8a603ae5d7cd"},"vehicle_type_id":"4","last_reported":1728411109,"current_range_meters":23200,"station_id":"ce4bgkh2rcd13ifvqbk0","pricing_plan_id":"cebpf4jnsgd1na2vs0mg"},{"bike_id":"78e13bf7-ebfe-43b2-bf85-0a2e5a9e943e","system_id":"levelo_inurba_marseille","lat":43.31163,"lon":5.38722,"is_reserved":false,"is_disabled":false,"rental_uris":{"android":"levelo://app?vid=78e13bf7-ebfe-43b2-bf85-0a2e5a9e943e","ios":"levelo://app?vid=78e13bf7-ebfe-43b2-bf85-0a2e5a9e943e"},"vehicle_type_id":"4","last_reported":1728411109,"current_range_meters":4000,"station_id":"ce4bgv12rcd13ifvqcp0","pricing_plan_id":"cebpf4jnsgd1na2vs0mg"},{"bike_id":"a12e9d77-8cf4-466a-935a-0832e9ff2fd6","system_id":"levelo_inurba_marseille","lat":43.24178,"lon":5.39735,"is_reserved":false,"is_disabled":false,"rental_uris":{"android":"levelo://app?vid=a12e9d77-8cf4-466a-935a-0832e9ff2fd6","ios":"levelo://app?vid=a12e9d77-8cf4-466a-935a-0832e9ff2fd6"},"vehicle_type_id":"4","last_reported":1728411109,"current_range_meters":26000,"station_id":"ce4bhn12rcd13ifvqgpg","pricing_plan_id":"cebpf4jnsgd1na2vs0mg"},{"bike_id":"c45a6178-c0da-4c2e-a5b7-18d7a35c120d","system_id":"levelo_inurba_marseille","lat":43.29305,"lon":5.37464,"is_reserved":false,"is_disabled":false,"rental_uris":{"android":"levelo://app?vid=c45a6178-c0da-4c2e-a5b7-18d7a35c120d","ios":"levelo://app?vid=c45a6178-c0da-4c2e-a5b7-18d7a35c120d"},"vehicle_type_id":"4","last_reported":1728411109,"current_range_meters":35200,"station_id":"ce4bgi12rcd13ifvqb70","pricing_plan_id":"cebpf4jnsgd1na2vs0mg"},{"bike_id":"0c520928-188c-495a-9b0f-73e26cec0470","system_id":"levelo_inurba_marseille","lat":43.31705,"lon":5.37749,"is_reserved":false,"is_disabled":false,"rental_uris":{"android":"levelo://app?vid=0c520928-188c-495a-9b0f-73e26cec0470","ios":"levelo://app?vid=0c520928-188c-495a-9b0f-73e26cec0470"},"vehicle_type_id":"4","last_reported":1728411109,"current_range_meters":24000,"station_id":"ce4bgth2rcd13ifvqch0","pricing_plan_id":"cebpf4jnsgd1na2vs0mg"},{"bike_id":"3e5ad752-1ef9-4dc8-87c5-687fa5c1bef6","system_id":"levelo_inurba_marseille","lat":43.27995,"lon":5.4001,"is_reserved":false,"is_disabled":false,"rental_uris":{"android":"levelo://app?vid=3e5ad752-1ef9-4dc8-87c5-687fa5c1bef6","ios":"levelo://app?vid=3e5ad752-1ef9-4dc8-87c5-687fa5c1bef6"},"vehicle_type_id":"4","last_reported":1728411109,"current_range_meters":7200,"station_id":"ce4bho92rcd13ifvqh4g","pricing_plan_id":"cebpf4jnsgd1na2vs0mg"},{"bike_id":"f6046c92-032e-4e3d-aa56-d4b8e40dbad6","system_id":"levelo_inurba_marseille","lat":43.29528,"lon":5.38545,"is_reserved":false,"is_disabled":false,"rental_uris":{"android":"levelo://app?vid=f6046c92-032e-4e3d-aa56-d4b8e40dbad6","ios":"levelo://app?vid=f6046c92-032e-4e3d-aa56-d4b8e40dbad6"},"vehicle_type_id":"4","last_reported":1728411109,"current_range_meters":9200,"station_id":"ce4bgih2rcd13ifvqba0","pricing_plan_id":"cebpf4jnsgd1na2vs0mg"},{"bike_id":"842f5bd0-6019-486c-8c96-716d49242e10","system_id":"levelo_inurba_marseille","lat":43.30183,"lon":5.36618,"is_reserved":false,"is_disabled":false,"rental_uris":{"android":"levelo://app?vid=842f5bd0-6019-486c-8c96-716d49242e10","ios":"levelo://app?vid=842f5bd0-6019-486c-8c96-716d49242e10"},"vehicle_type_id":"4","last_reported":1728411109,"current_range_meters":16800,"station_id":"ce4bgrh2rcd13ifvqc8g","pricing_plan_id":"cebpf4jnsgd1na2vs0mg"},{"bike_id":"3b9f89cc-d8b3-47e3-a452-e7b14a5386cc","system_id":"levelo_inurba_marseille","lat":43.30867,"lon":5.39661,"is_reserved":false,"is_disabled":false,"rental_uris":{"android":"levelo://app?vid=3b9f89cc-d8b3-47e3-a452-e7b14a5386cc","ios":"levelo://app?vid=3b9f89cc-d8b3-47e3-a452-e7b14a5386cc"},"vehicle_type_id":"4","last_reported":1728411109,"current_range_meters":36800,"station_id":"ce4bh012rcd13ifvqcv0","pricing_plan_id":"cebpf4jnsgd1na2vs0mg"},{"bike_id":"64da3415-4b8c-41fa-92e0-0d604e35900f","system_id":"levelo_inurba_marseille","lat":43.27998,"lon":5.40016,"is_reserved":false,"is_disabled":false,"rental_uris":{"android":"levelo://app?vid=64da3415-4b8c-41fa-92e0-0d604e35900f","ios":"levelo://app?vid=64da3415-4b8c-41fa-92e0-0d604e35900f"},"vehicle_type_id":"4","last_reported":1728411109,"current_range_meters":28800,"station_id":"ce4bho92rcd13ifvqh4g","pricing_plan_id":"cebpf4jnsgd1na2vs0mg"},{"bike_id":"a4573c8b-c8c4-472b-957d-cefc487973ec","system_id":"levelo_inurba_marseille","lat":43.30541,"lon":5.38422,"is_reserved":false,"is_disabled":false,"rental_uris":{"android":"levelo://app?vid=a4573c8b-c8c4-472b-957d-cefc487973ec","ios":"levelo://app?vid=a4573c8b-c8c4-472b-957d-cefc487973ec"},"vehicle_type_id":"4","last_reported":1728411109,"current_range_meters":38000,"station_id":"ce4bgg92rcd13ifvqb30","pricing_plan_id":"cebpf4jnsgd1na2vs0mg"},{"bike_id":"9ad9608e-7c8b-49ea-b9ad-050198b73c61","system_id":"levelo_inurba_marseille","lat":43.30569,"lon":5.40079,"is_reserved":false,"is_disabled":false,"rental_uris":{"android":"levelo://app?vid=9ad9608e-7c8b-49ea-b9ad-050198b73c61","ios":"levelo://app?vid=9ad9608e-7c8b-49ea-b9ad-050198b73c61"},"vehicle_type_id":"4","last_reported":1728411109,"current_range_meters":2000,"station_id":"","pricing_plan_id":"cebpf4jnsgd1na2vs0mg"},{"bike_id":"937afa9a-a938-4a8e-a160-0b7f2dc8a5c3","system_id":"levelo_inurba_marseille","lat":43.23051,"lon":5.35497,"is_reserved":false,"is_disabled":false,"rental_uris":{"android":"levelo://app?vid=937afa9a-a938-4a8e-a160-0b7f2dc8a5c3","ios":"levelo://app?vid=937afa9a-a938-4a8e-a160-0b7f2dc8a5c3"},"vehicle_type_id":"4","last_reported":1728411109,"current_range_meters":8400,"station_id":"cpo3342slgdg3j2ifvpg","pricing_plan_id":"cebpf4jnsgd1na2vs0mg"},{"bike_id":"afebd022-4294-4d1a-9616-fc4954ce7881","system_id":"levelo_inurba_marseille","lat":43.28936,"lon":5.36406,"is_reserved":false,"is_disabled":false,"rental_uris":{"android":"levelo://app?vid=afebd022-4294-4d1a-9616-fc4954ce7881","ios":"levelo://app?vid=afebd022-4294-4d1a-9616-fc4954ce7881"},"vehicle_type_id":"4","last_reported":1728411109,"current_range_meters":17200,"station_id":"ce4bhc92rcd13ifvqetg","pricing_plan_id":"cebpf4jnsgd1na2vs0mg"},{"bike_id":"94ceef02-12e8-4741-89e4-ae1bc4202f8e","system_id":"levelo_inurba_marseille","lat":43.28461,"lon":5.35879,"is_reserved":false,"is_disabled":false,"rental_uris":{"android":"levelo://app?vid=94ceef02-12e8-4741-89e4-ae1bc4202f8e","ios":"levelo://app?vid=94ceef02-12e8-4741-89e4-ae1bc4202f8e"},"vehicle_type_id":"4","last_reported":1728411109,"current_range_meters":30400,"station_id":"ce4bhah2rcd13ifvqei0","pricing_plan_id":"cebpf4jnsgd1na2vs0mg"},{"bike_id":"f596aaba-88c0-468b-876d-d3a38027258f","system_id":"levelo_inurba_marseille","lat":43.23175,"lon":5.39992,"is_reserved":false,"is_disabled":false,"rental_uris":{"android":"levelo://app?vid=f596aaba-88c0-468b-876d-d3a38027258f","ios":"levelo://app?vid=f596aaba-88c0-468b-876d-d3a38027258f"},"vehicle_type_id":"4","last_reported":1728411109,"current_range_meters":28400,"station_id":"ce4bhn12rcd13ifvqgqg","pricing_plan_id":"cebpf4jnsgd1na2vs0mg"},{"bike_id":"a5dea07c-9bd0-4be7-9acd-d1bbf9a4108d","system_id":"levelo_inurba_marseille","lat":43.31115,"lon":5.37771,"is_reserved":false,"is_disabled":false,"rental_uris":{"android":"levelo://app?vid=a5dea07c-9bd0-4be7-9acd-d1bbf9a4108d","ios":"levelo://app?vid=a5dea07c-9bd0-4be7-9acd-d1bbf9a4108d"},"vehicle_type_id":"4","last_reported":1728411109,"current_range_meters":28800,"station_id":"ce4bgt92rcd13ifvqcg0","pricing_plan_id":"cebpf4jnsgd1na2vs0mg"},{"bike_id":"f34d5c8c-fecd-4c53-8dc0-11f14eb746b8","system_id":"levelo_inurba_marseille","lat":43.2794,"lon":5.41054,"is_reserved":false,"is_disabled":false,"rental_uris":{"android":"levelo://app?vid=f34d5c8c-fecd-4c53-8dc0-11f14eb746b8","ios":"levelo://app?vid=f34d5c8c-fecd-4c53-8dc0-11f14eb746b8"},"vehicle_type_id":"4","last_reported":1728411109,"current_range_meters":19600,"station_id":"ce4bhnp2rcd13ifvqh0g","pricing_plan_id":"cebpf4jnsgd1na2vs0mg"},{"bike_id":"b551687a-62fe-43c0-94d6-50fe9bc9d641","system_id":"levelo_inurba_marseille","lat":43.31121,"lon":5.37776,"is_reserved":false,"is_disabled":false,"rental_uris":{"android":"levelo://app?vid=b551687a-62fe-43c0-94d6-50fe9bc9d641","ios":"levelo://app?vid=b551687a-62fe-43c0-94d6-50fe9bc9d641"},"vehicle_type_id":"4","last_reported":1728411109,"current_range_meters":11200,"station_id":"ce4bgt92rcd13ifvqcg0","pricing_plan_id":"cebpf4jnsgd1na2vs0mg"},{"bike_id":"d39e9adc-2bbc-4869-b1ca-cd74c7dda9a6","system_id":"levelo_inurba_marseille","lat":43.23058,"lon":5.35487,"is_reserved":false,"is_disabled":false,"rental_uris":{"android":"levelo://app?vid=d39e9adc-2bbc-4869-b1ca-cd74c7dda9a6","ios":"levelo://app?vid=d39e9adc-2bbc-4869-b1ca-cd74c7dda9a6"},"vehicle_type_id":"4","last_reported":1728411109,"current_range_meters":31200,"station_id":"cpo3342slgdg3j2ifvpg","pricing_plan_id":"cebpf4jnsgd1na2vs0mg"},{"bike_id":"d6d67282-254b-44b5-8901-3b76a7c4814f","system_id":"levelo_inurba_marseille","lat":43.2796,"lon":5.40563,"is_reserved":false,"is_disabled":false,"rental_uris":{"android":"levelo://app?vid=d6d67282-254b-44b5-8901-3b76a7c4814f","ios":"levelo://app?vid=d6d67282-254b-44b5-8901-3b76a7c4814f"},"vehicle_type_id":"4","last_reported":1728411109,"current_range_meters":5600,"station_id":"ce4bhnh2rcd13ifvqgtg","pricing_plan_id":"cebpf4jnsgd1na2vs0mg"},{"bike_id":"bc82d957-0909-46d9-8f06-9881c3514fc3","system_id":"levelo_inurba_marseille","lat":43.25812,"lon":5.38869,"is_reserved":false,"is_disabled":false,"rental_uris":{"android":"levelo://app?vid=bc82d957-0909-46d9-8f06-9881c3514fc3","ios":"levelo://app?vid=bc82d957-0909-46d9-8f06-9881c3514fc3"},"vehicle_type_id":"4","last_reported":1728411109,"current_range_meters":36000,"station_id":"","pricing_plan_id":"cebpf4jnsgd1na2vs0mg"},