{"last_updated":1761671422,"ttl":60,"version":"2.2","data":{"bikes":[{"bike_id":"eaf1ec55-08c0-44c0-9226-d30d1ec3a328","system_id":"levelo_inurba_marseille","lat":43.28849,"lon":5.39316,"is_reserved":false,"is_disabled":false,"rental_uris":{"android":"levelo://app?vid=eaf1ec55-08c0-44c0-9226-d30d1ec3a328","ios":"levelo://app?vid=eaf1ec55-08c0-44c0-9226-d30d1ec3a328"},"vehicle_type_id":"4","last_reported":1761671422,"current_range_meters":2800,"station_id":"ce4bh2p2rcd13ifvqdi0","pricing_plan_id":"cebpf4jnsgd1na2vs0mg"},{"bike_id":"f7209d01-b164-4839-814c-eaad11d33f1d","system_id":"levelo_inurba_marseille","lat":43.29545,"lon":5.38535,"is_reserved":false,"is_disabled":false,"rental_uris":{"android":"levelo://app?vid=f7209d01-b164-4839-814c-eaad11d33f1d","ios":"levelo://app?vid=f7209d01-b164-4839-814c-eaad11d33f1d"},"vehicle_type_id":"4","last_reported":1761671422,"current_range_meters":2800,"station_id":"ce4bgih2rcd13ifvqba0","pricing_plan_id":"cebpf4jnsgd1na2vs0mg"},{"bike_id":"c5670090-28e4-4a30-8b52-6f97e9f95071","system_id":"levelo_inurba_marseille","lat":43.29647,"lon":5.39181,"is_reserved":false,"is_disabled":false,"rental_uris":{"android":"levelo://app?vid=c5670090-28e4-4a30-8b52-6f97e9f95071","ios":"levelo://app?vid=c5670090-28e4-4a30-8b52-6f97e9f95071"},"vehicle_type_id":"4","last_reported":1761671422,"current_range_meters":2800,"station_id":"","pricing_plan_id":"cebpf4jnsgd1na2vs0mg"},{"bike_id":"c1029715-0d70-4533-b4fb-3bdfb25543b8","system_id":"levelo_inurba_marseille","lat":43.29872,"lon":5.39738,"is_reserved":false,"is_disabled":false,"rental_uris":{"android":"levelo://app?vid=c1029715-0d70-4533-b4fb-3bdfb25543b8","ios":"levelo://app?vid=c1029715-0d70-4533-b4fb-3bdfb25543b8"},"vehicle_type_id":"4","last_reported":1761671422,"current_range_meters":2800,"station_id":"ce4bh0h2rcd13ifvqd50","pricing_plan_id":"cebpf4jnsgd1na2vs0mg"},{"bike_id":"953fa6bc-6518-49c3-952a-3a9dac14874b","system_id":"levelo_inurba_marseille","lat":43.28274,"lon":5.35064,"is_reserved":false,"is_disabled":false,"rental_uris":{"android":"levelo://app?vid=953fa6bc-6518-49c3-952a-3a9dac14874b","ios":"levelo://app?vid=953fa6bc-6518-49c3-952a-3a9dac14874b"},"vehicle_type_id":"4","last_reported":1761671422,"current_range_meters":2800,"station_id":"ce4bhbp2rcd13ifvqerg","pricing_plan_id":"cebpf4jnsgd1na2vs0mg"},{"bike_id":"1ad77157-551f-4b48-944f-6e6afe1c63c8","system_id":"levelo_inurba_marseille","lat":43.29798,"lon":5.38097,"is_reserved":false,"is_disabled":false,"rental_uris":{"android":"levelo://app?vid=1ad77157-551f-4b48-944f-6e6afe1c63c8","ios":"levelo://app?vid=1ad77157-551f-4b48-944f-6e6afe1c63c8"},"vehicle_type_id":"4","last_reported":1761671422,"current_range_meters":3200,"station_id":"ce4bgip2rcd13ifvqbb0","pricing_plan_id":"cebpf4jnsgd1na2vs0mg"},{"bike_id":"dbc0e999-85bd-4a1d-a4d4-696c0adb85db","system_id":"levelo_inurba_marseille","lat":43.29855,"lon":5.3633,"is_reserved":false,"is_disabled":true,"rental_uris":{"android":"levelo://app?vid=dbc0e999-85bd-4a1d-a4d4-696c0adb85db","ios":"levelo://app?vid=dbc0e999-85bd-4a1d-a4d4-696c0adb85db"},"vehicle_type_id":"4","last_reported":1761671422,"current_range_meters":3200,"station_id":"ce4bgpp2rcd13ifvqc3g","pricing_plan_id":"cebpf4jnsgd1na2vs0mg"},{"bike_id":"bf3c78aa-94c9-46e7-8cda-e14c5dce9b9f","system_id":"levelo_inurba_marseille","lat":43.29808,"lon":5.381152,"is_reserved":false,"is_disabled":false,"rental_uris":{"android":"levelo://app?vid=bf3c78aa-94c9-46e7-8cda-e14c5dce9b9f","ios":"levelo://app?vid=bf3c78aa-94c9-46e7-8cda-e14c5dce9b9f"},"vehicle_type_id":"4","last_reported":1761671422,"current_range_meters":3200,"station_id":"ce4bgip2rcd13ifvqbb0","pricing_plan_id":"cebpf4jnsgd1na2vs0mg"},{"bike_id":"ee481740-1492-489d-a140-b93c62b22a16","system_id":"levelo_inurba_marseille","lat":43.23058,"lon":5.35494,"is_reserved":false,"is_disabled":false,"rental_uris":{"android":"levelo://app?vid=ee481740-1492-489d-a140-b93c62b22a16","ios":"levelo://app?vid=ee481740-1492-489d-a140-b93c62b22a16"},"vehicle_type_id":"4","last_reported":1761671422,"current_range_meters":3200,"station_id":"cpo3342slgdg3j2ifvpg","pricing_plan_id":"cebpf4jnsgd1na2vs0mg"},{"bike_id":"41d45b45-3a52-4b5a-b2b3-1e62d5490ada","system_id":"levelo_inurba_marseille","lat":43.2852,"lon":5.44091,"is_reserved":false,"is_disabled":false,"rental_uris":{"android":"levelo://app?vid=41d45b45-3a52-4b5a-b2b3-1e62d5490ada","ios":"levelo://app?vid=41d45b45-3a52-4b5a-b2b3-1e62d5490ada"},"vehicle_type_id":"4","last_reported":1761671422,"current_range_meters":3600,"station_id":"st_d3j3df2ikq2c7380ej80","pricing_plan_id":"cebpf4jnsgd1na2vs0mg"},{"bike_id":"f27ff263-9f71-4aaf-877f-50a73cba7a9b","system_id":"levelo_inurba_marseille","lat":43.30177,"lon":5.36614,"is_reserved":false,"is_disabled":true,"rental_uris":{"android":"levelo://app?vid=f27ff263-9f71-4aaf-877f-50a73cba7a9b","ios":"levelo://app?vid=f27ff263-9f71-4aaf-877f-50a73cba7a9b"},"vehicle_type_id":"4","last_reported":1761671422,"current_range_meters":3600,"station_id":"ce4bgrh2rcd13ifvqc8g","pricing_plan_id":"cebpf4jnsgd1na2vs0mg"},{"bike_id":"64b75b4a-3497-4861-8cc2-90dd62cd9f5e","system_id":"levelo_inurba_marseille","lat":43.29317,"lon":5.43447,"is_reserved":false,"is_disabled":false,"rental_uris":{"android":"levelo://app?vid=64b75b4a-3497-4861-8cc2-90dd62cd9f5e","ios":"levelo://app?vid=64b75b4a-3497-4861-8cc2-90dd62cd9f5e"},"vehicle_type_id":"4","last_reported":1761671422,"current_range_meters":3600,"station_id":"","pricing_plan_id":"cebpf4jnsgd1na2vs0mg"},{"bike_id":"36830249-7f86-4e60-83f9-333a16deea41","system_id":"levelo_inurba_marseille","lat":43.2928,"lon":5.40126,"is_reserved":false,"is_disabled":false,"rental_uris":{"android":"levelo://app?vid=36830249-7f86-4e60-83f9-333a16deea41","ios":"levelo://app?vid=36830249-7f86-4e60-83f9-333a16deea41"},"vehicle_type_id":"4","last_reported":1761671422,"current_range_meters":3600,"station_id":"ce4bh312rcd13ifvqdk0","pricing_plan_id":"cebpf4jnsgd1na2vs0mg"},{"bike_id":"9cd1b342-03b1-4398-9e8f-130db4a496ce","system_id":"levelo_inurba_marseille","lat":43.29543,"lon":5.38537,"is_reserved":false,"is_disabled":false,"rental_uris":{"android":"levelo://app?vid=9cd1b342-03b1-4398-9e8f-130db4a496ce","ios":"levelo://app?vid=9cd1b342-03b1-4398-9e8f-130db4a496ce"},"vehicle_type_id":"4","last_reported":1761671422,"current_range_meters":3600,"station_id":"ce4bgih2rcd13ifvqba0","pricing_plan_id":"cebpf4jnsgd1na2vs0mg"},{"bike_id":"1b8b63ec-7548-4816-b198-44e2162337ac","system_id":"levelo_inurba_marseille","lat":43.306438,"lon":5.400786,"is_reserved":false,"is_disabled":true,"rental_uris":{"android":"levelo://app?vid=1b8b63ec-7548-4816-b198-44e2162337ac","ios":"levelo://app?vid=1b8b63ec-7548-4816-b198-44e2162337ac"},"vehicle_type_id":"4","last_reported":1761671422,"current_range_meters":4000,"station_id":"ce4bh112rcd13ifvqda0","pricing_plan_id":"cebpf4jnsgd1na2vs0mg"},{"bike_id":"3fb68a9b-8419-49c2-8154-e6085206c514","system_id":"levelo_inurba_marseille","lat":43.292577,"lon":5.409036,"is_reserved":false,"is_disabled":false,"rental_uris":{"android":"levelo://app?vid=3fb68a9b-8419-49c2-8154-e6085206c514","ios":"levelo://app?vid=3fb68a9b-8419-49c2-8154-e6085206c514"},"vehicle_type_id":"4","last_reported":1761671422,"current_range_meters":4000,"station_id":"ce4bh192rcd13ifvqdc0","pricing_plan_id":"cebpf4jnsgd1na2vs0mg"},{"bike_id":"5853ddc8-c3de-447c-af0d-54e919a24461","system_id":"levelo_inurba_marseille","lat":43.29952,"lon":5.38512,"is_reserved":false,"is_disabled":false,"rental_uris":{"android":"levelo://app?vid=5853ddc8-c3de-447c-af0d-54e919a24461","ios":"levelo://app?vid=5853ddc8-c3de-447c-af0d-54e919a24461"},"vehicle_type_id":"4","last_reported":1761671422,"current_range_meters":4000,"station_id":"ce4bgj92rcd13ifvqbd0","pricing_plan_id":"cebpf4jnsgd1na2vs0mg"},{"bike_id":"de5cece4-6186-4ccb-b70e-a25e8bd3fc86","system_id":"levelo_inurba_marseille","lat":43.337444,"lon":5.374475,"is_reserved":false,"is_disabled":false,"rental_uris":{"android":"levelo://app?vid=de5cece4-6186-4ccb-b70e-a25e8bd3fc86","ios":"levelo://app?vid=de5cece4-6186-4ccb-b70e-a25e8bd3fc86"},"vehicle_type_id":"4","last_reported":1761671422,"current_range_meters":4000,"station_id":"","pricing_plan_id":"cebpf4jnsgd1na2vs0mg"},{"bike_id":"34272979-57d0-43ce-92fe-4ee31e5e3c8a","system_id":"levelo_inurba_marseille","lat":43.290314,"lon":5.38645,"is_reserved":false,"is_disabled":false,"rental_uris":{"android":"levelo://app?vid=34272979-57d0-43ce-92fe-4ee31e5e3c8a","ios":"levelo://app?vid=34272979-57d0-43ce-92fe-4ee31e5e3c8a"},"vehicle_type_id":"4","last_reported":1761671422,"current_range_meters":4400,"station_id":"ce4bh4p2rcd13ifvqe0g","pricing_plan_id":"cebpf4jnsgd1na2vs0mg"},{"bike_id":"3ea13603-c9ad-4550-9948-b83f47812af6","system_id":"levelo_inurba_marseille","lat":43.29092,"lon":5.36633,"is_reserved":false,"is_disabled":false,"rental_uris":{"android":"levelo://app?vid=3ea13603-c9ad-4550-9948-b83f47812af6","ios":"levelo://app?vid=3ea13603-c9ad-4550-9948-b83f47812af6"},"vehicle_type_id":"4","last_reported":1761671422,"current_range_meters":4400,"station_id":"","pricing_plan_id":"cebpf4jnsgd1na2vs0mg"},{"bike_id":"800c5b7d-316c-48ce-b105-26f3ac22d93d","system_id":"levelo_inurba_marseille","lat":43.25084,"lon":5.39525,"is_reserved":false,"is_disabled":false,"rental_uris":{"android":"levelo://app?vid=800c5b7d-316c-48ce-b105-26f3ac22d93d","ios":"levelo://app?vid=800c5b7d-316c-48ce-b105-26f3ac22d93d"},"vehicle_type_id":"4","last_reported":1761671422,"current_range_meters":4400,"station_id":"ce4bhm12rcd13ifvqgkg","pricing_plan_id":"cebpf4jnsgd1na2vs0mg"},{"bike_id":"853a91e8-ae8b-4f5b-975b-b9d5748a4a68","system_id":"levelo_inurba_marseille","lat":43.25867,"lon":5.39897,"is_reserved":false,"is_disabled":false,"rental_uris":{"android":"levelo://app?vid=853a91e8-ae8b-4f5b-975b-b9d5748a4a68","ios":"levelo://app?vid=853a91e8-ae8b-4f5b-975b-b9d5748a4a68"},"vehicle_type_id":"4","last_reported":1761671422,"current_range_meters":4800,"station_id":"ce4bhl92rcd13ifvqghg","pricing_plan_id":"cebpf4jnsgd1na2vs0mg"},{"bike_id":"cf6a480b-2d18-414e-8eaf-584c5e2740ce","system_id":"levelo_inurba_marseille","lat":43.29972,"lon":5.38508,"is_reserved":false,"is_disabled":false,"rental_uris":{"android":"levelo://app?vid=cf6a480b-2d18-414e-8eaf-584c5e2740ce","ios":"levelo://app?vid=cf6a480b-2d18-414e-8eaf-584c5e2740ce"},"vehicle_type_id":"4","last_reported":1761671422,"current_range_meters":4800,"station_id":"ce4bgj92rcd13ifvqbd0","pricing_plan_id":"cebpf4jnsgd1na2vs0mg"},{"bike_id":"702bc2ac-36f3-4af0-a25e-97192d4d1cc9","system_id":"levelo_inurba_marseille","lat":43.25873,"lon":5.399,"is_reserved":false,"is_disabled":false,"rental_uris":{"android":"levelo://app?vid=702bc2ac-36f3-4af0-a25e-97192d4d1cc9","ios":"levelo://app?vid=702bc2ac-36f3-4af0-a25e-97192d4d1cc9"},"vehicle_type_id":"4","last_reported":1761671422,"current_range_meters":4800,"station_id":"ce4bhl92rcd13ifvqghg","pricing_plan_id":"cebpf4jnsgd1na2vs0mg"},{"bike_id":"e4ccce50-4824-4895-aa8c-033835526f23","system_id":"levelo_inurba_marseille","lat":43.31867,"lon":5.4,"is_reserved":false,"is_disabled":false,"rental_uris":{"android":"levelo://app?vid=e4ccce50-4824-4895-aa8c-033835526f23","ios":"levelo://app?vid=e4ccce50-4824-4895-aa8c-033835526f23"},"vehicle_type_id":"4","last_reported":1761671422,"current_range_meters":4800,"station_id":"","pricing_plan_id":"cebpf4jnsgd1na2vs0mg"},{"bike_id":"53e8a7b3-8d90-49b0-a347-b6c9d39d23ea","system_id":"levelo_inurba_marseille","lat":43.28422,"lon":5.37525,"is_reserved":false,"is_disabled":false,"rental_uris":{"android":"levelo://app?vid=53e8a7b3-8d90-49b0-a347-b6c9d39d23ea","ios":"levelo://app?vid=53e8a7b3-8d90-49b0-a347-b6c9d39d23ea"},"vehicle_type_id":"4","last_reported":1761671422,"current_range_meters":5600,"station_id":"ce4bh412rcd13ifvqds0","pricing_plan_id":"cebpf4jnsgd1na2vs0mg"},{"bike_id":"6f88485e-31c9-4766-befb-b5d7f500f4a7","system_id":"levelo_inurba_marseille","lat":43.2737,"lon":5.36241,"is_reserved":false,"is_disabled":false,"rental_uris":{"android":"levelo://app?vid=6f88485e-31c9-4766-befb-b5d7f500f4a7","ios":"levelo://app?vid=6f88485e-31c9-4766-befb-b5d7f500f4a7"},"vehicle_type_id":"4","last_reported":1761671422,"current_range_meters":5600,"station_id":"ce4bhbh2rcd13ifvqeo0","pricing_plan_id":"cebpf4jnsgd1na2vs0mg"},{"bike_id":"db89d7d3-195a-4681-861b-514f5dfab54b","system_id":"levelo_inurba_marseille","lat":43.287109,"lon":5.373883,"is_reserved":false,"is_disabled":false,"rental_uris":{"android":"levelo://app?vid=db89d7d3-195a-4681-861b-514f5dfab54b","ios":"levelo://app?vid=db89d7d3-195a-4681-861b-514f5dfab54b"},"vehicle_type_id":"4","last_reported":1761671422,"current_range_meters":5600,"station_id":"ce4bh3p2rcd13ifvqdq0","pricing_plan_id":"cebpf4jnsgd1na2vs0mg"},{"bike_id":"97a31a90-5aec-4742-929e-de62da0db225","system_id":"levelo_inurba_marseille","lat":43.30637,"lon":5.40108,"is_reserved":false,"is_disabled":false,"rental_uris":{"android":"levelo://app?vid=97a31a90-5aec-4742-929e-de62da0db225","ios":"levelo://app?vid=97a31a90-5aec-4742-929e-de62da0db225"},"vehicle_type_id":"4","last_reported":1761671422,"current_range_meters":5600,"station_id":"ce4bh112rcd13ifvqda0","pricing_plan_id":"cebpf4jnsgd1na2vs0mg"},{"bike_id":"5faec6c4-cdb1-4121-8451-a94691ebd0f9","system_id":"levelo_inurba_marseille","lat":43.31254,"lon":5.40185,"is_reserved":false,"is_disabled":false,"rental_uris":{"android":"levelo://app?vid=5faec6c4-cdb1-4121-8451-a94691ebd0f9","ios":"levelo://app?vid=5faec6c4-cdb1-4121-8451-a94691ebd0f9"},"vehicle_type_id":"4","last_reported":1761671422,"current_range_meters":5600,"station_id":"ce4bh092rcd13ifvqd30","pricing_plan_id":"cebpf4jnsgd1na2vs0mg"},{"bike_id":"3f7c552a-2a9b-4bf8-95bd-507570380f71","system_id":"levelo_inurba_marseille","lat":43.28696,"lon":5.37937,"is_reserved":false,"is_disabled":false,"rental_uris":{"android":"levelo://app?vid=3f7c552a-2a9b-4bf8-95bd-507570380f71","ios":"levelo://app?vid=3f7c552a-2a9b-4bf8-95bd-507570380f71"},"vehicle_type_id":"4","last_reported":1761671422,"current_range_meters":6000,"station_id":"","pricing_plan_id":"cebpf4jnsgd1na2vs0mg"},{"bike_id":"314079d6-ef9f-41e2-87c2-6e020f36d09c","system_id":"levelo_inurba_marseille","lat":43.21185,"lon":5.35106,"is_reserved":false,"is_disabled":false,"rental_uris":{"android":"levelo://app?vid=314079d6-ef9f-41e2-87c2-6e020f36d09c","ios":"levelo://app?vid=314079d6-ef9f-41e2-87c2-6e020f36d09c"},"vehicle_type_id":"4","last_reported":1761671422,"current_range_meters":6000,"station_id":"","pricing_plan_id":"cebpf4jnsgd1na2vs0mg"},{"bike_id":"c48dc094-4c25-4b99-9aa9-ff1b8c1db8dc","system_id":"levelo_inurba_marseille","lat":43.225322,"lon":5.348327,"is_reserved":false,"is_disabled":false,"rental_uris":{"android":"levelo://app?vid=c48dc094-4c25-4b99-9aa9-ff1b8c1db8dc","ios":"levelo://app?vid=c48dc094-4c25-4b99-9aa9-ff1b8c1db8dc"},"vehicle_type_id":"4","last_reported":1761671422,"current_range_meters":6000,"station_id":"","pricing_plan_id":"cebpf4jnsgd1na2vs0mg"},{"bike_id":"467aa7e5-4809-41ab-b8b2-17022e5b8834","system_id":"levelo_inurba_marseille","lat":43.27937,"lon":5.41048,"is_reserved":false,"is_disabled":false,"rental_uris":{"android":"levelo://app?vid=467aa7e5-4809-41ab-b8b2-17022e5b8834","ios":"levelo://app?vid=467aa7e5-4809-41ab-b8b2-17022e5b8834"},"vehicle_type_id":"4","last_reported":1761671422,"current_range_meters":6000,"station_id":"ce4bhnp2rcd13ifvqh0g","pricing_plan_id":"cebpf4jnsgd1na2vs0mg"},{"bike_id":"8d5f994b-c3c7-4d3a-a5f2-19a8daa75dbf","system_id":"levelo_inurba_marseille","lat":43.27818,"lon":5.40774,"is_reserved":false,"is_disabled":false,"rental_uris":{"android":"levelo://app?vid=8d5f994b-c3c7-4d3a-a5f2-19a8daa75dbf","ios":"levelo://app?vid=8d5f994b-c3c7-4d3a-a5f2-19a8daa75dbf"},"vehicle_type_id":"4","last_reported":1761671422,"current_range_meters":6000,"station_id":"ce4bhnh2rcd13ifvqgtg","pricing_plan_id":"cebpf4jnsgd1na2vs0mg"},{"bike_id":"ab630fa5-7455-4bb9-84d8-e2884e65b0e5","system_id":"levelo_inurba_marseille","lat":43.28735,"lon":5.37938,"is_reserved":false,"is_disabled":false,"rental_uris":{"android":"levelo://app?vid=ab630fa5-7455-4bb9-84d8-e2884e65b0e5","ios":"levelo://app?vid=ab630fa5-7455-4bb9-84d8-e2884e65b0e5"},"vehicle_type_id":"4","last_reported":1761671422,"current_range_meters":6000,"station_id":"ce4bh9p2rcd13ifvqec0","pricing_plan_id":"cebpf4jnsgd1na2vs0mg"},{"bike_id":"3da1e0a6-92f4-48a3-be87-c0a39bcb0d32","system_id":"levelo_inurba_marseille","lat":43.25866,"lon":5.39896,"is_reserved":false,"is_disabled":false,"rental_uris":{"android":"levelo://app?vid=3da1e0a6-92f4-48a3-be87-c0a39bcb0d32","ios":"levelo://app?vid=3da1e0a6-92f4-48a3-be87-c0a39bcb0d32"},"vehicle_type_id":"4","last_reported":1761671422,"current_range_meters":6000,"station_id":"ce4bhl92rcd13ifvqghg","pricing_plan_id":"cebpf4jnsgd1na2vs0mg"},{"bike_id":"c4a6a5ab-f472-4bff-80e2-092ca4fca1a0","system_id":"levelo_inurba_marseille","lat":43.295374,"lon":5.39038,"is_reserved":false,"is_disabled":true,"rental_uris":{"android":"levelo://app?vid=c4a6a5ab-f472-4bff-80e2-092ca4fca1a0","ios":"levelo://app?vid=c4a6a5ab-f472-4bff-80e2-092ca4fca1a0"},"vehicle_type_id":"4","last_reported":1761671422,"current_range_meters":6400,"station_id":"ce4bh3p2rcd13ifvqdp0","pricing_plan_id":"cebpf4jnsgd1na2vs0mg"},{"bike_id":"aba6b563-5093-4f2c-abdc-45b501f05388","system_id":"levelo_inurba_marseille","lat":43.27071,"lon":5.38312,"is_reserved":false,"is_disabled":true,"rental_uris":{"android":"levelo://app?vid=aba6b563-5093-4f2c-abdc-45b501f05388","ios":"levelo://app?vid=aba6b563-5093-4f2c-abdc-45b501f05388"},"vehicle_type_id":"4","last_reported":1761671422,"current_range_meters":6400,"station_id":"st_d3n2fo6cfp8s73cte1j0","pricing_plan_id":"cebpf4jnsgd1na2vs0mg"},{"bike_id":"f205e7d2-48bf-463d-917f-5e3a02003509","system_id":"levelo_inurba_marseille","lat":43.286171,"lon":5.351095,"is_reserved":false,"is_disabled":false,"rental_uris":{"android":"levelo://app?vid=f205e7d2-48bf-463d-917f-5e3a02003509","ios":"levelo://app?vid=f205e7d2-48bf-463d-917f-5e3a02003509"},"vehicle_type_id":"4","last_reported":1761671422,"current_range_meters":6800,"station_id":"ce4bh692rcd13ifvqea0","pricing_plan_id":"cebpf4jnsgd1na2vs0mg"},{"bike_id":"98a63f17-9d81-4417-ac8b-bdc492fcc586","system_id":"levelo_inurba_marseille","lat":43.29519,"lon":5.39044,"is_reserved":false,"is_disabled":false,"rental_uris":{"android":"levelo://app?vid=98a63f17-9d81-4417-ac8b-bdc492fcc586","ios":"levelo://app?vid=98a63f17-9d81-4417-ac8b-bdc492fcc586"},"vehicle_type_id":"4","last_reported":1761671422,"current_range_meters":6800,"station_id":"ce4bh3p2rcd13ifvqdp0","pricing_plan_id":"cebpf4jnsgd1na2vs0mg"},{"bike_id":"cd3cde32-8a3e-41a1-ad26-9a3a18507d4f","system_id":"levelo_inurba_marseille","lat":43.28681,"lon":5.38667,"is_reserved":false,"is_disabled":false,"rental_uris":{"android":"levelo://app?vid=cd3cde32-8a3e-41a1-ad26-9a3a18507d4f","ios":"levelo://app?vid=cd3cde32-8a3e-41a1-ad26-9a3a18507d4f"},"vehicle_type_id":"4","last_reported":1761671422,"current_range_meters":6800,"station_id":"ce4bh492rcd13ifvqdug","pricing_plan_id":"cebpf4jnsgd1na2vs0mg"},{"bike_id":"18619ea4-1d14-4ba8-9170-8189de5d4da4","system_id":"levelo_inurba_marseille","lat":43.29238,"lon":5.37727,"is_reserved":false,"is_disabled":false,"rental_uris":{"android":"levelo://app?vid=18619ea4-1d14-4ba8-9170-8189de5d4da4","ios":"levelo://app?vid=18619ea4-1d14-4ba8-9170-8189de5d4da4"},"vehicle_type_id":"4","last_reported":1761671422,"current_range_meters":6800,"station_id":"","pricing_plan_id":"cebpf4jnsgd1na2vs0mg"},{"bike_id":"76cde579-2d3c-454d-96f9-4ca0ee477908","system_id":"levelo_inurba_marseille","lat":43.29799,"lon":5.38101,"is_reserved":false,"is_disabled":false,"rental_uris":{"android":"levelo://app?vid=76cde579-2d3c-454d-96f9-4ca0ee477908","ios":"levelo://app?vid=76cde579-2d3c-454d-96f9-4ca0ee477908"},"vehicle_type_id":"4","last_reported":1761671422,"current_range_meters":7200,"station_id":"ce4bgip2rcd13ifvqbb0","pricing_plan_id":"cebpf4jnsgd1na2vs0mg"},{"bike_id":"9a4b11c4-31bf-4759-8c57-fbb8a2e57e23","system_id":"levelo_inurba_marseille","lat":43.28855,"lon":5.3931,"is_reserved":false,"is_disabled":false,"rental_uris":{"android":"levelo://app?vid=9a4b11c4-31bf-4759-8c57-fbb8a2e57e23","ios":"levelo://app?vid=9a4b11c4-31bf-4759-8c57-fbb8a2e57e23"},"vehicle_type_id":"4","last_reported":1761671422,"current_range_meters":7200,"station_id":"ce4bh2p2rcd13ifvqdi0","pricing_plan_id":"cebpf4jnsgd1na2vs0mg"},{"bike_id":"55814a4c-5325-4a6d-8bda-153782503573","system_id":"levelo_inurba_marseille","lat":43.28936,"lon":5.38392,"is_reserved":false,"is_disabled":false,"rental_uris":{"android":"levelo://app?vid=55814a4c-5325-4a6d-8bda-153782503573","ios":"levelo://app?vid=55814a4c-5325-4a6d-8bda-153782503573"},"vehicle_type_id":"4","last_reported":1761671422,"current_range_meters":7200,"station_id":"ce4bh612rcd13ifvqe6g","pricing_plan_id":"cebpf4jnsgd1na2vs0mg"},{"bike_id":"dda7b71c-dcbd-4bfc-ae5e-d8372b69d564","system_id":"levelo_inurba_marseille","lat":43.29609,"lon":5.37713,"is_reserved":false,"is_disabled":true,"rental_uris":{"android":"levelo://app?vid=dda7b71c-dcbd-4bfc-ae5e-d8372b69d564","ios":"levelo://app?vid=dda7b71c-dcbd-4bfc-ae5e-d8372b69d564"},"vehicle_type_id":"4","last_reported":1761671422,"current_range_meters":7200,"station_id":"ce4bgi92rcd13ifvqb90","pricing_plan_id":"cebpf4jnsgd1na2vs0mg"},{"bike_id":"609a9047-57e2-4b1e-851d-8b6ef3587f94","system_id":"levelo_inurba_marseille","lat":43.28609,"lon":5.37058,"is_reserved":false,"is_disabled":false,"rental_uris":{"android":"levelo://app?vid=609a9047-57e2-4b1e-851d-8b6ef3587f94","ios":"levelo://app?vid=609a9047-57e2-4b1e-851d-8b6ef3587f94"},"vehicle_type_id":"4","last_reported":1761671422,"current_range_meters":8000,"station_id":"ce4bht12rcd13ifvqi60","pricing_plan_id":"cebpf4jnsgd1na2vs0mg"},{"bike_id":"909c7e60-5a27-49af-9988-8563c92ed645","system_id":"levelo_inurba_marseille","lat":43.28369,"lon":5.381,"is_reserved":false,"is_disabled":false,"rental_uris":{"android":"levelo://app?vid=909c7e60-5a27-49af-9988-8563c92ed645","ios":"levelo://app?vid=909c7e60-5a27-49af-9988-8563c92ed645"},"vehicle_type_id":"4","last_reported":1761671422,"current_range_meters":8000,"station_id":"ce4bh412rcd13ifvqdr0","pricing_plan_id":"cebpf4jnsgd1na2vs0mg"},{"bike_id":"fd09dbe7-0bec-431b-9705-875a0c7a7829","system_id":"levelo_inurba_marseille","lat":43.23059,"lon":5.35497,"is_reserved":false,"is_disabled":true,"rental_uris":{"android":"levelo://app?vid=fd09dbe7-0bec-431b-9705-875a0c7a7829","ios":"levelo://app?vid=fd09dbe7-0bec-431b-9705-875a0c7a7829"},"vehicle_type_id":"4","last_reported":1761671422,"current_range_meters":8400,"station_id":"cpo3342slgdg3j2ifvpg","pricing_plan_id":"cebpf4jnsgd1na2vs0mg"},{"bike_id":"ebcb5333-5c1f-4a14-abed-8f465ebce11a","system_id":"levelo_inurba_marseille","lat":43.269074,"lon":5.367621,"is_reserved":false,"is_disabled":false,"rental_uris":{"android":"levelo://app?vid=ebcb5333-5c1f-4a14-abed-8f465ebce11a","ios":"levelo://app?vid=ebcb5333-5c1f-4a14-abed-8f465ebce11a"},"vehicle_type_id":"4","last_reported":1761671422,"current_range_meters":8400,"station_id":"ce4bhgp2rcd13ifvqfc0","pricing_plan_id":"cebpf4jnsgd1na2vs0mg"},{"bike_id":"ee44b66d-77fd-4d17-bc53-5425e652b07c","system_id":"levelo_inurba_marseille","lat":43.251184,"lon":5.403168,"is_reserved":false,"is_disabled":false,"rental_uris":{"android":"levelo://app?vid=ee44b66d-77fd-4d17-bc53-5425e652b07c","ios":"levelo://app?vid=ee44b66d-77fd-4d17-bc53-5425e652b07c"},"vehicle_type_id":"4","last_reported":1761671422,"current_range_meters":8400,"station_id":"ce4bhlh2rcd13ifvqgig","pricing_plan_id":"cebpf4jnsgd1na2vs0mg"},{"bike_id":"eea3c3c3-734f-4fd3-8061-ed84cfe47b38","system_id":"levelo_inurba_marseille","lat":43.32548,"lon":5.39143,"is_reserved":false,"is_disabled":false,"rental_uris":{"android":"levelo://app?vid=eea3c3c3-734f-4fd3-8061-ed84cfe47b38","ios":"levelo://app?vid=eea3c3c3-734f-4fd3-8061-ed84cfe47b38"},"vehicle_type_id":"4","last_reported":1761671422,"current_range_meters":8400,"station_id":"","pricing_plan_id":"cebpf4jnsgd1na2vs0mg"},{"bike_id":"29902583-9450-4aea-886e-f84d10138293","system_id":"levelo_inurba_marseille","lat":43.29972,"lon":5.3849,"is_reserved":false,"is_disabled":false,"rental_uris":{"android":"levelo://app?vid=29902583-9450-4aea-886e-f84d10138293","ios":"levelo://app?vid=29902583-9450-4aea-886e-f84d10138293"},"vehicle_type_id":"4","last_reported":1761671422,"current_range_meters":8400,"station_id":"ce4bgj92rcd13ifvqbd0","pricing_plan_id":"cebpf4jnsgd1na2vs0mg"},{"bike_id":"4483cb70-6770-423e-91c1-91569250b13f","system_id":"levelo_inurba_marseille","lat":43.26196,"lon":5.37452,"is_reserved":false,"is_disabled":false,"rental_uris":{"android":"levelo://app?vid=4483cb70-6770-423e-91c1-91569250b13f","ios":"levelo://app?vid=4483cb70-6770-423e-91c1-91569250b13f"},"vehicle_type_id":"4","last_reported":1761671422,"current_range_meters":8800,"station_id":"ce4bhgp2rcd13ifvqfc0","pricing_plan_id":"cebpf4jnsgd1na2vs0mg"},{"bike_id":"c8f51553-37e6-437f-ae47-3a6f0674c4b8","system_id":"levelo_inurba_marseille","lat":43.30924,"lon":5.40151,"is_reserved":false,"is_disabled":false,"rental_uris":{"android":"levelo://app?vid=c8f51553-37e6-437f-ae47-3a6f0674c4b8","ios":"levelo://app?vid=c8f51553-37e6-437f-ae47-3a6f0674c4b8"},"vehicle_type_id":"4","last_reported":1761671422,"current_range_meters":8800,"station_id":"ce4bgvp2rcd13ifvqct0","pricing_plan_id":"cebpf4jnsgd1na2vs0mg"},{"bike_id":"eb9a934f-eb71-4104-86d2-6b7f55623d60","system_id":"levelo_inurba_marseille","lat":43.273731,"lon":5.362643,"is_reserved":false,"is_disabled":false,"rental_uris":{"android":"levelo://app?vid=eb9a934f-eb71-4104-86d2-6b7f55623d60","ios":"levelo://app?vid=eb9a934f-eb71-4104-86d2-6b7f55623d60"},"vehicle_type_id":"4","last_reported":1761671422,"current_range_meters":8800,"station_id":"ce4bhbh2rcd13ifvqeo0","pricing_plan_id":"cebpf4jnsgd1na2vs0mg"},{"bike_id":"b32e247f-0aae-422d-972d-ff583c7b3986","system_id":"levelo_inurba_marseille","lat":43.299622,"lon":5.384776,"is_reserved":false,"is_disabled":false,"rental_uris":{"android":"levelo://app?vid=b32e247f-0aae-422d-972d-ff583c7b3986","ios":"levelo://app?vid=b32e247f-0aae-422d-972d-ff583c7b3986"},"vehicle_type_id":"4","last_reported":1761671422,"current_range_meters":8800,"station_id":"ce4bgj92rcd13ifvqbd0","pricing_plan_id":"cebpf4jnsgd1na2vs0mg"},{"bike_id":"6107bc2f-025a-4d51-9749-da51d8981181","system_id":"levelo_inurba_marseille","lat":43.292631,"lon":5.40905,"is_reserved":false,"is_disabled":false,"rental_uris":{"android":"levelo://app?vid=6107bc2f-025a-4d51-9749-da51d8981181","ios":"levelo://app?vid=6107bc2f-025a-4d51-9749-da51d8981181"},"vehicle_type_id":"4","last_reported":1761671422,"current_range_meters":9200,"station_id":"","pricing_plan_id":"cebpf4jnsgd1na2vs0mg"},{"bike_id":"a20a1c39-0742-4ef2-bdc9-7597e55e2a89","system_id":"levelo_inurba_marseille","lat":43.2923,"lon":5.3606,"is_reserved":false,"is_disabled":false,"rental_uris":{"android":"levelo://app?vid=a20a1c39-0742-4ef2-bdc9-7597e55e2a89","ios":"levelo://app?vid=a20a1c39-0742-4ef2-bdc9-7597e55e2a89"},"vehicle_type_id":"4","last_reported":1761671422,"current_range_meters":9200,"station_id":"ce4bhbh2rcd13ifvqeqg","pricing_plan_id":"cebpf4jnsgd1na2vs0mg"},{"bike_id":"6aac9961-c1bc-4e4d-82f7-3dca6fd89785","system_id":"levelo_inurba_marseille","lat":43.3136,"lon":5.38499,"is_reserved":false,"is_disabled":false,"rental_uris":{"android":"levelo://app?vid=6aac9961-c1bc-4e4d-82f7-3dca6fd89785","ios":"levelo://app?vid=6aac9961-c1bc-4e4d-82f7-3dca6fd89785"},"vehicle_type_id":"4","last_reported":1761671422,"current_range_meters":9200,"station_id":"ce4bgt92rcd13ifvqcf0","pricing_plan_id":"cebpf4jnsgd1na2vs0mg"},{"bike_id":"208a1fa9-c371-4a9e-bc97-d54ccd03a0b4","system_id":"levelo_inurba_marseille","lat":43.32616,"lon":5.37578,"is_reserved":false,"is_disabled":false,"rental_uris":{"android":"levelo://app?vid=208a1fa9-c371-4a9e-bc97-d54ccd03a0b4","ios":"levelo://app?vid=208a1fa9-c371-4a9e-bc97-d54ccd03a0b4"},"vehicle_type_id":"4","last_reported":1761671422,"current_range_meters":9200,"station_id":"","pricing_plan_id":"cebpf4jnsgd1na2vs0mg"},{"bike_id":"40822fea-b5df-4b45-8f67-4dadafa2ae81","system_id":"levelo_inurba_marseille","lat":43.27165,"lon":5.410141,"is_reserved":false,"is_disabled":false,"rental_uris":{"android":"levelo://app?vid=40822fea-b5df-4b45-8f67-4dadafa2ae81","ios":"levelo://app?vid=40822fea-b5df-4b45-8f67-4dadafa2ae81"},"vehicle_type_id":"4","last_reported":1761671422,"current_range_meters":9200,"station_id":"ce4bhl12rcd13ifvqgf0","pricing_plan_id":"cebpf4jnsgd1na2vs0mg"},{"bike_id":"1880ebb9-7edb-463e-976b-226e958b9ebe","system_id":"levelo_inurba_marseille","lat":43.31097,"lon":5.37487,"is_reserved":false,"is_disabled":false,"rental_uris":{"android":"levelo://app?vid=1880ebb9-7edb-463e-976b-226e958b9ebe","ios":"levelo://app?vid=1880ebb9-7edb-463e-976b-226e958b9ebe"},"vehicle_type_id":"4","last_reported":1761671422,"current_range_meters":9600,"station_id":"ce4bgt12rcd13ifvqce0","pricing_plan_id":"cebpf4jnsgd1na2vs0mg"},{"bike_id":"5909397c-efe8-4534-8bf7-8dbe1bf59fbc","system_id":"levelo_inurba_marseille","lat":43.31266,"lon":5.40173,"is_reserved":false,"is_disabled":false,"rental_uris":{"android":"levelo://app?vid=5909397c-efe8-4534-8bf7-8dbe1bf59fbc","ios":"levelo://app?vid=5909397c-efe8-4534-8bf7-8dbe1bf59fbc"},"vehicle_type_id":"4","last_reported":1761671422,"current_range_meters":9600,"station_id":"ce4bh092rcd13ifvqd30","pricing_plan_id":"cebpf4jnsgd1na2vs0mg"},{"bike_id":"9eb7a5ad-df68-479c-8af4-95e1e6164dd2","system_id":"levelo_inurba_marseille","lat":43.31281,"lon":5.40164,"is_reserved":false,"is_disabled":false,"rental_uris":{"android":"levelo://app?vid=9eb7a5ad-df68-479c-8af4-95e1e6164dd2","ios":"levelo://app?vid=9eb7a5ad-df68-479c-8af4-95e1e6164dd2"},"vehicle_type_id":"4","last_reported":1761671422,"current_range_meters":9600,"station_id":"ce4bh092rcd13ifvqd30","pricing_plan_id":"cebpf4jnsgd1na2vs0mg"},{"bike_id":"f9484733-c07f-4293-8628-46871c65b913","system_id":"levelo_inurba_marseille","lat":43.25456,"lon":5.38104,"is_reserved":false,"is_disabled":false,"rental_uris":{"android":"levelo://app?vid=f9484733-c07f-4293-8628-46871c65b913","ios":"levelo://app?vid=f9484733-c07f-4293-8628-46871c65b913"},"vehicle_type_id":"4","last_reported":1761671422,"current_range_meters":9600,"station_id":"","pricing_plan_id":"cebpf4jnsgd1na2vs0mg"},{"bike_id":"4ee8ed12-04e2-4138-86a5-f94264713969","system_id":"levelo_inurba_marseille","lat":43.30326,"lon":5.40438,"is_reserved":false,"is_disabled":false,"rental_uris":{"android":"levelo://app?vid=4ee8ed12-04e2-4138-86a5-f94264713969","ios":"levelo://app?vid=4ee8ed12-04e2-4138-86a5-f94264713969"},"vehicle_type_id":"4","last_reported":1761671422,"current_range_meters":9600,"station_id":"ce4bh012rcd13ifvqd10","pricing_plan_id":"cebpf4jnsgd1na2vs0mg"},{"bike_id":"3b82aff6-7cb9-43aa-944c-0f02fe4ef9fa","system_id":"levelo_inurba_marseille","lat":43.27964,"lon":5.38747,"is_reserved":false,"is_disabled":true,"rental_uris":{"android":"levelo://app?vid=3b82aff6-7cb9-43aa-944c-0f02fe4ef9fa","ios":"levelo://app?vid=3b82aff6-7cb9-43aa-944c-0f02fe4ef9fa"},"vehicle_type_id":"4","last_reported":1761671422,"current_range_meters":9600,"station_id":"ce4bhg12rcd13ifvqf80","pricing_plan_id":"cebpf4jnsgd1na2vs0mg"},{"bike_id":"c2aaeb94-0358-4ba6-aecb-cf971aef38f8","system_id":"levelo_inurba_marseille","lat":43.27612,"lon":5.36112,"is_reserved":false,"is_disabled":false,"rental_uris":{"android":"levelo://app?vid=c2aaeb94-0358-4ba6-aecb-cf971aef38f8","ios":"levelo://app?vid=c2aaeb94-0358-4ba6-aecb-cf971aef38f8"},"vehicle_type_id":"4","last_reported":1761671422,"current_range_meters":9600,"station_id":"ce4bgj92rcd13ifvqbe0","pricing_plan_id":"cebpf4jnsgd1na2vs0mg"},{"bike_id":"76e5559f-3075-44de-b410-d63522fe874e","system_id":"levelo_inurba_marseille","lat":43.286626,"lon":5.386674,"is_reserved":false,"is_disabled":false,"rental_uris":{"android":"levelo://app?vid=76e5559f-3075-44de-b410-d63522fe874e","ios":"levelo://app?vid=76e5559f-3075-44de-b410-d63522fe874e"},"vehicle_type_id":"4","last_reported":1761671422,"current_range_meters":9600,"station_id":"ce4bh492rcd13ifvqdug","pricing_plan_id":"cebpf4jnsgd1na2vs0mg"},{"bike_id":"e8ddd2a1-2342-459a-a4b6-5739a50cf0a7","system_id":"levelo_inurba_marseille","lat":43.27991,"lon":5.4166,"is_reserved":false,"is_disabled":false,"rental_uris":{"android":"levelo://app?vid=e8ddd2a1-2342-459a-a4b6-5739a50cf0a7","ios":"levelo://app?vid=e8ddd2a1-2342-459a-a4b6-5739a50cf0a7"},"vehicle_type_id":"4","last_reported":1761671422,"current_range_meters":9600,"station_id":"ce4bho12rcd13ifvqh1g","pricing_plan_id":"cebpf4jnsgd1na2vs0mg"},{"bike_id":"ff3ce436-1785-418e-8081-70fae0b4c310","system_id":"levelo_inurba_marseille","lat":43.2706,"lon":5.42279,"is_reserved":false,"is_disabled":false,"rental_uris":{"android":"levelo://app?vid=ff3ce436-1785-418e-8081-70fae0b4c310","ios":"levelo://app?vid=ff3ce436-1785-418e-8081-70fae0b4c310"},"vehicle_type_id":"4","last_reported":1761671422,"current_range_meters":10000,"station_id":"ce4bhk92rcd13ifvqgb0","pricing_plan_id":"cebpf4jnsgd1na2vs0mg"},{"bike_id":"a8af5a22-97fa-4f94-87fc-bbfbab636f48","system_id":"levelo_inurba_marseille","lat":43.29311,"lon":5.37181,"is_reserved":false,"is_disabled":false,"rental_uris":{"android":"levelo://app?vid=a8af5a22-97fa-4f94-87fc-bbfbab636f48","ios":"levelo://app?vid=a8af5a22-97fa-4f94-87fc-bbfbab636f48"},"vehicle_type_id":"4","last_reported":1761671422,"current_range_meters":10000,"station_id":"ce4bgh92rcd13ifvqb40","pricing_plan_id":"cebpf4jnsgd1na2vs0mg"},{"bike_id":"dbcbcef0-4b5f-446e-9d2e-80d991993c2b","system_id":"levelo_inurba_marseille","lat":43.29441,"lon":5.40189,"is_reserved":false,"is_disabled":false,"rental_uris":{"android":"levelo://app?vid=dbcbcef0-4b5f-446e-9d2e-80d991993c2b","ios":"levelo://app?vid=dbcbcef0-4b5f-446e-9d2e-80d991993c2b"},"vehicle_type_id":"4","last_reported":1761671422,"current_range_meters":10000,"station_id":"","pricing_plan_id":"cebpf4jnsgd1na2vs0mg"},{"bike_id":"4b362e1d-451a-4f97-b2f0-2662c5b1b4e0","system_id":"levelo_inurba_marseille","lat":43.29738,"lon":5.42764,"is_reserved":false,"is_disabled":false,"rental_uris":{"android":"levelo://app?vid=4b362e1d-451a-4f97-b2f0-2662c5b1b4e0","ios":"levelo://app?vid=4b362e1d-451a-4f97-b2f0-2662c5b1b4e0"},"vehicle_type_id":"4","last_reported":1761671422,"current_range_meters":10800,"station_id":"st_d3md5207bmas73dh9klg","pricing_plan_id":"cebpf4jnsgd1na2vs0mg"},{"bike_id":"50458368-3c2e-46e5-bc6a-25ba3116f6df","system_id":"levelo_inurba_marseille","lat":43.29806,"lon":5.44058,"is_reserved":false,"is_disabled":false,"rental_uris":{"android":"levelo://app?vid=50458368-3c2e-46e5-bc6a-25ba3116f6df","ios":"levelo://app?vid=50458368-3c2e-46e5-bc6a-25ba3116f6df"},"vehicle_type_id":"4","last_reported":1761671422,"current_range_meters":10800,"station_id":"st_d3jp68qikq2c7381ktn0","pricing_plan_id":"cebpf4jnsgd1na2vs0mg"},{"bike_id":"ff1a03a9-9eb6-4a8e-81e3-310d0bffd2a8","system_id":"levelo_inurba_marseille","lat":43.25868,"lon":5.399,"is_reserved":false,"is_disabled":false,"rental_uris":{"android":"levelo://app?vid=ff1a03a9-9eb6-4a8e-81e3-310d0bffd2a8","ios":"levelo://app?vid=ff1a03a9-9eb6-4a8e-81e3-310d0bffd2a8"},"vehicle_type_id":"4","last_reported":1761671422,"current_range_meters":10800,"station_id":"ce4bhl92rcd13ifvqghg","pricing_plan_id":"cebpf4jnsgd1na2vs0mg"},{"bike_id":"b79e0352-0b58-479d-a65a-8e396b2658c3","system_id":"levelo_inurba_marseille","lat":43.30921,"lon":5.40153,"is_reserved":false,"is_disabled":false,"rental_uris":{"android":"levelo://app?vid=b79e0352-0b58-479d-a65a-8e396b2658c3","ios":"levelo://app?vid=b79e0352-0b58-479d-a65a-8e396b2658c3"},"vehicle_type_id":"4","last_reported":1761671422,"current_range_meters":10800,"station_id":"ce4bgvp2rcd13ifvqct0","pricing_plan_id":"cebpf4jnsgd1na2vs0mg"},{"bike_id":"0fbc5c09-9826-420c-8d7a-040de1fb8cad","system_id":"levelo_inurba_marseille","lat":43.28978,"lon":5.37841,"is_reserved":false,"is_disabled":false,"rental_uris":{"android":"levelo://app?vid=0fbc5c09-9826-420c-8d7a-040de1fb8cad","ios":"levelo://app?vid=0fbc5c09-9826-420c-8d7a-040de1fb8cad"},"vehicle_type_id":"4","last_reported":1761671422,"current_range_meters":11200,"station_id":"ce4bh9p2rcd13ifvqed0","pricing_plan_id":"cebpf4jnsgd1na2vs0mg"},{"bike_id":"5c5d2b4e-4276-4305-a754-b6704e0c7865","system_id":"levelo_inurba_marseille","lat":43.28485,"lon":5.38418,"is_reserved":false,"is_disabled":false,"rental_uris":{"android":"levelo://app?vid=5c5d2b4e-4276-4305-a754-b6704e0c7865","ios":"levelo://app?vid=5c5d2b4e-4276-4305-a754-b6704e0c7865"},"vehicle_type_id":"4","last_reported":1761671422,"current_range_meters":11200,"station_id":"ce4bh512rcd13ifvqe3g","pricing_plan_id":"cebpf4jnsgd1na2vs0mg"},{"bike_id":"4b248269-aa82-49d0-81f3-dc9abd085357","system_id":"levelo_inurba_marseille","lat":43.28701,"lon":5.39989,"is_reserved":false,"is_disabled":false,"rental_uris":{"android":"levelo://app?vid=4b248269-aa82-49d0-81f3-dc9abd085357","ios":"levelo://app?vid=4b248269-aa82-49d0-81f3-dc9abd085357"},"vehicle_type_id":"4","last_reported":1761671422,"current_range_meters":11200,"station_id":"ce4bho92rcd13ifvqh3g","pricing_plan_id":"cebpf4jnsgd1na2vs0mg"},{"bike_id":"de2bef24-6b67-4eee-88c7-d79077bac039","system_id":"levelo_inurba_marseille","lat":43.318862,"lon":5.407368,"is_reserved":false,"is_disabled":false,"rental_uris":{"android":"levelo://app?vid=de2bef24-6b67-4eee-88c7-d79077bac039","ios":"levelo://app?vid=de2bef24-6b67-4eee-88c7-d79077bac039"},"vehicle_type_id":"4","last_reported":1761671422,"current_range_meters":11600,"station_id":"ce4bhq12rcd13ifvqhig","pricing_plan_id":"cebpf4jnsgd1na2vs0mg"},{"bike_id":"6abb9e09-33f3-43f3-9417-8cc0cf0144f6","system_id":"levelo_inurba_marseille","lat":43.29918,"lon":5.37447,"is_reserved":false,"is_disabled":true,"rental_uris":{"android":"levelo://app?vid=6abb9e09-33f3-43f3-9417-8cc0cf0144f6","ios":"levelo://app?vid=6abb9e09-33f3-43f3-9417-8cc0cf0144f6"},"vehicle_type_id":"4","last_reported":1761671422,"current_range_meters":11600,"station_id":"ce4bgjh2rcd13ifvqbg0","pricing_plan_id":"cebpf4jnsgd1na2vs0mg"},{"bike_id":"92c6c169-2035-4ba5-8daf-3ee009aac373","system_id":"levelo_inurba_marseille","lat":43.3032,"lon":5.40439,"is_reserved":false,"is_disabled":false,"rental_uris":{"android":"levelo://app?vid=92c6c169-2035-4ba5-8daf-3ee009aac373","ios":"levelo://app?vid=92c6c169-2035-4ba5-8daf-3ee009aac373"},"vehicle_type_id":"4","last_reported":1761671422,"current_range_meters":11600,"station_id":"ce4bh012rcd13ifvqd10","pricing_plan_id":"cebpf4jnsgd1na2vs0mg"},{"bike_id":"1779d257-58f7-46b2-b6cd-7adf8dda594f","system_id":"levelo_inurba_marseille","lat":43.29978,"lon":5.38517,"is_reserved":false,"is_disabled":false,"rental_uris":{"android":"levelo://app?vid=1779d257-58f7-46b2-b6cd-7adf8dda594f","ios":"levelo://app?vid=1779d257-58f7-46b2-b6cd-7adf8dda594f"},"vehicle_type_id":"4","last_reported":1761671422,"current_range_meters":11600,"station_id":"ce4bgj92rcd13ifvqbd0","pricing_plan_id":"cebpf4jnsgd1na2vs0mg"},{"bike_id":"8c0bf3cc-67c2-4542-b500-903b4b4d0db4","system_id":"levelo_inurba_marseille","lat":43.25007,"lon":5.3893,"is_reserved":false,"is_disabled":false,"rental_uris":{"android":"levelo://app?vid=8c0bf3cc-67c2-4542-b500-903b4b4d0db4","ios":"levelo://app?vid=8c0bf3cc-67c2-4542-b500-903b4b4d0db4"},"vehicle_type_id":"4","last_reported":1761671422,"current_range_meters":12000,"station_id":"ce4bhgp2rcd13ifvqfd0","pricing_plan_id":"cebpf4jnsgd1na2vs0mg"},{"bike_id":"1c5d31cc-0129-48fe-87ad-d9e7fdb20609","system_id":"levelo_inurba_marseille","lat":43.28834,"lon":5.35831,"is_reserved":false,"is_disabled":false,"rental_uris":{"android":"levelo://app?vid=1c5d31cc-0129-48fe-87ad-d9e7fdb20609","ios":"levelo://app?vid=1c5d31cc-0129-48fe-87ad-d9e7fdb20609"},"vehicle_type_id":"4","last_reported":1761671422,"current_range_meters":12000,"station_id":"ce4bhb12rcd13ifvqem0","pricing_plan_id":"cebpf4jnsgd1na2vs0mg"},{"bike_id":"1a978cbc-d0ed-44da-910a-ca002c31b0ed","system_id":"levelo_inurba_marseille","lat":43.33023,"lon":5.39041,"is_reserved":false,"is_disabled":false,"rental_uris":{"android":"levelo://app?vid=1a978cbc-d0ed-44da-910a-ca002c31b0ed","ios":"levelo://app?vid=1a978cbc-d0ed-44da-910a-ca002c31b0ed"},"vehicle_type_id":"4","last_reported":1761671422,"current_range_meters":12000,"station_id":"ce4bhr92rcd13ifvqhrg","pricing_plan_id":"cebpf4jnsgd1na2vs0mg"},{"bike_id":"13ddf75a-1f39-457e-b7e4-2f90175b5695","system_id":"levelo_inurba_marseille","lat":43.29969,"lon":5.38493,"is_reserved":false,"is_disabled":false,"rental_uris":{"android":"levelo://app?vid=13ddf75a-1f39-457e-b7e4-2f90175b5695","ios":"levelo://app?vid=13ddf75a-1f39-457e-b7e4-2f90175b5695"},"vehicle_type_id":"4","last_reported":1761671422,"current_range_meters":12000,"station_id":"ce4bgj92rcd13ifvqbd0","pricing_plan_id":"cebpf4jnsgd1na2vs0mg"},{"bike_id":"d5ca831f-8041-403e-ada8-7b4196c3d5be","system_id":"levelo_inurba_marseille","lat":43.293714,"lon":5.379385,"is_reserved":false,"is_disabled":false,"rental_uris":{"android":"levelo://app?vid=d5ca831f-8041-403e-ada8-7b4196c3d5be","ios":"levelo://app?vid=d5ca831f-8041-403e-ada8-7b4196c3d5be"},"vehicle_type_id":"4","last_reported":1761671422,"current_range_meters":12000,"station_id":"","pricing_plan_id":"cebpf4jnsgd1na2vs0mg"},{"bike_id":"897d1025-cdde-48ec-9b73-6418bafdbbc5","system_id":"levelo_inurba_marseille","lat":43.28068,"lon":5.34776,"is_reserved":false,"is_disabled":false,"rental_uris":{"android":"levelo://app?vid=897d1025-cdde-48ec-9b73-6418bafdbbc5","ios":"levelo://app?vid=897d1025-cdde-48ec-9b73-6418bafdbbc5"},"vehicle_type_id":"4","last_reported":1761671422,"current_range_meters":12000,"station_id":"","pricing_plan_id":"cebpf4jnsgd1na2vs0mg"},{"bike_id":"e1ca1064-3ac1-495e-b8d2-df8047d11b2e","system_id":"levelo_inurba_marseille","lat":43.2848,"lon":5.48388,"is_reserved":false,"is_disabled":false,"rental_uris":{"android":"levelo://app?vid=e1ca1064-3ac1-495e-b8d2-df8047d11b2e","ios":"levelo://app?vid=e1ca1064-3ac1-495e-b8d2-df8047d11b2e"},"vehicle_type_id":"4","last_reported":1761671422,"current_range_meters":12000,"station_id":"st_d3svhcjqgbts73a3dn0g","pricing_plan_id":"cebpf4jnsgd1na2vs0mg"},{"bike_id":"8958f7a1-687a-4276-b91c-47cd836e2b9c","system_id":"levelo_inurba_marseille","lat":43.30342,"lon":5.41878,"is_reserved":false,"is_disabled":false,"rental_uris":{"android":"levelo://app?vid=8958f7a1-687a-4276-b91c-47cd836e2b9c","ios":"levelo://app?vid=8958f7a1-687a-4276-b91c-47cd836e2b9c"},"vehicle_type_id":"4","last_reported":1761671422,"current_range_meters":12400,"station_id":"ce4bhop2rcd13ifvqh7g","pricing_plan_id":"cebpf4jnsgd1na2vs0mg"},{"bike_id":"dccef0b1-edb3-49b5-866c-43e10e5763cc","system_id":"levelo_inurba_marseille","lat":43.28889,"lon":5.43789,"is_reserved":false,"is_disabled":false,"rental_uris":{"android":"levelo://app?vid=dccef0b1-edb3-49b5-866c-43e10e5763cc","ios":"levelo://app?vid=dccef0b1-edb3-49b5-866c-43e10e5763cc"},"vehicle_type_id":"4","last_reported":1761671422,"current_range_meters":12400,"station_id":"","pricing_plan_id":"cebpf4jnsgd1na2vs0mg"},{"bike_id":"a60cb070-d57c-4cd2-8d5d-f1d4b549ff3a","system_id":"levelo_inurba_marseille","lat":43.32358,"lon":5.36753,"is_reserved":false,"is_disabled":false,"rental_uris":{"android":"levelo://app?vid=a60cb070-d57c-4cd2-8d5d-f1d4b549ff3a","ios":"levelo://app?vid=a60cb070-d57c-4cd2-8d5d-f1d4b549ff3a"},"vehicle_type_id":"4","last_reported":1761671422,"current_range_meters":12400,"station_id":"ce4bhsh2rcd13ifvqi2g","pricing_plan_id":"cebpf4jnsgd1na2vs0mg"},{"bike_id":"ccb70ea4-5e24-46b2-8aff-e9b7c8d79f84","system_id":"levelo_inurba_marseille","lat":43.24657,"lon":5.38156,"is_reserved":false,"is_disabled":false,"rental_uris":{"android":"levelo://app?vid=ccb70ea4-5e24-46b2-8aff-e9b7c8d79f84","ios":"levelo://app?vid=ccb70ea4-5e24-46b2-8aff-e9b7c8d79f84"},"vehicle_type_id":"4","last_reported":1761671422,"current_range_meters":12800,"station_id":"ce4bhih2rcd13ifvqfr0","pricing_plan_id":"cebpf4jnsgd1na2vs0mg"},{"bike_id":"db88a8a5-5637-4384-a6d7-41d8f099747a","system_id":"levelo_inurba_marseille","lat":43.312379,"lon":5.368484,"is_reserved":false,"is_disabled":false,"rental_uris":{"android":"levelo://app?vid=db88a8a5-5637-4384-a6d7-41d8f099747a","ios":"levelo://app?vid=db88a8a5-5637-4384-a6d7-41d8f099747a"},"vehicle_type_id":"4","last_reported":1761671422,"current_range_meters":12800,"station_id":"ce4bgr92rcd13ifvqc6g","pricing_plan_id":"cebpf4jnsgd1na2vs0mg"},{"bike_id":"f5466527-2633-4ac6-83be-8cf0eb0b8929","system_id":"levelo_inurba_marseille","lat":43.24807,"lon":5.3746,"is_reserved":false,"is_disabled":false,"rental_uris":{"android":"levelo://app?vid=f5466527-2633-4ac6-83be-8cf0eb0b8929","ios":"levelo://app?vid=f5466527-2633-4ac6-83be-8cf0eb0b8929"},"vehicle_type_id":"4","last_reported":1761671422,"current_range_meters":12800,"station_id":"ce4bhgh2rcd13ifvqfb0","pricing_plan_id":"cebpf4jnsgd1na2vs0mg"},{"bike_id":"1975be38-f301-42ba-a022-50bba37a3dac","system_id":"levelo_inurba_marseille","lat":43.284149,"lon":5.375119,"is_reserved":false,"is_disabled":false,"rental_uris":{"android":"levelo://app?vid=1975be38-f301-42ba-a022-50bba37a3dac","ios":"levelo://app?vid=1975be38-f301-42ba-a022-50bba37a3dac"},"vehicle_type_id":"4","last_reported":1761671422,"current_range_meters":12800,"station_id":"ce4bh412rcd13ifvqds0","pricing_plan_id":"cebpf4jnsgd1na2vs0mg"},{"bike_id":"dced2bcc-e95f-44ce-b7d8-7bb47def612a","system_id":"levelo_inurba_marseille","lat":43.23064,"lon":5.35492,"is_reserved":false,"is_disabled":false,"rental_uris":{"android":"levelo://app?vid=dced2bcc-e95f-44ce-b7d8-7bb47def612a","ios":"levelo://app?vid=dced2bcc-e95f-44ce-b7d8-7bb47def612a"},"vehicle_type_id":"4","last_reported":1761671422,"current_range_meters":13600,"station_id":"cpo3342slgdg3j2ifvpg","pricing_plan_id":"cebpf4jnsgd1na2vs0mg"},{"bike_id":"e68f19ec-6316-4a47-919b-a01164633315","system_id":"levelo_inurba_marseille","lat":43.25125,"lon":5.39521,"is_reserved":false,"is_disabled":true,"rental_uris":{"android":"levelo://app?vid=e68f19ec-6316-4a47-919b-a01164633315","ios":"levelo://app?vid=e68f19ec-6316-4a47-919b-a01164633315"},"vehicle_type_id":"4","last_reported":1761671422,"current_range_meters":13600,"station_id":"ce4bhm12rcd13ifvqgkg","pricing_plan_id":"cebpf4jnsgd1na2vs0mg"},{"bike_id":"49ed0d39-51fe-4cd4-8527-50556baa8749","system_id":"levelo_inurba_marseille","lat":43.22531,"lon":5.348321,"is_reserved":false,"is_disabled":false,"rental_uris":{"android":"levelo://app?vid=49ed0d39-51fe-4cd4-8527-50556baa8749","ios":"levelo://app?vid=49ed0d39-51fe-4cd4-8527-50556baa8749"},"vehicle_type_id":"4","last_reported":1761671422,"current_range_meters":13600,"station_id":"","pricing_plan_id":"cebpf4jnsgd1na2vs0mg"},{"bike_id":"61a93d64-6949-42bf-b7a2-4353e3a8feb9","system_id":"levelo_inurba_marseille","lat":43.29538,"lon":5.38542,"is_reserved":false,"is_disabled":false,"rental_uris":{"android":"levelo://app?vid=61a93d64-6949-42bf-b7a2-4353e3a8feb9","ios":"levelo://app?vid=61a93d64-6949-42bf-b7a2-4353e3a8feb9"},"vehicle_type_id":"4","last_reported":1761671422,"current_range_meters":13600,"station_id":"ce4bgih2rcd13ifvqba0","pricing_plan_id":"cebpf4jnsgd1na2vs0mg"},{"bike_id":"80849f5e-5bcb-4d08-a490-5c661f42fd1a","system_id":"levelo_inurba_marseille","lat":43.30418,"lon":5.4128,"is_reserved":false,"is_disabled":false,"rental_uris":{"android":"levelo://app?vid=80849f5e-5bcb-4d08-a490-5c661f42fd1a","ios":"levelo://app?vid=80849f5e-5bcb-4d08-a490-5c661f42fd1a"},"vehicle_type_id":"4","last_reported":1761671422,"current_range_meters":14000,"station_id":"ce4bhop2rcd13ifvqh8g","pricing_plan_id":"cebpf4jnsgd1na2vs0mg"},{"bike_id":"52bf1b00-9bc6-4974-bcbe-3de2e887d819","system_id":"levelo_inurba_marseille","lat":43.25326,"lon":5.42178,"is_reserved":false,"is_disabled":false,"rental_uris":{"android":"levelo://app?vid=52bf1b00-9bc6-4974-bcbe-3de2e887d819","ios":"levelo://app?vid=52bf1b00-9bc6-4974-bcbe-3de2e887d819"},"vehicle_type_id":"4","last_reported":1761671422,"current_range_meters":14000,"station_id":"st_d2m65c5bi1j21697t3ng","pricing_plan_id":"cebpf4jnsgd1na2vs0mg"},{"bike_id":"d2ce14a1-e9f5-407b-a0c3-2e69d0a16a79","system_id":"levelo_inurba_marseille","lat":43.2819,"lon":5.39057,"is_reserved":false,"is_disabled":true,"rental_uris":{"android":"levelo://app?vid=d2ce14a1-e9f5-407b-a0c3-2e69d0a16a79","ios":"levelo://app?vid=d2ce14a1-e9f5-407b-a0c3-2e69d0a16a79"},"vehicle_type_id":"4","last_reported":1761671422,"current_range_meters":14000,"station_id":"ce4bhn92rcd13ifvqgsg","pricing_plan_id":"cebpf4jnsgd1na2vs0mg"},{"bike_id":"38f4ce6c-8abc-473a-8637-1d421f83c89c","system_id":"levelo_inurba_marseille","lat":43.30541,"lon":5.3653,"is_reserved":false,"is_disabled":false,"rental_uris":{"android":"levelo://app?vid=38f4ce6c-8abc-473a-8637-1d421f83c89c","ios":"levelo://app?vid=38f4ce6c-8abc-473a-8637-1d421f83c89c"},"vehicle_type_id":"4","last_reported":1761671422,"current_range_meters":14000,"station_id":"ce4bgs12rcd13ifvqcag","pricing_plan_id":"cebpf4jnsgd1na2vs0mg"},{"bike_id":"2b43b8fd-492c-4d41-8386-53affeeaddff","system_id":"levelo_inurba_marseille","lat":43.231948,"lon":5.355546,"is_reserved":false,"is_disabled":false,"rental_uris":{"android":"levelo://app?vid=2b43b8fd-492c-4d41-8386-53affeeaddff","ios":"levelo://app?vid=2b43b8fd-492c-4d41-8386-53affeeaddff"},"vehicle_type_id":"4","last_reported":1761671422,"current_range_meters":14000,"station_id":"ce4bhu92rcd13ifvqi70","pricing_plan_id":"cebpf4jnsgd1na2vs0mg"},{"bike_id":"e362f4ba-3ff5-409c-847f-dbee0482ec04","system_id":"levelo_inurba_marseille","lat":43.29975,"lon":5.37192,"is_reserved":false,"is_disabled":true,"rental_uris":{"android":"levelo://app?vid=e362f4ba-3ff5-409c-847f-dbee0482ec04","ios":"levelo://app?vid=e362f4ba-3ff5-409c-847f-dbee0482ec04"},"vehicle_type_id":"4","last_reported":1761671422,"current_range_meters":14000,"station_id":"ce4bgr92rcd13ifvqc7g","pricing_plan_id":"cebpf4jnsgd1na2vs0mg"},{"bike_id":"94e6b0aa-f8c9-477e-8091-c3a189e0f238","system_id":"levelo_inurba_marseille","lat":43.296661,"lon":5.381315,"is_reserved":false,"is_disabled":false,"rental_uris":{"android":"levelo://app?vid=94e6b0aa-f8c9-477e-8091-c3a189e0f238","ios":"levelo://app?vid=94e6b0aa-f8c9-477e-8091-c3a189e0f238"},"vehicle_type_id":"4","last_reported":1761671422,"current_range_meters":14400,"station_id":"","pricing_plan_id":"cebpf4jnsgd1na2vs0mg"},{"bike_id":"f68a18ee-6e48-48c5-9f27-936e422ff9c4","system_id":"levelo_inurba_marseille","lat":43.30727,"lon":5.42448,"is_reserved":false,"is_disabled":false,"rental_uris":{"android":"levelo://app?vid=f68a18ee-6e48-48c5-9f27-936e422ff9c4","ios":"levelo://app?vid=f68a18ee-6e48-48c5-9f27-936e422ff9c4"},"vehicle_type_id":"4","last_reported":1761671422,"current_range_meters":14400,"station_id":"st_cvj6ca6bvosntc0bfgr0","pricing_plan_id":"cebpf4jnsgd1na2vs0mg"},{"bike_id":"f202aef9-db9c-4b5f-b19b-62f40b9a9dba","system_id":"levelo_inurba_marseille","lat":43.24055,"lon":5.37738,"is_reserved":false,"is_disabled":false,"rental_uris":{"android":"levelo://app?vid=f202aef9-db9c-4b5f-b19b-62f40b9a9dba","ios":"levelo://app?vid=f202aef9-db9c-4b5f-b19b-62f40b9a9dba"},"vehicle_type_id":"4","last_reported":1761671422,"current_range_meters":14400,"station_id":"ce4bhnp2rcd13ifvqgvg","pricing_plan_id":"cebpf4jnsgd1na2vs0mg"},{"bike_id":"2be3bf9b-39f4-4c37-8c01-9e9bcabe1c53","system_id":"levelo_inurba_marseille","lat":43.33741,"lon":5.37444,"is_reserved":false,"is_disabled":false,"rental_uris":{"android":"levelo://app?vid=2be3bf9b-39f4-4c37-8c01-9e9bcabe1c53","ios":"levelo://app?vid=2be3bf9b-39f4-4c37-8c01-9e9bcabe1c53"},"vehicle_type_id":"4","last_reported":1761671422,"current_range_meters":14400,"station_id":"","pricing_plan_id":"cebpf4jnsgd1na2vs0mg"},{"bike_id":"ae8ebe94-fc0f-4409-8f77-39eb5c613a67","system_id":"levelo_inurba_marseille","lat":43.337444,"lon":5.374475,"is_reserved":false,"is_disabled":false,"rental_uris":{"android":"levelo://app?vid=ae8ebe94-fc0f-4409-8f77-39eb5c613a67","ios":"levelo://app?vid=ae8ebe94-fc0f-4409-8f77-39eb5c613a67"},"vehicle_type_id":"4","last_reported":1761671422,"current_range_meters":14800,"station_id":"","pricing_plan_id":"cebpf4jnsgd1na2vs0mg"},{"bike_id":"bcdeefde-0386-4d90-9894-6eb707e69643","system_id":"levelo_inurba_marseille","lat":43.28571,"lon":5.39501,"is_reserved":false,"is_disabled":false,"rental_uris":{"android":"levelo://app?vid=bcdeefde-0386-4d90-9894-6eb707e69643","ios":"levelo://app?vid=bcdeefde-0386-4d90-9894-6eb707e69643"},"vehicle_type_id":"4","last_reported":1761671422,"current_range_meters":14800,"station_id":"ce4bh292rcd13ifvqdg0","pricing_plan_id":"cebpf4jnsgd1na2vs0mg"},{"bike_id":"5b89b918-dbc1-4c9f-b410-77e9eb4172ad","system_id":"levelo_inurba_marseille","lat":43.23195,"lon":5.35555,"is_reserved":false,"is_disabled":false,"rental_uris":{"android":"levelo://app?vid=5b89b918-dbc1-4c9f-b410-77e9eb4172ad","ios":"levelo://app?vid=5b89b918-dbc1-4c9f-b410-77e9eb4172ad"},"vehicle_type_id":"4","last_reported":1761671422,"current_range_meters":14800,"station_id":"ce4bhu92rcd13ifvqi70","pricing_plan_id":"cebpf4jnsgd1na2vs0mg"},{"bike_id":"32d7653e-b033-4183-b4c0-f44169bb9067","system_id":"levelo_inurba_marseille","lat":43.32713,"lon":5.39219,"is_reserved":false,"is_disabled":false,"rental_uris":{"android":"levelo://app?vid=32d7653e-b033-4183-b4c0-f44169bb9067","ios":"levelo://app?vid=32d7653e-b033-4183-b4c0-f44169bb9067"},"vehicle_type_id":"4","last_reported":1761671422,"current_range_meters":14800,"station_id":"","pricing_plan_id":"cebpf4jnsgd1na2vs0mg"},{"bike_id":"452e8e6e-6805-4d8b-9b13-79df7a637126","system_id":"levelo_inurba_marseille","lat":43.24409,"lon":5.37071,"is_reserved":false,"is_disabled":false,"rental_uris":{"android":"levelo://app?vid=452e8e6e-6805-4d8b-9b13-79df7a637126","ios":"levelo://app?vid=452e8e6e-6805-4d8b-9b13-79df7a637126"},"vehicle_type_id":"4","last_reported":1761671422,"current_range_meters":14800,"station_id":"ce4bhhh2rcd13ifvqfk0","pricing_plan_id":"cebpf4jnsgd1na2vs0mg"},{"bike_id":"d192b890-62d2-415f-ab10-8a5ef8aa57bf","system_id":"levelo_inurba_marseille","lat":43.26061,"lon":5.39392,"is_reserved":false,"is_disabled":false,"rental_uris":{"android":"levelo://app?vid=d192b890-62d2-415f-ab10-8a5ef8aa57bf","ios":"levelo://app?vid=d192b890-62d2-415f-ab10-8a5ef8aa57bf"},"vehicle_type_id":"4","last_reported":1761671422,"current_range_meters":14800,"station_id":"ce4bhh92rcd13ifvqfj0","pricing_plan_id":"cebpf4jnsgd1na2vs0mg"},{"bike_id":"a61f2e4a-e94e-4f9e-b09a-7f723ecb1d95","system_id":"levelo_inurba_marseille","lat":43.30473,"lon":5.3789,"is_reserved":false,"is_disabled":true,"rental_uris":{"android":"levelo://app?vid=a61f2e4a-e94e-4f9e-b09a-7f723ecb1d95","ios":"levelo://app?vid=a61f2e4a-e94e-4f9e-b09a-7f723ecb1d95"},"vehicle_type_id":"4","last_reported":1761671422,"current_range_meters":14800,"station_id":"ce4bgup2rcd13ifvqcn0","pricing_plan_id":"cebpf4jnsgd1na2vs0mg"},{"bike_id":"34d1ab49-67cc-4943-b03b-926cc3ce7b58","system_id":"levelo_inurba_marseille","lat":43.27209,"lon":5.39184,"is_reserved":false,"is_disabled":false,"rental_uris":{"android":"levelo://app?vid=34d1ab49-67cc-4943-b03b-926cc3ce7b58","ios":"levelo://app?vid=34d1ab49-67cc-4943-b03b-926cc3ce7b58"},"vehicle_type_id":"4","last_reported":1761671422,"current_range_meters":14800,"station_id":"ce4bhhp2rcd13ifvqfm0","pricing_plan_id":"cebpf4jnsgd1na2vs0mg"},{"bike_id":"970fa71a-c964-46ac-be14-b9d997d234dc","system_id":"levelo_inurba_marseille","lat":43.24995,"lon":5.38928,"is_reserved":false,"is_disabled":false,"rental_uris":{"android":"levelo://app?vid=970fa71a-c964-46ac-be14-b9d997d234dc","ios":"levelo://app?vid=970fa71a-c964-46ac-be14-b9d997d234dc"},"vehicle_type_id":"4","last_reported":1761671422,"current_range_meters":14800,"station_id":"ce4bhgp2rcd13ifvqfd0","pricing_plan_id":"cebpf4jnsgd1na2vs0mg"},{"bike_id":"ce00e885-a781-4efe-acd7-bb2e5665d1e7","system_id":"levelo_inurba_marseille","lat":43.28397,"lon":5.3753,"is_reserved":false,"is_disabled":false,"rental_uris":{"android":"levelo://app?vid=ce00e885-a781-4efe-acd7-bb2e5665d1e7","ios":"levelo://app?vid=ce00e885-a781-4efe-acd7-bb2e5665d1e7"},"vehicle_type_id":"4","last_reported":1761671422,"current_range_meters":15200,"station_id":"ce4bh412rcd13ifvqds0","pricing_plan_id":"cebpf4jnsgd1na2vs0mg"},{"bike_id":"b5948d11-6772-4cf1-a892-e4cb2cc16959","system_id":"levelo_inurba_marseille","lat":43.29786,"lon":5.39337,"is_reserved":false,"is_disabled":false,"rental_uris":{"android":"levelo://app?vid=b5948d11-6772-4cf1-a892-e4cb2cc16959","ios":"levelo://app?vid=b5948d11-6772-4cf1-a892-e4cb2cc16959"},"vehicle_type_id":"4","last_reported":1761671422,"current_range_meters":15200,"station_id":"chh1huq6cuj3fo74tm60","pricing_plan_id":"cebpf4jnsgd1na2vs0mg"},{"bike_id":"45f47c18-5eb3-4e2f-a0d2-4c01f0f4272d","system_id":"levelo_inurba_marseille","lat":43.29968,"lon":5.37178,"is_reserved":false,"is_disabled":false,"rental_uris":{"android":"levelo://app?vid=45f47c18-5eb3-4e2f-a0d2-4c01f0f4272d","ios":"levelo://app?vid=45f47c18-5eb3-4e2f-a0d2-4c01f0f4272d"},"vehicle_type_id":"4","last_reported":1761671422,"current_range_meters":15200,"station_id":"ce4bgr92rcd13ifvqc7g","pricing_plan_id":"cebpf4jnsgd1na2vs0mg"},{"bike_id":"b6bbf7ea-6174-407f-8338-568bf3bba8c7","system_id":"levelo_inurba_marseille","lat":43.297657,"lon":5.371474,"is_reserved":false,"is_disabled":false,"rental_uris":{"android":"levelo://app?vid=b6bbf7ea-6174-407f-8338-568bf3bba8c7","ios":"levelo://app?vid=b6bbf7ea-6174-407f-8338-568bf3bba8c7"},"vehicle_type_id":"4","last_reported":1761671422,"current_range_meters":15200,"station_id":"ce4bgop2rcd13ifvqc1g","pricing_plan_id":"cebpf4jnsgd1na2vs0mg"},{"bike_id":"c28ff825-c6da-4908-a474-103d74e37364","system_id":"levelo_inurba_marseille","lat":43.30242,"lon":5.40053,"is_reserved":false,"is_disabled":false,"rental_uris":{"android":"levelo://app?vid=c28ff825-c6da-4908-a474-103d74e37364","ios":"levelo://app?vid=c28ff825-c6da-4908-a474-103d74e37364"},"vehicle_type_id":"4","last_reported":1761671422,"current_range_meters":15200,"station_id":"ce4bgvh2rcd13ifvqcs0","pricing_plan_id":"cebpf4jnsgd1na2vs0mg"},{"bike_id":"1d7782ae-cf65-423f-b2be-e577b1eefab9","system_id":"levelo_inurba_marseille","lat":43.30414,"lon":5.41291,"is_reserved":false,"is_disabled":false,"rental_uris":{"android":"levelo://app?vid=1d7782ae-cf65-423f-b2be-e577b1eefab9","ios":"levelo://app?vid=1d7782ae-cf65-423f-b2be-e577b1eefab9"},"vehicle_type_id":"4","last_reported":1761671422,"current_range_meters":15200,"station_id":"ce4bhop2rcd13ifvqh8g","pricing_plan_id":"cebpf4jnsgd1na2vs0mg"},{"bike_id":"8bedd4a5-1eed-4eb5-9cb4-4f636fcfd98b","system_id":"levelo_inurba_marseille","lat":43.27972,"lon":5.38745,"is_reserved":false,"is_disabled":false,"rental_uris":{"android":"levelo://app?vid=8bedd4a5-1eed-4eb5-9cb4-4f636fcfd98b","ios":"levelo://app?vid=8bedd4a5-1eed-4eb5-9cb4-4f636fcfd98b"},"vehicle_type_id":"4","last_reported":1761671422,"current_range_meters":15200,"station_id":"ce4bhg12rcd13ifvqf80","pricing_plan_id":"cebpf4jnsgd1na2vs0mg"},{"bike_id":"6373b384-d8e7-424b-8f5a-60e1b83cd429","system_id":"levelo_inurba_marseille","lat":43.27168,"lon":5.40989,"is_reserved":false,"is_disabled":false,"rental_uris":{"android":"levelo://app?vid=6373b384-d8e7-424b-8f5a-60e1b83cd429","ios":"levelo://app?vid=6373b384-d8e7-424b-8f5a-60e1b83cd429"},"vehicle_type_id":"4","last_reported":1761671422,"current_range_meters":16000,"station_id":"ce4bhl12rcd13ifvqgf0","pricing_plan_id":"cebpf4jnsgd1na2vs0mg"},{"bike_id":"7fccdbcb-3fd4-4f11-aa42-e70c3c87438c","system_id":"levelo_inurba_marseille","lat":43.28028,"lon":5.36944,"is_reserved":false,"is_disabled":false,"rental_uris":{"android":"levelo://app?vid=7fccdbcb-3fd4-4f11-aa42-e70c3c87438c","ios":"levelo://app?vid=7fccdbcb-3fd4-4f11-aa42-e70c3c87438c"},"vehicle_type_id":"4","last_reported":1761671422,"current_range_meters":16000,"station_id":"ce4bha12rcd13ifvqef0","pricing_plan_id":"cebpf4jnsgd1na2vs0mg"},{"bike_id":"cc7385f8-6b09-464f-8b35-f3131dac1f5c","system_id":"levelo_inurba_marseille","lat":43.31278,"lon":5.40165,"is_reserved":false,"is_disabled":false,"rental_uris":{"android":"levelo://app?vid=cc7385f8-6b09-464f-8b35-f3131dac1f5c","ios":"levelo://app?vid=cc7385f8-6b09-464f-8b35-f3131dac1f5c"},"vehicle_type_id":"4","last_reported":1761671422,"current_range_meters":16400,"station_id":"ce4bh092rcd13ifvqd30","pricing_plan_id":"cebpf4jnsgd1na2vs0mg"},{"bike_id":"a2c44ae7-52cc-4b80-a772-211a26fa85b1","system_id":"levelo_inurba_marseille","lat":43.30182,"lon":5.36687,"is_reserved":false,"is_disabled":true,"rental_uris":{"android":"levelo://app?vid=a2c44ae7-52cc-4b80-a772-211a26fa85b1","ios":"levelo://app?vid=a2c44ae7-52cc-4b80-a772-211a26fa85b1"},"vehicle_type_id":"4","last_reported":1761671422,"current_range_meters":16400,"station_id":"ce4bgrh2rcd13ifvqc8g","pricing_plan_id":"cebpf4jnsgd1na2vs0mg"},{"bike_id":"aa0e7e4b-f890-4f53-a40a-615d9f77115a","system_id":"levelo_inurba_marseille","lat":43.32101,"lon":5.36779,"is_reserved":false,"is_disabled":false,"rental_uris":{"android":"levelo://app?vid=aa0e7e4b-f890-4f53-a40a-615d9f77115a","ios":"levelo://app?vid=aa0e7e4b-f890-4f53-a40a-615d9f77115a"},"vehicle_type_id":"4","last_reported":1761671422,"current_range_meters":16400,"station_id":"ce4bhrh2rcd13ifvqhug","pricing_plan_id":"cebpf4jnsgd1na2vs0mg"},{"bike_id":"d1d7b3b7-55f3-4d99-8cc5-ec6010f57afa","system_id":"levelo_inurba_marseille","lat":43.303409,"lon":5.40449,"is_reserved":false,"is_disabled":false,"rental_uris":{"android":"levelo://app?vid=d1d7b3b7-55f3-4d99-8cc5-ec6010f57afa","ios":"levelo://app?vid=d1d7b3b7-55f3-4d99-8cc5-ec6010f57afa"},"vehicle_type_id":"4","last_reported":1761671422,"current_range_meters":16400,"station_id":"ce4bh012rcd13ifvqd10","pricing_plan_id":"cebpf4jnsgd1na2vs0mg"},{"bike_id":"7dadf09d-637b-4168-9565-faf64f3eb916","system_id":"levelo_inurba_marseille","lat":43.23145,"lon":5.43794,"is_reserved":false,"is_disabled":false,"rental_uris":{"android":"levelo://app?vid=7dadf09d-637b-4168-9565-faf64f3eb916","ios":"levelo://app?vid=7dadf09d-637b-4168-9565-faf64f3eb916"},"vehicle_type_id":"4","last_reported":1761671422,"current_range_meters":16400,"station_id":"","pricing_plan_id":"cebpf4jnsgd1na2vs0mg"},{"bike_id":"4e7aede8-e0df-4ab5-9e4f-0883658a2eb1","system_id":"levelo_inurba_marseille","lat":43.30162,"lon":5.38788,"is_reserved":false,"is_disabled":false,"rental_uris":{"android":"levelo://app?vid=4e7aede8-e0df-4ab5-9e4f-0883658a2eb1","ios":"levelo://app?vid=4e7aede8-e0df-4ab5-9e4f-0883658a2eb1"},"vehicle_type_id":"4","last_reported":1761671422,"current_range_meters":16400,"station_id":"ce4bghh2rcd13ifvqb60","pricing_plan_id":"cebpf4jnsgd1na2vs0mg"},{"bike_id":"6aaba1cd-8f9d-4314-9dec-4c0e510c268d","system_id":"levelo_inurba_marseille","lat":43.275652,"lon":5.384271,"is_reserved":false,"is_disabled":false,"rental_uris":{"android":"levelo://app?vid=6aaba1cd-8f9d-4314-9dec-4c0e510c268d","ios":"levelo://app?vid=6aaba1cd-8f9d-4314-9dec-4c0e510c268d"},"vehicle_type_id":"4","last_reported":1761671422,"current_range_meters":16400,"station_id":"ce4bhh92rcd13ifvqfi0","pricing_plan_id":"cebpf4jnsgd1na2vs0mg"},{"bike_id":"9695137d-07f6-47c2-89e2-d4713510cd22","system_id":"levelo_inurba_marseille","lat":43.29962,"lon":5.38501,"is_reserved":false,"is_disabled":false,"rental_uris":{"android":"levelo://app?vid=9695137d-07f6-47c2-89e2-d4713510cd22","ios":"levelo://app?vid=9695137d-07f6-47c2-89e2-d4713510cd22"},"vehicle_type_id":"4","last_reported":1761671422,"current_range_meters":16400,"station_id":"ce4bgj92rcd13ifvqbd0","pricing_plan_id":"cebpf4jnsgd1na2vs0mg"},{"bike_id":"d24a2c68-94c2-4577-88eb-bd161c9ebb38","system_id":"levelo_inurba_marseille","lat":43.225311,"lon":5.348358,"is_reserved":false,"is_disabled":false,"rental_uris":{"android":"levelo://app?vid=d24a2c68-94c2-4577-88eb-bd161c9ebb38","ios":"levelo://app?vid=d24a2c68-94c2-4577-88eb-bd161c9ebb38"},"vehicle_type_id":"4","last_reported":1761671422,"current_range_meters":16400,"station_id":"","pricing_plan_id":"cebpf4jnsgd1na2vs0mg"},{"bike_id":"02dd205b-e97c-4104-9683-066d2523fd3f","system_id":"levelo_inurba_marseille","lat":43.23062,"lon":5.35502,"is_reserved":false,"is_disabled":false,"rental_uris":{"android":"levelo://app?vid=02dd205b-e97c-4104-9683-066d2523fd3f","ios":"levelo://app?vid=02dd205b-e97c-4104-9683-066d2523fd3f"},"vehicle_type_id":"4","last_reported":1761671422,"current_range_meters":16400,"station_id":"cpo3342slgdg3j2ifvpg","pricing_plan_id":"cebpf4jnsgd1na2vs0mg"},{"bike_id":"1ff14011-1bb3-49a1-9941-97d38a0c81be","system_id":"levelo_inurba_marseille","lat":43.25088,"lon":5.3954,"is_reserved":false,"is_disabled":false,"rental_uris":{"android":"levelo://app?vid=1ff14011-1bb3-49a1-9941-97d38a0c81be","ios":"levelo://app?vid=1ff14011-1bb3-49a1-9941-97d38a0c81be"},"vehicle_type_id":"4","last_reported":1761671422,"current_range_meters":16800,"station_id":"ce4bhm12rcd13ifvqgkg","pricing_plan_id":"cebpf4jnsgd1na2vs0mg"},{"bike_id":"025f0b58-2ca1-4f6f-a038-9584999cd0cc","system_id":"levelo_inurba_marseille","lat":43.29274,"lon":5.38443,"is_reserved":false,"is_disabled":false,"rental_uris":{"android":"levelo://app?vid=025f0b58-2ca1-4f6f-a038-9584999cd0cc","ios":"levelo://app?vid=025f0b58-2ca1-4f6f-a038-9584999cd0cc"},"vehicle_type_id":"4","last_reported":1761671422,"current_range_meters":16800,"station_id":"ce4bh692rcd13ifvqea0","pricing_plan_id":"cebpf4jnsgd1na2vs0mg"},{"bike_id":"7f44e548-6df6-4386-a57a-9d92747a1d02","system_id":"levelo_inurba_marseille","lat":43.290991,"lon":5.381309,"is_reserved":false,"is_disabled":false,"rental_uris":{"android":"levelo://app?vid=7f44e548-6df6-4386-a57a-9d92747a1d02","ios":"levelo://app?vid=7f44e548-6df6-4386-a57a-9d92747a1d02"},"vehicle_type_id":"4","last_reported":1761671422,"current_range_meters":16800,"station_id":"ce4bh512rcd13ifvqe2g","pricing_plan_id":"cebpf4jnsgd1na2vs0mg"},{"bike_id":"a79f15cf-56a2-4ec7-9b69-cbfb3791aea1","system_id":"levelo_inurba_marseille","lat":43.29259,"lon":5.38435,"is_reserved":false,"is_disabled":false,"rental_uris":{"android":"levelo://app?vid=a79f15cf-56a2-4ec7-9b69-cbfb3791aea1","ios":"levelo://app?vid=a79f15cf-56a2-4ec7-9b69-cbfb3791aea1"},"vehicle_type_id":"4","last_reported":1761671422,"current_range_meters":16800,"station_id":"ce4bh692rcd13ifvqea0","pricing_plan_id":"cebpf4jnsgd1na2vs0mg"},{"bike_id":"2fde6e90-a9f5-4aed-8b9e-47500942860a","system_id":"levelo_inurba_marseille","lat":43.25083,"lon":5.39529,"is_reserved":false,"is_disabled":false,"rental_uris":{"android":"levelo://app?vid=2fde6e90-a9f5-4aed-8b9e-47500942860a","ios":"levelo://app?vid=2fde6e90-a9f5-4aed-8b9e-47500942860a"},"vehicle_type_id":"4","last_reported":1761671422,"current_range_meters":16800,"station_id":"ce4bhm12rcd13ifvqgkg","pricing_plan_id":"cebpf4jnsgd1na2vs0mg"},{"bike_id":"83f1ae03-673d-4540-8d2f-a197b89f41a1","system_id":"levelo_inurba_marseille","lat":43.29612,"lon":5.37732,"is_reserved":false,"is_disabled":false,"rental_uris":{"android":"levelo://app?vid=83f1ae03-673d-4540-8d2f-a197b89f41a1","ios":"levelo://app?vid=83f1ae03-673d-4540-8d2f-a197b89f41a1"},"vehicle_type_id":"4","last_reported":1761671422,"current_range_meters":17200,"station_id":"ce4bgi92rcd13ifvqb90","pricing_plan_id":"cebpf4jnsgd1na2vs0mg"},{"bike_id":"7fef89e4-5290-4736-9233-ce52ef4dc06e","system_id":"levelo_inurba_marseille","lat":43.27376,"lon":5.36249,"is_reserved":false,"is_disabled":false,"rental_uris":{"android":"levelo://app?vid=7fef89e4-5290-4736-9233-ce52ef4dc06e","ios":"levelo://app?vid=7fef89e4-5290-4736-9233-ce52ef4dc06e"},"vehicle_type_id":"4","last_reported":1761671422,"current_range_meters":17200,"station_id":"ce4bhbh2rcd13ifvqeo0","pricing_plan_id":"cebpf4jnsgd1na2vs0mg"},{"bike_id":"6ce8387a-7217-4885-b90c-41215d188545","system_id":"levelo_inurba_marseille","lat":43.28865,"lon":5.409466,"is_reserved":false,"is_disabled":false,"rental_uris":{"android":"levelo://app?vid=6ce8387a-7217-4885-b90c-41215d188545","ios":"levelo://app?vid=6ce8387a-7217-4885-b90c-41215d188545"},"vehicle_type_id":"4","last_reported":1761671422,"current_range_meters":17200,"station_id":"","pricing_plan_id":"cebpf4jnsgd1na2vs0mg"},{"bike_id":"82c3d2c8-f0bf-446e-b125-018f07998329","system_id":"levelo_inurba_marseille","lat":43.32748,"lon":5.40101,"is_reserved":false,"is_disabled":false,"rental_uris":{"android":"levelo://app?vid=82c3d2c8-f0bf-446e-b125-018f07998329","ios":"levelo://app?vid=82c3d2c8-f0bf-446e-b125-018f07998329"},"vehicle_type_id":"4","last_reported":1761671422,"current_range_meters":17600,"station_id":"","pricing_plan_id":"cebpf4jnsgd1na2vs0mg"},{"bike_id":"14c6cedd-2559-445e-b389-644995a90b39","system_id":"levelo_inurba_marseille","lat":43.31007,"lon":5.42766,"is_reserved":false,"is_disabled":false,"rental_uris":{"android":"levelo://app?vid=14c6cedd-2559-445e-b389-644995a90b39","ios":"levelo://app?vid=14c6cedd-2559-445e-b389-644995a90b39"},"vehicle_type_id":"4","last_reported":1761671422,"current_range_meters":17600,"station_id":"","pricing_plan_id":"cebpf4jnsgd1na2vs0mg"},{"bike_id":"77eea51e-cf56-48f7-bb7c-68016043187a","system_id":"levelo_inurba_marseille","lat":43.26228,"lon":5.40457,"is_reserved":false,"is_disabled":false,"rental_uris":{"android":"levelo://app?vid=77eea51e-cf56-48f7-bb7c-68016043187a","ios":"levelo://app?vid=77eea51e-cf56-48f7-bb7c-68016043187a"},"vehicle_type_id":"4","last_reported":1761671422,"current_range_meters":17600,"station_id":"ce4bhmh2rcd13ifvqgmg","pricing_plan_id":"cebpf4jnsgd1na2vs0mg"},{"bike_id":"d18c6729-c04e-499f-ad56-ae128aa80607","system_id":"levelo_inurba_marseille","lat":43.30144,"lon":5.38768,"is_reserved":false,"is_disabled":false,"rental_uris":{"android":"levelo://app?vid=d18c6729-c04e-499f-ad56-ae128aa80607","ios":"levelo://app?vid=d18c6729-c04e-499f-ad56-ae128aa80607"},"vehicle_type_id":"4","last_reported":1761671422,"current_range_meters":17600,"station_id":"ce4bghh2rcd13ifvqb60","pricing_plan_id":"cebpf4jnsgd1na2vs0mg"},{"bike_id":"28ecc673-9f76-410b-bbf1-6f0559d3f1af","system_id":"levelo_inurba_marseille","lat":43.29347,"lon":5.37435,"is_reserved":false,"is_disabled":false,"rental_uris":{"android":"levelo://app?vid=28ecc673-9f76-410b-bbf1-6f0559d3f1af","ios":"levelo://app?vid=28ecc673-9f76-410b-bbf1-6f0559d3f1af"},"vehicle_type_id":"4","last_reported":1761671422,"current_range_meters":17600,"station_id":"ce4bhap2rcd13ifvqek0","pricing_plan_id":"cebpf4jnsgd1na2vs0mg"},{"bike_id":"20fcbcaa-880a-405a-98df-534ee5b65b4a","system_id":"levelo_inurba_marseille","lat":43.29963,"lon":5.38501,"is_reserved":false,"is_disabled":false,"rental_uris":{"android":"levelo://app?vid=20fcbcaa-880a-405a-98df-534ee5b65b4a","ios":"levelo://app?vid=20fcbcaa-880a-405a-98df-534ee5b65b4a"},"vehicle_type_id":"4","last_reported":1761671422,"current_range_meters":17600,"station_id":"ce4bgj92rcd13ifvqbd0","pricing_plan_id":"cebpf4jnsgd1na2vs0mg"},{"bike_id":"09884e49-b43c-4ec9-85a5-6243e16f6787","system_id":"levelo_inurba_marseille","lat":43.3054,"lon":5.36543,"is_reserved":false,"is_disabled":false,"rental_uris":{"android":"levelo://app?vid=09884e49-b43c-4ec9-85a5-6243e16f6787","ios":"levelo://app?vid=09884e49-b43c-4ec9-85a5-6243e16f6787"},"vehicle_type_id":"4","last_reported":1761671422,"current_range_meters":18000,"station_id":"ce4bgs12rcd13ifvqcag","pricing_plan_id":"cebpf4jnsgd1na2vs0mg"},{"bike_id":"941eca81-61b6-4376-acbb-773a2fc9f625","system_id":"levelo_inurba_marseille","lat":43.320936,"lon":5.367755,"is_reserved":false,"is_disabled":false,"rental_uris":{"android":"levelo://app?vid=941eca81-61b6-4376-acbb-773a2fc9f625","ios":"levelo://app?vid=941eca81-61b6-4376-acbb-773a2fc9f625"},"vehicle_type_id":"4","last_reported":1761671422,"current_range_meters":18000,"station_id":"ce4bhrh2rcd13ifvqhug","pricing_plan_id":"cebpf4jnsgd1na2vs0mg"},{"bike_id":"48c9ff56-3fa0-471a-a377-6cbbd3e9e17d","system_id":"levelo_inurba_marseille","lat":43.28409,"lon":5.37516,"is_reserved":false,"is_disabled":false,"rental_uris":{"android":"levelo://app?vid=48c9ff56-3fa0-471a-a377-6cbbd3e9e17d","ios":"levelo://app?vid=48c9ff56-3fa0-471a-a377-6cbbd3e9e17d"},"vehicle_type_id":"4","last_reported":1761671422,"current_range_meters":18000,"station_id":"ce4bh412rcd13ifvqds0","pricing_plan_id":"cebpf4jnsgd1na2vs0mg"},{"bike_id":"fef7c7e6-8059-41aa-ae57-31b07bd2b2eb","system_id":"levelo_inurba_marseille","lat":43.225311,"lon":5.348374,"is_reserved":false,"is_disabled":false,"rental_uris":{"android":"levelo://app?vid=fef7c7e6-8059-41aa-ae57-31b07bd2b2eb","ios":"levelo://app?vid=fef7c7e6-8059-41aa-ae57-31b07bd2b2eb"},"vehicle_type_id":"4","last_reported":1761671422,"current_range_meters":18000,"station_id":"","pricing_plan_id":"cebpf4jnsgd1na2vs0mg"},{"bike_id":"0b2cf42c-d6d6-492f-af5e-cbb5a0777a0f","system_id":"levelo_inurba_marseille","lat":43.29621,"lon":5.37698,"is_reserved":false,"is_disabled":false,"rental_uris":{"android":"levelo://app?vid=0b2cf42c-d6d6-492f-af5e-cbb5a0777a0f","ios":"levelo://app?vid=0b2cf42c-d6d6-492f-af5e-cbb5a0777a0f"},"vehicle_type_id":"4","last_reported":1761671422,"current_range_meters":18000,"station_id":"ce4bgi92rcd13ifvqb90","pricing_plan_id":"cebpf4jnsgd1na2vs0mg"},{"bike_id":"e944ee8b-2d17-45b7-8ef4-fdd5db433dcf","system_id":"levelo_inurba_marseille","lat":43.28662,"lon":5.36367,"is_reserved":false,"is_disabled":false,"rental_uris":{"android":"levelo://app?vid=e944ee8b-2d17-45b7-8ef4-fdd5db433dcf","ios":"levelo://app?vid=e944ee8b-2d17-45b7-8ef4-fdd5db433dcf"},"vehicle_type_id":"4","last_reported":1761671422,"current_range_meters":18000,"station_id":"ce4bhah2rcd13ifvqej0","pricing_plan_id":"cebpf4jnsgd1na2vs0mg"},{"bike_id":"34cfbbfb-7fcd-4e0b-a511-b666cf091d8e","system_id":"levelo_inurba_marseille","lat":43.25091,"lon":5.39511,"is_reserved":false,"is_disabled":true,"rental_uris":{"android":"levelo://app?vid=34cfbbfb-7fcd-4e0b-a511-b666cf091d8e","ios":"levelo://app?vid=34cfbbfb-7fcd-4e0b-a511-b666cf091d8e"},"vehicle_type_id":"4","last_reported":1761671422,"current_range_meters":18000,"station_id":"ce4bhm12rcd13ifvqgkg","pricing_plan_id":"cebpf4jnsgd1na2vs0mg"},{"bike_id":"f28488ef-6cc0-4b19-bfa5-30bdf86e6344","system_id":"levelo_inurba_marseille","lat":43.28141,"lon":5.42576,"is_reserved":false,"is_disabled":false,"rental_uris":{"android":"levelo://app?vid=f28488ef-6cc0-4b19-bfa5-30bdf86e6344","ios":"levelo://app?vid=f28488ef-6cc0-4b19-bfa5-30bdf86e6344"},"vehicle_type_id":"4","last_reported":1761671422,"current_range_meters":18000,"station_id":"ce4bhnh2rcd13ifvqgug","pricing_plan_id":"cebpf4jnsgd1na2vs0mg"},{"bike_id":"f7c78461-777b-452a-96aa-de9733b9a2e1","system_id":"levelo_inurba_marseille","lat":43.30887,"lon":5.39662,"is_reserved":false,"is_disabled":false,"rental_uris":{"android":"levelo://app?vid=f7c78461-777b-452a-96aa-de9733b9a2e1","ios":"levelo://app?vid=f7c78461-777b-452a-96aa-de9733b9a2e1"},"vehicle_type_id":"4","last_reported":1761671422,"current_range_meters":18000,"station_id":"ce4bh012rcd13ifvqcv0","pricing_plan_id":"cebpf4jnsgd1na2vs0mg"},{"bike_id":"f6adb9c1-4a78-4322-baec-aa5f6f5d93b6","system_id":"levelo_inurba_marseille","lat":43.225321,"lon":5.348302,"is_reserved":false,"is_disabled":false,"rental_uris":{"android":"levelo://app?vid=f6adb9c1-4a78-4322-baec-aa5f6f5d93b6","ios":"levelo://app?vid=f6adb9c1-4a78-4322-baec-aa5f6f5d93b6"},"vehicle_type_id":"4","last_reported":1761671422,"current_range_meters":18000,"station_id":"","pricing_plan_id":"cebpf4jnsgd1na2vs0mg"},{"bike_id":"ae12af0e-215e-4e08-8044-864a2edd7583","system_id":"levelo_inurba_marseille","lat":43.30946,"lon":5.40139,"is_reserved":false,"is_disabled":false,"rental_uris":{"android":"levelo://app?vid=ae12af0e-215e-4e08-8044-864a2edd7583","ios":"levelo://app?vid=ae12af0e-215e-4e08-8044-864a2edd7583"},"vehicle_type_id":"4","last_reported":1761671422,"current_range_meters":18000,"station_id":"ce4bgvp2rcd13ifvqct0","pricing_plan_id":"cebpf4jnsgd1na2vs0mg"},{"bike_id":"fb9de159-8c11-465c-aba3-728804c0bab2","system_id":"levelo_inurba_marseille","lat":43.2866,"lon":5.36353,"is_reserved":false,"is_disabled":false,"rental_uris":{"android":"levelo://app?vid=fb9de159-8c11-465c-aba3-728804c0bab2","ios":"levelo://app?vid=fb9de159-8c11-465c-aba3-728804c0bab2"},"vehicle_type_id":"4","last_reported":1761671422,"current_range_meters":18000,"station_id":"ce4bhah2rcd13ifvqej0","pricing_plan_id":"cebpf4jnsgd1na2vs0mg"},{"bike_id":"96874538-e338-47dd-8158-7284ae5bb7a5","system_id":"levelo_inurba_marseille","lat":43.2906,"lon":5.39421,"is_reserved":false,"is_disabled":false,"rental_uris":{"android":"levelo://app?vid=96874538-e338-47dd-8158-7284ae5bb7a5","ios":"levelo://app?vid=96874538-e338-47dd-8158-7284ae5bb7a5"},"vehicle_type_id":"4","last_reported":1761671422,"current_range_meters":18800,"station_id":"","pricing_plan_id":"cebpf4jnsgd1na2vs0mg"},{"bike_id":"e3260d53-1f31-4048-a6b1-57d9b1375877","system_id":"levelo_inurba_marseille","lat":43.28531,"lon":5.44107,"is_reserved":false,"is_disabled":false,"rental_uris":{"android":"levelo://app?vid=e3260d53-1f31-4048-a6b1-57d9b1375877","ios":"levelo://app?vid=e3260d53-1f31-4048-a6b1-57d9b1375877"},"vehicle_type_id":"4","last_reported":1761671422,"current_range_meters":18800,"station_id":"st_d3j3df2ikq2c7380ej80","pricing_plan_id":"cebpf4jnsgd1na2vs0mg"},{"bike_id":"3d00cf23-a66b-47a1-8eb3-f05af16b09a1","system_id":"levelo_inurba_marseille","lat":43.24394,"lon":5.37068,"is_reserved":false,"is_disabled":false,"rental_uris":{"android":"levelo://app?vid=3d00cf23-a66b-47a1-8eb3-f05af16b09a1","ios":"levelo://app?vid=3d00cf23-a66b-47a1-8eb3-f05af16b09a1"},"vehicle_type_id":"4","last_reported":1761671422,"current_range_meters":18800,"station_id":"ce4bhhh2rcd13ifvqfk0","pricing_plan_id":"cebpf4jnsgd1na2vs0mg"},{"bike_id":"3be6387f-9356-4d22-96e9-26a716368262","system_id":"levelo_inurba_marseille","lat":43.296353,"lon":5.40601,"is_reserved":false,"is_disabled":true,"rental_uris":{"android":"levelo://app?vid=3be6387f-9356-4d22-96e9-26a716368262","ios":"levelo://app?vid=3be6387f-9356-4d22-96e9-26a716368262"},"vehicle_type_id":"4","last_reported":1761671422,"current_range_meters":18800,"station_id":"ce4bh0h2rcd13ifvqd60","pricing_plan_id":"cebpf4jnsgd1na2vs0mg"},{"bike_id":"faee4aed-34d1-4e59-9f3e-bc2337688920","system_id":"levelo_inurba_marseille","lat":43.31709,"lon":5.43706,"is_reserved":false,"is_disabled":true,"rental_uris":{"android":"levelo://app?vid=faee4aed-34d1-4e59-9f3e-bc2337688920","ios":"levelo://app?vid=faee4aed-34d1-4e59-9f3e-bc2337688920"},"vehicle_type_id":"4","last_reported":1761671422,"current_range_meters":18800,"station_id":"ce4bhp92rcd13ifvqhcg","pricing_plan_id":"cebpf4jnsgd1na2vs0mg"},{"bike_id":"738e36cd-60e8-4877-a4b5-c11d7d14c02e","system_id":"levelo_inurba_marseille","lat":43.300958,"lon":5.389832,"is_reserved":false,"is_disabled":false,"rental_uris":{"android":"levelo://app?vid=738e36cd-60e8-4877-a4b5-c11d7d14c02e","ios":"levelo://app?vid=738e36cd-60e8-4877-a4b5-c11d7d14c02e"},"vehicle_type_id":"4","last_reported":1761671422,"current_range_meters":18800,"station_id":"ce4bh192rcd13ifvqdb0","pricing_plan_id":"cebpf4jnsgd1na2vs0mg"},{"bike_id":"eb699c30-0727-4db2-a700-12ce1e9db847","system_id":"levelo_inurba_marseille","lat":43.2802,"lon":5.36943,"is_reserved":false,"is_disabled":false,"rental_uris":{"android":"levelo://app?vid=eb699c30-0727-4db2-a700-12ce1e9db847","ios":"levelo://app?vid=eb699c30-0727-4db2-a700-12ce1e9db847"},"vehicle_type_id":"4","last_reported":1761671422,"current_range_meters":19200,"station_id":"ce4bha12rcd13ifvqef0","pricing_plan_id":"cebpf4jnsgd1na2vs0mg"},{"bike_id":"1de36155-a8b1-4d04-8a86-e6830bf922d7","system_id":"levelo_inurba_marseille","lat":43.28072,"lon":5.39644,"is_reserved":false,"is_disabled":false,"rental_uris":{"android":"levelo://app?vid=1de36155-a8b1-4d04-8a86-e6830bf922d7","ios":"levelo://app?vid=1de36155-a8b1-4d04-8a86-e6830bf922d7"},"vehicle_type_id":"4","last_reported":1761671422,"current_range_meters":19200,"station_id":"ce4bho12rcd13ifvqh2g","pricing_plan_id":"cebpf4jnsgd1na2vs0mg"},{"bike_id":"1a34b5a4-3c1e-479b-b6f5-76f97d5c5c52","system_id":"levelo_inurba_marseille","lat":43.28528,"lon":5.44098,"is_reserved":false,"is_disabled":false,"rental_uris":{"android":"levelo://app?vid=1a34b5a4-3c1e-479b-b6f5-76f97d5c5c52","ios":"levelo://app?vid=1a34b5a4-3c1e-479b-b6f5-76f97d5c5c52"},"vehicle_type_id":"4","last_reported":1761671422,"current_range_meters":19200,"station_id":"st_d3j3df2ikq2c7380ej80","pricing_plan_id":"cebpf4jnsgd1na2vs0mg"},{"bike_id":"7fb0d27d-ec45-4de8-9c9e-90046ec376fa","system_id":"levelo_inurba_marseille","lat":43.24158,"lon":5.3638,"is_reserved":false,"is_disabled":false,"rental_uris":{"android":"levelo://app?vid=7fb0d27d-ec45-4de8-9c9e-90046ec376fa","ios":"levelo://app?vid=7fb0d27d-ec45-4de8-9c9e-90046ec376fa"},"vehicle_type_id":"4","last_reported":1761671422,"current_range_meters":19200,"station_id":"cpo36qri1sfpv3e86is0","pricing_plan_id":"cebpf4jnsgd1na2vs0mg"},{"bike_id":"1f4071a1-29e4-498c-853d-1a76112e9425","system_id":"levelo_inurba_marseille","lat":43.32044,"lon":5.41558,"is_reserved":false,"is_disabled":false,"rental_uris":{"android":"levelo://app?vid=1f4071a1-29e4-498c-853d-1a76112e9425","ios":"levelo://app?vid=1f4071a1-29e4-498c-853d-1a76112e9425"},"vehicle_type_id":"4","last_reported":1761671422,"current_range_meters":19200,"station_id":"ce4bhq92rcd13ifvqhkg","pricing_plan_id":"cebpf4jnsgd1na2vs0mg"},{"bike_id":"d1c34c58-4f96-4ec3-af0a-96e0a51ef785","system_id":"levelo_inurba_marseille","lat":43.27617,"lon":5.36098,"is_reserved":false,"is_disabled":false,"rental_uris":{"android":"levelo://app?vid=d1c34c58-4f96-4ec3-af0a-96e0a51ef785","ios":"levelo://app?vid=d1c34c58-4f96-4ec3-af0a-96e0a51ef785"},"vehicle_type_id":"4","last_reported":1761671422,"current_range_meters":19200,"station_id":"ce4bgj92rcd13ifvqbe0","pricing_plan_id":"cebpf4jnsgd1na2vs0mg"},{"bike_id":"75dc66b3-0d26-400d-85b7-e985f64e2136","system_id":"levelo_inurba_marseille","lat":43.289991,"lon":5.437084,"is_reserved":false,"is_disabled":false,"rental_uris":{"android":"levelo://app?vid=75dc66b3-0d26-400d-85b7-e985f64e2136","ios":"levelo://app?vid=75dc66b3-0d26-400d-85b7-e985f64e2136"},"vehicle_type_id":"4","last_reported":1761671422,"current_range_meters":19600,"station_id":"","pricing_plan_id":"cebpf4jnsgd1na2vs0mg"},{"bike_id":"494c5b0c-2cff-49a6-8b9e-78eef61f5dad","system_id":"levelo_inurba_marseille","lat":43.29996,"lon":5.37585,"is_reserved":false,"is_disabled":false,"rental_uris":{"android":"levelo://app?vid=494c5b0c-2cff-49a6-8b9e-78eef61f5dad","ios":"levelo://app?vid=494c5b0c-2cff-49a6-8b9e-78eef61f5dad"},"vehicle_type_id":"4","last_reported":1761671422,"current_range_meters":19600,"station_id":"","pricing_plan_id":"cebpf4jnsgd1na2vs0mg"},{"bike_id":"03ee9cc1-eec1-4c60-9655-da135c259f7a","system_id":"levelo_inurba_marseille","lat":43.26207,"lon":5.37442,"is_reserved":false,"is_disabled":false,"rental_uris":{"android":"levelo://app?vid=03ee9cc1-eec1-4c60-9655-da135c259f7a","ios":"levelo://app?vid=03ee9cc1-eec1-4c60-9655-da135c259f7a"},"vehicle_type_id":"4","last_reported":1761671422,"current_range_meters":19600,"station_id":"ce4bhgp2rcd13ifvqfc0","pricing_plan_id":"cebpf4jnsgd1na2vs0mg"},{"bike_id":"54b14a5b-1cb9-4119-885b-796c26f33979","system_id":"levelo_inurba_marseille","lat":43.33025,"lon":5.39042,"is_reserved":false,"is_disabled":false,"rental_uris":{"android":"levelo://app?vid=54b14a5b-1cb9-4119-885b-796c26f33979","ios":"levelo://app?vid=54b14a5b-1cb9-4119-885b-796c26f33979"},"vehicle_type_id":"4","last_reported":1761671422,"current_range_meters":19600,"station_id":"ce4bhr92rcd13ifvqhrg","pricing_plan_id":"cebpf4jnsgd1na2vs0mg"},{"bike_id":"cf6defc0-b18b-4785-a2fb-8d65d70ed3a0","system_id":"levelo_inurba_marseille","lat":43.28941,"lon":5.36636,"is_reserved":false,"is_disabled":false,"rental_uris":{"android":"levelo://app?vid=cf6defc0-b18b-4785-a2fb-8d65d70ed3a0","ios":"levelo://app?vid=cf6defc0-b18b-4785-a2fb-8d65d70ed3a0"},"vehicle_type_id":"4","last_reported":1761671422,"current_range_meters":19600,"station_id":"ce4bhap2rcd13ifvqek0","pricing_plan_id":"cebpf4jnsgd1na2vs0mg"},{"bike_id":"d99ff343-0432-4504-9f81-f0bd52a37757","system_id":"levelo_inurba_marseille","lat":43.29261,"lon":5.37634,"is_reserved":false,"is_disabled":false,"rental_uris":{"android":"levelo://app?vid=d99ff343-0432-4504-9f81-f0bd52a37757","ios":"levelo://app?vid=d99ff343-0432-4504-9f81-f0bd52a37757"},"vehicle_type_id":"4","last_reported":1761671422,"current_range_meters":19600,"station_id":"ce4bgi12rcd13ifvqb80","pricing_plan_id":"cebpf4jnsgd1na2vs0mg"},{"bike_id":"5ae39c5d-5e24-440b-8fa6-9d63bbfbae68","system_id":"levelo_inurba_marseille","lat":43.291966,"lon":5.393231,"is_reserved":false,"is_disabled":false,"rental_uris":{"android":"levelo://app?vid=5ae39c5d-5e24-440b-8fa6-9d63bbfbae68","ios":"levelo://app?vid=5ae39c5d-5e24-440b-8fa6-9d63bbfbae68"},"vehicle_type_id":"4","last_reported":1761671422,"current_range_meters":19600,"station_id":"ce4bh692rcd13ifvqea0","pricing_plan_id":"cebpf4jnsgd1na2vs0mg"},{"bike_id":"efeb8501-a4af-4a5a-ab6a-38b685492910","system_id":"levelo_inurba_marseille","lat":43.30423,"lon":5.41291,"is_reserved":false,"is_disabled":false,"rental_uris":{"android":"levelo://app?vid=efeb8501-a4af-4a5a-ab6a-38b685492910","ios":"levelo://app?vid=efeb8501-a4af-4a5a-ab6a-38b685492910"},"vehicle_type_id":"4","last_reported":1761671422,"current_range_meters":19600,"station_id":"ce4bhop2rcd13ifvqh8g","pricing_plan_id":"cebpf4jnsgd1na2vs0mg"},{"bike_id":"e50c2183-5a4d-447e-bab4-07aa7f21cdd5","system_id":"levelo_inurba_marseille","lat":43.281531,"lon":5.426473,"is_reserved":false,"is_disabled":false,"rental_uris":{"android":"levelo://app?vid=e50c2183-5a4d-447e-bab4-07aa7f21cdd5","ios":"levelo://app?vid=e50c2183-5a4d-447e-bab4-07aa7f21cdd5"},"vehicle_type_id":"4","last_reported":1761671422,"current_range_meters":19600,"station_id":"ce4bhnh2rcd13ifvqgug","pricing_plan_id":"cebpf4jnsgd1na2vs0mg"},{"bike_id":"445ff04f-d96c-48dc-908b-4ab67d291929","system_id":"levelo_inurba_marseille","lat":43.30957,"lon":5.39034,"is_reserved":false,"is_disabled":false,"rental_uris":{"android":"levelo://app?vid=445ff04f-d96c-48dc-908b-4ab67d291929","ios":"levelo://app?vid=445ff04f-d96c-48dc-908b-4ab67d291929"},"vehicle_type_id":"4","last_reported":1761671422,"current_range_meters":20000,"station_id":"ce4bgup2rcd13ifvqco0","pricing_plan_id":"cebpf4jnsgd1na2vs0mg"},{"bike_id":"66f35c71-7548-4c33-9bb7-97e77983d5f2","system_id":"levelo_inurba_marseille","lat":43.30249,"lon":5.4009,"is_reserved":false,"is_disabled":true,"rental_uris":{"android":"levelo://app?vid=66f35c71-7548-4c33-9bb7-97e77983d5f2","ios":"levelo://app?vid=66f35c71-7548-4c33-9bb7-97e77983d5f2"},"vehicle_type_id":"4","last_reported":1761671422,"current_range_meters":20000,"station_id":"ce4bgvh2rcd13ifvqcs0","pricing_plan_id":"cebpf4jnsgd1na2vs0mg"},{"bike_id":"3d2af8c5-a10e-4e23-b8fa-e81407603c44","system_id":"levelo_inurba_marseille","lat":43.24664,"lon":5.38164,"is_reserved":false,"is_disabled":false,"rental_uris":{"android":"levelo://app?vid=3d2af8c5-a10e-4e23-b8fa-e81407603c44","ios":"levelo://app?vid=3d2af8c5-a10e-4e23-b8fa-e81407603c44"},"vehicle_type_id":"4","last_reported":1761671422,"current_range_meters":20000,"station_id":"ce4bhih2rcd13ifvqfr0","pricing_plan_id":"cebpf4jnsgd1na2vs0mg"},{"bike_id":"2aaebb54-db5a-4a53-a4f5-64ceaef8d48e","system_id":"levelo_inurba_marseille","lat":43.2929,"lon":5.36849,"is_reserved":false,"is_disabled":false,"rental_uris":{"android":"levelo://app?vid=2aaebb54-db5a-4a53-a4f5-64ceaef8d48e","ios":"levelo://app?vid=2aaebb54-db5a-4a53-a4f5-64ceaef8d48e"},"vehicle_type_id":"4","last_reported":1761671422,"current_range_meters":20000,"station_id":"ce4bhbp2rcd13ifvqesg","pricing_plan_id":"cebpf4jnsgd1na2vs0mg"},{"bike_id":"5b620425-6862-46cb-a74c-d3eec48203d7","system_id":"levelo_inurba_marseille","lat":43.29565,"lon":5.422913,"is_reserved":false,"is_disabled":false,"rental_uris":{"android":"levelo://app?vid=5b620425-6862-46cb-a74c-d3eec48203d7","ios":"levelo://app?vid=5b620425-6862-46cb-a74c-d3eec48203d7"},"vehicle_type_id":"4","last_reported":1761671422,"current_range_meters":20000,"station_id":"","pricing_plan_id":"cebpf4jnsgd1na2vs0mg"},{"bike_id":"0a052c97-8589-4b6c-bd9c-512587c69317","system_id":"levelo_inurba_marseille","lat":43.28029,"lon":5.36962,"is_reserved":false,"is_disabled":false,"rental_uris":{"android":"levelo://app?vid=0a052c97-8589-4b6c-bd9c-512587c69317","ios":"levelo://app?vid=0a052c97-8589-4b6c-bd9c-512587c69317"},"vehicle_type_id":"4","last_reported":1761671422,"current_range_meters":20000,"station_id":"ce4bha12rcd13ifvqef0","pricing_plan_id":"cebpf4jnsgd1na2vs0mg"},{"bike_id":"cddd7ae2-688c-4012-b0b7-cdb627396e77","system_id":"levelo_inurba_marseille","lat":43.26555,"lon":5.39017,"is_reserved":false,"is_disabled":false,"rental_uris":{"android":"levelo://app?vid=cddd7ae2-688c-4012-b0b7-cdb627396e77","ios":"levelo://app?vid=cddd7ae2-688c-4012-b0b7-cdb627396e77"},"vehicle_type_id":"4","last_reported":1761671422,"current_range_meters":20000,"station_id":"ce4bhe12rcd13ifvqf30","pricing_plan_id":"cebpf4jnsgd1na2vs0mg"},{"bike_id":"e3f07934-8fce-480b-baac-06a614fcf343","system_id":"levelo_inurba_marseille","lat":43.28863,"lon":5.42515,"is_reserved":false,"is_disabled":false,"rental_uris":{"android":"levelo://app?vid=e3f07934-8fce-480b-baac-06a614fcf343","ios":"levelo://app?vid=e3f07934-8fce-480b-baac-06a614fcf343"},"vehicle_type_id":"4","last_reported":1761671422,"current_range_meters":20000,"station_id":"st_d3b462108ojc7389ooeg","pricing_plan_id":"cebpf4jnsgd1na2vs0mg"},{"bike_id":"711ee745-50af-427f-9979-e1b1d86a1c66","system_id":"levelo_inurba_marseille","lat":43.30798,"lon":5.38159,"is_reserved":false,"is_disabled":false,"rental_uris":{"android":"levelo://app?vid=711ee745-50af-427f-9979-e1b1d86a1c66","ios":"levelo://app?vid=711ee745-50af-427f-9979-e1b1d86a1c66"},"vehicle_type_id":"4","last_reported":1761671422,"current_range_meters":20000,"station_id":"ce4bgt12rcd13ifvqce0","pricing_plan_id":"cebpf4jnsgd1na2vs0mg"},{"bike_id":"d9a6a1f6-ad3e-4d83-b3dd-5f0ef903b947","system_id":"levelo_inurba_marseille","lat":43.230866,"lon":5.354803,"is_reserved":false,"is_disabled":false,"rental_uris":{"android":"levelo://app?vid=d9a6a1f6-ad3e-4d83-b3dd-5f0ef903b947","ios":"levelo://app?vid=d9a6a1f6-ad3e-4d83-b3dd-5f0ef903b947"},"vehicle_type_id":"4","last_reported":1761671422,"current_range_meters":20400,"station_id":"","pricing_plan_id":"cebpf4jnsgd1na2vs0mg"},{"bike_id":"a86f0768-c947-4705-a70f-11daca4c9ae6","system_id":"levelo_inurba_marseille","lat":43.30252,"lon":5.40054,"is_reserved":false,"is_disabled":false,"rental_uris":{"android":"levelo://app?vid=a86f0768-c947-4705-a70f-11daca4c9ae6","ios":"levelo://app?vid=a86f0768-c947-4705-a70f-11daca4c9ae6"},"vehicle_type_id":"4","last_reported":1761671422,"current_range_meters":20400,"station_id":"ce4bgvh2rcd13ifvqcs0","pricing_plan_id":"cebpf4jnsgd1na2vs0mg"},{"bike_id":"bb01d285-fa33-4298-958f-fd08e79a305b","system_id":"levelo_inurba_marseille","lat":43.318832,"lon":5.407371,"is_reserved":false,"is_disabled":false,"rental_uris":{"android":"levelo://app?vid=bb01d285-fa33-4298-958f-fd08e79a305b","ios":"levelo://app?vid=bb01d285-fa33-4298-958f-fd08e79a305b"},"vehicle_type_id":"4","last_reported":1761671422,"current_range_meters":20400,"station_id":"ce4bhq12rcd13ifvqhig","pricing_plan_id":"cebpf4jnsgd1na2vs0mg"},{"bike_id":"aee71f51-8ae1-434d-997c-3f23a097fc99","system_id":"levelo_inurba_marseille","lat":43.286839,"lon":5.386824,"is_reserved":false,"is_disabled":false,"rental_uris":{"android":"levelo://app?vid=aee71f51-8ae1-434d-997c-3f23a097fc99","ios":"levelo://app?vid=aee71f51-8ae1-434d-997c-3f23a097fc99"},"vehicle_type_id":"4","last_reported":1761671422,"current_range_meters":20400,"station_id":"ce4bh492rcd13ifvqdug","pricing_plan_id":"cebpf4jnsgd1na2vs0mg"},{"bike_id":"556c95c4-e39d-4a50-b32b-6e1b11658636","system_id":"levelo_inurba_marseille","lat":43.24174,"lon":5.36395,"is_reserved":false,"is_disabled":false,"rental_uris":{"android":"levelo://app?vid=556c95c4-e39d-4a50-b32b-6e1b11658636","ios":"levelo://app?vid=556c95c4-e39d-4a50-b32b-6e1b11658636"},"vehicle_type_id":"4","last_reported":1761671422,"current_range_meters":20400,"station_id":"cpo36qri1sfpv3e86is0","pricing_plan_id":"cebpf4jnsgd1na2vs0mg"},{"bike_id":"2e8f711e-aad5-4077-a784-a085928f1a55","system_id":"levelo_inurba_marseille","lat":43.2657,"lon":5.39014,"is_reserved":false,"is_disabled":false,"rental_uris":{"android":"levelo://app?vid=2e8f711e-aad5-4077-a784-a085928f1a55","ios":"levelo://app?vid=2e8f711e-aad5-4077-a784-a085928f1a55"},"vehicle_type_id":"4","last_reported":1761671422,"current_range_meters":20400,"station_id":"ce4bhe12rcd13ifvqf30","pricing_plan_id":"cebpf4jnsgd1na2vs0mg"},{"bike_id":"bdd84f3d-f36d-4729-b8df-89e2857059f5","system_id":"levelo_inurba_marseille","lat":43.30079,"lon":5.39069,"is_reserved":false,"is_disabled":false,"rental_uris":{"android":"levelo://app?vid=bdd84f3d-f36d-4729-b8df-89e2857059f5","ios":"levelo://app?vid=bdd84f3d-f36d-4729-b8df-89e2857059f5"},"vehicle_type_id":"4","last_reported":1761671422,"current_range_meters":20400,"station_id":"ce4bh192rcd13ifvqdb0","pricing_plan_id":"cebpf4jnsgd1na2vs0mg"},{"bike_id":"c2afa6f1-2f98-44b7-8875-37b25f412bc0","system_id":"levelo_inurba_marseille","lat":43.295,"lon":5.39055,"is_reserved":false,"is_disabled":false,"rental_uris":{"android":"levelo://app?vid=c2afa6f1-2f98-44b7-8875-37b25f412bc0","ios":"levelo://app?vid=c2afa6f1-2f98-44b7-8875-37b25f412bc0"},"vehicle_type_id":"4","last_reported":1761671422,"current_range_meters":20400,"station_id":"ce4bh3p2rcd13ifvqdp0","pricing_plan_id":"cebpf4jnsgd1na2vs0mg"},{"bike_id":"969fc2de-96ae-4fe6-8758-92879d367d74","system_id":"levelo_inurba_marseille","lat":43.302911,"lon":5.39223,"is_reserved":false,"is_disabled":false,"rental_uris":{"android":"levelo://app?vid=969fc2de-96ae-4fe6-8758-92879d367d74","ios":"levelo://app?vid=969fc2de-96ae-4fe6-8758-92879d367d74"},"vehicle_type_id":"4","last_reported":1761671422,"current_range_meters":20800,"station_id":"ce4bgkh2rcd13ifvqbk0","pricing_plan_id":"cebpf4jnsgd1na2vs0mg"},{"bike_id":"0320dc14-5222-40a3-b833-18c5819cb98a","system_id":"levelo_inurba_marseille","lat":43.28409,"lon":5.37509,"is_reserved":false,"is_disabled":false,"rental_uris":{"android":"levelo://app?vid=0320dc14-5222-40a3-b833-18c5819cb98a","ios":"levelo://app?vid=0320dc14-5222-40a3-b833-18c5819cb98a"},"vehicle_type_id":"4","last_reported":1761671422,"current_range_meters":20800,"station_id":"ce4bh412rcd13ifvqds0","pricing_plan_id":"cebpf4jnsgd1na2vs0mg"},{"bike_id":"6508e63a-cbcc-43fc-a5dc-816d1623afa0","system_id":"levelo_inurba_marseille","lat":43.250879,"lon":5.395295,"is_reserved":false,"is_disabled":false,"rental_uris":{"android":"levelo://app?vid=6508e63a-cbcc-43fc-a5dc-816d1623afa0","ios":"levelo://app?vid=6508e63a-cbcc-43fc-a5dc-816d1623afa0"},"vehicle_type_id":"4","last_reported":1761671422,"current_range_meters":20800,"station_id":"ce4bhm12rcd13ifvqgkg","pricing_plan_id":"cebpf4jnsgd1na2vs0mg"},{"bike_id":"be78c3e0-9af3-4c42-a7b8-425fcbd9af4c","system_id":"levelo_inurba_marseille","lat":43.295212,"lon":5.390379,"is_reserved":false,"is_disabled":false,"rental_uris":{"android":"levelo://app?vid=be78c3e0-9af3-4c42-a7b8-425fcbd9af4c","ios":"levelo://app?vid=be78c3e0-9af3-4c42-a7b8-425fcbd9af4c"},"vehicle_type_id":"4","last_reported":1761671422,"current_range_meters":21600,"station_id":"ce4bh3p2rcd13ifvqdp0","pricing_plan_id":"cebpf4jnsgd1na2vs0mg"},{"bike_id":"a0257cb7-6e09-4e57-9074-9166ca511388","system_id":"levelo_inurba_marseille","lat":43.22565,"lon":5.41628,"is_reserved":false,"is_disabled":false,"rental_uris":{"android":"levelo://app?vid=a0257cb7-6e09-4e57-9074-9166ca511388","ios":"levelo://app?vid=a0257cb7-6e09-4e57-9074-9166ca511388"},"vehicle_type_id":"4","last_reported":1761671422,"current_range_meters":21600,"station_id":"st_d2o4gvlbi1j2169b742g","pricing_plan_id":"cebpf4jnsgd1na2vs0mg"},{"bike_id":"b3028fe0-df6d-4591-8764-75bfbd106652","system_id":"levelo_inurba_marseille","lat":43.30323,"lon":5.40442,"is_reserved":false,"is_disabled":false,"rental_uris":{"android":"levelo://app?vid=b3028fe0-df6d-4591-8764-75bfbd106652","ios":"levelo://app?vid=b3028fe0-df6d-4591-8764-75bfbd106652"},"vehicle_type_id":"4","last_reported":1761671422,"current_range_meters":21600,"station_id":"ce4bh012rcd13ifvqd10","pricing_plan_id":"cebpf4jnsgd1na2vs0mg"},{"bike_id":"1c3fcfc8-1d41-453e-a80c-77758ea9e916","system_id":"levelo_inurba_marseille","lat":43.28479,"lon":5.48416,"is_reserved":false,"is_disabled":false,"rental_uris":{"android":"levelo://app?vid=1c3fcfc8-1d41-453e-a80c-77758ea9e916","ios":"levelo://app?vid=1c3fcfc8-1d41-453e-a80c-77758ea9e916"},"vehicle_type_id":"4","last_reported":1761671422,"current_range_meters":21600,"station_id":"st_d3svhcjqgbts73a3dn0g","pricing_plan_id":"cebpf4jnsgd1na2vs0mg"},{"bike_id":"d1392877-822e-4a22-871d-a9488624f465","system_id":"levelo_inurba_marseille","lat":43.26581,"lon":5.39009,"is_reserved":false,"is_disabled":false,"rental_uris":{"android":"levelo://app?vid=d1392877-822e-4a22-871d-a9488624f465","ios":"levelo://app?vid=d1392877-822e-4a22-871d-a9488624f465"},"vehicle_type_id":"4","last_reported":1761671422,"current_range_meters":21600,"station_id":"ce4bhe12rcd13ifvqf30","pricing_plan_id":"cebpf4jnsgd1na2vs0mg"},{"bike_id":"5640d019-8f6b-4955-9555-de1fd4ebf155","system_id":"levelo_inurba_marseille","lat":43.23963,"lon":5.36645,"is_reserved":false,"is_disabled":false,"rental_uris":{"android":"levelo://app?vid=5640d019-8f6b-4955-9555-de1fd4ebf155","ios":"levelo://app?vid=5640d019-8f6b-4955-9555-de1fd4ebf155"},"vehicle_type_id":"4","last_reported":1761671422,"current_range_meters":21600,"station_id":"ce4bhi12rcd13ifvqfp0","pricing_plan_id":"cebpf4jnsgd1na2vs0mg"},{"bike_id":"262ed4af-32f3-4dca-8974-3b17bd472f1a","system_id":"levelo_inurba_marseille","lat":43.24386,"lon":5.37058,"is_reserved":false,"is_disabled":false,"rental_uris":{"android":"levelo://app?vid=262ed4af-32f3-4dca-8974-3b17bd472f1a","ios":"levelo://app?vid=262ed4af-32f3-4dca-8974-3b17bd472f1a"},"vehicle_type_id":"4","last_reported":1761671422,"current_range_meters":21600,"station_id":"ce4bhhh2rcd13ifvqfk0","pricing_plan_id":"cebpf4jnsgd1na2vs0mg"},{"bike_id":"216e34f4-5ab7-4cc8-8804-20cc4556d0d9","system_id":"levelo_inurba_marseille","lat":43.23196,"lon":5.35555,"is_reserved":false,"is_disabled":false,"rental_uris":{"android":"levelo://app?vid=216e34f4-5ab7-4cc8-8804-20cc4556d0d9","ios":"levelo://app?vid=216e34f4-5ab7-4cc8-8804-20cc4556d0d9"},"vehicle_type_id":"4","last_reported":1761671422,"current_range_meters":21600,"station_id":"ce4bhu92rcd13ifvqi70","pricing_plan_id":"cebpf4jnsgd1na2vs0mg"},{"bike_id":"bc20cc06-fe63-4863-82e9-daa86765de61","system_id":"levelo_inurba_marseille","lat":43.32108,"lon":5.36764,"is_reserved":false,"is_disabled":false,"rental_uris":{"android":"levelo://app?vid=bc20cc06-fe63-4863-82e9-daa86765de61","ios":"levelo://app?vid=bc20cc06-fe63-4863-82e9-daa86765de61"},"vehicle_type_id":"4","last_reported":1761671422,"current_range_meters":21600,"station_id":"ce4bhrh2rcd13ifvqhug","pricing_plan_id":"cebpf4jnsgd1na2vs0mg"},{"bike_id":"9d19aa12-f7d8-4182-8cd0-6d800ec08c05","system_id":"levelo_inurba_marseille","lat":43.276166,"lon":5.360981,"is_reserved":false,"is_disabled":true,"rental_uris":{"android":"levelo://app?vid=9d19aa12-f7d8-4182-8cd0-6d800ec08c05","ios":"levelo://app?vid=9d19aa12-f7d8-4182-8cd0-6d800ec08c05"},"vehicle_type_id":"4","last_reported":1761671422,"current_range_meters":21600,"station_id":"ce4bgj92rcd13ifvqbe0","pricing_plan_id":"cebpf4jnsgd1na2vs0mg"},{"bike_id":"37b9a414-ff49-459d-a699-5e4384e67c87","system_id":"levelo_inurba_marseille","lat":43.295751,"lon":5.367402,"is_reserved":false,"is_disabled":false,"rental_uris":{"android":"levelo://app?vid=37b9a414-ff49-459d-a699-5e4384e67c87","ios":"levelo://app?vid=37b9a414-ff49-459d-a699-5e4384e67c87"},"vehicle_type_id":"4","last_reported":1761671422,"current_range_meters":22000,"station_id":"ce4bgph2rcd13ifvqc2g","pricing_plan_id":"cebpf4jnsgd1na2vs0mg"},