{"last_updated":1729026500,"ttl":60,"version":"2.2","data":{"bikes":[{"bike_id":"488cc52e-690c-4348-900f-2cee32ad7416","system_id":"levelo_inurba_marseille","lat":43.31721,"lon":5.42404,"is_reserved":false,"is_disabled":false,"rental_uris":{"android":"levelo://app?vid=488cc52e-690c-4348-900f-2cee32ad7416","ios":"levelo://app?vid=488cc52e-690c-4348-900f-2cee32ad7416"},"vehicle_type_id":"4","last_reported":1729026500,"current_range_meters":36800,"station_id":"ce4bhp92rcd13ifvqhbg","pricing_plan_id":"cebpf4jnsgd1na2vs0mg"},{"bike_id":"c97222c8-b037-4db7-9702-abb09f9e010e","system_id":"levelo_inurba_marseille","lat":43.30265,"lon":5.39642,"is_reserved":false,"is_disabled":false,"rental_uris":{"android":"levelo://app?vid=c97222c8-b037-4db7-9702-abb09f9e010e","ios":"levelo://app?vid=c97222c8-b037-4db7-9702-abb09f9e010e"},"vehicle_type_id":"4","last_reported":1729026500,"current_range_meters":35600,"station_id":"","pricing_plan_id":"cebpf4jnsgd1na2vs0mg"},{"bike_id":"805cf10d-9632-4f1a-9f3a-80b24a4fbac6","system_id":"levelo_inurba_marseille","lat":43.29809,"lon":5.4151,"is_reserved":false,"is_disabled":false,"rental_uris":{"android":"levelo://app?vid=805cf10d-9632-4f1a-9f3a-80b24a4fbac6","ios":"levelo://app?vid=805cf10d-9632-4f1a-9f3a-80b24a4fbac6"},"vehicle_type_id":"4","last_reported":1729026500,"current_range_meters":8800,"station_id":"","pricing_plan_id":"cebpf4jnsgd1na2vs0mg"},{"bike_id":"eb00ee89-215f-4545-b0b9-96b15e7eb139","system_id":"levelo_inurba_marseille","lat":43.2816,"lon":5.42646,"is_reserved":false,"is_disabled":false,"rental_uris":{"android":"levelo://app?vid=eb00ee89-215f-4545-b0b9-96b15e7eb139","ios":"levelo://app?vid=eb00ee89-215f-4545-b0b9-96b15e7eb139"},"vehicle_type_id":"4","last_reported":1729026500,"current_range_meters":2000,"station_id":"ce4bhnh2rcd13ifvqgug","pricing_plan_id":"cebpf4jnsgd1na2vs0mg"},{"bike_id":"db95dd30-88ae-4985-9a96-ae5ac75e3266","system_id":"levelo_inurba_marseille","lat":43.27211,"lon":5.39185,"is_reserved":false,"is_disabled":false,"rental_uris":{"android":"levelo://app?vid=db95dd30-88ae-4985-9a96-ae5ac75e3266","ios":"levelo://app?vid=db95dd30-88ae-4985-9a96-ae5ac75e3266"},"vehicle_type_id":"4","last_reported":1729026500,"current_range_meters":20000,"station_id":"","pricing_plan_id":"cebpf4jnsgd1na2vs0mg"},{"bike_id":"748da852-72f7-481c-94cb-3539f940a42c","system_id":"levelo_inurba_marseille","lat":43.29931,"lon":5.36533,"is_reserved":false,"is_disabled":false,"rental_uris":{"android":"levelo://app?vid=748da852-72f7-481c-94cb-3539f940a42c","ios":"levelo://app?vid=748da852-72f7-481c-94cb-3539f940a42c"},"vehicle_type_id":"4","last_reported":1729026500,"current_range_meters":38800,"station_id":"ce4bgm92rcd13ifvqbr0","pricing_plan_id":"cebpf4jnsgd1na2vs0mg"},{"bike_id":"f694122d-754f-4e4a-9b0e-817a75eff194","system_id":"levelo_inurba_marseille","lat":43.308,"lon":5.38151,"is_reserved":false,"is_disabled":false,"rental_uris":{"android":"levelo://app?vid=f694122d-754f-4e4a-9b0e-817a75eff194","ios":"levelo://app?vid=f694122d-754f-4e4a-9b0e-817a75eff194"},"vehicle_type_id":"4","last_reported":1729026500,"current_range_meters":35200,"station_id":"ce4bgt12rcd13ifvqce0","pricing_plan_id":"cebpf4jnsgd1na2vs0mg"},{"bike_id":"f2fdf74f-5e15-4827-9d38-65a4050d017a","system_id":"levelo_inurba_marseille","lat":43.28079,"lon":5.39652,"is_reserved":false,"is_disabled":false,"rental_uris":{"android":"levelo://app?vid=f2fdf74f-5e15-4827-9d38-65a4050d017a","ios":"levelo://app?vid=f2fdf74f-5e15-4827-9d38-65a4050d017a"},"vehicle_type_id":"4","last_reported":1729026500,"current_range_meters":25200,"station_id":"ce4bho12rcd13ifvqh2g","pricing_plan_id":"cebpf4jnsgd1na2vs0mg"},{"bike_id":"8aca930d-2c77-435a-bbcd-cf4f4d726973","system_id":"levelo_inurba_marseille","lat":43.28422,"lon":5.37516,"is_reserved":false,"is_disabled":false,"rental_uris":{"android":"levelo://app?vid=8aca930d-2c77-435a-bbcd-cf4f4d726973","ios":"levelo://app?vid=8aca930d-2c77-435a-bbcd-cf4f4d726973"},"vehicle_type_id":"4","last_reported":1729026500,"current_range_meters":35600,"station_id":"ce4bh412rcd13ifvqds0","pricing_plan_id":"cebpf4jnsgd1na2vs0mg"},{"bike_id":"decf65b9-49aa-457a-b1da-f13e96b87098","system_id":"levelo_inurba_marseille","lat":43.274161,"lon":5.423932,"is_reserved":false,"is_disabled":false,"rental_uris":{"android":"levelo://app?vid=decf65b9-49aa-457a-b1da-f13e96b87098","ios":"levelo://app?vid=decf65b9-49aa-457a-b1da-f13e96b87098"},"vehicle_type_id":"4","last_reported":1729026500,"current_range_meters":32000,"station_id":"ce4bhn92rcd13ifvqgrg","pricing_plan_id":"cebpf4jnsgd1na2vs0mg"},{"bike_id":"68a57382-3dd1-4c9f-8007-42cd825f9bda","system_id":"levelo_inurba_marseille","lat":43.29776,"lon":5.37117,"is_reserved":false,"is_disabled":false,"rental_uris":{"android":"levelo://app?vid=68a57382-3dd1-4c9f-8007-42cd825f9bda","ios":"levelo://app?vid=68a57382-3dd1-4c9f-8007-42cd825f9bda"},"vehicle_type_id":"4","last_reported":1729026500,"current_range_meters":38400,"station_id":"","pricing_plan_id":"cebpf4jnsgd1na2vs0mg"},{"bike_id":"8dc88361-e5e8-4b7b-a8f8-5a05e108c642","system_id":"levelo_inurba_marseille","lat":43.30891,"lon":5.40097,"is_reserved":false,"is_disabled":false,"rental_uris":{"android":"levelo://app?vid=8dc88361-e5e8-4b7b-a8f8-5a05e108c642","ios":"levelo://app?vid=8dc88361-e5e8-4b7b-a8f8-5a05e108c642"},"vehicle_type_id":"4","last_reported":1729026500,"current_range_meters":38800,"station_id":"ce4bgvp2rcd13ifvqct0","pricing_plan_id":"cebpf4jnsgd1na2vs0mg"},{"bike_id":"ab400425-760c-44ba-aaa3-e0960ca07f7c","system_id":"levelo_inurba_marseille","lat":43.30351,"lon":5.41877,"is_reserved":false,"is_disabled":false,"rental_uris":{"android":"levelo://app?vid=ab400425-760c-44ba-aaa3-e0960ca07f7c","ios":"levelo://app?vid=ab400425-760c-44ba-aaa3-e0960ca07f7c"},"vehicle_type_id":"4","last_reported":1729026500,"current_range_meters":37600,"station_id":"ce4bhop2rcd13ifvqh7g","pricing_plan_id":"cebpf4jnsgd1na2vs0mg"},{"bike_id":"9d0a8f78-029e-4443-87b4-4430d1f80208","system_id":"levelo_inurba_marseille","lat":43.31497,"lon":5.37301,"is_reserved":false,"is_disabled":false,"rental_uris":{"android":"levelo://app?vid=9d0a8f78-029e-4443-87b4-4430d1f80208","ios":"levelo://app?vid=9d0a8f78-029e-4443-87b4-4430d1f80208"},"vehicle_type_id":"4","last_reported":1729026500,"current_range_meters":14400,"station_id":"ce4bgt12rcd13ifvqcd0","pricing_plan_id":"cebpf4jnsgd1na2vs0mg"},{"bike_id":"568ce9e5-db70-48c7-8491-aef68fc28c1b","system_id":"levelo_inurba_marseille","lat":43.276276,"lon":5.358388,"is_reserved":false,"is_disabled":false,"rental_uris":{"android":"levelo://app?vid=568ce9e5-db70-48c7-8491-aef68fc28c1b","ios":"levelo://app?vid=568ce9e5-db70-48c7-8491-aef68fc28c1b"},"vehicle_type_id":"4","last_reported":1729026500,"current_range_meters":36800,"station_id":"ce4bgj92rcd13ifvqbe0","pricing_plan_id":"cebpf4jnsgd1na2vs0mg"},{"bike_id":"5554a15a-3e77-4957-960a-9fd3bb5c6cef","system_id":"levelo_inurba_marseille","lat":43.31992,"lon":5.38146,"is_reserved":false,"is_disabled":false,"rental_uris":{"android":"levelo://app?vid=5554a15a-3e77-4957-960a-9fd3bb5c6cef","ios":"levelo://app?vid=5554a15a-3e77-4957-960a-9fd3bb5c6cef"},"vehicle_type_id":"4","last_reported":1729026500,"current_range_meters":28400,"station_id":"ce4bhr12rcd13ifvqhpg","pricing_plan_id":"cebpf4jnsgd1na2vs0mg"},{"bike_id":"2f093790-17f4-4fdc-988d-a2c63f58fc61","system_id":"levelo_inurba_marseille","lat":43.28412,"lon":5.34972,"is_reserved":false,"is_disabled":false,"rental_uris":{"android":"levelo://app?vid=2f093790-17f4-4fdc-988d-a2c63f58fc61","ios":"levelo://app?vid=2f093790-17f4-4fdc-988d-a2c63f58fc61"},"vehicle_type_id":"4","last_reported":1729026500,"current_range_meters":38800,"station_id":"ce4bhbh2rcd13ifvqepg","pricing_plan_id":"cebpf4jnsgd1na2vs0mg"},{"bike_id":"12840bf0-ed4d-46fc-8302-48fbf6a0790c","system_id":"levelo_inurba_marseille","lat":43.27441,"lon":5.39418,"is_reserved":false,"is_disabled":false,"rental_uris":{"android":"levelo://app?vid=12840bf0-ed4d-46fc-8302-48fbf6a0790c","ios":"levelo://app?vid=12840bf0-ed4d-46fc-8302-48fbf6a0790c"},"vehicle_type_id":"4","last_reported":1729026500,"current_range_meters":8400,"station_id":"ce4bhdp2rcd13ifvqf20","pricing_plan_id":"cebpf4jnsgd1na2vs0mg"},{"bike_id":"db8a664b-87b7-4cde-bb35-64e0ab5db6ea","system_id":"levelo_inurba_marseille","lat":43.30352,"lon":5.41878,"is_reserved":false,"is_disabled":false,"rental_uris":{"android":"levelo://app?vid=db8a664b-87b7-4cde-bb35-64e0ab5db6ea","ios":"levelo://app?vid=db8a664b-87b7-4cde-bb35-64e0ab5db6ea"},"vehicle_type_id":"4","last_reported":1729026500,"current_range_meters":4800,"station_id":"ce4bhop2rcd13ifvqh7g","pricing_plan_id":"cebpf4jnsgd1na2vs0mg"},{"bike_id":"e3326e25-5ffc-4823-b2f2-35a5725410f4","system_id":"levelo_inurba_marseille","lat":43.26202,"lon":5.3793,"is_reserved":false,"is_disabled":false,"rental_uris":{"android":"levelo://app?vid=e3326e25-5ffc-4823-b2f2-35a5725410f4","ios":"levelo://app?vid=e3326e25-5ffc-4823-b2f2-35a5725410f4"},"vehicle_type_id":"4","last_reported":1729026500,"current_range_meters":12400,"station_id":"ce4bhjp2rcd13ifvqg90","pricing_plan_id":"cebpf4jnsgd1na2vs0mg"},{"bike_id":"f5aba2c3-4c7b-4c47-b6e4-65e78dba5a34","system_id":"levelo_inurba_marseille","lat":43.29709,"lon":5.37689,"is_reserved":false,"is_disabled":false,"rental_uris":{"android":"levelo://app?vid=f5aba2c3-4c7b-4c47-b6e4-65e78dba5a34","ios":"levelo://app?vid=f5aba2c3-4c7b-4c47-b6e4-65e78dba5a34"},"vehicle_type_id":"4","last_reported":1729026500,"current_range_meters":38800,"station_id":"ce4bgkh2rcd13ifvqbl0","pricing_plan_id":"cebpf4jnsgd1na2vs0mg"},{"bike_id":"d043841a-7a84-4fb1-b9b6-4233f0d5fdbe","system_id":"levelo_inurba_marseille","lat":43.30954,"lon":5.3903,"is_reserved":false,"is_disabled":false,"rental_uris":{"android":"levelo://app?vid=d043841a-7a84-4fb1-b9b6-4233f0d5fdbe","ios":"levelo://app?vid=d043841a-7a84-4fb1-b9b6-4233f0d5fdbe"},"vehicle_type_id":"4","last_reported":1729026500,"current_range_meters":38800,"station_id":"ce4bgup2rcd13ifvqco0","pricing_plan_id":"cebpf4jnsgd1na2vs0mg"},{"bike_id":"6dfb2d52-6828-4931-a78c-c0c293c836e8","system_id":"levelo_inurba_marseille","lat":43.30952,"lon":5.39037,"is_reserved":false,"is_disabled":false,"rental_uris":{"android":"levelo://app?vid=6dfb2d52-6828-4931-a78c-c0c293c836e8","ios":"levelo://app?vid=6dfb2d52-6828-4931-a78c-c0c293c836e8"},"vehicle_type_id":"4","last_reported":1729026500,"current_range_meters":7200,"station_id":"ce4bgup2rcd13ifvqco0","pricing_plan_id":"cebpf4jnsgd1na2vs0mg"},{"bike_id":"5ce7e684-6080-4737-924f-bcde89aacdbc","system_id":"levelo_inurba_marseille","lat":43.33724,"lon":5.39182,"is_reserved":false,"is_disabled":false,"rental_uris":{"android":"levelo://app?vid=5ce7e684-6080-4737-924f-bcde89aacdbc","ios":"levelo://app?vid=5ce7e684-6080-4737-924f-bcde89aacdbc"},"vehicle_type_id":"4","last_reported":1729026500,"current_range_meters":38800,"station_id":"ce4bhr92rcd13ifvqhsg","pricing_plan_id":"cebpf4jnsgd1na2vs0mg"},{"bike_id":"2eb21c34-2201-4c7e-8964-700706d6f092","system_id":"levelo_inurba_marseille","lat":43.29303,"lon":5.40146,"is_reserved":false,"is_disabled":false,"rental_uris":{"android":"levelo://app?vid=2eb21c34-2201-4c7e-8964-700706d6f092","ios":"levelo://app?vid=2eb21c34-2201-4c7e-8964-700706d6f092"},"vehicle_type_id":"4","last_reported":1729026500,"current_range_meters":12400,"station_id":"ce4bh312rcd13ifvqdk0","pricing_plan_id":"cebpf4jnsgd1na2vs0mg"},{"bike_id":"8a56e0e6-f966-4459-b96f-170386ed8a7c","system_id":"levelo_inurba_marseille","lat":43.28691,"lon":5.3739,"is_reserved":false,"is_disabled":false,"rental_uris":{"android":"levelo://app?vid=8a56e0e6-f966-4459-b96f-170386ed8a7c","ios":"levelo://app?vid=8a56e0e6-f966-4459-b96f-170386ed8a7c"},"vehicle_type_id":"4","last_reported":1729026500,"current_range_meters":33200,"station_id":"ce4bh3p2rcd13ifvqdq0","pricing_plan_id":"cebpf4jnsgd1na2vs0mg"},{"bike_id":"c5f5cb1d-6115-4834-a655-3c011396eda6","system_id":"levelo_inurba_marseille","lat":43.23182,"lon":5.39988,"is_reserved":false,"is_disabled":false,"rental_uris":{"android":"levelo://app?vid=c5f5cb1d-6115-4834-a655-3c011396eda6","ios":"levelo://app?vid=c5f5cb1d-6115-4834-a655-3c011396eda6"},"vehicle_type_id":"4","last_reported":1729026500,"current_range_meters":24800,"station_id":"ce4bhn12rcd13ifvqgqg","pricing_plan_id":"cebpf4jnsgd1na2vs0mg"},{"bike_id":"92205cba-a776-455b-b519-18ced88a912f","system_id":"levelo_inurba_marseille","lat":43.290533,"lon":5.359072,"is_reserved":false,"is_disabled":false,"rental_uris":{"android":"levelo://app?vid=92205cba-a776-455b-b519-18ced88a912f","ios":"levelo://app?vid=92205cba-a776-455b-b519-18ced88a912f"},"vehicle_type_id":"4","last_reported":1729026500,"current_range_meters":38800,"station_id":"ce4bha92rcd13ifvqeg0","pricing_plan_id":"cebpf4jnsgd1na2vs0mg"},{"bike_id":"707a7935-c2d1-4208-b8fa-7f836191e028","system_id":"levelo_inurba_marseille","lat":43.29526,"lon":5.3904,"is_reserved":false,"is_disabled":false,"rental_uris":{"android":"levelo://app?vid=707a7935-c2d1-4208-b8fa-7f836191e028","ios":"levelo://app?vid=707a7935-c2d1-4208-b8fa-7f836191e028"},"vehicle_type_id":"4","last_reported":1729026500,"current_range_meters":36400,"station_id":"ce4bh3p2rcd13ifvqdp0","pricing_plan_id":"cebpf4jnsgd1na2vs0mg"},{"bike_id":"e1d58c43-4cbf-43b6-b30f-9ba3cf6d397e","system_id":"levelo_inurba_marseille","lat":43.275618,"lon":5.384202,"is_reserved":false,"is_disabled":false,"rental_uris":{"android":"levelo://app?vid=e1d58c43-4cbf-43b6-b30f-9ba3cf6d397e","ios":"levelo://app?vid=e1d58c43-4cbf-43b6-b30f-9ba3cf6d397e"},"vehicle_type_id":"4","last_reported":1729026500,"current_range_meters":36400,"station_id":"ce4bhh92rcd13ifvqfi0","pricing_plan_id":"cebpf4jnsgd1na2vs0mg"},{"bike_id":"c87ea7fc-8658-4fe5-9323-997ad23c2057","system_id":"levelo_inurba_marseille","lat":43.31164,"lon":5.38707,"is_reserved":false,"is_disabled":false,"rental_uris":{"android":"levelo://app?vid=c87ea7fc-8658-4fe5-9323-997ad23c2057","ios":"levelo://app?vid=c87ea7fc-8658-4fe5-9323-997ad23c2057"},"vehicle_type_id":"4","last_reported":1729026500,"current_range_meters":27200,"station_id":"ce4bgv12rcd13ifvqcp0","pricing_plan_id":"cebpf4jnsgd1na2vs0mg"},{"bike_id":"a303803f-aabf-4f43-95f1-5b32cb63b28c","system_id":"levelo_inurba_marseille","lat":43.32056,"lon":5.41547,"is_reserved":false,"is_disabled":false,"rental_uris":{"android":"levelo://app?vid=a303803f-aabf-4f43-95f1-5b32cb63b28c","ios":"levelo://app?vid=a303803f-aabf-4f43-95f1-5b32cb63b28c"},"vehicle_type_id":"4","last_reported":1729026500,"current_range_meters":30000,"station_id":"ce4bhq92rcd13ifvqhkg","pricing_plan_id":"cebpf4jnsgd1na2vs0mg"},{"bike_id":"a4e0ecf5-e792-4bd6-8132-6b62272b4e5d","system_id":"levelo_inurba_marseille","lat":43.31364,"lon":5.38494,"is_reserved":false,"is_disabled":false,"rental_uris":{"android":"levelo://app?vid=a4e0ecf5-e792-4bd6-8132-6b62272b4e5d","ios":"levelo://app?vid=a4e0ecf5-e792-4bd6-8132-6b62272b4e5d"},"vehicle_type_id":"4","last_reported":1729026500,"current_range_meters":38000,"station_id":"ce4bgt92rcd13ifvqcf0","pricing_plan_id":"cebpf4jnsgd1na2vs0mg"},{"bike_id":"a7ff9e42-e3e4-48e1-9d6a-70e06dd8acba","system_id":"levelo_inurba_marseille","lat":43.30433,"lon":5.39754,"is_reserved":false,"is_disabled":false,"rental_uris":{"android":"levelo://app?vid=a7ff9e42-e3e4-48e1-9d6a-70e06dd8acba","ios":"levelo://app?vid=a7ff9e42-e3e4-48e1-9d6a-70e06dd8acba"},"vehicle_type_id":"4","last_reported":1729026500,"current_range_meters":9600,"station_id":"ce4bh092rcd13ifvqd20","pricing_plan_id":"cebpf4jnsgd1na2vs0mg"},{"bike_id":"d6eb8cbc-ecfc-42ea-bb9b-e72d219e2333","system_id":"levelo_inurba_marseille","lat":43.31886,"lon":5.40727,"is_reserved":false,"is_disabled":false,"rental_uris":{"android":"levelo://app?vid=d6eb8cbc-ecfc-42ea-bb9b-e72d219e2333","ios":"levelo://app?vid=d6eb8cbc-ecfc-42ea-bb9b-e72d219e2333"},"vehicle_type_id":"4","last_reported":1729026500,"current_range_meters":10000,"station_id":"ce4bhq12rcd13ifvqhig","pricing_plan_id":"cebpf4jnsgd1na2vs0mg"},{"bike_id":"755a7622-70a2-4447-afe8-59317900f64c","system_id":"levelo_inurba_marseille","lat":43.28077,"lon":5.39642,"is_reserved":false,"is_disabled":false,"rental_uris":{"android":"levelo://app?vid=755a7622-70a2-4447-afe8-59317900f64c","ios":"levelo://app?vid=755a7622-70a2-4447-afe8-59317900f64c"},"vehicle_type_id":"4","last_reported":1729026500,"current_range_meters":28000,"station_id":"ce4bho12rcd13ifvqh2g","pricing_plan_id":"cebpf4jnsgd1na2vs0mg"},{"bike_id":"97cc34b8-2b31-4f61-9374-5daae032de77","system_id":"levelo_inurba_marseille","lat":43.30096,"lon":5.39094,"is_reserved":false,"is_disabled":false,"rental_uris":{"android":"levelo://app?vid=97cc34b8-2b31-4f61-9374-5daae032de77","ios":"levelo://app?vid=97cc34b8-2b31-4f61-9374-5daae032de77"},"vehicle_type_id":"4","last_reported":1729026500,"current_range_meters":38800,"station_id":"ce4bh192rcd13ifvqdb0","pricing_plan_id":"cebpf4jnsgd1na2vs0mg"},{"bike_id":"1e9c9f06-8a7d-4869-ad9e-faf668b6f5cd","system_id":"levelo_inurba_marseille","lat":43.28091,"lon":5.40709,"is_reserved":false,"is_disabled":false,"rental_uris":{"android":"levelo://app?vid=1e9c9f06-8a7d-4869-ad9e-faf668b6f5cd","ios":"levelo://app?vid=1e9c9f06-8a7d-4869-ad9e-faf668b6f5cd"},"vehicle_type_id":"4","last_reported":1729026500,"current_range_meters":18000,"station_id":"","pricing_plan_id":"cebpf4jnsgd1na2vs0mg"},{"bike_id":"024af8a9-895b-4c18-bfa1-97a4721540d4","system_id":"levelo_inurba_marseille","lat":43.28828,"lon":5.36464,"is_reserved":false,"is_disabled":false,"rental_uris":{"android":"levelo://app?vid=024af8a9-895b-4c18-bfa1-97a4721540d4","ios":"levelo://app?vid=024af8a9-895b-4c18-bfa1-97a4721540d4"},"vehicle_type_id":"4","last_reported":1729026500,"current_range_meters":12000,"station_id":"cki0cbj6b192h4jlfktg","pricing_plan_id":"cebpf4jnsgd1na2vs0mg"},{"bike_id":"23e01218-aa02-4b16-946b-085320f1f37f","system_id":"levelo_inurba_marseille","lat":43.29038,"lon":5.37568,"is_reserved":false,"is_disabled":false,"rental_uris":{"android":"levelo://app?vid=23e01218-aa02-4b16-946b-085320f1f37f","ios":"levelo://app?vid=23e01218-aa02-4b16-946b-085320f1f37f"},"vehicle_type_id":"4","last_reported":1729026500,"current_range_meters":36000,"station_id":"ce4bh692rcd13ifvqe90","pricing_plan_id":"cebpf4jnsgd1na2vs0mg"},{"bike_id":"6e7afd62-d736-4ed9-9248-f4f82a390064","system_id":"levelo_inurba_marseille","lat":43.33606,"lon":5.41033,"is_reserved":false,"is_disabled":false,"rental_uris":{"android":"levelo://app?vid=6e7afd62-d736-4ed9-9248-f4f82a390064","ios":"levelo://app?vid=6e7afd62-d736-4ed9-9248-f4f82a390064"},"vehicle_type_id":"4","last_reported":1729026500,"current_range_meters":23200,"station_id":"ce4bhqh2rcd13ifvqhmg","pricing_plan_id":"cebpf4jnsgd1na2vs0mg"},{"bike_id":"73ef751c-1663-4138-9d82-e4aec617a886","system_id":"levelo_inurba_marseille","lat":43.23198,"lon":5.35552,"is_reserved":false,"is_disabled":false,"rental_uris":{"android":"levelo://app?vid=73ef751c-1663-4138-9d82-e4aec617a886","ios":"levelo://app?vid=73ef751c-1663-4138-9d82-e4aec617a886"},"vehicle_type_id":"4","last_reported":1729026500,"current_range_meters":38800,"station_id":"ce4bhu92rcd13ifvqi70","pricing_plan_id":"cebpf4jnsgd1na2vs0mg"},{"bike_id":"5f866cdd-5cee-442e-81d2-26f78a203ab9","system_id":"levelo_inurba_marseille","lat":43.31993,"lon":5.38152,"is_reserved":false,"is_disabled":false,"rental_uris":{"android":"levelo://app?vid=5f866cdd-5cee-442e-81d2-26f78a203ab9","ios":"levelo://app?vid=5f866cdd-5cee-442e-81d2-26f78a203ab9"},"vehicle_type_id":"4","last_reported":1729026500,"current_range_meters":30000,"station_id":"ce4bhr12rcd13ifvqhpg","pricing_plan_id":"cebpf4jnsgd1na2vs0mg"},{"bike_id":"c58611c9-5610-40ca-9dff-13b158d6d313","system_id":"levelo_inurba_marseille","lat":43.316954,"lon":5.377407,"is_reserved":false,"is_disabled":false,"rental_uris":{"android":"levelo://app?vid=c58611c9-5610-40ca-9dff-13b158d6d313","ios":"levelo://app?vid=c58611c9-5610-40ca-9dff-13b158d6d313"},"vehicle_type_id":"4","last_reported":1729026500,"current_range_meters":28400,"station_id":"ce4bgth2rcd13ifvqch0","pricing_plan_id":"cebpf4jnsgd1na2vs0mg"},{"bike_id":"5c8deaf7-cea5-4a62-8d6f-b381b65402c9","system_id":"levelo_inurba_marseille","lat":43.30951,"lon":5.39027,"is_reserved":false,"is_disabled":false,"rental_uris":{"android":"levelo://app?vid=5c8deaf7-cea5-4a62-8d6f-b381b65402c9","ios":"levelo://app?vid=5c8deaf7-cea5-4a62-8d6f-b381b65402c9"},"vehicle_type_id":"4","last_reported":1729026500,"current_range_meters":8000,"station_id":"ce4bgup2rcd13ifvqco0","pricing_plan_id":"cebpf4jnsgd1na2vs0mg"},{"bike_id":"eb646d5e-71f3-41a5-8f49-b168b4fba9d8","system_id":"levelo_inurba_marseille","lat":43.27816,"lon":5.40717,"is_reserved":false,"is_disabled":false,"rental_uris":{"android":"levelo://app?vid=eb646d5e-71f3-41a5-8f49-b168b4fba9d8","ios":"levelo://app?vid=eb646d5e-71f3-41a5-8f49-b168b4fba9d8"},"vehicle_type_id":"4","last_reported":1729026500,"current_range_meters":16000,"station_id":"ce4bhnh2rcd13ifvqgtg","pricing_plan_id":"cebpf4jnsgd1na2vs0mg"},{"bike_id":"9ffd4a2e-3ad6-4e77-ae33-71adde6d2802","system_id":"levelo_inurba_marseille","lat":43.24072,"lon":5.37766,"is_reserved":false,"is_disabled":false,"rental_uris":{"android":"levelo://app?vid=9ffd4a2e-3ad6-4e77-ae33-71adde6d2802","ios":"levelo://app?vid=9ffd4a2e-3ad6-4e77-ae33-71adde6d2802"},"vehicle_type_id":"4","last_reported":1729026500,"current_range_meters":5600,"station_id":"ce4bhnp2rcd13ifvqgvg","pricing_plan_id":"cebpf4jnsgd1na2vs0mg"},{"bike_id":"71481030-be7c-45ef-aec0-5d27a155d482","system_id":"levelo_inurba_marseille","lat":43.31683,"lon":5.37769,"is_reserved":false,"is_disabled":false,"rental_uris":{"android":"levelo://app?vid=71481030-be7c-45ef-aec0-5d27a155d482","ios":"levelo://app?vid=71481030-be7c-45ef-aec0-5d27a155d482"},"vehicle_type_id":"4","last_reported":1729026500,"current_range_meters":19200,"station_id":"ce4bgth2rcd13ifvqch0","pricing_plan_id":"cebpf4jnsgd1na2vs0mg"},{"bike_id":"ded83da2-ac47-4af4-99a1-215e896c1d92","system_id":"levelo_inurba_marseille","lat":43.28278,"lon":5.35087,"is_reserved":false,"is_disabled":false,"rental_uris":{"android":"levelo://app?vid=ded83da2-ac47-4af4-99a1-215e896c1d92","ios":"levelo://app?vid=ded83da2-ac47-4af4-99a1-215e896c1d92"},"vehicle_type_id":"4","last_reported":1729026500,"current_range_meters":38800,"station_id":"ce4bhbp2rcd13ifvqerg","pricing_plan_id":"cebpf4jnsgd1na2vs0mg"},{"bike_id":"c4440d48-93b5-4e6a-8b3a-b7cc90812e30","system_id":"levelo_inurba_marseille","lat":43.31529,"lon":5.38039,"is_reserved":false,"is_disabled":false,"rental_uris":{"android":"levelo://app?vid=c4440d48-93b5-4e6a-8b3a-b7cc90812e30","ios":"levelo://app?vid=c4440d48-93b5-4e6a-8b3a-b7cc90812e30"},"vehicle_type_id":"4","last_reported":1729026500,"current_range_meters":14400,"station_id":"ce4bhsp2rcd13ifvqi50","pricing_plan_id":"cebpf4jnsgd1na2vs0mg"},{"bike_id":"2df66286-b32f-4d1e-99f6-34c819e8c705","system_id":"levelo_inurba_marseille","lat":43.32356,"lon":5.38886,"is_reserved":false,"is_disabled":false,"rental_uris":{"android":"levelo://app?vid=2df66286-b32f-4d1e-99f6-34c819e8c705","ios":"levelo://app?vid=2df66286-b32f-4d1e-99f6-34c819e8c705"},"vehicle_type_id":"4","last_reported":1729026500,"current_range_meters":38800,"station_id":"ce4bhqp2rcd13ifvqhog","pricing_plan_id":"cebpf4jnsgd1na2vs0mg"},{"bike_id":"fa7bbdc9-afbe-404d-8676-647037cc76a9","system_id":"levelo_inurba_marseille","lat":43.23196,"lon":5.35545,"is_reserved":false,"is_disabled":false,"rental_uris":{"android":"levelo://app?vid=fa7bbdc9-afbe-404d-8676-647037cc76a9","ios":"levelo://app?vid=fa7bbdc9-afbe-404d-8676-647037cc76a9"},"vehicle_type_id":"4","last_reported":1729026500,"current_range_meters":38800,"station_id":"ce4bhu92rcd13ifvqi70","pricing_plan_id":"cebpf4jnsgd1na2vs0mg"},{"bike_id":"6226a3cc-3cfd-40e6-ac49-747b76fcc877","system_id":"levelo_inurba_marseille","lat":43.32369,"lon":5.38876,"is_reserved":false,"is_disabled":false,"rental_uris":{"android":"levelo://app?vid=6226a3cc-3cfd-40e6-ac49-747b76fcc877","ios":"levelo://app?vid=6226a3cc-3cfd-40e6-ac49-747b76fcc877"},"vehicle_type_id":"4","last_reported":1729026500,"current_range_meters":28800,"station_id":"ce4bhqp2rcd13ifvqhog","pricing_plan_id":"cebpf4jnsgd1na2vs0mg"},{"bike_id":"74b5d578-63f5-4236-b615-018ecd3609c1","system_id":"levelo_inurba_marseille","lat":43.30417,"lon":5.4128,"is_reserved":false,"is_disabled":false,"rental_uris":{"android":"levelo://app?vid=74b5d578-63f5-4236-b615-018ecd3609c1","ios":"levelo://app?vid=74b5d578-63f5-4236-b615-018ecd3609c1"},"vehicle_type_id":"4","last_reported":1729026500,"current_range_meters":21600,"station_id":"ce4bhop2rcd13ifvqh8g","pricing_plan_id":"cebpf4jnsgd1na2vs0mg"},{"bike_id":"e439f200-513f-4baf-a94e-9c58b6122e2f","system_id":"levelo_inurba_marseille","lat":43.27822,"lon":5.40715,"is_reserved":false,"is_disabled":false,"rental_uris":{"android":"levelo://app?vid=e439f200-513f-4baf-a94e-9c58b6122e2f","ios":"levelo://app?vid=e439f200-513f-4baf-a94e-9c58b6122e2f"},"vehicle_type_id":"4","last_reported":1729026500,"current_range_meters":37600,"station_id":"ce4bhnh2rcd13ifvqgtg","pricing_plan_id":"cebpf4jnsgd1na2vs0mg"},{"bike_id":"afebca69-d99e-4e16-b749-e29d048e40ad","system_id":"levelo_inurba_marseille","lat":43.31264,"lon":5.40165,"is_reserved":false,"is_disabled":false,"rental_uris":{"android":"levelo://app?vid=afebca69-d99e-4e16-b749-e29d048e40ad","ios":"levelo://app?vid=afebca69-d99e-4e16-b749-e29d048e40ad"},"vehicle_type_id":"4","last_reported":1729026500,"current_range_meters":34800,"station_id":"ce4bh092rcd13ifvqd30","pricing_plan_id":"cebpf4jnsgd1na2vs0mg"},{"bike_id":"d45762d0-5a87-4c06-972d-8a97b59d59d1","system_id":"levelo_inurba_marseille","lat":43.30781,"lon":5.37649,"is_reserved":false,"is_disabled":false,"rental_uris":{"android":"levelo://app?vid=d45762d0-5a87-4c06-972d-8a97b59d59d1","ios":"levelo://app?vid=d45762d0-5a87-4c06-972d-8a97b59d59d1"},"vehicle_type_id":"4","last_reported":1729026500,"current_range_meters":26000,"station_id":"ce4bgv92rcd13ifvqcq0","pricing_plan_id":"cebpf4jnsgd1na2vs0mg"},{"bike_id":"694d89bd-bac3-4c55-9600-80fe90f45ec4","system_id":"levelo_inurba_marseille","lat":43.3361,"lon":5.41028,"is_reserved":false,"is_disabled":false,"rental_uris":{"android":"levelo://app?vid=694d89bd-bac3-4c55-9600-80fe90f45ec4","ios":"levelo://app?vid=694d89bd-bac3-4c55-9600-80fe90f45ec4"},"vehicle_type_id":"4","last_reported":1729026500,"current_range_meters":30400,"station_id":"ce4bhqh2rcd13ifvqhmg","pricing_plan_id":"cebpf4jnsgd1na2vs0mg"},{"bike_id":"ef2cf9bb-fed7-4255-8893-25b57e369d68","system_id":"levelo_inurba_marseille","lat":43.28338,"lon":5.38085,"is_reserved":false,"is_disabled":false,"rental_uris":{"android":"levelo://app?vid=ef2cf9bb-fed7-4255-8893-25b57e369d68","ios":"levelo://app?vid=ef2cf9bb-fed7-4255-8893-25b57e369d68"},"vehicle_type_id":"4","last_reported":1729026500,"current_range_meters":0,"station_id":"ce4bh412rcd13ifvqdr0","pricing_plan_id":"cebpf4jnsgd1na2vs0mg"},{"bike_id":"5bee4394-3c6f-4e0b-ae7f-af2244610f6e","system_id":"levelo_inurba_marseille","lat":43.31993,"lon":5.38149,"is_reserved":false,"is_disabled":false,"rental_uris":{"android":"levelo://app?vid=5bee4394-3c6f-4e0b-ae7f-af2244610f6e","ios":"levelo://app?vid=5bee4394-3c6f-4e0b-ae7f-af2244610f6e"},"vehicle_type_id":"4","last_reported":1729026500,"current_range_meters":31200,"station_id":"ce4bhr12rcd13ifvqhpg","pricing_plan_id":"cebpf4jnsgd1na2vs0mg"},{"bike_id":"c0670d96-b06e-446b-a07e-6b5eeebc59d7","system_id":"levelo_inurba_marseille","lat":43.274948,"lon":5.424466,"is_reserved":false,"is_disabled":false,"rental_uris":{"android":"levelo://app?vid=c0670d96-b06e-446b-a07e-6b5eeebc59d7","ios":"levelo://app?vid=c0670d96-b06e-446b-a07e-6b5eeebc59d7"},"vehicle_type_id":"4","last_reported":1729026500,"current_range_meters":10800,"station_id":"ce4bhn92rcd13ifvqgrg","pricing_plan_id":"cebpf4jnsgd1na2vs0mg"},{"bike_id":"f3c1853e-8b8e-47e4-8746-d00e45b18cdc","system_id":"levelo_inurba_marseille","lat":43.32482,"lon":5.36559,"is_reserved":false,"is_disabled":false,"rental_uris":{"android":"levelo://app?vid=f3c1853e-8b8e-47e4-8746-d00e45b18cdc","ios":"levelo://app?vid=f3c1853e-8b8e-47e4-8746-d00e45b18cdc"},"vehicle_type_id":"4","last_reported":1729026500,"current_range_meters":14800,"station_id":"ce4bhs12rcd13ifvqhvg","pricing_plan_id":"cebpf4jnsgd1na2vs0mg"},{"bike_id":"2a8affe0-228c-4605-a685-843108b49f79","system_id":"levelo_inurba_marseille","lat":43.31246,"lon":5.36847,"is_reserved":false,"is_disabled":false,"rental_uris":{"android":"levelo://app?vid=2a8affe0-228c-4605-a685-843108b49f79","ios":"levelo://app?vid=2a8affe0-228c-4605-a685-843108b49f79"},"vehicle_type_id":"4","last_reported":1729026500,"current_range_meters":38000,"station_id":"ce4bgl92rcd13ifvqbq0","pricing_plan_id":"cebpf4jnsgd1na2vs0mg"},{"bike_id":"a0d3d324-fa7e-4417-aee7-85012ecab44e","system_id":"levelo_inurba_marseille","lat":43.34185,"lon":5.44502,"is_reserved":false,"is_disabled":false,"rental_uris":{"android":"levelo://app?vid=a0d3d324-fa7e-4417-aee7-85012ecab44e","ios":"levelo://app?vid=a0d3d324-fa7e-4417-aee7-85012ecab44e"},"vehicle_type_id":"4","last_reported":1729026500,"current_range_meters":22400,"station_id":"","pricing_plan_id":"cebpf4jnsgd1na2vs0mg"},{"bike_id":"4468d376-e0df-4383-9961-4e841773cedf","system_id":"levelo_inurba_marseille","lat":43.27825,"lon":5.392,"is_reserved":false,"is_disabled":false,"rental_uris":{"android":"levelo://app?vid=4468d376-e0df-4383-9961-4e841773cedf","ios":"levelo://app?vid=4468d376-e0df-4383-9961-4e841773cedf"},"vehicle_type_id":"4","last_reported":1729026500,"current_range_meters":7200,"station_id":"ce4bhjp2rcd13ifvqga0","pricing_plan_id":"cebpf4jnsgd1na2vs0mg"},{"bike_id":"5805b0bd-f94e-4a7f-8474-5f1ea4e64c6c","system_id":"levelo_inurba_marseille","lat":43.29925,"lon":5.37403,"is_reserved":false,"is_disabled":false,"rental_uris":{"android":"levelo://app?vid=5805b0bd-f94e-4a7f-8474-5f1ea4e64c6c","ios":"levelo://app?vid=5805b0bd-f94e-4a7f-8474-5f1ea4e64c6c"},"vehicle_type_id":"4","last_reported":1729026500,"current_range_meters":22000,"station_id":"","pricing_plan_id":"cebpf4jnsgd1na2vs0mg"},{"bike_id":"df10d5ec-2207-41cb-9f0f-d5f0e7af16b9","system_id":"levelo_inurba_marseille","lat":43.28452,"lon":5.3919,"is_reserved":false,"is_disabled":false,"rental_uris":{"android":"levelo://app?vid=df10d5ec-2207-41cb-9f0f-d5f0e7af16b9","ios":"levelo://app?vid=df10d5ec-2207-41cb-9f0f-d5f0e7af16b9"},"vehicle_type_id":"4","last_reported":1729026500,"current_range_meters":25600,"station_id":"ce4bhoh2rcd13ifvqh5g","pricing_plan_id":"cebpf4jnsgd1na2vs0mg"},{"bike_id":"304a2d48-cecb-41b4-9d5c-49528f04f880","system_id":"levelo_inurba_marseille","lat":43.32061,"lon":5.41536,"is_reserved":false,"is_disabled":false,"rental_uris":{"android":"levelo://app?vid=304a2d48-cecb-41b4-9d5c-49528f04f880","ios":"levelo://app?vid=304a2d48-cecb-41b4-9d5c-49528f04f880"},"vehicle_type_id":"4","last_reported":1729026500,"current_range_meters":37600,"station_id":"ce4bhq92rcd13ifvqhkg","pricing_plan_id":"cebpf4jnsgd1na2vs0mg"},{"bike_id":"0994d7f0-fa2e-480f-b967-2b1e1b476b78","system_id":"levelo_inurba_marseille","lat":43.23187,"lon":5.35556,"is_reserved":false,"is_disabled":false,"rental_uris":{"android":"levelo://app?vid=0994d7f0-fa2e-480f-b967-2b1e1b476b78","ios":"levelo://app?vid=0994d7f0-fa2e-480f-b967-2b1e1b476b78"},"vehicle_type_id":"4","last_reported":1729026500,"current_range_meters":24800,"station_id":"ce4bhu92rcd13ifvqi70","pricing_plan_id":"cebpf4jnsgd1na2vs0mg"},{"bike_id":"63c47bc5-f167-4a5a-a9c2-0376516d4eba","system_id":"levelo_inurba_marseille","lat":43.27906,"lon":5.38002,"is_reserved":false,"is_disabled":false,"rental_uris":{"android":"levelo://app?vid=63c47bc5-f167-4a5a-a9c2-0376516d4eba","ios":"levelo://app?vid=63c47bc5-f167-4a5a-a9c2-0376516d4eba"},"vehicle_type_id":"4","last_reported":1729026500,"current_range_meters":33600,"station_id":"ce4bhf92rcd13ifvqf50","pricing_plan_id":"cebpf4jnsgd1na2vs0mg"},{"bike_id":"4d423de8-5e22-441a-8848-ae5dc9d8eb39","system_id":"levelo_inurba_marseille","lat":43.33726,"lon":5.37455,"is_reserved":false,"is_disabled":false,"rental_uris":{"android":"levelo://app?vid=4d423de8-5e22-441a-8848-ae5dc9d8eb39","ios":"levelo://app?vid=4d423de8-5e22-441a-8848-ae5dc9d8eb39"},"vehicle_type_id":"4","last_reported":1729026500,"current_range_meters":8800,"station_id":"","pricing_plan_id":"cebpf4jnsgd1na2vs0mg"},{"bike_id":"580b1654-640b-4597-a067-3464faced946","system_id":"levelo_inurba_marseille","lat":43.3117,"lon":5.38723,"is_reserved":false,"is_disabled":false,"rental_uris":{"android":"levelo://app?vid=580b1654-640b-4597-a067-3464faced946","ios":"levelo://app?vid=580b1654-640b-4597-a067-3464faced946"},"vehicle_type_id":"4","last_reported":1729026500,"current_range_meters":3200,"station_id":"ce4bgv12rcd13ifvqcp0","pricing_plan_id":"cebpf4jnsgd1na2vs0mg"},{"bike_id":"66ccc46d-618e-4760-b09c-27382152bdab","system_id":"levelo_inurba_marseille","lat":43.232,"lon":5.35539,"is_reserved":false,"is_disabled":false,"rental_uris":{"android":"levelo://app?vid=66ccc46d-618e-4760-b09c-27382152bdab","ios":"levelo://app?vid=66ccc46d-618e-4760-b09c-27382152bdab"},"vehicle_type_id":"4","last_reported":1729026500,"current_range_meters":38800,"station_id":"ce4bhu92rcd13ifvqi70","pricing_plan_id":"cebpf4jnsgd1na2vs0mg"},{"bike_id":"449ecc46-2acc-4be6-bae0-2f7bb131020a","system_id":"levelo_inurba_marseille","lat":43.28463,"lon":5.38415,"is_reserved":false,"is_disabled":false,"rental_uris":{"android":"levelo://app?vid=449ecc46-2acc-4be6-bae0-2f7bb131020a","ios":"levelo://app?vid=449ecc46-2acc-4be6-bae0-2f7bb131020a"},"vehicle_type_id":"4","last_reported":1729026500,"current_range_meters":37600,"station_id":"ce4bh512rcd13ifvqe3g","pricing_plan_id":"cebpf4jnsgd1na2vs0mg"},{"bike_id":"433f6513-bfc9-4015-8583-49fa8b9c7c86","system_id":"levelo_inurba_marseille","lat":43.26556,"lon":5.37285,"is_reserved":false,"is_disabled":false,"rental_uris":{"android":"levelo://app?vid=433f6513-bfc9-4015-8583-49fa8b9c7c86","ios":"levelo://app?vid=433f6513-bfc9-4015-8583-49fa8b9c7c86"},"vehicle_type_id":"4","last_reported":1729026500,"current_range_meters":30000,"station_id":"ce4bhg12rcd13ifvqf70","pricing_plan_id":"cebpf4jnsgd1na2vs0mg"},{"bike_id":"8e08741b-2c89-4b9b-a445-450ad67c8860","system_id":"levelo_inurba_marseille","lat":43.30885,"lon":5.39633,"is_reserved":false,"is_disabled":false,"rental_uris":{"android":"levelo://app?vid=8e08741b-2c89-4b9b-a445-450ad67c8860","ios":"levelo://app?vid=8e08741b-2c89-4b9b-a445-450ad67c8860"},"vehicle_type_id":"4","last_reported":1729026500,"current_range_meters":34800,"station_id":"ce4bh012rcd13ifvqcv0","pricing_plan_id":"cebpf4jnsgd1na2vs0mg"},{"bike_id":"4139c152-9abd-478b-ad98-946bd3d4004b","system_id":"levelo_inurba_marseille","lat":43.30882,"lon":5.39633,"is_reserved":false,"is_disabled":false,"rental_uris":{"android":"levelo://app?vid=4139c152-9abd-478b-ad98-946bd3d4004b","ios":"levelo://app?vid=4139c152-9abd-478b-ad98-946bd3d4004b"},"vehicle_type_id":"4","last_reported":1729026500,"current_range_meters":6800,"station_id":"ce4bh012rcd13ifvqcv0","pricing_plan_id":"cebpf4jnsgd1na2vs0mg"},{"bike_id":"57c2ae1c-702d-46ee-91c0-e13b2835bfc2","system_id":"levelo_inurba_marseille","lat":43.31166,"lon":5.38718,"is_reserved":false,"is_disabled":false,"rental_uris":{"android":"levelo://app?vid=57c2ae1c-702d-46ee-91c0-e13b2835bfc2","ios":"levelo://app?vid=57c2ae1c-702d-46ee-91c0-e13b2835bfc2"},"vehicle_type_id":"4","last_reported":1729026500,"current_range_meters":22800,"station_id":"ce4bgv12rcd13ifvqcp0","pricing_plan_id":"cebpf4jnsgd1na2vs0mg"},{"bike_id":"6300df2c-b9fe-4275-916d-dd75e59140c9","system_id":"levelo_inurba_marseille","lat":43.23192,"lon":5.35542,"is_reserved":false,"is_disabled":false,"rental_uris":{"android":"levelo://app?vid=6300df2c-b9fe-4275-916d-dd75e59140c9","ios":"levelo://app?vid=6300df2c-b9fe-4275-916d-dd75e59140c9"},"vehicle_type_id":"4","last_reported":1729026500,"current_range_meters":38800,"station_id":"ce4bhu92rcd13ifvqi70","pricing_plan_id":"cebpf4jnsgd1na2vs0mg"},{"bike_id":"375e74d6-344e-47f1-a12d-7c0762da3195","system_id":"levelo_inurba_marseille","lat":43.31116,"lon":5.37765,"is_reserved":false,"is_disabled":false,"rental_uris":{"android":"levelo://app?vid=375e74d6-344e-47f1-a12d-7c0762da3195","ios":"levelo://app?vid=375e74d6-344e-47f1-a12d-7c0762da3195"},"vehicle_type_id":"4","last_reported":1729026500,"current_range_meters":21600,"station_id":"ce4bgt92rcd13ifvqcg0","pricing_plan_id":"cebpf4jnsgd1na2vs0mg"},{"bike_id":"1514a7f4-e548-4f4f-ac2d-3c752abb45a9","system_id":"levelo_inurba_marseille","lat":43.31481,"lon":5.37306,"is_reserved":false,"is_disabled":false,"rental_uris":{"android":"levelo://app?vid=1514a7f4-e548-4f4f-ac2d-3c752abb45a9","ios":"levelo://app?vid=1514a7f4-e548-4f4f-ac2d-3c752abb45a9"},"vehicle_type_id":"4","last_reported":1729026500,"current_range_meters":3600,"station_id":"ce4bgt12rcd13ifvqcd0","pricing_plan_id":"cebpf4jnsgd1na2vs0mg"},{"bike_id":"f9bd20aa-623e-4ff4-975c-7d4cfab24d90","system_id":"levelo_inurba_marseille","lat":43.23178,"lon":5.39994,"is_reserved":false,"is_disabled":false,"rental_uris":{"android":"levelo://app?vid=f9bd20aa-623e-4ff4-975c-7d4cfab24d90","ios":"levelo://app?vid=f9bd20aa-623e-4ff4-975c-7d4cfab24d90"},"vehicle_type_id":"4","last_reported":1729026500,"current_range_meters":28400,"station_id":"ce4bhn12rcd13ifvqgqg","pricing_plan_id":"cebpf4jnsgd1na2vs0mg"},{"bike_id":"2eb1526f-6da4-46ab-b88a-f6755011bd18","system_id":"levelo_inurba_marseille","lat":43.30609,"lon":5.37219,"is_reserved":false,"is_disabled":false,"rental_uris":{"android":"levelo://app?vid=2eb1526f-6da4-46ab-b88a-f6755011bd18","ios":"levelo://app?vid=2eb1526f-6da4-46ab-b88a-f6755011bd18"},"vehicle_type_id":"4","last_reported":1729026500,"current_range_meters":11600,"station_id":"ce4bgqh2rcd13ifvqc4g","pricing_plan_id":"cebpf4jnsgd1na2vs0mg"},{"bike_id":"b610e656-6a01-4577-a7ec-ec48eef3ef80","system_id":"levelo_inurba_marseille","lat":43.29033,"lon":5.37238,"is_reserved":false,"is_disabled":false,"rental_uris":{"android":"levelo://app?vid=b610e656-6a01-4577-a7ec-ec48eef3ef80","ios":"levelo://app?vid=b610e656-6a01-4577-a7ec-ec48eef3ef80"},"vehicle_type_id":"4","last_reported":1729026500,"current_range_meters":8400,"station_id":"ce4bh112rcd13ifvqda0","pricing_plan_id":"cebpf4jnsgd1na2vs0mg"},{"bike_id":"5f902bd3-cc5f-4e2c-ab0b-e490171a9e21","system_id":"levelo_inurba_marseille","lat":43.28942,"lon":5.36399,"is_reserved":false,"is_disabled":false,"rental_uris":{"android":"levelo://app?vid=5f902bd3-cc5f-4e2c-ab0b-e490171a9e21","ios":"levelo://app?vid=5f902bd3-cc5f-4e2c-ab0b-e490171a9e21"},"vehicle_type_id":"4","last_reported":1729026500,"current_range_meters":24400,"station_id":"ce4bhc92rcd13ifvqetg","pricing_plan_id":"cebpf4jnsgd1na2vs0mg"},{"bike_id":"75ee2c98-9745-4c13-9bad-121108492cf6","system_id":"levelo_inurba_marseille","lat":43.2843,"lon":5.39188,"is_reserved":false,"is_disabled":false,"rental_uris":{"android":"levelo://app?vid=75ee2c98-9745-4c13-9bad-121108492cf6","ios":"levelo://app?vid=75ee2c98-9745-4c13-9bad-121108492cf6"},"vehicle_type_id":"4","last_reported":1729026500,"current_range_meters":10800,"station_id":"ce4bhoh2rcd13ifvqh5g","pricing_plan_id":"cebpf4jnsgd1na2vs0mg"},{"bike_id":"2e27b999-0e69-425d-9c42-718e8c04baec","system_id":"levelo_inurba_marseille","lat":43.28415,"lon":5.37514,"is_reserved":false,"is_disabled":false,"rental_uris":{"android":"levelo://app?vid=2e27b999-0e69-425d-9c42-718e8c04baec","ios":"levelo://app?vid=2e27b999-0e69-425d-9c42-718e8c04baec"},"vehicle_type_id":"4","last_reported":1729026500,"current_range_meters":26000,"station_id":"ce4bh412rcd13ifvqds0","pricing_plan_id":"cebpf4jnsgd1na2vs0mg"},{"bike_id":"21022100-492a-433b-b3ec-8a4fef502128","system_id":"levelo_inurba_marseille","lat":43.30928,"lon":5.4015,"is_reserved":false,"is_disabled":false,"rental_uris":{"android":"levelo://app?vid=21022100-492a-433b-b3ec-8a4fef502128","ios":"levelo://app?vid=21022100-492a-433b-b3ec-8a4fef502128"},"vehicle_type_id":"4","last_reported":1729026500,"current_range_meters":38800,"station_id":"ce4bgvp2rcd13ifvqct0","pricing_plan_id":"cebpf4jnsgd1na2vs0mg"},{"bike_id":"1bae4104-feb2-4ff5-a21d-98e5f929332f","system_id":"levelo_inurba_marseille","lat":43.28028,"lon":5.36943,"is_reserved":false,"is_disabled":false,"rental_uris":{"android":"levelo://app?vid=1bae4104-feb2-4ff5-a21d-98e5f929332f","ios":"levelo://app?vid=1bae4104-feb2-4ff5-a21d-98e5f929332f"},"vehicle_type_id":"4","last_reported":1729026500,"current_range_meters":30000,"station_id":"ce4bha12rcd13ifvqef0","pricing_plan_id":"cebpf4jnsgd1na2vs0mg"},{"bike_id":"35715b81-ee2b-4570-a27f-64a6dafaff9f","system_id":"levelo_inurba_marseille","lat":43.29273,"lon":5.4011,"is_reserved":false,"is_disabled":false,"rental_uris":{"android":"levelo://app?vid=35715b81-ee2b-4570-a27f-64a6dafaff9f","ios":"levelo://app?vid=35715b81-ee2b-4570-a27f-64a6dafaff9f"},"vehicle_type_id":"4","last_reported":1729026500,"current_range_meters":6000,"station_id":"ce4bh312rcd13ifvqdk0","pricing_plan_id":"cebpf4jnsgd1na2vs0mg"},{"bike_id":"694c2298-ab83-4eb3-9546-0dc084870396","system_id":"levelo_inurba_marseille","lat":43.3124,"lon":5.36866,"is_reserved":false,"is_disabled":false,"rental_uris":{"android":"levelo://app?vid=694c2298-ab83-4eb3-9546-0dc084870396","ios":"levelo://app?vid=694c2298-ab83-4eb3-9546-0dc084870396"},"vehicle_type_id":"4","last_reported":1729026500,"current_range_meters":38800,"station_id":"ce4bgl92rcd13ifvqbq0","pricing_plan_id":"cebpf4jnsgd1na2vs0mg"},{"bike_id":"2140b6a3-5118-4150-823e-9225aeb56201","system_id":"levelo_inurba_marseille","lat":43.23193,"lon":5.35546,"is_reserved":false,"is_disabled":false,"rental_uris":{"android":"levelo://app?vid=2140b6a3-5118-4150-823e-9225aeb56201","ios":"levelo://app?vid=2140b6a3-5118-4150-823e-9225aeb56201"},"vehicle_type_id":"4","last_reported":1729026500,"current_range_meters":8400,"station_id":"ce4bhu92rcd13ifvqi70","pricing_plan_id":"cebpf4jnsgd1na2vs0mg"},{"bike_id":"9701fbd2-9eac-4305-8093-da1df96949d6","system_id":"levelo_inurba_marseille","lat":43.29043,"lon":5.39959,"is_reserved":false,"is_disabled":false,"rental_uris":{"android":"levelo://app?vid=9701fbd2-9eac-4305-8093-da1df96949d6","ios":"levelo://app?vid=9701fbd2-9eac-4305-8093-da1df96949d6"},"vehicle_type_id":"4","last_reported":1729026500,"current_range_meters":37600,"station_id":"ce4bh392rcd13ifvqdm0","pricing_plan_id":"cebpf4jnsgd1na2vs0mg"},{"bike_id":"3dc45dfa-d49b-419e-9fc5-b9fb5b4001c7","system_id":"levelo_inurba_marseille","lat":43.30304,"lon":5.39207,"is_reserved":false,"is_disabled":false,"rental_uris":{"android":"levelo://app?vid=3dc45dfa-d49b-419e-9fc5-b9fb5b4001c7","ios":"levelo://app?vid=3dc45dfa-d49b-419e-9fc5-b9fb5b4001c7"},"vehicle_type_id":"4","last_reported":1729026500,"current_range_meters":33200,"station_id":"ce4bgkh2rcd13ifvqbk0","pricing_plan_id":"cebpf4jnsgd1na2vs0mg"},{"bike_id":"52e37773-79c6-4443-94d6-5ed359faaaf0","system_id":"levelo_inurba_marseille","lat":43.29992,"lon":5.37645,"is_reserved":false,"is_disabled":false,"rental_uris":{"android":"levelo://app?vid=52e37773-79c6-4443-94d6-5ed359faaaf0","ios":"levelo://app?vid=52e37773-79c6-4443-94d6-5ed359faaaf0"},"vehicle_type_id":"4","last_reported":1729026500,"current_range_meters":10000,"station_id":"","pricing_plan_id":"cebpf4jnsgd1na2vs0mg"},{"bike_id":"2ef7640c-0ce7-4225-943a-0140a011a40d","system_id":"levelo_inurba_marseille","lat":43.2938,"lon":5.37242,"is_reserved":false,"is_disabled":false,"rental_uris":{"android":"levelo://app?vid=2ef7640c-0ce7-4225-943a-0140a011a40d","ios":"levelo://app?vid=2ef7640c-0ce7-4225-943a-0140a011a40d"},"vehicle_type_id":"4","last_reported":1729026500,"current_range_meters":36800,"station_id":"","pricing_plan_id":"cebpf4jnsgd1na2vs0mg"},{"bike_id":"b8895383-2bd4-4c9a-a2b5-80e706db80bd","system_id":"levelo_inurba_marseille","lat":43.3188,"lon":5.40737,"is_reserved":false,"is_disabled":false,"rental_uris":{"android":"levelo://app?vid=b8895383-2bd4-4c9a-a2b5-80e706db80bd","ios":"levelo://app?vid=b8895383-2bd4-4c9a-a2b5-80e706db80bd"},"vehicle_type_id":"4","last_reported":1729026500,"current_range_meters":7200,"station_id":"ce4bhq12rcd13ifvqhig","pricing_plan_id":"cebpf4jnsgd1na2vs0mg"},{"bike_id":"103f921b-c6d2-4b04-ba1a-06583d6d71c4","system_id":"levelo_inurba_marseille","lat":43.30887,"lon":5.3963,"is_reserved":false,"is_disabled":false,"rental_uris":{"android":"levelo://app?vid=103f921b-c6d2-4b04-ba1a-06583d6d71c4","ios":"levelo://app?vid=103f921b-c6d2-4b04-ba1a-06583d6d71c4"},"vehicle_type_id":"4","last_reported":1729026500,"current_range_meters":3600,"station_id":"ce4bh012rcd13ifvqcv0","pricing_plan_id":"cebpf4jnsgd1na2vs0mg"},{"bike_id":"e4d140f2-5c87-4612-a80f-3eff0f4e85a9","system_id":"levelo_inurba_marseille","lat":43.27175,"lon":5.40994,"is_reserved":false,"is_disabled":false,"rental_uris":{"android":"levelo://app?vid=e4d140f2-5c87-4612-a80f-3eff0f4e85a9","ios":"levelo://app?vid=e4d140f2-5c87-4612-a80f-3eff0f4e85a9"},"vehicle_type_id":"4","last_reported":1729026500,"current_range_meters":30000,"station_id":"ce4bhl12rcd13ifvqgf0","pricing_plan_id":"cebpf4jnsgd1na2vs0mg"},{"bike_id":"a2633ada-9a98-4125-b6e7-14adf81b357f","system_id":"levelo_inurba_marseille","lat":43.31884,"lon":5.40734,"is_reserved":false,"is_disabled":false,"rental_uris":{"android":"levelo://app?vid=a2633ada-9a98-4125-b6e7-14adf81b357f","ios":"levelo://app?vid=a2633ada-9a98-4125-b6e7-14adf81b357f"},"vehicle_type_id":"4","last_reported":1729026500,"current_range_meters":9600,"station_id":"ce4bhq12rcd13ifvqhig","pricing_plan_id":"cebpf4jnsgd1na2vs0mg"},{"bike_id":"679f4f3c-0203-4f7d-9836-538010d8d024","system_id":"levelo_inurba_marseille","lat":43.28039,"lon":5.3694,"is_reserved":false,"is_disabled":false,"rental_uris":{"android":"levelo://app?vid=679f4f3c-0203-4f7d-9836-538010d8d024","ios":"levelo://app?vid=679f4f3c-0203-4f7d-9836-538010d8d024"},"vehicle_type_id":"4","last_reported":1729026500,"current_range_meters":38800,"station_id":"ce4bha12rcd13ifvqef0","pricing_plan_id":"cebpf4jnsgd1na2vs0mg"},{"bike_id":"b44ca85b-fffc-4654-8efe-b3d329e7c53e","system_id":"levelo_inurba_marseille","lat":43.2808,"lon":5.39656,"is_reserved":false,"is_disabled":false,"rental_uris":{"android":"levelo://app?vid=b44ca85b-fffc-4654-8efe-b3d329e7c53e","ios":"levelo://app?vid=b44ca85b-fffc-4654-8efe-b3d329e7c53e"},"vehicle_type_id":"4","last_reported":1729026500,"current_range_meters":35200,"station_id":"ce4bho12rcd13ifvqh2g","pricing_plan_id":"cebpf4jnsgd1na2vs0mg"},{"bike_id":"d089d4bd-ba4c-4843-966d-a02f53ca9726","system_id":"levelo_inurba_marseille","lat":43.31118,"lon":5.37757,"is_reserved":false,"is_disabled":false,"rental_uris":{"android":"levelo://app?vid=d089d4bd-ba4c-4843-966d-a02f53ca9726","ios":"levelo://app?vid=d089d4bd-ba4c-4843-966d-a02f53ca9726"},"vehicle_type_id":"4","last_reported":1729026500,"current_range_meters":38800,"station_id":"ce4bgt92rcd13ifvqcg0","pricing_plan_id":"cebpf4jnsgd1na2vs0mg"},{"bike_id":"8c18e7a3-256d-4a3b-b531-a11dc24afda6","system_id":"levelo_inurba_marseille","lat":43.31998,"lon":5.38147,"is_reserved":false,"is_disabled":false,"rental_uris":{"android":"levelo://app?vid=8c18e7a3-256d-4a3b-b531-a11dc24afda6","ios":"levelo://app?vid=8c18e7a3-256d-4a3b-b531-a11dc24afda6"},"vehicle_type_id":"4","last_reported":1729026500,"current_range_meters":24000,"station_id":"ce4bhr12rcd13ifvqhpg","pricing_plan_id":"cebpf4jnsgd1na2vs0mg"},{"bike_id":"03063610-0b5b-4927-9694-1b13b4db3239","system_id":"levelo_inurba_marseille","lat":43.26194,"lon":5.3745,"is_reserved":false,"is_disabled":false,"rental_uris":{"android":"levelo://app?vid=03063610-0b5b-4927-9694-1b13b4db3239","ios":"levelo://app?vid=03063610-0b5b-4927-9694-1b13b4db3239"},"vehicle_type_id":"4","last_reported":1729026500,"current_range_meters":36800,"station_id":"ce4bhgp2rcd13ifvqfc0","pricing_plan_id":"cebpf4jnsgd1na2vs0mg"},{"bike_id":"37e1f7b9-12a7-444a-9ec8-690164efbd86","system_id":"levelo_inurba_marseille","lat":43.26556,"lon":5.37294,"is_reserved":false,"is_disabled":false,"rental_uris":{"android":"levelo://app?vid=37e1f7b9-12a7-444a-9ec8-690164efbd86","ios":"levelo://app?vid=37e1f7b9-12a7-444a-9ec8-690164efbd86"},"vehicle_type_id":"4","last_reported":1729026500,"current_range_meters":38800,"station_id":"ce4bhg12rcd13ifvqf70","pricing_plan_id":"cebpf4jnsgd1na2vs0mg"},{"bike_id":"1641b826-604a-4181-8231-dca386f637a6","system_id":"levelo_inurba_marseille","lat":43.23195,"lon":5.35544,"is_reserved":false,"is_disabled":false,"rental_uris":{"android":"levelo://app?vid=1641b826-604a-4181-8231-dca386f637a6","ios":"levelo://app?vid=1641b826-604a-4181-8231-dca386f637a6"},"vehicle_type_id":"4","last_reported":1729026500,"current_range_meters":38800,"station_id":"ce4bhu92rcd13ifvqi70","pricing_plan_id":"cebpf4jnsgd1na2vs0mg"},{"bike_id":"89211ee2-076f-4df3-92bd-cd8885f2e76d","system_id":"levelo_inurba_marseille","lat":43.23194,"lon":5.35557,"is_reserved":false,"is_disabled":false,"rental_uris":{"android":"levelo://app?vid=89211ee2-076f-4df3-92bd-cd8885f2e76d","ios":"levelo://app?vid=89211ee2-076f-4df3-92bd-cd8885f2e76d"},"vehicle_type_id":"4","last_reported":1729026500,"current_range_meters":38800,"station_id":"ce4bhu92rcd13ifvqi70","pricing_plan_id":"cebpf4jnsgd1na2vs0mg"},{"bike_id":"9dabbb9f-2820-49db-acc7-73662a324005","system_id":"levelo_inurba_marseille","lat":43.337289,"lon":5.391946,"is_reserved":false,"is_disabled":false,"rental_uris":{"android":"levelo://app?vid=9dabbb9f-2820-49db-acc7-73662a324005","ios":"levelo://app?vid=9dabbb9f-2820-49db-acc7-73662a324005"},"vehicle_type_id":"4","last_reported":1729026500,"current_range_meters":36000,"station_id":"ce4bhr92rcd13ifvqhsg","pricing_plan_id":"cebpf4jnsgd1na2vs0mg"},{"bike_id":"19fbb809-a845-42e8-b4aa-3d7321cda6a7","system_id":"levelo_inurba_marseille","lat":43.315245,"lon":5.380188,"is_reserved":false,"is_disabled":false,"rental_uris":{"android":"levelo://app?vid=19fbb809-a845-42e8-b4aa-3d7321cda6a7","ios":"levelo://app?vid=19fbb809-a845-42e8-b4aa-3d7321cda6a7"},"vehicle_type_id":"4","last_reported":1729026500,"current_range_meters":38800,"station_id":"ce4bhsp2rcd13ifvqi50","pricing_plan_id":"cebpf4jnsgd1na2vs0mg"},{"bike_id":"55a3337e-c45f-4bce-93ec-a4b648c24a42","system_id":"levelo_inurba_marseille","lat":43.22934,"lon":5.3538,"is_reserved":false,"is_disabled":false,"rental_uris":{"android":"levelo://app?vid=55a3337e-c45f-4bce-93ec-a4b648c24a42","ios":"levelo://app?vid=55a3337e-c45f-4bce-93ec-a4b648c24a42"},"vehicle_type_id":"4","last_reported":1729026500,"current_range_meters":38800,"station_id":"cpo3532slgdg3j2ikp40","pricing_plan_id":"cebpf4jnsgd1na2vs0mg"},{"bike_id":"f8278ac5-d1d7-48a6-8828-cd0ddbd5e94e","system_id":"levelo_inurba_marseille","lat":43.30795,"lon":5.43521,"is_reserved":false,"is_disabled":false,"rental_uris":{"android":"levelo://app?vid=f8278ac5-d1d7-48a6-8828-cd0ddbd5e94e","ios":"levelo://app?vid=f8278ac5-d1d7-48a6-8828-cd0ddbd5e94e"},"vehicle_type_id":"4","last_reported":1729026500,"current_range_meters":11600,"station_id":"ce4bhph2rcd13ifvqheg","pricing_plan_id":"cebpf4jnsgd1na2vs0mg"},{"bike_id":"9e87f044-cbb8-4dbe-8692-251e89548eda","system_id":"levelo_inurba_marseille","lat":43.30302,"lon":5.36884,"is_reserved":false,"is_disabled":false,"rental_uris":{"android":"levelo://app?vid=9e87f044-cbb8-4dbe-8692-251e89548eda","ios":"levelo://app?vid=9e87f044-cbb8-4dbe-8692-251e89548eda"},"vehicle_type_id":"4","last_reported":1729026500,"current_range_meters":12800,"station_id":"ce4bgqh2rcd13ifvqc5g","pricing_plan_id":"cebpf4jnsgd1na2vs0mg"},{"bike_id":"06f71269-9c49-4472-92fb-d61916fc972b","system_id":"levelo_inurba_marseille","lat":43.2988,"lon":5.39732,"is_reserved":false,"is_disabled":false,"rental_uris":{"android":"levelo://app?vid=06f71269-9c49-4472-92fb-d61916fc972b","ios":"levelo://app?vid=06f71269-9c49-4472-92fb-d61916fc972b"},"vehicle_type_id":"4","last_reported":1729026500,"current_range_meters":30000,"station_id":"ce4bh0h2rcd13ifvqd50","pricing_plan_id":"cebpf4jnsgd1na2vs0mg"},{"bike_id":"f4adcdf4-727e-400b-9e51-3aed7cda5f51","system_id":"levelo_inurba_marseille","lat":43.29803,"lon":5.40399,"is_reserved":false,"is_disabled":false,"rental_uris":{"android":"levelo://app?vid=f4adcdf4-727e-400b-9e51-3aed7cda5f51","ios":"levelo://app?vid=f4adcdf4-727e-400b-9e51-3aed7cda5f51"},"vehicle_type_id":"4","last_reported":1729026500,"current_range_meters":24000,"station_id":"ce4bh112rcd13ifvqd90","pricing_plan_id":"cebpf4jnsgd1na2vs0mg"},{"bike_id":"6c053c3a-15fd-469a-8bf8-69729be611a5","system_id":"levelo_inurba_marseille","lat":43.30933,"lon":5.40149,"is_reserved":false,"is_disabled":false,"rental_uris":{"android":"levelo://app?vid=6c053c3a-15fd-469a-8bf8-69729be611a5","ios":"levelo://app?vid=6c053c3a-15fd-469a-8bf8-69729be611a5"},"vehicle_type_id":"4","last_reported":1729026500,"current_range_meters":38800,"station_id":"ce4bgvp2rcd13ifvqct0","pricing_plan_id":"cebpf4jnsgd1na2vs0mg"},{"bike_id":"2ea65bb2-7323-4b3a-b7ca-83d904989c73","system_id":"levelo_inurba_marseille","lat":43.28846,"lon":5.35862,"is_reserved":false,"is_disabled":false,"rental_uris":{"android":"levelo://app?vid=2ea65bb2-7323-4b3a-b7ca-83d904989c73","ios":"levelo://app?vid=2ea65bb2-7323-4b3a-b7ca-83d904989c73"},"vehicle_type_id":"4","last_reported":1729026500,"current_range_meters":8000,"station_id":"ce4bhb12rcd13ifvqem0","pricing_plan_id":"cebpf4jnsgd1na2vs0mg"},{"bike_id":"07f8d537-5d15-489f-9ffa-ef81f00b79c2","system_id":"levelo_inurba_marseille","lat":43.3019,"lon":5.36622,"is_reserved":false,"is_disabled":false,"rental_uris":{"android":"levelo://app?vid=07f8d537-5d15-489f-9ffa-ef81f00b79c2","ios":"levelo://app?vid=07f8d537-5d15-489f-9ffa-ef81f00b79c2"},"vehicle_type_id":"4","last_reported":1729026500,"current_range_meters":36800,"station_id":"ce4bgrh2rcd13ifvqc8g","pricing_plan_id":"cebpf4jnsgd1na2vs0mg"},{"bike_id":"b6d06cff-ac1e-4ccb-bb13-38d6bd7afddf","system_id":"levelo_inurba_marseille","lat":43.2811,"lon":5.37832,"is_reserved":false,"is_disabled":false,"rental_uris":{"android":"levelo://app?vid=b6d06cff-ac1e-4ccb-bb13-38d6bd7afddf","ios":"levelo://app?vid=b6d06cff-ac1e-4ccb-bb13-38d6bd7afddf"},"vehicle_type_id":"4","last_reported":1729026500,"current_range_meters":37600,"station_id":"ce4bha12rcd13ifvqee0","pricing_plan_id":"cebpf4jnsgd1na2vs0mg"},{"bike_id":"bfe6236b-33bf-4eaa-8a74-a6587f86e48e","system_id":"levelo_inurba_marseille","lat":43.25827,"lon":5.39427,"is_reserved":false,"is_disabled":false,"rental_uris":{"android":"levelo://app?vid=bfe6236b-33bf-4eaa-8a74-a6587f86e48e","ios":"levelo://app?vid=bfe6236b-33bf-4eaa-8a74-a6587f86e48e"},"vehicle_type_id":"4","last_reported":1729026500,"current_range_meters":28000,"station_id":"ce4bhip2rcd13ifvqft0","pricing_plan_id":"cebpf4jnsgd1na2vs0mg"},{"bike_id":"1643d94e-1263-4403-ae53-d258057220f2","system_id":"levelo_inurba_marseille","lat":43.3133,"lon":5.39695,"is_reserved":false,"is_disabled":false,"rental_uris":{"android":"levelo://app?vid=1643d94e-1263-4403-ae53-d258057220f2","ios":"levelo://app?vid=1643d94e-1263-4403-ae53-d258057220f2"},"vehicle_type_id":"4","last_reported":1729026500,"current_range_meters":38800,"station_id":"ce4bgvp2rcd13ifvqcu0","pricing_plan_id":"cebpf4jnsgd1na2vs0mg"},{"bike_id":"e9fdee70-c8ef-471f-85f5-f71e67bceb17","system_id":"levelo_inurba_marseille","lat":43.29613,"lon":5.37721,"is_reserved":false,"is_disabled":false,"rental_uris":{"android":"levelo://app?vid=e9fdee70-c8ef-471f-85f5-f71e67bceb17","ios":"levelo://app?vid=e9fdee70-c8ef-471f-85f5-f71e67bceb17"},"vehicle_type_id":"4","last_reported":1729026500,"current_range_meters":38800,"station_id":"ce4bgi92rcd13ifvqb90","pricing_plan_id":"cebpf4jnsgd1na2vs0mg"},{"bike_id":"3d49bce1-7478-457b-952d-44b004cbb006","system_id":"levelo_inurba_marseille","lat":43.31073,"lon":5.38351,"is_reserved":false,"is_disabled":false,"rental_uris":{"android":"levelo://app?vid=3d49bce1-7478-457b-952d-44b004cbb006","ios":"levelo://app?vid=3d49bce1-7478-457b-952d-44b004cbb006"},"vehicle_type_id":"4","last_reported":1729026500,"current_range_meters":36400,"station_id":"ce4bgv92rcd13ifvqcr0","pricing_plan_id":"cebpf4jnsgd1na2vs0mg"},{"bike_id":"faa18d53-4135-4ac2-bc40-06c958fe3cb1","system_id":"levelo_inurba_marseille","lat":43.30249,"lon":5.40041,"is_reserved":false,"is_disabled":false,"rental_uris":{"android":"levelo://app?vid=faa18d53-4135-4ac2-bc40-06c958fe3cb1","ios":"levelo://app?vid=faa18d53-4135-4ac2-bc40-06c958fe3cb1"},"vehicle_type_id":"4","last_reported":1729026500,"current_range_meters":38800,"station_id":"ce4bgvh2rcd13ifvqcs0","pricing_plan_id":"cebpf4jnsgd1na2vs0mg"},{"bike_id":"ff96eee3-1ac8-4888-9ae7-e4b6cc8154af","system_id":"levelo_inurba_marseille","lat":43.33739,"lon":5.3746,"is_reserved":false,"is_disabled":false,"rental_uris":{"android":"levelo://app?vid=ff96eee3-1ac8-4888-9ae7-e4b6cc8154af","ios":"levelo://app?vid=ff96eee3-1ac8-4888-9ae7-e4b6cc8154af"},"vehicle_type_id":"4","last_reported":1729026500,"current_range_meters":32400,"station_id":"","pricing_plan_id":"cebpf4jnsgd1na2vs0mg"},{"bike_id":"95073d4b-9f20-4e79-b8a6-bff95d6698ab","system_id":"levelo_inurba_marseille","lat":43.27808,"lon":5.40718,"is_reserved":false,"is_disabled":false,"rental_uris":{"android":"levelo://app?vid=95073d4b-9f20-4e79-b8a6-bff95d6698ab","ios":"levelo://app?vid=95073d4b-9f20-4e79-b8a6-bff95d6698ab"},"vehicle_type_id":"4","last_reported":1729026500,"current_range_meters":9600,"station_id":"ce4bhnh2rcd13ifvqgtg","pricing_plan_id":"cebpf4jnsgd1na2vs0mg"},{"bike_id":"5d098c1b-4f61-4fa0-b5bf-29729894a9a0","system_id":"levelo_inurba_marseille","lat":43.31124,"lon":5.37758,"is_reserved":false,"is_disabled":false,"rental_uris":{"android":"levelo://app?vid=5d098c1b-4f61-4fa0-b5bf-29729894a9a0","ios":"levelo://app?vid=5d098c1b-4f61-4fa0-b5bf-29729894a9a0"},"vehicle_type_id":"4","last_reported":1729026500,"current_range_meters":38800,"station_id":"ce4bgt92rcd13ifvqcg0","pricing_plan_id":"cebpf4jnsgd1na2vs0mg"},{"bike_id":"2850f2f0-982c-4108-9513-cd0600f09bae","system_id":"levelo_inurba_marseille","lat":43.31121,"lon":5.37761,"is_reserved":false,"is_disabled":false,"rental_uris":{"android":"levelo://app?vid=2850f2f0-982c-4108-9513-cd0600f09bae","ios":"levelo://app?vid=2850f2f0-982c-4108-9513-cd0600f09bae"},"vehicle_type_id":"4","last_reported":1729026500,"current_range_meters":38800,"station_id":"ce4bgt92rcd13ifvqcg0","pricing_plan_id":"cebpf4jnsgd1na2vs0mg"},{"bike_id":"0bbee4f3-101d-402d-9e58-10a4dd0447e6","system_id":"levelo_inurba_marseille","lat":43.27931,"lon":5.41043,"is_reserved":false,"is_disabled":false,"rental_uris":{"android":"levelo://app?vid=0bbee4f3-101d-402d-9e58-10a4dd0447e6","ios":"levelo://app?vid=0bbee4f3-101d-402d-9e58-10a4dd0447e6"},"vehicle_type_id":"4","last_reported":1729026500,"current_range_meters":28800,"station_id":"ce4bhnp2rcd13ifvqh0g","pricing_plan_id":"cebpf4jnsgd1na2vs0mg"},{"bike_id":"a1d75e12-08a7-4744-b73c-5cbd9ab22e25","system_id":"levelo_inurba_marseille","lat":43.29528,"lon":5.39041,"is_reserved":false,"is_disabled":false,"rental_uris":{"android":"levelo://app?vid=a1d75e12-08a7-4744-b73c-5cbd9ab22e25","ios":"levelo://app?vid=a1d75e12-08a7-4744-b73c-5cbd9ab22e25"},"vehicle_type_id":"4","last_reported":1729026500,"current_range_meters":6000,"station_id":"ce4bh3p2rcd13ifvqdp0","pricing_plan_id":"cebpf4jnsgd1na2vs0mg"},{"bike_id":"0c1c86c5-d5c9-4745-a3d1-52321812ff91","system_id":"levelo_inurba_marseille","lat":43.28703,"lon":5.3738,"is_reserved":false,"is_disabled":false,"rental_uris":{"android":"levelo://app?vid=0c1c86c5-d5c9-4745-a3d1-52321812ff91","ios":"levelo://app?vid=0c1c86c5-d5c9-4745-a3d1-52321812ff91"},"vehicle_type_id":"4","last_reported":1729026500,"current_range_meters":36400,"station_id":"ce4bh3p2rcd13ifvqdq0","pricing_plan_id":"cebpf4jnsgd1na2vs0mg"},{"bike_id":"518eae26-0512-481d-a6d0-d16cfd19fb16","system_id":"levelo_inurba_marseille","lat":43.27807,"lon":5.40715,"is_reserved":false,"is_disabled":false,"rental_uris":{"android":"levelo://app?vid=518eae26-0512-481d-a6d0-d16cfd19fb16","ios":"levelo://app?vid=518eae26-0512-481d-a6d0-d16cfd19fb16"},"vehicle_type_id":"4","last_reported":1729026500,"current_range_meters":11200,"station_id":"ce4bhnh2rcd13ifvqgtg","pricing_plan_id":"cebpf4jnsgd1na2vs0mg"},{"bike_id":"79991d3d-436d-404c-880e-51d74dc7bda4","system_id":"levelo_inurba_marseille","lat":43.255796,"lon":5.382365,"is_reserved":false,"is_disabled":false,"rental_uris":{"android":"levelo://app?vid=79991d3d-436d-404c-880e-51d74dc7bda4","ios":"levelo://app?vid=79991d3d-436d-404c-880e-51d74dc7bda4"},"vehicle_type_id":"4","last_reported":1729026500,"current_range_meters":38000,"station_id":"ce4bhih2rcd13ifvqfs0","pricing_plan_id":"cebpf4jnsgd1na2vs0mg"},{"bike_id":"3d2a3428-1782-4835-ae61-b4cc1330d3aa","system_id":"levelo_inurba_marseille","lat":43.31724,"lon":5.42398,"is_reserved":false,"is_disabled":false,"rental_uris":{"android":"levelo://app?vid=3d2a3428-1782-4835-ae61-b4cc1330d3aa","ios":"levelo://app?vid=3d2a3428-1782-4835-ae61-b4cc1330d3aa"},"vehicle_type_id":"4","last_reported":1729026500,"current_range_meters":24000,"station_id":"ce4bhp92rcd13ifvqhbg","pricing_plan_id":"cebpf4jnsgd1na2vs0mg"},{"bike_id":"923909c1-d0bc-48ba-b167-16ee903340bd","system_id":"levelo_inurba_marseille","lat":43.23964,"lon":5.36621,"is_reserved":false,"is_disabled":false,"rental_uris":{"android":"levelo://app?vid=923909c1-d0bc-48ba-b167-16ee903340bd","ios":"levelo://app?vid=923909c1-d0bc-48ba-b167-16ee903340bd"},"vehicle_type_id":"4","last_reported":1729026500,"current_range_meters":38800,"station_id":"ce4bhi12rcd13ifvqfp0","pricing_plan_id":"cebpf4jnsgd1na2vs0mg"},{"bike_id":"8d844f0c-00a3-46b5-91b0-59e2d2331c71","system_id":"levelo_inurba_marseille","lat":43.28704,"lon":5.39984,"is_reserved":false,"is_disabled":false,"rental_uris":{"android":"levelo://app?vid=8d844f0c-00a3-46b5-91b0-59e2d2331c71","ios":"levelo://app?vid=8d844f0c-00a3-46b5-91b0-59e2d2331c71"},"vehicle_type_id":"4","last_reported":1729026500,"current_range_meters":33600,"station_id":"ce4bho92rcd13ifvqh3g","pricing_plan_id":"cebpf4jnsgd1na2vs0mg"},{"bike_id":"292b9425-1372-40d4-bf0a-fe57aa779a41","system_id":"levelo_inurba_marseille","lat":43.23063,"lon":5.35495,"is_reserved":false,"is_disabled":false,"rental_uris":{"android":"levelo://app?vid=292b9425-1372-40d4-bf0a-fe57aa779a41","ios":"levelo://app?vid=292b9425-1372-40d4-bf0a-fe57aa779a41"},"vehicle_type_id":"4","last_reported":1729026500,"current_range_meters":31200,"station_id":"cpo3342slgdg3j2ifvpg","pricing_plan_id":"cebpf4jnsgd1na2vs0mg"},{"bike_id":"62dcd66c-ac21-40ac-8398-53abfe185a2c","system_id":"levelo_inurba_marseille","lat":43.28713,"lon":5.37931,"is_reserved":false,"is_disabled":false,"rental_uris":{"android":"levelo://app?vid=62dcd66c-ac21-40ac-8398-53abfe185a2c","ios":"levelo://app?vid=62dcd66c-ac21-40ac-8398-53abfe185a2c"},"vehicle_type_id":"4","last_reported":1729026500,"current_range_meters":37600,"station_id":"ce4bh9p2rcd13ifvqec0","pricing_plan_id":"cebpf4jnsgd1na2vs0mg"},{"bike_id":"60c7ceff-fef3-4380-98cf-0ac594b84256","system_id":"levelo_inurba_marseille","lat":43.28717,"lon":5.37923,"is_reserved":false,"is_disabled":false,"rental_uris":{"android":"levelo://app?vid=60c7ceff-fef3-4380-98cf-0ac594b84256","ios":"levelo://app?vid=60c7ceff-fef3-4380-98cf-0ac594b84256"},"vehicle_type_id":"4","last_reported":1729026500,"current_range_meters":38800,"station_id":"ce4bh9p2rcd13ifvqec0","pricing_plan_id":"cebpf4jnsgd1na2vs0mg"},{"bike_id":"25a3c4c1-f143-41de-9b0d-14beb8eab31c","system_id":"levelo_inurba_marseille","lat":43.30894,"lon":5.37179,"is_reserved":false,"is_disabled":false,"rental_uris":{"android":"levelo://app?vid=25a3c4c1-f143-41de-9b0d-14beb8eab31c","ios":"levelo://app?vid=25a3c4c1-f143-41de-9b0d-14beb8eab31c"},"vehicle_type_id":"4","last_reported":1729026500,"current_range_meters":7200,"station_id":"ce4bguh2rcd13ifvqckg","pricing_plan_id":"cebpf4jnsgd1na2vs0mg"},{"bike_id":"a1636881-5425-4211-a193-ac69af1c8de1","system_id":"levelo_inurba_marseille","lat":43.28076,"lon":5.39645,"is_reserved":false,"is_disabled":false,"rental_uris":{"android":"levelo://app?vid=a1636881-5425-4211-a193-ac69af1c8de1","ios":"levelo://app?vid=a1636881-5425-4211-a193-ac69af1c8de1"},"vehicle_type_id":"4","last_reported":1729026500,"current_range_meters":24000,"station_id":"ce4bho12rcd13ifvqh2g","pricing_plan_id":"cebpf4jnsgd1na2vs0mg"},{"bike_id":"54497a78-cfce-4493-8951-eac1accb2b9a","system_id":"levelo_inurba_marseille","lat":43.27973,"lon":5.38726,"is_reserved":false,"is_disabled":false,"rental_uris":{"android":"levelo://app?vid=54497a78-cfce-4493-8951-eac1accb2b9a","ios":"levelo://app?vid=54497a78-cfce-4493-8951-eac1accb2b9a"},"vehicle_type_id":"4","last_reported":1729026500,"current_range_meters":33600,"station_id":"ce4bhg12rcd13ifvqf80","pricing_plan_id":"cebpf4jnsgd1na2vs0mg"},{"bike_id":"0d667db3-7bae-49b4-90de-10e2b4c495f6","system_id":"levelo_inurba_marseille","lat":43.32367,"lon":5.38888,"is_reserved":false,"is_disabled":false,"rental_uris":{"android":"levelo://app?vid=0d667db3-7bae-49b4-90de-10e2b4c495f6","ios":"levelo://app?vid=0d667db3-7bae-49b4-90de-10e2b4c495f6"},"vehicle_type_id":"4","last_reported":1729026500,"current_range_meters":38800,"station_id":"ce4bhqp2rcd13ifvqhog","pricing_plan_id":"cebpf4jnsgd1na2vs0mg"},{"bike_id":"9e5c6458-de7e-45fb-88e0-38ed61c26e96","system_id":"levelo_inurba_marseille","lat":43.3112,"lon":5.37757,"is_reserved":false,"is_disabled":false,"rental_uris":{"android":"levelo://app?vid=9e5c6458-de7e-45fb-88e0-38ed61c26e96","ios":"levelo://app?vid=9e5c6458-de7e-45fb-88e0-38ed61c26e96"},"vehicle_type_id":"4","last_reported":1729026500,"current_range_meters":38800,"station_id":"ce4bgt92rcd13ifvqcg0","pricing_plan_id":"cebpf4jnsgd1na2vs0mg"},{"bike_id":"8e1d4e0d-5507-46d6-90b0-3fb646d87956","system_id":"levelo_inurba_marseille","lat":43.33606,"lon":5.41025,"is_reserved":false,"is_disabled":false,"rental_uris":{"android":"levelo://app?vid=8e1d4e0d-5507-46d6-90b0-3fb646d87956","ios":"levelo://app?vid=8e1d4e0d-5507-46d6-90b0-3fb646d87956"},"vehicle_type_id":"4","last_reported":1729026500,"current_range_meters":26800,"station_id":"ce4bhqh2rcd13ifvqhmg","pricing_plan_id":"cebpf4jnsgd1na2vs0mg"},{"bike_id":"b68c1f89-0804-4d6b-8148-c58b099db8c8","system_id":"levelo_inurba_marseille","lat":43.314939,"lon":5.373374,"is_reserved":false,"is_disabled":false,"rental_uris":{"android":"levelo://app?vid=b68c1f89-0804-4d6b-8148-c58b099db8c8","ios":"levelo://app?vid=b68c1f89-0804-4d6b-8148-c58b099db8c8"},"vehicle_type_id":"4","last_reported":1729026500,"current_range_meters":38800,"station_id":"ce4bgt12rcd13ifvqcd0","pricing_plan_id":"cebpf4jnsgd1na2vs0mg"},{"bike_id":"5b5c09b5-9f99-4809-9154-7593a013dcb6","system_id":"levelo_inurba_marseille","lat":43.29297,"lon":5.36847,"is_reserved":false,"is_disabled":false,"rental_uris":{"android":"levelo://app?vid=5b5c09b5-9f99-4809-9154-7593a013dcb6","ios":"levelo://app?vid=5b5c09b5-9f99-4809-9154-7593a013dcb6"},"vehicle_type_id":"4","last_reported":1729026500,"current_range_meters":38800,"station_id":"ce4bhbp2rcd13ifvqesg","pricing_plan_id":"cebpf4jnsgd1na2vs0mg"},{"bike_id":"c16b2465-23b0-4e05-a23b-1a81c701df3b","system_id":"levelo_inurba_marseille","lat":43.2955,"lon":5.42274,"is_reserved":false,"is_disabled":false,"rental_uris":{"android":"levelo://app?vid=c16b2465-23b0-4e05-a23b-1a81c701df3b","ios":"levelo://app?vid=c16b2465-23b0-4e05-a23b-1a81c701df3b"},"vehicle_type_id":"4","last_reported":1729026500,"current_range_meters":14400,"station_id":"ce4bhph2rcd13ifvqhdg","pricing_plan_id":"cebpf4jnsgd1na2vs0mg"},{"bike_id":"a5fb3947-14ea-4df3-b0e5-7147047e5a59","system_id":"levelo_inurba_marseille","lat":43.28705,"lon":5.37372,"is_reserved":false,"is_disabled":false,"rental_uris":{"android":"levelo://app?vid=a5fb3947-14ea-4df3-b0e5-7147047e5a59","ios":"levelo://app?vid=a5fb3947-14ea-4df3-b0e5-7147047e5a59"},"vehicle_type_id":"4","last_reported":1729026500,"current_range_meters":38800,"station_id":"ce4bh3p2rcd13ifvqdq0","pricing_plan_id":"cebpf4jnsgd1na2vs0mg"},{"bike_id":"df7acb4d-6a30-48e5-9f4c-47c90a3a855e","system_id":"levelo_inurba_marseille","lat":43.28446,"lon":5.39181,"is_reserved":false,"is_disabled":false,"rental_uris":{"android":"levelo://app?vid=df7acb4d-6a30-48e5-9f4c-47c90a3a855e","ios":"levelo://app?vid=df7acb4d-6a30-48e5-9f4c-47c90a3a855e"},"vehicle_type_id":"4","last_reported":1729026500,"current_range_meters":35200,"station_id":"ce4bhoh2rcd13ifvqh5g","pricing_plan_id":"cebpf4jnsgd1na2vs0mg"},{"bike_id":"2b7b028e-3952-4f1b-8b2d-405f8f1a483c","system_id":"levelo_inurba_marseille","lat":43.308258,"lon":5.376899,"is_reserved":false,"is_disabled":false,"rental_uris":{"android":"levelo://app?vid=2b7b028e-3952-4f1b-8b2d-405f8f1a483c","ios":"levelo://app?vid=2b7b028e-3952-4f1b-8b2d-405f8f1a483c"},"vehicle_type_id":"4","last_reported":1729026500,"current_range_meters":37600,"station_id":"ce4bgv92rcd13ifvqcq0","pricing_plan_id":"cebpf4jnsgd1na2vs0mg"},{"bike_id":"a9d80141-cb04-4f88-bcc5-9763572e3517","system_id":"levelo_inurba_marseille","lat":43.23194,"lon":5.35549,"is_reserved":false,"is_disabled":false,"rental_uris":{"android":"levelo://app?vid=a9d80141-cb04-4f88-bcc5-9763572e3517","ios":"levelo://app?vid=a9d80141-cb04-4f88-bcc5-9763572e3517"},"vehicle_type_id":"4","last_reported":1729026500,"current_range_meters":38800,"station_id":"ce4bhu92rcd13ifvqi70","pricing_plan_id":"cebpf4jnsgd1na2vs0mg"},{"bike_id":"d06f24f3-1961-4c39-8b26-c72733863fe9","system_id":"levelo_inurba_marseille","lat":43.33781,"lon":5.37443,"is_reserved":false,"is_disabled":false,"rental_uris":{"android":"levelo://app?vid=d06f24f3-1961-4c39-8b26-c72733863fe9","ios":"levelo://app?vid=d06f24f3-1961-4c39-8b26-c72733863fe9"},"vehicle_type_id":"4","last_reported":1729026500,"current_range_meters":22800,"station_id":"","pricing_plan_id":"cebpf4jnsgd1na2vs0mg"},{"bike_id":"c6fdf331-9c74-4a97-8d72-f054a727b453","system_id":"levelo_inurba_marseille","lat":43.29794,"lon":5.39352,"is_reserved":false,"is_disabled":false,"rental_uris":{"android":"levelo://app?vid=c6fdf331-9c74-4a97-8d72-f054a727b453","ios":"levelo://app?vid=c6fdf331-9c74-4a97-8d72-f054a727b453"},"vehicle_type_id":"4","last_reported":1729026500,"current_range_meters":37600,"station_id":"chh1huq6cuj3fo74tm60","pricing_plan_id":"cebpf4jnsgd1na2vs0mg"},{"bike_id":"4f1712a5-53a6-4922-be42-d162dd37a0f1","system_id":"levelo_inurba_marseille","lat":43.29441,"lon":5.39761,"is_reserved":false,"is_disabled":false,"rental_uris":{"android":"levelo://app?vid=4f1712a5-53a6-4922-be42-d162dd37a0f1","ios":"levelo://app?vid=4f1712a5-53a6-4922-be42-d162dd37a0f1"},"vehicle_type_id":"4","last_reported":1729026500,"current_range_meters":20400,"station_id":"ce4bh3h2rcd13ifvqdo0","pricing_plan_id":"cebpf4jnsgd1na2vs0mg"},{"bike_id":"558f1d74-f6f0-4bd4-8403-458ac786e2ee","system_id":"levelo_inurba_marseille","lat":43.3127,"lon":5.40171,"is_reserved":false,"is_disabled":false,"rental_uris":{"android":"levelo://app?vid=558f1d74-f6f0-4bd4-8403-458ac786e2ee","ios":"levelo://app?vid=558f1d74-f6f0-4bd4-8403-458ac786e2ee"},"vehicle_type_id":"4","last_reported":1729026500,"current_range_meters":38800,"station_id":"ce4bh092rcd13ifvqd30","pricing_plan_id":"cebpf4jnsgd1na2vs0mg"},{"bike_id":"394bab6e-d959-4f5a-8615-195162fec763","system_id":"levelo_inurba_marseille","lat":43.29992,"lon":5.37181,"is_reserved":false,"is_disabled":false,"rental_uris":{"android":"levelo://app?vid=394bab6e-d959-4f5a-8615-195162fec763","ios":"levelo://app?vid=394bab6e-d959-4f5a-8615-195162fec763"},"vehicle_type_id":"4","last_reported":1729026500,"current_range_meters":17200,"station_id":"ce4bgr92rcd13ifvqc7g","pricing_plan_id":"cebpf4jnsgd1na2vs0mg"},{"bike_id":"d41309ab-1a1f-4395-acaa-455483c3f8e1","system_id":"levelo_inurba_marseille","lat":43.23203,"lon":5.35557,"is_reserved":false,"is_disabled":false,"rental_uris":{"android":"levelo://app?vid=d41309ab-1a1f-4395-acaa-455483c3f8e1","ios":"levelo://app?vid=d41309ab-1a1f-4395-acaa-455483c3f8e1"},"vehicle_type_id":"4","last_reported":1729026500,"current_range_meters":30400,"station_id":"ce4bhu92rcd13ifvqi70","pricing_plan_id":"cebpf4jnsgd1na2vs0mg"},{"bike_id":"f66bb608-2fde-4de2-9b8e-1584fe83bcf3","system_id":"levelo_inurba_marseille","lat":43.31494,"lon":5.3729,"is_reserved":false,"is_disabled":false,"rental_uris":{"android":"levelo://app?vid=f66bb608-2fde-4de2-9b8e-1584fe83bcf3","ios":"levelo://app?vid=f66bb608-2fde-4de2-9b8e-1584fe83bcf3"},"vehicle_type_id":"4","last_reported":1729026500,"current_range_meters":38800,"station_id":"ce4bgt12rcd13ifvqcd0","pricing_plan_id":"cebpf4jnsgd1na2vs0mg"},{"bike_id":"673ff98e-6942-4fb3-9c64-45b8227ccd89","system_id":"levelo_inurba_marseille","lat":43.30793,"lon":5.38141,"is_reserved":false,"is_disabled":false,"rental_uris":{"android":"levelo://app?vid=673ff98e-6942-4fb3-9c64-45b8227ccd89","ios":"levelo://app?vid=673ff98e-6942-4fb3-9c64-45b8227ccd89"},"vehicle_type_id":"4","last_reported":1729026500,"current_range_meters":10800,"station_id":"ce4bgt12rcd13ifvqce0","pricing_plan_id":"cebpf4jnsgd1na2vs0mg"},{"bike_id":"bf5516cd-fa21-4eb4-8e8c-cee2db3420f9","system_id":"levelo_inurba_marseille","lat":43.29054,"lon":5.39968,"is_reserved":false,"is_disabled":false,"rental_uris":{"android":"levelo://app?vid=bf5516cd-fa21-4eb4-8e8c-cee2db3420f9","ios":"levelo://app?vid=bf5516cd-fa21-4eb4-8e8c-cee2db3420f9"},"vehicle_type_id":"4","last_reported":1729026500,"current_range_meters":36000,"station_id":"ce4bh392rcd13ifvqdm0","pricing_plan_id":"cebpf4jnsgd1na2vs0mg"},{"bike_id":"0a6fb157-6519-4783-9d58-5fbe95a55ea9","system_id":"levelo_inurba_marseille","lat":43.30133,"lon":5.38769,"is_reserved":false,"is_disabled":false,"rental_uris":{"android":"levelo://app?vid=0a6fb157-6519-4783-9d58-5fbe95a55ea9","ios":"levelo://app?vid=0a6fb157-6519-4783-9d58-5fbe95a55ea9"},"vehicle_type_id":"4","last_reported":1729026500,"current_range_meters":36400,"station_id":"ce4bghh2rcd13ifvqb60","pricing_plan_id":"cebpf4jnsgd1na2vs0mg"},{"bike_id":"8c182c43-6956-456c-9694-843ed28b9d26","system_id":"levelo_inurba_marseille","lat":43.26955,"lon":5.38634,"is_reserved":false,"is_disabled":false,"rental_uris":{"android":"levelo://app?vid=8c182c43-6956-456c-9694-843ed28b9d26","ios":"levelo://app?vid=8c182c43-6956-456c-9694-843ed28b9d26"},"vehicle_type_id":"4","last_reported":1729026500,"current_range_meters":38000,"station_id":"ce4bhh92rcd13ifvqfh0","pricing_plan_id":"cebpf4jnsgd1na2vs0mg"},{"bike_id":"d4f5caad-33d7-43a3-8edd-3145745a627d","system_id":"levelo_inurba_marseille","lat":43.3207,"lon":5.41546,"is_reserved":false,"is_disabled":false,"rental_uris":{"android":"levelo://app?vid=d4f5caad-33d7-43a3-8edd-3145745a627d","ios":"levelo://app?vid=d4f5caad-33d7-43a3-8edd-3145745a627d"},"vehicle_type_id":"4","last_reported":1729026500,"current_range_meters":19600,"station_id":"ce4bhq92rcd13ifvqhkg","pricing_plan_id":"cebpf4jnsgd1na2vs0mg"},{"bike_id":"f9090864-a36b-45b0-829c-85757d1c6432","system_id":"levelo_inurba_marseille","lat":43.24805,"lon":5.37458,"is_reserved":false,"is_disabled":false,"rental_uris":{"android":"levelo://app?vid=f9090864-a36b-45b0-829c-85757d1c6432","ios":"levelo://app?vid=f9090864-a36b-45b0-829c-85757d1c6432"},"vehicle_type_id":"4","last_reported":1729026500,"current_range_meters":16400,"station_id":"ce4bhgh2rcd13ifvqfb0","pricing_plan_id":"cebpf4jnsgd1na2vs0mg"},{"bike_id":"f9e6da2f-6416-4966-97f8-b407d1cfd273","system_id":"levelo_inurba_marseille","lat":43.28701,"lon":5.37379,"is_reserved":false,"is_disabled":false,"rental_uris":{"android":"levelo://app?vid=f9e6da2f-6416-4966-97f8-b407d1cfd273","ios":"levelo://app?vid=f9e6da2f-6416-4966-97f8-b407d1cfd273"},"vehicle_type_id":"4","last_reported":1729026500,"current_range_meters":38800,"station_id":"ce4bh3p2rcd13ifvqdq0","pricing_plan_id":"cebpf4jnsgd1na2vs0mg"},{"bike_id":"c88d0752-f685-4855-a1af-da309cb241f9","system_id":"levelo_inurba_marseille","lat":43.31346,"lon":5.39695,"is_reserved":false,"is_disabled":false,"rental_uris":{"android":"levelo://app?vid=c88d0752-f685-4855-a1af-da309cb241f9","ios":"levelo://app?vid=c88d0752-f685-4855-a1af-da309cb241f9"},"vehicle_type_id":"4","last_reported":1729026500,"current_range_meters":14800,"station_id":"ce4bgvp2rcd13ifvqcu0","pricing_plan_id":"cebpf4jnsgd1na2vs0mg"},{"bike_id":"1dd8350d-21d1-4ed7-b940-1729df17b899","system_id":"levelo_inurba_marseille","lat":43.2737,"lon":5.41011,"is_reserved":false,"is_disabled":false,"rental_uris":{"android":"levelo://app?vid=1dd8350d-21d1-4ed7-b940-1729df17b899","ios":"levelo://app?vid=1dd8350d-21d1-4ed7-b940-1729df17b899"},"vehicle_type_id":"4","last_reported":1729026500,"current_range_meters":32400,"station_id":"","pricing_plan_id":"cebpf4jnsgd1na2vs0mg"},{"bike_id":"52c60f3b-1b78-4298-865b-828be8132eb9","system_id":"levelo_inurba_marseille","lat":43.3088,"lon":5.37171,"is_reserved":false,"is_disabled":false,"rental_uris":{"android":"levelo://app?vid=52c60f3b-1b78-4298-865b-828be8132eb9","ios":"levelo://app?vid=52c60f3b-1b78-4298-865b-828be8132eb9"},"vehicle_type_id":"4","last_reported":1729026500,"current_range_meters":8800,"station_id":"ce4bguh2rcd13ifvqckg","pricing_plan_id":"cebpf4jnsgd1na2vs0mg"},{"bike_id":"229d244f-d28c-44ca-b9de-f0c412c76a2a","system_id":"levelo_inurba_marseille","lat":43.26214,"lon":5.37444,"is_reserved":false,"is_disabled":false,"rental_uris":{"android":"levelo://app?vid=229d244f-d28c-44ca-b9de-f0c412c76a2a","ios":"levelo://app?vid=229d244f-d28c-44ca-b9de-f0c412c76a2a"},"vehicle_type_id":"4","last_reported":1729026500,"current_range_meters":8400,"station_id":"ce4bhgp2rcd13ifvqfc0","pricing_plan_id":"cebpf4jnsgd1na2vs0mg"},{"bike_id":"8eadc391-d5a2-437c-9391-66e326b9669e","system_id":"levelo_inurba_marseille","lat":43.30138,"lon":5.39865,"is_reserved":false,"is_disabled":false,"rental_uris":{"android":"levelo://app?vid=8eadc391-d5a2-437c-9391-66e326b9669e","ios":"levelo://app?vid=8eadc391-d5a2-437c-9391-66e326b9669e"},"vehicle_type_id":"4","last_reported":1729026500,"current_range_meters":20800,"station_id":"ce4bh0h2rcd13ifvqd40","pricing_plan_id":"cebpf4jnsgd1na2vs0mg"},{"bike_id":"3949c3cb-9623-4dbe-9840-29c02318f1bc","system_id":"levelo_inurba_marseille","lat":43.23181,"lon":5.3999,"is_reserved":false,"is_disabled":false,"rental_uris":{"android":"levelo://app?vid=3949c3cb-9623-4dbe-9840-29c02318f1bc","ios":"levelo://app?vid=3949c3cb-9623-4dbe-9840-29c02318f1bc"},"vehicle_type_id":"4","last_reported":1729026500,"current_range_meters":22400,"station_id":"ce4bhn12rcd13ifvqgqg","pricing_plan_id":"cebpf4jnsgd1na2vs0mg"},{"bike_id":"1af2813b-98a0-4b62-aaf8-89652b30f639","system_id":"levelo_inurba_marseille","lat":43.22933,"lon":5.35381,"is_reserved":false,"is_disabled":false,"rental_uris":{"android":"levelo://app?vid=1af2813b-98a0-4b62-aaf8-89652b30f639","ios":"levelo://app?vid=1af2813b-98a0-4b62-aaf8-89652b30f639"},"vehicle_type_id":"4","last_reported":1729026500,"current_range_meters":28000,"station_id":"cpo3532slgdg3j2ikp40","pricing_plan_id":"cebpf4jnsgd1na2vs0mg"},{"bike_id":"8fd90c87-8e87-4af8-975f-33520dce9b3e","system_id":"levelo_inurba_marseille","lat":43.27905,"lon":5.38001,"is_reserved":false,"is_disabled":false,"rental_uris":{"android":"levelo://app?vid=8fd90c87-8e87-4af8-975f-33520dce9b3e","ios":"levelo://app?vid=8fd90c87-8e87-4af8-975f-33520dce9b3e"},"vehicle_type_id":"4","last_reported":1729026500,"current_range_meters":19200,"station_id":"ce4bhf92rcd13ifvqf50","pricing_plan_id":"cebpf4jnsgd1na2vs0mg"},{"bike_id":"c5af4ecd-4e19-4991-8d5d-6c1027d6164f","system_id":"levelo_inurba_marseille","lat":43.30797,"lon":5.43518,"is_reserved":false,"is_disabled":false,"rental_uris":{"android":"levelo://app?vid=c5af4ecd-4e19-4991-8d5d-6c1027d6164f","ios":"levelo://app?vid=c5af4ecd-4e19-4991-8d5d-6c1027d6164f"},"vehicle_type_id":"4","last_reported":1729026500,"current_range_meters":14400,"station_id":"ce4bhph2rcd13ifvqheg","pricing_plan_id":"cebpf4jnsgd1na2vs0mg"},{"bike_id":"f93454e1-a669-4c63-a4ca-b572042c7971","system_id":"levelo_inurba_marseille","lat":43.23192,"lon":5.35558,"is_reserved":false,"is_disabled":false,"rental_uris":{"android":"levelo://app?vid=f93454e1-a669-4c63-a4ca-b572042c7971","ios":"levelo://app?vid=f93454e1-a669-4c63-a4ca-b572042c7971"},"vehicle_type_id":"4","last_reported":1729026500,"current_range_meters":24400,"station_id":"ce4bhu92rcd13ifvqi70","pricing_plan_id":"cebpf4jnsgd1na2vs0mg"},{"bike_id":"33884dc5-0a79-40bd-96e2-5d6c1d19c5ca","system_id":"levelo_inurba_marseille","lat":43.22932,"lon":5.35375,"is_reserved":false,"is_disabled":false,"rental_uris":{"android":"levelo://app?vid=33884dc5-0a79-40bd-96e2-5d6c1d19c5ca","ios":"levelo://app?vid=33884dc5-0a79-40bd-96e2-5d6c1d19c5ca"},"vehicle_type_id":"4","last_reported":1729026500,"current_range_meters":6000,"station_id":"cpo3532slgdg3j2ikp40","pricing_plan_id":"cebpf4jnsgd1na2vs0mg"},{"bike_id":"80732912-37a2-49d4-9217-9fe018e8bd74","system_id":"levelo_inurba_marseille","lat":43.25106,"lon":5.40325,"is_reserved":false,"is_disabled":false,"rental_uris":{"android":"levelo://app?vid=80732912-37a2-49d4-9217-9fe018e8bd74","ios":"levelo://app?vid=80732912-37a2-49d4-9217-9fe018e8bd74"},"vehicle_type_id":"4","last_reported":1729026500,"current_range_meters":2800,"station_id":"ce4bhlh2rcd13ifvqgig","pricing_plan_id":"cebpf4jnsgd1na2vs0mg"},{"bike_id":"c7fe9f72-46fa-4809-82b0-be9205b47911","system_id":"levelo_inurba_marseille","lat":43.28434,"lon":5.39184,"is_reserved":false,"is_disabled":false,"rental_uris":{"android":"levelo://app?vid=c7fe9f72-46fa-4809-82b0-be9205b47911","ios":"levelo://app?vid=c7fe9f72-46fa-4809-82b0-be9205b47911"},"vehicle_type_id":"4","last_reported":1729026500,"current_range_meters":35600,"station_id":"ce4bhoh2rcd13ifvqh5g","pricing_plan_id":"cebpf4jnsgd1na2vs0mg"},{"bike_id":"e4871b44-e714-485e-94a9-9f225940e2dc","system_id":"levelo_inurba_marseille","lat":43.28034,"lon":5.36939,"is_reserved":false,"is_disabled":false,"rental_uris":{"android":"levelo://app?vid=e4871b44-e714-485e-94a9-9f225940e2dc","ios":"levelo://app?vid=e4871b44-e714-485e-94a9-9f225940e2dc"},"vehicle_type_id":"4","last_reported":1729026500,"current_range_meters":38800,"station_id":"ce4bha12rcd13ifvqef0","pricing_plan_id":"cebpf4jnsgd1na2vs0mg"},{"bike_id":"571ea329-32e9-4604-b87c-11d33dee6fac","system_id":"levelo_inurba_marseille","lat":43.31324,"lon":5.39693,"is_reserved":false,"is_disabled":false,"rental_uris":{"android":"levelo://app?vid=571ea329-32e9-4604-b87c-11d33dee6fac","ios":"levelo://app?vid=571ea329-32e9-4604-b87c-11d33dee6fac"},"vehicle_type_id":"4","last_reported":1729026500,"current_range_meters":27600,"station_id":"ce4bgvp2rcd13ifvqcu0","pricing_plan_id":"cebpf4jnsgd1na2vs0mg"},{"bike_id":"167a3dcd-afcd-457e-8998-67360ace43c0","system_id":"levelo_inurba_marseille","lat":43.3375,"lon":5.37436,"is_reserved":false,"is_disabled":false,"rental_uris":{"android":"levelo://app?vid=167a3dcd-afcd-457e-8998-67360ace43c0","ios":"levelo://app?vid=167a3dcd-afcd-457e-8998-67360ace43c0"},"vehicle_type_id":"4","last_reported":1729026500,"current_range_meters":32800,"station_id":"","pricing_plan_id":"cebpf4jnsgd1na2vs0mg"},{"bike_id":"64525a93-3365-4983-934d-4cad1f9c4c87","system_id":"levelo_inurba_marseille","lat":43.29042,"lon":5.35907,"is_reserved":false,"is_disabled":false,"rental_uris":{"android":"levelo://app?vid=64525a93-3365-4983-934d-4cad1f9c4c87","ios":"levelo://app?vid=64525a93-3365-4983-934d-4cad1f9c4c87"},"vehicle_type_id":"4","last_reported":1729026500,"current_range_meters":38000,"station_id":"ce4bha92rcd13ifvqeg0","pricing_plan_id":"cebpf4jnsgd1na2vs0mg"},{"bike_id":"fb4fc0cd-764d-4702-a1ff-b0ea5c4aa94e","system_id":"levelo_inurba_marseille","lat":43.27072,"lon":5.42279,"is_reserved":false,"is_disabled":false,"rental_uris":{"android":"levelo://app?vid=fb4fc0cd-764d-4702-a1ff-b0ea5c4aa94e","ios":"levelo://app?vid=fb4fc0cd-764d-4702-a1ff-b0ea5c4aa94e"},"vehicle_type_id":"4","last_reported":1729026500,"current_range_meters":8400,"station_id":"ce4bhk92rcd13ifvqgb0","pricing_plan_id":"cebpf4jnsgd1na2vs0mg"},{"bike_id":"1b246a74-3904-4e3a-ade3-027e7c44d83f","system_id":"levelo_inurba_marseille","lat":43.2481,"lon":5.37457,"is_reserved":false,"is_disabled":false,"rental_uris":{"android":"levelo://app?vid=1b246a74-3904-4e3a-ade3-027e7c44d83f","ios":"levelo://app?vid=1b246a74-3904-4e3a-ade3-027e7c44d83f"},"vehicle_type_id":"4","last_reported":1729026500,"current_range_meters":38800,"station_id":"ce4bhgh2rcd13ifvqfb0","pricing_plan_id":"cebpf4jnsgd1na2vs0mg"},{"bike_id":"2ae7cb6e-e949-4f32-b410-0e62af4ecc02","system_id":"levelo_inurba_marseille","lat":43.23179,"lon":5.39981,"is_reserved":false,"is_disabled":false,"rental_uris":{"android":"levelo://app?vid=2ae7cb6e-e949-4f32-b410-0e62af4ecc02","ios":"levelo://app?vid=2ae7cb6e-e949-4f32-b410-0e62af4ecc02"},"vehicle_type_id":"4","last_reported":1729026500,"current_range_meters":38800,"station_id":"ce4bhn12rcd13ifvqgqg","pricing_plan_id":"cebpf4jnsgd1na2vs0mg"},{"bike_id":"15e3fb11-c387-465a-b6a8-f691229cdb6f","system_id":"levelo_inurba_marseille","lat":43.25119,"lon":5.40315,"is_reserved":false,"is_disabled":false,"rental_uris":{"android":"levelo://app?vid=15e3fb11-c387-465a-b6a8-f691229cdb6f","ios":"levelo://app?vid=15e3fb11-c387-465a-b6a8-f691229cdb6f"},"vehicle_type_id":"4","last_reported":1729026500,"current_range_meters":34800,"station_id":"ce4bhlh2rcd13ifvqgig","pricing_plan_id":"cebpf4jnsgd1na2vs0mg"},{"bike_id":"d0b06fe2-4e24-454b-8cab-da62e6dcc068","system_id":"levelo_inurba_marseille","lat":43.32292,"lon":5.38261,"is_reserved":false,"is_disabled":false,"rental_uris":{"android":"levelo://app?vid=d0b06fe2-4e24-454b-8cab-da62e6dcc068","ios":"levelo://app?vid=d0b06fe2-4e24-454b-8cab-da62e6dcc068"},"vehicle_type_id":"4","last_reported":1729026500,"current_range_meters":38800,"station_id":"ce4bhr12rcd13ifvqhqg","pricing_plan_id":"cebpf4jnsgd1na2vs0mg"},{"bike_id":"66e49dc0-3a3e-4c0c-bf8b-da161523671b","system_id":"levelo_inurba_marseille","lat":43.28721,"lon":5.36079,"is_reserved":false,"is_disabled":false,"rental_uris":{"android":"levelo://app?vid=66e49dc0-3a3e-4c0c-bf8b-da161523671b","ios":"levelo://app?vid=66e49dc0-3a3e-4c0c-bf8b-da161523671b"},"vehicle_type_id":"4","last_reported":1729026500,"current_range_meters":35600,"station_id":"cki0cbj6b192h4jlfktg","pricing_plan_id":"cebpf4jnsgd1na2vs0mg"},{"bike_id":"1b87c42d-7c50-4b92-8a66-53344aea6fcd","system_id":"levelo_inurba_marseille","lat":43.29896,"lon":5.4367,"is_reserved":false,"is_disabled":false,"rental_uris":{"android":"levelo://app?vid=1b87c42d-7c50-4b92-8a66-53344aea6fcd","ios":"levelo://app?vid=1b87c42d-7c50-4b92-8a66-53344aea6fcd"},"vehicle_type_id":"4","last_reported":1729026500,"current_range_meters":26000,"station_id":"ce4bhpp2rcd13ifvqhfg","pricing_plan_id":"cebpf4jnsgd1na2vs0mg"},{"bike_id":"0e520a80-67e3-443c-b5a8-eb416db0d354","system_id":"levelo_inurba_marseille","lat":43.28715,"lon":5.37939,"is_reserved":false,"is_disabled":false,"rental_uris":{"android":"levelo://app?vid=0e520a80-67e3-443c-b5a8-eb416db0d354","ios":"levelo://app?vid=0e520a80-67e3-443c-b5a8-eb416db0d354"},"vehicle_type_id":"4","last_reported":1729026500,"current_range_meters":38800,"station_id":"ce4bh9p2rcd13ifvqec0","pricing_plan_id":"cebpf4jnsgd1na2vs0mg"},{"bike_id":"176c51f8-dbe6-4a14-9671-48f1da4ce89a","system_id":"levelo_inurba_marseille","lat":43.28039,"lon":5.36945,"is_reserved":false,"is_disabled":false,"rental_uris":{"android":"levelo://app?vid=176c51f8-dbe6-4a14-9671-48f1da4ce89a","ios":"levelo://app?vid=176c51f8-dbe6-4a14-9671-48f1da4ce89a"},"vehicle_type_id":"4","last_reported":1729026500,"current_range_meters":6400,"station_id":"ce4bha12rcd13ifvqef0","pricing_plan_id":"cebpf4jnsgd1na2vs0mg"},{"bike_id":"4451d1e2-5dd3-45d3-ab7e-2e9330f778cc","system_id":"levelo_inurba_marseille","lat":43.29272,"lon":5.40116,"is_reserved":false,"is_disabled":false,"rental_uris":{"android":"levelo://app?vid=4451d1e2-5dd3-45d3-ab7e-2e9330f778cc","ios":"levelo://app?vid=4451d1e2-5dd3-45d3-ab7e-2e9330f778cc"},"vehicle_type_id":"4","last_reported":1729026500,"current_range_meters":10000,"station_id":"ce4bh312rcd13ifvqdk0","pricing_plan_id":"cebpf4jnsgd1na2vs0mg"},{"bike_id":"24d35238-2fa7-4fd0-873f-edfdf1f33d95","system_id":"levelo_inurba_marseille","lat":43.31731,"lon":5.42358,"is_reserved":false,"is_disabled":false,"rental_uris":{"android":"levelo://app?vid=24d35238-2fa7-4fd0-873f-edfdf1f33d95","ios":"levelo://app?vid=24d35238-2fa7-4fd0-873f-edfdf1f33d95"},"vehicle_type_id":"4","last_reported":1729026500,"current_range_meters":38800,"station_id":"ce4bhp92rcd13ifvqhbg","pricing_plan_id":"cebpf4jnsgd1na2vs0mg"},{"bike_id":"018b3299-bac3-4e4f-8787-ed481b860dca","system_id":"levelo_inurba_marseille","lat":43.31181,"lon":5.38713,"is_reserved":false,"is_disabled":false,"rental_uris":{"android":"levelo://app?vid=018b3299-bac3-4e4f-8787-ed481b860dca","ios":"levelo://app?vid=018b3299-bac3-4e4f-8787-ed481b860dca"},"vehicle_type_id":"4","last_reported":1729026500,"current_range_meters":19600,"station_id":"ce4bgv12rcd13ifvqcp0","pricing_plan_id":"cebpf4jnsgd1na2vs0mg"},{"bike_id":"81377dd3-ebb4-48c5-8ba0-e485cc924052","system_id":"levelo_inurba_marseille","lat":43.27065,"lon":5.40259,"is_reserved":false,"is_disabled":false,"rental_uris":{"android":"levelo://app?vid=81377dd3-ebb4-48c5-8ba0-e485cc924052","ios":"levelo://app?vid=81377dd3-ebb4-48c5-8ba0-e485cc924052"},"vehicle_type_id":"4","last_reported":1729026500,"current_range_meters":15200,"station_id":"ce4bhk92rcd13ifvqgc0","pricing_plan_id":"cebpf4jnsgd1na2vs0mg"},{"bike_id":"5a63799a-d9e5-4d78-a2bb-4e19b7b89a7e","system_id":"levelo_inurba_marseille","lat":43.25577,"lon":5.38236,"is_reserved":false,"is_disabled":false,"rental_uris":{"android":"levelo://app?vid=5a63799a-d9e5-4d78-a2bb-4e19b7b89a7e","ios":"levelo://app?vid=5a63799a-d9e5-4d78-a2bb-4e19b7b89a7e"},"vehicle_type_id":"4","last_reported":1729026500,"current_range_meters":38400,"station_id":"ce4bhih2rcd13ifvqfs0","pricing_plan_id":"cebpf4jnsgd1na2vs0mg"},{"bike_id":"ec118f6a-fcc0-41a9-94fc-dd12b675b87d","system_id":"levelo_inurba_marseille","lat":43.31324,"lon":5.39694,"is_reserved":false,"is_disabled":false,"rental_uris":{"android":"levelo://app?vid=ec118f6a-fcc0-41a9-94fc-dd12b675b87d","ios":"levelo://app?vid=ec118f6a-fcc0-41a9-94fc-dd12b675b87d"},"vehicle_type_id":"4","last_reported":1729026500,"current_range_meters":38800,"station_id":"ce4bgvp2rcd13ifvqcu0","pricing_plan_id":"cebpf4jnsgd1na2vs0mg"},{"bike_id":"c94d3112-017a-46fc-86b5-6a58beef3113","system_id":"levelo_inurba_marseille","lat":43.31758,"lon":5.39015,"is_reserved":false,"is_disabled":false,"rental_uris":{"android":"levelo://app?vid=c94d3112-017a-46fc-86b5-6a58beef3113","ios":"levelo://app?vid=c94d3112-017a-46fc-86b5-6a58beef3113"},"vehicle_type_id":"4","last_reported":1729026500,"current_range_meters":38800,"station_id":"ce4bhqp2rcd13ifvqhng","pricing_plan_id":"cebpf4jnsgd1na2vs0mg"},{"bike_id":"c68b9b60-8c39-4199-95d2-b737cadbfa10","system_id":"levelo_inurba_marseille","lat":43.28696,"lon":5.37376,"is_reserved":false,"is_disabled":false,"rental_uris":{"android":"levelo://app?vid=c68b9b60-8c39-4199-95d2-b737cadbfa10","ios":"levelo://app?vid=c68b9b60-8c39-4199-95d2-b737cadbfa10"},"vehicle_type_id":"4","last_reported":1729026500,"current_range_meters":38800,"station_id":"ce4bh3p2rcd13ifvqdq0","pricing_plan_id":"cebpf4jnsgd1na2vs0mg"},{"bike_id":"18505d2b-5bf4-4f62-a943-eab21e206f5e","system_id":"levelo_inurba_marseille","lat":43.29258,"lon":5.40903,"is_reserved":false,"is_disabled":false,"rental_uris":{"android":"levelo://app?vid=18505d2b-5bf4-4f62-a943-eab21e206f5e","ios":"levelo://app?vid=18505d2b-5bf4-4f62-a943-eab21e206f5e"},"vehicle_type_id":"4","last_reported":1729026500,"current_range_meters":38800,"station_id":"ce4bh192rcd13ifvqdc0","pricing_plan_id":"cebpf4jnsgd1na2vs0mg"},{"bike_id":"f269126c-1b0b-4a1a-a1d6-f8c3716f5336","system_id":"levelo_inurba_marseille","lat":43.23185,"lon":5.35541,"is_reserved":false,"is_disabled":false,"rental_uris":{"android":"levelo://app?vid=f269126c-1b0b-4a1a-a1d6-f8c3716f5336","ios":"levelo://app?vid=f269126c-1b0b-4a1a-a1d6-f8c3716f5336"},"vehicle_type_id":"4","last_reported":1729026500,"current_range_meters":30800,"station_id":"ce4bhu92rcd13ifvqi70","pricing_plan_id":"cebpf4jnsgd1na2vs0mg"},{"bike_id":"6b0962fa-163e-473a-ae34-e801b95232e5","system_id":"levelo_inurba_marseille","lat":43.30495,"lon":5.39889,"is_reserved":false,"is_disabled":false,"rental_uris":{"android":"levelo://app?vid=6b0962fa-163e-473a-ae34-e801b95232e5","ios":"levelo://app?vid=6b0962fa-163e-473a-ae34-e801b95232e5"},"vehicle_type_id":"4","last_reported":1729026500,"current_range_meters":8400,"station_id":"ce4bh092rcd13ifvqd30","pricing_plan_id":"cebpf4jnsgd1na2vs0mg"},{"bike_id":"4ed387a6-2946-4554-b54f-6a950aa7c4fe","system_id":"levelo_inurba_marseille","lat":43.3171,"lon":5.43706,"is_reserved":false,"is_disabled":false,"rental_uris":{"android":"levelo://app?vid=4ed387a6-2946-4554-b54f-6a950aa7c4fe","ios":"levelo://app?vid=4ed387a6-2946-4554-b54f-6a950aa7c4fe"},"vehicle_type_id":"4","last_reported":1729026500,"current_range_meters":38400,"station_id":"ce4bhp92rcd13ifvqhcg","pricing_plan_id":"cebpf4jnsgd1na2vs0mg"},{"bike_id":"90db898f-6a3d-4df5-a0e1-99df55b3a6b8","system_id":"levelo_inurba_marseille","lat":43.23962,"lon":5.36623,"is_reserved":false,"is_disabled":false,"rental_uris":{"android":"levelo://app?vid=90db898f-6a3d-4df5-a0e1-99df55b3a6b8","ios":"levelo://app?vid=90db898f-6a3d-4df5-a0e1-99df55b3a6b8"},"vehicle_type_id":"4","last_reported":1729026500,"current_range_meters":38800,"station_id":"ce4bhi12rcd13ifvqfp0","pricing_plan_id":"cebpf4jnsgd1na2vs0mg"},{"bike_id":"3064e5e9-de54-44b9-9eb7-6c03ac9cf33b","system_id":"levelo_inurba_marseille","lat":43.33023,"lon":5.39044,"is_reserved":false,"is_disabled":false,"rental_uris":{"android":"levelo://app?vid=3064e5e9-de54-44b9-9eb7-6c03ac9cf33b","ios":"levelo://app?vid=3064e5e9-de54-44b9-9eb7-6c03ac9cf33b"},"vehicle_type_id":"4","last_reported":1729026500,"current_range_meters":38800,"station_id":"ce4bhr92rcd13ifvqhrg","pricing_plan_id":"cebpf4jnsgd1na2vs0mg"},{"bike_id":"a89891c9-1e04-407e-a5f0-c704cc152039","system_id":"levelo_inurba_marseille","lat":43.2937,"lon":5.37835,"is_reserved":false,"is_disabled":false,"rental_uris":{"android":"levelo://app?vid=a89891c9-1e04-407e-a5f0-c704cc152039","ios":"levelo://app?vid=a89891c9-1e04-407e-a5f0-c704cc152039"},"vehicle_type_id":"4","last_reported":1729026500,"current_range_meters":27200,"station_id":"ce4bgjh2rcd13ifvqbf0","pricing_plan_id":"cebpf4jnsgd1na2vs0mg"},{"bike_id":"c7a9a31a-a3c7-4ffc-97ed-74abb320353e","system_id":"levelo_inurba_marseille","lat":43.27174,"lon":5.40989,"is_reserved":false,"is_disabled":false,"rental_uris":{"android":"levelo://app?vid=c7a9a31a-a3c7-4ffc-97ed-74abb320353e","ios":"levelo://app?vid=c7a9a31a-a3c7-4ffc-97ed-74abb320353e"},"vehicle_type_id":"4","last_reported":1729026500,"current_range_meters":11200,"station_id":"ce4bhl12rcd13ifvqgf0","pricing_plan_id":"cebpf4jnsgd1na2vs0mg"},{"bike_id":"b6a13d35-57ac-4d7b-b87a-4e69f460021d","system_id":"levelo_inurba_marseille","lat":43.33723,"lon":5.39181,"is_reserved":false,"is_disabled":false,"rental_uris":{"android":"levelo://app?vid=b6a13d35-57ac-4d7b-b87a-4e69f460021d","ios":"levelo://app?vid=b6a13d35-57ac-4d7b-b87a-4e69f460021d"},"vehicle_type_id":"4","last_reported":1729026500,"current_range_meters":26000,"station_id":"ce4bhr92rcd13ifvqhsg","pricing_plan_id":"cebpf4jnsgd1na2vs0mg"},{"bike_id":"94d48054-be54-488d-a425-2deb433f452c","system_id":"levelo_inurba_marseille","lat":43.29802,"lon":5.36445,"is_reserved":false,"is_disabled":false,"rental_uris":{"android":"levelo://app?vid=94d48054-be54-488d-a425-2deb433f452c","ios":"levelo://app?vid=94d48054-be54-488d-a425-2deb433f452c"},"vehicle_type_id":"4","last_reported":1729026500,"current_range_meters":23200,"station_id":"ce4bgnh2rcd13ifvqc0g","pricing_plan_id":"cebpf4jnsgd1na2vs0mg"},{"bike_id":"462d651a-f395-4dad-a6ca-03f66ade2cba","system_id":"levelo_inurba_marseille","lat":43.255005,"lon":5.376551,"is_reserved":false,"is_disabled":false,"rental_uris":{"android":"levelo://app?vid=462d651a-f395-4dad-a6ca-03f66ade2cba","ios":"levelo://app?vid=462d651a-f395-4dad-a6ca-03f66ade2cba"},"vehicle_type_id":"4","last_reported":1729026500,"current_range_meters":28400,"station_id":"ce4bhh12rcd13ifvqff0","pricing_plan_id":"cebpf4jnsgd1na2vs0mg"},{"bike_id":"50b1661a-1af2-445b-9b50-915ef50b2bb1","system_id":"levelo_inurba_marseille","lat":43.25576,"lon":5.38241,"is_reserved":false,"is_disabled":false,"rental_uris":{"android":"levelo://app?vid=50b1661a-1af2-445b-9b50-915ef50b2bb1","ios":"levelo://app?vid=50b1661a-1af2-445b-9b50-915ef50b2bb1"},"vehicle_type_id":"4","last_reported":1729026500,"current_range_meters":38800,"station_id":"ce4bhih2rcd13ifvqfs0","pricing_plan_id":"cebpf4jnsgd1na2vs0mg"},{"bike_id":"9645dc6d-bd7c-41ba-b741-da969e8d4140","system_id":"levelo_inurba_marseille","lat":43.26797,"lon":5.40268,"is_reserved":false,"is_disabled":false,"rental_uris":{"android":"levelo://app?vid=9645dc6d-bd7c-41ba-b741-da969e8d4140","ios":"levelo://app?vid=9645dc6d-bd7c-41ba-b741-da969e8d4140"},"vehicle_type_id":"4","last_reported":1729026500,"current_range_meters":25600,"station_id":"ce501612rcd8frsf0b60","pricing_plan_id":"cebpf4jnsgd1na2vs0mg"},{"bike_id":"2399358f-9606-4a16-8ad8-1a6b3d8715bb","system_id":"levelo_inurba_marseille","lat":43.3086,"lon":5.37748,"is_reserved":false,"is_disabled":false,"rental_uris":{"android":"levelo://app?vid=2399358f-9606-4a16-8ad8-1a6b3d8715bb","ios":"levelo://app?vid=2399358f-9606-4a16-8ad8-1a6b3d8715bb"},"vehicle_type_id":"4","last_reported":1729026500,"current_range_meters":16400,"station_id":"ce4bgop2rcd13ifvqc1g","pricing_plan_id":"cebpf4jnsgd1na2vs0mg"},{"bike_id":"1616c9ce-4d58-4b41-a0ce-686df9d6f698","system_id":"levelo_inurba_marseille","lat":43.27814,"lon":5.40726,"is_reserved":false,"is_disabled":false,"rental_uris":{"android":"levelo://app?vid=1616c9ce-4d58-4b41-a0ce-686df9d6f698","ios":"levelo://app?vid=1616c9ce-4d58-4b41-a0ce-686df9d6f698"},"vehicle_type_id":"4","last_reported":1729026500,"current_range_meters":17200,"station_id":"ce4bhnh2rcd13ifvqgtg","pricing_plan_id":"cebpf4jnsgd1na2vs0mg"},{"bike_id":"3a0a740b-7b93-430b-a710-a2db8ca3614c","system_id":"levelo_inurba_marseille","lat":43.28108,"lon":5.37849,"is_reserved":false,"is_disabled":false,"rental_uris":{"android":"levelo://app?vid=3a0a740b-7b93-430b-a710-a2db8ca3614c","ios":"levelo://app?vid=3a0a740b-7b93-430b-a710-a2db8ca3614c"},"vehicle_type_id":"4","last_reported":1729026500,"current_range_meters":6000,"station_id":"ce4bha12rcd13ifvqee0","pricing_plan_id":"cebpf4jnsgd1na2vs0mg"},{"bike_id":"496a602b-125a-4e41-b949-2e846a13b4db","system_id":"levelo_inurba_marseille","lat":43.31509,"lon":5.37297,"is_reserved":false,"is_disabled":false,"rental_uris":{"android":"levelo://app?vid=496a602b-125a-4e41-b949-2e846a13b4db","ios":"levelo://app?vid=496a602b-125a-4e41-b949-2e846a13b4db"},"vehicle_type_id":"4","last_reported":1729026500,"current_range_meters":38800,"station_id":"ce4bgt12rcd13ifvqcd0","pricing_plan_id":"cebpf4jnsgd1na2vs0mg"},{"bike_id":"953ad8dc-3822-470d-8771-d3f0aed01ebe","system_id":"levelo_inurba_marseille","lat":43.29025,"lon":5.35911,"is_reserved":false,"is_disabled":false,"rental_uris":{"android":"levelo://app?vid=953ad8dc-3822-470d-8771-d3f0aed01ebe","ios":"levelo://app?vid=953ad8dc-3822-470d-8771-d3f0aed01ebe"},"vehicle_type_id":"4","last_reported":1729026500,"current_range_meters":36400,"station_id":"ce4bha92rcd13ifvqeg0","pricing_plan_id":"cebpf4jnsgd1na2vs0mg"},{"bike_id":"09b5985d-90ee-42fc-ac04-42c5f825f1d8","system_id":"levelo_inurba_marseille","lat":43.29038,"lon":5.35899,"is_reserved":false,"is_disabled":false,"rental_uris":{"android":"levelo://app?vid=09b5985d-90ee-42fc-ac04-42c5f825f1d8","ios":"levelo://app?vid=09b5985d-90ee-42fc-ac04-42c5f825f1d8"},"vehicle_type_id":"4","last_reported":1729026500,"current_range_meters":22400,"station_id":"ce4bha92rcd13ifvqeg0","pricing_plan_id":"cebpf4jnsgd1na2vs0mg"},