{"last_updated":1732216039,"ttl":60,"version":"2.2","data":{"bikes":[{"bike_id":"11cecba1-40ac-4658-9f23-30f0443b678e","system_id":"levelo_inurba_marseille","lat":43.30904,"lon":5.36854,"is_reserved":false,"is_disabled":false,"rental_uris":{"android":"levelo://app?vid=11cecba1-40ac-4658-9f23-30f0443b678e","ios":"levelo://app?vid=11cecba1-40ac-4658-9f23-30f0443b678e"},"vehicle_type_id":"4","last_reported":1732216039,"current_range_meters":18000,"station_id":"ce4bgn92rcd13ifvqbvg","pricing_plan_id":"cebpf4jnsgd1na2vs0mg"},{"bike_id":"a10be396-1705-483a-9984-718f9d010c8e","system_id":"levelo_inurba_marseille","lat":43.29882,"lon":5.39745,"is_reserved":false,"is_disabled":true,"rental_uris":{"android":"levelo://app?vid=a10be396-1705-483a-9984-718f9d010c8e","ios":"levelo://app?vid=a10be396-1705-483a-9984-718f9d010c8e"},"vehicle_type_id":"4","last_reported":1732216039,"current_range_meters":0,"station_id":"ce4bh0h2rcd13ifvqd50","pricing_plan_id":"cebpf4jnsgd1na2vs0mg"},{"bike_id":"156320ae-cdf1-448d-a5dd-5f82d48b8bf7","system_id":"levelo_inurba_marseille","lat":43.28613,"lon":5.35101,"is_reserved":false,"is_disabled":false,"rental_uris":{"android":"levelo://app?vid=156320ae-cdf1-448d-a5dd-5f82d48b8bf7","ios":"levelo://app?vid=156320ae-cdf1-448d-a5dd-5f82d48b8bf7"},"vehicle_type_id":"4","last_reported":1732216039,"current_range_meters":36000,"station_id":"ce4bhch2rcd13ifvqeug","pricing_plan_id":"cebpf4jnsgd1na2vs0mg"},{"bike_id":"9903085d-c2d5-4e51-9142-a76cb5b64c42","system_id":"levelo_inurba_marseille","lat":43.29037,"lon":5.39983,"is_reserved":false,"is_disabled":false,"rental_uris":{"android":"levelo://app?vid=9903085d-c2d5-4e51-9142-a76cb5b64c42","ios":"levelo://app?vid=9903085d-c2d5-4e51-9142-a76cb5b64c42"},"vehicle_type_id":"4","last_reported":1732216039,"current_range_meters":38000,"station_id":"ce4bh392rcd13ifvqdm0","pricing_plan_id":"cebpf4jnsgd1na2vs0mg"},{"bike_id":"87ba0e5a-3832-4543-b32b-6350b38880d0","system_id":"levelo_inurba_marseille","lat":43.26063,"lon":5.39388,"is_reserved":false,"is_disabled":false,"rental_uris":{"android":"levelo://app?vid=87ba0e5a-3832-4543-b32b-6350b38880d0","ios":"levelo://app?vid=87ba0e5a-3832-4543-b32b-6350b38880d0"},"vehicle_type_id":"4","last_reported":1732216039,"current_range_meters":23200,"station_id":"ce4bhh92rcd13ifvqfj0","pricing_plan_id":"cebpf4jnsgd1na2vs0mg"},{"bike_id":"8527133f-e94b-41ef-9b16-c99901d73e95","system_id":"levelo_inurba_marseille","lat":43.25582,"lon":5.38242,"is_reserved":false,"is_disabled":false,"rental_uris":{"android":"levelo://app?vid=8527133f-e94b-41ef-9b16-c99901d73e95","ios":"levelo://app?vid=8527133f-e94b-41ef-9b16-c99901d73e95"},"vehicle_type_id":"4","last_reported":1732216039,"current_range_meters":37600,"station_id":"ce4bhih2rcd13ifvqfs0","pricing_plan_id":"cebpf4jnsgd1na2vs0mg"},{"bike_id":"a495e077-d6a7-414c-b761-8ee8983002b2","system_id":"levelo_inurba_marseille","lat":43.27175,"lon":5.40991,"is_reserved":false,"is_disabled":false,"rental_uris":{"android":"levelo://app?vid=a495e077-d6a7-414c-b761-8ee8983002b2","ios":"levelo://app?vid=a495e077-d6a7-414c-b761-8ee8983002b2"},"vehicle_type_id":"4","last_reported":1732216039,"current_range_meters":32400,"station_id":"ce4bhl12rcd13ifvqgf0","pricing_plan_id":"cebpf4jnsgd1na2vs0mg"},{"bike_id":"54aaffa4-3b5a-4b20-98be-cf6af0d90cf7","system_id":"levelo_inurba_marseille","lat":43.30801,"lon":5.43523,"is_reserved":false,"is_disabled":false,"rental_uris":{"android":"levelo://app?vid=54aaffa4-3b5a-4b20-98be-cf6af0d90cf7","ios":"levelo://app?vid=54aaffa4-3b5a-4b20-98be-cf6af0d90cf7"},"vehicle_type_id":"4","last_reported":1732216039,"current_range_meters":4000,"station_id":"ce4bhph2rcd13ifvqheg","pricing_plan_id":"cebpf4jnsgd1na2vs0mg"},{"bike_id":"1f203897-1164-43c5-8a36-2a35df13aaf6","system_id":"levelo_inurba_marseille","lat":43.23154,"lon":5.43718,"is_reserved":false,"is_disabled":true,"rental_uris":{"android":"levelo://app?vid=1f203897-1164-43c5-8a36-2a35df13aaf6","ios":"levelo://app?vid=1f203897-1164-43c5-8a36-2a35df13aaf6"},"vehicle_type_id":"4","last_reported":1732216039,"current_range_meters":800,"station_id":"ce4bhmp2rcd13ifvqgog","pricing_plan_id":"cebpf4jnsgd1na2vs0mg"},{"bike_id":"3a076054-5799-4ac5-82a3-cb0f017ae5a2","system_id":"levelo_inurba_marseille","lat":43.29251,"lon":5.38442,"is_reserved":false,"is_disabled":false,"rental_uris":{"android":"levelo://app?vid=3a076054-5799-4ac5-82a3-cb0f017ae5a2","ios":"levelo://app?vid=3a076054-5799-4ac5-82a3-cb0f017ae5a2"},"vehicle_type_id":"4","last_reported":1732216039,"current_range_meters":34800,"station_id":"ce4bh692rcd13ifvqea0","pricing_plan_id":"cebpf4jnsgd1na2vs0mg"},{"bike_id":"428d72ce-47cc-4c94-841a-e3c923cc1cb6","system_id":"levelo_inurba_marseille","lat":43.28693,"lon":5.37394,"is_reserved":false,"is_disabled":true,"rental_uris":{"android":"levelo://app?vid=428d72ce-47cc-4c94-841a-e3c923cc1cb6","ios":"levelo://app?vid=428d72ce-47cc-4c94-841a-e3c923cc1cb6"},"vehicle_type_id":"4","last_reported":1732216039,"current_range_meters":32400,"station_id":"ce4bh3p2rcd13ifvqdq0","pricing_plan_id":"cebpf4jnsgd1na2vs0mg"},{"bike_id":"cc45001e-86ba-42cc-9993-ed5261abbfe0","system_id":"levelo_inurba_marseille","lat":43.32364,"lon":5.38882,"is_reserved":false,"is_disabled":false,"rental_uris":{"android":"levelo://app?vid=cc45001e-86ba-42cc-9993-ed5261abbfe0","ios":"levelo://app?vid=cc45001e-86ba-42cc-9993-ed5261abbfe0"},"vehicle_type_id":"4","last_reported":1732216039,"current_range_meters":18000,"station_id":"ce4bhqp2rcd13ifvqhog","pricing_plan_id":"cebpf4jnsgd1na2vs0mg"},{"bike_id":"6ce5bbf1-78ea-4c66-a3f8-d059640754c6","system_id":"levelo_inurba_marseille","lat":43.29571,"lon":5.39976,"is_reserved":false,"is_disabled":false,"rental_uris":{"android":"levelo://app?vid=6ce5bbf1-78ea-4c66-a3f8-d059640754c6","ios":"levelo://app?vid=6ce5bbf1-78ea-4c66-a3f8-d059640754c6"},"vehicle_type_id":"4","last_reported":1732216039,"current_range_meters":12000,"station_id":"ce4bh312rcd13ifvqdj0","pricing_plan_id":"cebpf4jnsgd1na2vs0mg"},{"bike_id":"b5e2a9b7-bda8-49ee-b5d5-f4e0fb8c73c3","system_id":"levelo_inurba_marseille","lat":43.26802,"lon":5.40269,"is_reserved":false,"is_disabled":false,"rental_uris":{"android":"levelo://app?vid=b5e2a9b7-bda8-49ee-b5d5-f4e0fb8c73c3","ios":"levelo://app?vid=b5e2a9b7-bda8-49ee-b5d5-f4e0fb8c73c3"},"vehicle_type_id":"4","last_reported":1732216039,"current_range_meters":6800,"station_id":"ce501612rcd8frsf0b60","pricing_plan_id":"cebpf4jnsgd1na2vs0mg"},{"bike_id":"c0755ad7-8353-40d1-98a4-bba43ca0e3ab","system_id":"levelo_inurba_marseille","lat":43.33721,"lon":5.39188,"is_reserved":false,"is_disabled":false,"rental_uris":{"android":"levelo://app?vid=c0755ad7-8353-40d1-98a4-bba43ca0e3ab","ios":"levelo://app?vid=c0755ad7-8353-40d1-98a4-bba43ca0e3ab"},"vehicle_type_id":"4","last_reported":1732216039,"current_range_meters":17200,"station_id":"ce4bhr92rcd13ifvqhsg","pricing_plan_id":"cebpf4jnsgd1na2vs0mg"},{"bike_id":"a9a4af61-0fd7-4a8f-8c37-b9e8613d2302","system_id":"levelo_inurba_marseille","lat":43.231762,"lon":5.399932,"is_reserved":false,"is_disabled":false,"rental_uris":{"android":"levelo://app?vid=a9a4af61-0fd7-4a8f-8c37-b9e8613d2302","ios":"levelo://app?vid=a9a4af61-0fd7-4a8f-8c37-b9e8613d2302"},"vehicle_type_id":"4","last_reported":1732216039,"current_range_meters":38800,"station_id":"ce4bhn12rcd13ifvqgqg","pricing_plan_id":"cebpf4jnsgd1na2vs0mg"},{"bike_id":"8181d04a-7f0e-4ec6-bb31-c9a42248f31c","system_id":"levelo_inurba_marseille","lat":43.30136,"lon":5.38772,"is_reserved":false,"is_disabled":true,"rental_uris":{"android":"levelo://app?vid=8181d04a-7f0e-4ec6-bb31-c9a42248f31c","ios":"levelo://app?vid=8181d04a-7f0e-4ec6-bb31-c9a42248f31c"},"vehicle_type_id":"4","last_reported":1732216039,"current_range_meters":32400,"station_id":"ce4bghh2rcd13ifvqb60","pricing_plan_id":"cebpf4jnsgd1na2vs0mg"},{"bike_id":"78bb5da4-eb26-47d4-a1b5-b4f21cccc3d3","system_id":"levelo_inurba_marseille","lat":43.30351,"lon":5.41892,"is_reserved":false,"is_disabled":false,"rental_uris":{"android":"levelo://app?vid=78bb5da4-eb26-47d4-a1b5-b4f21cccc3d3","ios":"levelo://app?vid=78bb5da4-eb26-47d4-a1b5-b4f21cccc3d3"},"vehicle_type_id":"4","last_reported":1732216039,"current_range_meters":5600,"station_id":"ce4bhop2rcd13ifvqh7g","pricing_plan_id":"cebpf4jnsgd1na2vs0mg"},{"bike_id":"fc37852d-a3cd-46eb-87e8-e4aabc412de0","system_id":"levelo_inurba_marseille","lat":43.30878,"lon":5.39649,"is_reserved":false,"is_disabled":false,"rental_uris":{"android":"levelo://app?vid=fc37852d-a3cd-46eb-87e8-e4aabc412de0","ios":"levelo://app?vid=fc37852d-a3cd-46eb-87e8-e4aabc412de0"},"vehicle_type_id":"4","last_reported":1732216039,"current_range_meters":24400,"station_id":"ce4bh012rcd13ifvqcv0","pricing_plan_id":"cebpf4jnsgd1na2vs0mg"},{"bike_id":"baee7a83-e826-4645-b2d4-9c90c3a42021","system_id":"levelo_inurba_marseille","lat":43.30304,"lon":5.392,"is_reserved":false,"is_disabled":false,"rental_uris":{"android":"levelo://app?vid=baee7a83-e826-4645-b2d4-9c90c3a42021","ios":"levelo://app?vid=baee7a83-e826-4645-b2d4-9c90c3a42021"},"vehicle_type_id":"4","last_reported":1732216039,"current_range_meters":38800,"station_id":"ce4bgkh2rcd13ifvqbk0","pricing_plan_id":"cebpf4jnsgd1na2vs0mg"},{"bike_id":"b3e59b71-2c3b-4757-bc13-a801692332ea","system_id":"levelo_inurba_marseille","lat":43.29366,"lon":5.3783,"is_reserved":false,"is_disabled":false,"rental_uris":{"android":"levelo://app?vid=b3e59b71-2c3b-4757-bc13-a801692332ea","ios":"levelo://app?vid=b3e59b71-2c3b-4757-bc13-a801692332ea"},"vehicle_type_id":"4","last_reported":1732216039,"current_range_meters":9200,"station_id":"ce4bgjh2rcd13ifvqbf0","pricing_plan_id":"cebpf4jnsgd1na2vs0mg"},{"bike_id":"fd1e905e-0070-4395-8279-72b1c9e566e2","system_id":"levelo_inurba_marseille","lat":43.2872,"lon":5.37936,"is_reserved":false,"is_disabled":true,"rental_uris":{"android":"levelo://app?vid=fd1e905e-0070-4395-8279-72b1c9e566e2","ios":"levelo://app?vid=fd1e905e-0070-4395-8279-72b1c9e566e2"},"vehicle_type_id":"4","last_reported":1732216039,"current_range_meters":400,"station_id":"ce4bh9p2rcd13ifvqec0","pricing_plan_id":"cebpf4jnsgd1na2vs0mg"},{"bike_id":"d2321b4c-ae3a-4b43-8bcd-12cb7984481d","system_id":"levelo_inurba_marseille","lat":43.30755,"lon":5.37008,"is_reserved":false,"is_disabled":true,"rental_uris":{"android":"levelo://app?vid=d2321b4c-ae3a-4b43-8bcd-12cb7984481d","ios":"levelo://app?vid=d2321b4c-ae3a-4b43-8bcd-12cb7984481d"},"vehicle_type_id":"4","last_reported":1732216039,"current_range_meters":22400,"station_id":"","pricing_plan_id":"cebpf4jnsgd1na2vs0mg"},{"bike_id":"eba35b14-0ea4-4a4f-9525-dc9511c16675","system_id":"levelo_inurba_marseille","lat":43.29706,"lon":5.36611,"is_reserved":false,"is_disabled":false,"rental_uris":{"android":"levelo://app?vid=eba35b14-0ea4-4a4f-9525-dc9511c16675","ios":"levelo://app?vid=eba35b14-0ea4-4a4f-9525-dc9511c16675"},"vehicle_type_id":"4","last_reported":1732216039,"current_range_meters":20800,"station_id":"ce4bgn12rcd13ifvqbt0","pricing_plan_id":"cebpf4jnsgd1na2vs0mg"},{"bike_id":"5c3000a0-a190-4007-a723-aa2707fd1ce3","system_id":"levelo_inurba_marseille","lat":43.2296,"lon":5.35376,"is_reserved":false,"is_disabled":false,"rental_uris":{"android":"levelo://app?vid=5c3000a0-a190-4007-a723-aa2707fd1ce3","ios":"levelo://app?vid=5c3000a0-a190-4007-a723-aa2707fd1ce3"},"vehicle_type_id":"4","last_reported":1732216039,"current_range_meters":38800,"station_id":"cpo3532slgdg3j2ikp40","pricing_plan_id":"cebpf4jnsgd1na2vs0mg"},{"bike_id":"dbbb6df0-caeb-4435-afca-c73ffa73ed3f","system_id":"levelo_inurba_marseille","lat":43.30918,"lon":5.36845,"is_reserved":false,"is_disabled":false,"rental_uris":{"android":"levelo://app?vid=dbbb6df0-caeb-4435-afca-c73ffa73ed3f","ios":"levelo://app?vid=dbbb6df0-caeb-4435-afca-c73ffa73ed3f"},"vehicle_type_id":"4","last_reported":1732216039,"current_range_meters":34000,"station_id":"ce4bgn92rcd13ifvqbvg","pricing_plan_id":"cebpf4jnsgd1na2vs0mg"},{"bike_id":"58ab2414-c6cd-44a5-b87e-047ebd7b2c3d","system_id":"levelo_inurba_marseille","lat":43.2926,"lon":5.38433,"is_reserved":false,"is_disabled":false,"rental_uris":{"android":"levelo://app?vid=58ab2414-c6cd-44a5-b87e-047ebd7b2c3d","ios":"levelo://app?vid=58ab2414-c6cd-44a5-b87e-047ebd7b2c3d"},"vehicle_type_id":"4","last_reported":1732216039,"current_range_meters":14400,"station_id":"ce4bh692rcd13ifvqea0","pricing_plan_id":"cebpf4jnsgd1na2vs0mg"},{"bike_id":"9bf00278-281e-45df-b9cb-0f55e5af1df2","system_id":"levelo_inurba_marseille","lat":43.25575,"lon":5.38231,"is_reserved":false,"is_disabled":false,"rental_uris":{"android":"levelo://app?vid=9bf00278-281e-45df-b9cb-0f55e5af1df2","ios":"levelo://app?vid=9bf00278-281e-45df-b9cb-0f55e5af1df2"},"vehicle_type_id":"4","last_reported":1732216039,"current_range_meters":38800,"station_id":"ce4bhih2rcd13ifvqfs0","pricing_plan_id":"cebpf4jnsgd1na2vs0mg"},{"bike_id":"922bd877-8ef2-4e72-a9c2-b448135ba6e2","system_id":"levelo_inurba_marseille","lat":43.23189,"lon":5.35539,"is_reserved":false,"is_disabled":false,"rental_uris":{"android":"levelo://app?vid=922bd877-8ef2-4e72-a9c2-b448135ba6e2","ios":"levelo://app?vid=922bd877-8ef2-4e72-a9c2-b448135ba6e2"},"vehicle_type_id":"4","last_reported":1732216039,"current_range_meters":18000,"station_id":"ce4bhu92rcd13ifvqi70","pricing_plan_id":"cebpf4jnsgd1na2vs0mg"},{"bike_id":"29c22c83-c890-4a13-bac7-dce935143fba","system_id":"levelo_inurba_marseille","lat":43.26685,"lon":5.38274,"is_reserved":false,"is_disabled":false,"rental_uris":{"android":"levelo://app?vid=29c22c83-c890-4a13-bac7-dce935143fba","ios":"levelo://app?vid=29c22c83-c890-4a13-bac7-dce935143fba"},"vehicle_type_id":"4","last_reported":1732216039,"current_range_meters":8400,"station_id":"ce4bhg92rcd13ifvqf90","pricing_plan_id":"cebpf4jnsgd1na2vs0mg"},{"bike_id":"895dae95-9dde-4a45-9252-bfb2ffb1ef60","system_id":"levelo_inurba_marseille","lat":43.29851,"lon":5.36277,"is_reserved":false,"is_disabled":false,"rental_uris":{"android":"levelo://app?vid=895dae95-9dde-4a45-9252-bfb2ffb1ef60","ios":"levelo://app?vid=895dae95-9dde-4a45-9252-bfb2ffb1ef60"},"vehicle_type_id":"4","last_reported":1732216039,"current_range_meters":38800,"station_id":"ce4bgpp2rcd13ifvqc3g","pricing_plan_id":"cebpf4jnsgd1na2vs0mg"},{"bike_id":"85d220bc-cd5c-4076-ad44-b62066a2c875","system_id":"levelo_inurba_marseille","lat":43.27569,"lon":5.38414,"is_reserved":false,"is_disabled":false,"rental_uris":{"android":"levelo://app?vid=85d220bc-cd5c-4076-ad44-b62066a2c875","ios":"levelo://app?vid=85d220bc-cd5c-4076-ad44-b62066a2c875"},"vehicle_type_id":"4","last_reported":1732216039,"current_range_meters":16800,"station_id":"ce4bhh92rcd13ifvqfi0","pricing_plan_id":"cebpf4jnsgd1na2vs0mg"},{"bike_id":"7932a3e9-8ffd-4075-bcc5-df541b3ba473","system_id":"levelo_inurba_marseille","lat":43.27997,"lon":5.40018,"is_reserved":false,"is_disabled":false,"rental_uris":{"android":"levelo://app?vid=7932a3e9-8ffd-4075-bcc5-df541b3ba473","ios":"levelo://app?vid=7932a3e9-8ffd-4075-bcc5-df541b3ba473"},"vehicle_type_id":"4","last_reported":1732216039,"current_range_meters":30400,"station_id":"ce4bho92rcd13ifvqh4g","pricing_plan_id":"cebpf4jnsgd1na2vs0mg"},{"bike_id":"48cd0835-aecf-4328-9ec2-0085c18d7831","system_id":"levelo_inurba_marseille","lat":43.27571,"lon":5.38416,"is_reserved":false,"is_disabled":true,"rental_uris":{"android":"levelo://app?vid=48cd0835-aecf-4328-9ec2-0085c18d7831","ios":"levelo://app?vid=48cd0835-aecf-4328-9ec2-0085c18d7831"},"vehicle_type_id":"4","last_reported":1732216039,"current_range_meters":39200,"station_id":"ce4bhh92rcd13ifvqfi0","pricing_plan_id":"cebpf4jnsgd1na2vs0mg"},{"bike_id":"1cd0daee-d68a-4e66-9883-fbe67fd8260f","system_id":"levelo_inurba_marseille","lat":43.30578,"lon":5.37114,"is_reserved":false,"is_disabled":true,"rental_uris":{"android":"levelo://app?vid=1cd0daee-d68a-4e66-9883-fbe67fd8260f","ios":"levelo://app?vid=1cd0daee-d68a-4e66-9883-fbe67fd8260f"},"vehicle_type_id":"4","last_reported":1732216039,"current_range_meters":0,"station_id":"","pricing_plan_id":"cebpf4jnsgd1na2vs0mg"},{"bike_id":"2a146ded-f300-4fad-a7a7-caee1617f035","system_id":"levelo_inurba_marseille","lat":43.34142,"lon":5.40907,"is_reserved":false,"is_disabled":false,"rental_uris":{"android":"levelo://app?vid=2a146ded-f300-4fad-a7a7-caee1617f035","ios":"levelo://app?vid=2a146ded-f300-4fad-a7a7-caee1617f035"},"vehicle_type_id":"4","last_reported":1732216039,"current_range_meters":20400,"station_id":"ce4bhqh2rcd13ifvqhlg","pricing_plan_id":"cebpf4jnsgd1na2vs0mg"},{"bike_id":"3a70b51d-b225-4756-966b-05a9a99c041a","system_id":"levelo_inurba_marseille","lat":43.32335,"lon":5.40623,"is_reserved":false,"is_disabled":false,"rental_uris":{"android":"levelo://app?vid=3a70b51d-b225-4756-966b-05a9a99c041a","ios":"levelo://app?vid=3a70b51d-b225-4756-966b-05a9a99c041a"},"vehicle_type_id":"4","last_reported":1732216039,"current_range_meters":28000,"station_id":"ce4bhq92rcd13ifvqhjg","pricing_plan_id":"cebpf4jnsgd1na2vs0mg"},{"bike_id":"e4d1110f-959b-40b4-88a0-d41c994c54f7","system_id":"levelo_inurba_marseille","lat":43.2466,"lon":5.38163,"is_reserved":false,"is_disabled":true,"rental_uris":{"android":"levelo://app?vid=e4d1110f-959b-40b4-88a0-d41c994c54f7","ios":"levelo://app?vid=e4d1110f-959b-40b4-88a0-d41c994c54f7"},"vehicle_type_id":"4","last_reported":1732216039,"current_range_meters":800,"station_id":"ce4bhih2rcd13ifvqfr0","pricing_plan_id":"cebpf4jnsgd1na2vs0mg"},{"bike_id":"38c3425a-9757-4ae5-b002-9a5d74bf8111","system_id":"levelo_inurba_marseille","lat":43.3254,"lon":5.41443,"is_reserved":false,"is_disabled":false,"rental_uris":{"android":"levelo://app?vid=38c3425a-9757-4ae5-b002-9a5d74bf8111","ios":"levelo://app?vid=38c3425a-9757-4ae5-b002-9a5d74bf8111"},"vehicle_type_id":"4","last_reported":1732216039,"current_range_meters":38000,"station_id":"ce4bhq12rcd13ifvqhhg","pricing_plan_id":"cebpf4jnsgd1na2vs0mg"},{"bike_id":"cbc9f3c1-4348-4707-b560-0243bcecad2d","system_id":"levelo_inurba_marseille","lat":43.28034,"lon":5.3695,"is_reserved":false,"is_disabled":false,"rental_uris":{"android":"levelo://app?vid=cbc9f3c1-4348-4707-b560-0243bcecad2d","ios":"levelo://app?vid=cbc9f3c1-4348-4707-b560-0243bcecad2d"},"vehicle_type_id":"4","last_reported":1732216039,"current_range_meters":30000,"station_id":"ce4bha12rcd13ifvqef0","pricing_plan_id":"cebpf4jnsgd1na2vs0mg"},{"bike_id":"314c829c-e14d-4999-b673-9e3a2cb6f218","system_id":"levelo_inurba_marseille","lat":43.30204,"lon":5.39455,"is_reserved":false,"is_disabled":false,"rental_uris":{"android":"levelo://app?vid=314c829c-e14d-4999-b673-9e3a2cb6f218","ios":"levelo://app?vid=314c829c-e14d-4999-b673-9e3a2cb6f218"},"vehicle_type_id":"4","last_reported":1732216039,"current_range_meters":7200,"station_id":"ce4bh0p2rcd13ifvqd70","pricing_plan_id":"cebpf4jnsgd1na2vs0mg"},{"bike_id":"cbd6d88c-3a6a-45bb-9f95-2756c09de0b8","system_id":"levelo_inurba_marseille","lat":43.27613,"lon":5.41753,"is_reserved":false,"is_disabled":true,"rental_uris":{"android":"levelo://app?vid=cbd6d88c-3a6a-45bb-9f95-2756c09de0b8","ios":"levelo://app?vid=cbd6d88c-3a6a-45bb-9f95-2756c09de0b8"},"vehicle_type_id":"4","last_reported":1732216039,"current_range_meters":25600,"station_id":"","pricing_plan_id":"cebpf4jnsgd1na2vs0mg"},{"bike_id":"4fa70e8b-1f98-4a83-bd07-f7b4d435987d","system_id":"levelo_inurba_marseille","lat":43.29027,"lon":5.38649,"is_reserved":false,"is_disabled":false,"rental_uris":{"android":"levelo://app?vid=4fa70e8b-1f98-4a83-bd07-f7b4d435987d","ios":"levelo://app?vid=4fa70e8b-1f98-4a83-bd07-f7b4d435987d"},"vehicle_type_id":"4","last_reported":1732216039,"current_range_meters":16400,"station_id":"ce4bh4p2rcd13ifvqe0g","pricing_plan_id":"cebpf4jnsgd1na2vs0mg"},{"bike_id":"862c41e6-e6fd-4c9b-8ad0-633defdb625c","system_id":"levelo_inurba_marseille","lat":43.27058,"lon":5.40261,"is_reserved":false,"is_disabled":false,"rental_uris":{"android":"levelo://app?vid=862c41e6-e6fd-4c9b-8ad0-633defdb625c","ios":"levelo://app?vid=862c41e6-e6fd-4c9b-8ad0-633defdb625c"},"vehicle_type_id":"4","last_reported":1732216039,"current_range_meters":30400,"station_id":"ce4bhk92rcd13ifvqgc0","pricing_plan_id":"cebpf4jnsgd1na2vs0mg"},{"bike_id":"478beee7-0d9b-4d4c-a2fc-ced293c0b226","system_id":"levelo_inurba_marseille","lat":43.28683,"lon":5.36088,"is_reserved":false,"is_disabled":false,"rental_uris":{"android":"levelo://app?vid=478beee7-0d9b-4d4c-a2fc-ced293c0b226","ios":"levelo://app?vid=478beee7-0d9b-4d4c-a2fc-ced293c0b226"},"vehicle_type_id":"4","last_reported":1732216039,"current_range_meters":22400,"station_id":"cki0cbj6b192h4jlfktg","pricing_plan_id":"cebpf4jnsgd1na2vs0mg"},{"bike_id":"45a83c4e-4b08-4e7d-9aa7-ce2060830b65","system_id":"levelo_inurba_marseille","lat":43.29419,"lon":5.38615,"is_reserved":false,"is_disabled":true,"rental_uris":{"android":"levelo://app?vid=45a83c4e-4b08-4e7d-9aa7-ce2060830b65","ios":"levelo://app?vid=45a83c4e-4b08-4e7d-9aa7-ce2060830b65"},"vehicle_type_id":"4","last_reported":1732216039,"current_range_meters":400,"station_id":"ce4bh2h2rcd13ifvqdh0","pricing_plan_id":"cebpf4jnsgd1na2vs0mg"},{"bike_id":"6121e704-2ad8-44a9-85b3-645d99065972","system_id":"levelo_inurba_marseille","lat":43.27616,"lon":5.36119,"is_reserved":false,"is_disabled":false,"rental_uris":{"android":"levelo://app?vid=6121e704-2ad8-44a9-85b3-645d99065972","ios":"levelo://app?vid=6121e704-2ad8-44a9-85b3-645d99065972"},"vehicle_type_id":"4","last_reported":1732216039,"current_range_meters":30800,"station_id":"ce4bgj92rcd13ifvqbe0","pricing_plan_id":"cebpf4jnsgd1na2vs0mg"},{"bike_id":"a5fc9148-ebd9-4bdf-8116-8e2f0bbf7fb0","system_id":"levelo_inurba_marseille","lat":43.30802,"lon":5.43525,"is_reserved":false,"is_disabled":false,"rental_uris":{"android":"levelo://app?vid=a5fc9148-ebd9-4bdf-8116-8e2f0bbf7fb0","ios":"levelo://app?vid=a5fc9148-ebd9-4bdf-8116-8e2f0bbf7fb0"},"vehicle_type_id":"4","last_reported":1732216039,"current_range_meters":6800,"station_id":"ce4bhph2rcd13ifvqheg","pricing_plan_id":"cebpf4jnsgd1na2vs0mg"},{"bike_id":"d2523546-b0d5-4984-a07f-dac9bd9137a1","system_id":"levelo_inurba_marseille","lat":43.29198,"lon":5.39321,"is_reserved":false,"is_disabled":false,"rental_uris":{"android":"levelo://app?vid=d2523546-b0d5-4984-a07f-dac9bd9137a1","ios":"levelo://app?vid=d2523546-b0d5-4984-a07f-dac9bd9137a1"},"vehicle_type_id":"4","last_reported":1732216039,"current_range_meters":8800,"station_id":"ce4bh192rcd13ifvqdd0","pricing_plan_id":"cebpf4jnsgd1na2vs0mg"},{"bike_id":"0661744c-b366-418a-a5da-eacf7215a7a7","system_id":"levelo_inurba_marseille","lat":43.32336,"lon":5.40625,"is_reserved":false,"is_disabled":false,"rental_uris":{"android":"levelo://app?vid=0661744c-b366-418a-a5da-eacf7215a7a7","ios":"levelo://app?vid=0661744c-b366-418a-a5da-eacf7215a7a7"},"vehicle_type_id":"4","last_reported":1732216039,"current_range_meters":14400,"station_id":"ce4bhq92rcd13ifvqhjg","pricing_plan_id":"cebpf4jnsgd1na2vs0mg"},{"bike_id":"3501b69b-284e-4de9-9b51-7292ad8f3d91","system_id":"levelo_inurba_marseille","lat":43.25821,"lon":5.39437,"is_reserved":false,"is_disabled":false,"rental_uris":{"android":"levelo://app?vid=3501b69b-284e-4de9-9b51-7292ad8f3d91","ios":"levelo://app?vid=3501b69b-284e-4de9-9b51-7292ad8f3d91"},"vehicle_type_id":"4","last_reported":1732216039,"current_range_meters":7200,"station_id":"ce4bhip2rcd13ifvqft0","pricing_plan_id":"cebpf4jnsgd1na2vs0mg"},{"bike_id":"be9ae0a8-c549-4adb-a0f6-54609edbc62f","system_id":"levelo_inurba_marseille","lat":43.2985,"lon":5.36283,"is_reserved":false,"is_disabled":false,"rental_uris":{"android":"levelo://app?vid=be9ae0a8-c549-4adb-a0f6-54609edbc62f","ios":"levelo://app?vid=be9ae0a8-c549-4adb-a0f6-54609edbc62f"},"vehicle_type_id":"4","last_reported":1732216039,"current_range_meters":38800,"station_id":"ce4bgpp2rcd13ifvqc3g","pricing_plan_id":"cebpf4jnsgd1na2vs0mg"},{"bike_id":"567b5bec-6f69-4097-9d92-252add5a5c8a","system_id":"levelo_inurba_marseille","lat":43.25581,"lon":5.3824,"is_reserved":false,"is_disabled":false,"rental_uris":{"android":"levelo://app?vid=567b5bec-6f69-4097-9d92-252add5a5c8a","ios":"levelo://app?vid=567b5bec-6f69-4097-9d92-252add5a5c8a"},"vehicle_type_id":"4","last_reported":1732216039,"current_range_meters":38800,"station_id":"ce4bhih2rcd13ifvqfs0","pricing_plan_id":"cebpf4jnsgd1na2vs0mg"},{"bike_id":"50797971-4d6c-4d44-97df-20b0ab4a9889","system_id":"levelo_inurba_marseille","lat":43.26058,"lon":5.39388,"is_reserved":false,"is_disabled":false,"rental_uris":{"android":"levelo://app?vid=50797971-4d6c-4d44-97df-20b0ab4a9889","ios":"levelo://app?vid=50797971-4d6c-4d44-97df-20b0ab4a9889"},"vehicle_type_id":"4","last_reported":1732216039,"current_range_meters":31200,"station_id":"ce4bhh92rcd13ifvqfj0","pricing_plan_id":"cebpf4jnsgd1na2vs0mg"},{"bike_id":"7d5ba0aa-0f48-4a7f-82de-9d26e1521cfb","system_id":"levelo_inurba_marseille","lat":43.32289,"lon":5.38265,"is_reserved":false,"is_disabled":false,"rental_uris":{"android":"levelo://app?vid=7d5ba0aa-0f48-4a7f-82de-9d26e1521cfb","ios":"levelo://app?vid=7d5ba0aa-0f48-4a7f-82de-9d26e1521cfb"},"vehicle_type_id":"4","last_reported":1732216039,"current_range_meters":25600,"station_id":"ce4bhr12rcd13ifvqhqg","pricing_plan_id":"cebpf4jnsgd1na2vs0mg"},{"bike_id":"550f0269-af81-4f74-bed5-fe17c4459dfd","system_id":"levelo_inurba_marseille","lat":43.25932,"lon":5.40906,"is_reserved":false,"is_disabled":false,"rental_uris":{"android":"levelo://app?vid=550f0269-af81-4f74-bed5-fe17c4459dfd","ios":"levelo://app?vid=550f0269-af81-4f74-bed5-fe17c4459dfd"},"vehicle_type_id":"4","last_reported":1732216039,"current_range_meters":39200,"station_id":"ce4bhm92rcd13ifvqglg","pricing_plan_id":"cebpf4jnsgd1na2vs0mg"},{"bike_id":"9c37a5af-6b01-4e75-9657-7ef6bddc1bc6","system_id":"levelo_inurba_marseille","lat":43.33024,"lon":5.39041,"is_reserved":false,"is_disabled":false,"rental_uris":{"android":"levelo://app?vid=9c37a5af-6b01-4e75-9657-7ef6bddc1bc6","ios":"levelo://app?vid=9c37a5af-6b01-4e75-9657-7ef6bddc1bc6"},"vehicle_type_id":"4","last_reported":1732216039,"current_range_meters":26000,"station_id":"ce4bhr92rcd13ifvqhrg","pricing_plan_id":"cebpf4jnsgd1na2vs0mg"},{"bike_id":"d6d41b2e-30ea-4987-8625-f242318469f8","system_id":"levelo_inurba_marseille","lat":43.28845,"lon":5.35852,"is_reserved":false,"is_disabled":false,"rental_uris":{"android":"levelo://app?vid=d6d41b2e-30ea-4987-8625-f242318469f8","ios":"levelo://app?vid=d6d41b2e-30ea-4987-8625-f242318469f8"},"vehicle_type_id":"4","last_reported":1732216039,"current_range_meters":37600,"station_id":"ce4bhb12rcd13ifvqem0","pricing_plan_id":"cebpf4jnsgd1na2vs0mg"},{"bike_id":"9f934346-12ba-4a28-9c95-5f1cd22e3880","system_id":"levelo_inurba_marseille","lat":43.30323,"lon":5.40436,"is_reserved":false,"is_disabled":false,"rental_uris":{"android":"levelo://app?vid=9f934346-12ba-4a28-9c95-5f1cd22e3880","ios":"levelo://app?vid=9f934346-12ba-4a28-9c95-5f1cd22e3880"},"vehicle_type_id":"4","last_reported":1732216039,"current_range_meters":22000,"station_id":"ce4bh012rcd13ifvqd10","pricing_plan_id":"cebpf4jnsgd1na2vs0mg"},{"bike_id":"3585d018-4b66-4cf5-bca5-17fcec2fef21","system_id":"levelo_inurba_marseille","lat":43.23191,"lon":5.35563,"is_reserved":false,"is_disabled":false,"rental_uris":{"android":"levelo://app?vid=3585d018-4b66-4cf5-bca5-17fcec2fef21","ios":"levelo://app?vid=3585d018-4b66-4cf5-bca5-17fcec2fef21"},"vehicle_type_id":"4","last_reported":1732216039,"current_range_meters":31200,"station_id":"ce4bhu92rcd13ifvqi70","pricing_plan_id":"cebpf4jnsgd1na2vs0mg"},{"bike_id":"a3938afa-a654-428c-a5fd-d0947961cd45","system_id":"levelo_inurba_marseille","lat":43.27832,"lon":5.40746,"is_reserved":false,"is_disabled":false,"rental_uris":{"android":"levelo://app?vid=a3938afa-a654-428c-a5fd-d0947961cd45","ios":"levelo://app?vid=a3938afa-a654-428c-a5fd-d0947961cd45"},"vehicle_type_id":"4","last_reported":1732216039,"current_range_meters":24000,"station_id":"ce4bhnh2rcd13ifvqgtg","pricing_plan_id":"cebpf4jnsgd1na2vs0mg"},{"bike_id":"823803fc-2257-422c-9ff7-21a7e108f1ae","system_id":"levelo_inurba_marseille","lat":43.31753,"lon":5.39009,"is_reserved":false,"is_disabled":false,"rental_uris":{"android":"levelo://app?vid=823803fc-2257-422c-9ff7-21a7e108f1ae","ios":"levelo://app?vid=823803fc-2257-422c-9ff7-21a7e108f1ae"},"vehicle_type_id":"4","last_reported":1732216039,"current_range_meters":35600,"station_id":"ce4bhqp2rcd13ifvqhng","pricing_plan_id":"cebpf4jnsgd1na2vs0mg"},{"bike_id":"f1489887-a88b-4636-9fc1-7e439d22a762","system_id":"levelo_inurba_marseille","lat":43.29304,"lon":5.37451,"is_reserved":false,"is_disabled":true,"rental_uris":{"android":"levelo://app?vid=f1489887-a88b-4636-9fc1-7e439d22a762","ios":"levelo://app?vid=f1489887-a88b-4636-9fc1-7e439d22a762"},"vehicle_type_id":"4","last_reported":1732216039,"current_range_meters":0,"station_id":"ce4bgi12rcd13ifvqb70","pricing_plan_id":"cebpf4jnsgd1na2vs0mg"},{"bike_id":"e57590cc-a844-462b-b95c-023047b497c3","system_id":"levelo_inurba_marseille","lat":43.26027,"lon":5.3755,"is_reserved":false,"is_disabled":false,"rental_uris":{"android":"levelo://app?vid=e57590cc-a844-462b-b95c-023047b497c3","ios":"levelo://app?vid=e57590cc-a844-462b-b95c-023047b497c3"},"vehicle_type_id":"4","last_reported":1732216039,"current_range_meters":37600,"station_id":"ce4bhgh2rcd13ifvqfa0","pricing_plan_id":"cebpf4jnsgd1na2vs0mg"},{"bike_id":"d979d12e-0952-4b0d-a112-f005022fbbe4","system_id":"levelo_inurba_marseille","lat":43.26202,"lon":5.37941,"is_reserved":false,"is_disabled":false,"rental_uris":{"android":"levelo://app?vid=d979d12e-0952-4b0d-a112-f005022fbbe4","ios":"levelo://app?vid=d979d12e-0952-4b0d-a112-f005022fbbe4"},"vehicle_type_id":"4","last_reported":1732216039,"current_range_meters":16000,"station_id":"ce4bhjp2rcd13ifvqg90","pricing_plan_id":"cebpf4jnsgd1na2vs0mg"},{"bike_id":"01fade1f-4c0e-41f5-a847-3ee1ed0ae04c","system_id":"levelo_inurba_marseille","lat":43.31331,"lon":5.39702,"is_reserved":false,"is_disabled":false,"rental_uris":{"android":"levelo://app?vid=01fade1f-4c0e-41f5-a847-3ee1ed0ae04c","ios":"levelo://app?vid=01fade1f-4c0e-41f5-a847-3ee1ed0ae04c"},"vehicle_type_id":"4","last_reported":1732216039,"current_range_meters":38800,"station_id":"ce4bgvp2rcd13ifvqcu0","pricing_plan_id":"cebpf4jnsgd1na2vs0mg"},{"bike_id":"7ef9a5ef-b3b2-4ff2-82cc-f161ced30464","system_id":"levelo_inurba_marseille","lat":43.29417,"lon":5.38607,"is_reserved":false,"is_disabled":true,"rental_uris":{"android":"levelo://app?vid=7ef9a5ef-b3b2-4ff2-82cc-f161ced30464","ios":"levelo://app?vid=7ef9a5ef-b3b2-4ff2-82cc-f161ced30464"},"vehicle_type_id":"4","last_reported":1732216039,"current_range_meters":32800,"station_id":"ce4bh2h2rcd13ifvqdh0","pricing_plan_id":"cebpf4jnsgd1na2vs0mg"},{"bike_id":"dc57bcab-0dea-4b16-8998-50f18a69e33a","system_id":"levelo_inurba_marseille","lat":43.2917,"lon":5.3716,"is_reserved":false,"is_disabled":false,"rental_uris":{"android":"levelo://app?vid=dc57bcab-0dea-4b16-8998-50f18a69e33a","ios":"levelo://app?vid=dc57bcab-0dea-4b16-8998-50f18a69e33a"},"vehicle_type_id":"4","last_reported":1732216039,"current_range_meters":7200,"station_id":"ce4bha92rcd13ifvqeh0","pricing_plan_id":"cebpf4jnsgd1na2vs0mg"},{"bike_id":"ca830116-b4f0-46a6-89c4-00566a1ee122","system_id":"levelo_inurba_marseille","lat":43.30355,"lon":5.41879,"is_reserved":false,"is_disabled":false,"rental_uris":{"android":"levelo://app?vid=ca830116-b4f0-46a6-89c4-00566a1ee122","ios":"levelo://app?vid=ca830116-b4f0-46a6-89c4-00566a1ee122"},"vehicle_type_id":"4","last_reported":1732216039,"current_range_meters":8800,"station_id":"ce4bhop2rcd13ifvqh7g","pricing_plan_id":"cebpf4jnsgd1na2vs0mg"},{"bike_id":"3a0abff8-e4e5-422e-b944-1e043dd140db","system_id":"levelo_inurba_marseille","lat":43.31324,"lon":5.39703,"is_reserved":false,"is_disabled":false,"rental_uris":{"android":"levelo://app?vid=3a0abff8-e4e5-422e-b944-1e043dd140db","ios":"levelo://app?vid=3a0abff8-e4e5-422e-b944-1e043dd140db"},"vehicle_type_id":"4","last_reported":1732216039,"current_range_meters":25200,"station_id":"ce4bgvp2rcd13ifvqcu0","pricing_plan_id":"cebpf4jnsgd1na2vs0mg"},{"bike_id":"75259cb8-2ef2-41e2-b012-795dd3ab801f","system_id":"levelo_inurba_marseille","lat":43.29271,"lon":5.40119,"is_reserved":false,"is_disabled":false,"rental_uris":{"android":"levelo://app?vid=75259cb8-2ef2-41e2-b012-795dd3ab801f","ios":"levelo://app?vid=75259cb8-2ef2-41e2-b012-795dd3ab801f"},"vehicle_type_id":"4","last_reported":1732216039,"current_range_meters":22800,"station_id":"ce4bh312rcd13ifvqdk0","pricing_plan_id":"cebpf4jnsgd1na2vs0mg"},{"bike_id":"8d5e8e54-f87c-49b3-8720-7e21078f8fcd","system_id":"levelo_inurba_marseille","lat":43.26484,"lon":5.3955,"is_reserved":false,"is_disabled":false,"rental_uris":{"android":"levelo://app?vid=8d5e8e54-f87c-49b3-8720-7e21078f8fcd","ios":"levelo://app?vid=8d5e8e54-f87c-49b3-8720-7e21078f8fcd"},"vehicle_type_id":"4","last_reported":1732216039,"current_range_meters":36000,"station_id":"ce4bhi12rcd13ifvqfq0","pricing_plan_id":"cebpf4jnsgd1na2vs0mg"},{"bike_id":"844cb461-f780-45f5-88b2-3951b51e6462","system_id":"levelo_inurba_marseille","lat":43.30119,"lon":5.37823,"is_reserved":false,"is_disabled":true,"rental_uris":{"android":"levelo://app?vid=844cb461-f780-45f5-88b2-3951b51e6462","ios":"levelo://app?vid=844cb461-f780-45f5-88b2-3951b51e6462"},"vehicle_type_id":"4","last_reported":1732216039,"current_range_meters":0,"station_id":"","pricing_plan_id":"cebpf4jnsgd1na2vs0mg"},{"bike_id":"2e8a7d9a-3dfd-4a8b-8199-ae086e925e32","system_id":"levelo_inurba_marseille","lat":43.29788,"lon":5.39351,"is_reserved":false,"is_disabled":false,"rental_uris":{"android":"levelo://app?vid=2e8a7d9a-3dfd-4a8b-8199-ae086e925e32","ios":"levelo://app?vid=2e8a7d9a-3dfd-4a8b-8199-ae086e925e32"},"vehicle_type_id":"4","last_reported":1732216039,"current_range_meters":10800,"station_id":"chh1huq6cuj3fo74tm60","pricing_plan_id":"cebpf4jnsgd1na2vs0mg"},{"bike_id":"4c78ef7d-cabb-4d7f-9ca8-654f97757e62","system_id":"levelo_inurba_marseille","lat":43.28346,"lon":5.38108,"is_reserved":false,"is_disabled":false,"rental_uris":{"android":"levelo://app?vid=4c78ef7d-cabb-4d7f-9ca8-654f97757e62","ios":"levelo://app?vid=4c78ef7d-cabb-4d7f-9ca8-654f97757e62"},"vehicle_type_id":"4","last_reported":1732216039,"current_range_meters":4800,"station_id":"ce4bh412rcd13ifvqdr0","pricing_plan_id":"cebpf4jnsgd1na2vs0mg"},{"bike_id":"b3ff0223-9f3b-40c9-ba64-b1074cf27420","system_id":"levelo_inurba_marseille","lat":43.28039,"lon":5.36948,"is_reserved":false,"is_disabled":false,"rental_uris":{"android":"levelo://app?vid=b3ff0223-9f3b-40c9-ba64-b1074cf27420","ios":"levelo://app?vid=b3ff0223-9f3b-40c9-ba64-b1074cf27420"},"vehicle_type_id":"4","last_reported":1732216039,"current_range_meters":38800,"station_id":"ce4bha12rcd13ifvqef0","pricing_plan_id":"cebpf4jnsgd1na2vs0mg"},{"bike_id":"8f7f94ba-f2e9-4b09-b796-810787973207","system_id":"levelo_inurba_marseille","lat":43.24073,"lon":5.3776,"is_reserved":false,"is_disabled":false,"rental_uris":{"android":"levelo://app?vid=8f7f94ba-f2e9-4b09-b796-810787973207","ios":"levelo://app?vid=8f7f94ba-f2e9-4b09-b796-810787973207"},"vehicle_type_id":"4","last_reported":1732216039,"current_range_meters":37600,"station_id":"ce4bhnp2rcd13ifvqgvg","pricing_plan_id":"cebpf4jnsgd1na2vs0mg"},{"bike_id":"786329d4-a364-4aee-bb86-124298f7a780","system_id":"levelo_inurba_marseille","lat":43.25825,"lon":5.39426,"is_reserved":false,"is_disabled":false,"rental_uris":{"android":"levelo://app?vid=786329d4-a364-4aee-bb86-124298f7a780","ios":"levelo://app?vid=786329d4-a364-4aee-bb86-124298f7a780"},"vehicle_type_id":"4","last_reported":1732216039,"current_range_meters":20800,"station_id":"ce4bhip2rcd13ifvqft0","pricing_plan_id":"cebpf4jnsgd1na2vs0mg"},{"bike_id":"41dbd5f3-8a01-4852-94e9-96d27b88c515","system_id":"levelo_inurba_marseille","lat":43.29256,"lon":5.38444,"is_reserved":false,"is_disabled":false,"rental_uris":{"android":"levelo://app?vid=41dbd5f3-8a01-4852-94e9-96d27b88c515","ios":"levelo://app?vid=41dbd5f3-8a01-4852-94e9-96d27b88c515"},"vehicle_type_id":"4","last_reported":1732216039,"current_range_meters":33600,"station_id":"ce4bh692rcd13ifvqea0","pricing_plan_id":"cebpf4jnsgd1na2vs0mg"},{"bike_id":"cdaafd2d-0da1-4fac-9881-15c66a7cd7c0","system_id":"levelo_inurba_marseille","lat":43.23154,"lon":5.4371,"is_reserved":false,"is_disabled":false,"rental_uris":{"android":"levelo://app?vid=cdaafd2d-0da1-4fac-9881-15c66a7cd7c0","ios":"levelo://app?vid=cdaafd2d-0da1-4fac-9881-15c66a7cd7c0"},"vehicle_type_id":"4","last_reported":1732216039,"current_range_meters":38800,"station_id":"ce4bhmp2rcd13ifvqgog","pricing_plan_id":"cebpf4jnsgd1na2vs0mg"},{"bike_id":"c1024338-3a35-4c5d-8621-6f53a0a7a406","system_id":"levelo_inurba_marseille","lat":43.336669,"lon":5.39812,"is_reserved":false,"is_disabled":false,"rental_uris":{"android":"levelo://app?vid=c1024338-3a35-4c5d-8621-6f53a0a7a406","ios":"levelo://app?vid=c1024338-3a35-4c5d-8621-6f53a0a7a406"},"vehicle_type_id":"4","last_reported":1732216039,"current_range_meters":36400,"station_id":"","pricing_plan_id":"cebpf4jnsgd1na2vs0mg"},{"bike_id":"b03f69f7-b71a-4f20-b004-cac08d3d55e5","system_id":"levelo_inurba_marseille","lat":43.32369,"lon":5.38885,"is_reserved":false,"is_disabled":false,"rental_uris":{"android":"levelo://app?vid=b03f69f7-b71a-4f20-b004-cac08d3d55e5","ios":"levelo://app?vid=b03f69f7-b71a-4f20-b004-cac08d3d55e5"},"vehicle_type_id":"4","last_reported":1732216039,"current_range_meters":34000,"station_id":"ce4bhqp2rcd13ifvqhog","pricing_plan_id":"cebpf4jnsgd1na2vs0mg"},{"bike_id":"8d5ad0a8-268e-4afd-be61-7919f93826c7","system_id":"levelo_inurba_marseille","lat":43.29919,"lon":5.3748,"is_reserved":false,"is_disabled":true,"rental_uris":{"android":"levelo://app?vid=8d5ad0a8-268e-4afd-be61-7919f93826c7","ios":"levelo://app?vid=8d5ad0a8-268e-4afd-be61-7919f93826c7"},"vehicle_type_id":"4","last_reported":1732216039,"current_range_meters":32000,"station_id":"ce4bgjh2rcd13ifvqbg0","pricing_plan_id":"cebpf4jnsgd1na2vs0mg"},{"bike_id":"87363c45-56a9-4339-998d-46c1938a7631","system_id":"levelo_inurba_marseille","lat":43.29821,"lon":5.36239,"is_reserved":false,"is_disabled":false,"rental_uris":{"android":"levelo://app?vid=87363c45-56a9-4339-998d-46c1938a7631","ios":"levelo://app?vid=87363c45-56a9-4339-998d-46c1938a7631"},"vehicle_type_id":"4","last_reported":1732216039,"current_range_meters":26000,"station_id":"ce4bgpp2rcd13ifvqc3g","pricing_plan_id":"cebpf4jnsgd1na2vs0mg"},{"bike_id":"e11ae254-fca5-425a-84a6-5d0a24cffa30","system_id":"levelo_inurba_marseille","lat":43.30888,"lon":5.37184,"is_reserved":false,"is_disabled":false,"rental_uris":{"android":"levelo://app?vid=e11ae254-fca5-425a-84a6-5d0a24cffa30","ios":"levelo://app?vid=e11ae254-fca5-425a-84a6-5d0a24cffa30"},"vehicle_type_id":"4","last_reported":1732216039,"current_range_meters":24400,"station_id":"ce4bguh2rcd13ifvqckg","pricing_plan_id":"cebpf4jnsgd1na2vs0mg"},{"bike_id":"a0f25dd1-45fa-41c5-a5e6-d0d0bea9c865","system_id":"levelo_inurba_marseille","lat":43.30889,"lon":5.3966,"is_reserved":false,"is_disabled":false,"rental_uris":{"android":"levelo://app?vid=a0f25dd1-45fa-41c5-a5e6-d0d0bea9c865","ios":"levelo://app?vid=a0f25dd1-45fa-41c5-a5e6-d0d0bea9c865"},"vehicle_type_id":"4","last_reported":1732216039,"current_range_meters":16000,"station_id":"ce4bh012rcd13ifvqcv0","pricing_plan_id":"cebpf4jnsgd1na2vs0mg"},{"bike_id":"e9b4985b-51cc-46a9-b719-a6908d354ba9","system_id":"levelo_inurba_marseille","lat":43.30425,"lon":5.38887,"is_reserved":false,"is_disabled":false,"rental_uris":{"android":"levelo://app?vid=e9b4985b-51cc-46a9-b719-a6908d354ba9","ios":"levelo://app?vid=e9b4985b-51cc-46a9-b719-a6908d354ba9"},"vehicle_type_id":"4","last_reported":1732216039,"current_range_meters":24800,"station_id":"ce4bgk12rcd13ifvqbi0","pricing_plan_id":"cebpf4jnsgd1na2vs0mg"},{"bike_id":"cc14f000-00a3-41df-8a0b-9362e356611d","system_id":"levelo_inurba_marseille","lat":43.29668,"lon":5.37947,"is_reserved":false,"is_disabled":false,"rental_uris":{"android":"levelo://app?vid=cc14f000-00a3-41df-8a0b-9362e356611d","ios":"levelo://app?vid=cc14f000-00a3-41df-8a0b-9362e356611d"},"vehicle_type_id":"4","last_reported":1732216039,"current_range_meters":34000,"station_id":"","pricing_plan_id":"cebpf4jnsgd1na2vs0mg"},{"bike_id":"6db57ac0-b80f-46c4-b072-7d2c447be74d","system_id":"levelo_inurba_marseille","lat":43.25498,"lon":5.3765,"is_reserved":false,"is_disabled":false,"rental_uris":{"android":"levelo://app?vid=6db57ac0-b80f-46c4-b072-7d2c447be74d","ios":"levelo://app?vid=6db57ac0-b80f-46c4-b072-7d2c447be74d"},"vehicle_type_id":"4","last_reported":1732216039,"current_range_meters":34000,"station_id":"ce4bhh12rcd13ifvqff0","pricing_plan_id":"cebpf4jnsgd1na2vs0mg"},{"bike_id":"319639f6-c364-407e-9612-56f449d4d076","system_id":"levelo_inurba_marseille","lat":43.28074,"lon":5.3966,"is_reserved":false,"is_disabled":true,"rental_uris":{"android":"levelo://app?vid=319639f6-c364-407e-9612-56f449d4d076","ios":"levelo://app?vid=319639f6-c364-407e-9612-56f449d4d076"},"vehicle_type_id":"4","last_reported":1732216039,"current_range_meters":0,"station_id":"ce4bho12rcd13ifvqh2g","pricing_plan_id":"cebpf4jnsgd1na2vs0mg"},{"bike_id":"23e1e7fb-447a-4af5-9504-fd7579cff1bf","system_id":"levelo_inurba_marseille","lat":43.29533,"lon":5.38533,"is_reserved":false,"is_disabled":false,"rental_uris":{"android":"levelo://app?vid=23e1e7fb-447a-4af5-9504-fd7579cff1bf","ios":"levelo://app?vid=23e1e7fb-447a-4af5-9504-fd7579cff1bf"},"vehicle_type_id":"4","last_reported":1732216039,"current_range_meters":38800,"station_id":"ce4bgih2rcd13ifvqba0","pricing_plan_id":"cebpf4jnsgd1na2vs0mg"},{"bike_id":"ee55ab7d-0a10-4c6b-aa1e-2b29e5adc161","system_id":"levelo_inurba_marseille","lat":43.29524,"lon":5.39404,"is_reserved":false,"is_disabled":false,"rental_uris":{"android":"levelo://app?vid=ee55ab7d-0a10-4c6b-aa1e-2b29e5adc161","ios":"levelo://app?vid=ee55ab7d-0a10-4c6b-aa1e-2b29e5adc161"},"vehicle_type_id":"4","last_reported":1732216039,"current_range_meters":38800,"station_id":"ce4bh292rcd13ifvqdf0","pricing_plan_id":"cebpf4jnsgd1na2vs0mg"},{"bike_id":"088a2538-8d22-4457-a3ff-0627e1e208df","system_id":"levelo_inurba_marseille","lat":43.29711,"lon":5.36607,"is_reserved":false,"is_disabled":false,"rental_uris":{"android":"levelo://app?vid=088a2538-8d22-4457-a3ff-0627e1e208df","ios":"levelo://app?vid=088a2538-8d22-4457-a3ff-0627e1e208df"},"vehicle_type_id":"4","last_reported":1732216039,"current_range_meters":17200,"station_id":"ce4bgn12rcd13ifvqbt0","pricing_plan_id":"cebpf4jnsgd1na2vs0mg"},{"bike_id":"91cbc128-559e-448a-b570-a00cf2a59da1","system_id":"levelo_inurba_marseille","lat":43.29706,"lon":5.36614,"is_reserved":false,"is_disabled":false,"rental_uris":{"android":"levelo://app?vid=91cbc128-559e-448a-b570-a00cf2a59da1","ios":"levelo://app?vid=91cbc128-559e-448a-b570-a00cf2a59da1"},"vehicle_type_id":"4","last_reported":1732216039,"current_range_meters":3600,"station_id":"ce4bgn12rcd13ifvqbt0","pricing_plan_id":"cebpf4jnsgd1na2vs0mg"},{"bike_id":"11c5ed7c-dad2-4605-8db8-4918d0818190","system_id":"levelo_inurba_marseille","lat":43.31726,"lon":5.42391,"is_reserved":false,"is_disabled":false,"rental_uris":{"android":"levelo://app?vid=11c5ed7c-dad2-4605-8db8-4918d0818190","ios":"levelo://app?vid=11c5ed7c-dad2-4605-8db8-4918d0818190"},"vehicle_type_id":"4","last_reported":1732216039,"current_range_meters":20000,"station_id":"ce4bhp92rcd13ifvqhbg","pricing_plan_id":"cebpf4jnsgd1na2vs0mg"},{"bike_id":"53bbdfc0-4d63-4cc4-86e6-4ec910061123","system_id":"levelo_inurba_marseille","lat":43.30905,"lon":5.36707,"is_reserved":false,"is_disabled":true,"rental_uris":{"android":"levelo://app?vid=53bbdfc0-4d63-4cc4-86e6-4ec910061123","ios":"levelo://app?vid=53bbdfc0-4d63-4cc4-86e6-4ec910061123"},"vehicle_type_id":"4","last_reported":1732216039,"current_range_meters":0,"station_id":"","pricing_plan_id":"cebpf4jnsgd1na2vs0mg"},{"bike_id":"08d62434-66da-4920-8294-dbecd33c63f9","system_id":"levelo_inurba_marseille","lat":43.25718,"lon":5.41115,"is_reserved":false,"is_disabled":false,"rental_uris":{"android":"levelo://app?vid=08d62434-66da-4920-8294-dbecd33c63f9","ios":"levelo://app?vid=08d62434-66da-4920-8294-dbecd33c63f9"},"vehicle_type_id":"4","last_reported":1732216039,"current_range_meters":29600,"station_id":"ce4bhkp2rcd13ifvqgd0","pricing_plan_id":"cebpf4jnsgd1na2vs0mg"},{"bike_id":"6b1a01b6-9796-42dc-848f-5752c5fa7973","system_id":"levelo_inurba_marseille","lat":43.30244,"lon":5.40053,"is_reserved":false,"is_disabled":false,"rental_uris":{"android":"levelo://app?vid=6b1a01b6-9796-42dc-848f-5752c5fa7973","ios":"levelo://app?vid=6b1a01b6-9796-42dc-848f-5752c5fa7973"},"vehicle_type_id":"4","last_reported":1732216039,"current_range_meters":38800,"station_id":"ce4bgvh2rcd13ifvqcs0","pricing_plan_id":"cebpf4jnsgd1na2vs0mg"},{"bike_id":"4a00e718-468a-402b-a531-7524a4b6d689","system_id":"levelo_inurba_marseille","lat":43.28074,"lon":5.39645,"is_reserved":false,"is_disabled":false,"rental_uris":{"android":"levelo://app?vid=4a00e718-468a-402b-a531-7524a4b6d689","ios":"levelo://app?vid=4a00e718-468a-402b-a531-7524a4b6d689"},"vehicle_type_id":"4","last_reported":1732216039,"current_range_meters":14800,"station_id":"ce4bho12rcd13ifvqh2g","pricing_plan_id":"cebpf4jnsgd1na2vs0mg"},{"bike_id":"dfca3e23-b1dd-40cd-81b2-441e5e82c803","system_id":"levelo_inurba_marseille","lat":43.24159,"lon":5.36408,"is_reserved":false,"is_disabled":true,"rental_uris":{"android":"levelo://app?vid=dfca3e23-b1dd-40cd-81b2-441e5e82c803","ios":"levelo://app?vid=dfca3e23-b1dd-40cd-81b2-441e5e82c803"},"vehicle_type_id":"4","last_reported":1732216039,"current_range_meters":0,"station_id":"cpo36qri1sfpv3e86is0","pricing_plan_id":"cebpf4jnsgd1na2vs0mg"},{"bike_id":"3193222d-584b-4642-a1d8-0c04b2309736","system_id":"levelo_inurba_marseille","lat":43.33729,"lon":5.39187,"is_reserved":false,"is_disabled":false,"rental_uris":{"android":"levelo://app?vid=3193222d-584b-4642-a1d8-0c04b2309736","ios":"levelo://app?vid=3193222d-584b-4642-a1d8-0c04b2309736"},"vehicle_type_id":"4","last_reported":1732216039,"current_range_meters":38800,"station_id":"ce4bhr92rcd13ifvqhsg","pricing_plan_id":"cebpf4jnsgd1na2vs0mg"},{"bike_id":"09fd5406-a3f4-429c-ba24-3bf1a01994b6","system_id":"levelo_inurba_marseille","lat":43.30886,"lon":5.39641,"is_reserved":false,"is_disabled":false,"rental_uris":{"android":"levelo://app?vid=09fd5406-a3f4-429c-ba24-3bf1a01994b6","ios":"levelo://app?vid=09fd5406-a3f4-429c-ba24-3bf1a01994b6"},"vehicle_type_id":"4","last_reported":1732216039,"current_range_meters":37600,"station_id":"ce4bh012rcd13ifvqcv0","pricing_plan_id":"cebpf4jnsgd1na2vs0mg"},{"bike_id":"4c63f72e-4568-46b3-852d-655accaab81c","system_id":"levelo_inurba_marseille","lat":43.27992,"lon":5.40015,"is_reserved":false,"is_disabled":false,"rental_uris":{"android":"levelo://app?vid=4c63f72e-4568-46b3-852d-655accaab81c","ios":"levelo://app?vid=4c63f72e-4568-46b3-852d-655accaab81c"},"vehicle_type_id":"4","last_reported":1732216039,"current_range_meters":36000,"station_id":"ce4bho92rcd13ifvqh4g","pricing_plan_id":"cebpf4jnsgd1na2vs0mg"},{"bike_id":"90ae2e22-1468-4352-91f8-e9f8338b265a","system_id":"levelo_inurba_marseille","lat":43.30209,"lon":5.39475,"is_reserved":false,"is_disabled":false,"rental_uris":{"android":"levelo://app?vid=90ae2e22-1468-4352-91f8-e9f8338b265a","ios":"levelo://app?vid=90ae2e22-1468-4352-91f8-e9f8338b265a"},"vehicle_type_id":"4","last_reported":1732216039,"current_range_meters":4000,"station_id":"ce4bh0p2rcd13ifvqd70","pricing_plan_id":"cebpf4jnsgd1na2vs0mg"},{"bike_id":"8589b84f-a31e-4351-9cc0-2535c6ec456f","system_id":"levelo_inurba_marseille","lat":43.26571,"lon":5.39009,"is_reserved":false,"is_disabled":false,"rental_uris":{"android":"levelo://app?vid=8589b84f-a31e-4351-9cc0-2535c6ec456f","ios":"levelo://app?vid=8589b84f-a31e-4351-9cc0-2535c6ec456f"},"vehicle_type_id":"4","last_reported":1732216039,"current_range_meters":3600,"station_id":"ce4bhe12rcd13ifvqf30","pricing_plan_id":"cebpf4jnsgd1na2vs0mg"},{"bike_id":"2f657e5d-b52e-4dfa-81ea-a3f6541c2f83","system_id":"levelo_inurba_marseille","lat":43.293147,"lon":5.371596,"is_reserved":false,"is_disabled":false,"rental_uris":{"android":"levelo://app?vid=2f657e5d-b52e-4dfa-81ea-a3f6541c2f83","ios":"levelo://app?vid=2f657e5d-b52e-4dfa-81ea-a3f6541c2f83"},"vehicle_type_id":"4","last_reported":1732216039,"current_range_meters":30000,"station_id":"ce4bgh92rcd13ifvqb40","pricing_plan_id":"cebpf4jnsgd1na2vs0mg"},{"bike_id":"fe800231-f754-4357-b0e8-21adda987125","system_id":"levelo_inurba_marseille","lat":43.29359,"lon":5.37861,"is_reserved":false,"is_disabled":false,"rental_uris":{"android":"levelo://app?vid=fe800231-f754-4357-b0e8-21adda987125","ios":"levelo://app?vid=fe800231-f754-4357-b0e8-21adda987125"},"vehicle_type_id":"4","last_reported":1732216039,"current_range_meters":2000,"station_id":"ce4bgjh2rcd13ifvqbf0","pricing_plan_id":"cebpf4jnsgd1na2vs0mg"},{"bike_id":"6e32041f-5efd-418e-a6f3-f6d4fd7f9aa2","system_id":"levelo_inurba_marseille","lat":43.29027,"lon":5.37561,"is_reserved":false,"is_disabled":false,"rental_uris":{"android":"levelo://app?vid=6e32041f-5efd-418e-a6f3-f6d4fd7f9aa2","ios":"levelo://app?vid=6e32041f-5efd-418e-a6f3-f6d4fd7f9aa2"},"vehicle_type_id":"4","last_reported":1732216039,"current_range_meters":14800,"station_id":"ce4bh692rcd13ifvqe90","pricing_plan_id":"cebpf4jnsgd1na2vs0mg"},{"bike_id":"fa3219f5-4dff-4643-87f9-3461cb850ce0","system_id":"levelo_inurba_marseille","lat":43.28702,"lon":5.37388,"is_reserved":false,"is_disabled":false,"rental_uris":{"android":"levelo://app?vid=fa3219f5-4dff-4643-87f9-3461cb850ce0","ios":"levelo://app?vid=fa3219f5-4dff-4643-87f9-3461cb850ce0"},"vehicle_type_id":"4","last_reported":1732216039,"current_range_meters":21600,"station_id":"ce4bh3p2rcd13ifvqdq0","pricing_plan_id":"cebpf4jnsgd1na2vs0mg"},{"bike_id":"24618c6c-9f3e-4480-ac3f-3dfa9b93dc99","system_id":"levelo_inurba_marseille","lat":43.27953,"lon":5.41045,"is_reserved":false,"is_disabled":false,"rental_uris":{"android":"levelo://app?vid=24618c6c-9f3e-4480-ac3f-3dfa9b93dc99","ios":"levelo://app?vid=24618c6c-9f3e-4480-ac3f-3dfa9b93dc99"},"vehicle_type_id":"4","last_reported":1732216039,"current_range_meters":38800,"station_id":"ce4bhnp2rcd13ifvqh0g","pricing_plan_id":"cebpf4jnsgd1na2vs0mg"},{"bike_id":"5ed89f6f-8309-464c-9cf5-26d259cada1e","system_id":"levelo_inurba_marseille","lat":43.29805,"lon":5.38105,"is_reserved":false,"is_disabled":false,"rental_uris":{"android":"levelo://app?vid=5ed89f6f-8309-464c-9cf5-26d259cada1e","ios":"levelo://app?vid=5ed89f6f-8309-464c-9cf5-26d259cada1e"},"vehicle_type_id":"4","last_reported":1732216039,"current_range_meters":36000,"station_id":"ce4bgip2rcd13ifvqbb0","pricing_plan_id":"cebpf4jnsgd1na2vs0mg"},{"bike_id":"fdb7a3bc-5896-43f3-98aa-938faed825b8","system_id":"levelo_inurba_marseille","lat":43.29417,"lon":5.38621,"is_reserved":false,"is_disabled":false,"rental_uris":{"android":"levelo://app?vid=fdb7a3bc-5896-43f3-98aa-938faed825b8","ios":"levelo://app?vid=fdb7a3bc-5896-43f3-98aa-938faed825b8"},"vehicle_type_id":"4","last_reported":1732216039,"current_range_meters":38800,"station_id":"ce4bh2h2rcd13ifvqdh0","pricing_plan_id":"cebpf4jnsgd1na2vs0mg"},{"bike_id":"a363a470-11f0-4d88-9a79-86282422bc4f","system_id":"levelo_inurba_marseille","lat":43.2957,"lon":5.39981,"is_reserved":false,"is_disabled":false,"rental_uris":{"android":"levelo://app?vid=a363a470-11f0-4d88-9a79-86282422bc4f","ios":"levelo://app?vid=a363a470-11f0-4d88-9a79-86282422bc4f"},"vehicle_type_id":"4","last_reported":1732216039,"current_range_meters":28800,"station_id":"ce4bh312rcd13ifvqdj0","pricing_plan_id":"cebpf4jnsgd1na2vs0mg"},{"bike_id":"beb72136-9e08-4a80-a39b-b95d75825578","system_id":"levelo_inurba_marseille","lat":43.28728,"lon":5.36083,"is_reserved":false,"is_disabled":false,"rental_uris":{"android":"levelo://app?vid=beb72136-9e08-4a80-a39b-b95d75825578","ios":"levelo://app?vid=beb72136-9e08-4a80-a39b-b95d75825578"},"vehicle_type_id":"4","last_reported":1732216039,"current_range_meters":10800,"station_id":"cki0cbj6b192h4jlfktg","pricing_plan_id":"cebpf4jnsgd1na2vs0mg"},{"bike_id":"547f0bff-d26b-4849-b94d-77cf4a5a869f","system_id":"levelo_inurba_marseille","lat":43.23953,"lon":5.3665,"is_reserved":false,"is_disabled":false,"rental_uris":{"android":"levelo://app?vid=547f0bff-d26b-4849-b94d-77cf4a5a869f","ios":"levelo://app?vid=547f0bff-d26b-4849-b94d-77cf4a5a869f"},"vehicle_type_id":"4","last_reported":1732216039,"current_range_meters":37600,"station_id":"ce4bhi12rcd13ifvqfp0","pricing_plan_id":"cebpf4jnsgd1na2vs0mg"},{"bike_id":"f739db3d-e57b-4e04-a4d0-90a64085c96d","system_id":"levelo_inurba_marseille","lat":43.23964,"lon":5.36618,"is_reserved":false,"is_disabled":false,"rental_uris":{"android":"levelo://app?vid=f739db3d-e57b-4e04-a4d0-90a64085c96d","ios":"levelo://app?vid=f739db3d-e57b-4e04-a4d0-90a64085c96d"},"vehicle_type_id":"4","last_reported":1732216039,"current_range_meters":39200,"station_id":"ce4bhi12rcd13ifvqfp0","pricing_plan_id":"cebpf4jnsgd1na2vs0mg"},{"bike_id":"8b3d80c9-e138-42ae-bec9-c0e291e1c3b8","system_id":"levelo_inurba_marseille","lat":43.30322,"lon":5.40444,"is_reserved":false,"is_disabled":false,"rental_uris":{"android":"levelo://app?vid=8b3d80c9-e138-42ae-bec9-c0e291e1c3b8","ios":"levelo://app?vid=8b3d80c9-e138-42ae-bec9-c0e291e1c3b8"},"vehicle_type_id":"4","last_reported":1732216039,"current_range_meters":3600,"station_id":"ce4bh012rcd13ifvqd10","pricing_plan_id":"cebpf4jnsgd1na2vs0mg"},{"bike_id":"d05b8e41-dec1-4669-af10-1f34995f6bf4","system_id":"levelo_inurba_marseille","lat":43.29037,"lon":5.37556,"is_reserved":false,"is_disabled":true,"rental_uris":{"android":"levelo://app?vid=d05b8e41-dec1-4669-af10-1f34995f6bf4","ios":"levelo://app?vid=d05b8e41-dec1-4669-af10-1f34995f6bf4"},"vehicle_type_id":"4","last_reported":1732216039,"current_range_meters":30800,"station_id":"ce4bh692rcd13ifvqe90","pricing_plan_id":"cebpf4jnsgd1na2vs0mg"},{"bike_id":"d803ba9e-0bd5-4d5a-b6d7-052b86386bb7","system_id":"levelo_inurba_marseille","lat":43.31229,"lon":5.36853,"is_reserved":false,"is_disabled":false,"rental_uris":{"android":"levelo://app?vid=d803ba9e-0bd5-4d5a-b6d7-052b86386bb7","ios":"levelo://app?vid=d803ba9e-0bd5-4d5a-b6d7-052b86386bb7"},"vehicle_type_id":"4","last_reported":1732216039,"current_range_meters":38800,"station_id":"ce4bgl92rcd13ifvqbq0","pricing_plan_id":"cebpf4jnsgd1na2vs0mg"},{"bike_id":"e357a451-4632-428c-b40c-c5324a95fc38","system_id":"levelo_inurba_marseille","lat":43.30155,"lon":5.39874,"is_reserved":false,"is_disabled":false,"rental_uris":{"android":"levelo://app?vid=e357a451-4632-428c-b40c-c5324a95fc38","ios":"levelo://app?vid=e357a451-4632-428c-b40c-c5324a95fc38"},"vehicle_type_id":"4","last_reported":1732216039,"current_range_meters":25600,"station_id":"ce4bh0h2rcd13ifvqd40","pricing_plan_id":"cebpf4jnsgd1na2vs0mg"},{"bike_id":"2f09e16b-7298-426a-b658-c69e68fd6700","system_id":"levelo_inurba_marseille","lat":43.24074,"lon":5.37761,"is_reserved":false,"is_disabled":false,"rental_uris":{"android":"levelo://app?vid=2f09e16b-7298-426a-b658-c69e68fd6700","ios":"levelo://app?vid=2f09e16b-7298-426a-b658-c69e68fd6700"},"vehicle_type_id":"4","last_reported":1732216039,"current_range_meters":31200,"station_id":"ce4bhnp2rcd13ifvqgvg","pricing_plan_id":"cebpf4jnsgd1na2vs0mg"},{"bike_id":"1904e4d6-e1e0-456f-9800-8b0e0e7107b4","system_id":"levelo_inurba_marseille","lat":43.23152,"lon":5.43708,"is_reserved":false,"is_disabled":false,"rental_uris":{"android":"levelo://app?vid=1904e4d6-e1e0-456f-9800-8b0e0e7107b4","ios":"levelo://app?vid=1904e4d6-e1e0-456f-9800-8b0e0e7107b4"},"vehicle_type_id":"4","last_reported":1732216039,"current_range_meters":38800,"station_id":"ce4bhmp2rcd13ifvqgog","pricing_plan_id":"cebpf4jnsgd1na2vs0mg"},{"bike_id":"e94847c3-2715-4d68-85bf-7c27c4a0b356","system_id":"levelo_inurba_marseille","lat":43.2994,"lon":5.36543,"is_reserved":false,"is_disabled":false,"rental_uris":{"android":"levelo://app?vid=e94847c3-2715-4d68-85bf-7c27c4a0b356","ios":"levelo://app?vid=e94847c3-2715-4d68-85bf-7c27c4a0b356"},"vehicle_type_id":"4","last_reported":1732216039,"current_range_meters":21600,"station_id":"ce4bgm92rcd13ifvqbr0","pricing_plan_id":"cebpf4jnsgd1na2vs0mg"},{"bike_id":"f6d7c493-a0c0-43f8-b476-04a60b09fa64","system_id":"levelo_inurba_marseille","lat":43.29776,"lon":5.37118,"is_reserved":false,"is_disabled":false,"rental_uris":{"android":"levelo://app?vid=f6d7c493-a0c0-43f8-b476-04a60b09fa64","ios":"levelo://app?vid=f6d7c493-a0c0-43f8-b476-04a60b09fa64"},"vehicle_type_id":"4","last_reported":1732216039,"current_range_meters":17200,"station_id":"ce4bgop2rcd13ifvqc1g","pricing_plan_id":"cebpf4jnsgd1na2vs0mg"},{"bike_id":"1eff5ce5-2d56-4465-a12c-60db9ec2175a","system_id":"levelo_inurba_marseille","lat":43.22927,"lon":5.35378,"is_reserved":false,"is_disabled":false,"rental_uris":{"android":"levelo://app?vid=1eff5ce5-2d56-4465-a12c-60db9ec2175a","ios":"levelo://app?vid=1eff5ce5-2d56-4465-a12c-60db9ec2175a"},"vehicle_type_id":"4","last_reported":1732216039,"current_range_meters":8800,"station_id":"cpo3532slgdg3j2ikp40","pricing_plan_id":"cebpf4jnsgd1na2vs0mg"},{"bike_id":"ef2921f0-88ee-4f41-89ce-d7c80885a953","system_id":"levelo_inurba_marseille","lat":43.26164,"lon":5.37501,"is_reserved":false,"is_disabled":false,"rental_uris":{"android":"levelo://app?vid=ef2921f0-88ee-4f41-89ce-d7c80885a953","ios":"levelo://app?vid=ef2921f0-88ee-4f41-89ce-d7c80885a953"},"vehicle_type_id":"4","last_reported":1732216039,"current_range_meters":20800,"station_id":"ce4bhnp2rcd13ifvqgvg","pricing_plan_id":"cebpf4jnsgd1na2vs0mg"},{"bike_id":"ce6d46e5-4223-4bce-a0db-85f63ca84039","system_id":"levelo_inurba_marseille","lat":43.30176,"lon":5.40055,"is_reserved":false,"is_disabled":true,"rental_uris":{"android":"levelo://app?vid=ce6d46e5-4223-4bce-a0db-85f63ca84039","ios":"levelo://app?vid=ce6d46e5-4223-4bce-a0db-85f63ca84039"},"vehicle_type_id":"4","last_reported":1732216039,"current_range_meters":1200,"station_id":"","pricing_plan_id":"cebpf4jnsgd1na2vs0mg"},{"bike_id":"dc815649-e3e3-48aa-b0fd-022cdb8ac58a","system_id":"levelo_inurba_marseille","lat":43.32364,"lon":5.38889,"is_reserved":false,"is_disabled":false,"rental_uris":{"android":"levelo://app?vid=dc815649-e3e3-48aa-b0fd-022cdb8ac58a","ios":"levelo://app?vid=dc815649-e3e3-48aa-b0fd-022cdb8ac58a"},"vehicle_type_id":"4","last_reported":1732216039,"current_range_meters":38800,"station_id":"ce4bhqp2rcd13ifvqhog","pricing_plan_id":"cebpf4jnsgd1na2vs0mg"},{"bike_id":"ecd2afd4-fc45-49bc-a395-50c9c0d71a19","system_id":"levelo_inurba_marseille","lat":43.28453,"lon":5.35879,"is_reserved":false,"is_disabled":false,"rental_uris":{"android":"levelo://app?vid=ecd2afd4-fc45-49bc-a395-50c9c0d71a19","ios":"levelo://app?vid=ecd2afd4-fc45-49bc-a395-50c9c0d71a19"},"vehicle_type_id":"4","last_reported":1732216039,"current_range_meters":30800,"station_id":"ce4bhah2rcd13ifvqei0","pricing_plan_id":"cebpf4jnsgd1na2vs0mg"},{"bike_id":"2d47b3db-950f-4054-9b0f-ee0248a0bdb4","system_id":"levelo_inurba_marseille","lat":43.29613,"lon":5.40592,"is_reserved":false,"is_disabled":false,"rental_uris":{"android":"levelo://app?vid=2d47b3db-950f-4054-9b0f-ee0248a0bdb4","ios":"levelo://app?vid=2d47b3db-950f-4054-9b0f-ee0248a0bdb4"},"vehicle_type_id":"4","last_reported":1732216039,"current_range_meters":21600,"station_id":"ce4bh0h2rcd13ifvqd60","pricing_plan_id":"cebpf4jnsgd1na2vs0mg"},{"bike_id":"623cb655-d37d-4c1c-92a3-1dbd173968d5","system_id":"levelo_inurba_marseille","lat":43.26805,"lon":5.4027,"is_reserved":false,"is_disabled":false,"rental_uris":{"android":"levelo://app?vid=623cb655-d37d-4c1c-92a3-1dbd173968d5","ios":"levelo://app?vid=623cb655-d37d-4c1c-92a3-1dbd173968d5"},"vehicle_type_id":"4","last_reported":1732216039,"current_range_meters":20800,"station_id":"ce501612rcd8frsf0b60","pricing_plan_id":"cebpf4jnsgd1na2vs0mg"},{"bike_id":"070a4e3a-ff3e-4b5d-91f1-497d8af78fbb","system_id":"levelo_inurba_marseille","lat":43.26797,"lon":5.40262,"is_reserved":false,"is_disabled":false,"rental_uris":{"android":"levelo://app?vid=070a4e3a-ff3e-4b5d-91f1-497d8af78fbb","ios":"levelo://app?vid=070a4e3a-ff3e-4b5d-91f1-497d8af78fbb"},"vehicle_type_id":"4","last_reported":1732216039,"current_range_meters":38800,"station_id":"ce501612rcd8frsf0b60","pricing_plan_id":"cebpf4jnsgd1na2vs0mg"},{"bike_id":"aea98db4-a137-4735-a7ca-83efcef08276","system_id":"levelo_inurba_marseille","lat":43.27056,"lon":5.4026,"is_reserved":false,"is_disabled":false,"rental_uris":{"android":"levelo://app?vid=aea98db4-a137-4735-a7ca-83efcef08276","ios":"levelo://app?vid=aea98db4-a137-4735-a7ca-83efcef08276"},"vehicle_type_id":"4","last_reported":1732216039,"current_range_meters":9600,"station_id":"ce4bhk92rcd13ifvqgc0","pricing_plan_id":"cebpf4jnsgd1na2vs0mg"},{"bike_id":"a35de2ce-28c4-4e9e-95f8-d6073aaf220f","system_id":"levelo_inurba_marseille","lat":43.27813,"lon":5.40715,"is_reserved":false,"is_disabled":false,"rental_uris":{"android":"levelo://app?vid=a35de2ce-28c4-4e9e-95f8-d6073aaf220f","ios":"levelo://app?vid=a35de2ce-28c4-4e9e-95f8-d6073aaf220f"},"vehicle_type_id":"4","last_reported":1732216039,"current_range_meters":38800,"station_id":"ce4bhnh2rcd13ifvqgtg","pricing_plan_id":"cebpf4jnsgd1na2vs0mg"},{"bike_id":"6831c58a-525c-40f9-b85c-5a0989c239da","system_id":"levelo_inurba_marseille","lat":43.29021,"lon":5.3755,"is_reserved":false,"is_disabled":false,"rental_uris":{"android":"levelo://app?vid=6831c58a-525c-40f9-b85c-5a0989c239da","ios":"levelo://app?vid=6831c58a-525c-40f9-b85c-5a0989c239da"},"vehicle_type_id":"4","last_reported":1732216039,"current_range_meters":37600,"station_id":"ce4bh692rcd13ifvqe90","pricing_plan_id":"cebpf4jnsgd1na2vs0mg"},{"bike_id":"c5597a6a-abd7-4785-9969-6c7f57fbbf25","system_id":"levelo_inurba_marseille","lat":43.27975,"lon":5.38735,"is_reserved":false,"is_disabled":false,"rental_uris":{"android":"levelo://app?vid=c5597a6a-abd7-4785-9969-6c7f57fbbf25","ios":"levelo://app?vid=c5597a6a-abd7-4785-9969-6c7f57fbbf25"},"vehicle_type_id":"4","last_reported":1732216039,"current_range_meters":38800,"station_id":"ce4bhg12rcd13ifvqf80","pricing_plan_id":"cebpf4jnsgd1na2vs0mg"},{"bike_id":"ec0d3a15-4b65-4492-9f88-512c066a3069","system_id":"levelo_inurba_marseille","lat":43.30205,"lon":5.39468,"is_reserved":false,"is_disabled":false,"rental_uris":{"android":"levelo://app?vid=ec0d3a15-4b65-4492-9f88-512c066a3069","ios":"levelo://app?vid=ec0d3a15-4b65-4492-9f88-512c066a3069"},"vehicle_type_id":"4","last_reported":1732216039,"current_range_meters":10000,"station_id":"ce4bh0p2rcd13ifvqd70","pricing_plan_id":"cebpf4jnsgd1na2vs0mg"},{"bike_id":"3fbe99a9-12ca-4576-a9f7-40446b8230d0","system_id":"levelo_inurba_marseille","lat":43.23154,"lon":5.43705,"is_reserved":false,"is_disabled":false,"rental_uris":{"android":"levelo://app?vid=3fbe99a9-12ca-4576-a9f7-40446b8230d0","ios":"levelo://app?vid=3fbe99a9-12ca-4576-a9f7-40446b8230d0"},"vehicle_type_id":"4","last_reported":1732216039,"current_range_meters":38800,"station_id":"ce4bhmp2rcd13ifvqgog","pricing_plan_id":"cebpf4jnsgd1na2vs0mg"},{"bike_id":"e6b37235-d18d-4e5d-80be-a18f4a0ed6fb","system_id":"levelo_inurba_marseille","lat":43.23151,"lon":5.43723,"is_reserved":false,"is_disabled":false,"rental_uris":{"android":"levelo://app?vid=e6b37235-d18d-4e5d-80be-a18f4a0ed6fb","ios":"levelo://app?vid=e6b37235-d18d-4e5d-80be-a18f4a0ed6fb"},"vehicle_type_id":"4","last_reported":1732216039,"current_range_meters":11200,"station_id":"ce4bhmp2rcd13ifvqgog","pricing_plan_id":"cebpf4jnsgd1na2vs0mg"},{"bike_id":"3722e747-8d13-4865-b189-c4aee7764e5f","system_id":"levelo_inurba_marseille","lat":43.30248,"lon":5.40053,"is_reserved":false,"is_disabled":false,"rental_uris":{"android":"levelo://app?vid=3722e747-8d13-4865-b189-c4aee7764e5f","ios":"levelo://app?vid=3722e747-8d13-4865-b189-c4aee7764e5f"},"vehicle_type_id":"4","last_reported":1732216039,"current_range_meters":8400,"station_id":"ce4bgvh2rcd13ifvqcs0","pricing_plan_id":"cebpf4jnsgd1na2vs0mg"},{"bike_id":"350d2c68-8cc3-4c16-b473-096c40f4275a","system_id":"levelo_inurba_marseille","lat":43.31891,"lon":5.37913,"is_reserved":false,"is_disabled":false,"rental_uris":{"android":"levelo://app?vid=350d2c68-8cc3-4c16-b473-096c40f4275a","ios":"levelo://app?vid=350d2c68-8cc3-4c16-b473-096c40f4275a"},"vehicle_type_id":"4","last_reported":1732216039,"current_range_meters":5600,"station_id":"","pricing_plan_id":"cebpf4jnsgd1na2vs0mg"},{"bike_id":"1b359d70-956f-4a6a-92fb-c6c46cee38eb","system_id":"levelo_inurba_marseille","lat":43.27565,"lon":5.38416,"is_reserved":false,"is_disabled":false,"rental_uris":{"android":"levelo://app?vid=1b359d70-956f-4a6a-92fb-c6c46cee38eb","ios":"levelo://app?vid=1b359d70-956f-4a6a-92fb-c6c46cee38eb"},"vehicle_type_id":"4","last_reported":1732216039,"current_range_meters":8400,"station_id":"ce4bhh92rcd13ifvqfi0","pricing_plan_id":"cebpf4jnsgd1na2vs0mg"},{"bike_id":"4857dd4b-d35f-4d5b-ade4-c2b16678cd54","system_id":"levelo_inurba_marseille","lat":43.31536,"lon":5.38029,"is_reserved":false,"is_disabled":false,"rental_uris":{"android":"levelo://app?vid=4857dd4b-d35f-4d5b-ade4-c2b16678cd54","ios":"levelo://app?vid=4857dd4b-d35f-4d5b-ade4-c2b16678cd54"},"vehicle_type_id":"4","last_reported":1732216039,"current_range_meters":30800,"station_id":"ce4bhsp2rcd13ifvqi50","pricing_plan_id":"cebpf4jnsgd1na2vs0mg"},{"bike_id":"42d6fa67-3d3d-427c-a63a-15e267a4a6ee","system_id":"levelo_inurba_marseille","lat":43.27959,"lon":5.4104,"is_reserved":false,"is_disabled":true,"rental_uris":{"android":"levelo://app?vid=42d6fa67-3d3d-427c-a63a-15e267a4a6ee","ios":"levelo://app?vid=42d6fa67-3d3d-427c-a63a-15e267a4a6ee"},"vehicle_type_id":"4","last_reported":1732216039,"current_range_meters":22400,"station_id":"ce4bhnp2rcd13ifvqh0g","pricing_plan_id":"cebpf4jnsgd1na2vs0mg"},{"bike_id":"b629ac5a-9e60-4518-ac33-9c0ef3a34564","system_id":"levelo_inurba_marseille","lat":43.295296,"lon":5.390483,"is_reserved":false,"is_disabled":false,"rental_uris":{"android":"levelo://app?vid=b629ac5a-9e60-4518-ac33-9c0ef3a34564","ios":"levelo://app?vid=b629ac5a-9e60-4518-ac33-9c0ef3a34564"},"vehicle_type_id":"4","last_reported":1732216039,"current_range_meters":38400,"station_id":"ce4bh3p2rcd13ifvqdp0","pricing_plan_id":"cebpf4jnsgd1na2vs0mg"},{"bike_id":"c534a875-bdfb-439d-8fdd-faa757628176","system_id":"levelo_inurba_marseille","lat":43.23964,"lon":5.36639,"is_reserved":false,"is_disabled":false,"rental_uris":{"android":"levelo://app?vid=c534a875-bdfb-439d-8fdd-faa757628176","ios":"levelo://app?vid=c534a875-bdfb-439d-8fdd-faa757628176"},"vehicle_type_id":"4","last_reported":1732216039,"current_range_meters":39200,"station_id":"ce4bhi12rcd13ifvqfp0","pricing_plan_id":"cebpf4jnsgd1na2vs0mg"},{"bike_id":"09041a50-28bc-4280-9d3f-1380af41c491","system_id":"levelo_inurba_marseille","lat":43.2991,"lon":5.38146,"is_reserved":false,"is_disabled":false,"rental_uris":{"android":"levelo://app?vid=09041a50-28bc-4280-9d3f-1380af41c491","ios":"levelo://app?vid=09041a50-28bc-4280-9d3f-1380af41c491"},"vehicle_type_id":"4","last_reported":1732216039,"current_range_meters":38800,"station_id":"ce4bgj12rcd13ifvqbc0","pricing_plan_id":"cebpf4jnsgd1na2vs0mg"},{"bike_id":"1961bc51-373a-428c-96e7-5732c1bba3d1","system_id":"levelo_inurba_marseille","lat":43.32292,"lon":5.38281,"is_reserved":false,"is_disabled":false,"rental_uris":{"android":"levelo://app?vid=1961bc51-373a-428c-96e7-5732c1bba3d1","ios":"levelo://app?vid=1961bc51-373a-428c-96e7-5732c1bba3d1"},"vehicle_type_id":"4","last_reported":1732216039,"current_range_meters":36800,"station_id":"ce4bhr12rcd13ifvqhqg","pricing_plan_id":"cebpf4jnsgd1na2vs0mg"},{"bike_id":"99aa7099-227e-4b1c-86ca-1ad3dcac5426","system_id":"levelo_inurba_marseille","lat":43.29258,"lon":5.409072,"is_reserved":false,"is_disabled":true,"rental_uris":{"android":"levelo://app?vid=99aa7099-227e-4b1c-86ca-1ad3dcac5426","ios":"levelo://app?vid=99aa7099-227e-4b1c-86ca-1ad3dcac5426"},"vehicle_type_id":"4","last_reported":1732216039,"current_range_meters":33200,"station_id":"ce4bh192rcd13ifvqdc0","pricing_plan_id":"cebpf4jnsgd1na2vs0mg"},{"bike_id":"c8d6f4a1-b3a0-4e2d-95a4-1eeb173771ea","system_id":"levelo_inurba_marseille","lat":43.28663,"lon":5.36338,"is_reserved":false,"is_disabled":false,"rental_uris":{"android":"levelo://app?vid=c8d6f4a1-b3a0-4e2d-95a4-1eeb173771ea","ios":"levelo://app?vid=c8d6f4a1-b3a0-4e2d-95a4-1eeb173771ea"},"vehicle_type_id":"4","last_reported":1732216039,"current_range_meters":14400,"station_id":"ce4bhah2rcd13ifvqej0","pricing_plan_id":"cebpf4jnsgd1na2vs0mg"},{"bike_id":"b40ede3d-3df1-4e75-aa7c-f784505f0ad9","system_id":"levelo_inurba_marseille","lat":43.31981,"lon":5.38126,"is_reserved":false,"is_disabled":false,"rental_uris":{"android":"levelo://app?vid=b40ede3d-3df1-4e75-aa7c-f784505f0ad9","ios":"levelo://app?vid=b40ede3d-3df1-4e75-aa7c-f784505f0ad9"},"vehicle_type_id":"4","last_reported":1732216039,"current_range_meters":38800,"station_id":"ce4bhr12rcd13ifvqhpg","pricing_plan_id":"cebpf4jnsgd1na2vs0mg"},{"bike_id":"94778b22-ba52-4096-b5b4-96317763dfce","system_id":"levelo_inurba_marseille","lat":43.25725,"lon":5.4111,"is_reserved":false,"is_disabled":true,"rental_uris":{"android":"levelo://app?vid=94778b22-ba52-4096-b5b4-96317763dfce","ios":"levelo://app?vid=94778b22-ba52-4096-b5b4-96317763dfce"},"vehicle_type_id":"4","last_reported":1732216039,"current_range_meters":1600,"station_id":"ce4bhkp2rcd13ifvqgd0","pricing_plan_id":"cebpf4jnsgd1na2vs0mg"},{"bike_id":"f18a5045-ab35-4048-aa48-991860e858c3","system_id":"levelo_inurba_marseille","lat":43.28569,"lon":5.39496,"is_reserved":false,"is_disabled":false,"rental_uris":{"android":"levelo://app?vid=f18a5045-ab35-4048-aa48-991860e858c3","ios":"levelo://app?vid=f18a5045-ab35-4048-aa48-991860e858c3"},"vehicle_type_id":"4","last_reported":1732216039,"current_range_meters":22400,"station_id":"ce4bh292rcd13ifvqdg0","pricing_plan_id":"cebpf4jnsgd1na2vs0mg"},{"bike_id":"8655756e-f448-4de5-9e0e-9a796ee4da55","system_id":"levelo_inurba_marseille","lat":43.29615,"lon":5.40588,"is_reserved":false,"is_disabled":true,"rental_uris":{"android":"levelo://app?vid=8655756e-f448-4de5-9e0e-9a796ee4da55","ios":"levelo://app?vid=8655756e-f448-4de5-9e0e-9a796ee4da55"},"vehicle_type_id":"4","last_reported":1732216039,"current_range_meters":800,"station_id":"ce4bh0h2rcd13ifvqd60","pricing_plan_id":"cebpf4jnsgd1na2vs0mg"},{"bike_id":"a0c2273e-a159-4555-a5c6-34aebed054fd","system_id":"levelo_inurba_marseille","lat":43.29782,"lon":5.3711,"is_reserved":false,"is_disabled":false,"rental_uris":{"android":"levelo://app?vid=a0c2273e-a159-4555-a5c6-34aebed054fd","ios":"levelo://app?vid=a0c2273e-a159-4555-a5c6-34aebed054fd"},"vehicle_type_id":"4","last_reported":1732216039,"current_range_meters":22800,"station_id":"ce4bgop2rcd13ifvqc1g","pricing_plan_id":"cebpf4jnsgd1na2vs0mg"},{"bike_id":"459cfc16-7dd9-45da-800d-9e6ac665007c","system_id":"levelo_inurba_marseille","lat":43.29863,"lon":5.39731,"is_reserved":false,"is_disabled":false,"rental_uris":{"android":"levelo://app?vid=459cfc16-7dd9-45da-800d-9e6ac665007c","ios":"levelo://app?vid=459cfc16-7dd9-45da-800d-9e6ac665007c"},"vehicle_type_id":"4","last_reported":1732216039,"current_range_meters":20800,"station_id":"ce4bh0h2rcd13ifvqd50","pricing_plan_id":"cebpf4jnsgd1na2vs0mg"},{"bike_id":"8c7096bb-9066-4146-9129-e75a3bdec8f1","system_id":"levelo_inurba_marseille","lat":43.26941,"lon":5.40252,"is_reserved":false,"is_disabled":false,"rental_uris":{"android":"levelo://app?vid=8c7096bb-9066-4146-9129-e75a3bdec8f1","ios":"levelo://app?vid=8c7096bb-9066-4146-9129-e75a3bdec8f1"},"vehicle_type_id":"4","last_reported":1732216039,"current_range_meters":36800,"station_id":"cjm6bp8fraef2m0cb0m0","pricing_plan_id":"cebpf4jnsgd1na2vs0mg"},{"bike_id":"552ae1f9-34eb-4d70-a19b-3616d3661778","system_id":"levelo_inurba_marseille","lat":43.33722,"lon":5.39179,"is_reserved":false,"is_disabled":false,"rental_uris":{"android":"levelo://app?vid=552ae1f9-34eb-4d70-a19b-3616d3661778","ios":"levelo://app?vid=552ae1f9-34eb-4d70-a19b-3616d3661778"},"vehicle_type_id":"4","last_reported":1732216039,"current_range_meters":28400,"station_id":"ce4bhr92rcd13ifvqhsg","pricing_plan_id":"cebpf4jnsgd1na2vs0mg"},{"bike_id":"1bf91585-1655-41ca-aa3f-ff0ba6e8cc52","system_id":"levelo_inurba_marseille","lat":43.33027,"lon":5.3904,"is_reserved":false,"is_disabled":false,"rental_uris":{"android":"levelo://app?vid=1bf91585-1655-41ca-aa3f-ff0ba6e8cc52","ios":"levelo://app?vid=1bf91585-1655-41ca-aa3f-ff0ba6e8cc52"},"vehicle_type_id":"4","last_reported":1732216039,"current_range_meters":38800,"station_id":"ce4bhr92rcd13ifvqhrg","pricing_plan_id":"cebpf4jnsgd1na2vs0mg"},{"bike_id":"d6ce5d9b-9449-4c66-a84c-6e4a5ddd6558","system_id":"levelo_inurba_marseille","lat":43.308025,"lon":5.381415,"is_reserved":false,"is_disabled":false,"rental_uris":{"android":"levelo://app?vid=d6ce5d9b-9449-4c66-a84c-6e4a5ddd6558","ios":"levelo://app?vid=d6ce5d9b-9449-4c66-a84c-6e4a5ddd6558"},"vehicle_type_id":"4","last_reported":1732216039,"current_range_meters":10000,"station_id":"ce4bgt12rcd13ifvqce0","pricing_plan_id":"cebpf4jnsgd1na2vs0mg"},{"bike_id":"6178f234-9efb-45f7-9365-bc8bed638c43","system_id":"levelo_inurba_marseille","lat":43.23185,"lon":5.39985,"is_reserved":false,"is_disabled":false,"rental_uris":{"android":"levelo://app?vid=6178f234-9efb-45f7-9365-bc8bed638c43","ios":"levelo://app?vid=6178f234-9efb-45f7-9365-bc8bed638c43"},"vehicle_type_id":"4","last_reported":1732216039,"current_range_meters":9200,"station_id":"ce4bhn12rcd13ifvqgqg","pricing_plan_id":"cebpf4jnsgd1na2vs0mg"},{"bike_id":"7a942108-16ea-4f98-9d80-82c238759071","system_id":"levelo_inurba_marseille","lat":43.29565,"lon":5.39963,"is_reserved":false,"is_disabled":true,"rental_uris":{"android":"levelo://app?vid=7a942108-16ea-4f98-9d80-82c238759071","ios":"levelo://app?vid=7a942108-16ea-4f98-9d80-82c238759071"},"vehicle_type_id":"4","last_reported":1732216039,"current_range_meters":32400,"station_id":"ce4bh312rcd13ifvqdj0","pricing_plan_id":"cebpf4jnsgd1na2vs0mg"},{"bike_id":"028e5427-36e2-49e1-b3db-260058fffb58","system_id":"levelo_inurba_marseille","lat":43.2558,"lon":5.38236,"is_reserved":false,"is_disabled":false,"rental_uris":{"android":"levelo://app?vid=028e5427-36e2-49e1-b3db-260058fffb58","ios":"levelo://app?vid=028e5427-36e2-49e1-b3db-260058fffb58"},"vehicle_type_id":"4","last_reported":1732216039,"current_range_meters":22000,"station_id":"ce4bhih2rcd13ifvqfs0","pricing_plan_id":"cebpf4jnsgd1na2vs0mg"},{"bike_id":"9d14cc21-2171-4057-a9c5-981a77bde623","system_id":"levelo_inurba_marseille","lat":43.29632,"lon":5.40601,"is_reserved":false,"is_disabled":false,"rental_uris":{"android":"levelo://app?vid=9d14cc21-2171-4057-a9c5-981a77bde623","ios":"levelo://app?vid=9d14cc21-2171-4057-a9c5-981a77bde623"},"vehicle_type_id":"4","last_reported":1732216039,"current_range_meters":23200,"station_id":"ce4bh0h2rcd13ifvqd60","pricing_plan_id":"cebpf4jnsgd1na2vs0mg"},{"bike_id":"1453fddf-c64f-4c02-ace1-55caffeaf55e","system_id":"levelo_inurba_marseille","lat":43.32289,"lon":5.38261,"is_reserved":false,"is_disabled":false,"rental_uris":{"android":"levelo://app?vid=1453fddf-c64f-4c02-ace1-55caffeaf55e","ios":"levelo://app?vid=1453fddf-c64f-4c02-ace1-55caffeaf55e"},"vehicle_type_id":"4","last_reported":1732216039,"current_range_meters":37600,"station_id":"ce4bhr12rcd13ifvqhqg","pricing_plan_id":"cebpf4jnsgd1na2vs0mg"},{"bike_id":"7e17a81f-3b24-49e1-a5fc-e88f9462d78d","system_id":"levelo_inurba_marseille","lat":43.28416,"lon":5.40937,"is_reserved":false,"is_disabled":false,"rental_uris":{"android":"levelo://app?vid=7e17a81f-3b24-49e1-a5fc-e88f9462d78d","ios":"levelo://app?vid=7e17a81f-3b24-49e1-a5fc-e88f9462d78d"},"vehicle_type_id":"4","last_reported":1732216039,"current_range_meters":8400,"station_id":"","pricing_plan_id":"cebpf4jnsgd1na2vs0mg"},{"bike_id":"0d5efe48-32bd-461f-be09-c1d5e2d6ef37","system_id":"levelo_inurba_marseille","lat":43.32364,"lon":5.38886,"is_reserved":false,"is_disabled":false,"rental_uris":{"android":"levelo://app?vid=0d5efe48-32bd-461f-be09-c1d5e2d6ef37","ios":"levelo://app?vid=0d5efe48-32bd-461f-be09-c1d5e2d6ef37"},"vehicle_type_id":"4","last_reported":1732216039,"current_range_meters":36800,"station_id":"ce4bhqp2rcd13ifvqhog","pricing_plan_id":"cebpf4jnsgd1na2vs0mg"},{"bike_id":"9cb25104-a344-44e1-b011-ee0babb96f44","system_id":"levelo_inurba_marseille","lat":43.25581,"lon":5.38239,"is_reserved":false,"is_disabled":false,"rental_uris":{"android":"levelo://app?vid=9cb25104-a344-44e1-b011-ee0babb96f44","ios":"levelo://app?vid=9cb25104-a344-44e1-b011-ee0babb96f44"},"vehicle_type_id":"4","last_reported":1732216039,"current_range_meters":37600,"station_id":"ce4bhih2rcd13ifvqfs0","pricing_plan_id":"cebpf4jnsgd1na2vs0mg"},{"bike_id":"dd0c935a-a0f9-47db-bf28-5ccea77cd3eb","system_id":"levelo_inurba_marseille","lat":43.28707,"lon":5.37388,"is_reserved":false,"is_disabled":false,"rental_uris":{"android":"levelo://app?vid=dd0c935a-a0f9-47db-bf28-5ccea77cd3eb","ios":"levelo://app?vid=dd0c935a-a0f9-47db-bf28-5ccea77cd3eb"},"vehicle_type_id":"4","last_reported":1732216039,"current_range_meters":35200,"station_id":"ce4bh3p2rcd13ifvqdq0","pricing_plan_id":"cebpf4jnsgd1na2vs0mg"},{"bike_id":"3e5e44a0-047e-494d-afeb-778b9a81b0c5","system_id":"levelo_inurba_marseille","lat":43.29035,"lon":5.37566,"is_reserved":false,"is_disabled":false,"rental_uris":{"android":"levelo://app?vid=3e5e44a0-047e-494d-afeb-778b9a81b0c5","ios":"levelo://app?vid=3e5e44a0-047e-494d-afeb-778b9a81b0c5"},"vehicle_type_id":"4","last_reported":1732216039,"current_range_meters":38800,"station_id":"ce4bh692rcd13ifvqe90","pricing_plan_id":"cebpf4jnsgd1na2vs0mg"},{"bike_id":"e55d8d07-0d5b-4450-843b-285eb54fc378","system_id":"levelo_inurba_marseille","lat":43.29254,"lon":5.38432,"is_reserved":false,"is_disabled":false,"rental_uris":{"android":"levelo://app?vid=e55d8d07-0d5b-4450-843b-285eb54fc378","ios":"levelo://app?vid=e55d8d07-0d5b-4450-843b-285eb54fc378"},"vehicle_type_id":"4","last_reported":1732216039,"current_range_meters":27600,"station_id":"ce4bh692rcd13ifvqea0","pricing_plan_id":"cebpf4jnsgd1na2vs0mg"},{"bike_id":"1d4ed392-acab-41a8-a29b-9e2a58415830","system_id":"levelo_inurba_marseille","lat":43.29705,"lon":5.36607,"is_reserved":false,"is_disabled":false,"rental_uris":{"android":"levelo://app?vid=1d4ed392-acab-41a8-a29b-9e2a58415830","ios":"levelo://app?vid=1d4ed392-acab-41a8-a29b-9e2a58415830"},"vehicle_type_id":"4","last_reported":1732216039,"current_range_meters":36400,"station_id":"ce4bgn12rcd13ifvqbt0","pricing_plan_id":"cebpf4jnsgd1na2vs0mg"},{"bike_id":"6a9c5bb1-a14b-4355-b199-4a65364f214b","system_id":"levelo_inurba_marseille","lat":43.30884,"lon":5.39656,"is_reserved":false,"is_disabled":false,"rental_uris":{"android":"levelo://app?vid=6a9c5bb1-a14b-4355-b199-4a65364f214b","ios":"levelo://app?vid=6a9c5bb1-a14b-4355-b199-4a65364f214b"},"vehicle_type_id":"4","last_reported":1732216039,"current_range_meters":9200,"station_id":"ce4bh012rcd13ifvqcv0","pricing_plan_id":"cebpf4jnsgd1na2vs0mg"},{"bike_id":"0aeb214c-fde7-45c8-b020-03be17efcbb9","system_id":"levelo_inurba_marseille","lat":43.33028,"lon":5.39039,"is_reserved":false,"is_disabled":false,"rental_uris":{"android":"levelo://app?vid=0aeb214c-fde7-45c8-b020-03be17efcbb9","ios":"levelo://app?vid=0aeb214c-fde7-45c8-b020-03be17efcbb9"},"vehicle_type_id":"4","last_reported":1732216039,"current_range_meters":28000,"station_id":"ce4bhr92rcd13ifvqhrg","pricing_plan_id":"cebpf4jnsgd1na2vs0mg"},{"bike_id":"796dac1e-b92c-478b-8572-8a73fdc202b8","system_id":"levelo_inurba_marseille","lat":43.24264,"lon":5.37961,"is_reserved":false,"is_disabled":true,"rental_uris":{"android":"levelo://app?vid=796dac1e-b92c-478b-8572-8a73fdc202b8","ios":"levelo://app?vid=796dac1e-b92c-478b-8572-8a73fdc202b8"},"vehicle_type_id":"4","last_reported":1732216039,"current_range_meters":800,"station_id":"","pricing_plan_id":"cebpf4jnsgd1na2vs0mg"},{"bike_id":"755a1e58-5b8e-4c76-b603-686b1a21f371","system_id":"levelo_inurba_marseille","lat":43.29261,"lon":5.38443,"is_reserved":false,"is_disabled":false,"rental_uris":{"android":"levelo://app?vid=755a1e58-5b8e-4c76-b603-686b1a21f371","ios":"levelo://app?vid=755a1e58-5b8e-4c76-b603-686b1a21f371"},"vehicle_type_id":"4","last_reported":1732216039,"current_range_meters":30800,"station_id":"ce4bh692rcd13ifvqea0","pricing_plan_id":"cebpf4jnsgd1na2vs0mg"},{"bike_id":"e4e3495c-9d93-4eff-a4ab-712e0ae01181","system_id":"levelo_inurba_marseille","lat":43.2656,"lon":5.39019,"is_reserved":false,"is_disabled":false,"rental_uris":{"android":"levelo://app?vid=e4e3495c-9d93-4eff-a4ab-712e0ae01181","ios":"levelo://app?vid=e4e3495c-9d93-4eff-a4ab-712e0ae01181"},"vehicle_type_id":"4","last_reported":1732216039,"current_range_meters":38800,"station_id":"ce4bhe12rcd13ifvqf30","pricing_plan_id":"cebpf4jnsgd1na2vs0mg"},{"bike_id":"baa3b828-6b01-4f2b-a24b-5b9dc65d810d","system_id":"levelo_inurba_marseille","lat":43.25863,"lon":5.39897,"is_reserved":false,"is_disabled":false,"rental_uris":{"android":"levelo://app?vid=baa3b828-6b01-4f2b-a24b-5b9dc65d810d","ios":"levelo://app?vid=baa3b828-6b01-4f2b-a24b-5b9dc65d810d"},"vehicle_type_id":"4","last_reported":1732216039,"current_range_meters":38800,"station_id":"ce4bhl92rcd13ifvqghg","pricing_plan_id":"cebpf4jnsgd1na2vs0mg"},{"bike_id":"6f9d97fe-56e5-44ac-89f5-d2357b967e69","system_id":"levelo_inurba_marseille","lat":43.29168,"lon":5.37157,"is_reserved":false,"is_disabled":true,"rental_uris":{"android":"levelo://app?vid=6f9d97fe-56e5-44ac-89f5-d2357b967e69","ios":"levelo://app?vid=6f9d97fe-56e5-44ac-89f5-d2357b967e69"},"vehicle_type_id":"4","last_reported":1732216039,"current_range_meters":1200,"station_id":"ce4bha92rcd13ifvqeh0","pricing_plan_id":"cebpf4jnsgd1na2vs0mg"},{"bike_id":"87ed79be-115d-420a-8ac0-3a78dff69d11","system_id":"levelo_inurba_marseille","lat":43.29517,"lon":5.39051,"is_reserved":false,"is_disabled":false,"rental_uris":{"android":"levelo://app?vid=87ed79be-115d-420a-8ac0-3a78dff69d11","ios":"levelo://app?vid=87ed79be-115d-420a-8ac0-3a78dff69d11"},"vehicle_type_id":"4","last_reported":1732216039,"current_range_meters":20000,"station_id":"ce4bh3p2rcd13ifvqdp0","pricing_plan_id":"cebpf4jnsgd1na2vs0mg"},{"bike_id":"cf8ec0e4-16b7-4f8d-afb1-0c33b9d8cf77","system_id":"levelo_inurba_marseille","lat":43.2978,"lon":5.37097,"is_reserved":false,"is_disabled":false,"rental_uris":{"android":"levelo://app?vid=cf8ec0e4-16b7-4f8d-afb1-0c33b9d8cf77","ios":"levelo://app?vid=cf8ec0e4-16b7-4f8d-afb1-0c33b9d8cf77"},"vehicle_type_id":"4","last_reported":1732216039,"current_range_meters":36800,"station_id":"ce4bgop2rcd13ifvqc1g","pricing_plan_id":"cebpf4jnsgd1na2vs0mg"},{"bike_id":"e5951ee3-4a5a-4ebb-b469-096c5188dfa3","system_id":"levelo_inurba_marseille","lat":43.23192,"lon":5.35556,"is_reserved":false,"is_disabled":false,"rental_uris":{"android":"levelo://app?vid=e5951ee3-4a5a-4ebb-b469-096c5188dfa3","ios":"levelo://app?vid=e5951ee3-4a5a-4ebb-b469-096c5188dfa3"},"vehicle_type_id":"4","last_reported":1732216039,"current_range_meters":32800,"station_id":"ce4bhu92rcd13ifvqi70","pricing_plan_id":"cebpf4jnsgd1na2vs0mg"},{"bike_id":"8d13985d-3bdf-49ab-9373-fe6216716dff","system_id":"levelo_inurba_marseille","lat":43.27447,"lon":5.39023,"is_reserved":false,"is_disabled":false,"rental_uris":{"android":"levelo://app?vid=8d13985d-3bdf-49ab-9373-fe6216716dff","ios":"levelo://app?vid=8d13985d-3bdf-49ab-9373-fe6216716dff"},"vehicle_type_id":"4","last_reported":1732216039,"current_range_meters":34800,"station_id":"","pricing_plan_id":"cebpf4jnsgd1na2vs0mg"},{"bike_id":"4eb054bd-c4ac-4258-9501-39c4dd8c22b7","system_id":"levelo_inurba_marseille","lat":43.24548,"lon":5.39522,"is_reserved":false,"is_disabled":false,"rental_uris":{"android":"levelo://app?vid=4eb054bd-c4ac-4258-9501-39c4dd8c22b7","ios":"levelo://app?vid=4eb054bd-c4ac-4258-9501-39c4dd8c22b7"},"vehicle_type_id":"4","last_reported":1732216039,"current_range_meters":27200,"station_id":"ce4bhlp2rcd13ifvqgjg","pricing_plan_id":"cebpf4jnsgd1na2vs0mg"},{"bike_id":"598543c3-4504-4ea3-976e-b45e767de5ed","system_id":"levelo_inurba_marseille","lat":43.32363,"lon":5.38882,"is_reserved":false,"is_disabled":false,"rental_uris":{"android":"levelo://app?vid=598543c3-4504-4ea3-976e-b45e767de5ed","ios":"levelo://app?vid=598543c3-4504-4ea3-976e-b45e767de5ed"},"vehicle_type_id":"4","last_reported":1732216039,"current_range_meters":38800,"station_id":"ce4bhqp2rcd13ifvqhog","pricing_plan_id":"cebpf4jnsgd1na2vs0mg"},{"bike_id":"4bcc532b-a431-4091-88d9-074547c92839","system_id":"levelo_inurba_marseille","lat":43.30262,"lon":5.40075,"is_reserved":false,"is_disabled":true,"rental_uris":{"android":"levelo://app?vid=4bcc532b-a431-4091-88d9-074547c92839","ios":"levelo://app?vid=4bcc532b-a431-4091-88d9-074547c92839"},"vehicle_type_id":"4","last_reported":1732216039,"current_range_meters":0,"station_id":"ce4bgvh2rcd13ifvqcs0","pricing_plan_id":"cebpf4jnsgd1na2vs0mg"},{"bike_id":"8a0b3bb7-e6ee-41d8-9425-afec6db17651","system_id":"levelo_inurba_marseille","lat":43.29513,"lon":5.39406,"is_reserved":false,"is_disabled":false,"rental_uris":{"android":"levelo://app?vid=8a0b3bb7-e6ee-41d8-9425-afec6db17651","ios":"levelo://app?vid=8a0b3bb7-e6ee-41d8-9425-afec6db17651"},"vehicle_type_id":"4","last_reported":1732216039,"current_range_meters":38800,"station_id":"ce4bh292rcd13ifvqdf0","pricing_plan_id":"cebpf4jnsgd1na2vs0mg"},{"bike_id":"fe1f871c-a7a4-4864-8781-9bd2743909f5","system_id":"levelo_inurba_marseille","lat":43.24475,"lon":5.36912,"is_reserved":false,"is_disabled":true,"rental_uris":{"android":"levelo://app?vid=fe1f871c-a7a4-4864-8781-9bd2743909f5","ios":"levelo://app?vid=fe1f871c-a7a4-4864-8781-9bd2743909f5"},"vehicle_type_id":"4","last_reported":1732216039,"current_range_meters":28800,"station_id":"","pricing_plan_id":"cebpf4jnsgd1na2vs0mg"},{"bike_id":"6c948e9c-d5b3-4fe5-a918-1bd2f7c83b02","system_id":"levelo_inurba_marseille","lat":43.32114,"lon":5.36774,"is_reserved":false,"is_disabled":false,"rental_uris":{"android":"levelo://app?vid=6c948e9c-d5b3-4fe5-a918-1bd2f7c83b02","ios":"levelo://app?vid=6c948e9c-d5b3-4fe5-a918-1bd2f7c83b02"},"vehicle_type_id":"4","last_reported":1732216039,"current_range_meters":4000,"station_id":"ce4bhrh2rcd13ifvqhug","pricing_plan_id":"cebpf4jnsgd1na2vs0mg"},{"bike_id":"d81ab7a3-51c2-4185-a371-62197aa1f5e2","system_id":"levelo_inurba_marseille","lat":43.3128,"lon":5.38675,"is_reserved":false,"is_disabled":false,"rental_uris":{"android":"levelo://app?vid=d81ab7a3-51c2-4185-a371-62197aa1f5e2","ios":"levelo://app?vid=d81ab7a3-51c2-4185-a371-62197aa1f5e2"},"vehicle_type_id":"4","last_reported":1732216039,"current_range_meters":24800,"station_id":"","pricing_plan_id":"cebpf4jnsgd1na2vs0mg"},{"bike_id":"509ce648-fa92-4035-be33-99e66ac25ca5","system_id":"levelo_inurba_marseille","lat":43.29523,"lon":5.39409,"is_reserved":false,"is_disabled":false,"rental_uris":{"android":"levelo://app?vid=509ce648-fa92-4035-be33-99e66ac25ca5","ios":"levelo://app?vid=509ce648-fa92-4035-be33-99e66ac25ca5"},"vehicle_type_id":"4","last_reported":1732216039,"current_range_meters":13600,"station_id":"ce4bh292rcd13ifvqdf0","pricing_plan_id":"cebpf4jnsgd1na2vs0mg"},{"bike_id":"b8ee6a54-6c0b-4a59-9e0b-51a2cc6a9f13","system_id":"levelo_inurba_marseille","lat":43.31329,"lon":5.397,"is_reserved":false,"is_disabled":false,"rental_uris":{"android":"levelo://app?vid=b8ee6a54-6c0b-4a59-9e0b-51a2cc6a9f13","ios":"levelo://app?vid=b8ee6a54-6c0b-4a59-9e0b-51a2cc6a9f13"},"vehicle_type_id":"4","last_reported":1732216039,"current_range_meters":21600,"station_id":"ce4bgvp2rcd13ifvqcu0","pricing_plan_id":"cebpf4jnsgd1na2vs0mg"},{"bike_id":"b056fde8-492d-4de5-92ae-554312873d77","system_id":"levelo_inurba_marseille","lat":43.28452,"lon":5.35878,"is_reserved":false,"is_disabled":false,"rental_uris":{"android":"levelo://app?vid=b056fde8-492d-4de5-92ae-554312873d77","ios":"levelo://app?vid=b056fde8-492d-4de5-92ae-554312873d77"},"vehicle_type_id":"4","last_reported":1732216039,"current_range_meters":38800,"station_id":"ce4bhah2rcd13ifvqei0","pricing_plan_id":"cebpf4jnsgd1na2vs0mg"},{"bike_id":"7073b1ab-16ae-4a15-9f35-08d42cf799ed","system_id":"levelo_inurba_marseille","lat":43.32291,"lon":5.38284,"is_reserved":false,"is_disabled":false,"rental_uris":{"android":"levelo://app?vid=7073b1ab-16ae-4a15-9f35-08d42cf799ed","ios":"levelo://app?vid=7073b1ab-16ae-4a15-9f35-08d42cf799ed"},"vehicle_type_id":"4","last_reported":1732216039,"current_range_meters":37600,"station_id":"ce4bhr12rcd13ifvqhqg","pricing_plan_id":"cebpf4jnsgd1na2vs0mg"},{"bike_id":"51c09c54-d994-4af9-b784-a959f5db1c71","system_id":"levelo_inurba_marseille","lat":43.29582,"lon":5.36736,"is_reserved":false,"is_disabled":false,"rental_uris":{"android":"levelo://app?vid=51c09c54-d994-4af9-b784-a959f5db1c71","ios":"levelo://app?vid=51c09c54-d994-4af9-b784-a959f5db1c71"},"vehicle_type_id":"4","last_reported":1732216039,"current_range_meters":34800,"station_id":"ce4bgph2rcd13ifvqc2g","pricing_plan_id":"cebpf4jnsgd1na2vs0mg"},{"bike_id":"bd00794b-1129-4bdf-848e-d8127829ecbf","system_id":"levelo_inurba_marseille","lat":43.337444,"lon":5.374475,"is_reserved":false,"is_disabled":false,"rental_uris":{"android":"levelo://app?vid=bd00794b-1129-4bdf-848e-d8127829ecbf","ios":"levelo://app?vid=bd00794b-1129-4bdf-848e-d8127829ecbf"},"vehicle_type_id":"4","last_reported":1732216039,"current_range_meters":11600,"station_id":"","pricing_plan_id":"cebpf4jnsgd1na2vs0mg"},{"bike_id":"5c53cfbd-2547-413a-b79a-f8cc3b1ca992","system_id":"levelo_inurba_marseille","lat":43.32111,"lon":5.36769,"is_reserved":false,"is_disabled":false,"rental_uris":{"android":"levelo://app?vid=5c53cfbd-2547-413a-b79a-f8cc3b1ca992","ios":"levelo://app?vid=5c53cfbd-2547-413a-b79a-f8cc3b1ca992"},"vehicle_type_id":"4","last_reported":1732216039,"current_range_meters":20400,"station_id":"ce4bhrh2rcd13ifvqhug","pricing_plan_id":"cebpf4jnsgd1na2vs0mg"},{"bike_id":"10534e6a-f413-4101-b40a-b2fea8df1e0d","system_id":"levelo_inurba_marseille","lat":43.24389,"lon":5.37059,"is_reserved":false,"is_disabled":false,"rental_uris":{"android":"levelo://app?vid=10534e6a-f413-4101-b40a-b2fea8df1e0d","ios":"levelo://app?vid=10534e6a-f413-4101-b40a-b2fea8df1e0d"},"vehicle_type_id":"4","last_reported":1732216039,"current_range_meters":18800,"station_id":"ce4bhhh2rcd13ifvqfk0","pricing_plan_id":"cebpf4jnsgd1na2vs0mg"},{"bike_id":"a10124f4-c389-40e4-8f2e-a96ea7d155cf","system_id":"levelo_inurba_marseille","lat":43.27493,"lon":5.42446,"is_reserved":false,"is_disabled":false,"rental_uris":{"android":"levelo://app?vid=a10124f4-c389-40e4-8f2e-a96ea7d155cf","ios":"levelo://app?vid=a10124f4-c389-40e4-8f2e-a96ea7d155cf"},"vehicle_type_id":"4","last_reported":1732216039,"current_range_meters":11600,"station_id":"ce4bhn92rcd13ifvqgrg","pricing_plan_id":"cebpf4jnsgd1na2vs0mg"},{"bike_id":"1c1e984b-8c6f-41f8-962b-c0a32b999ef8","system_id":"levelo_inurba_marseille","lat":43.3266,"lon":5.40993,"is_reserved":false,"is_disabled":false,"rental_uris":{"android":"levelo://app?vid=1c1e984b-8c6f-41f8-962b-c0a32b999ef8","ios":"levelo://app?vid=1c1e984b-8c6f-41f8-962b-c0a32b999ef8"},"vehicle_type_id":"4","last_reported":1732216039,"current_range_meters":22400,"station_id":"ce4bhpp2rcd13ifvqhgg","pricing_plan_id":"cebpf4jnsgd1na2vs0mg"},{"bike_id":"ced939b2-a2ab-40e5-b140-575509bab6d1","system_id":"levelo_inurba_marseille","lat":43.33023,"lon":5.39037,"is_reserved":false,"is_disabled":false,"rental_uris":{"android":"levelo://app?vid=ced939b2-a2ab-40e5-b140-575509bab6d1","ios":"levelo://app?vid=ced939b2-a2ab-40e5-b140-575509bab6d1"},"vehicle_type_id":"4","last_reported":1732216039,"current_range_meters":20000,"station_id":"ce4bhr92rcd13ifvqhrg","pricing_plan_id":"cebpf4jnsgd1na2vs0mg"},{"bike_id":"4674a573-a71e-41c0-a925-5c021c5e6c25","system_id":"levelo_inurba_marseille","lat":43.29427,"lon":5.37455,"is_reserved":false,"is_disabled":true,"rental_uris":{"android":"levelo://app?vid=4674a573-a71e-41c0-a925-5c021c5e6c25","ios":"levelo://app?vid=4674a573-a71e-41c0-a925-5c021c5e6c25"},"vehicle_type_id":"4","last_reported":1732216039,"current_range_meters":0,"station_id":"","pricing_plan_id":"cebpf4jnsgd1na2vs0mg"},{"bike_id":"25d0a4e8-912f-4592-9f3e-34cb99ab45f8","system_id":"levelo_inurba_marseille","lat":43.24659,"lon":5.3816,"is_reserved":false,"is_disabled":false,"rental_uris":{"android":"levelo://app?vid=25d0a4e8-912f-4592-9f3e-34cb99ab45f8","ios":"levelo://app?vid=25d0a4e8-912f-4592-9f3e-34cb99ab45f8"},"vehicle_type_id":"4","last_reported":1732216039,"current_range_meters":24800,"station_id":"ce4bhih2rcd13ifvqfr0","pricing_plan_id":"cebpf4jnsgd1na2vs0mg"},{"bike_id":"92101dc5-4f1c-4b65-8bd1-54415f893867","system_id":"levelo_inurba_marseille","lat":43.31686,"lon":5.38802,"is_reserved":false,"is_disabled":false,"rental_uris":{"android":"levelo://app?vid=92101dc5-4f1c-4b65-8bd1-54415f893867","ios":"levelo://app?vid=92101dc5-4f1c-4b65-8bd1-54415f893867"},"vehicle_type_id":"4","last_reported":1732216039,"current_range_meters":4400,"station_id":"","pricing_plan_id":"cebpf4jnsgd1na2vs0mg"},{"bike_id":"cde5eb04-35f5-4971-aec4-8004f9b2dcd9","system_id":"levelo_inurba_marseille","lat":43.2828,"lon":5.35063,"is_reserved":false,"is_disabled":true,"rental_uris":{"android":"levelo://app?vid=cde5eb04-35f5-4971-aec4-8004f9b2dcd9","ios":"levelo://app?vid=cde5eb04-35f5-4971-aec4-8004f9b2dcd9"},"vehicle_type_id":"4","last_reported":1732216039,"current_range_meters":0,"station_id":"ce4bhbp2rcd13ifvqerg","pricing_plan_id":"cebpf4jnsgd1na2vs0mg"},{"bike_id":"6960237b-f0ac-461a-800c-c406b9558f2e","system_id":"levelo_inurba_marseille","lat":43.30946,"lon":5.39025,"is_reserved":false,"is_disabled":false,"rental_uris":{"android":"levelo://app?vid=6960237b-f0ac-461a-800c-c406b9558f2e","ios":"levelo://app?vid=6960237b-f0ac-461a-800c-c406b9558f2e"},"vehicle_type_id":"4","last_reported":1732216039,"current_range_meters":18800,"station_id":"ce4bgup2rcd13ifvqco0","pricing_plan_id":"cebpf4jnsgd1na2vs0mg"},{"bike_id":"4024c177-e689-450a-884b-5392fcf58a24","system_id":"levelo_inurba_marseille","lat":43.3229,"lon":5.38261,"is_reserved":false,"is_disabled":false,"rental_uris":{"android":"levelo://app?vid=4024c177-e689-450a-884b-5392fcf58a24","ios":"levelo://app?vid=4024c177-e689-450a-884b-5392fcf58a24"},"vehicle_type_id":"4","last_reported":1732216039,"current_range_meters":9200,"station_id":"ce4bhr12rcd13ifvqhqg","pricing_plan_id":"cebpf4jnsgd1na2vs0mg"},{"bike_id":"bb8864b9-b1c6-4a53-bad2-3712ab26e78c","system_id":"levelo_inurba_marseille","lat":43.28345,"lon":5.38096,"is_reserved":false,"is_disabled":false,"rental_uris":{"android":"levelo://app?vid=bb8864b9-b1c6-4a53-bad2-3712ab26e78c","ios":"levelo://app?vid=bb8864b9-b1c6-4a53-bad2-3712ab26e78c"},"vehicle_type_id":"4","last_reported":1732216039,"current_range_meters":38800,"station_id":"ce4bh412rcd13ifvqdr0","pricing_plan_id":"cebpf4jnsgd1na2vs0mg"},{"bike_id":"83237ff9-1428-4076-8a80-8e455b4bccf3","system_id":"levelo_inurba_marseille","lat":43.30889,"lon":5.39634,"is_reserved":false,"is_disabled":true,"rental_uris":{"android":"levelo://app?vid=83237ff9-1428-4076-8a80-8e455b4bccf3","ios":"levelo://app?vid=83237ff9-1428-4076-8a80-8e455b4bccf3"},"vehicle_type_id":"4","last_reported":1732216039,"current_range_meters":27200,"station_id":"ce4bh012rcd13ifvqcv0","pricing_plan_id":"cebpf4jnsgd1na2vs0mg"},{"bike_id":"3326086a-ed46-4163-8be7-04fb24d4a06c","system_id":"levelo_inurba_marseille","lat":43.24072,"lon":5.37764,"is_reserved":false,"is_disabled":false,"rental_uris":{"android":"levelo://app?vid=3326086a-ed46-4163-8be7-04fb24d4a06c","ios":"levelo://app?vid=3326086a-ed46-4163-8be7-04fb24d4a06c"},"vehicle_type_id":"4","last_reported":1732216039,"current_range_meters":24800,"station_id":"ce4bhnp2rcd13ifvqgvg","pricing_plan_id":"cebpf4jnsgd1na2vs0mg"},{"bike_id":"277e6b16-362e-44a7-9b2e-13c95c312a3d","system_id":"levelo_inurba_marseille","lat":43.32365,"lon":5.38882,"is_reserved":false,"is_disabled":false,"rental_uris":{"android":"levelo://app?vid=277e6b16-362e-44a7-9b2e-13c95c312a3d","ios":"levelo://app?vid=277e6b16-362e-44a7-9b2e-13c95c312a3d"},"vehicle_type_id":"4","last_reported":1732216039,"current_range_meters":16800,"station_id":"ce4bhqp2rcd13ifvqhog","pricing_plan_id":"cebpf4jnsgd1na2vs0mg"},{"bike_id":"2b200acf-9c8d-4734-9cba-5db66a4c2c0f","system_id":"levelo_inurba_marseille","lat":43.29361,"lon":5.37833,"is_reserved":false,"is_disabled":false,"rental_uris":{"android":"levelo://app?vid=2b200acf-9c8d-4734-9cba-5db66a4c2c0f","ios":"levelo://app?vid=2b200acf-9c8d-4734-9cba-5db66a4c2c0f"},"vehicle_type_id":"4","last_reported":1732216039,"current_range_meters":27600,"station_id":"ce4bgjh2rcd13ifvqbf0","pricing_plan_id":"cebpf4jnsgd1na2vs0mg"},{"bike_id":"fe965f82-ff45-41fa-908d-29b279e83fcd","system_id":"levelo_inurba_marseille","lat":43.27564,"lon":5.38432,"is_reserved":false,"is_disabled":false,"rental_uris":{"android":"levelo://app?vid=fe965f82-ff45-41fa-908d-29b279e83fcd","ios":"levelo://app?vid=fe965f82-ff45-41fa-908d-29b279e83fcd"},"vehicle_type_id":"4","last_reported":1732216039,"current_range_meters":18800,"station_id":"ce4bhh92rcd13ifvqfi0","pricing_plan_id":"cebpf4jnsgd1na2vs0mg"},{"bike_id":"617dc22d-09f3-4246-8393-42d51585d9b2","system_id":"levelo_inurba_marseille","lat":43.27204,"lon":5.39188,"is_reserved":false,"is_disabled":true,"rental_uris":{"android":"levelo://app?vid=617dc22d-09f3-4246-8393-42d51585d9b2","ios":"levelo://app?vid=617dc22d-09f3-4246-8393-42d51585d9b2"},"vehicle_type_id":"4","last_reported":1732216039,"current_range_meters":0,"station_id":"ce4bhhp2rcd13ifvqfm0","pricing_plan_id":"cebpf4jnsgd1na2vs0mg"},{"bike_id":"89429ed2-f839-4749-bcb9-3e5230fe3bfb","system_id":"levelo_inurba_marseille","lat":43.33724,"lon":5.39181,"is_reserved":false,"is_disabled":false,"rental_uris":{"android":"levelo://app?vid=89429ed2-f839-4749-bcb9-3e5230fe3bfb","ios":"levelo://app?vid=89429ed2-f839-4749-bcb9-3e5230fe3bfb"},"vehicle_type_id":"4","last_reported":1732216039,"current_range_meters":38800,"station_id":"ce4bhr92rcd13ifvqhsg","pricing_plan_id":"cebpf4jnsgd1na2vs0mg"},{"bike_id":"c8db655f-b3df-4bb3-b835-fb06b95a1b22","system_id":"levelo_inurba_marseille","lat":43.29614,"lon":5.40135,"is_reserved":false,"is_disabled":false,"rental_uris":{"android":"levelo://app?vid=c8db655f-b3df-4bb3-b835-fb06b95a1b22","ios":"levelo://app?vid=c8db655f-b3df-4bb3-b835-fb06b95a1b22"},"vehicle_type_id":"4","last_reported":1732216039,"current_range_meters":14800,"station_id":"","pricing_plan_id":"cebpf4jnsgd1na2vs0mg"},{"bike_id":"3b9a0c02-81b9-4a4c-b7b1-2bf2b9402632","system_id":"levelo_inurba_marseille","lat":43.29765,"lon":5.37104,"is_reserved":false,"is_disabled":true,"rental_uris":{"android":"levelo://app?vid=3b9a0c02-81b9-4a4c-b7b1-2bf2b9402632","ios":"levelo://app?vid=3b9a0c02-81b9-4a4c-b7b1-2bf2b9402632"},"vehicle_type_id":"4","last_reported":1732216039,"current_range_meters":1600,"station_id":"ce4bgop2rcd13ifvqc1g","pricing_plan_id":"cebpf4jnsgd1na2vs0mg"},{"bike_id":"7ec9cb1d-f861-40e1-a695-fcdfe674473f","system_id":"levelo_inurba_marseille","lat":43.26778,"lon":5.39415,"is_reserved":false,"is_disabled":false,"rental_uris":{"android":"levelo://app?vid=7ec9cb1d-f861-40e1-a695-fcdfe674473f","ios":"levelo://app?vid=7ec9cb1d-f861-40e1-a695-fcdfe674473f"},"vehicle_type_id":"4","last_reported":1732216039,"current_range_meters":17200,"station_id":"ce4bhh12rcd13ifvqfg0","pricing_plan_id":"cebpf4jnsgd1na2vs0mg"},{"bike_id":"66328de7-6729-4a1e-8efd-a705c3a499ae","system_id":"levelo_inurba_marseille","lat":43.29541,"lon":5.39392,"is_reserved":false,"is_disabled":false,"rental_uris":{"android":"levelo://app?vid=66328de7-6729-4a1e-8efd-a705c3a499ae","ios":"levelo://app?vid=66328de7-6729-4a1e-8efd-a705c3a499ae"},"vehicle_type_id":"4","last_reported":1732216039,"current_range_meters":32000,"station_id":"ce4bh292rcd13ifvqdf0","pricing_plan_id":"cebpf4jnsgd1na2vs0mg"},{"bike_id":"4e65be74-c011-4848-9fc0-6d8efa1c0e25","system_id":"levelo_inurba_marseille","lat":43.28078,"lon":5.3966,"is_reserved":false,"is_disabled":false,"rental_uris":{"android":"levelo://app?vid=4e65be74-c011-4848-9fc0-6d8efa1c0e25","ios":"levelo://app?vid=4e65be74-c011-4848-9fc0-6d8efa1c0e25"},