{"last_updated":1728158924,"ttl":60,"version":"2.2","data":{"bikes":[{"bike_id":"b3fb91ee-2552-4bb1-b638-e1c008f0fbc7","system_id":"levelo_inurba_marseille","lat":43.260662,"lon":5.393988,"is_reserved":false,"is_disabled":false,"rental_uris":{"android":"levelo://app?vid=b3fb91ee-2552-4bb1-b638-e1c008f0fbc7","ios":"levelo://app?vid=b3fb91ee-2552-4bb1-b638-e1c008f0fbc7"},"vehicle_type_id":"4","last_reported":1728158924,"current_range_meters":38800,"station_id":"ce4bhh92rcd13ifvqfj0","pricing_plan_id":"cebpf4jnsgd1na2vs0mg"},{"bike_id":"3edccbad-c604-40df-acb2-6e9d91b67298","system_id":"levelo_inurba_marseille","lat":43.33772,"lon":5.37453,"is_reserved":false,"is_disabled":false,"rental_uris":{"android":"levelo://app?vid=3edccbad-c604-40df-acb2-6e9d91b67298","ios":"levelo://app?vid=3edccbad-c604-40df-acb2-6e9d91b67298"},"vehicle_type_id":"4","last_reported":1728158924,"current_range_meters":32800,"station_id":"","pricing_plan_id":"cebpf4jnsgd1na2vs0mg"},{"bike_id":"f42ba909-c6af-4d4c-bcad-ee9c6f8944ff","system_id":"levelo_inurba_marseille","lat":43.31747,"lon":5.39022,"is_reserved":false,"is_disabled":false,"rental_uris":{"android":"levelo://app?vid=f42ba909-c6af-4d4c-bcad-ee9c6f8944ff","ios":"levelo://app?vid=f42ba909-c6af-4d4c-bcad-ee9c6f8944ff"},"vehicle_type_id":"4","last_reported":1728158924,"current_range_meters":30000,"station_id":"ce4bhqp2rcd13ifvqhng","pricing_plan_id":"cebpf4jnsgd1na2vs0mg"},{"bike_id":"47837959-e467-4bd7-b4ef-ec242f275fb1","system_id":"levelo_inurba_marseille","lat":43.24652,"lon":5.38168,"is_reserved":false,"is_disabled":false,"rental_uris":{"android":"levelo://app?vid=47837959-e467-4bd7-b4ef-ec242f275fb1","ios":"levelo://app?vid=47837959-e467-4bd7-b4ef-ec242f275fb1"},"vehicle_type_id":"4","last_reported":1728158924,"current_range_meters":12400,"station_id":"ce4bhih2rcd13ifvqfr0","pricing_plan_id":"cebpf4jnsgd1na2vs0mg"},{"bike_id":"a336a620-72f2-4999-8c01-3a9c4cffb926","system_id":"levelo_inurba_marseille","lat":43.29413,"lon":5.38631,"is_reserved":false,"is_disabled":false,"rental_uris":{"android":"levelo://app?vid=a336a620-72f2-4999-8c01-3a9c4cffb926","ios":"levelo://app?vid=a336a620-72f2-4999-8c01-3a9c4cffb926"},"vehicle_type_id":"4","last_reported":1728158924,"current_range_meters":15200,"station_id":"ce4bh2h2rcd13ifvqdh0","pricing_plan_id":"cebpf4jnsgd1na2vs0mg"},{"bike_id":"986c110c-0b3c-41e5-8d83-7364ee2ef9fb","system_id":"levelo_inurba_marseille","lat":43.293,"lon":5.37182,"is_reserved":false,"is_disabled":false,"rental_uris":{"android":"levelo://app?vid=986c110c-0b3c-41e5-8d83-7364ee2ef9fb","ios":"levelo://app?vid=986c110c-0b3c-41e5-8d83-7364ee2ef9fb"},"vehicle_type_id":"4","last_reported":1728158924,"current_range_meters":36000,"station_id":"ce4bgh92rcd13ifvqb40","pricing_plan_id":"cebpf4jnsgd1na2vs0mg"},{"bike_id":"b947f832-0019-4be3-bb84-975f8ab13625","system_id":"levelo_inurba_marseille","lat":43.28939,"lon":5.36643,"is_reserved":false,"is_disabled":false,"rental_uris":{"android":"levelo://app?vid=b947f832-0019-4be3-bb84-975f8ab13625","ios":"levelo://app?vid=b947f832-0019-4be3-bb84-975f8ab13625"},"vehicle_type_id":"4","last_reported":1728158924,"current_range_meters":38800,"station_id":"ce4bhap2rcd13ifvqek0","pricing_plan_id":"cebpf4jnsgd1na2vs0mg"},{"bike_id":"ba0180d4-cf64-48df-8270-0db5fe20d0c7","system_id":"levelo_inurba_marseille","lat":43.29555,"lon":5.42291,"is_reserved":false,"is_disabled":false,"rental_uris":{"android":"levelo://app?vid=ba0180d4-cf64-48df-8270-0db5fe20d0c7","ios":"levelo://app?vid=ba0180d4-cf64-48df-8270-0db5fe20d0c7"},"vehicle_type_id":"4","last_reported":1728158924,"current_range_meters":29600,"station_id":"ce4bhph2rcd13ifvqhdg","pricing_plan_id":"cebpf4jnsgd1na2vs0mg"},{"bike_id":"c8471b08-4010-4b20-8d02-6c4793881b5c","system_id":"levelo_inurba_marseille","lat":43.28453,"lon":5.35891,"is_reserved":false,"is_disabled":false,"rental_uris":{"android":"levelo://app?vid=c8471b08-4010-4b20-8d02-6c4793881b5c","ios":"levelo://app?vid=c8471b08-4010-4b20-8d02-6c4793881b5c"},"vehicle_type_id":"4","last_reported":1728158924,"current_range_meters":15200,"station_id":"ce4bhah2rcd13ifvqei0","pricing_plan_id":"cebpf4jnsgd1na2vs0mg"},{"bike_id":"74f9773c-bc34-4f20-b692-a88fbf26ba94","system_id":"levelo_inurba_marseille","lat":43.28726,"lon":5.36087,"is_reserved":false,"is_disabled":false,"rental_uris":{"android":"levelo://app?vid=74f9773c-bc34-4f20-b692-a88fbf26ba94","ios":"levelo://app?vid=74f9773c-bc34-4f20-b692-a88fbf26ba94"},"vehicle_type_id":"4","last_reported":1728158924,"current_range_meters":16800,"station_id":"cki0cbj6b192h4jlfktg","pricing_plan_id":"cebpf4jnsgd1na2vs0mg"},{"bike_id":"5ef3c31e-c35f-40aa-b8c1-6220ed55888e","system_id":"levelo_inurba_marseille","lat":43.25085,"lon":5.39525,"is_reserved":false,"is_disabled":false,"rental_uris":{"android":"levelo://app?vid=5ef3c31e-c35f-40aa-b8c1-6220ed55888e","ios":"levelo://app?vid=5ef3c31e-c35f-40aa-b8c1-6220ed55888e"},"vehicle_type_id":"4","last_reported":1728158924,"current_range_meters":38000,"station_id":"ce4bhm12rcd13ifvqgkg","pricing_plan_id":"cebpf4jnsgd1na2vs0mg"},{"bike_id":"12552dde-90a3-4ae7-a6f1-24bd3ab71291","system_id":"levelo_inurba_marseille","lat":43.29255,"lon":5.38453,"is_reserved":false,"is_disabled":false,"rental_uris":{"android":"levelo://app?vid=12552dde-90a3-4ae7-a6f1-24bd3ab71291","ios":"levelo://app?vid=12552dde-90a3-4ae7-a6f1-24bd3ab71291"},"vehicle_type_id":"4","last_reported":1728158924,"current_range_meters":38800,"station_id":"ce4bh692rcd13ifvqea0","pricing_plan_id":"cebpf4jnsgd1na2vs0mg"},{"bike_id":"f11dd066-6b94-4d0b-8a87-cb59e5dabda0","system_id":"levelo_inurba_marseille","lat":43.31272,"lon":5.40174,"is_reserved":false,"is_disabled":false,"rental_uris":{"android":"levelo://app?vid=f11dd066-6b94-4d0b-8a87-cb59e5dabda0","ios":"levelo://app?vid=f11dd066-6b94-4d0b-8a87-cb59e5dabda0"},"vehicle_type_id":"4","last_reported":1728158924,"current_range_meters":33200,"station_id":"ce4bh092rcd13ifvqd30","pricing_plan_id":"cebpf4jnsgd1na2vs0mg"},{"bike_id":"e944e2c8-3cc4-4553-bf9c-19fb03b060de","system_id":"levelo_inurba_marseille","lat":43.31219,"lon":5.36871,"is_reserved":false,"is_disabled":false,"rental_uris":{"android":"levelo://app?vid=e944e2c8-3cc4-4553-bf9c-19fb03b060de","ios":"levelo://app?vid=e944e2c8-3cc4-4553-bf9c-19fb03b060de"},"vehicle_type_id":"4","last_reported":1728158924,"current_range_meters":24800,"station_id":"ce4bgl92rcd13ifvqbq0","pricing_plan_id":"cebpf4jnsgd1na2vs0mg"},{"bike_id":"c699d83b-0c7f-460c-8d7c-78b821d44bd9","system_id":"levelo_inurba_marseille","lat":43.29257,"lon":5.38439,"is_reserved":false,"is_disabled":false,"rental_uris":{"android":"levelo://app?vid=c699d83b-0c7f-460c-8d7c-78b821d44bd9","ios":"levelo://app?vid=c699d83b-0c7f-460c-8d7c-78b821d44bd9"},"vehicle_type_id":"4","last_reported":1728158924,"current_range_meters":24800,"station_id":"ce4bh692rcd13ifvqea0","pricing_plan_id":"cebpf4jnsgd1na2vs0mg"},{"bike_id":"9221852e-d7d8-460a-8693-86e29ac1cae4","system_id":"levelo_inurba_marseille","lat":43.2951,"lon":5.39045,"is_reserved":false,"is_disabled":false,"rental_uris":{"android":"levelo://app?vid=9221852e-d7d8-460a-8693-86e29ac1cae4","ios":"levelo://app?vid=9221852e-d7d8-460a-8693-86e29ac1cae4"},"vehicle_type_id":"4","last_reported":1728158924,"current_range_meters":8800,"station_id":"ce4bh3p2rcd13ifvqdp0","pricing_plan_id":"cebpf4jnsgd1na2vs0mg"},{"bike_id":"a013fc0e-79f4-4493-bf94-abf4fcb0118b","system_id":"levelo_inurba_marseille","lat":43.28103,"lon":5.3785,"is_reserved":false,"is_disabled":false,"rental_uris":{"android":"levelo://app?vid=a013fc0e-79f4-4493-bf94-abf4fcb0118b","ios":"levelo://app?vid=a013fc0e-79f4-4493-bf94-abf4fcb0118b"},"vehicle_type_id":"4","last_reported":1728158924,"current_range_meters":6800,"station_id":"ce4bha12rcd13ifvqee0","pricing_plan_id":"cebpf4jnsgd1na2vs0mg"},{"bike_id":"8f568ac0-6709-4e1b-976a-2ebd965361a0","system_id":"levelo_inurba_marseille","lat":43.31528,"lon":5.38035,"is_reserved":false,"is_disabled":false,"rental_uris":{"android":"levelo://app?vid=8f568ac0-6709-4e1b-976a-2ebd965361a0","ios":"levelo://app?vid=8f568ac0-6709-4e1b-976a-2ebd965361a0"},"vehicle_type_id":"4","last_reported":1728158924,"current_range_meters":8000,"station_id":"ce4bhsp2rcd13ifvqi50","pricing_plan_id":"cebpf4jnsgd1na2vs0mg"},{"bike_id":"03ebdfef-60b9-4383-b780-f6e10ef5dff9","system_id":"levelo_inurba_marseille","lat":43.33751,"lon":5.37444,"is_reserved":false,"is_disabled":false,"rental_uris":{"android":"levelo://app?vid=03ebdfef-60b9-4383-b780-f6e10ef5dff9","ios":"levelo://app?vid=03ebdfef-60b9-4383-b780-f6e10ef5dff9"},"vehicle_type_id":"4","last_reported":1728158924,"current_range_meters":31200,"station_id":"","pricing_plan_id":"cebpf4jnsgd1na2vs0mg"},{"bike_id":"d0407b42-222e-4d3c-9817-252a776b6aa8","system_id":"levelo_inurba_marseille","lat":43.30884,"lon":5.39664,"is_reserved":false,"is_disabled":false,"rental_uris":{"android":"levelo://app?vid=d0407b42-222e-4d3c-9817-252a776b6aa8","ios":"levelo://app?vid=d0407b42-222e-4d3c-9817-252a776b6aa8"},"vehicle_type_id":"4","last_reported":1728158924,"current_range_meters":28400,"station_id":"ce4bh012rcd13ifvqcv0","pricing_plan_id":"cebpf4jnsgd1na2vs0mg"},{"bike_id":"8c4ede2a-8479-4951-912b-e9104b176599","system_id":"levelo_inurba_marseille","lat":43.33723,"lon":5.39198,"is_reserved":false,"is_disabled":false,"rental_uris":{"android":"levelo://app?vid=8c4ede2a-8479-4951-912b-e9104b176599","ios":"levelo://app?vid=8c4ede2a-8479-4951-912b-e9104b176599"},"vehicle_type_id":"4","last_reported":1728158924,"current_range_meters":10800,"station_id":"ce4bhr92rcd13ifvqhsg","pricing_plan_id":"cebpf4jnsgd1na2vs0mg"},{"bike_id":"fdf15607-daec-4f3c-841b-8f65f98f31c9","system_id":"levelo_inurba_marseille","lat":43.30795,"lon":5.43528,"is_reserved":false,"is_disabled":false,"rental_uris":{"android":"levelo://app?vid=fdf15607-daec-4f3c-841b-8f65f98f31c9","ios":"levelo://app?vid=fdf15607-daec-4f3c-841b-8f65f98f31c9"},"vehicle_type_id":"4","last_reported":1728158924,"current_range_meters":16400,"station_id":"ce4bhph2rcd13ifvqheg","pricing_plan_id":"cebpf4jnsgd1na2vs0mg"},{"bike_id":"4018fa26-9a2a-4214-af21-76b3667a940b","system_id":"levelo_inurba_marseille","lat":43.33767,"lon":5.37435,"is_reserved":false,"is_disabled":false,"rental_uris":{"android":"levelo://app?vid=4018fa26-9a2a-4214-af21-76b3667a940b","ios":"levelo://app?vid=4018fa26-9a2a-4214-af21-76b3667a940b"},"vehicle_type_id":"4","last_reported":1728158924,"current_range_meters":31200,"station_id":"","pricing_plan_id":"cebpf4jnsgd1na2vs0mg"},{"bike_id":"1d5f3bf5-914c-4a81-acb7-4de7dd97966a","system_id":"levelo_inurba_marseille","lat":43.29415,"lon":5.38634,"is_reserved":false,"is_disabled":false,"rental_uris":{"android":"levelo://app?vid=1d5f3bf5-914c-4a81-acb7-4de7dd97966a","ios":"levelo://app?vid=1d5f3bf5-914c-4a81-acb7-4de7dd97966a"},"vehicle_type_id":"4","last_reported":1728158924,"current_range_meters":9200,"station_id":"ce4bh2h2rcd13ifvqdh0","pricing_plan_id":"cebpf4jnsgd1na2vs0mg"},{"bike_id":"ac7477e2-647f-4698-b2f1-05ac6bd7ca79","system_id":"levelo_inurba_marseille","lat":43.2738,"lon":5.36257,"is_reserved":false,"is_disabled":false,"rental_uris":{"android":"levelo://app?vid=ac7477e2-647f-4698-b2f1-05ac6bd7ca79","ios":"levelo://app?vid=ac7477e2-647f-4698-b2f1-05ac6bd7ca79"},"vehicle_type_id":"4","last_reported":1728158924,"current_range_meters":36800,"station_id":"ce4bhbh2rcd13ifvqeo0","pricing_plan_id":"cebpf4jnsgd1na2vs0mg"},{"bike_id":"54d09a39-e79d-434c-8a05-a8f2660c6a94","system_id":"levelo_inurba_marseille","lat":43.298501,"lon":5.436181,"is_reserved":false,"is_disabled":false,"rental_uris":{"android":"levelo://app?vid=54d09a39-e79d-434c-8a05-a8f2660c6a94","ios":"levelo://app?vid=54d09a39-e79d-434c-8a05-a8f2660c6a94"},"vehicle_type_id":"4","last_reported":1728158924,"current_range_meters":8400,"station_id":"ce4bhpp2rcd13ifvqhfg","pricing_plan_id":"cebpf4jnsgd1na2vs0mg"},{"bike_id":"69b330ae-1dc4-4893-985f-b03e6f6b07e8","system_id":"levelo_inurba_marseille","lat":43.31226,"lon":5.36868,"is_reserved":false,"is_disabled":false,"rental_uris":{"android":"levelo://app?vid=69b330ae-1dc4-4893-985f-b03e6f6b07e8","ios":"levelo://app?vid=69b330ae-1dc4-4893-985f-b03e6f6b07e8"},"vehicle_type_id":"4","last_reported":1728158924,"current_range_meters":23200,"station_id":"ce4bgl92rcd13ifvqbq0","pricing_plan_id":"cebpf4jnsgd1na2vs0mg"},{"bike_id":"40e38b6a-2bd7-4c7d-a0d0-e49ed511d27f","system_id":"levelo_inurba_marseille","lat":43.31494,"lon":5.37314,"is_reserved":false,"is_disabled":false,"rental_uris":{"android":"levelo://app?vid=40e38b6a-2bd7-4c7d-a0d0-e49ed511d27f","ios":"levelo://app?vid=40e38b6a-2bd7-4c7d-a0d0-e49ed511d27f"},"vehicle_type_id":"4","last_reported":1728158924,"current_range_meters":23200,"station_id":"ce4bgt12rcd13ifvqcd0","pricing_plan_id":"cebpf4jnsgd1na2vs0mg"},{"bike_id":"a24313a9-d696-47d6-9d0b-13e5f7b5f217","system_id":"levelo_inurba_marseille","lat":43.2953,"lon":5.38552,"is_reserved":false,"is_disabled":false,"rental_uris":{"android":"levelo://app?vid=a24313a9-d696-47d6-9d0b-13e5f7b5f217","ios":"levelo://app?vid=a24313a9-d696-47d6-9d0b-13e5f7b5f217"},"vehicle_type_id":"4","last_reported":1728158924,"current_range_meters":29600,"station_id":"ce4bgih2rcd13ifvqba0","pricing_plan_id":"cebpf4jnsgd1na2vs0mg"},{"bike_id":"5096075b-0c23-4100-8bda-25361317bd60","system_id":"levelo_inurba_marseille","lat":43.29006,"lon":5.35614,"is_reserved":false,"is_disabled":false,"rental_uris":{"android":"levelo://app?vid=5096075b-0c23-4100-8bda-25361317bd60","ios":"levelo://app?vid=5096075b-0c23-4100-8bda-25361317bd60"},"vehicle_type_id":"4","last_reported":1728158924,"current_range_meters":36800,"station_id":"ce4bhb92rcd13ifvqen0","pricing_plan_id":"cebpf4jnsgd1na2vs0mg"},{"bike_id":"97ebf4ed-723a-4564-b098-06140a17da26","system_id":"levelo_inurba_marseille","lat":43.30263,"lon":5.40079,"is_reserved":false,"is_disabled":false,"rental_uris":{"android":"levelo://app?vid=97ebf4ed-723a-4564-b098-06140a17da26","ios":"levelo://app?vid=97ebf4ed-723a-4564-b098-06140a17da26"},"vehicle_type_id":"4","last_reported":1728158924,"current_range_meters":26800,"station_id":"ce4bgvh2rcd13ifvqcs0","pricing_plan_id":"cebpf4jnsgd1na2vs0mg"},{"bike_id":"491813ec-5bcd-4eda-acb2-c01ccb4e9894","system_id":"levelo_inurba_marseille","lat":43.33763,"lon":5.3744,"is_reserved":false,"is_disabled":false,"rental_uris":{"android":"levelo://app?vid=491813ec-5bcd-4eda-acb2-c01ccb4e9894","ios":"levelo://app?vid=491813ec-5bcd-4eda-acb2-c01ccb4e9894"},"vehicle_type_id":"4","last_reported":1728158924,"current_range_meters":33600,"station_id":"","pricing_plan_id":"cebpf4jnsgd1na2vs0mg"},{"bike_id":"64898bb4-a4f6-4dc5-bfd9-5c9d1e7b0768","system_id":"levelo_inurba_marseille","lat":43.28938,"lon":5.39632,"is_reserved":false,"is_disabled":false,"rental_uris":{"android":"levelo://app?vid=64898bb4-a4f6-4dc5-bfd9-5c9d1e7b0768","ios":"levelo://app?vid=64898bb4-a4f6-4dc5-bfd9-5c9d1e7b0768"},"vehicle_type_id":"4","last_reported":1728158924,"current_range_meters":1600,"station_id":"ce4bh3h2rcd13ifvqdn0","pricing_plan_id":"cebpf4jnsgd1na2vs0mg"},{"bike_id":"c56a7f6d-1c51-4af0-848a-53ce2371dbf4","system_id":"levelo_inurba_marseille","lat":43.30584,"lon":5.39359,"is_reserved":false,"is_disabled":false,"rental_uris":{"android":"levelo://app?vid=c56a7f6d-1c51-4af0-848a-53ce2371dbf4","ios":"levelo://app?vid=c56a7f6d-1c51-4af0-848a-53ce2371dbf4"},"vehicle_type_id":"4","last_reported":1728158924,"current_range_meters":16800,"station_id":"ce4bhp92rcd13ifvqhbg","pricing_plan_id":"cebpf4jnsgd1na2vs0mg"},{"bike_id":"baba7691-81ff-4c7d-90d9-c89eba9696cb","system_id":"levelo_inurba_marseille","lat":43.25932,"lon":5.40924,"is_reserved":false,"is_disabled":false,"rental_uris":{"android":"levelo://app?vid=baba7691-81ff-4c7d-90d9-c89eba9696cb","ios":"levelo://app?vid=baba7691-81ff-4c7d-90d9-c89eba9696cb"},"vehicle_type_id":"4","last_reported":1728158924,"current_range_meters":35600,"station_id":"ce4bhm92rcd13ifvqglg","pricing_plan_id":"cebpf4jnsgd1na2vs0mg"},{"bike_id":"6427f48f-0f7d-442d-b2b0-c25d5d7e382f","system_id":"levelo_inurba_marseille","lat":43.29534,"lon":5.38553,"is_reserved":false,"is_disabled":false,"rental_uris":{"android":"levelo://app?vid=6427f48f-0f7d-442d-b2b0-c25d5d7e382f","ios":"levelo://app?vid=6427f48f-0f7d-442d-b2b0-c25d5d7e382f"},"vehicle_type_id":"4","last_reported":1728158924,"current_range_meters":31200,"station_id":"ce4bgih2rcd13ifvqba0","pricing_plan_id":"cebpf4jnsgd1na2vs0mg"},{"bike_id":"adece041-c588-4e40-8c29-85d4912aed9d","system_id":"levelo_inurba_marseille","lat":43.2707,"lon":5.42282,"is_reserved":false,"is_disabled":false,"rental_uris":{"android":"levelo://app?vid=adece041-c588-4e40-8c29-85d4912aed9d","ios":"levelo://app?vid=adece041-c588-4e40-8c29-85d4912aed9d"},"vehicle_type_id":"4","last_reported":1728158924,"current_range_meters":35600,"station_id":"ce4bhk92rcd13ifvqgb0","pricing_plan_id":"cebpf4jnsgd1na2vs0mg"},{"bike_id":"5cdb568d-e06d-4868-a035-8a83bc4fda55","system_id":"levelo_inurba_marseille","lat":43.2747,"lon":5.40899,"is_reserved":false,"is_disabled":false,"rental_uris":{"android":"levelo://app?vid=5cdb568d-e06d-4868-a035-8a83bc4fda55","ios":"levelo://app?vid=5cdb568d-e06d-4868-a035-8a83bc4fda55"},"vehicle_type_id":"4","last_reported":1728158924,"current_range_meters":37600,"station_id":"","pricing_plan_id":"cebpf4jnsgd1na2vs0mg"},{"bike_id":"2eecc969-58aa-4895-aa6e-67a0a5e1437f","system_id":"levelo_inurba_marseille","lat":43.29269,"lon":5.38451,"is_reserved":false,"is_disabled":false,"rental_uris":{"android":"levelo://app?vid=2eecc969-58aa-4895-aa6e-67a0a5e1437f","ios":"levelo://app?vid=2eecc969-58aa-4895-aa6e-67a0a5e1437f"},"vehicle_type_id":"4","last_reported":1728158924,"current_range_meters":27200,"station_id":"ce4bh692rcd13ifvqea0","pricing_plan_id":"cebpf4jnsgd1na2vs0mg"},{"bike_id":"d23ddbe4-840b-4d6d-8e13-a20922334a77","system_id":"levelo_inurba_marseille","lat":43.32478,"lon":5.36565,"is_reserved":false,"is_disabled":false,"rental_uris":{"android":"levelo://app?vid=d23ddbe4-840b-4d6d-8e13-a20922334a77","ios":"levelo://app?vid=d23ddbe4-840b-4d6d-8e13-a20922334a77"},"vehicle_type_id":"4","last_reported":1728158924,"current_range_meters":26800,"station_id":"ce4bhs12rcd13ifvqhvg","pricing_plan_id":"cebpf4jnsgd1na2vs0mg"},{"bike_id":"0e3cf241-7527-4f7c-ae18-430d3dc049bd","system_id":"levelo_inurba_marseille","lat":43.31343,"lon":5.3672,"is_reserved":false,"is_disabled":false,"rental_uris":{"android":"levelo://app?vid=0e3cf241-7527-4f7c-ae18-430d3dc049bd","ios":"levelo://app?vid=0e3cf241-7527-4f7c-ae18-430d3dc049bd"},"vehicle_type_id":"4","last_reported":1728158924,"current_range_meters":38800,"station_id":"ce4bgr92rcd13ifvqc6g","pricing_plan_id":"cebpf4jnsgd1na2vs0mg"},{"bike_id":"4af55307-045f-4c66-a045-a91d88bb4c16","system_id":"levelo_inurba_marseille","lat":43.33768,"lon":5.37435,"is_reserved":false,"is_disabled":false,"rental_uris":{"android":"levelo://app?vid=4af55307-045f-4c66-a045-a91d88bb4c16","ios":"levelo://app?vid=4af55307-045f-4c66-a045-a91d88bb4c16"},"vehicle_type_id":"4","last_reported":1728158924,"current_range_meters":35200,"station_id":"","pricing_plan_id":"cebpf4jnsgd1na2vs0mg"},{"bike_id":"90a09094-6396-4924-a91b-071b4893d12c","system_id":"levelo_inurba_marseille","lat":43.30321,"lon":5.36908,"is_reserved":false,"is_disabled":false,"rental_uris":{"android":"levelo://app?vid=90a09094-6396-4924-a91b-071b4893d12c","ios":"levelo://app?vid=90a09094-6396-4924-a91b-071b4893d12c"},"vehicle_type_id":"4","last_reported":1728158924,"current_range_meters":38800,"station_id":"ce4bgqh2rcd13ifvqc5g","pricing_plan_id":"cebpf4jnsgd1na2vs0mg"},{"bike_id":"67f54536-42f1-4c4f-9ebe-5c62b3e5335e","system_id":"levelo_inurba_marseille","lat":43.292,"lon":5.39322,"is_reserved":false,"is_disabled":false,"rental_uris":{"android":"levelo://app?vid=67f54536-42f1-4c4f-9ebe-5c62b3e5335e","ios":"levelo://app?vid=67f54536-42f1-4c4f-9ebe-5c62b3e5335e"},"vehicle_type_id":"4","last_reported":1728158924,"current_range_meters":14800,"station_id":"ce4bh192rcd13ifvqdd0","pricing_plan_id":"cebpf4jnsgd1na2vs0mg"},{"bike_id":"068f5cf8-0245-4579-be7c-07da2b81e056","system_id":"levelo_inurba_marseille","lat":43.3122,"lon":5.36857,"is_reserved":false,"is_disabled":false,"rental_uris":{"android":"levelo://app?vid=068f5cf8-0245-4579-be7c-07da2b81e056","ios":"levelo://app?vid=068f5cf8-0245-4579-be7c-07da2b81e056"},"vehicle_type_id":"4","last_reported":1728158924,"current_range_meters":38800,"station_id":"ce4bgl92rcd13ifvqbq0","pricing_plan_id":"cebpf4jnsgd1na2vs0mg"},{"bike_id":"13a35d1a-1c21-4cdd-9282-17040c700716","system_id":"levelo_inurba_marseille","lat":43.3253,"lon":5.41436,"is_reserved":false,"is_disabled":false,"rental_uris":{"android":"levelo://app?vid=13a35d1a-1c21-4cdd-9282-17040c700716","ios":"levelo://app?vid=13a35d1a-1c21-4cdd-9282-17040c700716"},"vehicle_type_id":"4","last_reported":1728158924,"current_range_meters":37600,"station_id":"ce4bhq12rcd13ifvqhhg","pricing_plan_id":"cebpf4jnsgd1na2vs0mg"},{"bike_id":"c6975053-f013-4898-a343-cefaa1311a0d","system_id":"levelo_inurba_marseille","lat":43.31349,"lon":5.36708,"is_reserved":false,"is_disabled":false,"rental_uris":{"android":"levelo://app?vid=c6975053-f013-4898-a343-cefaa1311a0d","ios":"levelo://app?vid=c6975053-f013-4898-a343-cefaa1311a0d"},"vehicle_type_id":"4","last_reported":1728158924,"current_range_meters":24800,"station_id":"ce4bgr92rcd13ifvqc6g","pricing_plan_id":"cebpf4jnsgd1na2vs0mg"},{"bike_id":"ec6e251e-99d1-4ac4-a075-545dbd029bdc","system_id":"levelo_inurba_marseille","lat":43.2891,"lon":5.362,"is_reserved":false,"is_disabled":false,"rental_uris":{"android":"levelo://app?vid=ec6e251e-99d1-4ac4-a075-545dbd029bdc","ios":"levelo://app?vid=ec6e251e-99d1-4ac4-a075-545dbd029bdc"},"vehicle_type_id":"4","last_reported":1728158924,"current_range_meters":32800,"station_id":"","pricing_plan_id":"cebpf4jnsgd1na2vs0mg"},{"bike_id":"32de8690-8902-45d9-9261-1a5a54055b39","system_id":"levelo_inurba_marseille","lat":43.33019,"lon":5.39041,"is_reserved":false,"is_disabled":false,"rental_uris":{"android":"levelo://app?vid=32de8690-8902-45d9-9261-1a5a54055b39","ios":"levelo://app?vid=32de8690-8902-45d9-9261-1a5a54055b39"},"vehicle_type_id":"4","last_reported":1728158924,"current_range_meters":4400,"station_id":"ce4bhr92rcd13ifvqhrg","pricing_plan_id":"cebpf4jnsgd1na2vs0mg"},{"bike_id":"e66044a1-4193-4916-9449-695155c3661b","system_id":"levelo_inurba_marseille","lat":43.26571,"lon":5.39019,"is_reserved":false,"is_disabled":false,"rental_uris":{"android":"levelo://app?vid=e66044a1-4193-4916-9449-695155c3661b","ios":"levelo://app?vid=e66044a1-4193-4916-9449-695155c3661b"},"vehicle_type_id":"4","last_reported":1728158924,"current_range_meters":38800,"station_id":"ce4bhe12rcd13ifvqf30","pricing_plan_id":"cebpf4jnsgd1na2vs0mg"},{"bike_id":"f41af709-4741-45bf-a75a-e5e2fdef89e3","system_id":"levelo_inurba_marseille","lat":43.29058,"lon":5.37049,"is_reserved":false,"is_disabled":false,"rental_uris":{"android":"levelo://app?vid=f41af709-4741-45bf-a75a-e5e2fdef89e3","ios":"levelo://app?vid=f41af709-4741-45bf-a75a-e5e2fdef89e3"},"vehicle_type_id":"4","last_reported":1728158924,"current_range_meters":34800,"station_id":"cki0cbj6b192h4jlfktg","pricing_plan_id":"cebpf4jnsgd1na2vs0mg"},{"bike_id":"a887ba90-692b-45be-8b2b-7f037ec1bb0a","system_id":"levelo_inurba_marseille","lat":43.31391,"lon":5.36801,"is_reserved":false,"is_disabled":false,"rental_uris":{"android":"levelo://app?vid=a887ba90-692b-45be-8b2b-7f037ec1bb0a","ios":"levelo://app?vid=a887ba90-692b-45be-8b2b-7f037ec1bb0a"},"vehicle_type_id":"4","last_reported":1728158924,"current_range_meters":4000,"station_id":"","pricing_plan_id":"cebpf4jnsgd1na2vs0mg"},{"bike_id":"6523aff1-cbeb-4846-9c84-ae894f2096ad","system_id":"levelo_inurba_marseille","lat":43.30534,"lon":5.36706,"is_reserved":false,"is_disabled":false,"rental_uris":{"android":"levelo://app?vid=6523aff1-cbeb-4846-9c84-ae894f2096ad","ios":"levelo://app?vid=6523aff1-cbeb-4846-9c84-ae894f2096ad"},"vehicle_type_id":"4","last_reported":1728158924,"current_range_meters":8800,"station_id":"ce4bgrp2rcd13ifvqc9g","pricing_plan_id":"cebpf4jnsgd1na2vs0mg"},{"bike_id":"05e91b2b-394d-4e7b-bd01-a0850f91f325","system_id":"levelo_inurba_marseille","lat":43.2927,"lon":5.36851,"is_reserved":false,"is_disabled":false,"rental_uris":{"android":"levelo://app?vid=05e91b2b-394d-4e7b-bd01-a0850f91f325","ios":"levelo://app?vid=05e91b2b-394d-4e7b-bd01-a0850f91f325"},"vehicle_type_id":"4","last_reported":1728158924,"current_range_meters":19200,"station_id":"ce4bhbp2rcd13ifvqesg","pricing_plan_id":"cebpf4jnsgd1na2vs0mg"},{"bike_id":"9e5f1dc2-ac99-4b59-970e-cec33ab8ff7f","system_id":"levelo_inurba_marseille","lat":43.29421,"lon":5.3863,"is_reserved":false,"is_disabled":false,"rental_uris":{"android":"levelo://app?vid=9e5f1dc2-ac99-4b59-970e-cec33ab8ff7f","ios":"levelo://app?vid=9e5f1dc2-ac99-4b59-970e-cec33ab8ff7f"},"vehicle_type_id":"4","last_reported":1728158924,"current_range_meters":6400,"station_id":"ce4bh2h2rcd13ifvqdh0","pricing_plan_id":"cebpf4jnsgd1na2vs0mg"},{"bike_id":"7de10673-7556-4ebc-be9c-6081f83d90b6","system_id":"levelo_inurba_marseille","lat":43.29423,"lon":5.38629,"is_reserved":false,"is_disabled":false,"rental_uris":{"android":"levelo://app?vid=7de10673-7556-4ebc-be9c-6081f83d90b6","ios":"levelo://app?vid=7de10673-7556-4ebc-be9c-6081f83d90b6"},"vehicle_type_id":"4","last_reported":1728158924,"current_range_meters":36000,"station_id":"ce4bh2h2rcd13ifvqdh0","pricing_plan_id":"cebpf4jnsgd1na2vs0mg"},{"bike_id":"c5eceda9-4c11-4f19-8da2-b68f55801b52","system_id":"levelo_inurba_marseille","lat":43.26943,"lon":5.40245,"is_reserved":false,"is_disabled":false,"rental_uris":{"android":"levelo://app?vid=c5eceda9-4c11-4f19-8da2-b68f55801b52","ios":"levelo://app?vid=c5eceda9-4c11-4f19-8da2-b68f55801b52"},"vehicle_type_id":"4","last_reported":1728158924,"current_range_meters":11600,"station_id":"cjm6bp8fraef2m0cb0m0","pricing_plan_id":"cebpf4jnsgd1na2vs0mg"},{"bike_id":"2223b6cf-60c6-41bf-b1cd-7d09873a1aa5","system_id":"levelo_inurba_marseille","lat":43.26059,"lon":5.39395,"is_reserved":false,"is_disabled":false,"rental_uris":{"android":"levelo://app?vid=2223b6cf-60c6-41bf-b1cd-7d09873a1aa5","ios":"levelo://app?vid=2223b6cf-60c6-41bf-b1cd-7d09873a1aa5"},"vehicle_type_id":"4","last_reported":1728158924,"current_range_meters":38800,"station_id":"ce4bhh92rcd13ifvqfj0","pricing_plan_id":"cebpf4jnsgd1na2vs0mg"},{"bike_id":"0f9e7142-5ac2-4150-b979-3f488b428273","system_id":"levelo_inurba_marseille","lat":43.29885,"lon":5.38904,"is_reserved":false,"is_disabled":false,"rental_uris":{"android":"levelo://app?vid=0f9e7142-5ac2-4150-b979-3f488b428273","ios":"levelo://app?vid=0f9e7142-5ac2-4150-b979-3f488b428273"},"vehicle_type_id":"4","last_reported":1728158924,"current_range_meters":8400,"station_id":"ce4bh392rcd13ifvqdl0","pricing_plan_id":"cebpf4jnsgd1na2vs0mg"},{"bike_id":"ac74826f-ea36-44dd-bc51-41bc585cbe75","system_id":"levelo_inurba_marseille","lat":43.27903,"lon":5.38011,"is_reserved":false,"is_disabled":false,"rental_uris":{"android":"levelo://app?vid=ac74826f-ea36-44dd-bc51-41bc585cbe75","ios":"levelo://app?vid=ac74826f-ea36-44dd-bc51-41bc585cbe75"},"vehicle_type_id":"4","last_reported":1728158924,"current_range_meters":8400,"station_id":"ce4bhf92rcd13ifvqf50","pricing_plan_id":"cebpf4jnsgd1na2vs0mg"},{"bike_id":"a5ca7d7b-527d-4c46-884e-7b2741cb6a77","system_id":"levelo_inurba_marseille","lat":43.30594,"lon":5.39355,"is_reserved":false,"is_disabled":false,"rental_uris":{"android":"levelo://app?vid=a5ca7d7b-527d-4c46-884e-7b2741cb6a77","ios":"levelo://app?vid=a5ca7d7b-527d-4c46-884e-7b2741cb6a77"},"vehicle_type_id":"4","last_reported":1728158924,"current_range_meters":12800,"station_id":"ce4bh0p2rcd13ifvqd80","pricing_plan_id":"cebpf4jnsgd1na2vs0mg"},{"bike_id":"02cd3234-58f2-4ff2-98a5-85e842914a35","system_id":"levelo_inurba_marseille","lat":43.29888,"lon":5.38908,"is_reserved":false,"is_disabled":false,"rental_uris":{"android":"levelo://app?vid=02cd3234-58f2-4ff2-98a5-85e842914a35","ios":"levelo://app?vid=02cd3234-58f2-4ff2-98a5-85e842914a35"},"vehicle_type_id":"4","last_reported":1728158924,"current_range_meters":23200,"station_id":"ce4bh392rcd13ifvqdl0","pricing_plan_id":"cebpf4jnsgd1na2vs0mg"},{"bike_id":"682c8c83-ca16-4ef7-9e5a-cfc439b078e7","system_id":"levelo_inurba_marseille","lat":43.29262,"lon":5.38451,"is_reserved":false,"is_disabled":false,"rental_uris":{"android":"levelo://app?vid=682c8c83-ca16-4ef7-9e5a-cfc439b078e7","ios":"levelo://app?vid=682c8c83-ca16-4ef7-9e5a-cfc439b078e7"},"vehicle_type_id":"4","last_reported":1728158924,"current_range_meters":30800,"station_id":"ce4bh692rcd13ifvqea0","pricing_plan_id":"cebpf4jnsgd1na2vs0mg"},{"bike_id":"57c90383-a224-4faf-a2a2-ca550af06794","system_id":"levelo_inurba_marseille","lat":43.314962,"lon":5.373239,"is_reserved":false,"is_disabled":false,"rental_uris":{"android":"levelo://app?vid=57c90383-a224-4faf-a2a2-ca550af06794","ios":"levelo://app?vid=57c90383-a224-4faf-a2a2-ca550af06794"},"vehicle_type_id":"4","last_reported":1728158924,"current_range_meters":38800,"station_id":"ce4bgt12rcd13ifvqcd0","pricing_plan_id":"cebpf4jnsgd1na2vs0mg"},{"bike_id":"d3c15151-7bb8-4b85-9324-0b7078d625ba","system_id":"levelo_inurba_marseille","lat":43.29037,"lon":5.37571,"is_reserved":false,"is_disabled":false,"rental_uris":{"android":"levelo://app?vid=d3c15151-7bb8-4b85-9324-0b7078d625ba","ios":"levelo://app?vid=d3c15151-7bb8-4b85-9324-0b7078d625ba"},"vehicle_type_id":"4","last_reported":1728158924,"current_range_meters":32400,"station_id":"ce4bh692rcd13ifvqe90","pricing_plan_id":"cebpf4jnsgd1na2vs0mg"},{"bike_id":"03d02266-2c3b-42f6-a26f-c640f09f0b90","system_id":"levelo_inurba_marseille","lat":43.258232,"lon":5.394366,"is_reserved":false,"is_disabled":false,"rental_uris":{"android":"levelo://app?vid=03d02266-2c3b-42f6-a26f-c640f09f0b90","ios":"levelo://app?vid=03d02266-2c3b-42f6-a26f-c640f09f0b90"},"vehicle_type_id":"4","last_reported":1728158924,"current_range_meters":19200,"station_id":"ce4bhip2rcd13ifvqft0","pricing_plan_id":"cebpf4jnsgd1na2vs0mg"},{"bike_id":"65c59103-0b30-4b4d-8ddd-ed1931c22228","system_id":"levelo_inurba_marseille","lat":43.30349,"lon":5.41886,"is_reserved":false,"is_disabled":false,"rental_uris":{"android":"levelo://app?vid=65c59103-0b30-4b4d-8ddd-ed1931c22228","ios":"levelo://app?vid=65c59103-0b30-4b4d-8ddd-ed1931c22228"},"vehicle_type_id":"4","last_reported":1728158924,"current_range_meters":11200,"station_id":"ce4bhop2rcd13ifvqh7g","pricing_plan_id":"cebpf4jnsgd1na2vs0mg"},{"bike_id":"92ae8fa7-b2d2-4016-b34a-bb85b5be4c44","system_id":"levelo_inurba_marseille","lat":43.29788,"lon":5.40401,"is_reserved":false,"is_disabled":false,"rental_uris":{"android":"levelo://app?vid=92ae8fa7-b2d2-4016-b34a-bb85b5be4c44","ios":"levelo://app?vid=92ae8fa7-b2d2-4016-b34a-bb85b5be4c44"},"vehicle_type_id":"4","last_reported":1728158924,"current_range_meters":8400,"station_id":"ce4bh112rcd13ifvqd90","pricing_plan_id":"cebpf4jnsgd1na2vs0mg"},{"bike_id":"f1a31902-bf1f-4725-91b5-b9d9818e5407","system_id":"levelo_inurba_marseille","lat":43.29555,"lon":5.42293,"is_reserved":false,"is_disabled":false,"rental_uris":{"android":"levelo://app?vid=f1a31902-bf1f-4725-91b5-b9d9818e5407","ios":"levelo://app?vid=f1a31902-bf1f-4725-91b5-b9d9818e5407"},"vehicle_type_id":"4","last_reported":1728158924,"current_range_meters":32800,"station_id":"ce4bhph2rcd13ifvqhdg","pricing_plan_id":"cebpf4jnsgd1na2vs0mg"},{"bike_id":"3de7ac25-2b73-448c-93c4-42716d8448a8","system_id":"levelo_inurba_marseille","lat":43.3021,"lon":5.39466,"is_reserved":false,"is_disabled":false,"rental_uris":{"android":"levelo://app?vid=3de7ac25-2b73-448c-93c4-42716d8448a8","ios":"levelo://app?vid=3de7ac25-2b73-448c-93c4-42716d8448a8"},"vehicle_type_id":"4","last_reported":1728158924,"current_range_meters":28400,"station_id":"ce4bh0p2rcd13ifvqd70","pricing_plan_id":"cebpf4jnsgd1na2vs0mg"},{"bike_id":"6c322f07-a888-438c-9551-0fd0b089a768","system_id":"levelo_inurba_marseille","lat":43.30091,"lon":5.39087,"is_reserved":false,"is_disabled":false,"rental_uris":{"android":"levelo://app?vid=6c322f07-a888-438c-9551-0fd0b089a768","ios":"levelo://app?vid=6c322f07-a888-438c-9551-0fd0b089a768"},"vehicle_type_id":"4","last_reported":1728158924,"current_range_meters":7200,"station_id":"ce4bh192rcd13ifvqdb0","pricing_plan_id":"cebpf4jnsgd1na2vs0mg"},{"bike_id":"681d9b9c-51d0-4ad2-a52f-3ccb4dee33ad","system_id":"levelo_inurba_marseille","lat":43.30925,"lon":5.40147,"is_reserved":false,"is_disabled":false,"rental_uris":{"android":"levelo://app?vid=681d9b9c-51d0-4ad2-a52f-3ccb4dee33ad","ios":"levelo://app?vid=681d9b9c-51d0-4ad2-a52f-3ccb4dee33ad"},"vehicle_type_id":"4","last_reported":1728158924,"current_range_meters":30800,"station_id":"ce4bgvp2rcd13ifvqct0","pricing_plan_id":"cebpf4jnsgd1na2vs0mg"},{"bike_id":"a2c8698c-53c9-42f1-b828-a650d3ca6988","system_id":"levelo_inurba_marseille","lat":43.29969,"lon":5.38495,"is_reserved":false,"is_disabled":false,"rental_uris":{"android":"levelo://app?vid=a2c8698c-53c9-42f1-b828-a650d3ca6988","ios":"levelo://app?vid=a2c8698c-53c9-42f1-b828-a650d3ca6988"},"vehicle_type_id":"4","last_reported":1728158924,"current_range_meters":32000,"station_id":"ce4bgj92rcd13ifvqbd0","pricing_plan_id":"cebpf4jnsgd1na2vs0mg"},{"bike_id":"490889b1-cee9-4892-9db5-299333956c90","system_id":"levelo_inurba_marseille","lat":43.34141,"lon":5.40912,"is_reserved":false,"is_disabled":false,"rental_uris":{"android":"levelo://app?vid=490889b1-cee9-4892-9db5-299333956c90","ios":"levelo://app?vid=490889b1-cee9-4892-9db5-299333956c90"},"vehicle_type_id":"4","last_reported":1728158924,"current_range_meters":37600,"station_id":"ce4bhqh2rcd13ifvqhlg","pricing_plan_id":"cebpf4jnsgd1na2vs0mg"},{"bike_id":"0aaa5910-75ac-47ee-bd8a-1006e609a763","system_id":"levelo_inurba_marseille","lat":43.28931,"lon":5.36638,"is_reserved":false,"is_disabled":false,"rental_uris":{"android":"levelo://app?vid=0aaa5910-75ac-47ee-bd8a-1006e609a763","ios":"levelo://app?vid=0aaa5910-75ac-47ee-bd8a-1006e609a763"},"vehicle_type_id":"4","last_reported":1728158924,"current_range_meters":38800,"station_id":"ce4bhap2rcd13ifvqek0","pricing_plan_id":"cebpf4jnsgd1na2vs0mg"},{"bike_id":"d06126c8-219a-462d-a808-5e7f6036d39e","system_id":"levelo_inurba_marseille","lat":43.29628,"lon":5.40599,"is_reserved":false,"is_disabled":false,"rental_uris":{"android":"levelo://app?vid=d06126c8-219a-462d-a808-5e7f6036d39e","ios":"levelo://app?vid=d06126c8-219a-462d-a808-5e7f6036d39e"},"vehicle_type_id":"4","last_reported":1728158924,"current_range_meters":38400,"station_id":"ce4bh0h2rcd13ifvqd60","pricing_plan_id":"cebpf4jnsgd1na2vs0mg"},{"bike_id":"6b9a91ec-91de-48ab-ab57-2edc5d204765","system_id":"levelo_inurba_marseille","lat":43.27495,"lon":5.42458,"is_reserved":false,"is_disabled":false,"rental_uris":{"android":"levelo://app?vid=6b9a91ec-91de-48ab-ab57-2edc5d204765","ios":"levelo://app?vid=6b9a91ec-91de-48ab-ab57-2edc5d204765"},"vehicle_type_id":"4","last_reported":1728158924,"current_range_meters":3600,"station_id":"ce4bhn92rcd13ifvqgrg","pricing_plan_id":"cebpf4jnsgd1na2vs0mg"},{"bike_id":"256fa177-60ee-45a2-a2aa-de47baeac3b4","system_id":"levelo_inurba_marseille","lat":43.32063,"lon":5.41559,"is_reserved":false,"is_disabled":false,"rental_uris":{"android":"levelo://app?vid=256fa177-60ee-45a2-a2aa-de47baeac3b4","ios":"levelo://app?vid=256fa177-60ee-45a2-a2aa-de47baeac3b4"},"vehicle_type_id":"4","last_reported":1728158924,"current_range_meters":39200,"station_id":"ce4bhq92rcd13ifvqhkg","pricing_plan_id":"cebpf4jnsgd1na2vs0mg"},{"bike_id":"428f793c-4121-423c-8663-6edf254533e0","system_id":"levelo_inurba_marseille","lat":43.27567,"lon":5.38424,"is_reserved":false,"is_disabled":false,"rental_uris":{"android":"levelo://app?vid=428f793c-4121-423c-8663-6edf254533e0","ios":"levelo://app?vid=428f793c-4121-423c-8663-6edf254533e0"},"vehicle_type_id":"4","last_reported":1728158924,"current_range_meters":13600,"station_id":"ce4bhh92rcd13ifvqfi0","pricing_plan_id":"cebpf4jnsgd1na2vs0mg"},{"bike_id":"e2374ffd-c3d3-4c84-832c-de4b34154ac4","system_id":"levelo_inurba_marseille","lat":43.30879,"lon":5.37195,"is_reserved":false,"is_disabled":false,"rental_uris":{"android":"levelo://app?vid=e2374ffd-c3d3-4c84-832c-de4b34154ac4","ios":"levelo://app?vid=e2374ffd-c3d3-4c84-832c-de4b34154ac4"},"vehicle_type_id":"4","last_reported":1728158924,"current_range_meters":38800,"station_id":"ce4bguh2rcd13ifvqckg","pricing_plan_id":"cebpf4jnsgd1na2vs0mg"},{"bike_id":"02b73067-a219-4c9a-994b-0e1034a9ee2e","system_id":"levelo_inurba_marseille","lat":43.29072,"lon":5.35917,"is_reserved":false,"is_disabled":false,"rental_uris":{"android":"levelo://app?vid=02b73067-a219-4c9a-994b-0e1034a9ee2e","ios":"levelo://app?vid=02b73067-a219-4c9a-994b-0e1034a9ee2e"},"vehicle_type_id":"4","last_reported":1728158924,"current_range_meters":29600,"station_id":"ce4bha92rcd13ifvqeg0","pricing_plan_id":"cebpf4jnsgd1na2vs0mg"},{"bike_id":"8b84af80-d3a4-478e-b641-468e3cced42b","system_id":"levelo_inurba_marseille","lat":43.26945,"lon":5.40259,"is_reserved":false,"is_disabled":false,"rental_uris":{"android":"levelo://app?vid=8b84af80-d3a4-478e-b641-468e3cced42b","ios":"levelo://app?vid=8b84af80-d3a4-478e-b641-468e3cced42b"},"vehicle_type_id":"4","last_reported":1728158924,"current_range_meters":38800,"station_id":"cjm6bp8fraef2m0cb0m0","pricing_plan_id":"cebpf4jnsgd1na2vs0mg"},{"bike_id":"0d6d212f-db46-43f1-b2da-b53e0520ba2c","system_id":"levelo_inurba_marseille","lat":43.30192,"lon":5.36631,"is_reserved":false,"is_disabled":false,"rental_uris":{"android":"levelo://app?vid=0d6d212f-db46-43f1-b2da-b53e0520ba2c","ios":"levelo://app?vid=0d6d212f-db46-43f1-b2da-b53e0520ba2c"},"vehicle_type_id":"4","last_reported":1728158924,"current_range_meters":8000,"station_id":"ce4bgrh2rcd13ifvqc8g","pricing_plan_id":"cebpf4jnsgd1na2vs0mg"},{"bike_id":"c1672db8-4a57-4e1c-b80e-7c613618cbe0","system_id":"levelo_inurba_marseille","lat":43.29423,"lon":5.38629,"is_reserved":false,"is_disabled":false,"rental_uris":{"android":"levelo://app?vid=c1672db8-4a57-4e1c-b80e-7c613618cbe0","ios":"levelo://app?vid=c1672db8-4a57-4e1c-b80e-7c613618cbe0"},"vehicle_type_id":"4","last_reported":1728158924,"current_range_meters":9200,"station_id":"ce4bh2h2rcd13ifvqdh0","pricing_plan_id":"cebpf4jnsgd1na2vs0mg"},{"bike_id":"c2d4a22b-b0e1-4266-92f7-b60fd7869d02","system_id":"levelo_inurba_marseille","lat":43.286955,"lon":5.375172,"is_reserved":false,"is_disabled":false,"rental_uris":{"android":"levelo://app?vid=c2d4a22b-b0e1-4266-92f7-b60fd7869d02","ios":"levelo://app?vid=c2d4a22b-b0e1-4266-92f7-b60fd7869d02"},"vehicle_type_id":"4","last_reported":1728158924,"current_range_meters":14800,"station_id":"ce4bh3p2rcd13ifvqdq0","pricing_plan_id":"cebpf4jnsgd1na2vs0mg"},{"bike_id":"704d9481-6ec3-47be-8efb-df494f367ab6","system_id":"levelo_inurba_marseille","lat":43.29551,"lon":5.42288,"is_reserved":false,"is_disabled":false,"rental_uris":{"android":"levelo://app?vid=704d9481-6ec3-47be-8efb-df494f367ab6","ios":"levelo://app?vid=704d9481-6ec3-47be-8efb-df494f367ab6"},"vehicle_type_id":"4","last_reported":1728158924,"current_range_meters":38800,"station_id":"ce4bhph2rcd13ifvqhdg","pricing_plan_id":"cebpf4jnsgd1na2vs0mg"},{"bike_id":"e0336ac3-d554-4c6c-a5fa-2a7486e8ac7d","system_id":"levelo_inurba_marseille","lat":43.29528,"lon":5.38541,"is_reserved":false,"is_disabled":false,"rental_uris":{"android":"levelo://app?vid=e0336ac3-d554-4c6c-a5fa-2a7486e8ac7d","ios":"levelo://app?vid=e0336ac3-d554-4c6c-a5fa-2a7486e8ac7d"},"vehicle_type_id":"4","last_reported":1728158924,"current_range_meters":14800,"station_id":"ce4bgih2rcd13ifvqba0","pricing_plan_id":"cebpf4jnsgd1na2vs0mg"},{"bike_id":"50664332-acea-42b1-93f9-00345c7cf3b8","system_id":"levelo_inurba_marseille","lat":43.3123,"lon":5.36851,"is_reserved":false,"is_disabled":false,"rental_uris":{"android":"levelo://app?vid=50664332-acea-42b1-93f9-00345c7cf3b8","ios":"levelo://app?vid=50664332-acea-42b1-93f9-00345c7cf3b8"},"vehicle_type_id":"4","last_reported":1728158924,"current_range_meters":38800,"station_id":"ce4bgl92rcd13ifvqbq0","pricing_plan_id":"cebpf4jnsgd1na2vs0mg"},{"bike_id":"ede69a45-2638-4c7f-bc66-89083bc792d6","system_id":"levelo_inurba_marseille","lat":43.26197,"lon":5.37938,"is_reserved":false,"is_disabled":false,"rental_uris":{"android":"levelo://app?vid=ede69a45-2638-4c7f-bc66-89083bc792d6","ios":"levelo://app?vid=ede69a45-2638-4c7f-bc66-89083bc792d6"},"vehicle_type_id":"4","last_reported":1728158924,"current_range_meters":22800,"station_id":"ce4bhjp2rcd13ifvqg90","pricing_plan_id":"cebpf4jnsgd1na2vs0mg"},{"bike_id":"fd3fac36-0f62-4b8f-9e9f-151f93b460e5","system_id":"levelo_inurba_marseille","lat":43.28268,"lon":5.35074,"is_reserved":false,"is_disabled":false,"rental_uris":{"android":"levelo://app?vid=fd3fac36-0f62-4b8f-9e9f-151f93b460e5","ios":"levelo://app?vid=fd3fac36-0f62-4b8f-9e9f-151f93b460e5"},"vehicle_type_id":"4","last_reported":1728158924,"current_range_meters":38800,"station_id":"ce4bhbp2rcd13ifvqerg","pricing_plan_id":"cebpf4jnsgd1na2vs0mg"},{"bike_id":"e7341701-5d04-4cdb-84d0-b90046595e3c","system_id":"levelo_inurba_marseille","lat":43.29256,"lon":5.4013,"is_reserved":false,"is_disabled":false,"rental_uris":{"android":"levelo://app?vid=e7341701-5d04-4cdb-84d0-b90046595e3c","ios":"levelo://app?vid=e7341701-5d04-4cdb-84d0-b90046595e3c"},"vehicle_type_id":"4","last_reported":1728158924,"current_range_meters":35200,"station_id":"ce4bh312rcd13ifvqdk0","pricing_plan_id":"cebpf4jnsgd1na2vs0mg"},{"bike_id":"bb5f5452-4b9b-417d-b148-b396a874f3d9","system_id":"levelo_inurba_marseille","lat":43.3377,"lon":5.37424,"is_reserved":false,"is_disabled":false,"rental_uris":{"android":"levelo://app?vid=bb5f5452-4b9b-417d-b148-b396a874f3d9","ios":"levelo://app?vid=bb5f5452-4b9b-417d-b148-b396a874f3d9"},"vehicle_type_id":"4","last_reported":1728158924,"current_range_meters":30000,"station_id":"","pricing_plan_id":"cebpf4jnsgd1na2vs0mg"},{"bike_id":"1bee6c7e-c17b-4735-b064-06cf323da1d0","system_id":"levelo_inurba_marseille","lat":43.29414,"lon":5.38627,"is_reserved":false,"is_disabled":false,"rental_uris":{"android":"levelo://app?vid=1bee6c7e-c17b-4735-b064-06cf323da1d0","ios":"levelo://app?vid=1bee6c7e-c17b-4735-b064-06cf323da1d0"},"vehicle_type_id":"4","last_reported":1728158924,"current_range_meters":38000,"station_id":"ce4bh2h2rcd13ifvqdh0","pricing_plan_id":"cebpf4jnsgd1na2vs0mg"},{"bike_id":"8dbd75a1-8610-4e20-ad5f-0b0381a4b608","system_id":"levelo_inurba_marseille","lat":43.29274,"lon":5.40116,"is_reserved":false,"is_disabled":false,"rental_uris":{"android":"levelo://app?vid=8dbd75a1-8610-4e20-ad5f-0b0381a4b608","ios":"levelo://app?vid=8dbd75a1-8610-4e20-ad5f-0b0381a4b608"},"vehicle_type_id":"4","last_reported":1728158924,"current_range_meters":34800,"station_id":"ce4bh312rcd13ifvqdk0","pricing_plan_id":"cebpf4jnsgd1na2vs0mg"},{"bike_id":"ab83fadf-d068-4c8e-b6a0-a2c4cd43bc9b","system_id":"levelo_inurba_marseille","lat":43.31998,"lon":5.38159,"is_reserved":false,"is_disabled":false,"rental_uris":{"android":"levelo://app?vid=ab83fadf-d068-4c8e-b6a0-a2c4cd43bc9b","ios":"levelo://app?vid=ab83fadf-d068-4c8e-b6a0-a2c4cd43bc9b"},"vehicle_type_id":"4","last_reported":1728158924,"current_range_meters":32000,"station_id":"ce4bhr12rcd13ifvqhpg","pricing_plan_id":"cebpf4jnsgd1na2vs0mg"},{"bike_id":"73a5307d-3e7d-4037-8357-25200e33a5e5","system_id":"levelo_inurba_marseille","lat":43.28407,"lon":5.37528,"is_reserved":false,"is_disabled":false,"rental_uris":{"android":"levelo://app?vid=73a5307d-3e7d-4037-8357-25200e33a5e5","ios":"levelo://app?vid=73a5307d-3e7d-4037-8357-25200e33a5e5"},"vehicle_type_id":"4","last_reported":1728158924,"current_range_meters":33600,"station_id":"ce4bh412rcd13ifvqds0","pricing_plan_id":"cebpf4jnsgd1na2vs0mg"},{"bike_id":"d5bd4fc9-b596-4a66-8faa-61c6a5dce860","system_id":"levelo_inurba_marseille","lat":43.29895,"lon":5.43667,"is_reserved":false,"is_disabled":false,"rental_uris":{"android":"levelo://app?vid=d5bd4fc9-b596-4a66-8faa-61c6a5dce860","ios":"levelo://app?vid=d5bd4fc9-b596-4a66-8faa-61c6a5dce860"},"vehicle_type_id":"4","last_reported":1728158924,"current_range_meters":26800,"station_id":"ce4bhpp2rcd13ifvqhfg","pricing_plan_id":"cebpf4jnsgd1na2vs0mg"},{"bike_id":"568e1eb8-b369-4854-b123-5f304c903766","system_id":"levelo_inurba_marseille","lat":43.30355,"lon":5.41883,"is_reserved":false,"is_disabled":false,"rental_uris":{"android":"levelo://app?vid=568e1eb8-b369-4854-b123-5f304c903766","ios":"levelo://app?vid=568e1eb8-b369-4854-b123-5f304c903766"},"vehicle_type_id":"4","last_reported":1728158924,"current_range_meters":22400,"station_id":"ce4bhop2rcd13ifvqh7g","pricing_plan_id":"cebpf4jnsgd1na2vs0mg"},{"bike_id":"d4541b3b-a55e-4722-ae3d-b558b5e0d4b8","system_id":"levelo_inurba_marseille","lat":43.25587,"lon":5.38237,"is_reserved":false,"is_disabled":false,"rental_uris":{"android":"levelo://app?vid=d4541b3b-a55e-4722-ae3d-b558b5e0d4b8","ios":"levelo://app?vid=d4541b3b-a55e-4722-ae3d-b558b5e0d4b8"},"vehicle_type_id":"4","last_reported":1728158924,"current_range_meters":16000,"station_id":"ce4bhih2rcd13ifvqfs0","pricing_plan_id":"cebpf4jnsgd1na2vs0mg"},{"bike_id":"3fcbd708-2b74-42ae-a074-adfc6842b05d","system_id":"levelo_inurba_marseille","lat":43.29264,"lon":5.38439,"is_reserved":false,"is_disabled":false,"rental_uris":{"android":"levelo://app?vid=3fcbd708-2b74-42ae-a074-adfc6842b05d","ios":"levelo://app?vid=3fcbd708-2b74-42ae-a074-adfc6842b05d"},"vehicle_type_id":"4","last_reported":1728158924,"current_range_meters":35600,"station_id":"ce4bh692rcd13ifvqea0","pricing_plan_id":"cebpf4jnsgd1na2vs0mg"},{"bike_id":"a7f48c92-7d4b-4996-9036-297b537462c6","system_id":"levelo_inurba_marseille","lat":43.261945,"lon":5.374543,"is_reserved":false,"is_disabled":false,"rental_uris":{"android":"levelo://app?vid=a7f48c92-7d4b-4996-9036-297b537462c6","ios":"levelo://app?vid=a7f48c92-7d4b-4996-9036-297b537462c6"},"vehicle_type_id":"4","last_reported":1728158924,"current_range_meters":12400,"station_id":"ce4bhgp2rcd13ifvqfc0","pricing_plan_id":"cebpf4jnsgd1na2vs0mg"},{"bike_id":"5995fabf-2f24-441f-af17-697a20dfbe0e","system_id":"levelo_inurba_marseille","lat":43.33743,"lon":5.37449,"is_reserved":false,"is_disabled":false,"rental_uris":{"android":"levelo://app?vid=5995fabf-2f24-441f-af17-697a20dfbe0e","ios":"levelo://app?vid=5995fabf-2f24-441f-af17-697a20dfbe0e"},"vehicle_type_id":"4","last_reported":1728158924,"current_range_meters":30400,"station_id":"","pricing_plan_id":"cebpf4jnsgd1na2vs0mg"},{"bike_id":"2f1f7e56-c6cd-448e-b406-4d3dfc3a4de4","system_id":"levelo_inurba_marseille","lat":43.25731,"lon":5.4111,"is_reserved":false,"is_disabled":false,"rental_uris":{"android":"levelo://app?vid=2f1f7e56-c6cd-448e-b406-4d3dfc3a4de4","ios":"levelo://app?vid=2f1f7e56-c6cd-448e-b406-4d3dfc3a4de4"},"vehicle_type_id":"4","last_reported":1728158924,"current_range_meters":38800,"station_id":"ce4bhkp2rcd13ifvqgd0","pricing_plan_id":"cebpf4jnsgd1na2vs0mg"},{"bike_id":"70653279-0d38-4af8-9b0b-13ae00ffbacc","system_id":"levelo_inurba_marseille","lat":43.289398,"lon":5.366395,"is_reserved":false,"is_disabled":false,"rental_uris":{"android":"levelo://app?vid=70653279-0d38-4af8-9b0b-13ae00ffbacc","ios":"levelo://app?vid=70653279-0d38-4af8-9b0b-13ae00ffbacc"},"vehicle_type_id":"4","last_reported":1728158924,"current_range_meters":8000,"station_id":"ce4bhap2rcd13ifvqek0","pricing_plan_id":"cebpf4jnsgd1na2vs0mg"},{"bike_id":"1624fb10-17a2-4e84-b5f0-28be2a98cb84","system_id":"levelo_inurba_marseille","lat":43.29978,"lon":5.37179,"is_reserved":false,"is_disabled":false,"rental_uris":{"android":"levelo://app?vid=1624fb10-17a2-4e84-b5f0-28be2a98cb84","ios":"levelo://app?vid=1624fb10-17a2-4e84-b5f0-28be2a98cb84"},"vehicle_type_id":"4","last_reported":1728158924,"current_range_meters":27600,"station_id":"ce4bgr92rcd13ifvqc7g","pricing_plan_id":"cebpf4jnsgd1na2vs0mg"},{"bike_id":"79111656-462b-4311-a6f7-0601847fde43","system_id":"levelo_inurba_marseille","lat":43.30292,"lon":5.36899,"is_reserved":false,"is_disabled":false,"rental_uris":{"android":"levelo://app?vid=79111656-462b-4311-a6f7-0601847fde43","ios":"levelo://app?vid=79111656-462b-4311-a6f7-0601847fde43"},"vehicle_type_id":"4","last_reported":1728158924,"current_range_meters":38800,"station_id":"ce4bgqh2rcd13ifvqc5g","pricing_plan_id":"cebpf4jnsgd1na2vs0mg"},{"bike_id":"d1c22bff-dd8f-4c55-9db0-fa59411a2072","system_id":"levelo_inurba_marseille","lat":43.31393,"lon":5.36752,"is_reserved":false,"is_disabled":false,"rental_uris":{"android":"levelo://app?vid=d1c22bff-dd8f-4c55-9db0-fa59411a2072","ios":"levelo://app?vid=d1c22bff-dd8f-4c55-9db0-fa59411a2072"},"vehicle_type_id":"4","last_reported":1728158924,"current_range_meters":32000,"station_id":"ce4bgr92rcd13ifvqc6g","pricing_plan_id":"cebpf4jnsgd1na2vs0mg"},{"bike_id":"1d7e584d-d9bd-4a40-880d-10ef72bd85dc","system_id":"levelo_inurba_marseille","lat":43.28074,"lon":5.39669,"is_reserved":false,"is_disabled":false,"rental_uris":{"android":"levelo://app?vid=1d7e584d-d9bd-4a40-880d-10ef72bd85dc","ios":"levelo://app?vid=1d7e584d-d9bd-4a40-880d-10ef72bd85dc"},"vehicle_type_id":"4","last_reported":1728158924,"current_range_meters":8400,"station_id":"ce4bho12rcd13ifvqh2g","pricing_plan_id":"cebpf4jnsgd1na2vs0mg"},{"bike_id":"a94f106c-921c-40e5-90b8-0a0b7d3f49ab","system_id":"levelo_inurba_marseille","lat":43.33335,"lon":5.35844,"is_reserved":false,"is_disabled":false,"rental_uris":{"android":"levelo://app?vid=a94f106c-921c-40e5-90b8-0a0b7d3f49ab","ios":"levelo://app?vid=a94f106c-921c-40e5-90b8-0a0b7d3f49ab"},"vehicle_type_id":"4","last_reported":1728158924,"current_range_meters":22000,"station_id":"","pricing_plan_id":"cebpf4jnsgd1na2vs0mg"},{"bike_id":"c1b14137-b80b-426f-9228-a681011d0473","system_id":"levelo_inurba_marseille","lat":43.30317,"lon":5.40448,"is_reserved":false,"is_disabled":false,"rental_uris":{"android":"levelo://app?vid=c1b14137-b80b-426f-9228-a681011d0473","ios":"levelo://app?vid=c1b14137-b80b-426f-9228-a681011d0473"},"vehicle_type_id":"4","last_reported":1728158924,"current_range_meters":19600,"station_id":"ce4bh012rcd13ifvqd10","pricing_plan_id":"cebpf4jnsgd1na2vs0mg"},{"bike_id":"868601ed-a7fc-4b8f-9ece-134601803092","system_id":"levelo_inurba_marseille","lat":43.29705,"lon":5.36625,"is_reserved":false,"is_disabled":false,"rental_uris":{"android":"levelo://app?vid=868601ed-a7fc-4b8f-9ece-134601803092","ios":"levelo://app?vid=868601ed-a7fc-4b8f-9ece-134601803092"},"vehicle_type_id":"4","last_reported":1728158924,"current_range_meters":5600,"station_id":"ce4bgn12rcd13ifvqbt0","pricing_plan_id":"cebpf4jnsgd1na2vs0mg"},{"bike_id":"97caffac-7c8a-4334-b965-8313481ce6d7","system_id":"levelo_inurba_marseille","lat":43.31732,"lon":5.37325,"is_reserved":false,"is_disabled":false,"rental_uris":{"android":"levelo://app?vid=97caffac-7c8a-4334-b965-8313481ce6d7","ios":"levelo://app?vid=97caffac-7c8a-4334-b965-8313481ce6d7"},"vehicle_type_id":"4","last_reported":1728158924,"current_range_meters":28000,"station_id":"","pricing_plan_id":"cebpf4jnsgd1na2vs0mg"},{"bike_id":"1121dded-5bdc-4095-b903-1711383b0169","system_id":"levelo_inurba_marseille","lat":43.28943,"lon":5.3641,"is_reserved":false,"is_disabled":false,"rental_uris":{"android":"levelo://app?vid=1121dded-5bdc-4095-b903-1711383b0169","ios":"levelo://app?vid=1121dded-5bdc-4095-b903-1711383b0169"},"vehicle_type_id":"4","last_reported":1728158924,"current_range_meters":7200,"station_id":"ce4bhc92rcd13ifvqetg","pricing_plan_id":"cebpf4jnsgd1na2vs0mg"},{"bike_id":"5e9722b9-527e-4896-955a-569ed40eb913","system_id":"levelo_inurba_marseille","lat":43.3211,"lon":5.36777,"is_reserved":false,"is_disabled":false,"rental_uris":{"android":"levelo://app?vid=5e9722b9-527e-4896-955a-569ed40eb913","ios":"levelo://app?vid=5e9722b9-527e-4896-955a-569ed40eb913"},"vehicle_type_id":"4","last_reported":1728158924,"current_range_meters":28800,"station_id":"ce4bhrh2rcd13ifvqhug","pricing_plan_id":"cebpf4jnsgd1na2vs0mg"},{"bike_id":"96d52334-a017-45cb-8b49-a0e48d77be4f","system_id":"levelo_inurba_marseille","lat":43.24803,"lon":5.37456,"is_reserved":false,"is_disabled":false,"rental_uris":{"android":"levelo://app?vid=96d52334-a017-45cb-8b49-a0e48d77be4f","ios":"levelo://app?vid=96d52334-a017-45cb-8b49-a0e48d77be4f"},"vehicle_type_id":"4","last_reported":1728158924,"current_range_meters":36800,"station_id":"ce4bhgh2rcd13ifvqfb0","pricing_plan_id":"cebpf4jnsgd1na2vs0mg"},{"bike_id":"c37e06c1-37ac-4f28-94d4-b007f42d8eb4","system_id":"levelo_inurba_marseille","lat":43.255755,"lon":5.382296,"is_reserved":false,"is_disabled":false,"rental_uris":{"android":"levelo://app?vid=c37e06c1-37ac-4f28-94d4-b007f42d8eb4","ios":"levelo://app?vid=c37e06c1-37ac-4f28-94d4-b007f42d8eb4"},"vehicle_type_id":"4","last_reported":1728158924,"current_range_meters":27600,"station_id":"ce4bhih2rcd13ifvqfs0","pricing_plan_id":"cebpf4jnsgd1na2vs0mg"},{"bike_id":"8f333e64-a742-4f16-9e41-4e5404724006","system_id":"levelo_inurba_marseille","lat":43.31232,"lon":5.36868,"is_reserved":false,"is_disabled":false,"rental_uris":{"android":"levelo://app?vid=8f333e64-a742-4f16-9e41-4e5404724006","ios":"levelo://app?vid=8f333e64-a742-4f16-9e41-4e5404724006"},"vehicle_type_id":"4","last_reported":1728158924,"current_range_meters":27200,"station_id":"ce4bgl92rcd13ifvqbq0","pricing_plan_id":"cebpf4jnsgd1na2vs0mg"},{"bike_id":"1374a405-7c5e-46b8-bf05-3c26f459f866","system_id":"levelo_inurba_marseille","lat":43.23964,"lon":5.36635,"is_reserved":false,"is_disabled":false,"rental_uris":{"android":"levelo://app?vid=1374a405-7c5e-46b8-bf05-3c26f459f866","ios":"levelo://app?vid=1374a405-7c5e-46b8-bf05-3c26f459f866"},"vehicle_type_id":"4","last_reported":1728158924,"current_range_meters":25200,"station_id":"ce4bhi12rcd13ifvqfp0","pricing_plan_id":"cebpf4jnsgd1na2vs0mg"},{"bike_id":"78cfcc3c-2061-4c54-8e9a-c4d9b3a845c4","system_id":"levelo_inurba_marseille","lat":43.29552,"lon":5.42288,"is_reserved":false,"is_disabled":false,"rental_uris":{"android":"levelo://app?vid=78cfcc3c-2061-4c54-8e9a-c4d9b3a845c4","ios":"levelo://app?vid=78cfcc3c-2061-4c54-8e9a-c4d9b3a845c4"},"vehicle_type_id":"4","last_reported":1728158924,"current_range_meters":10800,"station_id":"ce4bhph2rcd13ifvqhdg","pricing_plan_id":"cebpf4jnsgd1na2vs0mg"},{"bike_id":"c7741dda-522d-4da7-83bc-92f93d33ab57","system_id":"levelo_inurba_marseille","lat":43.31219,"lon":5.36856,"is_reserved":false,"is_disabled":false,"rental_uris":{"android":"levelo://app?vid=c7741dda-522d-4da7-83bc-92f93d33ab57","ios":"levelo://app?vid=c7741dda-522d-4da7-83bc-92f93d33ab57"},"vehicle_type_id":"4","last_reported":1728158924,"current_range_meters":9600,"station_id":"ce4bgl92rcd13ifvqbq0","pricing_plan_id":"cebpf4jnsgd1na2vs0mg"},{"bike_id":"69427285-cc1b-47b4-aa06-dce04005c878","system_id":"levelo_inurba_marseille","lat":43.31339,"lon":5.36734,"is_reserved":false,"is_disabled":false,"rental_uris":{"android":"levelo://app?vid=69427285-cc1b-47b4-aa06-dce04005c878","ios":"levelo://app?vid=69427285-cc1b-47b4-aa06-dce04005c878"},"vehicle_type_id":"4","last_reported":1728158924,"current_range_meters":38400,"station_id":"ce4bgr92rcd13ifvqc6g","pricing_plan_id":"cebpf4jnsgd1na2vs0mg"},{"bike_id":"a0867223-e2cf-49a2-bb70-12696eadfb28","system_id":"levelo_inurba_marseille","lat":43.29556,"lon":5.42287,"is_reserved":false,"is_disabled":false,"rental_uris":{"android":"levelo://app?vid=a0867223-e2cf-49a2-bb70-12696eadfb28","ios":"levelo://app?vid=a0867223-e2cf-49a2-bb70-12696eadfb28"},"vehicle_type_id":"4","last_reported":1728158924,"current_range_meters":38400,"station_id":"ce4bhph2rcd13ifvqhdg","pricing_plan_id":"cebpf4jnsgd1na2vs0mg"},{"bike_id":"4cc0668c-28fa-42da-8989-08a9b1ff848d","system_id":"levelo_inurba_marseille","lat":43.3022,"lon":5.3947,"is_reserved":false,"is_disabled":false,"rental_uris":{"android":"levelo://app?vid=4cc0668c-28fa-42da-8989-08a9b1ff848d","ios":"levelo://app?vid=4cc0668c-28fa-42da-8989-08a9b1ff848d"},"vehicle_type_id":"4","last_reported":1728158924,"current_range_meters":24400,"station_id":"ce4bh0p2rcd13ifvqd70","pricing_plan_id":"cebpf4jnsgd1na2vs0mg"},{"bike_id":"9f19e14f-fab5-49bf-878b-9a40978f6235","system_id":"levelo_inurba_marseille","lat":43.28439,"lon":5.39194,"is_reserved":false,"is_disabled":false,"rental_uris":{"android":"levelo://app?vid=9f19e14f-fab5-49bf-878b-9a40978f6235","ios":"levelo://app?vid=9f19e14f-fab5-49bf-878b-9a40978f6235"},"vehicle_type_id":"4","last_reported":1728158924,"current_range_meters":25200,"station_id":"ce4bhoh2rcd13ifvqh5g","pricing_plan_id":"cebpf4jnsgd1na2vs0mg"},{"bike_id":"d9ad45e6-85f5-4598-ac79-ca78dc9a7f3a","system_id":"levelo_inurba_marseille","lat":43.2953,"lon":5.3855,"is_reserved":false,"is_disabled":false,"rental_uris":{"android":"levelo://app?vid=d9ad45e6-85f5-4598-ac79-ca78dc9a7f3a","ios":"levelo://app?vid=d9ad45e6-85f5-4598-ac79-ca78dc9a7f3a"},"vehicle_type_id":"4","last_reported":1728158924,"current_range_meters":28000,"station_id":"ce4bgih2rcd13ifvqba0","pricing_plan_id":"cebpf4jnsgd1na2vs0mg"},{"bike_id":"61932ec3-5691-45ee-87cf-baf5c1d29d14","system_id":"levelo_inurba_marseille","lat":43.264996,"lon":5.395618,"is_reserved":false,"is_disabled":false,"rental_uris":{"android":"levelo://app?vid=61932ec3-5691-45ee-87cf-baf5c1d29d14","ios":"levelo://app?vid=61932ec3-5691-45ee-87cf-baf5c1d29d14"},"vehicle_type_id":"4","last_reported":1728158924,"current_range_meters":38800,"station_id":"ce4bhi12rcd13ifvqfq0","pricing_plan_id":"cebpf4jnsgd1na2vs0mg"},{"bike_id":"eb00cb14-ac0d-4ce7-9af4-8381dec81ba4","system_id":"levelo_inurba_marseille","lat":43.29429,"lon":5.39754,"is_reserved":false,"is_disabled":false,"rental_uris":{"android":"levelo://app?vid=eb00cb14-ac0d-4ce7-9af4-8381dec81ba4","ios":"levelo://app?vid=eb00cb14-ac0d-4ce7-9af4-8381dec81ba4"},"vehicle_type_id":"4","last_reported":1728158924,"current_range_meters":36800,"station_id":"ce4bh3h2rcd13ifvqdo0","pricing_plan_id":"cebpf4jnsgd1na2vs0mg"},{"bike_id":"c8d5bcaa-0267-4daa-b173-579596566525","system_id":"levelo_inurba_marseille","lat":43.29616,"lon":5.37716,"is_reserved":false,"is_disabled":false,"rental_uris":{"android":"levelo://app?vid=c8d5bcaa-0267-4daa-b173-579596566525","ios":"levelo://app?vid=c8d5bcaa-0267-4daa-b173-579596566525"},"vehicle_type_id":"4","last_reported":1728158924,"current_range_meters":30800,"station_id":"ce4bgi92rcd13ifvqb90","pricing_plan_id":"cebpf4jnsgd1na2vs0mg"},{"bike_id":"251d36e0-e470-4623-bf92-36252d01a5fc","system_id":"levelo_inurba_marseille","lat":43.297272,"lon":5.363015,"is_reserved":false,"is_disabled":false,"rental_uris":{"android":"levelo://app?vid=251d36e0-e470-4623-bf92-36252d01a5fc","ios":"levelo://app?vid=251d36e0-e470-4623-bf92-36252d01a5fc"},"vehicle_type_id":"4","last_reported":1728158924,"current_range_meters":32000,"station_id":"","pricing_plan_id":"cebpf4jnsgd1na2vs0mg"},{"bike_id":"a88de313-6a6c-466a-8431-ca561f3e0c73","system_id":"levelo_inurba_marseille","lat":43.3211,"lon":5.36779,"is_reserved":false,"is_disabled":false,"rental_uris":{"android":"levelo://app?vid=a88de313-6a6c-466a-8431-ca561f3e0c73","ios":"levelo://app?vid=a88de313-6a6c-466a-8431-ca561f3e0c73"},"vehicle_type_id":"4","last_reported":1728158924,"current_range_meters":9200,"station_id":"ce4bhrh2rcd13ifvqhug","pricing_plan_id":"cebpf4jnsgd1na2vs0mg"},{"bike_id":"ff782131-7799-4ae4-a0e8-55c561c1ba34","system_id":"levelo_inurba_marseille","lat":43.281,"lon":5.37844,"is_reserved":false,"is_disabled":false,"rental_uris":{"android":"levelo://app?vid=ff782131-7799-4ae4-a0e8-55c561c1ba34","ios":"levelo://app?vid=ff782131-7799-4ae4-a0e8-55c561c1ba34"},"vehicle_type_id":"4","last_reported":1728158924,"current_range_meters":28800,"station_id":"ce4bha12rcd13ifvqee0","pricing_plan_id":"cebpf4jnsgd1na2vs0mg"},{"bike_id":"57404f81-9bbf-4801-926b-58431093b8a9","system_id":"levelo_inurba_marseille","lat":43.313489,"lon":5.366979,"is_reserved":false,"is_disabled":false,"rental_uris":{"android":"levelo://app?vid=57404f81-9bbf-4801-926b-58431093b8a9","ios":"levelo://app?vid=57404f81-9bbf-4801-926b-58431093b8a9"},"vehicle_type_id":"4","last_reported":1728158924,"current_range_meters":12400,"station_id":"ce4bgr92rcd13ifvqc6g","pricing_plan_id":"cebpf4jnsgd1na2vs0mg"},{"bike_id":"f98d3c0f-3abb-4f50-91bc-fc99d94a054a","system_id":"levelo_inurba_marseille","lat":43.272115,"lon":5.391793,"is_reserved":false,"is_disabled":false,"rental_uris":{"android":"levelo://app?vid=f98d3c0f-3abb-4f50-91bc-fc99d94a054a","ios":"levelo://app?vid=f98d3c0f-3abb-4f50-91bc-fc99d94a054a"},"vehicle_type_id":"4","last_reported":1728158924,"current_range_meters":38800,"station_id":"ce4bhhp2rcd13ifvqfm0","pricing_plan_id":"cebpf4jnsgd1na2vs0mg"},{"bike_id":"f6426fca-69c1-4b10-ab4e-8cc2dbbdc81a","system_id":"levelo_inurba_marseille","lat":43.28698,"lon":5.37403,"is_reserved":false,"is_disabled":false,"rental_uris":{"android":"levelo://app?vid=f6426fca-69c1-4b10-ab4e-8cc2dbbdc81a","ios":"levelo://app?vid=f6426fca-69c1-4b10-ab4e-8cc2dbbdc81a"},"vehicle_type_id":"4","last_reported":1728158924,"current_range_meters":11600,"station_id":"ce4bh3p2rcd13ifvqdq0","pricing_plan_id":"cebpf4jnsgd1na2vs0mg"},{"bike_id":"af67fe1b-4e5d-4d03-acfc-d4385159216f","system_id":"levelo_inurba_marseille","lat":43.29611,"lon":5.38117,"is_reserved":false,"is_disabled":false,"rental_uris":{"android":"levelo://app?vid=af67fe1b-4e5d-4d03-acfc-d4385159216f","ios":"levelo://app?vid=af67fe1b-4e5d-4d03-acfc-d4385159216f"},"vehicle_type_id":"4","last_reported":1728158924,"current_range_meters":32400,"station_id":"ce4bgl12rcd13ifvqbo0","pricing_plan_id":"cebpf4jnsgd1na2vs0mg"},{"bike_id":"8b896f2c-2f5c-467a-8b0c-b5602bae3739","system_id":"levelo_inurba_marseille","lat":43.27202,"lon":5.39194,"is_reserved":false,"is_disabled":false,"rental_uris":{"android":"levelo://app?vid=8b896f2c-2f5c-467a-8b0c-b5602bae3739","ios":"levelo://app?vid=8b896f2c-2f5c-467a-8b0c-b5602bae3739"},"vehicle_type_id":"4","last_reported":1728158924,"current_range_meters":16400,"station_id":"ce4bhhp2rcd13ifvqfm0","pricing_plan_id":"cebpf4jnsgd1na2vs0mg"},{"bike_id":"9a0e12dd-8157-43af-95de-4c4aa779fc52","system_id":"levelo_inurba_marseille","lat":43.2318,"lon":5.39991,"is_reserved":false,"is_disabled":false,"rental_uris":{"android":"levelo://app?vid=9a0e12dd-8157-43af-95de-4c4aa779fc52","ios":"levelo://app?vid=9a0e12dd-8157-43af-95de-4c4aa779fc52"},"vehicle_type_id":"4","last_reported":1728158924,"current_range_meters":11200,"station_id":"ce4bhn12rcd13ifvqgqg","pricing_plan_id":"cebpf4jnsgd1na2vs0mg"},{"bike_id":"4e0c83a2-b0c3-4894-8559-e509681998d3","system_id":"levelo_inurba_marseille","lat":43.31117,"lon":5.38331,"is_reserved":false,"is_disabled":false,"rental_uris":{"android":"levelo://app?vid=4e0c83a2-b0c3-4894-8559-e509681998d3","ios":"levelo://app?vid=4e0c83a2-b0c3-4894-8559-e509681998d3"},"vehicle_type_id":"4","last_reported":1728158924,"current_range_meters":14400,"station_id":"ce4bgv92rcd13ifvqcr0","pricing_plan_id":"cebpf4jnsgd1na2vs0mg"},{"bike_id":"6af29806-47b6-4985-966f-7e091b704e6e","system_id":"levelo_inurba_marseille","lat":43.31884,"lon":5.40735,"is_reserved":false,"is_disabled":false,"rental_uris":{"android":"levelo://app?vid=6af29806-47b6-4985-966f-7e091b704e6e","ios":"levelo://app?vid=6af29806-47b6-4985-966f-7e091b704e6e"},"vehicle_type_id":"4","last_reported":1728158924,"current_range_meters":14400,"station_id":"ce4bhq12rcd13ifvqhig","pricing_plan_id":"cebpf4jnsgd1na2vs0mg"},{"bike_id":"ec0f6e18-8dcb-4ba1-9f4d-468854fad27d","system_id":"levelo_inurba_marseille","lat":43.31274,"lon":5.38389,"is_reserved":false,"is_disabled":false,"rental_uris":{"android":"levelo://app?vid=ec0f6e18-8dcb-4ba1-9f4d-468854fad27d","ios":"levelo://app?vid=ec0f6e18-8dcb-4ba1-9f4d-468854fad27d"},"vehicle_type_id":"4","last_reported":1728158924,"current_range_meters":7200,"station_id":"","pricing_plan_id":"cebpf4jnsgd1na2vs0mg"},{"bike_id":"25c976b4-25a3-42da-9904-c0b766dbada2","system_id":"levelo_inurba_marseille","lat":43.319143,"lon":5.407935,"is_reserved":false,"is_disabled":false,"rental_uris":{"android":"levelo://app?vid=25c976b4-25a3-42da-9904-c0b766dbada2","ios":"levelo://app?vid=25c976b4-25a3-42da-9904-c0b766dbada2"},"vehicle_type_id":"4","last_reported":1728158924,"current_range_meters":7200,"station_id":"ce4bhq12rcd13ifvqhig","pricing_plan_id":"cebpf4jnsgd1na2vs0mg"},{"bike_id":"cccecd32-b634-4f85-9690-debeddd83f16","system_id":"levelo_inurba_marseille","lat":43.29302,"lon":5.37183,"is_reserved":false,"is_disabled":false,"rental_uris":{"android":"levelo://app?vid=cccecd32-b634-4f85-9690-debeddd83f16","ios":"levelo://app?vid=cccecd32-b634-4f85-9690-debeddd83f16"},"vehicle_type_id":"4","last_reported":1728158924,"current_range_meters":6800,"station_id":"ce4bgh92rcd13ifvqb40","pricing_plan_id":"cebpf4jnsgd1na2vs0mg"},{"bike_id":"49cc8635-8c32-4544-a8e9-9b3247f1ccee","system_id":"levelo_inurba_marseille","lat":43.29577,"lon":5.36747,"is_reserved":false,"is_disabled":false,"rental_uris":{"android":"levelo://app?vid=49cc8635-8c32-4544-a8e9-9b3247f1ccee","ios":"levelo://app?vid=49cc8635-8c32-4544-a8e9-9b3247f1ccee"},"vehicle_type_id":"4","last_reported":1728158924,"current_range_meters":38400,"station_id":"ce4bgph2rcd13ifvqc2g","pricing_plan_id":"cebpf4jnsgd1na2vs0mg"},{"bike_id":"cd08a13c-cf4a-485d-8f71-83750f301330","system_id":"levelo_inurba_marseille","lat":43.29031,"lon":5.37562,"is_reserved":false,"is_disabled":false,"rental_uris":{"android":"levelo://app?vid=cd08a13c-cf4a-485d-8f71-83750f301330","ios":"levelo://app?vid=cd08a13c-cf4a-485d-8f71-83750f301330"},"vehicle_type_id":"4","last_reported":1728158924,"current_range_meters":20800,"station_id":"ce4bh692rcd13ifvqe90","pricing_plan_id":"cebpf4jnsgd1na2vs0mg"},{"bike_id":"342316ae-28ec-4a00-9fef-57766c633440","system_id":"levelo_inurba_marseille","lat":43.31341,"lon":5.36721,"is_reserved":false,"is_disabled":false,"rental_uris":{"android":"levelo://app?vid=342316ae-28ec-4a00-9fef-57766c633440","ios":"levelo://app?vid=342316ae-28ec-4a00-9fef-57766c633440"},"vehicle_type_id":"4","last_reported":1728158924,"current_range_meters":32800,"station_id":"ce4bgr92rcd13ifvqc6g","pricing_plan_id":"cebpf4jnsgd1na2vs0mg"},{"bike_id":"e02f40cf-eff2-4409-a9b3-2f4d2d904333","system_id":"levelo_inurba_marseille","lat":43.293,"lon":5.37457,"is_reserved":false,"is_disabled":false,"rental_uris":{"android":"levelo://app?vid=e02f40cf-eff2-4409-a9b3-2f4d2d904333","ios":"levelo://app?vid=e02f40cf-eff2-4409-a9b3-2f4d2d904333"},"vehicle_type_id":"4","last_reported":1728158924,"current_range_meters":37600,"station_id":"ce4bgi12rcd13ifvqb70","pricing_plan_id":"cebpf4jnsgd1na2vs0mg"},{"bike_id":"bdefae95-7cc5-4880-bfcb-b1af39586be0","system_id":"levelo_inurba_marseille","lat":43.32662,"lon":5.40995,"is_reserved":false,"is_disabled":false,"rental_uris":{"android":"levelo://app?vid=bdefae95-7cc5-4880-bfcb-b1af39586be0","ios":"levelo://app?vid=bdefae95-7cc5-4880-bfcb-b1af39586be0"},"vehicle_type_id":"4","last_reported":1728158924,"current_range_meters":38800,"station_id":"ce4bhpp2rcd13ifvqhgg","pricing_plan_id":"cebpf4jnsgd1na2vs0mg"},{"bike_id":"a6e78734-4545-489b-ace9-fb7abaa923bb","system_id":"levelo_inurba_marseille","lat":43.3031,"lon":5.36903,"is_reserved":false,"is_disabled":false,"rental_uris":{"android":"levelo://app?vid=a6e78734-4545-489b-ace9-fb7abaa923bb","ios":"levelo://app?vid=a6e78734-4545-489b-ace9-fb7abaa923bb"},"vehicle_type_id":"4","last_reported":1728158924,"current_range_meters":38800,"station_id":"ce4bgqh2rcd13ifvqc5g","pricing_plan_id":"cebpf4jnsgd1na2vs0mg"},{"bike_id":"ed5b9f8b-26cf-4430-b835-1f50c250f3cc","system_id":"levelo_inurba_marseille","lat":43.30646,"lon":5.40095,"is_reserved":false,"is_disabled":false,"rental_uris":{"android":"levelo://app?vid=ed5b9f8b-26cf-4430-b835-1f50c250f3cc","ios":"levelo://app?vid=ed5b9f8b-26cf-4430-b835-1f50c250f3cc"},"vehicle_type_id":"4","last_reported":1728158924,"current_range_meters":10000,"station_id":"ce4bh112rcd13ifvqda0","pricing_plan_id":"cebpf4jnsgd1na2vs0mg"},{"bike_id":"112ae88d-7ced-419d-a8ad-131d16c4886c","system_id":"levelo_inurba_marseille","lat":43.31231,"lon":5.36868,"is_reserved":false,"is_disabled":false,"rental_uris":{"android":"levelo://app?vid=112ae88d-7ced-419d-a8ad-131d16c4886c","ios":"levelo://app?vid=112ae88d-7ced-419d-a8ad-131d16c4886c"},"vehicle_type_id":"4","last_reported":1728158924,"current_range_meters":38800,"station_id":"ce4bgl92rcd13ifvqbq0","pricing_plan_id":"cebpf4jnsgd1na2vs0mg"},{"bike_id":"7810a155-81df-490c-89de-63a97ba4d450","system_id":"levelo_inurba_marseille","lat":43.26498,"lon":5.39575,"is_reserved":false,"is_disabled":false,"rental_uris":{"android":"levelo://app?vid=7810a155-81df-490c-89de-63a97ba4d450","ios":"levelo://app?vid=7810a155-81df-490c-89de-63a97ba4d450"},"vehicle_type_id":"4","last_reported":1728158924,"current_range_meters":38400,"station_id":"ce4bhi12rcd13ifvqfq0","pricing_plan_id":"cebpf4jnsgd1na2vs0mg"},{"bike_id":"7cfddf95-163a-471b-a8a5-602ec645f4d7","system_id":"levelo_inurba_marseille","lat":43.31223,"lon":5.36877,"is_reserved":false,"is_disabled":false,"rental_uris":{"android":"levelo://app?vid=7cfddf95-163a-471b-a8a5-602ec645f4d7","ios":"levelo://app?vid=7cfddf95-163a-471b-a8a5-602ec645f4d7"},"vehicle_type_id":"4","last_reported":1728158924,"current_range_meters":18000,"station_id":"ce4bgl92rcd13ifvqbq0","pricing_plan_id":"cebpf4jnsgd1na2vs0mg"},{"bike_id":"0fe7f6cc-a221-43e5-9718-492d396fd13a","system_id":"levelo_inurba_marseille","lat":43.28661,"lon":5.38666,"is_reserved":false,"is_disabled":false,"rental_uris":{"android":"levelo://app?vid=0fe7f6cc-a221-43e5-9718-492d396fd13a","ios":"levelo://app?vid=0fe7f6cc-a221-43e5-9718-492d396fd13a"},"vehicle_type_id":"4","last_reported":1728158924,"current_range_meters":28800,"station_id":"ce4bh492rcd13ifvqdug","pricing_plan_id":"cebpf4jnsgd1na2vs0mg"},{"bike_id":"19f85a2b-1e5c-4bc3-8a40-bd1b097209ed","system_id":"levelo_inurba_marseille","lat":43.33022,"lon":5.39041,"is_reserved":false,"is_disabled":false,"rental_uris":{"android":"levelo://app?vid=19f85a2b-1e5c-4bc3-8a40-bd1b097209ed","ios":"levelo://app?vid=19f85a2b-1e5c-4bc3-8a40-bd1b097209ed"},"vehicle_type_id":"4","last_reported":1728158924,"current_range_meters":17200,"station_id":"ce4bhr92rcd13ifvqhrg","pricing_plan_id":"cebpf4jnsgd1na2vs0mg"},{"bike_id":"e03c9d0c-17ae-4003-b903-fd8aa9951041","system_id":"levelo_inurba_marseille","lat":43.33753,"lon":5.37453,"is_reserved":false,"is_disabled":false,"rental_uris":{"android":"levelo://app?vid=e03c9d0c-17ae-4003-b903-fd8aa9951041","ios":"levelo://app?vid=e03c9d0c-17ae-4003-b903-fd8aa9951041"},"vehicle_type_id":"4","last_reported":1728158924,"current_range_meters":37600,"station_id":"","pricing_plan_id":"cebpf4jnsgd1na2vs0mg"},{"bike_id":"921d4b62-35bc-47cb-9b7f-6ab469803551","system_id":"levelo_inurba_marseille","lat":43.30797,"lon":5.43529,"is_reserved":false,"is_disabled":false,"rental_uris":{"android":"levelo://app?vid=921d4b62-35bc-47cb-9b7f-6ab469803551","ios":"levelo://app?vid=921d4b62-35bc-47cb-9b7f-6ab469803551"},"vehicle_type_id":"4","last_reported":1728158924,"current_range_meters":18000,"station_id":"ce4bhph2rcd13ifvqheg","pricing_plan_id":"cebpf4jnsgd1na2vs0mg"},{"bike_id":"1bc78066-f5a3-4af4-8ec5-bced82844fd5","system_id":"levelo_inurba_marseille","lat":43.27901,"lon":5.38024,"is_reserved":false,"is_disabled":false,"rental_uris":{"android":"levelo://app?vid=1bc78066-f5a3-4af4-8ec5-bced82844fd5","ios":"levelo://app?vid=1bc78066-f5a3-4af4-8ec5-bced82844fd5"},"vehicle_type_id":"4","last_reported":1728158924,"current_range_meters":18000,"station_id":"ce4bhf92rcd13ifvqf50","pricing_plan_id":"cebpf4jnsgd1na2vs0mg"},{"bike_id":"54bad87a-d971-4aaa-b58e-068dfe4feb4e","system_id":"levelo_inurba_marseille","lat":43.30359,"lon":5.41875,"is_reserved":false,"is_disabled":false,"rental_uris":{"android":"levelo://app?vid=54bad87a-d971-4aaa-b58e-068dfe4feb4e","ios":"levelo://app?vid=54bad87a-d971-4aaa-b58e-068dfe4feb4e"},"vehicle_type_id":"4","last_reported":1728158924,"current_range_meters":8800,"station_id":"ce4bhop2rcd13ifvqh7g","pricing_plan_id":"cebpf4jnsgd1na2vs0mg"},{"bike_id":"37e127f3-ccb3-41c0-b965-a477de8e02a5","system_id":"levelo_inurba_marseille","lat":43.31082,"lon":5.4244,"is_reserved":false,"is_disabled":false,"rental_uris":{"android":"levelo://app?vid=37e127f3-ccb3-41c0-b965-a477de8e02a5","ios":"levelo://app?vid=37e127f3-ccb3-41c0-b965-a477de8e02a5"},"vehicle_type_id":"4","last_reported":1728158924,"current_range_meters":24400,"station_id":"ce4bhp92rcd13ifvqhag","pricing_plan_id":"cebpf4jnsgd1na2vs0mg"},{"bike_id":"8517c91e-616e-4a08-b9e4-830c45c00397","system_id":"levelo_inurba_marseille","lat":43.30303,"lon":5.36903,"is_reserved":false,"is_disabled":false,"rental_uris":{"android":"levelo://app?vid=8517c91e-616e-4a08-b9e4-830c45c00397","ios":"levelo://app?vid=8517c91e-616e-4a08-b9e4-830c45c00397"},"vehicle_type_id":"4","last_reported":1728158924,"current_range_meters":38800,"station_id":"ce4bgqh2rcd13ifvqc5g","pricing_plan_id":"cebpf4jnsgd1na2vs0mg"},{"bike_id":"d1b65194-2512-46fb-ad6a-6f20917e115a","system_id":"levelo_inurba_marseille","lat":43.28457,"lon":5.35883,"is_reserved":false,"is_disabled":false,"rental_uris":{"android":"levelo://app?vid=d1b65194-2512-46fb-ad6a-6f20917e115a","ios":"levelo://app?vid=d1b65194-2512-46fb-ad6a-6f20917e115a"},"vehicle_type_id":"4","last_reported":1728158924,"current_range_meters":11600,"station_id":"ce4bhah2rcd13ifvqei0","pricing_plan_id":"cebpf4jnsgd1na2vs0mg"},{"bike_id":"954c0a78-f2ce-4e32-ab87-edcb8ca5e8d6","system_id":"levelo_inurba_marseille","lat":43.31351,"lon":5.36723,"is_reserved":false,"is_disabled":false,"rental_uris":{"android":"levelo://app?vid=954c0a78-f2ce-4e32-ab87-edcb8ca5e8d6","ios":"levelo://app?vid=954c0a78-f2ce-4e32-ab87-edcb8ca5e8d6"},"vehicle_type_id":"4","last_reported":1728158924,"current_range_meters":11200,"station_id":"ce4bgr92rcd13ifvqc6g","pricing_plan_id":"cebpf4jnsgd1na2vs0mg"},{"bike_id":"b26dac54-c8cf-438e-8301-453b663f7bae","system_id":"levelo_inurba_marseille","lat":43.2847,"lon":5.38426,"is_reserved":false,"is_disabled":false,"rental_uris":{"android":"levelo://app?vid=b26dac54-c8cf-438e-8301-453b663f7bae","ios":"levelo://app?vid=b26dac54-c8cf-438e-8301-453b663f7bae"},"vehicle_type_id":"4","last_reported":1728158924,"current_range_meters":34000,"station_id":"ce4bh512rcd13ifvqe3g","pricing_plan_id":"cebpf4jnsgd1na2vs0mg"},{"bike_id":"1326f79d-155c-4525-a534-faf671b49695","system_id":"levelo_inurba_marseille","lat":43.25722,"lon":5.41117,"is_reserved":false,"is_disabled":false,"rental_uris":{"android":"levelo://app?vid=1326f79d-155c-4525-a534-faf671b49695","ios":"levelo://app?vid=1326f79d-155c-4525-a534-faf671b49695"},"vehicle_type_id":"4","last_reported":1728158924,"current_range_meters":22800,"station_id":"ce4bhkp2rcd13ifvqgd0","pricing_plan_id":"cebpf4jnsgd1na2vs0mg"},{"bike_id":"b6a817d8-5787-46a3-898e-0b46c75fc481","system_id":"levelo_inurba_marseille","lat":43.32965,"lon":5.40344,"is_reserved":false,"is_disabled":false,"rental_uris":{"android":"levelo://app?vid=b6a817d8-5787-46a3-898e-0b46c75fc481","ios":"levelo://app?vid=b6a817d8-5787-46a3-898e-0b46c75fc481"},"vehicle_type_id":"4","last_reported":1728158924,"current_range_meters":4800,"station_id":"","pricing_plan_id":"cebpf4jnsgd1na2vs0mg"},{"bike_id":"4c8c1fb9-ce42-422a-b53b-518592f1c31f","system_id":"levelo_inurba_marseille","lat":43.3009,"lon":5.3908,"is_reserved":false,"is_disabled":false,"rental_uris":{"android":"levelo://app?vid=4c8c1fb9-ce42-422a-b53b-518592f1c31f","ios":"levelo://app?vid=4c8c1fb9-ce42-422a-b53b-518592f1c31f"},"vehicle_type_id":"4","last_reported":1728158924,"current_range_meters":30000,"station_id":"ce4bh192rcd13ifvqdb0","pricing_plan_id":"cebpf4jnsgd1na2vs0mg"},{"bike_id":"077a481a-af23-4754-9882-53304dbe26d1","system_id":"levelo_inurba_marseille","lat":43.31335,"lon":5.36721,"is_reserved":false,"is_disabled":false,"rental_uris":{"android":"levelo://app?vid=077a481a-af23-4754-9882-53304dbe26d1","ios":"levelo://app?vid=077a481a-af23-4754-9882-53304dbe26d1"},"vehicle_type_id":"4","last_reported":1728158924,"current_range_meters":38800,"station_id":"ce4bgr92rcd13ifvqc6g","pricing_plan_id":"cebpf4jnsgd1na2vs0mg"},{"bike_id":"6856d22e-440d-40d9-809f-3167dacdbdc3","system_id":"levelo_inurba_marseille","lat":43.337444,"lon":5.374475,"is_reserved":false,"is_disabled":false,"rental_uris":{"android":"levelo://app?vid=6856d22e-440d-40d9-809f-3167dacdbdc3","ios":"levelo://app?vid=6856d22e-440d-40d9-809f-3167dacdbdc3"},"vehicle_type_id":"4","last_reported":1728158924,"current_range_meters":17600,"station_id":"","pricing_plan_id":"cebpf4jnsgd1na2vs0mg"},{"bike_id":"6d5186d3-d953-4f25-8689-26c4fd14a57d","system_id":"levelo_inurba_marseille","lat":43.28459,"lon":5.37826,"is_reserved":false,"is_disabled":false,"rental_uris":{"android":"levelo://app?vid=6d5186d3-d953-4f25-8689-26c4fd14a57d","ios":"levelo://app?vid=6d5186d3-d953-4f25-8689-26c4fd14a57d"},"vehicle_type_id":"4","last_reported":1728158924,"current_range_meters":38400,"station_id":"ce4bh3p2rcd13ifvqdq0","pricing_plan_id":"cebpf4jnsgd1na2vs0mg"},{"bike_id":"64bd957e-b978-44cb-a85c-928d627d24ec","system_id":"levelo_inurba_marseille","lat":43.35424,"lon":5.35869,"is_reserved":false,"is_disabled":false,"rental_uris":{"android":"levelo://app?vid=64bd957e-b978-44cb-a85c-928d627d24ec","ios":"levelo://app?vid=64bd957e-b978-44cb-a85c-928d627d24ec"},"vehicle_type_id":"4","last_reported":1728158924,"current_range_meters":6400,"station_id":"","pricing_plan_id":"cebpf4jnsgd1na2vs0mg"},{"bike_id":"64995d1a-0a95-43c1-8426-b3115325266b","system_id":"levelo_inurba_marseille","lat":43.27921,"lon":5.42314,"is_reserved":false,"is_disabled":false,"rental_uris":{"android":"levelo://app?vid=64995d1a-0a95-43c1-8426-b3115325266b","ios":"levelo://app?vid=64995d1a-0a95-43c1-8426-b3115325266b"},"vehicle_type_id":"4","last_reported":1728158924,"current_range_meters":17200,"station_id":"","pricing_plan_id":"cebpf4jnsgd1na2vs0mg"},{"bike_id":"9cdfb105-1599-447f-84d7-14458c4635ae","system_id":"levelo_inurba_marseille","lat":43.28992,"lon":5.37838,"is_reserved":false,"is_disabled":false,"rental_uris":{"android":"levelo://app?vid=9cdfb105-1599-447f-84d7-14458c4635ae","ios":"levelo://app?vid=9cdfb105-1599-447f-84d7-14458c4635ae"},"vehicle_type_id":"4","last_reported":1728158924,"current_range_meters":36000,"station_id":"ce4bh9p2rcd13ifvqed0","pricing_plan_id":"cebpf4jnsgd1na2vs0mg"},{"bike_id":"3087cbb8-89ad-4937-9daf-65c8b2772aa2","system_id":"levelo_inurba_marseille","lat":43.33718,"lon":5.39186,"is_reserved":false,"is_disabled":false,"rental_uris":{"android":"levelo://app?vid=3087cbb8-89ad-4937-9daf-65c8b2772aa2","ios":"levelo://app?vid=3087cbb8-89ad-4937-9daf-65c8b2772aa2"},"vehicle_type_id":"4","last_reported":1728158924,"current_range_meters":37600,"station_id":"ce4bhr92rcd13ifvqhsg","pricing_plan_id":"cebpf4jnsgd1na2vs0mg"},{"bike_id":"72cdf711-2663-46e4-8d5b-b95ee2f5dde3","system_id":"levelo_inurba_marseille","lat":43.31229,"lon":5.3687,"is_reserved":false,"is_disabled":false,"rental_uris":{"android":"levelo://app?vid=72cdf711-2663-46e4-8d5b-b95ee2f5dde3","ios":"levelo://app?vid=72cdf711-2663-46e4-8d5b-b95ee2f5dde3"},"vehicle_type_id":"4","last_reported":1728158924,"current_range_meters":11600,"station_id":"ce4bgl92rcd13ifvqbq0","pricing_plan_id":"cebpf4jnsgd1na2vs0mg"},{"bike_id":"57e67165-b85c-405b-a732-679f9f1eebc5","system_id":"levelo_inurba_marseille","lat":43.31889,"lon":5.40738,"is_reserved":false,"is_disabled":false,"rental_uris":{"android":"levelo://app?vid=57e67165-b85c-405b-a732-679f9f1eebc5","ios":"levelo://app?vid=57e67165-b85c-405b-a732-679f9f1eebc5"},"vehicle_type_id":"4","last_reported":1728158924,"current_range_meters":36000,"station_id":"ce4bhq12rcd13ifvqhig","pricing_plan_id":"cebpf4jnsgd1na2vs0mg"},{"bike_id":"79d4ce44-dde0-4856-adfb-9d048612b764","system_id":"levelo_inurba_marseille","lat":43.3376,"lon":5.37441,"is_reserved":false,"is_disabled":false,"rental_uris":{"android":"levelo://app?vid=79d4ce44-dde0-4856-adfb-9d048612b764","ios":"levelo://app?vid=79d4ce44-dde0-4856-adfb-9d048612b764"},"vehicle_type_id":"4","last_reported":1728158924,"current_range_meters":37600,"station_id":"","pricing_plan_id":"cebpf4jnsgd1na2vs0mg"},{"bike_id":"142c7382-fc8c-4221-b3a1-13bba283a460","system_id":"levelo_inurba_marseille","lat":43.30951,"lon":5.39033,"is_reserved":false,"is_disabled":false,"rental_uris":{"android":"levelo://app?vid=142c7382-fc8c-4221-b3a1-13bba283a460","ios":"levelo://app?vid=142c7382-fc8c-4221-b3a1-13bba283a460"},"vehicle_type_id":"4","last_reported":1728158924,"current_range_meters":36400,"station_id":"ce4bgup2rcd13ifvqco0","pricing_plan_id":"cebpf4jnsgd1na2vs0mg"},{"bike_id":"6362dd7e-711b-4b82-af8e-291ea8f6ea1e","system_id":"levelo_inurba_marseille","lat":43.33765,"lon":5.3743,"is_reserved":false,"is_disabled":false,"rental_uris":{"android":"levelo://app?vid=6362dd7e-711b-4b82-af8e-291ea8f6ea1e","ios":"levelo://app?vid=6362dd7e-711b-4b82-af8e-291ea8f6ea1e"},"vehicle_type_id":"4","last_reported":1728158924,"current_range_meters":35600,"station_id":"","pricing_plan_id":"cebpf4jnsgd1na2vs0mg"},{"bike_id":"c7ec8820-b76c-4b2d-a9fa-ad344f0044c8","system_id":"levelo_inurba_marseille","lat":43.31528,"lon":5.38031,"is_reserved":false,"is_disabled":false,"rental_uris":{"android":"levelo://app?vid=c7ec8820-b76c-4b2d-a9fa-ad344f0044c8","ios":"levelo://app?vid=c7ec8820-b76c-4b2d-a9fa-ad344f0044c8"},"vehicle_type_id":"4","last_reported":1728158924,"current_range_meters":17200,"station_id":"ce4bhsp2rcd13ifvqi50","pricing_plan_id":"cebpf4jnsgd1na2vs0mg"},{"bike_id":"d366c603-0baa-4130-aa14-9de1acc340c3","system_id":"levelo_inurba_marseille","lat":43.31182,"lon":5.36826,"is_reserved":false,"is_disabled":false,"rental_uris":{"android":"levelo://app?vid=d366c603-0baa-4130-aa14-9de1acc340c3","ios":"levelo://app?vid=d366c603-0baa-4130-aa14-9de1acc340c3"},"vehicle_type_id":"4","last_reported":1728158924,"current_range_meters":10000,"station_id":"ce4bgl92rcd13ifvqbq0","pricing_plan_id":"cebpf4jnsgd1na2vs0mg"},{"bike_id":"5305316b-eb43-43cb-bedf-3a735be36892","system_id":"levelo_inurba_marseille","lat":43.31715,"lon":5.43706,"is_reserved":false,"is_disabled":false,"rental_uris":{"android":"levelo://app?vid=5305316b-eb43-43cb-bedf-3a735be36892","ios":"levelo://app?vid=5305316b-eb43-43cb-bedf-3a735be36892"},"vehicle_type_id":"4","last_reported":1728158924,"current_range_meters":36400,"station_id":"ce4bhp92rcd13ifvqhcg","pricing_plan_id":"cebpf4jnsgd1na2vs0mg"},{"bike_id":"5bedbf98-9dc2-4ca3-b9b0-def39b3139ad","system_id":"levelo_inurba_marseille","lat":43.27835,"lon":5.39206,"is_reserved":false,"is_disabled":false,"rental_uris":{"android":"levelo://app?vid=5bedbf98-9dc2-4ca3-b9b0-def39b3139ad","ios":"levelo://app?vid=5bedbf98-9dc2-4ca3-b9b0-def39b3139ad"},"vehicle_type_id":"4","last_reported":1728158924,"current_range_meters":5600,"station_id":"ce4bhjp2rcd13ifvqga0","pricing_plan_id":"cebpf4jnsgd1na2vs0mg"},{"bike_id":"c58dce76-1f21-4264-9788-157018305e9f","system_id":"levelo_inurba_marseille","lat":43.2907,"lon":5.37154,"is_reserved":false,"is_disabled":false,"rental_uris":{"android":"levelo://app?vid=c58dce76-1f21-4264-9788-157018305e9f","ios":"levelo://app?vid=c58dce76-1f21-4264-9788-157018305e9f"},"vehicle_type_id":"4","last_reported":1728158924,"current_range_meters":26800,"station_id":"ce4bh5p2rcd13ifvqe4g","pricing_plan_id":"cebpf4jnsgd1na2vs0mg"},{"bike_id":"9cec18ff-284a-4c79-9a17-e7b957cf0c46","system_id":"levelo_inurba_marseille","lat":43.30963,"lon":5.37063,"is_reserved":false,"is_disabled":false,"rental_uris":{"android":"levelo://app?vid=9cec18ff-284a-4c79-9a17-e7b957cf0c46","ios":"levelo://app?vid=9cec18ff-284a-4c79-9a17-e7b957cf0c46"},"vehicle_type_id":"4","last_reported":1728158924,"current_range_meters":17600,"station_id":"ce4bha12rcd13ifvqef0","pricing_plan_id":"cebpf4jnsgd1na2vs0mg"},{"bike_id":"10f62f05-9ab7-4ff5-b18f-5a8aea638b28","system_id":"levelo_inurba_marseille","lat":43.31363,"lon":5.38505,"is_reserved":false,"is_disabled":false,"rental_uris":{"android":"levelo://app?vid=10f62f05-9ab7-4ff5-b18f-5a8aea638b28","ios":"levelo://app?vid=10f62f05-9ab7-4ff5-b18f-5a8aea638b28"},"vehicle_type_id":"4","last_reported":1728158924,"current_range_meters":19600,"station_id":"ce4bgt92rcd13ifvqcf0","pricing_plan_id":"cebpf4jnsgd1na2vs0mg"},{"bike_id":"a6e80516-5ecf-469d-885f-cd27ce20e77b","system_id":"levelo_inurba_marseille","lat":43.24176,"lon":5.36399,"is_reserved":false,"is_disabled":false,"rental_uris":{"android":"levelo://app?vid=a6e80516-5ecf-469d-885f-cd27ce20e77b","ios":"levelo://app?vid=a6e80516-5ecf-469d-885f-cd27ce20e77b"},"vehicle_type_id":"4","last_reported":1728158924,"current_range_meters":34800,"station_id":"cpo36qri1sfpv3e86is0","pricing_plan_id":"cebpf4jnsgd1na2vs0mg"},{"bike_id":"9ffb78e6-49a6-4ab8-86d7-754e501f2866","system_id":"levelo_inurba_marseille","lat":43.28728,"lon":5.37944,"is_reserved":false,"is_disabled":false,"rental_uris":{"android":"levelo://app?vid=9ffb78e6-49a6-4ab8-86d7-754e501f2866","ios":"levelo://app?vid=9ffb78e6-49a6-4ab8-86d7-754e501f2866"},"vehicle_type_id":"4","last_reported":1728158924,"current_range_meters":38000,"station_id":"ce4bh9p2rcd13ifvqec0","pricing_plan_id":"cebpf4jnsgd1na2vs0mg"},{"bike_id":"00a22fc9-4af6-4c8f-83dc-13d1574999d0","system_id":"levelo_inurba_marseille","lat":43.30478,"lon":5.40172,"is_reserved":false,"is_disabled":false,"rental_uris":{"android":"levelo://app?vid=00a22fc9-4af6-4c8f-83dc-13d1574999d0","ios":"levelo://app?vid=00a22fc9-4af6-4c8f-83dc-13d1574999d0"},"vehicle_type_id":"4","last_reported":1728158924,"current_range_meters":30800,"station_id":"","pricing_plan_id":"cebpf4jnsgd1na2vs0mg"},{"bike_id":"7af7ceaf-e1f0-421c-b052-2db75c521802","system_id":"levelo_inurba_marseille","lat":43.31886,"lon":5.40738,"is_reserved":false,"is_disabled":false,"rental_uris":{"android":"levelo://app?vid=7af7ceaf-e1f0-421c-b052-2db75c521802","ios":"levelo://app?vid=7af7ceaf-e1f0-421c-b052-2db75c521802"},"vehicle_type_id":"4","last_reported":1728158924,"current_range_meters":27600,"station_id":"ce4bhq12rcd13ifvqhig","pricing_plan_id":"cebpf4jnsgd1na2vs0mg"},{"bike_id":"449a207b-1032-4881-84ae-8f7a18cd833c","system_id":"levelo_inurba_marseille","lat":43.24169,"lon":5.36407,"is_reserved":false,"is_disabled":false,"rental_uris":{"android":"levelo://app?vid=449a207b-1032-4881-84ae-8f7a18cd833c","ios":"levelo://app?vid=449a207b-1032-4881-84ae-8f7a18cd833c"},"vehicle_type_id":"4","last_reported":1728158924,"current_range_meters":34800,"station_id":"cpo36qri1sfpv3e86is0","pricing_plan_id":"cebpf4jnsgd1na2vs0mg"},{"bike_id":"096c3c52-ea66-4fc7-aedf-0f68535ced1d","system_id":"levelo_inurba_marseille","lat":43.2381,"lon":5.39655,"is_reserved":false,"is_disabled":false,"rental_uris":{"android":"levelo://app?vid=096c3c52-ea66-4fc7-aedf-0f68535ced1d","ios":"levelo://app?vid=096c3c52-ea66-4fc7-aedf-0f68535ced1d"},"vehicle_type_id":"4","last_reported":1728158924,"current_range_meters":14800,"station_id":"","pricing_plan_id":"cebpf4jnsgd1na2vs0mg"},{"bike_id":"557edaa4-3e22-47b8-9fcb-aca9ed114b97","system_id":"levelo_inurba_marseille","lat":43.24167,"lon":5.36408,"is_reserved":false,"is_disabled":false,"rental_uris":{"android":"levelo://app?vid=557edaa4-3e22-47b8-9fcb-aca9ed114b97","ios":"levelo://app?vid=557edaa4-3e22-47b8-9fcb-aca9ed114b97"},"vehicle_type_id":"4","last_reported":1728158924,"current_range_meters":36800,"station_id":"cpo36qri1sfpv3e86is0","pricing_plan_id":"cebpf4jnsgd1na2vs0mg"},{"bike_id":"10e2cad8-5b87-4361-a750-816e7c888c91","system_id":"levelo_inurba_marseille","lat":43.33767,"lon":5.37441,"is_reserved":false,"is_disabled":false,"rental_uris":{"android":"levelo://app?vid=10e2cad8-5b87-4361-a750-816e7c888c91","ios":"levelo://app?vid=10e2cad8-5b87-4361-a750-816e7c888c91"},"vehicle_type_id":"4","last_reported":1728158924,"current_range_meters":34800,"station_id":"","pricing_plan_id":"cebpf4jnsgd1na2vs0mg"},{"bike_id":"f0b7c043-4f04-4848-bfb5-bb2976bea922","system_id":"levelo_inurba_marseille","lat":43.31751,"lon":5.39017,"is_reserved":false,"is_disabled":false,"rental_uris":{"android":"levelo://app?vid=f0b7c043-4f04-4848-bfb5-bb2976bea922","ios":"levelo://app?vid=f0b7c043-4f04-4848-bfb5-bb2976bea922"},"vehicle_type_id":"4","last_reported":1728158924,"current_range_meters":2800,"station_id":"ce4bhqp2rcd13ifvqhng","pricing_plan_id":"cebpf4jnsgd1na2vs0mg"},{"bike_id":"a513ccaa-0c27-439e-bc69-84cf7ff60039","system_id":"levelo_inurba_marseille","lat":43.337444,"lon":5.374475,"is_reserved":false,"is_disabled":false,"rental_uris":{"android":"levelo://app?vid=a513ccaa-0c27-439e-bc69-84cf7ff60039","ios":"levelo://app?vid=a513ccaa-0c27-439e-bc69-84cf7ff60039"},"vehicle_type_id":"4","last_reported":1728158924,"current_range_meters":32800,"station_id":"","pricing_plan_id":"cebpf4jnsgd1na2vs0mg"},{"bike_id":"f7f95201-a17e-4e74-873c-8b4bc70c0c96","system_id":"levelo_inurba_marseille","lat":43.29196,"lon":5.3581,"is_reserved":false,"is_disabled":false,"rental_uris":{"android":"levelo://app?vid=f7f95201-a17e-4e74-873c-8b4bc70c0c96","ios":"levelo://app?vid=f7f95201-a17e-4e74-873c-8b4bc70c0c96"},"vehicle_type_id":"4","last_reported":1728158924,"current_range_meters":18000,"station_id":"ce4bhb12rcd13ifvqel0","pricing_plan_id":"cebpf4jnsgd1na2vs0mg"},{"bike_id":"2edf7a1f-b0d5-4d76-998c-e10264f94a8b","system_id":"levelo_inurba_marseille","lat":43.27829,"lon":5.39215,"is_reserved":false,"is_disabled":false,"rental_uris":{"android":"levelo://app?vid=2edf7a1f-b0d5-4d76-998c-e10264f94a8b","ios":"levelo://app?vid=2edf7a1f-b0d5-4d76-998c-e10264f94a8b"},"vehicle_type_id":"4","last_reported":1728158924,"current_range_meters":38800,"station_id":"ce4bhjp2rcd13ifvqga0","pricing_plan_id":"cebpf4jnsgd1na2vs0mg"},{"bike_id":"a2a55887-a7f0-4857-aed6-46c29fc16bf3","system_id":"levelo_inurba_marseille","lat":43.29047,"lon":5.35924,"is_reserved":false,"is_disabled":false,"rental_uris":{"android":"levelo://app?vid=a2a55887-a7f0-4857-aed6-46c29fc16bf3","ios":"levelo://app?vid=a2a55887-a7f0-4857-aed6-46c29fc16bf3"},"vehicle_type_id":"4","last_reported":1728158924,"current_range_meters":36400,"station_id":"ce4bha92rcd13ifvqeg0","pricing_plan_id":"cebpf4jnsgd1na2vs0mg"},{"bike_id":"5c56a3bd-eee6-46f6-9565-18e2d60b4a2a","system_id":"levelo_inurba_marseille","lat":43.337643,"lon":5.374432,"is_reserved":false,"is_disabled":false,"rental_uris":{"android":"levelo://app?vid=5c56a3bd-eee6-46f6-9565-18e2d60b4a2a","ios":"levelo://app?vid=5c56a3bd-eee6-46f6-9565-18e2d60b4a2a"},"vehicle_type_id":"4","last_reported":1728158924,"current_range_meters":38000,"station_id":"","pricing_plan_id":"cebpf4jnsgd1na2vs0mg"},{"bike_id":"1a469ad8-1658-4523-8aca-85533c4a1f4c","system_id":"levelo_inurba_marseille","lat":43.28573,"lon":5.39498,"is_reserved":false,"is_disabled":false,"rental_uris":{"android":"levelo://app?vid=1a469ad8-1658-4523-8aca-85533c4a1f4c","ios":"levelo://app?vid=1a469ad8-1658-4523-8aca-85533c4a1f4c"},"vehicle_type_id":"4","last_reported":1728158924,"current_range_meters":6400,"station_id":"ce4bh292rcd13ifvqdg0","pricing_plan_id":"cebpf4jnsgd1na2vs0mg"},{"bike_id":"c01b8607-ab2e-4134-ae3f-3a68fd813b2e","system_id":"levelo_inurba_marseille","lat":43.308,"lon":5.38161,"is_reserved":false,"is_disabled":false,"rental_uris":{"android":"levelo://app?vid=c01b8607-ab2e-4134-ae3f-3a68fd813b2e","ios":"levelo://app?vid=c01b8607-ab2e-4134-ae3f-3a68fd813b2e"},"vehicle_type_id":"4","last_reported":1728158924,"current_range_meters":8400,"station_id":"ce4bgt12rcd13ifvqce0","pricing_plan_id":"cebpf4jnsgd1na2vs0mg"},{"bike_id":"e315600c-3ff8-4893-abe5-0c310d48465d","system_id":"levelo_inurba_marseille","lat":43.33762,"lon":5.37439,"is_reserved":false,"is_disabled":false,"rental_uris":{"android":"levelo://app?vid=e315600c-3ff8-4893-abe5-0c310d48465d","ios":"levelo://app?vid=e315600c-3ff8-4893-abe5-0c310d48465d"},"vehicle_type_id":"4","last_reported":1728158924,"current_range_meters":31200,"station_id":"","pricing_plan_id":"cebpf4jnsgd1na2vs0mg"},{"bike_id":"49b9681a-9931-4c37-a52e-597ee1aa3666","system_id":"levelo_inurba_marseille","lat":43.28327,"lon":5.38193,"is_reserved":false,"is_disabled":false,"rental_uris":{"android":"levelo://app?vid=49b9681a-9931-4c37-a52e-597ee1aa3666","ios":"levelo://app?vid=49b9681a-9931-4c37-a52e-597ee1aa3666"},"vehicle_type_id":"4","last_reported":1728158924,"current_range_meters":16000,"station_id":"ce4bhop2rcd13ifvqh7g","pricing_plan_id":"cebpf4jnsgd1na2vs0mg"},{"bike_id":"234a91d2-8dec-43c9-a798-b831101ff4b9","system_id":"levelo_inurba_marseille","lat":43.23961,"lon":5.36631,"is_reserved":false,"is_disabled":false,"rental_uris":{"android":"levelo://app?vid=234a91d2-8dec-43c9-a798-b831101ff4b9","ios":"levelo://app?vid=234a91d2-8dec-43c9-a798-b831101ff4b9"},"vehicle_type_id":"4","last_reported":1728158924,"current_range_meters":20000,"station_id":"ce4bhi12rcd13ifvqfp0","pricing_plan_id":"cebpf4jnsgd1na2vs0mg"},{"bike_id":"be148d47-d7f0-4e3b-8308-0b6a3961a66a","system_id":"levelo_inurba_marseille","lat":43.32318,"lon":5.38543,"is_reserved":false,"is_disabled":false,"rental_uris":{"android":"levelo://app?vid=be148d47-d7f0-4e3b-8308-0b6a3961a66a","ios":"levelo://app?vid=be148d47-d7f0-4e3b-8308-0b6a3961a66a"},"vehicle_type_id":"4","last_reported":1728158924,"current_range_meters":5600,"station_id":"","pricing_plan_id":"cebpf4jnsgd1na2vs0mg"},{"bike_id":"03453c75-ab92-4e20-97b1-7899e4d6f99b","system_id":"levelo_inurba_marseille","lat":43.28577,"lon":5.39492,"is_reserved":false,"is_disabled":false,"rental_uris":{"android":"levelo://app?vid=03453c75-ab92-4e20-97b1-7899e4d6f99b","ios":"levelo://app?vid=03453c75-ab92-4e20-97b1-7899e4d6f99b"},"vehicle_type_id":"4","last_reported":1728158924,"current_range_meters":30000,"station_id":"ce4bh292rcd13ifvqdg0","pricing_plan_id":"cebpf4jnsgd1na2vs0mg"},{"bike_id":"f980f417-bddd-40c0-ac51-dbc3937fc73f","system_id":"levelo_inurba_marseille","lat":43.29034,"lon":5.38648,"is_reserved":false,"is_disabled":false,"rental_uris":{"android":"levelo://app?vid=f980f417-bddd-40c0-ac51-dbc3937fc73f","ios":"levelo://app?vid=f980f417-bddd-40c0-ac51-dbc3937fc73f"},"vehicle_type_id":"4","last_reported":1728158924,"current_range_meters":38800,"station_id":"ce4bh4p2rcd13ifvqe0g","pricing_plan_id":"cebpf4jnsgd1na2vs0mg"},{"bike_id":"4c9c7c22-8255-4ec6-b861-790156adf082","system_id":"levelo_inurba_marseille","lat":43.29685,"lon":5.3728,"is_reserved":false,"is_disabled":false,"rental_uris":{"android":"levelo://app?vid=4c9c7c22-8255-4ec6-b861-790156adf082","ios":"levelo://app?vid=4c9c7c22-8255-4ec6-b861-790156adf082"},"vehicle_type_id":"4","last_reported":1728158924,"current_range_meters":30800,"station_id":"ce4bgk12rcd13ifvqbj0","pricing_plan_id":"cebpf4jnsgd1na2vs0mg"},{"bike_id":"9b78542c-ea19-40b5-8ce8-4c224886e302","system_id":"levelo_inurba_marseille","lat":43.30531,"lon":5.36727,"is_reserved":false,"is_disabled":false,"rental_uris":{"android":"levelo://app?vid=9b78542c-ea19-40b5-8ce8-4c224886e302","ios":"levelo://app?vid=9b78542c-ea19-40b5-8ce8-4c224886e302"},"vehicle_type_id":"4","last_reported":1728158924,"current_range_meters":37600,"station_id":"ce4bgrp2rcd13ifvqc9g","pricing_plan_id":"cebpf4jnsgd1na2vs0mg"},{"bike_id":"561da172-f927-4ab1-8058-885bfaf0ba3a","system_id":"levelo_inurba_marseille","lat":43.28457,"lon":5.34952,"is_reserved":false,"is_disabled":false,"rental_uris":{"android":"levelo://app?vid=561da172-f927-4ab1-8058-885bfaf0ba3a","ios":"levelo://app?vid=561da172-f927-4ab1-8058-885bfaf0ba3a"},"vehicle_type_id":"4","last_reported":1728158924,"current_range_meters":6000,"station_id":"","pricing_plan_id":"cebpf4jnsgd1na2vs0mg"},{"bike_id":"5939d457-0f77-41f2-999c-b37b585e3d87","system_id":"levelo_inurba_marseille","lat":43.29725,"lon":5.37684,"is_reserved":false,"is_disabled":false,"rental_uris":{"android":"levelo://app?vid=5939d457-0f77-41f2-999c-b37b585e3d87","ios":"levelo://app?vid=5939d457-0f77-41f2-999c-b37b585e3d87"},"vehicle_type_id":"4","last_reported":1728158924,"current_range_meters":8800,"station_id":"ce4bgkh2rcd13ifvqbl0","pricing_plan_id":"cebpf4jnsgd1na2vs0mg"},{"bike_id":"61f3a7fa-2f95-4a20-ab0d-393465f2eaa3","system_id":"levelo_inurba_marseille","lat":43.258629,"lon":5.399073,"is_reserved":false,"is_disabled":false,"rental_uris":{"android":"levelo://app?vid=61f3a7fa-2f95-4a20-ab0d-393465f2eaa3","ios":"levelo://app?vid=61f3a7fa-2f95-4a20-ab0d-393465f2eaa3"},"vehicle_type_id":"4","last_reported":1728158924,"current_range_meters":0,"station_id":"ce4bhl92rcd13ifvqghg","pricing_plan_id":"cebpf4jnsgd1na2vs0mg"},{"bike_id":"e74bf2ca-a440-415f-bead-87512b487b2d","system_id":"levelo_inurba_marseille","lat":43.29022,"lon":5.38637,"is_reserved":false,"is_disabled":false,"rental_uris":{"android":"levelo://app?vid=e74bf2ca-a440-415f-bead-87512b487b2d","ios":"levelo://app?vid=e74bf2ca-a440-415f-bead-87512b487b2d"},"vehicle_type_id":"4","last_reported":1728158924,"current_range_meters":38800,"station_id":"ce4bh4p2rcd13ifvqe0g","pricing_plan_id":"cebpf4jnsgd1na2vs0mg"},{"bike_id":"740aa9b1-bf7f-495f-b4b6-8c44676bc674","system_id":"levelo_inurba_marseille","lat":43.33746,"lon":5.37446,"is_reserved":false,"is_disabled":false,"rental_uris":{"android":"levelo://app?vid=740aa9b1-bf7f-495f-b4b6-8c44676bc674","ios":"levelo://app?vid=740aa9b1-bf7f-495f-b4b6-8c44676bc674"},"vehicle_type_id":"4","last_reported":1728158924,"current_range_meters":4000,"station_id":"","pricing_plan_id":"cebpf4jnsgd1na2vs0mg"},{"bike_id":"e4243ad0-d2a5-44af-a2e1-4577e60046f0","system_id":"levelo_inurba_marseille","lat":43.30935,"lon":5.40143,"is_reserved":false,"is_disabled":false,"rental_uris":{"android":"levelo://app?vid=e4243ad0-d2a5-44af-a2e1-4577e60046f0","ios":"levelo://app?vid=e4243ad0-d2a5-44af-a2e1-4577e60046f0"},"vehicle_type_id":"4","last_reported":1728158924,"current_range_meters":38800,"station_id":"ce4bgvp2rcd13ifvqct0","pricing_plan_id":"cebpf4jnsgd1na2vs0mg"},{"bike_id":"b14a1218-1d8e-439c-a865-11330847aac6","system_id":"levelo_inurba_marseille","lat":43.29038,"lon":5.38659,"is_reserved":false,"is_disabled":false,"rental_uris":{"android":"levelo://app?vid=b14a1218-1d8e-439c-a865-11330847aac6","ios":"levelo://app?vid=b14a1218-1d8e-439c-a865-11330847aac6"},"vehicle_type_id":"4","last_reported":1728158924,"current_range_meters":38800,"station_id":"ce4bh4p2rcd13ifvqe0g","pricing_plan_id":"cebpf4jnsgd1na2vs0mg"},{"bike_id":"77b9203a-0842-4b45-acd8-ada92dfc3441","system_id":"levelo_inurba_marseille","lat":43.29922,"lon":5.38172,"is_reserved":false,"is_disabled":false,"rental_uris":{"android":"levelo://app?vid=77b9203a-0842-4b45-acd8-ada92dfc3441","ios":"levelo://app?vid=77b9203a-0842-4b45-acd8-ada92dfc3441"},"vehicle_type_id":"4","last_reported":1728158924,"current_range_meters":10000,"station_id":"ce4bgj12rcd13ifvqbc0","pricing_plan_id":"cebpf4jnsgd1na2vs0mg"},{"bike_id":"8c61526c-2d67-4b1a-8f32-0018924d753f","system_id":"levelo_inurba_marseille","lat":43.337444,"lon":5.374475,"is_reserved":false,"is_disabled":false,"rental_uris":{"android":"levelo://app?vid=8c61526c-2d67-4b1a-8f32-0018924d753f","ios":"levelo://app?vid=8c61526c-2d67-4b1a-8f32-0018924d753f"},"vehicle_type_id":"4","last_reported":1728158924,"current_range_meters":33200,"station_id":"","pricing_plan_id":"cebpf4jnsgd1na2vs0mg"},{"bike_id":"a1828ecc-c195-4b58-9586-d39a1df75656","system_id":"levelo_inurba_marseille","lat":43.28038,"lon":5.36949,"is_reserved":false,"is_disabled":false,"rental_uris":{"android":"levelo://app?vid=a1828ecc-c195-4b58-9586-d39a1df75656","ios":"levelo://app?vid=a1828ecc-c195-4b58-9586-d39a1df75656"},"vehicle_type_id":"4","last_reported":1728158924,"current_range_meters":35600,"station_id":"ce4bha12rcd13ifvqef0","pricing_plan_id":"cebpf4jnsgd1na2vs0mg"},{"bike_id":"3931d823-3d45-4984-9627-0745732c9806","system_id":"levelo_inurba_marseille","lat":43.27434,"lon":5.39412,"is_reserved":false,"is_disabled":false,"rental_uris":{"android":"levelo://app?vid=3931d823-3d45-4984-9627-0745732c9806","ios":"levelo://app?vid=3931d823-3d45-4984-9627-0745732c9806"},"vehicle_type_id":"4","last_reported":1728158924,"current_range_meters":19200,"station_id":"ce4bhdp2rcd13ifvqf20","pricing_plan_id":"cebpf4jnsgd1na2vs0mg"},