{"last_updated":1728205769,"ttl":60,"version":"2.2","data":{"bikes":[{"bike_id":"b3fb91ee-2552-4bb1-b638-e1c008f0fbc7","system_id":"levelo_inurba_marseille","lat":43.26068,"lon":5.39391,"is_reserved":false,"is_disabled":false,"rental_uris":{"android":"levelo://app?vid=b3fb91ee-2552-4bb1-b638-e1c008f0fbc7","ios":"levelo://app?vid=b3fb91ee-2552-4bb1-b638-e1c008f0fbc7"},"vehicle_type_id":"4","last_reported":1728205769,"current_range_meters":37600,"station_id":"ce4bhh92rcd13ifvqfj0","pricing_plan_id":"cebpf4jnsgd1na2vs0mg"},{"bike_id":"e626ce58-ed24-403d-b16f-1544c4a5d89a","system_id":"levelo_inurba_marseille","lat":43.23195,"lon":5.35557,"is_reserved":false,"is_disabled":false,"rental_uris":{"android":"levelo://app?vid=e626ce58-ed24-403d-b16f-1544c4a5d89a","ios":"levelo://app?vid=e626ce58-ed24-403d-b16f-1544c4a5d89a"},"vehicle_type_id":"4","last_reported":1728205769,"current_range_meters":37600,"station_id":"ce4bhu92rcd13ifvqi70","pricing_plan_id":"cebpf4jnsgd1na2vs0mg"},{"bike_id":"8141a509-e797-4ec3-9b27-a12ebc8090b6","system_id":"levelo_inurba_marseille","lat":43.25112,"lon":5.4032,"is_reserved":false,"is_disabled":false,"rental_uris":{"android":"levelo://app?vid=8141a509-e797-4ec3-9b27-a12ebc8090b6","ios":"levelo://app?vid=8141a509-e797-4ec3-9b27-a12ebc8090b6"},"vehicle_type_id":"4","last_reported":1728205769,"current_range_meters":37600,"station_id":"ce4bhlh2rcd13ifvqgig","pricing_plan_id":"cebpf4jnsgd1na2vs0mg"},{"bike_id":"9671f252-4906-4ded-9eb9-fd7886dcac1f","system_id":"levelo_inurba_marseille","lat":43.31736,"lon":5.39009,"is_reserved":false,"is_disabled":false,"rental_uris":{"android":"levelo://app?vid=9671f252-4906-4ded-9eb9-fd7886dcac1f","ios":"levelo://app?vid=9671f252-4906-4ded-9eb9-fd7886dcac1f"},"vehicle_type_id":"4","last_reported":1728205769,"current_range_meters":38000,"station_id":"ce4bhqp2rcd13ifvqhng","pricing_plan_id":"cebpf4jnsgd1na2vs0mg"},{"bike_id":"3edccbad-c604-40df-acb2-6e9d91b67298","system_id":"levelo_inurba_marseille","lat":43.21343,"lon":5.34939,"is_reserved":false,"is_disabled":false,"rental_uris":{"android":"levelo://app?vid=3edccbad-c604-40df-acb2-6e9d91b67298","ios":"levelo://app?vid=3edccbad-c604-40df-acb2-6e9d91b67298"},"vehicle_type_id":"4","last_reported":1728205769,"current_range_meters":29600,"station_id":"crv51consjfaj9uu89c0","pricing_plan_id":"cebpf4jnsgd1na2vs0mg"},{"bike_id":"1cfeae63-a577-4e03-9463-bfce4103d491","system_id":"levelo_inurba_marseille","lat":43.29635,"lon":5.40591,"is_reserved":false,"is_disabled":false,"rental_uris":{"android":"levelo://app?vid=1cfeae63-a577-4e03-9463-bfce4103d491","ios":"levelo://app?vid=1cfeae63-a577-4e03-9463-bfce4103d491"},"vehicle_type_id":"4","last_reported":1728205769,"current_range_meters":38000,"station_id":"ce4bh0h2rcd13ifvqd60","pricing_plan_id":"cebpf4jnsgd1na2vs0mg"},{"bike_id":"f42ba909-c6af-4d4c-bcad-ee9c6f8944ff","system_id":"levelo_inurba_marseille","lat":43.31738,"lon":5.39032,"is_reserved":false,"is_disabled":false,"rental_uris":{"android":"levelo://app?vid=f42ba909-c6af-4d4c-bcad-ee9c6f8944ff","ios":"levelo://app?vid=f42ba909-c6af-4d4c-bcad-ee9c6f8944ff"},"vehicle_type_id":"4","last_reported":1728205769,"current_range_meters":38800,"station_id":"ce4bhqp2rcd13ifvqhng","pricing_plan_id":"cebpf4jnsgd1na2vs0mg"},{"bike_id":"b8dec4cf-aa31-4f5e-aa1a-10311b6d7c46","system_id":"levelo_inurba_marseille","lat":43.29037,"lon":5.35907,"is_reserved":false,"is_disabled":false,"rental_uris":{"android":"levelo://app?vid=b8dec4cf-aa31-4f5e-aa1a-10311b6d7c46","ios":"levelo://app?vid=b8dec4cf-aa31-4f5e-aa1a-10311b6d7c46"},"vehicle_type_id":"4","last_reported":1728205769,"current_range_meters":38400,"station_id":"ce4bha92rcd13ifvqeg0","pricing_plan_id":"cebpf4jnsgd1na2vs0mg"},{"bike_id":"0690d114-c8c7-4e46-a5a2-7f449cdff008","system_id":"levelo_inurba_marseille","lat":43.30798,"lon":5.43519,"is_reserved":false,"is_disabled":false,"rental_uris":{"android":"levelo://app?vid=0690d114-c8c7-4e46-a5a2-7f449cdff008","ios":"levelo://app?vid=0690d114-c8c7-4e46-a5a2-7f449cdff008"},"vehicle_type_id":"4","last_reported":1728205769,"current_range_meters":22000,"station_id":"ce4bhph2rcd13ifvqheg","pricing_plan_id":"cebpf4jnsgd1na2vs0mg"},{"bike_id":"45724e92-532e-484e-b4a7-5ca3c85c5df6","system_id":"levelo_inurba_marseille","lat":43.23063,"lon":5.3549,"is_reserved":false,"is_disabled":false,"rental_uris":{"android":"levelo://app?vid=45724e92-532e-484e-b4a7-5ca3c85c5df6","ios":"levelo://app?vid=45724e92-532e-484e-b4a7-5ca3c85c5df6"},"vehicle_type_id":"4","last_reported":1728205769,"current_range_meters":19600,"station_id":"cpo3342slgdg3j2ifvpg","pricing_plan_id":"cebpf4jnsgd1na2vs0mg"},{"bike_id":"8b4b06da-a8ff-4dc9-ab9f-042b5fa35747","system_id":"levelo_inurba_marseille","lat":43.25584,"lon":5.38229,"is_reserved":false,"is_disabled":false,"rental_uris":{"android":"levelo://app?vid=8b4b06da-a8ff-4dc9-ab9f-042b5fa35747","ios":"levelo://app?vid=8b4b06da-a8ff-4dc9-ab9f-042b5fa35747"},"vehicle_type_id":"4","last_reported":1728205769,"current_range_meters":7200,"station_id":"ce4bhih2rcd13ifvqfs0","pricing_plan_id":"cebpf4jnsgd1na2vs0mg"},{"bike_id":"3d3e93be-8a67-4628-9af2-2661c9a0daa4","system_id":"levelo_inurba_marseille","lat":43.22933,"lon":5.35382,"is_reserved":false,"is_disabled":false,"rental_uris":{"android":"levelo://app?vid=3d3e93be-8a67-4628-9af2-2661c9a0daa4","ios":"levelo://app?vid=3d3e93be-8a67-4628-9af2-2661c9a0daa4"},"vehicle_type_id":"4","last_reported":1728205769,"current_range_meters":38000,"station_id":"cpo3532slgdg3j2ikp40","pricing_plan_id":"cebpf4jnsgd1na2vs0mg"},{"bike_id":"6266ab0d-036e-4351-aec4-c2f2013119e5","system_id":"levelo_inurba_marseille","lat":43.324839,"lon":5.365639,"is_reserved":false,"is_disabled":false,"rental_uris":{"android":"levelo://app?vid=6266ab0d-036e-4351-aec4-c2f2013119e5","ios":"levelo://app?vid=6266ab0d-036e-4351-aec4-c2f2013119e5"},"vehicle_type_id":"4","last_reported":1728205769,"current_range_meters":40000,"station_id":"ce4bhs12rcd13ifvqhvg","pricing_plan_id":"cebpf4jnsgd1na2vs0mg"},{"bike_id":"6d1960c2-73b0-416f-ac18-052150a2fe98","system_id":"levelo_inurba_marseille","lat":43.31689,"lon":5.40469,"is_reserved":false,"is_disabled":false,"rental_uris":{"android":"levelo://app?vid=6d1960c2-73b0-416f-ac18-052150a2fe98","ios":"levelo://app?vid=6d1960c2-73b0-416f-ac18-052150a2fe98"},"vehicle_type_id":"4","last_reported":1728205769,"current_range_meters":40000,"station_id":"ce4bh012rcd13ifvqd00","pricing_plan_id":"cebpf4jnsgd1na2vs0mg"},{"bike_id":"85919855-620e-4b13-9027-ca497f735245","system_id":"levelo_inurba_marseille","lat":43.27943,"lon":5.4105,"is_reserved":false,"is_disabled":false,"rental_uris":{"android":"levelo://app?vid=85919855-620e-4b13-9027-ca497f735245","ios":"levelo://app?vid=85919855-620e-4b13-9027-ca497f735245"},"vehicle_type_id":"4","last_reported":1728205769,"current_range_meters":38800,"station_id":"ce4bhnp2rcd13ifvqh0g","pricing_plan_id":"cebpf4jnsgd1na2vs0mg"},{"bike_id":"2c1ccc48-7b9a-4b96-82c1-feb476287a75","system_id":"levelo_inurba_marseille","lat":43.25083,"lon":5.39512,"is_reserved":false,"is_disabled":false,"rental_uris":{"android":"levelo://app?vid=2c1ccc48-7b9a-4b96-82c1-feb476287a75","ios":"levelo://app?vid=2c1ccc48-7b9a-4b96-82c1-feb476287a75"},"vehicle_type_id":"4","last_reported":1728205769,"current_range_meters":36400,"station_id":"ce4bhm12rcd13ifvqgkg","pricing_plan_id":"cebpf4jnsgd1na2vs0mg"},{"bike_id":"a41df883-033a-4307-bfb7-c30788c38ba2","system_id":"levelo_inurba_marseille","lat":43.24074,"lon":5.37756,"is_reserved":false,"is_disabled":false,"rental_uris":{"android":"levelo://app?vid=a41df883-033a-4307-bfb7-c30788c38ba2","ios":"levelo://app?vid=a41df883-033a-4307-bfb7-c30788c38ba2"},"vehicle_type_id":"4","last_reported":1728205769,"current_range_meters":6400,"station_id":"ce4bhnp2rcd13ifvqgvg","pricing_plan_id":"cebpf4jnsgd1na2vs0mg"},{"bike_id":"f11dd066-6b94-4d0b-8a87-cb59e5dabda0","system_id":"levelo_inurba_marseille","lat":43.31276,"lon":5.40165,"is_reserved":false,"is_disabled":false,"rental_uris":{"android":"levelo://app?vid=f11dd066-6b94-4d0b-8a87-cb59e5dabda0","ios":"levelo://app?vid=f11dd066-6b94-4d0b-8a87-cb59e5dabda0"},"vehicle_type_id":"4","last_reported":1728205769,"current_range_meters":39200,"station_id":"ce4bh092rcd13ifvqd30","pricing_plan_id":"cebpf4jnsgd1na2vs0mg"},{"bike_id":"259f01fa-a84c-41d8-b0ca-5eecf87c2507","system_id":"levelo_inurba_marseille","lat":43.29712,"lon":5.36621,"is_reserved":false,"is_disabled":false,"rental_uris":{"android":"levelo://app?vid=259f01fa-a84c-41d8-b0ca-5eecf87c2507","ios":"levelo://app?vid=259f01fa-a84c-41d8-b0ca-5eecf87c2507"},"vehicle_type_id":"4","last_reported":1728205769,"current_range_meters":38800,"station_id":"ce4bgn12rcd13ifvqbt0","pricing_plan_id":"cebpf4jnsgd1na2vs0mg"},{"bike_id":"3c42bee8-5f1f-4c3d-b143-5f957071d311","system_id":"levelo_inurba_marseille","lat":43.31887,"lon":5.40734,"is_reserved":false,"is_disabled":false,"rental_uris":{"android":"levelo://app?vid=3c42bee8-5f1f-4c3d-b143-5f957071d311","ios":"levelo://app?vid=3c42bee8-5f1f-4c3d-b143-5f957071d311"},"vehicle_type_id":"4","last_reported":1728205769,"current_range_meters":38800,"station_id":"ce4bhq12rcd13ifvqhig","pricing_plan_id":"cebpf4jnsgd1na2vs0mg"},{"bike_id":"32ab325a-0e98-4bb3-809c-c26d46577549","system_id":"levelo_inurba_marseille","lat":43.22933,"lon":5.35377,"is_reserved":false,"is_disabled":false,"rental_uris":{"android":"levelo://app?vid=32ab325a-0e98-4bb3-809c-c26d46577549","ios":"levelo://app?vid=32ab325a-0e98-4bb3-809c-c26d46577549"},"vehicle_type_id":"4","last_reported":1728205769,"current_range_meters":36800,"station_id":"cpo3532slgdg3j2ikp40","pricing_plan_id":"cebpf4jnsgd1na2vs0mg"},{"bike_id":"8d58af35-737a-4892-967c-364cc230b8c0","system_id":"levelo_inurba_marseille","lat":43.30124,"lon":5.39865,"is_reserved":false,"is_disabled":false,"rental_uris":{"android":"levelo://app?vid=8d58af35-737a-4892-967c-364cc230b8c0","ios":"levelo://app?vid=8d58af35-737a-4892-967c-364cc230b8c0"},"vehicle_type_id":"4","last_reported":1728205769,"current_range_meters":36400,"station_id":"ce4bh0h2rcd13ifvqd40","pricing_plan_id":"cebpf4jnsgd1na2vs0mg"},{"bike_id":"17d8cbcd-0f4c-4a6c-968b-0b9ea072e4cf","system_id":"levelo_inurba_marseille","lat":43.32483,"lon":5.36566,"is_reserved":false,"is_disabled":false,"rental_uris":{"android":"levelo://app?vid=17d8cbcd-0f4c-4a6c-968b-0b9ea072e4cf","ios":"levelo://app?vid=17d8cbcd-0f4c-4a6c-968b-0b9ea072e4cf"},"vehicle_type_id":"4","last_reported":1728205769,"current_range_meters":33200,"station_id":"ce4bhs12rcd13ifvqhvg","pricing_plan_id":"cebpf4jnsgd1na2vs0mg"},{"bike_id":"03ebdfef-60b9-4383-b780-f6e10ef5dff9","system_id":"levelo_inurba_marseille","lat":43.3376,"lon":5.37435,"is_reserved":false,"is_disabled":false,"rental_uris":{"android":"levelo://app?vid=03ebdfef-60b9-4383-b780-f6e10ef5dff9","ios":"levelo://app?vid=03ebdfef-60b9-4383-b780-f6e10ef5dff9"},"vehicle_type_id":"4","last_reported":1728205769,"current_range_meters":28000,"station_id":"","pricing_plan_id":"cebpf4jnsgd1na2vs0mg"},{"bike_id":"186c4aba-073c-4d76-b724-4530538462c3","system_id":"levelo_inurba_marseille","lat":43.30426,"lon":5.38888,"is_reserved":false,"is_disabled":false,"rental_uris":{"android":"levelo://app?vid=186c4aba-073c-4d76-b724-4530538462c3","ios":"levelo://app?vid=186c4aba-073c-4d76-b724-4530538462c3"},"vehicle_type_id":"4","last_reported":1728205769,"current_range_meters":37600,"station_id":"ce4bgk12rcd13ifvqbi0","pricing_plan_id":"cebpf4jnsgd1na2vs0mg"},{"bike_id":"5c08e252-2839-4947-989c-31c1eb0bd795","system_id":"levelo_inurba_marseille","lat":43.30132,"lon":5.39871,"is_reserved":false,"is_disabled":false,"rental_uris":{"android":"levelo://app?vid=5c08e252-2839-4947-989c-31c1eb0bd795","ios":"levelo://app?vid=5c08e252-2839-4947-989c-31c1eb0bd795"},"vehicle_type_id":"4","last_reported":1728205769,"current_range_meters":33600,"station_id":"ce4bh0h2rcd13ifvqd40","pricing_plan_id":"cebpf4jnsgd1na2vs0mg"},{"bike_id":"8776769b-9d44-4cbf-8bfe-df4892fb90c2","system_id":"levelo_inurba_marseille","lat":43.32365,"lon":5.38881,"is_reserved":false,"is_disabled":false,"rental_uris":{"android":"levelo://app?vid=8776769b-9d44-4cbf-8bfe-df4892fb90c2","ios":"levelo://app?vid=8776769b-9d44-4cbf-8bfe-df4892fb90c2"},"vehicle_type_id":"4","last_reported":1728205769,"current_range_meters":25200,"station_id":"ce4bhqp2rcd13ifvqhog","pricing_plan_id":"cebpf4jnsgd1na2vs0mg"},{"bike_id":"0952ea56-7f44-4708-ab22-7a7a98985b63","system_id":"levelo_inurba_marseille","lat":43.33023,"lon":5.39037,"is_reserved":false,"is_disabled":false,"rental_uris":{"android":"levelo://app?vid=0952ea56-7f44-4708-ab22-7a7a98985b63","ios":"levelo://app?vid=0952ea56-7f44-4708-ab22-7a7a98985b63"},"vehicle_type_id":"4","last_reported":1728205769,"current_range_meters":32000,"station_id":"ce4bhr92rcd13ifvqhrg","pricing_plan_id":"cebpf4jnsgd1na2vs0mg"},{"bike_id":"8c4ede2a-8479-4951-912b-e9104b176599","system_id":"levelo_inurba_marseille","lat":43.33725,"lon":5.39194,"is_reserved":false,"is_disabled":false,"rental_uris":{"android":"levelo://app?vid=8c4ede2a-8479-4951-912b-e9104b176599","ios":"levelo://app?vid=8c4ede2a-8479-4951-912b-e9104b176599"},"vehicle_type_id":"4","last_reported":1728205769,"current_range_meters":8400,"station_id":"ce4bhr92rcd13ifvqhsg","pricing_plan_id":"cebpf4jnsgd1na2vs0mg"},{"bike_id":"3920a801-f95a-442e-910e-dda1083c3719","system_id":"levelo_inurba_marseille","lat":43.27995,"lon":5.41664,"is_reserved":false,"is_disabled":false,"rental_uris":{"android":"levelo://app?vid=3920a801-f95a-442e-910e-dda1083c3719","ios":"levelo://app?vid=3920a801-f95a-442e-910e-dda1083c3719"},"vehicle_type_id":"4","last_reported":1728205769,"current_range_meters":7200,"station_id":"ce4bho12rcd13ifvqh1g","pricing_plan_id":"cebpf4jnsgd1na2vs0mg"},{"bike_id":"a209a971-131e-491a-94c0-3302688dd8c9","system_id":"levelo_inurba_marseille","lat":43.3082,"lon":5.43534,"is_reserved":false,"is_disabled":false,"rental_uris":{"android":"levelo://app?vid=a209a971-131e-491a-94c0-3302688dd8c9","ios":"levelo://app?vid=a209a971-131e-491a-94c0-3302688dd8c9"},"vehicle_type_id":"4","last_reported":1728205769,"current_range_meters":13600,"station_id":"ce4bhph2rcd13ifvqheg","pricing_plan_id":"cebpf4jnsgd1na2vs0mg"},{"bike_id":"8e996ab2-c2dc-456e-a1a4-df39f3ed1aa2","system_id":"levelo_inurba_marseille","lat":43.31364,"lon":5.38502,"is_reserved":false,"is_disabled":false,"rental_uris":{"android":"levelo://app?vid=8e996ab2-c2dc-456e-a1a4-df39f3ed1aa2","ios":"levelo://app?vid=8e996ab2-c2dc-456e-a1a4-df39f3ed1aa2"},"vehicle_type_id":"4","last_reported":1728205769,"current_range_meters":30400,"station_id":"ce4bgt92rcd13ifvqcf0","pricing_plan_id":"cebpf4jnsgd1na2vs0mg"},{"bike_id":"4018fa26-9a2a-4214-af21-76b3667a940b","system_id":"levelo_inurba_marseille","lat":43.33803,"lon":5.3741,"is_reserved":false,"is_disabled":false,"rental_uris":{"android":"levelo://app?vid=4018fa26-9a2a-4214-af21-76b3667a940b","ios":"levelo://app?vid=4018fa26-9a2a-4214-af21-76b3667a940b"},"vehicle_type_id":"4","last_reported":1728205769,"current_range_meters":28800,"station_id":"","pricing_plan_id":"cebpf4jnsgd1na2vs0mg"},{"bike_id":"b00ad3de-21ec-4734-b75e-c27093a8f42f","system_id":"levelo_inurba_marseille","lat":43.29591,"lon":5.36738,"is_reserved":false,"is_disabled":false,"rental_uris":{"android":"levelo://app?vid=b00ad3de-21ec-4734-b75e-c27093a8f42f","ios":"levelo://app?vid=b00ad3de-21ec-4734-b75e-c27093a8f42f"},"vehicle_type_id":"4","last_reported":1728205769,"current_range_meters":2000,"station_id":"ce4bgph2rcd13ifvqc2g","pricing_plan_id":"cebpf4jnsgd1na2vs0mg"},{"bike_id":"92c7f3e2-edb7-470b-9ef3-0c7e769a8af0","system_id":"levelo_inurba_marseille","lat":43.27072,"lon":5.42275,"is_reserved":false,"is_disabled":false,"rental_uris":{"android":"levelo://app?vid=92c7f3e2-edb7-470b-9ef3-0c7e769a8af0","ios":"levelo://app?vid=92c7f3e2-edb7-470b-9ef3-0c7e769a8af0"},"vehicle_type_id":"4","last_reported":1728205769,"current_range_meters":30000,"station_id":"ce4bhk92rcd13ifvqgb0","pricing_plan_id":"cebpf4jnsgd1na2vs0mg"},{"bike_id":"fac6f7d5-25da-4d75-bd37-6eb9ec641f1f","system_id":"levelo_inurba_marseille","lat":43.23191,"lon":5.35551,"is_reserved":false,"is_disabled":false,"rental_uris":{"android":"levelo://app?vid=fac6f7d5-25da-4d75-bd37-6eb9ec641f1f","ios":"levelo://app?vid=fac6f7d5-25da-4d75-bd37-6eb9ec641f1f"},"vehicle_type_id":"4","last_reported":1728205769,"current_range_meters":37600,"station_id":"ce4bhu92rcd13ifvqi70","pricing_plan_id":"cebpf4jnsgd1na2vs0mg"},{"bike_id":"ac7477e2-647f-4698-b2f1-05ac6bd7ca79","system_id":"levelo_inurba_marseille","lat":43.27373,"lon":5.36255,"is_reserved":false,"is_disabled":false,"rental_uris":{"android":"levelo://app?vid=ac7477e2-647f-4698-b2f1-05ac6bd7ca79","ios":"levelo://app?vid=ac7477e2-647f-4698-b2f1-05ac6bd7ca79"},"vehicle_type_id":"4","last_reported":1728205769,"current_range_meters":34000,"station_id":"ce4bhbh2rcd13ifvqeo0","pricing_plan_id":"cebpf4jnsgd1na2vs0mg"},{"bike_id":"ea1558d2-8ab1-46c9-b214-6b68c55ad7cc","system_id":"levelo_inurba_marseille","lat":43.30956,"lon":5.39033,"is_reserved":false,"is_disabled":false,"rental_uris":{"android":"levelo://app?vid=ea1558d2-8ab1-46c9-b214-6b68c55ad7cc","ios":"levelo://app?vid=ea1558d2-8ab1-46c9-b214-6b68c55ad7cc"},"vehicle_type_id":"4","last_reported":1728205769,"current_range_meters":37600,"station_id":"ce4bgup2rcd13ifvqco0","pricing_plan_id":"cebpf4jnsgd1na2vs0mg"},{"bike_id":"c2631e27-f561-45cd-964c-4f2a217a8c4e","system_id":"levelo_inurba_marseille","lat":43.3064,"lon":5.40091,"is_reserved":false,"is_disabled":false,"rental_uris":{"android":"levelo://app?vid=c2631e27-f561-45cd-964c-4f2a217a8c4e","ios":"levelo://app?vid=c2631e27-f561-45cd-964c-4f2a217a8c4e"},"vehicle_type_id":"4","last_reported":1728205769,"current_range_meters":4400,"station_id":"ce4bh112rcd13ifvqda0","pricing_plan_id":"cebpf4jnsgd1na2vs0mg"},{"bike_id":"0cbb1dbc-c89b-4f75-b91d-6d2358be33ad","system_id":"levelo_inurba_marseille","lat":43.31494,"lon":5.37302,"is_reserved":false,"is_disabled":false,"rental_uris":{"android":"levelo://app?vid=0cbb1dbc-c89b-4f75-b91d-6d2358be33ad","ios":"levelo://app?vid=0cbb1dbc-c89b-4f75-b91d-6d2358be33ad"},"vehicle_type_id":"4","last_reported":1728205769,"current_range_meters":39200,"station_id":"ce4bgt12rcd13ifvqcd0","pricing_plan_id":"cebpf4jnsgd1na2vs0mg"},{"bike_id":"90cd6e6a-b411-4103-9945-ece0773ec258","system_id":"levelo_inurba_marseille","lat":43.26564,"lon":5.39014,"is_reserved":false,"is_disabled":false,"rental_uris":{"android":"levelo://app?vid=90cd6e6a-b411-4103-9945-ece0773ec258","ios":"levelo://app?vid=90cd6e6a-b411-4103-9945-ece0773ec258"},"vehicle_type_id":"4","last_reported":1728205769,"current_range_meters":16800,"station_id":"ce4bhe12rcd13ifvqf30","pricing_plan_id":"cebpf4jnsgd1na2vs0mg"},{"bike_id":"aeb150c0-d784-4966-882d-39b5e68454ea","system_id":"levelo_inurba_marseille","lat":43.30658,"lon":5.4008,"is_reserved":false,"is_disabled":false,"rental_uris":{"android":"levelo://app?vid=aeb150c0-d784-4966-882d-39b5e68454ea","ios":"levelo://app?vid=aeb150c0-d784-4966-882d-39b5e68454ea"},"vehicle_type_id":"4","last_reported":1728205769,"current_range_meters":32400,"station_id":"ce4bh112rcd13ifvqda0","pricing_plan_id":"cebpf4jnsgd1na2vs0mg"},{"bike_id":"270d446c-c917-4cb4-bb1b-6308ef4780b2","system_id":"levelo_inurba_marseille","lat":43.31364,"lon":5.38502,"is_reserved":false,"is_disabled":false,"rental_uris":{"android":"levelo://app?vid=270d446c-c917-4cb4-bb1b-6308ef4780b2","ios":"levelo://app?vid=270d446c-c917-4cb4-bb1b-6308ef4780b2"},"vehicle_type_id":"4","last_reported":1728205769,"current_range_meters":9200,"station_id":"ce4bgt92rcd13ifvqcf0","pricing_plan_id":"cebpf4jnsgd1na2vs0mg"},{"bike_id":"be80d8a2-d07f-4e97-a19e-421069027a70","system_id":"levelo_inurba_marseille","lat":43.24546,"lon":5.3952,"is_reserved":false,"is_disabled":false,"rental_uris":{"android":"levelo://app?vid=be80d8a2-d07f-4e97-a19e-421069027a70","ios":"levelo://app?vid=be80d8a2-d07f-4e97-a19e-421069027a70"},"vehicle_type_id":"4","last_reported":1728205769,"current_range_meters":38000,"station_id":"ce4bhlp2rcd13ifvqgjg","pricing_plan_id":"cebpf4jnsgd1na2vs0mg"},{"bike_id":"491813ec-5bcd-4eda-acb2-c01ccb4e9894","system_id":"levelo_inurba_marseille","lat":43.33761,"lon":5.37432,"is_reserved":false,"is_disabled":false,"rental_uris":{"android":"levelo://app?vid=491813ec-5bcd-4eda-acb2-c01ccb4e9894","ios":"levelo://app?vid=491813ec-5bcd-4eda-acb2-c01ccb4e9894"},"vehicle_type_id":"4","last_reported":1728205769,"current_range_meters":27600,"station_id":"","pricing_plan_id":"cebpf4jnsgd1na2vs0mg"},{"bike_id":"8314afce-5c76-45ae-958c-61928c717fd9","system_id":"levelo_inurba_marseille","lat":43.27993,"lon":5.41657,"is_reserved":false,"is_disabled":false,"rental_uris":{"android":"levelo://app?vid=8314afce-5c76-45ae-958c-61928c717fd9","ios":"levelo://app?vid=8314afce-5c76-45ae-958c-61928c717fd9"},"vehicle_type_id":"4","last_reported":1728205769,"current_range_meters":31200,"station_id":"ce4bho12rcd13ifvqh1g","pricing_plan_id":"cebpf4jnsgd1na2vs0mg"},{"bike_id":"8066cbd9-6f5f-4c8b-82e0-670217342883","system_id":"levelo_inurba_marseille","lat":43.21345,"lon":5.34938,"is_reserved":false,"is_disabled":false,"rental_uris":{"android":"levelo://app?vid=8066cbd9-6f5f-4c8b-82e0-670217342883","ios":"levelo://app?vid=8066cbd9-6f5f-4c8b-82e0-670217342883"},"vehicle_type_id":"4","last_reported":1728205769,"current_range_meters":34000,"station_id":"crv51consjfaj9uu89c0","pricing_plan_id":"cebpf4jnsgd1na2vs0mg"},{"bike_id":"87be7a17-4302-4965-8336-821c2174ed32","system_id":"levelo_inurba_marseille","lat":43.25118,"lon":5.40322,"is_reserved":false,"is_disabled":false,"rental_uris":{"android":"levelo://app?vid=87be7a17-4302-4965-8336-821c2174ed32","ios":"levelo://app?vid=87be7a17-4302-4965-8336-821c2174ed32"},"vehicle_type_id":"4","last_reported":1728205769,"current_range_meters":37600,"station_id":"ce4bhlh2rcd13ifvqgig","pricing_plan_id":"cebpf4jnsgd1na2vs0mg"},{"bike_id":"c56a7f6d-1c51-4af0-848a-53ce2371dbf4","system_id":"levelo_inurba_marseille","lat":43.317233,"lon":5.424005,"is_reserved":false,"is_disabled":false,"rental_uris":{"android":"levelo://app?vid=c56a7f6d-1c51-4af0-848a-53ce2371dbf4","ios":"levelo://app?vid=c56a7f6d-1c51-4af0-848a-53ce2371dbf4"},"vehicle_type_id":"4","last_reported":1728205769,"current_range_meters":16400,"station_id":"ce4bhp92rcd13ifvqhbg","pricing_plan_id":"cebpf4jnsgd1na2vs0mg"},{"bike_id":"baba7691-81ff-4c7d-90d9-c89eba9696cb","system_id":"levelo_inurba_marseille","lat":43.25928,"lon":5.40908,"is_reserved":false,"is_disabled":false,"rental_uris":{"android":"levelo://app?vid=baba7691-81ff-4c7d-90d9-c89eba9696cb","ios":"levelo://app?vid=baba7691-81ff-4c7d-90d9-c89eba9696cb"},"vehicle_type_id":"4","last_reported":1728205769,"current_range_meters":32400,"station_id":"ce4bhm92rcd13ifvqglg","pricing_plan_id":"cebpf4jnsgd1na2vs0mg"},{"bike_id":"a6007e39-eafe-4c4f-8bcd-ba3040fddf98","system_id":"levelo_inurba_marseille","lat":43.29269,"lon":5.3684,"is_reserved":false,"is_disabled":false,"rental_uris":{"android":"levelo://app?vid=a6007e39-eafe-4c4f-8bcd-ba3040fddf98","ios":"levelo://app?vid=a6007e39-eafe-4c4f-8bcd-ba3040fddf98"},"vehicle_type_id":"4","last_reported":1728205769,"current_range_meters":20800,"station_id":"ce4bhbp2rcd13ifvqesg","pricing_plan_id":"cebpf4jnsgd1na2vs0mg"},{"bike_id":"50b3012e-ec86-40b5-9328-579a7f881b99","system_id":"levelo_inurba_marseille","lat":43.29045,"lon":5.35937,"is_reserved":false,"is_disabled":false,"rental_uris":{"android":"levelo://app?vid=50b3012e-ec86-40b5-9328-579a7f881b99","ios":"levelo://app?vid=50b3012e-ec86-40b5-9328-579a7f881b99"},"vehicle_type_id":"4","last_reported":1728205769,"current_range_meters":23200,"station_id":"ce4bha92rcd13ifvqeg0","pricing_plan_id":"cebpf4jnsgd1na2vs0mg"},{"bike_id":"2b08579d-333c-4fe2-94e8-5ba5b8475885","system_id":"levelo_inurba_marseille","lat":43.27071,"lon":5.42277,"is_reserved":false,"is_disabled":false,"rental_uris":{"android":"levelo://app?vid=2b08579d-333c-4fe2-94e8-5ba5b8475885","ios":"levelo://app?vid=2b08579d-333c-4fe2-94e8-5ba5b8475885"},"vehicle_type_id":"4","last_reported":1728205769,"current_range_meters":40000,"station_id":"ce4bhk92rcd13ifvqgb0","pricing_plan_id":"cebpf4jnsgd1na2vs0mg"},{"bike_id":"d73e4c46-b32f-4eb4-8be2-86b635c69fb6","system_id":"levelo_inurba_marseille","lat":43.26199,"lon":5.37923,"is_reserved":false,"is_disabled":false,"rental_uris":{"android":"levelo://app?vid=d73e4c46-b32f-4eb4-8be2-86b635c69fb6","ios":"levelo://app?vid=d73e4c46-b32f-4eb4-8be2-86b635c69fb6"},"vehicle_type_id":"4","last_reported":1728205769,"current_range_meters":15200,"station_id":"ce4bhjp2rcd13ifvqg90","pricing_plan_id":"cebpf4jnsgd1na2vs0mg"},{"bike_id":"1a4b9bee-9297-474e-8c5a-addba9e72262","system_id":"levelo_inurba_marseille","lat":43.27484,"lon":5.42452,"is_reserved":false,"is_disabled":false,"rental_uris":{"android":"levelo://app?vid=1a4b9bee-9297-474e-8c5a-addba9e72262","ios":"levelo://app?vid=1a4b9bee-9297-474e-8c5a-addba9e72262"},"vehicle_type_id":"4","last_reported":1728205769,"current_range_meters":32800,"station_id":"ce4bhn92rcd13ifvqgrg","pricing_plan_id":"cebpf4jnsgd1na2vs0mg"},{"bike_id":"d23ddbe4-840b-4d6d-8e13-a20922334a77","system_id":"levelo_inurba_marseille","lat":43.32487,"lon":5.36559,"is_reserved":false,"is_disabled":false,"rental_uris":{"android":"levelo://app?vid=d23ddbe4-840b-4d6d-8e13-a20922334a77","ios":"levelo://app?vid=d23ddbe4-840b-4d6d-8e13-a20922334a77"},"vehicle_type_id":"4","last_reported":1728205769,"current_range_meters":38800,"station_id":"ce4bhs12rcd13ifvqhvg","pricing_plan_id":"cebpf4jnsgd1na2vs0mg"},{"bike_id":"4af55307-045f-4c66-a045-a91d88bb4c16","system_id":"levelo_inurba_marseille","lat":43.22931,"lon":5.35376,"is_reserved":false,"is_disabled":false,"rental_uris":{"android":"levelo://app?vid=4af55307-045f-4c66-a045-a91d88bb4c16","ios":"levelo://app?vid=4af55307-045f-4c66-a045-a91d88bb4c16"},"vehicle_type_id":"4","last_reported":1728205769,"current_range_meters":31200,"station_id":"cpo3532slgdg3j2ikp40","pricing_plan_id":"cebpf4jnsgd1na2vs0mg"},{"bike_id":"d953ac30-068e-444c-b8b5-632ec8ac0f63","system_id":"levelo_inurba_marseille","lat":43.29004,"lon":5.35605,"is_reserved":false,"is_disabled":false,"rental_uris":{"android":"levelo://app?vid=d953ac30-068e-444c-b8b5-632ec8ac0f63","ios":"levelo://app?vid=d953ac30-068e-444c-b8b5-632ec8ac0f63"},"vehicle_type_id":"4","last_reported":1728205769,"current_range_meters":40000,"station_id":"ce4bhb92rcd13ifvqen0","pricing_plan_id":"cebpf4jnsgd1na2vs0mg"},{"bike_id":"b3e1a15e-f8c8-48d6-b6bd-0b541f7f61fd","system_id":"levelo_inurba_marseille","lat":43.29846,"lon":5.36285,"is_reserved":false,"is_disabled":false,"rental_uris":{"android":"levelo://app?vid=b3e1a15e-f8c8-48d6-b6bd-0b541f7f61fd","ios":"levelo://app?vid=b3e1a15e-f8c8-48d6-b6bd-0b541f7f61fd"},"vehicle_type_id":"4","last_reported":1728205769,"current_range_meters":34800,"station_id":"ce4bgpp2rcd13ifvqc3g","pricing_plan_id":"cebpf4jnsgd1na2vs0mg"},{"bike_id":"13a35d1a-1c21-4cdd-9282-17040c700716","system_id":"levelo_inurba_marseille","lat":43.32536,"lon":5.41429,"is_reserved":false,"is_disabled":false,"rental_uris":{"android":"levelo://app?vid=13a35d1a-1c21-4cdd-9282-17040c700716","ios":"levelo://app?vid=13a35d1a-1c21-4cdd-9282-17040c700716"},"vehicle_type_id":"4","last_reported":1728205769,"current_range_meters":35600,"station_id":"ce4bhq12rcd13ifvqhhg","pricing_plan_id":"cebpf4jnsgd1na2vs0mg"},{"bike_id":"5fe9af2d-0282-40cf-ae73-3a1b842e2f4b","system_id":"levelo_inurba_marseille","lat":43.2306,"lon":5.35494,"is_reserved":false,"is_disabled":false,"rental_uris":{"android":"levelo://app?vid=5fe9af2d-0282-40cf-ae73-3a1b842e2f4b","ios":"levelo://app?vid=5fe9af2d-0282-40cf-ae73-3a1b842e2f4b"},"vehicle_type_id":"4","last_reported":1728205769,"current_range_meters":36800,"station_id":"cpo3342slgdg3j2ifvpg","pricing_plan_id":"cebpf4jnsgd1na2vs0mg"},{"bike_id":"235344ae-d40d-4c9e-a986-52bb5c104ce0","system_id":"levelo_inurba_marseille","lat":43.3169,"lon":5.40464,"is_reserved":false,"is_disabled":false,"rental_uris":{"android":"levelo://app?vid=235344ae-d40d-4c9e-a986-52bb5c104ce0","ios":"levelo://app?vid=235344ae-d40d-4c9e-a986-52bb5c104ce0"},"vehicle_type_id":"4","last_reported":1728205769,"current_range_meters":38000,"station_id":"ce4bh012rcd13ifvqd00","pricing_plan_id":"cebpf4jnsgd1na2vs0mg"},{"bike_id":"265b6257-cac5-4700-be81-5022c39ebf02","system_id":"levelo_inurba_marseille","lat":43.21346,"lon":5.3494,"is_reserved":false,"is_disabled":false,"rental_uris":{"android":"levelo://app?vid=265b6257-cac5-4700-be81-5022c39ebf02","ios":"levelo://app?vid=265b6257-cac5-4700-be81-5022c39ebf02"},"vehicle_type_id":"4","last_reported":1728205769,"current_range_meters":32800,"station_id":"crv51consjfaj9uu89c0","pricing_plan_id":"cebpf4jnsgd1na2vs0mg"},{"bike_id":"60b55658-605f-439c-9d92-20e54141b5ae","system_id":"levelo_inurba_marseille","lat":43.271732,"lon":5.409974,"is_reserved":false,"is_disabled":false,"rental_uris":{"android":"levelo://app?vid=60b55658-605f-439c-9d92-20e54141b5ae","ios":"levelo://app?vid=60b55658-605f-439c-9d92-20e54141b5ae"},"vehicle_type_id":"4","last_reported":1728205769,"current_range_meters":14800,"station_id":"ce4bgh92rcd13ifvqb40","pricing_plan_id":"cebpf4jnsgd1na2vs0mg"},{"bike_id":"5c8d9bf1-bccd-4d4c-bc3c-b6e8fd36dfc4","system_id":"levelo_inurba_marseille","lat":43.25582,"lon":5.38228,"is_reserved":false,"is_disabled":false,"rental_uris":{"android":"levelo://app?vid=5c8d9bf1-bccd-4d4c-bc3c-b6e8fd36dfc4","ios":"levelo://app?vid=5c8d9bf1-bccd-4d4c-bc3c-b6e8fd36dfc4"},"vehicle_type_id":"4","last_reported":1728205769,"current_range_meters":25600,"station_id":"ce4bhih2rcd13ifvqfs0","pricing_plan_id":"cebpf4jnsgd1na2vs0mg"},{"bike_id":"ec6e251e-99d1-4ac4-a075-545dbd029bdc","system_id":"levelo_inurba_marseille","lat":43.28912,"lon":5.36188,"is_reserved":false,"is_disabled":false,"rental_uris":{"android":"levelo://app?vid=ec6e251e-99d1-4ac4-a075-545dbd029bdc","ios":"levelo://app?vid=ec6e251e-99d1-4ac4-a075-545dbd029bdc"},"vehicle_type_id":"4","last_reported":1728205769,"current_range_meters":30000,"station_id":"","pricing_plan_id":"cebpf4jnsgd1na2vs0mg"},{"bike_id":"32de8690-8902-45d9-9261-1a5a54055b39","system_id":"levelo_inurba_marseille","lat":43.33025,"lon":5.39035,"is_reserved":false,"is_disabled":false,"rental_uris":{"android":"levelo://app?vid=32de8690-8902-45d9-9261-1a5a54055b39","ios":"levelo://app?vid=32de8690-8902-45d9-9261-1a5a54055b39"},"vehicle_type_id":"4","last_reported":1728205769,"current_range_meters":38000,"station_id":"ce4bhr92rcd13ifvqhrg","pricing_plan_id":"cebpf4jnsgd1na2vs0mg"},{"bike_id":"97ef281f-c717-429c-a078-d6a368902950","system_id":"levelo_inurba_marseille","lat":43.21347,"lon":5.34941,"is_reserved":false,"is_disabled":false,"rental_uris":{"android":"levelo://app?vid=97ef281f-c717-429c-a078-d6a368902950","ios":"levelo://app?vid=97ef281f-c717-429c-a078-d6a368902950"},"vehicle_type_id":"4","last_reported":1728205769,"current_range_meters":25200,"station_id":"crv51consjfaj9uu89c0","pricing_plan_id":"cebpf4jnsgd1na2vs0mg"},{"bike_id":"f41af709-4741-45bf-a75a-e5e2fdef89e3","system_id":"levelo_inurba_marseille","lat":43.28717,"lon":5.36081,"is_reserved":false,"is_disabled":false,"rental_uris":{"android":"levelo://app?vid=f41af709-4741-45bf-a75a-e5e2fdef89e3","ios":"levelo://app?vid=f41af709-4741-45bf-a75a-e5e2fdef89e3"},"vehicle_type_id":"4","last_reported":1728205769,"current_range_meters":37600,"station_id":"cki0cbj6b192h4jlfktg","pricing_plan_id":"cebpf4jnsgd1na2vs0mg"},{"bike_id":"2342e712-b3d0-4dcf-9842-1074e15440f1","system_id":"levelo_inurba_marseille","lat":43.23185,"lon":5.3999,"is_reserved":false,"is_disabled":false,"rental_uris":{"android":"levelo://app?vid=2342e712-b3d0-4dcf-9842-1074e15440f1","ios":"levelo://app?vid=2342e712-b3d0-4dcf-9842-1074e15440f1"},"vehicle_type_id":"4","last_reported":1728205769,"current_range_meters":23200,"station_id":"ce4bhn12rcd13ifvqgqg","pricing_plan_id":"cebpf4jnsgd1na2vs0mg"},{"bike_id":"9293c641-81f5-4eb9-a97b-1629c26ae1ee","system_id":"levelo_inurba_marseille","lat":43.28378,"lon":5.38636,"is_reserved":false,"is_disabled":false,"rental_uris":{"android":"levelo://app?vid=9293c641-81f5-4eb9-a97b-1629c26ae1ee","ios":"levelo://app?vid=9293c641-81f5-4eb9-a97b-1629c26ae1ee"},"vehicle_type_id":"4","last_reported":1728205769,"current_range_meters":35600,"station_id":"ce4bh492rcd13ifvqdvg","pricing_plan_id":"cebpf4jnsgd1na2vs0mg"},{"bike_id":"4dd07eeb-bcd6-4372-b474-9207e1e1771d","system_id":"levelo_inurba_marseille","lat":43.30803,"lon":5.43522,"is_reserved":false,"is_disabled":false,"rental_uris":{"android":"levelo://app?vid=4dd07eeb-bcd6-4372-b474-9207e1e1771d","ios":"levelo://app?vid=4dd07eeb-bcd6-4372-b474-9207e1e1771d"},"vehicle_type_id":"4","last_reported":1728205769,"current_range_meters":10000,"station_id":"ce4bhph2rcd13ifvqheg","pricing_plan_id":"cebpf4jnsgd1na2vs0mg"},{"bike_id":"c437175d-0e29-478f-bc71-93de3b699267","system_id":"levelo_inurba_marseille","lat":43.27944,"lon":5.41046,"is_reserved":false,"is_disabled":false,"rental_uris":{"android":"levelo://app?vid=c437175d-0e29-478f-bc71-93de3b699267","ios":"levelo://app?vid=c437175d-0e29-478f-bc71-93de3b699267"},"vehicle_type_id":"4","last_reported":1728205769,"current_range_meters":13600,"station_id":"ce4bhnp2rcd13ifvqh0g","pricing_plan_id":"cebpf4jnsgd1na2vs0mg"},{"bike_id":"be56f1a4-275f-4091-81c4-2d7d1e9dc326","system_id":"levelo_inurba_marseille","lat":43.28149,"lon":5.42634,"is_reserved":false,"is_disabled":false,"rental_uris":{"android":"levelo://app?vid=be56f1a4-275f-4091-81c4-2d7d1e9dc326","ios":"levelo://app?vid=be56f1a4-275f-4091-81c4-2d7d1e9dc326"},"vehicle_type_id":"4","last_reported":1728205769,"current_range_meters":6000,"station_id":"ce4bhnh2rcd13ifvqgug","pricing_plan_id":"cebpf4jnsgd1na2vs0mg"},{"bike_id":"001a42b9-c901-452e-9c8a-fb18f31f236d","system_id":"levelo_inurba_marseille","lat":43.33609,"lon":5.4103,"is_reserved":false,"is_disabled":false,"rental_uris":{"android":"levelo://app?vid=001a42b9-c901-452e-9c8a-fb18f31f236d","ios":"levelo://app?vid=001a42b9-c901-452e-9c8a-fb18f31f236d"},"vehicle_type_id":"4","last_reported":1728205769,"current_range_meters":4800,"station_id":"ce4bhqh2rcd13ifvqhmg","pricing_plan_id":"cebpf4jnsgd1na2vs0mg"},{"bike_id":"ad7ddac3-f664-4cf0-9b7e-cf9567b1e004","system_id":"levelo_inurba_marseille","lat":43.2512,"lon":5.40314,"is_reserved":false,"is_disabled":false,"rental_uris":{"android":"levelo://app?vid=ad7ddac3-f664-4cf0-9b7e-cf9567b1e004","ios":"levelo://app?vid=ad7ddac3-f664-4cf0-9b7e-cf9567b1e004"},"vehicle_type_id":"4","last_reported":1728205769,"current_range_meters":23200,"station_id":"ce4bhlh2rcd13ifvqgig","pricing_plan_id":"cebpf4jnsgd1na2vs0mg"},{"bike_id":"05ddab4b-2219-453e-b9f6-9211ae63c830","system_id":"levelo_inurba_marseille","lat":43.21343,"lon":5.34943,"is_reserved":false,"is_disabled":false,"rental_uris":{"android":"levelo://app?vid=05ddab4b-2219-453e-b9f6-9211ae63c830","ios":"levelo://app?vid=05ddab4b-2219-453e-b9f6-9211ae63c830"},"vehicle_type_id":"4","last_reported":1728205769,"current_range_meters":34000,"station_id":"crv51consjfaj9uu89c0","pricing_plan_id":"cebpf4jnsgd1na2vs0mg"},{"bike_id":"250f2ce3-4b19-4d54-b884-e6c877919073","system_id":"levelo_inurba_marseille","lat":43.28463,"lon":5.35885,"is_reserved":false,"is_disabled":false,"rental_uris":{"android":"levelo://app?vid=250f2ce3-4b19-4d54-b884-e6c877919073","ios":"levelo://app?vid=250f2ce3-4b19-4d54-b884-e6c877919073"},"vehicle_type_id":"4","last_reported":1728205769,"current_range_meters":8400,"station_id":"ce4bhah2rcd13ifvqei0","pricing_plan_id":"cebpf4jnsgd1na2vs0mg"},{"bike_id":"1a978a89-dbeb-45cc-8c83-bb4f90d46fcc","system_id":"levelo_inurba_marseille","lat":43.316965,"lon":5.404604,"is_reserved":false,"is_disabled":false,"rental_uris":{"android":"levelo://app?vid=1a978a89-dbeb-45cc-8c83-bb4f90d46fcc","ios":"levelo://app?vid=1a978a89-dbeb-45cc-8c83-bb4f90d46fcc"},"vehicle_type_id":"4","last_reported":1728205769,"current_range_meters":38400,"station_id":"ce4bh012rcd13ifvqd00","pricing_plan_id":"cebpf4jnsgd1na2vs0mg"},{"bike_id":"2223b6cf-60c6-41bf-b1cd-7d09873a1aa5","system_id":"levelo_inurba_marseille","lat":43.26056,"lon":5.39397,"is_reserved":false,"is_disabled":false,"rental_uris":{"android":"levelo://app?vid=2223b6cf-60c6-41bf-b1cd-7d09873a1aa5","ios":"levelo://app?vid=2223b6cf-60c6-41bf-b1cd-7d09873a1aa5"},"vehicle_type_id":"4","last_reported":1728205769,"current_range_meters":37600,"station_id":"ce4bhh92rcd13ifvqfj0","pricing_plan_id":"cebpf4jnsgd1na2vs0mg"},{"bike_id":"d0ca1193-12e8-4ac2-9a60-4ae6e0040151","system_id":"levelo_inurba_marseille","lat":43.22933,"lon":5.35387,"is_reserved":false,"is_disabled":false,"rental_uris":{"android":"levelo://app?vid=d0ca1193-12e8-4ac2-9a60-4ae6e0040151","ios":"levelo://app?vid=d0ca1193-12e8-4ac2-9a60-4ae6e0040151"},"vehicle_type_id":"4","last_reported":1728205769,"current_range_meters":28800,"station_id":"cpo3532slgdg3j2ikp40","pricing_plan_id":"cebpf4jnsgd1na2vs0mg"},{"bike_id":"fb98dcb8-fca3-4f9f-90fa-93df1a9d97a1","system_id":"levelo_inurba_marseille","lat":43.27299,"lon":5.39087,"is_reserved":false,"is_disabled":false,"rental_uris":{"android":"levelo://app?vid=fb98dcb8-fca3-4f9f-90fa-93df1a9d97a1","ios":"levelo://app?vid=fb98dcb8-fca3-4f9f-90fa-93df1a9d97a1"},"vehicle_type_id":"4","last_reported":1728205769,"current_range_meters":36400,"station_id":"ce4bhgp2rcd13ifvqfe0","pricing_plan_id":"cebpf4jnsgd1na2vs0mg"},{"bike_id":"618301e7-366f-474f-8f3e-327bf2a7ee29","system_id":"levelo_inurba_marseille","lat":43.31923,"lon":5.37456,"is_reserved":false,"is_disabled":false,"rental_uris":{"android":"levelo://app?vid=618301e7-366f-474f-8f3e-327bf2a7ee29","ios":"levelo://app?vid=618301e7-366f-474f-8f3e-327bf2a7ee29"},"vehicle_type_id":"4","last_reported":1728205769,"current_range_meters":9200,"station_id":"ce4bgt12rcd13ifvqcd0","pricing_plan_id":"cebpf4jnsgd1na2vs0mg"},{"bike_id":"480adf17-48da-4a88-9fcd-dcec4e853ca2","system_id":"levelo_inurba_marseille","lat":43.26791,"lon":5.39412,"is_reserved":false,"is_disabled":false,"rental_uris":{"android":"levelo://app?vid=480adf17-48da-4a88-9fcd-dcec4e853ca2","ios":"levelo://app?vid=480adf17-48da-4a88-9fcd-dcec4e853ca2"},"vehicle_type_id":"4","last_reported":1728205769,"current_range_meters":40000,"station_id":"ce4bhh12rcd13ifvqfg0","pricing_plan_id":"cebpf4jnsgd1na2vs0mg"},{"bike_id":"0a6b01aa-b6c2-4470-b22d-5ec2a2954043","system_id":"levelo_inurba_marseille","lat":43.2749,"lon":5.42456,"is_reserved":false,"is_disabled":false,"rental_uris":{"android":"levelo://app?vid=0a6b01aa-b6c2-4470-b22d-5ec2a2954043","ios":"levelo://app?vid=0a6b01aa-b6c2-4470-b22d-5ec2a2954043"},"vehicle_type_id":"4","last_reported":1728205769,"current_range_meters":38800,"station_id":"ce4bhn92rcd13ifvqgrg","pricing_plan_id":"cebpf4jnsgd1na2vs0mg"},{"bike_id":"3c2be5bd-7175-4c2e-b9a1-264cf0a80b7e","system_id":"levelo_inurba_marseille","lat":43.3054,"lon":5.36544,"is_reserved":false,"is_disabled":false,"rental_uris":{"android":"levelo://app?vid=3c2be5bd-7175-4c2e-b9a1-264cf0a80b7e","ios":"levelo://app?vid=3c2be5bd-7175-4c2e-b9a1-264cf0a80b7e"},"vehicle_type_id":"4","last_reported":1728205769,"current_range_meters":33200,"station_id":"ce4bgs12rcd13ifvqcag","pricing_plan_id":"cebpf4jnsgd1na2vs0mg"},{"bike_id":"4197ef8d-f35f-44aa-b27d-dc6b343bfa7a","system_id":"levelo_inurba_marseille","lat":43.2781,"lon":5.40707,"is_reserved":false,"is_disabled":false,"rental_uris":{"android":"levelo://app?vid=4197ef8d-f35f-44aa-b27d-dc6b343bfa7a","ios":"levelo://app?vid=4197ef8d-f35f-44aa-b27d-dc6b343bfa7a"},"vehicle_type_id":"4","last_reported":1728205769,"current_range_meters":38000,"station_id":"ce4bhnh2rcd13ifvqgtg","pricing_plan_id":"cebpf4jnsgd1na2vs0mg"},{"bike_id":"1bd2f7ec-d06e-4723-b3c8-18546fc91d7d","system_id":"levelo_inurba_marseille","lat":43.31272,"lon":5.40176,"is_reserved":false,"is_disabled":false,"rental_uris":{"android":"levelo://app?vid=1bd2f7ec-d06e-4723-b3c8-18546fc91d7d","ios":"levelo://app?vid=1bd2f7ec-d06e-4723-b3c8-18546fc91d7d"},"vehicle_type_id":"4","last_reported":1728205769,"current_range_meters":8000,"station_id":"ce4bh092rcd13ifvqd30","pricing_plan_id":"cebpf4jnsgd1na2vs0mg"},{"bike_id":"a7e3c33c-7c19-4f08-97ac-19ceeb2c4118","system_id":"levelo_inurba_marseille","lat":43.278063,"lon":5.407135,"is_reserved":false,"is_disabled":false,"rental_uris":{"android":"levelo://app?vid=a7e3c33c-7c19-4f08-97ac-19ceeb2c4118","ios":"levelo://app?vid=a7e3c33c-7c19-4f08-97ac-19ceeb2c4118"},"vehicle_type_id":"4","last_reported":1728205769,"current_range_meters":30800,"station_id":"ce4bhnh2rcd13ifvqgtg","pricing_plan_id":"cebpf4jnsgd1na2vs0mg"},{"bike_id":"061f43e8-1fd3-4d05-baa1-0049033c61e2","system_id":"levelo_inurba_marseille","lat":43.30138,"lon":5.39868,"is_reserved":false,"is_disabled":false,"rental_uris":{"android":"levelo://app?vid=061f43e8-1fd3-4d05-baa1-0049033c61e2","ios":"levelo://app?vid=061f43e8-1fd3-4d05-baa1-0049033c61e2"},"vehicle_type_id":"4","last_reported":1728205769,"current_range_meters":32000,"station_id":"ce4bh0h2rcd13ifvqd40","pricing_plan_id":"cebpf4jnsgd1na2vs0mg"},{"bike_id":"f3df3064-c734-4e7b-94b0-d8eb4e0a033e","system_id":"levelo_inurba_marseille","lat":43.27992,"lon":5.41654,"is_reserved":false,"is_disabled":false,"rental_uris":{"android":"levelo://app?vid=f3df3064-c734-4e7b-94b0-d8eb4e0a033e","ios":"levelo://app?vid=f3df3064-c734-4e7b-94b0-d8eb4e0a033e"},"vehicle_type_id":"4","last_reported":1728205769,"current_range_meters":30800,"station_id":"ce4bho12rcd13ifvqh1g","pricing_plan_id":"cebpf4jnsgd1na2vs0mg"},{"bike_id":"6ff38fbb-3e1f-4d59-a7a6-ab257495a9ff","system_id":"levelo_inurba_marseille","lat":43.25085,"lon":5.39516,"is_reserved":false,"is_disabled":false,"rental_uris":{"android":"levelo://app?vid=6ff38fbb-3e1f-4d59-a7a6-ab257495a9ff","ios":"levelo://app?vid=6ff38fbb-3e1f-4d59-a7a6-ab257495a9ff"},"vehicle_type_id":"4","last_reported":1728205769,"current_range_meters":10800,"station_id":"ce4bhm12rcd13ifvqgkg","pricing_plan_id":"cebpf4jnsgd1na2vs0mg"},{"bike_id":"14d2f020-614e-4a43-a2cc-0d4b43f10414","system_id":"levelo_inurba_marseille","lat":43.31081,"lon":5.42426,"is_reserved":false,"is_disabled":false,"rental_uris":{"android":"levelo://app?vid=14d2f020-614e-4a43-a2cc-0d4b43f10414","ios":"levelo://app?vid=14d2f020-614e-4a43-a2cc-0d4b43f10414"},"vehicle_type_id":"4","last_reported":1728205769,"current_range_meters":32000,"station_id":"ce4bhp92rcd13ifvqhag","pricing_plan_id":"cebpf4jnsgd1na2vs0mg"},{"bike_id":"2e823ca9-acad-4e59-b240-5790d27f1ff5","system_id":"levelo_inurba_marseille","lat":43.27946,"lon":5.41036,"is_reserved":false,"is_disabled":false,"rental_uris":{"android":"levelo://app?vid=2e823ca9-acad-4e59-b240-5790d27f1ff5","ios":"levelo://app?vid=2e823ca9-acad-4e59-b240-5790d27f1ff5"},"vehicle_type_id":"4","last_reported":1728205769,"current_range_meters":24000,"station_id":"ce4bhnp2rcd13ifvqh0g","pricing_plan_id":"cebpf4jnsgd1na2vs0mg"},{"bike_id":"2300a4b1-cf05-4d3a-a6c6-08ec2ecf9606","system_id":"levelo_inurba_marseille","lat":43.30466,"lon":5.37892,"is_reserved":false,"is_disabled":false,"rental_uris":{"android":"levelo://app?vid=2300a4b1-cf05-4d3a-a6c6-08ec2ecf9606","ios":"levelo://app?vid=2300a4b1-cf05-4d3a-a6c6-08ec2ecf9606"},"vehicle_type_id":"4","last_reported":1728205769,"current_range_meters":38000,"station_id":"ce4bgup2rcd13ifvqcn0","pricing_plan_id":"cebpf4jnsgd1na2vs0mg"},{"bike_id":"3e992ab3-37c4-4f38-be5c-aeaea204ff4c","system_id":"levelo_inurba_marseille","lat":43.3014,"lon":5.39875,"is_reserved":false,"is_disabled":false,"rental_uris":{"android":"levelo://app?vid=3e992ab3-37c4-4f38-be5c-aeaea204ff4c","ios":"levelo://app?vid=3e992ab3-37c4-4f38-be5c-aeaea204ff4c"},"vehicle_type_id":"4","last_reported":1728205769,"current_range_meters":20800,"station_id":"ce4bh0h2rcd13ifvqd40","pricing_plan_id":"cebpf4jnsgd1na2vs0mg"},{"bike_id":"9ea91f35-3c7f-49b2-aca4-5d8d23eb0f3d","system_id":"levelo_inurba_marseille","lat":43.30385,"lon":5.3932,"is_reserved":false,"is_disabled":false,"rental_uris":{"android":"levelo://app?vid=9ea91f35-3c7f-49b2-aca4-5d8d23eb0f3d","ios":"levelo://app?vid=9ea91f35-3c7f-49b2-aca4-5d8d23eb0f3d"},"vehicle_type_id":"4","last_reported":1728205769,"current_range_meters":17200,"station_id":"ce4bgkh2rcd13ifvqbk0","pricing_plan_id":"cebpf4jnsgd1na2vs0mg"},{"bike_id":"1c6e8542-0efa-43bd-a17b-1a8ffeb5acdf","system_id":"levelo_inurba_marseille","lat":43.26559,"lon":5.39002,"is_reserved":false,"is_disabled":false,"rental_uris":{"android":"levelo://app?vid=1c6e8542-0efa-43bd-a17b-1a8ffeb5acdf","ios":"levelo://app?vid=1c6e8542-0efa-43bd-a17b-1a8ffeb5acdf"},"vehicle_type_id":"4","last_reported":1728205769,"current_range_meters":36800,"station_id":"ce4bhe12rcd13ifvqf30","pricing_plan_id":"cebpf4jnsgd1na2vs0mg"},{"bike_id":"cc3075c7-c54d-44a6-b275-dc4c69848582","system_id":"levelo_inurba_marseille","lat":43.25109,"lon":5.40324,"is_reserved":false,"is_disabled":false,"rental_uris":{"android":"levelo://app?vid=cc3075c7-c54d-44a6-b275-dc4c69848582","ios":"levelo://app?vid=cc3075c7-c54d-44a6-b275-dc4c69848582"},"vehicle_type_id":"4","last_reported":1728205769,"current_range_meters":40000,"station_id":"ce4bhlh2rcd13ifvqgig","pricing_plan_id":"cebpf4jnsgd1na2vs0mg"},{"bike_id":"7e764f2b-b5f9-4a10-b1be-189838b6a6be","system_id":"levelo_inurba_marseille","lat":43.27308,"lon":5.39083,"is_reserved":false,"is_disabled":false,"rental_uris":{"android":"levelo://app?vid=7e764f2b-b5f9-4a10-b1be-189838b6a6be","ios":"levelo://app?vid=7e764f2b-b5f9-4a10-b1be-189838b6a6be"},"vehicle_type_id":"4","last_reported":1728205769,"current_range_meters":39200,"station_id":"ce4bhgp2rcd13ifvqfe0","pricing_plan_id":"cebpf4jnsgd1na2vs0mg"},{"bike_id":"490889b1-cee9-4892-9db5-299333956c90","system_id":"levelo_inurba_marseille","lat":43.341488,"lon":5.409038,"is_reserved":false,"is_disabled":false,"rental_uris":{"android":"levelo://app?vid=490889b1-cee9-4892-9db5-299333956c90","ios":"levelo://app?vid=490889b1-cee9-4892-9db5-299333956c90"},"vehicle_type_id":"4","last_reported":1728205769,"current_range_meters":37600,"station_id":"ce4bhqh2rcd13ifvqhlg","pricing_plan_id":"cebpf4jnsgd1na2vs0mg"},{"bike_id":"e327488f-a7a9-4538-8678-484286197957","system_id":"levelo_inurba_marseille","lat":43.2737,"lon":5.3626,"is_reserved":false,"is_disabled":false,"rental_uris":{"android":"levelo://app?vid=e327488f-a7a9-4538-8678-484286197957","ios":"levelo://app?vid=e327488f-a7a9-4538-8678-484286197957"},"vehicle_type_id":"4","last_reported":1728205769,"current_range_meters":37600,"station_id":"ce4bhbh2rcd13ifvqeo0","pricing_plan_id":"cebpf4jnsgd1na2vs0mg"},{"bike_id":"85ef83d9-fec6-405f-8a01-7a2d5ed9a2a1","system_id":"levelo_inurba_marseille","lat":43.29256,"lon":5.40896,"is_reserved":false,"is_disabled":false,"rental_uris":{"android":"levelo://app?vid=85ef83d9-fec6-405f-8a01-7a2d5ed9a2a1","ios":"levelo://app?vid=85ef83d9-fec6-405f-8a01-7a2d5ed9a2a1"},"vehicle_type_id":"4","last_reported":1728205769,"current_range_meters":26800,"station_id":"ce4bh192rcd13ifvqdc0","pricing_plan_id":"cebpf4jnsgd1na2vs0mg"},{"bike_id":"62dc0ed1-3276-4977-88dd-32c1a19dfbe5","system_id":"levelo_inurba_marseille","lat":43.27488,"lon":5.42458,"is_reserved":false,"is_disabled":false,"rental_uris":{"android":"levelo://app?vid=62dc0ed1-3276-4977-88dd-32c1a19dfbe5","ios":"levelo://app?vid=62dc0ed1-3276-4977-88dd-32c1a19dfbe5"},"vehicle_type_id":"4","last_reported":1728205769,"current_range_meters":38800,"station_id":"ce4bhn92rcd13ifvqgrg","pricing_plan_id":"cebpf4jnsgd1na2vs0mg"},{"bike_id":"45868232-c3f8-4a17-b117-d379b6ec0c72","system_id":"levelo_inurba_marseille","lat":43.28868,"lon":5.35822,"is_reserved":false,"is_disabled":false,"rental_uris":{"android":"levelo://app?vid=45868232-c3f8-4a17-b117-d379b6ec0c72","ios":"levelo://app?vid=45868232-c3f8-4a17-b117-d379b6ec0c72"},"vehicle_type_id":"4","last_reported":1728205769,"current_range_meters":17600,"station_id":"ce4bhb12rcd13ifvqem0","pricing_plan_id":"cebpf4jnsgd1na2vs0mg"},{"bike_id":"256fa177-60ee-45a2-a2aa-de47baeac3b4","system_id":"levelo_inurba_marseille","lat":43.32212,"lon":5.41352,"is_reserved":false,"is_disabled":false,"rental_uris":{"android":"levelo://app?vid=256fa177-60ee-45a2-a2aa-de47baeac3b4","ios":"levelo://app?vid=256fa177-60ee-45a2-a2aa-de47baeac3b4"},"vehicle_type_id":"4","last_reported":1728205769,"current_range_meters":37600,"station_id":"","pricing_plan_id":"cebpf4jnsgd1na2vs0mg"},{"bike_id":"389cdf32-7eb1-4775-914a-6dc8318d3538","system_id":"levelo_inurba_marseille","lat":43.26777,"lon":5.39423,"is_reserved":false,"is_disabled":false,"rental_uris":{"android":"levelo://app?vid=389cdf32-7eb1-4775-914a-6dc8318d3538","ios":"levelo://app?vid=389cdf32-7eb1-4775-914a-6dc8318d3538"},"vehicle_type_id":"4","last_reported":1728205769,"current_range_meters":30400,"station_id":"ce4bhh12rcd13ifvqfg0","pricing_plan_id":"cebpf4jnsgd1na2vs0mg"},{"bike_id":"98fab8a1-a284-40da-8df2-14f71a37d57b","system_id":"levelo_inurba_marseille","lat":43.21352,"lon":5.34937,"is_reserved":false,"is_disabled":false,"rental_uris":{"android":"levelo://app?vid=98fab8a1-a284-40da-8df2-14f71a37d57b","ios":"levelo://app?vid=98fab8a1-a284-40da-8df2-14f71a37d57b"},"vehicle_type_id":"4","last_reported":1728205769,"current_range_meters":33200,"station_id":"crv51consjfaj9uu89c0","pricing_plan_id":"cebpf4jnsgd1na2vs0mg"},{"bike_id":"168fdd0d-638b-492d-b1ce-678f05dbeac9","system_id":"levelo_inurba_marseille","lat":43.287234,"lon":5.360981,"is_reserved":false,"is_disabled":false,"rental_uris":{"android":"levelo://app?vid=168fdd0d-638b-492d-b1ce-678f05dbeac9","ios":"levelo://app?vid=168fdd0d-638b-492d-b1ce-678f05dbeac9"},"vehicle_type_id":"4","last_reported":1728205769,"current_range_meters":38800,"station_id":"cki0cbj6b192h4jlfktg","pricing_plan_id":"cebpf4jnsgd1na2vs0mg"},{"bike_id":"f5ef06db-4625-4a24-b61e-e74ef69ffa99","system_id":"levelo_inurba_marseille","lat":43.23176,"lon":5.39984,"is_reserved":false,"is_disabled":false,"rental_uris":{"android":"levelo://app?vid=f5ef06db-4625-4a24-b61e-e74ef69ffa99","ios":"levelo://app?vid=f5ef06db-4625-4a24-b61e-e74ef69ffa99"},"vehicle_type_id":"4","last_reported":1728205769,"current_range_meters":26000,"station_id":"ce4bhn12rcd13ifvqgqg","pricing_plan_id":"cebpf4jnsgd1na2vs0mg"},{"bike_id":"8da5e341-6cab-4468-9790-0734e5cf3e0b","system_id":"levelo_inurba_marseille","lat":43.2408,"lon":5.37752,"is_reserved":false,"is_disabled":false,"rental_uris":{"android":"levelo://app?vid=8da5e341-6cab-4468-9790-0734e5cf3e0b","ios":"levelo://app?vid=8da5e341-6cab-4468-9790-0734e5cf3e0b"},"vehicle_type_id":"4","last_reported":1728205769,"current_range_meters":38400,"station_id":"ce4bhnp2rcd13ifvqgvg","pricing_plan_id":"cebpf4jnsgd1na2vs0mg"},{"bike_id":"6bf16a2a-f63b-47d9-9110-1efaed25b77a","system_id":"levelo_inurba_marseille","lat":43.2293,"lon":5.35378,"is_reserved":false,"is_disabled":false,"rental_uris":{"android":"levelo://app?vid=6bf16a2a-f63b-47d9-9110-1efaed25b77a","ios":"levelo://app?vid=6bf16a2a-f63b-47d9-9110-1efaed25b77a"},"vehicle_type_id":"4","last_reported":1728205769,"current_range_meters":35200,"station_id":"cpo3532slgdg3j2ikp40","pricing_plan_id":"cebpf4jnsgd1na2vs0mg"},{"bike_id":"428f793c-4121-423c-8663-6edf254533e0","system_id":"levelo_inurba_marseille","lat":43.27565,"lon":5.38416,"is_reserved":false,"is_disabled":false,"rental_uris":{"android":"levelo://app?vid=428f793c-4121-423c-8663-6edf254533e0","ios":"levelo://app?vid=428f793c-4121-423c-8663-6edf254533e0"},"vehicle_type_id":"4","last_reported":1728205769,"current_range_meters":40000,"station_id":"ce4bhh92rcd13ifvqfi0","pricing_plan_id":"cebpf4jnsgd1na2vs0mg"},{"bike_id":"8d2f6570-31ce-438a-a827-434ef78a78d1","system_id":"levelo_inurba_marseille","lat":43.29585,"lon":5.36737,"is_reserved":false,"is_disabled":false,"rental_uris":{"android":"levelo://app?vid=8d2f6570-31ce-438a-a827-434ef78a78d1","ios":"levelo://app?vid=8d2f6570-31ce-438a-a827-434ef78a78d1"},"vehicle_type_id":"4","last_reported":1728205769,"current_range_meters":25200,"station_id":"ce4bgph2rcd13ifvqc2g","pricing_plan_id":"cebpf4jnsgd1na2vs0mg"},{"bike_id":"09b6dc29-36dc-48a6-88c1-8d4f3ae3fdfc","system_id":"levelo_inurba_marseille","lat":43.29259,"lon":5.36845,"is_reserved":false,"is_disabled":false,"rental_uris":{"android":"levelo://app?vid=09b6dc29-36dc-48a6-88c1-8d4f3ae3fdfc","ios":"levelo://app?vid=09b6dc29-36dc-48a6-88c1-8d4f3ae3fdfc"},"vehicle_type_id":"4","last_reported":1728205769,"current_range_meters":17200,"station_id":"","pricing_plan_id":"cebpf4jnsgd1na2vs0mg"},{"bike_id":"f16a1e3c-43c9-4345-8f77-6960f75f80b0","system_id":"levelo_inurba_marseille","lat":43.24994,"lon":5.38931,"is_reserved":false,"is_disabled":false,"rental_uris":{"android":"levelo://app?vid=f16a1e3c-43c9-4345-8f77-6960f75f80b0","ios":"levelo://app?vid=f16a1e3c-43c9-4345-8f77-6960f75f80b0"},"vehicle_type_id":"4","last_reported":1728205769,"current_range_meters":34800,"station_id":"ce4bhgp2rcd13ifvqfd0","pricing_plan_id":"cebpf4jnsgd1na2vs0mg"},{"bike_id":"f78e0516-52c8-4509-8dc5-c8c8cbbb9453","system_id":"levelo_inurba_marseille","lat":43.2984,"lon":5.36274,"is_reserved":false,"is_disabled":false,"rental_uris":{"android":"levelo://app?vid=f78e0516-52c8-4509-8dc5-c8c8cbbb9453","ios":"levelo://app?vid=f78e0516-52c8-4509-8dc5-c8c8cbbb9453"},"vehicle_type_id":"4","last_reported":1728205769,"current_range_meters":35200,"station_id":"ce4bgpp2rcd13ifvqc3g","pricing_plan_id":"cebpf4jnsgd1na2vs0mg"},{"bike_id":"bb6993dd-1bba-4d66-ac65-fc507df90b6d","system_id":"levelo_inurba_marseille","lat":43.30531,"lon":5.3654,"is_reserved":false,"is_disabled":false,"rental_uris":{"android":"levelo://app?vid=bb6993dd-1bba-4d66-ac65-fc507df90b6d","ios":"levelo://app?vid=bb6993dd-1bba-4d66-ac65-fc507df90b6d"},"vehicle_type_id":"4","last_reported":1728205769,"current_range_meters":30400,"station_id":"ce4bgs12rcd13ifvqcag","pricing_plan_id":"cebpf4jnsgd1na2vs0mg"},{"bike_id":"467f4dad-860b-40f5-b4ca-9e05ccc20611","system_id":"levelo_inurba_marseille","lat":43.30913,"lon":5.40143,"is_reserved":false,"is_disabled":false,"rental_uris":{"android":"levelo://app?vid=467f4dad-860b-40f5-b4ca-9e05ccc20611","ios":"levelo://app?vid=467f4dad-860b-40f5-b4ca-9e05ccc20611"},"vehicle_type_id":"4","last_reported":1728205769,"current_range_meters":37600,"station_id":"ce4bgvp2rcd13ifvqct0","pricing_plan_id":"cebpf4jnsgd1na2vs0mg"},{"bike_id":"54a74be3-c242-46ce-9878-c249787a7807","system_id":"levelo_inurba_marseille","lat":43.31262,"lon":5.40182,"is_reserved":false,"is_disabled":false,"rental_uris":{"android":"levelo://app?vid=54a74be3-c242-46ce-9878-c249787a7807","ios":"levelo://app?vid=54a74be3-c242-46ce-9878-c249787a7807"},"vehicle_type_id":"4","last_reported":1728205769,"current_range_meters":26000,"station_id":"ce4bh092rcd13ifvqd30","pricing_plan_id":"cebpf4jnsgd1na2vs0mg"},{"bike_id":"86f71aa2-9051-49ac-bee7-47b70ad433f3","system_id":"levelo_inurba_marseille","lat":43.30135,"lon":5.37408,"is_reserved":false,"is_disabled":false,"rental_uris":{"android":"levelo://app?vid=86f71aa2-9051-49ac-bee7-47b70ad433f3","ios":"levelo://app?vid=86f71aa2-9051-49ac-bee7-47b70ad433f3"},"vehicle_type_id":"4","last_reported":1728205769,"current_range_meters":37600,"station_id":"ce4bgs92rcd13ifvqcc0","pricing_plan_id":"cebpf4jnsgd1na2vs0mg"},{"bike_id":"6147bdf0-1801-4e48-af1f-3a8e4c830ddc","system_id":"levelo_inurba_marseille","lat":43.30562,"lon":5.36539,"is_reserved":false,"is_disabled":false,"rental_uris":{"android":"levelo://app?vid=6147bdf0-1801-4e48-af1f-3a8e4c830ddc","ios":"levelo://app?vid=6147bdf0-1801-4e48-af1f-3a8e4c830ddc"},"vehicle_type_id":"4","last_reported":1728205769,"current_range_meters":36800,"station_id":"ce4bgs12rcd13ifvqcag","pricing_plan_id":"cebpf4jnsgd1na2vs0mg"},{"bike_id":"270b90ca-7521-4165-af49-e1c727e5fa34","system_id":"levelo_inurba_marseille","lat":43.21346,"lon":5.34939,"is_reserved":false,"is_disabled":false,"rental_uris":{"android":"levelo://app?vid=270b90ca-7521-4165-af49-e1c727e5fa34","ios":"levelo://app?vid=270b90ca-7521-4165-af49-e1c727e5fa34"},"vehicle_type_id":"4","last_reported":1728205769,"current_range_meters":35600,"station_id":"crv51consjfaj9uu89c0","pricing_plan_id":"cebpf4jnsgd1na2vs0mg"},{"bike_id":"462fe888-03c0-4263-bf43-021da143d0d6","system_id":"levelo_inurba_marseille","lat":43.308,"lon":5.43521,"is_reserved":false,"is_disabled":false,"rental_uris":{"android":"levelo://app?vid=462fe888-03c0-4263-bf43-021da143d0d6","ios":"levelo://app?vid=462fe888-03c0-4263-bf43-021da143d0d6"},"vehicle_type_id":"4","last_reported":1728205769,"current_range_meters":2000,"station_id":"ce4bhph2rcd13ifvqheg","pricing_plan_id":"cebpf4jnsgd1na2vs0mg"},{"bike_id":"31ec3a06-99d6-4861-b5b2-2c5de584b055","system_id":"levelo_inurba_marseille","lat":43.29002,"lon":5.35607,"is_reserved":false,"is_disabled":false,"rental_uris":{"android":"levelo://app?vid=31ec3a06-99d6-4861-b5b2-2c5de584b055","ios":"levelo://app?vid=31ec3a06-99d6-4861-b5b2-2c5de584b055"},"vehicle_type_id":"4","last_reported":1728205769,"current_range_meters":20000,"station_id":"ce4bhb92rcd13ifvqen0","pricing_plan_id":"cebpf4jnsgd1na2vs0mg"},{"bike_id":"2912abb1-e6fe-40f9-a80b-b98fc8142039","system_id":"levelo_inurba_marseille","lat":43.31994,"lon":5.38145,"is_reserved":false,"is_disabled":false,"rental_uris":{"android":"levelo://app?vid=2912abb1-e6fe-40f9-a80b-b98fc8142039","ios":"levelo://app?vid=2912abb1-e6fe-40f9-a80b-b98fc8142039"},"vehicle_type_id":"4","last_reported":1728205769,"current_range_meters":38000,"station_id":"ce4bhr12rcd13ifvqhpg","pricing_plan_id":"cebpf4jnsgd1na2vs0mg"},{"bike_id":"9cfa8bb2-ba01-46f5-8c24-f89161f0abe3","system_id":"levelo_inurba_marseille","lat":43.266624,"lon":5.394119,"is_reserved":false,"is_disabled":false,"rental_uris":{"android":"levelo://app?vid=9cfa8bb2-ba01-46f5-8c24-f89161f0abe3","ios":"levelo://app?vid=9cfa8bb2-ba01-46f5-8c24-f89161f0abe3"},"vehicle_type_id":"4","last_reported":1728205769,"current_range_meters":3600,"station_id":"ce4bhh12rcd13ifvqfg0","pricing_plan_id":"cebpf4jnsgd1na2vs0mg"},{"bike_id":"5ed1c359-627e-4835-9959-230f7bf3336f","system_id":"levelo_inurba_marseille","lat":43.28611,"lon":5.37063,"is_reserved":false,"is_disabled":false,"rental_uris":{"android":"levelo://app?vid=5ed1c359-627e-4835-9959-230f7bf3336f","ios":"levelo://app?vid=5ed1c359-627e-4835-9959-230f7bf3336f"},"vehicle_type_id":"4","last_reported":1728205769,"current_range_meters":39200,"station_id":"ce4bht12rcd13ifvqi60","pricing_plan_id":"cebpf4jnsgd1na2vs0mg"},{"bike_id":"8eee7395-ac2d-495c-aca3-70bb6108aed2","system_id":"levelo_inurba_marseille","lat":43.31168,"lon":5.38707,"is_reserved":false,"is_disabled":false,"rental_uris":{"android":"levelo://app?vid=8eee7395-ac2d-495c-aca3-70bb6108aed2","ios":"levelo://app?vid=8eee7395-ac2d-495c-aca3-70bb6108aed2"},"vehicle_type_id":"4","last_reported":1728205769,"current_range_meters":32800,"station_id":"ce4bgv12rcd13ifvqcp0","pricing_plan_id":"cebpf4jnsgd1na2vs0mg"},{"bike_id":"353450d4-d2eb-4e5e-a8ec-7190b723b8e6","system_id":"levelo_inurba_marseille","lat":43.29277,"lon":5.36846,"is_reserved":false,"is_disabled":false,"rental_uris":{"android":"levelo://app?vid=353450d4-d2eb-4e5e-a8ec-7190b723b8e6","ios":"levelo://app?vid=353450d4-d2eb-4e5e-a8ec-7190b723b8e6"},"vehicle_type_id":"4","last_reported":1728205769,"current_range_meters":31200,"station_id":"ce4bhbp2rcd13ifvqesg","pricing_plan_id":"cebpf4jnsgd1na2vs0mg"},{"bike_id":"cb9aa04b-8d95-4d08-9efd-29de4f8820f5","system_id":"levelo_inurba_marseille","lat":43.25585,"lon":5.38224,"is_reserved":false,"is_disabled":false,"rental_uris":{"android":"levelo://app?vid=cb9aa04b-8d95-4d08-9efd-29de4f8820f5","ios":"levelo://app?vid=cb9aa04b-8d95-4d08-9efd-29de4f8820f5"},"vehicle_type_id":"4","last_reported":1728205769,"current_range_meters":35200,"station_id":"ce4bhih2rcd13ifvqfs0","pricing_plan_id":"cebpf4jnsgd1na2vs0mg"},{"bike_id":"bb5f5452-4b9b-417d-b148-b396a874f3d9","system_id":"levelo_inurba_marseille","lat":43.33779,"lon":5.37422,"is_reserved":false,"is_disabled":false,"rental_uris":{"android":"levelo://app?vid=bb5f5452-4b9b-417d-b148-b396a874f3d9","ios":"levelo://app?vid=bb5f5452-4b9b-417d-b148-b396a874f3d9"},"vehicle_type_id":"4","last_reported":1728205769,"current_range_meters":26800,"station_id":"","pricing_plan_id":"cebpf4jnsgd1na2vs0mg"},{"bike_id":"f8dc0ff5-6c8a-4ba6-abb8-5e3ab8e94100","system_id":"levelo_inurba_marseille","lat":43.27177,"lon":5.40983,"is_reserved":false,"is_disabled":false,"rental_uris":{"android":"levelo://app?vid=f8dc0ff5-6c8a-4ba6-abb8-5e3ab8e94100","ios":"levelo://app?vid=f8dc0ff5-6c8a-4ba6-abb8-5e3ab8e94100"},"vehicle_type_id":"4","last_reported":1728205769,"current_range_meters":38800,"station_id":"ce4bhl12rcd13ifvqgf0","pricing_plan_id":"cebpf4jnsgd1na2vs0mg"},{"bike_id":"78122acb-a79d-48de-83e8-a056f92d3276","system_id":"levelo_inurba_marseille","lat":43.29713,"lon":5.36611,"is_reserved":false,"is_disabled":false,"rental_uris":{"android":"levelo://app?vid=78122acb-a79d-48de-83e8-a056f92d3276","ios":"levelo://app?vid=78122acb-a79d-48de-83e8-a056f92d3276"},"vehicle_type_id":"4","last_reported":1728205769,"current_range_meters":36800,"station_id":"ce4bgn12rcd13ifvqbt0","pricing_plan_id":"cebpf4jnsgd1na2vs0mg"},{"bike_id":"3da8b74e-712a-49f7-8556-bec0fd3094c4","system_id":"levelo_inurba_marseille","lat":43.29231,"lon":5.36051,"is_reserved":false,"is_disabled":false,"rental_uris":{"android":"levelo://app?vid=3da8b74e-712a-49f7-8556-bec0fd3094c4","ios":"levelo://app?vid=3da8b74e-712a-49f7-8556-bec0fd3094c4"},"vehicle_type_id":"4","last_reported":1728205769,"current_range_meters":29600,"station_id":"ce4bhbh2rcd13ifvqeqg","pricing_plan_id":"cebpf4jnsgd1na2vs0mg"},{"bike_id":"d5bd4fc9-b596-4a66-8faa-61c6a5dce860","system_id":"levelo_inurba_marseille","lat":43.29895,"lon":5.43657,"is_reserved":false,"is_disabled":false,"rental_uris":{"android":"levelo://app?vid=d5bd4fc9-b596-4a66-8faa-61c6a5dce860","ios":"levelo://app?vid=d5bd4fc9-b596-4a66-8faa-61c6a5dce860"},"vehicle_type_id":"4","last_reported":1728205769,"current_range_meters":38800,"station_id":"ce4bhpp2rcd13ifvqhfg","pricing_plan_id":"cebpf4jnsgd1na2vs0mg"},{"bike_id":"d03ade4d-0971-473e-b3ae-d762f130dbfe","system_id":"levelo_inurba_marseille","lat":43.29875,"lon":5.39741,"is_reserved":false,"is_disabled":false,"rental_uris":{"android":"levelo://app?vid=d03ade4d-0971-473e-b3ae-d762f130dbfe","ios":"levelo://app?vid=d03ade4d-0971-473e-b3ae-d762f130dbfe"},"vehicle_type_id":"4","last_reported":1728205769,"current_range_meters":39200,"station_id":"ce4bh0h2rcd13ifvqd50","pricing_plan_id":"cebpf4jnsgd1na2vs0mg"},{"bike_id":"41dade42-d8fd-4ebb-b2fc-cc2eccddb9c5","system_id":"levelo_inurba_marseille","lat":43.26198,"lon":5.3793,"is_reserved":false,"is_disabled":false,"rental_uris":{"android":"levelo://app?vid=41dade42-d8fd-4ebb-b2fc-cc2eccddb9c5","ios":"levelo://app?vid=41dade42-d8fd-4ebb-b2fc-cc2eccddb9c5"},"vehicle_type_id":"4","last_reported":1728205769,"current_range_meters":35600,"station_id":"ce4bhjp2rcd13ifvqg90","pricing_plan_id":"cebpf4jnsgd1na2vs0mg"},{"bike_id":"38c89ef1-1d14-415c-859a-9589d2e0e998","system_id":"levelo_inurba_marseille","lat":43.26494,"lon":5.39543,"is_reserved":false,"is_disabled":false,"rental_uris":{"android":"levelo://app?vid=38c89ef1-1d14-415c-859a-9589d2e0e998","ios":"levelo://app?vid=38c89ef1-1d14-415c-859a-9589d2e0e998"},"vehicle_type_id":"4","last_reported":1728205769,"current_range_meters":40000,"station_id":"ce4bhi12rcd13ifvqfq0","pricing_plan_id":"cebpf4jnsgd1na2vs0mg"},{"bike_id":"7cba0374-be77-4d49-8476-e0da3cccc891","system_id":"levelo_inurba_marseille","lat":43.21347,"lon":5.34938,"is_reserved":false,"is_disabled":false,"rental_uris":{"android":"levelo://app?vid=7cba0374-be77-4d49-8476-e0da3cccc891","ios":"levelo://app?vid=7cba0374-be77-4d49-8476-e0da3cccc891"},"vehicle_type_id":"4","last_reported":1728205769,"current_range_meters":33600,"station_id":"crv51consjfaj9uu89c0","pricing_plan_id":"cebpf4jnsgd1na2vs0mg"},{"bike_id":"2280d7cc-f88d-4e6e-aafe-b750d61fac30","system_id":"levelo_inurba_marseille","lat":43.27067,"lon":5.42279,"is_reserved":false,"is_disabled":false,"rental_uris":{"android":"levelo://app?vid=2280d7cc-f88d-4e6e-aafe-b750d61fac30","ios":"levelo://app?vid=2280d7cc-f88d-4e6e-aafe-b750d61fac30"},"vehicle_type_id":"4","last_reported":1728205769,"current_range_meters":38800,"station_id":"ce4bhk92rcd13ifvqgb0","pricing_plan_id":"cebpf4jnsgd1na2vs0mg"},{"bike_id":"7a6d7045-a0c6-474e-97a3-8a750c51af90","system_id":"levelo_inurba_marseille","lat":43.27957,"lon":5.41046,"is_reserved":false,"is_disabled":false,"rental_uris":{"android":"levelo://app?vid=7a6d7045-a0c6-474e-97a3-8a750c51af90","ios":"levelo://app?vid=7a6d7045-a0c6-474e-97a3-8a750c51af90"},"vehicle_type_id":"4","last_reported":1728205769,"current_range_meters":38000,"station_id":"ce4bhnp2rcd13ifvqh0g","pricing_plan_id":"cebpf4jnsgd1na2vs0mg"},{"bike_id":"8e94c158-3450-4d74-9a10-086db250f48e","system_id":"levelo_inurba_marseille","lat":43.27167,"lon":5.39034,"is_reserved":false,"is_disabled":false,"rental_uris":{"android":"levelo://app?vid=8e94c158-3450-4d74-9a10-086db250f48e","ios":"levelo://app?vid=8e94c158-3450-4d74-9a10-086db250f48e"},"vehicle_type_id":"4","last_reported":1728205769,"current_range_meters":33200,"station_id":"","pricing_plan_id":"cebpf4jnsgd1na2vs0mg"},{"bike_id":"b8913350-1dd7-4ae4-b231-e44a524da8ad","system_id":"levelo_inurba_marseille","lat":43.29575,"lon":5.37516,"is_reserved":false,"is_disabled":false,"rental_uris":{"android":"levelo://app?vid=b8913350-1dd7-4ae4-b231-e44a524da8ad","ios":"levelo://app?vid=b8913350-1dd7-4ae4-b231-e44a524da8ad"},"vehicle_type_id":"4","last_reported":1728205769,"current_range_meters":2800,"station_id":"ce4bgh92rcd13ifvqb50","pricing_plan_id":"cebpf4jnsgd1na2vs0mg"},{"bike_id":"69566eba-08e7-4250-82d4-cbffed0657d9","system_id":"levelo_inurba_marseille","lat":43.33741,"lon":5.3746,"is_reserved":false,"is_disabled":false,"rental_uris":{"android":"levelo://app?vid=69566eba-08e7-4250-82d4-cbffed0657d9","ios":"levelo://app?vid=69566eba-08e7-4250-82d4-cbffed0657d9"},"vehicle_type_id":"4","last_reported":1728205769,"current_range_meters":28000,"station_id":"","pricing_plan_id":"cebpf4jnsgd1na2vs0mg"},{"bike_id":"2f1f7e56-c6cd-448e-b406-4d3dfc3a4de4","system_id":"levelo_inurba_marseille","lat":43.25724,"lon":5.41098,"is_reserved":false,"is_disabled":false,"rental_uris":{"android":"levelo://app?vid=2f1f7e56-c6cd-448e-b406-4d3dfc3a4de4","ios":"levelo://app?vid=2f1f7e56-c6cd-448e-b406-4d3dfc3a4de4"},"vehicle_type_id":"4","last_reported":1728205769,"current_range_meters":30000,"station_id":"ce4bhkp2rcd13ifvqgd0","pricing_plan_id":"cebpf4jnsgd1na2vs0mg"},{"bike_id":"1ee81508-41a1-4e3e-8ff6-e4273d8073de","system_id":"levelo_inurba_marseille","lat":43.31999,"lon":5.38138,"is_reserved":false,"is_disabled":false,"rental_uris":{"android":"levelo://app?vid=1ee81508-41a1-4e3e-8ff6-e4273d8073de","ios":"levelo://app?vid=1ee81508-41a1-4e3e-8ff6-e4273d8073de"},"vehicle_type_id":"4","last_reported":1728205769,"current_range_meters":2800,"station_id":"ce4bhr12rcd13ifvqhpg","pricing_plan_id":"cebpf4jnsgd1na2vs0mg"},{"bike_id":"87acc0e8-f4a9-4d05-87bc-71347176d87e","system_id":"levelo_inurba_marseille","lat":43.28668,"lon":5.36351,"is_reserved":false,"is_disabled":false,"rental_uris":{"android":"levelo://app?vid=87acc0e8-f4a9-4d05-87bc-71347176d87e","ios":"levelo://app?vid=87acc0e8-f4a9-4d05-87bc-71347176d87e"},"vehicle_type_id":"4","last_reported":1728205769,"current_range_meters":32400,"station_id":"ce4bhah2rcd13ifvqej0","pricing_plan_id":"cebpf4jnsgd1na2vs0mg"},{"bike_id":"b8d8de06-2b1f-426e-8fc8-7c4f5441801b","system_id":"levelo_inurba_marseille","lat":43.29574,"lon":5.37518,"is_reserved":false,"is_disabled":false,"rental_uris":{"android":"levelo://app?vid=b8d8de06-2b1f-426e-8fc8-7c4f5441801b","ios":"levelo://app?vid=b8d8de06-2b1f-426e-8fc8-7c4f5441801b"},"vehicle_type_id":"4","last_reported":1728205769,"current_range_meters":24800,"station_id":"ce4bgh92rcd13ifvqb50","pricing_plan_id":"cebpf4jnsgd1na2vs0mg"},{"bike_id":"ecddc9b0-a70b-47de-b6e6-53c6cbd4486d","system_id":"levelo_inurba_marseille","lat":43.30543,"lon":5.36548,"is_reserved":false,"is_disabled":false,"rental_uris":{"android":"levelo://app?vid=ecddc9b0-a70b-47de-b6e6-53c6cbd4486d","ios":"levelo://app?vid=ecddc9b0-a70b-47de-b6e6-53c6cbd4486d"},"vehicle_type_id":"4","last_reported":1728205769,"current_range_meters":30400,"station_id":"ce4bgs12rcd13ifvqcag","pricing_plan_id":"cebpf4jnsgd1na2vs0mg"},{"bike_id":"81fba742-fc14-4c45-b79e-4e75481516f4","system_id":"levelo_inurba_marseille","lat":43.2439,"lon":5.37059,"is_reserved":false,"is_disabled":false,"rental_uris":{"android":"levelo://app?vid=81fba742-fc14-4c45-b79e-4e75481516f4","ios":"levelo://app?vid=81fba742-fc14-4c45-b79e-4e75481516f4"},"vehicle_type_id":"4","last_reported":1728205769,"current_range_meters":8400,"station_id":"ce4bhhh2rcd13ifvqfk0","pricing_plan_id":"cebpf4jnsgd1na2vs0mg"},{"bike_id":"995728c6-cf9c-4f54-a864-4d708c5f9e36","system_id":"levelo_inurba_marseille","lat":43.29192,"lon":5.35802,"is_reserved":false,"is_disabled":false,"rental_uris":{"android":"levelo://app?vid=995728c6-cf9c-4f54-a864-4d708c5f9e36","ios":"levelo://app?vid=995728c6-cf9c-4f54-a864-4d708c5f9e36"},"vehicle_type_id":"4","last_reported":1728205769,"current_range_meters":35200,"station_id":"ce4bhb12rcd13ifvqel0","pricing_plan_id":"cebpf4jnsgd1na2vs0mg"},{"bike_id":"a94f106c-921c-40e5-90b8-0a0b7d3f49ab","system_id":"levelo_inurba_marseille","lat":43.33363,"lon":5.35861,"is_reserved":false,"is_disabled":false,"rental_uris":{"android":"levelo://app?vid=a94f106c-921c-40e5-90b8-0a0b7d3f49ab","ios":"levelo://app?vid=a94f106c-921c-40e5-90b8-0a0b7d3f49ab"},"vehicle_type_id":"4","last_reported":1728205769,"current_range_meters":18800,"station_id":"","pricing_plan_id":"cebpf4jnsgd1na2vs0mg"},{"bike_id":"3f75b285-bf87-4037-863f-775d9a9d6495","system_id":"levelo_inurba_marseille","lat":43.33026,"lon":5.39036,"is_reserved":false,"is_disabled":false,"rental_uris":{"android":"levelo://app?vid=3f75b285-bf87-4037-863f-775d9a9d6495","ios":"levelo://app?vid=3f75b285-bf87-4037-863f-775d9a9d6495"},"vehicle_type_id":"4","last_reported":1728205769,"current_range_meters":38400,"station_id":"ce4bhr92rcd13ifvqhrg","pricing_plan_id":"cebpf4jnsgd1na2vs0mg"},{"bike_id":"52d4276f-2848-4c82-ac33-83fbf79e6585","system_id":"levelo_inurba_marseille","lat":43.24387,"lon":5.37056,"is_reserved":false,"is_disabled":false,"rental_uris":{"android":"levelo://app?vid=52d4276f-2848-4c82-ac33-83fbf79e6585","ios":"levelo://app?vid=52d4276f-2848-4c82-ac33-83fbf79e6585"},"vehicle_type_id":"4","last_reported":1728205769,"current_range_meters":24800,"station_id":"ce4bhhh2rcd13ifvqfk0","pricing_plan_id":"cebpf4jnsgd1na2vs0mg"},{"bike_id":"9f6c19b8-adb6-43d9-a821-c59a5a9ee177","system_id":"levelo_inurba_marseille","lat":43.2455,"lon":5.39521,"is_reserved":false,"is_disabled":false,"rental_uris":{"android":"levelo://app?vid=9f6c19b8-adb6-43d9-a821-c59a5a9ee177","ios":"levelo://app?vid=9f6c19b8-adb6-43d9-a821-c59a5a9ee177"},"vehicle_type_id":"4","last_reported":1728205769,"current_range_meters":38800,"station_id":"ce4bhlp2rcd13ifvqgjg","pricing_plan_id":"cebpf4jnsgd1na2vs0mg"},{"bike_id":"a7a0ce32-a2e1-414d-9cb4-b7863590ca64","system_id":"levelo_inurba_marseille","lat":43.27554,"lon":5.38424,"is_reserved":false,"is_disabled":false,"rental_uris":{"android":"levelo://app?vid=a7a0ce32-a2e1-414d-9cb4-b7863590ca64","ios":"levelo://app?vid=a7a0ce32-a2e1-414d-9cb4-b7863590ca64"},"vehicle_type_id":"4","last_reported":1728205769,"current_range_meters":39200,"station_id":"ce4bhh92rcd13ifvqfi0","pricing_plan_id":"cebpf4jnsgd1na2vs0mg"},{"bike_id":"4037c19f-b08a-4f2f-9716-23a4592989a7","system_id":"levelo_inurba_marseille","lat":43.32362,"lon":5.38879,"is_reserved":false,"is_disabled":false,"rental_uris":{"android":"levelo://app?vid=4037c19f-b08a-4f2f-9716-23a4592989a7","ios":"levelo://app?vid=4037c19f-b08a-4f2f-9716-23a4592989a7"},"vehicle_type_id":"4","last_reported":1728205769,"current_range_meters":36800,"station_id":"ce4bhqp2rcd13ifvqhog","pricing_plan_id":"cebpf4jnsgd1na2vs0mg"},{"bike_id":"09c02b71-98cd-45e4-b855-bb8fbf13e3a2","system_id":"levelo_inurba_marseille","lat":43.27922,"lon":5.3958,"is_reserved":false,"is_disabled":false,"rental_uris":{"android":"levelo://app?vid=09c02b71-98cd-45e4-b855-bb8fbf13e3a2","ios":"levelo://app?vid=09c02b71-98cd-45e4-b855-bb8fbf13e3a2"},"vehicle_type_id":"4","last_reported":1728205769,"current_range_meters":16000,"station_id":"ce4bhf92rcd13ifvqf40","pricing_plan_id":"cebpf4jnsgd1na2vs0mg"},{"bike_id":"7d832797-a368-47ce-80a8-50d6a3763de8","system_id":"levelo_inurba_marseille","lat":43.284248,"lon":5.38465,"is_reserved":false,"is_disabled":false,"rental_uris":{"android":"levelo://app?vid=7d832797-a368-47ce-80a8-50d6a3763de8","ios":"levelo://app?vid=7d832797-a368-47ce-80a8-50d6a3763de8"},"vehicle_type_id":"4","last_reported":1728205769,"current_range_meters":28800,"station_id":"","pricing_plan_id":"cebpf4jnsgd1na2vs0mg"},{"bike_id":"868fa2c3-859c-4b5a-b69c-933c8c522d35","system_id":"levelo_inurba_marseille","lat":43.31353,"lon":5.38498,"is_reserved":false,"is_disabled":false,"rental_uris":{"android":"levelo://app?vid=868fa2c3-859c-4b5a-b69c-933c8c522d35","ios":"levelo://app?vid=868fa2c3-859c-4b5a-b69c-933c8c522d35"},"vehicle_type_id":"4","last_reported":1728205769,"current_range_meters":36800,"station_id":"ce4bgt92rcd13ifvqcf0","pricing_plan_id":"cebpf4jnsgd1na2vs0mg"},{"bike_id":"8da6fe3d-c0e3-489b-b3c2-41bca032eece","system_id":"levelo_inurba_marseille","lat":43.29233,"lon":5.36065,"is_reserved":false,"is_disabled":false,"rental_uris":{"android":"levelo://app?vid=8da6fe3d-c0e3-489b-b3c2-41bca032eece","ios":"levelo://app?vid=8da6fe3d-c0e3-489b-b3c2-41bca032eece"},"vehicle_type_id":"4","last_reported":1728205769,"current_range_meters":30400,"station_id":"ce4bhbh2rcd13ifvqeqg","pricing_plan_id":"cebpf4jnsgd1na2vs0mg"},{"bike_id":"126e8b9c-d4ba-4fdf-b891-8a69ddbd21f6","system_id":"levelo_inurba_marseille","lat":43.32111,"lon":5.36771,"is_reserved":false,"is_disabled":false,"rental_uris":{"android":"levelo://app?vid=126e8b9c-d4ba-4fdf-b891-8a69ddbd21f6","ios":"levelo://app?vid=126e8b9c-d4ba-4fdf-b891-8a69ddbd21f6"},"vehicle_type_id":"4","last_reported":1728205769,"current_range_meters":26800,"station_id":"ce4bhrh2rcd13ifvqhug","pricing_plan_id":"cebpf4jnsgd1na2vs0mg"},{"bike_id":"68b77a88-2067-422a-ab7b-e29094a40dcc","system_id":"levelo_inurba_marseille","lat":43.25116,"lon":5.40316,"is_reserved":false,"is_disabled":false,"rental_uris":{"android":"levelo://app?vid=68b77a88-2067-422a-ab7b-e29094a40dcc","ios":"levelo://app?vid=68b77a88-2067-422a-ab7b-e29094a40dcc"},"vehicle_type_id":"4","last_reported":1728205769,"current_range_meters":38000,"station_id":"ce4bhlh2rcd13ifvqgig","pricing_plan_id":"cebpf4jnsgd1na2vs0mg"},{"bike_id":"46e0cb56-b6fb-4ad3-aefd-9af1c58fb972","system_id":"levelo_inurba_marseille","lat":43.298889,"lon":5.400339,"is_reserved":false,"is_disabled":false,"rental_uris":{"android":"levelo://app?vid=46e0cb56-b6fb-4ad3-aefd-9af1c58fb972","ios":"levelo://app?vid=46e0cb56-b6fb-4ad3-aefd-9af1c58fb972"},"vehicle_type_id":"4","last_reported":1728205769,"current_range_meters":8400,"station_id":"ce4bh0h2rcd13ifvqd50","pricing_plan_id":"cebpf4jnsgd1na2vs0mg"},{"bike_id":"262d64f8-746b-493c-bbf8-3700b93c4b6d","system_id":"levelo_inurba_marseille","lat":43.24386,"lon":5.37054,"is_reserved":false,"is_disabled":false,"rental_uris":{"android":"levelo://app?vid=262d64f8-746b-493c-bbf8-3700b93c4b6d","ios":"levelo://app?vid=262d64f8-746b-493c-bbf8-3700b93c4b6d"},"vehicle_type_id":"4","last_reported":1728205769,"current_range_meters":37600,"station_id":"ce4bhhh2rcd13ifvqfk0","pricing_plan_id":"cebpf4jnsgd1na2vs0mg"},{"bike_id":"b680d7bd-31db-4e86-8e19-b2e9c0cbf0fd","system_id":"levelo_inurba_marseille","lat":43.26791,"lon":5.39409,"is_reserved":false,"is_disabled":false,"rental_uris":{"android":"levelo://app?vid=b680d7bd-31db-4e86-8e19-b2e9c0cbf0fd","ios":"levelo://app?vid=b680d7bd-31db-4e86-8e19-b2e9c0cbf0fd"},"vehicle_type_id":"4","last_reported":1728205769,"current_range_meters":35200,"station_id":"ce4bhh12rcd13ifvqfg0","pricing_plan_id":"cebpf4jnsgd1na2vs0mg"},{"bike_id":"a95f1efe-60f1-49b4-b525-c583fa0bddf5","system_id":"levelo_inurba_marseille","lat":43.26216,"lon":5.37436,"is_reserved":false,"is_disabled":false,"rental_uris":{"android":"levelo://app?vid=a95f1efe-60f1-49b4-b525-c583fa0bddf5","ios":"levelo://app?vid=a95f1efe-60f1-49b4-b525-c583fa0bddf5"},"vehicle_type_id":"4","last_reported":1728205769,"current_range_meters":9200,"station_id":"ce4bhgp2rcd13ifvqfc0","pricing_plan_id":"cebpf4jnsgd1na2vs0mg"},{"bike_id":"ffd0fa52-94da-41da-b428-2e235157e943","system_id":"levelo_inurba_marseille","lat":43.29776,"lon":5.39345,"is_reserved":false,"is_disabled":false,"rental_uris":{"android":"levelo://app?vid=ffd0fa52-94da-41da-b428-2e235157e943","ios":"levelo://app?vid=ffd0fa52-94da-41da-b428-2e235157e943"},"vehicle_type_id":"4","last_reported":1728205769,"current_range_meters":28400,"station_id":"chh1huq6cuj3fo74tm60","pricing_plan_id":"cebpf4jnsgd1na2vs0mg"},{"bike_id":"5952ba6d-6de1-4250-88e4-b3ecad481621","system_id":"levelo_inurba_marseille","lat":43.28421,"lon":5.3751,"is_reserved":false,"is_disabled":false,"rental_uris":{"android":"levelo://app?vid=5952ba6d-6de1-4250-88e4-b3ecad481621","ios":"levelo://app?vid=5952ba6d-6de1-4250-88e4-b3ecad481621"},"vehicle_type_id":"4","last_reported":1728205769,"current_range_meters":17600,"station_id":"ce4bh412rcd13ifvqds0","pricing_plan_id":"cebpf4jnsgd1na2vs0mg"},{"bike_id":"863c432c-e778-4763-95d0-0685bd716f58","system_id":"levelo_inurba_marseille","lat":43.29555,"lon":5.42288,"is_reserved":false,"is_disabled":false,"rental_uris":{"android":"levelo://app?vid=863c432c-e778-4763-95d0-0685bd716f58","ios":"levelo://app?vid=863c432c-e778-4763-95d0-0685bd716f58"},"vehicle_type_id":"4","last_reported":1728205769,"current_range_meters":38800,"station_id":"ce4bhph2rcd13ifvqhdg","pricing_plan_id":"cebpf4jnsgd1na2vs0mg"},{"bike_id":"1ce7e339-76b2-4237-ad27-ada904063fc2","system_id":"levelo_inurba_marseille","lat":43.28348,"lon":5.38103,"is_reserved":false,"is_disabled":false,"rental_uris":{"android":"levelo://app?vid=1ce7e339-76b2-4237-ad27-ada904063fc2","ios":"levelo://app?vid=1ce7e339-76b2-4237-ad27-ada904063fc2"},"vehicle_type_id":"4","last_reported":1728205769,"current_range_meters":38400,"station_id":"ce4bh412rcd13ifvqdr0","pricing_plan_id":"cebpf4jnsgd1na2vs0mg"},{"bike_id":"b6fd76d3-34a5-4c26-a80e-03dca3f57387","system_id":"levelo_inurba_marseille","lat":43.33608,"lon":5.41025,"is_reserved":false,"is_disabled":false,"rental_uris":{"android":"levelo://app?vid=b6fd76d3-34a5-4c26-a80e-03dca3f57387","ios":"levelo://app?vid=b6fd76d3-34a5-4c26-a80e-03dca3f57387"},"vehicle_type_id":"4","last_reported":1728205769,"current_range_meters":7200,"station_id":"ce4bhqh2rcd13ifvqhmg","pricing_plan_id":"cebpf4jnsgd1na2vs0mg"},{"bike_id":"4e8d5733-c84f-4315-acee-ba5e0ee63bb6","system_id":"levelo_inurba_marseille","lat":43.289185,"lon":5.387427,"is_reserved":false,"is_disabled":false,"rental_uris":{"android":"levelo://app?vid=4e8d5733-c84f-4315-acee-ba5e0ee63bb6","ios":"levelo://app?vid=4e8d5733-c84f-4315-acee-ba5e0ee63bb6"},"vehicle_type_id":"4","last_reported":1728205769,"current_range_meters":20400,"station_id":"ce4bh4p2rcd13ifvqe0g","pricing_plan_id":"cebpf4jnsgd1na2vs0mg"},{"bike_id":"152f3a24-1071-41b9-a2ed-934df83e2faa","system_id":"levelo_inurba_marseille","lat":43.25865,"lon":5.39901,"is_reserved":false,"is_disabled":false,"rental_uris":{"android":"levelo://app?vid=152f3a24-1071-41b9-a2ed-934df83e2faa","ios":"levelo://app?vid=152f3a24-1071-41b9-a2ed-934df83e2faa"},"vehicle_type_id":"4","last_reported":1728205769,"current_range_meters":21600,"station_id":"ce4bhl92rcd13ifvqghg","pricing_plan_id":"cebpf4jnsgd1na2vs0mg"},{"bike_id":"fea3a001-6b80-457d-8fa7-59eb6a9d5742","system_id":"levelo_inurba_marseille","lat":43.29025,"lon":5.37544,"is_reserved":false,"is_disabled":false,"rental_uris":{"android":"levelo://app?vid=fea3a001-6b80-457d-8fa7-59eb6a9d5742","ios":"levelo://app?vid=fea3a001-6b80-457d-8fa7-59eb6a9d5742"},"vehicle_type_id":"4","last_reported":1728205769,"current_range_meters":29600,"station_id":"ce4bh692rcd13ifvqe90","pricing_plan_id":"cebpf4jnsgd1na2vs0mg"},{"bike_id":"e52556a0-eec0-42f8-9dff-bfa9d9b67ba6","system_id":"levelo_inurba_marseille","lat":43.32484,"lon":5.36555,"is_reserved":false,"is_disabled":false,"rental_uris":{"android":"levelo://app?vid=e52556a0-eec0-42f8-9dff-bfa9d9b67ba6","ios":"levelo://app?vid=e52556a0-eec0-42f8-9dff-bfa9d9b67ba6"},"vehicle_type_id":"4","last_reported":1728205769,"current_range_meters":25200,"station_id":"ce4bhs12rcd13ifvqhvg","pricing_plan_id":"cebpf4jnsgd1na2vs0mg"},{"bike_id":"d5cfc63f-e131-4e73-b593-46c2895766cc","system_id":"levelo_inurba_marseille","lat":43.31079,"lon":5.42438,"is_reserved":false,"is_disabled":false,"rental_uris":{"android":"levelo://app?vid=d5cfc63f-e131-4e73-b593-46c2895766cc","ios":"levelo://app?vid=d5cfc63f-e131-4e73-b593-46c2895766cc"},"vehicle_type_id":"4","last_reported":1728205769,"current_range_meters":19200,"station_id":"ce4bhp92rcd13ifvqhag","pricing_plan_id":"cebpf4jnsgd1na2vs0mg"},{"bike_id":"bee0cd21-a648-4f04-8bc2-b57277130683","system_id":"levelo_inurba_marseille","lat":43.255798,"lon":5.38232,"is_reserved":false,"is_disabled":false,"rental_uris":{"android":"levelo://app?vid=bee0cd21-a648-4f04-8bc2-b57277130683","ios":"levelo://app?vid=bee0cd21-a648-4f04-8bc2-b57277130683"},"vehicle_type_id":"4","last_reported":1728205769,"current_range_meters":22000,"station_id":"ce4bhih2rcd13ifvqfs0","pricing_plan_id":"cebpf4jnsgd1na2vs0mg"},{"bike_id":"77e44f96-8992-4ec5-ba2c-5e51b9e5b288","system_id":"levelo_inurba_marseille","lat":43.27056,"lon":5.38782,"is_reserved":false,"is_disabled":false,"rental_uris":{"android":"levelo://app?vid=77e44f96-8992-4ec5-ba2c-5e51b9e5b288","ios":"levelo://app?vid=77e44f96-8992-4ec5-ba2c-5e51b9e5b288"},"vehicle_type_id":"4","last_reported":1728205769,"current_range_meters":36800,"station_id":"","pricing_plan_id":"cebpf4jnsgd1na2vs0mg"},{"bike_id":"9f7d6bf5-a15a-42c6-8dd7-76b82650f4fd","system_id":"levelo_inurba_marseille","lat":43.27326,"lon":5.39071,"is_reserved":false,"is_disabled":false,"rental_uris":{"android":"levelo://app?vid=9f7d6bf5-a15a-42c6-8dd7-76b82650f4fd","ios":"levelo://app?vid=9f7d6bf5-a15a-42c6-8dd7-76b82650f4fd"},"vehicle_type_id":"4","last_reported":1728205769,"current_range_meters":31200,"station_id":"ce4bhgp2rcd13ifvqfe0","pricing_plan_id":"cebpf4jnsgd1na2vs0mg"},{"bike_id":"97b2baff-d224-48b3-a58a-dbd53fb50d0d","system_id":"levelo_inurba_marseille","lat":43.284421,"lon":5.391841,"is_reserved":false,"is_disabled":false,"rental_uris":{"android":"levelo://app?vid=97b2baff-d224-48b3-a58a-dbd53fb50d0d","ios":"levelo://app?vid=97b2baff-d224-48b3-a58a-dbd53fb50d0d"},"vehicle_type_id":"4","last_reported":1728205769,"current_range_meters":38800,"station_id":"ce4bhoh2rcd13ifvqh5g","pricing_plan_id":"cebpf4jnsgd1na2vs0mg"},{"bike_id":"32ef6b2d-14cc-4e67-b293-0635ae9e74ce","system_id":"levelo_inurba_marseille","lat":43.27211,"lon":5.39198,"is_reserved":false,"is_disabled":false,"rental_uris":{"android":"levelo://app?vid=32ef6b2d-14cc-4e67-b293-0635ae9e74ce","ios":"levelo://app?vid=32ef6b2d-14cc-4e67-b293-0635ae9e74ce"},"vehicle_type_id":"4","last_reported":1728205769,"current_range_meters":5600,"station_id":"ce4bhhp2rcd13ifvqfm0","pricing_plan_id":"cebpf4jnsgd1na2vs0mg"},{"bike_id":"b51ee6d2-4574-4587-a7f0-3852397ae634","system_id":"levelo_inurba_marseille","lat":43.2293,"lon":5.35381,"is_reserved":false,"is_disabled":false,"rental_uris":{"android":"levelo://app?vid=b51ee6d2-4574-4587-a7f0-3852397ae634","ios":"levelo://app?vid=b51ee6d2-4574-4587-a7f0-3852397ae634"},"vehicle_type_id":"4","last_reported":1728205769,"current_range_meters":36800,"station_id":"cpo3532slgdg3j2ikp40","pricing_plan_id":"cebpf4jnsgd1na2vs0mg"},{"bike_id":"4f5038fe-9ccd-4d04-a6cd-afe04d9be89f","system_id":"levelo_inurba_marseille","lat":43.27387,"lon":5.36267,"is_reserved":false,"is_disabled":false,"rental_uris":{"android":"levelo://app?vid=4f5038fe-9ccd-4d04-a6cd-afe04d9be89f","ios":"levelo://app?vid=4f5038fe-9ccd-4d04-a6cd-afe04d9be89f"},"vehicle_type_id":"4","last_reported":1728205769,"current_range_meters":33200,"station_id":"ce4bhbh2rcd13ifvqeo0","pricing_plan_id":"cebpf4jnsgd1na2vs0mg"},{"bike_id":"b3d48d71-af0e-431b-b556-cbc9797d50f2","system_id":"levelo_inurba_marseille","lat":43.30132,"lon":5.39855,"is_reserved":false,"is_disabled":false,"rental_uris":{"android":"levelo://app?vid=b3d48d71-af0e-431b-b556-cbc9797d50f2","ios":"levelo://app?vid=b3d48d71-af0e-431b-b556-cbc9797d50f2"},"vehicle_type_id":"4","last_reported":1728205769,"current_range_meters":38800,"station_id":"ce4bh0h2rcd13ifvqd40","pricing_plan_id":"cebpf4jnsgd1na2vs0mg"},{"bike_id":"0a8c9a0d-0b0f-4138-98a5-c8e50caa5c7e","system_id":"levelo_inurba_marseille","lat":43.2418,"lon":5.39715,"is_reserved":false,"is_disabled":false,"rental_uris":{"android":"levelo://app?vid=0a8c9a0d-0b0f-4138-98a5-c8e50caa5c7e","ios":"levelo://app?vid=0a8c9a0d-0b0f-4138-98a5-c8e50caa5c7e"},"vehicle_type_id":"4","last_reported":1728205769,"current_range_meters":5600,"station_id":"ce4bhn12rcd13ifvqgpg","pricing_plan_id":"cebpf4jnsgd1na2vs0mg"},{"bike_id":"411b7766-5fd9-42f4-94e2-6d59554d4823","system_id":"levelo_inurba_marseille","lat":43.30648,"lon":5.4008,"is_reserved":false,"is_disabled":false,"rental_uris":{"android":"levelo://app?vid=411b7766-5fd9-42f4-94e2-6d59554d4823","ios":"levelo://app?vid=411b7766-5fd9-42f4-94e2-6d59554d4823"},"vehicle_type_id":"4","last_reported":1728205769,"current_range_meters":19600,"station_id":"ce4bh112rcd13ifvqda0","pricing_plan_id":"cebpf4jnsgd1na2vs0mg"},{"bike_id":"8009ff82-919c-481d-9baa-7c07e360a7b6","system_id":"levelo_inurba_marseille","lat":43.24389,"lon":5.37058,"is_reserved":false,"is_disabled":false,"rental_uris":{"android":"levelo://app?vid=8009ff82-919c-481d-9baa-7c07e360a7b6","ios":"levelo://app?vid=8009ff82-919c-481d-9baa-7c07e360a7b6"},"vehicle_type_id":"4","last_reported":1728205769,"current_range_meters":6000,"station_id":"ce4bhhh2rcd13ifvqfk0","pricing_plan_id":"cebpf4jnsgd1na2vs0mg"},{"bike_id":"55c430cd-1669-4055-b1fd-7c8d8211662e","system_id":"levelo_inurba_marseille","lat":43.26788,"lon":5.39411,"is_reserved":false,"is_disabled":false,"rental_uris":{"android":"levelo://app?vid=55c430cd-1669-4055-b1fd-7c8d8211662e","ios":"levelo://app?vid=55c430cd-1669-4055-b1fd-7c8d8211662e"},"vehicle_type_id":"4","last_reported":1728205769,"current_range_meters":38800,"station_id":"ce4bhh12rcd13ifvqfg0","pricing_plan_id":"cebpf4jnsgd1na2vs0mg"},{"bike_id":"4e0c83a2-b0c3-4894-8559-e509681998d3","system_id":"levelo_inurba_marseille","lat":43.31109,"lon":5.3833,"is_reserved":false,"is_disabled":false,"rental_uris":{"android":"levelo://app?vid=4e0c83a2-b0c3-4894-8559-e509681998d3","ios":"levelo://app?vid=4e0c83a2-b0c3-4894-8559-e509681998d3"},"vehicle_type_id":"4","last_reported":1728205769,"current_range_meters":9600,"station_id":"ce4bgv92rcd13ifvqcr0","pricing_plan_id":"cebpf4jnsgd1na2vs0mg"},{"bike_id":"186d90b6-72d0-43b2-ad71-8d028a2e9b9e","system_id":"levelo_inurba_marseille","lat":43.24387,"lon":5.37062,"is_reserved":false,"is_disabled":false,"rental_uris":{"android":"levelo://app?vid=186d90b6-72d0-43b2-ad71-8d028a2e9b9e","ios":"levelo://app?vid=186d90b6-72d0-43b2-ad71-8d028a2e9b9e"},"vehicle_type_id":"4","last_reported":1728205769,"current_range_meters":2000,"station_id":"ce4bhhh2rcd13ifvqfk0","pricing_plan_id":"cebpf4jnsgd1na2vs0mg"},{"bike_id":"77048d88-c2ed-44f4-8000-0db02adff34e","system_id":"levelo_inurba_marseille","lat":43.2607,"lon":5.38705,"is_reserved":false,"is_disabled":false,"rental_uris":{"android":"levelo://app?vid=77048d88-c2ed-44f4-8000-0db02adff34e","ios":"levelo://app?vid=77048d88-c2ed-44f4-8000-0db02adff34e"},"vehicle_type_id":"4","last_reported":1728205769,"current_range_meters":34800,"station_id":"","pricing_plan_id":"cebpf4jnsgd1na2vs0mg"},{"bike_id":"ae53a9d1-01ac-447b-a4c7-269e1c5ac403","system_id":"levelo_inurba_marseille","lat":43.31822,"lon":5.40632,"is_reserved":false,"is_disabled":false,"rental_uris":{"android":"levelo://app?vid=ae53a9d1-01ac-447b-a4c7-269e1c5ac403","ios":"levelo://app?vid=ae53a9d1-01ac-447b-a4c7-269e1c5ac403"},"vehicle_type_id":"4","last_reported":1728205769,"current_range_meters":12400,"station_id":"","pricing_plan_id":"cebpf4jnsgd1na2vs0mg"},{"bike_id":"d3d0826a-8542-464c-893d-a0abebc55504","system_id":"levelo_inurba_marseille","lat":43.31275,"lon":5.40168,"is_reserved":false,"is_disabled":false,"rental_uris":{"android":"levelo://app?vid=d3d0826a-8542-464c-893d-a0abebc55504","ios":"levelo://app?vid=d3d0826a-8542-464c-893d-a0abebc55504"},"vehicle_type_id":"4","last_reported":1728205769,"current_range_meters":38400,"station_id":"ce4bh092rcd13ifvqd30","pricing_plan_id":"cebpf4jnsgd1na2vs0mg"},{"bike_id":"c8a81076-9586-4795-a406-3705874a4aa0","system_id":"levelo_inurba_marseille","lat":43.22931,"lon":5.35369,"is_reserved":false,"is_disabled":false,"rental_uris":{"android":"levelo://app?vid=c8a81076-9586-4795-a406-3705874a4aa0","ios":"levelo://app?vid=c8a81076-9586-4795-a406-3705874a4aa0"},"vehicle_type_id":"4","last_reported":1728205769,"current_range_meters":30400,"station_id":"cpo3532slgdg3j2ikp40","pricing_plan_id":"cebpf4jnsgd1na2vs0mg"},{"bike_id":"8d4950f1-b301-449d-bcd0-f0ac70cb73de","system_id":"levelo_inurba_marseille","lat":43.28491,"lon":5.42188,"is_reserved":false,"is_disabled":false,"rental_uris":{"android":"levelo://app?vid=8d4950f1-b301-449d-bcd0-f0ac70cb73de","ios":"levelo://app?vid=8d4950f1-b301-449d-bcd0-f0ac70cb73de"},"vehicle_type_id":"4","last_reported":1728205769,"current_range_meters":4800,"station_id":"","pricing_plan_id":"cebpf4jnsgd1na2vs0mg"},{"bike_id":"63d586e1-9015-43d5-9c1b-f06b97918957","system_id":"levelo_inurba_marseille","lat":43.2558,"lon":5.38233,"is_reserved":false,"is_disabled":false,"rental_uris":{"android":"levelo://app?vid=63d586e1-9015-43d5-9c1b-f06b97918957","ios":"levelo://app?vid=63d586e1-9015-43d5-9c1b-f06b97918957"},"vehicle_type_id":"4","last_reported":1728205769,"current_range_meters":28800,"station_id":"ce4bhih2rcd13ifvqfs0","pricing_plan_id":"cebpf4jnsgd1na2vs0mg"},{"bike_id":"a673aca5-f96f-46ea-a9b2-74e544b621d8","system_id":"levelo_inurba_marseille","lat":43.28937,"lon":5.36409,"is_reserved":false,"is_disabled":false,"rental_uris":{"android":"levelo://app?vid=a673aca5-f96f-46ea-a9b2-74e544b621d8","ios":"levelo://app?vid=a673aca5-f96f-46ea-a9b2-74e544b621d8"},"vehicle_type_id":"4","last_reported":1728205769,"current_range_meters":38000,"station_id":"ce4bhc92rcd13ifvqetg","pricing_plan_id":"cebpf4jnsgd1na2vs0mg"},{"bike_id":"c378dc83-ebd1-41d3-9b5e-a9309637a11d","system_id":"levelo_inurba_marseille","lat":43.30935,"lon":5.40149,"is_reserved":false,"is_disabled":false,"rental_uris":{"android":"levelo://app?vid=c378dc83-ebd1-41d3-9b5e-a9309637a11d","ios":"levelo://app?vid=c378dc83-ebd1-41d3-9b5e-a9309637a11d"},"vehicle_type_id":"4","last_reported":1728205769,"current_range_meters":8400,"station_id":"ce4bgvp2rcd13ifvqct0","pricing_plan_id":"cebpf4jnsgd1na2vs0mg"},{"bike_id":"47fd952c-b84c-4fff-b691-98ea3d1d1fe3","system_id":"levelo_inurba_marseille","lat":43.32339,"lon":5.4062,"is_reserved":false,"is_disabled":false,"rental_uris":{"android":"levelo://app?vid=47fd952c-b84c-4fff-b691-98ea3d1d1fe3","ios":"levelo://app?vid=47fd952c-b84c-4fff-b691-98ea3d1d1fe3"},"vehicle_type_id":"4","last_reported":1728205769,"current_range_meters":24800,"station_id":"ce4bhq92rcd13ifvqhjg","pricing_plan_id":"cebpf4jnsgd1na2vs0mg"},{"bike_id":"c50e441c-d247-4c47-85e3-c59071bb20fa","system_id":"levelo_inurba_marseille","lat":43.21344,"lon":5.34932,"is_reserved":false,"is_disabled":false,"rental_uris":{"android":"levelo://app?vid=c50e441c-d247-4c47-85e3-c59071bb20fa","ios":"levelo://app?vid=c50e441c-d247-4c47-85e3-c59071bb20fa"},"vehicle_type_id":"4","last_reported":1728205769,"current_range_meters":30800,"station_id":"crv51consjfaj9uu89c0","pricing_plan_id":"cebpf4jnsgd1na2vs0mg"},{"bike_id":"48948deb-00a9-44f6-b0e5-e836d92e9c7c","system_id":"levelo_inurba_marseille","lat":43.240509,"lon":5.377622,"is_reserved":false,"is_disabled":false,"rental_uris":{"android":"levelo://app?vid=48948deb-00a9-44f6-b0e5-e836d92e9c7c","ios":"levelo://app?vid=48948deb-00a9-44f6-b0e5-e836d92e9c7c"},"vehicle_type_id":"4","last_reported":1728205769,"current_range_meters":27600,"station_id":"ce4bhnp2rcd13ifvqgvg","pricing_plan_id":"cebpf4jnsgd1na2vs0mg"},{"bike_id":"ec5f50a4-9d95-467d-ad82-91d3787e32da","system_id":"levelo_inurba_marseille","lat":43.25111,"lon":5.40322,"is_reserved":false,"is_disabled":false,"rental_uris":{"android":"levelo://app?vid=ec5f50a4-9d95-467d-ad82-91d3787e32da","ios":"levelo://app?vid=ec5f50a4-9d95-467d-ad82-91d3787e32da"},"vehicle_type_id":"4","last_reported":1728205769,"current_range_meters":4000,"station_id":"ce4bhlh2rcd13ifvqgig","pricing_plan_id":"cebpf4jnsgd1na2vs0mg"},{"bike_id":"50adf5c9-c061-481b-81a8-2b154bbc729c","system_id":"levelo_inurba_marseille","lat":43.29582,"lon":5.36726,"is_reserved":false,"is_disabled":false,"rental_uris":{"android":"levelo://app?vid=50adf5c9-c061-481b-81a8-2b154bbc729c","ios":"levelo://app?vid=50adf5c9-c061-481b-81a8-2b154bbc729c"},"vehicle_type_id":"4","last_reported":1728205769,"current_range_meters":38800,"station_id":"ce4bgph2rcd13ifvqc2g","pricing_plan_id":"cebpf4jnsgd1na2vs0mg"},{"bike_id":"a8d95618-f2ad-45b4-8eba-9bd5b2ef680e","system_id":"levelo_inurba_marseille","lat":43.25583,"lon":5.3823,"is_reserved":false,"is_disabled":false,"rental_uris":{"android":"levelo://app?vid=a8d95618-f2ad-45b4-8eba-9bd5b2ef680e","ios":"levelo://app?vid=a8d95618-f2ad-45b4-8eba-9bd5b2ef680e"},"vehicle_type_id":"4","last_reported":1728205769,"current_range_meters":24000,"station_id":"ce4bhih2rcd13ifvqfs0","pricing_plan_id":"cebpf4jnsgd1na2vs0mg"},{"bike_id":"0e706edc-d6c9-4695-a8ed-089f891deb61","system_id":"levelo_inurba_marseille","lat":43.30638,"lon":5.4007,"is_reserved":false,"is_disabled":false,"rental_uris":{"android":"levelo://app?vid=0e706edc-d6c9-4695-a8ed-089f891deb61","ios":"levelo://app?vid=0e706edc-d6c9-4695-a8ed-089f891deb61"},"vehicle_type_id":"4","last_reported":1728205769,"current_range_meters":11600,"station_id":"ce4bh112rcd13ifvqda0","pricing_plan_id":"cebpf4jnsgd1na2vs0mg"},{"bike_id":"9fb2a32a-4537-4d6a-8c0e-fc95e9b585da","system_id":"levelo_inurba_marseille","lat":43.27947,"lon":5.4104,"is_reserved":false,"is_disabled":false,"rental_uris":{"android":"levelo://app?vid=9fb2a32a-4537-4d6a-8c0e-fc95e9b585da","ios":"levelo://app?vid=9fb2a32a-4537-4d6a-8c0e-fc95e9b585da"},"vehicle_type_id":"4","last_reported":1728205769,"current_range_meters":38800,"station_id":"ce4bhnp2rcd13ifvqh0g","pricing_plan_id":"cebpf4jnsgd1na2vs0mg"},{"bike_id":"7d4bec6f-960b-4a74-8e17-e118913cd8c1","system_id":"levelo_inurba_marseille","lat":43.30142,"lon":5.39849,"is_reserved":false,"is_disabled":false,"rental_uris":{"android":"levelo://app?vid=7d4bec6f-960b-4a74-8e17-e118913cd8c1","ios":"levelo://app?vid=7d4bec6f-960b-4a74-8e17-e118913cd8c1"},"vehicle_type_id":"4","last_reported":1728205769,"current_range_meters":30000,"station_id":"ce4bh0h2rcd13ifvqd40","pricing_plan_id":"cebpf4jnsgd1na2vs0mg"},{"bike_id":"b1838a8a-5724-48f4-8b08-ccb2775a3430","system_id":"levelo_inurba_marseille","lat":43.30554,"lon":5.36546,"is_reserved":false,"is_disabled":false,"rental_uris":{"android":"levelo://app?vid=b1838a8a-5724-48f4-8b08-ccb2775a3430","ios":"levelo://app?vid=b1838a8a-5724-48f4-8b08-ccb2775a3430"},"vehicle_type_id":"4","last_reported":1728205769,"current_range_meters":16000,"station_id":"ce4bgs12rcd13ifvqcag","pricing_plan_id":"cebpf4jnsgd1na2vs0mg"},{"bike_id":"2c052363-cb43-4d1b-abc6-e860c8218f98","system_id":"levelo_inurba_marseille","lat":43.32486,"lon":5.36564,"is_reserved":false,"is_disabled":false,"rental_uris":{"android":"levelo://app?vid=2c052363-cb43-4d1b-abc6-e860c8218f98","ios":"levelo://app?vid=2c052363-cb43-4d1b-abc6-e860c8218f98"},"vehicle_type_id":"4","last_reported":1728205769,"current_range_meters":40000,"station_id":"ce4bhs12rcd13ifvqhvg","pricing_plan_id":"cebpf4jnsgd1na2vs0mg"},{"bike_id":"b3c463d6-7d5c-4b82-a02d-34d698576018","system_id":"levelo_inurba_marseille","lat":43.28689,"lon":5.37391,"is_reserved":false,"is_disabled":false,"rental_uris":{"android":"levelo://app?vid=b3c463d6-7d5c-4b82-a02d-34d698576018","ios":"levelo://app?vid=b3c463d6-7d5c-4b82-a02d-34d698576018"},"vehicle_type_id":"4","last_reported":1728205769,"current_range_meters":38400,"station_id":"ce4bh3p2rcd13ifvqdq0","pricing_plan_id":"cebpf4jnsgd1na2vs0mg"},{"bike_id":"65f57557-35bd-47c6-8943-69bda7cae04f","system_id":"levelo_inurba_marseille","lat":43.2979,"lon":5.3812,"is_reserved":false,"is_disabled":false,"rental_uris":{"android":"levelo://app?vid=65f57557-35bd-47c6-8943-69bda7cae04f","ios":"levelo://app?vid=65f57557-35bd-47c6-8943-69bda7cae04f"},"vehicle_type_id":"4","last_reported":1728205769,"current_range_meters":37600,"station_id":"ce4bgip2rcd13ifvqbb0","pricing_plan_id":"cebpf4jnsgd1na2vs0mg"},{"bike_id":"bdefae95-7cc5-4880-bfcb-b1af39586be0","system_id":"levelo_inurba_marseille","lat":43.32662,"lon":5.40992,"is_reserved":false,"is_disabled":false,"rental_uris":{"android":"levelo://app?vid=bdefae95-7cc5-4880-bfcb-b1af39586be0","ios":"levelo://app?vid=bdefae95-7cc5-4880-bfcb-b1af39586be0"},"vehicle_type_id":"4","last_reported":1728205769,"current_range_meters":36800,"station_id":"ce4bhpp2rcd13ifvqhgg","pricing_plan_id":"cebpf4jnsgd1na2vs0mg"},{"bike_id":"7f2584c3-186b-4ca9-b416-bee639b50e12","system_id":"levelo_inurba_marseille","lat":43.22933,"lon":5.35379,"is_reserved":false,"is_disabled":false,"rental_uris":{"android":"levelo://app?vid=7f2584c3-186b-4ca9-b416-bee639b50e12","ios":"levelo://app?vid=7f2584c3-186b-4ca9-b416-bee639b50e12"},"vehicle_type_id":"4","last_reported":1728205769,"current_range_meters":30000,"station_id":"cpo3532slgdg3j2ikp40","pricing_plan_id":"cebpf4jnsgd1na2vs0mg"},{"bike_id":"f60f3e61-6f66-4f99-bcd4-9b2387568e70","system_id":"levelo_inurba_marseille","lat":43.30314,"lon":5.36887,"is_reserved":false,"is_disabled":false,"rental_uris":{"android":"levelo://app?vid=f60f3e61-6f66-4f99-bcd4-9b2387568e70","ios":"levelo://app?vid=f60f3e61-6f66-4f99-bcd4-9b2387568e70"},"vehicle_type_id":"4","last_reported":1728205769,"current_range_meters":33200,"station_id":"ce4bgqh2rcd13ifvqc5g","pricing_plan_id":"cebpf4jnsgd1na2vs0mg"},{"bike_id":"985bee0a-2fee-4b1e-aa9e-f813989bbc2f","system_id":"levelo_inurba_marseille","lat":43.29258,"lon":5.40912,"is_reserved":false,"is_disabled":false,"rental_uris":{"android":"levelo://app?vid=985bee0a-2fee-4b1e-aa9e-f813989bbc2f","ios":"levelo://app?vid=985bee0a-2fee-4b1e-aa9e-f813989bbc2f"},"vehicle_type_id":"4","last_reported":1728205769,"current_range_meters":30800,"station_id":"ce4bh192rcd13ifvqdc0","pricing_plan_id":"cebpf4jnsgd1na2vs0mg"},{"bike_id":"12afc8f1-2acf-4c0e-b1d3-c57bea2e71f3","system_id":"levelo_inurba_marseille","lat":43.26062,"lon":5.3939,"is_reserved":false,"is_disabled":false,"rental_uris":{"android":"levelo://app?vid=12afc8f1-2acf-4c0e-b1d3-c57bea2e71f3","ios":"levelo://app?vid=12afc8f1-2acf-4c0e-b1d3-c57bea2e71f3"},"vehicle_type_id":"4","last_reported":1728205769,"current_range_meters":36800,"station_id":"ce4bhh92rcd13ifvqfj0","pricing_plan_id":"cebpf4jnsgd1na2vs0mg"},{"bike_id":"cf242351-bafc-44e5-b87e-92d1aa530bc2","system_id":"levelo_inurba_marseille","lat":43.299362,"lon":5.372028,"is_reserved":false,"is_disabled":false,"rental_uris":{"android":"levelo://app?vid=cf242351-bafc-44e5-b87e-92d1aa530bc2","ios":"levelo://app?vid=cf242351-bafc-44e5-b87e-92d1aa530bc2"},"vehicle_type_id":"4","last_reported":1728205769,"current_range_meters":34800,"station_id":"ce4bgr92rcd13ifvqc7g","pricing_plan_id":"cebpf4jnsgd1na2vs0mg"},