{"last_updated":1758593704,"ttl":60,"version":"2.2","data":{"bikes":[{"bike_id":"b8541709-8762-4e41-ab78-83cc1a880734","system_id":"levelo_inurba_marseille","lat":43.30603,"lon":5.36638,"is_reserved":false,"is_disabled":true,"rental_uris":{"android":"levelo://app?vid=b8541709-8762-4e41-ab78-83cc1a880734","ios":"levelo://app?vid=b8541709-8762-4e41-ab78-83cc1a880734"},"vehicle_type_id":"4","last_reported":1758593704,"current_range_meters":2800,"station_id":"ce4bgs12rcd13ifvqcag","pricing_plan_id":"cebpf4jnsgd1na2vs0mg"},{"bike_id":"4dd26b8b-d876-4b51-af65-c0cabbe6b944","system_id":"levelo_inurba_marseille","lat":43.29227,"lon":5.36052,"is_reserved":false,"is_disabled":false,"rental_uris":{"android":"levelo://app?vid=4dd26b8b-d876-4b51-af65-c0cabbe6b944","ios":"levelo://app?vid=4dd26b8b-d876-4b51-af65-c0cabbe6b944"},"vehicle_type_id":"4","last_reported":1758593704,"current_range_meters":2800,"station_id":"ce4bhbh2rcd13ifvqeqg","pricing_plan_id":"cebpf4jnsgd1na2vs0mg"},{"bike_id":"a07a513e-e5a9-4481-8592-d991379bc662","system_id":"levelo_inurba_marseille","lat":43.337536,"lon":5.374536,"is_reserved":false,"is_disabled":false,"rental_uris":{"android":"levelo://app?vid=a07a513e-e5a9-4481-8592-d991379bc662","ios":"levelo://app?vid=a07a513e-e5a9-4481-8592-d991379bc662"},"vehicle_type_id":"4","last_reported":1758593704,"current_range_meters":3200,"station_id":"","pricing_plan_id":"cebpf4jnsgd1na2vs0mg"},{"bike_id":"a46cc197-8669-4b88-9474-daf85db0d5ed","system_id":"levelo_inurba_marseille","lat":43.29262,"lon":5.40146,"is_reserved":false,"is_disabled":false,"rental_uris":{"android":"levelo://app?vid=a46cc197-8669-4b88-9474-daf85db0d5ed","ios":"levelo://app?vid=a46cc197-8669-4b88-9474-daf85db0d5ed"},"vehicle_type_id":"4","last_reported":1758593704,"current_range_meters":4400,"station_id":"ce4bh312rcd13ifvqdk0","pricing_plan_id":"cebpf4jnsgd1na2vs0mg"},{"bike_id":"2289a0ff-9c3e-4f79-ad38-4b41158d6057","system_id":"levelo_inurba_marseille","lat":43.29882,"lon":5.37911,"is_reserved":false,"is_disabled":false,"rental_uris":{"android":"levelo://app?vid=2289a0ff-9c3e-4f79-ad38-4b41158d6057","ios":"levelo://app?vid=2289a0ff-9c3e-4f79-ad38-4b41158d6057"},"vehicle_type_id":"4","last_reported":1758593704,"current_range_meters":4400,"station_id":"","pricing_plan_id":"cebpf4jnsgd1na2vs0mg"},{"bike_id":"782ab6c9-419a-45aa-80fa-e424803fa9fa","system_id":"levelo_inurba_marseille","lat":43.31074,"lon":5.38359,"is_reserved":false,"is_disabled":false,"rental_uris":{"android":"levelo://app?vid=782ab6c9-419a-45aa-80fa-e424803fa9fa","ios":"levelo://app?vid=782ab6c9-419a-45aa-80fa-e424803fa9fa"},"vehicle_type_id":"4","last_reported":1758593704,"current_range_meters":4400,"station_id":"ce4bgv92rcd13ifvqcr0","pricing_plan_id":"cebpf4jnsgd1na2vs0mg"},{"bike_id":"55d1bc08-fd54-4a82-afc7-2adcaa7b1c4e","system_id":"levelo_inurba_marseille","lat":43.30033,"lon":5.37689,"is_reserved":false,"is_disabled":false,"rental_uris":{"android":"levelo://app?vid=55d1bc08-fd54-4a82-afc7-2adcaa7b1c4e","ios":"levelo://app?vid=55d1bc08-fd54-4a82-afc7-2adcaa7b1c4e"},"vehicle_type_id":"4","last_reported":1758593704,"current_range_meters":4400,"station_id":"","pricing_plan_id":"cebpf4jnsgd1na2vs0mg"},{"bike_id":"0ad5c6a5-8b05-4faa-8590-609348c11288","system_id":"levelo_inurba_marseille","lat":43.27841,"lon":5.40713,"is_reserved":false,"is_disabled":true,"rental_uris":{"android":"levelo://app?vid=0ad5c6a5-8b05-4faa-8590-609348c11288","ios":"levelo://app?vid=0ad5c6a5-8b05-4faa-8590-609348c11288"},"vehicle_type_id":"4","last_reported":1758593704,"current_range_meters":4800,"station_id":"ce4bhnh2rcd13ifvqgtg","pricing_plan_id":"cebpf4jnsgd1na2vs0mg"},{"bike_id":"b6536b39-d494-42d8-975e-cdd406476798","system_id":"levelo_inurba_marseille","lat":43.26782,"lon":5.39416,"is_reserved":false,"is_disabled":true,"rental_uris":{"android":"levelo://app?vid=b6536b39-d494-42d8-975e-cdd406476798","ios":"levelo://app?vid=b6536b39-d494-42d8-975e-cdd406476798"},"vehicle_type_id":"4","last_reported":1758593704,"current_range_meters":5600,"station_id":"ce4bhh12rcd13ifvqfg0","pricing_plan_id":"cebpf4jnsgd1na2vs0mg"},{"bike_id":"68adab37-f5ad-4072-b58a-fe6c68285ca6","system_id":"levelo_inurba_marseille","lat":43.30622,"lon":5.37647,"is_reserved":false,"is_disabled":false,"rental_uris":{"android":"levelo://app?vid=68adab37-f5ad-4072-b58a-fe6c68285ca6","ios":"levelo://app?vid=68adab37-f5ad-4072-b58a-fe6c68285ca6"},"vehicle_type_id":"4","last_reported":1758593704,"current_range_meters":5600,"station_id":"","pricing_plan_id":"cebpf4jnsgd1na2vs0mg"},{"bike_id":"8378fde5-ffb7-4dfe-ac5f-167d19339eb7","system_id":"levelo_inurba_marseille","lat":43.28712,"lon":5.39984,"is_reserved":false,"is_disabled":false,"rental_uris":{"android":"levelo://app?vid=8378fde5-ffb7-4dfe-ac5f-167d19339eb7","ios":"levelo://app?vid=8378fde5-ffb7-4dfe-ac5f-167d19339eb7"},"vehicle_type_id":"4","last_reported":1758593704,"current_range_meters":5600,"station_id":"ce4bho92rcd13ifvqh3g","pricing_plan_id":"cebpf4jnsgd1na2vs0mg"},{"bike_id":"6dc5226a-7c65-409d-851b-f5fb988d77dc","system_id":"levelo_inurba_marseille","lat":43.29288,"lon":5.40102,"is_reserved":false,"is_disabled":false,"rental_uris":{"android":"levelo://app?vid=6dc5226a-7c65-409d-851b-f5fb988d77dc","ios":"levelo://app?vid=6dc5226a-7c65-409d-851b-f5fb988d77dc"},"vehicle_type_id":"4","last_reported":1758593704,"current_range_meters":6000,"station_id":"ce4bh312rcd13ifvqdk0","pricing_plan_id":"cebpf4jnsgd1na2vs0mg"},{"bike_id":"1b790372-5d34-489f-a29a-5f2319ad70e0","system_id":"levelo_inurba_marseille","lat":43.28261,"lon":5.35048,"is_reserved":false,"is_disabled":true,"rental_uris":{"android":"levelo://app?vid=1b790372-5d34-489f-a29a-5f2319ad70e0","ios":"levelo://app?vid=1b790372-5d34-489f-a29a-5f2319ad70e0"},"vehicle_type_id":"4","last_reported":1758593704,"current_range_meters":6000,"station_id":"ce4bhbp2rcd13ifvqerg","pricing_plan_id":"cebpf4jnsgd1na2vs0mg"},{"bike_id":"34b3a2e0-4e41-47a4-b0e4-ab14ccc3fc17","system_id":"levelo_inurba_marseille","lat":43.28703,"lon":5.37386,"is_reserved":false,"is_disabled":false,"rental_uris":{"android":"levelo://app?vid=34b3a2e0-4e41-47a4-b0e4-ab14ccc3fc17","ios":"levelo://app?vid=34b3a2e0-4e41-47a4-b0e4-ab14ccc3fc17"},"vehicle_type_id":"4","last_reported":1758593704,"current_range_meters":6000,"station_id":"ce4bh3p2rcd13ifvqdq0","pricing_plan_id":"cebpf4jnsgd1na2vs0mg"},{"bike_id":"35e58ae7-40e5-4d86-9d99-68b307eff43f","system_id":"levelo_inurba_marseille","lat":43.272076,"lon":5.391776,"is_reserved":false,"is_disabled":true,"rental_uris":{"android":"levelo://app?vid=35e58ae7-40e5-4d86-9d99-68b307eff43f","ios":"levelo://app?vid=35e58ae7-40e5-4d86-9d99-68b307eff43f"},"vehicle_type_id":"4","last_reported":1758593704,"current_range_meters":6400,"station_id":"ce4bhhp2rcd13ifvqfm0","pricing_plan_id":"cebpf4jnsgd1na2vs0mg"},{"bike_id":"0dbc7da0-0362-4020-94e8-7c158950cbc3","system_id":"levelo_inurba_marseille","lat":43.270518,"lon":5.402575,"is_reserved":false,"is_disabled":true,"rental_uris":{"android":"levelo://app?vid=0dbc7da0-0362-4020-94e8-7c158950cbc3","ios":"levelo://app?vid=0dbc7da0-0362-4020-94e8-7c158950cbc3"},"vehicle_type_id":"4","last_reported":1758593704,"current_range_meters":6400,"station_id":"ce4bhk92rcd13ifvqgc0","pricing_plan_id":"cebpf4jnsgd1na2vs0mg"},{"bike_id":"906223e0-7f0b-4506-8707-36d1364f6232","system_id":"levelo_inurba_marseille","lat":43.29484,"lon":5.3743,"is_reserved":false,"is_disabled":true,"rental_uris":{"android":"levelo://app?vid=906223e0-7f0b-4506-8707-36d1364f6232","ios":"levelo://app?vid=906223e0-7f0b-4506-8707-36d1364f6232"},"vehicle_type_id":"4","last_reported":1758593704,"current_range_meters":6800,"station_id":"","pricing_plan_id":"cebpf4jnsgd1na2vs0mg"},{"bike_id":"25ef6392-637b-46c0-b9a5-912b511fff41","system_id":"levelo_inurba_marseille","lat":43.25342,"lon":5.42169,"is_reserved":false,"is_disabled":false,"rental_uris":{"android":"levelo://app?vid=25ef6392-637b-46c0-b9a5-912b511fff41","ios":"levelo://app?vid=25ef6392-637b-46c0-b9a5-912b511fff41"},"vehicle_type_id":"4","last_reported":1758593704,"current_range_meters":6800,"station_id":"st_d2m65c5bi1j21697t3ng","pricing_plan_id":"cebpf4jnsgd1na2vs0mg"},{"bike_id":"5212b67d-7f01-4f88-a59f-f8f25914a6c4","system_id":"levelo_inurba_marseille","lat":43.2926,"lon":5.40137,"is_reserved":false,"is_disabled":false,"rental_uris":{"android":"levelo://app?vid=5212b67d-7f01-4f88-a59f-f8f25914a6c4","ios":"levelo://app?vid=5212b67d-7f01-4f88-a59f-f8f25914a6c4"},"vehicle_type_id":"4","last_reported":1758593704,"current_range_meters":6800,"station_id":"ce4bh312rcd13ifvqdk0","pricing_plan_id":"cebpf4jnsgd1na2vs0mg"},{"bike_id":"9278c8e4-f92e-4b80-9d1a-f8764c260a72","system_id":"levelo_inurba_marseille","lat":43.21753,"lon":5.34601,"is_reserved":false,"is_disabled":false,"rental_uris":{"android":"levelo://app?vid=9278c8e4-f92e-4b80-9d1a-f8764c260a72","ios":"levelo://app?vid=9278c8e4-f92e-4b80-9d1a-f8764c260a72"},"vehicle_type_id":"4","last_reported":1758593704,"current_range_meters":7200,"station_id":"st_cvj6r9ubvosntc0bgbag","pricing_plan_id":"cebpf4jnsgd1na2vs0mg"},{"bike_id":"a05ae472-c8cd-45e2-a932-99dd3423ed46","system_id":"levelo_inurba_marseille","lat":43.24956,"lon":5.40504,"is_reserved":false,"is_disabled":true,"rental_uris":{"android":"levelo://app?vid=a05ae472-c8cd-45e2-a932-99dd3423ed46","ios":"levelo://app?vid=a05ae472-c8cd-45e2-a932-99dd3423ed46"},"vehicle_type_id":"4","last_reported":1758593704,"current_range_meters":7200,"station_id":"st_d2ngiaodas8pm72gd1h0","pricing_plan_id":"cebpf4jnsgd1na2vs0mg"},{"bike_id":"9176512c-2cc1-4df2-a8e0-6be514fbcdbf","system_id":"levelo_inurba_marseille","lat":43.33748,"lon":5.37465,"is_reserved":false,"is_disabled":false,"rental_uris":{"android":"levelo://app?vid=9176512c-2cc1-4df2-a8e0-6be514fbcdbf","ios":"levelo://app?vid=9176512c-2cc1-4df2-a8e0-6be514fbcdbf"},"vehicle_type_id":"4","last_reported":1758593704,"current_range_meters":7200,"station_id":"","pricing_plan_id":"cebpf4jnsgd1na2vs0mg"},{"bike_id":"8a569a47-46ff-4e91-972f-c6991b590b75","system_id":"levelo_inurba_marseille","lat":43.30246,"lon":5.40076,"is_reserved":false,"is_disabled":true,"rental_uris":{"android":"levelo://app?vid=8a569a47-46ff-4e91-972f-c6991b590b75","ios":"levelo://app?vid=8a569a47-46ff-4e91-972f-c6991b590b75"},"vehicle_type_id":"4","last_reported":1758593704,"current_range_meters":8000,"station_id":"ce4bgvh2rcd13ifvqcs0","pricing_plan_id":"cebpf4jnsgd1na2vs0mg"},{"bike_id":"c7c2097a-66cc-43ff-ad5b-683e3b1f3690","system_id":"levelo_inurba_marseille","lat":43.28867,"lon":5.35821,"is_reserved":false,"is_disabled":false,"rental_uris":{"android":"levelo://app?vid=c7c2097a-66cc-43ff-ad5b-683e3b1f3690","ios":"levelo://app?vid=c7c2097a-66cc-43ff-ad5b-683e3b1f3690"},"vehicle_type_id":"4","last_reported":1758593704,"current_range_meters":8000,"station_id":"ce4bhb12rcd13ifvqem0","pricing_plan_id":"cebpf4jnsgd1na2vs0mg"},{"bike_id":"438ead59-de14-4fa0-a61d-03a70a4122ae","system_id":"levelo_inurba_marseille","lat":43.97285,"lon":4.89134,"is_reserved":false,"is_disabled":true,"rental_uris":{"android":"levelo://app?vid=438ead59-de14-4fa0-a61d-03a70a4122ae","ios":"levelo://app?vid=438ead59-de14-4fa0-a61d-03a70a4122ae"},"vehicle_type_id":"4","last_reported":1758593704,"current_range_meters":8000,"station_id":"","pricing_plan_id":"cebpf4jnsgd1na2vs0mg"},{"bike_id":"698a1659-1be4-4464-8e40-0054e6845364","system_id":"levelo_inurba_marseille","lat":43.29398,"lon":5.40373,"is_reserved":false,"is_disabled":false,"rental_uris":{"android":"levelo://app?vid=698a1659-1be4-4464-8e40-0054e6845364","ios":"levelo://app?vid=698a1659-1be4-4464-8e40-0054e6845364"},"vehicle_type_id":"4","last_reported":1758593704,"current_range_meters":8400,"station_id":"","pricing_plan_id":"cebpf4jnsgd1na2vs0mg"},{"bike_id":"59362b21-e7ae-4d89-a581-7623f0cabe74","system_id":"levelo_inurba_marseille","lat":43.28999,"lon":5.35614,"is_reserved":false,"is_disabled":true,"rental_uris":{"android":"levelo://app?vid=59362b21-e7ae-4d89-a581-7623f0cabe74","ios":"levelo://app?vid=59362b21-e7ae-4d89-a581-7623f0cabe74"},"vehicle_type_id":"4","last_reported":1758593704,"current_range_meters":8400,"station_id":"ce4bhb92rcd13ifvqen0","pricing_plan_id":"cebpf4jnsgd1na2vs0mg"},{"bike_id":"0402438e-d72b-4870-8e22-17facef5f22b","system_id":"levelo_inurba_marseille","lat":43.295977,"lon":5.391597,"is_reserved":false,"is_disabled":false,"rental_uris":{"android":"levelo://app?vid=0402438e-d72b-4870-8e22-17facef5f22b","ios":"levelo://app?vid=0402438e-d72b-4870-8e22-17facef5f22b"},"vehicle_type_id":"4","last_reported":1758593704,"current_range_meters":8400,"station_id":"","pricing_plan_id":"cebpf4jnsgd1na2vs0mg"},{"bike_id":"4b4433a1-5f03-46dc-9cde-98800859df22","system_id":"levelo_inurba_marseille","lat":43.26176,"lon":5.37898,"is_reserved":false,"is_disabled":false,"rental_uris":{"android":"levelo://app?vid=4b4433a1-5f03-46dc-9cde-98800859df22","ios":"levelo://app?vid=4b4433a1-5f03-46dc-9cde-98800859df22"},"vehicle_type_id":"4","last_reported":1758593704,"current_range_meters":8400,"station_id":"ce4bhjp2rcd13ifvqg90","pricing_plan_id":"cebpf4jnsgd1na2vs0mg"},{"bike_id":"6f7767e9-7dbb-4a84-9a20-b1f483c7184e","system_id":"levelo_inurba_marseille","lat":43.28458,"lon":5.35879,"is_reserved":false,"is_disabled":true,"rental_uris":{"android":"levelo://app?vid=6f7767e9-7dbb-4a84-9a20-b1f483c7184e","ios":"levelo://app?vid=6f7767e9-7dbb-4a84-9a20-b1f483c7184e"},"vehicle_type_id":"4","last_reported":1758593704,"current_range_meters":8400,"station_id":"ce4bhah2rcd13ifvqei0","pricing_plan_id":"cebpf4jnsgd1na2vs0mg"},{"bike_id":"d723fb4b-9085-4d09-b536-3e8aee154117","system_id":"levelo_inurba_marseille","lat":43.284218,"lon":5.375093,"is_reserved":false,"is_disabled":false,"rental_uris":{"android":"levelo://app?vid=d723fb4b-9085-4d09-b536-3e8aee154117","ios":"levelo://app?vid=d723fb4b-9085-4d09-b536-3e8aee154117"},"vehicle_type_id":"4","last_reported":1758593704,"current_range_meters":8400,"station_id":"ce4bh412rcd13ifvqds0","pricing_plan_id":"cebpf4jnsgd1na2vs0mg"},{"bike_id":"0ca405c5-50f7-42f0-ad59-fa4f401dba3d","system_id":"levelo_inurba_marseille","lat":43.246824,"lon":5.381633,"is_reserved":false,"is_disabled":true,"rental_uris":{"android":"levelo://app?vid=0ca405c5-50f7-42f0-ad59-fa4f401dba3d","ios":"levelo://app?vid=0ca405c5-50f7-42f0-ad59-fa4f401dba3d"},"vehicle_type_id":"4","last_reported":1758593704,"current_range_meters":8800,"station_id":"ce4bhih2rcd13ifvqfr0","pricing_plan_id":"cebpf4jnsgd1na2vs0mg"},{"bike_id":"aa045693-51e1-4f7f-ae76-4d9cb5b83ceb","system_id":"levelo_inurba_marseille","lat":43.29227,"lon":5.36036,"is_reserved":false,"is_disabled":false,"rental_uris":{"android":"levelo://app?vid=aa045693-51e1-4f7f-ae76-4d9cb5b83ceb","ios":"levelo://app?vid=aa045693-51e1-4f7f-ae76-4d9cb5b83ceb"},"vehicle_type_id":"4","last_reported":1758593704,"current_range_meters":9200,"station_id":"ce4bhbh2rcd13ifvqeqg","pricing_plan_id":"cebpf4jnsgd1na2vs0mg"},{"bike_id":"a15e48c8-16c3-437e-a237-62b9e19d84cb","system_id":"levelo_inurba_marseille","lat":43.21784,"lon":5.34583,"is_reserved":false,"is_disabled":false,"rental_uris":{"android":"levelo://app?vid=a15e48c8-16c3-437e-a237-62b9e19d84cb","ios":"levelo://app?vid=a15e48c8-16c3-437e-a237-62b9e19d84cb"},"vehicle_type_id":"4","last_reported":1758593704,"current_range_meters":9200,"station_id":"","pricing_plan_id":"cebpf4jnsgd1na2vs0mg"},{"bike_id":"f302e031-6241-47ab-9351-8c2b3a3eaecc","system_id":"levelo_inurba_marseille","lat":43.28412,"lon":5.37509,"is_reserved":false,"is_disabled":false,"rental_uris":{"android":"levelo://app?vid=f302e031-6241-47ab-9351-8c2b3a3eaecc","ios":"levelo://app?vid=f302e031-6241-47ab-9351-8c2b3a3eaecc"},"vehicle_type_id":"4","last_reported":1758593704,"current_range_meters":9200,"station_id":"ce4bh412rcd13ifvqds0","pricing_plan_id":"cebpf4jnsgd1na2vs0mg"},{"bike_id":"b28c2e0f-289a-42b4-aa40-5045485f8597","system_id":"levelo_inurba_marseille","lat":43.27075,"lon":5.42268,"is_reserved":false,"is_disabled":false,"rental_uris":{"android":"levelo://app?vid=b28c2e0f-289a-42b4-aa40-5045485f8597","ios":"levelo://app?vid=b28c2e0f-289a-42b4-aa40-5045485f8597"},"vehicle_type_id":"4","last_reported":1758593704,"current_range_meters":9600,"station_id":"ce4bhk92rcd13ifvqgb0","pricing_plan_id":"cebpf4jnsgd1na2vs0mg"},{"bike_id":"6e417fed-8d43-4963-b52e-c54cd79d652e","system_id":"levelo_inurba_marseille","lat":43.30119,"lon":5.38779,"is_reserved":false,"is_disabled":true,"rental_uris":{"android":"levelo://app?vid=6e417fed-8d43-4963-b52e-c54cd79d652e","ios":"levelo://app?vid=6e417fed-8d43-4963-b52e-c54cd79d652e"},"vehicle_type_id":"4","last_reported":1758593704,"current_range_meters":9600,"station_id":"ce4bghh2rcd13ifvqb60","pricing_plan_id":"cebpf4jnsgd1na2vs0mg"},{"bike_id":"fe4a57c6-1810-4009-8f86-8cf5a1e49aec","system_id":"levelo_inurba_marseille","lat":43.29248,"lon":5.409,"is_reserved":false,"is_disabled":false,"rental_uris":{"android":"levelo://app?vid=fe4a57c6-1810-4009-8f86-8cf5a1e49aec","ios":"levelo://app?vid=fe4a57c6-1810-4009-8f86-8cf5a1e49aec"},"vehicle_type_id":"4","last_reported":1758593704,"current_range_meters":9600,"station_id":"ce4bh192rcd13ifvqdc0","pricing_plan_id":"cebpf4jnsgd1na2vs0mg"},{"bike_id":"17d5d9cb-ded7-4f06-b429-86e8fa40cd67","system_id":"levelo_inurba_marseille","lat":43.27998,"lon":5.41676,"is_reserved":false,"is_disabled":false,"rental_uris":{"android":"levelo://app?vid=17d5d9cb-ded7-4f06-b429-86e8fa40cd67","ios":"levelo://app?vid=17d5d9cb-ded7-4f06-b429-86e8fa40cd67"},"vehicle_type_id":"4","last_reported":1758593704,"current_range_meters":9600,"station_id":"ce4bho12rcd13ifvqh1g","pricing_plan_id":"cebpf4jnsgd1na2vs0mg"},{"bike_id":"7d73570a-4165-46a4-a4d9-6c3b91773a9c","system_id":"levelo_inurba_marseille","lat":43.22933,"lon":5.35408,"is_reserved":false,"is_disabled":false,"rental_uris":{"android":"levelo://app?vid=7d73570a-4165-46a4-a4d9-6c3b91773a9c","ios":"levelo://app?vid=7d73570a-4165-46a4-a4d9-6c3b91773a9c"},"vehicle_type_id":"4","last_reported":1758593704,"current_range_meters":10000,"station_id":"cpo3532slgdg3j2ikp40","pricing_plan_id":"cebpf4jnsgd1na2vs0mg"},{"bike_id":"bcc85f5a-4dd4-4193-b8b3-f87e0df6ed01","system_id":"levelo_inurba_marseille","lat":43.28718,"lon":5.39991,"is_reserved":false,"is_disabled":false,"rental_uris":{"android":"levelo://app?vid=bcc85f5a-4dd4-4193-b8b3-f87e0df6ed01","ios":"levelo://app?vid=bcc85f5a-4dd4-4193-b8b3-f87e0df6ed01"},"vehicle_type_id":"4","last_reported":1758593704,"current_range_meters":10000,"station_id":"ce4bho92rcd13ifvqh3g","pricing_plan_id":"cebpf4jnsgd1na2vs0mg"},{"bike_id":"a95a546a-691f-414b-9f19-eb455305a59b","system_id":"levelo_inurba_marseille","lat":43.21756,"lon":5.34607,"is_reserved":false,"is_disabled":false,"rental_uris":{"android":"levelo://app?vid=a95a546a-691f-414b-9f19-eb455305a59b","ios":"levelo://app?vid=a95a546a-691f-414b-9f19-eb455305a59b"},"vehicle_type_id":"4","last_reported":1758593704,"current_range_meters":10000,"station_id":"st_cvj6r9ubvosntc0bgbag","pricing_plan_id":"cebpf4jnsgd1na2vs0mg"},{"bike_id":"bc5bdce1-bf12-446e-b31e-3cfc29bb8dd1","system_id":"levelo_inurba_marseille","lat":43.29558,"lon":5.38174,"is_reserved":false,"is_disabled":false,"rental_uris":{"android":"levelo://app?vid=bc5bdce1-bf12-446e-b31e-3cfc29bb8dd1","ios":"levelo://app?vid=bc5bdce1-bf12-446e-b31e-3cfc29bb8dd1"},"vehicle_type_id":"4","last_reported":1758593704,"current_range_meters":10000,"station_id":"","pricing_plan_id":"cebpf4jnsgd1na2vs0mg"},{"bike_id":"90e14a2d-1c9e-457a-a1d7-7257e3270581","system_id":"levelo_inurba_marseille","lat":43.27986,"lon":5.41658,"is_reserved":false,"is_disabled":true,"rental_uris":{"android":"levelo://app?vid=90e14a2d-1c9e-457a-a1d7-7257e3270581","ios":"levelo://app?vid=90e14a2d-1c9e-457a-a1d7-7257e3270581"},"vehicle_type_id":"4","last_reported":1758593704,"current_range_meters":10000,"station_id":"ce4bho12rcd13ifvqh1g","pricing_plan_id":"cebpf4jnsgd1na2vs0mg"},{"bike_id":"7d430680-5b99-4e4d-bced-5540a76e37cd","system_id":"levelo_inurba_marseille","lat":43.28148,"lon":5.4264,"is_reserved":false,"is_disabled":false,"rental_uris":{"android":"levelo://app?vid=7d430680-5b99-4e4d-bced-5540a76e37cd","ios":"levelo://app?vid=7d430680-5b99-4e4d-bced-5540a76e37cd"},"vehicle_type_id":"4","last_reported":1758593704,"current_range_meters":10800,"station_id":"ce4bhnh2rcd13ifvqgug","pricing_plan_id":"cebpf4jnsgd1na2vs0mg"},{"bike_id":"8b9bf51f-3bd5-4470-834d-bc584fa58c73","system_id":"levelo_inurba_marseille","lat":43.28218,"lon":5.39052,"is_reserved":false,"is_disabled":false,"rental_uris":{"android":"levelo://app?vid=8b9bf51f-3bd5-4470-834d-bc584fa58c73","ios":"levelo://app?vid=8b9bf51f-3bd5-4470-834d-bc584fa58c73"},"vehicle_type_id":"4","last_reported":1758593704,"current_range_meters":10800,"station_id":"ce4bhn92rcd13ifvqgsg","pricing_plan_id":"cebpf4jnsgd1na2vs0mg"},{"bike_id":"5bf622f2-8889-4c8b-bc74-869bf3d0e0d6","system_id":"levelo_inurba_marseille","lat":43.262266,"lon":5.404455,"is_reserved":false,"is_disabled":false,"rental_uris":{"android":"levelo://app?vid=5bf622f2-8889-4c8b-bc74-869bf3d0e0d6","ios":"levelo://app?vid=5bf622f2-8889-4c8b-bc74-869bf3d0e0d6"},"vehicle_type_id":"4","last_reported":1758593704,"current_range_meters":10800,"station_id":"ce4bhmh2rcd13ifvqgmg","pricing_plan_id":"cebpf4jnsgd1na2vs0mg"},{"bike_id":"6a077151-2089-47d0-bcd1-faf1c42cc7b3","system_id":"levelo_inurba_marseille","lat":43.28861,"lon":5.4252,"is_reserved":false,"is_disabled":false,"rental_uris":{"android":"levelo://app?vid=6a077151-2089-47d0-bcd1-faf1c42cc7b3","ios":"levelo://app?vid=6a077151-2089-47d0-bcd1-faf1c42cc7b3"},"vehicle_type_id":"4","last_reported":1758593704,"current_range_meters":11200,"station_id":"","pricing_plan_id":"cebpf4jnsgd1na2vs0mg"},{"bike_id":"5b6b3b7d-c808-4e60-988f-97a17f8a001f","system_id":"levelo_inurba_marseille","lat":43.284153,"lon":5.375355,"is_reserved":false,"is_disabled":true,"rental_uris":{"android":"levelo://app?vid=5b6b3b7d-c808-4e60-988f-97a17f8a001f","ios":"levelo://app?vid=5b6b3b7d-c808-4e60-988f-97a17f8a001f"},"vehicle_type_id":"4","last_reported":1758593704,"current_range_meters":11200,"station_id":"ce4bh412rcd13ifvqds0","pricing_plan_id":"cebpf4jnsgd1na2vs0mg"},{"bike_id":"0b2230e3-adb9-421c-91b1-c113eb397705","system_id":"levelo_inurba_marseille","lat":43.28897,"lon":5.37653,"is_reserved":false,"is_disabled":false,"rental_uris":{"android":"levelo://app?vid=0b2230e3-adb9-421c-91b1-c113eb397705","ios":"levelo://app?vid=0b2230e3-adb9-421c-91b1-c113eb397705"},"vehicle_type_id":"4","last_reported":1758593704,"current_range_meters":11200,"station_id":"","pricing_plan_id":"cebpf4jnsgd1na2vs0mg"},{"bike_id":"87101839-2e45-4c62-800b-48304c4c4bce","system_id":"levelo_inurba_marseille","lat":43.27904,"lon":5.39592,"is_reserved":false,"is_disabled":false,"rental_uris":{"android":"levelo://app?vid=87101839-2e45-4c62-800b-48304c4c4bce","ios":"levelo://app?vid=87101839-2e45-4c62-800b-48304c4c4bce"},"vehicle_type_id":"4","last_reported":1758593704,"current_range_meters":11200,"station_id":"ce4bhf92rcd13ifvqf40","pricing_plan_id":"cebpf4jnsgd1na2vs0mg"},{"bike_id":"6db28454-81f6-427f-9549-0eecf00e0fff","system_id":"levelo_inurba_marseille","lat":43.286176,"lon":5.350998,"is_reserved":false,"is_disabled":false,"rental_uris":{"android":"levelo://app?vid=6db28454-81f6-427f-9549-0eecf00e0fff","ios":"levelo://app?vid=6db28454-81f6-427f-9549-0eecf00e0fff"},"vehicle_type_id":"4","last_reported":1758593704,"current_range_meters":11200,"station_id":"ce4bhch2rcd13ifvqeug","pricing_plan_id":"cebpf4jnsgd1na2vs0mg"},{"bike_id":"77eeb9b5-0e68-4a7b-b5d1-530ce6c04cd4","system_id":"levelo_inurba_marseille","lat":43.22933,"lon":5.35377,"is_reserved":false,"is_disabled":false,"rental_uris":{"android":"levelo://app?vid=77eeb9b5-0e68-4a7b-b5d1-530ce6c04cd4","ios":"levelo://app?vid=77eeb9b5-0e68-4a7b-b5d1-530ce6c04cd4"},"vehicle_type_id":"4","last_reported":1758593704,"current_range_meters":11200,"station_id":"cpo3532slgdg3j2ikp40","pricing_plan_id":"cebpf4jnsgd1na2vs0mg"},{"bike_id":"45fcef5d-d5fa-461c-8363-eb6156bbfc91","system_id":"levelo_inurba_marseille","lat":43.31673,"lon":5.40477,"is_reserved":false,"is_disabled":false,"rental_uris":{"android":"levelo://app?vid=45fcef5d-d5fa-461c-8363-eb6156bbfc91","ios":"levelo://app?vid=45fcef5d-d5fa-461c-8363-eb6156bbfc91"},"vehicle_type_id":"4","last_reported":1758593704,"current_range_meters":11200,"station_id":"ce4bh012rcd13ifvqd00","pricing_plan_id":"cebpf4jnsgd1na2vs0mg"},{"bike_id":"7140fce0-c9ab-4ae7-b1ac-0bd75d74b622","system_id":"levelo_inurba_marseille","lat":43.28702,"lon":5.39955,"is_reserved":false,"is_disabled":false,"rental_uris":{"android":"levelo://app?vid=7140fce0-c9ab-4ae7-b1ac-0bd75d74b622","ios":"levelo://app?vid=7140fce0-c9ab-4ae7-b1ac-0bd75d74b622"},"vehicle_type_id":"4","last_reported":1758593704,"current_range_meters":11600,"station_id":"ce4bho92rcd13ifvqh3g","pricing_plan_id":"cebpf4jnsgd1na2vs0mg"},{"bike_id":"d05a8f4d-e57a-40c9-9109-f491d15b9a9e","system_id":"levelo_inurba_marseille","lat":43.28269,"lon":5.35076,"is_reserved":false,"is_disabled":false,"rental_uris":{"android":"levelo://app?vid=d05a8f4d-e57a-40c9-9109-f491d15b9a9e","ios":"levelo://app?vid=d05a8f4d-e57a-40c9-9109-f491d15b9a9e"},"vehicle_type_id":"4","last_reported":1758593704,"current_range_meters":11600,"station_id":"ce4bhbp2rcd13ifvqerg","pricing_plan_id":"cebpf4jnsgd1na2vs0mg"},{"bike_id":"b2be2404-53eb-4f74-9829-8104df3de106","system_id":"levelo_inurba_marseille","lat":43.33608,"lon":5.35417,"is_reserved":false,"is_disabled":false,"rental_uris":{"android":"levelo://app?vid=b2be2404-53eb-4f74-9829-8104df3de106","ios":"levelo://app?vid=b2be2404-53eb-4f74-9829-8104df3de106"},"vehicle_type_id":"4","last_reported":1758593704,"current_range_meters":11600,"station_id":"","pricing_plan_id":"cebpf4jnsgd1na2vs0mg"},{"bike_id":"1efddf8d-578f-4e4c-8c3f-e3a8bd592ba4","system_id":"levelo_inurba_marseille","lat":43.29574,"lon":5.37409,"is_reserved":false,"is_disabled":false,"rental_uris":{"android":"levelo://app?vid=1efddf8d-578f-4e4c-8c3f-e3a8bd592ba4","ios":"levelo://app?vid=1efddf8d-578f-4e4c-8c3f-e3a8bd592ba4"},"vehicle_type_id":"4","last_reported":1758593704,"current_range_meters":12000,"station_id":"","pricing_plan_id":"cebpf4jnsgd1na2vs0mg"},{"bike_id":"94d430e6-52b3-4d21-80c9-c6dd4519a8fb","system_id":"levelo_inurba_marseille","lat":43.31769,"lon":5.38299,"is_reserved":false,"is_disabled":false,"rental_uris":{"android":"levelo://app?vid=94d430e6-52b3-4d21-80c9-c6dd4519a8fb","ios":"levelo://app?vid=94d430e6-52b3-4d21-80c9-c6dd4519a8fb"},"vehicle_type_id":"4","last_reported":1758593704,"current_range_meters":12000,"station_id":"","pricing_plan_id":"cebpf4jnsgd1na2vs0mg"},{"bike_id":"3bb425d0-4cb3-4bde-8649-a5fec2d1166a","system_id":"levelo_inurba_marseille","lat":43.31064,"lon":5.38355,"is_reserved":false,"is_disabled":false,"rental_uris":{"android":"levelo://app?vid=3bb425d0-4cb3-4bde-8649-a5fec2d1166a","ios":"levelo://app?vid=3bb425d0-4cb3-4bde-8649-a5fec2d1166a"},"vehicle_type_id":"4","last_reported":1758593704,"current_range_meters":12000,"station_id":"ce4bgv92rcd13ifvqcr0","pricing_plan_id":"cebpf4jnsgd1na2vs0mg"},{"bike_id":"239c893c-a482-4890-a8d0-83cba2bbb59d","system_id":"levelo_inurba_marseille","lat":43.24549,"lon":5.39528,"is_reserved":false,"is_disabled":false,"rental_uris":{"android":"levelo://app?vid=239c893c-a482-4890-a8d0-83cba2bbb59d","ios":"levelo://app?vid=239c893c-a482-4890-a8d0-83cba2bbb59d"},"vehicle_type_id":"4","last_reported":1758593704,"current_range_meters":12000,"station_id":"ce4bhlp2rcd13ifvqgjg","pricing_plan_id":"cebpf4jnsgd1na2vs0mg"},{"bike_id":"eb14e0c2-3194-45ec-8471-2fc50af87dad","system_id":"levelo_inurba_marseille","lat":43.2293,"lon":5.35376,"is_reserved":false,"is_disabled":false,"rental_uris":{"android":"levelo://app?vid=eb14e0c2-3194-45ec-8471-2fc50af87dad","ios":"levelo://app?vid=eb14e0c2-3194-45ec-8471-2fc50af87dad"},"vehicle_type_id":"4","last_reported":1758593704,"current_range_meters":12400,"station_id":"cpo3532slgdg3j2ikp40","pricing_plan_id":"cebpf4jnsgd1na2vs0mg"},{"bike_id":"9cba2f44-249c-4352-8980-4085720872fa","system_id":"levelo_inurba_marseille","lat":43.285762,"lon":5.394968,"is_reserved":false,"is_disabled":false,"rental_uris":{"android":"levelo://app?vid=9cba2f44-249c-4352-8980-4085720872fa","ios":"levelo://app?vid=9cba2f44-249c-4352-8980-4085720872fa"},"vehicle_type_id":"4","last_reported":1758593704,"current_range_meters":12400,"station_id":"ce4bh292rcd13ifvqdg0","pricing_plan_id":"cebpf4jnsgd1na2vs0mg"},{"bike_id":"ef75d15d-c28a-4fe7-853a-ed887e41d629","system_id":"levelo_inurba_marseille","lat":43.21757,"lon":5.346,"is_reserved":false,"is_disabled":false,"rental_uris":{"android":"levelo://app?vid=ef75d15d-c28a-4fe7-853a-ed887e41d629","ios":"levelo://app?vid=ef75d15d-c28a-4fe7-853a-ed887e41d629"},"vehicle_type_id":"4","last_reported":1758593704,"current_range_meters":12400,"station_id":"st_cvj6r9ubvosntc0bgbag","pricing_plan_id":"cebpf4jnsgd1na2vs0mg"},{"bike_id":"d350f1c1-d07d-4822-a2a4-bb9dd94a2bb7","system_id":"levelo_inurba_marseille","lat":43.31165,"lon":5.3871,"is_reserved":false,"is_disabled":false,"rental_uris":{"android":"levelo://app?vid=d350f1c1-d07d-4822-a2a4-bb9dd94a2bb7","ios":"levelo://app?vid=d350f1c1-d07d-4822-a2a4-bb9dd94a2bb7"},"vehicle_type_id":"4","last_reported":1758593704,"current_range_meters":12400,"station_id":"ce4bgv12rcd13ifvqcp0","pricing_plan_id":"cebpf4jnsgd1na2vs0mg"},{"bike_id":"dd83bee8-c803-47e8-91dd-afab74068a08","system_id":"levelo_inurba_marseille","lat":43.24071,"lon":5.37763,"is_reserved":false,"is_disabled":false,"rental_uris":{"android":"levelo://app?vid=dd83bee8-c803-47e8-91dd-afab74068a08","ios":"levelo://app?vid=dd83bee8-c803-47e8-91dd-afab74068a08"},"vehicle_type_id":"4","last_reported":1758593704,"current_range_meters":12400,"station_id":"ce4bhnp2rcd13ifvqgvg","pricing_plan_id":"cebpf4jnsgd1na2vs0mg"},{"bike_id":"03309305-8f76-4dc6-a8b7-530054b96cf5","system_id":"levelo_inurba_marseille","lat":43.23185,"lon":5.3999,"is_reserved":false,"is_disabled":false,"rental_uris":{"android":"levelo://app?vid=03309305-8f76-4dc6-a8b7-530054b96cf5","ios":"levelo://app?vid=03309305-8f76-4dc6-a8b7-530054b96cf5"},"vehicle_type_id":"4","last_reported":1758593704,"current_range_meters":12400,"station_id":"ce4bhn12rcd13ifvqgqg","pricing_plan_id":"cebpf4jnsgd1na2vs0mg"},{"bike_id":"1dc0664d-bbc9-48d4-b7a9-aa5bd6be4dfc","system_id":"levelo_inurba_marseille","lat":43.24141,"lon":5.39699,"is_reserved":false,"is_disabled":false,"rental_uris":{"android":"levelo://app?vid=1dc0664d-bbc9-48d4-b7a9-aa5bd6be4dfc","ios":"levelo://app?vid=1dc0664d-bbc9-48d4-b7a9-aa5bd6be4dfc"},"vehicle_type_id":"4","last_reported":1758593704,"current_range_meters":12400,"station_id":"ce4bhn12rcd13ifvqgpg","pricing_plan_id":"cebpf4jnsgd1na2vs0mg"},{"bike_id":"e928cb80-192e-403c-981a-31571abb9cb0","system_id":"levelo_inurba_marseille","lat":43.23227,"lon":5.39912,"is_reserved":false,"is_disabled":true,"rental_uris":{"android":"levelo://app?vid=e928cb80-192e-403c-981a-31571abb9cb0","ios":"levelo://app?vid=e928cb80-192e-403c-981a-31571abb9cb0"},"vehicle_type_id":"4","last_reported":1758593704,"current_range_meters":12400,"station_id":"","pricing_plan_id":"cebpf4jnsgd1na2vs0mg"},{"bike_id":"8b810a1a-9f29-4fd7-9246-79c0d93e7296","system_id":"levelo_inurba_marseille","lat":43.27995,"lon":5.40009,"is_reserved":false,"is_disabled":false,"rental_uris":{"android":"levelo://app?vid=8b810a1a-9f29-4fd7-9246-79c0d93e7296","ios":"levelo://app?vid=8b810a1a-9f29-4fd7-9246-79c0d93e7296"},"vehicle_type_id":"4","last_reported":1758593704,"current_range_meters":12800,"station_id":"ce4bho92rcd13ifvqh4g","pricing_plan_id":"cebpf4jnsgd1na2vs0mg"},{"bike_id":"fbbe8a6b-07d8-4985-bf8e-2675f11ccee9","system_id":"levelo_inurba_marseille","lat":43.30801,"lon":5.43526,"is_reserved":false,"is_disabled":false,"rental_uris":{"android":"levelo://app?vid=fbbe8a6b-07d8-4985-bf8e-2675f11ccee9","ios":"levelo://app?vid=fbbe8a6b-07d8-4985-bf8e-2675f11ccee9"},"vehicle_type_id":"4","last_reported":1758593704,"current_range_meters":12800,"station_id":"ce4bhph2rcd13ifvqheg","pricing_plan_id":"cebpf4jnsgd1na2vs0mg"},{"bike_id":"34072093-f9b6-4017-998e-95b181d82c91","system_id":"levelo_inurba_marseille","lat":43.29455,"lon":5.38816,"is_reserved":false,"is_disabled":false,"rental_uris":{"android":"levelo://app?vid=34072093-f9b6-4017-998e-95b181d82c91","ios":"levelo://app?vid=34072093-f9b6-4017-998e-95b181d82c91"},"vehicle_type_id":"4","last_reported":1758593704,"current_range_meters":12800,"station_id":"","pricing_plan_id":"cebpf4jnsgd1na2vs0mg"},{"bike_id":"3a17afd3-c405-418c-aaad-7dbbd184c153","system_id":"levelo_inurba_marseille","lat":43.29416,"lon":5.43229,"is_reserved":false,"is_disabled":false,"rental_uris":{"android":"levelo://app?vid=3a17afd3-c405-418c-aaad-7dbbd184c153","ios":"levelo://app?vid=3a17afd3-c405-418c-aaad-7dbbd184c153"},"vehicle_type_id":"4","last_reported":1758593704,"current_range_meters":12800,"station_id":"","pricing_plan_id":"cebpf4jnsgd1na2vs0mg"},{"bike_id":"30a45839-bcf9-4766-8e20-c8b30ef16a15","system_id":"levelo_inurba_marseille","lat":43.32339,"lon":5.40601,"is_reserved":false,"is_disabled":false,"rental_uris":{"android":"levelo://app?vid=30a45839-bcf9-4766-8e20-c8b30ef16a15","ios":"levelo://app?vid=30a45839-bcf9-4766-8e20-c8b30ef16a15"},"vehicle_type_id":"4","last_reported":1758593704,"current_range_meters":13600,"station_id":"ce4bhq92rcd13ifvqhjg","pricing_plan_id":"cebpf4jnsgd1na2vs0mg"},{"bike_id":"9ae6207f-719f-41a5-a979-e7e0bf07d2ef","system_id":"levelo_inurba_marseille","lat":43.28712,"lon":5.37935,"is_reserved":false,"is_disabled":false,"rental_uris":{"android":"levelo://app?vid=9ae6207f-719f-41a5-a979-e7e0bf07d2ef","ios":"levelo://app?vid=9ae6207f-719f-41a5-a979-e7e0bf07d2ef"},"vehicle_type_id":"4","last_reported":1758593704,"current_range_meters":13600,"station_id":"ce4bh9p2rcd13ifvqec0","pricing_plan_id":"cebpf4jnsgd1na2vs0mg"},{"bike_id":"0ceafd37-2aa0-4518-a2ed-2ee38ccb4b03","system_id":"levelo_inurba_marseille","lat":43.24074,"lon":5.37767,"is_reserved":false,"is_disabled":false,"rental_uris":{"android":"levelo://app?vid=0ceafd37-2aa0-4518-a2ed-2ee38ccb4b03","ios":"levelo://app?vid=0ceafd37-2aa0-4518-a2ed-2ee38ccb4b03"},"vehicle_type_id":"4","last_reported":1758593704,"current_range_meters":13600,"station_id":"ce4bhnp2rcd13ifvqgvg","pricing_plan_id":"cebpf4jnsgd1na2vs0mg"},{"bike_id":"8d243e83-cc74-44d3-bf18-f20421549672","system_id":"levelo_inurba_marseille","lat":43.28926,"lon":5.35938,"is_reserved":false,"is_disabled":false,"rental_uris":{"android":"levelo://app?vid=8d243e83-cc74-44d3-bf18-f20421549672","ios":"levelo://app?vid=8d243e83-cc74-44d3-bf18-f20421549672"},"vehicle_type_id":"4","last_reported":1758593704,"current_range_meters":13600,"station_id":"","pricing_plan_id":"cebpf4jnsgd1na2vs0mg"},{"bike_id":"45f1f0b6-5b9c-4041-a954-c19009863317","system_id":"levelo_inurba_marseille","lat":43.28754,"lon":5.36069,"is_reserved":false,"is_disabled":false,"rental_uris":{"android":"levelo://app?vid=45f1f0b6-5b9c-4041-a954-c19009863317","ios":"levelo://app?vid=45f1f0b6-5b9c-4041-a954-c19009863317"},"vehicle_type_id":"4","last_reported":1758593704,"current_range_meters":14000,"station_id":"cki0cbj6b192h4jlfktg","pricing_plan_id":"cebpf4jnsgd1na2vs0mg"},{"bike_id":"37306240-1f8b-4d9d-950f-5144697742a5","system_id":"levelo_inurba_marseille","lat":43.28714,"lon":5.39993,"is_reserved":false,"is_disabled":true,"rental_uris":{"android":"levelo://app?vid=37306240-1f8b-4d9d-950f-5144697742a5","ios":"levelo://app?vid=37306240-1f8b-4d9d-950f-5144697742a5"},"vehicle_type_id":"4","last_reported":1758593704,"current_range_meters":14000,"station_id":"ce4bho92rcd13ifvqh3g","pricing_plan_id":"cebpf4jnsgd1na2vs0mg"},{"bike_id":"5337dcdc-c6f5-44ae-a466-a1ebe14dfbb3","system_id":"levelo_inurba_marseille","lat":43.2417,"lon":5.36393,"is_reserved":false,"is_disabled":false,"rental_uris":{"android":"levelo://app?vid=5337dcdc-c6f5-44ae-a466-a1ebe14dfbb3","ios":"levelo://app?vid=5337dcdc-c6f5-44ae-a466-a1ebe14dfbb3"},"vehicle_type_id":"4","last_reported":1758593704,"current_range_meters":14000,"station_id":"cpo36qri1sfpv3e86is0","pricing_plan_id":"cebpf4jnsgd1na2vs0mg"},{"bike_id":"beb42e98-dff7-41f2-be88-1fa7f6f0819a","system_id":"levelo_inurba_marseille","lat":43.25314,"lon":5.42178,"is_reserved":false,"is_disabled":false,"rental_uris":{"android":"levelo://app?vid=beb42e98-dff7-41f2-be88-1fa7f6f0819a","ios":"levelo://app?vid=beb42e98-dff7-41f2-be88-1fa7f6f0819a"},"vehicle_type_id":"4","last_reported":1758593704,"current_range_meters":14000,"station_id":"st_d2m65c5bi1j21697t3ng","pricing_plan_id":"cebpf4jnsgd1na2vs0mg"},{"bike_id":"67d55d6c-ff32-4805-a349-c2976348cbbd","system_id":"levelo_inurba_marseille","lat":43.303274,"lon":5.404404,"is_reserved":false,"is_disabled":false,"rental_uris":{"android":"levelo://app?vid=67d55d6c-ff32-4805-a349-c2976348cbbd","ios":"levelo://app?vid=67d55d6c-ff32-4805-a349-c2976348cbbd"},"vehicle_type_id":"4","last_reported":1758593704,"current_range_meters":14000,"station_id":"ce4bh012rcd13ifvqd10","pricing_plan_id":"cebpf4jnsgd1na2vs0mg"},{"bike_id":"5a41afd6-b5fb-47c5-842c-30faa1bb3ba4","system_id":"levelo_inurba_marseille","lat":43.299316,"lon":5.365586,"is_reserved":false,"is_disabled":false,"rental_uris":{"android":"levelo://app?vid=5a41afd6-b5fb-47c5-842c-30faa1bb3ba4","ios":"levelo://app?vid=5a41afd6-b5fb-47c5-842c-30faa1bb3ba4"},"vehicle_type_id":"4","last_reported":1758593704,"current_range_meters":14000,"station_id":"ce4bgm92rcd13ifvqbr0","pricing_plan_id":"cebpf4jnsgd1na2vs0mg"},{"bike_id":"ca5043d1-e787-444b-ab15-85713ac21934","system_id":"levelo_inurba_marseille","lat":43.25941,"lon":5.40899,"is_reserved":false,"is_disabled":false,"rental_uris":{"android":"levelo://app?vid=ca5043d1-e787-444b-ab15-85713ac21934","ios":"levelo://app?vid=ca5043d1-e787-444b-ab15-85713ac21934"},"vehicle_type_id":"4","last_reported":1758593704,"current_range_meters":14400,"station_id":"ce4bhm92rcd13ifvqglg","pricing_plan_id":"cebpf4jnsgd1na2vs0mg"},{"bike_id":"bf878ec6-d729-4443-a3b4-9fa5cc136616","system_id":"levelo_inurba_marseille","lat":43.276066,"lon":5.42636,"is_reserved":false,"is_disabled":false,"rental_uris":{"android":"levelo://app?vid=bf878ec6-d729-4443-a3b4-9fa5cc136616","ios":"levelo://app?vid=bf878ec6-d729-4443-a3b4-9fa5cc136616"},"vehicle_type_id":"4","last_reported":1758593704,"current_range_meters":14400,"station_id":"","pricing_plan_id":"cebpf4jnsgd1na2vs0mg"},{"bike_id":"b39d4814-e9e4-4c28-8c50-525791cc33f5","system_id":"levelo_inurba_marseille","lat":43.29982,"lon":5.38493,"is_reserved":false,"is_disabled":true,"rental_uris":{"android":"levelo://app?vid=b39d4814-e9e4-4c28-8c50-525791cc33f5","ios":"levelo://app?vid=b39d4814-e9e4-4c28-8c50-525791cc33f5"},"vehicle_type_id":"4","last_reported":1758593704,"current_range_meters":14400,"station_id":"ce4bgj92rcd13ifvqbd0","pricing_plan_id":"cebpf4jnsgd1na2vs0mg"},{"bike_id":"aacc681f-2b1c-4d4d-b681-6e83a3bbb912","system_id":"levelo_inurba_marseille","lat":43.28582,"lon":5.39478,"is_reserved":false,"is_disabled":false,"rental_uris":{"android":"levelo://app?vid=aacc681f-2b1c-4d4d-b681-6e83a3bbb912","ios":"levelo://app?vid=aacc681f-2b1c-4d4d-b681-6e83a3bbb912"},"vehicle_type_id":"4","last_reported":1758593704,"current_range_meters":14400,"station_id":"ce4bh292rcd13ifvqdg0","pricing_plan_id":"cebpf4jnsgd1na2vs0mg"},{"bike_id":"385b6599-d75d-4283-964e-8e10ba698a60","system_id":"levelo_inurba_marseille","lat":43.28433,"lon":5.37516,"is_reserved":false,"is_disabled":false,"rental_uris":{"android":"levelo://app?vid=385b6599-d75d-4283-964e-8e10ba698a60","ios":"levelo://app?vid=385b6599-d75d-4283-964e-8e10ba698a60"},"vehicle_type_id":"4","last_reported":1758593704,"current_range_meters":14400,"station_id":"ce4bh412rcd13ifvqds0","pricing_plan_id":"cebpf4jnsgd1na2vs0mg"},{"bike_id":"51a9c263-d6ee-4c02-8240-84e51c074158","system_id":"levelo_inurba_marseille","lat":43.31715,"lon":5.43704,"is_reserved":false,"is_disabled":false,"rental_uris":{"android":"levelo://app?vid=51a9c263-d6ee-4c02-8240-84e51c074158","ios":"levelo://app?vid=51a9c263-d6ee-4c02-8240-84e51c074158"},"vehicle_type_id":"4","last_reported":1758593704,"current_range_meters":14400,"station_id":"ce4bhp92rcd13ifvqhcg","pricing_plan_id":"cebpf4jnsgd1na2vs0mg"},{"bike_id":"09754c5e-4e6a-4215-8145-bdce7ff131a9","system_id":"levelo_inurba_marseille","lat":43.24392,"lon":5.37059,"is_reserved":false,"is_disabled":false,"rental_uris":{"android":"levelo://app?vid=09754c5e-4e6a-4215-8145-bdce7ff131a9","ios":"levelo://app?vid=09754c5e-4e6a-4215-8145-bdce7ff131a9"},"vehicle_type_id":"4","last_reported":1758593704,"current_range_meters":14800,"station_id":"ce4bhhh2rcd13ifvqfk0","pricing_plan_id":"cebpf4jnsgd1na2vs0mg"},{"bike_id":"24518e1a-6330-4699-ab57-6b28ebad1e7f","system_id":"levelo_inurba_marseille","lat":43.3059,"lon":5.37177,"is_reserved":false,"is_disabled":false,"rental_uris":{"android":"levelo://app?vid=24518e1a-6330-4699-ab57-6b28ebad1e7f","ios":"levelo://app?vid=24518e1a-6330-4699-ab57-6b28ebad1e7f"},"vehicle_type_id":"4","last_reported":1758593704,"current_range_meters":14800,"station_id":"ce4bgqh2rcd13ifvqc4g","pricing_plan_id":"cebpf4jnsgd1na2vs0mg"},{"bike_id":"47fe8ecd-0327-4d83-b8c0-ab7264c95b0b","system_id":"levelo_inurba_marseille","lat":43.24564,"lon":5.39507,"is_reserved":false,"is_disabled":false,"rental_uris":{"android":"levelo://app?vid=47fe8ecd-0327-4d83-b8c0-ab7264c95b0b","ios":"levelo://app?vid=47fe8ecd-0327-4d83-b8c0-ab7264c95b0b"},"vehicle_type_id":"4","last_reported":1758593704,"current_range_meters":14800,"station_id":"ce4bhlp2rcd13ifvqgjg","pricing_plan_id":"cebpf4jnsgd1na2vs0mg"},{"bike_id":"3278dee4-119e-4d11-a56f-67ef5a7be3d2","system_id":"levelo_inurba_marseille","lat":43.2857,"lon":5.395,"is_reserved":false,"is_disabled":false,"rental_uris":{"android":"levelo://app?vid=3278dee4-119e-4d11-a56f-67ef5a7be3d2","ios":"levelo://app?vid=3278dee4-119e-4d11-a56f-67ef5a7be3d2"},"vehicle_type_id":"4","last_reported":1758593704,"current_range_meters":14800,"station_id":"ce4bh292rcd13ifvqdg0","pricing_plan_id":"cebpf4jnsgd1na2vs0mg"},{"bike_id":"eba01587-aeed-4123-b2ce-9abc98879f91","system_id":"levelo_inurba_marseille","lat":43.27085,"lon":5.42296,"is_reserved":false,"is_disabled":true,"rental_uris":{"android":"levelo://app?vid=eba01587-aeed-4123-b2ce-9abc98879f91","ios":"levelo://app?vid=eba01587-aeed-4123-b2ce-9abc98879f91"},"vehicle_type_id":"4","last_reported":1758593704,"current_range_meters":15200,"station_id":"ce4bhk92rcd13ifvqgb0","pricing_plan_id":"cebpf4jnsgd1na2vs0mg"},{"bike_id":"da64a509-72ad-45f0-a9bf-3cc012993de2","system_id":"levelo_inurba_marseille","lat":43.29708,"lon":5.36603,"is_reserved":false,"is_disabled":true,"rental_uris":{"android":"levelo://app?vid=da64a509-72ad-45f0-a9bf-3cc012993de2","ios":"levelo://app?vid=da64a509-72ad-45f0-a9bf-3cc012993de2"},"vehicle_type_id":"4","last_reported":1758593704,"current_range_meters":15200,"station_id":"ce4bgn12rcd13ifvqbt0","pricing_plan_id":"cebpf4jnsgd1na2vs0mg"},{"bike_id":"2a2f1ce0-5eb2-4ab6-a692-64d9649dcb94","system_id":"levelo_inurba_marseille","lat":43.22569,"lon":5.41629,"is_reserved":false,"is_disabled":false,"rental_uris":{"android":"levelo://app?vid=2a2f1ce0-5eb2-4ab6-a692-64d9649dcb94","ios":"levelo://app?vid=2a2f1ce0-5eb2-4ab6-a692-64d9649dcb94"},"vehicle_type_id":"4","last_reported":1758593704,"current_range_meters":15200,"station_id":"st_d2o4gvlbi1j2169b742g","pricing_plan_id":"cebpf4jnsgd1na2vs0mg"},{"bike_id":"b21d6aa6-a228-411f-ba50-4d64f2bc07ea","system_id":"levelo_inurba_marseille","lat":43.31497,"lon":5.3731,"is_reserved":false,"is_disabled":false,"rental_uris":{"android":"levelo://app?vid=b21d6aa6-a228-411f-ba50-4d64f2bc07ea","ios":"levelo://app?vid=b21d6aa6-a228-411f-ba50-4d64f2bc07ea"},"vehicle_type_id":"4","last_reported":1758593704,"current_range_meters":15200,"station_id":"ce4bgt12rcd13ifvqcd0","pricing_plan_id":"cebpf4jnsgd1na2vs0mg"},{"bike_id":"1403fef7-e606-4d3c-b7fe-8786a678862e","system_id":"levelo_inurba_marseille","lat":43.28708,"lon":5.37382,"is_reserved":false,"is_disabled":false,"rental_uris":{"android":"levelo://app?vid=1403fef7-e606-4d3c-b7fe-8786a678862e","ios":"levelo://app?vid=1403fef7-e606-4d3c-b7fe-8786a678862e"},"vehicle_type_id":"4","last_reported":1758593704,"current_range_meters":15200,"station_id":"ce4bh3p2rcd13ifvqdq0","pricing_plan_id":"cebpf4jnsgd1na2vs0mg"},{"bike_id":"e7612908-1196-4d06-b5f1-fca12198c529","system_id":"levelo_inurba_marseille","lat":43.2574,"lon":5.41059,"is_reserved":false,"is_disabled":true,"rental_uris":{"android":"levelo://app?vid=e7612908-1196-4d06-b5f1-fca12198c529","ios":"levelo://app?vid=e7612908-1196-4d06-b5f1-fca12198c529"},"vehicle_type_id":"4","last_reported":1758593704,"current_range_meters":15200,"station_id":"ce4bhkp2rcd13ifvqgd0","pricing_plan_id":"cebpf4jnsgd1na2vs0mg"},{"bike_id":"37921a0e-44b0-4945-84df-e25486d4695c","system_id":"levelo_inurba_marseille","lat":43.28407,"lon":5.37505,"is_reserved":false,"is_disabled":false,"rental_uris":{"android":"levelo://app?vid=37921a0e-44b0-4945-84df-e25486d4695c","ios":"levelo://app?vid=37921a0e-44b0-4945-84df-e25486d4695c"},"vehicle_type_id":"4","last_reported":1758593704,"current_range_meters":16000,"station_id":"ce4bh412rcd13ifvqds0","pricing_plan_id":"cebpf4jnsgd1na2vs0mg"},{"bike_id":"25f68b87-cf80-42bc-8419-f5f71b7f8dbc","system_id":"levelo_inurba_marseille","lat":43.28405,"lon":5.37511,"is_reserved":false,"is_disabled":false,"rental_uris":{"android":"levelo://app?vid=25f68b87-cf80-42bc-8419-f5f71b7f8dbc","ios":"levelo://app?vid=25f68b87-cf80-42bc-8419-f5f71b7f8dbc"},"vehicle_type_id":"4","last_reported":1758593704,"current_range_meters":16000,"station_id":"ce4bh412rcd13ifvqds0","pricing_plan_id":"cebpf4jnsgd1na2vs0mg"},{"bike_id":"0d93d80f-23fc-4b4f-918d-28fde704208b","system_id":"levelo_inurba_marseille","lat":43.24176,"lon":5.36389,"is_reserved":false,"is_disabled":false,"rental_uris":{"android":"levelo://app?vid=0d93d80f-23fc-4b4f-918d-28fde704208b","ios":"levelo://app?vid=0d93d80f-23fc-4b4f-918d-28fde704208b"},"vehicle_type_id":"4","last_reported":1758593704,"current_range_meters":16000,"station_id":"cpo36qri1sfpv3e86is0","pricing_plan_id":"cebpf4jnsgd1na2vs0mg"},{"bike_id":"8dc69592-a229-4af4-b92c-de5588c3f590","system_id":"levelo_inurba_marseille","lat":43.31283,"lon":5.4015,"is_reserved":false,"is_disabled":false,"rental_uris":{"android":"levelo://app?vid=8dc69592-a229-4af4-b92c-de5588c3f590","ios":"levelo://app?vid=8dc69592-a229-4af4-b92c-de5588c3f590"},"vehicle_type_id":"4","last_reported":1758593704,"current_range_meters":16000,"station_id":"ce4bh092rcd13ifvqd30","pricing_plan_id":"cebpf4jnsgd1na2vs0mg"},{"bike_id":"c4448be8-d4bc-4bbb-bb4f-81f45f3fafa8","system_id":"levelo_inurba_marseille","lat":43.31463,"lon":5.3729,"is_reserved":false,"is_disabled":false,"rental_uris":{"android":"levelo://app?vid=c4448be8-d4bc-4bbb-bb4f-81f45f3fafa8","ios":"levelo://app?vid=c4448be8-d4bc-4bbb-bb4f-81f45f3fafa8"},"vehicle_type_id":"4","last_reported":1758593704,"current_range_meters":16000,"station_id":"ce4bgt12rcd13ifvqcd0","pricing_plan_id":"cebpf4jnsgd1na2vs0mg"},{"bike_id":"3a2f0200-19f6-4563-8356-bbb5c698396a","system_id":"levelo_inurba_marseille","lat":43.217568,"lon":5.346024,"is_reserved":false,"is_disabled":false,"rental_uris":{"android":"levelo://app?vid=3a2f0200-19f6-4563-8356-bbb5c698396a","ios":"levelo://app?vid=3a2f0200-19f6-4563-8356-bbb5c698396a"},"vehicle_type_id":"4","last_reported":1758593704,"current_range_meters":16000,"station_id":"st_cvj6r9ubvosntc0bgbag","pricing_plan_id":"cebpf4jnsgd1na2vs0mg"},{"bike_id":"ed883389-1672-49b0-a5c4-8def0ee0fc42","system_id":"levelo_inurba_marseille","lat":43.275034,"lon":5.424502,"is_reserved":false,"is_disabled":false,"rental_uris":{"android":"levelo://app?vid=ed883389-1672-49b0-a5c4-8def0ee0fc42","ios":"levelo://app?vid=ed883389-1672-49b0-a5c4-8def0ee0fc42"},"vehicle_type_id":"4","last_reported":1758593704,"current_range_meters":16400,"station_id":"ce4bhn92rcd13ifvqgrg","pricing_plan_id":"cebpf4jnsgd1na2vs0mg"},{"bike_id":"eacf6cab-7b46-41a2-bdec-98874f91cc7f","system_id":"levelo_inurba_marseille","lat":43.22946,"lon":5.3544,"is_reserved":false,"is_disabled":false,"rental_uris":{"android":"levelo://app?vid=eacf6cab-7b46-41a2-bdec-98874f91cc7f","ios":"levelo://app?vid=eacf6cab-7b46-41a2-bdec-98874f91cc7f"},"vehicle_type_id":"4","last_reported":1758593704,"current_range_meters":16400,"station_id":"cpo3532slgdg3j2ikp40","pricing_plan_id":"cebpf4jnsgd1na2vs0mg"},{"bike_id":"21433f39-0227-4542-b543-81b2405dcd01","system_id":"levelo_inurba_marseille","lat":43.28307,"lon":5.43364,"is_reserved":false,"is_disabled":false,"rental_uris":{"android":"levelo://app?vid=21433f39-0227-4542-b543-81b2405dcd01","ios":"levelo://app?vid=21433f39-0227-4542-b543-81b2405dcd01"},"vehicle_type_id":"4","last_reported":1758593704,"current_range_meters":16400,"station_id":"","pricing_plan_id":"cebpf4jnsgd1na2vs0mg"},{"bike_id":"9e9ef275-5dab-4f52-a990-5426b5a2146d","system_id":"levelo_inurba_marseille","lat":43.28673,"lon":5.36373,"is_reserved":false,"is_disabled":false,"rental_uris":{"android":"levelo://app?vid=9e9ef275-5dab-4f52-a990-5426b5a2146d","ios":"levelo://app?vid=9e9ef275-5dab-4f52-a990-5426b5a2146d"},"vehicle_type_id":"4","last_reported":1758593704,"current_range_meters":16400,"station_id":"ce4bhah2rcd13ifvqej0","pricing_plan_id":"cebpf4jnsgd1na2vs0mg"},{"bike_id":"a1ef7d2a-b94a-4036-90f7-96e83f3135c8","system_id":"levelo_inurba_marseille","lat":43.31196,"lon":5.38667,"is_reserved":false,"is_disabled":false,"rental_uris":{"android":"levelo://app?vid=a1ef7d2a-b94a-4036-90f7-96e83f3135c8","ios":"levelo://app?vid=a1ef7d2a-b94a-4036-90f7-96e83f3135c8"},"vehicle_type_id":"4","last_reported":1758593704,"current_range_meters":16400,"station_id":"","pricing_plan_id":"cebpf4jnsgd1na2vs0mg"},{"bike_id":"79f822f2-65c1-462c-8070-a32428eddd12","system_id":"levelo_inurba_marseille","lat":43.28153,"lon":5.42658,"is_reserved":false,"is_disabled":false,"rental_uris":{"android":"levelo://app?vid=79f822f2-65c1-462c-8070-a32428eddd12","ios":"levelo://app?vid=79f822f2-65c1-462c-8070-a32428eddd12"},"vehicle_type_id":"4","last_reported":1758593704,"current_range_meters":16400,"station_id":"ce4bhnh2rcd13ifvqgug","pricing_plan_id":"cebpf4jnsgd1na2vs0mg"},{"bike_id":"1fd71981-16ff-48a9-a84a-bf8e8eea0531","system_id":"levelo_inurba_marseille","lat":43.23179,"lon":5.39983,"is_reserved":false,"is_disabled":false,"rental_uris":{"android":"levelo://app?vid=1fd71981-16ff-48a9-a84a-bf8e8eea0531","ios":"levelo://app?vid=1fd71981-16ff-48a9-a84a-bf8e8eea0531"},"vehicle_type_id":"4","last_reported":1758593704,"current_range_meters":16400,"station_id":"ce4bhn12rcd13ifvqgqg","pricing_plan_id":"cebpf4jnsgd1na2vs0mg"},{"bike_id":"18a05041-df0b-4871-a1b2-d886eafc146a","system_id":"levelo_inurba_marseille","lat":43.29106,"lon":5.38146,"is_reserved":false,"is_disabled":true,"rental_uris":{"android":"levelo://app?vid=18a05041-df0b-4871-a1b2-d886eafc146a","ios":"levelo://app?vid=18a05041-df0b-4871-a1b2-d886eafc146a"},"vehicle_type_id":"4","last_reported":1758593704,"current_range_meters":16400,"station_id":"ce4bh512rcd13ifvqe2g","pricing_plan_id":"cebpf4jnsgd1na2vs0mg"},{"bike_id":"1964a7c4-f341-4518-b3f3-4cff78a650f1","system_id":"levelo_inurba_marseille","lat":43.324865,"lon":5.36571,"is_reserved":false,"is_disabled":false,"rental_uris":{"android":"levelo://app?vid=1964a7c4-f341-4518-b3f3-4cff78a650f1","ios":"levelo://app?vid=1964a7c4-f341-4518-b3f3-4cff78a650f1"},"vehicle_type_id":"4","last_reported":1758593704,"current_range_meters":16400,"station_id":"ce4bhs12rcd13ifvqhvg","pricing_plan_id":"cebpf4jnsgd1na2vs0mg"},{"bike_id":"43d57fd4-047e-4ac8-97e5-ec9b96239472","system_id":"levelo_inurba_marseille","lat":43.33231,"lon":5.39821,"is_reserved":false,"is_disabled":false,"rental_uris":{"android":"levelo://app?vid=43d57fd4-047e-4ac8-97e5-ec9b96239472","ios":"levelo://app?vid=43d57fd4-047e-4ac8-97e5-ec9b96239472"},"vehicle_type_id":"4","last_reported":1758593704,"current_range_meters":16400,"station_id":"","pricing_plan_id":"cebpf4jnsgd1na2vs0mg"},{"bike_id":"7c0482c3-9253-4d1b-b4f3-be55cdb7721d","system_id":"levelo_inurba_marseille","lat":43.33757,"lon":5.37466,"is_reserved":false,"is_disabled":false,"rental_uris":{"android":"levelo://app?vid=7c0482c3-9253-4d1b-b4f3-be55cdb7721d","ios":"levelo://app?vid=7c0482c3-9253-4d1b-b4f3-be55cdb7721d"},"vehicle_type_id":"4","last_reported":1758593704,"current_range_meters":16800,"station_id":"","pricing_plan_id":"cebpf4jnsgd1na2vs0mg"},{"bike_id":"dfaaa427-b224-4263-9b57-e0c604efa28b","system_id":"levelo_inurba_marseille","lat":43.29523,"lon":5.38675,"is_reserved":false,"is_disabled":false,"rental_uris":{"android":"levelo://app?vid=dfaaa427-b224-4263-9b57-e0c604efa28b","ios":"levelo://app?vid=dfaaa427-b224-4263-9b57-e0c604efa28b"},"vehicle_type_id":"4","last_reported":1758593704,"current_range_meters":16800,"station_id":"","pricing_plan_id":"cebpf4jnsgd1na2vs0mg"},{"bike_id":"bfde293a-85d0-4b41-bd44-ea330488ccc8","system_id":"levelo_inurba_marseille","lat":43.25074,"lon":5.39537,"is_reserved":false,"is_disabled":false,"rental_uris":{"android":"levelo://app?vid=bfde293a-85d0-4b41-bd44-ea330488ccc8","ios":"levelo://app?vid=bfde293a-85d0-4b41-bd44-ea330488ccc8"},"vehicle_type_id":"4","last_reported":1758593704,"current_range_meters":16800,"station_id":"ce4bhm12rcd13ifvqgkg","pricing_plan_id":"cebpf4jnsgd1na2vs0mg"},{"bike_id":"b42cdeaa-ba3b-4412-a4d0-66d258a56f5f","system_id":"levelo_inurba_marseille","lat":43.31703,"lon":5.4046,"is_reserved":false,"is_disabled":false,"rental_uris":{"android":"levelo://app?vid=b42cdeaa-ba3b-4412-a4d0-66d258a56f5f","ios":"levelo://app?vid=b42cdeaa-ba3b-4412-a4d0-66d258a56f5f"},"vehicle_type_id":"4","last_reported":1758593704,"current_range_meters":16800,"station_id":"ce4bh012rcd13ifvqd00","pricing_plan_id":"cebpf4jnsgd1na2vs0mg"},{"bike_id":"7f63abf6-c351-4659-a653-d356862ac27b","system_id":"levelo_inurba_marseille","lat":43.25729,"lon":5.41029,"is_reserved":false,"is_disabled":false,"rental_uris":{"android":"levelo://app?vid=7f63abf6-c351-4659-a653-d356862ac27b","ios":"levelo://app?vid=7f63abf6-c351-4659-a653-d356862ac27b"},"vehicle_type_id":"4","last_reported":1758593704,"current_range_meters":16800,"station_id":"","pricing_plan_id":"cebpf4jnsgd1na2vs0mg"},{"bike_id":"b691ca5f-66df-4ba8-a7c1-05a56010da29","system_id":"levelo_inurba_marseille","lat":43.29254,"lon":5.40912,"is_reserved":false,"is_disabled":false,"rental_uris":{"android":"levelo://app?vid=b691ca5f-66df-4ba8-a7c1-05a56010da29","ios":"levelo://app?vid=b691ca5f-66df-4ba8-a7c1-05a56010da29"},"vehicle_type_id":"4","last_reported":1758593704,"current_range_meters":16800,"station_id":"ce4bh192rcd13ifvqdc0","pricing_plan_id":"cebpf4jnsgd1na2vs0mg"},{"bike_id":"8ecfc1e8-105c-4c82-a67c-4152d6d01173","system_id":"levelo_inurba_marseille","lat":43.311733,"lon":5.387179,"is_reserved":false,"is_disabled":false,"rental_uris":{"android":"levelo://app?vid=8ecfc1e8-105c-4c82-a67c-4152d6d01173","ios":"levelo://app?vid=8ecfc1e8-105c-4c82-a67c-4152d6d01173"},"vehicle_type_id":"4","last_reported":1758593704,"current_range_meters":16800,"station_id":"ce4bgv12rcd13ifvqcp0","pricing_plan_id":"cebpf4jnsgd1na2vs0mg"},{"bike_id":"d24dd466-02ce-4a40-865e-e4b5699b5ac4","system_id":"levelo_inurba_marseille","lat":43.292636,"lon":5.384441,"is_reserved":false,"is_disabled":false,"rental_uris":{"android":"levelo://app?vid=d24dd466-02ce-4a40-865e-e4b5699b5ac4","ios":"levelo://app?vid=d24dd466-02ce-4a40-865e-e4b5699b5ac4"},"vehicle_type_id":"4","last_reported":1758593704,"current_range_meters":17200,"station_id":"","pricing_plan_id":"cebpf4jnsgd1na2vs0mg"},{"bike_id":"0d6b69bf-e3d6-4ea2-9d87-571f34c94b0b","system_id":"levelo_inurba_marseille","lat":43.28664,"lon":5.36345,"is_reserved":false,"is_disabled":false,"rental_uris":{"android":"levelo://app?vid=0d6b69bf-e3d6-4ea2-9d87-571f34c94b0b","ios":"levelo://app?vid=0d6b69bf-e3d6-4ea2-9d87-571f34c94b0b"},"vehicle_type_id":"4","last_reported":1758593704,"current_range_meters":17200,"station_id":"ce4bhah2rcd13ifvqej0","pricing_plan_id":"cebpf4jnsgd1na2vs0mg"},{"bike_id":"06a24bce-028d-4b4a-b4a3-d45296145db5","system_id":"levelo_inurba_marseille","lat":43.28425,"lon":5.34991,"is_reserved":false,"is_disabled":true,"rental_uris":{"android":"levelo://app?vid=06a24bce-028d-4b4a-b4a3-d45296145db5","ios":"levelo://app?vid=06a24bce-028d-4b4a-b4a3-d45296145db5"},"vehicle_type_id":"4","last_reported":1758593704,"current_range_meters":17200,"station_id":"ce4bhch2rcd13ifvqeug","pricing_plan_id":"cebpf4jnsgd1na2vs0mg"},{"bike_id":"3e6b99dc-3e53-44e6-bd09-41169a9c2f22","system_id":"levelo_inurba_marseille","lat":43.25878,"lon":5.39876,"is_reserved":false,"is_disabled":false,"rental_uris":{"android":"levelo://app?vid=3e6b99dc-3e53-44e6-bd09-41169a9c2f22","ios":"levelo://app?vid=3e6b99dc-3e53-44e6-bd09-41169a9c2f22"},"vehicle_type_id":"4","last_reported":1758593704,"current_range_meters":17200,"station_id":"ce4bhl92rcd13ifvqghg","pricing_plan_id":"cebpf4jnsgd1na2vs0mg"},{"bike_id":"fbb62013-a5a0-4bb8-90a1-e47fc27f8458","system_id":"levelo_inurba_marseille","lat":43.29276,"lon":5.40117,"is_reserved":false,"is_disabled":false,"rental_uris":{"android":"levelo://app?vid=fbb62013-a5a0-4bb8-90a1-e47fc27f8458","ios":"levelo://app?vid=fbb62013-a5a0-4bb8-90a1-e47fc27f8458"},"vehicle_type_id":"4","last_reported":1758593704,"current_range_meters":17200,"station_id":"ce4bh312rcd13ifvqdk0","pricing_plan_id":"cebpf4jnsgd1na2vs0mg"},{"bike_id":"c05d2c32-d011-46d5-8a51-6b40229ba66e","system_id":"levelo_inurba_marseille","lat":43.28929,"lon":5.36391,"is_reserved":false,"is_disabled":false,"rental_uris":{"android":"levelo://app?vid=c05d2c32-d011-46d5-8a51-6b40229ba66e","ios":"levelo://app?vid=c05d2c32-d011-46d5-8a51-6b40229ba66e"},"vehicle_type_id":"4","last_reported":1758593704,"current_range_meters":17200,"station_id":"ce4bhc92rcd13ifvqetg","pricing_plan_id":"cebpf4jnsgd1na2vs0mg"},{"bike_id":"c3e6cc38-8443-41f0-8b93-3da119df4b84","system_id":"levelo_inurba_marseille","lat":43.25902,"lon":5.40893,"is_reserved":false,"is_disabled":false,"rental_uris":{"android":"levelo://app?vid=c3e6cc38-8443-41f0-8b93-3da119df4b84","ios":"levelo://app?vid=c3e6cc38-8443-41f0-8b93-3da119df4b84"},"vehicle_type_id":"4","last_reported":1758593704,"current_range_meters":17200,"station_id":"ce4bhm92rcd13ifvqglg","pricing_plan_id":"cebpf4jnsgd1na2vs0mg"},{"bike_id":"90dca5b1-f7f1-47bf-ae0d-8dea2cb8b7fb","system_id":"levelo_inurba_marseille","lat":43.28264,"lon":5.35064,"is_reserved":false,"is_disabled":false,"rental_uris":{"android":"levelo://app?vid=90dca5b1-f7f1-47bf-ae0d-8dea2cb8b7fb","ios":"levelo://app?vid=90dca5b1-f7f1-47bf-ae0d-8dea2cb8b7fb"},"vehicle_type_id":"4","last_reported":1758593704,"current_range_meters":17200,"station_id":"ce4bhbp2rcd13ifvqerg","pricing_plan_id":"cebpf4jnsgd1na2vs0mg"},{"bike_id":"e15e7425-1d2e-43f2-a937-42c73da66651","system_id":"levelo_inurba_marseille","lat":43.2953,"lon":5.38547,"is_reserved":false,"is_disabled":true,"rental_uris":{"android":"levelo://app?vid=e15e7425-1d2e-43f2-a937-42c73da66651","ios":"levelo://app?vid=e15e7425-1d2e-43f2-a937-42c73da66651"},"vehicle_type_id":"4","last_reported":1758593704,"current_range_meters":17600,"station_id":"ce4bgih2rcd13ifvqba0","pricing_plan_id":"cebpf4jnsgd1na2vs0mg"},{"bike_id":"0db179d0-a8ed-43a4-abb6-f6b9e8918313","system_id":"levelo_inurba_marseille","lat":43.312327,"lon":5.368694,"is_reserved":false,"is_disabled":false,"rental_uris":{"android":"levelo://app?vid=0db179d0-a8ed-43a4-abb6-f6b9e8918313","ios":"levelo://app?vid=0db179d0-a8ed-43a4-abb6-f6b9e8918313"},"vehicle_type_id":"4","last_reported":1758593704,"current_range_meters":17600,"station_id":"ce4bgl92rcd13ifvqbq0","pricing_plan_id":"cebpf4jnsgd1na2vs0mg"},{"bike_id":"a57ec678-3f9e-4769-a06b-b0e36f8205fe","system_id":"levelo_inurba_marseille","lat":43.231849,"lon":5.399898,"is_reserved":false,"is_disabled":false,"rental_uris":{"android":"levelo://app?vid=a57ec678-3f9e-4769-a06b-b0e36f8205fe","ios":"levelo://app?vid=a57ec678-3f9e-4769-a06b-b0e36f8205fe"},"vehicle_type_id":"4","last_reported":1758593704,"current_range_meters":17600,"station_id":"ce4bhn12rcd13ifvqgqg","pricing_plan_id":"cebpf4jnsgd1na2vs0mg"},{"bike_id":"c7111857-5729-4547-a2d2-c554357f3f00","system_id":"levelo_inurba_marseille","lat":43.29531,"lon":5.38546,"is_reserved":false,"is_disabled":false,"rental_uris":{"android":"levelo://app?vid=c7111857-5729-4547-a2d2-c554357f3f00","ios":"levelo://app?vid=c7111857-5729-4547-a2d2-c554357f3f00"},"vehicle_type_id":"4","last_reported":1758593704,"current_range_meters":17600,"station_id":"","pricing_plan_id":"cebpf4jnsgd1na2vs0mg"},{"bike_id":"ef9be058-021f-4a83-94c1-03c7c4ea9d67","system_id":"levelo_inurba_marseille","lat":43.282731,"lon":5.350759,"is_reserved":false,"is_disabled":false,"rental_uris":{"android":"levelo://app?vid=ef9be058-021f-4a83-94c1-03c7c4ea9d67","ios":"levelo://app?vid=ef9be058-021f-4a83-94c1-03c7c4ea9d67"},"vehicle_type_id":"4","last_reported":1758593704,"current_range_meters":17600,"station_id":"ce4bhbp2rcd13ifvqerg","pricing_plan_id":"cebpf4jnsgd1na2vs0mg"},{"bike_id":"2a52b0bb-783a-489f-a7b9-793ba892f121","system_id":"levelo_inurba_marseille","lat":43.25339,"lon":5.42161,"is_reserved":false,"is_disabled":false,"rental_uris":{"android":"levelo://app?vid=2a52b0bb-783a-489f-a7b9-793ba892f121","ios":"levelo://app?vid=2a52b0bb-783a-489f-a7b9-793ba892f121"},"vehicle_type_id":"4","last_reported":1758593704,"current_range_meters":17600,"station_id":"st_d2m65c5bi1j21697t3ng","pricing_plan_id":"cebpf4jnsgd1na2vs0mg"},{"bike_id":"8552fe36-10d8-46fd-997b-c97d2970480a","system_id":"levelo_inurba_marseille","lat":43.323671,"lon":5.367366,"is_reserved":false,"is_disabled":false,"rental_uris":{"android":"levelo://app?vid=8552fe36-10d8-46fd-997b-c97d2970480a","ios":"levelo://app?vid=8552fe36-10d8-46fd-997b-c97d2970480a"},"vehicle_type_id":"4","last_reported":1758593704,"current_range_meters":17600,"station_id":"ce4bhsh2rcd13ifvqi2g","pricing_plan_id":"cebpf4jnsgd1na2vs0mg"},{"bike_id":"5ffb1f71-5df6-488c-b15d-c60dda46a5e8","system_id":"levelo_inurba_marseille","lat":43.28728,"lon":5.39975,"is_reserved":false,"is_disabled":false,"rental_uris":{"android":"levelo://app?vid=5ffb1f71-5df6-488c-b15d-c60dda46a5e8","ios":"levelo://app?vid=5ffb1f71-5df6-488c-b15d-c60dda46a5e8"},"vehicle_type_id":"4","last_reported":1758593704,"current_range_meters":18000,"station_id":"ce4bho92rcd13ifvqh3g","pricing_plan_id":"cebpf4jnsgd1na2vs0mg"},{"bike_id":"2b5cf6d2-5cda-4640-9461-0ca51ece55aa","system_id":"levelo_inurba_marseille","lat":43.31484,"lon":5.37307,"is_reserved":false,"is_disabled":false,"rental_uris":{"android":"levelo://app?vid=2b5cf6d2-5cda-4640-9461-0ca51ece55aa","ios":"levelo://app?vid=2b5cf6d2-5cda-4640-9461-0ca51ece55aa"},"vehicle_type_id":"4","last_reported":1758593704,"current_range_meters":18000,"station_id":"ce4bgt12rcd13ifvqcd0","pricing_plan_id":"cebpf4jnsgd1na2vs0mg"},{"bike_id":"8f63bb28-daf3-434a-b520-4ffc9e66dc1c","system_id":"levelo_inurba_marseille","lat":43.25639,"lon":5.41181,"is_reserved":false,"is_disabled":false,"rental_uris":{"android":"levelo://app?vid=8f63bb28-daf3-434a-b520-4ffc9e66dc1c","ios":"levelo://app?vid=8f63bb28-daf3-434a-b520-4ffc9e66dc1c"},"vehicle_type_id":"4","last_reported":1758593704,"current_range_meters":18000,"station_id":"","pricing_plan_id":"cebpf4jnsgd1na2vs0mg"},{"bike_id":"cc290a18-f11d-4b21-a6cc-97ff33be46d2","system_id":"levelo_inurba_marseille","lat":43.30315,"lon":5.39199,"is_reserved":false,"is_disabled":true,"rental_uris":{"android":"levelo://app?vid=cc290a18-f11d-4b21-a6cc-97ff33be46d2","ios":"levelo://app?vid=cc290a18-f11d-4b21-a6cc-97ff33be46d2"},"vehicle_type_id":"4","last_reported":1758593704,"current_range_meters":18000,"station_id":"ce4bgkh2rcd13ifvqbk0","pricing_plan_id":"cebpf4jnsgd1na2vs0mg"},{"bike_id":"e4324997-6548-43e9-9fdc-22f799b57004","system_id":"levelo_inurba_marseille","lat":43.28277,"lon":5.35086,"is_reserved":false,"is_disabled":false,"rental_uris":{"android":"levelo://app?vid=e4324997-6548-43e9-9fdc-22f799b57004","ios":"levelo://app?vid=e4324997-6548-43e9-9fdc-22f799b57004"},"vehicle_type_id":"4","last_reported":1758593704,"current_range_meters":18000,"station_id":"ce4bhbp2rcd13ifvqerg","pricing_plan_id":"cebpf4jnsgd1na2vs0mg"},{"bike_id":"300f7730-ca4c-4a6b-b091-02d6222aa11d","system_id":"levelo_inurba_marseille","lat":43.22931,"lon":5.35377,"is_reserved":false,"is_disabled":false,"rental_uris":{"android":"levelo://app?vid=300f7730-ca4c-4a6b-b091-02d6222aa11d","ios":"levelo://app?vid=300f7730-ca4c-4a6b-b091-02d6222aa11d"},"vehicle_type_id":"4","last_reported":1758593704,"current_range_meters":18000,"station_id":"cpo3532slgdg3j2ikp40","pricing_plan_id":"cebpf4jnsgd1na2vs0mg"},{"bike_id":"dddca5ef-4a33-499b-936a-6d8e6136a417","system_id":"levelo_inurba_marseille","lat":43.22893,"lon":5.35452,"is_reserved":false,"is_disabled":false,"rental_uris":{"android":"levelo://app?vid=dddca5ef-4a33-499b-936a-6d8e6136a417","ios":"levelo://app?vid=dddca5ef-4a33-499b-936a-6d8e6136a417"},"vehicle_type_id":"4","last_reported":1758593704,"current_range_meters":18000,"station_id":"cpo3532slgdg3j2ikp40","pricing_plan_id":"cebpf4jnsgd1na2vs0mg"},{"bike_id":"35450425-2f77-4cc3-9bf2-34774855a5c4","system_id":"levelo_inurba_marseille","lat":43.25721,"lon":5.4111,"is_reserved":false,"is_disabled":true,"rental_uris":{"android":"levelo://app?vid=35450425-2f77-4cc3-9bf2-34774855a5c4","ios":"levelo://app?vid=35450425-2f77-4cc3-9bf2-34774855a5c4"},"vehicle_type_id":"4","last_reported":1758593704,"current_range_meters":18800,"station_id":"ce4bhkp2rcd13ifvqgd0","pricing_plan_id":"cebpf4jnsgd1na2vs0mg"},{"bike_id":"e294228c-7779-40de-b14e-abf4c122d72f","system_id":"levelo_inurba_marseille","lat":43.24671,"lon":5.38163,"is_reserved":false,"is_disabled":false,"rental_uris":{"android":"levelo://app?vid=e294228c-7779-40de-b14e-abf4c122d72f","ios":"levelo://app?vid=e294228c-7779-40de-b14e-abf4c122d72f"},"vehicle_type_id":"4","last_reported":1758593704,"current_range_meters":18800,"station_id":"ce4bhih2rcd13ifvqfr0","pricing_plan_id":"cebpf4jnsgd1na2vs0mg"},{"bike_id":"39784f12-8791-4de1-9a8f-9e7291b8b2b8","system_id":"levelo_inurba_marseille","lat":43.251321,"lon":5.40313,"is_reserved":false,"is_disabled":true,"rental_uris":{"android":"levelo://app?vid=39784f12-8791-4de1-9a8f-9e7291b8b2b8","ios":"levelo://app?vid=39784f12-8791-4de1-9a8f-9e7291b8b2b8"},"vehicle_type_id":"4","last_reported":1758593704,"current_range_meters":18800,"station_id":"ce4bhlh2rcd13ifvqgig","pricing_plan_id":"cebpf4jnsgd1na2vs0mg"},{"bike_id":"902a85b4-786a-4a10-b45c-52ec35967b94","system_id":"levelo_inurba_marseille","lat":43.24063,"lon":5.37769,"is_reserved":false,"is_disabled":false,"rental_uris":{"android":"levelo://app?vid=902a85b4-786a-4a10-b45c-52ec35967b94","ios":"levelo://app?vid=902a85b4-786a-4a10-b45c-52ec35967b94"},"vehicle_type_id":"4","last_reported":1758593704,"current_range_meters":18800,"station_id":"ce4bhnp2rcd13ifvqgvg","pricing_plan_id":"cebpf4jnsgd1na2vs0mg"},{"bike_id":"90164d08-9558-437b-bdf8-56f86d8c46a3","system_id":"levelo_inurba_marseille","lat":43.30932,"lon":5.40145,"is_reserved":false,"is_disabled":false,"rental_uris":{"android":"levelo://app?vid=90164d08-9558-437b-bdf8-56f86d8c46a3","ios":"levelo://app?vid=90164d08-9558-437b-bdf8-56f86d8c46a3"},"vehicle_type_id":"4","last_reported":1758593704,"current_range_meters":18800,"station_id":"ce4bgvp2rcd13ifvqct0","pricing_plan_id":"cebpf4jnsgd1na2vs0mg"},{"bike_id":"3c0fa725-f739-4599-965d-e73d3e7b2c8f","system_id":"levelo_inurba_marseille","lat":43.32346,"lon":5.36725,"is_reserved":false,"is_disabled":false,"rental_uris":{"android":"levelo://app?vid=3c0fa725-f739-4599-965d-e73d3e7b2c8f","ios":"levelo://app?vid=3c0fa725-f739-4599-965d-e73d3e7b2c8f"},"vehicle_type_id":"4","last_reported":1758593704,"current_range_meters":18800,"station_id":"ce4bhsh2rcd13ifvqi2g","pricing_plan_id":"cebpf4jnsgd1na2vs0mg"},{"bike_id":"306c1ee2-9d6b-46e6-bf50-b19ba3d44841","system_id":"levelo_inurba_marseille","lat":43.28575,"lon":5.39494,"is_reserved":false,"is_disabled":false,"rental_uris":{"android":"levelo://app?vid=306c1ee2-9d6b-46e6-bf50-b19ba3d44841","ios":"levelo://app?vid=306c1ee2-9d6b-46e6-bf50-b19ba3d44841"},"vehicle_type_id":"4","last_reported":1758593704,"current_range_meters":18800,"station_id":"ce4bh292rcd13ifvqdg0","pricing_plan_id":"cebpf4jnsgd1na2vs0mg"},{"bike_id":"9feb0e0f-24fa-4463-b0f3-30472830c043","system_id":"levelo_inurba_marseille","lat":43.31757,"lon":5.39002,"is_reserved":false,"is_disabled":false,"rental_uris":{"android":"levelo://app?vid=9feb0e0f-24fa-4463-b0f3-30472830c043","ios":"levelo://app?vid=9feb0e0f-24fa-4463-b0f3-30472830c043"},"vehicle_type_id":"4","last_reported":1758593704,"current_range_meters":19200,"station_id":"ce4bhqp2rcd13ifvqhng","pricing_plan_id":"cebpf4jnsgd1na2vs0mg"},{"bike_id":"96b52191-cdd8-4909-9fad-4de0aaa5f927","system_id":"levelo_inurba_marseille","lat":43.30944,"lon":5.3904,"is_reserved":false,"is_disabled":true,"rental_uris":{"android":"levelo://app?vid=96b52191-cdd8-4909-9fad-4de0aaa5f927","ios":"levelo://app?vid=96b52191-cdd8-4909-9fad-4de0aaa5f927"},"vehicle_type_id":"4","last_reported":1758593704,"current_range_meters":19200,"station_id":"ce4bgup2rcd13ifvqco0","pricing_plan_id":"cebpf4jnsgd1na2vs0mg"},{"bike_id":"be2bce19-ee96-4df2-8c51-454cced10294","system_id":"levelo_inurba_marseille","lat":43.29041,"lon":5.35911,"is_reserved":false,"is_disabled":true,"rental_uris":{"android":"levelo://app?vid=be2bce19-ee96-4df2-8c51-454cced10294","ios":"levelo://app?vid=be2bce19-ee96-4df2-8c51-454cced10294"},"vehicle_type_id":"4","last_reported":1758593704,"current_range_meters":19200,"station_id":"ce4bha92rcd13ifvqeg0","pricing_plan_id":"cebpf4jnsgd1na2vs0mg"},{"bike_id":"679bf3f2-24bd-4e8c-a102-3fa08fbb6619","system_id":"levelo_inurba_marseille","lat":43.26502,"lon":5.39537,"is_reserved":false,"is_disabled":false,"rental_uris":{"android":"levelo://app?vid=679bf3f2-24bd-4e8c-a102-3fa08fbb6619","ios":"levelo://app?vid=679bf3f2-24bd-4e8c-a102-3fa08fbb6619"},"vehicle_type_id":"4","last_reported":1758593704,"current_range_meters":19200,"station_id":"ce4bhi12rcd13ifvqfq0","pricing_plan_id":"cebpf4jnsgd1na2vs0mg"},{"bike_id":"a60abba9-f9b8-477b-8786-175fc2b6218b","system_id":"levelo_inurba_marseille","lat":43.30867,"lon":5.37111,"is_reserved":false,"is_disabled":false,"rental_uris":{"android":"levelo://app?vid=a60abba9-f9b8-477b-8786-175fc2b6218b","ios":"levelo://app?vid=a60abba9-f9b8-477b-8786-175fc2b6218b"},"vehicle_type_id":"4","last_reported":1758593704,"current_range_meters":19200,"station_id":"","pricing_plan_id":"cebpf4jnsgd1na2vs0mg"},{"bike_id":"4933d231-f57a-41c9-a812-7213a002f066","system_id":"levelo_inurba_marseille","lat":43.25139,"lon":5.40342,"is_reserved":false,"is_disabled":false,"rental_uris":{"android":"levelo://app?vid=4933d231-f57a-41c9-a812-7213a002f066","ios":"levelo://app?vid=4933d231-f57a-41c9-a812-7213a002f066"},"vehicle_type_id":"4","last_reported":1758593704,"current_range_meters":19200,"station_id":"ce4bhlh2rcd13ifvqgig","pricing_plan_id":"cebpf4jnsgd1na2vs0mg"},{"bike_id":"a1e6b8dd-8c3f-4160-a25a-87669fde1787","system_id":"levelo_inurba_marseille","lat":43.31317,"lon":5.39702,"is_reserved":false,"is_disabled":false,"rental_uris":{"android":"levelo://app?vid=a1e6b8dd-8c3f-4160-a25a-87669fde1787","ios":"levelo://app?vid=a1e6b8dd-8c3f-4160-a25a-87669fde1787"},"vehicle_type_id":"4","last_reported":1758593704,"current_range_meters":19200,"station_id":"ce4bgvp2rcd13ifvqcu0","pricing_plan_id":"cebpf4jnsgd1na2vs0mg"},{"bike_id":"857fa964-4876-4591-a9bd-c709d073786b","system_id":"levelo_inurba_marseille","lat":43.28737,"lon":5.36085,"is_reserved":false,"is_disabled":false,"rental_uris":{"android":"levelo://app?vid=857fa964-4876-4591-a9bd-c709d073786b","ios":"levelo://app?vid=857fa964-4876-4591-a9bd-c709d073786b"},"vehicle_type_id":"4","last_reported":1758593704,"current_range_meters":19200,"station_id":"cki0cbj6b192h4jlfktg","pricing_plan_id":"cebpf4jnsgd1na2vs0mg"},{"bike_id":"7813c154-2e96-4d0e-84ef-10610cfc91eb","system_id":"levelo_inurba_marseille","lat":43.31712,"lon":5.437,"is_reserved":false,"is_disabled":false,"rental_uris":{"android":"levelo://app?vid=7813c154-2e96-4d0e-84ef-10610cfc91eb","ios":"levelo://app?vid=7813c154-2e96-4d0e-84ef-10610cfc91eb"},"vehicle_type_id":"4","last_reported":1758593704,"current_range_meters":19200,"station_id":"ce4bhp92rcd13ifvqhcg","pricing_plan_id":"cebpf4jnsgd1na2vs0mg"},{"bike_id":"7e369899-bc1f-4cc0-924e-33018945dd99","system_id":"levelo_inurba_marseille","lat":43.25716,"lon":5.41139,"is_reserved":false,"is_disabled":false,"rental_uris":{"android":"levelo://app?vid=7e369899-bc1f-4cc0-924e-33018945dd99","ios":"levelo://app?vid=7e369899-bc1f-4cc0-924e-33018945dd99"},"vehicle_type_id":"4","last_reported":1758593704,"current_range_meters":19200,"station_id":"ce4bhkp2rcd13ifvqgd0","pricing_plan_id":"cebpf4jnsgd1na2vs0mg"},{"bike_id":"a721c9ed-ff35-4aeb-a0ba-c8185eeb9d3b","system_id":"levelo_inurba_marseille","lat":43.31128,"lon":5.37754,"is_reserved":false,"is_disabled":false,"rental_uris":{"android":"levelo://app?vid=a721c9ed-ff35-4aeb-a0ba-c8185eeb9d3b","ios":"levelo://app?vid=a721c9ed-ff35-4aeb-a0ba-c8185eeb9d3b"},"vehicle_type_id":"4","last_reported":1758593704,"current_range_meters":19200,"station_id":"ce4bgt92rcd13ifvqcg0","pricing_plan_id":"cebpf4jnsgd1na2vs0mg"},{"bike_id":"a31c3b79-ece0-43f4-bcf2-064f2f9695b0","system_id":"levelo_inurba_marseille","lat":43.22551,"lon":5.41612,"is_reserved":false,"is_disabled":false,"rental_uris":{"android":"levelo://app?vid=a31c3b79-ece0-43f4-bcf2-064f2f9695b0","ios":"levelo://app?vid=a31c3b79-ece0-43f4-bcf2-064f2f9695b0"},"vehicle_type_id":"4","last_reported":1758593704,"current_range_meters":19200,"station_id":"st_d2o4gvlbi1j2169b742g","pricing_plan_id":"cebpf4jnsgd1na2vs0mg"},{"bike_id":"0c2df348-e009-4c24-8d15-f7a275f8084c","system_id":"levelo_inurba_marseille","lat":43.29207,"lon":5.40578,"is_reserved":false,"is_disabled":false,"rental_uris":{"android":"levelo://app?vid=0c2df348-e009-4c24-8d15-f7a275f8084c","ios":"levelo://app?vid=0c2df348-e009-4c24-8d15-f7a275f8084c"},"vehicle_type_id":"4","last_reported":1758593704,"current_range_meters":19200,"station_id":"","pricing_plan_id":"cebpf4jnsgd1na2vs0mg"},{"bike_id":"9b7ede26-625e-4df6-8445-72320047a48c","system_id":"levelo_inurba_marseille","lat":43.26558,"lon":5.40325,"is_reserved":false,"is_disabled":false,"rental_uris":{"android":"levelo://app?vid=9b7ede26-625e-4df6-8445-72320047a48c","ios":"levelo://app?vid=9b7ede26-625e-4df6-8445-72320047a48c"},"vehicle_type_id":"4","last_reported":1758593704,"current_range_meters":19600,"station_id":"ce4bhmp2rcd13ifvqgng","pricing_plan_id":"cebpf4jnsgd1na2vs0mg"},{"bike_id":"aed48393-ace5-402a-b677-021838903366","system_id":"levelo_inurba_marseille","lat":43.25102,"lon":5.40324,"is_reserved":false,"is_disabled":false,"rental_uris":{"android":"levelo://app?vid=aed48393-ace5-402a-b677-021838903366","ios":"levelo://app?vid=aed48393-ace5-402a-b677-021838903366"},"vehicle_type_id":"4","last_reported":1758593704,"current_range_meters":19600,"station_id":"ce4bhlh2rcd13ifvqgig","pricing_plan_id":"cebpf4jnsgd1na2vs0mg"},{"bike_id":"b39ffcde-8d4a-4e25-86c3-967d542890a2","system_id":"levelo_inurba_marseille","lat":43.2694,"lon":5.40255,"is_reserved":false,"is_disabled":true,"rental_uris":{"android":"levelo://app?vid=b39ffcde-8d4a-4e25-86c3-967d542890a2","ios":"levelo://app?vid=b39ffcde-8d4a-4e25-86c3-967d542890a2"},"vehicle_type_id":"4","last_reported":1758593704,"current_range_meters":19600,"station_id":"cjm6bp8fraef2m0cb0m0","pricing_plan_id":"cebpf4jnsgd1na2vs0mg"},{"bike_id":"c07e40a6-7ce1-4b3e-a0be-dd24ecf19b1a","system_id":"levelo_inurba_marseille","lat":43.29801,"lon":5.39325,"is_reserved":false,"is_disabled":false,"rental_uris":{"android":"levelo://app?vid=c07e40a6-7ce1-4b3e-a0be-dd24ecf19b1a","ios":"levelo://app?vid=c07e40a6-7ce1-4b3e-a0be-dd24ecf19b1a"},"vehicle_type_id":"4","last_reported":1758593704,"current_range_meters":19600,"station_id":"chh1huq6cuj3fo74tm60","pricing_plan_id":"cebpf4jnsgd1na2vs0mg"},{"bike_id":"8a976431-e34d-4d7b-bbb7-fab43d7d5d8a","system_id":"levelo_inurba_marseille","lat":43.3133,"lon":5.39703,"is_reserved":false,"is_disabled":false,"rental_uris":{"android":"levelo://app?vid=8a976431-e34d-4d7b-bbb7-fab43d7d5d8a","ios":"levelo://app?vid=8a976431-e34d-4d7b-bbb7-fab43d7d5d8a"},"vehicle_type_id":"4","last_reported":1758593704,"current_range_meters":19600,"station_id":"ce4bgvp2rcd13ifvqcu0","pricing_plan_id":"cebpf4jnsgd1na2vs0mg"},{"bike_id":"b5097eea-9912-4be2-9cf9-14c224c5fab6","system_id":"levelo_inurba_marseille","lat":43.23195,"lon":5.35553,"is_reserved":false,"is_disabled":false,"rental_uris":{"android":"levelo://app?vid=b5097eea-9912-4be2-9cf9-14c224c5fab6","ios":"levelo://app?vid=b5097eea-9912-4be2-9cf9-14c224c5fab6"},"vehicle_type_id":"4","last_reported":1758593704,"current_range_meters":19600,"station_id":"ce4bhu92rcd13ifvqi70","pricing_plan_id":"cebpf4jnsgd1na2vs0mg"},{"bike_id":"23734643-3b48-4e89-97d4-ef84fd430bc7","system_id":"levelo_inurba_marseille","lat":43.2994,"lon":5.36534,"is_reserved":false,"is_disabled":false,"rental_uris":{"android":"levelo://app?vid=23734643-3b48-4e89-97d4-ef84fd430bc7","ios":"levelo://app?vid=23734643-3b48-4e89-97d4-ef84fd430bc7"},"vehicle_type_id":"4","last_reported":1758593704,"current_range_meters":19600,"station_id":"ce4bgm92rcd13ifvqbr0","pricing_plan_id":"cebpf4jnsgd1na2vs0mg"},{"bike_id":"9d3fd4d4-1a31-4df1-9b2c-9301fb86cf6e","system_id":"levelo_inurba_marseille","lat":43.29632,"lon":5.40603,"is_reserved":false,"is_disabled":false,"rental_uris":{"android":"levelo://app?vid=9d3fd4d4-1a31-4df1-9b2c-9301fb86cf6e","ios":"levelo://app?vid=9d3fd4d4-1a31-4df1-9b2c-9301fb86cf6e"},"vehicle_type_id":"4","last_reported":1758593704,"current_range_meters":19600,"station_id":"ce4bh0h2rcd13ifvqd60","pricing_plan_id":"cebpf4jnsgd1na2vs0mg"},{"bike_id":"1ad481db-b7b7-46c1-9283-f86671f1cc48","system_id":"levelo_inurba_marseille","lat":43.29622,"lon":5.37154,"is_reserved":false,"is_disabled":false,"rental_uris":{"android":"levelo://app?vid=1ad481db-b7b7-46c1-9283-f86671f1cc48","ios":"levelo://app?vid=1ad481db-b7b7-46c1-9283-f86671f1cc48"},"vehicle_type_id":"4","last_reported":1758593704,"current_range_meters":19600,"station_id":"ce4bgnh2rcd13ifvqc0g","pricing_plan_id":"cebpf4jnsgd1na2vs0mg"},{"bike_id":"6aae674d-fbbf-49ea-9dff-2e7ffbb16aef","system_id":"levelo_inurba_marseille","lat":43.28026,"lon":5.36945,"is_reserved":false,"is_disabled":false,"rental_uris":{"android":"levelo://app?vid=6aae674d-fbbf-49ea-9dff-2e7ffbb16aef","ios":"levelo://app?vid=6aae674d-fbbf-49ea-9dff-2e7ffbb16aef"},"vehicle_type_id":"4","last_reported":1758593704,"current_range_meters":19600,"station_id":"ce4bha12rcd13ifvqef0","pricing_plan_id":"cebpf4jnsgd1na2vs0mg"},{"bike_id":"267ad1ba-ba5f-48aa-bd9f-acbf7ff440f6","system_id":"levelo_inurba_marseille","lat":43.24541,"lon":5.39524,"is_reserved":false,"is_disabled":false,"rental_uris":{"android":"levelo://app?vid=267ad1ba-ba5f-48aa-bd9f-acbf7ff440f6","ios":"levelo://app?vid=267ad1ba-ba5f-48aa-bd9f-acbf7ff440f6"},"vehicle_type_id":"4","last_reported":1758593704,"current_range_meters":19600,"station_id":"ce4bhlp2rcd13ifvqgjg","pricing_plan_id":"cebpf4jnsgd1na2vs0mg"},{"bike_id":"a6e657c9-56fc-4598-a8c4-11ed6c39a920","system_id":"levelo_inurba_marseille","lat":43.31495,"lon":5.37302,"is_reserved":false,"is_disabled":false,"rental_uris":{"android":"levelo://app?vid=a6e657c9-56fc-4598-a8c4-11ed6c39a920","ios":"levelo://app?vid=a6e657c9-56fc-4598-a8c4-11ed6c39a920"},"vehicle_type_id":"4","last_reported":1758593704,"current_range_meters":19600,"station_id":"ce4bgt12rcd13ifvqcd0","pricing_plan_id":"cebpf4jnsgd1na2vs0mg"},{"bike_id":"289731c5-0a7c-4698-a448-dee4759c591a","system_id":"levelo_inurba_marseille","lat":43.25333,"lon":5.42159,"is_reserved":false,"is_disabled":false,"rental_uris":{"android":"levelo://app?vid=289731c5-0a7c-4698-a448-dee4759c591a","ios":"levelo://app?vid=289731c5-0a7c-4698-a448-dee4759c591a"},"vehicle_type_id":"4","last_reported":1758593704,"current_range_meters":19600,"station_id":"st_d2m65c5bi1j21697t3ng","pricing_plan_id":"cebpf4jnsgd1na2vs0mg"},{"bike_id":"8f3d3d72-9af2-4f9b-9b62-e82fc3d41eda","system_id":"levelo_inurba_marseille","lat":43.25345,"lon":5.42174,"is_reserved":false,"is_disabled":false,"rental_uris":{"android":"levelo://app?vid=8f3d3d72-9af2-4f9b-9b62-e82fc3d41eda","ios":"levelo://app?vid=8f3d3d72-9af2-4f9b-9b62-e82fc3d41eda"},"vehicle_type_id":"4","last_reported":1758593704,"current_range_meters":20000,"station_id":"st_d2m65c5bi1j21697t3ng","pricing_plan_id":"cebpf4jnsgd1na2vs0mg"},{"bike_id":"310b06b2-6287-457c-b411-beee0d320ef9","system_id":"levelo_inurba_marseille","lat":43.304585,"lon":5.388944,"is_reserved":false,"is_disabled":true,"rental_uris":{"android":"levelo://app?vid=310b06b2-6287-457c-b411-beee0d320ef9","ios":"levelo://app?vid=310b06b2-6287-457c-b411-beee0d320ef9"},"vehicle_type_id":"4","last_reported":1758593704,"current_range_meters":20000,"station_id":"ce4bgk12rcd13ifvqbi0","pricing_plan_id":"cebpf4jnsgd1na2vs0mg"},{"bike_id":"23e8dc91-a56d-4e75-a2e0-8fff2b2312dc","system_id":"levelo_inurba_marseille","lat":43.30319,"lon":5.36912,"is_reserved":false,"is_disabled":false,"rental_uris":{"android":"levelo://app?vid=23e8dc91-a56d-4e75-a2e0-8fff2b2312dc","ios":"levelo://app?vid=23e8dc91-a56d-4e75-a2e0-8fff2b2312dc"},"vehicle_type_id":"4","last_reported":1758593704,"current_range_meters":20000,"station_id":"ce4bgqh2rcd13ifvqc5g","pricing_plan_id":"cebpf4jnsgd1na2vs0mg"},{"bike_id":"6292aec5-f3da-4ec2-afc3-0fcaa5a068ce","system_id":"levelo_inurba_marseille","lat":43.30301,"lon":5.39197,"is_reserved":false,"is_disabled":true,"rental_uris":{"android":"levelo://app?vid=6292aec5-f3da-4ec2-afc3-0fcaa5a068ce","ios":"levelo://app?vid=6292aec5-f3da-4ec2-afc3-0fcaa5a068ce"},"vehicle_type_id":"4","last_reported":1758593704,"current_range_meters":20000,"station_id":"ce4bgkh2rcd13ifvqbk0","pricing_plan_id":"cebpf4jnsgd1na2vs0mg"},{"bike_id":"302ce570-3150-4b39-ac35-b902461f332f","system_id":"levelo_inurba_marseille","lat":43.28729,"lon":5.37396,"is_reserved":false,"is_disabled":false,"rental_uris":{"android":"levelo://app?vid=302ce570-3150-4b39-ac35-b902461f332f","ios":"levelo://app?vid=302ce570-3150-4b39-ac35-b902461f332f"},"vehicle_type_id":"4","last_reported":1758593704,"current_range_meters":20000,"station_id":"ce4bh3p2rcd13ifvqdq0","pricing_plan_id":"cebpf4jnsgd1na2vs0mg"},{"bike_id":"77ac341b-6623-4dc3-9f13-594ef6d706dc","system_id":"levelo_inurba_marseille","lat":43.31334,"lon":5.39701,"is_reserved":false,"is_disabled":false,"rental_uris":{"android":"levelo://app?vid=77ac341b-6623-4dc3-9f13-594ef6d706dc","ios":"levelo://app?vid=77ac341b-6623-4dc3-9f13-594ef6d706dc"},"vehicle_type_id":"4","last_reported":1758593704,"current_range_meters":20000,"station_id":"ce4bgvp2rcd13ifvqcu0","pricing_plan_id":"cebpf4jnsgd1na2vs0mg"},{"bike_id":"a5b18df1-c75c-4466-b09e-bfb9430e2bc9","system_id":"levelo_inurba_marseille","lat":43.28028,"lon":5.36952,"is_reserved":false,"is_disabled":false,"rental_uris":{"android":"levelo://app?vid=a5b18df1-c75c-4466-b09e-bfb9430e2bc9","ios":"levelo://app?vid=a5b18df1-c75c-4466-b09e-bfb9430e2bc9"},"vehicle_type_id":"4","last_reported":1758593704,"current_range_meters":20000,"station_id":"ce4bha12rcd13ifvqef0","pricing_plan_id":"cebpf4jnsgd1na2vs0mg"},{"bike_id":"d68b9cdd-055c-48e6-b5c7-c6c683b923e5","system_id":"levelo_inurba_marseille","lat":43.28621,"lon":5.35096,"is_reserved":false,"is_disabled":true,"rental_uris":{"android":"levelo://app?vid=d68b9cdd-055c-48e6-b5c7-c6c683b923e5","ios":"levelo://app?vid=d68b9cdd-055c-48e6-b5c7-c6c683b923e5"},"vehicle_type_id":"4","last_reported":1758593704,"current_range_meters":20000,"station_id":"ce4bhch2rcd13ifvqeug","pricing_plan_id":"cebpf4jnsgd1na2vs0mg"},{"bike_id":"157b0c01-05e5-43dd-8f50-a6ded43d2ed7","system_id":"levelo_inurba_marseille","lat":43.28852,"lon":5.35861,"is_reserved":false,"is_disabled":false,"rental_uris":{"android":"levelo://app?vid=157b0c01-05e5-43dd-8f50-a6ded43d2ed7","ios":"levelo://app?vid=157b0c01-05e5-43dd-8f50-a6ded43d2ed7"},"vehicle_type_id":"4","last_reported":1758593704,"current_range_meters":20000,"station_id":"ce4bhb12rcd13ifvqem0","pricing_plan_id":"cebpf4jnsgd1na2vs0mg"},{"bike_id":"0bba7b06-9521-459b-82f8-5cab3cfefb0c","system_id":"levelo_inurba_marseille","lat":43.295982,"lon":5.380994,"is_reserved":false,"is_disabled":false,"rental_uris":{"android":"levelo://app?vid=0bba7b06-9521-459b-82f8-5cab3cfefb0c","ios":"levelo://app?vid=0bba7b06-9521-459b-82f8-5cab3cfefb0c"},"vehicle_type_id":"4","last_reported":1758593704,"current_range_meters":20000,"station_id":"","pricing_plan_id":"cebpf4jnsgd1na2vs0mg"},{"bike_id":"efbe2224-30d8-4717-919d-2908d2ea6c08","system_id":"levelo_inurba_marseille","lat":43.21749,"lon":5.34601,"is_reserved":false,"is_disabled":false,"rental_uris":{"android":"levelo://app?vid=efbe2224-30d8-4717-919d-2908d2ea6c08","ios":"levelo://app?vid=efbe2224-30d8-4717-919d-2908d2ea6c08"},"vehicle_type_id":"4","last_reported":1758593704,"current_range_meters":20400,"station_id":"st_cvj6r9ubvosntc0bgbag","pricing_plan_id":"cebpf4jnsgd1na2vs0mg"},{"bike_id":"b3bcf3e3-c6e4-4b18-80d2-fdeaefb07de9","system_id":"levelo_inurba_marseille","lat":43.28121,"lon":5.43222,"is_reserved":false,"is_disabled":false,"rental_uris":{"android":"levelo://app?vid=b3bcf3e3-c6e4-4b18-80d2-fdeaefb07de9","ios":"levelo://app?vid=b3bcf3e3-c6e4-4b18-80d2-fdeaefb07de9"},"vehicle_type_id":"4","last_reported":1758593704,"current_range_meters":20400,"station_id":"","pricing_plan_id":"cebpf4jnsgd1na2vs0mg"},{"bike_id":"76d79070-defb-41bb-86d9-c3b7353b1cdb","system_id":"levelo_inurba_marseille","lat":43.3045,"lon":5.37885,"is_reserved":false,"is_disabled":true,"rental_uris":{"android":"levelo://app?vid=76d79070-defb-41bb-86d9-c3b7353b1cdb","ios":"levelo://app?vid=76d79070-defb-41bb-86d9-c3b7353b1cdb"},"vehicle_type_id":"4","last_reported":1758593704,"current_range_meters":20400,"station_id":"ce4bgup2rcd13ifvqcn0","pricing_plan_id":"cebpf4jnsgd1na2vs0mg"},{"bike_id":"d17ffa8a-59e4-472d-87e5-70256b0c2a58","system_id":"levelo_inurba_marseille","lat":43.27947,"lon":5.41039,"is_reserved":false,"is_disabled":true,"rental_uris":{"android":"levelo://app?vid=d17ffa8a-59e4-472d-87e5-70256b0c2a58","ios":"levelo://app?vid=d17ffa8a-59e4-472d-87e5-70256b0c2a58"},"vehicle_type_id":"4","last_reported":1758593704,"current_range_meters":20400,"station_id":"ce4bhnp2rcd13ifvqh0g","pricing_plan_id":"cebpf4jnsgd1na2vs0mg"},{"bike_id":"dbb1450a-589c-4728-945f-616264316872","system_id":"levelo_inurba_marseille","lat":43.258241,"lon":5.39439,"is_reserved":false,"is_disabled":false,"rental_uris":{"android":"levelo://app?vid=dbb1450a-589c-4728-945f-616264316872","ios":"levelo://app?vid=dbb1450a-589c-4728-945f-616264316872"},"vehicle_type_id":"4","last_reported":1758593704,"current_range_meters":20400,"station_id":"ce4bhip2rcd13ifvqft0","pricing_plan_id":"cebpf4jnsgd1na2vs0mg"},{"bike_id":"cb923f39-6826-4f7c-98eb-4b0032105498","system_id":"levelo_inurba_marseille","lat":43.275,"lon":5.4245,"is_reserved":false,"is_disabled":false,"rental_uris":{"android":"levelo://app?vid=cb923f39-6826-4f7c-98eb-4b0032105498","ios":"levelo://app?vid=cb923f39-6826-4f7c-98eb-4b0032105498"},"vehicle_type_id":"4","last_reported":1758593704,"current_range_meters":20400,"station_id":"ce4bhn92rcd13ifvqgrg","pricing_plan_id":"cebpf4jnsgd1na2vs0mg"},{"bike_id":"e2017298-7010-4fcc-9644-9ccfb0f46125","system_id":"levelo_inurba_marseille","lat":43.30104,"lon":5.41517,"is_reserved":false,"is_disabled":false,"rental_uris":{"android":"levelo://app?vid=e2017298-7010-4fcc-9644-9ccfb0f46125","ios":"levelo://app?vid=e2017298-7010-4fcc-9644-9ccfb0f46125"},"vehicle_type_id":"4","last_reported":1758593704,"current_range_meters":20400,"station_id":"","pricing_plan_id":"cebpf4jnsgd1na2vs0mg"},{"bike_id":"dd94f940-0377-4d10-9695-bb9f6ba4c54b","system_id":"levelo_inurba_marseille","lat":43.290203,"lon":5.386455,"is_reserved":false,"is_disabled":true,"rental_uris":{"android":"levelo://app?vid=dd94f940-0377-4d10-9695-bb9f6ba4c54b","ios":"levelo://app?vid=dd94f940-0377-4d10-9695-bb9f6ba4c54b"},"vehicle_type_id":"4","last_reported":1758593704,"current_range_meters":20800,"station_id":"ce4bh4p2rcd13ifvqe0g","pricing_plan_id":"cebpf4jnsgd1na2vs0mg"},{"bike_id":"4a9a978a-712d-4a16-907b-c03240f6abbd","system_id":"levelo_inurba_marseille","lat":43.230667,"lon":5.354928,"is_reserved":false,"is_disabled":false,"rental_uris":{"android":"levelo://app?vid=4a9a978a-712d-4a16-907b-c03240f6abbd","ios":"levelo://app?vid=4a9a978a-712d-4a16-907b-c03240f6abbd"},"vehicle_type_id":"4","last_reported":1758593704,"current_range_meters":20800,"station_id":"cpo3342slgdg3j2ifvpg","pricing_plan_id":"cebpf4jnsgd1na2vs0mg"},{"bike_id":"6db010fe-a53c-401b-b729-cc67e48aff93","system_id":"levelo_inurba_marseille","lat":43.30197,"lon":5.39236,"is_reserved":false,"is_disabled":false,"rental_uris":{"android":"levelo://app?vid=6db010fe-a53c-401b-b729-cc67e48aff93","ios":"levelo://app?vid=6db010fe-a53c-401b-b729-cc67e48aff93"},"vehicle_type_id":"4","last_reported":1758593704,"current_range_meters":20800,"station_id":"","pricing_plan_id":"cebpf4jnsgd1na2vs0mg"},{"bike_id":"4342e04b-bc6b-4278-9463-c60f183aecbc","system_id":"levelo_inurba_marseille","lat":43.26501,"lon":5.39544,"is_reserved":false,"is_disabled":false,"rental_uris":{"android":"levelo://app?vid=4342e04b-bc6b-4278-9463-c60f183aecbc","ios":"levelo://app?vid=4342e04b-bc6b-4278-9463-c60f183aecbc"},"vehicle_type_id":"4","last_reported":1758593704,"current_range_meters":20800,"station_id":"ce4bhi12rcd13ifvqfq0","pricing_plan_id":"cebpf4jnsgd1na2vs0mg"},{"bike_id":"b8e98139-3bd6-4258-841c-551c15439095","system_id":"levelo_inurba_marseille","lat":43.2623,"lon":5.40453,"is_reserved":false,"is_disabled":false,"rental_uris":{"android":"levelo://app?vid=b8e98139-3bd6-4258-841c-551c15439095","ios":"levelo://app?vid=b8e98139-3bd6-4258-841c-551c15439095"},"vehicle_type_id":"4","last_reported":1758593704,"current_range_meters":20800,"station_id":"ce4bhmh2rcd13ifvqgmg","pricing_plan_id":"cebpf4jnsgd1na2vs0mg"},{"bike_id":"0230dc93-6f13-4ead-b2be-b08a15cd0f16","system_id":"levelo_inurba_marseille","lat":43.27175,"lon":5.40988,"is_reserved":false,"is_disabled":false,"rental_uris":{"android":"levelo://app?vid=0230dc93-6f13-4ead-b2be-b08a15cd0f16","ios":"levelo://app?vid=0230dc93-6f13-4ead-b2be-b08a15cd0f16"},"vehicle_type_id":"4","last_reported":1758593704,"current_range_meters":20400,"station_id":"ce4bhl12rcd13ifvqgf0","pricing_plan_id":"cebpf4jnsgd1na2vs0mg"},{"bike_id":"b137a1f3-8d65-41d3-8e49-b6350cc57ec4","system_id":"levelo_inurba_marseille","lat":43.25582,"lon":5.38234,"is_reserved":false,"is_disabled":false,"rental_uris":{"android":"levelo://app?vid=b137a1f3-8d65-41d3-8e49-b6350cc57ec4","ios":"levelo://app?vid=b137a1f3-8d65-41d3-8e49-b6350cc57ec4"},"vehicle_type_id":"4","last_reported":1758593704,"current_range_meters":20800,"station_id":"ce4bhih2rcd13ifvqfs0","pricing_plan_id":"cebpf4jnsgd1na2vs0mg"},{"bike_id":"3ff71db9-18d7-4990-868d-6fcc6ead646c","system_id":"levelo_inurba_marseille","lat":43.25345,"lon":5.42189,"is_reserved":false,"is_disabled":false,"rental_uris":{"android":"levelo://app?vid=3ff71db9-18d7-4990-868d-6fcc6ead646c","ios":"levelo://app?vid=3ff71db9-18d7-4990-868d-6fcc6ead646c"},"vehicle_type_id":"4","last_reported":1758593704,"current_range_meters":21600,"station_id":"st_d2m65c5bi1j21697t3ng","pricing_plan_id":"cebpf4jnsgd1na2vs0mg"},{"bike_id":"1b8e4c2d-e7e7-47de-bd66-d5d0e6c8f37e","system_id":"levelo_inurba_marseille","lat":43.265721,"lon":5.403171,"is_reserved":false,"is_disabled":true,"rental_uris":{"android":"levelo://app?vid=1b8e4c2d-e7e7-47de-bd66-d5d0e6c8f37e","ios":"levelo://app?vid=1b8e4c2d-e7e7-47de-bd66-d5d0e6c8f37e"},"vehicle_type_id":"4","last_reported":1758593704,"current_range_meters":21600,"station_id":"ce4bhmp2rcd13ifvqgng","pricing_plan_id":"cebpf4jnsgd1na2vs0mg"},{"bike_id":"769a23fa-2024-4077-a80b-c32ffa16ac78","system_id":"levelo_inurba_marseille","lat":43.25127,"lon":5.40336,"is_reserved":false,"is_disabled":false,"rental_uris":{"android":"levelo://app?vid=769a23fa-2024-4077-a80b-c32ffa16ac78","ios":"levelo://app?vid=769a23fa-2024-4077-a80b-c32ffa16ac78"},"vehicle_type_id":"4","last_reported":1758593704,"current_range_meters":21600,"station_id":"ce4bhlh2rcd13ifvqgig","pricing_plan_id":"cebpf4jnsgd1na2vs0mg"},{"bike_id":"04c4d025-7724-47f1-9c0b-13e870444f95","system_id":"levelo_inurba_marseille","lat":43.26226,"lon":5.40478,"is_reserved":false,"is_disabled":false,"rental_uris":{"android":"levelo://app?vid=04c4d025-7724-47f1-9c0b-13e870444f95","ios":"levelo://app?vid=04c4d025-7724-47f1-9c0b-13e870444f95"},"vehicle_type_id":"4","last_reported":1758593704,"current_range_meters":21600,"station_id":"ce4bhmh2rcd13ifvqgmg","pricing_plan_id":"cebpf4jnsgd1na2vs0mg"},{"bike_id":"140081ed-9f31-4e65-9097-5a1508c2f7d9","system_id":"levelo_inurba_marseille","lat":43.33149,"lon":5.38174,"is_reserved":false,"is_disabled":false,"rental_uris":{"android":"levelo://app?vid=140081ed-9f31-4e65-9097-5a1508c2f7d9","ios":"levelo://app?vid=140081ed-9f31-4e65-9097-5a1508c2f7d9"},"vehicle_type_id":"4","last_reported":1758593704,"current_range_meters":21600,"station_id":"","pricing_plan_id":"cebpf4jnsgd1na2vs0mg"},{"bike_id":"38a84bc8-f959-4190-8aa5-bd8b610c18f0","system_id":"levelo_inurba_marseille","lat":43.2619,"lon":5.405,"is_reserved":false,"is_disabled":false,"rental_uris":{"android":"levelo://app?vid=38a84bc8-f959-4190-8aa5-bd8b610c18f0","ios":"levelo://app?vid=38a84bc8-f959-4190-8aa5-bd8b610c18f0"},"vehicle_type_id":"4","last_reported":1758593704,"current_range_meters":22000,"station_id":"","pricing_plan_id":"cebpf4jnsgd1na2vs0mg"},{"bike_id":"92085d91-3c17-49c3-8fcd-43f1ab4d0615","system_id":"levelo_inurba_marseille","lat":43.22934,"lon":5.35371,"is_reserved":false,"is_disabled":false,"rental_uris":{"android":"levelo://app?vid=92085d91-3c17-49c3-8fcd-43f1ab4d0615","ios":"levelo://app?vid=92085d91-3c17-49c3-8fcd-43f1ab4d0615"},"vehicle_type_id":"4","last_reported":1758593704,"current_range_meters":22000,"station_id":"cpo3532slgdg3j2ikp40","pricing_plan_id":"cebpf4jnsgd1na2vs0mg"},{"bike_id":"70fa447e-e9ac-4bff-969a-d6435eab56c7","system_id":"levelo_inurba_marseille","lat":43.3129,"lon":5.40151,"is_reserved":false,"is_disabled":false,"rental_uris":{"android":"levelo://app?vid=70fa447e-e9ac-4bff-969a-d6435eab56c7","ios":"levelo://app?vid=70fa447e-e9ac-4bff-969a-d6435eab56c7"},"vehicle_type_id":"4","last_reported":1758593704,"current_range_meters":22000,"station_id":"ce4bh092rcd13ifvqd30","pricing_plan_id":"cebpf4jnsgd1na2vs0mg"},{"bike_id":"f5f446ea-231a-467f-a9b9-71273e179a24","system_id":"levelo_inurba_marseille","lat":43.30204,"lon":5.39463,"is_reserved":false,"is_disabled":true,"rental_uris":{"android":"levelo://app?vid=f5f446ea-231a-467f-a9b9-71273e179a24","ios":"levelo://app?vid=f5f446ea-231a-467f-a9b9-71273e179a24"},"vehicle_type_id":"4","last_reported":1758593704,"current_range_meters":22000,"station_id":"ce4bh0p2rcd13ifvqd70","pricing_plan_id":"cebpf4jnsgd1na2vs0mg"},{"bike_id":"c2ef04bd-5b92-4a72-80e5-2fe827673c76","system_id":"levelo_inurba_marseille","lat":43.31327,"lon":5.39701,"is_reserved":false,"is_disabled":true,"rental_uris":{"android":"levelo://app?vid=c2ef04bd-5b92-4a72-80e5-2fe827673c76","ios":"levelo://app?vid=c2ef04bd-5b92-4a72-80e5-2fe827673c76"},"vehicle_type_id":"4","last_reported":1758593704,"current_range_meters":22000,"station_id":"ce4bgvp2rcd13ifvqcu0","pricing_plan_id":"cebpf4jnsgd1na2vs0mg"},{"bike_id":"754974bb-5c6e-4a33-9f19-b53a83c64784","system_id":"levelo_inurba_marseille","lat":43.276756,"lon":5.389039,"is_reserved":false,"is_disabled":true,"rental_uris":{"android":"levelo://app?vid=754974bb-5c6e-4a33-9f19-b53a83c64784","ios":"levelo://app?vid=754974bb-5c6e-4a33-9f19-b53a83c64784"},"vehicle_type_id":"4","last_reported":1758593704,"current_range_meters":22000,"station_id":"ce4bhi12rcd13ifvqfo0","pricing_plan_id":"cebpf4jnsgd1na2vs0mg"},{"bike_id":"4d21f471-4ff3-4730-aa81-95b281d5d8d8","system_id":"levelo_inurba_marseille","lat":43.29903,"lon":5.38153,"is_reserved":false,"is_disabled":false,"rental_uris":{"android":"levelo://app?vid=4d21f471-4ff3-4730-aa81-95b281d5d8d8","ios":"levelo://app?vid=4d21f471-4ff3-4730-aa81-95b281d5d8d8"},"vehicle_type_id":"4","last_reported":1758593704,"current_range_meters":22400,"station_id":"","pricing_plan_id":"cebpf4jnsgd1na2vs0mg"},{"bike_id":"8c0227e3-55e8-4994-aa0c-9b6ee99b7e26","system_id":"levelo_inurba_marseille","lat":43.23059,"lon":5.35498,"is_reserved":false,"is_disabled":false,"rental_uris":{"android":"levelo://app?vid=8c0227e3-55e8-4994-aa0c-9b6ee99b7e26","ios":"levelo://app?vid=8c0227e3-55e8-4994-aa0c-9b6ee99b7e26"},"vehicle_type_id":"4","last_reported":1758593704,"current_range_meters":22800,"station_id":"cpo3342slgdg3j2ifvpg","pricing_plan_id":"cebpf4jnsgd1na2vs0mg"},{"bike_id":"34320d59-e35e-40ac-8a68-3e2224d63c1a","system_id":"levelo_inurba_marseille","lat":43.29246,"lon":5.37277,"is_reserved":false,"is_disabled":false,"rental_uris":{"android":"levelo://app?vid=34320d59-e35e-40ac-8a68-3e2224d63c1a","ios":"levelo://app?vid=34320d59-e35e-40ac-8a68-3e2224d63c1a"},"vehicle_type_id":"4","last_reported":1758593704,"current_range_meters":22800,"station_id":"","pricing_plan_id":"cebpf4jnsgd1na2vs0mg"},{"bike_id":"d448b74b-b8f7-4053-955b-1df9c58f6926","system_id":"levelo_inurba_marseille","lat":43.27864,"lon":5.38538,"is_reserved":false,"is_disabled":false,"rental_uris":{"android":"levelo://app?vid=d448b74b-b8f7-4053-955b-1df9c58f6926","ios":"levelo://app?vid=d448b74b-b8f7-4053-955b-1df9c58f6926"},"vehicle_type_id":"4","last_reported":1758593704,"current_range_meters":22800,"station_id":"","pricing_plan_id":"cebpf4jnsgd1na2vs0mg"},{"bike_id":"d006181b-b46b-4fea-8675-345ce0f130d6","system_id":"levelo_inurba_marseille","lat":43.3077,"lon":5.36816,"is_reserved":false,"is_disabled":false,"rental_uris":{"android":"levelo://app?vid=d006181b-b46b-4fea-8675-345ce0f130d6","ios":"levelo://app?vid=d006181b-b46b-4fea-8675-345ce0f130d6"},"vehicle_type_id":"4","last_reported":1758593704,"current_range_meters":22800,"station_id":"","pricing_plan_id":"cebpf4jnsgd1na2vs0mg"},{"bike_id":"fdcfdb23-d105-4a73-827c-ff3f5c653e89","system_id":"levelo_inurba_marseille","lat":43.27502,"lon":5.42456,"is_reserved":false,"is_disabled":false,"rental_uris":{"android":"levelo://app?vid=fdcfdb23-d105-4a73-827c-ff3f5c653e89","ios":"levelo://app?vid=fdcfdb23-d105-4a73-827c-ff3f5c653e89"},"vehicle_type_id":"4","last_reported":1758593704,"current_range_meters":22800,"station_id":"ce4bhn92rcd13ifvqgrg","pricing_plan_id":"cebpf4jnsgd1na2vs0mg"},{"bike_id":"9f921325-1ae9-463d-992b-a55bab229b90","system_id":"levelo_inurba_marseille","lat":43.3011,"lon":5.36718,"is_reserved":false,"is_disabled":false,"rental_uris":{"android":"levelo://app?vid=9f921325-1ae9-463d-992b-a55bab229b90","ios":"levelo://app?vid=9f921325-1ae9-463d-992b-a55bab229b90"},"vehicle_type_id":"4","last_reported":1758593704,"current_range_meters":22800,"station_id":"","pricing_plan_id":"cebpf4jnsgd1na2vs0mg"},{"bike_id":"b8e14a86-9226-4db7-b10a-007c0209171a","system_id":"levelo_inurba_marseille","lat":43.28865,"lon":5.42528,"is_reserved":false,"is_disabled":false,"rental_uris":{"android":"levelo://app?vid=b8e14a86-9226-4db7-b10a-007c0209171a","ios":"levelo://app?vid=b8e14a86-9226-4db7-b10a-007c0209171a"},"vehicle_type_id":"4","last_reported":1758593704,"current_range_meters":22800,"station_id":"","pricing_plan_id":"cebpf4jnsgd1na2vs0mg"},