{"last_updated":1716062877,"ttl":30,"version":"2.2","data":{"bikes":[{"bike_id":"6e2f2e35-9f23-4cb5-b7e7-3df6a9602bb9","system_id":"levelo_inurba_marseille","lat":43.313391,"lon":5.36706,"is_reserved":false,"is_disabled":false,"rental_uris":{"android":"levelo://app?vid=6e2f2e35-9f23-4cb5-b7e7-3df6a9602bb9","ios":"levelo://app?vid=6e2f2e35-9f23-4cb5-b7e7-3df6a9602bb9"},"vehicle_type_id":"4","last_reported":1716062877,"current_range_meters":20800,"station_id":"ce4bgr92rcd13ifvqc6g","pricing_plan_id":"cebpf4jnsgd1na2vs0mg"},{"bike_id":"32460bde-8f33-47dd-a2bb-21d9fb813593","system_id":"levelo_inurba_marseille","lat":43.313391,"lon":5.36706,"is_reserved":false,"is_disabled":false,"rental_uris":{"android":"levelo://app?vid=32460bde-8f33-47dd-a2bb-21d9fb813593","ios":"levelo://app?vid=32460bde-8f33-47dd-a2bb-21d9fb813593"},"vehicle_type_id":"4","last_reported":1716062877,"current_range_meters":25200,"station_id":"ce4bgr92rcd13ifvqc6g","pricing_plan_id":"cebpf4jnsgd1na2vs0mg"},{"bike_id":"72299425-d4c9-4d02-aeae-520d5e142803","system_id":"levelo_inurba_marseille","lat":43.312239,"lon":5.368562,"is_reserved":false,"is_disabled":false,"rental_uris":{"android":"levelo://app?vid=72299425-d4c9-4d02-aeae-520d5e142803","ios":"levelo://app?vid=72299425-d4c9-4d02-aeae-520d5e142803"},"vehicle_type_id":"4","last_reported":1716062877,"current_range_meters":2800,"station_id":"ce4bgl92rcd13ifvqbq0","pricing_plan_id":"cebpf4jnsgd1na2vs0mg"},{"bike_id":"ac5da85e-4718-4484-a5d6-efff2a2a20bb","system_id":"levelo_inurba_marseille","lat":43.312239,"lon":5.368562,"is_reserved":false,"is_disabled":false,"rental_uris":{"android":"levelo://app?vid=ac5da85e-4718-4484-a5d6-efff2a2a20bb","ios":"levelo://app?vid=ac5da85e-4718-4484-a5d6-efff2a2a20bb"},"vehicle_type_id":"4","last_reported":1716062877,"current_range_meters":800,"station_id":"ce4bgl92rcd13ifvqbq0","pricing_plan_id":"cebpf4jnsgd1na2vs0mg"},{"bike_id":"c2d9cd61-d03b-4e7b-8334-6f3865033b05","system_id":"levelo_inurba_marseille","lat":43.312239,"lon":5.368562,"is_reserved":false,"is_disabled":false,"rental_uris":{"android":"levelo://app?vid=c2d9cd61-d03b-4e7b-8334-6f3865033b05","ios":"levelo://app?vid=c2d9cd61-d03b-4e7b-8334-6f3865033b05"},"vehicle_type_id":"4","last_reported":1716062877,"current_range_meters":0,"station_id":"ce4bgl92rcd13ifvqbq0","pricing_plan_id":"cebpf4jnsgd1na2vs0mg"},{"bike_id":"480ebdd1-0729-4862-ae1a-b83837e29fe9","system_id":"levelo_inurba_marseille","lat":43.309076,"lon":5.368465,"is_reserved":false,"is_disabled":false,"rental_uris":{"android":"levelo://app?vid=480ebdd1-0729-4862-ae1a-b83837e29fe9","ios":"levelo://app?vid=480ebdd1-0729-4862-ae1a-b83837e29fe9"},"vehicle_type_id":"4","last_reported":1716062877,"current_range_meters":18000,"station_id":"ce4bgn92rcd13ifvqbvg","pricing_plan_id":"cebpf4jnsgd1na2vs0mg"},{"bike_id":"2c18b6af-4cff-4cdb-a9e2-37f9b2f01964","system_id":"levelo_inurba_marseille","lat":43.30903,"lon":5.36848,"is_reserved":false,"is_disabled":false,"rental_uris":{"android":"levelo://app?vid=2c18b6af-4cff-4cdb-a9e2-37f9b2f01964","ios":"levelo://app?vid=2c18b6af-4cff-4cdb-a9e2-37f9b2f01964"},"vehicle_type_id":"4","last_reported":1716062877,"current_range_meters":0,"station_id":"ce4bgn92rcd13ifvqbvg","pricing_plan_id":"cebpf4jnsgd1na2vs0mg"},{"bike_id":"afab2cc5-130e-4bbc-976b-ed8f91749591","system_id":"levelo_inurba_marseille","lat":43.309458,"lon":5.370978,"is_reserved":false,"is_disabled":false,"rental_uris":{"android":"levelo://app?vid=afab2cc5-130e-4bbc-976b-ed8f91749591","ios":"levelo://app?vid=afab2cc5-130e-4bbc-976b-ed8f91749591"},"vehicle_type_id":"4","last_reported":1716062877,"current_range_meters":22000,"station_id":"","pricing_plan_id":"cebpf4jnsgd1na2vs0mg"},{"bike_id":"d4ad029b-8068-495f-97fc-176655e6dee7","system_id":"levelo_inurba_marseille","lat":43.309039,"lon":5.371797,"is_reserved":false,"is_disabled":false,"rental_uris":{"android":"levelo://app?vid=d4ad029b-8068-495f-97fc-176655e6dee7","ios":"levelo://app?vid=d4ad029b-8068-495f-97fc-176655e6dee7"},"vehicle_type_id":"4","last_reported":1716062877,"current_range_meters":4800,"station_id":"ce4bguh2rcd13ifvqckg","pricing_plan_id":"cebpf4jnsgd1na2vs0mg"},{"bike_id":"6896e7b0-894f-4c52-81a2-7ca575b212cf","system_id":"levelo_inurba_marseille","lat":43.314977,"lon":5.373013,"is_reserved":false,"is_disabled":false,"rental_uris":{"android":"levelo://app?vid=6896e7b0-894f-4c52-81a2-7ca575b212cf","ios":"levelo://app?vid=6896e7b0-894f-4c52-81a2-7ca575b212cf"},"vehicle_type_id":"4","last_reported":1716062877,"current_range_meters":0,"station_id":"ce4bgt12rcd13ifvqcd0","pricing_plan_id":"cebpf4jnsgd1na2vs0mg"},{"bike_id":"d8b0a8fb-d09d-46e3-b2ae-d2987c7e1edb","system_id":"levelo_inurba_marseille","lat":43.309034,"lon":5.371783,"is_reserved":false,"is_disabled":false,"rental_uris":{"android":"levelo://app?vid=d8b0a8fb-d09d-46e3-b2ae-d2987c7e1edb","ios":"levelo://app?vid=d8b0a8fb-d09d-46e3-b2ae-d2987c7e1edb"},"vehicle_type_id":"4","last_reported":1716062877,"current_range_meters":4400,"station_id":"ce4bguh2rcd13ifvqckg","pricing_plan_id":"cebpf4jnsgd1na2vs0mg"},{"bike_id":"1f17e28c-f86f-4bf2-bf50-97a31eb77497","system_id":"levelo_inurba_marseille","lat":43.308905,"lon":5.371858,"is_reserved":false,"is_disabled":false,"rental_uris":{"android":"levelo://app?vid=1f17e28c-f86f-4bf2-bf50-97a31eb77497","ios":"levelo://app?vid=1f17e28c-f86f-4bf2-bf50-97a31eb77497"},"vehicle_type_id":"4","last_reported":1716062877,"current_range_meters":18400,"station_id":"ce4bguh2rcd13ifvqckg","pricing_plan_id":"cebpf4jnsgd1na2vs0mg"},{"bike_id":"a277fe65-7ca8-46b0-927f-8ef2dae50fa5","system_id":"levelo_inurba_marseille","lat":43.309034,"lon":5.371783,"is_reserved":false,"is_disabled":false,"rental_uris":{"android":"levelo://app?vid=a277fe65-7ca8-46b0-927f-8ef2dae50fa5","ios":"levelo://app?vid=a277fe65-7ca8-46b0-927f-8ef2dae50fa5"},"vehicle_type_id":"4","last_reported":1716062877,"current_range_meters":1600,"station_id":"ce4bguh2rcd13ifvqckg","pricing_plan_id":"cebpf4jnsgd1na2vs0mg"},{"bike_id":"f63bdb3f-d0f2-4e77-9427-e7e449485fcb","system_id":"levelo_inurba_marseille","lat":43.309044,"lon":5.37248,"is_reserved":false,"is_disabled":false,"rental_uris":{"android":"levelo://app?vid=f63bdb3f-d0f2-4e77-9427-e7e449485fcb","ios":"levelo://app?vid=f63bdb3f-d0f2-4e77-9427-e7e449485fcb"},"vehicle_type_id":"4","last_reported":1716062877,"current_range_meters":4000,"station_id":"ce4bgv92rcd13ifvqcq0","pricing_plan_id":"cebpf4jnsgd1na2vs0mg"},{"bike_id":"e2ac7787-3870-4a2f-8ae5-ee4ddb777977","system_id":"levelo_inurba_marseille","lat":43.309039,"lon":5.371797,"is_reserved":false,"is_disabled":false,"rental_uris":{"android":"levelo://app?vid=e2ac7787-3870-4a2f-8ae5-ee4ddb777977","ios":"levelo://app?vid=e2ac7787-3870-4a2f-8ae5-ee4ddb777977"},"vehicle_type_id":"4","last_reported":1716062877,"current_range_meters":15600,"station_id":"ce4bguh2rcd13ifvqckg","pricing_plan_id":"cebpf4jnsgd1na2vs0mg"},{"bike_id":"63444de0-a1bb-4e8e-ae96-7acb218fc4db","system_id":"levelo_inurba_marseille","lat":43.30543,"lon":5.36702,"is_reserved":false,"is_disabled":false,"rental_uris":{"android":"levelo://app?vid=63444de0-a1bb-4e8e-ae96-7acb218fc4db","ios":"levelo://app?vid=63444de0-a1bb-4e8e-ae96-7acb218fc4db"},"vehicle_type_id":"4","last_reported":1716062877,"current_range_meters":0,"station_id":"ce4bgrp2rcd13ifvqc9g","pricing_plan_id":"cebpf4jnsgd1na2vs0mg"},{"bike_id":"b0d9e69b-aef8-4138-b7e1-704f0b538368","system_id":"levelo_inurba_marseille","lat":43.305706,"lon":5.365654,"is_reserved":false,"is_disabled":false,"rental_uris":{"android":"levelo://app?vid=b0d9e69b-aef8-4138-b7e1-704f0b538368","ios":"levelo://app?vid=b0d9e69b-aef8-4138-b7e1-704f0b538368"},"vehicle_type_id":"4","last_reported":1716062877,"current_range_meters":6400,"station_id":"ce4bgs12rcd13ifvqcag","pricing_plan_id":"cebpf4jnsgd1na2vs0mg"},{"bike_id":"812b452e-9985-4c23-a2a2-4256b5fc21c1","system_id":"levelo_inurba_marseille","lat":43.305368,"lon":5.367343,"is_reserved":false,"is_disabled":false,"rental_uris":{"android":"levelo://app?vid=812b452e-9985-4c23-a2a2-4256b5fc21c1","ios":"levelo://app?vid=812b452e-9985-4c23-a2a2-4256b5fc21c1"},"vehicle_type_id":"4","last_reported":1716062877,"current_range_meters":1600,"station_id":"ce4bgrp2rcd13ifvqc9g","pricing_plan_id":"cebpf4jnsgd1na2vs0mg"},{"bike_id":"9587cf10-3732-4134-b7c8-d1fb36214bfa","system_id":"levelo_inurba_marseille","lat":43.305989,"lon":5.37225,"is_reserved":false,"is_disabled":false,"rental_uris":{"android":"levelo://app?vid=9587cf10-3732-4134-b7c8-d1fb36214bfa","ios":"levelo://app?vid=9587cf10-3732-4134-b7c8-d1fb36214bfa"},"vehicle_type_id":"4","last_reported":1716062877,"current_range_meters":4400,"station_id":"ce4bgqh2rcd13ifvqc4g","pricing_plan_id":"cebpf4jnsgd1na2vs0mg"},{"bike_id":"3b37f204-d93e-4524-be20-618943939ac8","system_id":"levelo_inurba_marseille","lat":43.305989,"lon":5.37225,"is_reserved":false,"is_disabled":false,"rental_uris":{"android":"levelo://app?vid=3b37f204-d93e-4524-be20-618943939ac8","ios":"levelo://app?vid=3b37f204-d93e-4524-be20-618943939ac8"},"vehicle_type_id":"4","last_reported":1716062877,"current_range_meters":2400,"station_id":"ce4bgqh2rcd13ifvqc4g","pricing_plan_id":"cebpf4jnsgd1na2vs0mg"},{"bike_id":"4126e47f-af1e-444e-aafe-488c1431b435","system_id":"levelo_inurba_marseille","lat":43.31125,"lon":5.37766,"is_reserved":false,"is_disabled":false,"rental_uris":{"android":"levelo://app?vid=4126e47f-af1e-444e-aafe-488c1431b435","ios":"levelo://app?vid=4126e47f-af1e-444e-aafe-488c1431b435"},"vehicle_type_id":"4","last_reported":1716062877,"current_range_meters":0,"station_id":"ce4bgt92rcd13ifvqcg0","pricing_plan_id":"cebpf4jnsgd1na2vs0mg"},{"bike_id":"fa6b1cd9-3c5c-4486-bda1-7fb96c7d6279","system_id":"levelo_inurba_marseille","lat":43.311125,"lon":5.377624,"is_reserved":false,"is_disabled":false,"rental_uris":{"android":"levelo://app?vid=fa6b1cd9-3c5c-4486-bda1-7fb96c7d6279","ios":"levelo://app?vid=fa6b1cd9-3c5c-4486-bda1-7fb96c7d6279"},"vehicle_type_id":"4","last_reported":1716062877,"current_range_meters":13200,"station_id":"ce4bgt92rcd13ifvqcg0","pricing_plan_id":"cebpf4jnsgd1na2vs0mg"},{"bike_id":"9cdaba2b-d2a1-484e-ba3b-1772b04cc7cb","system_id":"levelo_inurba_marseille","lat":43.317075,"lon":5.377367,"is_reserved":false,"is_disabled":false,"rental_uris":{"android":"levelo://app?vid=9cdaba2b-d2a1-484e-ba3b-1772b04cc7cb","ios":"levelo://app?vid=9cdaba2b-d2a1-484e-ba3b-1772b04cc7cb"},"vehicle_type_id":"4","last_reported":1716062877,"current_range_meters":1600,"station_id":"ce4bgth2rcd13ifvqch0","pricing_plan_id":"cebpf4jnsgd1na2vs0mg"},{"bike_id":"42b0a09d-9b16-460b-b928-2fdba0cd490b","system_id":"levelo_inurba_marseille","lat":43.307945,"lon":5.376487,"is_reserved":false,"is_disabled":false,"rental_uris":{"android":"levelo://app?vid=42b0a09d-9b16-460b-b928-2fdba0cd490b","ios":"levelo://app?vid=42b0a09d-9b16-460b-b928-2fdba0cd490b"},"vehicle_type_id":"4","last_reported":1716062877,"current_range_meters":4000,"station_id":"ce4bgv92rcd13ifvqcq0","pricing_plan_id":"cebpf4jnsgd1na2vs0mg"},{"bike_id":"5aeed2d0-a16d-415a-9642-492a9e335a6b","system_id":"levelo_inurba_marseille","lat":43.307945,"lon":5.376487,"is_reserved":false,"is_disabled":false,"rental_uris":{"android":"levelo://app?vid=5aeed2d0-a16d-415a-9642-492a9e335a6b","ios":"levelo://app?vid=5aeed2d0-a16d-415a-9642-492a9e335a6b"},"vehicle_type_id":"4","last_reported":1716062877,"current_range_meters":10400,"station_id":"ce4bgv92rcd13ifvqcq0","pricing_plan_id":"cebpf4jnsgd1na2vs0mg"},{"bike_id":"550fea13-3b63-4ea1-bd7e-e7b16745205f","system_id":"levelo_inurba_marseille","lat":43.304039,"lon":5.369061,"is_reserved":false,"is_disabled":false,"rental_uris":{"android":"levelo://app?vid=550fea13-3b63-4ea1-bd7e-e7b16745205f","ios":"levelo://app?vid=550fea13-3b63-4ea1-bd7e-e7b16745205f"},"vehicle_type_id":"4","last_reported":1716062877,"current_range_meters":1600,"station_id":"ce4bgn12rcd13ifvqbt0","pricing_plan_id":"cebpf4jnsgd1na2vs0mg"},{"bike_id":"267a96e2-280b-4dc3-b638-17a4b8921012","system_id":"levelo_inurba_marseille","lat":43.308012,"lon":5.381511,"is_reserved":false,"is_disabled":false,"rental_uris":{"android":"levelo://app?vid=267a96e2-280b-4dc3-b638-17a4b8921012","ios":"levelo://app?vid=267a96e2-280b-4dc3-b638-17a4b8921012"},"vehicle_type_id":"4","last_reported":1716062877,"current_range_meters":3200,"station_id":"ce4bgt12rcd13ifvqce0","pricing_plan_id":"cebpf4jnsgd1na2vs0mg"},{"bike_id":"db20db54-00a2-453a-9bcf-578793c3d57b","system_id":"levelo_inurba_marseille","lat":43.303046,"lon":5.368981,"is_reserved":false,"is_disabled":false,"rental_uris":{"android":"levelo://app?vid=db20db54-00a2-453a-9bcf-578793c3d57b","ios":"levelo://app?vid=db20db54-00a2-453a-9bcf-578793c3d57b"},"vehicle_type_id":"4","last_reported":1716062877,"current_range_meters":10400,"station_id":"ce4bgqh2rcd13ifvqc5g","pricing_plan_id":"cebpf4jnsgd1na2vs0mg"},{"bike_id":"242ad698-3e35-4bad-ad9e-0c95b7d6e020","system_id":"levelo_inurba_marseille","lat":43.30307,"lon":5.36894,"is_reserved":false,"is_disabled":false,"rental_uris":{"android":"levelo://app?vid=242ad698-3e35-4bad-ad9e-0c95b7d6e020","ios":"levelo://app?vid=242ad698-3e35-4bad-ad9e-0c95b7d6e020"},"vehicle_type_id":"4","last_reported":1716062877,"current_range_meters":0,"station_id":"ce4bgqh2rcd13ifvqc5g","pricing_plan_id":"cebpf4jnsgd1na2vs0mg"},{"bike_id":"f373353e-710a-40e7-913b-24aa89e59942","system_id":"levelo_inurba_marseille","lat":43.315289,"lon":5.380349,"is_reserved":false,"is_disabled":false,"rental_uris":{"android":"levelo://app?vid=f373353e-710a-40e7-913b-24aa89e59942","ios":"levelo://app?vid=f373353e-710a-40e7-913b-24aa89e59942"},"vehicle_type_id":"4","last_reported":1716062877,"current_range_meters":5200,"station_id":"ce4bhsp2rcd13ifvqi50","pricing_plan_id":"cebpf4jnsgd1na2vs0mg"},{"bike_id":"b2962b4f-1449-47c0-ab52-9c149ea0a24f","system_id":"levelo_inurba_marseille","lat":43.301939,"lon":5.366286,"is_reserved":false,"is_disabled":false,"rental_uris":{"android":"levelo://app?vid=b2962b4f-1449-47c0-ab52-9c149ea0a24f","ios":"levelo://app?vid=b2962b4f-1449-47c0-ab52-9c149ea0a24f"},"vehicle_type_id":"4","last_reported":1716062877,"current_range_meters":0,"station_id":"ce4bgrh2rcd13ifvqc8g","pricing_plan_id":"cebpf4jnsgd1na2vs0mg"},{"bike_id":"87ddfd39-0212-4e0c-bca8-aefaf7f75343","system_id":"levelo_inurba_marseille","lat":43.3018,"lon":5.36614,"is_reserved":false,"is_disabled":false,"rental_uris":{"android":"levelo://app?vid=87ddfd39-0212-4e0c-bca8-aefaf7f75343","ios":"levelo://app?vid=87ddfd39-0212-4e0c-bca8-aefaf7f75343"},"vehicle_type_id":"4","last_reported":1716062877,"current_range_meters":0,"station_id":"ce4bgrh2rcd13ifvqc8g","pricing_plan_id":"cebpf4jnsgd1na2vs0mg"},{"bike_id":"8ab2f30b-4ab5-4aaa-948e-0dbe387dd2e7","system_id":"levelo_inurba_marseille","lat":43.308012,"lon":5.381511,"is_reserved":false,"is_disabled":false,"rental_uris":{"android":"levelo://app?vid=8ab2f30b-4ab5-4aaa-948e-0dbe387dd2e7","ios":"levelo://app?vid=8ab2f30b-4ab5-4aaa-948e-0dbe387dd2e7"},"vehicle_type_id":"4","last_reported":1716062877,"current_range_meters":4800,"station_id":"ce4bgt12rcd13ifvqce0","pricing_plan_id":"cebpf4jnsgd1na2vs0mg"},{"bike_id":"ea7e4af1-898a-4dd4-b947-086237f3cebc","system_id":"levelo_inurba_marseille","lat":43.308012,"lon":5.381511,"is_reserved":false,"is_disabled":false,"rental_uris":{"android":"levelo://app?vid=ea7e4af1-898a-4dd4-b947-086237f3cebc","ios":"levelo://app?vid=ea7e4af1-898a-4dd4-b947-086237f3cebc"},"vehicle_type_id":"4","last_reported":1716062877,"current_range_meters":3200,"station_id":"ce4bgt12rcd13ifvqce0","pricing_plan_id":"cebpf4jnsgd1na2vs0mg"},{"bike_id":"63e6f3c6-b578-4820-af48-6c16ac69ac4e","system_id":"levelo_inurba_marseille","lat":43.308012,"lon":5.381511,"is_reserved":false,"is_disabled":false,"rental_uris":{"android":"levelo://app?vid=63e6f3c6-b578-4820-af48-6c16ac69ac4e","ios":"levelo://app?vid=63e6f3c6-b578-4820-af48-6c16ac69ac4e"},"vehicle_type_id":"4","last_reported":1716062877,"current_range_meters":8400,"station_id":"ce4bgt12rcd13ifvqce0","pricing_plan_id":"cebpf4jnsgd1na2vs0mg"},{"bike_id":"dd8b848a-fec7-4e28-be69-3158971bf643","system_id":"levelo_inurba_marseille","lat":43.304606,"lon":5.379026,"is_reserved":false,"is_disabled":false,"rental_uris":{"android":"levelo://app?vid=dd8b848a-fec7-4e28-be69-3158971bf643","ios":"levelo://app?vid=dd8b848a-fec7-4e28-be69-3158971bf643"},"vehicle_type_id":"4","last_reported":1716062877,"current_range_meters":0,"station_id":"ce4bgup2rcd13ifvqcn0","pricing_plan_id":"cebpf4jnsgd1na2vs0mg"},{"bike_id":"68269746-32d1-4f8d-b6a7-42646fdaf0b6","system_id":"levelo_inurba_marseille","lat":43.324771,"lon":5.36557,"is_reserved":false,"is_disabled":false,"rental_uris":{"android":"levelo://app?vid=68269746-32d1-4f8d-b6a7-42646fdaf0b6","ios":"levelo://app?vid=68269746-32d1-4f8d-b6a7-42646fdaf0b6"},"vehicle_type_id":"4","last_reported":1716062877,"current_range_meters":2000,"station_id":"ce4bhs12rcd13ifvqhvg","pricing_plan_id":"cebpf4jnsgd1na2vs0mg"},{"bike_id":"12b1aa4c-b7e3-46f0-abf2-6bc4b21382ea","system_id":"levelo_inurba_marseille","lat":43.324771,"lon":5.36557,"is_reserved":false,"is_disabled":false,"rental_uris":{"android":"levelo://app?vid=12b1aa4c-b7e3-46f0-abf2-6bc4b21382ea","ios":"levelo://app?vid=12b1aa4c-b7e3-46f0-abf2-6bc4b21382ea"},"vehicle_type_id":"4","last_reported":1716062877,"current_range_meters":5200,"station_id":"ce4bhs12rcd13ifvqhvg","pricing_plan_id":"cebpf4jnsgd1na2vs0mg"},{"bike_id":"e2c798d6-0783-401b-b632-e4a3e6db8597","system_id":"levelo_inurba_marseille","lat":43.324771,"lon":5.36557,"is_reserved":false,"is_disabled":false,"rental_uris":{"android":"levelo://app?vid=e2c798d6-0783-401b-b632-e4a3e6db8597","ios":"levelo://app?vid=e2c798d6-0783-401b-b632-e4a3e6db8597"},"vehicle_type_id":"4","last_reported":1716062877,"current_range_meters":800,"station_id":"ce4bhs12rcd13ifvqhvg","pricing_plan_id":"cebpf4jnsgd1na2vs0mg"},{"bike_id":"503ee338-7788-4dac-a80b-af572723ce67","system_id":"levelo_inurba_marseille","lat":43.310804,"lon":5.38359,"is_reserved":false,"is_disabled":false,"rental_uris":{"android":"levelo://app?vid=503ee338-7788-4dac-a80b-af572723ce67","ios":"levelo://app?vid=503ee338-7788-4dac-a80b-af572723ce67"},"vehicle_type_id":"4","last_reported":1716062877,"current_range_meters":0,"station_id":"ce4bgv92rcd13ifvqcr0","pricing_plan_id":"cebpf4jnsgd1na2vs0mg"},{"bike_id":"991337a9-30bd-401a-809e-4776b8ed946c","system_id":"levelo_inurba_marseille","lat":43.310804,"lon":5.38359,"is_reserved":false,"is_disabled":false,"rental_uris":{"android":"levelo://app?vid=991337a9-30bd-401a-809e-4776b8ed946c","ios":"levelo://app?vid=991337a9-30bd-401a-809e-4776b8ed946c"},"vehicle_type_id":"4","last_reported":1716062877,"current_range_meters":10800,"station_id":"ce4bgv92rcd13ifvqcr0","pricing_plan_id":"cebpf4jnsgd1na2vs0mg"},{"bike_id":"4e9fbe65-ebb5-4826-86e3-5845c48f289f","system_id":"levelo_inurba_marseille","lat":43.320062,"lon":5.38051,"is_reserved":false,"is_disabled":false,"rental_uris":{"android":"levelo://app?vid=4e9fbe65-ebb5-4826-86e3-5845c48f289f","ios":"levelo://app?vid=4e9fbe65-ebb5-4826-86e3-5845c48f289f"},"vehicle_type_id":"4","last_reported":1716062877,"current_range_meters":4000,"station_id":"","pricing_plan_id":"cebpf4jnsgd1na2vs0mg"},{"bike_id":"9be825b0-b800-4a25-8903-8e0643e34e5c","system_id":"levelo_inurba_marseille","lat":43.301429,"lon":5.37413,"is_reserved":false,"is_disabled":false,"rental_uris":{"android":"levelo://app?vid=9be825b0-b800-4a25-8903-8e0643e34e5c","ios":"levelo://app?vid=9be825b0-b800-4a25-8903-8e0643e34e5c"},"vehicle_type_id":"4","last_reported":1716062877,"current_range_meters":3600,"station_id":"ce4bgs92rcd13ifvqcc0","pricing_plan_id":"cebpf4jnsgd1na2vs0mg"},{"bike_id":"4b9c326d-8b2b-4c65-b4e3-832eb6081e45","system_id":"levelo_inurba_marseille","lat":43.298433,"lon":5.362774,"is_reserved":false,"is_disabled":false,"rental_uris":{"android":"levelo://app?vid=4b9c326d-8b2b-4c65-b4e3-832eb6081e45","ios":"levelo://app?vid=4b9c326d-8b2b-4c65-b4e3-832eb6081e45"},"vehicle_type_id":"4","last_reported":1716062877,"current_range_meters":9200,"station_id":"ce4bgpp2rcd13ifvqc3g","pricing_plan_id":"cebpf4jnsgd1na2vs0mg"},{"bike_id":"7a7342ab-1e62-4537-a783-8d74e1075c24","system_id":"levelo_inurba_marseille","lat":43.30143,"lon":5.37413,"is_reserved":false,"is_disabled":false,"rental_uris":{"android":"levelo://app?vid=7a7342ab-1e62-4537-a783-8d74e1075c24","ios":"levelo://app?vid=7a7342ab-1e62-4537-a783-8d74e1075c24"},"vehicle_type_id":"4","last_reported":1716062877,"current_range_meters":8400,"station_id":"ce4bgs92rcd13ifvqcc0","pricing_plan_id":"cebpf4jnsgd1na2vs0mg"},{"bike_id":"892c2c1d-5f6c-4aab-8d33-80f5771c25a5","system_id":"levelo_inurba_marseille","lat":43.319935,"lon":5.381699,"is_reserved":false,"is_disabled":false,"rental_uris":{"android":"levelo://app?vid=892c2c1d-5f6c-4aab-8d33-80f5771c25a5","ios":"levelo://app?vid=892c2c1d-5f6c-4aab-8d33-80f5771c25a5"},"vehicle_type_id":"4","last_reported":1716062877,"current_range_meters":0,"station_id":"ce4bhr12rcd13ifvqhpg","pricing_plan_id":"cebpf4jnsgd1na2vs0mg"},{"bike_id":"a3d31cf4-3270-4b41-8486-5202157b58a9","system_id":"levelo_inurba_marseille","lat":43.299724,"lon":5.371829,"is_reserved":false,"is_disabled":false,"rental_uris":{"android":"levelo://app?vid=a3d31cf4-3270-4b41-8486-5202157b58a9","ios":"levelo://app?vid=a3d31cf4-3270-4b41-8486-5202157b58a9"},"vehicle_type_id":"4","last_reported":1716062877,"current_range_meters":3600,"station_id":"ce4bgr92rcd13ifvqc7g","pricing_plan_id":"cebpf4jnsgd1na2vs0mg"},{"bike_id":"4e613003-0819-43ab-bd06-fe89b743642c","system_id":"levelo_inurba_marseille","lat":43.313674,"lon":5.384876,"is_reserved":false,"is_disabled":false,"rental_uris":{"android":"levelo://app?vid=4e613003-0819-43ab-bd06-fe89b743642c","ios":"levelo://app?vid=4e613003-0819-43ab-bd06-fe89b743642c"},"vehicle_type_id":"4","last_reported":1716062877,"current_range_meters":2800,"station_id":"ce4bgt92rcd13ifvqcf0","pricing_plan_id":"cebpf4jnsgd1na2vs0mg"},{"bike_id":"7fc9be20-2ab5-46e4-9b54-1e823b2db974","system_id":"levelo_inurba_marseille","lat":43.313596,"lon":5.384918,"is_reserved":false,"is_disabled":false,"rental_uris":{"android":"levelo://app?vid=7fc9be20-2ab5-46e4-9b54-1e823b2db974","ios":"levelo://app?vid=7fc9be20-2ab5-46e4-9b54-1e823b2db974"},"vehicle_type_id":"4","last_reported":1716062877,"current_range_meters":2000,"station_id":"ce4bgt92rcd13ifvqcf0","pricing_plan_id":"cebpf4jnsgd1na2vs0mg"},{"bike_id":"951051e6-d5a1-46db-93f4-ca1f7de33b66","system_id":"levelo_inurba_marseille","lat":43.31365,"lon":5.38492,"is_reserved":false,"is_disabled":false,"rental_uris":{"android":"levelo://app?vid=951051e6-d5a1-46db-93f4-ca1f7de33b66","ios":"levelo://app?vid=951051e6-d5a1-46db-93f4-ca1f7de33b66"},"vehicle_type_id":"4","last_reported":1716062877,"current_range_meters":21600,"station_id":"ce4bgt92rcd13ifvqcf0","pricing_plan_id":"cebpf4jnsgd1na2vs0mg"},{"bike_id":"9743ca2c-32be-4501-9025-fb9d5eb73cf3","system_id":"levelo_inurba_marseille","lat":43.31366,"lon":5.38494,"is_reserved":false,"is_disabled":false,"rental_uris":{"android":"levelo://app?vid=9743ca2c-32be-4501-9025-fb9d5eb73cf3","ios":"levelo://app?vid=9743ca2c-32be-4501-9025-fb9d5eb73cf3"},"vehicle_type_id":"4","last_reported":1716062877,"current_range_meters":0,"station_id":"ce4bgt92rcd13ifvqcf0","pricing_plan_id":"cebpf4jnsgd1na2vs0mg"},{"bike_id":"67d2e85e-96f8-4552-a20e-4649cd877479","system_id":"levelo_inurba_marseille","lat":43.310804,"lon":5.38359,"is_reserved":false,"is_disabled":false,"rental_uris":{"android":"levelo://app?vid=67d2e85e-96f8-4552-a20e-4649cd877479","ios":"levelo://app?vid=67d2e85e-96f8-4552-a20e-4649cd877479"},"vehicle_type_id":"4","last_reported":1716062877,"current_range_meters":25600,"station_id":"ce4bgv92rcd13ifvqcr0","pricing_plan_id":"cebpf4jnsgd1na2vs0mg"},{"bike_id":"bde13806-e952-4e9b-a7d6-55773036b758","system_id":"levelo_inurba_marseille","lat":43.313571,"lon":5.384829,"is_reserved":false,"is_disabled":false,"rental_uris":{"android":"levelo://app?vid=bde13806-e952-4e9b-a7d6-55773036b758","ios":"levelo://app?vid=bde13806-e952-4e9b-a7d6-55773036b758"},"vehicle_type_id":"4","last_reported":1716062877,"current_range_meters":30000,"station_id":"ce4bgt92rcd13ifvqcf0","pricing_plan_id":"cebpf4jnsgd1na2vs0mg"},{"bike_id":"b63523ce-1e3e-43cd-98aa-db78739018e7","system_id":"levelo_inurba_marseille","lat":43.313669,"lon":5.384972,"is_reserved":false,"is_disabled":false,"rental_uris":{"android":"levelo://app?vid=b63523ce-1e3e-43cd-98aa-db78739018e7","ios":"levelo://app?vid=b63523ce-1e3e-43cd-98aa-db78739018e7"},"vehicle_type_id":"4","last_reported":1716062877,"current_range_meters":800,"station_id":"ce4bgt92rcd13ifvqcf0","pricing_plan_id":"cebpf4jnsgd1na2vs0mg"},{"bike_id":"f704b525-ce20-4003-a92d-beba5a58a4de","system_id":"levelo_inurba_marseille","lat":43.313571,"lon":5.384829,"is_reserved":false,"is_disabled":false,"rental_uris":{"android":"levelo://app?vid=f704b525-ce20-4003-a92d-beba5a58a4de","ios":"levelo://app?vid=f704b525-ce20-4003-a92d-beba5a58a4de"},"vehicle_type_id":"4","last_reported":1716062877,"current_range_meters":18400,"station_id":"ce4bgt92rcd13ifvqcf0","pricing_plan_id":"cebpf4jnsgd1na2vs0mg"},{"bike_id":"68e7416c-2135-4729-a504-3429f03fef8f","system_id":"levelo_inurba_marseille","lat":43.31354,"lon":5.38502,"is_reserved":false,"is_disabled":false,"rental_uris":{"android":"levelo://app?vid=68e7416c-2135-4729-a504-3429f03fef8f","ios":"levelo://app?vid=68e7416c-2135-4729-a504-3429f03fef8f"},"vehicle_type_id":"4","last_reported":1716062877,"current_range_meters":19600,"station_id":"ce4bgt92rcd13ifvqcf0","pricing_plan_id":"cebpf4jnsgd1na2vs0mg"},{"bike_id":"7f9d684e-199d-4899-965e-666ec0f6a8e9","system_id":"levelo_inurba_marseille","lat":43.313236,"lon":5.38511,"is_reserved":false,"is_disabled":false,"rental_uris":{"android":"levelo://app?vid=7f9d684e-199d-4899-965e-666ec0f6a8e9","ios":"levelo://app?vid=7f9d684e-199d-4899-965e-666ec0f6a8e9"},"vehicle_type_id":"4","last_reported":1716062877,"current_range_meters":13600,"station_id":"ce4bgt92rcd13ifvqcf0","pricing_plan_id":"cebpf4jnsgd1na2vs0mg"},{"bike_id":"9cc484a8-2e20-4ebb-bd2f-3855ca4c03ef","system_id":"levelo_inurba_marseille","lat":43.299222,"lon":5.365554,"is_reserved":false,"is_disabled":false,"rental_uris":{"android":"levelo://app?vid=9cc484a8-2e20-4ebb-bd2f-3855ca4c03ef","ios":"levelo://app?vid=9cc484a8-2e20-4ebb-bd2f-3855ca4c03ef"},"vehicle_type_id":"4","last_reported":1716062877,"current_range_meters":3200,"station_id":"ce4bgm92rcd13ifvqbr0","pricing_plan_id":"cebpf4jnsgd1na2vs0mg"},{"bike_id":"3847eba4-e519-4e3a-9589-0d4f63c752db","system_id":"levelo_inurba_marseille","lat":43.299222,"lon":5.365554,"is_reserved":false,"is_disabled":false,"rental_uris":{"android":"levelo://app?vid=3847eba4-e519-4e3a-9589-0d4f63c752db","ios":"levelo://app?vid=3847eba4-e519-4e3a-9589-0d4f63c752db"},"vehicle_type_id":"4","last_reported":1716062877,"current_range_meters":12800,"station_id":"ce4bgm92rcd13ifvqbr0","pricing_plan_id":"cebpf4jnsgd1na2vs0mg"},{"bike_id":"c0e7da87-2a79-4242-8743-86cc17993f73","system_id":"levelo_inurba_marseille","lat":43.299724,"lon":5.371829,"is_reserved":false,"is_disabled":false,"rental_uris":{"android":"levelo://app?vid=c0e7da87-2a79-4242-8743-86cc17993f73","ios":"levelo://app?vid=c0e7da87-2a79-4242-8743-86cc17993f73"},"vehicle_type_id":"4","last_reported":1716062877,"current_range_meters":2400,"station_id":"ce4bgr92rcd13ifvqc7g","pricing_plan_id":"cebpf4jnsgd1na2vs0mg"},{"bike_id":"cc9ae6ab-edcb-4abb-87f2-6ac36d7724ca","system_id":"levelo_inurba_marseille","lat":43.299605,"lon":5.371753,"is_reserved":false,"is_disabled":false,"rental_uris":{"android":"levelo://app?vid=cc9ae6ab-edcb-4abb-87f2-6ac36d7724ca","ios":"levelo://app?vid=cc9ae6ab-edcb-4abb-87f2-6ac36d7724ca"},"vehicle_type_id":"4","last_reported":1716062877,"current_range_meters":5200,"station_id":"ce4bgr92rcd13ifvqc7g","pricing_plan_id":"cebpf4jnsgd1na2vs0mg"},{"bike_id":"9d2f6549-adfb-476b-bab2-c3870fc9531a","system_id":"levelo_inurba_marseille","lat":43.299243,"lon":5.37481,"is_reserved":false,"is_disabled":false,"rental_uris":{"android":"levelo://app?vid=9d2f6549-adfb-476b-bab2-c3870fc9531a","ios":"levelo://app?vid=9d2f6549-adfb-476b-bab2-c3870fc9531a"},"vehicle_type_id":"4","last_reported":1716062877,"current_range_meters":7600,"station_id":"ce4bgjh2rcd13ifvqbg0","pricing_plan_id":"cebpf4jnsgd1na2vs0mg"},{"bike_id":"3af47134-89b5-436d-b23b-5f4868c9fbac","system_id":"levelo_inurba_marseille","lat":43.298544,"lon":5.362882,"is_reserved":false,"is_disabled":false,"rental_uris":{"android":"levelo://app?vid=3af47134-89b5-436d-b23b-5f4868c9fbac","ios":"levelo://app?vid=3af47134-89b5-436d-b23b-5f4868c9fbac"},"vehicle_type_id":"4","last_reported":1716062877,"current_range_meters":6000,"station_id":"ce4bgpp2rcd13ifvqc3g","pricing_plan_id":"cebpf4jnsgd1na2vs0mg"},{"bike_id":"738ef9db-492b-4990-a551-8c78c177f938","system_id":"levelo_inurba_marseille","lat":43.298433,"lon":5.362774,"is_reserved":false,"is_disabled":false,"rental_uris":{"android":"levelo://app?vid=738ef9db-492b-4990-a551-8c78c177f938","ios":"levelo://app?vid=738ef9db-492b-4990-a551-8c78c177f938"},"vehicle_type_id":"4","last_reported":1716062877,"current_range_meters":400,"station_id":"ce4bgpp2rcd13ifvqc3g","pricing_plan_id":"cebpf4jnsgd1na2vs0mg"},{"bike_id":"1cb4f9d7-a416-4527-bf4a-53e530519e43","system_id":"levelo_inurba_marseille","lat":43.29851,"lon":5.3629,"is_reserved":false,"is_disabled":false,"rental_uris":{"android":"levelo://app?vid=1cb4f9d7-a416-4527-bf4a-53e530519e43","ios":"levelo://app?vid=1cb4f9d7-a416-4527-bf4a-53e530519e43"},"vehicle_type_id":"4","last_reported":1716062877,"current_range_meters":10800,"station_id":"ce4bgpp2rcd13ifvqc3g","pricing_plan_id":"cebpf4jnsgd1na2vs0mg"},{"bike_id":"4d8bb607-95e5-4c4a-a80c-fc1b419e20c1","system_id":"levelo_inurba_marseille","lat":43.298433,"lon":5.362774,"is_reserved":false,"is_disabled":false,"rental_uris":{"android":"levelo://app?vid=4d8bb607-95e5-4c4a-a80c-fc1b419e20c1","ios":"levelo://app?vid=4d8bb607-95e5-4c4a-a80c-fc1b419e20c1"},"vehicle_type_id":"4","last_reported":1716062877,"current_range_meters":18000,"station_id":"ce4bgpp2rcd13ifvqc3g","pricing_plan_id":"cebpf4jnsgd1na2vs0mg"},{"bike_id":"19c5eb1f-2680-4df9-8094-7df807e10e77","system_id":"levelo_inurba_marseille","lat":43.298433,"lon":5.362774,"is_reserved":false,"is_disabled":false,"rental_uris":{"android":"levelo://app?vid=19c5eb1f-2680-4df9-8094-7df807e10e77","ios":"levelo://app?vid=19c5eb1f-2680-4df9-8094-7df807e10e77"},"vehicle_type_id":"4","last_reported":1716062877,"current_range_meters":18000,"station_id":"ce4bgpp2rcd13ifvqc3g","pricing_plan_id":"cebpf4jnsgd1na2vs0mg"},{"bike_id":"6e8d7869-1695-48bf-ba4e-cb7f546b56f4","system_id":"levelo_inurba_marseille","lat":43.298433,"lon":5.362774,"is_reserved":false,"is_disabled":false,"rental_uris":{"android":"levelo://app?vid=6e8d7869-1695-48bf-ba4e-cb7f546b56f4","ios":"levelo://app?vid=6e8d7869-1695-48bf-ba4e-cb7f546b56f4"},"vehicle_type_id":"4","last_reported":1716062877,"current_range_meters":2000,"station_id":"ce4bgpp2rcd13ifvqc3g","pricing_plan_id":"cebpf4jnsgd1na2vs0mg"},{"bike_id":"52fb5eeb-61bd-42c8-9011-a1bede28b25f","system_id":"levelo_inurba_marseille","lat":43.298433,"lon":5.362774,"is_reserved":false,"is_disabled":false,"rental_uris":{"android":"levelo://app?vid=52fb5eeb-61bd-42c8-9011-a1bede28b25f","ios":"levelo://app?vid=52fb5eeb-61bd-42c8-9011-a1bede28b25f"},"vehicle_type_id":"4","last_reported":1716062877,"current_range_meters":3600,"station_id":"ce4bgpp2rcd13ifvqc3g","pricing_plan_id":"cebpf4jnsgd1na2vs0mg"},{"bike_id":"472b0686-6d99-4b7e-8d3d-82107c772374","system_id":"levelo_inurba_marseille","lat":43.298433,"lon":5.362774,"is_reserved":false,"is_disabled":false,"rental_uris":{"android":"levelo://app?vid=472b0686-6d99-4b7e-8d3d-82107c772374","ios":"levelo://app?vid=472b0686-6d99-4b7e-8d3d-82107c772374"},"vehicle_type_id":"4","last_reported":1716062877,"current_range_meters":0,"station_id":"ce4bgpp2rcd13ifvqc3g","pricing_plan_id":"cebpf4jnsgd1na2vs0mg"},{"bike_id":"8ca74349-196f-474d-b02d-423a398a3ab1","system_id":"levelo_inurba_marseille","lat":43.298433,"lon":5.362774,"is_reserved":false,"is_disabled":false,"rental_uris":{"android":"levelo://app?vid=8ca74349-196f-474d-b02d-423a398a3ab1","ios":"levelo://app?vid=8ca74349-196f-474d-b02d-423a398a3ab1"},"vehicle_type_id":"4","last_reported":1716062877,"current_range_meters":18800,"station_id":"ce4bgpp2rcd13ifvqc3g","pricing_plan_id":"cebpf4jnsgd1na2vs0mg"},{"bike_id":"61f93ee8-16ca-4257-8088-14143bc16219","system_id":"levelo_inurba_marseille","lat":43.298433,"lon":5.362774,"is_reserved":false,"is_disabled":false,"rental_uris":{"android":"levelo://app?vid=61f93ee8-16ca-4257-8088-14143bc16219","ios":"levelo://app?vid=61f93ee8-16ca-4257-8088-14143bc16219"},"vehicle_type_id":"4","last_reported":1716062877,"current_range_meters":13200,"station_id":"ce4bgpp2rcd13ifvqc3g","pricing_plan_id":"cebpf4jnsgd1na2vs0mg"},{"bike_id":"e67a967f-4e32-40c9-94a3-1623f046992f","system_id":"levelo_inurba_marseille","lat":43.298433,"lon":5.362774,"is_reserved":false,"is_disabled":false,"rental_uris":{"android":"levelo://app?vid=e67a967f-4e32-40c9-94a3-1623f046992f","ios":"levelo://app?vid=e67a967f-4e32-40c9-94a3-1623f046992f"},"vehicle_type_id":"4","last_reported":1716062877,"current_range_meters":9600,"station_id":"ce4bgpp2rcd13ifvqc3g","pricing_plan_id":"cebpf4jnsgd1na2vs0mg"},{"bike_id":"94c5c8f3-7262-40bd-8531-d26294ee3d41","system_id":"levelo_inurba_marseille","lat":43.298433,"lon":5.362774,"is_reserved":false,"is_disabled":false,"rental_uris":{"android":"levelo://app?vid=94c5c8f3-7262-40bd-8531-d26294ee3d41","ios":"levelo://app?vid=94c5c8f3-7262-40bd-8531-d26294ee3d41"},"vehicle_type_id":"4","last_reported":1716062877,"current_range_meters":6400,"station_id":"ce4bgpp2rcd13ifvqc3g","pricing_plan_id":"cebpf4jnsgd1na2vs0mg"},{"bike_id":"ae6fdd42-ecaf-4711-82f3-7fe485a9a42b","system_id":"levelo_inurba_marseille","lat":43.298433,"lon":5.362774,"is_reserved":false,"is_disabled":false,"rental_uris":{"android":"levelo://app?vid=ae6fdd42-ecaf-4711-82f3-7fe485a9a42b","ios":"levelo://app?vid=ae6fdd42-ecaf-4711-82f3-7fe485a9a42b"},"vehicle_type_id":"4","last_reported":1716062877,"current_range_meters":15600,"station_id":"ce4bgpp2rcd13ifvqc3g","pricing_plan_id":"cebpf4jnsgd1na2vs0mg"},{"bike_id":"36d62673-2070-4a13-9f0d-66859f404841","system_id":"levelo_inurba_marseille","lat":43.298433,"lon":5.362774,"is_reserved":false,"is_disabled":false,"rental_uris":{"android":"levelo://app?vid=36d62673-2070-4a13-9f0d-66859f404841","ios":"levelo://app?vid=36d62673-2070-4a13-9f0d-66859f404841"},"vehicle_type_id":"4","last_reported":1716062877,"current_range_meters":27200,"station_id":"ce4bgpp2rcd13ifvqc3g","pricing_plan_id":"cebpf4jnsgd1na2vs0mg"},{"bike_id":"88deda37-f446-4ef0-be19-f4238650326e","system_id":"levelo_inurba_marseille","lat":43.29844,"lon":5.3627,"is_reserved":false,"is_disabled":false,"rental_uris":{"android":"levelo://app?vid=88deda37-f446-4ef0-be19-f4238650326e","ios":"levelo://app?vid=88deda37-f446-4ef0-be19-f4238650326e"},"vehicle_type_id":"4","last_reported":1716062877,"current_range_meters":4800,"station_id":"ce4bgpp2rcd13ifvqc3g","pricing_plan_id":"cebpf4jnsgd1na2vs0mg"},{"bike_id":"a9b8f7d5-a61d-42eb-bcd5-d9ba9ef1e5d0","system_id":"levelo_inurba_marseille","lat":43.29843,"lon":5.36269,"is_reserved":false,"is_disabled":false,"rental_uris":{"android":"levelo://app?vid=a9b8f7d5-a61d-42eb-bcd5-d9ba9ef1e5d0","ios":"levelo://app?vid=a9b8f7d5-a61d-42eb-bcd5-d9ba9ef1e5d0"},"vehicle_type_id":"4","last_reported":1716062877,"current_range_meters":14800,"station_id":"ce4bgpp2rcd13ifvqc3g","pricing_plan_id":"cebpf4jnsgd1na2vs0mg"},{"bike_id":"8622cc66-0285-486b-b236-af334e8c7de9","system_id":"levelo_inurba_marseille","lat":43.30536,"lon":5.3843,"is_reserved":false,"is_disabled":false,"rental_uris":{"android":"levelo://app?vid=8622cc66-0285-486b-b236-af334e8c7de9","ios":"levelo://app?vid=8622cc66-0285-486b-b236-af334e8c7de9"},"vehicle_type_id":"4","last_reported":1716062877,"current_range_meters":0,"station_id":"ce4bgg92rcd13ifvqb30","pricing_plan_id":"cebpf4jnsgd1na2vs0mg"},{"bike_id":"6535a8f7-8681-4a3a-8135-179ff6932fdf","system_id":"levelo_inurba_marseille","lat":43.298433,"lon":5.362774,"is_reserved":false,"is_disabled":false,"rental_uris":{"android":"levelo://app?vid=6535a8f7-8681-4a3a-8135-179ff6932fdf","ios":"levelo://app?vid=6535a8f7-8681-4a3a-8135-179ff6932fdf"},"vehicle_type_id":"4","last_reported":1716062877,"current_range_meters":21200,"station_id":"ce4bgpp2rcd13ifvqc3g","pricing_plan_id":"cebpf4jnsgd1na2vs0mg"},{"bike_id":"446c0da4-3db5-48ac-84e9-5a41c5d89e09","system_id":"levelo_inurba_marseille","lat":43.29841,"lon":5.36267,"is_reserved":false,"is_disabled":false,"rental_uris":{"android":"levelo://app?vid=446c0da4-3db5-48ac-84e9-5a41c5d89e09","ios":"levelo://app?vid=446c0da4-3db5-48ac-84e9-5a41c5d89e09"},"vehicle_type_id":"4","last_reported":1716062877,"current_range_meters":18000,"station_id":"ce4bgpp2rcd13ifvqc3g","pricing_plan_id":"cebpf4jnsgd1na2vs0mg"},{"bike_id":"0664edfc-12f1-446b-a344-d5b7512dfae8","system_id":"levelo_inurba_marseille","lat":43.29841,"lon":5.36266,"is_reserved":false,"is_disabled":false,"rental_uris":{"android":"levelo://app?vid=0664edfc-12f1-446b-a344-d5b7512dfae8","ios":"levelo://app?vid=0664edfc-12f1-446b-a344-d5b7512dfae8"},"vehicle_type_id":"4","last_reported":1716062877,"current_range_meters":9600,"station_id":"ce4bgpp2rcd13ifvqc3g","pricing_plan_id":"cebpf4jnsgd1na2vs0mg"},{"bike_id":"84ac9f71-ec4f-4931-b647-5fbcfe10ea61","system_id":"levelo_inurba_marseille","lat":43.299243,"lon":5.37481,"is_reserved":false,"is_disabled":false,"rental_uris":{"android":"levelo://app?vid=84ac9f71-ec4f-4931-b647-5fbcfe10ea61","ios":"levelo://app?vid=84ac9f71-ec4f-4931-b647-5fbcfe10ea61"},"vehicle_type_id":"4","last_reported":1716062877,"current_range_meters":0,"station_id":"ce4bgjh2rcd13ifvqbg0","pricing_plan_id":"cebpf4jnsgd1na2vs0mg"},{"bike_id":"edf28acc-acad-449c-937b-7da9b8c3932f","system_id":"levelo_inurba_marseille","lat":43.298433,"lon":5.362774,"is_reserved":false,"is_disabled":false,"rental_uris":{"android":"levelo://app?vid=edf28acc-acad-449c-937b-7da9b8c3932f","ios":"levelo://app?vid=edf28acc-acad-449c-937b-7da9b8c3932f"},"vehicle_type_id":"4","last_reported":1716062877,"current_range_meters":400,"station_id":"ce4bgpp2rcd13ifvqc3g","pricing_plan_id":"cebpf4jnsgd1na2vs0mg"},{"bike_id":"d6d0f22c-2f8e-4e7e-baa7-87b7f9c8df68","system_id":"levelo_inurba_marseille","lat":43.299243,"lon":5.37481,"is_reserved":false,"is_disabled":false,"rental_uris":{"android":"levelo://app?vid=d6d0f22c-2f8e-4e7e-baa7-87b7f9c8df68","ios":"levelo://app?vid=d6d0f22c-2f8e-4e7e-baa7-87b7f9c8df68"},"vehicle_type_id":"4","last_reported":1716062877,"current_range_meters":0,"station_id":"ce4bgjh2rcd13ifvqbg0","pricing_plan_id":"cebpf4jnsgd1na2vs0mg"},{"bike_id":"031de016-df4c-450e-acef-83593e990499","system_id":"levelo_inurba_marseille","lat":43.299243,"lon":5.374807,"is_reserved":false,"is_disabled":false,"rental_uris":{"android":"levelo://app?vid=031de016-df4c-450e-acef-83593e990499","ios":"levelo://app?vid=031de016-df4c-450e-acef-83593e990499"},"vehicle_type_id":"4","last_reported":1716062877,"current_range_meters":12400,"station_id":"ce4bgjh2rcd13ifvqbg0","pricing_plan_id":"cebpf4jnsgd1na2vs0mg"},{"bike_id":"6d900b36-a738-4254-ad6f-b784819780a9","system_id":"levelo_inurba_marseille","lat":43.298296,"lon":5.362875,"is_reserved":false,"is_disabled":false,"rental_uris":{"android":"levelo://app?vid=6d900b36-a738-4254-ad6f-b784819780a9","ios":"levelo://app?vid=6d900b36-a738-4254-ad6f-b784819780a9"},"vehicle_type_id":"4","last_reported":1716062877,"current_range_meters":12800,"station_id":"ce4bgpp2rcd13ifvqc3g","pricing_plan_id":"cebpf4jnsgd1na2vs0mg"},{"bike_id":"61d56cdb-cd6b-4b3a-8534-d61dd7fc9a8f","system_id":"levelo_inurba_marseille","lat":43.302556,"lon":5.381666,"is_reserved":false,"is_disabled":false,"rental_uris":{"android":"levelo://app?vid=61d56cdb-cd6b-4b3a-8534-d61dd7fc9a8f","ios":"levelo://app?vid=61d56cdb-cd6b-4b3a-8534-d61dd7fc9a8f"},"vehicle_type_id":"4","last_reported":1716062877,"current_range_meters":7600,"station_id":"","pricing_plan_id":"cebpf4jnsgd1na2vs0mg"},{"bike_id":"ca3314ca-4d94-4f44-8139-9aebf92c35ad","system_id":"levelo_inurba_marseille","lat":43.311722,"lon":5.387247,"is_reserved":false,"is_disabled":false,"rental_uris":{"android":"levelo://app?vid=ca3314ca-4d94-4f44-8139-9aebf92c35ad","ios":"levelo://app?vid=ca3314ca-4d94-4f44-8139-9aebf92c35ad"},"vehicle_type_id":"4","last_reported":1716062877,"current_range_meters":16000,"station_id":"ce4bgv12rcd13ifvqcp0","pricing_plan_id":"cebpf4jnsgd1na2vs0mg"},{"bike_id":"b8b55f30-3f37-4408-b470-0d479a49dd0f","system_id":"levelo_inurba_marseille","lat":43.311707,"lon":5.387239,"is_reserved":false,"is_disabled":false,"rental_uris":{"android":"levelo://app?vid=b8b55f30-3f37-4408-b470-0d479a49dd0f","ios":"levelo://app?vid=b8b55f30-3f37-4408-b470-0d479a49dd0f"},"vehicle_type_id":"4","last_reported":1716062877,"current_range_meters":0,"station_id":"ce4bgv12rcd13ifvqcp0","pricing_plan_id":"cebpf4jnsgd1na2vs0mg"},{"bike_id":"81995895-ecb0-4dec-8437-06727e6a225a","system_id":"levelo_inurba_marseille","lat":43.299243,"lon":5.374807,"is_reserved":false,"is_disabled":false,"rental_uris":{"android":"levelo://app?vid=81995895-ecb0-4dec-8437-06727e6a225a","ios":"levelo://app?vid=81995895-ecb0-4dec-8437-06727e6a225a"},"vehicle_type_id":"4","last_reported":1716062877,"current_range_meters":5200,"station_id":"ce4bgjh2rcd13ifvqbg0","pricing_plan_id":"cebpf4jnsgd1na2vs0mg"},{"bike_id":"934de14a-53e3-4841-87d0-3e6a2af3911f","system_id":"levelo_inurba_marseille","lat":43.298433,"lon":5.362774,"is_reserved":false,"is_disabled":false,"rental_uris":{"android":"levelo://app?vid=934de14a-53e3-4841-87d0-3e6a2af3911f","ios":"levelo://app?vid=934de14a-53e3-4841-87d0-3e6a2af3911f"},"vehicle_type_id":"4","last_reported":1716062877,"current_range_meters":4000,"station_id":"ce4bgpp2rcd13ifvqc3g","pricing_plan_id":"cebpf4jnsgd1na2vs0mg"},{"bike_id":"606f8b43-6510-48b6-88b9-5dbbe1c44b2c","system_id":"levelo_inurba_marseille","lat":43.30223,"lon":5.38173,"is_reserved":false,"is_disabled":false,"rental_uris":{"android":"levelo://app?vid=606f8b43-6510-48b6-88b9-5dbbe1c44b2c","ios":"levelo://app?vid=606f8b43-6510-48b6-88b9-5dbbe1c44b2c"},"vehicle_type_id":"4","last_reported":1716062877,"current_range_meters":20400,"station_id":"","pricing_plan_id":"cebpf4jnsgd1na2vs0mg"},{"bike_id":"f8b90456-eef2-4160-9ee6-6e9a97bcbc28","system_id":"levelo_inurba_marseille","lat":43.299243,"lon":5.374807,"is_reserved":false,"is_disabled":false,"rental_uris":{"android":"levelo://app?vid=f8b90456-eef2-4160-9ee6-6e9a97bcbc28","ios":"levelo://app?vid=f8b90456-eef2-4160-9ee6-6e9a97bcbc28"},"vehicle_type_id":"4","last_reported":1716062877,"current_range_meters":6800,"station_id":"ce4bgjh2rcd13ifvqbg0","pricing_plan_id":"cebpf4jnsgd1na2vs0mg"},{"bike_id":"a78c0371-18a7-4609-8a16-1a99a180568a","system_id":"levelo_inurba_marseille","lat":43.297794,"lon":5.370888,"is_reserved":false,"is_disabled":false,"rental_uris":{"android":"levelo://app?vid=a78c0371-18a7-4609-8a16-1a99a180568a","ios":"levelo://app?vid=a78c0371-18a7-4609-8a16-1a99a180568a"},"vehicle_type_id":"4","last_reported":1716062877,"current_range_meters":30400,"station_id":"ce4bgop2rcd13ifvqc1g","pricing_plan_id":"cebpf4jnsgd1na2vs0mg"},{"bike_id":"b22379ec-8777-4dcd-8c0e-9642bdad8cfd","system_id":"levelo_inurba_marseille","lat":43.297774,"lon":5.370875,"is_reserved":false,"is_disabled":false,"rental_uris":{"android":"levelo://app?vid=b22379ec-8777-4dcd-8c0e-9642bdad8cfd","ios":"levelo://app?vid=b22379ec-8777-4dcd-8c0e-9642bdad8cfd"},"vehicle_type_id":"4","last_reported":1716062877,"current_range_meters":31200,"station_id":"ce4bgop2rcd13ifvqc1g","pricing_plan_id":"cebpf4jnsgd1na2vs0mg"},{"bike_id":"8409f9f9-5637-43bd-a6a6-ad78ca54e59a","system_id":"levelo_inurba_marseille","lat":43.322859,"lon":5.382644,"is_reserved":false,"is_disabled":false,"rental_uris":{"android":"levelo://app?vid=8409f9f9-5637-43bd-a6a6-ad78ca54e59a","ios":"levelo://app?vid=8409f9f9-5637-43bd-a6a6-ad78ca54e59a"},"vehicle_type_id":"4","last_reported":1716062877,"current_range_meters":3600,"station_id":"ce4bhr12rcd13ifvqhqg","pricing_plan_id":"cebpf4jnsgd1na2vs0mg"},{"bike_id":"4e35fd5a-bc46-4277-a317-bb300e602173","system_id":"levelo_inurba_marseille","lat":43.322974,"lon":5.382544,"is_reserved":false,"is_disabled":false,"rental_uris":{"android":"levelo://app?vid=4e35fd5a-bc46-4277-a317-bb300e602173","ios":"levelo://app?vid=4e35fd5a-bc46-4277-a317-bb300e602173"},"vehicle_type_id":"4","last_reported":1716062877,"current_range_meters":9600,"station_id":"ce4bhr12rcd13ifvqhqg","pricing_plan_id":"cebpf4jnsgd1na2vs0mg"},{"bike_id":"1a505eb3-cd37-4faa-9670-391bb2bd9378","system_id":"levelo_inurba_marseille","lat":43.32291,"lon":5.38264,"is_reserved":false,"is_disabled":false,"rental_uris":{"android":"levelo://app?vid=1a505eb3-cd37-4faa-9670-391bb2bd9378","ios":"levelo://app?vid=1a505eb3-cd37-4faa-9670-391bb2bd9378"},"vehicle_type_id":"4","last_reported":1716062877,"current_range_meters":15200,"station_id":"ce4bhr12rcd13ifvqhqg","pricing_plan_id":"cebpf4jnsgd1na2vs0mg"},{"bike_id":"9a32493a-4fbc-4ccc-a890-1e41ede2e2a5","system_id":"levelo_inurba_marseille","lat":43.322872,"lon":5.382756,"is_reserved":false,"is_disabled":false,"rental_uris":{"android":"levelo://app?vid=9a32493a-4fbc-4ccc-a890-1e41ede2e2a5","ios":"levelo://app?vid=9a32493a-4fbc-4ccc-a890-1e41ede2e2a5"},"vehicle_type_id":"4","last_reported":1716062877,"current_range_meters":4800,"station_id":"ce4bhr12rcd13ifvqhqg","pricing_plan_id":"cebpf4jnsgd1na2vs0mg"},{"bike_id":"9385d173-06b2-4fde-8d3d-ba7b1bec39da","system_id":"levelo_inurba_marseille","lat":43.322872,"lon":5.382756,"is_reserved":false,"is_disabled":false,"rental_uris":{"android":"levelo://app?vid=9385d173-06b2-4fde-8d3d-ba7b1bec39da","ios":"levelo://app?vid=9385d173-06b2-4fde-8d3d-ba7b1bec39da"},"vehicle_type_id":"4","last_reported":1716062877,"current_range_meters":2800,"station_id":"ce4bhr12rcd13ifvqhqg","pricing_plan_id":"cebpf4jnsgd1na2vs0mg"},{"bike_id":"20a219a4-15d8-4496-9559-cd12f79d5c85","system_id":"levelo_inurba_marseille","lat":43.322872,"lon":5.382756,"is_reserved":false,"is_disabled":false,"rental_uris":{"android":"levelo://app?vid=20a219a4-15d8-4496-9559-cd12f79d5c85","ios":"levelo://app?vid=20a219a4-15d8-4496-9559-cd12f79d5c85"},"vehicle_type_id":"4","last_reported":1716062877,"current_range_meters":29600,"station_id":"ce4bhr12rcd13ifvqhqg","pricing_plan_id":"cebpf4jnsgd1na2vs0mg"},{"bike_id":"a4dd7cfc-a47e-4250-b9a8-69650f75794d","system_id":"levelo_inurba_marseille","lat":43.297163,"lon":5.365866,"is_reserved":false,"is_disabled":false,"rental_uris":{"android":"levelo://app?vid=a4dd7cfc-a47e-4250-b9a8-69650f75794d","ios":"levelo://app?vid=a4dd7cfc-a47e-4250-b9a8-69650f75794d"},"vehicle_type_id":"4","last_reported":1716062877,"current_range_meters":18800,"station_id":"ce4bgn12rcd13ifvqbt0","pricing_plan_id":"cebpf4jnsgd1na2vs0mg"},{"bike_id":"e564436e-d9f7-48e8-add0-1ae6890fbc08","system_id":"levelo_inurba_marseille","lat":43.297163,"lon":5.365866,"is_reserved":false,"is_disabled":false,"rental_uris":{"android":"levelo://app?vid=e564436e-d9f7-48e8-add0-1ae6890fbc08","ios":"levelo://app?vid=e564436e-d9f7-48e8-add0-1ae6890fbc08"},"vehicle_type_id":"4","last_reported":1716062877,"current_range_meters":20400,"station_id":"ce4bgn12rcd13ifvqbt0","pricing_plan_id":"cebpf4jnsgd1na2vs0mg"},{"bike_id":"a0cb5d0a-0f3c-430e-a83c-b12ecd62ed72","system_id":"levelo_inurba_marseille","lat":43.2971,"lon":5.36611,"is_reserved":false,"is_disabled":false,"rental_uris":{"android":"levelo://app?vid=a0cb5d0a-0f3c-430e-a83c-b12ecd62ed72","ios":"levelo://app?vid=a0cb5d0a-0f3c-430e-a83c-b12ecd62ed72"},"vehicle_type_id":"4","last_reported":1716062877,"current_range_meters":0,"station_id":"ce4bgn12rcd13ifvqbt0","pricing_plan_id":"cebpf4jnsgd1na2vs0mg"},{"bike_id":"2d4f97fc-a25a-43f0-9ac8-3e840db02ec7","system_id":"levelo_inurba_marseille","lat":43.29708,"lon":5.3661,"is_reserved":false,"is_disabled":false,"rental_uris":{"android":"levelo://app?vid=2d4f97fc-a25a-43f0-9ac8-3e840db02ec7","ios":"levelo://app?vid=2d4f97fc-a25a-43f0-9ac8-3e840db02ec7"},"vehicle_type_id":"4","last_reported":1716062877,"current_range_meters":15600,"station_id":"ce4bgn12rcd13ifvqbt0","pricing_plan_id":"cebpf4jnsgd1na2vs0mg"},{"bike_id":"ccb3c407-6b24-47c0-9a42-12529bc17bdf","system_id":"levelo_inurba_marseille","lat":43.29708,"lon":5.36603,"is_reserved":false,"is_disabled":false,"rental_uris":{"android":"levelo://app?vid=ccb3c407-6b24-47c0-9a42-12529bc17bdf","ios":"levelo://app?vid=ccb3c407-6b24-47c0-9a42-12529bc17bdf"},"vehicle_type_id":"4","last_reported":1716062877,"current_range_meters":1200,"station_id":"ce4bgn12rcd13ifvqbt0","pricing_plan_id":"cebpf4jnsgd1na2vs0mg"},{"bike_id":"26521127-3bca-46b5-9338-da440262e90a","system_id":"levelo_inurba_marseille","lat":43.297163,"lon":5.365866,"is_reserved":false,"is_disabled":false,"rental_uris":{"android":"levelo://app?vid=26521127-3bca-46b5-9338-da440262e90a","ios":"levelo://app?vid=26521127-3bca-46b5-9338-da440262e90a"},"vehicle_type_id":"4","last_reported":1716062877,"current_range_meters":8800,"station_id":"ce4bgn12rcd13ifvqbt0","pricing_plan_id":"cebpf4jnsgd1na2vs0mg"},{"bike_id":"ce33542c-6353-4075-9658-8aa7e800e52c","system_id":"levelo_inurba_marseille","lat":43.29702,"lon":5.36605,"is_reserved":false,"is_disabled":false,"rental_uris":{"android":"levelo://app?vid=ce33542c-6353-4075-9658-8aa7e800e52c","ios":"levelo://app?vid=ce33542c-6353-4075-9658-8aa7e800e52c"},"vehicle_type_id":"4","last_reported":1716062877,"current_range_meters":7600,"station_id":"ce4bgn12rcd13ifvqbt0","pricing_plan_id":"cebpf4jnsgd1na2vs0mg"},{"bike_id":"bed55a80-7037-41eb-9614-9125e94936cc","system_id":"levelo_inurba_marseille","lat":43.29698,"lon":5.36588,"is_reserved":false,"is_disabled":false,"rental_uris":{"android":"levelo://app?vid=bed55a80-7037-41eb-9614-9125e94936cc","ios":"levelo://app?vid=bed55a80-7037-41eb-9614-9125e94936cc"},"vehicle_type_id":"4","last_reported":1716062877,"current_range_meters":14800,"station_id":"ce4bgn12rcd13ifvqbt0","pricing_plan_id":"cebpf4jnsgd1na2vs0mg"},{"bike_id":"a9165734-9a2b-483d-8465-5670bc9ec5a1","system_id":"levelo_inurba_marseille","lat":43.296935,"lon":5.366207,"is_reserved":false,"is_disabled":false,"rental_uris":{"android":"levelo://app?vid=a9165734-9a2b-483d-8465-5670bc9ec5a1","ios":"levelo://app?vid=a9165734-9a2b-483d-8465-5670bc9ec5a1"},"vehicle_type_id":"4","last_reported":1716062877,"current_range_meters":0,"station_id":"ce4bgn12rcd13ifvqbt0","pricing_plan_id":"cebpf4jnsgd1na2vs0mg"},{"bike_id":"e8b74b53-1f66-4822-bc9f-59e0cd63ffdc","system_id":"levelo_inurba_marseille","lat":43.296974,"lon":5.368949,"is_reserved":false,"is_disabled":false,"rental_uris":{"android":"levelo://app?vid=e8b74b53-1f66-4822-bc9f-59e0cd63ffdc","ios":"levelo://app?vid=e8b74b53-1f66-4822-bc9f-59e0cd63ffdc"},"vehicle_type_id":"4","last_reported":1716062877,"current_range_meters":0,"station_id":"","pricing_plan_id":"cebpf4jnsgd1na2vs0mg"},{"bike_id":"fa2c076b-ba3d-4ed0-adbd-c95d7fa28c27","system_id":"levelo_inurba_marseille","lat":43.297381,"lon":5.360425,"is_reserved":false,"is_disabled":false,"rental_uris":{"android":"levelo://app?vid=fa2c076b-ba3d-4ed0-adbd-c95d7fa28c27","ios":"levelo://app?vid=fa2c076b-ba3d-4ed0-adbd-c95d7fa28c27"},"vehicle_type_id":"4","last_reported":1716062877,"current_range_meters":0,"station_id":"","pricing_plan_id":"cebpf4jnsgd1na2vs0mg"},{"bike_id":"82011e80-b8e0-4ac0-9682-4739c11b0798","system_id":"levelo_inurba_marseille","lat":43.297362,"lon":5.359628,"is_reserved":false,"is_disabled":false,"rental_uris":{"android":"levelo://app?vid=82011e80-b8e0-4ac0-9682-4739c11b0798","ios":"levelo://app?vid=82011e80-b8e0-4ac0-9682-4739c11b0798"},"vehicle_type_id":"4","last_reported":1716062877,"current_range_meters":7200,"station_id":"","pricing_plan_id":"cebpf4jnsgd1na2vs0mg"},{"bike_id":"021a58da-df89-4fc9-89de-bb84bb8716ae","system_id":"levelo_inurba_marseille","lat":43.29686,"lon":5.37294,"is_reserved":false,"is_disabled":false,"rental_uris":{"android":"levelo://app?vid=021a58da-df89-4fc9-89de-bb84bb8716ae","ios":"levelo://app?vid=021a58da-df89-4fc9-89de-bb84bb8716ae"},"vehicle_type_id":"4","last_reported":1716062877,"current_range_meters":31200,"station_id":"ce4bgk12rcd13ifvqbj0","pricing_plan_id":"cebpf4jnsgd1na2vs0mg"},{"bike_id":"914918b3-5522-4f78-97d2-88c6276c0735","system_id":"levelo_inurba_marseille","lat":43.296808,"lon":5.372848,"is_reserved":false,"is_disabled":false,"rental_uris":{"android":"levelo://app?vid=914918b3-5522-4f78-97d2-88c6276c0735","ios":"levelo://app?vid=914918b3-5522-4f78-97d2-88c6276c0735"},"vehicle_type_id":"4","last_reported":1716062877,"current_range_meters":0,"station_id":"ce4bgk12rcd13ifvqbj0","pricing_plan_id":"cebpf4jnsgd1na2vs0mg"},{"bike_id":"ed038377-27e4-4849-8868-381dfdbc3a78","system_id":"levelo_inurba_marseille","lat":43.296798,"lon":5.372835,"is_reserved":false,"is_disabled":false,"rental_uris":{"android":"levelo://app?vid=ed038377-27e4-4849-8868-381dfdbc3a78","ios":"levelo://app?vid=ed038377-27e4-4849-8868-381dfdbc3a78"},"vehicle_type_id":"4","last_reported":1716062877,"current_range_meters":3200,"station_id":"ce4bgk12rcd13ifvqbj0","pricing_plan_id":"cebpf4jnsgd1na2vs0mg"},{"bike_id":"94cba2d5-f4ab-4d86-b738-68106aee0d50","system_id":"levelo_inurba_marseille","lat":43.2968,"lon":5.37291,"is_reserved":false,"is_disabled":false,"rental_uris":{"android":"levelo://app?vid=94cba2d5-f4ab-4d86-b738-68106aee0d50","ios":"levelo://app?vid=94cba2d5-f4ab-4d86-b738-68106aee0d50"},"vehicle_type_id":"4","last_reported":1716062877,"current_range_meters":4800,"station_id":"ce4bgk12rcd13ifvqbj0","pricing_plan_id":"cebpf4jnsgd1na2vs0mg"},{"bike_id":"b153fa12-96ea-424e-bbe7-bc6eddb1f0c1","system_id":"levelo_inurba_marseille","lat":43.29668,"lon":5.37285,"is_reserved":false,"is_disabled":false,"rental_uris":{"android":"levelo://app?vid=b153fa12-96ea-424e-bbe7-bc6eddb1f0c1","ios":"levelo://app?vid=b153fa12-96ea-424e-bbe7-bc6eddb1f0c1"},"vehicle_type_id":"4","last_reported":1716062877,"current_range_meters":0,"station_id":"ce4bgk12rcd13ifvqbj0","pricing_plan_id":"cebpf4jnsgd1na2vs0mg"},{"bike_id":"b8a34da6-8d0c-4e8c-a2b4-156561e3afa6","system_id":"levelo_inurba_marseille","lat":43.29613,"lon":5.37103,"is_reserved":false,"is_disabled":false,"rental_uris":{"android":"levelo://app?vid=b8a34da6-8d0c-4e8c-a2b4-156561e3afa6","ios":"levelo://app?vid=b8a34da6-8d0c-4e8c-a2b4-156561e3afa6"},"vehicle_type_id":"4","last_reported":1716062877,"current_range_meters":4800,"station_id":"","pricing_plan_id":"cebpf4jnsgd1na2vs0mg"},{"bike_id":"c0b498e0-13a8-4048-9ad1-239a98ef44f9","system_id":"levelo_inurba_marseille","lat":43.298768,"lon":5.380012,"is_reserved":false,"is_disabled":false,"rental_uris":{"android":"levelo://app?vid=c0b498e0-13a8-4048-9ad1-239a98ef44f9","ios":"levelo://app?vid=c0b498e0-13a8-4048-9ad1-239a98ef44f9"},"vehicle_type_id":"4","last_reported":1716062877,"current_range_meters":18800,"station_id":"","pricing_plan_id":"cebpf4jnsgd1na2vs0mg"},{"bike_id":"d92422cd-24b1-4d45-b1c7-c79e3da34b8f","system_id":"levelo_inurba_marseille","lat":43.29731,"lon":5.37677,"is_reserved":false,"is_disabled":false,"rental_uris":{"android":"levelo://app?vid=d92422cd-24b1-4d45-b1c7-c79e3da34b8f","ios":"levelo://app?vid=d92422cd-24b1-4d45-b1c7-c79e3da34b8f"},"vehicle_type_id":"4","last_reported":1716062877,"current_range_meters":0,"station_id":"ce4bgkh2rcd13ifvqbl0","pricing_plan_id":"cebpf4jnsgd1na2vs0mg"},{"bike_id":"4233fea4-bdfd-4a0b-8779-0436827c5fa3","system_id":"levelo_inurba_marseille","lat":43.309636,"lon":5.390165,"is_reserved":false,"is_disabled":false,"rental_uris":{"android":"levelo://app?vid=4233fea4-bdfd-4a0b-8779-0436827c5fa3","ios":"levelo://app?vid=4233fea4-bdfd-4a0b-8779-0436827c5fa3"},"vehicle_type_id":"4","last_reported":1716062877,"current_range_meters":8400,"station_id":"ce4bgup2rcd13ifvqco0","pricing_plan_id":"cebpf4jnsgd1na2vs0mg"},{"bike_id":"c98025aa-9e9c-488d-b5b8-d3754878d50d","system_id":"levelo_inurba_marseille","lat":43.309525,"lon":5.390213,"is_reserved":false,"is_disabled":false,"rental_uris":{"android":"levelo://app?vid=c98025aa-9e9c-488d-b5b8-d3754878d50d","ios":"levelo://app?vid=c98025aa-9e9c-488d-b5b8-d3754878d50d"},"vehicle_type_id":"4","last_reported":1716062877,"current_range_meters":30800,"station_id":"ce4bgup2rcd13ifvqco0","pricing_plan_id":"cebpf4jnsgd1na2vs0mg"},{"bike_id":"6c8779a2-43a3-4a2a-b4a3-da1319d6d69a","system_id":"levelo_inurba_marseille","lat":43.299028,"lon":5.381509,"is_reserved":false,"is_disabled":false,"rental_uris":{"android":"levelo://app?vid=6c8779a2-43a3-4a2a-b4a3-da1319d6d69a","ios":"levelo://app?vid=6c8779a2-43a3-4a2a-b4a3-da1319d6d69a"},"vehicle_type_id":"4","last_reported":1716062877,"current_range_meters":0,"station_id":"ce4bgj12rcd13ifvqbc0","pricing_plan_id":"cebpf4jnsgd1na2vs0mg"},{"bike_id":"e03d12d5-755a-4cfa-b40c-4d6b1f008c43","system_id":"levelo_inurba_marseille","lat":43.309589,"lon":5.390258,"is_reserved":false,"is_disabled":false,"rental_uris":{"android":"levelo://app?vid=e03d12d5-755a-4cfa-b40c-4d6b1f008c43","ios":"levelo://app?vid=e03d12d5-755a-4cfa-b40c-4d6b1f008c43"},"vehicle_type_id":"4","last_reported":1716062877,"current_range_meters":10400,"station_id":"ce4bgup2rcd13ifvqco0","pricing_plan_id":"cebpf4jnsgd1na2vs0mg"},{"bike_id":"a213dca7-ac93-426f-b416-23be39b7a346","system_id":"levelo_inurba_marseille","lat":43.309552,"lon":5.390311,"is_reserved":false,"is_disabled":false,"rental_uris":{"android":"levelo://app?vid=a213dca7-ac93-426f-b416-23be39b7a346","ios":"levelo://app?vid=a213dca7-ac93-426f-b416-23be39b7a346"},"vehicle_type_id":"4","last_reported":1716062877,"current_range_meters":400,"station_id":"ce4bgup2rcd13ifvqco0","pricing_plan_id":"cebpf4jnsgd1na2vs0mg"},{"bike_id":"2513667c-e719-47c9-84d4-5a5cfd115ff1","system_id":"levelo_inurba_marseille","lat":43.309589,"lon":5.390258,"is_reserved":false,"is_disabled":false,"rental_uris":{"android":"levelo://app?vid=2513667c-e719-47c9-84d4-5a5cfd115ff1","ios":"levelo://app?vid=2513667c-e719-47c9-84d4-5a5cfd115ff1"},"vehicle_type_id":"4","last_reported":1716062877,"current_range_meters":4000,"station_id":"ce4bgup2rcd13ifvqco0","pricing_plan_id":"cebpf4jnsgd1na2vs0mg"},{"bike_id":"351fd4f6-74f0-40f5-854a-b23405d123f2","system_id":"levelo_inurba_marseille","lat":43.309589,"lon":5.390258,"is_reserved":false,"is_disabled":false,"rental_uris":{"android":"levelo://app?vid=351fd4f6-74f0-40f5-854a-b23405d123f2","ios":"levelo://app?vid=351fd4f6-74f0-40f5-854a-b23405d123f2"},"vehicle_type_id":"4","last_reported":1716062877,"current_range_meters":11600,"station_id":"ce4bgup2rcd13ifvqco0","pricing_plan_id":"cebpf4jnsgd1na2vs0mg"},{"bike_id":"603baedf-9108-4d5c-a917-a27c83b2b9c4","system_id":"levelo_inurba_marseille","lat":43.30953,"lon":5.390323,"is_reserved":false,"is_disabled":false,"rental_uris":{"android":"levelo://app?vid=603baedf-9108-4d5c-a917-a27c83b2b9c4","ios":"levelo://app?vid=603baedf-9108-4d5c-a917-a27c83b2b9c4"},"vehicle_type_id":"4","last_reported":1716062877,"current_range_meters":11600,"station_id":"ce4bgup2rcd13ifvqco0","pricing_plan_id":"cebpf4jnsgd1na2vs0mg"},{"bike_id":"73546ffe-3054-4dfa-8c3c-96995872ec94","system_id":"levelo_inurba_marseille","lat":43.309506,"lon":5.390327,"is_reserved":false,"is_disabled":false,"rental_uris":{"android":"levelo://app?vid=73546ffe-3054-4dfa-8c3c-96995872ec94","ios":"levelo://app?vid=73546ffe-3054-4dfa-8c3c-96995872ec94"},"vehicle_type_id":"4","last_reported":1716062877,"current_range_meters":20800,"station_id":"ce4bgup2rcd13ifvqco0","pricing_plan_id":"cebpf4jnsgd1na2vs0mg"},{"bike_id":"4531909b-e130-42c9-bf93-fbfff0c592cd","system_id":"levelo_inurba_marseille","lat":43.309589,"lon":5.390258,"is_reserved":false,"is_disabled":false,"rental_uris":{"android":"levelo://app?vid=4531909b-e130-42c9-bf93-fbfff0c592cd","ios":"levelo://app?vid=4531909b-e130-42c9-bf93-fbfff0c592cd"},"vehicle_type_id":"4","last_reported":1716062877,"current_range_meters":31200,"station_id":"ce4bgup2rcd13ifvqco0","pricing_plan_id":"cebpf4jnsgd1na2vs0mg"},{"bike_id":"8fc6cb87-e9e5-4406-a66b-10ce5a48941a","system_id":"levelo_inurba_marseille","lat":43.299028,"lon":5.381509,"is_reserved":false,"is_disabled":false,"rental_uris":{"android":"levelo://app?vid=8fc6cb87-e9e5-4406-a66b-10ce5a48941a","ios":"levelo://app?vid=8fc6cb87-e9e5-4406-a66b-10ce5a48941a"},"vehicle_type_id":"4","last_reported":1716062877,"current_range_meters":7600,"station_id":"ce4bgj12rcd13ifvqbc0","pricing_plan_id":"cebpf4jnsgd1na2vs0mg"},{"bike_id":"5b016400-3e56-45de-bc6a-229a95106682","system_id":"levelo_inurba_marseille","lat":43.309528,"lon":5.390366,"is_reserved":false,"is_disabled":false,"rental_uris":{"android":"levelo://app?vid=5b016400-3e56-45de-bc6a-229a95106682","ios":"levelo://app?vid=5b016400-3e56-45de-bc6a-229a95106682"},"vehicle_type_id":"4","last_reported":1716062877,"current_range_meters":21200,"station_id":"ce4bgup2rcd13ifvqco0","pricing_plan_id":"cebpf4jnsgd1na2vs0mg"},{"bike_id":"f9998aa9-f83f-4b4b-b6b1-5b70024f7f1b","system_id":"levelo_inurba_marseille","lat":43.309589,"lon":5.390258,"is_reserved":false,"is_disabled":false,"rental_uris":{"android":"levelo://app?vid=f9998aa9-f83f-4b4b-b6b1-5b70024f7f1b","ios":"levelo://app?vid=f9998aa9-f83f-4b4b-b6b1-5b70024f7f1b"},"vehicle_type_id":"4","last_reported":1716062877,"current_range_meters":22400,"station_id":"ce4bgup2rcd13ifvqco0","pricing_plan_id":"cebpf4jnsgd1na2vs0mg"},{"bike_id":"4d0bb5e6-0474-4729-b17f-0f43ac90100a","system_id":"levelo_inurba_marseille","lat":43.302992,"lon":5.392136,"is_reserved":false,"is_disabled":false,"rental_uris":{"android":"levelo://app?vid=4d0bb5e6-0474-4729-b17f-0f43ac90100a","ios":"levelo://app?vid=4d0bb5e6-0474-4729-b17f-0f43ac90100a"},"vehicle_type_id":"4","last_reported":1716062877,"current_range_meters":0,"station_id":"ce4bgkh2rcd13ifvqbk0","pricing_plan_id":"cebpf4jnsgd1na2vs0mg"},{"bike_id":"08a49bd6-1a27-4760-b98b-915f78b22cfa","system_id":"levelo_inurba_marseille","lat":43.309589,"lon":5.390258,"is_reserved":false,"is_disabled":false,"rental_uris":{"android":"levelo://app?vid=08a49bd6-1a27-4760-b98b-915f78b22cfa","ios":"levelo://app?vid=08a49bd6-1a27-4760-b98b-915f78b22cfa"},"vehicle_type_id":"4","last_reported":1716062877,"current_range_meters":8000,"station_id":"ce4bgup2rcd13ifvqco0","pricing_plan_id":"cebpf4jnsgd1na2vs0mg"},{"bike_id":"12c7bac9-d8e7-4b18-befe-6d3455d2ab15","system_id":"levelo_inurba_marseille","lat":43.309455,"lon":5.390502,"is_reserved":false,"is_disabled":false,"rental_uris":{"android":"levelo://app?vid=12c7bac9-d8e7-4b18-befe-6d3455d2ab15","ios":"levelo://app?vid=12c7bac9-d8e7-4b18-befe-6d3455d2ab15"},"vehicle_type_id":"4","last_reported":1716062877,"current_range_meters":0,"station_id":"ce4bgup2rcd13ifvqco0","pricing_plan_id":"cebpf4jnsgd1na2vs0mg"},{"bike_id":"70c78a48-13f7-49a8-88e8-94f886fe01f3","system_id":"levelo_inurba_marseille","lat":43.29551,"lon":5.36294,"is_reserved":false,"is_disabled":false,"rental_uris":{"android":"levelo://app?vid=70c78a48-13f7-49a8-88e8-94f886fe01f3","ios":"levelo://app?vid=70c78a48-13f7-49a8-88e8-94f886fe01f3"},"vehicle_type_id":"4","last_reported":1716062877,"current_range_meters":1200,"station_id":"","pricing_plan_id":"cebpf4jnsgd1na2vs0mg"},{"bike_id":"c83ce6ad-d8ee-47de-817e-b9fbd48cb3b7","system_id":"levelo_inurba_marseille","lat":43.309483,"lon":5.390528,"is_reserved":false,"is_disabled":false,"rental_uris":{"android":"levelo://app?vid=c83ce6ad-d8ee-47de-817e-b9fbd48cb3b7","ios":"levelo://app?vid=c83ce6ad-d8ee-47de-817e-b9fbd48cb3b7"},"vehicle_type_id":"4","last_reported":1716062877,"current_range_meters":3200,"station_id":"ce4bgup2rcd13ifvqco0","pricing_plan_id":"cebpf4jnsgd1na2vs0mg"},{"bike_id":"de8a354f-15f9-47ca-a5fc-95f5e3c3cd40","system_id":"levelo_inurba_marseille","lat":43.309491,"lon":5.390546,"is_reserved":false,"is_disabled":false,"rental_uris":{"android":"levelo://app?vid=de8a354f-15f9-47ca-a5fc-95f5e3c3cd40","ios":"levelo://app?vid=de8a354f-15f9-47ca-a5fc-95f5e3c3cd40"},"vehicle_type_id":"4","last_reported":1716062877,"current_range_meters":10000,"station_id":"ce4bgup2rcd13ifvqco0","pricing_plan_id":"cebpf4jnsgd1na2vs0mg"},{"bike_id":"7c2e2c9d-0087-4652-b16c-6d021c2feaaf","system_id":"levelo_inurba_marseille","lat":43.309589,"lon":5.390258,"is_reserved":false,"is_disabled":false,"rental_uris":{"android":"levelo://app?vid=7c2e2c9d-0087-4652-b16c-6d021c2feaaf","ios":"levelo://app?vid=7c2e2c9d-0087-4652-b16c-6d021c2feaaf"},"vehicle_type_id":"4","last_reported":1716062877,"current_range_meters":2400,"station_id":"ce4bgup2rcd13ifvqco0","pricing_plan_id":"cebpf4jnsgd1na2vs0mg"},{"bike_id":"3c6685f8-9845-4cfd-8f16-35a649f940f6","system_id":"levelo_inurba_marseille","lat":43.297115,"lon":5.3779,"is_reserved":false,"is_disabled":false,"rental_uris":{"android":"levelo://app?vid=3c6685f8-9845-4cfd-8f16-35a649f940f6","ios":"levelo://app?vid=3c6685f8-9845-4cfd-8f16-35a649f940f6"},"vehicle_type_id":"4","last_reported":1716062877,"current_range_meters":0,"station_id":"","pricing_plan_id":"cebpf4jnsgd1na2vs0mg"},{"bike_id":"ab2cc6aa-2f98-4bee-896e-aca01f31f8a0","system_id":"levelo_inurba_marseille","lat":43.309589,"lon":5.390258,"is_reserved":false,"is_disabled":false,"rental_uris":{"android":"levelo://app?vid=ab2cc6aa-2f98-4bee-896e-aca01f31f8a0","ios":"levelo://app?vid=ab2cc6aa-2f98-4bee-896e-aca01f31f8a0"},"vehicle_type_id":"4","last_reported":1716062877,"current_range_meters":18800,"station_id":"ce4bgup2rcd13ifvqco0","pricing_plan_id":"cebpf4jnsgd1na2vs0mg"},{"bike_id":"dd4510ee-3c2d-45a5-873f-8763061e83ae","system_id":"levelo_inurba_marseille","lat":43.317557,"lon":5.390173,"is_reserved":false,"is_disabled":false,"rental_uris":{"android":"levelo://app?vid=dd4510ee-3c2d-45a5-873f-8763061e83ae","ios":"levelo://app?vid=dd4510ee-3c2d-45a5-873f-8763061e83ae"},"vehicle_type_id":"4","last_reported":1716062877,"current_range_meters":1200,"station_id":"ce4bhqp2rcd13ifvqhng","pricing_plan_id":"cebpf4jnsgd1na2vs0mg"},{"bike_id":"ba009672-3bb6-416f-95da-220de26e7fd4","system_id":"levelo_inurba_marseille","lat":43.298037,"lon":5.381066,"is_reserved":false,"is_disabled":false,"rental_uris":{"android":"levelo://app?vid=ba009672-3bb6-416f-95da-220de26e7fd4","ios":"levelo://app?vid=ba009672-3bb6-416f-95da-220de26e7fd4"},"vehicle_type_id":"4","last_reported":1716062877,"current_range_meters":3200,"station_id":"ce4bgip2rcd13ifvqbb0","pricing_plan_id":"cebpf4jnsgd1na2vs0mg"},{"bike_id":"06bbbba1-978c-44b1-ab95-909276a3ade4","system_id":"levelo_inurba_marseille","lat":43.296269,"lon":5.377127,"is_reserved":false,"is_disabled":false,"rental_uris":{"android":"levelo://app?vid=06bbbba1-978c-44b1-ab95-909276a3ade4","ios":"levelo://app?vid=06bbbba1-978c-44b1-ab95-909276a3ade4"},"vehicle_type_id":"4","last_reported":1716062877,"current_range_meters":11200,"station_id":"ce4bgi92rcd13ifvqb90","pricing_plan_id":"cebpf4jnsgd1na2vs0mg"},{"bike_id":"5950b3fe-4095-4f9e-aedc-ad766e9e9125","system_id":"levelo_inurba_marseille","lat":43.295748,"lon":5.37522,"is_reserved":false,"is_disabled":false,"rental_uris":{"android":"levelo://app?vid=5950b3fe-4095-4f9e-aedc-ad766e9e9125","ios":"levelo://app?vid=5950b3fe-4095-4f9e-aedc-ad766e9e9125"},"vehicle_type_id":"4","last_reported":1716062877,"current_range_meters":16800,"station_id":"ce4bgh92rcd13ifvqb50","pricing_plan_id":"cebpf4jnsgd1na2vs0mg"},{"bike_id":"db4a4b9d-c4f1-4fe2-b332-72b972e92187","system_id":"levelo_inurba_marseille","lat":43.304278,"lon":5.388868,"is_reserved":false,"is_disabled":false,"rental_uris":{"android":"levelo://app?vid=db4a4b9d-c4f1-4fe2-b332-72b972e92187","ios":"levelo://app?vid=db4a4b9d-c4f1-4fe2-b332-72b972e92187"},"vehicle_type_id":"4","last_reported":1716062877,"current_range_meters":6400,"station_id":"ce4bgk12rcd13ifvqbi0","pricing_plan_id":"cebpf4jnsgd1na2vs0mg"},{"bike_id":"ba079ff4-f846-4af4-8be3-614963f59325","system_id":"levelo_inurba_marseille","lat":43.29782,"lon":5.38101,"is_reserved":false,"is_disabled":false,"rental_uris":{"android":"levelo://app?vid=ba079ff4-f846-4af4-8be3-614963f59325","ios":"levelo://app?vid=ba079ff4-f846-4af4-8be3-614963f59325"},"vehicle_type_id":"4","last_reported":1716062877,"current_range_meters":0,"station_id":"ce4bgip2rcd13ifvqbb0","pricing_plan_id":"cebpf4jnsgd1na2vs0mg"},{"bike_id":"667e4ddc-8d1b-4c8a-bcc4-4dee97f09d20","system_id":"levelo_inurba_marseille","lat":43.295748,"lon":5.37522,"is_reserved":false,"is_disabled":false,"rental_uris":{"android":"levelo://app?vid=667e4ddc-8d1b-4c8a-bcc4-4dee97f09d20","ios":"levelo://app?vid=667e4ddc-8d1b-4c8a-bcc4-4dee97f09d20"},"vehicle_type_id":"4","last_reported":1716062877,"current_range_meters":4000,"station_id":"ce4bgh92rcd13ifvqb50","pricing_plan_id":"cebpf4jnsgd1na2vs0mg"},{"bike_id":"336f3c49-e8d0-4da1-bf27-39f8798422bb","system_id":"levelo_inurba_marseille","lat":43.2962,"lon":5.37718,"is_reserved":false,"is_disabled":false,"rental_uris":{"android":"levelo://app?vid=336f3c49-e8d0-4da1-bf27-39f8798422bb","ios":"levelo://app?vid=336f3c49-e8d0-4da1-bf27-39f8798422bb"},"vehicle_type_id":"4","last_reported":1716062877,"current_range_meters":8000,"station_id":"ce4bgi92rcd13ifvqb90","pricing_plan_id":"cebpf4jnsgd1na2vs0mg"},{"bike_id":"14f1bd29-57ec-417e-86f2-2b507c64e698","system_id":"levelo_inurba_marseille","lat":43.29619,"lon":5.37717,"is_reserved":false,"is_disabled":false,"rental_uris":{"android":"levelo://app?vid=14f1bd29-57ec-417e-86f2-2b507c64e698","ios":"levelo://app?vid=14f1bd29-57ec-417e-86f2-2b507c64e698"},"vehicle_type_id":"4","last_reported":1716062877,"current_range_meters":0,"station_id":"ce4bgi92rcd13ifvqb90","pricing_plan_id":"cebpf4jnsgd1na2vs0mg"},{"bike_id":"809b2f33-28e4-4d80-bfcb-b7852935d397","system_id":"levelo_inurba_marseille","lat":43.296277,"lon":5.377108,"is_reserved":false,"is_disabled":false,"rental_uris":{"android":"levelo://app?vid=809b2f33-28e4-4d80-bfcb-b7852935d397","ios":"levelo://app?vid=809b2f33-28e4-4d80-bfcb-b7852935d397"},"vehicle_type_id":"4","last_reported":1716062877,"current_range_meters":26800,"station_id":"ce4bgi92rcd13ifvqb90","pricing_plan_id":"cebpf4jnsgd1na2vs0mg"},{"bike_id":"d198597e-4491-4f91-8552-5f16c1700024","system_id":"levelo_inurba_marseille","lat":43.296277,"lon":5.377108,"is_reserved":false,"is_disabled":false,"rental_uris":{"android":"levelo://app?vid=d198597e-4491-4f91-8552-5f16c1700024","ios":"levelo://app?vid=d198597e-4491-4f91-8552-5f16c1700024"},"vehicle_type_id":"4","last_reported":1716062877,"current_range_meters":1600,"station_id":"ce4bgi92rcd13ifvqb90","pricing_plan_id":"cebpf4jnsgd1na2vs0mg"},{"bike_id":"7b2c406a-1272-4de3-94f0-125b950acb73","system_id":"levelo_inurba_marseille","lat":43.296148,"lon":5.377155,"is_reserved":false,"is_disabled":false,"rental_uris":{"android":"levelo://app?vid=7b2c406a-1272-4de3-94f0-125b950acb73","ios":"levelo://app?vid=7b2c406a-1272-4de3-94f0-125b950acb73"},"vehicle_type_id":"4","last_reported":1716062877,"current_range_meters":0,"station_id":"ce4bgi92rcd13ifvqb90","pricing_plan_id":"cebpf4jnsgd1na2vs0mg"},{"bike_id":"ba1a2438-bb03-43cd-91db-af83ea36791d","system_id":"levelo_inurba_marseille","lat":43.298037,"lon":5.381066,"is_reserved":false,"is_disabled":false,"rental_uris":{"android":"levelo://app?vid=ba1a2438-bb03-43cd-91db-af83ea36791d","ios":"levelo://app?vid=ba1a2438-bb03-43cd-91db-af83ea36791d"},"vehicle_type_id":"4","last_reported":1716062877,"current_range_meters":0,"station_id":"ce4bgip2rcd13ifvqbb0","pricing_plan_id":"cebpf4jnsgd1na2vs0mg"},{"bike_id":"22d659b6-8ca6-43c0-ab4a-a524b57b5c93","system_id":"levelo_inurba_marseille","lat":43.296263,"lon":5.377094,"is_reserved":false,"is_disabled":false,"rental_uris":{"android":"levelo://app?vid=22d659b6-8ca6-43c0-ab4a-a524b57b5c93","ios":"levelo://app?vid=22d659b6-8ca6-43c0-ab4a-a524b57b5c93"},"vehicle_type_id":"4","last_reported":1716062877,"current_range_meters":14000,"station_id":"ce4bgi92rcd13ifvqb90","pricing_plan_id":"cebpf4jnsgd1na2vs0mg"},{"bike_id":"2d238150-e716-4984-bc46-f463a5dc3426","system_id":"levelo_inurba_marseille","lat":43.296263,"lon":5.377094,"is_reserved":false,"is_disabled":false,"rental_uris":{"android":"levelo://app?vid=2d238150-e716-4984-bc46-f463a5dc3426","ios":"levelo://app?vid=2d238150-e716-4984-bc46-f463a5dc3426"},"vehicle_type_id":"4","last_reported":1716062877,"current_range_meters":400,"station_id":"ce4bgi92rcd13ifvqb90","pricing_plan_id":"cebpf4jnsgd1na2vs0mg"},{"bike_id":"48b6e638-32a4-4fa2-9923-aeb04f2c8900","system_id":"levelo_inurba_marseille","lat":43.296263,"lon":5.377094,"is_reserved":false,"is_disabled":false,"rental_uris":{"android":"levelo://app?vid=48b6e638-32a4-4fa2-9923-aeb04f2c8900","ios":"levelo://app?vid=48b6e638-32a4-4fa2-9923-aeb04f2c8900"},"vehicle_type_id":"4","last_reported":1716062877,"current_range_meters":20400,"station_id":"ce4bgi92rcd13ifvqb90","pricing_plan_id":"cebpf4jnsgd1na2vs0mg"},{"bike_id":"98fd1c40-84ef-42a2-b6d6-e047c9dde5d8","system_id":"levelo_inurba_marseille","lat":43.29605,"lon":5.37716,"is_reserved":false,"is_disabled":false,"rental_uris":{"android":"levelo://app?vid=98fd1c40-84ef-42a2-b6d6-e047c9dde5d8","ios":"levelo://app?vid=98fd1c40-84ef-42a2-b6d6-e047c9dde5d8"},"vehicle_type_id":"4","last_reported":1716062877,"current_range_meters":28000,"station_id":"ce4bgi92rcd13ifvqb90","pricing_plan_id":"cebpf4jnsgd1na2vs0mg"},{"bike_id":"d34ab903-f6ed-4c2b-8659-c77350210da4","system_id":"levelo_inurba_marseille","lat":43.299252,"lon":5.384101,"is_reserved":false,"is_disabled":false,"rental_uris":{"android":"levelo://app?vid=d34ab903-f6ed-4c2b-8659-c77350210da4","ios":"levelo://app?vid=d34ab903-f6ed-4c2b-8659-c77350210da4"},"vehicle_type_id":"4","last_reported":1716062877,"current_range_meters":1600,"station_id":"ce4bgj92rcd13ifvqbd0","pricing_plan_id":"cebpf4jnsgd1na2vs0mg"},{"bike_id":"7d62fb48-8f1b-4c07-b5ba-879ec7817f5d","system_id":"levelo_inurba_marseille","lat":43.299743,"lon":5.384876,"is_reserved":false,"is_disabled":false,"rental_uris":{"android":"levelo://app?vid=7d62fb48-8f1b-4c07-b5ba-879ec7817f5d","ios":"levelo://app?vid=7d62fb48-8f1b-4c07-b5ba-879ec7817f5d"},"vehicle_type_id":"4","last_reported":1716062877,"current_range_meters":3600,"station_id":"ce4bgj92rcd13ifvqbd0","pricing_plan_id":"cebpf4jnsgd1na2vs0mg"},{"bike_id":"78738d58-5f3f-44bb-8cc6-65d8a0f2b52c","system_id":"levelo_inurba_marseille","lat":43.29967,"lon":5.38489,"is_reserved":false,"is_disabled":false,"rental_uris":{"android":"levelo://app?vid=78738d58-5f3f-44bb-8cc6-65d8a0f2b52c","ios":"levelo://app?vid=78738d58-5f3f-44bb-8cc6-65d8a0f2b52c"},"vehicle_type_id":"4","last_reported":1716062877,"current_range_meters":7200,"station_id":"ce4bgj92rcd13ifvqbd0","pricing_plan_id":"cebpf4jnsgd1na2vs0mg"},{"bike_id":"c8972db8-4b9c-4d80-be53-8edd64dd4867","system_id":"levelo_inurba_marseille","lat":43.299694,"lon":5.384931,"is_reserved":false,"is_disabled":false,"rental_uris":{"android":"levelo://app?vid=c8972db8-4b9c-4d80-be53-8edd64dd4867","ios":"levelo://app?vid=c8972db8-4b9c-4d80-be53-8edd64dd4867"},"vehicle_type_id":"4","last_reported":1716062877,"current_range_meters":0,"station_id":"ce4bgj92rcd13ifvqbd0","pricing_plan_id":"cebpf4jnsgd1na2vs0mg"},{"bike_id":"e9fd23d8-2a50-46a6-86a2-5769ad10fbac","system_id":"levelo_inurba_marseille","lat":43.299669,"lon":5.384901,"is_reserved":false,"is_disabled":false,"rental_uris":{"android":"levelo://app?vid=e9fd23d8-2a50-46a6-86a2-5769ad10fbac","ios":"levelo://app?vid=e9fd23d8-2a50-46a6-86a2-5769ad10fbac"},"vehicle_type_id":"4","last_reported":1716062877,"current_range_meters":0,"station_id":"ce4bgj92rcd13ifvqbd0","pricing_plan_id":"cebpf4jnsgd1na2vs0mg"},{"bike_id":"57617a84-801e-4950-be05-70c456ce0570","system_id":"levelo_inurba_marseille","lat":43.299661,"lon":5.38497,"is_reserved":false,"is_disabled":false,"rental_uris":{"android":"levelo://app?vid=57617a84-801e-4950-be05-70c456ce0570","ios":"levelo://app?vid=57617a84-801e-4950-be05-70c456ce0570"},"vehicle_type_id":"4","last_reported":1716062877,"current_range_meters":2800,"station_id":"ce4bgj92rcd13ifvqbd0","pricing_plan_id":"cebpf4jnsgd1na2vs0mg"},{"bike_id":"60a0a589-27f3-44bf-b144-58d0ef515e18","system_id":"levelo_inurba_marseille","lat":43.29962,"lon":5.385,"is_reserved":false,"is_disabled":false,"rental_uris":{"android":"levelo://app?vid=60a0a589-27f3-44bf-b144-58d0ef515e18","ios":"levelo://app?vid=60a0a589-27f3-44bf-b144-58d0ef515e18"},"vehicle_type_id":"4","last_reported":1716062877,"current_range_meters":400,"station_id":"ce4bgj92rcd13ifvqbd0","pricing_plan_id":"cebpf4jnsgd1na2vs0mg"},{"bike_id":"d5d2eea5-1adb-4a93-8baa-386795011fc2","system_id":"levelo_inurba_marseille","lat":43.325594,"lon":5.386439,"is_reserved":false,"is_disabled":false,"rental_uris":{"android":"levelo://app?vid=d5d2eea5-1adb-4a93-8baa-386795011fc2","ios":"levelo://app?vid=d5d2eea5-1adb-4a93-8baa-386795011fc2"},"vehicle_type_id":"4","last_reported":1716062877,"current_range_meters":2400,"station_id":"","pricing_plan_id":"cebpf4jnsgd1na2vs0mg"},{"bike_id":"2f5ce615-2b72-45f5-9b0e-cd334ae0617d","system_id":"levelo_inurba_marseille","lat":43.32367,"lon":5.388836,"is_reserved":false,"is_disabled":false,"rental_uris":{"android":"levelo://app?vid=2f5ce615-2b72-45f5-9b0e-cd334ae0617d","ios":"levelo://app?vid=2f5ce615-2b72-45f5-9b0e-cd334ae0617d"},"vehicle_type_id":"4","last_reported":1716062877,"current_range_meters":16400,"station_id":"ce4bhqp2rcd13ifvqhog","pricing_plan_id":"cebpf4jnsgd1na2vs0mg"},{"bike_id":"580b1b2f-c3be-43a2-98e3-eac829475bc4","system_id":"levelo_inurba_marseille","lat":43.32367,"lon":5.388836,"is_reserved":false,"is_disabled":false,"rental_uris":{"android":"levelo://app?vid=580b1b2f-c3be-43a2-98e3-eac829475bc4","ios":"levelo://app?vid=580b1b2f-c3be-43a2-98e3-eac829475bc4"},"vehicle_type_id":"4","last_reported":1716062877,"current_range_meters":7600,"station_id":"ce4bhqp2rcd13ifvqhog","pricing_plan_id":"cebpf4jnsgd1na2vs0mg"},{"bike_id":"dcfe2727-5cc1-4c2c-8ab5-507cd9fceb15","system_id":"levelo_inurba_marseille","lat":43.32369,"lon":5.38885,"is_reserved":false,"is_disabled":false,"rental_uris":{"android":"levelo://app?vid=dcfe2727-5cc1-4c2c-8ab5-507cd9fceb15","ios":"levelo://app?vid=dcfe2727-5cc1-4c2c-8ab5-507cd9fceb15"},"vehicle_type_id":"4","last_reported":1716062877,"current_range_meters":800,"station_id":"ce4bhqp2rcd13ifvqhog","pricing_plan_id":"cebpf4jnsgd1na2vs0mg"},{"bike_id":"73feebb4-b741-4da7-b81a-e181d9c18a6c","system_id":"levelo_inurba_marseille","lat":43.299337,"lon":5.386548,"is_reserved":false,"is_disabled":false,"rental_uris":{"android":"levelo://app?vid=73feebb4-b741-4da7-b81a-e181d9c18a6c","ios":"levelo://app?vid=73feebb4-b741-4da7-b81a-e181d9c18a6c"},"vehicle_type_id":"4","last_reported":1716062877,"current_range_meters":12400,"station_id":"ce4bgj92rcd13ifvqbd0","pricing_plan_id":"cebpf4jnsgd1na2vs0mg"},{"bike_id":"3ecd38b9-e771-4ac9-b0cf-13186b71f435","system_id":"levelo_inurba_marseille","lat":43.29602,"lon":5.381084,"is_reserved":false,"is_disabled":false,"rental_uris":{"android":"levelo://app?vid=3ecd38b9-e771-4ac9-b0cf-13186b71f435","ios":"levelo://app?vid=3ecd38b9-e771-4ac9-b0cf-13186b71f435"},"vehicle_type_id":"4","last_reported":1716062877,"current_range_meters":5600,"station_id":"ce4bgl12rcd13ifvqbo0","pricing_plan_id":"cebpf4jnsgd1na2vs0mg"},{"bike_id":"decf576d-083c-419b-b5b8-b288a718f616","system_id":"levelo_inurba_marseille","lat":43.29601,"lon":5.381084,"is_reserved":false,"is_disabled":false,"rental_uris":{"android":"levelo://app?vid=decf576d-083c-419b-b5b8-b288a718f616","ios":"levelo://app?vid=decf576d-083c-419b-b5b8-b288a718f616"},"vehicle_type_id":"4","last_reported":1716062877,"current_range_meters":1200,"station_id":"ce4bgl12rcd13ifvqbo0","pricing_plan_id":"cebpf4jnsgd1na2vs0mg"},{"bike_id":"e7f0232f-01d2-4089-aaa8-a8e34661484f","system_id":"levelo_inurba_marseille","lat":43.29601,"lon":5.381084,"is_reserved":false,"is_disabled":false,"rental_uris":{"android":"levelo://app?vid=e7f0232f-01d2-4089-aaa8-a8e34661484f","ios":"levelo://app?vid=e7f0232f-01d2-4089-aaa8-a8e34661484f"},"vehicle_type_id":"4","last_reported":1716062877,"current_range_meters":2000,"station_id":"ce4bgl12rcd13ifvqbo0","pricing_plan_id":"cebpf4jnsgd1na2vs0mg"},{"bike_id":"8c944c12-d06f-4b94-80a3-34451e86fb9c","system_id":"levelo_inurba_marseille","lat":43.298462,"lon":5.385461,"is_reserved":false,"is_disabled":false,"rental_uris":{"android":"levelo://app?vid=8c944c12-d06f-4b94-80a3-34451e86fb9c","ios":"levelo://app?vid=8c944c12-d06f-4b94-80a3-34451e86fb9c"},"vehicle_type_id":"4","last_reported":1716062877,"current_range_meters":17600,"station_id":"","pricing_plan_id":"cebpf4jnsgd1na2vs0mg"},{"bike_id":"6a94882e-5410-4f30-bf87-ff95b55b515d","system_id":"levelo_inurba_marseille","lat":43.305839,"lon":5.392359,"is_reserved":false,"is_disabled":false,"rental_uris":{"android":"levelo://app?vid=6a94882e-5410-4f30-bf87-ff95b55b515d","ios":"levelo://app?vid=6a94882e-5410-4f30-bf87-ff95b55b515d"},"vehicle_type_id":"4","last_reported":1716062877,"current_range_meters":6000,"station_id":"","pricing_plan_id":"cebpf4jnsgd1na2vs0mg"},{"bike_id":"4eecfab5-256e-4b81-82e0-3ea63f30c0f0","system_id":"levelo_inurba_marseille","lat":43.29601,"lon":5.381084,"is_reserved":false,"is_disabled":false,"rental_uris":{"android":"levelo://app?vid=4eecfab5-256e-4b81-82e0-3ea63f30c0f0","ios":"levelo://app?vid=4eecfab5-256e-4b81-82e0-3ea63f30c0f0"},"vehicle_type_id":"4","last_reported":1716062877,"current_range_meters":14000,"station_id":"ce4bgl12rcd13ifvqbo0","pricing_plan_id":"cebpf4jnsgd1na2vs0mg"},{"bike_id":"67e8ba5d-38d3-43cb-867a-2f2ec8cf2921","system_id":"levelo_inurba_marseille","lat":43.295844,"lon":5.381101,"is_reserved":false,"is_disabled":false,"rental_uris":{"android":"levelo://app?vid=67e8ba5d-38d3-43cb-867a-2f2ec8cf2921","ios":"levelo://app?vid=67e8ba5d-38d3-43cb-867a-2f2ec8cf2921"},"vehicle_type_id":"4","last_reported":1716062877,"current_range_meters":0,"station_id":"ce4bgl12rcd13ifvqbo0","pricing_plan_id":"cebpf4jnsgd1na2vs0mg"},{"bike_id":"a37f21c3-cb79-4eda-a1c9-08f3b379c95d","system_id":"levelo_inurba_marseille","lat":43.292818,"lon":5.368865,"is_reserved":false,"is_disabled":false,"rental_uris":{"android":"levelo://app?vid=a37f21c3-cb79-4eda-a1c9-08f3b379c95d","ios":"levelo://app?vid=a37f21c3-cb79-4eda-a1c9-08f3b379c95d"},"vehicle_type_id":"4","last_reported":1716062877,"current_range_meters":27200,"station_id":"","pricing_plan_id":"cebpf4jnsgd1na2vs0mg"},{"bike_id":"038fef99-2d91-421e-917f-0b90e5211714","system_id":"levelo_inurba_marseille","lat":43.29275,"lon":5.36836,"is_reserved":false,"is_disabled":false,"rental_uris":{"android":"levelo://app?vid=038fef99-2d91-421e-917f-0b90e5211714","ios":"levelo://app?vid=038fef99-2d91-421e-917f-0b90e5211714"},"vehicle_type_id":"4","last_reported":1716062877,"current_range_meters":10800,"station_id":"","pricing_plan_id":"cebpf4jnsgd1na2vs0mg"},{"bike_id":"35771a40-cba4-4184-b932-4557442a8a00","system_id":"levelo_inurba_marseille","lat":43.29273,"lon":5.36834,"is_reserved":false,"is_disabled":false,"rental_uris":{"android":"levelo://app?vid=35771a40-cba4-4184-b932-4557442a8a00","ios":"levelo://app?vid=35771a40-cba4-4184-b932-4557442a8a00"},"vehicle_type_id":"4","last_reported":1716062877,"current_range_meters":10000,"station_id":"","pricing_plan_id":"cebpf4jnsgd1na2vs0mg"},{"bike_id":"9105931e-293b-469f-924a-77891f72b086","system_id":"levelo_inurba_marseille","lat":43.292731,"lon":5.36838,"is_reserved":false,"is_disabled":false,"rental_uris":{"android":"levelo://app?vid=9105931e-293b-469f-924a-77891f72b086","ios":"levelo://app?vid=9105931e-293b-469f-924a-77891f72b086"},"vehicle_type_id":"4","last_reported":1716062877,"current_range_meters":0,"station_id":"","pricing_plan_id":"cebpf4jnsgd1na2vs0mg"},{"bike_id":"f2e69ef6-72a5-4f2d-acb2-127621c826f0","system_id":"levelo_inurba_marseille","lat":43.29273,"lon":5.36838,"is_reserved":false,"is_disabled":false,"rental_uris":{"android":"levelo://app?vid=f2e69ef6-72a5-4f2d-acb2-127621c826f0","ios":"levelo://app?vid=f2e69ef6-72a5-4f2d-acb2-127621c826f0"},"vehicle_type_id":"4","last_reported":1716062877,"current_range_meters":6800,"station_id":"","pricing_plan_id":"cebpf4jnsgd1na2vs0mg"},{"bike_id":"edb24453-1bdf-4fed-9176-c461becd5ac3","system_id":"levelo_inurba_marseille","lat":43.292718,"lon":5.368419,"is_reserved":false,"is_disabled":false,"rental_uris":{"android":"levelo://app?vid=edb24453-1bdf-4fed-9176-c461becd5ac3","ios":"levelo://app?vid=edb24453-1bdf-4fed-9176-c461becd5ac3"},"vehicle_type_id":"4","last_reported":1716062877,"current_range_meters":0,"station_id":"","pricing_plan_id":"cebpf4jnsgd1na2vs0mg"},{"bike_id":"1d4a32ff-39b4-4081-acb8-44366ff6dd7a","system_id":"levelo_inurba_marseille","lat":43.292681,"lon":5.368408,"is_reserved":false,"is_disabled":false,"rental_uris":{"android":"levelo://app?vid=1d4a32ff-39b4-4081-acb8-44366ff6dd7a","ios":"levelo://app?vid=1d4a32ff-39b4-4081-acb8-44366ff6dd7a"},"vehicle_type_id":"4","last_reported":1716062877,"current_range_meters":8800,"station_id":"","pricing_plan_id":"cebpf4jnsgd1na2vs0mg"},{"bike_id":"8fe77066-acba-4f58-a7ff-d6ecf663d475","system_id":"levelo_inurba_marseille","lat":43.30085,"lon":5.390856,"is_reserved":false,"is_disabled":false,"rental_uris":{"android":"levelo://app?vid=8fe77066-acba-4f58-a7ff-d6ecf663d475","ios":"levelo://app?vid=8fe77066-acba-4f58-a7ff-d6ecf663d475"},"vehicle_type_id":"4","last_reported":1716062877,"current_range_meters":19600,"station_id":"ce4bh192rcd13ifvqdb0","pricing_plan_id":"cebpf4jnsgd1na2vs0mg"},{"bike_id":"ddd68200-9d1e-41ff-b05c-96388bad1792","system_id":"levelo_inurba_marseille","lat":43.303002,"lon":5.392142,"is_reserved":false,"is_disabled":false,"rental_uris":{"android":"levelo://app?vid=ddd68200-9d1e-41ff-b05c-96388bad1792","ios":"levelo://app?vid=ddd68200-9d1e-41ff-b05c-96388bad1792"},"vehicle_type_id":"4","last_reported":1716062877,"current_range_meters":6000,"station_id":"ce4bgkh2rcd13ifvqbk0","pricing_plan_id":"cebpf4jnsgd1na2vs0mg"},{"bike_id":"0f4a3810-4b13-41a3-8326-0bcb01e7f417","system_id":"levelo_inurba_marseille","lat":43.30598,"lon":5.39354,"is_reserved":false,"is_disabled":false,"rental_uris":{"android":"levelo://app?vid=0f4a3810-4b13-41a3-8326-0bcb01e7f417","ios":"levelo://app?vid=0f4a3810-4b13-41a3-8326-0bcb01e7f417"},"vehicle_type_id":"4","last_reported":1716062877,"current_range_meters":0,"station_id":"ce4bh0p2rcd13ifvqd80","pricing_plan_id":"cebpf4jnsgd1na2vs0mg"},{"bike_id":"a291a87b-306c-4da5-bffb-894306021fec","system_id":"levelo_inurba_marseille","lat":43.293009,"lon":5.374584,"is_reserved":false,"is_disabled":false,"rental_uris":{"android":"levelo://app?vid=a291a87b-306c-4da5-bffb-894306021fec","ios":"levelo://app?vid=a291a87b-306c-4da5-bffb-894306021fec"},"vehicle_type_id":"4","last_reported":1716062877,"current_range_meters":18400,"station_id":"ce4bgi12rcd13ifvqb70","pricing_plan_id":"cebpf4jnsgd1na2vs0mg"},{"bike_id":"60b9679b-c7cb-4154-b2b6-9fd83649f750","system_id":"levelo_inurba_marseille","lat":43.305994,"lon":5.393687,"is_reserved":false,"is_disabled":false,"rental_uris":{"android":"levelo://app?vid=60b9679b-c7cb-4154-b2b6-9fd83649f750","ios":"levelo://app?vid=60b9679b-c7cb-4154-b2b6-9fd83649f750"},"vehicle_type_id":"4","last_reported":1716062877,"current_range_meters":6800,"station_id":"ce4bh0p2rcd13ifvqd80","pricing_plan_id":"cebpf4jnsgd1na2vs0mg"},{"bike_id":"01785059-b9ae-4e80-915f-2adf3960b07a","system_id":"levelo_inurba_marseille","lat":43.305994,"lon":5.393687,"is_reserved":false,"is_disabled":false,"rental_uris":{"android":"levelo://app?vid=01785059-b9ae-4e80-915f-2adf3960b07a","ios":"levelo://app?vid=01785059-b9ae-4e80-915f-2adf3960b07a"},"vehicle_type_id":"4","last_reported":1716062877,"current_range_meters":4800,"station_id":"ce4bh0p2rcd13ifvqd80","pricing_plan_id":"cebpf4jnsgd1na2vs0mg"},{"bike_id":"db2e661e-214b-4396-b067-c5c4a6b539c7","system_id":"levelo_inurba_marseille","lat":43.303002,"lon":5.392142,"is_reserved":false,"is_disabled":false,"rental_uris":{"android":"levelo://app?vid=db2e661e-214b-4396-b067-c5c4a6b539c7","ios":"levelo://app?vid=db2e661e-214b-4396-b067-c5c4a6b539c7"},"vehicle_type_id":"4","last_reported":1716062877,"current_range_meters":0,"station_id":"ce4bgkh2rcd13ifvqbk0","pricing_plan_id":"cebpf4jnsgd1na2vs0mg"},{"bike_id":"f4cbc2df-b308-41dd-b036-afaf8d440bfb","system_id":"levelo_inurba_marseille","lat":43.303002,"lon":5.392142,"is_reserved":false,"is_disabled":false,"rental_uris":{"android":"levelo://app?vid=f4cbc2df-b308-41dd-b036-afaf8d440bfb","ios":"levelo://app?vid=f4cbc2df-b308-41dd-b036-afaf8d440bfb"},"vehicle_type_id":"4","last_reported":1716062877,"current_range_meters":10000,"station_id":"ce4bgkh2rcd13ifvqbk0","pricing_plan_id":"cebpf4jnsgd1na2vs0mg"},{"bike_id":"0d640fed-9ba2-4cad-86f1-a7ea29cc8b04","system_id":"levelo_inurba_marseille","lat":43.302993,"lon":5.392062,"is_reserved":false,"is_disabled":false,"rental_uris":{"android":"levelo://app?vid=0d640fed-9ba2-4cad-86f1-a7ea29cc8b04","ios":"levelo://app?vid=0d640fed-9ba2-4cad-86f1-a7ea29cc8b04"},"vehicle_type_id":"4","last_reported":1716062877,"current_range_meters":3600,"station_id":"ce4bgkh2rcd13ifvqbk0","pricing_plan_id":"cebpf4jnsgd1na2vs0mg"},{"bike_id":"f04e6c74-5682-4075-9ab1-763df9faa99e","system_id":"levelo_inurba_marseille","lat":43.302992,"lon":5.392136,"is_reserved":false,"is_disabled":false,"rental_uris":{"android":"levelo://app?vid=f04e6c74-5682-4075-9ab1-763df9faa99e","ios":"levelo://app?vid=f04e6c74-5682-4075-9ab1-763df9faa99e"},"vehicle_type_id":"4","last_reported":1716062877,"current_range_meters":3200,"station_id":"ce4bgkh2rcd13ifvqbk0","pricing_plan_id":"cebpf4jnsgd1na2vs0mg"},{"bike_id":"9590e3ca-6a30-4831-9d78-2d3cf0cfb7e0","system_id":"levelo_inurba_marseille","lat":43.303002,"lon":5.392142,"is_reserved":false,"is_disabled":false,"rental_uris":{"android":"levelo://app?vid=9590e3ca-6a30-4831-9d78-2d3cf0cfb7e0","ios":"levelo://app?vid=9590e3ca-6a30-4831-9d78-2d3cf0cfb7e0"},"vehicle_type_id":"4","last_reported":1716062877,"current_range_meters":0,"station_id":"ce4bgkh2rcd13ifvqbk0","pricing_plan_id":"cebpf4jnsgd1na2vs0mg"},{"bike_id":"3dc2779b-80e2-4826-83a5-28489a7097b5","system_id":"levelo_inurba_marseille","lat":43.30085,"lon":5.390856,"is_reserved":false,"is_disabled":false,"rental_uris":{"android":"levelo://app?vid=3dc2779b-80e2-4826-83a5-28489a7097b5","ios":"levelo://app?vid=3dc2779b-80e2-4826-83a5-28489a7097b5"},"vehicle_type_id":"4","last_reported":1716062877,"current_range_meters":16800,"station_id":"ce4bh192rcd13ifvqdb0","pricing_plan_id":"cebpf4jnsgd1na2vs0mg"},{"bike_id":"f9eb11bd-9059-4c7c-af68-97fb62a23aa1","system_id":"levelo_inurba_marseille","lat":43.302992,"lon":5.392136,"is_reserved":false,"is_disabled":false,"rental_uris":{"android":"levelo://app?vid=f9eb11bd-9059-4c7c-af68-97fb62a23aa1","ios":"levelo://app?vid=f9eb11bd-9059-4c7c-af68-97fb62a23aa1"},"vehicle_type_id":"4","last_reported":1716062877,"current_range_meters":24000,"station_id":"ce4bgkh2rcd13ifvqbk0","pricing_plan_id":"cebpf4jnsgd1na2vs0mg"},{"bike_id":"39a8ba50-fc71-432d-9ac1-a2e4853d14c3","system_id":"levelo_inurba_marseille","lat":43.30296,"lon":5.3922,"is_reserved":false,"is_disabled":false,"rental_uris":{"android":"levelo://app?vid=39a8ba50-fc71-432d-9ac1-a2e4853d14c3","ios":"levelo://app?vid=39a8ba50-fc71-432d-9ac1-a2e4853d14c3"},"vehicle_type_id":"4","last_reported":1716062877,"current_range_meters":800,"station_id":"ce4bgkh2rcd13ifvqbk0","pricing_plan_id":"cebpf4jnsgd1na2vs0mg"},{"bike_id":"d201d02b-7227-443a-ac5d-c2f3e36fc289","system_id":"levelo_inurba_marseille","lat":43.302992,"lon":5.392136,"is_reserved":false,"is_disabled":false,"rental_uris":{"android":"levelo://app?vid=d201d02b-7227-443a-ac5d-c2f3e36fc289","ios":"levelo://app?vid=d201d02b-7227-443a-ac5d-c2f3e36fc289"},"vehicle_type_id":"4","last_reported":1716062877,"current_range_meters":10000,"station_id":"ce4bgkh2rcd13ifvqbk0","pricing_plan_id":"cebpf4jnsgd1na2vs0mg"},{"bike_id":"ca0efc9e-1792-4f49-9bae-fcf52357a2dc","system_id":"levelo_inurba_marseille","lat":43.293651,"lon":5.378459,"is_reserved":false,"is_disabled":false,"rental_uris":{"android":"levelo://app?vid=ca0efc9e-1792-4f49-9bae-fcf52357a2dc","ios":"levelo://app?vid=ca0efc9e-1792-4f49-9bae-fcf52357a2dc"},"vehicle_type_id":"4","last_reported":1716062877,"current_range_meters":0,"station_id":"ce4bgjh2rcd13ifvqbf0","pricing_plan_id":"cebpf4jnsgd1na2vs0mg"},{"bike_id":"442ce872-aec3-42a6-ab14-b49ab35df333","system_id":"levelo_inurba_marseille","lat":43.303002,"lon":5.392142,"is_reserved":false,"is_disabled":false,"rental_uris":{"android":"levelo://app?vid=442ce872-aec3-42a6-ab14-b49ab35df333","ios":"levelo://app?vid=442ce872-aec3-42a6-ab14-b49ab35df333"},"vehicle_type_id":"4","last_reported":1716062877,"current_range_meters":8400,"station_id":"ce4bgkh2rcd13ifvqbk0","pricing_plan_id":"cebpf4jnsgd1na2vs0mg"},{"bike_id":"d776e964-af11-4736-b844-acfde85b87fc","system_id":"levelo_inurba_marseille","lat":43.298764,"lon":5.388973,"is_reserved":false,"is_disabled":false,"rental_uris":{"android":"levelo://app?vid=d776e964-af11-4736-b844-acfde85b87fc","ios":"levelo://app?vid=d776e964-af11-4736-b844-acfde85b87fc"},"vehicle_type_id":"4","last_reported":1716062877,"current_range_meters":2800,"station_id":"ce4bh392rcd13ifvqdl0","pricing_plan_id":"cebpf4jnsgd1na2vs0mg"},{"bike_id":"21b8f7be-aafe-41fb-b135-95ecd6e1bff7","system_id":"levelo_inurba_marseille","lat":43.300852,"lon":5.390859,"is_reserved":false,"is_disabled":false,"rental_uris":{"android":"levelo://app?vid=21b8f7be-aafe-41fb-b135-95ecd6e1bff7","ios":"levelo://app?vid=21b8f7be-aafe-41fb-b135-95ecd6e1bff7"},"vehicle_type_id":"4","last_reported":1716062877,"current_range_meters":0,"station_id":"ce4bh192rcd13ifvqdb0","pricing_plan_id":"cebpf4jnsgd1na2vs0mg"},{"bike_id":"4d95b904-52a7-40c8-a2a0-7cc584cc9715","system_id":"levelo_inurba_marseille","lat":43.30085,"lon":5.390856,"is_reserved":false,"is_disabled":false,"rental_uris":{"android":"levelo://app?vid=4d95b904-52a7-40c8-a2a0-7cc584cc9715","ios":"levelo://app?vid=4d95b904-52a7-40c8-a2a0-7cc584cc9715"},"vehicle_type_id":"4","last_reported":1716062877,"current_range_meters":8000,"station_id":"ce4bh192rcd13ifvqdb0","pricing_plan_id":"cebpf4jnsgd1na2vs0mg"},{"bike_id":"2a52fad9-c6cb-4072-ae1f-7bcafcb355e3","system_id":"levelo_inurba_marseille","lat":43.30085,"lon":5.390856,"is_reserved":false,"is_disabled":false,"rental_uris":{"android":"levelo://app?vid=2a52fad9-c6cb-4072-ae1f-7bcafcb355e3","ios":"levelo://app?vid=2a52fad9-c6cb-4072-ae1f-7bcafcb355e3"},"vehicle_type_id":"4","last_reported":1716062877,"current_range_meters":800,"station_id":"ce4bh192rcd13ifvqdb0","pricing_plan_id":"cebpf4jnsgd1na2vs0mg"},{"bike_id":"934fb0bf-b1c5-45d3-a367-c0e949e2b8ff","system_id":"levelo_inurba_marseille","lat":43.300852,"lon":5.390859,"is_reserved":false,"is_disabled":false,"rental_uris":{"android":"levelo://app?vid=934fb0bf-b1c5-45d3-a367-c0e949e2b8ff","ios":"levelo://app?vid=934fb0bf-b1c5-45d3-a367-c0e949e2b8ff"},"vehicle_type_id":"4","last_reported":1716062877,"current_range_meters":4800,"station_id":"ce4bh192rcd13ifvqdb0","pricing_plan_id":"cebpf4jnsgd1na2vs0mg"},{"bike_id":"3fb2efe1-f2a9-4109-8acc-94a37dccaf6e","system_id":"levelo_inurba_marseille","lat":43.32367,"lon":5.388836,"is_reserved":false,"is_disabled":false,"rental_uris":{"android":"levelo://app?vid=3fb2efe1-f2a9-4109-8acc-94a37dccaf6e","ios":"levelo://app?vid=3fb2efe1-f2a9-4109-8acc-94a37dccaf6e"},"vehicle_type_id":"4","last_reported":1716062877,"current_range_meters":3600,"station_id":"ce4bhqp2rcd13ifvqhog","pricing_plan_id":"cebpf4jnsgd1na2vs0mg"},{"bike_id":"b4bd88bf-0e47-47a3-9959-dbe32fc2a413","system_id":"levelo_inurba_marseille","lat":43.298764,"lon":5.388973,"is_reserved":false,"is_disabled":false,"rental_uris":{"android":"levelo://app?vid=b4bd88bf-0e47-47a3-9959-dbe32fc2a413","ios":"levelo://app?vid=b4bd88bf-0e47-47a3-9959-dbe32fc2a413"},"vehicle_type_id":"4","last_reported":1716062877,"current_range_meters":13600,"station_id":"ce4bh392rcd13ifvqdl0","pricing_plan_id":"cebpf4jnsgd1na2vs0mg"},{"bike_id":"2aaee673-6831-475c-81cc-e8a6091b6ec4","system_id":"levelo_inurba_marseille","lat":43.298764,"lon":5.388973,"is_reserved":false,"is_disabled":false,"rental_uris":{"android":"levelo://app?vid=2aaee673-6831-475c-81cc-e8a6091b6ec4","ios":"levelo://app?vid=2aaee673-6831-475c-81cc-e8a6091b6ec4"},"vehicle_type_id":"4","last_reported":1716062877,"current_range_meters":18800,"station_id":"ce4bh392rcd13ifvqdl0","pricing_plan_id":"cebpf4jnsgd1na2vs0mg"},{"bike_id":"1f3e7094-272b-4556-8d17-ae3505035d12","system_id":"levelo_inurba_marseille","lat":43.293009,"lon":5.374584,"is_reserved":false,"is_disabled":false,"rental_uris":{"android":"levelo://app?vid=1f3e7094-272b-4556-8d17-ae3505035d12","ios":"levelo://app?vid=1f3e7094-272b-4556-8d17-ae3505035d12"},"vehicle_type_id":"4","last_reported":1716062877,"current_range_meters":4000,"station_id":"ce4bgi12rcd13ifvqb70","pricing_plan_id":"cebpf4jnsgd1na2vs0mg"},{"bike_id":"948d2bbc-afcd-406e-ba75-309299f6239a","system_id":"levelo_inurba_marseille","lat":43.298764,"lon":5.388973,"is_reserved":false,"is_disabled":false,"rental_uris":{"android":"levelo://app?vid=948d2bbc-afcd-406e-ba75-309299f6239a","ios":"levelo://app?vid=948d2bbc-afcd-406e-ba75-309299f6239a"},"vehicle_type_id":"4","last_reported":1716062877,"current_range_meters":20000,"station_id":"ce4bh392rcd13ifvqdl0","pricing_plan_id":"cebpf4jnsgd1na2vs0mg"},{"bike_id":"3896fc80-8bde-49db-911c-96543a704a5a","system_id":"levelo_inurba_marseille","lat":43.291671,"lon":5.371575,"is_reserved":false,"is_disabled":false,"rental_uris":{"android":"levelo://app?vid=3896fc80-8bde-49db-911c-96543a704a5a","ios":"levelo://app?vid=3896fc80-8bde-49db-911c-96543a704a5a"},"vehicle_type_id":"4","last_reported":1716062877,"current_range_meters":0,"station_id":"ce4bha92rcd13ifvqeh0","pricing_plan_id":"cebpf4jnsgd1na2vs0mg"},{"bike_id":"6d0a9b7e-07e0-4a39-a7e4-59dd805a80ad","system_id":"levelo_inurba_marseille","lat":43.291694,"lon":5.371522,"is_reserved":false,"is_disabled":false,"rental_uris":{"android":"levelo://app?vid=6d0a9b7e-07e0-4a39-a7e4-59dd805a80ad","ios":"levelo://app?vid=6d0a9b7e-07e0-4a39-a7e4-59dd805a80ad"},"vehicle_type_id":"4","last_reported":1716062877,"current_range_meters":0,"station_id":"ce4bha92rcd13ifvqeh0","pricing_plan_id":"cebpf4jnsgd1na2vs0mg"},{"bike_id":"c4e09d37-41d4-4c05-b280-145b25e3f409","system_id":"levelo_inurba_marseille","lat":43.291675,"lon":5.371583,"is_reserved":false,"is_disabled":false,"rental_uris":{"android":"levelo://app?vid=c4e09d37-41d4-4c05-b280-145b25e3f409","ios":"levelo://app?vid=c4e09d37-41d4-4c05-b280-145b25e3f409"},"vehicle_type_id":"4","last_reported":1716062877,"current_range_meters":0,"station_id":"ce4bha92rcd13ifvqeh0","pricing_plan_id":"cebpf4jnsgd1na2vs0mg"},{"bike_id":"499ac8b9-8f94-4444-82b5-cbc1f3fe698b","system_id":"levelo_inurba_marseille","lat":43.29873,"lon":5.38904,"is_reserved":false,"is_disabled":false,"rental_uris":{"android":"levelo://app?vid=499ac8b9-8f94-4444-82b5-cbc1f3fe698b","ios":"levelo://app?vid=499ac8b9-8f94-4444-82b5-cbc1f3fe698b"},"vehicle_type_id":"4","last_reported":1716062877,"current_range_meters":400,"station_id":"ce4bh392rcd13ifvqdl0","pricing_plan_id":"cebpf4jnsgd1na2vs0mg"},{"bike_id":"f791b441-4a84-46ef-9489-b5f9dfb13695","system_id":"levelo_inurba_marseille","lat":43.29167,"lon":5.37155,"is_reserved":false,"is_disabled":false,"rental_uris":{"android":"levelo://app?vid=f791b441-4a84-46ef-9489-b5f9dfb13695","ios":"levelo://app?vid=f791b441-4a84-46ef-9489-b5f9dfb13695"},"vehicle_type_id":"4","last_reported":1716062877,"current_range_meters":0,"station_id":"ce4bha92rcd13ifvqeh0","pricing_plan_id":"cebpf4jnsgd1na2vs0mg"},