{"last_updated":1713532083,"ttl":30,"version":"2.2","data":{"bikes":[{"bike_id":"7773e9d6-02e3-4f4a-a016-42953dc203ab","system_id":"levelo_inurba_marseille","lat":43.31341,"lon":5.367098,"is_reserved":false,"is_disabled":false,"rental_uris":{"android":"levelo://app?vid=7773e9d6-02e3-4f4a-a016-42953dc203ab","ios":"levelo://app?vid=7773e9d6-02e3-4f4a-a016-42953dc203ab"},"vehicle_type_id":"4","last_reported":1713532083,"current_range_meters":5200,"station_id":"ce4bgr92rcd13ifvqc6g","pricing_plan_id":"cebpf4jnsgd1na2vs0mg"},{"bike_id":"9200cdc7-9582-409c-b863-9d0c358d53a3","system_id":"levelo_inurba_marseille","lat":43.312239,"lon":5.368562,"is_reserved":false,"is_disabled":false,"rental_uris":{"android":"levelo://app?vid=9200cdc7-9582-409c-b863-9d0c358d53a3","ios":"levelo://app?vid=9200cdc7-9582-409c-b863-9d0c358d53a3"},"vehicle_type_id":"4","last_reported":1713532083,"current_range_meters":18000,"station_id":"ce4bgl92rcd13ifvqbq0","pricing_plan_id":"cebpf4jnsgd1na2vs0mg"},{"bike_id":"4c27848b-2da5-4c54-9319-85ba246ef812","system_id":"levelo_inurba_marseille","lat":43.312239,"lon":5.368562,"is_reserved":false,"is_disabled":false,"rental_uris":{"android":"levelo://app?vid=4c27848b-2da5-4c54-9319-85ba246ef812","ios":"levelo://app?vid=4c27848b-2da5-4c54-9319-85ba246ef812"},"vehicle_type_id":"4","last_reported":1713532083,"current_range_meters":21600,"station_id":"ce4bgl92rcd13ifvqbq0","pricing_plan_id":"cebpf4jnsgd1na2vs0mg"},{"bike_id":"d20b388b-89de-423e-b4b3-ee42bc649875","system_id":"levelo_inurba_marseille","lat":43.30902,"lon":5.36839,"is_reserved":false,"is_disabled":false,"rental_uris":{"android":"levelo://app?vid=d20b388b-89de-423e-b4b3-ee42bc649875","ios":"levelo://app?vid=d20b388b-89de-423e-b4b3-ee42bc649875"},"vehicle_type_id":"4","last_reported":1713532083,"current_range_meters":12000,"station_id":"ce4bgn92rcd13ifvqbvg","pricing_plan_id":"cebpf4jnsgd1na2vs0mg"},{"bike_id":"beddb27c-8150-40cf-bbb6-5fe39079a399","system_id":"levelo_inurba_marseille","lat":43.30903,"lon":5.36856,"is_reserved":false,"is_disabled":false,"rental_uris":{"android":"levelo://app?vid=beddb27c-8150-40cf-bbb6-5fe39079a399","ios":"levelo://app?vid=beddb27c-8150-40cf-bbb6-5fe39079a399"},"vehicle_type_id":"4","last_reported":1713532083,"current_range_meters":31200,"station_id":"ce4bgn92rcd13ifvqbvg","pricing_plan_id":"cebpf4jnsgd1na2vs0mg"},{"bike_id":"d795b2d5-07a2-4922-a018-c7d547c37f3c","system_id":"levelo_inurba_marseille","lat":43.3149,"lon":5.37305,"is_reserved":false,"is_disabled":false,"rental_uris":{"android":"levelo://app?vid=d795b2d5-07a2-4922-a018-c7d547c37f3c","ios":"levelo://app?vid=d795b2d5-07a2-4922-a018-c7d547c37f3c"},"vehicle_type_id":"4","last_reported":1713532083,"current_range_meters":7200,"station_id":"ce4bgt12rcd13ifvqcd0","pricing_plan_id":"cebpf4jnsgd1na2vs0mg"},{"bike_id":"c5f1dd3f-0d39-4d38-bc11-c51f4275ad56","system_id":"levelo_inurba_marseille","lat":43.31485,"lon":5.3731,"is_reserved":false,"is_disabled":false,"rental_uris":{"android":"levelo://app?vid=c5f1dd3f-0d39-4d38-bc11-c51f4275ad56","ios":"levelo://app?vid=c5f1dd3f-0d39-4d38-bc11-c51f4275ad56"},"vehicle_type_id":"4","last_reported":1713532083,"current_range_meters":13600,"station_id":"ce4bgt12rcd13ifvqcd0","pricing_plan_id":"cebpf4jnsgd1na2vs0mg"},{"bike_id":"7894f5cb-a039-4d5a-9e36-521d0ee087ab","system_id":"levelo_inurba_marseille","lat":43.314885,"lon":5.373095,"is_reserved":false,"is_disabled":false,"rental_uris":{"android":"levelo://app?vid=7894f5cb-a039-4d5a-9e36-521d0ee087ab","ios":"levelo://app?vid=7894f5cb-a039-4d5a-9e36-521d0ee087ab"},"vehicle_type_id":"4","last_reported":1713532083,"current_range_meters":18800,"station_id":"ce4bgt12rcd13ifvqcd0","pricing_plan_id":"cebpf4jnsgd1na2vs0mg"},{"bike_id":"f3ae1ccb-ffc7-4cb2-9043-f1bc59a88bb2","system_id":"levelo_inurba_marseille","lat":43.314811,"lon":5.373104,"is_reserved":false,"is_disabled":false,"rental_uris":{"android":"levelo://app?vid=f3ae1ccb-ffc7-4cb2-9043-f1bc59a88bb2","ios":"levelo://app?vid=f3ae1ccb-ffc7-4cb2-9043-f1bc59a88bb2"},"vehicle_type_id":"4","last_reported":1713532083,"current_range_meters":16800,"station_id":"ce4bgt12rcd13ifvqcd0","pricing_plan_id":"cebpf4jnsgd1na2vs0mg"},{"bike_id":"da75dee2-bcf9-4348-812f-8328cff53ab1","system_id":"levelo_inurba_marseille","lat":43.309039,"lon":5.371797,"is_reserved":false,"is_disabled":false,"rental_uris":{"android":"levelo://app?vid=da75dee2-bcf9-4348-812f-8328cff53ab1","ios":"levelo://app?vid=da75dee2-bcf9-4348-812f-8328cff53ab1"},"vehicle_type_id":"4","last_reported":1713532083,"current_range_meters":22400,"station_id":"ce4bguh2rcd13ifvqckg","pricing_plan_id":"cebpf4jnsgd1na2vs0mg"},{"bike_id":"3cec7641-e3db-43ab-934f-a6c38c6c4cc4","system_id":"levelo_inurba_marseille","lat":43.309039,"lon":5.371797,"is_reserved":false,"is_disabled":false,"rental_uris":{"android":"levelo://app?vid=3cec7641-e3db-43ab-934f-a6c38c6c4cc4","ios":"levelo://app?vid=3cec7641-e3db-43ab-934f-a6c38c6c4cc4"},"vehicle_type_id":"4","last_reported":1713532083,"current_range_meters":4000,"station_id":"ce4bguh2rcd13ifvqckg","pricing_plan_id":"cebpf4jnsgd1na2vs0mg"},{"bike_id":"561d2bf0-9473-4622-bd9d-dd223a8228f6","system_id":"levelo_inurba_marseille","lat":43.309034,"lon":5.371783,"is_reserved":false,"is_disabled":false,"rental_uris":{"android":"levelo://app?vid=561d2bf0-9473-4622-bd9d-dd223a8228f6","ios":"levelo://app?vid=561d2bf0-9473-4622-bd9d-dd223a8228f6"},"vehicle_type_id":"4","last_reported":1713532083,"current_range_meters":9200,"station_id":"ce4bguh2rcd13ifvqckg","pricing_plan_id":"cebpf4jnsgd1na2vs0mg"},{"bike_id":"d7905380-d340-41a7-9346-48353fc3196a","system_id":"levelo_inurba_marseille","lat":43.309039,"lon":5.371797,"is_reserved":false,"is_disabled":false,"rental_uris":{"android":"levelo://app?vid=d7905380-d340-41a7-9346-48353fc3196a","ios":"levelo://app?vid=d7905380-d340-41a7-9346-48353fc3196a"},"vehicle_type_id":"4","last_reported":1713532083,"current_range_meters":17600,"station_id":"ce4bguh2rcd13ifvqckg","pricing_plan_id":"cebpf4jnsgd1na2vs0mg"},{"bike_id":"a92058c6-461e-431d-a7fb-2126937fff79","system_id":"levelo_inurba_marseille","lat":43.30537,"lon":5.367345,"is_reserved":false,"is_disabled":false,"rental_uris":{"android":"levelo://app?vid=a92058c6-461e-431d-a7fb-2126937fff79","ios":"levelo://app?vid=a92058c6-461e-431d-a7fb-2126937fff79"},"vehicle_type_id":"4","last_reported":1713532083,"current_range_meters":29600,"station_id":"ce4bgrp2rcd13ifvqc9g","pricing_plan_id":"cebpf4jnsgd1na2vs0mg"},{"bike_id":"6457bef5-e7ec-4387-a6b1-af87b7e90cc6","system_id":"levelo_inurba_marseille","lat":43.30537,"lon":5.367345,"is_reserved":false,"is_disabled":false,"rental_uris":{"android":"levelo://app?vid=6457bef5-e7ec-4387-a6b1-af87b7e90cc6","ios":"levelo://app?vid=6457bef5-e7ec-4387-a6b1-af87b7e90cc6"},"vehicle_type_id":"4","last_reported":1713532083,"current_range_meters":18800,"station_id":"ce4bgrp2rcd13ifvqc9g","pricing_plan_id":"cebpf4jnsgd1na2vs0mg"},{"bike_id":"8bacd745-8f75-4e15-8ce2-168cce5daee3","system_id":"levelo_inurba_marseille","lat":43.305712,"lon":5.365641,"is_reserved":false,"is_disabled":false,"rental_uris":{"android":"levelo://app?vid=8bacd745-8f75-4e15-8ce2-168cce5daee3","ios":"levelo://app?vid=8bacd745-8f75-4e15-8ce2-168cce5daee3"},"vehicle_type_id":"4","last_reported":1713532083,"current_range_meters":13600,"station_id":"ce4bgs12rcd13ifvqcag","pricing_plan_id":"cebpf4jnsgd1na2vs0mg"},{"bike_id":"5048215d-7b70-43d9-9e4d-4357b559deeb","system_id":"levelo_inurba_marseille","lat":43.30537,"lon":5.367345,"is_reserved":false,"is_disabled":false,"rental_uris":{"android":"levelo://app?vid=5048215d-7b70-43d9-9e4d-4357b559deeb","ios":"levelo://app?vid=5048215d-7b70-43d9-9e4d-4357b559deeb"},"vehicle_type_id":"4","last_reported":1713532083,"current_range_meters":13200,"station_id":"ce4bgrp2rcd13ifvqc9g","pricing_plan_id":"cebpf4jnsgd1na2vs0mg"},{"bike_id":"6b10f9a2-f5c7-46ac-9f33-65241a199418","system_id":"levelo_inurba_marseille","lat":43.30537,"lon":5.367345,"is_reserved":false,"is_disabled":false,"rental_uris":{"android":"levelo://app?vid=6b10f9a2-f5c7-46ac-9f33-65241a199418","ios":"levelo://app?vid=6b10f9a2-f5c7-46ac-9f33-65241a199418"},"vehicle_type_id":"4","last_reported":1713532083,"current_range_meters":31200,"station_id":"ce4bgrp2rcd13ifvqc9g","pricing_plan_id":"cebpf4jnsgd1na2vs0mg"},{"bike_id":"62e4f6d4-86e3-4208-9469-693ea46317c1","system_id":"levelo_inurba_marseille","lat":43.30537,"lon":5.367345,"is_reserved":false,"is_disabled":false,"rental_uris":{"android":"levelo://app?vid=62e4f6d4-86e3-4208-9469-693ea46317c1","ios":"levelo://app?vid=62e4f6d4-86e3-4208-9469-693ea46317c1"},"vehicle_type_id":"4","last_reported":1713532083,"current_range_meters":22800,"station_id":"ce4bgrp2rcd13ifvqc9g","pricing_plan_id":"cebpf4jnsgd1na2vs0mg"},{"bike_id":"ae9a7a2c-b95f-4f9b-954b-df91ddc2002d","system_id":"levelo_inurba_marseille","lat":43.305712,"lon":5.365641,"is_reserved":false,"is_disabled":false,"rental_uris":{"android":"levelo://app?vid=ae9a7a2c-b95f-4f9b-954b-df91ddc2002d","ios":"levelo://app?vid=ae9a7a2c-b95f-4f9b-954b-df91ddc2002d"},"vehicle_type_id":"4","last_reported":1713532083,"current_range_meters":26000,"station_id":"ce4bgs12rcd13ifvqcag","pricing_plan_id":"cebpf4jnsgd1na2vs0mg"},{"bike_id":"01962af2-44a4-44ef-9f26-83950c3e8554","system_id":"levelo_inurba_marseille","lat":43.305368,"lon":5.367343,"is_reserved":false,"is_disabled":false,"rental_uris":{"android":"levelo://app?vid=01962af2-44a4-44ef-9f26-83950c3e8554","ios":"levelo://app?vid=01962af2-44a4-44ef-9f26-83950c3e8554"},"vehicle_type_id":"4","last_reported":1713532083,"current_range_meters":28400,"station_id":"ce4bgrp2rcd13ifvqc9g","pricing_plan_id":"cebpf4jnsgd1na2vs0mg"},{"bike_id":"0ba9ae79-8121-4d01-91a0-77f1eb62a725","system_id":"levelo_inurba_marseille","lat":43.30537,"lon":5.367345,"is_reserved":false,"is_disabled":false,"rental_uris":{"android":"levelo://app?vid=0ba9ae79-8121-4d01-91a0-77f1eb62a725","ios":"levelo://app?vid=0ba9ae79-8121-4d01-91a0-77f1eb62a725"},"vehicle_type_id":"4","last_reported":1713532083,"current_range_meters":24400,"station_id":"ce4bgrp2rcd13ifvqc9g","pricing_plan_id":"cebpf4jnsgd1na2vs0mg"},{"bike_id":"eaf9e85f-ad4e-4ba5-b7aa-747480ef8983","system_id":"levelo_inurba_marseille","lat":43.305712,"lon":5.365641,"is_reserved":false,"is_disabled":false,"rental_uris":{"android":"levelo://app?vid=eaf9e85f-ad4e-4ba5-b7aa-747480ef8983","ios":"levelo://app?vid=eaf9e85f-ad4e-4ba5-b7aa-747480ef8983"},"vehicle_type_id":"4","last_reported":1713532083,"current_range_meters":25200,"station_id":"ce4bgs12rcd13ifvqcag","pricing_plan_id":"cebpf4jnsgd1na2vs0mg"},{"bike_id":"9f990276-d769-4e3b-b492-13a2071202a3","system_id":"levelo_inurba_marseille","lat":43.30537,"lon":5.367345,"is_reserved":false,"is_disabled":false,"rental_uris":{"android":"levelo://app?vid=9f990276-d769-4e3b-b492-13a2071202a3","ios":"levelo://app?vid=9f990276-d769-4e3b-b492-13a2071202a3"},"vehicle_type_id":"4","last_reported":1713532083,"current_range_meters":31200,"station_id":"ce4bgrp2rcd13ifvqc9g","pricing_plan_id":"cebpf4jnsgd1na2vs0mg"},{"bike_id":"52f22b5a-486d-4c62-a4ac-137bfb2f235e","system_id":"levelo_inurba_marseille","lat":43.30554,"lon":5.36534,"is_reserved":false,"is_disabled":false,"rental_uris":{"android":"levelo://app?vid=52f22b5a-486d-4c62-a4ac-137bfb2f235e","ios":"levelo://app?vid=52f22b5a-486d-4c62-a4ac-137bfb2f235e"},"vehicle_type_id":"4","last_reported":1713532083,"current_range_meters":25600,"station_id":"","pricing_plan_id":"cebpf4jnsgd1na2vs0mg"},{"bike_id":"9e1371a5-babd-48a3-8010-d19d1b5b8f81","system_id":"levelo_inurba_marseille","lat":43.305527,"lon":5.365353,"is_reserved":false,"is_disabled":false,"rental_uris":{"android":"levelo://app?vid=9e1371a5-babd-48a3-8010-d19d1b5b8f81","ios":"levelo://app?vid=9e1371a5-babd-48a3-8010-d19d1b5b8f81"},"vehicle_type_id":"4","last_reported":1713532083,"current_range_meters":21600,"station_id":"","pricing_plan_id":"cebpf4jnsgd1na2vs0mg"},{"bike_id":"6cc203f3-b20f-4a76-be13-df3f04313441","system_id":"levelo_inurba_marseille","lat":43.30537,"lon":5.367345,"is_reserved":false,"is_disabled":false,"rental_uris":{"android":"levelo://app?vid=6cc203f3-b20f-4a76-be13-df3f04313441","ios":"levelo://app?vid=6cc203f3-b20f-4a76-be13-df3f04313441"},"vehicle_type_id":"4","last_reported":1713532083,"current_range_meters":15600,"station_id":"ce4bgrp2rcd13ifvqc9g","pricing_plan_id":"cebpf4jnsgd1na2vs0mg"},{"bike_id":"a8d35f04-0649-467f-9860-bf95b247d639","system_id":"levelo_inurba_marseille","lat":43.30537,"lon":5.367345,"is_reserved":false,"is_disabled":false,"rental_uris":{"android":"levelo://app?vid=a8d35f04-0649-467f-9860-bf95b247d639","ios":"levelo://app?vid=a8d35f04-0649-467f-9860-bf95b247d639"},"vehicle_type_id":"4","last_reported":1713532083,"current_range_meters":10400,"station_id":"ce4bgrp2rcd13ifvqc9g","pricing_plan_id":"cebpf4jnsgd1na2vs0mg"},{"bike_id":"8a35c519-bbfc-4724-a171-2ff6cb095b2b","system_id":"levelo_inurba_marseille","lat":43.305712,"lon":5.365641,"is_reserved":false,"is_disabled":false,"rental_uris":{"android":"levelo://app?vid=8a35c519-bbfc-4724-a171-2ff6cb095b2b","ios":"levelo://app?vid=8a35c519-bbfc-4724-a171-2ff6cb095b2b"},"vehicle_type_id":"4","last_reported":1713532083,"current_range_meters":26000,"station_id":"ce4bgs12rcd13ifvqcag","pricing_plan_id":"cebpf4jnsgd1na2vs0mg"},{"bike_id":"226b461f-ed76-4931-9bbc-0bf703e6c94e","system_id":"levelo_inurba_marseille","lat":43.305714,"lon":5.365633,"is_reserved":false,"is_disabled":false,"rental_uris":{"android":"levelo://app?vid=226b461f-ed76-4931-9bbc-0bf703e6c94e","ios":"levelo://app?vid=226b461f-ed76-4931-9bbc-0bf703e6c94e"},"vehicle_type_id":"4","last_reported":1713532083,"current_range_meters":29600,"station_id":"ce4bgs12rcd13ifvqcag","pricing_plan_id":"cebpf4jnsgd1na2vs0mg"},{"bike_id":"b5a80e02-abbd-47c8-9a1d-8f97b78e8c27","system_id":"levelo_inurba_marseille","lat":43.30537,"lon":5.367345,"is_reserved":false,"is_disabled":false,"rental_uris":{"android":"levelo://app?vid=b5a80e02-abbd-47c8-9a1d-8f97b78e8c27","ios":"levelo://app?vid=b5a80e02-abbd-47c8-9a1d-8f97b78e8c27"},"vehicle_type_id":"4","last_reported":1713532083,"current_range_meters":30400,"station_id":"ce4bgrp2rcd13ifvqc9g","pricing_plan_id":"cebpf4jnsgd1na2vs0mg"},{"bike_id":"63eb9656-a131-4201-8238-9a06a074c254","system_id":"levelo_inurba_marseille","lat":43.305712,"lon":5.365641,"is_reserved":false,"is_disabled":false,"rental_uris":{"android":"levelo://app?vid=63eb9656-a131-4201-8238-9a06a074c254","ios":"levelo://app?vid=63eb9656-a131-4201-8238-9a06a074c254"},"vehicle_type_id":"4","last_reported":1713532083,"current_range_meters":30400,"station_id":"ce4bgs12rcd13ifvqcag","pricing_plan_id":"cebpf4jnsgd1na2vs0mg"},{"bike_id":"527cf6c5-812e-46ce-aa6d-21ebb367a09d","system_id":"levelo_inurba_marseille","lat":43.30537,"lon":5.367345,"is_reserved":false,"is_disabled":false,"rental_uris":{"android":"levelo://app?vid=527cf6c5-812e-46ce-aa6d-21ebb367a09d","ios":"levelo://app?vid=527cf6c5-812e-46ce-aa6d-21ebb367a09d"},"vehicle_type_id":"4","last_reported":1713532083,"current_range_meters":11200,"station_id":"ce4bgrp2rcd13ifvqc9g","pricing_plan_id":"cebpf4jnsgd1na2vs0mg"},{"bike_id":"ed119f42-4d3b-4e97-a57e-46482adcf98e","system_id":"levelo_inurba_marseille","lat":43.305368,"lon":5.367343,"is_reserved":false,"is_disabled":false,"rental_uris":{"android":"levelo://app?vid=ed119f42-4d3b-4e97-a57e-46482adcf98e","ios":"levelo://app?vid=ed119f42-4d3b-4e97-a57e-46482adcf98e"},"vehicle_type_id":"4","last_reported":1713532083,"current_range_meters":28000,"station_id":"ce4bgrp2rcd13ifvqc9g","pricing_plan_id":"cebpf4jnsgd1na2vs0mg"},{"bike_id":"23cc50e1-ee79-42a2-9944-0143565dfa89","system_id":"levelo_inurba_marseille","lat":43.305368,"lon":5.367343,"is_reserved":false,"is_disabled":false,"rental_uris":{"android":"levelo://app?vid=23cc50e1-ee79-42a2-9944-0143565dfa89","ios":"levelo://app?vid=23cc50e1-ee79-42a2-9944-0143565dfa89"},"vehicle_type_id":"4","last_reported":1713532083,"current_range_meters":31600,"station_id":"ce4bgrp2rcd13ifvqc9g","pricing_plan_id":"cebpf4jnsgd1na2vs0mg"},{"bike_id":"6c6b38cf-2acc-4cde-83c5-a2234f71c0a4","system_id":"levelo_inurba_marseille","lat":43.305712,"lon":5.365641,"is_reserved":false,"is_disabled":false,"rental_uris":{"android":"levelo://app?vid=6c6b38cf-2acc-4cde-83c5-a2234f71c0a4","ios":"levelo://app?vid=6c6b38cf-2acc-4cde-83c5-a2234f71c0a4"},"vehicle_type_id":"4","last_reported":1713532083,"current_range_meters":22000,"station_id":"ce4bgs12rcd13ifvqcag","pricing_plan_id":"cebpf4jnsgd1na2vs0mg"},{"bike_id":"07d3c8a8-a288-4890-8bf7-67ea9a64cb3b","system_id":"levelo_inurba_marseille","lat":43.305368,"lon":5.367343,"is_reserved":false,"is_disabled":false,"rental_uris":{"android":"levelo://app?vid=07d3c8a8-a288-4890-8bf7-67ea9a64cb3b","ios":"levelo://app?vid=07d3c8a8-a288-4890-8bf7-67ea9a64cb3b"},"vehicle_type_id":"4","last_reported":1713532083,"current_range_meters":9600,"station_id":"ce4bgrp2rcd13ifvqc9g","pricing_plan_id":"cebpf4jnsgd1na2vs0mg"},{"bike_id":"362059f5-d923-4041-b7ac-51ca6f3be563","system_id":"levelo_inurba_marseille","lat":43.305714,"lon":5.365633,"is_reserved":false,"is_disabled":false,"rental_uris":{"android":"levelo://app?vid=362059f5-d923-4041-b7ac-51ca6f3be563","ios":"levelo://app?vid=362059f5-d923-4041-b7ac-51ca6f3be563"},"vehicle_type_id":"4","last_reported":1713532083,"current_range_meters":29200,"station_id":"ce4bgs12rcd13ifvqcag","pricing_plan_id":"cebpf4jnsgd1na2vs0mg"},{"bike_id":"114ac6ca-d1ac-4250-8c3a-26093b1ddef6","system_id":"levelo_inurba_marseille","lat":43.305712,"lon":5.365641,"is_reserved":false,"is_disabled":false,"rental_uris":{"android":"levelo://app?vid=114ac6ca-d1ac-4250-8c3a-26093b1ddef6","ios":"levelo://app?vid=114ac6ca-d1ac-4250-8c3a-26093b1ddef6"},"vehicle_type_id":"4","last_reported":1713532083,"current_range_meters":4400,"station_id":"ce4bgs12rcd13ifvqcag","pricing_plan_id":"cebpf4jnsgd1na2vs0mg"},{"bike_id":"c3ec4285-0fc2-4f21-99bc-1d8c966e100f","system_id":"levelo_inurba_marseille","lat":43.305714,"lon":5.365633,"is_reserved":false,"is_disabled":false,"rental_uris":{"android":"levelo://app?vid=c3ec4285-0fc2-4f21-99bc-1d8c966e100f","ios":"levelo://app?vid=c3ec4285-0fc2-4f21-99bc-1d8c966e100f"},"vehicle_type_id":"4","last_reported":1713532083,"current_range_meters":12400,"station_id":"ce4bgs12rcd13ifvqcag","pricing_plan_id":"cebpf4jnsgd1na2vs0mg"},{"bike_id":"e925cab8-0a13-425d-bd9a-b0a18af74db4","system_id":"levelo_inurba_marseille","lat":43.305706,"lon":5.365654,"is_reserved":false,"is_disabled":false,"rental_uris":{"android":"levelo://app?vid=e925cab8-0a13-425d-bd9a-b0a18af74db4","ios":"levelo://app?vid=e925cab8-0a13-425d-bd9a-b0a18af74db4"},"vehicle_type_id":"4","last_reported":1713532083,"current_range_meters":27600,"station_id":"ce4bgs12rcd13ifvqcag","pricing_plan_id":"cebpf4jnsgd1na2vs0mg"},{"bike_id":"a9f21020-52f2-4437-bf75-030c6bf317a7","system_id":"levelo_inurba_marseille","lat":43.305714,"lon":5.365633,"is_reserved":false,"is_disabled":false,"rental_uris":{"android":"levelo://app?vid=a9f21020-52f2-4437-bf75-030c6bf317a7","ios":"levelo://app?vid=a9f21020-52f2-4437-bf75-030c6bf317a7"},"vehicle_type_id":"4","last_reported":1713532083,"current_range_meters":31200,"station_id":"ce4bgs12rcd13ifvqcag","pricing_plan_id":"cebpf4jnsgd1na2vs0mg"},{"bike_id":"32a87384-f834-4422-bdcd-b076a6e9ff3e","system_id":"levelo_inurba_marseille","lat":43.305368,"lon":5.367343,"is_reserved":false,"is_disabled":false,"rental_uris":{"android":"levelo://app?vid=32a87384-f834-4422-bdcd-b076a6e9ff3e","ios":"levelo://app?vid=32a87384-f834-4422-bdcd-b076a6e9ff3e"},"vehicle_type_id":"4","last_reported":1713532083,"current_range_meters":18000,"station_id":"ce4bgrp2rcd13ifvqc9g","pricing_plan_id":"cebpf4jnsgd1na2vs0mg"},{"bike_id":"17bbcf1e-b426-437e-abeb-3cf2c72c67b0","system_id":"levelo_inurba_marseille","lat":43.305368,"lon":5.367343,"is_reserved":false,"is_disabled":false,"rental_uris":{"android":"levelo://app?vid=17bbcf1e-b426-437e-abeb-3cf2c72c67b0","ios":"levelo://app?vid=17bbcf1e-b426-437e-abeb-3cf2c72c67b0"},"vehicle_type_id":"4","last_reported":1713532083,"current_range_meters":21600,"station_id":"ce4bgrp2rcd13ifvqc9g","pricing_plan_id":"cebpf4jnsgd1na2vs0mg"},{"bike_id":"800fa11c-7be7-414d-9c48-5c65ccd5b240","system_id":"levelo_inurba_marseille","lat":43.305714,"lon":5.365633,"is_reserved":false,"is_disabled":false,"rental_uris":{"android":"levelo://app?vid=800fa11c-7be7-414d-9c48-5c65ccd5b240","ios":"levelo://app?vid=800fa11c-7be7-414d-9c48-5c65ccd5b240"},"vehicle_type_id":"4","last_reported":1713532083,"current_range_meters":9600,"station_id":"ce4bgs12rcd13ifvqcag","pricing_plan_id":"cebpf4jnsgd1na2vs0mg"},{"bike_id":"8098bfc3-9058-41ef-8c44-53b72cb58b53","system_id":"levelo_inurba_marseille","lat":43.305706,"lon":5.365654,"is_reserved":false,"is_disabled":false,"rental_uris":{"android":"levelo://app?vid=8098bfc3-9058-41ef-8c44-53b72cb58b53","ios":"levelo://app?vid=8098bfc3-9058-41ef-8c44-53b72cb58b53"},"vehicle_type_id":"4","last_reported":1713532083,"current_range_meters":24000,"station_id":"ce4bgs12rcd13ifvqcag","pricing_plan_id":"cebpf4jnsgd1na2vs0mg"},{"bike_id":"9e78ec41-af9e-4b86-ad00-bb8cb6cfb02f","system_id":"levelo_inurba_marseille","lat":43.305706,"lon":5.365654,"is_reserved":false,"is_disabled":false,"rental_uris":{"android":"levelo://app?vid=9e78ec41-af9e-4b86-ad00-bb8cb6cfb02f","ios":"levelo://app?vid=9e78ec41-af9e-4b86-ad00-bb8cb6cfb02f"},"vehicle_type_id":"4","last_reported":1713532083,"current_range_meters":26000,"station_id":"ce4bgs12rcd13ifvqcag","pricing_plan_id":"cebpf4jnsgd1na2vs0mg"},{"bike_id":"f1225056-9637-47a3-a496-c3f89c513b91","system_id":"levelo_inurba_marseille","lat":43.305706,"lon":5.365654,"is_reserved":false,"is_disabled":false,"rental_uris":{"android":"levelo://app?vid=f1225056-9637-47a3-a496-c3f89c513b91","ios":"levelo://app?vid=f1225056-9637-47a3-a496-c3f89c513b91"},"vehicle_type_id":"4","last_reported":1713532083,"current_range_meters":23600,"station_id":"ce4bgs12rcd13ifvqcag","pricing_plan_id":"cebpf4jnsgd1na2vs0mg"},{"bike_id":"73688e90-a3e4-45a4-86c1-6308c699db8f","system_id":"levelo_inurba_marseille","lat":43.305368,"lon":5.367343,"is_reserved":false,"is_disabled":false,"rental_uris":{"android":"levelo://app?vid=73688e90-a3e4-45a4-86c1-6308c699db8f","ios":"levelo://app?vid=73688e90-a3e4-45a4-86c1-6308c699db8f"},"vehicle_type_id":"4","last_reported":1713532083,"current_range_meters":31200,"station_id":"ce4bgrp2rcd13ifvqc9g","pricing_plan_id":"cebpf4jnsgd1na2vs0mg"},{"bike_id":"daa1a170-fb29-41f6-83c7-379852c7a97c","system_id":"levelo_inurba_marseille","lat":43.305706,"lon":5.365654,"is_reserved":false,"is_disabled":false,"rental_uris":{"android":"levelo://app?vid=daa1a170-fb29-41f6-83c7-379852c7a97c","ios":"levelo://app?vid=daa1a170-fb29-41f6-83c7-379852c7a97c"},"vehicle_type_id":"4","last_reported":1713532083,"current_range_meters":27200,"station_id":"ce4bgs12rcd13ifvqcag","pricing_plan_id":"cebpf4jnsgd1na2vs0mg"},{"bike_id":"7b43d7b5-a31c-41c5-9b32-ad7fe9408d1b","system_id":"levelo_inurba_marseille","lat":43.305706,"lon":5.365654,"is_reserved":false,"is_disabled":false,"rental_uris":{"android":"levelo://app?vid=7b43d7b5-a31c-41c5-9b32-ad7fe9408d1b","ios":"levelo://app?vid=7b43d7b5-a31c-41c5-9b32-ad7fe9408d1b"},"vehicle_type_id":"4","last_reported":1713532083,"current_range_meters":25200,"station_id":"ce4bgs12rcd13ifvqcag","pricing_plan_id":"cebpf4jnsgd1na2vs0mg"},{"bike_id":"b8aea5cb-c954-4279-be4c-945a40d737ef","system_id":"levelo_inurba_marseille","lat":43.305706,"lon":5.365654,"is_reserved":false,"is_disabled":false,"rental_uris":{"android":"levelo://app?vid=b8aea5cb-c954-4279-be4c-945a40d737ef","ios":"levelo://app?vid=b8aea5cb-c954-4279-be4c-945a40d737ef"},"vehicle_type_id":"4","last_reported":1713532083,"current_range_meters":28800,"station_id":"ce4bgs12rcd13ifvqcag","pricing_plan_id":"cebpf4jnsgd1na2vs0mg"},{"bike_id":"2a68a8f2-a0f9-4956-bd23-3cebce551ce1","system_id":"levelo_inurba_marseille","lat":43.305706,"lon":5.365654,"is_reserved":false,"is_disabled":false,"rental_uris":{"android":"levelo://app?vid=2a68a8f2-a0f9-4956-bd23-3cebce551ce1","ios":"levelo://app?vid=2a68a8f2-a0f9-4956-bd23-3cebce551ce1"},"vehicle_type_id":"4","last_reported":1713532083,"current_range_meters":26800,"station_id":"ce4bgs12rcd13ifvqcag","pricing_plan_id":"cebpf4jnsgd1na2vs0mg"},{"bike_id":"87bab3b3-f95f-4b9d-adfe-fcba01e207b7","system_id":"levelo_inurba_marseille","lat":43.305989,"lon":5.37225,"is_reserved":false,"is_disabled":false,"rental_uris":{"android":"levelo://app?vid=87bab3b3-f95f-4b9d-adfe-fcba01e207b7","ios":"levelo://app?vid=87bab3b3-f95f-4b9d-adfe-fcba01e207b7"},"vehicle_type_id":"4","last_reported":1713532083,"current_range_meters":29200,"station_id":"ce4bgqh2rcd13ifvqc4g","pricing_plan_id":"cebpf4jnsgd1na2vs0mg"},{"bike_id":"7741c19b-b279-4b59-85b9-9974a128530e","system_id":"levelo_inurba_marseille","lat":43.305989,"lon":5.37225,"is_reserved":false,"is_disabled":false,"rental_uris":{"android":"levelo://app?vid=7741c19b-b279-4b59-85b9-9974a128530e","ios":"levelo://app?vid=7741c19b-b279-4b59-85b9-9974a128530e"},"vehicle_type_id":"4","last_reported":1713532083,"current_range_meters":17200,"station_id":"ce4bgqh2rcd13ifvqc4g","pricing_plan_id":"cebpf4jnsgd1na2vs0mg"},{"bike_id":"608b99de-b51c-46a3-a928-a26503f72087","system_id":"levelo_inurba_marseille","lat":43.304606,"lon":5.379026,"is_reserved":false,"is_disabled":false,"rental_uris":{"android":"levelo://app?vid=608b99de-b51c-46a3-a928-a26503f72087","ios":"levelo://app?vid=608b99de-b51c-46a3-a928-a26503f72087"},"vehicle_type_id":"4","last_reported":1713532083,"current_range_meters":5200,"station_id":"ce4bgup2rcd13ifvqcn0","pricing_plan_id":"cebpf4jnsgd1na2vs0mg"},{"bike_id":"ae4defa5-0d35-49e9-b8b5-addf26ae0748","system_id":"levelo_inurba_marseille","lat":43.307945,"lon":5.376487,"is_reserved":false,"is_disabled":false,"rental_uris":{"android":"levelo://app?vid=ae4defa5-0d35-49e9-b8b5-addf26ae0748","ios":"levelo://app?vid=ae4defa5-0d35-49e9-b8b5-addf26ae0748"},"vehicle_type_id":"4","last_reported":1713532083,"current_range_meters":15600,"station_id":"ce4bgv92rcd13ifvqcq0","pricing_plan_id":"cebpf4jnsgd1na2vs0mg"},{"bike_id":"8b8fffa7-f021-4ee1-93e7-b9d5074e1181","system_id":"levelo_inurba_marseille","lat":43.307945,"lon":5.376487,"is_reserved":false,"is_disabled":false,"rental_uris":{"android":"levelo://app?vid=8b8fffa7-f021-4ee1-93e7-b9d5074e1181","ios":"levelo://app?vid=8b8fffa7-f021-4ee1-93e7-b9d5074e1181"},"vehicle_type_id":"4","last_reported":1713532083,"current_range_meters":18000,"station_id":"ce4bgv92rcd13ifvqcq0","pricing_plan_id":"cebpf4jnsgd1na2vs0mg"},{"bike_id":"fc6782a5-a22f-4cc8-8045-c0cf6d0a3cb7","system_id":"levelo_inurba_marseille","lat":43.317075,"lon":5.377367,"is_reserved":false,"is_disabled":false,"rental_uris":{"android":"levelo://app?vid=fc6782a5-a22f-4cc8-8045-c0cf6d0a3cb7","ios":"levelo://app?vid=fc6782a5-a22f-4cc8-8045-c0cf6d0a3cb7"},"vehicle_type_id":"4","last_reported":1713532083,"current_range_meters":28800,"station_id":"ce4bgth2rcd13ifvqch0","pricing_plan_id":"cebpf4jnsgd1na2vs0mg"},{"bike_id":"9884a4a5-fe60-4dfb-8dc0-72d533c989cd","system_id":"levelo_inurba_marseille","lat":43.303046,"lon":5.368981,"is_reserved":false,"is_disabled":false,"rental_uris":{"android":"levelo://app?vid=9884a4a5-fe60-4dfb-8dc0-72d533c989cd","ios":"levelo://app?vid=9884a4a5-fe60-4dfb-8dc0-72d533c989cd"},"vehicle_type_id":"4","last_reported":1713532083,"current_range_meters":31200,"station_id":"ce4bgqh2rcd13ifvqc5g","pricing_plan_id":"cebpf4jnsgd1na2vs0mg"},{"bike_id":"1a2e912b-2571-4b64-93ba-78918b3a7070","system_id":"levelo_inurba_marseille","lat":43.303046,"lon":5.368981,"is_reserved":false,"is_disabled":false,"rental_uris":{"android":"levelo://app?vid=1a2e912b-2571-4b64-93ba-78918b3a7070","ios":"levelo://app?vid=1a2e912b-2571-4b64-93ba-78918b3a7070"},"vehicle_type_id":"4","last_reported":1713532083,"current_range_meters":22000,"station_id":"ce4bgqh2rcd13ifvqc5g","pricing_plan_id":"cebpf4jnsgd1na2vs0mg"},{"bike_id":"3b5ede83-d7d5-4451-aafa-fcfac64104f4","system_id":"levelo_inurba_marseille","lat":43.303046,"lon":5.368981,"is_reserved":false,"is_disabled":false,"rental_uris":{"android":"levelo://app?vid=3b5ede83-d7d5-4451-aafa-fcfac64104f4","ios":"levelo://app?vid=3b5ede83-d7d5-4451-aafa-fcfac64104f4"},"vehicle_type_id":"4","last_reported":1713532083,"current_range_meters":28400,"station_id":"ce4bgqh2rcd13ifvqc5g","pricing_plan_id":"cebpf4jnsgd1na2vs0mg"},{"bike_id":"67c9bab8-dd01-4a68-b03c-376f6c9007c9","system_id":"levelo_inurba_marseille","lat":43.303046,"lon":5.368981,"is_reserved":false,"is_disabled":false,"rental_uris":{"android":"levelo://app?vid=67c9bab8-dd01-4a68-b03c-376f6c9007c9","ios":"levelo://app?vid=67c9bab8-dd01-4a68-b03c-376f6c9007c9"},"vehicle_type_id":"4","last_reported":1713532083,"current_range_meters":16000,"station_id":"ce4bgqh2rcd13ifvqc5g","pricing_plan_id":"cebpf4jnsgd1na2vs0mg"},{"bike_id":"5aab4a9f-9fa1-4cfa-b4b3-7c37c540f22d","system_id":"levelo_inurba_marseille","lat":43.303046,"lon":5.368981,"is_reserved":false,"is_disabled":false,"rental_uris":{"android":"levelo://app?vid=5aab4a9f-9fa1-4cfa-b4b3-7c37c540f22d","ios":"levelo://app?vid=5aab4a9f-9fa1-4cfa-b4b3-7c37c540f22d"},"vehicle_type_id":"4","last_reported":1713532083,"current_range_meters":23200,"station_id":"ce4bgqh2rcd13ifvqc5g","pricing_plan_id":"cebpf4jnsgd1na2vs0mg"},{"bike_id":"b3f900c9-9cab-4c9f-9b13-cc855e8bc52d","system_id":"levelo_inurba_marseille","lat":43.303046,"lon":5.368981,"is_reserved":false,"is_disabled":false,"rental_uris":{"android":"levelo://app?vid=b3f900c9-9cab-4c9f-9b13-cc855e8bc52d","ios":"levelo://app?vid=b3f900c9-9cab-4c9f-9b13-cc855e8bc52d"},"vehicle_type_id":"4","last_reported":1713532083,"current_range_meters":24000,"station_id":"ce4bgqh2rcd13ifvqc5g","pricing_plan_id":"cebpf4jnsgd1na2vs0mg"},{"bike_id":"d58d9c7f-9e54-491d-b756-53198ab11f53","system_id":"levelo_inurba_marseille","lat":43.303046,"lon":5.368981,"is_reserved":false,"is_disabled":false,"rental_uris":{"android":"levelo://app?vid=d58d9c7f-9e54-491d-b756-53198ab11f53","ios":"levelo://app?vid=d58d9c7f-9e54-491d-b756-53198ab11f53"},"vehicle_type_id":"4","last_reported":1713532083,"current_range_meters":13200,"station_id":"ce4bgqh2rcd13ifvqc5g","pricing_plan_id":"cebpf4jnsgd1na2vs0mg"},{"bike_id":"5c993fb5-f728-468b-b5b6-565dd5bc7599","system_id":"levelo_inurba_marseille","lat":43.303046,"lon":5.368981,"is_reserved":false,"is_disabled":false,"rental_uris":{"android":"levelo://app?vid=5c993fb5-f728-468b-b5b6-565dd5bc7599","ios":"levelo://app?vid=5c993fb5-f728-468b-b5b6-565dd5bc7599"},"vehicle_type_id":"4","last_reported":1713532083,"current_range_meters":20000,"station_id":"ce4bgqh2rcd13ifvqc5g","pricing_plan_id":"cebpf4jnsgd1na2vs0mg"},{"bike_id":"126849c8-c03f-4979-9429-3223e874648b","system_id":"levelo_inurba_marseille","lat":43.303046,"lon":5.368981,"is_reserved":false,"is_disabled":false,"rental_uris":{"android":"levelo://app?vid=126849c8-c03f-4979-9429-3223e874648b","ios":"levelo://app?vid=126849c8-c03f-4979-9429-3223e874648b"},"vehicle_type_id":"4","last_reported":1713532083,"current_range_meters":8000,"station_id":"ce4bgqh2rcd13ifvqc5g","pricing_plan_id":"cebpf4jnsgd1na2vs0mg"},{"bike_id":"06be6543-689d-4f25-850d-07a449fc3c22","system_id":"levelo_inurba_marseille","lat":43.303046,"lon":5.368981,"is_reserved":false,"is_disabled":false,"rental_uris":{"android":"levelo://app?vid=06be6543-689d-4f25-850d-07a449fc3c22","ios":"levelo://app?vid=06be6543-689d-4f25-850d-07a449fc3c22"},"vehicle_type_id":"4","last_reported":1713532083,"current_range_meters":16800,"station_id":"ce4bgqh2rcd13ifvqc5g","pricing_plan_id":"cebpf4jnsgd1na2vs0mg"},{"bike_id":"ca8dfa30-33b0-45fa-8a9b-fe1c51a54842","system_id":"levelo_inurba_marseille","lat":43.299028,"lon":5.381509,"is_reserved":false,"is_disabled":false,"rental_uris":{"android":"levelo://app?vid=ca8dfa30-33b0-45fa-8a9b-fe1c51a54842","ios":"levelo://app?vid=ca8dfa30-33b0-45fa-8a9b-fe1c51a54842"},"vehicle_type_id":"4","last_reported":1713532083,"current_range_meters":29600,"station_id":"ce4bgj12rcd13ifvqbc0","pricing_plan_id":"cebpf4jnsgd1na2vs0mg"},{"bike_id":"b2f093e8-3fe1-4655-824a-b167f5cbf5a0","system_id":"levelo_inurba_marseille","lat":43.305364,"lon":5.384119,"is_reserved":false,"is_disabled":false,"rental_uris":{"android":"levelo://app?vid=b2f093e8-3fe1-4655-824a-b167f5cbf5a0","ios":"levelo://app?vid=b2f093e8-3fe1-4655-824a-b167f5cbf5a0"},"vehicle_type_id":"4","last_reported":1713532083,"current_range_meters":10800,"station_id":"ce4bgg92rcd13ifvqb30","pricing_plan_id":"cebpf4jnsgd1na2vs0mg"},{"bike_id":"33cbef05-ae25-4008-87a4-67aa952eba3f","system_id":"levelo_inurba_marseille","lat":43.308012,"lon":5.381511,"is_reserved":false,"is_disabled":false,"rental_uris":{"android":"levelo://app?vid=33cbef05-ae25-4008-87a4-67aa952eba3f","ios":"levelo://app?vid=33cbef05-ae25-4008-87a4-67aa952eba3f"},"vehicle_type_id":"4","last_reported":1713532083,"current_range_meters":10800,"station_id":"ce4bgt12rcd13ifvqce0","pricing_plan_id":"cebpf4jnsgd1na2vs0mg"},{"bike_id":"1027460b-2c1a-46d6-8d8c-9fe41d0ee084","system_id":"levelo_inurba_marseille","lat":43.308012,"lon":5.381511,"is_reserved":false,"is_disabled":false,"rental_uris":{"android":"levelo://app?vid=1027460b-2c1a-46d6-8d8c-9fe41d0ee084","ios":"levelo://app?vid=1027460b-2c1a-46d6-8d8c-9fe41d0ee084"},"vehicle_type_id":"4","last_reported":1713532083,"current_range_meters":17200,"station_id":"ce4bgt12rcd13ifvqce0","pricing_plan_id":"cebpf4jnsgd1na2vs0mg"},{"bike_id":"fbdca96d-4f6a-46bc-b8a0-245cbea8f495","system_id":"levelo_inurba_marseille","lat":43.308012,"lon":5.381511,"is_reserved":false,"is_disabled":false,"rental_uris":{"android":"levelo://app?vid=fbdca96d-4f6a-46bc-b8a0-245cbea8f495","ios":"levelo://app?vid=fbdca96d-4f6a-46bc-b8a0-245cbea8f495"},"vehicle_type_id":"4","last_reported":1713532083,"current_range_meters":400,"station_id":"ce4bgt12rcd13ifvqce0","pricing_plan_id":"cebpf4jnsgd1na2vs0mg"},{"bike_id":"4f7bc962-27de-40c1-93f0-55af7a400e06","system_id":"levelo_inurba_marseille","lat":43.308012,"lon":5.381511,"is_reserved":false,"is_disabled":false,"rental_uris":{"android":"levelo://app?vid=4f7bc962-27de-40c1-93f0-55af7a400e06","ios":"levelo://app?vid=4f7bc962-27de-40c1-93f0-55af7a400e06"},"vehicle_type_id":"4","last_reported":1713532083,"current_range_meters":12000,"station_id":"ce4bgt12rcd13ifvqce0","pricing_plan_id":"cebpf4jnsgd1na2vs0mg"},{"bike_id":"b36c1100-2816-441a-b65e-29c18166ded1","system_id":"levelo_inurba_marseille","lat":43.30466,"lon":5.378977,"is_reserved":false,"is_disabled":false,"rental_uris":{"android":"levelo://app?vid=b36c1100-2816-441a-b65e-29c18166ded1","ios":"levelo://app?vid=b36c1100-2816-441a-b65e-29c18166ded1"},"vehicle_type_id":"4","last_reported":1713532083,"current_range_meters":28400,"station_id":"ce4bgup2rcd13ifvqcn0","pricing_plan_id":"cebpf4jnsgd1na2vs0mg"},{"bike_id":"87bb4500-45ca-4954-81ea-6884a3c2e2f5","system_id":"levelo_inurba_marseille","lat":43.304671,"lon":5.37907,"is_reserved":false,"is_disabled":false,"rental_uris":{"android":"levelo://app?vid=87bb4500-45ca-4954-81ea-6884a3c2e2f5","ios":"levelo://app?vid=87bb4500-45ca-4954-81ea-6884a3c2e2f5"},"vehicle_type_id":"4","last_reported":1713532083,"current_range_meters":31600,"station_id":"ce4bgup2rcd13ifvqcn0","pricing_plan_id":"cebpf4jnsgd1na2vs0mg"},{"bike_id":"6aa763a3-3398-4850-b5c7-bfa9d66f33ed","system_id":"levelo_inurba_marseille","lat":43.304593,"lon":5.379013,"is_reserved":false,"is_disabled":false,"rental_uris":{"android":"levelo://app?vid=6aa763a3-3398-4850-b5c7-bfa9d66f33ed","ios":"levelo://app?vid=6aa763a3-3398-4850-b5c7-bfa9d66f33ed"},"vehicle_type_id":"4","last_reported":1713532083,"current_range_meters":29200,"station_id":"ce4bgup2rcd13ifvqcn0","pricing_plan_id":"cebpf4jnsgd1na2vs0mg"},{"bike_id":"e0fbe2ff-3d61-4737-a70d-98eea00664ff","system_id":"levelo_inurba_marseille","lat":43.304559,"lon":5.37916,"is_reserved":false,"is_disabled":false,"rental_uris":{"android":"levelo://app?vid=e0fbe2ff-3d61-4737-a70d-98eea00664ff","ios":"levelo://app?vid=e0fbe2ff-3d61-4737-a70d-98eea00664ff"},"vehicle_type_id":"4","last_reported":1713532083,"current_range_meters":0,"station_id":"ce4bgup2rcd13ifvqcn0","pricing_plan_id":"cebpf4jnsgd1na2vs0mg"},{"bike_id":"59293647-f51b-4d3e-b83f-ba3d48abe4d6","system_id":"levelo_inurba_marseille","lat":43.324771,"lon":5.36557,"is_reserved":false,"is_disabled":false,"rental_uris":{"android":"levelo://app?vid=59293647-f51b-4d3e-b83f-ba3d48abe4d6","ios":"levelo://app?vid=59293647-f51b-4d3e-b83f-ba3d48abe4d6"},"vehicle_type_id":"4","last_reported":1713532083,"current_range_meters":11200,"station_id":"ce4bhs12rcd13ifvqhvg","pricing_plan_id":"cebpf4jnsgd1na2vs0mg"},{"bike_id":"6e08e0e3-bfa9-4a27-80ba-c2fa922037af","system_id":"levelo_inurba_marseille","lat":43.322872,"lon":5.382756,"is_reserved":false,"is_disabled":false,"rental_uris":{"android":"levelo://app?vid=6e08e0e3-bfa9-4a27-80ba-c2fa922037af","ios":"levelo://app?vid=6e08e0e3-bfa9-4a27-80ba-c2fa922037af"},"vehicle_type_id":"4","last_reported":1713532083,"current_range_meters":8800,"station_id":"ce4bhr12rcd13ifvqhqg","pricing_plan_id":"cebpf4jnsgd1na2vs0mg"},{"bike_id":"ca86e147-e52e-4616-95e5-1fa822dc0687","system_id":"levelo_inurba_marseille","lat":43.324771,"lon":5.36557,"is_reserved":false,"is_disabled":false,"rental_uris":{"android":"levelo://app?vid=ca86e147-e52e-4616-95e5-1fa822dc0687","ios":"levelo://app?vid=ca86e147-e52e-4616-95e5-1fa822dc0687"},"vehicle_type_id":"4","last_reported":1713532083,"current_range_meters":16000,"station_id":"ce4bhs12rcd13ifvqhvg","pricing_plan_id":"cebpf4jnsgd1na2vs0mg"},{"bike_id":"ce4f6a12-b377-485f-a7c4-b896fa7c532a","system_id":"levelo_inurba_marseille","lat":43.324771,"lon":5.36557,"is_reserved":false,"is_disabled":false,"rental_uris":{"android":"levelo://app?vid=ce4f6a12-b377-485f-a7c4-b896fa7c532a","ios":"levelo://app?vid=ce4f6a12-b377-485f-a7c4-b896fa7c532a"},"vehicle_type_id":"4","last_reported":1713532083,"current_range_meters":7200,"station_id":"ce4bhs12rcd13ifvqhvg","pricing_plan_id":"cebpf4jnsgd1na2vs0mg"},{"bike_id":"309e139a-7ecc-4d62-956e-54da96b01f37","system_id":"levelo_inurba_marseille","lat":43.324771,"lon":5.36557,"is_reserved":false,"is_disabled":false,"rental_uris":{"android":"levelo://app?vid=309e139a-7ecc-4d62-956e-54da96b01f37","ios":"levelo://app?vid=309e139a-7ecc-4d62-956e-54da96b01f37"},"vehicle_type_id":"4","last_reported":1713532083,"current_range_meters":20400,"station_id":"ce4bhs12rcd13ifvqhvg","pricing_plan_id":"cebpf4jnsgd1na2vs0mg"},{"bike_id":"f4657ebf-3a92-43e5-960a-3d60f302c4ec","system_id":"levelo_inurba_marseille","lat":43.301429,"lon":5.37413,"is_reserved":false,"is_disabled":false,"rental_uris":{"android":"levelo://app?vid=f4657ebf-3a92-43e5-960a-3d60f302c4ec","ios":"levelo://app?vid=f4657ebf-3a92-43e5-960a-3d60f302c4ec"},"vehicle_type_id":"4","last_reported":1713532083,"current_range_meters":27200,"station_id":"ce4bgs92rcd13ifvqcc0","pricing_plan_id":"cebpf4jnsgd1na2vs0mg"},{"bike_id":"3f32e6e2-47f4-480e-aba2-dc9e68ac2193","system_id":"levelo_inurba_marseille","lat":43.31077,"lon":5.38357,"is_reserved":false,"is_disabled":false,"rental_uris":{"android":"levelo://app?vid=3f32e6e2-47f4-480e-aba2-dc9e68ac2193","ios":"levelo://app?vid=3f32e6e2-47f4-480e-aba2-dc9e68ac2193"},"vehicle_type_id":"4","last_reported":1713532083,"current_range_meters":15200,"station_id":"ce4bgv92rcd13ifvqcr0","pricing_plan_id":"cebpf4jnsgd1na2vs0mg"},{"bike_id":"6e4a8743-f1a8-4797-9f03-0037089607c8","system_id":"levelo_inurba_marseille","lat":43.301531,"lon":5.373904,"is_reserved":false,"is_disabled":false,"rental_uris":{"android":"levelo://app?vid=6e4a8743-f1a8-4797-9f03-0037089607c8","ios":"levelo://app?vid=6e4a8743-f1a8-4797-9f03-0037089607c8"},"vehicle_type_id":"4","last_reported":1713532083,"current_range_meters":15200,"station_id":"","pricing_plan_id":"cebpf4jnsgd1na2vs0mg"},{"bike_id":"4309119f-2986-4f92-a76e-ab6af038bc9e","system_id":"levelo_inurba_marseille","lat":43.31072,"lon":5.38362,"is_reserved":false,"is_disabled":false,"rental_uris":{"android":"levelo://app?vid=4309119f-2986-4f92-a76e-ab6af038bc9e","ios":"levelo://app?vid=4309119f-2986-4f92-a76e-ab6af038bc9e"},"vehicle_type_id":"4","last_reported":1713532083,"current_range_meters":16000,"station_id":"ce4bgv92rcd13ifvqcr0","pricing_plan_id":"cebpf4jnsgd1na2vs0mg"},{"bike_id":"2a095579-6d83-404f-91c7-2dd0b9c05de2","system_id":"levelo_inurba_marseille","lat":43.310804,"lon":5.38359,"is_reserved":false,"is_disabled":false,"rental_uris":{"android":"levelo://app?vid=2a095579-6d83-404f-91c7-2dd0b9c05de2","ios":"levelo://app?vid=2a095579-6d83-404f-91c7-2dd0b9c05de2"},"vehicle_type_id":"4","last_reported":1713532083,"current_range_meters":14400,"station_id":"ce4bgv92rcd13ifvqcr0","pricing_plan_id":"cebpf4jnsgd1na2vs0mg"},{"bike_id":"b2b2d86d-f9aa-45b6-8060-be32409fd885","system_id":"levelo_inurba_marseille","lat":43.324771,"lon":5.36557,"is_reserved":false,"is_disabled":false,"rental_uris":{"android":"levelo://app?vid=b2b2d86d-f9aa-45b6-8060-be32409fd885","ios":"levelo://app?vid=b2b2d86d-f9aa-45b6-8060-be32409fd885"},"vehicle_type_id":"4","last_reported":1713532083,"current_range_meters":27600,"station_id":"ce4bhs12rcd13ifvqhvg","pricing_plan_id":"cebpf4jnsgd1na2vs0mg"},{"bike_id":"1fb1930a-dbb2-4d3d-90fd-fda40acda076","system_id":"levelo_inurba_marseille","lat":43.310804,"lon":5.38359,"is_reserved":false,"is_disabled":false,"rental_uris":{"android":"levelo://app?vid=1fb1930a-dbb2-4d3d-90fd-fda40acda076","ios":"levelo://app?vid=1fb1930a-dbb2-4d3d-90fd-fda40acda076"},"vehicle_type_id":"4","last_reported":1713532083,"current_range_meters":28400,"station_id":"ce4bgv92rcd13ifvqcr0","pricing_plan_id":"cebpf4jnsgd1na2vs0mg"},{"bike_id":"443bddc4-923d-4285-af90-0d0fbe1e7560","system_id":"levelo_inurba_marseille","lat":43.302764,"lon":5.376995,"is_reserved":false,"is_disabled":false,"rental_uris":{"android":"levelo://app?vid=443bddc4-923d-4285-af90-0d0fbe1e7560","ios":"levelo://app?vid=443bddc4-923d-4285-af90-0d0fbe1e7560"},"vehicle_type_id":"4","last_reported":1713532083,"current_range_meters":31200,"station_id":"ce4bguh2rcd13ifvqcj0","pricing_plan_id":"cebpf4jnsgd1na2vs0mg"},{"bike_id":"7c023f5a-18ec-4fbb-ba70-289728caefcc","system_id":"levelo_inurba_marseille","lat":43.302784,"lon":5.377158,"is_reserved":false,"is_disabled":false,"rental_uris":{"android":"levelo://app?vid=7c023f5a-18ec-4fbb-ba70-289728caefcc","ios":"levelo://app?vid=7c023f5a-18ec-4fbb-ba70-289728caefcc"},"vehicle_type_id":"4","last_reported":1713532083,"current_range_meters":25200,"station_id":"ce4bguh2rcd13ifvqcj0","pricing_plan_id":"cebpf4jnsgd1na2vs0mg"},{"bike_id":"7bc76585-290b-4256-9698-94748510f032","system_id":"levelo_inurba_marseille","lat":43.302733,"lon":5.377057,"is_reserved":false,"is_disabled":false,"rental_uris":{"android":"levelo://app?vid=7bc76585-290b-4256-9698-94748510f032","ios":"levelo://app?vid=7bc76585-290b-4256-9698-94748510f032"},"vehicle_type_id":"4","last_reported":1713532083,"current_range_meters":31600,"station_id":"ce4bguh2rcd13ifvqcj0","pricing_plan_id":"cebpf4jnsgd1na2vs0mg"},{"bike_id":"c3a339d2-1e11-4971-a5a2-4336c3a7cf08","system_id":"levelo_inurba_marseille","lat":43.30142,"lon":5.37399,"is_reserved":false,"is_disabled":false,"rental_uris":{"android":"levelo://app?vid=c3a339d2-1e11-4971-a5a2-4336c3a7cf08","ios":"levelo://app?vid=c3a339d2-1e11-4971-a5a2-4336c3a7cf08"},"vehicle_type_id":"4","last_reported":1713532083,"current_range_meters":30800,"station_id":"","pricing_plan_id":"cebpf4jnsgd1na2vs0mg"},{"bike_id":"d26508bd-788c-4b13-ad45-16d51ad61ea3","system_id":"levelo_inurba_marseille","lat":43.30149,"lon":5.37424,"is_reserved":false,"is_disabled":false,"rental_uris":{"android":"levelo://app?vid=d26508bd-788c-4b13-ad45-16d51ad61ea3","ios":"levelo://app?vid=d26508bd-788c-4b13-ad45-16d51ad61ea3"},"vehicle_type_id":"4","last_reported":1713532083,"current_range_meters":19600,"station_id":"ce4bgs92rcd13ifvqcc0","pricing_plan_id":"cebpf4jnsgd1na2vs0mg"},{"bike_id":"8b07f3ef-362b-4865-a488-d4b380deeab7","system_id":"levelo_inurba_marseille","lat":43.30143,"lon":5.37408,"is_reserved":false,"is_disabled":false,"rental_uris":{"android":"levelo://app?vid=8b07f3ef-362b-4865-a488-d4b380deeab7","ios":"levelo://app?vid=8b07f3ef-362b-4865-a488-d4b380deeab7"},"vehicle_type_id":"4","last_reported":1713532083,"current_range_meters":15200,"station_id":"ce4bgs92rcd13ifvqcc0","pricing_plan_id":"cebpf4jnsgd1na2vs0mg"},{"bike_id":"0c6719d4-2c9f-4d97-95d5-4ecc738f6ee9","system_id":"levelo_inurba_marseille","lat":43.30143,"lon":5.3741,"is_reserved":false,"is_disabled":false,"rental_uris":{"android":"levelo://app?vid=0c6719d4-2c9f-4d97-95d5-4ecc738f6ee9","ios":"levelo://app?vid=0c6719d4-2c9f-4d97-95d5-4ecc738f6ee9"},"vehicle_type_id":"4","last_reported":1713532083,"current_range_meters":20000,"station_id":"ce4bgs92rcd13ifvqcc0","pricing_plan_id":"cebpf4jnsgd1na2vs0mg"},{"bike_id":"2f67fba1-050f-4c6f-85ec-0d004e835322","system_id":"levelo_inurba_marseille","lat":43.301429,"lon":5.37413,"is_reserved":false,"is_disabled":false,"rental_uris":{"android":"levelo://app?vid=2f67fba1-050f-4c6f-85ec-0d004e835322","ios":"levelo://app?vid=2f67fba1-050f-4c6f-85ec-0d004e835322"},"vehicle_type_id":"4","last_reported":1713532083,"current_range_meters":6000,"station_id":"ce4bgs92rcd13ifvqcc0","pricing_plan_id":"cebpf4jnsgd1na2vs0mg"},{"bike_id":"78105150-6591-4651-a296-f1bda629e64a","system_id":"levelo_inurba_marseille","lat":43.30142,"lon":5.37416,"is_reserved":false,"is_disabled":false,"rental_uris":{"android":"levelo://app?vid=78105150-6591-4651-a296-f1bda629e64a","ios":"levelo://app?vid=78105150-6591-4651-a296-f1bda629e64a"},"vehicle_type_id":"4","last_reported":1713532083,"current_range_meters":30400,"station_id":"ce4bgs92rcd13ifvqcc0","pricing_plan_id":"cebpf4jnsgd1na2vs0mg"},{"bike_id":"aa403907-7416-4332-824f-1e5874fabda6","system_id":"levelo_inurba_marseille","lat":43.30172,"lon":5.375,"is_reserved":false,"is_disabled":false,"rental_uris":{"android":"levelo://app?vid=aa403907-7416-4332-824f-1e5874fabda6","ios":"levelo://app?vid=aa403907-7416-4332-824f-1e5874fabda6"},"vehicle_type_id":"4","last_reported":1713532083,"current_range_meters":25200,"station_id":"","pricing_plan_id":"cebpf4jnsgd1na2vs0mg"},{"bike_id":"473ddc29-7e31-41cd-a425-28d3c5bef6c7","system_id":"levelo_inurba_marseille","lat":43.30139,"lon":5.37412,"is_reserved":false,"is_disabled":false,"rental_uris":{"android":"levelo://app?vid=473ddc29-7e31-41cd-a425-28d3c5bef6c7","ios":"levelo://app?vid=473ddc29-7e31-41cd-a425-28d3c5bef6c7"},"vehicle_type_id":"4","last_reported":1713532083,"current_range_meters":27200,"station_id":"ce4bgs92rcd13ifvqcc0","pricing_plan_id":"cebpf4jnsgd1na2vs0mg"},{"bike_id":"9654ffe9-8312-4e13-97ee-233e3aceff58","system_id":"levelo_inurba_marseille","lat":43.301429,"lon":5.37413,"is_reserved":false,"is_disabled":false,"rental_uris":{"android":"levelo://app?vid=9654ffe9-8312-4e13-97ee-233e3aceff58","ios":"levelo://app?vid=9654ffe9-8312-4e13-97ee-233e3aceff58"},"vehicle_type_id":"4","last_reported":1713532083,"current_range_meters":22400,"station_id":"ce4bgs92rcd13ifvqcc0","pricing_plan_id":"cebpf4jnsgd1na2vs0mg"},{"bike_id":"eb9b9dcf-9e09-4b78-855a-09ed149106dd","system_id":"levelo_inurba_marseille","lat":43.301429,"lon":5.37413,"is_reserved":false,"is_disabled":false,"rental_uris":{"android":"levelo://app?vid=eb9b9dcf-9e09-4b78-855a-09ed149106dd","ios":"levelo://app?vid=eb9b9dcf-9e09-4b78-855a-09ed149106dd"},"vehicle_type_id":"4","last_reported":1713532083,"current_range_meters":26400,"station_id":"ce4bgs92rcd13ifvqcc0","pricing_plan_id":"cebpf4jnsgd1na2vs0mg"},{"bike_id":"66719c8a-6628-4cd7-9eee-729f1dfa29ee","system_id":"levelo_inurba_marseille","lat":43.301357,"lon":5.374183,"is_reserved":false,"is_disabled":false,"rental_uris":{"android":"levelo://app?vid=66719c8a-6628-4cd7-9eee-729f1dfa29ee","ios":"levelo://app?vid=66719c8a-6628-4cd7-9eee-729f1dfa29ee"},"vehicle_type_id":"4","last_reported":1713532083,"current_range_meters":29200,"station_id":"ce4bgs92rcd13ifvqcc0","pricing_plan_id":"cebpf4jnsgd1na2vs0mg"},{"bike_id":"72ac5d0d-cc52-40e8-98cb-14bba8e25d8d","system_id":"levelo_inurba_marseille","lat":43.301333,"lon":5.374143,"is_reserved":false,"is_disabled":false,"rental_uris":{"android":"levelo://app?vid=72ac5d0d-cc52-40e8-98cb-14bba8e25d8d","ios":"levelo://app?vid=72ac5d0d-cc52-40e8-98cb-14bba8e25d8d"},"vehicle_type_id":"4","last_reported":1713532083,"current_range_meters":30800,"station_id":"ce4bgs92rcd13ifvqcc0","pricing_plan_id":"cebpf4jnsgd1na2vs0mg"},{"bike_id":"64b08640-0ec0-483e-b544-95d74e8d2954","system_id":"levelo_inurba_marseille","lat":43.301429,"lon":5.37413,"is_reserved":false,"is_disabled":false,"rental_uris":{"android":"levelo://app?vid=64b08640-0ec0-483e-b544-95d74e8d2954","ios":"levelo://app?vid=64b08640-0ec0-483e-b544-95d74e8d2954"},"vehicle_type_id":"4","last_reported":1713532083,"current_range_meters":31200,"station_id":"ce4bgs92rcd13ifvqcc0","pricing_plan_id":"cebpf4jnsgd1na2vs0mg"},{"bike_id":"79e41da2-5dcc-4bed-91ff-e6ca3b87bd87","system_id":"levelo_inurba_marseille","lat":43.301429,"lon":5.37413,"is_reserved":false,"is_disabled":false,"rental_uris":{"android":"levelo://app?vid=79e41da2-5dcc-4bed-91ff-e6ca3b87bd87","ios":"levelo://app?vid=79e41da2-5dcc-4bed-91ff-e6ca3b87bd87"},"vehicle_type_id":"4","last_reported":1713532083,"current_range_meters":20400,"station_id":"ce4bgs92rcd13ifvqcc0","pricing_plan_id":"cebpf4jnsgd1na2vs0mg"},{"bike_id":"535e6cbd-f930-4b71-b5b4-d1520acfa633","system_id":"levelo_inurba_marseille","lat":43.301429,"lon":5.37413,"is_reserved":false,"is_disabled":false,"rental_uris":{"android":"levelo://app?vid=535e6cbd-f930-4b71-b5b4-d1520acfa633","ios":"levelo://app?vid=535e6cbd-f930-4b71-b5b4-d1520acfa633"},"vehicle_type_id":"4","last_reported":1713532083,"current_range_meters":26400,"station_id":"ce4bgs92rcd13ifvqcc0","pricing_plan_id":"cebpf4jnsgd1na2vs0mg"},{"bike_id":"71cf26d6-2800-48dd-ae6e-8eda1eae26de","system_id":"levelo_inurba_marseille","lat":43.305395,"lon":5.380968,"is_reserved":false,"is_disabled":false,"rental_uris":{"android":"levelo://app?vid=71cf26d6-2800-48dd-ae6e-8eda1eae26de","ios":"levelo://app?vid=71cf26d6-2800-48dd-ae6e-8eda1eae26de"},"vehicle_type_id":"4","last_reported":1713532083,"current_range_meters":21200,"station_id":"","pricing_plan_id":"cebpf4jnsgd1na2vs0mg"},{"bike_id":"bb882010-1faa-43b7-ab54-91907fde9fb5","system_id":"levelo_inurba_marseille","lat":43.301429,"lon":5.37413,"is_reserved":false,"is_disabled":false,"rental_uris":{"android":"levelo://app?vid=bb882010-1faa-43b7-ab54-91907fde9fb5","ios":"levelo://app?vid=bb882010-1faa-43b7-ab54-91907fde9fb5"},"vehicle_type_id":"4","last_reported":1713532083,"current_range_meters":14800,"station_id":"ce4bgs92rcd13ifvqcc0","pricing_plan_id":"cebpf4jnsgd1na2vs0mg"},{"bike_id":"30d617ff-4f74-4992-b3e5-455e6c9e9129","system_id":"levelo_inurba_marseille","lat":43.319935,"lon":5.381699,"is_reserved":false,"is_disabled":false,"rental_uris":{"android":"levelo://app?vid=30d617ff-4f74-4992-b3e5-455e6c9e9129","ios":"levelo://app?vid=30d617ff-4f74-4992-b3e5-455e6c9e9129"},"vehicle_type_id":"4","last_reported":1713532083,"current_range_meters":26000,"station_id":"ce4bhr12rcd13ifvqhpg","pricing_plan_id":"cebpf4jnsgd1na2vs0mg"},{"bike_id":"334e3407-4f9b-4b57-a5ef-39033f25d948","system_id":"levelo_inurba_marseille","lat":43.319935,"lon":5.381699,"is_reserved":false,"is_disabled":false,"rental_uris":{"android":"levelo://app?vid=334e3407-4f9b-4b57-a5ef-39033f25d948","ios":"levelo://app?vid=334e3407-4f9b-4b57-a5ef-39033f25d948"},"vehicle_type_id":"4","last_reported":1713532083,"current_range_meters":12000,"station_id":"ce4bhr12rcd13ifvqhpg","pricing_plan_id":"cebpf4jnsgd1na2vs0mg"},{"bike_id":"d212c281-3522-420a-b06f-b80966290c73","system_id":"levelo_inurba_marseille","lat":43.319935,"lon":5.381699,"is_reserved":false,"is_disabled":false,"rental_uris":{"android":"levelo://app?vid=d212c281-3522-420a-b06f-b80966290c73","ios":"levelo://app?vid=d212c281-3522-420a-b06f-b80966290c73"},"vehicle_type_id":"4","last_reported":1713532083,"current_range_meters":16000,"station_id":"ce4bhr12rcd13ifvqhpg","pricing_plan_id":"cebpf4jnsgd1na2vs0mg"},{"bike_id":"e28f296b-3328-465c-9794-48ac9800dcab","system_id":"levelo_inurba_marseille","lat":43.32002,"lon":5.381686,"is_reserved":false,"is_disabled":false,"rental_uris":{"android":"levelo://app?vid=e28f296b-3328-465c-9794-48ac9800dcab","ios":"levelo://app?vid=e28f296b-3328-465c-9794-48ac9800dcab"},"vehicle_type_id":"4","last_reported":1713532083,"current_range_meters":28800,"station_id":"ce4bhr12rcd13ifvqhpg","pricing_plan_id":"cebpf4jnsgd1na2vs0mg"},{"bike_id":"a9a3aeba-9f98-421d-bd6d-a5e0a9fdd972","system_id":"levelo_inurba_marseille","lat":43.29985,"lon":5.37181,"is_reserved":false,"is_disabled":false,"rental_uris":{"android":"levelo://app?vid=a9a3aeba-9f98-421d-bd6d-a5e0a9fdd972","ios":"levelo://app?vid=a9a3aeba-9f98-421d-bd6d-a5e0a9fdd972"},"vehicle_type_id":"4","last_reported":1713532083,"current_range_meters":22400,"station_id":"ce4bgr92rcd13ifvqc7g","pricing_plan_id":"cebpf4jnsgd1na2vs0mg"},{"bike_id":"b61eec77-ae02-4d75-95ac-d9d7f347169d","system_id":"levelo_inurba_marseille","lat":43.299395,"lon":5.365665,"is_reserved":false,"is_disabled":false,"rental_uris":{"android":"levelo://app?vid=b61eec77-ae02-4d75-95ac-d9d7f347169d","ios":"levelo://app?vid=b61eec77-ae02-4d75-95ac-d9d7f347169d"},"vehicle_type_id":"4","last_reported":1713532083,"current_range_meters":0,"station_id":"ce4bgm92rcd13ifvqbr0","pricing_plan_id":"cebpf4jnsgd1na2vs0mg"},{"bike_id":"5db409b3-a80c-4a86-b276-1419fc9fb323","system_id":"levelo_inurba_marseille","lat":43.299368,"lon":5.365485,"is_reserved":false,"is_disabled":false,"rental_uris":{"android":"levelo://app?vid=5db409b3-a80c-4a86-b276-1419fc9fb323","ios":"levelo://app?vid=5db409b3-a80c-4a86-b276-1419fc9fb323"},"vehicle_type_id":"4","last_reported":1713532083,"current_range_meters":30800,"station_id":"ce4bgm92rcd13ifvqbr0","pricing_plan_id":"cebpf4jnsgd1na2vs0mg"},{"bike_id":"15772a02-9b23-4646-b6c3-069dcbeb1cf0","system_id":"levelo_inurba_marseille","lat":43.29979,"lon":5.37176,"is_reserved":false,"is_disabled":false,"rental_uris":{"android":"levelo://app?vid=15772a02-9b23-4646-b6c3-069dcbeb1cf0","ios":"levelo://app?vid=15772a02-9b23-4646-b6c3-069dcbeb1cf0"},"vehicle_type_id":"4","last_reported":1713532083,"current_range_meters":14800,"station_id":"ce4bgr92rcd13ifvqc7g","pricing_plan_id":"cebpf4jnsgd1na2vs0mg"},{"bike_id":"ef267e1f-fd72-49e9-8279-da79216e209d","system_id":"levelo_inurba_marseille","lat":43.29935,"lon":5.36553,"is_reserved":false,"is_disabled":false,"rental_uris":{"android":"levelo://app?vid=ef267e1f-fd72-49e9-8279-da79216e209d","ios":"levelo://app?vid=ef267e1f-fd72-49e9-8279-da79216e209d"},"vehicle_type_id":"4","last_reported":1713532083,"current_range_meters":25600,"station_id":"ce4bgop2rcd13ifvqc1g","pricing_plan_id":"cebpf4jnsgd1na2vs0mg"},{"bike_id":"752715ed-79e9-4945-b66f-9722c5f7e2b1","system_id":"levelo_inurba_marseille","lat":43.299222,"lon":5.365554,"is_reserved":false,"is_disabled":false,"rental_uris":{"android":"levelo://app?vid=752715ed-79e9-4945-b66f-9722c5f7e2b1","ios":"levelo://app?vid=752715ed-79e9-4945-b66f-9722c5f7e2b1"},"vehicle_type_id":"4","last_reported":1713532083,"current_range_meters":26800,"station_id":"ce4bgm92rcd13ifvqbr0","pricing_plan_id":"cebpf4jnsgd1na2vs0mg"},{"bike_id":"1660df16-38c3-47da-9796-7c943d167647","system_id":"levelo_inurba_marseille","lat":43.299222,"lon":5.365554,"is_reserved":false,"is_disabled":false,"rental_uris":{"android":"levelo://app?vid=1660df16-38c3-47da-9796-7c943d167647","ios":"levelo://app?vid=1660df16-38c3-47da-9796-7c943d167647"},"vehicle_type_id":"4","last_reported":1713532083,"current_range_meters":16000,"station_id":"ce4bgm92rcd13ifvqbr0","pricing_plan_id":"cebpf4jnsgd1na2vs0mg"},{"bike_id":"1f6cee55-035e-434a-a811-17317ee706b0","system_id":"levelo_inurba_marseille","lat":43.299465,"lon":5.372166,"is_reserved":false,"is_disabled":false,"rental_uris":{"android":"levelo://app?vid=1f6cee55-035e-434a-a811-17317ee706b0","ios":"levelo://app?vid=1f6cee55-035e-434a-a811-17317ee706b0"},"vehicle_type_id":"4","last_reported":1713532083,"current_range_meters":9600,"station_id":"ce4bgr92rcd13ifvqc7g","pricing_plan_id":"cebpf4jnsgd1na2vs0mg"},{"bike_id":"d9b68ba0-695f-4cb2-b414-f95437917999","system_id":"levelo_inurba_marseille","lat":43.305364,"lon":5.384119,"is_reserved":false,"is_disabled":false,"rental_uris":{"android":"levelo://app?vid=d9b68ba0-695f-4cb2-b414-f95437917999","ios":"levelo://app?vid=d9b68ba0-695f-4cb2-b414-f95437917999"},"vehicle_type_id":"4","last_reported":1713532083,"current_range_meters":25600,"station_id":"ce4bgg92rcd13ifvqb30","pricing_plan_id":"cebpf4jnsgd1na2vs0mg"},{"bike_id":"9db6f51c-7391-4f89-b893-597153dfa035","system_id":"levelo_inurba_marseille","lat":43.298532,"lon":5.362927,"is_reserved":false,"is_disabled":false,"rental_uris":{"android":"levelo://app?vid=9db6f51c-7391-4f89-b893-597153dfa035","ios":"levelo://app?vid=9db6f51c-7391-4f89-b893-597153dfa035"},"vehicle_type_id":"4","last_reported":1713532083,"current_range_meters":28800,"station_id":"ce4bgpp2rcd13ifvqc3g","pricing_plan_id":"cebpf4jnsgd1na2vs0mg"},{"bike_id":"380ec91d-e0b0-4f27-9e32-21fd6f9cc3be","system_id":"levelo_inurba_marseille","lat":43.29851,"lon":5.36291,"is_reserved":false,"is_disabled":false,"rental_uris":{"android":"levelo://app?vid=380ec91d-e0b0-4f27-9e32-21fd6f9cc3be","ios":"levelo://app?vid=380ec91d-e0b0-4f27-9e32-21fd6f9cc3be"},"vehicle_type_id":"4","last_reported":1713532083,"current_range_meters":10000,"station_id":"ce4bgpp2rcd13ifvqc3g","pricing_plan_id":"cebpf4jnsgd1na2vs0mg"},{"bike_id":"11fb8c72-7312-41fd-8d94-40d96eb17b6a","system_id":"levelo_inurba_marseille","lat":43.29851,"lon":5.36287,"is_reserved":false,"is_disabled":false,"rental_uris":{"android":"levelo://app?vid=11fb8c72-7312-41fd-8d94-40d96eb17b6a","ios":"levelo://app?vid=11fb8c72-7312-41fd-8d94-40d96eb17b6a"},"vehicle_type_id":"4","last_reported":1713532083,"current_range_meters":31200,"station_id":"ce4bgpp2rcd13ifvqc3g","pricing_plan_id":"cebpf4jnsgd1na2vs0mg"},{"bike_id":"bfbfd815-6173-43d9-b46c-f7c4ca51da35","system_id":"levelo_inurba_marseille","lat":43.29851,"lon":5.36287,"is_reserved":false,"is_disabled":false,"rental_uris":{"android":"levelo://app?vid=bfbfd815-6173-43d9-b46c-f7c4ca51da35","ios":"levelo://app?vid=bfbfd815-6173-43d9-b46c-f7c4ca51da35"},"vehicle_type_id":"4","last_reported":1713532083,"current_range_meters":11200,"station_id":"ce4bgpp2rcd13ifvqc3g","pricing_plan_id":"cebpf4jnsgd1na2vs0mg"},{"bike_id":"f81e4ecb-f9d2-4ae8-b9c8-1283ebf16814","system_id":"levelo_inurba_marseille","lat":43.29851,"lon":5.36283,"is_reserved":false,"is_disabled":false,"rental_uris":{"android":"levelo://app?vid=f81e4ecb-f9d2-4ae8-b9c8-1283ebf16814","ios":"levelo://app?vid=f81e4ecb-f9d2-4ae8-b9c8-1283ebf16814"},"vehicle_type_id":"4","last_reported":1713532083,"current_range_meters":24800,"station_id":"ce4bgpp2rcd13ifvqc3g","pricing_plan_id":"cebpf4jnsgd1na2vs0mg"},{"bike_id":"dc20a1c8-6036-42d1-be28-f0f9cabfbb1c","system_id":"levelo_inurba_marseille","lat":43.2993,"lon":5.37465,"is_reserved":false,"is_disabled":false,"rental_uris":{"android":"levelo://app?vid=dc20a1c8-6036-42d1-be28-f0f9cabfbb1c","ios":"levelo://app?vid=dc20a1c8-6036-42d1-be28-f0f9cabfbb1c"},"vehicle_type_id":"4","last_reported":1713532083,"current_range_meters":12000,"station_id":"","pricing_plan_id":"cebpf4jnsgd1na2vs0mg"},{"bike_id":"476d2a0e-e6d0-432a-9c13-51956c954de2","system_id":"levelo_inurba_marseille","lat":43.298433,"lon":5.362774,"is_reserved":false,"is_disabled":false,"rental_uris":{"android":"levelo://app?vid=476d2a0e-e6d0-432a-9c13-51956c954de2","ios":"levelo://app?vid=476d2a0e-e6d0-432a-9c13-51956c954de2"},"vehicle_type_id":"4","last_reported":1713532083,"current_range_meters":24400,"station_id":"ce4bgpp2rcd13ifvqc3g","pricing_plan_id":"cebpf4jnsgd1na2vs0mg"},{"bike_id":"a541baa5-dd1d-4509-a267-1c88aa0bd938","system_id":"levelo_inurba_marseille","lat":43.292569,"lon":5.409107,"is_reserved":false,"is_disabled":false,"rental_uris":{"android":"levelo://app?vid=a541baa5-dd1d-4509-a267-1c88aa0bd938","ios":"levelo://app?vid=a541baa5-dd1d-4509-a267-1c88aa0bd938"},"vehicle_type_id":"4","last_reported":1713532083,"current_range_meters":1200,"station_id":"ce4bh192rcd13ifvqdc0","pricing_plan_id":"cebpf4jnsgd1na2vs0mg"},{"bike_id":"73d15484-4a88-4e23-be91-5b496391500d","system_id":"levelo_inurba_marseille","lat":43.292644,"lon":5.384257,"is_reserved":false,"is_disabled":false,"rental_uris":{"android":"levelo://app?vid=73d15484-4a88-4e23-be91-5b496391500d","ios":"levelo://app?vid=73d15484-4a88-4e23-be91-5b496391500d"},"vehicle_type_id":"4","last_reported":1713532083,"current_range_meters":3200,"station_id":"ce4bh692rcd13ifvqea0","pricing_plan_id":"cebpf4jnsgd1na2vs0mg"},{"bike_id":"f81d44f8-2c08-4ccf-9067-4f5339087f24","system_id":"levelo_inurba_marseille","lat":43.298433,"lon":5.362774,"is_reserved":false,"is_disabled":false,"rental_uris":{"android":"levelo://app?vid=f81d44f8-2c08-4ccf-9067-4f5339087f24","ios":"levelo://app?vid=f81d44f8-2c08-4ccf-9067-4f5339087f24"},"vehicle_type_id":"4","last_reported":1713532083,"current_range_meters":24800,"station_id":"ce4bgpp2rcd13ifvqc3g","pricing_plan_id":"cebpf4jnsgd1na2vs0mg"},{"bike_id":"89322ecf-fc89-4769-a910-9a6912157a6b","system_id":"levelo_inurba_marseille","lat":43.298433,"lon":5.362774,"is_reserved":false,"is_disabled":false,"rental_uris":{"android":"levelo://app?vid=89322ecf-fc89-4769-a910-9a6912157a6b","ios":"levelo://app?vid=89322ecf-fc89-4769-a910-9a6912157a6b"},"vehicle_type_id":"4","last_reported":1713532083,"current_range_meters":24400,"station_id":"ce4bgpp2rcd13ifvqc3g","pricing_plan_id":"cebpf4jnsgd1na2vs0mg"},{"bike_id":"dc83ded4-3178-4217-a724-daa0c1909b55","system_id":"levelo_inurba_marseille","lat":43.313391,"lon":5.36706,"is_reserved":false,"is_disabled":false,"rental_uris":{"android":"levelo://app?vid=dc83ded4-3178-4217-a724-daa0c1909b55","ios":"levelo://app?vid=dc83ded4-3178-4217-a724-daa0c1909b55"},"vehicle_type_id":"4","last_reported":1713532083,"current_range_meters":3600,"station_id":"ce4bgr92rcd13ifvqc6g","pricing_plan_id":"cebpf4jnsgd1na2vs0mg"},{"bike_id":"253dc462-6ae9-4690-a72a-99ac4f994e11","system_id":"levelo_inurba_marseille","lat":43.29843,"lon":5.36272,"is_reserved":false,"is_disabled":false,"rental_uris":{"android":"levelo://app?vid=253dc462-6ae9-4690-a72a-99ac4f994e11","ios":"levelo://app?vid=253dc462-6ae9-4690-a72a-99ac4f994e11"},"vehicle_type_id":"4","last_reported":1713532083,"current_range_meters":31200,"station_id":"ce4bgpp2rcd13ifvqc3g","pricing_plan_id":"cebpf4jnsgd1na2vs0mg"},{"bike_id":"60917205-6c84-4ea3-804c-570f50d473b9","system_id":"levelo_inurba_marseille","lat":43.298433,"lon":5.362774,"is_reserved":false,"is_disabled":false,"rental_uris":{"android":"levelo://app?vid=60917205-6c84-4ea3-804c-570f50d473b9","ios":"levelo://app?vid=60917205-6c84-4ea3-804c-570f50d473b9"},"vehicle_type_id":"4","last_reported":1713532083,"current_range_meters":17200,"station_id":"ce4bgpp2rcd13ifvqc3g","pricing_plan_id":"cebpf4jnsgd1na2vs0mg"},{"bike_id":"8f263385-2f48-4012-969f-eb02f8f47a8f","system_id":"levelo_inurba_marseille","lat":43.29844,"lon":5.36257,"is_reserved":false,"is_disabled":false,"rental_uris":{"android":"levelo://app?vid=8f263385-2f48-4012-969f-eb02f8f47a8f","ios":"levelo://app?vid=8f263385-2f48-4012-969f-eb02f8f47a8f"},"vehicle_type_id":"4","last_reported":1713532083,"current_range_meters":20800,"station_id":"ce4bgpp2rcd13ifvqc3g","pricing_plan_id":"cebpf4jnsgd1na2vs0mg"},{"bike_id":"388215b5-a00c-4615-8ee3-3fba536651a5","system_id":"levelo_inurba_marseille","lat":43.29842,"lon":5.36264,"is_reserved":false,"is_disabled":false,"rental_uris":{"android":"levelo://app?vid=388215b5-a00c-4615-8ee3-3fba536651a5","ios":"levelo://app?vid=388215b5-a00c-4615-8ee3-3fba536651a5"},"vehicle_type_id":"4","last_reported":1713532083,"current_range_meters":30000,"station_id":"ce4bgpp2rcd13ifvqc3g","pricing_plan_id":"cebpf4jnsgd1na2vs0mg"},{"bike_id":"8838d7ea-f710-4b11-bec7-7d5a5667c094","system_id":"levelo_inurba_marseille","lat":43.29841,"lon":5.36264,"is_reserved":false,"is_disabled":false,"rental_uris":{"android":"levelo://app?vid=8838d7ea-f710-4b11-bec7-7d5a5667c094","ios":"levelo://app?vid=8838d7ea-f710-4b11-bec7-7d5a5667c094"},"vehicle_type_id":"4","last_reported":1713532083,"current_range_meters":6400,"station_id":"ce4bgpp2rcd13ifvqc3g","pricing_plan_id":"cebpf4jnsgd1na2vs0mg"},{"bike_id":"f842bb9b-72d0-4da5-80e0-e5af0f233f50","system_id":"levelo_inurba_marseille","lat":43.298433,"lon":5.362774,"is_reserved":false,"is_disabled":false,"rental_uris":{"android":"levelo://app?vid=f842bb9b-72d0-4da5-80e0-e5af0f233f50","ios":"levelo://app?vid=f842bb9b-72d0-4da5-80e0-e5af0f233f50"},"vehicle_type_id":"4","last_reported":1713532083,"current_range_meters":25200,"station_id":"ce4bgpp2rcd13ifvqc3g","pricing_plan_id":"cebpf4jnsgd1na2vs0mg"},{"bike_id":"6a04a2ab-7b13-476c-bc91-b2745d166344","system_id":"levelo_inurba_marseille","lat":43.2984,"lon":5.36265,"is_reserved":false,"is_disabled":false,"rental_uris":{"android":"levelo://app?vid=6a04a2ab-7b13-476c-bc91-b2745d166344","ios":"levelo://app?vid=6a04a2ab-7b13-476c-bc91-b2745d166344"},"vehicle_type_id":"4","last_reported":1713532083,"current_range_meters":12400,"station_id":"ce4bgpp2rcd13ifvqc3g","pricing_plan_id":"cebpf4jnsgd1na2vs0mg"},{"bike_id":"9178b80b-e417-49e8-9904-fdcedb2286a3","system_id":"levelo_inurba_marseille","lat":43.29837,"lon":5.36267,"is_reserved":false,"is_disabled":false,"rental_uris":{"android":"levelo://app?vid=9178b80b-e417-49e8-9904-fdcedb2286a3","ios":"levelo://app?vid=9178b80b-e417-49e8-9904-fdcedb2286a3"},"vehicle_type_id":"4","last_reported":1713532083,"current_range_meters":20000,"station_id":"ce4bgpp2rcd13ifvqc3g","pricing_plan_id":"cebpf4jnsgd1na2vs0mg"},{"bike_id":"6407d4a6-0fed-4091-94ea-d921a9e36091","system_id":"levelo_inurba_marseille","lat":43.311722,"lon":5.387247,"is_reserved":false,"is_disabled":false,"rental_uris":{"android":"levelo://app?vid=6407d4a6-0fed-4091-94ea-d921a9e36091","ios":"levelo://app?vid=6407d4a6-0fed-4091-94ea-d921a9e36091"},"vehicle_type_id":"4","last_reported":1713532083,"current_range_meters":10000,"station_id":"ce4bgv12rcd13ifvqcp0","pricing_plan_id":"cebpf4jnsgd1na2vs0mg"},{"bike_id":"9becbe42-8887-4be7-b201-c8874bb7336c","system_id":"levelo_inurba_marseille","lat":43.311722,"lon":5.387247,"is_reserved":false,"is_disabled":false,"rental_uris":{"android":"levelo://app?vid=9becbe42-8887-4be7-b201-c8874bb7336c","ios":"levelo://app?vid=9becbe42-8887-4be7-b201-c8874bb7336c"},"vehicle_type_id":"4","last_reported":1713532083,"current_range_meters":17200,"station_id":"ce4bgv12rcd13ifvqcp0","pricing_plan_id":"cebpf4jnsgd1na2vs0mg"},{"bike_id":"872edaf1-dac3-46c8-af39-5f3272e1add7","system_id":"levelo_inurba_marseille","lat":43.299243,"lon":5.37481,"is_reserved":false,"is_disabled":false,"rental_uris":{"android":"levelo://app?vid=872edaf1-dac3-46c8-af39-5f3272e1add7","ios":"levelo://app?vid=872edaf1-dac3-46c8-af39-5f3272e1add7"},"vehicle_type_id":"4","last_reported":1713532083,"current_range_meters":6800,"station_id":"ce4bgjh2rcd13ifvqbg0","pricing_plan_id":"cebpf4jnsgd1na2vs0mg"},{"bike_id":"02d7eced-5ee5-43a5-8dc0-33b3b9b01dca","system_id":"levelo_inurba_marseille","lat":43.299243,"lon":5.374807,"is_reserved":false,"is_disabled":false,"rental_uris":{"android":"levelo://app?vid=02d7eced-5ee5-43a5-8dc0-33b3b9b01dca","ios":"levelo://app?vid=02d7eced-5ee5-43a5-8dc0-33b3b9b01dca"},"vehicle_type_id":"4","last_reported":1713532083,"current_range_meters":28000,"station_id":"ce4bgjh2rcd13ifvqbg0","pricing_plan_id":"cebpf4jnsgd1na2vs0mg"},{"bike_id":"19821db8-4c66-41ff-af7d-19f24c6b9783","system_id":"levelo_inurba_marseille","lat":43.311722,"lon":5.387247,"is_reserved":false,"is_disabled":false,"rental_uris":{"android":"levelo://app?vid=19821db8-4c66-41ff-af7d-19f24c6b9783","ios":"levelo://app?vid=19821db8-4c66-41ff-af7d-19f24c6b9783"},"vehicle_type_id":"4","last_reported":1713532083,"current_range_meters":5200,"station_id":"ce4bgv12rcd13ifvqcp0","pricing_plan_id":"cebpf4jnsgd1na2vs0mg"},{"bike_id":"7bee569a-201a-430e-ae2d-94a3e2fa043a","system_id":"levelo_inurba_marseille","lat":43.2982,"lon":5.36213,"is_reserved":false,"is_disabled":false,"rental_uris":{"android":"levelo://app?vid=7bee569a-201a-430e-ae2d-94a3e2fa043a","ios":"levelo://app?vid=7bee569a-201a-430e-ae2d-94a3e2fa043a"},"vehicle_type_id":"4","last_reported":1713532083,"current_range_meters":15600,"station_id":"ce4bgpp2rcd13ifvqc3g","pricing_plan_id":"cebpf4jnsgd1na2vs0mg"},{"bike_id":"ab8574cf-6489-4e7c-b007-81ed34ed6c3c","system_id":"levelo_inurba_marseille","lat":43.297774,"lon":5.370875,"is_reserved":false,"is_disabled":false,"rental_uris":{"android":"levelo://app?vid=ab8574cf-6489-4e7c-b007-81ed34ed6c3c","ios":"levelo://app?vid=ab8574cf-6489-4e7c-b007-81ed34ed6c3c"},"vehicle_type_id":"4","last_reported":1713532083,"current_range_meters":28400,"station_id":"ce4bgop2rcd13ifvqc1g","pricing_plan_id":"cebpf4jnsgd1na2vs0mg"},{"bike_id":"a9571008-9de5-4ff3-aa5a-ad93b070a205","system_id":"levelo_inurba_marseille","lat":43.297794,"lon":5.370888,"is_reserved":false,"is_disabled":false,"rental_uris":{"android":"levelo://app?vid=a9571008-9de5-4ff3-aa5a-ad93b070a205","ios":"levelo://app?vid=a9571008-9de5-4ff3-aa5a-ad93b070a205"},"vehicle_type_id":"4","last_reported":1713532083,"current_range_meters":24800,"station_id":"ce4bgop2rcd13ifvqc1g","pricing_plan_id":"cebpf4jnsgd1na2vs0mg"},{"bike_id":"4c72408b-72d8-4bc3-8565-05b80a2d02d3","system_id":"levelo_inurba_marseille","lat":43.297794,"lon":5.370888,"is_reserved":false,"is_disabled":false,"rental_uris":{"android":"levelo://app?vid=4c72408b-72d8-4bc3-8565-05b80a2d02d3","ios":"levelo://app?vid=4c72408b-72d8-4bc3-8565-05b80a2d02d3"},"vehicle_type_id":"4","last_reported":1713532083,"current_range_meters":18400,"station_id":"ce4bgop2rcd13ifvqc1g","pricing_plan_id":"cebpf4jnsgd1na2vs0mg"},{"bike_id":"3c3ffe67-e20d-41a1-8c32-4bce51d93852","system_id":"levelo_inurba_marseille","lat":43.297774,"lon":5.370875,"is_reserved":false,"is_disabled":false,"rental_uris":{"android":"levelo://app?vid=3c3ffe67-e20d-41a1-8c32-4bce51d93852","ios":"levelo://app?vid=3c3ffe67-e20d-41a1-8c32-4bce51d93852"},"vehicle_type_id":"4","last_reported":1713532083,"current_range_meters":6000,"station_id":"ce4bgop2rcd13ifvqc1g","pricing_plan_id":"cebpf4jnsgd1na2vs0mg"},{"bike_id":"6a9bcf40-c5f9-44a4-a58e-664576d7b299","system_id":"levelo_inurba_marseille","lat":43.322872,"lon":5.382756,"is_reserved":false,"is_disabled":false,"rental_uris":{"android":"levelo://app?vid=6a9bcf40-c5f9-44a4-a58e-664576d7b299","ios":"levelo://app?vid=6a9bcf40-c5f9-44a4-a58e-664576d7b299"},"vehicle_type_id":"4","last_reported":1713532083,"current_range_meters":21200,"station_id":"ce4bhr12rcd13ifvqhqg","pricing_plan_id":"cebpf4jnsgd1na2vs0mg"},{"bike_id":"b1c9170a-6a31-47d1-8e62-5b624c342910","system_id":"levelo_inurba_marseille","lat":43.322872,"lon":5.382756,"is_reserved":false,"is_disabled":false,"rental_uris":{"android":"levelo://app?vid=b1c9170a-6a31-47d1-8e62-5b624c342910","ios":"levelo://app?vid=b1c9170a-6a31-47d1-8e62-5b624c342910"},"vehicle_type_id":"4","last_reported":1713532083,"current_range_meters":14000,"station_id":"ce4bhr12rcd13ifvqhqg","pricing_plan_id":"cebpf4jnsgd1na2vs0mg"},{"bike_id":"59c296c1-c1af-4a71-9e20-fa9c7f8757f9","system_id":"levelo_inurba_marseille","lat":43.322872,"lon":5.382756,"is_reserved":false,"is_disabled":false,"rental_uris":{"android":"levelo://app?vid=59c296c1-c1af-4a71-9e20-fa9c7f8757f9","ios":"levelo://app?vid=59c296c1-c1af-4a71-9e20-fa9c7f8757f9"},"vehicle_type_id":"4","last_reported":1713532083,"current_range_meters":31200,"station_id":"ce4bhr12rcd13ifvqhqg","pricing_plan_id":"cebpf4jnsgd1na2vs0mg"},{"bike_id":"aa38acc2-91cb-407c-ac8c-05b08cc96e3e","system_id":"levelo_inurba_marseille","lat":43.322872,"lon":5.382756,"is_reserved":false,"is_disabled":false,"rental_uris":{"android":"levelo://app?vid=aa38acc2-91cb-407c-ac8c-05b08cc96e3e","ios":"levelo://app?vid=aa38acc2-91cb-407c-ac8c-05b08cc96e3e"},"vehicle_type_id":"4","last_reported":1713532083,"current_range_meters":31200,"station_id":"ce4bhr12rcd13ifvqhqg","pricing_plan_id":"cebpf4jnsgd1na2vs0mg"},{"bike_id":"3a777aae-0d2a-4638-8c09-6f1de81534e0","system_id":"levelo_inurba_marseille","lat":43.322872,"lon":5.382756,"is_reserved":false,"is_disabled":false,"rental_uris":{"android":"levelo://app?vid=3a777aae-0d2a-4638-8c09-6f1de81534e0","ios":"levelo://app?vid=3a777aae-0d2a-4638-8c09-6f1de81534e0"},"vehicle_type_id":"4","last_reported":1713532083,"current_range_meters":28400,"station_id":"ce4bhr12rcd13ifvqhqg","pricing_plan_id":"cebpf4jnsgd1na2vs0mg"},{"bike_id":"e5df68f6-b1ff-4d0a-b7e9-c02ca9b8210e","system_id":"levelo_inurba_marseille","lat":43.322872,"lon":5.382756,"is_reserved":false,"is_disabled":false,"rental_uris":{"android":"levelo://app?vid=e5df68f6-b1ff-4d0a-b7e9-c02ca9b8210e","ios":"levelo://app?vid=e5df68f6-b1ff-4d0a-b7e9-c02ca9b8210e"},"vehicle_type_id":"4","last_reported":1713532083,"current_range_meters":31200,"station_id":"ce4bhr12rcd13ifvqhqg","pricing_plan_id":"cebpf4jnsgd1na2vs0mg"},{"bike_id":"c1c913df-b844-406e-83f7-dff5f43f7dc5","system_id":"levelo_inurba_marseille","lat":43.322872,"lon":5.382756,"is_reserved":false,"is_disabled":false,"rental_uris":{"android":"levelo://app?vid=c1c913df-b844-406e-83f7-dff5f43f7dc5","ios":"levelo://app?vid=c1c913df-b844-406e-83f7-dff5f43f7dc5"},"vehicle_type_id":"4","last_reported":1713532083,"current_range_meters":31200,"station_id":"ce4bhr12rcd13ifvqhqg","pricing_plan_id":"cebpf4jnsgd1na2vs0mg"},{"bike_id":"a4e08546-6278-4fec-a3f5-ea17e1bddef5","system_id":"levelo_inurba_marseille","lat":43.322872,"lon":5.382756,"is_reserved":false,"is_disabled":false,"rental_uris":{"android":"levelo://app?vid=a4e08546-6278-4fec-a3f5-ea17e1bddef5","ios":"levelo://app?vid=a4e08546-6278-4fec-a3f5-ea17e1bddef5"},"vehicle_type_id":"4","last_reported":1713532083,"current_range_meters":13200,"station_id":"ce4bhr12rcd13ifvqhqg","pricing_plan_id":"cebpf4jnsgd1na2vs0mg"},{"bike_id":"6d163a1d-2eb1-4762-a08d-6941e4ae39d1","system_id":"levelo_inurba_marseille","lat":43.297774,"lon":5.370875,"is_reserved":false,"is_disabled":false,"rental_uris":{"android":"levelo://app?vid=6d163a1d-2eb1-4762-a08d-6941e4ae39d1","ios":"levelo://app?vid=6d163a1d-2eb1-4762-a08d-6941e4ae39d1"},"vehicle_type_id":"4","last_reported":1713532083,"current_range_meters":30400,"station_id":"ce4bgop2rcd13ifvqc1g","pricing_plan_id":"cebpf4jnsgd1na2vs0mg"},{"bike_id":"305a7b65-aab9-4efb-83bc-af56b16e102c","system_id":"levelo_inurba_marseille","lat":43.297163,"lon":5.365866,"is_reserved":false,"is_disabled":false,"rental_uris":{"android":"levelo://app?vid=305a7b65-aab9-4efb-83bc-af56b16e102c","ios":"levelo://app?vid=305a7b65-aab9-4efb-83bc-af56b16e102c"},"vehicle_type_id":"4","last_reported":1713532083,"current_range_meters":25600,"station_id":"ce4bgn12rcd13ifvqbt0","pricing_plan_id":"cebpf4jnsgd1na2vs0mg"},{"bike_id":"e043d219-947a-459b-8f97-501d23299bf9","system_id":"levelo_inurba_marseille","lat":43.297163,"lon":5.365866,"is_reserved":false,"is_disabled":false,"rental_uris":{"android":"levelo://app?vid=e043d219-947a-459b-8f97-501d23299bf9","ios":"levelo://app?vid=e043d219-947a-459b-8f97-501d23299bf9"},"vehicle_type_id":"4","last_reported":1713532083,"current_range_meters":11200,"station_id":"ce4bgn12rcd13ifvqbt0","pricing_plan_id":"cebpf4jnsgd1na2vs0mg"},{"bike_id":"b5e00b86-ca34-4174-8af3-85138bb4ff6f","system_id":"levelo_inurba_marseille","lat":43.297163,"lon":5.365866,"is_reserved":false,"is_disabled":false,"rental_uris":{"android":"levelo://app?vid=b5e00b86-ca34-4174-8af3-85138bb4ff6f","ios":"levelo://app?vid=b5e00b86-ca34-4174-8af3-85138bb4ff6f"},"vehicle_type_id":"4","last_reported":1713532083,"current_range_meters":17200,"station_id":"ce4bgn12rcd13ifvqbt0","pricing_plan_id":"cebpf4jnsgd1na2vs0mg"},{"bike_id":"057637fa-b524-4335-aedf-a758bffd3e80","system_id":"levelo_inurba_marseille","lat":43.297163,"lon":5.365866,"is_reserved":false,"is_disabled":false,"rental_uris":{"android":"levelo://app?vid=057637fa-b524-4335-aedf-a758bffd3e80","ios":"levelo://app?vid=057637fa-b524-4335-aedf-a758bffd3e80"},"vehicle_type_id":"4","last_reported":1713532083,"current_range_meters":0,"station_id":"ce4bgn12rcd13ifvqbt0","pricing_plan_id":"cebpf4jnsgd1na2vs0mg"},{"bike_id":"3b8d6506-258d-404d-8d59-fe4d1ff9e36b","system_id":"levelo_inurba_marseille","lat":43.297163,"lon":5.365866,"is_reserved":false,"is_disabled":false,"rental_uris":{"android":"levelo://app?vid=3b8d6506-258d-404d-8d59-fe4d1ff9e36b","ios":"levelo://app?vid=3b8d6506-258d-404d-8d59-fe4d1ff9e36b"},"vehicle_type_id":"4","last_reported":1713532083,"current_range_meters":31600,"station_id":"ce4bgn12rcd13ifvqbt0","pricing_plan_id":"cebpf4jnsgd1na2vs0mg"},{"bike_id":"5daa741e-8d85-4ec8-9f26-9526b6b21256","system_id":"levelo_inurba_marseille","lat":43.297163,"lon":5.365866,"is_reserved":false,"is_disabled":false,"rental_uris":{"android":"levelo://app?vid=5daa741e-8d85-4ec8-9f26-9526b6b21256","ios":"levelo://app?vid=5daa741e-8d85-4ec8-9f26-9526b6b21256"},"vehicle_type_id":"4","last_reported":1713532083,"current_range_meters":26000,"station_id":"ce4bgn12rcd13ifvqbt0","pricing_plan_id":"cebpf4jnsgd1na2vs0mg"},{"bike_id":"6c35916c-a96d-4ca5-be74-db57ddef4cd7","system_id":"levelo_inurba_marseille","lat":43.297163,"lon":5.365866,"is_reserved":false,"is_disabled":false,"rental_uris":{"android":"levelo://app?vid=6c35916c-a96d-4ca5-be74-db57ddef4cd7","ios":"levelo://app?vid=6c35916c-a96d-4ca5-be74-db57ddef4cd7"},"vehicle_type_id":"4","last_reported":1713532083,"current_range_meters":16000,"station_id":"ce4bgn12rcd13ifvqbt0","pricing_plan_id":"cebpf4jnsgd1na2vs0mg"},{"bike_id":"7010eafa-dd50-4796-a954-c4ca958597e8","system_id":"levelo_inurba_marseille","lat":43.297163,"lon":5.365866,"is_reserved":false,"is_disabled":false,"rental_uris":{"android":"levelo://app?vid=7010eafa-dd50-4796-a954-c4ca958597e8","ios":"levelo://app?vid=7010eafa-dd50-4796-a954-c4ca958597e8"},"vehicle_type_id":"4","last_reported":1713532083,"current_range_meters":31200,"station_id":"ce4bgn12rcd13ifvqbt0","pricing_plan_id":"cebpf4jnsgd1na2vs0mg"},{"bike_id":"8437382e-522a-4780-b769-91e61760bb93","system_id":"levelo_inurba_marseille","lat":43.29707,"lon":5.36619,"is_reserved":false,"is_disabled":false,"rental_uris":{"android":"levelo://app?vid=8437382e-522a-4780-b769-91e61760bb93","ios":"levelo://app?vid=8437382e-522a-4780-b769-91e61760bb93"},"vehicle_type_id":"4","last_reported":1713532083,"current_range_meters":13200,"station_id":"ce4bgn12rcd13ifvqbt0","pricing_plan_id":"cebpf4jnsgd1na2vs0mg"},{"bike_id":"f7c11b80-e29d-4b32-8277-46d906f43492","system_id":"levelo_inurba_marseille","lat":43.297163,"lon":5.365866,"is_reserved":false,"is_disabled":false,"rental_uris":{"android":"levelo://app?vid=f7c11b80-e29d-4b32-8277-46d906f43492","ios":"levelo://app?vid=f7c11b80-e29d-4b32-8277-46d906f43492"},"vehicle_type_id":"4","last_reported":1713532083,"current_range_meters":16800,"station_id":"ce4bgn12rcd13ifvqbt0","pricing_plan_id":"cebpf4jnsgd1na2vs0mg"},{"bike_id":"02911c2d-3f50-40e0-b1f9-a106f7b76d6b","system_id":"levelo_inurba_marseille","lat":43.297163,"lon":5.365866,"is_reserved":false,"is_disabled":false,"rental_uris":{"android":"levelo://app?vid=02911c2d-3f50-40e0-b1f9-a106f7b76d6b","ios":"levelo://app?vid=02911c2d-3f50-40e0-b1f9-a106f7b76d6b"},"vehicle_type_id":"4","last_reported":1713532083,"current_range_meters":20400,"station_id":"ce4bgn12rcd13ifvqbt0","pricing_plan_id":"cebpf4jnsgd1na2vs0mg"},{"bike_id":"317cfddd-64dc-45bb-b8a5-a01d11ccb762","system_id":"levelo_inurba_marseille","lat":43.314783,"lon":5.388627,"is_reserved":false,"is_disabled":false,"rental_uris":{"android":"levelo://app?vid=317cfddd-64dc-45bb-b8a5-a01d11ccb762","ios":"levelo://app?vid=317cfddd-64dc-45bb-b8a5-a01d11ccb762"},"vehicle_type_id":"4","last_reported":1713532083,"current_range_meters":1600,"station_id":"ce4bhqp2rcd13ifvqhng","pricing_plan_id":"cebpf4jnsgd1na2vs0mg"},{"bike_id":"56ae4d96-2a3f-4ef9-95a2-72dd927579b2","system_id":"levelo_inurba_marseille","lat":43.299222,"lon":5.365554,"is_reserved":false,"is_disabled":false,"rental_uris":{"android":"levelo://app?vid=56ae4d96-2a3f-4ef9-95a2-72dd927579b2","ios":"levelo://app?vid=56ae4d96-2a3f-4ef9-95a2-72dd927579b2"},"vehicle_type_id":"4","last_reported":1713532083,"current_range_meters":27200,"station_id":"ce4bgm92rcd13ifvqbr0","pricing_plan_id":"cebpf4jnsgd1na2vs0mg"},{"bike_id":"f51ab41f-cf98-405b-8c7b-f3ab73221132","system_id":"levelo_inurba_marseille","lat":43.2968,"lon":5.37291,"is_reserved":false,"is_disabled":false,"rental_uris":{"android":"levelo://app?vid=f51ab41f-cf98-405b-8c7b-f3ab73221132","ios":"levelo://app?vid=f51ab41f-cf98-405b-8c7b-f3ab73221132"},"vehicle_type_id":"4","last_reported":1713532083,"current_range_meters":16800,"station_id":"ce4bgk12rcd13ifvqbj0","pricing_plan_id":"cebpf4jnsgd1na2vs0mg"},{"bike_id":"4ff09a1f-6705-4648-bb66-fe1067d98cca","system_id":"levelo_inurba_marseille","lat":43.2968,"lon":5.37291,"is_reserved":false,"is_disabled":false,"rental_uris":{"android":"levelo://app?vid=4ff09a1f-6705-4648-bb66-fe1067d98cca","ios":"levelo://app?vid=4ff09a1f-6705-4648-bb66-fe1067d98cca"},"vehicle_type_id":"4","last_reported":1713532083,"current_range_meters":18000,"station_id":"ce4bgk12rcd13ifvqbj0","pricing_plan_id":"cebpf4jnsgd1na2vs0mg"},{"bike_id":"debd413c-c68e-4326-acf1-70eca32db1f3","system_id":"levelo_inurba_marseille","lat":43.2968,"lon":5.37291,"is_reserved":false,"is_disabled":false,"rental_uris":{"android":"levelo://app?vid=debd413c-c68e-4326-acf1-70eca32db1f3","ios":"levelo://app?vid=debd413c-c68e-4326-acf1-70eca32db1f3"},"vehicle_type_id":"4","last_reported":1713532083,"current_range_meters":10400,"station_id":"ce4bgk12rcd13ifvqbj0","pricing_plan_id":"cebpf4jnsgd1na2vs0mg"},{"bike_id":"0e2dd721-0042-4f91-ae5a-50cf88d74db0","system_id":"levelo_inurba_marseille","lat":43.295852,"lon":5.367426,"is_reserved":false,"is_disabled":false,"rental_uris":{"android":"levelo://app?vid=0e2dd721-0042-4f91-ae5a-50cf88d74db0","ios":"levelo://app?vid=0e2dd721-0042-4f91-ae5a-50cf88d74db0"},"vehicle_type_id":"4","last_reported":1713532083,"current_range_meters":19200,"station_id":"ce4bgph2rcd13ifvqc2g","pricing_plan_id":"cebpf4jnsgd1na2vs0mg"},{"bike_id":"f5dc56c4-cc06-490f-bf58-5b292403cc81","system_id":"levelo_inurba_marseille","lat":43.29584,"lon":5.3674,"is_reserved":false,"is_disabled":false,"rental_uris":{"android":"levelo://app?vid=f5dc56c4-cc06-490f-bf58-5b292403cc81","ios":"levelo://app?vid=f5dc56c4-cc06-490f-bf58-5b292403cc81"},"vehicle_type_id":"4","last_reported":1713532083,"current_range_meters":18000,"station_id":"ce4bgph2rcd13ifvqc2g","pricing_plan_id":"cebpf4jnsgd1na2vs0mg"},{"bike_id":"22262659-dd51-4055-9046-de90d6898c75","system_id":"levelo_inurba_marseille","lat":43.29573,"lon":5.367355,"is_reserved":false,"is_disabled":false,"rental_uris":{"android":"levelo://app?vid=22262659-dd51-4055-9046-de90d6898c75","ios":"levelo://app?vid=22262659-dd51-4055-9046-de90d6898c75"},"vehicle_type_id":"4","last_reported":1713532083,"current_range_meters":31200,"station_id":"ce4bgph2rcd13ifvqc2g","pricing_plan_id":"cebpf4jnsgd1na2vs0mg"},{"bike_id":"e4439bdc-3197-4b00-949e-4fff358683d8","system_id":"levelo_inurba_marseille","lat":43.29573,"lon":5.367355,"is_reserved":false,"is_disabled":false,"rental_uris":{"android":"levelo://app?vid=e4439bdc-3197-4b00-949e-4fff358683d8","ios":"levelo://app?vid=e4439bdc-3197-4b00-949e-4fff358683d8"},"vehicle_type_id":"4","last_reported":1713532083,"current_range_meters":15600,"station_id":"ce4bgph2rcd13ifvqc2g","pricing_plan_id":"cebpf4jnsgd1na2vs0mg"},{"bike_id":"1b1c78c6-7e18-4f71-be80-dfd0b75211c3","system_id":"levelo_inurba_marseille","lat":43.29573,"lon":5.367355,"is_reserved":false,"is_disabled":false,"rental_uris":{"android":"levelo://app?vid=1b1c78c6-7e18-4f71-be80-dfd0b75211c3","ios":"levelo://app?vid=1b1c78c6-7e18-4f71-be80-dfd0b75211c3"},"vehicle_type_id":"4","last_reported":1713532083,"current_range_meters":24000,"station_id":"ce4bgph2rcd13ifvqc2g","pricing_plan_id":"cebpf4jnsgd1na2vs0mg"},{"bike_id":"974425f9-98e7-4602-a9ed-a64db7a300ee","system_id":"levelo_inurba_marseille","lat":43.29573,"lon":5.367355,"is_reserved":false,"is_disabled":false,"rental_uris":{"android":"levelo://app?vid=974425f9-98e7-4602-a9ed-a64db7a300ee","ios":"levelo://app?vid=974425f9-98e7-4602-a9ed-a64db7a300ee"},"vehicle_type_id":"4","last_reported":1713532083,"current_range_meters":31200,"station_id":"ce4bgph2rcd13ifvqc2g","pricing_plan_id":"cebpf4jnsgd1na2vs0mg"},{"bike_id":"2780b88d-a2fd-4a57-9d23-776d60b9017e","system_id":"levelo_inurba_marseille","lat":43.29579,"lon":5.36731,"is_reserved":false,"is_disabled":false,"rental_uris":{"android":"levelo://app?vid=2780b88d-a2fd-4a57-9d23-776d60b9017e","ios":"levelo://app?vid=2780b88d-a2fd-4a57-9d23-776d60b9017e"},"vehicle_type_id":"4","last_reported":1713532083,"current_range_meters":26000,"station_id":"ce4bgph2rcd13ifvqc2g","pricing_plan_id":"cebpf4jnsgd1na2vs0mg"},{"bike_id":"9dce7819-33ea-4fef-933d-db7bb8d0fdd2","system_id":"levelo_inurba_marseille","lat":43.29573,"lon":5.367355,"is_reserved":false,"is_disabled":false,"rental_uris":{"android":"levelo://app?vid=9dce7819-33ea-4fef-933d-db7bb8d0fdd2","ios":"levelo://app?vid=9dce7819-33ea-4fef-933d-db7bb8d0fdd2"},"vehicle_type_id":"4","last_reported":1713532083,"current_range_meters":0,"station_id":"ce4bgph2rcd13ifvqc2g","pricing_plan_id":"cebpf4jnsgd1na2vs0mg"},{"bike_id":"0806a03c-d213-4f3f-a1bd-710a174c6538","system_id":"levelo_inurba_marseille","lat":43.29573,"lon":5.367355,"is_reserved":false,"is_disabled":false,"rental_uris":{"android":"levelo://app?vid=0806a03c-d213-4f3f-a1bd-710a174c6538","ios":"levelo://app?vid=0806a03c-d213-4f3f-a1bd-710a174c6538"},"vehicle_type_id":"4","last_reported":1713532083,"current_range_meters":31200,"station_id":"ce4bgph2rcd13ifvqc2g","pricing_plan_id":"cebpf4jnsgd1na2vs0mg"},{"bike_id":"530032e1-7029-4e58-b3cc-70f15d8e122e","system_id":"levelo_inurba_marseille","lat":43.29574,"lon":5.36735,"is_reserved":false,"is_disabled":false,"rental_uris":{"android":"levelo://app?vid=530032e1-7029-4e58-b3cc-70f15d8e122e","ios":"levelo://app?vid=530032e1-7029-4e58-b3cc-70f15d8e122e"},"vehicle_type_id":"4","last_reported":1713532083,"current_range_meters":9200,"station_id":"ce4bgph2rcd13ifvqc2g","pricing_plan_id":"cebpf4jnsgd1na2vs0mg"},{"bike_id":"5e094bf9-14f2-44de-a273-a7a4692bdcd7","system_id":"levelo_inurba_marseille","lat":43.296921,"lon":5.376579,"is_reserved":false,"is_disabled":false,"rental_uris":{"android":"levelo://app?vid=5e094bf9-14f2-44de-a273-a7a4692bdcd7","ios":"levelo://app?vid=5e094bf9-14f2-44de-a273-a7a4692bdcd7"},"vehicle_type_id":"4","last_reported":1713532083,"current_range_meters":4800,"station_id":"ce4bgkh2rcd13ifvqbl0","pricing_plan_id":"cebpf4jnsgd1na2vs0mg"},{"bike_id":"032df4ba-c380-4161-8e40-c0113c1dfa3c","system_id":"levelo_inurba_marseille","lat":43.296921,"lon":5.376579,"is_reserved":false,"is_disabled":false,"rental_uris":{"android":"levelo://app?vid=032df4ba-c380-4161-8e40-c0113c1dfa3c","ios":"levelo://app?vid=032df4ba-c380-4161-8e40-c0113c1dfa3c"},"vehicle_type_id":"4","last_reported":1713532083,"current_range_meters":0,"station_id":"ce4bgkh2rcd13ifvqbl0","pricing_plan_id":"cebpf4jnsgd1na2vs0mg"},{"bike_id":"4349dc9c-8e65-453e-8411-3147de852a39","system_id":"levelo_inurba_marseille","lat":43.299028,"lon":5.381509,"is_reserved":false,"is_disabled":false,"rental_uris":{"android":"levelo://app?vid=4349dc9c-8e65-453e-8411-3147de852a39","ios":"levelo://app?vid=4349dc9c-8e65-453e-8411-3147de852a39"},"vehicle_type_id":"4","last_reported":1713532083,"current_range_meters":12800,"station_id":"ce4bgj12rcd13ifvqbc0","pricing_plan_id":"cebpf4jnsgd1na2vs0mg"},{"bike_id":"5501f572-8430-422d-933c-92d918d48574","system_id":"levelo_inurba_marseille","lat":43.309589,"lon":5.390258,"is_reserved":false,"is_disabled":false,"rental_uris":{"android":"levelo://app?vid=5501f572-8430-422d-933c-92d918d48574","ios":"levelo://app?vid=5501f572-8430-422d-933c-92d918d48574"},"vehicle_type_id":"4","last_reported":1713532083,"current_range_meters":20400,"station_id":"ce4bgup2rcd13ifvqco0","pricing_plan_id":"cebpf4jnsgd1na2vs0mg"},{"bike_id":"99b04336-36fa-4a3d-ba2a-742b995e9b6d","system_id":"levelo_inurba_marseille","lat":43.299099,"lon":5.381466,"is_reserved":false,"is_disabled":false,"rental_uris":{"android":"levelo://app?vid=99b04336-36fa-4a3d-ba2a-742b995e9b6d","ios":"levelo://app?vid=99b04336-36fa-4a3d-ba2a-742b995e9b6d"},"vehicle_type_id":"4","last_reported":1713532083,"current_range_meters":6400,"station_id":"ce4bgj12rcd13ifvqbc0","pricing_plan_id":"cebpf4jnsgd1na2vs0mg"},{"bike_id":"51c169fb-c941-402e-8d49-1515be0c47f1","system_id":"levelo_inurba_marseille","lat":43.290103,"lon":5.356114,"is_reserved":false,"is_disabled":false,"rental_uris":{"android":"levelo://app?vid=51c169fb-c941-402e-8d49-1515be0c47f1","ios":"levelo://app?vid=51c169fb-c941-402e-8d49-1515be0c47f1"},"vehicle_type_id":"4","last_reported":1713532083,"current_range_meters":5600,"station_id":"ce4bhb92rcd13ifvqen0","pricing_plan_id":"cebpf4jnsgd1na2vs0mg"},{"bike_id":"6c5c3bde-e888-4979-b11e-7f49f83206bb","system_id":"levelo_inurba_marseille","lat":43.299028,"lon":5.381509,"is_reserved":false,"is_disabled":false,"rental_uris":{"android":"levelo://app?vid=6c5c3bde-e888-4979-b11e-7f49f83206bb","ios":"levelo://app?vid=6c5c3bde-e888-4979-b11e-7f49f83206bb"},"vehicle_type_id":"4","last_reported":1713532083,"current_range_meters":31200,"station_id":"ce4bgj12rcd13ifvqbc0","pricing_plan_id":"cebpf4jnsgd1na2vs0mg"},{"bike_id":"77bf1484-024d-4864-a145-f8e6af2a289d","system_id":"levelo_inurba_marseille","lat":43.299028,"lon":5.381509,"is_reserved":false,"is_disabled":false,"rental_uris":{"android":"levelo://app?vid=77bf1484-024d-4864-a145-f8e6af2a289d","ios":"levelo://app?vid=77bf1484-024d-4864-a145-f8e6af2a289d"},"vehicle_type_id":"4","last_reported":1713532083,"current_range_meters":23200,"station_id":"ce4bgj12rcd13ifvqbc0","pricing_plan_id":"cebpf4jnsgd1na2vs0mg"},{"bike_id":"a46772fb-6d1f-43e9-8076-cbd36e2368d7","system_id":"levelo_inurba_marseille","lat":43.309589,"lon":5.390258,"is_reserved":false,"is_disabled":false,"rental_uris":{"android":"levelo://app?vid=a46772fb-6d1f-43e9-8076-cbd36e2368d7","ios":"levelo://app?vid=a46772fb-6d1f-43e9-8076-cbd36e2368d7"},"vehicle_type_id":"4","last_reported":1713532083,"current_range_meters":20800,"station_id":"ce4bgup2rcd13ifvqco0","pricing_plan_id":"cebpf4jnsgd1na2vs0mg"},{"bike_id":"86de2b60-de20-41a0-afc0-3215595b14d9","system_id":"levelo_inurba_marseille","lat":43.299028,"lon":5.381509,"is_reserved":false,"is_disabled":false,"rental_uris":{"android":"levelo://app?vid=86de2b60-de20-41a0-afc0-3215595b14d9","ios":"levelo://app?vid=86de2b60-de20-41a0-afc0-3215595b14d9"},"vehicle_type_id":"4","last_reported":1713532083,"current_range_meters":31200,"station_id":"ce4bgj12rcd13ifvqbc0","pricing_plan_id":"cebpf4jnsgd1na2vs0mg"},{"bike_id":"56041c9e-c98b-4ce3-b0e2-fd281ba6a777","system_id":"levelo_inurba_marseille","lat":43.30952,"lon":5.39042,"is_reserved":false,"is_disabled":false,"rental_uris":{"android":"levelo://app?vid=56041c9e-c98b-4ce3-b0e2-fd281ba6a777","ios":"levelo://app?vid=56041c9e-c98b-4ce3-b0e2-fd281ba6a777"},"vehicle_type_id":"4","last_reported":1713532083,"current_range_meters":2400,"station_id":"ce4bgup2rcd13ifvqco0","pricing_plan_id":"cebpf4jnsgd1na2vs0mg"},{"bike_id":"3ba0824c-94d2-4ac7-a110-e72989a55dae","system_id":"levelo_inurba_marseille","lat":43.309589,"lon":5.390258,"is_reserved":false,"is_disabled":false,"rental_uris":{"android":"levelo://app?vid=3ba0824c-94d2-4ac7-a110-e72989a55dae","ios":"levelo://app?vid=3ba0824c-94d2-4ac7-a110-e72989a55dae"},"vehicle_type_id":"4","last_reported":1713532083,"current_range_meters":13200,"station_id":"ce4bgup2rcd13ifvqco0","pricing_plan_id":"cebpf4jnsgd1na2vs0mg"},{"bike_id":"69aac91e-67d2-43fb-8c5d-b1e7e95b5d8f","system_id":"levelo_inurba_marseille","lat":43.29898,"lon":5.38158,"is_reserved":false,"is_disabled":false,"rental_uris":{"android":"levelo://app?vid=69aac91e-67d2-43fb-8c5d-b1e7e95b5d8f","ios":"levelo://app?vid=69aac91e-67d2-43fb-8c5d-b1e7e95b5d8f"},"vehicle_type_id":"4","last_reported":1713532083,"current_range_meters":22800,"station_id":"ce4bgj12rcd13ifvqbc0","pricing_plan_id":"cebpf4jnsgd1na2vs0mg"},{"bike_id":"62cb1138-b89b-4571-b219-94d6e55eba1a","system_id":"levelo_inurba_marseille","lat":43.31755,"lon":5.39016,"is_reserved":false,"is_disabled":false,"rental_uris":{"android":"levelo://app?vid=62cb1138-b89b-4571-b219-94d6e55eba1a","ios":"levelo://app?vid=62cb1138-b89b-4571-b219-94d6e55eba1a"},"vehicle_type_id":"4","last_reported":1713532083,"current_range_meters":10000,"station_id":"ce4bhqp2rcd13ifvqhng","pricing_plan_id":"cebpf4jnsgd1na2vs0mg"},{"bike_id":"f02851c7-ad35-4b60-b237-247228bc9980","system_id":"levelo_inurba_marseille","lat":43.317515,"lon":5.390174,"is_reserved":false,"is_disabled":false,"rental_uris":{"android":"levelo://app?vid=f02851c7-ad35-4b60-b237-247228bc9980","ios":"levelo://app?vid=f02851c7-ad35-4b60-b237-247228bc9980"},"vehicle_type_id":"4","last_reported":1713532083,"current_range_meters":30800,"station_id":"ce4bhqp2rcd13ifvqhng","pricing_plan_id":"cebpf4jnsgd1na2vs0mg"},{"bike_id":"743cf85a-c647-4b74-9d3c-22b9b97f559a","system_id":"levelo_inurba_marseille","lat":43.317557,"lon":5.390173,"is_reserved":false,"is_disabled":false,"rental_uris":{"android":"levelo://app?vid=743cf85a-c647-4b74-9d3c-22b9b97f559a","ios":"levelo://app?vid=743cf85a-c647-4b74-9d3c-22b9b97f559a"},"vehicle_type_id":"4","last_reported":1713532083,"current_range_meters":20000,"station_id":"ce4bhqp2rcd13ifvqhng","pricing_plan_id":"cebpf4jnsgd1na2vs0mg"},{"bike_id":"b7cb0b8a-23d6-427d-86dd-fef822451e12","system_id":"levelo_inurba_marseille","lat":43.317582,"lon":5.390166,"is_reserved":false,"is_disabled":false,"rental_uris":{"android":"levelo://app?vid=b7cb0b8a-23d6-427d-86dd-fef822451e12","ios":"levelo://app?vid=b7cb0b8a-23d6-427d-86dd-fef822451e12"},"vehicle_type_id":"4","last_reported":1713532083,"current_range_meters":14400,"station_id":"ce4bhqp2rcd13ifvqhng","pricing_plan_id":"cebpf4jnsgd1na2vs0mg"},{"bike_id":"e933b7ce-f913-4de1-8899-82eebeb94747","system_id":"levelo_inurba_marseille","lat":43.317557,"lon":5.390173,"is_reserved":false,"is_disabled":false,"rental_uris":{"android":"levelo://app?vid=e933b7ce-f913-4de1-8899-82eebeb94747","ios":"levelo://app?vid=e933b7ce-f913-4de1-8899-82eebeb94747"},"vehicle_type_id":"4","last_reported":1713532083,"current_range_meters":12000,"station_id":"ce4bhqp2rcd13ifvqhng","pricing_plan_id":"cebpf4jnsgd1na2vs0mg"},{"bike_id":"eb176476-0d68-4a03-8f81-d05a6a168746","system_id":"levelo_inurba_marseille","lat":43.3176,"lon":5.39017,"is_reserved":false,"is_disabled":false,"rental_uris":{"android":"levelo://app?vid=eb176476-0d68-4a03-8f81-d05a6a168746","ios":"levelo://app?vid=eb176476-0d68-4a03-8f81-d05a6a168746"},"vehicle_type_id":"4","last_reported":1713532083,"current_range_meters":24000,"station_id":"ce4bhqp2rcd13ifvqhng","pricing_plan_id":"cebpf4jnsgd1na2vs0mg"},{"bike_id":"3a8f98f9-1d80-4e1b-a708-b4e06bf8b3d9","system_id":"levelo_inurba_marseille","lat":43.31759,"lon":5.390175,"is_reserved":false,"is_disabled":false,"rental_uris":{"android":"levelo://app?vid=3a8f98f9-1d80-4e1b-a708-b4e06bf8b3d9","ios":"levelo://app?vid=3a8f98f9-1d80-4e1b-a708-b4e06bf8b3d9"},"vehicle_type_id":"4","last_reported":1713532083,"current_range_meters":11600,"station_id":"ce4bhqp2rcd13ifvqhng","pricing_plan_id":"cebpf4jnsgd1na2vs0mg"},{"bike_id":"7bd66363-1a97-4246-99be-e0517b7b0cee","system_id":"levelo_inurba_marseille","lat":43.317544,"lon":5.390206,"is_reserved":false,"is_disabled":false,"rental_uris":{"android":"levelo://app?vid=7bd66363-1a97-4246-99be-e0517b7b0cee","ios":"levelo://app?vid=7bd66363-1a97-4246-99be-e0517b7b0cee"},"vehicle_type_id":"4","last_reported":1713532083,"current_range_meters":31200,"station_id":"ce4bhqp2rcd13ifvqhng","pricing_plan_id":"cebpf4jnsgd1na2vs0mg"},{"bike_id":"c59cb956-4072-4516-afdc-fe99187bdf84","system_id":"levelo_inurba_marseille","lat":43.3176,"lon":5.3902,"is_reserved":false,"is_disabled":false,"rental_uris":{"android":"levelo://app?vid=c59cb956-4072-4516-afdc-fe99187bdf84","ios":"levelo://app?vid=c59cb956-4072-4516-afdc-fe99187bdf84"},"vehicle_type_id":"4","last_reported":1713532083,"current_range_meters":14800,"station_id":"ce4bhqp2rcd13ifvqhng","pricing_plan_id":"cebpf4jnsgd1na2vs0mg"},{"bike_id":"c5ce4206-7189-4477-ba32-1e1eace1128d","system_id":"levelo_inurba_marseille","lat":43.317605,"lon":5.390202,"is_reserved":false,"is_disabled":false,"rental_uris":{"android":"levelo://app?vid=c5ce4206-7189-4477-ba32-1e1eace1128d","ios":"levelo://app?vid=c5ce4206-7189-4477-ba32-1e1eace1128d"},"vehicle_type_id":"4","last_reported":1713532083,"current_range_meters":14000,"station_id":"ce4bhqp2rcd13ifvqhng","pricing_plan_id":"cebpf4jnsgd1na2vs0mg"},{"bike_id":"8516de7a-d89d-4aa0-b307-08d5380dccde","system_id":"levelo_inurba_marseille","lat":43.317557,"lon":5.390173,"is_reserved":false,"is_disabled":false,"rental_uris":{"android":"levelo://app?vid=8516de7a-d89d-4aa0-b307-08d5380dccde","ios":"levelo://app?vid=8516de7a-d89d-4aa0-b307-08d5380dccde"},"vehicle_type_id":"4","last_reported":1713532083,"current_range_meters":2800,"station_id":"ce4bhqp2rcd13ifvqhng","pricing_plan_id":"cebpf4jnsgd1na2vs0mg"},{"bike_id":"29ec9b17-01e9-4242-b797-cdef756737d7","system_id":"levelo_inurba_marseille","lat":43.31747,"lon":5.390298,"is_reserved":false,"is_disabled":false,"rental_uris":{"android":"levelo://app?vid=29ec9b17-01e9-4242-b797-cdef756737d7","ios":"levelo://app?vid=29ec9b17-01e9-4242-b797-cdef756737d7"},"vehicle_type_id":"4","last_reported":1713532083,"current_range_meters":21200,"station_id":"ce4bhqp2rcd13ifvqhng","pricing_plan_id":"cebpf4jnsgd1na2vs0mg"},{"bike_id":"fc0a4964-2b09-49b9-9dba-fdbe43fe31e8","system_id":"levelo_inurba_marseille","lat":43.297284,"lon":5.37928,"is_reserved":false,"is_disabled":false,"rental_uris":{"android":"levelo://app?vid=fc0a4964-2b09-49b9-9dba-fdbe43fe31e8","ios":"levelo://app?vid=fc0a4964-2b09-49b9-9dba-fdbe43fe31e8"},"vehicle_type_id":"4","last_reported":1713532083,"current_range_meters":31200,"station_id":"ce4bgkp2rcd13ifvqbmg","pricing_plan_id":"cebpf4jnsgd1na2vs0mg"},{"bike_id":"5e0422c4-4db2-4cd5-8ec6-f1a5f73617e2","system_id":"levelo_inurba_marseille","lat":43.297194,"lon":5.379305,"is_reserved":false,"is_disabled":false,"rental_uris":{"android":"levelo://app?vid=5e0422c4-4db2-4cd5-8ec6-f1a5f73617e2","ios":"levelo://app?vid=5e0422c4-4db2-4cd5-8ec6-f1a5f73617e2"},"vehicle_type_id":"4","last_reported":1713532083,"current_range_meters":14000,"station_id":"","pricing_plan_id":"cebpf4jnsgd1na2vs0mg"},{"bike_id":"218e496c-768d-4c85-9ea5-7592250e1cb9","system_id":"levelo_inurba_marseille","lat":43.29794,"lon":5.38111,"is_reserved":false,"is_disabled":false,"rental_uris":{"android":"levelo://app?vid=218e496c-768d-4c85-9ea5-7592250e1cb9","ios":"levelo://app?vid=218e496c-768d-4c85-9ea5-7592250e1cb9"},"vehicle_type_id":"4","last_reported":1713532083,"current_range_meters":0,"station_id":"ce4bgip2rcd13ifvqbb0","pricing_plan_id":"cebpf4jnsgd1na2vs0mg"},{"bike_id":"12a30d71-b6d9-4f6b-a004-518dce9a1401","system_id":"levelo_inurba_marseille","lat":43.298037,"lon":5.381066,"is_reserved":false,"is_disabled":false,"rental_uris":{"android":"levelo://app?vid=12a30d71-b6d9-4f6b-a004-518dce9a1401","ios":"levelo://app?vid=12a30d71-b6d9-4f6b-a004-518dce9a1401"},"vehicle_type_id":"4","last_reported":1713532083,"current_range_meters":5600,"station_id":"ce4bgip2rcd13ifvqbb0","pricing_plan_id":"cebpf4jnsgd1na2vs0mg"},