{"last_updated":1743747286,"ttl":60,"version":"2.2","data":{"bikes":[{"bike_id":"dab9ac12-9fc7-4ab0-a3a8-9d0d09cd82af","system_id":"levelo_inurba_marseille","lat":43.29043,"lon":5.39971,"is_reserved":false,"is_disabled":false,"rental_uris":{"android":"levelo://app?vid=dab9ac12-9fc7-4ab0-a3a8-9d0d09cd82af","ios":"levelo://app?vid=dab9ac12-9fc7-4ab0-a3a8-9d0d09cd82af"},"vehicle_type_id":"4","last_reported":1743747287,"current_range_meters":2800,"station_id":"ce4bh392rcd13ifvqdm0","pricing_plan_id":"cebpf4jnsgd1na2vs0mg"},{"bike_id":"8993c4a5-3cc3-4b87-a250-f3b221b14056","system_id":"levelo_inurba_marseille","lat":43.27311,"lon":5.39233,"is_reserved":false,"is_disabled":false,"rental_uris":{"android":"levelo://app?vid=8993c4a5-3cc3-4b87-a250-f3b221b14056","ios":"levelo://app?vid=8993c4a5-3cc3-4b87-a250-f3b221b14056"},"vehicle_type_id":"4","last_reported":1743747287,"current_range_meters":2800,"station_id":"","pricing_plan_id":"cebpf4jnsgd1na2vs0mg"},{"bike_id":"4f289e29-f4e9-45d3-bd4f-83308745e543","system_id":"levelo_inurba_marseille","lat":43.23192,"lon":5.35557,"is_reserved":false,"is_disabled":false,"rental_uris":{"android":"levelo://app?vid=4f289e29-f4e9-45d3-bd4f-83308745e543","ios":"levelo://app?vid=4f289e29-f4e9-45d3-bd4f-83308745e543"},"vehicle_type_id":"4","last_reported":1743747287,"current_range_meters":2800,"station_id":"ce4bhu92rcd13ifvqi70","pricing_plan_id":"cebpf4jnsgd1na2vs0mg"},{"bike_id":"7461d63e-8066-46c0-aa7f-21eb8f824250","system_id":"levelo_inurba_marseille","lat":43.30455,"lon":5.379047,"is_reserved":false,"is_disabled":false,"rental_uris":{"android":"levelo://app?vid=7461d63e-8066-46c0-aa7f-21eb8f824250","ios":"levelo://app?vid=7461d63e-8066-46c0-aa7f-21eb8f824250"},"vehicle_type_id":"4","last_reported":1743747287,"current_range_meters":3200,"station_id":"ce4bgup2rcd13ifvqcn0","pricing_plan_id":"cebpf4jnsgd1na2vs0mg"},{"bike_id":"f87e996c-206a-47d9-8697-84a2d463fdc3","system_id":"levelo_inurba_marseille","lat":43.23274,"lon":5.35398,"is_reserved":false,"is_disabled":false,"rental_uris":{"android":"levelo://app?vid=f87e996c-206a-47d9-8697-84a2d463fdc3","ios":"levelo://app?vid=f87e996c-206a-47d9-8697-84a2d463fdc3"},"vehicle_type_id":"4","last_reported":1743747287,"current_range_meters":3200,"station_id":"","pricing_plan_id":"cebpf4jnsgd1na2vs0mg"},{"bike_id":"e22a0f1d-170d-4519-99c7-39e61fdd8421","system_id":"levelo_inurba_marseille","lat":43.290294,"lon":5.386569,"is_reserved":false,"is_disabled":false,"rental_uris":{"android":"levelo://app?vid=e22a0f1d-170d-4519-99c7-39e61fdd8421","ios":"levelo://app?vid=e22a0f1d-170d-4519-99c7-39e61fdd8421"},"vehicle_type_id":"4","last_reported":1743747287,"current_range_meters":3200,"station_id":"ce4bh4p2rcd13ifvqe0g","pricing_plan_id":"cebpf4jnsgd1na2vs0mg"},{"bike_id":"69acddf6-1674-4a48-b247-b816dce31989","system_id":"levelo_inurba_marseille","lat":43.34142,"lon":5.40913,"is_reserved":false,"is_disabled":false,"rental_uris":{"android":"levelo://app?vid=69acddf6-1674-4a48-b247-b816dce31989","ios":"levelo://app?vid=69acddf6-1674-4a48-b247-b816dce31989"},"vehicle_type_id":"4","last_reported":1743747287,"current_range_meters":3200,"station_id":"ce4bhqh2rcd13ifvqhlg","pricing_plan_id":"cebpf4jnsgd1na2vs0mg"},{"bike_id":"6e0ac892-eb5a-4e58-b40d-44ea2a6de718","system_id":"levelo_inurba_marseille","lat":43.23204,"lon":5.35546,"is_reserved":false,"is_disabled":false,"rental_uris":{"android":"levelo://app?vid=6e0ac892-eb5a-4e58-b40d-44ea2a6de718","ios":"levelo://app?vid=6e0ac892-eb5a-4e58-b40d-44ea2a6de718"},"vehicle_type_id":"4","last_reported":1743747287,"current_range_meters":3200,"station_id":"ce4bhu92rcd13ifvqi70","pricing_plan_id":"cebpf4jnsgd1na2vs0mg"},{"bike_id":"eeb31f1c-c9ec-45b6-91a0-234a2d80061b","system_id":"levelo_inurba_marseille","lat":43.30259,"lon":5.40063,"is_reserved":false,"is_disabled":false,"rental_uris":{"android":"levelo://app?vid=eeb31f1c-c9ec-45b6-91a0-234a2d80061b","ios":"levelo://app?vid=eeb31f1c-c9ec-45b6-91a0-234a2d80061b"},"vehicle_type_id":"4","last_reported":1743747287,"current_range_meters":3200,"station_id":"ce4bgvh2rcd13ifvqcs0","pricing_plan_id":"cebpf4jnsgd1na2vs0mg"},{"bike_id":"1802a5d2-8fe8-4604-997a-2ebcd4c38c9a","system_id":"levelo_inurba_marseille","lat":43.32361,"lon":5.36762,"is_reserved":false,"is_disabled":false,"rental_uris":{"android":"levelo://app?vid=1802a5d2-8fe8-4604-997a-2ebcd4c38c9a","ios":"levelo://app?vid=1802a5d2-8fe8-4604-997a-2ebcd4c38c9a"},"vehicle_type_id":"4","last_reported":1743747287,"current_range_meters":3600,"station_id":"ce4bhsh2rcd13ifvqi2g","pricing_plan_id":"cebpf4jnsgd1na2vs0mg"},{"bike_id":"9d13c440-da3b-4535-b70d-8105619f88bd","system_id":"levelo_inurba_marseille","lat":43.323642,"lon":5.38891,"is_reserved":false,"is_disabled":true,"rental_uris":{"android":"levelo://app?vid=9d13c440-da3b-4535-b70d-8105619f88bd","ios":"levelo://app?vid=9d13c440-da3b-4535-b70d-8105619f88bd"},"vehicle_type_id":"4","last_reported":1743747287,"current_range_meters":3600,"station_id":"ce4bhqp2rcd13ifvqhog","pricing_plan_id":"cebpf4jnsgd1na2vs0mg"},{"bike_id":"73d80700-af3e-4b57-b471-6a30c2e59c3e","system_id":"levelo_inurba_marseille","lat":43.25671,"lon":5.39747,"is_reserved":false,"is_disabled":false,"rental_uris":{"android":"levelo://app?vid=73d80700-af3e-4b57-b471-6a30c2e59c3e","ios":"levelo://app?vid=73d80700-af3e-4b57-b471-6a30c2e59c3e"},"vehicle_type_id":"4","last_reported":1743747287,"current_range_meters":3600,"station_id":"","pricing_plan_id":"cebpf4jnsgd1na2vs0mg"},{"bike_id":"4cba49d4-c5bd-4502-803e-6c3eb368c36a","system_id":"levelo_inurba_marseille","lat":43.24085,"lon":5.37747,"is_reserved":false,"is_disabled":false,"rental_uris":{"android":"levelo://app?vid=4cba49d4-c5bd-4502-803e-6c3eb368c36a","ios":"levelo://app?vid=4cba49d4-c5bd-4502-803e-6c3eb368c36a"},"vehicle_type_id":"4","last_reported":1743747287,"current_range_meters":3600,"station_id":"ce4bhnp2rcd13ifvqgvg","pricing_plan_id":"cebpf4jnsgd1na2vs0mg"},{"bike_id":"32597f0f-d49f-48cf-aa5d-2e1607ad69f2","system_id":"levelo_inurba_marseille","lat":43.262212,"lon":5.4045,"is_reserved":false,"is_disabled":false,"rental_uris":{"android":"levelo://app?vid=32597f0f-d49f-48cf-aa5d-2e1607ad69f2","ios":"levelo://app?vid=32597f0f-d49f-48cf-aa5d-2e1607ad69f2"},"vehicle_type_id":"4","last_reported":1743747287,"current_range_meters":3600,"station_id":"","pricing_plan_id":"cebpf4jnsgd1na2vs0mg"},{"bike_id":"e5c04698-6ae3-48de-91e0-ca03d3d46a65","system_id":"levelo_inurba_marseille","lat":43.30593,"lon":5.39366,"is_reserved":false,"is_disabled":false,"rental_uris":{"android":"levelo://app?vid=e5c04698-6ae3-48de-91e0-ca03d3d46a65","ios":"levelo://app?vid=e5c04698-6ae3-48de-91e0-ca03d3d46a65"},"vehicle_type_id":"4","last_reported":1743747287,"current_range_meters":3600,"station_id":"ce4bh0p2rcd13ifvqd80","pricing_plan_id":"cebpf4jnsgd1na2vs0mg"},{"bike_id":"062166e6-6a0c-4a58-b66d-61a66ee84172","system_id":"levelo_inurba_marseille","lat":43.26945,"lon":5.40265,"is_reserved":false,"is_disabled":false,"rental_uris":{"android":"levelo://app?vid=062166e6-6a0c-4a58-b66d-61a66ee84172","ios":"levelo://app?vid=062166e6-6a0c-4a58-b66d-61a66ee84172"},"vehicle_type_id":"4","last_reported":1743747287,"current_range_meters":4000,"station_id":"cjm6bp8fraef2m0cb0m0","pricing_plan_id":"cebpf4jnsgd1na2vs0mg"},{"bike_id":"5a4bba22-b8bd-485a-9124-e201f115a77b","system_id":"levelo_inurba_marseille","lat":43.248081,"lon":5.374641,"is_reserved":false,"is_disabled":true,"rental_uris":{"android":"levelo://app?vid=5a4bba22-b8bd-485a-9124-e201f115a77b","ios":"levelo://app?vid=5a4bba22-b8bd-485a-9124-e201f115a77b"},"vehicle_type_id":"4","last_reported":1743747287,"current_range_meters":4000,"station_id":"","pricing_plan_id":"cebpf4jnsgd1na2vs0mg"},{"bike_id":"ab00c886-5f83-45c8-b181-a41c8e9dba17","system_id":"levelo_inurba_marseille","lat":43.29256,"lon":5.40894,"is_reserved":false,"is_disabled":false,"rental_uris":{"android":"levelo://app?vid=ab00c886-5f83-45c8-b181-a41c8e9dba17","ios":"levelo://app?vid=ab00c886-5f83-45c8-b181-a41c8e9dba17"},"vehicle_type_id":"4","last_reported":1743747287,"current_range_meters":4000,"station_id":"ce4bh192rcd13ifvqdc0","pricing_plan_id":"cebpf4jnsgd1na2vs0mg"},{"bike_id":"ff3e52f2-b4d9-4b43-b932-91fabdfae3eb","system_id":"levelo_inurba_marseille","lat":43.31705,"lon":5.37759,"is_reserved":false,"is_disabled":false,"rental_uris":{"android":"levelo://app?vid=ff3e52f2-b4d9-4b43-b932-91fabdfae3eb","ios":"levelo://app?vid=ff3e52f2-b4d9-4b43-b932-91fabdfae3eb"},"vehicle_type_id":"4","last_reported":1743747287,"current_range_meters":4000,"station_id":"ce4bgth2rcd13ifvqch0","pricing_plan_id":"cebpf4jnsgd1na2vs0mg"},{"bike_id":"95cc1559-19df-4baa-bf2f-c95b3fbda069","system_id":"levelo_inurba_marseille","lat":43.27493,"lon":5.42457,"is_reserved":false,"is_disabled":false,"rental_uris":{"android":"levelo://app?vid=95cc1559-19df-4baa-bf2f-c95b3fbda069","ios":"levelo://app?vid=95cc1559-19df-4baa-bf2f-c95b3fbda069"},"vehicle_type_id":"4","last_reported":1743747287,"current_range_meters":4000,"station_id":"ce4bhn92rcd13ifvqgrg","pricing_plan_id":"cebpf4jnsgd1na2vs0mg"},{"bike_id":"7c3549ff-7920-4d00-b6d8-f70fcaacf402","system_id":"levelo_inurba_marseille","lat":43.30646,"lon":5.40087,"is_reserved":false,"is_disabled":false,"rental_uris":{"android":"levelo://app?vid=7c3549ff-7920-4d00-b6d8-f70fcaacf402","ios":"levelo://app?vid=7c3549ff-7920-4d00-b6d8-f70fcaacf402"},"vehicle_type_id":"4","last_reported":1743747287,"current_range_meters":4000,"station_id":"ce4bh112rcd13ifvqda0","pricing_plan_id":"cebpf4jnsgd1na2vs0mg"},{"bike_id":"19ef8a0a-46da-4b99-937e-7dc488a818b9","system_id":"levelo_inurba_marseille","lat":43.29048,"lon":5.39958,"is_reserved":false,"is_disabled":false,"rental_uris":{"android":"levelo://app?vid=19ef8a0a-46da-4b99-937e-7dc488a818b9","ios":"levelo://app?vid=19ef8a0a-46da-4b99-937e-7dc488a818b9"},"vehicle_type_id":"4","last_reported":1743747287,"current_range_meters":4000,"station_id":"ce4bh392rcd13ifvqdm0","pricing_plan_id":"cebpf4jnsgd1na2vs0mg"},{"bike_id":"83aa3c8e-91bd-485c-a041-0adac5639e00","system_id":"levelo_inurba_marseille","lat":43.30606,"lon":5.37124,"is_reserved":false,"is_disabled":false,"rental_uris":{"android":"levelo://app?vid=83aa3c8e-91bd-485c-a041-0adac5639e00","ios":"levelo://app?vid=83aa3c8e-91bd-485c-a041-0adac5639e00"},"vehicle_type_id":"4","last_reported":1743747287,"current_range_meters":4400,"station_id":"","pricing_plan_id":"cebpf4jnsgd1na2vs0mg"},{"bike_id":"5bffa5cd-7d25-4094-a090-6f370315377a","system_id":"levelo_inurba_marseille","lat":43.29026,"lon":5.37562,"is_reserved":false,"is_disabled":false,"rental_uris":{"android":"levelo://app?vid=5bffa5cd-7d25-4094-a090-6f370315377a","ios":"levelo://app?vid=5bffa5cd-7d25-4094-a090-6f370315377a"},"vehicle_type_id":"4","last_reported":1743747287,"current_range_meters":4400,"station_id":"ce4bh692rcd13ifvqe90","pricing_plan_id":"cebpf4jnsgd1na2vs0mg"},{"bike_id":"ead42473-2c73-4570-97b0-2f4ad920fa7b","system_id":"levelo_inurba_marseille","lat":43.27494,"lon":5.42456,"is_reserved":false,"is_disabled":false,"rental_uris":{"android":"levelo://app?vid=ead42473-2c73-4570-97b0-2f4ad920fa7b","ios":"levelo://app?vid=ead42473-2c73-4570-97b0-2f4ad920fa7b"},"vehicle_type_id":"4","last_reported":1743747287,"current_range_meters":4400,"station_id":"ce4bhn92rcd13ifvqgrg","pricing_plan_id":"cebpf4jnsgd1na2vs0mg"},{"bike_id":"4f3eb7d3-6193-4152-af90-0b8ba47b65bc","system_id":"levelo_inurba_marseille","lat":43.281489,"lon":5.426509,"is_reserved":false,"is_disabled":false,"rental_uris":{"android":"levelo://app?vid=4f3eb7d3-6193-4152-af90-0b8ba47b65bc","ios":"levelo://app?vid=4f3eb7d3-6193-4152-af90-0b8ba47b65bc"},"vehicle_type_id":"4","last_reported":1743747287,"current_range_meters":4400,"station_id":"ce4bhnh2rcd13ifvqgug","pricing_plan_id":"cebpf4jnsgd1na2vs0mg"},{"bike_id":"32a978e0-d0c2-43d4-9b03-19a5c41c27de","system_id":"levelo_inurba_marseille","lat":43.3107,"lon":5.38352,"is_reserved":false,"is_disabled":true,"rental_uris":{"android":"levelo://app?vid=32a978e0-d0c2-43d4-9b03-19a5c41c27de","ios":"levelo://app?vid=32a978e0-d0c2-43d4-9b03-19a5c41c27de"},"vehicle_type_id":"4","last_reported":1743747287,"current_range_meters":4400,"station_id":"ce4bgv92rcd13ifvqcr0","pricing_plan_id":"cebpf4jnsgd1na2vs0mg"},{"bike_id":"ef3d362c-32e3-42b9-a96e-2a77377fa812","system_id":"levelo_inurba_marseille","lat":43.295687,"lon":5.399597,"is_reserved":false,"is_disabled":false,"rental_uris":{"android":"levelo://app?vid=ef3d362c-32e3-42b9-a96e-2a77377fa812","ios":"levelo://app?vid=ef3d362c-32e3-42b9-a96e-2a77377fa812"},"vehicle_type_id":"4","last_reported":1743747287,"current_range_meters":4400,"station_id":"ce4bh312rcd13ifvqdj0","pricing_plan_id":"cebpf4jnsgd1na2vs0mg"},{"bike_id":"f7bb8436-ecd2-4874-be2e-726e23b6b5f6","system_id":"levelo_inurba_marseille","lat":43.336,"lon":5.41033,"is_reserved":false,"is_disabled":false,"rental_uris":{"android":"levelo://app?vid=f7bb8436-ecd2-4874-be2e-726e23b6b5f6","ios":"levelo://app?vid=f7bb8436-ecd2-4874-be2e-726e23b6b5f6"},"vehicle_type_id":"4","last_reported":1743747287,"current_range_meters":4400,"station_id":"ce4bhqh2rcd13ifvqhmg","pricing_plan_id":"cebpf4jnsgd1na2vs0mg"},{"bike_id":"e1bcd518-a3a1-4a25-9b9e-794fbd0bdf0a","system_id":"levelo_inurba_marseille","lat":43.23969,"lon":5.36617,"is_reserved":false,"is_disabled":false,"rental_uris":{"android":"levelo://app?vid=e1bcd518-a3a1-4a25-9b9e-794fbd0bdf0a","ios":"levelo://app?vid=e1bcd518-a3a1-4a25-9b9e-794fbd0bdf0a"},"vehicle_type_id":"4","last_reported":1743747287,"current_range_meters":4400,"station_id":"ce4bhi12rcd13ifvqfp0","pricing_plan_id":"cebpf4jnsgd1na2vs0mg"},{"bike_id":"460fff89-89cb-406d-9401-5aa6007056b9","system_id":"levelo_inurba_marseille","lat":43.28459,"lon":5.35909,"is_reserved":false,"is_disabled":false,"rental_uris":{"android":"levelo://app?vid=460fff89-89cb-406d-9401-5aa6007056b9","ios":"levelo://app?vid=460fff89-89cb-406d-9401-5aa6007056b9"},"vehicle_type_id":"4","last_reported":1743747287,"current_range_meters":4400,"station_id":"ce4bhah2rcd13ifvqei0","pricing_plan_id":"cebpf4jnsgd1na2vs0mg"},{"bike_id":"bddd4ccf-1482-4a9d-a8d7-0870910ef155","system_id":"levelo_inurba_marseille","lat":43.27953,"lon":5.41043,"is_reserved":false,"is_disabled":false,"rental_uris":{"android":"levelo://app?vid=bddd4ccf-1482-4a9d-a8d7-0870910ef155","ios":"levelo://app?vid=bddd4ccf-1482-4a9d-a8d7-0870910ef155"},"vehicle_type_id":"4","last_reported":1743747287,"current_range_meters":4800,"station_id":"ce4bhnp2rcd13ifvqh0g","pricing_plan_id":"cebpf4jnsgd1na2vs0mg"},{"bike_id":"78d6b7cd-ac07-453b-bc94-98692716d8c6","system_id":"levelo_inurba_marseille","lat":43.23207,"lon":5.35543,"is_reserved":false,"is_disabled":false,"rental_uris":{"android":"levelo://app?vid=78d6b7cd-ac07-453b-bc94-98692716d8c6","ios":"levelo://app?vid=78d6b7cd-ac07-453b-bc94-98692716d8c6"},"vehicle_type_id":"4","last_reported":1743747287,"current_range_meters":4800,"station_id":"ce4bhu92rcd13ifvqi70","pricing_plan_id":"cebpf4jnsgd1na2vs0mg"},{"bike_id":"ad24643f-1a63-49bc-b3f1-d1508dda9e4f","system_id":"levelo_inurba_marseille","lat":43.262197,"lon":5.404372,"is_reserved":false,"is_disabled":false,"rental_uris":{"android":"levelo://app?vid=ad24643f-1a63-49bc-b3f1-d1508dda9e4f","ios":"levelo://app?vid=ad24643f-1a63-49bc-b3f1-d1508dda9e4f"},"vehicle_type_id":"4","last_reported":1743747287,"current_range_meters":4800,"station_id":"ce4bhhh2rcd13ifvqfk0","pricing_plan_id":"cebpf4jnsgd1na2vs0mg"},{"bike_id":"adec9d80-aaef-4795-90c3-7503f86f9ee4","system_id":"levelo_inurba_marseille","lat":43.28694,"lon":5.3999,"is_reserved":false,"is_disabled":false,"rental_uris":{"android":"levelo://app?vid=adec9d80-aaef-4795-90c3-7503f86f9ee4","ios":"levelo://app?vid=adec9d80-aaef-4795-90c3-7503f86f9ee4"},"vehicle_type_id":"4","last_reported":1743747287,"current_range_meters":4800,"station_id":"ce4bho92rcd13ifvqh3g","pricing_plan_id":"cebpf4jnsgd1na2vs0mg"},{"bike_id":"a91106d5-b298-424b-8b5a-4872ef213ba2","system_id":"levelo_inurba_marseille","lat":43.30471,"lon":5.37903,"is_reserved":false,"is_disabled":false,"rental_uris":{"android":"levelo://app?vid=a91106d5-b298-424b-8b5a-4872ef213ba2","ios":"levelo://app?vid=a91106d5-b298-424b-8b5a-4872ef213ba2"},"vehicle_type_id":"4","last_reported":1743747287,"current_range_meters":4800,"station_id":"ce4bgup2rcd13ifvqcn0","pricing_plan_id":"cebpf4jnsgd1na2vs0mg"},{"bike_id":"68e5b80c-2302-4669-92e6-c2e518d9ed1e","system_id":"levelo_inurba_marseille","lat":43.28432,"lon":5.37508,"is_reserved":false,"is_disabled":false,"rental_uris":{"android":"levelo://app?vid=68e5b80c-2302-4669-92e6-c2e518d9ed1e","ios":"levelo://app?vid=68e5b80c-2302-4669-92e6-c2e518d9ed1e"},"vehicle_type_id":"4","last_reported":1743747287,"current_range_meters":5600,"station_id":"ce4bh412rcd13ifvqds0","pricing_plan_id":"cebpf4jnsgd1na2vs0mg"},{"bike_id":"3374421a-949f-40b6-870f-59a2d8ba0de4","system_id":"levelo_inurba_marseille","lat":43.241632,"lon":5.364057,"is_reserved":false,"is_disabled":false,"rental_uris":{"android":"levelo://app?vid=3374421a-949f-40b6-870f-59a2d8ba0de4","ios":"levelo://app?vid=3374421a-949f-40b6-870f-59a2d8ba0de4"},"vehicle_type_id":"4","last_reported":1743747287,"current_range_meters":5600,"station_id":"cpo36qri1sfpv3e86is0","pricing_plan_id":"cebpf4jnsgd1na2vs0mg"},{"bike_id":"237f4b52-fb30-477b-9d9b-400306194de0","system_id":"levelo_inurba_marseille","lat":43.29288,"lon":5.36841,"is_reserved":false,"is_disabled":true,"rental_uris":{"android":"levelo://app?vid=237f4b52-fb30-477b-9d9b-400306194de0","ios":"levelo://app?vid=237f4b52-fb30-477b-9d9b-400306194de0"},"vehicle_type_id":"4","last_reported":1743747287,"current_range_meters":5600,"station_id":"ce4bhbp2rcd13ifvqesg","pricing_plan_id":"cebpf4jnsgd1na2vs0mg"},{"bike_id":"023427af-6175-4344-975e-36fad77ace7d","system_id":"levelo_inurba_marseille","lat":43.25561,"lon":5.38249,"is_reserved":false,"is_disabled":false,"rental_uris":{"android":"levelo://app?vid=023427af-6175-4344-975e-36fad77ace7d","ios":"levelo://app?vid=023427af-6175-4344-975e-36fad77ace7d"},"vehicle_type_id":"4","last_reported":1743747287,"current_range_meters":5600,"station_id":"ce4bhih2rcd13ifvqfs0","pricing_plan_id":"cebpf4jnsgd1na2vs0mg"},{"bike_id":"75dae32f-059a-4b5b-a5e8-963c6eda2f66","system_id":"levelo_inurba_marseille","lat":43.27514,"lon":5.41011,"is_reserved":false,"is_disabled":false,"rental_uris":{"android":"levelo://app?vid=75dae32f-059a-4b5b-a5e8-963c6eda2f66","ios":"levelo://app?vid=75dae32f-059a-4b5b-a5e8-963c6eda2f66"},"vehicle_type_id":"4","last_reported":1743747287,"current_range_meters":5600,"station_id":"","pricing_plan_id":"cebpf4jnsgd1na2vs0mg"},{"bike_id":"0491a2e1-674b-4388-8228-146192daa588","system_id":"levelo_inurba_marseille","lat":43.27491,"lon":5.42461,"is_reserved":false,"is_disabled":false,"rental_uris":{"android":"levelo://app?vid=0491a2e1-674b-4388-8228-146192daa588","ios":"levelo://app?vid=0491a2e1-674b-4388-8228-146192daa588"},"vehicle_type_id":"4","last_reported":1743747287,"current_range_meters":5600,"station_id":"ce4bhn92rcd13ifvqgrg","pricing_plan_id":"cebpf4jnsgd1na2vs0mg"},{"bike_id":"d31d95a3-9921-42e0-b4cf-c3f40a262f47","system_id":"levelo_inurba_marseille","lat":43.30237,"lon":5.40091,"is_reserved":false,"is_disabled":false,"rental_uris":{"android":"levelo://app?vid=d31d95a3-9921-42e0-b4cf-c3f40a262f47","ios":"levelo://app?vid=d31d95a3-9921-42e0-b4cf-c3f40a262f47"},"vehicle_type_id":"4","last_reported":1743747287,"current_range_meters":6000,"station_id":"ce4bgvh2rcd13ifvqcs0","pricing_plan_id":"cebpf4jnsgd1na2vs0mg"},{"bike_id":"d49a38c9-99e5-4f8e-8f68-f0127ecd7310","system_id":"levelo_inurba_marseille","lat":43.24524,"lon":5.37565,"is_reserved":false,"is_disabled":true,"rental_uris":{"android":"levelo://app?vid=d49a38c9-99e5-4f8e-8f68-f0127ecd7310","ios":"levelo://app?vid=d49a38c9-99e5-4f8e-8f68-f0127ecd7310"},"vehicle_type_id":"4","last_reported":1743747287,"current_range_meters":6000,"station_id":"","pricing_plan_id":"cebpf4jnsgd1na2vs0mg"},{"bike_id":"e68e8207-fd39-4919-b064-3c1070b008f6","system_id":"levelo_inurba_marseille","lat":43.292301,"lon":5.360506,"is_reserved":false,"is_disabled":false,"rental_uris":{"android":"levelo://app?vid=e68e8207-fd39-4919-b064-3c1070b008f6","ios":"levelo://app?vid=e68e8207-fd39-4919-b064-3c1070b008f6"},"vehicle_type_id":"4","last_reported":1743747287,"current_range_meters":6000,"station_id":"ce4bhbh2rcd13ifvqeqg","pricing_plan_id":"cebpf4jnsgd1na2vs0mg"},{"bike_id":"be4ba173-48be-4345-a43e-c83a2de012db","system_id":"levelo_inurba_marseille","lat":43.24071,"lon":5.37766,"is_reserved":false,"is_disabled":false,"rental_uris":{"android":"levelo://app?vid=be4ba173-48be-4345-a43e-c83a2de012db","ios":"levelo://app?vid=be4ba173-48be-4345-a43e-c83a2de012db"},"vehicle_type_id":"4","last_reported":1743747287,"current_range_meters":6000,"station_id":"ce4bhnp2rcd13ifvqgvg","pricing_plan_id":"cebpf4jnsgd1na2vs0mg"},{"bike_id":"2ef62c6a-9732-4c9c-a6fe-bb7d82e6db65","system_id":"levelo_inurba_marseille","lat":43.30136,"lon":5.38111,"is_reserved":false,"is_disabled":false,"rental_uris":{"android":"levelo://app?vid=2ef62c6a-9732-4c9c-a6fe-bb7d82e6db65","ios":"levelo://app?vid=2ef62c6a-9732-4c9c-a6fe-bb7d82e6db65"},"vehicle_type_id":"4","last_reported":1743747287,"current_range_meters":6000,"station_id":"ce4bgjp2rcd13ifvqbh0","pricing_plan_id":"cebpf4jnsgd1na2vs0mg"},{"bike_id":"72cd10fe-429d-415b-b9f1-e04659dbcb01","system_id":"levelo_inurba_marseille","lat":43.27814,"lon":5.40711,"is_reserved":false,"is_disabled":false,"rental_uris":{"android":"levelo://app?vid=72cd10fe-429d-415b-b9f1-e04659dbcb01","ios":"levelo://app?vid=72cd10fe-429d-415b-b9f1-e04659dbcb01"},"vehicle_type_id":"4","last_reported":1743747287,"current_range_meters":6000,"station_id":"ce4bhnh2rcd13ifvqgtg","pricing_plan_id":"cebpf4jnsgd1na2vs0mg"},{"bike_id":"32b262f2-7f71-48c0-96c4-a1878894bc4d","system_id":"levelo_inurba_marseille","lat":43.24075,"lon":5.3776,"is_reserved":false,"is_disabled":false,"rental_uris":{"android":"levelo://app?vid=32b262f2-7f71-48c0-96c4-a1878894bc4d","ios":"levelo://app?vid=32b262f2-7f71-48c0-96c4-a1878894bc4d"},"vehicle_type_id":"4","last_reported":1743747287,"current_range_meters":6000,"station_id":"ce4bhnp2rcd13ifvqgvg","pricing_plan_id":"cebpf4jnsgd1na2vs0mg"},{"bike_id":"fede0e43-1609-4a28-9f97-913c3f149703","system_id":"levelo_inurba_marseille","lat":43.231934,"lon":5.355548,"is_reserved":false,"is_disabled":false,"rental_uris":{"android":"levelo://app?vid=fede0e43-1609-4a28-9f97-913c3f149703","ios":"levelo://app?vid=fede0e43-1609-4a28-9f97-913c3f149703"},"vehicle_type_id":"4","last_reported":1743747287,"current_range_meters":6000,"station_id":"ce4bhu92rcd13ifvqi70","pricing_plan_id":"cebpf4jnsgd1na2vs0mg"},{"bike_id":"15ea3e20-e3c1-434f-8b50-88d1ebba3f71","system_id":"levelo_inurba_marseille","lat":43.231914,"lon":5.355581,"is_reserved":false,"is_disabled":false,"rental_uris":{"android":"levelo://app?vid=15ea3e20-e3c1-434f-8b50-88d1ebba3f71","ios":"levelo://app?vid=15ea3e20-e3c1-434f-8b50-88d1ebba3f71"},"vehicle_type_id":"4","last_reported":1743747287,"current_range_meters":6000,"station_id":"ce4bhu92rcd13ifvqi70","pricing_plan_id":"cebpf4jnsgd1na2vs0mg"},{"bike_id":"4a8d215f-728c-4424-bfbf-5faa62888e2d","system_id":"levelo_inurba_marseille","lat":43.295101,"lon":5.394076,"is_reserved":false,"is_disabled":true,"rental_uris":{"android":"levelo://app?vid=4a8d215f-728c-4424-bfbf-5faa62888e2d","ios":"levelo://app?vid=4a8d215f-728c-4424-bfbf-5faa62888e2d"},"vehicle_type_id":"4","last_reported":1743747287,"current_range_meters":6000,"station_id":"ce4bh292rcd13ifvqdf0","pricing_plan_id":"cebpf4jnsgd1na2vs0mg"},{"bike_id":"9684f4b4-207e-41dc-9a54-f1411fe6fae7","system_id":"levelo_inurba_marseille","lat":43.30184,"lon":5.38087,"is_reserved":false,"is_disabled":true,"rental_uris":{"android":"levelo://app?vid=9684f4b4-207e-41dc-9a54-f1411fe6fae7","ios":"levelo://app?vid=9684f4b4-207e-41dc-9a54-f1411fe6fae7"},"vehicle_type_id":"4","last_reported":1743747287,"current_range_meters":6400,"station_id":"ce4bgjp2rcd13ifvqbh0","pricing_plan_id":"cebpf4jnsgd1na2vs0mg"},{"bike_id":"9ac4daeb-d8aa-40ff-9dce-dc551ae0d8b7","system_id":"levelo_inurba_marseille","lat":43.30163,"lon":5.38093,"is_reserved":false,"is_disabled":false,"rental_uris":{"android":"levelo://app?vid=9ac4daeb-d8aa-40ff-9dce-dc551ae0d8b7","ios":"levelo://app?vid=9ac4daeb-d8aa-40ff-9dce-dc551ae0d8b7"},"vehicle_type_id":"4","last_reported":1743747287,"current_range_meters":6400,"station_id":"ce4bgjp2rcd13ifvqbh0","pricing_plan_id":"cebpf4jnsgd1na2vs0mg"},{"bike_id":"c2e6881a-04a3-4a38-9cc0-75cacf165e78","system_id":"levelo_inurba_marseille","lat":43.28832,"lon":5.364645,"is_reserved":false,"is_disabled":false,"rental_uris":{"android":"levelo://app?vid=c2e6881a-04a3-4a38-9cc0-75cacf165e78","ios":"levelo://app?vid=c2e6881a-04a3-4a38-9cc0-75cacf165e78"},"vehicle_type_id":"4","last_reported":1743747287,"current_range_meters":6400,"station_id":"","pricing_plan_id":"cebpf4jnsgd1na2vs0mg"},{"bike_id":"29919620-9cee-430b-9215-4ba6de47b23f","system_id":"levelo_inurba_marseille","lat":43.284044,"lon":5.375254,"is_reserved":false,"is_disabled":false,"rental_uris":{"android":"levelo://app?vid=29919620-9cee-430b-9215-4ba6de47b23f","ios":"levelo://app?vid=29919620-9cee-430b-9215-4ba6de47b23f"},"vehicle_type_id":"4","last_reported":1743747287,"current_range_meters":6400,"station_id":"ce4bh412rcd13ifvqds0","pricing_plan_id":"cebpf4jnsgd1na2vs0mg"},{"bike_id":"ed910235-7712-4f43-a3a3-b84c24c262e1","system_id":"levelo_inurba_marseille","lat":43.28352,"lon":5.38088,"is_reserved":false,"is_disabled":false,"rental_uris":{"android":"levelo://app?vid=ed910235-7712-4f43-a3a3-b84c24c262e1","ios":"levelo://app?vid=ed910235-7712-4f43-a3a3-b84c24c262e1"},"vehicle_type_id":"4","last_reported":1743747287,"current_range_meters":6400,"station_id":"ce4bh412rcd13ifvqdr0","pricing_plan_id":"cebpf4jnsgd1na2vs0mg"},{"bike_id":"dd534b88-b712-46a5-ac0a-286a44bcfb80","system_id":"levelo_inurba_marseille","lat":43.24071,"lon":5.37721,"is_reserved":false,"is_disabled":false,"rental_uris":{"android":"levelo://app?vid=dd534b88-b712-46a5-ac0a-286a44bcfb80","ios":"levelo://app?vid=dd534b88-b712-46a5-ac0a-286a44bcfb80"},"vehicle_type_id":"4","last_reported":1743747287,"current_range_meters":6400,"station_id":"ce4bhnp2rcd13ifvqgvg","pricing_plan_id":"cebpf4jnsgd1na2vs0mg"},{"bike_id":"09235a85-4d7e-4f3c-9580-3edefda0c48d","system_id":"levelo_inurba_marseille","lat":43.27961,"lon":5.38687,"is_reserved":false,"is_disabled":false,"rental_uris":{"android":"levelo://app?vid=09235a85-4d7e-4f3c-9580-3edefda0c48d","ios":"levelo://app?vid=09235a85-4d7e-4f3c-9580-3edefda0c48d"},"vehicle_type_id":"4","last_reported":1743747287,"current_range_meters":6400,"station_id":"ce4bhg12rcd13ifvqf80","pricing_plan_id":"cebpf4jnsgd1na2vs0mg"},{"bike_id":"e590fe23-e0aa-4322-a597-417c816f1dd9","system_id":"levelo_inurba_marseille","lat":43.28002,"lon":5.41029,"is_reserved":false,"is_disabled":false,"rental_uris":{"android":"levelo://app?vid=e590fe23-e0aa-4322-a597-417c816f1dd9","ios":"levelo://app?vid=e590fe23-e0aa-4322-a597-417c816f1dd9"},"vehicle_type_id":"4","last_reported":1743747287,"current_range_meters":6400,"station_id":"ce4bhnp2rcd13ifvqh0g","pricing_plan_id":"cebpf4jnsgd1na2vs0mg"},{"bike_id":"c9fb25a7-e723-41fe-abac-05d32f3d4f9d","system_id":"levelo_inurba_marseille","lat":43.2602,"lon":5.41746,"is_reserved":false,"is_disabled":false,"rental_uris":{"android":"levelo://app?vid=c9fb25a7-e723-41fe-abac-05d32f3d4f9d","ios":"levelo://app?vid=c9fb25a7-e723-41fe-abac-05d32f3d4f9d"},"vehicle_type_id":"4","last_reported":1743747287,"current_range_meters":6400,"station_id":"","pricing_plan_id":"cebpf4jnsgd1na2vs0mg"},{"bike_id":"26ca4511-2bd8-45df-a8df-9b7721d62b8b","system_id":"levelo_inurba_marseille","lat":43.30161,"lon":5.38093,"is_reserved":false,"is_disabled":false,"rental_uris":{"android":"levelo://app?vid=26ca4511-2bd8-45df-a8df-9b7721d62b8b","ios":"levelo://app?vid=26ca4511-2bd8-45df-a8df-9b7721d62b8b"},"vehicle_type_id":"4","last_reported":1743747287,"current_range_meters":6400,"station_id":"ce4bgjp2rcd13ifvqbh0","pricing_plan_id":"cebpf4jnsgd1na2vs0mg"},{"bike_id":"9e611599-fc3a-4a2f-a1ae-af0629db6ee7","system_id":"levelo_inurba_marseille","lat":43.26565,"lon":5.39015,"is_reserved":false,"is_disabled":false,"rental_uris":{"android":"levelo://app?vid=9e611599-fc3a-4a2f-a1ae-af0629db6ee7","ios":"levelo://app?vid=9e611599-fc3a-4a2f-a1ae-af0629db6ee7"},"vehicle_type_id":"4","last_reported":1743747287,"current_range_meters":6800,"station_id":"ce4bhe12rcd13ifvqf30","pricing_plan_id":"cebpf4jnsgd1na2vs0mg"},{"bike_id":"f64f61b9-4737-4189-958c-e5c63e0773f7","system_id":"levelo_inurba_marseille","lat":43.240692,"lon":5.377597,"is_reserved":false,"is_disabled":false,"rental_uris":{"android":"levelo://app?vid=f64f61b9-4737-4189-958c-e5c63e0773f7","ios":"levelo://app?vid=f64f61b9-4737-4189-958c-e5c63e0773f7"},"vehicle_type_id":"4","last_reported":1743747287,"current_range_meters":6800,"station_id":"ce4bhnp2rcd13ifvqgvg","pricing_plan_id":"cebpf4jnsgd1na2vs0mg"},{"bike_id":"a2af088d-ed25-4926-a358-27fcc28ac501","system_id":"levelo_inurba_marseille","lat":43.32371,"lon":5.38881,"is_reserved":false,"is_disabled":false,"rental_uris":{"android":"levelo://app?vid=a2af088d-ed25-4926-a358-27fcc28ac501","ios":"levelo://app?vid=a2af088d-ed25-4926-a358-27fcc28ac501"},"vehicle_type_id":"4","last_reported":1743747287,"current_range_meters":6800,"station_id":"ce4bhqp2rcd13ifvqhog","pricing_plan_id":"cebpf4jnsgd1na2vs0mg"},{"bike_id":"cd83c8ac-ed09-4369-9279-b6f36f2bbd3c","system_id":"levelo_inurba_marseille","lat":43.308091,"lon":5.382406,"is_reserved":false,"is_disabled":false,"rental_uris":{"android":"levelo://app?vid=cd83c8ac-ed09-4369-9279-b6f36f2bbd3c","ios":"levelo://app?vid=cd83c8ac-ed09-4369-9279-b6f36f2bbd3c"},"vehicle_type_id":"4","last_reported":1743747287,"current_range_meters":6800,"station_id":"","pricing_plan_id":"cebpf4jnsgd1na2vs0mg"},{"bike_id":"b451dcd6-3b36-4a20-94c0-24f42eb3416a","system_id":"levelo_inurba_marseille","lat":43.27944,"lon":5.4104,"is_reserved":false,"is_disabled":false,"rental_uris":{"android":"levelo://app?vid=b451dcd6-3b36-4a20-94c0-24f42eb3416a","ios":"levelo://app?vid=b451dcd6-3b36-4a20-94c0-24f42eb3416a"},"vehicle_type_id":"4","last_reported":1743747287,"current_range_meters":6800,"station_id":"ce4bhnp2rcd13ifvqh0g","pricing_plan_id":"cebpf4jnsgd1na2vs0mg"},{"bike_id":"71e55f99-90e5-4133-8167-5af8b2b35d7e","system_id":"levelo_inurba_marseille","lat":43.23064,"lon":5.35485,"is_reserved":false,"is_disabled":false,"rental_uris":{"android":"levelo://app?vid=71e55f99-90e5-4133-8167-5af8b2b35d7e","ios":"levelo://app?vid=71e55f99-90e5-4133-8167-5af8b2b35d7e"},"vehicle_type_id":"4","last_reported":1743747287,"current_range_meters":6800,"station_id":"cpo3342slgdg3j2ifvpg","pricing_plan_id":"cebpf4jnsgd1na2vs0mg"},{"bike_id":"2f5ebb33-56ac-48ac-8004-513ec8b3c9df","system_id":"levelo_inurba_marseille","lat":43.25932,"lon":5.40904,"is_reserved":false,"is_disabled":false,"rental_uris":{"android":"levelo://app?vid=2f5ebb33-56ac-48ac-8004-513ec8b3c9df","ios":"levelo://app?vid=2f5ebb33-56ac-48ac-8004-513ec8b3c9df"},"vehicle_type_id":"4","last_reported":1743747287,"current_range_meters":6800,"station_id":"ce4bhm92rcd13ifvqglg","pricing_plan_id":"cebpf4jnsgd1na2vs0mg"},{"bike_id":"f37d8f5c-d063-4e35-8e15-0215542ca205","system_id":"levelo_inurba_marseille","lat":43.2374,"lon":5.40399,"is_reserved":false,"is_disabled":false,"rental_uris":{"android":"levelo://app?vid=f37d8f5c-d063-4e35-8e15-0215542ca205","ios":"levelo://app?vid=f37d8f5c-d063-4e35-8e15-0215542ca205"},"vehicle_type_id":"4","last_reported":1743747287,"current_range_meters":6800,"station_id":"","pricing_plan_id":"cebpf4jnsgd1na2vs0mg"},{"bike_id":"f89437ce-bfe6-40d6-aa18-e82dbdbdcad9","system_id":"levelo_inurba_marseille","lat":43.30948,"lon":5.3904,"is_reserved":false,"is_disabled":false,"rental_uris":{"android":"levelo://app?vid=f89437ce-bfe6-40d6-aa18-e82dbdbdcad9","ios":"levelo://app?vid=f89437ce-bfe6-40d6-aa18-e82dbdbdcad9"},"vehicle_type_id":"4","last_reported":1743747287,"current_range_meters":6800,"station_id":"ce4bgup2rcd13ifvqco0","pricing_plan_id":"cebpf4jnsgd1na2vs0mg"},{"bike_id":"c50a89dc-b7b3-47ca-b77f-0aedf03cdfeb","system_id":"levelo_inurba_marseille","lat":43.2818,"lon":5.42613,"is_reserved":false,"is_disabled":false,"rental_uris":{"android":"levelo://app?vid=c50a89dc-b7b3-47ca-b77f-0aedf03cdfeb","ios":"levelo://app?vid=c50a89dc-b7b3-47ca-b77f-0aedf03cdfeb"},"vehicle_type_id":"4","last_reported":1743747287,"current_range_meters":7200,"station_id":"ce4bhnh2rcd13ifvqgug","pricing_plan_id":"cebpf4jnsgd1na2vs0mg"},{"bike_id":"5eeb5e50-0db0-41c6-afc4-e17fd1bc146e","system_id":"levelo_inurba_marseille","lat":43.31482,"lon":5.37307,"is_reserved":false,"is_disabled":false,"rental_uris":{"android":"levelo://app?vid=5eeb5e50-0db0-41c6-afc4-e17fd1bc146e","ios":"levelo://app?vid=5eeb5e50-0db0-41c6-afc4-e17fd1bc146e"},"vehicle_type_id":"4","last_reported":1743747287,"current_range_meters":7200,"station_id":"ce4bgt12rcd13ifvqcd0","pricing_plan_id":"cebpf4jnsgd1na2vs0mg"},{"bike_id":"71b033b2-af55-4974-b55f-6baff69f84c4","system_id":"levelo_inurba_marseille","lat":43.28929,"lon":5.36633,"is_reserved":false,"is_disabled":false,"rental_uris":{"android":"levelo://app?vid=71b033b2-af55-4974-b55f-6baff69f84c4","ios":"levelo://app?vid=71b033b2-af55-4974-b55f-6baff69f84c4"},"vehicle_type_id":"4","last_reported":1743747287,"current_range_meters":7200,"station_id":"ce4bhap2rcd13ifvqek0","pricing_plan_id":"cebpf4jnsgd1na2vs0mg"},{"bike_id":"e15eb1e3-f59b-4224-85dc-18f082814a63","system_id":"levelo_inurba_marseille","lat":43.28341,"lon":5.38116,"is_reserved":false,"is_disabled":false,"rental_uris":{"android":"levelo://app?vid=e15eb1e3-f59b-4224-85dc-18f082814a63","ios":"levelo://app?vid=e15eb1e3-f59b-4224-85dc-18f082814a63"},"vehicle_type_id":"4","last_reported":1743747287,"current_range_meters":7200,"station_id":"ce4bh412rcd13ifvqdr0","pricing_plan_id":"cebpf4jnsgd1na2vs0mg"},{"bike_id":"835ba050-c4e1-4478-9730-4d0cf0157070","system_id":"levelo_inurba_marseille","lat":43.27492,"lon":5.42454,"is_reserved":false,"is_disabled":false,"rental_uris":{"android":"levelo://app?vid=835ba050-c4e1-4478-9730-4d0cf0157070","ios":"levelo://app?vid=835ba050-c4e1-4478-9730-4d0cf0157070"},"vehicle_type_id":"4","last_reported":1743747287,"current_range_meters":7200,"station_id":"ce4bhn92rcd13ifvqgrg","pricing_plan_id":"cebpf4jnsgd1na2vs0mg"},{"bike_id":"6997e810-3f4c-46f4-a539-996e89fe73bb","system_id":"levelo_inurba_marseille","lat":43.28145,"lon":5.42657,"is_reserved":false,"is_disabled":false,"rental_uris":{"android":"levelo://app?vid=6997e810-3f4c-46f4-a539-996e89fe73bb","ios":"levelo://app?vid=6997e810-3f4c-46f4-a539-996e89fe73bb"},"vehicle_type_id":"4","last_reported":1743747287,"current_range_meters":7200,"station_id":"ce4bhnh2rcd13ifvqgug","pricing_plan_id":"cebpf4jnsgd1na2vs0mg"},{"bike_id":"58aec8da-c928-4891-baf3-f884031e30a0","system_id":"levelo_inurba_marseille","lat":43.30163,"lon":5.3809,"is_reserved":false,"is_disabled":false,"rental_uris":{"android":"levelo://app?vid=58aec8da-c928-4891-baf3-f884031e30a0","ios":"levelo://app?vid=58aec8da-c928-4891-baf3-f884031e30a0"},"vehicle_type_id":"4","last_reported":1743747287,"current_range_meters":7200,"station_id":"ce4bgjp2rcd13ifvqbh0","pricing_plan_id":"cebpf4jnsgd1na2vs0mg"},{"bike_id":"31998f4e-76a4-41e1-8285-27aa68faaf5c","system_id":"levelo_inurba_marseille","lat":43.30597,"lon":5.39359,"is_reserved":false,"is_disabled":false,"rental_uris":{"android":"levelo://app?vid=31998f4e-76a4-41e1-8285-27aa68faaf5c","ios":"levelo://app?vid=31998f4e-76a4-41e1-8285-27aa68faaf5c"},"vehicle_type_id":"4","last_reported":1743747287,"current_range_meters":7200,"station_id":"ce4bh0p2rcd13ifvqd80","pricing_plan_id":"cebpf4jnsgd1na2vs0mg"},{"bike_id":"f062b518-da70-4819-ba8a-ddaf33cb4821","system_id":"levelo_inurba_marseille","lat":43.240772,"lon":5.377529,"is_reserved":false,"is_disabled":false,"rental_uris":{"android":"levelo://app?vid=f062b518-da70-4819-ba8a-ddaf33cb4821","ios":"levelo://app?vid=f062b518-da70-4819-ba8a-ddaf33cb4821"},"vehicle_type_id":"4","last_reported":1743747287,"current_range_meters":6800,"station_id":"ce4bhnp2rcd13ifvqgvg","pricing_plan_id":"cebpf4jnsgd1na2vs0mg"},{"bike_id":"73d854ad-9eb6-4d68-8878-e9b2295ae65a","system_id":"levelo_inurba_marseille","lat":43.23065,"lon":5.35492,"is_reserved":false,"is_disabled":false,"rental_uris":{"android":"levelo://app?vid=73d854ad-9eb6-4d68-8878-e9b2295ae65a","ios":"levelo://app?vid=73d854ad-9eb6-4d68-8878-e9b2295ae65a"},"vehicle_type_id":"4","last_reported":1743747287,"current_range_meters":8000,"station_id":"cpo3342slgdg3j2ifvpg","pricing_plan_id":"cebpf4jnsgd1na2vs0mg"},{"bike_id":"809ab426-da69-405a-9ff2-30b58e1aceb6","system_id":"levelo_inurba_marseille","lat":43.29995,"lon":5.3874,"is_reserved":false,"is_disabled":false,"rental_uris":{"android":"levelo://app?vid=809ab426-da69-405a-9ff2-30b58e1aceb6","ios":"levelo://app?vid=809ab426-da69-405a-9ff2-30b58e1aceb6"},"vehicle_type_id":"4","last_reported":1743747287,"current_range_meters":8000,"station_id":"","pricing_plan_id":"cebpf4jnsgd1na2vs0mg"},{"bike_id":"b4cb4e28-e514-44da-9db3-2c7d453900ef","system_id":"levelo_inurba_marseille","lat":43.28164,"lon":5.42646,"is_reserved":false,"is_disabled":false,"rental_uris":{"android":"levelo://app?vid=b4cb4e28-e514-44da-9db3-2c7d453900ef","ios":"levelo://app?vid=b4cb4e28-e514-44da-9db3-2c7d453900ef"},"vehicle_type_id":"4","last_reported":1743747287,"current_range_meters":8000,"station_id":"ce4bhnh2rcd13ifvqgug","pricing_plan_id":"cebpf4jnsgd1na2vs0mg"},{"bike_id":"2635283e-ffd4-4c1f-b9e8-1b146ac4c8cc","system_id":"levelo_inurba_marseille","lat":43.30216,"lon":5.41973,"is_reserved":false,"is_disabled":false,"rental_uris":{"android":"levelo://app?vid=2635283e-ffd4-4c1f-b9e8-1b146ac4c8cc","ios":"levelo://app?vid=2635283e-ffd4-4c1f-b9e8-1b146ac4c8cc"},"vehicle_type_id":"4","last_reported":1743747287,"current_range_meters":8000,"station_id":"","pricing_plan_id":"cebpf4jnsgd1na2vs0mg"},{"bike_id":"8d7eab5b-bc43-48f5-9c97-0948b42ca6cf","system_id":"levelo_inurba_marseille","lat":43.22934,"lon":5.35403,"is_reserved":false,"is_disabled":false,"rental_uris":{"android":"levelo://app?vid=8d7eab5b-bc43-48f5-9c97-0948b42ca6cf","ios":"levelo://app?vid=8d7eab5b-bc43-48f5-9c97-0948b42ca6cf"},"vehicle_type_id":"4","last_reported":1743747287,"current_range_meters":8000,"station_id":"cpo3532slgdg3j2ikp40","pricing_plan_id":"cebpf4jnsgd1na2vs0mg"},{"bike_id":"81296a64-2b77-42f6-8329-c4c8f1f0969e","system_id":"levelo_inurba_marseille","lat":43.28349,"lon":5.38113,"is_reserved":false,"is_disabled":false,"rental_uris":{"android":"levelo://app?vid=81296a64-2b77-42f6-8329-c4c8f1f0969e","ios":"levelo://app?vid=81296a64-2b77-42f6-8329-c4c8f1f0969e"},"vehicle_type_id":"4","last_reported":1743747287,"current_range_meters":8400,"station_id":"ce4bh412rcd13ifvqdr0","pricing_plan_id":"cebpf4jnsgd1na2vs0mg"},{"bike_id":"be19e26c-e8d6-41dc-9289-b6df129eb6b6","system_id":"levelo_inurba_marseille","lat":43.29219,"lon":5.4094,"is_reserved":false,"is_disabled":false,"rental_uris":{"android":"levelo://app?vid=be19e26c-e8d6-41dc-9289-b6df129eb6b6","ios":"levelo://app?vid=be19e26c-e8d6-41dc-9289-b6df129eb6b6"},"vehicle_type_id":"4","last_reported":1743747287,"current_range_meters":8400,"station_id":"ce4bh192rcd13ifvqdc0","pricing_plan_id":"cebpf4jnsgd1na2vs0mg"},{"bike_id":"4ef1f24a-cdc0-4dae-93b8-59602c159aa4","system_id":"levelo_inurba_marseille","lat":43.3181,"lon":5.37514,"is_reserved":false,"is_disabled":false,"rental_uris":{"android":"levelo://app?vid=4ef1f24a-cdc0-4dae-93b8-59602c159aa4","ios":"levelo://app?vid=4ef1f24a-cdc0-4dae-93b8-59602c159aa4"},"vehicle_type_id":"4","last_reported":1743747287,"current_range_meters":8800,"station_id":"","pricing_plan_id":"cebpf4jnsgd1na2vs0mg"},{"bike_id":"d76832c4-3604-4de9-b7a5-182f7c6e995c","system_id":"levelo_inurba_marseille","lat":43.31366,"lon":5.38516,"is_reserved":false,"is_disabled":true,"rental_uris":{"android":"levelo://app?vid=d76832c4-3604-4de9-b7a5-182f7c6e995c","ios":"levelo://app?vid=d76832c4-3604-4de9-b7a5-182f7c6e995c"},"vehicle_type_id":"4","last_reported":1743747287,"current_range_meters":8400,"station_id":"ce4bgt92rcd13ifvqcf0","pricing_plan_id":"cebpf4jnsgd1na2vs0mg"},{"bike_id":"e3a29d38-a611-4b12-87ef-2fb8a21c41d5","system_id":"levelo_inurba_marseille","lat":43.229263,"lon":5.353799,"is_reserved":false,"is_disabled":false,"rental_uris":{"android":"levelo://app?vid=e3a29d38-a611-4b12-87ef-2fb8a21c41d5","ios":"levelo://app?vid=e3a29d38-a611-4b12-87ef-2fb8a21c41d5"},"vehicle_type_id":"4","last_reported":1743747287,"current_range_meters":8400,"station_id":"cpo3532slgdg3j2ikp40","pricing_plan_id":"cebpf4jnsgd1na2vs0mg"},{"bike_id":"efddeda7-6eb2-4c14-868d-fa0ce0b35ef3","system_id":"levelo_inurba_marseille","lat":43.313,"lon":5.38291,"is_reserved":false,"is_disabled":false,"rental_uris":{"android":"levelo://app?vid=efddeda7-6eb2-4c14-868d-fa0ce0b35ef3","ios":"levelo://app?vid=efddeda7-6eb2-4c14-868d-fa0ce0b35ef3"},"vehicle_type_id":"4","last_reported":1743747287,"current_range_meters":8400,"station_id":"","pricing_plan_id":"cebpf4jnsgd1na2vs0mg"},{"bike_id":"b3eac9c5-b95b-4848-a104-d84634d1a70c","system_id":"levelo_inurba_marseille","lat":43.31011,"lon":5.38024,"is_reserved":false,"is_disabled":false,"rental_uris":{"android":"levelo://app?vid=b3eac9c5-b95b-4848-a104-d84634d1a70c","ios":"levelo://app?vid=b3eac9c5-b95b-4848-a104-d84634d1a70c"},"vehicle_type_id":"4","last_reported":1743747287,"current_range_meters":8400,"station_id":"","pricing_plan_id":"cebpf4jnsgd1na2vs0mg"},{"bike_id":"8d21cfaa-8fe2-4151-9e9f-b288e47f7623","system_id":"levelo_inurba_marseille","lat":43.30781,"lon":5.38153,"is_reserved":false,"is_disabled":false,"rental_uris":{"android":"levelo://app?vid=8d21cfaa-8fe2-4151-9e9f-b288e47f7623","ios":"levelo://app?vid=8d21cfaa-8fe2-4151-9e9f-b288e47f7623"},"vehicle_type_id":"4","last_reported":1743747287,"current_range_meters":8400,"station_id":"ce4bgt12rcd13ifvqce0","pricing_plan_id":"cebpf4jnsgd1na2vs0mg"},{"bike_id":"1f65dc15-3b88-4765-8d95-4a3c41cc9559","system_id":"levelo_inurba_marseille","lat":43.3362,"lon":5.41008,"is_reserved":false,"is_disabled":true,"rental_uris":{"android":"levelo://app?vid=1f65dc15-3b88-4765-8d95-4a3c41cc9559","ios":"levelo://app?vid=1f65dc15-3b88-4765-8d95-4a3c41cc9559"},"vehicle_type_id":"4","last_reported":1743747287,"current_range_meters":8400,"station_id":"ce4bhqh2rcd13ifvqhmg","pricing_plan_id":"cebpf4jnsgd1na2vs0mg"},{"bike_id":"63c19073-a7de-46ed-a396-8639743b910e","system_id":"levelo_inurba_marseille","lat":43.2318,"lon":5.35563,"is_reserved":false,"is_disabled":false,"rental_uris":{"android":"levelo://app?vid=63c19073-a7de-46ed-a396-8639743b910e","ios":"levelo://app?vid=63c19073-a7de-46ed-a396-8639743b910e"},"vehicle_type_id":"4","last_reported":1743747287,"current_range_meters":8400,"station_id":"ce4bhu92rcd13ifvqi70","pricing_plan_id":"cebpf4jnsgd1na2vs0mg"},{"bike_id":"55a458b5-99f0-4a0e-bf15-969bb5b742d8","system_id":"levelo_inurba_marseille","lat":43.31651,"lon":5.3943,"is_reserved":false,"is_disabled":false,"rental_uris":{"android":"levelo://app?vid=55a458b5-99f0-4a0e-bf15-969bb5b742d8","ios":"levelo://app?vid=55a458b5-99f0-4a0e-bf15-969bb5b742d8"},"vehicle_type_id":"4","last_reported":1743747287,"current_range_meters":8400,"station_id":"","pricing_plan_id":"cebpf4jnsgd1na2vs0mg"},{"bike_id":"3cf22d29-90b6-4c79-a643-886bc3743ca7","system_id":"levelo_inurba_marseille","lat":43.33423,"lon":5.4006,"is_reserved":false,"is_disabled":false,"rental_uris":{"android":"levelo://app?vid=3cf22d29-90b6-4c79-a643-886bc3743ca7","ios":"levelo://app?vid=3cf22d29-90b6-4c79-a643-886bc3743ca7"},"vehicle_type_id":"4","last_reported":1743747287,"current_range_meters":8800,"station_id":"","pricing_plan_id":"cebpf4jnsgd1na2vs0mg"},{"bike_id":"7a2565e0-5dfc-4250-9829-4dc75c10f717","system_id":"levelo_inurba_marseille","lat":43.24074,"lon":5.37756,"is_reserved":false,"is_disabled":false,"rental_uris":{"android":"levelo://app?vid=7a2565e0-5dfc-4250-9829-4dc75c10f717","ios":"levelo://app?vid=7a2565e0-5dfc-4250-9829-4dc75c10f717"},"vehicle_type_id":"4","last_reported":1743747287,"current_range_meters":8400,"station_id":"ce4bhnp2rcd13ifvqgvg","pricing_plan_id":"cebpf4jnsgd1na2vs0mg"},{"bike_id":"4d021dc5-da23-461e-96b2-594066586ca8","system_id":"levelo_inurba_marseille","lat":43.27918,"lon":5.40912,"is_reserved":false,"is_disabled":false,"rental_uris":{"android":"levelo://app?vid=4d021dc5-da23-461e-96b2-594066586ca8","ios":"levelo://app?vid=4d021dc5-da23-461e-96b2-594066586ca8"},"vehicle_type_id":"4","last_reported":1743747287,"current_range_meters":8800,"station_id":"","pricing_plan_id":"cebpf4jnsgd1na2vs0mg"},{"bike_id":"600e54ee-b5a6-4c30-87a6-f2d92b5c5ed2","system_id":"levelo_inurba_marseille","lat":43.3062,"lon":5.39337,"is_reserved":false,"is_disabled":false,"rental_uris":{"android":"levelo://app?vid=600e54ee-b5a6-4c30-87a6-f2d92b5c5ed2","ios":"levelo://app?vid=600e54ee-b5a6-4c30-87a6-f2d92b5c5ed2"},"vehicle_type_id":"4","last_reported":1743747287,"current_range_meters":8800,"station_id":"ce4bh0p2rcd13ifvqd80","pricing_plan_id":"cebpf4jnsgd1na2vs0mg"},{"bike_id":"c13336a2-47ce-488c-b5b6-77c01a3ac1d1","system_id":"levelo_inurba_marseille","lat":43.3191,"lon":5.40742,"is_reserved":false,"is_disabled":true,"rental_uris":{"android":"levelo://app?vid=c13336a2-47ce-488c-b5b6-77c01a3ac1d1","ios":"levelo://app?vid=c13336a2-47ce-488c-b5b6-77c01a3ac1d1"},"vehicle_type_id":"4","last_reported":1743747287,"current_range_meters":8800,"station_id":"ce4bhq12rcd13ifvqhig","pricing_plan_id":"cebpf4jnsgd1na2vs0mg"},{"bike_id":"20232358-ca4b-4d2c-b79e-9db4b5990f1d","system_id":"levelo_inurba_marseille","lat":43.28334,"lon":5.38113,"is_reserved":false,"is_disabled":false,"rental_uris":{"android":"levelo://app?vid=20232358-ca4b-4d2c-b79e-9db4b5990f1d","ios":"levelo://app?vid=20232358-ca4b-4d2c-b79e-9db4b5990f1d"},"vehicle_type_id":"4","last_reported":1743747287,"current_range_meters":8800,"station_id":"ce4bh412rcd13ifvqdr0","pricing_plan_id":"cebpf4jnsgd1na2vs0mg"},{"bike_id":"712b70d4-4e28-4d74-a276-385ad230156c","system_id":"levelo_inurba_marseille","lat":43.31032,"lon":5.39069,"is_reserved":false,"is_disabled":false,"rental_uris":{"android":"levelo://app?vid=712b70d4-4e28-4d74-a276-385ad230156c","ios":"levelo://app?vid=712b70d4-4e28-4d74-a276-385ad230156c"},"vehicle_type_id":"4","last_reported":1743747287,"current_range_meters":8800,"station_id":"ce4bgup2rcd13ifvqco0","pricing_plan_id":"cebpf4jnsgd1na2vs0mg"},{"bike_id":"c2c875f8-2ba4-471f-a0b4-d9a425702b02","system_id":"levelo_inurba_marseille","lat":43.29054,"lon":5.39983,"is_reserved":false,"is_disabled":false,"rental_uris":{"android":"levelo://app?vid=c2c875f8-2ba4-471f-a0b4-d9a425702b02","ios":"levelo://app?vid=c2c875f8-2ba4-471f-a0b4-d9a425702b02"},"vehicle_type_id":"4","last_reported":1743747287,"current_range_meters":8800,"station_id":"ce4bh392rcd13ifvqdm0","pricing_plan_id":"cebpf4jnsgd1na2vs0mg"},{"bike_id":"6c987078-a1a8-43f2-bbe5-eacef6b103ce","system_id":"levelo_inurba_marseille","lat":43.24639,"lon":5.38914,"is_reserved":false,"is_disabled":false,"rental_uris":{"android":"levelo://app?vid=6c987078-a1a8-43f2-bbe5-eacef6b103ce","ios":"levelo://app?vid=6c987078-a1a8-43f2-bbe5-eacef6b103ce"},"vehicle_type_id":"4","last_reported":1743747287,"current_range_meters":9200,"station_id":"ce4bhg12rcd13ifvqf60","pricing_plan_id":"cebpf4jnsgd1na2vs0mg"},{"bike_id":"6d2df277-537a-4129-8b28-9fe7f3b1d584","system_id":"levelo_inurba_marseille","lat":43.30595,"lon":5.39358,"is_reserved":false,"is_disabled":false,"rental_uris":{"android":"levelo://app?vid=6d2df277-537a-4129-8b28-9fe7f3b1d584","ios":"levelo://app?vid=6d2df277-537a-4129-8b28-9fe7f3b1d584"},"vehicle_type_id":"4","last_reported":1743747287,"current_range_meters":9200,"station_id":"ce4bh0p2rcd13ifvqd80","pricing_plan_id":"cebpf4jnsgd1na2vs0mg"},{"bike_id":"a688b4f6-cbd3-4540-9afd-68e12e85ba02","system_id":"levelo_inurba_marseille","lat":43.28348,"lon":5.38118,"is_reserved":false,"is_disabled":false,"rental_uris":{"android":"levelo://app?vid=a688b4f6-cbd3-4540-9afd-68e12e85ba02","ios":"levelo://app?vid=a688b4f6-cbd3-4540-9afd-68e12e85ba02"},"vehicle_type_id":"4","last_reported":1743747287,"current_range_meters":9200,"station_id":"ce4bh412rcd13ifvqdr0","pricing_plan_id":"cebpf4jnsgd1na2vs0mg"},{"bike_id":"19224d95-e048-4cbb-8884-43e0e6b3db9b","system_id":"levelo_inurba_marseille","lat":43.29875,"lon":5.39762,"is_reserved":false,"is_disabled":true,"rental_uris":{"android":"levelo://app?vid=19224d95-e048-4cbb-8884-43e0e6b3db9b","ios":"levelo://app?vid=19224d95-e048-4cbb-8884-43e0e6b3db9b"},"vehicle_type_id":"4","last_reported":1743747287,"current_range_meters":9200,"station_id":"ce4bh0h2rcd13ifvqd50","pricing_plan_id":"cebpf4jnsgd1na2vs0mg"},{"bike_id":"63139285-137c-4e8d-8e95-6c2a275f8333","system_id":"levelo_inurba_marseille","lat":43.32099,"lon":5.36811,"is_reserved":false,"is_disabled":false,"rental_uris":{"android":"levelo://app?vid=63139285-137c-4e8d-8e95-6c2a275f8333","ios":"levelo://app?vid=63139285-137c-4e8d-8e95-6c2a275f8333"},"vehicle_type_id":"4","last_reported":1743747287,"current_range_meters":9200,"station_id":"ce4bhrh2rcd13ifvqhug","pricing_plan_id":"cebpf4jnsgd1na2vs0mg"},{"bike_id":"d5894d60-1e7e-4616-8db5-708a3974aab2","system_id":"levelo_inurba_marseille","lat":43.28157,"lon":5.42656,"is_reserved":false,"is_disabled":false,"rental_uris":{"android":"levelo://app?vid=d5894d60-1e7e-4616-8db5-708a3974aab2","ios":"levelo://app?vid=d5894d60-1e7e-4616-8db5-708a3974aab2"},"vehicle_type_id":"4","last_reported":1743747287,"current_range_meters":9200,"station_id":"ce4bhnh2rcd13ifvqgug","pricing_plan_id":"cebpf4jnsgd1na2vs0mg"},{"bike_id":"2923309f-978b-4b1e-8aba-18987e0b9230","system_id":"levelo_inurba_marseille","lat":43.30138,"lon":5.38791,"is_reserved":false,"is_disabled":false,"rental_uris":{"android":"levelo://app?vid=2923309f-978b-4b1e-8aba-18987e0b9230","ios":"levelo://app?vid=2923309f-978b-4b1e-8aba-18987e0b9230"},"vehicle_type_id":"4","last_reported":1743747287,"current_range_meters":9600,"station_id":"ce4bghh2rcd13ifvqb60","pricing_plan_id":"cebpf4jnsgd1na2vs0mg"},{"bike_id":"c52ecb2e-7b4b-4697-9878-67c57bedc65c","system_id":"levelo_inurba_marseille","lat":43.34144,"lon":5.40907,"is_reserved":false,"is_disabled":false,"rental_uris":{"android":"levelo://app?vid=c52ecb2e-7b4b-4697-9878-67c57bedc65c","ios":"levelo://app?vid=c52ecb2e-7b4b-4697-9878-67c57bedc65c"},"vehicle_type_id":"4","last_reported":1743747287,"current_range_meters":9600,"station_id":"ce4bhqh2rcd13ifvqhlg","pricing_plan_id":"cebpf4jnsgd1na2vs0mg"},{"bike_id":"39e71037-e1f7-491a-8e5d-50b5326f2262","system_id":"levelo_inurba_marseille","lat":43.29586,"lon":5.39963,"is_reserved":false,"is_disabled":false,"rental_uris":{"android":"levelo://app?vid=39e71037-e1f7-491a-8e5d-50b5326f2262","ios":"levelo://app?vid=39e71037-e1f7-491a-8e5d-50b5326f2262"},"vehicle_type_id":"4","last_reported":1743747287,"current_range_meters":9600,"station_id":"ce4bh312rcd13ifvqdj0","pricing_plan_id":"cebpf4jnsgd1na2vs0mg"},{"bike_id":"530add42-6a71-433e-8c7a-45b5a6543f85","system_id":"levelo_inurba_marseille","lat":43.25702,"lon":5.41152,"is_reserved":false,"is_disabled":false,"rental_uris":{"android":"levelo://app?vid=530add42-6a71-433e-8c7a-45b5a6543f85","ios":"levelo://app?vid=530add42-6a71-433e-8c7a-45b5a6543f85"},"vehicle_type_id":"4","last_reported":1743747287,"current_range_meters":9600,"station_id":"ce4bhkp2rcd13ifvqgd0","pricing_plan_id":"cebpf4jnsgd1na2vs0mg"},{"bike_id":"36c7ecf5-7090-4026-a410-2171c835810d","system_id":"levelo_inurba_marseille","lat":43.30595,"lon":5.39365,"is_reserved":false,"is_disabled":false,"rental_uris":{"android":"levelo://app?vid=36c7ecf5-7090-4026-a410-2171c835810d","ios":"levelo://app?vid=36c7ecf5-7090-4026-a410-2171c835810d"},"vehicle_type_id":"4","last_reported":1743747287,"current_range_meters":9600,"station_id":"ce4bh0p2rcd13ifvqd80","pricing_plan_id":"cebpf4jnsgd1na2vs0mg"},{"bike_id":"69c0db05-6ded-4dc6-9720-2452c83c1020","system_id":"levelo_inurba_marseille","lat":43.22963,"lon":5.35371,"is_reserved":false,"is_disabled":false,"rental_uris":{"android":"levelo://app?vid=69c0db05-6ded-4dc6-9720-2452c83c1020","ios":"levelo://app?vid=69c0db05-6ded-4dc6-9720-2452c83c1020"},"vehicle_type_id":"4","last_reported":1743747287,"current_range_meters":9600,"station_id":"cpo3532slgdg3j2ikp40","pricing_plan_id":"cebpf4jnsgd1na2vs0mg"},{"bike_id":"4e8250a5-00f1-4258-9336-404128b99786","system_id":"levelo_inurba_marseille","lat":43.317598,"lon":5.390156,"is_reserved":false,"is_disabled":false,"rental_uris":{"android":"levelo://app?vid=4e8250a5-00f1-4258-9336-404128b99786","ios":"levelo://app?vid=4e8250a5-00f1-4258-9336-404128b99786"},"vehicle_type_id":"4","last_reported":1743747287,"current_range_meters":9600,"station_id":"ce4bhqp2rcd13ifvqhng","pricing_plan_id":"cebpf4jnsgd1na2vs0mg"},{"bike_id":"61a0f7f5-16f4-4cc0-925a-67a39b83a68d","system_id":"levelo_inurba_marseille","lat":43.30444,"lon":5.37918,"is_reserved":false,"is_disabled":false,"rental_uris":{"android":"levelo://app?vid=61a0f7f5-16f4-4cc0-925a-67a39b83a68d","ios":"levelo://app?vid=61a0f7f5-16f4-4cc0-925a-67a39b83a68d"},"vehicle_type_id":"4","last_reported":1743747287,"current_range_meters":9600,"station_id":"ce4bgup2rcd13ifvqcn0","pricing_plan_id":"cebpf4jnsgd1na2vs0mg"},{"bike_id":"5f46717b-05d1-4f34-a220-8087932d755b","system_id":"levelo_inurba_marseille","lat":43.30104,"lon":5.36937,"is_reserved":false,"is_disabled":false,"rental_uris":{"android":"levelo://app?vid=5f46717b-05d1-4f34-a220-8087932d755b","ios":"levelo://app?vid=5f46717b-05d1-4f34-a220-8087932d755b"},"vehicle_type_id":"4","last_reported":1743747287,"current_range_meters":9600,"station_id":"","pricing_plan_id":"cebpf4jnsgd1na2vs0mg"},{"bike_id":"a2cc56b1-ff5c-4d49-8794-6951d2d93f41","system_id":"levelo_inurba_marseille","lat":43.23949,"lon":5.36638,"is_reserved":false,"is_disabled":false,"rental_uris":{"android":"levelo://app?vid=a2cc56b1-ff5c-4d49-8794-6951d2d93f41","ios":"levelo://app?vid=a2cc56b1-ff5c-4d49-8794-6951d2d93f41"},"vehicle_type_id":"4","last_reported":1743747287,"current_range_meters":10000,"station_id":"ce4bhi12rcd13ifvqfp0","pricing_plan_id":"cebpf4jnsgd1na2vs0mg"},{"bike_id":"58ca22fb-77b9-4789-b9d9-7865abdbae86","system_id":"levelo_inurba_marseille","lat":43.28341,"lon":5.38111,"is_reserved":false,"is_disabled":false,"rental_uris":{"android":"levelo://app?vid=58ca22fb-77b9-4789-b9d9-7865abdbae86","ios":"levelo://app?vid=58ca22fb-77b9-4789-b9d9-7865abdbae86"},"vehicle_type_id":"4","last_reported":1743747287,"current_range_meters":10000,"station_id":"ce4bh412rcd13ifvqdr0","pricing_plan_id":"cebpf4jnsgd1na2vs0mg"},{"bike_id":"045718d5-60cf-454e-8f2c-b95720783c68","system_id":"levelo_inurba_marseille","lat":43.30136,"lon":5.38092,"is_reserved":false,"is_disabled":false,"rental_uris":{"android":"levelo://app?vid=045718d5-60cf-454e-8f2c-b95720783c68","ios":"levelo://app?vid=045718d5-60cf-454e-8f2c-b95720783c68"},"vehicle_type_id":"4","last_reported":1743747287,"current_range_meters":10000,"station_id":"ce4bgjp2rcd13ifvqbh0","pricing_plan_id":"cebpf4jnsgd1na2vs0mg"},{"bike_id":"951eccc1-20d8-4955-ae3d-acda4b405800","system_id":"levelo_inurba_marseille","lat":43.30164,"lon":5.38085,"is_reserved":false,"is_disabled":false,"rental_uris":{"android":"levelo://app?vid=951eccc1-20d8-4955-ae3d-acda4b405800","ios":"levelo://app?vid=951eccc1-20d8-4955-ae3d-acda4b405800"},"vehicle_type_id":"4","last_reported":1743747287,"current_range_meters":10000,"station_id":"ce4bgjp2rcd13ifvqbh0","pricing_plan_id":"cebpf4jnsgd1na2vs0mg"},{"bike_id":"eb3fd0db-3717-41c3-83f8-c9e70663d169","system_id":"levelo_inurba_marseille","lat":43.23146,"lon":5.43727,"is_reserved":false,"is_disabled":false,"rental_uris":{"android":"levelo://app?vid=eb3fd0db-3717-41c3-83f8-c9e70663d169","ios":"levelo://app?vid=eb3fd0db-3717-41c3-83f8-c9e70663d169"},"vehicle_type_id":"4","last_reported":1743747287,"current_range_meters":10800,"station_id":"ce4bhmp2rcd13ifvqgog","pricing_plan_id":"cebpf4jnsgd1na2vs0mg"},{"bike_id":"ed034283-1492-4da7-9409-35bdead80f30","system_id":"levelo_inurba_marseille","lat":43.30134,"lon":5.38772,"is_reserved":false,"is_disabled":true,"rental_uris":{"android":"levelo://app?vid=ed034283-1492-4da7-9409-35bdead80f30","ios":"levelo://app?vid=ed034283-1492-4da7-9409-35bdead80f30"},"vehicle_type_id":"4","last_reported":1743747287,"current_range_meters":10800,"station_id":"ce4bghh2rcd13ifvqb60","pricing_plan_id":"cebpf4jnsgd1na2vs0mg"},{"bike_id":"f1e5f20d-e5bb-4349-9a72-f7ab8a004414","system_id":"levelo_inurba_marseille","lat":43.303149,"lon":5.404489,"is_reserved":false,"is_disabled":true,"rental_uris":{"android":"levelo://app?vid=f1e5f20d-e5bb-4349-9a72-f7ab8a004414","ios":"levelo://app?vid=f1e5f20d-e5bb-4349-9a72-f7ab8a004414"},"vehicle_type_id":"4","last_reported":1743747287,"current_range_meters":10800,"station_id":"ce4bh012rcd13ifvqd10","pricing_plan_id":"cebpf4jnsgd1na2vs0mg"},{"bike_id":"74a13a18-430a-4f50-ba26-e7dfbad23482","system_id":"levelo_inurba_marseille","lat":43.2304,"lon":5.35532,"is_reserved":false,"is_disabled":false,"rental_uris":{"android":"levelo://app?vid=74a13a18-430a-4f50-ba26-e7dfbad23482","ios":"levelo://app?vid=74a13a18-430a-4f50-ba26-e7dfbad23482"},"vehicle_type_id":"4","last_reported":1743747287,"current_range_meters":10800,"station_id":"cpo3342slgdg3j2ifvpg","pricing_plan_id":"cebpf4jnsgd1na2vs0mg"},{"bike_id":"d71798bf-ed4e-4fdf-b2af-6fd55c8f0655","system_id":"levelo_inurba_marseille","lat":43.3092,"lon":5.36854,"is_reserved":false,"is_disabled":false,"rental_uris":{"android":"levelo://app?vid=d71798bf-ed4e-4fdf-b2af-6fd55c8f0655","ios":"levelo://app?vid=d71798bf-ed4e-4fdf-b2af-6fd55c8f0655"},"vehicle_type_id":"4","last_reported":1743747287,"current_range_meters":10000,"station_id":"ce4bgn92rcd13ifvqbvg","pricing_plan_id":"cebpf4jnsgd1na2vs0mg"},{"bike_id":"3a0b0f90-790c-4160-b50c-b4d5547d0490","system_id":"levelo_inurba_marseille","lat":43.30362,"lon":5.42488,"is_reserved":false,"is_disabled":false,"rental_uris":{"android":"levelo://app?vid=3a0b0f90-790c-4160-b50c-b4d5547d0490","ios":"levelo://app?vid=3a0b0f90-790c-4160-b50c-b4d5547d0490"},"vehicle_type_id":"4","last_reported":1743747287,"current_range_meters":11200,"station_id":"ce4bhoh2rcd13ifvqh6g","pricing_plan_id":"cebpf4jnsgd1na2vs0mg"},{"bike_id":"3705303e-4991-49fc-8a77-208babe233cf","system_id":"levelo_inurba_marseille","lat":43.26939,"lon":5.40255,"is_reserved":false,"is_disabled":false,"rental_uris":{"android":"levelo://app?vid=3705303e-4991-49fc-8a77-208babe233cf","ios":"levelo://app?vid=3705303e-4991-49fc-8a77-208babe233cf"},"vehicle_type_id":"4","last_reported":1743747287,"current_range_meters":11200,"station_id":"cjm6bp8fraef2m0cb0m0","pricing_plan_id":"cebpf4jnsgd1na2vs0mg"},{"bike_id":"2acad3e8-4074-4be5-bfa3-8315b8d6edef","system_id":"levelo_inurba_marseille","lat":43.30593,"lon":5.39351,"is_reserved":false,"is_disabled":false,"rental_uris":{"android":"levelo://app?vid=2acad3e8-4074-4be5-bfa3-8315b8d6edef","ios":"levelo://app?vid=2acad3e8-4074-4be5-bfa3-8315b8d6edef"},"vehicle_type_id":"4","last_reported":1743747287,"current_range_meters":11200,"station_id":"ce4bh0p2rcd13ifvqd80","pricing_plan_id":"cebpf4jnsgd1na2vs0mg"},{"bike_id":"758c2355-846a-4f3d-bcd8-eac4b3145cd6","system_id":"levelo_inurba_marseille","lat":43.23186,"lon":5.35567,"is_reserved":false,"is_disabled":false,"rental_uris":{"android":"levelo://app?vid=758c2355-846a-4f3d-bcd8-eac4b3145cd6","ios":"levelo://app?vid=758c2355-846a-4f3d-bcd8-eac4b3145cd6"},"vehicle_type_id":"4","last_reported":1743747287,"current_range_meters":11200,"station_id":"ce4bhu92rcd13ifvqi70","pricing_plan_id":"cebpf4jnsgd1na2vs0mg"},{"bike_id":"9396f31d-e485-4f45-a818-9888089b5bb6","system_id":"levelo_inurba_marseille","lat":43.23188,"lon":5.35568,"is_reserved":false,"is_disabled":false,"rental_uris":{"android":"levelo://app?vid=9396f31d-e485-4f45-a818-9888089b5bb6","ios":"levelo://app?vid=9396f31d-e485-4f45-a818-9888089b5bb6"},"vehicle_type_id":"4","last_reported":1743747287,"current_range_meters":11200,"station_id":"ce4bhu92rcd13ifvqi70","pricing_plan_id":"cebpf4jnsgd1na2vs0mg"},{"bike_id":"17ff6884-0e71-4d81-b296-55fedda76010","system_id":"levelo_inurba_marseille","lat":43.25823,"lon":5.39437,"is_reserved":false,"is_disabled":false,"rental_uris":{"android":"levelo://app?vid=17ff6884-0e71-4d81-b296-55fedda76010","ios":"levelo://app?vid=17ff6884-0e71-4d81-b296-55fedda76010"},"vehicle_type_id":"4","last_reported":1743747287,"current_range_meters":11600,"station_id":"ce4bhip2rcd13ifvqft0","pricing_plan_id":"cebpf4jnsgd1na2vs0mg"},{"bike_id":"95401442-a1a5-4d01-b9f6-b43024d94496","system_id":"levelo_inurba_marseille","lat":43.304354,"lon":5.388814,"is_reserved":false,"is_disabled":false,"rental_uris":{"android":"levelo://app?vid=95401442-a1a5-4d01-b9f6-b43024d94496","ios":"levelo://app?vid=95401442-a1a5-4d01-b9f6-b43024d94496"},"vehicle_type_id":"4","last_reported":1743747287,"current_range_meters":11600,"station_id":"ce4bgk12rcd13ifvqbi0","pricing_plan_id":"cebpf4jnsgd1na2vs0mg"},{"bike_id":"69d96eab-d655-4e71-80af-adf26a43bf2a","system_id":"levelo_inurba_marseille","lat":43.283553,"lon":5.381035,"is_reserved":false,"is_disabled":false,"rental_uris":{"android":"levelo://app?vid=69d96eab-d655-4e71-80af-adf26a43bf2a","ios":"levelo://app?vid=69d96eab-d655-4e71-80af-adf26a43bf2a"},"vehicle_type_id":"4","last_reported":1743747287,"current_range_meters":11600,"station_id":"ce4bh412rcd13ifvqdr0","pricing_plan_id":"cebpf4jnsgd1na2vs0mg"},{"bike_id":"38c05c9b-15ed-49af-8f55-72205ff8fe47","system_id":"levelo_inurba_marseille","lat":43.24086,"lon":5.3775,"is_reserved":false,"is_disabled":false,"rental_uris":{"android":"levelo://app?vid=38c05c9b-15ed-49af-8f55-72205ff8fe47","ios":"levelo://app?vid=38c05c9b-15ed-49af-8f55-72205ff8fe47"},"vehicle_type_id":"4","last_reported":1743747287,"current_range_meters":11600,"station_id":"ce4bhnp2rcd13ifvqgvg","pricing_plan_id":"cebpf4jnsgd1na2vs0mg"},{"bike_id":"3b550425-1307-4fbb-9ccb-b67ddc66704c","system_id":"levelo_inurba_marseille","lat":43.30157,"lon":5.38094,"is_reserved":false,"is_disabled":false,"rental_uris":{"android":"levelo://app?vid=3b550425-1307-4fbb-9ccb-b67ddc66704c","ios":"levelo://app?vid=3b550425-1307-4fbb-9ccb-b67ddc66704c"},"vehicle_type_id":"4","last_reported":1743747287,"current_range_meters":11600,"station_id":"ce4bgjp2rcd13ifvqbh0","pricing_plan_id":"cebpf4jnsgd1na2vs0mg"},{"bike_id":"69a98a54-af8d-4c03-a6e0-ef0520a22f27","system_id":"levelo_inurba_marseille","lat":43.26957,"lon":5.38616,"is_reserved":false,"is_disabled":false,"rental_uris":{"android":"levelo://app?vid=69a98a54-af8d-4c03-a6e0-ef0520a22f27","ios":"levelo://app?vid=69a98a54-af8d-4c03-a6e0-ef0520a22f27"},"vehicle_type_id":"4","last_reported":1743747287,"current_range_meters":11600,"station_id":"ce4bhh92rcd13ifvqfh0","pricing_plan_id":"cebpf4jnsgd1na2vs0mg"},{"bike_id":"fb348b09-6abb-47a4-a266-91f2eeaee291","system_id":"levelo_inurba_marseille","lat":43.32069,"lon":5.36849,"is_reserved":false,"is_disabled":false,"rental_uris":{"android":"levelo://app?vid=fb348b09-6abb-47a4-a266-91f2eeaee291","ios":"levelo://app?vid=fb348b09-6abb-47a4-a266-91f2eeaee291"},"vehicle_type_id":"4","last_reported":1743747287,"current_range_meters":12000,"station_id":"","pricing_plan_id":"cebpf4jnsgd1na2vs0mg"},{"bike_id":"880a2ca1-013b-4838-92d2-98d3f54434e1","system_id":"levelo_inurba_marseille","lat":43.26758,"lon":5.39454,"is_reserved":false,"is_disabled":true,"rental_uris":{"android":"levelo://app?vid=880a2ca1-013b-4838-92d2-98d3f54434e1","ios":"levelo://app?vid=880a2ca1-013b-4838-92d2-98d3f54434e1"},"vehicle_type_id":"4","last_reported":1743747287,"current_range_meters":12000,"station_id":"ce4bhh12rcd13ifvqfg0","pricing_plan_id":"cebpf4jnsgd1na2vs0mg"},{"bike_id":"c4e5b13a-dcda-49a8-8f79-7a1067389736","system_id":"levelo_inurba_marseille","lat":43.28338,"lon":5.3812,"is_reserved":false,"is_disabled":false,"rental_uris":{"android":"levelo://app?vid=c4e5b13a-dcda-49a8-8f79-7a1067389736","ios":"levelo://app?vid=c4e5b13a-dcda-49a8-8f79-7a1067389736"},"vehicle_type_id":"4","last_reported":1743747287,"current_range_meters":12000,"station_id":"ce4bh412rcd13ifvqdr0","pricing_plan_id":"cebpf4jnsgd1na2vs0mg"},{"bike_id":"2e683936-fa58-4a9b-85fd-29fdc405d41f","system_id":"levelo_inurba_marseille","lat":43.296202,"lon":5.405874,"is_reserved":false,"is_disabled":false,"rental_uris":{"android":"levelo://app?vid=2e683936-fa58-4a9b-85fd-29fdc405d41f","ios":"levelo://app?vid=2e683936-fa58-4a9b-85fd-29fdc405d41f"},"vehicle_type_id":"4","last_reported":1743747287,"current_range_meters":11600,"station_id":"ce4bgt92rcd13ifvqcf0","pricing_plan_id":"cebpf4jnsgd1na2vs0mg"},{"bike_id":"c6b59c82-a81a-410a-a5a6-a7477b220ee5","system_id":"levelo_inurba_marseille","lat":43.2852,"lon":5.38558,"is_reserved":false,"is_disabled":false,"rental_uris":{"android":"levelo://app?vid=c6b59c82-a81a-410a-a5a6-a7477b220ee5","ios":"levelo://app?vid=c6b59c82-a81a-410a-a5a6-a7477b220ee5"},"vehicle_type_id":"4","last_reported":1743747287,"current_range_meters":12000,"station_id":"ce4bh8p2rcd13ifvqeb0","pricing_plan_id":"cebpf4jnsgd1na2vs0mg"},{"bike_id":"9b04578d-3f0f-48ec-b433-fca8afb41f21","system_id":"levelo_inurba_marseille","lat":43.28411,"lon":5.3498,"is_reserved":false,"is_disabled":false,"rental_uris":{"android":"levelo://app?vid=9b04578d-3f0f-48ec-b433-fca8afb41f21","ios":"levelo://app?vid=9b04578d-3f0f-48ec-b433-fca8afb41f21"},"vehicle_type_id":"4","last_reported":1743747287,"current_range_meters":12000,"station_id":"ce4bhbh2rcd13ifvqepg","pricing_plan_id":"cebpf4jnsgd1na2vs0mg"},{"bike_id":"b956a246-5006-4c32-9466-439b4c73e42f","system_id":"levelo_inurba_marseille","lat":43.27495,"lon":5.42451,"is_reserved":false,"is_disabled":false,"rental_uris":{"android":"levelo://app?vid=b956a246-5006-4c32-9466-439b4c73e42f","ios":"levelo://app?vid=b956a246-5006-4c32-9466-439b4c73e42f"},"vehicle_type_id":"4","last_reported":1743747287,"current_range_meters":12000,"station_id":"ce4bhn92rcd13ifvqgrg","pricing_plan_id":"cebpf4jnsgd1na2vs0mg"},{"bike_id":"988930ae-cf6e-4cc6-a663-6be8d5a86333","system_id":"levelo_inurba_marseille","lat":43.32103,"lon":5.368,"is_reserved":false,"is_disabled":false,"rental_uris":{"android":"levelo://app?vid=988930ae-cf6e-4cc6-a663-6be8d5a86333","ios":"levelo://app?vid=988930ae-cf6e-4cc6-a663-6be8d5a86333"},"vehicle_type_id":"4","last_reported":1743747287,"current_range_meters":12400,"station_id":"ce4bhrh2rcd13ifvqhug","pricing_plan_id":"cebpf4jnsgd1na2vs0mg"},{"bike_id":"7d27bc3a-73c1-4279-acef-f7919fbdad9c","system_id":"levelo_inurba_marseille","lat":43.292934,"lon":5.374573,"is_reserved":false,"is_disabled":false,"rental_uris":{"android":"levelo://app?vid=7d27bc3a-73c1-4279-acef-f7919fbdad9c","ios":"levelo://app?vid=7d27bc3a-73c1-4279-acef-f7919fbdad9c"},"vehicle_type_id":"4","last_reported":1743747287,"current_range_meters":12400,"station_id":"ce4bgi12rcd13ifvqb70","pricing_plan_id":"cebpf4jnsgd1na2vs0mg"},{"bike_id":"4af75b67-1e07-41a6-bf51-a09e719cba92","system_id":"levelo_inurba_marseille","lat":43.233583,"lon":5.399638,"is_reserved":false,"is_disabled":false,"rental_uris":{"android":"levelo://app?vid=4af75b67-1e07-41a6-bf51-a09e719cba92","ios":"levelo://app?vid=4af75b67-1e07-41a6-bf51-a09e719cba92"},"vehicle_type_id":"4","last_reported":1743747287,"current_range_meters":12400,"station_id":"ce4bhn12rcd13ifvqgqg","pricing_plan_id":"cebpf4jnsgd1na2vs0mg"},{"bike_id":"93c4d539-5a26-452d-932b-a9b403a887d2","system_id":"levelo_inurba_marseille","lat":43.29883,"lon":5.38086,"is_reserved":false,"is_disabled":true,"rental_uris":{"android":"levelo://app?vid=93c4d539-5a26-452d-932b-a9b403a887d2","ios":"levelo://app?vid=93c4d539-5a26-452d-932b-a9b403a887d2"},"vehicle_type_id":"4","last_reported":1743747287,"current_range_meters":12800,"station_id":"","pricing_plan_id":"cebpf4jnsgd1na2vs0mg"},{"bike_id":"0fb9da56-4e09-4393-af65-b3bfc921b0fd","system_id":"levelo_inurba_marseille","lat":43.283478,"lon":5.381123,"is_reserved":false,"is_disabled":false,"rental_uris":{"android":"levelo://app?vid=0fb9da56-4e09-4393-af65-b3bfc921b0fd","ios":"levelo://app?vid=0fb9da56-4e09-4393-af65-b3bfc921b0fd"},"vehicle_type_id":"4","last_reported":1743747287,"current_range_meters":12800,"station_id":"ce4bh412rcd13ifvqdr0","pricing_plan_id":"cebpf4jnsgd1na2vs0mg"},{"bike_id":"1b07f5d0-df62-4495-a42c-4a12cca8ef22","system_id":"levelo_inurba_marseille","lat":43.30247,"lon":5.40099,"is_reserved":false,"is_disabled":true,"rental_uris":{"android":"levelo://app?vid=1b07f5d0-df62-4495-a42c-4a12cca8ef22","ios":"levelo://app?vid=1b07f5d0-df62-4495-a42c-4a12cca8ef22"},"vehicle_type_id":"4","last_reported":1743747287,"current_range_meters":12800,"station_id":"ce4bgvh2rcd13ifvqcs0","pricing_plan_id":"cebpf4jnsgd1na2vs0mg"},{"bike_id":"14fd7609-1d3b-4881-a49f-82047f8b79cc","system_id":"levelo_inurba_marseille","lat":43.298038,"lon":5.404026,"is_reserved":false,"is_disabled":false,"rental_uris":{"android":"levelo://app?vid=14fd7609-1d3b-4881-a49f-82047f8b79cc","ios":"levelo://app?vid=14fd7609-1d3b-4881-a49f-82047f8b79cc"},"vehicle_type_id":"4","last_reported":1743747287,"current_range_meters":12800,"station_id":"ce4bh112rcd13ifvqd90","pricing_plan_id":"cebpf4jnsgd1na2vs0mg"},{"bike_id":"46e40aa5-72ae-444f-9358-a676d369a477","system_id":"levelo_inurba_marseille","lat":43.33008,"lon":5.43816,"is_reserved":false,"is_disabled":false,"rental_uris":{"android":"levelo://app?vid=46e40aa5-72ae-444f-9358-a676d369a477","ios":"levelo://app?vid=46e40aa5-72ae-444f-9358-a676d369a477"},"vehicle_type_id":"4","last_reported":1743747287,"current_range_meters":12800,"station_id":"","pricing_plan_id":"cebpf4jnsgd1na2vs0mg"},{"bike_id":"aedc5b1f-732b-487a-b512-4b2f211caf36","system_id":"levelo_inurba_marseille","lat":43.26685,"lon":5.38294,"is_reserved":false,"is_disabled":true,"rental_uris":{"android":"levelo://app?vid=aedc5b1f-732b-487a-b512-4b2f211caf36","ios":"levelo://app?vid=aedc5b1f-732b-487a-b512-4b2f211caf36"},"vehicle_type_id":"4","last_reported":1743747287,"current_range_meters":12800,"station_id":"ce4bhg92rcd13ifvqf90","pricing_plan_id":"cebpf4jnsgd1na2vs0mg"},{"bike_id":"d0a3723b-b5dd-4746-9737-f11809449273","system_id":"levelo_inurba_marseille","lat":43.30083,"lon":5.39091,"is_reserved":false,"is_disabled":false,"rental_uris":{"android":"levelo://app?vid=d0a3723b-b5dd-4746-9737-f11809449273","ios":"levelo://app?vid=d0a3723b-b5dd-4746-9737-f11809449273"},"vehicle_type_id":"4","last_reported":1743747287,"current_range_meters":12800,"station_id":"ce4bh192rcd13ifvqdb0","pricing_plan_id":"cebpf4jnsgd1na2vs0mg"},{"bike_id":"26a80bc3-f63e-4193-a718-6427a2494bdc","system_id":"levelo_inurba_marseille","lat":43.24075,"lon":5.37759,"is_reserved":false,"is_disabled":false,"rental_uris":{"android":"levelo://app?vid=26a80bc3-f63e-4193-a718-6427a2494bdc","ios":"levelo://app?vid=26a80bc3-f63e-4193-a718-6427a2494bdc"},"vehicle_type_id":"4","last_reported":1743747287,"current_range_meters":12800,"station_id":"ce4bhnp2rcd13ifvqgvg","pricing_plan_id":"cebpf4jnsgd1na2vs0mg"},{"bike_id":"c26a4e8f-cd98-446d-9c9c-fd8dbaedd771","system_id":"levelo_inurba_marseille","lat":43.29017,"lon":5.38133,"is_reserved":false,"is_disabled":false,"rental_uris":{"android":"levelo://app?vid=c26a4e8f-cd98-446d-9c9c-fd8dbaedd771","ios":"levelo://app?vid=c26a4e8f-cd98-446d-9c9c-fd8dbaedd771"},"vehicle_type_id":"4","last_reported":1743747287,"current_range_meters":12800,"station_id":"ce4bh4p2rcd13ifvqe1g","pricing_plan_id":"cebpf4jnsgd1na2vs0mg"},{"bike_id":"c6f4d592-cd67-4536-ac34-585a4a6a050a","system_id":"levelo_inurba_marseille","lat":43.27493,"lon":5.42456,"is_reserved":false,"is_disabled":false,"rental_uris":{"android":"levelo://app?vid=c6f4d592-cd67-4536-ac34-585a4a6a050a","ios":"levelo://app?vid=c6f4d592-cd67-4536-ac34-585a4a6a050a"},"vehicle_type_id":"4","last_reported":1743747287,"current_range_meters":12800,"station_id":"ce4bhn92rcd13ifvqgrg","pricing_plan_id":"cebpf4jnsgd1na2vs0mg"},{"bike_id":"450c79d8-c7aa-4f1d-8303-6a551ee27beb","system_id":"levelo_inurba_marseille","lat":43.277764,"lon":5.390279,"is_reserved":false,"is_disabled":false,"rental_uris":{"android":"levelo://app?vid=450c79d8-c7aa-4f1d-8303-6a551ee27beb","ios":"levelo://app?vid=450c79d8-c7aa-4f1d-8303-6a551ee27beb"},"vehicle_type_id":"4","last_reported":1743747287,"current_range_meters":12800,"station_id":"ce4bhjp2rcd13ifvqga0","pricing_plan_id":"cebpf4jnsgd1na2vs0mg"},{"bike_id":"4621ad45-29bf-48cb-8077-88f2e1f7279f","system_id":"levelo_inurba_marseille","lat":43.23184,"lon":5.35572,"is_reserved":false,"is_disabled":false,"rental_uris":{"android":"levelo://app?vid=4621ad45-29bf-48cb-8077-88f2e1f7279f","ios":"levelo://app?vid=4621ad45-29bf-48cb-8077-88f2e1f7279f"},"vehicle_type_id":"4","last_reported":1743747287,"current_range_meters":13600,"station_id":"ce4bhu92rcd13ifvqi70","pricing_plan_id":"cebpf4jnsgd1na2vs0mg"},{"bike_id":"c9ab5bfd-fa91-4b45-8fa2-52813c43fa45","system_id":"levelo_inurba_marseille","lat":43.23054,"lon":5.355,"is_reserved":false,"is_disabled":false,"rental_uris":{"android":"levelo://app?vid=c9ab5bfd-fa91-4b45-8fa2-52813c43fa45","ios":"levelo://app?vid=c9ab5bfd-fa91-4b45-8fa2-52813c43fa45"},"vehicle_type_id":"4","last_reported":1743747287,"current_range_meters":13600,"station_id":"cpo3342slgdg3j2ifvpg","pricing_plan_id":"cebpf4jnsgd1na2vs0mg"},{"bike_id":"5a8f5ee5-69ef-4467-a713-2b1a8a882f99","system_id":"levelo_inurba_marseille","lat":43.29592,"lon":5.3771,"is_reserved":false,"is_disabled":true,"rental_uris":{"android":"levelo://app?vid=5a8f5ee5-69ef-4467-a713-2b1a8a882f99","ios":"levelo://app?vid=5a8f5ee5-69ef-4467-a713-2b1a8a882f99"},"vehicle_type_id":"4","last_reported":1743747287,"current_range_meters":13600,"station_id":"ce4bgi92rcd13ifvqb90","pricing_plan_id":"cebpf4jnsgd1na2vs0mg"},{"bike_id":"4caff8e0-340c-490f-8a5a-b26f15704f76","system_id":"levelo_inurba_marseille","lat":43.2857,"lon":5.3844,"is_reserved":false,"is_disabled":false,"rental_uris":{"android":"levelo://app?vid=4caff8e0-340c-490f-8a5a-b26f15704f76","ios":"levelo://app?vid=4caff8e0-340c-490f-8a5a-b26f15704f76"},"vehicle_type_id":"4","last_reported":1743747287,"current_range_meters":14000,"station_id":"","pricing_plan_id":"cebpf4jnsgd1na2vs0mg"},{"bike_id":"41e3cd8f-f21c-4cc2-97bc-a3eedbfb0f12","system_id":"levelo_inurba_marseille","lat":43.30612,"lon":5.39366,"is_reserved":false,"is_disabled":false,"rental_uris":{"android":"levelo://app?vid=41e3cd8f-f21c-4cc2-97bc-a3eedbfb0f12","ios":"levelo://app?vid=41e3cd8f-f21c-4cc2-97bc-a3eedbfb0f12"},"vehicle_type_id":"4","last_reported":1743747287,"current_range_meters":14000,"station_id":"ce4bh0p2rcd13ifvqd80","pricing_plan_id":"cebpf4jnsgd1na2vs0mg"},{"bike_id":"6112e6a3-a55e-4c31-bf20-c9a3ecc0beda","system_id":"levelo_inurba_marseille","lat":43.24074,"lon":5.37766,"is_reserved":false,"is_disabled":false,"rental_uris":{"android":"levelo://app?vid=6112e6a3-a55e-4c31-bf20-c9a3ecc0beda","ios":"levelo://app?vid=6112e6a3-a55e-4c31-bf20-c9a3ecc0beda"},"vehicle_type_id":"4","last_reported":1743747287,"current_range_meters":14000,"station_id":"ce4bhnp2rcd13ifvqgvg","pricing_plan_id":"cebpf4jnsgd1na2vs0mg"},{"bike_id":"f40fc4e8-cfdd-40aa-8507-3bd8857476a8","system_id":"levelo_inurba_marseille","lat":43.30247,"lon":5.40069,"is_reserved":false,"is_disabled":true,"rental_uris":{"android":"levelo://app?vid=f40fc4e8-cfdd-40aa-8507-3bd8857476a8","ios":"levelo://app?vid=f40fc4e8-cfdd-40aa-8507-3bd8857476a8"},"vehicle_type_id":"4","last_reported":1743747287,"current_range_meters":14000,"station_id":"ce4bgvh2rcd13ifvqcs0","pricing_plan_id":"cebpf4jnsgd1na2vs0mg"},{"bike_id":"0182140a-2247-43c8-9f4c-a243aeffefba","system_id":"levelo_inurba_marseille","lat":43.275574,"lon":5.423876,"is_reserved":false,"is_disabled":false,"rental_uris":{"android":"levelo://app?vid=0182140a-2247-43c8-9f4c-a243aeffefba","ios":"levelo://app?vid=0182140a-2247-43c8-9f4c-a243aeffefba"},"vehicle_type_id":"4","last_reported":1743747287,"current_range_meters":14000,"station_id":"","pricing_plan_id":"cebpf4jnsgd1na2vs0mg"},{"bike_id":"73bb4328-7098-425c-b186-b7daff9629ca","system_id":"levelo_inurba_marseille","lat":43.28758,"lon":5.44875,"is_reserved":false,"is_disabled":false,"rental_uris":{"android":"levelo://app?vid=73bb4328-7098-425c-b186-b7daff9629ca","ios":"levelo://app?vid=73bb4328-7098-425c-b186-b7daff9629ca"},"vehicle_type_id":"4","last_reported":1743747287,"current_range_meters":14000,"station_id":"","pricing_plan_id":"cebpf4jnsgd1na2vs0mg"},{"bike_id":"9588ac9f-5950-4980-a43a-9a1c17bf5922","system_id":"levelo_inurba_marseille","lat":43.30154,"lon":5.3808,"is_reserved":false,"is_disabled":false,"rental_uris":{"android":"levelo://app?vid=9588ac9f-5950-4980-a43a-9a1c17bf5922","ios":"levelo://app?vid=9588ac9f-5950-4980-a43a-9a1c17bf5922"},"vehicle_type_id":"4","last_reported":1743747287,"current_range_meters":14000,"station_id":"ce4bgjp2rcd13ifvqbh0","pricing_plan_id":"cebpf4jnsgd1na2vs0mg"},{"bike_id":"ae6ecea5-f015-4699-b852-ef5eb8d96575","system_id":"levelo_inurba_marseille","lat":43.24698,"lon":5.38156,"is_reserved":false,"is_disabled":true,"rental_uris":{"android":"levelo://app?vid=ae6ecea5-f015-4699-b852-ef5eb8d96575","ios":"levelo://app?vid=ae6ecea5-f015-4699-b852-ef5eb8d96575"},"vehicle_type_id":"4","last_reported":1743747287,"current_range_meters":14400,"station_id":"ce4bhih2rcd13ifvqfr0","pricing_plan_id":"cebpf4jnsgd1na2vs0mg"},{"bike_id":"f3f2d5c7-c7c7-4f0a-ad22-d04730134ab9","system_id":"levelo_inurba_marseille","lat":43.3088,"lon":5.39649,"is_reserved":false,"is_disabled":true,"rental_uris":{"android":"levelo://app?vid=f3f2d5c7-c7c7-4f0a-ad22-d04730134ab9","ios":"levelo://app?vid=f3f2d5c7-c7c7-4f0a-ad22-d04730134ab9"},"vehicle_type_id":"4","last_reported":1743747287,"current_range_meters":14400,"station_id":"ce4bh012rcd13ifvqcv0","pricing_plan_id":"cebpf4jnsgd1na2vs0mg"},{"bike_id":"e7c1d2c6-dec0-4f4b-83c4-787192299ad3","system_id":"levelo_inurba_marseille","lat":43.28676,"lon":5.36378,"is_reserved":false,"is_disabled":false,"rental_uris":{"android":"levelo://app?vid=e7c1d2c6-dec0-4f4b-83c4-787192299ad3","ios":"levelo://app?vid=e7c1d2c6-dec0-4f4b-83c4-787192299ad3"},"vehicle_type_id":"4","last_reported":1743747287,"current_range_meters":14400,"station_id":"ce4bhah2rcd13ifvqej0","pricing_plan_id":"cebpf4jnsgd1na2vs0mg"},{"bike_id":"df2b21a7-d23b-4e81-8ba8-409cb58860a7","system_id":"levelo_inurba_marseille","lat":43.27939,"lon":5.41051,"is_reserved":false,"is_disabled":false,"rental_uris":{"android":"levelo://app?vid=df2b21a7-d23b-4e81-8ba8-409cb58860a7","ios":"levelo://app?vid=df2b21a7-d23b-4e81-8ba8-409cb58860a7"},"vehicle_type_id":"4","last_reported":1743747287,"current_range_meters":14400,"station_id":"ce4bhnp2rcd13ifvqh0g","pricing_plan_id":"cebpf4jnsgd1na2vs0mg"},{"bike_id":"6a766ce7-ef73-40f8-abd2-173ec1bb1072","system_id":"levelo_inurba_marseille","lat":43.30214,"lon":5.3947,"is_reserved":false,"is_disabled":false,"rental_uris":{"android":"levelo://app?vid=6a766ce7-ef73-40f8-abd2-173ec1bb1072","ios":"levelo://app?vid=6a766ce7-ef73-40f8-abd2-173ec1bb1072"},"vehicle_type_id":"4","last_reported":1743747287,"current_range_meters":14400,"station_id":"ce4bh0p2rcd13ifvqd70","pricing_plan_id":"cebpf4jnsgd1na2vs0mg"},{"bike_id":"88e17b66-1e0f-47a4-865c-0c46bb4145cb","system_id":"levelo_inurba_marseille","lat":43.30598,"lon":5.39368,"is_reserved":false,"is_disabled":false,"rental_uris":{"android":"levelo://app?vid=88e17b66-1e0f-47a4-865c-0c46bb4145cb","ios":"levelo://app?vid=88e17b66-1e0f-47a4-865c-0c46bb4145cb"},"vehicle_type_id":"4","last_reported":1743747287,"current_range_meters":14800,"station_id":"ce4bh0p2rcd13ifvqd80","pricing_plan_id":"cebpf4jnsgd1na2vs0mg"},{"bike_id":"3b4ad8c6-6244-4378-90d7-dac703d1508d","system_id":"levelo_inurba_marseille","lat":43.23221,"lon":5.35589,"is_reserved":false,"is_disabled":false,"rental_uris":{"android":"levelo://app?vid=3b4ad8c6-6244-4378-90d7-dac703d1508d","ios":"levelo://app?vid=3b4ad8c6-6244-4378-90d7-dac703d1508d"},"vehicle_type_id":"4","last_reported":1743747287,"current_range_meters":14800,"station_id":"ce4bhu92rcd13ifvqi70","pricing_plan_id":"cebpf4jnsgd1na2vs0mg"},{"bike_id":"a7d58268-0beb-49e5-8273-4762f58b770f","system_id":"levelo_inurba_marseille","lat":43.27491,"lon":5.42459,"is_reserved":false,"is_disabled":false,"rental_uris":{"android":"levelo://app?vid=a7d58268-0beb-49e5-8273-4762f58b770f","ios":"levelo://app?vid=a7d58268-0beb-49e5-8273-4762f58b770f"},"vehicle_type_id":"4","last_reported":1743747287,"current_range_meters":14800,"station_id":"ce4bhn92rcd13ifvqgrg","pricing_plan_id":"cebpf4jnsgd1na2vs0mg"},{"bike_id":"a6303451-5b45-435c-bf0e-748f94cc010d","system_id":"levelo_inurba_marseille","lat":43.23228,"lon":5.3549,"is_reserved":false,"is_disabled":false,"rental_uris":{"android":"levelo://app?vid=a6303451-5b45-435c-bf0e-748f94cc010d","ios":"levelo://app?vid=a6303451-5b45-435c-bf0e-748f94cc010d"},"vehicle_type_id":"4","last_reported":1743747287,"current_range_meters":14800,"station_id":"","pricing_plan_id":"cebpf4jnsgd1na2vs0mg"},{"bike_id":"f72c82d8-d5e9-4dba-a554-1e33746fa7b6","system_id":"levelo_inurba_marseille","lat":43.27942,"lon":5.41047,"is_reserved":false,"is_disabled":false,"rental_uris":{"android":"levelo://app?vid=f72c82d8-d5e9-4dba-a554-1e33746fa7b6","ios":"levelo://app?vid=f72c82d8-d5e9-4dba-a554-1e33746fa7b6"},"vehicle_type_id":"4","last_reported":1743747287,"current_range_meters":14800,"station_id":"ce4bhnp2rcd13ifvqh0g","pricing_plan_id":"cebpf4jnsgd1na2vs0mg"},{"bike_id":"44dfb68d-00c9-4274-9335-d1176070b127","system_id":"levelo_inurba_marseille","lat":43.23184,"lon":5.35571,"is_reserved":false,"is_disabled":false,"rental_uris":{"android":"levelo://app?vid=44dfb68d-00c9-4274-9335-d1176070b127","ios":"levelo://app?vid=44dfb68d-00c9-4274-9335-d1176070b127"},"vehicle_type_id":"4","last_reported":1743747287,"current_range_meters":14800,"station_id":"ce4bhu92rcd13ifvqi70","pricing_plan_id":"cebpf4jnsgd1na2vs0mg"},{"bike_id":"752f534a-a1d5-4aec-92e1-0c500ba368d6","system_id":"levelo_inurba_marseille","lat":43.32368,"lon":5.38884,"is_reserved":false,"is_disabled":false,"rental_uris":{"android":"levelo://app?vid=752f534a-a1d5-4aec-92e1-0c500ba368d6","ios":"levelo://app?vid=752f534a-a1d5-4aec-92e1-0c500ba368d6"},"vehicle_type_id":"4","last_reported":1743747287,"current_range_meters":14800,"station_id":"ce4bhqp2rcd13ifvqhog","pricing_plan_id":"cebpf4jnsgd1na2vs0mg"},{"bike_id":"978f00e3-47d2-481d-80c8-31e1e7283ad6","system_id":"levelo_inurba_marseille","lat":43.22916,"lon":5.35384,"is_reserved":false,"is_disabled":false,"rental_uris":{"android":"levelo://app?vid=978f00e3-47d2-481d-80c8-31e1e7283ad6","ios":"levelo://app?vid=978f00e3-47d2-481d-80c8-31e1e7283ad6"},"vehicle_type_id":"4","last_reported":1743747287,"current_range_meters":14800,"station_id":"cpo3532slgdg3j2ikp40","pricing_plan_id":"cebpf4jnsgd1na2vs0mg"},{"bike_id":"c2055a2a-1cff-4f19-a52d-9b52baeaa63f","system_id":"levelo_inurba_marseille","lat":43.319905,"lon":5.381541,"is_reserved":false,"is_disabled":true,"rental_uris":{"android":"levelo://app?vid=c2055a2a-1cff-4f19-a52d-9b52baeaa63f","ios":"levelo://app?vid=c2055a2a-1cff-4f19-a52d-9b52baeaa63f"},"vehicle_type_id":"4","last_reported":1743747287,"current_range_meters":14800,"station_id":"ce4bhr12rcd13ifvqhpg","pricing_plan_id":"cebpf4jnsgd1na2vs0mg"},{"bike_id":"15b1c4b0-a84d-46fc-aeb3-fc5f2ba1535f","system_id":"levelo_inurba_marseille","lat":43.30581,"lon":5.39348,"is_reserved":false,"is_disabled":false,"rental_uris":{"android":"levelo://app?vid=15b1c4b0-a84d-46fc-aeb3-fc5f2ba1535f","ios":"levelo://app?vid=15b1c4b0-a84d-46fc-aeb3-fc5f2ba1535f"},"vehicle_type_id":"4","last_reported":1743747287,"current_range_meters":15200,"station_id":"ce4bh0p2rcd13ifvqd80","pricing_plan_id":"cebpf4jnsgd1na2vs0mg"},{"bike_id":"8ecac5ec-9d8c-49cc-903f-faa533d47d21","system_id":"levelo_inurba_marseille","lat":43.31688,"lon":5.4048,"is_reserved":false,"is_disabled":false,"rental_uris":{"android":"levelo://app?vid=8ecac5ec-9d8c-49cc-903f-faa533d47d21","ios":"levelo://app?vid=8ecac5ec-9d8c-49cc-903f-faa533d47d21"},"vehicle_type_id":"4","last_reported":1743747287,"current_range_meters":15200,"station_id":"ce4bh012rcd13ifvqd00","pricing_plan_id":"cebpf4jnsgd1na2vs0mg"},{"bike_id":"0ce7c981-dac2-4c77-9779-5a75b989fce9","system_id":"levelo_inurba_marseille","lat":43.2814,"lon":5.42661,"is_reserved":false,"is_disabled":false,"rental_uris":{"android":"levelo://app?vid=0ce7c981-dac2-4c77-9779-5a75b989fce9","ios":"levelo://app?vid=0ce7c981-dac2-4c77-9779-5a75b989fce9"},"vehicle_type_id":"4","last_reported":1743747287,"current_range_meters":15200,"station_id":"ce4bhnh2rcd13ifvqgug","pricing_plan_id":"cebpf4jnsgd1na2vs0mg"},{"bike_id":"97670a55-8f64-4dc2-9248-309693759def","system_id":"levelo_inurba_marseille","lat":43.2657,"lon":5.39048,"is_reserved":false,"is_disabled":false,"rental_uris":{"android":"levelo://app?vid=97670a55-8f64-4dc2-9248-309693759def","ios":"levelo://app?vid=97670a55-8f64-4dc2-9248-309693759def"},"vehicle_type_id":"4","last_reported":1743747287,"current_range_meters":15200,"station_id":"ce4bhe12rcd13ifvqf30","pricing_plan_id":"cebpf4jnsgd1na2vs0mg"},{"bike_id":"4784cd27-b24b-4da8-be33-78a80bb8f096","system_id":"levelo_inurba_marseille","lat":43.27924,"lon":5.41074,"is_reserved":false,"is_disabled":false,"rental_uris":{"android":"levelo://app?vid=4784cd27-b24b-4da8-be33-78a80bb8f096","ios":"levelo://app?vid=4784cd27-b24b-4da8-be33-78a80bb8f096"},"vehicle_type_id":"4","last_reported":1743747287,"current_range_meters":16000,"station_id":"ce4bhnp2rcd13ifvqh0g","pricing_plan_id":"cebpf4jnsgd1na2vs0mg"},{"bike_id":"d1ef5f56-a77a-4566-a805-8e39e02e74b6","system_id":"levelo_inurba_marseille","lat":43.3056,"lon":5.36544,"is_reserved":false,"is_disabled":false,"rental_uris":{"android":"levelo://app?vid=d1ef5f56-a77a-4566-a805-8e39e02e74b6","ios":"levelo://app?vid=d1ef5f56-a77a-4566-a805-8e39e02e74b6"},"vehicle_type_id":"4","last_reported":1743747287,"current_range_meters":16000,"station_id":"ce4bgs12rcd13ifvqcag","pricing_plan_id":"cebpf4jnsgd1na2vs0mg"},{"bike_id":"d28006ac-1df7-4dd2-928a-447145d9e94a","system_id":"levelo_inurba_marseille","lat":43.27224,"lon":5.39184,"is_reserved":false,"is_disabled":true,"rental_uris":{"android":"levelo://app?vid=d28006ac-1df7-4dd2-928a-447145d9e94a","ios":"levelo://app?vid=d28006ac-1df7-4dd2-928a-447145d9e94a"},"vehicle_type_id":"4","last_reported":1743747287,"current_range_meters":16000,"station_id":"ce4bhhp2rcd13ifvqfm0","pricing_plan_id":"cebpf4jnsgd1na2vs0mg"},{"bike_id":"27ebc7eb-5de4-43f0-933c-44535f627bc9","system_id":"levelo_inurba_marseille","lat":43.253897,"lon":5.418521,"is_reserved":false,"is_disabled":false,"rental_uris":{"android":"levelo://app?vid=27ebc7eb-5de4-43f0-933c-44535f627bc9","ios":"levelo://app?vid=27ebc7eb-5de4-43f0-933c-44535f627bc9"},"vehicle_type_id":"4","last_reported":1743747287,"current_range_meters":16000,"station_id":"","pricing_plan_id":"cebpf4jnsgd1na2vs0mg"},{"bike_id":"48ec1fe3-fdf4-49a5-977a-526829b4e2e3","system_id":"levelo_inurba_marseille","lat":43.23057,"lon":5.35487,"is_reserved":false,"is_disabled":false,"rental_uris":{"android":"levelo://app?vid=48ec1fe3-fdf4-49a5-977a-526829b4e2e3","ios":"levelo://app?vid=48ec1fe3-fdf4-49a5-977a-526829b4e2e3"},"vehicle_type_id":"4","last_reported":1743747287,"current_range_meters":16000,"station_id":"cpo3342slgdg3j2ifvpg","pricing_plan_id":"cebpf4jnsgd1na2vs0mg"},{"bike_id":"84752981-6289-412c-ab0e-d4ef60dddab9","system_id":"levelo_inurba_marseille","lat":43.30936,"lon":5.4014,"is_reserved":false,"is_disabled":false,"rental_uris":{"android":"levelo://app?vid=84752981-6289-412c-ab0e-d4ef60dddab9","ios":"levelo://app?vid=84752981-6289-412c-ab0e-d4ef60dddab9"},"vehicle_type_id":"4","last_reported":1743747287,"current_range_meters":16000,"station_id":"ce4bgvp2rcd13ifvqct0","pricing_plan_id":"cebpf4jnsgd1na2vs0mg"},{"bike_id":"e165972a-2182-4370-b101-ac922b872258","system_id":"levelo_inurba_marseille","lat":43.23973,"lon":5.36624,"is_reserved":false,"is_disabled":false,"rental_uris":{"android":"levelo://app?vid=e165972a-2182-4370-b101-ac922b872258","ios":"levelo://app?vid=e165972a-2182-4370-b101-ac922b872258"},"vehicle_type_id":"4","last_reported":1743747287,"current_range_meters":16000,"station_id":"ce4bhi12rcd13ifvqfp0","pricing_plan_id":"cebpf4jnsgd1na2vs0mg"},{"bike_id":"cccce150-77a7-4565-8ca1-36858ce9e6b0","system_id":"levelo_inurba_marseille","lat":43.32051,"lon":5.36856,"is_reserved":false,"is_disabled":false,"rental_uris":{"android":"levelo://app?vid=cccce150-77a7-4565-8ca1-36858ce9e6b0","ios":"levelo://app?vid=cccce150-77a7-4565-8ca1-36858ce9e6b0"},"vehicle_type_id":"4","last_reported":1743747287,"current_range_meters":16000,"station_id":"ce4bhrh2rcd13ifvqhug","pricing_plan_id":"cebpf4jnsgd1na2vs0mg"},{"bike_id":"a1ac7ed7-bf3b-4f94-bb77-6241b7f5071b","system_id":"levelo_inurba_marseille","lat":43.2319,"lon":5.39991,"is_reserved":false,"is_disabled":false,"rental_uris":{"android":"levelo://app?vid=a1ac7ed7-bf3b-4f94-bb77-6241b7f5071b","ios":"levelo://app?vid=a1ac7ed7-bf3b-4f94-bb77-6241b7f5071b"},"vehicle_type_id":"4","last_reported":1743747287,"current_range_meters":16000,"station_id":"ce4bhn12rcd13ifvqgqg","pricing_plan_id":"cebpf4jnsgd1na2vs0mg"},{"bike_id":"1d5ef6d0-a413-45b3-8100-7222d11689f2","system_id":"levelo_inurba_marseille","lat":43.28927,"lon":5.38403,"is_reserved":false,"is_disabled":true,"rental_uris":{"android":"levelo://app?vid=1d5ef6d0-a413-45b3-8100-7222d11689f2","ios":"levelo://app?vid=1d5ef6d0-a413-45b3-8100-7222d11689f2"},"vehicle_type_id":"4","last_reported":1743747287,"current_range_meters":16000,"station_id":"ce4bh612rcd13ifvqe6g","pricing_plan_id":"cebpf4jnsgd1na2vs0mg"},{"bike_id":"0244a9d7-07d8-4974-af21-df45550d20c0","system_id":"levelo_inurba_marseille","lat":43.30461,"lon":5.37909,"is_reserved":false,"is_disabled":false,"rental_uris":{"android":"levelo://app?vid=0244a9d7-07d8-4974-af21-df45550d20c0","ios":"levelo://app?vid=0244a9d7-07d8-4974-af21-df45550d20c0"},"vehicle_type_id":"4","last_reported":1743747287,"current_range_meters":16400,"station_id":"ce4bgup2rcd13ifvqcn0","pricing_plan_id":"cebpf4jnsgd1na2vs0mg"},{"bike_id":"eb79d1f9-7c91-4ea2-b5f8-796189743e1a","system_id":"levelo_inurba_marseille","lat":43.33725,"lon":5.391765,"is_reserved":false,"is_disabled":false,"rental_uris":{"android":"levelo://app?vid=eb79d1f9-7c91-4ea2-b5f8-796189743e1a","ios":"levelo://app?vid=eb79d1f9-7c91-4ea2-b5f8-796189743e1a"},"vehicle_type_id":"4","last_reported":1743747287,"current_range_meters":16400,"station_id":"ce4bhr92rcd13ifvqhsg","pricing_plan_id":"cebpf4jnsgd1na2vs0mg"},{"bike_id":"4bc8e38c-4b0e-424d-9652-69472d9f787e","system_id":"levelo_inurba_marseille","lat":43.31216,"lon":5.36875,"is_reserved":false,"is_disabled":false,"rental_uris":{"android":"levelo://app?vid=4bc8e38c-4b0e-424d-9652-69472d9f787e","ios":"levelo://app?vid=4bc8e38c-4b0e-424d-9652-69472d9f787e"},"vehicle_type_id":"4","last_reported":1743747287,"current_range_meters":16400,"station_id":"ce4bgl92rcd13ifvqbq0","pricing_plan_id":"cebpf4jnsgd1na2vs0mg"},{"bike_id":"d72ae546-019d-42c4-ab8a-aa9b8ed4f063","system_id":"levelo_inurba_marseille","lat":43.30464,"lon":5.37916,"is_reserved":false,"is_disabled":false,"rental_uris":{"android":"levelo://app?vid=d72ae546-019d-42c4-ab8a-aa9b8ed4f063","ios":"levelo://app?vid=d72ae546-019d-42c4-ab8a-aa9b8ed4f063"},"vehicle_type_id":"4","last_reported":1743747287,"current_range_meters":16400,"station_id":"ce4bgup2rcd13ifvqcn0","pricing_plan_id":"cebpf4jnsgd1na2vs0mg"},{"bike_id":"0a2af547-4d95-4c8b-9421-f61b7714903d","system_id":"levelo_inurba_marseille","lat":43.2652,"lon":5.37395,"is_reserved":false,"is_disabled":false,"rental_uris":{"android":"levelo://app?vid=0a2af547-4d95-4c8b-9421-f61b7714903d","ios":"levelo://app?vid=0a2af547-4d95-4c8b-9421-f61b7714903d"},"vehicle_type_id":"4","last_reported":1743747287,"current_range_meters":16400,"station_id":"","pricing_plan_id":"cebpf4jnsgd1na2vs0mg"},{"bike_id":"030b69ac-abea-4d28-bda1-3f8356b8299c","system_id":"levelo_inurba_marseille","lat":43.25579,"lon":5.38231,"is_reserved":false,"is_disabled":false,"rental_uris":{"android":"levelo://app?vid=030b69ac-abea-4d28-bda1-3f8356b8299c","ios":"levelo://app?vid=030b69ac-abea-4d28-bda1-3f8356b8299c"},"vehicle_type_id":"4","last_reported":1743747287,"current_range_meters":16400,"station_id":"ce4bhih2rcd13ifvqfs0","pricing_plan_id":"cebpf4jnsgd1na2vs0mg"},{"bike_id":"ca7ae594-2363-41b7-91a0-483f32aee22f","system_id":"levelo_inurba_marseille","lat":43.25288,"lon":5.40009,"is_reserved":false,"is_disabled":false,"rental_uris":{"android":"levelo://app?vid=ca7ae594-2363-41b7-91a0-483f32aee22f","ios":"levelo://app?vid=ca7ae594-2363-41b7-91a0-483f32aee22f"},"vehicle_type_id":"4","last_reported":1743747287,"current_range_meters":16400,"station_id":"","pricing_plan_id":"cebpf4jnsgd1na2vs0mg"},{"bike_id":"188e01b9-65db-4a5b-b580-c3a2d1a3e000","system_id":"levelo_inurba_marseille","lat":43.28738,"lon":5.37091,"is_reserved":false,"is_disabled":false,"rental_uris":{"android":"levelo://app?vid=188e01b9-65db-4a5b-b580-c3a2d1a3e000","ios":"levelo://app?vid=188e01b9-65db-4a5b-b580-c3a2d1a3e000"},"vehicle_type_id":"4","last_reported":1743747287,"current_range_meters":16400,"station_id":"","pricing_plan_id":"cebpf4jnsgd1na2vs0mg"},{"bike_id":"286f0734-8ac4-460d-9ba5-1e9c8e3f97b7","system_id":"levelo_inurba_marseille","lat":43.290316,"lon":5.386556,"is_reserved":false,"is_disabled":false,"rental_uris":{"android":"levelo://app?vid=286f0734-8ac4-460d-9ba5-1e9c8e3f97b7","ios":"levelo://app?vid=286f0734-8ac4-460d-9ba5-1e9c8e3f97b7"},"vehicle_type_id":"4","last_reported":1743747287,"current_range_meters":16000,"station_id":"ce4bh4p2rcd13ifvqe0g","pricing_plan_id":"cebpf4jnsgd1na2vs0mg"},{"bike_id":"3cd93d1f-595a-4ee4-b64d-5aeb9061d218","system_id":"levelo_inurba_marseille","lat":43.24072,"lon":5.37774,"is_reserved":false,"is_disabled":false,"rental_uris":{"android":"levelo://app?vid=3cd93d1f-595a-4ee4-b64d-5aeb9061d218","ios":"levelo://app?vid=3cd93d1f-595a-4ee4-b64d-5aeb9061d218"},"vehicle_type_id":"4","last_reported":1743747287,"current_range_meters":16400,"station_id":"ce4bhnp2rcd13ifvqgvg","pricing_plan_id":"cebpf4jnsgd1na2vs0mg"},{"bike_id":"6d9715e6-045f-417b-844a-144b6e5c1132","system_id":"levelo_inurba_marseille","lat":43.29234,"lon":5.35725,"is_reserved":false,"is_disabled":false,"rental_uris":{"android":"levelo://app?vid=6d9715e6-045f-417b-844a-144b6e5c1132","ios":"levelo://app?vid=6d9715e6-045f-417b-844a-144b6e5c1132"},"vehicle_type_id":"4","last_reported":1743747287,"current_range_meters":16400,"station_id":"","pricing_plan_id":"cebpf4jnsgd1na2vs0mg"},{"bike_id":"621051f1-7a47-4f84-b12e-af5b7be70385","system_id":"levelo_inurba_marseille","lat":43.2293,"lon":5.35376,"is_reserved":false,"is_disabled":false,"rental_uris":{"android":"levelo://app?vid=621051f1-7a47-4f84-b12e-af5b7be70385","ios":"levelo://app?vid=621051f1-7a47-4f84-b12e-af5b7be70385"},"vehicle_type_id":"4","last_reported":1743747287,"current_range_meters":16800,"station_id":"cpo3532slgdg3j2ikp40","pricing_plan_id":"cebpf4jnsgd1na2vs0mg"},{"bike_id":"a1255694-a4ba-4073-b0c9-5703d5586212","system_id":"levelo_inurba_marseille","lat":43.305885,"lon":5.393526,"is_reserved":false,"is_disabled":false,"rental_uris":{"android":"levelo://app?vid=a1255694-a4ba-4073-b0c9-5703d5586212","ios":"levelo://app?vid=a1255694-a4ba-4073-b0c9-5703d5586212"},"vehicle_type_id":"4","last_reported":1743747287,"current_range_meters":16800,"station_id":"ce4bh0p2rcd13ifvqd80","pricing_plan_id":"cebpf4jnsgd1na2vs0mg"},{"bike_id":"320be4e4-c49e-4dbf-8de7-3b7d4ec80023","system_id":"levelo_inurba_marseille","lat":43.30477,"lon":5.37921,"is_reserved":false,"is_disabled":false,"rental_uris":{"android":"levelo://app?vid=320be4e4-c49e-4dbf-8de7-3b7d4ec80023","ios":"levelo://app?vid=320be4e4-c49e-4dbf-8de7-3b7d4ec80023"},"vehicle_type_id":"4","last_reported":1743747287,"current_range_meters":16800,"station_id":"ce4bgup2rcd13ifvqcn0","pricing_plan_id":"cebpf4jnsgd1na2vs0mg"},{"bike_id":"fa3e5d89-fa1e-4836-97d3-3e5628c401c7","system_id":"levelo_inurba_marseille","lat":43.28602,"lon":5.37069,"is_reserved":false,"is_disabled":false,"rental_uris":{"android":"levelo://app?vid=fa3e5d89-fa1e-4836-97d3-3e5628c401c7","ios":"levelo://app?vid=fa3e5d89-fa1e-4836-97d3-3e5628c401c7"},"vehicle_type_id":"4","last_reported":1743747287,"current_range_meters":16800,"station_id":"ce4bht12rcd13ifvqi60","pricing_plan_id":"cebpf4jnsgd1na2vs0mg"},{"bike_id":"c5cd70ba-4c14-44ab-be82-a75c23d2c4a3","system_id":"levelo_inurba_marseille","lat":43.29043,"lon":5.39963,"is_reserved":false,"is_disabled":false,"rental_uris":{"android":"levelo://app?vid=c5cd70ba-4c14-44ab-be82-a75c23d2c4a3","ios":"levelo://app?vid=c5cd70ba-4c14-44ab-be82-a75c23d2c4a3"},"vehicle_type_id":"4","last_reported":1743747287,"current_range_meters":16800,"station_id":"ce4bh392rcd13ifvqdm0","pricing_plan_id":"cebpf4jnsgd1na2vs0mg"},{"bike_id":"ab52ed22-b137-4a55-b178-90d1ecb67d9a","system_id":"levelo_inurba_marseille","lat":43.30496,"lon":5.37883,"is_reserved":false,"is_disabled":false,"rental_uris":{"android":"levelo://app?vid=ab52ed22-b137-4a55-b178-90d1ecb67d9a","ios":"levelo://app?vid=ab52ed22-b137-4a55-b178-90d1ecb67d9a"},"vehicle_type_id":"4","last_reported":1743747287,"current_range_meters":16800,"station_id":"ce4bgup2rcd13ifvqcn0","pricing_plan_id":"cebpf4jnsgd1na2vs0mg"},{"bike_id":"92c2a35b-f9c8-4db4-825a-4d712712b6b0","system_id":"levelo_inurba_marseille","lat":43.23151,"lon":5.43688,"is_reserved":false,"is_disabled":false,"rental_uris":{"android":"levelo://app?vid=92c2a35b-f9c8-4db4-825a-4d712712b6b0","ios":"levelo://app?vid=92c2a35b-f9c8-4db4-825a-4d712712b6b0"},"vehicle_type_id":"4","last_reported":1743747287,"current_range_meters":16800,"station_id":"ce4bhmp2rcd13ifvqgog","pricing_plan_id":"cebpf4jnsgd1na2vs0mg"},{"bike_id":"eaf859a6-ff3d-4281-be3e-7de787fa533a","system_id":"levelo_inurba_marseille","lat":43.303118,"lon":5.391968,"is_reserved":false,"is_disabled":true,"rental_uris":{"android":"levelo://app?vid=eaf859a6-ff3d-4281-be3e-7de787fa533a","ios":"levelo://app?vid=eaf859a6-ff3d-4281-be3e-7de787fa533a"},"vehicle_type_id":"4","last_reported":1743747287,"current_range_meters":17200,"station_id":"ce4bgkh2rcd13ifvqbk0","pricing_plan_id":"cebpf4jnsgd1na2vs0mg"},{"bike_id":"3664c5cd-06ce-48a2-acf0-600e5f1678b9","system_id":"levelo_inurba_marseille","lat":43.30792,"lon":5.38174,"is_reserved":false,"is_disabled":false,"rental_uris":{"android":"levelo://app?vid=3664c5cd-06ce-48a2-acf0-600e5f1678b9","ios":"levelo://app?vid=3664c5cd-06ce-48a2-acf0-600e5f1678b9"},"vehicle_type_id":"4","last_reported":1743747287,"current_range_meters":17200,"station_id":"ce4bgt12rcd13ifvqce0","pricing_plan_id":"cebpf4jnsgd1na2vs0mg"},{"bike_id":"85ea2a9c-8124-4772-a144-afc738e57457","system_id":"levelo_inurba_marseille","lat":43.30459,"lon":5.37941,"is_reserved":false,"is_disabled":false,"rental_uris":{"android":"levelo://app?vid=85ea2a9c-8124-4772-a144-afc738e57457","ios":"levelo://app?vid=85ea2a9c-8124-4772-a144-afc738e57457"},"vehicle_type_id":"4","last_reported":1743747287,"current_range_meters":17200,"station_id":"ce4bgup2rcd13ifvqcn0","pricing_plan_id":"cebpf4jnsgd1na2vs0mg"},{"bike_id":"bce27f57-0341-43e9-87fd-9109712e4bf4","system_id":"levelo_inurba_marseille","lat":43.28719,"lon":5.3795,"is_reserved":false,"is_disabled":false,"rental_uris":{"android":"levelo://app?vid=bce27f57-0341-43e9-87fd-9109712e4bf4","ios":"levelo://app?vid=bce27f57-0341-43e9-87fd-9109712e4bf4"},"vehicle_type_id":"4","last_reported":1743747287,"current_range_meters":17200,"station_id":"ce4bh9p2rcd13ifvqec0","pricing_plan_id":"cebpf4jnsgd1na2vs0mg"},