{"last_updated":1736586506,"ttl":60,"version":"2.2","data":{"bikes":[{"bike_id":"9efffc4b-6a38-4517-ab0e-918d1c43dbfa","system_id":"levelo_inurba_marseille","lat":43.33613,"lon":5.41045,"is_reserved":false,"is_disabled":false,"rental_uris":{"android":"levelo://app?vid=9efffc4b-6a38-4517-ab0e-918d1c43dbfa","ios":"levelo://app?vid=9efffc4b-6a38-4517-ab0e-918d1c43dbfa"},"vehicle_type_id":"4","last_reported":1736586506,"current_range_meters":34000,"station_id":"ce4bhqh2rcd13ifvqhmg","pricing_plan_id":"cebpf4jnsgd1na2vs0mg"},{"bike_id":"14a8245a-9128-40d3-8265-cf1423d2fdc8","system_id":"levelo_inurba_marseille","lat":43.248039,"lon":5.374534,"is_reserved":false,"is_disabled":false,"rental_uris":{"android":"levelo://app?vid=14a8245a-9128-40d3-8265-cf1423d2fdc8","ios":"levelo://app?vid=14a8245a-9128-40d3-8265-cf1423d2fdc8"},"vehicle_type_id":"4","last_reported":1736586506,"current_range_meters":38800,"station_id":"ce4bhgh2rcd13ifvqfb0","pricing_plan_id":"cebpf4jnsgd1na2vs0mg"},{"bike_id":"845c45f9-21f7-4cca-91da-0576211404cb","system_id":"levelo_inurba_marseille","lat":43.23182,"lon":5.39985,"is_reserved":false,"is_disabled":false,"rental_uris":{"android":"levelo://app?vid=845c45f9-21f7-4cca-91da-0576211404cb","ios":"levelo://app?vid=845c45f9-21f7-4cca-91da-0576211404cb"},"vehicle_type_id":"4","last_reported":1736586506,"current_range_meters":10800,"station_id":"ce4bhn12rcd13ifvqgqg","pricing_plan_id":"cebpf4jnsgd1na2vs0mg"},{"bike_id":"79a7df46-a7ca-4d27-97af-0883a0d4aacd","system_id":"levelo_inurba_marseille","lat":43.24818,"lon":5.37468,"is_reserved":false,"is_disabled":false,"rental_uris":{"android":"levelo://app?vid=79a7df46-a7ca-4d27-97af-0883a0d4aacd","ios":"levelo://app?vid=79a7df46-a7ca-4d27-97af-0883a0d4aacd"},"vehicle_type_id":"4","last_reported":1736586506,"current_range_meters":32800,"station_id":"ce4bhgh2rcd13ifvqfb0","pricing_plan_id":"cebpf4jnsgd1na2vs0mg"},{"bike_id":"eeef5613-963b-4cd0-acb9-8d5f4038a1c4","system_id":"levelo_inurba_marseille","lat":43.26207,"lon":5.37932,"is_reserved":false,"is_disabled":false,"rental_uris":{"android":"levelo://app?vid=eeef5613-963b-4cd0-acb9-8d5f4038a1c4","ios":"levelo://app?vid=eeef5613-963b-4cd0-acb9-8d5f4038a1c4"},"vehicle_type_id":"4","last_reported":1736586506,"current_range_meters":30800,"station_id":"ce4bhjp2rcd13ifvqg90","pricing_plan_id":"cebpf4jnsgd1na2vs0mg"},{"bike_id":"02fa8d23-b641-466a-8661-f76f63fb8c6e","system_id":"levelo_inurba_marseille","lat":43.315306,"lon":5.380378,"is_reserved":false,"is_disabled":false,"rental_uris":{"android":"levelo://app?vid=02fa8d23-b641-466a-8661-f76f63fb8c6e","ios":"levelo://app?vid=02fa8d23-b641-466a-8661-f76f63fb8c6e"},"vehicle_type_id":"4","last_reported":1736586506,"current_range_meters":38800,"station_id":"ce4bhsp2rcd13ifvqi50","pricing_plan_id":"cebpf4jnsgd1na2vs0mg"},{"bike_id":"0fe425bb-f9c2-47cb-b4cc-f55ce66357e3","system_id":"levelo_inurba_marseille","lat":43.240704,"lon":5.377623,"is_reserved":false,"is_disabled":false,"rental_uris":{"android":"levelo://app?vid=0fe425bb-f9c2-47cb-b4cc-f55ce66357e3","ios":"levelo://app?vid=0fe425bb-f9c2-47cb-b4cc-f55ce66357e3"},"vehicle_type_id":"4","last_reported":1736586506,"current_range_meters":38800,"station_id":"ce4bhnp2rcd13ifvqgvg","pricing_plan_id":"cebpf4jnsgd1na2vs0mg"},{"bike_id":"d2f823e9-4311-4ea5-8493-dc6417fe0a04","system_id":"levelo_inurba_marseille","lat":43.28429,"lon":5.34985,"is_reserved":false,"is_disabled":false,"rental_uris":{"android":"levelo://app?vid=d2f823e9-4311-4ea5-8493-dc6417fe0a04","ios":"levelo://app?vid=d2f823e9-4311-4ea5-8493-dc6417fe0a04"},"vehicle_type_id":"4","last_reported":1736586506,"current_range_meters":38800,"station_id":"ce4bhbh2rcd13ifvqepg","pricing_plan_id":"cebpf4jnsgd1na2vs0mg"},{"bike_id":"a444a04d-7a75-4bb0-b921-23a4f692b157","system_id":"levelo_inurba_marseille","lat":43.24623,"lon":5.38932,"is_reserved":false,"is_disabled":false,"rental_uris":{"android":"levelo://app?vid=a444a04d-7a75-4bb0-b921-23a4f692b157","ios":"levelo://app?vid=a444a04d-7a75-4bb0-b921-23a4f692b157"},"vehicle_type_id":"4","last_reported":1736586506,"current_range_meters":19600,"station_id":"ce4bhg12rcd13ifvqf60","pricing_plan_id":"cebpf4jnsgd1na2vs0mg"},{"bike_id":"b246f170-19e2-4621-9322-d904efe8f685","system_id":"levelo_inurba_marseille","lat":43.33614,"lon":5.41052,"is_reserved":false,"is_disabled":false,"rental_uris":{"android":"levelo://app?vid=b246f170-19e2-4621-9322-d904efe8f685","ios":"levelo://app?vid=b246f170-19e2-4621-9322-d904efe8f685"},"vehicle_type_id":"4","last_reported":1736586506,"current_range_meters":38800,"station_id":"ce4bhqh2rcd13ifvqhmg","pricing_plan_id":"cebpf4jnsgd1na2vs0mg"},{"bike_id":"42b2945a-873e-44b2-ae60-3504061c9f79","system_id":"levelo_inurba_marseille","lat":43.28275,"lon":5.35079,"is_reserved":false,"is_disabled":false,"rental_uris":{"android":"levelo://app?vid=42b2945a-873e-44b2-ae60-3504061c9f79","ios":"levelo://app?vid=42b2945a-873e-44b2-ae60-3504061c9f79"},"vehicle_type_id":"4","last_reported":1736586506,"current_range_meters":11600,"station_id":"ce4bhbp2rcd13ifvqerg","pricing_plan_id":"cebpf4jnsgd1na2vs0mg"},{"bike_id":"f15101c1-c879-4795-84df-c1859d335ba4","system_id":"levelo_inurba_marseille","lat":43.29839,"lon":5.36266,"is_reserved":false,"is_disabled":false,"rental_uris":{"android":"levelo://app?vid=f15101c1-c879-4795-84df-c1859d335ba4","ios":"levelo://app?vid=f15101c1-c879-4795-84df-c1859d335ba4"},"vehicle_type_id":"4","last_reported":1736586506,"current_range_meters":28800,"station_id":"ce4bgpp2rcd13ifvqc3g","pricing_plan_id":"cebpf4jnsgd1na2vs0mg"},{"bike_id":"734f6fc6-efc0-4eb8-8a70-0965ca2ed925","system_id":"levelo_inurba_marseille","lat":43.26684,"lon":5.38266,"is_reserved":false,"is_disabled":false,"rental_uris":{"android":"levelo://app?vid=734f6fc6-efc0-4eb8-8a70-0965ca2ed925","ios":"levelo://app?vid=734f6fc6-efc0-4eb8-8a70-0965ca2ed925"},"vehicle_type_id":"4","last_reported":1736586506,"current_range_meters":19600,"station_id":"ce4bhg92rcd13ifvqf90","pricing_plan_id":"cebpf4jnsgd1na2vs0mg"},{"bike_id":"12dd0fcd-80fc-479f-931f-8583fac5c5f4","system_id":"levelo_inurba_marseille","lat":43.2998,"lon":5.38488,"is_reserved":false,"is_disabled":false,"rental_uris":{"android":"levelo://app?vid=12dd0fcd-80fc-479f-931f-8583fac5c5f4","ios":"levelo://app?vid=12dd0fcd-80fc-479f-931f-8583fac5c5f4"},"vehicle_type_id":"4","last_reported":1736586506,"current_range_meters":30800,"station_id":"ce4bgj92rcd13ifvqbd0","pricing_plan_id":"cebpf4jnsgd1na2vs0mg"},{"bike_id":"f27315e5-5b6e-4c1c-bf3c-bb19556d13a1","system_id":"levelo_inurba_marseille","lat":43.33618,"lon":5.40995,"is_reserved":false,"is_disabled":false,"rental_uris":{"android":"levelo://app?vid=f27315e5-5b6e-4c1c-bf3c-bb19556d13a1","ios":"levelo://app?vid=f27315e5-5b6e-4c1c-bf3c-bb19556d13a1"},"vehicle_type_id":"4","last_reported":1736586506,"current_range_meters":38800,"station_id":"ce4bhqh2rcd13ifvqhmg","pricing_plan_id":"cebpf4jnsgd1na2vs0mg"},{"bike_id":"b07caa32-0281-41d0-9ad3-ace310c3425f","system_id":"levelo_inurba_marseille","lat":43.25867,"lon":5.39897,"is_reserved":false,"is_disabled":false,"rental_uris":{"android":"levelo://app?vid=b07caa32-0281-41d0-9ad3-ace310c3425f","ios":"levelo://app?vid=b07caa32-0281-41d0-9ad3-ace310c3425f"},"vehicle_type_id":"4","last_reported":1736586506,"current_range_meters":10000,"station_id":"ce4bhl92rcd13ifvqghg","pricing_plan_id":"cebpf4jnsgd1na2vs0mg"},{"bike_id":"853d56cd-3451-4764-beab-a40e85523b05","system_id":"levelo_inurba_marseille","lat":43.24646,"lon":5.38904,"is_reserved":false,"is_disabled":false,"rental_uris":{"android":"levelo://app?vid=853d56cd-3451-4764-beab-a40e85523b05","ios":"levelo://app?vid=853d56cd-3451-4764-beab-a40e85523b05"},"vehicle_type_id":"4","last_reported":1736586506,"current_range_meters":5600,"station_id":"ce4bhg12rcd13ifvqf60","pricing_plan_id":"cebpf4jnsgd1na2vs0mg"},{"bike_id":"55901066-d1f5-40ad-9e74-dfb9cb19e99d","system_id":"levelo_inurba_marseille","lat":43.29567,"lon":5.37504,"is_reserved":false,"is_disabled":false,"rental_uris":{"android":"levelo://app?vid=55901066-d1f5-40ad-9e74-dfb9cb19e99d","ios":"levelo://app?vid=55901066-d1f5-40ad-9e74-dfb9cb19e99d"},"vehicle_type_id":"4","last_reported":1736586506,"current_range_meters":22400,"station_id":"ce4bgh92rcd13ifvqb50","pricing_plan_id":"cebpf4jnsgd1na2vs0mg"},{"bike_id":"004c2ac5-7f25-4e48-8a80-9a02537f6ba6","system_id":"levelo_inurba_marseille","lat":43.321067,"lon":5.367776,"is_reserved":false,"is_disabled":false,"rental_uris":{"android":"levelo://app?vid=004c2ac5-7f25-4e48-8a80-9a02537f6ba6","ios":"levelo://app?vid=004c2ac5-7f25-4e48-8a80-9a02537f6ba6"},"vehicle_type_id":"4","last_reported":1736586506,"current_range_meters":30800,"station_id":"ce4bhrh2rcd13ifvqhug","pricing_plan_id":"cebpf4jnsgd1na2vs0mg"},{"bike_id":"6a8dc65c-8c47-4239-8815-8efa2acdc338","system_id":"levelo_inurba_marseille","lat":43.27992,"lon":5.41667,"is_reserved":false,"is_disabled":true,"rental_uris":{"android":"levelo://app?vid=6a8dc65c-8c47-4239-8815-8efa2acdc338","ios":"levelo://app?vid=6a8dc65c-8c47-4239-8815-8efa2acdc338"},"vehicle_type_id":"4","last_reported":1736586506,"current_range_meters":11200,"station_id":"ce4bho12rcd13ifvqh1g","pricing_plan_id":"cebpf4jnsgd1na2vs0mg"},{"bike_id":"2f457c0c-5283-4f66-b319-69a87ce07d89","system_id":"levelo_inurba_marseille","lat":43.25014,"lon":5.38931,"is_reserved":false,"is_disabled":false,"rental_uris":{"android":"levelo://app?vid=2f457c0c-5283-4f66-b319-69a87ce07d89","ios":"levelo://app?vid=2f457c0c-5283-4f66-b319-69a87ce07d89"},"vehicle_type_id":"4","last_reported":1736586506,"current_range_meters":31200,"station_id":"ce4bhgp2rcd13ifvqfd0","pricing_plan_id":"cebpf4jnsgd1na2vs0mg"},{"bike_id":"aca9d58c-8821-4d79-88c1-67c3a044952f","system_id":"levelo_inurba_marseille","lat":43.33023,"lon":5.39064,"is_reserved":false,"is_disabled":false,"rental_uris":{"android":"levelo://app?vid=aca9d58c-8821-4d79-88c1-67c3a044952f","ios":"levelo://app?vid=aca9d58c-8821-4d79-88c1-67c3a044952f"},"vehicle_type_id":"4","last_reported":1736586506,"current_range_meters":22800,"station_id":"ce4bhr92rcd13ifvqhrg","pricing_plan_id":"cebpf4jnsgd1na2vs0mg"},{"bike_id":"86cd1141-6e96-4c04-94b3-22ca752a46a1","system_id":"levelo_inurba_marseille","lat":43.23186,"lon":5.39978,"is_reserved":false,"is_disabled":false,"rental_uris":{"android":"levelo://app?vid=86cd1141-6e96-4c04-94b3-22ca752a46a1","ios":"levelo://app?vid=86cd1141-6e96-4c04-94b3-22ca752a46a1"},"vehicle_type_id":"4","last_reported":1736586506,"current_range_meters":20000,"station_id":"ce4bhn12rcd13ifvqgqg","pricing_plan_id":"cebpf4jnsgd1na2vs0mg"},{"bike_id":"0754a3a6-d8ad-4e11-a0fd-2e381f851794","system_id":"levelo_inurba_marseille","lat":43.33723,"lon":5.39262,"is_reserved":false,"is_disabled":false,"rental_uris":{"android":"levelo://app?vid=0754a3a6-d8ad-4e11-a0fd-2e381f851794","ios":"levelo://app?vid=0754a3a6-d8ad-4e11-a0fd-2e381f851794"},"vehicle_type_id":"4","last_reported":1736586506,"current_range_meters":38400,"station_id":"","pricing_plan_id":"cebpf4jnsgd1na2vs0mg"},{"bike_id":"ba43f1cb-442f-415b-aaf2-ab3a50e56056","system_id":"levelo_inurba_marseille","lat":43.23946,"lon":5.36644,"is_reserved":false,"is_disabled":false,"rental_uris":{"android":"levelo://app?vid=ba43f1cb-442f-415b-aaf2-ab3a50e56056","ios":"levelo://app?vid=ba43f1cb-442f-415b-aaf2-ab3a50e56056"},"vehicle_type_id":"4","last_reported":1736586506,"current_range_meters":10000,"station_id":"ce4bhi12rcd13ifvqfp0","pricing_plan_id":"cebpf4jnsgd1na2vs0mg"},{"bike_id":"50bd41a2-4134-4514-bd21-8188f8f923aa","system_id":"levelo_inurba_marseille","lat":43.28691,"lon":5.39985,"is_reserved":false,"is_disabled":true,"rental_uris":{"android":"levelo://app?vid=50bd41a2-4134-4514-bd21-8188f8f923aa","ios":"levelo://app?vid=50bd41a2-4134-4514-bd21-8188f8f923aa"},"vehicle_type_id":"4","last_reported":1736586506,"current_range_meters":400,"station_id":"ce4bho92rcd13ifvqh3g","pricing_plan_id":"cebpf4jnsgd1na2vs0mg"},{"bike_id":"c1dea8eb-dedb-48c3-82b9-ba4d059a0755","system_id":"levelo_inurba_marseille","lat":43.26546,"lon":5.37298,"is_reserved":false,"is_disabled":true,"rental_uris":{"android":"levelo://app?vid=c1dea8eb-dedb-48c3-82b9-ba4d059a0755","ios":"levelo://app?vid=c1dea8eb-dedb-48c3-82b9-ba4d059a0755"},"vehicle_type_id":"4","last_reported":1736586506,"current_range_meters":9600,"station_id":"ce4bhg12rcd13ifvqf70","pricing_plan_id":"cebpf4jnsgd1na2vs0mg"},{"bike_id":"666c0c92-428a-4f95-8531-2a4d6f4a5bb0","system_id":"levelo_inurba_marseille","lat":43.246642,"lon":5.381581,"is_reserved":false,"is_disabled":false,"rental_uris":{"android":"levelo://app?vid=666c0c92-428a-4f95-8531-2a4d6f4a5bb0","ios":"levelo://app?vid=666c0c92-428a-4f95-8531-2a4d6f4a5bb0"},"vehicle_type_id":"4","last_reported":1736586506,"current_range_meters":8800,"station_id":"ce4bhih2rcd13ifvqfr0","pricing_plan_id":"cebpf4jnsgd1na2vs0mg"},{"bike_id":"3e35ef7b-3237-4c6e-a7b1-693543e13672","system_id":"levelo_inurba_marseille","lat":43.24645,"lon":5.38889,"is_reserved":false,"is_disabled":false,"rental_uris":{"android":"levelo://app?vid=3e35ef7b-3237-4c6e-a7b1-693543e13672","ios":"levelo://app?vid=3e35ef7b-3237-4c6e-a7b1-693543e13672"},"vehicle_type_id":"4","last_reported":1736586506,"current_range_meters":29600,"station_id":"ce4bhg12rcd13ifvqf60","pricing_plan_id":"cebpf4jnsgd1na2vs0mg"},{"bike_id":"7d7ab368-2e64-4821-85fb-ce6f430b2ae3","system_id":"levelo_inurba_marseille","lat":43.2897,"lon":5.35649,"is_reserved":false,"is_disabled":false,"rental_uris":{"android":"levelo://app?vid=7d7ab368-2e64-4821-85fb-ce6f430b2ae3","ios":"levelo://app?vid=7d7ab368-2e64-4821-85fb-ce6f430b2ae3"},"vehicle_type_id":"4","last_reported":1736586506,"current_range_meters":39200,"station_id":"ce4bhb92rcd13ifvqen0","pricing_plan_id":"cebpf4jnsgd1na2vs0mg"},{"bike_id":"f1fed00d-7214-4615-a882-fc8ac039a804","system_id":"levelo_inurba_marseille","lat":43.31722,"lon":5.42413,"is_reserved":false,"is_disabled":false,"rental_uris":{"android":"levelo://app?vid=f1fed00d-7214-4615-a882-fc8ac039a804","ios":"levelo://app?vid=f1fed00d-7214-4615-a882-fc8ac039a804"},"vehicle_type_id":"4","last_reported":1736586506,"current_range_meters":13600,"station_id":"ce4bhp92rcd13ifvqhbg","pricing_plan_id":"cebpf4jnsgd1na2vs0mg"},{"bike_id":"faf3ce11-7d95-494d-93dd-67145954a75a","system_id":"levelo_inurba_marseille","lat":43.30295,"lon":5.39194,"is_reserved":false,"is_disabled":false,"rental_uris":{"android":"levelo://app?vid=faf3ce11-7d95-494d-93dd-67145954a75a","ios":"levelo://app?vid=faf3ce11-7d95-494d-93dd-67145954a75a"},"vehicle_type_id":"4","last_reported":1736586506,"current_range_meters":25600,"station_id":"ce4bgkh2rcd13ifvqbk0","pricing_plan_id":"cebpf4jnsgd1na2vs0mg"},{"bike_id":"dcb2126a-d21d-4ccc-8dd5-f93c643abd4d","system_id":"levelo_inurba_marseille","lat":43.28923,"lon":5.38392,"is_reserved":false,"is_disabled":true,"rental_uris":{"android":"levelo://app?vid=dcb2126a-d21d-4ccc-8dd5-f93c643abd4d","ios":"levelo://app?vid=dcb2126a-d21d-4ccc-8dd5-f93c643abd4d"},"vehicle_type_id":"4","last_reported":1736586506,"current_range_meters":9200,"station_id":"ce4bh612rcd13ifvqe6g","pricing_plan_id":"cebpf4jnsgd1na2vs0mg"},{"bike_id":"40aa582d-815a-4ab4-b49f-d3b3d622ee04","system_id":"levelo_inurba_marseille","lat":43.23043,"lon":5.35506,"is_reserved":false,"is_disabled":false,"rental_uris":{"android":"levelo://app?vid=40aa582d-815a-4ab4-b49f-d3b3d622ee04","ios":"levelo://app?vid=40aa582d-815a-4ab4-b49f-d3b3d622ee04"},"vehicle_type_id":"4","last_reported":1736586506,"current_range_meters":38800,"station_id":"cpo3342slgdg3j2ifvpg","pricing_plan_id":"cebpf4jnsgd1na2vs0mg"},{"bike_id":"6b750947-fb43-40e2-9931-495446cc2b3f","system_id":"levelo_inurba_marseille","lat":43.22924,"lon":5.35379,"is_reserved":false,"is_disabled":false,"rental_uris":{"android":"levelo://app?vid=6b750947-fb43-40e2-9931-495446cc2b3f","ios":"levelo://app?vid=6b750947-fb43-40e2-9931-495446cc2b3f"},"vehicle_type_id":"4","last_reported":1736586506,"current_range_meters":38000,"station_id":"cpo3532slgdg3j2ikp40","pricing_plan_id":"cebpf4jnsgd1na2vs0mg"},{"bike_id":"c8e997c0-8580-4d0f-8d9f-0766596381e1","system_id":"levelo_inurba_marseille","lat":43.34025,"lon":5.37534,"is_reserved":false,"is_disabled":false,"rental_uris":{"android":"levelo://app?vid=c8e997c0-8580-4d0f-8d9f-0766596381e1","ios":"levelo://app?vid=c8e997c0-8580-4d0f-8d9f-0766596381e1"},"vehicle_type_id":"4","last_reported":1736586506,"current_range_meters":6800,"station_id":"","pricing_plan_id":"cebpf4jnsgd1na2vs0mg"},{"bike_id":"e2a1cfef-e19e-4a5d-9686-b684171a50e2","system_id":"levelo_inurba_marseille","lat":43.27192,"lon":5.41005,"is_reserved":false,"is_disabled":false,"rental_uris":{"android":"levelo://app?vid=e2a1cfef-e19e-4a5d-9686-b684171a50e2","ios":"levelo://app?vid=e2a1cfef-e19e-4a5d-9686-b684171a50e2"},"vehicle_type_id":"4","last_reported":1736586506,"current_range_meters":36800,"station_id":"ce4bhl12rcd13ifvqgf0","pricing_plan_id":"cebpf4jnsgd1na2vs0mg"},{"bike_id":"5b79b006-d7c3-4b04-9541-c9d77e2d63cb","system_id":"levelo_inurba_marseille","lat":43.31762,"lon":5.40485,"is_reserved":false,"is_disabled":true,"rental_uris":{"android":"levelo://app?vid=5b79b006-d7c3-4b04-9541-c9d77e2d63cb","ios":"levelo://app?vid=5b79b006-d7c3-4b04-9541-c9d77e2d63cb"},"vehicle_type_id":"4","last_reported":1736586506,"current_range_meters":12000,"station_id":"","pricing_plan_id":"cebpf4jnsgd1na2vs0mg"},{"bike_id":"1f5ef9f6-050f-4f79-a9ce-badba66ed461","system_id":"levelo_inurba_marseille","lat":43.28638,"lon":5.40081,"is_reserved":false,"is_disabled":false,"rental_uris":{"android":"levelo://app?vid=1f5ef9f6-050f-4f79-a9ce-badba66ed461","ios":"levelo://app?vid=1f5ef9f6-050f-4f79-a9ce-badba66ed461"},"vehicle_type_id":"4","last_reported":1736586506,"current_range_meters":23200,"station_id":"","pricing_plan_id":"cebpf4jnsgd1na2vs0mg"},{"bike_id":"f756f78a-18bc-4477-88b8-92dedc6922cc","system_id":"levelo_inurba_marseille","lat":43.29019,"lon":5.3562,"is_reserved":false,"is_disabled":false,"rental_uris":{"android":"levelo://app?vid=f756f78a-18bc-4477-88b8-92dedc6922cc","ios":"levelo://app?vid=f756f78a-18bc-4477-88b8-92dedc6922cc"},"vehicle_type_id":"4","last_reported":1736586506,"current_range_meters":16000,"station_id":"ce4bhb92rcd13ifvqen0","pricing_plan_id":"cebpf4jnsgd1na2vs0mg"},{"bike_id":"79da2544-1cc6-4479-aa5c-48161bc5839b","system_id":"levelo_inurba_marseille","lat":43.3041,"lon":5.39751,"is_reserved":false,"is_disabled":true,"rental_uris":{"android":"levelo://app?vid=79da2544-1cc6-4479-aa5c-48161bc5839b","ios":"levelo://app?vid=79da2544-1cc6-4479-aa5c-48161bc5839b"},"vehicle_type_id":"4","last_reported":1736586506,"current_range_meters":28000,"station_id":"ce4bh092rcd13ifvqd20","pricing_plan_id":"cebpf4jnsgd1na2vs0mg"},{"bike_id":"8c51b07a-8e07-48bf-b1a9-e9c7292766b1","system_id":"levelo_inurba_marseille","lat":43.25687,"lon":5.41108,"is_reserved":false,"is_disabled":false,"rental_uris":{"android":"levelo://app?vid=8c51b07a-8e07-48bf-b1a9-e9c7292766b1","ios":"levelo://app?vid=8c51b07a-8e07-48bf-b1a9-e9c7292766b1"},"vehicle_type_id":"4","last_reported":1736586506,"current_range_meters":4000,"station_id":"ce4bhkp2rcd13ifvqgd0","pricing_plan_id":"cebpf4jnsgd1na2vs0mg"},{"bike_id":"6d907632-b7a4-409f-98d5-031bae93ab87","system_id":"levelo_inurba_marseille","lat":43.23958,"lon":5.36631,"is_reserved":false,"is_disabled":false,"rental_uris":{"android":"levelo://app?vid=6d907632-b7a4-409f-98d5-031bae93ab87","ios":"levelo://app?vid=6d907632-b7a4-409f-98d5-031bae93ab87"},"vehicle_type_id":"4","last_reported":1736586506,"current_range_meters":37600,"station_id":"ce4bhi12rcd13ifvqfp0","pricing_plan_id":"cebpf4jnsgd1na2vs0mg"},{"bike_id":"88616361-1489-4f66-a775-5cbc817323d9","system_id":"levelo_inurba_marseille","lat":43.29199,"lon":5.35805,"is_reserved":false,"is_disabled":false,"rental_uris":{"android":"levelo://app?vid=88616361-1489-4f66-a775-5cbc817323d9","ios":"levelo://app?vid=88616361-1489-4f66-a775-5cbc817323d9"},"vehicle_type_id":"4","last_reported":1736586506,"current_range_meters":15200,"station_id":"ce4bhb12rcd13ifvqel0","pricing_plan_id":"cebpf4jnsgd1na2vs0mg"},{"bike_id":"eb9b2df2-fdc1-4d66-abed-6bda4748c4f1","system_id":"levelo_inurba_marseille","lat":43.26182,"lon":5.37941,"is_reserved":false,"is_disabled":false,"rental_uris":{"android":"levelo://app?vid=eb9b2df2-fdc1-4d66-abed-6bda4748c4f1","ios":"levelo://app?vid=eb9b2df2-fdc1-4d66-abed-6bda4748c4f1"},"vehicle_type_id":"4","last_reported":1736586506,"current_range_meters":28000,"station_id":"ce4bhjp2rcd13ifvqg90","pricing_plan_id":"cebpf4jnsgd1na2vs0mg"},{"bike_id":"756acf7b-5e79-461a-9a9d-14e00e8d684f","system_id":"levelo_inurba_marseille","lat":43.30447,"lon":5.37928,"is_reserved":false,"is_disabled":true,"rental_uris":{"android":"levelo://app?vid=756acf7b-5e79-461a-9a9d-14e00e8d684f","ios":"levelo://app?vid=756acf7b-5e79-461a-9a9d-14e00e8d684f"},"vehicle_type_id":"4","last_reported":1736586506,"current_range_meters":36000,"station_id":"ce4bgup2rcd13ifvqcn0","pricing_plan_id":"cebpf4jnsgd1na2vs0mg"},{"bike_id":"4e36486e-78ed-45f0-99d4-e2d2e858abb4","system_id":"levelo_inurba_marseille","lat":43.289393,"lon":5.396157,"is_reserved":false,"is_disabled":false,"rental_uris":{"android":"levelo://app?vid=4e36486e-78ed-45f0-99d4-e2d2e858abb4","ios":"levelo://app?vid=4e36486e-78ed-45f0-99d4-e2d2e858abb4"},"vehicle_type_id":"4","last_reported":1736586506,"current_range_meters":39200,"station_id":"ce4bh3h2rcd13ifvqdn0","pricing_plan_id":"cebpf4jnsgd1na2vs0mg"},{"bike_id":"6b764e8c-1a43-46a3-97d7-14881c8e848c","system_id":"levelo_inurba_marseille","lat":43.258199,"lon":5.394358,"is_reserved":false,"is_disabled":false,"rental_uris":{"android":"levelo://app?vid=6b764e8c-1a43-46a3-97d7-14881c8e848c","ios":"levelo://app?vid=6b764e8c-1a43-46a3-97d7-14881c8e848c"},"vehicle_type_id":"4","last_reported":1736586506,"current_range_meters":38800,"station_id":"ce4bhip2rcd13ifvqft0","pricing_plan_id":"cebpf4jnsgd1na2vs0mg"},{"bike_id":"d8327471-e10e-4e1d-a46b-c43156fc0620","system_id":"levelo_inurba_marseille","lat":43.26884,"lon":5.39565,"is_reserved":false,"is_disabled":true,"rental_uris":{"android":"levelo://app?vid=d8327471-e10e-4e1d-a46b-c43156fc0620","ios":"levelo://app?vid=d8327471-e10e-4e1d-a46b-c43156fc0620"},"vehicle_type_id":"4","last_reported":1736586506,"current_range_meters":0,"station_id":"ce4bhh12rcd13ifvqfg0","pricing_plan_id":"cebpf4jnsgd1na2vs0mg"},{"bike_id":"f404313a-b453-4ed2-9cf2-f503539db699","system_id":"levelo_inurba_marseille","lat":43.27965,"lon":5.39986,"is_reserved":false,"is_disabled":true,"rental_uris":{"android":"levelo://app?vid=f404313a-b453-4ed2-9cf2-f503539db699","ios":"levelo://app?vid=f404313a-b453-4ed2-9cf2-f503539db699"},"vehicle_type_id":"4","last_reported":1736586506,"current_range_meters":1200,"station_id":"ce4bho92rcd13ifvqh4g","pricing_plan_id":"cebpf4jnsgd1na2vs0mg"},{"bike_id":"7c95ead1-0411-47ae-af1d-0a79d0113085","system_id":"levelo_inurba_marseille","lat":43.29568,"lon":5.3751,"is_reserved":false,"is_disabled":false,"rental_uris":{"android":"levelo://app?vid=7c95ead1-0411-47ae-af1d-0a79d0113085","ios":"levelo://app?vid=7c95ead1-0411-47ae-af1d-0a79d0113085"},"vehicle_type_id":"4","last_reported":1736586506,"current_range_meters":36400,"station_id":"ce4bgh92rcd13ifvqb50","pricing_plan_id":"cebpf4jnsgd1na2vs0mg"},{"bike_id":"6ea2e48a-1925-4726-a599-c1008d87ed62","system_id":"levelo_inurba_marseille","lat":43.27971,"lon":5.38732,"is_reserved":false,"is_disabled":false,"rental_uris":{"android":"levelo://app?vid=6ea2e48a-1925-4726-a599-c1008d87ed62","ios":"levelo://app?vid=6ea2e48a-1925-4726-a599-c1008d87ed62"},"vehicle_type_id":"4","last_reported":1736586506,"current_range_meters":38800,"station_id":"ce4bhg12rcd13ifvqf80","pricing_plan_id":"cebpf4jnsgd1na2vs0mg"},{"bike_id":"b8a70a4d-0bda-4b8b-9e34-99ec66f6e055","system_id":"levelo_inurba_marseille","lat":43.27948,"lon":5.38692,"is_reserved":false,"is_disabled":true,"rental_uris":{"android":"levelo://app?vid=b8a70a4d-0bda-4b8b-9e34-99ec66f6e055","ios":"levelo://app?vid=b8a70a4d-0bda-4b8b-9e34-99ec66f6e055"},"vehicle_type_id":"4","last_reported":1736586506,"current_range_meters":17200,"station_id":"","pricing_plan_id":"cebpf4jnsgd1na2vs0mg"},{"bike_id":"205b7d5c-f249-493e-95ba-aef9f33766e7","system_id":"levelo_inurba_marseille","lat":43.24068,"lon":5.37758,"is_reserved":false,"is_disabled":false,"rental_uris":{"android":"levelo://app?vid=205b7d5c-f249-493e-95ba-aef9f33766e7","ios":"levelo://app?vid=205b7d5c-f249-493e-95ba-aef9f33766e7"},"vehicle_type_id":"4","last_reported":1736586506,"current_range_meters":32400,"station_id":"ce4bhnp2rcd13ifvqgvg","pricing_plan_id":"cebpf4jnsgd1na2vs0mg"},{"bike_id":"33c7b867-f1b9-4199-ae1c-f33dfdb8ef10","system_id":"levelo_inurba_marseille","lat":43.2679,"lon":5.39415,"is_reserved":false,"is_disabled":false,"rental_uris":{"android":"levelo://app?vid=33c7b867-f1b9-4199-ae1c-f33dfdb8ef10","ios":"levelo://app?vid=33c7b867-f1b9-4199-ae1c-f33dfdb8ef10"},"vehicle_type_id":"4","last_reported":1736586506,"current_range_meters":20800,"station_id":"ce4bhh12rcd13ifvqfg0","pricing_plan_id":"cebpf4jnsgd1na2vs0mg"},{"bike_id":"30bcc326-49dc-446a-bdd3-9278fce8a278","system_id":"levelo_inurba_marseille","lat":43.29283,"lon":5.40126,"is_reserved":false,"is_disabled":false,"rental_uris":{"android":"levelo://app?vid=30bcc326-49dc-446a-bdd3-9278fce8a278","ios":"levelo://app?vid=30bcc326-49dc-446a-bdd3-9278fce8a278"},"vehicle_type_id":"4","last_reported":1736586506,"current_range_meters":13600,"station_id":"ce4bh312rcd13ifvqdk0","pricing_plan_id":"cebpf4jnsgd1na2vs0mg"},{"bike_id":"426ee80e-06b0-4d0f-86a5-ea8ad64aaa11","system_id":"levelo_inurba_marseille","lat":43.2892,"lon":5.43781,"is_reserved":false,"is_disabled":false,"rental_uris":{"android":"levelo://app?vid=426ee80e-06b0-4d0f-86a5-ea8ad64aaa11","ios":"levelo://app?vid=426ee80e-06b0-4d0f-86a5-ea8ad64aaa11"},"vehicle_type_id":"4","last_reported":1736586506,"current_range_meters":18000,"station_id":"","pricing_plan_id":"cebpf4jnsgd1na2vs0mg"},{"bike_id":"767a67d3-2f31-497d-917a-227f81ac09ca","system_id":"levelo_inurba_marseille","lat":43.29789,"lon":5.38118,"is_reserved":false,"is_disabled":false,"rental_uris":{"android":"levelo://app?vid=767a67d3-2f31-497d-917a-227f81ac09ca","ios":"levelo://app?vid=767a67d3-2f31-497d-917a-227f81ac09ca"},"vehicle_type_id":"4","last_reported":1736586506,"current_range_meters":29600,"station_id":"ce4bgip2rcd13ifvqbb0","pricing_plan_id":"cebpf4jnsgd1na2vs0mg"},{"bike_id":"8bb753a9-b27f-4c52-8148-9807fddfd15b","system_id":"levelo_inurba_marseille","lat":43.29566,"lon":5.39986,"is_reserved":false,"is_disabled":false,"rental_uris":{"android":"levelo://app?vid=8bb753a9-b27f-4c52-8148-9807fddfd15b","ios":"levelo://app?vid=8bb753a9-b27f-4c52-8148-9807fddfd15b"},"vehicle_type_id":"4","last_reported":1736586506,"current_range_meters":39200,"station_id":"ce4bh312rcd13ifvqdj0","pricing_plan_id":"cebpf4jnsgd1na2vs0mg"},{"bike_id":"2cef4c54-8209-4051-ae41-434d2887a22a","system_id":"levelo_inurba_marseille","lat":43.30161,"lon":5.37414,"is_reserved":false,"is_disabled":false,"rental_uris":{"android":"levelo://app?vid=2cef4c54-8209-4051-ae41-434d2887a22a","ios":"levelo://app?vid=2cef4c54-8209-4051-ae41-434d2887a22a"},"vehicle_type_id":"4","last_reported":1736586506,"current_range_meters":38000,"station_id":"ce4bgs92rcd13ifvqcc0","pricing_plan_id":"cebpf4jnsgd1na2vs0mg"},{"bike_id":"cd5d2c77-56dc-4c6c-858c-3d8eb2773dc9","system_id":"levelo_inurba_marseille","lat":43.30326,"lon":5.40439,"is_reserved":false,"is_disabled":false,"rental_uris":{"android":"levelo://app?vid=cd5d2c77-56dc-4c6c-858c-3d8eb2773dc9","ios":"levelo://app?vid=cd5d2c77-56dc-4c6c-858c-3d8eb2773dc9"},"vehicle_type_id":"4","last_reported":1736586506,"current_range_meters":26800,"station_id":"ce4bh012rcd13ifvqd10","pricing_plan_id":"cebpf4jnsgd1na2vs0mg"},{"bike_id":"b27cc99f-6b66-4ab0-833d-ef1cae10794f","system_id":"levelo_inurba_marseille","lat":43.25849,"lon":5.3995,"is_reserved":false,"is_disabled":false,"rental_uris":{"android":"levelo://app?vid=b27cc99f-6b66-4ab0-833d-ef1cae10794f","ios":"levelo://app?vid=b27cc99f-6b66-4ab0-833d-ef1cae10794f"},"vehicle_type_id":"4","last_reported":1736586506,"current_range_meters":38800,"station_id":"ce4bhl92rcd13ifvqghg","pricing_plan_id":"cebpf4jnsgd1na2vs0mg"},{"bike_id":"01c631e3-24a3-4940-b9c9-024c62799f1d","system_id":"levelo_inurba_marseille","lat":43.30434,"lon":5.38899,"is_reserved":false,"is_disabled":false,"rental_uris":{"android":"levelo://app?vid=01c631e3-24a3-4940-b9c9-024c62799f1d","ios":"levelo://app?vid=01c631e3-24a3-4940-b9c9-024c62799f1d"},"vehicle_type_id":"4","last_reported":1736586506,"current_range_meters":29600,"station_id":"ce4bgk12rcd13ifvqbi0","pricing_plan_id":"cebpf4jnsgd1na2vs0mg"},{"bike_id":"64e22768-79ef-4593-847f-a621c4893945","system_id":"levelo_inurba_marseille","lat":43.31518,"lon":5.38038,"is_reserved":false,"is_disabled":false,"rental_uris":{"android":"levelo://app?vid=64e22768-79ef-4593-847f-a621c4893945","ios":"levelo://app?vid=64e22768-79ef-4593-847f-a621c4893945"},"vehicle_type_id":"4","last_reported":1736586506,"current_range_meters":38800,"station_id":"ce4bhsp2rcd13ifvqi50","pricing_plan_id":"cebpf4jnsgd1na2vs0mg"},{"bike_id":"f4dbc556-58b0-4dfd-be99-18a51c032520","system_id":"levelo_inurba_marseille","lat":43.24172,"lon":5.39721,"is_reserved":false,"is_disabled":true,"rental_uris":{"android":"levelo://app?vid=f4dbc556-58b0-4dfd-be99-18a51c032520","ios":"levelo://app?vid=f4dbc556-58b0-4dfd-be99-18a51c032520"},"vehicle_type_id":"4","last_reported":1736586506,"current_range_meters":38400,"station_id":"ce4bhn12rcd13ifvqgpg","pricing_plan_id":"cebpf4jnsgd1na2vs0mg"},{"bike_id":"110be5f4-57da-4c52-956c-2a570fcc323e","system_id":"levelo_inurba_marseille","lat":43.30101,"lon":5.39074,"is_reserved":false,"is_disabled":false,"rental_uris":{"android":"levelo://app?vid=110be5f4-57da-4c52-956c-2a570fcc323e","ios":"levelo://app?vid=110be5f4-57da-4c52-956c-2a570fcc323e"},"vehicle_type_id":"4","last_reported":1736586506,"current_range_meters":39200,"station_id":"ce4bh192rcd13ifvqdb0","pricing_plan_id":"cebpf4jnsgd1na2vs0mg"},{"bike_id":"d2916d76-3bbb-46d8-809e-46d373125475","system_id":"levelo_inurba_marseille","lat":43.284225,"lon":5.34997,"is_reserved":false,"is_disabled":false,"rental_uris":{"android":"levelo://app?vid=d2916d76-3bbb-46d8-809e-46d373125475","ios":"levelo://app?vid=d2916d76-3bbb-46d8-809e-46d373125475"},"vehicle_type_id":"4","last_reported":1736586506,"current_range_meters":38800,"station_id":"ce4bhbh2rcd13ifvqepg","pricing_plan_id":"cebpf4jnsgd1na2vs0mg"},{"bike_id":"a33b957c-7199-4899-bc6a-186fc7413efd","system_id":"levelo_inurba_marseille","lat":43.27066,"lon":5.40256,"is_reserved":false,"is_disabled":false,"rental_uris":{"android":"levelo://app?vid=a33b957c-7199-4899-bc6a-186fc7413efd","ios":"levelo://app?vid=a33b957c-7199-4899-bc6a-186fc7413efd"},"vehicle_type_id":"4","last_reported":1736586506,"current_range_meters":26800,"station_id":"ce4bhk92rcd13ifvqgc0","pricing_plan_id":"cebpf4jnsgd1na2vs0mg"},{"bike_id":"f118e424-6b03-4824-828f-9ebd6aab85c0","system_id":"levelo_inurba_marseille","lat":43.30161,"lon":5.38088,"is_reserved":false,"is_disabled":false,"rental_uris":{"android":"levelo://app?vid=f118e424-6b03-4824-828f-9ebd6aab85c0","ios":"levelo://app?vid=f118e424-6b03-4824-828f-9ebd6aab85c0"},"vehicle_type_id":"4","last_reported":1736586506,"current_range_meters":38800,"station_id":"ce4bgjp2rcd13ifvqbh0","pricing_plan_id":"cebpf4jnsgd1na2vs0mg"},{"bike_id":"6d025489-7802-4410-a414-f6512b91ef4d","system_id":"levelo_inurba_marseille","lat":43.2678,"lon":5.39451,"is_reserved":false,"is_disabled":false,"rental_uris":{"android":"levelo://app?vid=6d025489-7802-4410-a414-f6512b91ef4d","ios":"levelo://app?vid=6d025489-7802-4410-a414-f6512b91ef4d"},"vehicle_type_id":"4","last_reported":1736586506,"current_range_meters":38000,"station_id":"ce4bhh12rcd13ifvqfg0","pricing_plan_id":"cebpf4jnsgd1na2vs0mg"},{"bike_id":"c288978b-67c0-4f36-9730-1b779f239c88","system_id":"levelo_inurba_marseille","lat":43.31357,"lon":5.36723,"is_reserved":false,"is_disabled":false,"rental_uris":{"android":"levelo://app?vid=c288978b-67c0-4f36-9730-1b779f239c88","ios":"levelo://app?vid=c288978b-67c0-4f36-9730-1b779f239c88"},"vehicle_type_id":"4","last_reported":1736586506,"current_range_meters":38800,"station_id":"ce4bgr92rcd13ifvqc6g","pricing_plan_id":"cebpf4jnsgd1na2vs0mg"},{"bike_id":"80609ff8-7d7d-4ae2-9159-aea837c7c52b","system_id":"levelo_inurba_marseille","lat":43.23961,"lon":5.36632,"is_reserved":false,"is_disabled":false,"rental_uris":{"android":"levelo://app?vid=80609ff8-7d7d-4ae2-9159-aea837c7c52b","ios":"levelo://app?vid=80609ff8-7d7d-4ae2-9159-aea837c7c52b"},"vehicle_type_id":"4","last_reported":1736586506,"current_range_meters":11200,"station_id":"ce4bhi12rcd13ifvqfp0","pricing_plan_id":"cebpf4jnsgd1na2vs0mg"},{"bike_id":"a54e3103-dd05-4edc-b802-d77e205514d2","system_id":"levelo_inurba_marseille","lat":43.25487,"lon":5.37677,"is_reserved":false,"is_disabled":false,"rental_uris":{"android":"levelo://app?vid=a54e3103-dd05-4edc-b802-d77e205514d2","ios":"levelo://app?vid=a54e3103-dd05-4edc-b802-d77e205514d2"},"vehicle_type_id":"4","last_reported":1736586506,"current_range_meters":26000,"station_id":"ce4bhh12rcd13ifvqff0","pricing_plan_id":"cebpf4jnsgd1na2vs0mg"},{"bike_id":"b9c29697-3fdb-4aa8-a91b-22e7a560929f","system_id":"levelo_inurba_marseille","lat":43.31535,"lon":5.38027,"is_reserved":false,"is_disabled":false,"rental_uris":{"android":"levelo://app?vid=b9c29697-3fdb-4aa8-a91b-22e7a560929f","ios":"levelo://app?vid=b9c29697-3fdb-4aa8-a91b-22e7a560929f"},"vehicle_type_id":"4","last_reported":1736586506,"current_range_meters":28000,"station_id":"ce4bhsp2rcd13ifvqi50","pricing_plan_id":"cebpf4jnsgd1na2vs0mg"},{"bike_id":"ff26ca3b-66d2-47c9-bf97-1371a28b591b","system_id":"levelo_inurba_marseille","lat":43.28359,"lon":5.38623,"is_reserved":false,"is_disabled":false,"rental_uris":{"android":"levelo://app?vid=ff26ca3b-66d2-47c9-bf97-1371a28b591b","ios":"levelo://app?vid=ff26ca3b-66d2-47c9-bf97-1371a28b591b"},"vehicle_type_id":"4","last_reported":1736586506,"current_range_meters":38800,"station_id":"ce4bh492rcd13ifvqdvg","pricing_plan_id":"cebpf4jnsgd1na2vs0mg"},{"bike_id":"5edb9b21-4917-4f45-9961-6635931db922","system_id":"levelo_inurba_marseille","lat":43.22932,"lon":5.35383,"is_reserved":false,"is_disabled":false,"rental_uris":{"android":"levelo://app?vid=5edb9b21-4917-4f45-9961-6635931db922","ios":"levelo://app?vid=5edb9b21-4917-4f45-9961-6635931db922"},"vehicle_type_id":"4","last_reported":1736586506,"current_range_meters":38800,"station_id":"cpo3532slgdg3j2ikp40","pricing_plan_id":"cebpf4jnsgd1na2vs0mg"},{"bike_id":"acc57c46-0c06-4767-b429-edb19e5dc1a2","system_id":"levelo_inurba_marseille","lat":43.30097,"lon":5.39895,"is_reserved":false,"is_disabled":true,"rental_uris":{"android":"levelo://app?vid=acc57c46-0c06-4767-b429-edb19e5dc1a2","ios":"levelo://app?vid=acc57c46-0c06-4767-b429-edb19e5dc1a2"},"vehicle_type_id":"4","last_reported":1736586506,"current_range_meters":28000,"station_id":"ce4bh0h2rcd13ifvqd40","pricing_plan_id":"cebpf4jnsgd1na2vs0mg"},{"bike_id":"816f16d8-6ff0-4785-861d-d7f867697579","system_id":"levelo_inurba_marseille","lat":43.3153,"lon":5.38029,"is_reserved":false,"is_disabled":false,"rental_uris":{"android":"levelo://app?vid=816f16d8-6ff0-4785-861d-d7f867697579","ios":"levelo://app?vid=816f16d8-6ff0-4785-861d-d7f867697579"},"vehicle_type_id":"4","last_reported":1736586506,"current_range_meters":38800,"station_id":"ce4bhsp2rcd13ifvqi50","pricing_plan_id":"cebpf4jnsgd1na2vs0mg"},{"bike_id":"7f297130-5859-40f6-8adb-5ad46eabf70c","system_id":"levelo_inurba_marseille","lat":43.3086,"lon":5.39638,"is_reserved":false,"is_disabled":false,"rental_uris":{"android":"levelo://app?vid=7f297130-5859-40f6-8adb-5ad46eabf70c","ios":"levelo://app?vid=7f297130-5859-40f6-8adb-5ad46eabf70c"},"vehicle_type_id":"4","last_reported":1736586506,"current_range_meters":26800,"station_id":"","pricing_plan_id":"cebpf4jnsgd1na2vs0mg"},{"bike_id":"ccb1b754-1c55-42c8-a839-f81bb658ca10","system_id":"levelo_inurba_marseille","lat":43.31491,"lon":5.373,"is_reserved":false,"is_disabled":false,"rental_uris":{"android":"levelo://app?vid=ccb1b754-1c55-42c8-a839-f81bb658ca10","ios":"levelo://app?vid=ccb1b754-1c55-42c8-a839-f81bb658ca10"},"vehicle_type_id":"4","last_reported":1736586506,"current_range_meters":38000,"station_id":"ce4bgt12rcd13ifvqcd0","pricing_plan_id":"cebpf4jnsgd1na2vs0mg"},{"bike_id":"9174c272-cc8a-4a21-b3da-b387c4b1cd08","system_id":"levelo_inurba_marseille","lat":43.2454,"lon":5.39522,"is_reserved":false,"is_disabled":true,"rental_uris":{"android":"levelo://app?vid=9174c272-cc8a-4a21-b3da-b387c4b1cd08","ios":"levelo://app?vid=9174c272-cc8a-4a21-b3da-b387c4b1cd08"},"vehicle_type_id":"4","last_reported":1736586506,"current_range_meters":0,"station_id":"ce4bhlp2rcd13ifvqgjg","pricing_plan_id":"cebpf4jnsgd1na2vs0mg"},{"bike_id":"7b9cf42a-0b63-4429-ba11-ff3acd526613","system_id":"levelo_inurba_marseille","lat":43.30159,"lon":5.38086,"is_reserved":false,"is_disabled":false,"rental_uris":{"android":"levelo://app?vid=7b9cf42a-0b63-4429-ba11-ff3acd526613","ios":"levelo://app?vid=7b9cf42a-0b63-4429-ba11-ff3acd526613"},"vehicle_type_id":"4","last_reported":1736586506,"current_range_meters":38000,"station_id":"ce4bgjp2rcd13ifvqbh0","pricing_plan_id":"cebpf4jnsgd1na2vs0mg"},{"bike_id":"daf9f0f1-11ce-4d63-874a-04b7e02049f8","system_id":"levelo_inurba_marseille","lat":43.2848,"lon":5.38561,"is_reserved":false,"is_disabled":false,"rental_uris":{"android":"levelo://app?vid=daf9f0f1-11ce-4d63-874a-04b7e02049f8","ios":"levelo://app?vid=daf9f0f1-11ce-4d63-874a-04b7e02049f8"},"vehicle_type_id":"4","last_reported":1736586506,"current_range_meters":38000,"station_id":"ce4bh8p2rcd13ifvqeb0","pricing_plan_id":"cebpf4jnsgd1na2vs0mg"},{"bike_id":"3c5361b0-101e-426a-a586-ceb3d956d049","system_id":"levelo_inurba_marseille","lat":43.29565,"lon":5.37519,"is_reserved":false,"is_disabled":false,"rental_uris":{"android":"levelo://app?vid=3c5361b0-101e-426a-a586-ceb3d956d049","ios":"levelo://app?vid=3c5361b0-101e-426a-a586-ceb3d956d049"},"vehicle_type_id":"4","last_reported":1736586506,"current_range_meters":38800,"station_id":"ce4bgh92rcd13ifvqb50","pricing_plan_id":"cebpf4jnsgd1na2vs0mg"},{"bike_id":"cc81c8eb-c607-42db-ae74-942a3fa5b173","system_id":"levelo_inurba_marseille","lat":43.301,"lon":5.39089,"is_reserved":false,"is_disabled":false,"rental_uris":{"android":"levelo://app?vid=cc81c8eb-c607-42db-ae74-942a3fa5b173","ios":"levelo://app?vid=cc81c8eb-c607-42db-ae74-942a3fa5b173"},"vehicle_type_id":"4","last_reported":1736586506,"current_range_meters":31200,"station_id":"ce4bh192rcd13ifvqdb0","pricing_plan_id":"cebpf4jnsgd1na2vs0mg"},{"bike_id":"534c6702-dfa1-401b-970b-2ac69bdd882a","system_id":"levelo_inurba_marseille","lat":43.24082,"lon":5.37767,"is_reserved":false,"is_disabled":false,"rental_uris":{"android":"levelo://app?vid=534c6702-dfa1-401b-970b-2ac69bdd882a","ios":"levelo://app?vid=534c6702-dfa1-401b-970b-2ac69bdd882a"},"vehicle_type_id":"4","last_reported":1736586506,"current_range_meters":29600,"station_id":"ce4bhnp2rcd13ifvqgvg","pricing_plan_id":"cebpf4jnsgd1na2vs0mg"},{"bike_id":"066fc890-cce1-4b7e-a941-320c51e991c9","system_id":"levelo_inurba_marseille","lat":43.23976,"lon":5.36631,"is_reserved":false,"is_disabled":false,"rental_uris":{"android":"levelo://app?vid=066fc890-cce1-4b7e-a941-320c51e991c9","ios":"levelo://app?vid=066fc890-cce1-4b7e-a941-320c51e991c9"},"vehicle_type_id":"4","last_reported":1736586506,"current_range_meters":23200,"station_id":"ce4bhi12rcd13ifvqfp0","pricing_plan_id":"cebpf4jnsgd1na2vs0mg"},{"bike_id":"5f50eb76-c20c-4230-926b-27928bb7844b","system_id":"levelo_inurba_marseille","lat":43.29181,"lon":5.35803,"is_reserved":false,"is_disabled":false,"rental_uris":{"android":"levelo://app?vid=5f50eb76-c20c-4230-926b-27928bb7844b","ios":"levelo://app?vid=5f50eb76-c20c-4230-926b-27928bb7844b"},"vehicle_type_id":"4","last_reported":1736586506,"current_range_meters":34000,"station_id":"ce4bhb12rcd13ifvqel0","pricing_plan_id":"cebpf4jnsgd1na2vs0mg"},{"bike_id":"b1cd05bd-cc6d-452b-8b8c-f24ee7fb627f","system_id":"levelo_inurba_marseille","lat":43.25821,"lon":5.39422,"is_reserved":false,"is_disabled":false,"rental_uris":{"android":"levelo://app?vid=b1cd05bd-cc6d-452b-8b8c-f24ee7fb627f","ios":"levelo://app?vid=b1cd05bd-cc6d-452b-8b8c-f24ee7fb627f"},"vehicle_type_id":"4","last_reported":1736586506,"current_range_meters":32800,"station_id":"ce4bhip2rcd13ifvqft0","pricing_plan_id":"cebpf4jnsgd1na2vs0mg"},{"bike_id":"920798f7-7e0f-4faf-94c5-26499c6ea003","system_id":"levelo_inurba_marseille","lat":43.29806,"lon":5.40417,"is_reserved":false,"is_disabled":false,"rental_uris":{"android":"levelo://app?vid=920798f7-7e0f-4faf-94c5-26499c6ea003","ios":"levelo://app?vid=920798f7-7e0f-4faf-94c5-26499c6ea003"},"vehicle_type_id":"4","last_reported":1736586506,"current_range_meters":38000,"station_id":"ce4bh112rcd13ifvqd90","pricing_plan_id":"cebpf4jnsgd1na2vs0mg"},{"bike_id":"a119acd4-84e7-400b-8d96-80ee09f8be7c","system_id":"levelo_inurba_marseille","lat":43.24675,"lon":5.38144,"is_reserved":false,"is_disabled":false,"rental_uris":{"android":"levelo://app?vid=a119acd4-84e7-400b-8d96-80ee09f8be7c","ios":"levelo://app?vid=a119acd4-84e7-400b-8d96-80ee09f8be7c"},"vehicle_type_id":"4","last_reported":1736586506,"current_range_meters":6400,"station_id":"ce4bhih2rcd13ifvqfr0","pricing_plan_id":"cebpf4jnsgd1na2vs0mg"},{"bike_id":"4cf73c8d-2a94-4329-a1f3-a97d40a5f3c5","system_id":"levelo_inurba_marseille","lat":43.3093,"lon":5.40135,"is_reserved":false,"is_disabled":false,"rental_uris":{"android":"levelo://app?vid=4cf73c8d-2a94-4329-a1f3-a97d40a5f3c5","ios":"levelo://app?vid=4cf73c8d-2a94-4329-a1f3-a97d40a5f3c5"},"vehicle_type_id":"4","last_reported":1736586506,"current_range_meters":38400,"station_id":"ce4bgvp2rcd13ifvqct0","pricing_plan_id":"cebpf4jnsgd1na2vs0mg"},{"bike_id":"254f0832-9bda-4719-9518-861ea8c7fea1","system_id":"levelo_inurba_marseille","lat":43.29978,"lon":5.37177,"is_reserved":false,"is_disabled":false,"rental_uris":{"android":"levelo://app?vid=254f0832-9bda-4719-9518-861ea8c7fea1","ios":"levelo://app?vid=254f0832-9bda-4719-9518-861ea8c7fea1"},"vehicle_type_id":"4","last_reported":1736586506,"current_range_meters":39200,"station_id":"ce4bgr92rcd13ifvqc7g","pricing_plan_id":"cebpf4jnsgd1na2vs0mg"},{"bike_id":"f7248333-c3ea-4047-84a5-689947d7b51f","system_id":"levelo_inurba_marseille","lat":43.29941,"lon":5.41353,"is_reserved":false,"is_disabled":false,"rental_uris":{"android":"levelo://app?vid=f7248333-c3ea-4047-84a5-689947d7b51f","ios":"levelo://app?vid=f7248333-c3ea-4047-84a5-689947d7b51f"},"vehicle_type_id":"4","last_reported":1736586506,"current_range_meters":38800,"station_id":"ce4bhp12rcd13ifvqh9g","pricing_plan_id":"cebpf4jnsgd1na2vs0mg"},{"bike_id":"07976425-b8b8-41af-ba52-03dfb92537fe","system_id":"levelo_inurba_marseille","lat":43.2835,"lon":5.38103,"is_reserved":false,"is_disabled":false,"rental_uris":{"android":"levelo://app?vid=07976425-b8b8-41af-ba52-03dfb92537fe","ios":"levelo://app?vid=07976425-b8b8-41af-ba52-03dfb92537fe"},"vehicle_type_id":"4","last_reported":1736586506,"current_range_meters":38800,"station_id":"ce4bh412rcd13ifvqdr0","pricing_plan_id":"cebpf4jnsgd1na2vs0mg"},{"bike_id":"2c9dd628-c688-4c37-b6d2-d665ced3ed71","system_id":"levelo_inurba_marseille","lat":43.2501,"lon":5.38917,"is_reserved":false,"is_disabled":false,"rental_uris":{"android":"levelo://app?vid=2c9dd628-c688-4c37-b6d2-d665ced3ed71","ios":"levelo://app?vid=2c9dd628-c688-4c37-b6d2-d665ced3ed71"},"vehicle_type_id":"4","last_reported":1736586506,"current_range_meters":38800,"station_id":"ce4bhgp2rcd13ifvqfd0","pricing_plan_id":"cebpf4jnsgd1na2vs0mg"},{"bike_id":"471bf253-796f-4272-a47b-069ce2ba791e","system_id":"levelo_inurba_marseille","lat":43.30091,"lon":5.39086,"is_reserved":false,"is_disabled":false,"rental_uris":{"android":"levelo://app?vid=471bf253-796f-4272-a47b-069ce2ba791e","ios":"levelo://app?vid=471bf253-796f-4272-a47b-069ce2ba791e"},"vehicle_type_id":"4","last_reported":1736586506,"current_range_meters":38800,"station_id":"ce4bh192rcd13ifvqdb0","pricing_plan_id":"cebpf4jnsgd1na2vs0mg"},{"bike_id":"85077f2d-96d6-4799-acc0-68a7354da011","system_id":"levelo_inurba_marseille","lat":43.25492,"lon":5.37661,"is_reserved":false,"is_disabled":false,"rental_uris":{"android":"levelo://app?vid=85077f2d-96d6-4799-acc0-68a7354da011","ios":"levelo://app?vid=85077f2d-96d6-4799-acc0-68a7354da011"},"vehicle_type_id":"4","last_reported":1736586506,"current_range_meters":33600,"station_id":"ce4bhh12rcd13ifvqff0","pricing_plan_id":"cebpf4jnsgd1na2vs0mg"},{"bike_id":"f7f49bc2-5a70-438d-ab6f-26cbacc54252","system_id":"levelo_inurba_marseille","lat":43.29623,"lon":5.37172,"is_reserved":false,"is_disabled":false,"rental_uris":{"android":"levelo://app?vid=f7f49bc2-5a70-438d-ab6f-26cbacc54252","ios":"levelo://app?vid=f7f49bc2-5a70-438d-ab6f-26cbacc54252"},"vehicle_type_id":"4","last_reported":1736586506,"current_range_meters":35200,"station_id":"ce4bgnh2rcd13ifvqc0g","pricing_plan_id":"cebpf4jnsgd1na2vs0mg"},{"bike_id":"6f5d218f-db1a-4b96-bcf2-b235eea71c2f","system_id":"levelo_inurba_marseille","lat":43.25503,"lon":5.37692,"is_reserved":false,"is_disabled":false,"rental_uris":{"android":"levelo://app?vid=6f5d218f-db1a-4b96-bcf2-b235eea71c2f","ios":"levelo://app?vid=6f5d218f-db1a-4b96-bcf2-b235eea71c2f"},"vehicle_type_id":"4","last_reported":1736586506,"current_range_meters":5600,"station_id":"ce4bhh12rcd13ifvqff0","pricing_plan_id":"cebpf4jnsgd1na2vs0mg"},{"bike_id":"bc72b692-fa80-4572-afe8-0e7949eae868","system_id":"levelo_inurba_marseille","lat":43.33739,"lon":5.37436,"is_reserved":false,"is_disabled":false,"rental_uris":{"android":"levelo://app?vid=bc72b692-fa80-4572-afe8-0e7949eae868","ios":"levelo://app?vid=bc72b692-fa80-4572-afe8-0e7949eae868"},"vehicle_type_id":"4","last_reported":1736586506,"current_range_meters":23200,"station_id":"","pricing_plan_id":"cebpf4jnsgd1na2vs0mg"},{"bike_id":"c71cf0d0-c0a2-4a1f-9fb8-82f5043a6871","system_id":"levelo_inurba_marseille","lat":43.29622,"lon":5.37165,"is_reserved":false,"is_disabled":false,"rental_uris":{"android":"levelo://app?vid=c71cf0d0-c0a2-4a1f-9fb8-82f5043a6871","ios":"levelo://app?vid=c71cf0d0-c0a2-4a1f-9fb8-82f5043a6871"},"vehicle_type_id":"4","last_reported":1736586506,"current_range_meters":24000,"station_id":"ce4bgnh2rcd13ifvqc0g","pricing_plan_id":"cebpf4jnsgd1na2vs0mg"},{"bike_id":"403b6456-c595-432f-9fb5-fe207e40ff7b","system_id":"levelo_inurba_marseille","lat":43.27182,"lon":5.40994,"is_reserved":false,"is_disabled":false,"rental_uris":{"android":"levelo://app?vid=403b6456-c595-432f-9fb5-fe207e40ff7b","ios":"levelo://app?vid=403b6456-c595-432f-9fb5-fe207e40ff7b"},"vehicle_type_id":"4","last_reported":1736586506,"current_range_meters":38800,"station_id":"ce4bhl12rcd13ifvqgf0","pricing_plan_id":"cebpf4jnsgd1na2vs0mg"},{"bike_id":"8f56bcde-625b-440f-89c2-2d0acdf5f224","system_id":"levelo_inurba_marseille","lat":43.29842,"lon":5.36268,"is_reserved":false,"is_disabled":false,"rental_uris":{"android":"levelo://app?vid=8f56bcde-625b-440f-89c2-2d0acdf5f224","ios":"levelo://app?vid=8f56bcde-625b-440f-89c2-2d0acdf5f224"},"vehicle_type_id":"4","last_reported":1736586506,"current_range_meters":24400,"station_id":"ce4bgpp2rcd13ifvqc3g","pricing_plan_id":"cebpf4jnsgd1na2vs0mg"},{"bike_id":"cdd589a6-cc5d-48f2-9993-8953777bdc8d","system_id":"levelo_inurba_marseille","lat":43.2922,"lon":5.36078,"is_reserved":false,"is_disabled":false,"rental_uris":{"android":"levelo://app?vid=cdd589a6-cc5d-48f2-9993-8953777bdc8d","ios":"levelo://app?vid=cdd589a6-cc5d-48f2-9993-8953777bdc8d"},"vehicle_type_id":"4","last_reported":1736586506,"current_range_meters":33600,"station_id":"ce4bhbh2rcd13ifvqeqg","pricing_plan_id":"cebpf4jnsgd1na2vs0mg"},{"bike_id":"7e9a745e-c82d-4677-a3f0-c081269f42e9","system_id":"levelo_inurba_marseille","lat":43.29002,"lon":5.3561,"is_reserved":false,"is_disabled":true,"rental_uris":{"android":"levelo://app?vid=7e9a745e-c82d-4677-a3f0-c081269f42e9","ios":"levelo://app?vid=7e9a745e-c82d-4677-a3f0-c081269f42e9"},"vehicle_type_id":"4","last_reported":1736586506,"current_range_meters":27600,"station_id":"ce4bhb92rcd13ifvqen0","pricing_plan_id":"cebpf4jnsgd1na2vs0mg"},{"bike_id":"c977511d-6e29-434c-bf37-ffa630521630","system_id":"levelo_inurba_marseille","lat":43.29045,"lon":5.39992,"is_reserved":false,"is_disabled":false,"rental_uris":{"android":"levelo://app?vid=c977511d-6e29-434c-bf37-ffa630521630","ios":"levelo://app?vid=c977511d-6e29-434c-bf37-ffa630521630"},"vehicle_type_id":"4","last_reported":1736586506,"current_range_meters":32800,"station_id":"ce4bh392rcd13ifvqdm0","pricing_plan_id":"cebpf4jnsgd1na2vs0mg"},{"bike_id":"e28483d1-4b50-47d3-8f68-bbbc48a67024","system_id":"levelo_inurba_marseille","lat":43.2906,"lon":5.37156,"is_reserved":false,"is_disabled":true,"rental_uris":{"android":"levelo://app?vid=e28483d1-4b50-47d3-8f68-bbbc48a67024","ios":"levelo://app?vid=e28483d1-4b50-47d3-8f68-bbbc48a67024"},"vehicle_type_id":"4","last_reported":1736586506,"current_range_meters":28800,"station_id":"ce4bh5p2rcd13ifvqe4g","pricing_plan_id":"cebpf4jnsgd1na2vs0mg"},{"bike_id":"1d4a8f95-f17f-4c5f-8510-b75a9f17f9a0","system_id":"levelo_inurba_marseille","lat":43.31367,"lon":5.38503,"is_reserved":false,"is_disabled":false,"rental_uris":{"android":"levelo://app?vid=1d4a8f95-f17f-4c5f-8510-b75a9f17f9a0","ios":"levelo://app?vid=1d4a8f95-f17f-4c5f-8510-b75a9f17f9a0"},"vehicle_type_id":"4","last_reported":1736586506,"current_range_meters":24800,"station_id":"ce4bgt92rcd13ifvqcf0","pricing_plan_id":"cebpf4jnsgd1na2vs0mg"},{"bike_id":"c32c43a6-d2d5-4532-a3c2-ee08d2590d0f","system_id":"levelo_inurba_marseille","lat":43.26679,"lon":5.38275,"is_reserved":false,"is_disabled":false,"rental_uris":{"android":"levelo://app?vid=c32c43a6-d2d5-4532-a3c2-ee08d2590d0f","ios":"levelo://app?vid=c32c43a6-d2d5-4532-a3c2-ee08d2590d0f"},"vehicle_type_id":"4","last_reported":1736586506,"current_range_meters":22800,"station_id":"ce4bhg92rcd13ifvqf90","pricing_plan_id":"cebpf4jnsgd1na2vs0mg"},{"bike_id":"ea85eaf0-fde0-43c4-b882-10e3bd598be8","system_id":"levelo_inurba_marseille","lat":43.25099,"lon":5.40328,"is_reserved":false,"is_disabled":true,"rental_uris":{"android":"levelo://app?vid=ea85eaf0-fde0-43c4-b882-10e3bd598be8","ios":"levelo://app?vid=ea85eaf0-fde0-43c4-b882-10e3bd598be8"},"vehicle_type_id":"4","last_reported":1736586506,"current_range_meters":6400,"station_id":"ce4bhlh2rcd13ifvqgig","pricing_plan_id":"cebpf4jnsgd1na2vs0mg"},{"bike_id":"bc2ecfb6-7911-4f67-9761-2fa9eb95f393","system_id":"levelo_inurba_marseille","lat":43.29765,"lon":5.37632,"is_reserved":false,"is_disabled":false,"rental_uris":{"android":"levelo://app?vid=bc2ecfb6-7911-4f67-9761-2fa9eb95f393","ios":"levelo://app?vid=bc2ecfb6-7911-4f67-9761-2fa9eb95f393"},"vehicle_type_id":"4","last_reported":1736586506,"current_range_meters":37600,"station_id":"","pricing_plan_id":"cebpf4jnsgd1na2vs0mg"},{"bike_id":"7a0a8a69-615c-43f3-a001-073b74f4a57b","system_id":"levelo_inurba_marseille","lat":43.25584,"lon":5.3825,"is_reserved":false,"is_disabled":false,"rental_uris":{"android":"levelo://app?vid=7a0a8a69-615c-43f3-a001-073b74f4a57b","ios":"levelo://app?vid=7a0a8a69-615c-43f3-a001-073b74f4a57b"},"vehicle_type_id":"4","last_reported":1736586506,"current_range_meters":24000,"station_id":"ce4bhih2rcd13ifvqfs0","pricing_plan_id":"cebpf4jnsgd1na2vs0mg"},{"bike_id":"4a2e933d-8137-45bf-98fe-44a5d22dd120","system_id":"levelo_inurba_marseille","lat":43.29199,"lon":5.35807,"is_reserved":false,"is_disabled":false,"rental_uris":{"android":"levelo://app?vid=4a2e933d-8137-45bf-98fe-44a5d22dd120","ios":"levelo://app?vid=4a2e933d-8137-45bf-98fe-44a5d22dd120"},"vehicle_type_id":"4","last_reported":1736586506,"current_range_meters":14400,"station_id":"ce4bhb12rcd13ifvqel0","pricing_plan_id":"cebpf4jnsgd1na2vs0mg"},{"bike_id":"00ce025b-3337-4565-8d1c-47adff4217d7","system_id":"levelo_inurba_marseille","lat":43.24556,"lon":5.39502,"is_reserved":false,"is_disabled":false,"rental_uris":{"android":"levelo://app?vid=00ce025b-3337-4565-8d1c-47adff4217d7","ios":"levelo://app?vid=00ce025b-3337-4565-8d1c-47adff4217d7"},"vehicle_type_id":"4","last_reported":1736586506,"current_range_meters":38400,"station_id":"ce4bhlp2rcd13ifvqgjg","pricing_plan_id":"cebpf4jnsgd1na2vs0mg"},{"bike_id":"b984475e-70f5-478d-a365-e48ebf91675f","system_id":"levelo_inurba_marseille","lat":43.29528,"lon":5.38547,"is_reserved":false,"is_disabled":true,"rental_uris":{"android":"levelo://app?vid=b984475e-70f5-478d-a365-e48ebf91675f","ios":"levelo://app?vid=b984475e-70f5-478d-a365-e48ebf91675f"},"vehicle_type_id":"4","last_reported":1736586506,"current_range_meters":0,"station_id":"ce4bgih2rcd13ifvqba0","pricing_plan_id":"cebpf4jnsgd1na2vs0mg"},{"bike_id":"e2cf5614-606d-46e0-bba1-511a39a5ccf3","system_id":"levelo_inurba_marseille","lat":43.30933,"lon":5.40144,"is_reserved":false,"is_disabled":false,"rental_uris":{"android":"levelo://app?vid=e2cf5614-606d-46e0-bba1-511a39a5ccf3","ios":"levelo://app?vid=e2cf5614-606d-46e0-bba1-511a39a5ccf3"},"vehicle_type_id":"4","last_reported":1736586506,"current_range_meters":36800,"station_id":"ce4bgvp2rcd13ifvqct0","pricing_plan_id":"cebpf4jnsgd1na2vs0mg"},{"bike_id":"f34fc04b-b351-4ac8-a47c-a2006c27444b","system_id":"levelo_inurba_marseille","lat":43.31531,"lon":5.38036,"is_reserved":false,"is_disabled":true,"rental_uris":{"android":"levelo://app?vid=f34fc04b-b351-4ac8-a47c-a2006c27444b","ios":"levelo://app?vid=f34fc04b-b351-4ac8-a47c-a2006c27444b"},"vehicle_type_id":"4","last_reported":1736586506,"current_range_meters":26000,"station_id":"ce4bhsp2rcd13ifvqi50","pricing_plan_id":"cebpf4jnsgd1na2vs0mg"},{"bike_id":"57470373-fa92-49f6-ab59-dce961733e68","system_id":"levelo_inurba_marseille","lat":43.29718,"lon":5.37692,"is_reserved":false,"is_disabled":false,"rental_uris":{"android":"levelo://app?vid=57470373-fa92-49f6-ab59-dce961733e68","ios":"levelo://app?vid=57470373-fa92-49f6-ab59-dce961733e68"},"vehicle_type_id":"4","last_reported":1736586506,"current_range_meters":39200,"station_id":"ce4bgkh2rcd13ifvqbl0","pricing_plan_id":"cebpf4jnsgd1na2vs0mg"},{"bike_id":"11e44c56-62a9-4c68-9a67-ca1cf255933f","system_id":"levelo_inurba_marseille","lat":43.27494,"lon":5.42444,"is_reserved":false,"is_disabled":false,"rental_uris":{"android":"levelo://app?vid=11e44c56-62a9-4c68-9a67-ca1cf255933f","ios":"levelo://app?vid=11e44c56-62a9-4c68-9a67-ca1cf255933f"},"vehicle_type_id":"4","last_reported":1736586506,"current_range_meters":26800,"station_id":"ce4bhn92rcd13ifvqgrg","pricing_plan_id":"cebpf4jnsgd1na2vs0mg"},{"bike_id":"d4e77abc-3bbc-4e4b-a5bc-6b106cd5b9ec","system_id":"levelo_inurba_marseille","lat":43.31065,"lon":5.38367,"is_reserved":false,"is_disabled":false,"rental_uris":{"android":"levelo://app?vid=d4e77abc-3bbc-4e4b-a5bc-6b106cd5b9ec","ios":"levelo://app?vid=d4e77abc-3bbc-4e4b-a5bc-6b106cd5b9ec"},"vehicle_type_id":"4","last_reported":1736586506,"current_range_meters":38400,"station_id":"ce4bgv92rcd13ifvqcr0","pricing_plan_id":"cebpf4jnsgd1na2vs0mg"},{"bike_id":"22c8b933-4f59-48f8-bf50-fbb6be2a027b","system_id":"levelo_inurba_marseille","lat":43.29367,"lon":5.37829,"is_reserved":false,"is_disabled":false,"rental_uris":{"android":"levelo://app?vid=22c8b933-4f59-48f8-bf50-fbb6be2a027b","ios":"levelo://app?vid=22c8b933-4f59-48f8-bf50-fbb6be2a027b"},"vehicle_type_id":"4","last_reported":1736586506,"current_range_meters":17600,"station_id":"ce4bgjh2rcd13ifvqbf0","pricing_plan_id":"cebpf4jnsgd1na2vs0mg"},{"bike_id":"07b8b9a3-a564-434b-90a6-202790eb4cd3","system_id":"levelo_inurba_marseille","lat":43.30555,"lon":5.36529,"is_reserved":false,"is_disabled":false,"rental_uris":{"android":"levelo://app?vid=07b8b9a3-a564-434b-90a6-202790eb4cd3","ios":"levelo://app?vid=07b8b9a3-a564-434b-90a6-202790eb4cd3"},"vehicle_type_id":"4","last_reported":1736586506,"current_range_meters":37600,"station_id":"ce4bgs12rcd13ifvqcag","pricing_plan_id":"cebpf4jnsgd1na2vs0mg"},{"bike_id":"0bcc64a9-b35b-445e-951b-117593e1c83a","system_id":"levelo_inurba_marseille","lat":43.278136,"lon":5.407083,"is_reserved":false,"is_disabled":false,"rental_uris":{"android":"levelo://app?vid=0bcc64a9-b35b-445e-951b-117593e1c83a","ios":"levelo://app?vid=0bcc64a9-b35b-445e-951b-117593e1c83a"},"vehicle_type_id":"4","last_reported":1736586506,"current_range_meters":32000,"station_id":"ce4bhnh2rcd13ifvqgtg","pricing_plan_id":"cebpf4jnsgd1na2vs0mg"},{"bike_id":"feb4f829-1d07-48b1-8bd9-fb8859e4baa4","system_id":"levelo_inurba_marseille","lat":43.29093,"lon":5.38145,"is_reserved":false,"is_disabled":true,"rental_uris":{"android":"levelo://app?vid=feb4f829-1d07-48b1-8bd9-fb8859e4baa4","ios":"levelo://app?vid=feb4f829-1d07-48b1-8bd9-fb8859e4baa4"},"vehicle_type_id":"4","last_reported":1736586506,"current_range_meters":400,"station_id":"ce4bh512rcd13ifvqe2g","pricing_plan_id":"cebpf4jnsgd1na2vs0mg"},{"bike_id":"694391e6-2ee6-49b9-b392-010f2ade836e","system_id":"levelo_inurba_marseille","lat":43.24077,"lon":5.37765,"is_reserved":false,"is_disabled":false,"rental_uris":{"android":"levelo://app?vid=694391e6-2ee6-49b9-b392-010f2ade836e","ios":"levelo://app?vid=694391e6-2ee6-49b9-b392-010f2ade836e"},"vehicle_type_id":"4","last_reported":1736586506,"current_range_meters":27600,"station_id":"ce4bhnp2rcd13ifvqgvg","pricing_plan_id":"cebpf4jnsgd1na2vs0mg"},{"bike_id":"85999c17-3dd6-4130-88ba-92bb974c0e27","system_id":"levelo_inurba_marseille","lat":43.29617,"lon":5.37162,"is_reserved":false,"is_disabled":false,"rental_uris":{"android":"levelo://app?vid=85999c17-3dd6-4130-88ba-92bb974c0e27","ios":"levelo://app?vid=85999c17-3dd6-4130-88ba-92bb974c0e27"},"vehicle_type_id":"4","last_reported":1736586506,"current_range_meters":26000,"station_id":"ce4bgnh2rcd13ifvqc0g","pricing_plan_id":"cebpf4jnsgd1na2vs0mg"},{"bike_id":"1ff4d6af-d168-4206-80a1-8f85ab0c0a00","system_id":"levelo_inurba_marseille","lat":43.25854,"lon":5.39947,"is_reserved":false,"is_disabled":true,"rental_uris":{"android":"levelo://app?vid=1ff4d6af-d168-4206-80a1-8f85ab0c0a00","ios":"levelo://app?vid=1ff4d6af-d168-4206-80a1-8f85ab0c0a00"},"vehicle_type_id":"4","last_reported":1736586506,"current_range_meters":18800,"station_id":"ce4bhl92rcd13ifvqghg","pricing_plan_id":"cebpf4jnsgd1na2vs0mg"},{"bike_id":"6a8a7e32-0f66-4fdd-a2b8-81f2afb9b4a8","system_id":"levelo_inurba_marseille","lat":43.23967,"lon":5.36621,"is_reserved":false,"is_disabled":false,"rental_uris":{"android":"levelo://app?vid=6a8a7e32-0f66-4fdd-a2b8-81f2afb9b4a8","ios":"levelo://app?vid=6a8a7e32-0f66-4fdd-a2b8-81f2afb9b4a8"},"vehicle_type_id":"4","last_reported":1736586506,"current_range_meters":16800,"station_id":"ce4bhi12rcd13ifvqfp0","pricing_plan_id":"cebpf4jnsgd1na2vs0mg"},{"bike_id":"20c58da9-9f57-44b7-842a-e002e8b58fea","system_id":"levelo_inurba_marseille","lat":43.29575,"lon":5.37517,"is_reserved":false,"is_disabled":false,"rental_uris":{"android":"levelo://app?vid=20c58da9-9f57-44b7-842a-e002e8b58fea","ios":"levelo://app?vid=20c58da9-9f57-44b7-842a-e002e8b58fea"},"vehicle_type_id":"4","last_reported":1736586506,"current_range_meters":28800,"station_id":"ce4bgh92rcd13ifvqb50","pricing_plan_id":"cebpf4jnsgd1na2vs0mg"},{"bike_id":"1d174f3c-56fd-4bd2-841f-15687ff97534","system_id":"levelo_inurba_marseille","lat":43.30133,"lon":5.39879,"is_reserved":false,"is_disabled":true,"rental_uris":{"android":"levelo://app?vid=1d174f3c-56fd-4bd2-841f-15687ff97534","ios":"levelo://app?vid=1d174f3c-56fd-4bd2-841f-15687ff97534"},"vehicle_type_id":"4","last_reported":1736586506,"current_range_meters":0,"station_id":"ce4bh0h2rcd13ifvqd40","pricing_plan_id":"cebpf4jnsgd1na2vs0mg"},{"bike_id":"b09bd2df-2f25-42db-a8b5-052cc8e4de33","system_id":"levelo_inurba_marseille","lat":43.30895,"lon":5.3719,"is_reserved":false,"is_disabled":false,"rental_uris":{"android":"levelo://app?vid=b09bd2df-2f25-42db-a8b5-052cc8e4de33","ios":"levelo://app?vid=b09bd2df-2f25-42db-a8b5-052cc8e4de33"},"vehicle_type_id":"4","last_reported":1736586506,"current_range_meters":36800,"station_id":"ce4bguh2rcd13ifvqckg","pricing_plan_id":"cebpf4jnsgd1na2vs0mg"},{"bike_id":"6d3d6abc-fcc3-4022-a1ec-5eeec13350b2","system_id":"levelo_inurba_marseille","lat":43.274939,"lon":5.42456,"is_reserved":false,"is_disabled":false,"rental_uris":{"android":"levelo://app?vid=6d3d6abc-fcc3-4022-a1ec-5eeec13350b2","ios":"levelo://app?vid=6d3d6abc-fcc3-4022-a1ec-5eeec13350b2"},"vehicle_type_id":"4","last_reported":1736586506,"current_range_meters":34800,"station_id":"ce4bhn92rcd13ifvqgrg","pricing_plan_id":"cebpf4jnsgd1na2vs0mg"},{"bike_id":"d4b9ec52-492e-41b6-8dae-be3aec56cf81","system_id":"levelo_inurba_marseille","lat":43.28613,"lon":5.35114,"is_reserved":false,"is_disabled":false,"rental_uris":{"android":"levelo://app?vid=d4b9ec52-492e-41b6-8dae-be3aec56cf81","ios":"levelo://app?vid=d4b9ec52-492e-41b6-8dae-be3aec56cf81"},"vehicle_type_id":"4","last_reported":1736586506,"current_range_meters":38800,"station_id":"ce4bhch2rcd13ifvqeug","pricing_plan_id":"cebpf4jnsgd1na2vs0mg"},{"bike_id":"fed5eb1a-abda-4070-aa40-ce49d22d0407","system_id":"levelo_inurba_marseille","lat":43.30552,"lon":5.3656,"is_reserved":false,"is_disabled":false,"rental_uris":{"android":"levelo://app?vid=fed5eb1a-abda-4070-aa40-ce49d22d0407","ios":"levelo://app?vid=fed5eb1a-abda-4070-aa40-ce49d22d0407"},"vehicle_type_id":"4","last_reported":1736586506,"current_range_meters":17200,"station_id":"ce4bgs12rcd13ifvqcag","pricing_plan_id":"cebpf4jnsgd1na2vs0mg"},{"bike_id":"2b4cffb3-77ea-48e3-baee-701d676c1001","system_id":"levelo_inurba_marseille","lat":43.260726,"lon":5.3871,"is_reserved":false,"is_disabled":false,"rental_uris":{"android":"levelo://app?vid=2b4cffb3-77ea-48e3-baee-701d676c1001","ios":"levelo://app?vid=2b4cffb3-77ea-48e3-baee-701d676c1001"},"vehicle_type_id":"4","last_reported":1736586506,"current_range_meters":8000,"station_id":"","pricing_plan_id":"cebpf4jnsgd1na2vs0mg"},{"bike_id":"10f7d31a-ef8d-4e8a-acbf-8aa9a8c72143","system_id":"levelo_inurba_marseille","lat":43.24411,"lon":5.37086,"is_reserved":false,"is_disabled":false,"rental_uris":{"android":"levelo://app?vid=10f7d31a-ef8d-4e8a-acbf-8aa9a8c72143","ios":"levelo://app?vid=10f7d31a-ef8d-4e8a-acbf-8aa9a8c72143"},"vehicle_type_id":"4","last_reported":1736586506,"current_range_meters":18800,"station_id":"ce4bhhh2rcd13ifvqfk0","pricing_plan_id":"cebpf4jnsgd1na2vs0mg"},{"bike_id":"229a4a9e-a4d6-48f4-a974-2872d0fec353","system_id":"levelo_inurba_marseille","lat":43.2618,"lon":5.37456,"is_reserved":false,"is_disabled":false,"rental_uris":{"android":"levelo://app?vid=229a4a9e-a4d6-48f4-a974-2872d0fec353","ios":"levelo://app?vid=229a4a9e-a4d6-48f4-a974-2872d0fec353"},"vehicle_type_id":"4","last_reported":1736586506,"current_range_meters":25200,"station_id":"ce4bhgp2rcd13ifvqfc0","pricing_plan_id":"cebpf4jnsgd1na2vs0mg"},{"bike_id":"f0c080b7-cc84-4ae6-b5d3-19e354905365","system_id":"levelo_inurba_marseille","lat":43.2903,"lon":5.38163,"is_reserved":false,"is_disabled":true,"rental_uris":{"android":"levelo://app?vid=f0c080b7-cc84-4ae6-b5d3-19e354905365","ios":"levelo://app?vid=f0c080b7-cc84-4ae6-b5d3-19e354905365"},"vehicle_type_id":"4","last_reported":1736586506,"current_range_meters":36800,"station_id":"ce4bh4p2rcd13ifvqe1g","pricing_plan_id":"cebpf4jnsgd1na2vs0mg"},{"bike_id":"7a5515c3-7309-4cfe-8101-22eb0172fa00","system_id":"levelo_inurba_marseille","lat":43.29795,"lon":5.38107,"is_reserved":false,"is_disabled":false,"rental_uris":{"android":"levelo://app?vid=7a5515c3-7309-4cfe-8101-22eb0172fa00","ios":"levelo://app?vid=7a5515c3-7309-4cfe-8101-22eb0172fa00"},"vehicle_type_id":"4","last_reported":1736586506,"current_range_meters":30800,"station_id":"ce4bgip2rcd13ifvqbb0","pricing_plan_id":"cebpf4jnsgd1na2vs0mg"},{"bike_id":"ae29e0de-7b5a-45d6-ace3-313c5e88010a","system_id":"levelo_inurba_marseille","lat":43.27989,"lon":5.41663,"is_reserved":false,"is_disabled":true,"rental_uris":{"android":"levelo://app?vid=ae29e0de-7b5a-45d6-ace3-313c5e88010a","ios":"levelo://app?vid=ae29e0de-7b5a-45d6-ace3-313c5e88010a"},"vehicle_type_id":"4","last_reported":1736586506,"current_range_meters":1200,"station_id":"ce4bho12rcd13ifvqh1g","pricing_plan_id":"cebpf4jnsgd1na2vs0mg"},{"bike_id":"6d3c43c5-c17b-40f3-93fb-200e6d3a08d1","system_id":"levelo_inurba_marseille","lat":43.29785,"lon":5.38131,"is_reserved":false,"is_disabled":true,"rental_uris":{"android":"levelo://app?vid=6d3c43c5-c17b-40f3-93fb-200e6d3a08d1","ios":"levelo://app?vid=6d3c43c5-c17b-40f3-93fb-200e6d3a08d1"},"vehicle_type_id":"4","last_reported":1736586506,"current_range_meters":37600,"station_id":"ce4bgip2rcd13ifvqbb0","pricing_plan_id":"cebpf4jnsgd1na2vs0mg"},{"bike_id":"572f0254-11cf-4ef2-b3f9-66737ed8298a","system_id":"levelo_inurba_marseille","lat":43.28394,"lon":5.34992,"is_reserved":false,"is_disabled":true,"rental_uris":{"android":"levelo://app?vid=572f0254-11cf-4ef2-b3f9-66737ed8298a","ios":"levelo://app?vid=572f0254-11cf-4ef2-b3f9-66737ed8298a"},"vehicle_type_id":"4","last_reported":1736586506,"current_range_meters":0,"station_id":"ce4bhbh2rcd13ifvqepg","pricing_plan_id":"cebpf4jnsgd1na2vs0mg"},{"bike_id":"6292a855-cdaa-436c-a7d2-9513eaeb906b","system_id":"levelo_inurba_marseille","lat":43.29622,"lon":5.37157,"is_reserved":false,"is_disabled":false,"rental_uris":{"android":"levelo://app?vid=6292a855-cdaa-436c-a7d2-9513eaeb906b","ios":"levelo://app?vid=6292a855-cdaa-436c-a7d2-9513eaeb906b"},"vehicle_type_id":"4","last_reported":1736586506,"current_range_meters":17600,"station_id":"ce4bgnh2rcd13ifvqc0g","pricing_plan_id":"cebpf4jnsgd1na2vs0mg"},{"bike_id":"24bd131f-fceb-4ce6-b6f3-2cc044254956","system_id":"levelo_inurba_marseille","lat":43.29033,"lon":5.39994,"is_reserved":false,"is_disabled":false,"rental_uris":{"android":"levelo://app?vid=24bd131f-fceb-4ce6-b6f3-2cc044254956","ios":"levelo://app?vid=24bd131f-fceb-4ce6-b6f3-2cc044254956"},"vehicle_type_id":"4","last_reported":1736586506,"current_range_meters":38000,"station_id":"ce4bh392rcd13ifvqdm0","pricing_plan_id":"cebpf4jnsgd1na2vs0mg"},{"bike_id":"4b5c9b1c-dcf2-4768-8a96-8c2f98fb5ee5","system_id":"levelo_inurba_marseille","lat":43.2315,"lon":5.43712,"is_reserved":false,"is_disabled":false,"rental_uris":{"android":"levelo://app?vid=4b5c9b1c-dcf2-4768-8a96-8c2f98fb5ee5","ios":"levelo://app?vid=4b5c9b1c-dcf2-4768-8a96-8c2f98fb5ee5"},"vehicle_type_id":"4","last_reported":1736586506,"current_range_meters":37600,"station_id":"ce4bhmp2rcd13ifvqgog","pricing_plan_id":"cebpf4jnsgd1na2vs0mg"},{"bike_id":"8bc944c9-56f1-4142-b839-5365e32d6159","system_id":"levelo_inurba_marseille","lat":43.2696,"lon":5.38634,"is_reserved":false,"is_disabled":false,"rental_uris":{"android":"levelo://app?vid=8bc944c9-56f1-4142-b839-5365e32d6159","ios":"levelo://app?vid=8bc944c9-56f1-4142-b839-5365e32d6159"},"vehicle_type_id":"4","last_reported":1736586506,"current_range_meters":25600,"station_id":"ce4bhh92rcd13ifvqfh0","pricing_plan_id":"cebpf4jnsgd1na2vs0mg"},{"bike_id":"3e0dda11-bd29-4a47-a000-9730555dbb4f","system_id":"levelo_inurba_marseille","lat":43.24076,"lon":5.37755,"is_reserved":false,"is_disabled":false,"rental_uris":{"android":"levelo://app?vid=3e0dda11-bd29-4a47-a000-9730555dbb4f","ios":"levelo://app?vid=3e0dda11-bd29-4a47-a000-9730555dbb4f"},"vehicle_type_id":"4","last_reported":1736586506,"current_range_meters":38000,"station_id":"ce4bhnp2rcd13ifvqgvg","pricing_plan_id":"cebpf4jnsgd1na2vs0mg"},{"bike_id":"61754fba-3376-4768-8c7c-511ea5daf5e6","system_id":"levelo_inurba_marseille","lat":43.314435,"lon":5.373752,"is_reserved":false,"is_disabled":true,"rental_uris":{"android":"levelo://app?vid=61754fba-3376-4768-8c7c-511ea5daf5e6","ios":"levelo://app?vid=61754fba-3376-4768-8c7c-511ea5daf5e6"},"vehicle_type_id":"4","last_reported":1736586506,"current_range_meters":2000,"station_id":"","pricing_plan_id":"cebpf4jnsgd1na2vs0mg"},{"bike_id":"e5d237dd-02ee-4407-835a-80c7604a33d8","system_id":"levelo_inurba_marseille","lat":43.27675,"lon":5.38937,"is_reserved":false,"is_disabled":false,"rental_uris":{"android":"levelo://app?vid=e5d237dd-02ee-4407-835a-80c7604a33d8","ios":"levelo://app?vid=e5d237dd-02ee-4407-835a-80c7604a33d8"},"vehicle_type_id":"4","last_reported":1736586506,"current_range_meters":38800,"station_id":"ce4bhi12rcd13ifvqfo0","pricing_plan_id":"cebpf4jnsgd1na2vs0mg"},{"bike_id":"a6bab0bb-085a-41b1-b8e2-10de2a66914c","system_id":"levelo_inurba_marseille","lat":43.31127,"lon":5.37803,"is_reserved":false,"is_disabled":false,"rental_uris":{"android":"levelo://app?vid=a6bab0bb-085a-41b1-b8e2-10de2a66914c","ios":"levelo://app?vid=a6bab0bb-085a-41b1-b8e2-10de2a66914c"},"vehicle_type_id":"4","last_reported":1736586506,"current_range_meters":18800,"station_id":"ce4bgt92rcd13ifvqcg0","pricing_plan_id":"cebpf4jnsgd1na2vs0mg"},{"bike_id":"30653996-9326-4bca-864c-21ac92f61041","system_id":"levelo_inurba_marseille","lat":43.24643,"lon":5.38888,"is_reserved":false,"is_disabled":false,"rental_uris":{"android":"levelo://app?vid=30653996-9326-4bca-864c-21ac92f61041","ios":"levelo://app?vid=30653996-9326-4bca-864c-21ac92f61041"},"vehicle_type_id":"4","last_reported":1736586506,"current_range_meters":33600,"station_id":"ce4bhg12rcd13ifvqf60","pricing_plan_id":"cebpf4jnsgd1na2vs0mg"},{"bike_id":"bed24a32-106d-49f4-8d2d-17f021b9dbe6","system_id":"levelo_inurba_marseille","lat":43.27488,"lon":5.4246,"is_reserved":false,"is_disabled":true,"rental_uris":{"android":"levelo://app?vid=bed24a32-106d-49f4-8d2d-17f021b9dbe6","ios":"levelo://app?vid=bed24a32-106d-49f4-8d2d-17f021b9dbe6"},"vehicle_type_id":"4","last_reported":1736586506,"current_range_meters":800,"station_id":"ce4bhn92rcd13ifvqgrg","pricing_plan_id":"cebpf4jnsgd1na2vs0mg"},{"bike_id":"fd64c8a3-a4fc-42da-8d2c-308cff8a2a4f","system_id":"levelo_inurba_marseille","lat":43.30258,"lon":5.40071,"is_reserved":false,"is_disabled":false,"rental_uris":{"android":"levelo://app?vid=fd64c8a3-a4fc-42da-8d2c-308cff8a2a4f","ios":"levelo://app?vid=fd64c8a3-a4fc-42da-8d2c-308cff8a2a4f"},"vehicle_type_id":"4","last_reported":1736586506,"current_range_meters":38800,"station_id":"ce4bgvh2rcd13ifvqcs0","pricing_plan_id":"cebpf4jnsgd1na2vs0mg"},{"bike_id":"5158be52-4db1-4ea0-8941-d7d3b1734014","system_id":"levelo_inurba_marseille","lat":43.28489,"lon":5.38427,"is_reserved":false,"is_disabled":false,"rental_uris":{"android":"levelo://app?vid=5158be52-4db1-4ea0-8941-d7d3b1734014","ios":"levelo://app?vid=5158be52-4db1-4ea0-8941-d7d3b1734014"},"vehicle_type_id":"4","last_reported":1736586506,"current_range_meters":28400,"station_id":"ce4bh512rcd13ifvqe3g","pricing_plan_id":"cebpf4jnsgd1na2vs0mg"},{"bike_id":"51098504-36bc-46da-bc89-d62c2a5ea627","system_id":"levelo_inurba_marseille","lat":43.2942,"lon":5.38624,"is_reserved":false,"is_disabled":true,"rental_uris":{"android":"levelo://app?vid=51098504-36bc-46da-bc89-d62c2a5ea627","ios":"levelo://app?vid=51098504-36bc-46da-bc89-d62c2a5ea627"},"vehicle_type_id":"4","last_reported":1736586506,"current_range_meters":400,"station_id":"ce4bh2h2rcd13ifvqdh0","pricing_plan_id":"cebpf4jnsgd1na2vs0mg"},{"bike_id":"d20a774b-60d4-4fea-8501-140e94d9ac48","system_id":"levelo_inurba_marseille","lat":43.27144,"lon":5.38591,"is_reserved":false,"is_disabled":true,"rental_uris":{"android":"levelo://app?vid=d20a774b-60d4-4fea-8501-140e94d9ac48","ios":"levelo://app?vid=d20a774b-60d4-4fea-8501-140e94d9ac48"},"vehicle_type_id":"4","last_reported":1736586506,"current_range_meters":29600,"station_id":"","pricing_plan_id":"cebpf4jnsgd1na2vs0mg"},{"bike_id":"7317d6d0-ec2e-4f43-a527-c168ad6c9de8","system_id":"levelo_inurba_marseille","lat":43.2746,"lon":5.3942,"is_reserved":false,"is_disabled":false,"rental_uris":{"android":"levelo://app?vid=7317d6d0-ec2e-4f43-a527-c168ad6c9de8","ios":"levelo://app?vid=7317d6d0-ec2e-4f43-a527-c168ad6c9de8"},"vehicle_type_id":"4","last_reported":1736586506,"current_range_meters":35600,"station_id":"","pricing_plan_id":"cebpf4jnsgd1na2vs0mg"},{"bike_id":"b704bf42-2bc7-4506-b669-8ca7a3330fef","system_id":"levelo_inurba_marseille","lat":43.28153,"lon":5.42632,"is_reserved":false,"is_disabled":true,"rental_uris":{"android":"levelo://app?vid=b704bf42-2bc7-4506-b669-8ca7a3330fef","ios":"levelo://app?vid=b704bf42-2bc7-4506-b669-8ca7a3330fef"},"vehicle_type_id":"4","last_reported":1736586506,"current_range_meters":33200,"station_id":"ce4bhnh2rcd13ifvqgug","pricing_plan_id":"cebpf4jnsgd1na2vs0mg"},{"bike_id":"fc409626-cf3b-4f65-bf74-11f59f5d8632","system_id":"levelo_inurba_marseille","lat":43.28664,"lon":5.36361,"is_reserved":false,"is_disabled":false,"rental_uris":{"android":"levelo://app?vid=fc409626-cf3b-4f65-bf74-11f59f5d8632","ios":"levelo://app?vid=fc409626-cf3b-4f65-bf74-11f59f5d8632"},"vehicle_type_id":"4","last_reported":1736586506,"current_range_meters":38800,"station_id":"ce4bhah2rcd13ifvqej0","pricing_plan_id":"cebpf4jnsgd1na2vs0mg"},{"bike_id":"1987856f-76cd-431b-a3f6-7cd1fa990954","system_id":"levelo_inurba_marseille","lat":43.2903,"lon":5.40029,"is_reserved":false,"is_disabled":false,"rental_uris":{"android":"levelo://app?vid=1987856f-76cd-431b-a3f6-7cd1fa990954","ios":"levelo://app?vid=1987856f-76cd-431b-a3f6-7cd1fa990954"},"vehicle_type_id":"4","last_reported":1736586506,"current_range_meters":38400,"station_id":"ce4bh392rcd13ifvqdm0","pricing_plan_id":"cebpf4jnsgd1na2vs0mg"},{"bike_id":"34d45e7b-d463-493d-9d4c-ae6b7c403201","system_id":"levelo_inurba_marseille","lat":43.29801,"lon":5.38096,"is_reserved":false,"is_disabled":false,"rental_uris":{"android":"levelo://app?vid=34d45e7b-d463-493d-9d4c-ae6b7c403201","ios":"levelo://app?vid=34d45e7b-d463-493d-9d4c-ae6b7c403201"},"vehicle_type_id":"4","last_reported":1736586506,"current_range_meters":19600,"station_id":"ce4bgip2rcd13ifvqbb0","pricing_plan_id":"cebpf4jnsgd1na2vs0mg"},{"bike_id":"ede473a8-4ad3-4177-9dfc-dc40ae6098e2","system_id":"levelo_inurba_marseille","lat":43.246465,"lon":5.38173,"is_reserved":false,"is_disabled":false,"rental_uris":{"android":"levelo://app?vid=ede473a8-4ad3-4177-9dfc-dc40ae6098e2","ios":"levelo://app?vid=ede473a8-4ad3-4177-9dfc-dc40ae6098e2"},"vehicle_type_id":"4","last_reported":1736586506,"current_range_meters":8000,"station_id":"ce4bhih2rcd13ifvqfr0","pricing_plan_id":"cebpf4jnsgd1na2vs0mg"},{"bike_id":"f62a7ed4-7c80-4ed8-9568-a4dea62069d1","system_id":"levelo_inurba_marseille","lat":43.2809,"lon":5.39659,"is_reserved":false,"is_disabled":true,"rental_uris":{"android":"levelo://app?vid=f62a7ed4-7c80-4ed8-9568-a4dea62069d1","ios":"levelo://app?vid=f62a7ed4-7c80-4ed8-9568-a4dea62069d1"},"vehicle_type_id":"4","last_reported":1736586506,"current_range_meters":37600,"station_id":"ce4bho12rcd13ifvqh2g","pricing_plan_id":"cebpf4jnsgd1na2vs0mg"},{"bike_id":"e2744ec8-2f1a-4025-9ec0-6a07f5db3fc4","system_id":"levelo_inurba_marseille","lat":43.254994,"lon":5.376522,"is_reserved":false,"is_disabled":false,"rental_uris":{"android":"levelo://app?vid=e2744ec8-2f1a-4025-9ec0-6a07f5db3fc4","ios":"levelo://app?vid=e2744ec8-2f1a-4025-9ec0-6a07f5db3fc4"},"vehicle_type_id":"4","last_reported":1736586506,"current_range_meters":38800,"station_id":"ce4bhh12rcd13ifvqff0","pricing_plan_id":"cebpf4jnsgd1na2vs0mg"},{"bike_id":"39e8b8db-a45b-47ac-924f-708d2b3bef9a","system_id":"levelo_inurba_marseille","lat":43.28624,"lon":5.35106,"is_reserved":false,"is_disabled":false,"rental_uris":{"android":"levelo://app?vid=39e8b8db-a45b-47ac-924f-708d2b3bef9a","ios":"levelo://app?vid=39e8b8db-a45b-47ac-924f-708d2b3bef9a"},"vehicle_type_id":"4","last_reported":1736586506,"current_range_meters":14400,"station_id":"ce4bhch2rcd13ifvqeug","pricing_plan_id":"cebpf4jnsgd1na2vs0mg"},{"bike_id":"cc759f92-165c-46f7-84dc-07726493697c","system_id":"levelo_inurba_marseille","lat":43.28079,"lon":5.39661,"is_reserved":false,"is_disabled":false,"rental_uris":{"android":"levelo://app?vid=cc759f92-165c-46f7-84dc-07726493697c","ios":"levelo://app?vid=cc759f92-165c-46f7-84dc-07726493697c"},"vehicle_type_id":"4","last_reported":1736586506,"current_range_meters":28400,"station_id":"ce4bho12rcd13ifvqh2g","pricing_plan_id":"cebpf4jnsgd1na2vs0mg"},{"bike_id":"9c413fb1-8955-4528-ba15-78d41b7bda61","system_id":"levelo_inurba_marseille","lat":43.28723,"lon":5.36094,"is_reserved":false,"is_disabled":false,"rental_uris":{"android":"levelo://app?vid=9c413fb1-8955-4528-ba15-78d41b7bda61","ios":"levelo://app?vid=9c413fb1-8955-4528-ba15-78d41b7bda61"},"vehicle_type_id":"4","last_reported":1736586506,"current_range_meters":39200,"station_id":"cki0cbj6b192h4jlfktg","pricing_plan_id":"cebpf4jnsgd1na2vs0mg"},{"bike_id":"c544ee66-e931-41fe-bfea-d69d099e7fb1","system_id":"levelo_inurba_marseille","lat":43.27586,"lon":5.38406,"is_reserved":false,"is_disabled":false,"rental_uris":{"android":"levelo://app?vid=c544ee66-e931-41fe-bfea-d69d099e7fb1","ios":"levelo://app?vid=c544ee66-e931-41fe-bfea-d69d099e7fb1"},"vehicle_type_id":"4","last_reported":1736586506,"current_range_meters":36400,"station_id":"ce4bhh92rcd13ifvqfi0","pricing_plan_id":"cebpf4jnsgd1na2vs0mg"},{"bike_id":"9be01537-e054-45c4-92d8-0b0eb1e034b4","system_id":"levelo_inurba_marseille","lat":43.27819,"lon":5.40736,"is_reserved":false,"is_disabled":false,"rental_uris":{"android":"levelo://app?vid=9be01537-e054-45c4-92d8-0b0eb1e034b4","ios":"levelo://app?vid=9be01537-e054-45c4-92d8-0b0eb1e034b4"},"vehicle_type_id":"4","last_reported":1736586506,"current_range_meters":38800,"station_id":"ce4bhnh2rcd13ifvqgtg","pricing_plan_id":"cebpf4jnsgd1na2vs0mg"},{"bike_id":"22b3f247-bf1f-493d-8d75-89304a76ad0b","system_id":"levelo_inurba_marseille","lat":43.27481,"lon":5.42467,"is_reserved":false,"is_disabled":false,"rental_uris":{"android":"levelo://app?vid=22b3f247-bf1f-493d-8d75-89304a76ad0b","ios":"levelo://app?vid=22b3f247-bf1f-493d-8d75-89304a76ad0b"},"vehicle_type_id":"4","last_reported":1736586506,"current_range_meters":33600,"station_id":"ce4bhn92rcd13ifvqgrg","pricing_plan_id":"cebpf4jnsgd1na2vs0mg"},{"bike_id":"85484f10-51a2-483d-b3e8-f9cd8e11b722","system_id":"levelo_inurba_marseille","lat":43.29031,"lon":5.40004,"is_reserved":false,"is_disabled":false,"rental_uris":{"android":"levelo://app?vid=85484f10-51a2-483d-b3e8-f9cd8e11b722","ios":"levelo://app?vid=85484f10-51a2-483d-b3e8-f9cd8e11b722"},"vehicle_type_id":"4","last_reported":1736586506,"current_range_meters":20000,"station_id":"ce4bh392rcd13ifvqdm0","pricing_plan_id":"cebpf4jnsgd1na2vs0mg"},{"bike_id":"e6f7d7e2-d224-4aea-aab6-683e10be3675","system_id":"levelo_inurba_marseille","lat":43.28839,"lon":5.35843,"is_reserved":false,"is_disabled":false,"rental_uris":{"android":"levelo://app?vid=e6f7d7e2-d224-4aea-aab6-683e10be3675","ios":"levelo://app?vid=e6f7d7e2-d224-4aea-aab6-683e10be3675"},"vehicle_type_id":"4","last_reported":1736586506,"current_range_meters":36000,"station_id":"ce4bhb12rcd13ifvqem0","pricing_plan_id":"cebpf4jnsgd1na2vs0mg"},{"bike_id":"46b4f480-a748-4a90-b282-57ccf8807476","system_id":"levelo_inurba_marseille","lat":43.30655,"lon":5.40063,"is_reserved":false,"is_disabled":false,"rental_uris":{"android":"levelo://app?vid=46b4f480-a748-4a90-b282-57ccf8807476","ios":"levelo://app?vid=46b4f480-a748-4a90-b282-57ccf8807476"},"vehicle_type_id":"4","last_reported":1736586506,"current_range_meters":8000,"station_id":"ce4bh112rcd13ifvqda0","pricing_plan_id":"cebpf4jnsgd1na2vs0mg"},{"bike_id":"c42c14a7-c0cc-4e7e-88a1-a61950c5a3cf","system_id":"levelo_inurba_marseille","lat":43.31489,"lon":5.37314,"is_reserved":false,"is_disabled":false,"rental_uris":{"android":"levelo://app?vid=c42c14a7-c0cc-4e7e-88a1-a61950c5a3cf","ios":"levelo://app?vid=c42c14a7-c0cc-4e7e-88a1-a61950c5a3cf"},"vehicle_type_id":"4","last_reported":1736586506,"current_range_meters":38800,"station_id":"ce4bgt12rcd13ifvqcd0","pricing_plan_id":"cebpf4jnsgd1na2vs0mg"},{"bike_id":"1e2223a2-c032-49e7-8dbf-982df86a0520","system_id":"levelo_inurba_marseille","lat":43.22932,"lon":5.35369,"is_reserved":false,"is_disabled":false,"rental_uris":{"android":"levelo://app?vid=1e2223a2-c032-49e7-8dbf-982df86a0520","ios":"levelo://app?vid=1e2223a2-c032-49e7-8dbf-982df86a0520"},"vehicle_type_id":"4","last_reported":1736586506,"current_range_meters":28800,"station_id":"cpo3532slgdg3j2ikp40","pricing_plan_id":"cebpf4jnsgd1na2vs0mg"},{"bike_id":"aa8ac0ca-89b2-472c-abe3-0a86d5057c87","system_id":"levelo_inurba_marseille","lat":43.26056,"lon":5.39398,"is_reserved":false,"is_disabled":false,"rental_uris":{"android":"levelo://app?vid=aa8ac0ca-89b2-472c-abe3-0a86d5057c87","ios":"levelo://app?vid=aa8ac0ca-89b2-472c-abe3-0a86d5057c87"},"vehicle_type_id":"4","last_reported":1736586506,"current_range_meters":6800,"station_id":"ce4bhh92rcd13ifvqfj0","pricing_plan_id":"cebpf4jnsgd1na2vs0mg"},{"bike_id":"5f2cf356-122a-4d24-85ba-e38bc4612223","system_id":"levelo_inurba_marseille","lat":43.25579,"lon":5.38262,"is_reserved":false,"is_disabled":true,"rental_uris":{"android":"levelo://app?vid=5f2cf356-122a-4d24-85ba-e38bc4612223","ios":"levelo://app?vid=5f2cf356-122a-4d24-85ba-e38bc4612223"},"vehicle_type_id":"4","last_reported":1736586506,"current_range_meters":34000,"station_id":"ce4bhih2rcd13ifvqfs0","pricing_plan_id":"cebpf4jnsgd1na2vs0mg"},{"bike_id":"be8a233f-ad85-41b2-af03-bfa1e3033438","system_id":"levelo_inurba_marseille","lat":43.23195,"lon":5.35544,"is_reserved":false,"is_disabled":false,"rental_uris":{"android":"levelo://app?vid=be8a233f-ad85-41b2-af03-bfa1e3033438","ios":"levelo://app?vid=be8a233f-ad85-41b2-af03-bfa1e3033438"},"vehicle_type_id":"4","last_reported":1736586506,"current_range_meters":20000,"station_id":"ce4bhu92rcd13ifvqi70","pricing_plan_id":"cebpf4jnsgd1na2vs0mg"},{"bike_id":"d7284d59-0fa0-4e55-88c3-9102035d8a99","system_id":"levelo_inurba_marseille","lat":43.30245,"lon":5.40037,"is_reserved":false,"is_disabled":true,"rental_uris":{"android":"levelo://app?vid=d7284d59-0fa0-4e55-88c3-9102035d8a99","ios":"levelo://app?vid=d7284d59-0fa0-4e55-88c3-9102035d8a99"},"vehicle_type_id":"4","last_reported":1736586506,"current_range_meters":9600,"station_id":"ce4bgvh2rcd13ifvqcs0","pricing_plan_id":"cebpf4jnsgd1na2vs0mg"},{"bike_id":"6f217313-e82a-4ced-ad03-cd53b8b45ef1","system_id":"levelo_inurba_marseille","lat":43.29977,"lon":5.37182,"is_reserved":false,"is_disabled":false,"rental_uris":{"android":"levelo://app?vid=6f217313-e82a-4ced-ad03-cd53b8b45ef1","ios":"levelo://app?vid=6f217313-e82a-4ced-ad03-cd53b8b45ef1"},"vehicle_type_id":"4","last_reported":1736586506,"current_range_meters":21600,"station_id":"ce4bgr92rcd13ifvqc7g","pricing_plan_id":"cebpf4jnsgd1na2vs0mg"},{"bike_id":"049cc9e4-2f8e-4d46-986b-fac77d19d852","system_id":"levelo_inurba_marseille","lat":43.30564,"lon":5.36536,"is_reserved":false,"is_disabled":false,"rental_uris":{"android":"levelo://app?vid=049cc9e4-2f8e-4d46-986b-fac77d19d852","ios":"levelo://app?vid=049cc9e4-2f8e-4d46-986b-fac77d19d852"},"vehicle_type_id":"4","last_reported":1736586506,"current_range_meters":38800,"station_id":"ce4bgs12rcd13ifvqcag","pricing_plan_id":"cebpf4jnsgd1na2vs0mg"},{"bike_id":"fe947a9b-e256-4748-8819-d7de9b18287a","system_id":"levelo_inurba_marseille","lat":43.26928,"lon":5.38923,"is_reserved":false,"is_disabled":false,"rental_uris":{"android":"levelo://app?vid=fe947a9b-e256-4748-8819-d7de9b18287a","ios":"levelo://app?vid=fe947a9b-e256-4748-8819-d7de9b18287a"},"vehicle_type_id":"4","last_reported":1736586506,"current_range_meters":37600,"station_id":"ce4bhhh2rcd13ifvqfl0","pricing_plan_id":"cebpf4jnsgd1na2vs0mg"},{"bike_id":"57f5a8a9-f2e5-4673-966d-ca04b8d8c8e6","system_id":"levelo_inurba_marseille","lat":43.31112,"lon":5.37774,"is_reserved":false,"is_disabled":true,"rental_uris":{"android":"levelo://app?vid=57f5a8a9-f2e5-4673-966d-ca04b8d8c8e6","ios":"levelo://app?vid=57f5a8a9-f2e5-4673-966d-ca04b8d8c8e6"},"vehicle_type_id":"4","last_reported":1736586506,"current_range_meters":7200,"station_id":"ce4bgt92rcd13ifvqcg0","pricing_plan_id":"cebpf4jnsgd1na2vs0mg"},{"bike_id":"85427a88-99f5-4856-b496-8ef79c1ec2f5","system_id":"levelo_inurba_marseille","lat":43.24669,"lon":5.38218,"is_reserved":false,"is_disabled":false,"rental_uris":{"android":"levelo://app?vid=85427a88-99f5-4856-b496-8ef79c1ec2f5","ios":"levelo://app?vid=85427a88-99f5-4856-b496-8ef79c1ec2f5"},"vehicle_type_id":"4","last_reported":1736586506,"current_range_meters":35200,"station_id":"ce4bhih2rcd13ifvqfr0","pricing_plan_id":"cebpf4jnsgd1na2vs0mg"},{"bike_id":"8b90a26f-7119-4b72-ac77-f53ed7abcfc9","system_id":"levelo_inurba_marseille","lat":43.29966,"lon":5.37179,"is_reserved":false,"is_disabled":false,"rental_uris":{"android":"levelo://app?vid=8b90a26f-7119-4b72-ac77-f53ed7abcfc9","ios":"levelo://app?vid=8b90a26f-7119-4b72-ac77-f53ed7abcfc9"},"vehicle_type_id":"4","last_reported":1736586506,"current_range_meters":10800,"station_id":"ce4bgr92rcd13ifvqc7g","pricing_plan_id":"cebpf4jnsgd1na2vs0mg"},{"bike_id":"6d62c332-8463-4361-8de6-c419ab720f3d","system_id":"levelo_inurba_marseille","lat":43.28079,"lon":5.39657,"is_reserved":false,"is_disabled":false,"rental_uris":{"android":"levelo://app?vid=6d62c332-8463-4361-8de6-c419ab720f3d","ios":"levelo://app?vid=6d62c332-8463-4361-8de6-c419ab720f3d"},"vehicle_type_id":"4","last_reported":1736586506,"current_range_meters":28000,"station_id":"ce4bho12rcd13ifvqh2g","pricing_plan_id":"cebpf4jnsgd1na2vs0mg"},{"bike_id":"78c8047f-e41a-4487-8427-e1ed61d400e6","system_id":"levelo_inurba_marseille","lat":43.24085,"lon":5.37714,"is_reserved":false,"is_disabled":false,"rental_uris":{"android":"levelo://app?vid=78c8047f-e41a-4487-8427-e1ed61d400e6","ios":"levelo://app?vid=78c8047f-e41a-4487-8427-e1ed61d400e6"},"vehicle_type_id":"4","last_reported":1736586506,"current_range_meters":20800,"station_id":"ce4bhnp2rcd13ifvqgvg","pricing_plan_id":"cebpf4jnsgd1na2vs0mg"},{"bike_id":"10b087d3-b27a-4384-ae75-250401046e12","system_id":"levelo_inurba_marseille","lat":43.31525,"lon":5.38045,"is_reserved":false,"is_disabled":false,"rental_uris":{"android":"levelo://app?vid=10b087d3-b27a-4384-ae75-250401046e12","ios":"levelo://app?vid=10b087d3-b27a-4384-ae75-250401046e12"},"vehicle_type_id":"4","last_reported":1736586506,"current_range_meters":38400,"station_id":"ce4bhsp2rcd13ifvqi50","pricing_plan_id":"cebpf4jnsgd1na2vs0mg"},{"bike_id":"4f4f1e3e-7c74-4289-99f8-67d870186b87","system_id":"levelo_inurba_marseille","lat":43.2766,"lon":5.3893,"is_reserved":false,"is_disabled":false,"rental_uris":{"android":"levelo://app?vid=4f4f1e3e-7c74-4289-99f8-67d870186b87","ios":"levelo://app?vid=4f4f1e3e-7c74-4289-99f8-67d870186b87"},"vehicle_type_id":"4","last_reported":1736586506,"current_range_meters":31200,"station_id":"ce4bhi12rcd13ifvqfo0","pricing_plan_id":"cebpf4jnsgd1na2vs0mg"},{"bike_id":"ad28bd53-1c8c-44ea-9a1c-1e5a5b2498fe","system_id":"levelo_inurba_marseille","lat":43.24147,"lon":5.36414,"is_reserved":false,"is_disabled":false,"rental_uris":{"android":"levelo://app?vid=ad28bd53-1c8c-44ea-9a1c-1e5a5b2498fe","ios":"levelo://app?vid=ad28bd53-1c8c-44ea-9a1c-1e5a5b2498fe"},"vehicle_type_id":"4","last_reported":1736586506,"current_range_meters":8000,"station_id":"cpo36qri1sfpv3e86is0","pricing_plan_id":"cebpf4jnsgd1na2vs0mg"},{"bike_id":"a476a637-6f59-4bf2-a0e4-e7bdde6b3b4c","system_id":"levelo_inurba_marseille","lat":43.29801,"lon":5.38091,"is_reserved":false,"is_disabled":false,"rental_uris":{"android":"levelo://app?vid=a476a637-6f59-4bf2-a0e4-e7bdde6b3b4c","ios":"levelo://app?vid=a476a637-6f59-4bf2-a0e4-e7bdde6b3b4c"},"vehicle_type_id":"4","last_reported":1736586506,"current_range_meters":34000,"station_id":"ce4bgip2rcd13ifvqbb0","pricing_plan_id":"cebpf4jnsgd1na2vs0mg"},{"bike_id":"ddbb6c22-ce6c-4a2b-9053-6349e4af3c9a","system_id":"levelo_inurba_marseille","lat":43.25858,"lon":5.399,"is_reserved":false,"is_disabled":false,"rental_uris":{"android":"levelo://app?vid=ddbb6c22-ce6c-4a2b-9053-6349e4af3c9a","ios":"levelo://app?vid=ddbb6c22-ce6c-4a2b-9053-6349e4af3c9a"},"vehicle_type_id":"4","last_reported":1736586506,"current_range_meters":37600,"station_id":"ce4bhl92rcd13ifvqghg","pricing_plan_id":"cebpf4jnsgd1na2vs0mg"},{"bike_id":"b40cbb82-b14f-4980-8256-9069a45d9975","system_id":"levelo_inurba_marseille","lat":43.28938,"lon":5.39622,"is_reserved":false,"is_disabled":false,"rental_uris":{"android":"levelo://app?vid=b40cbb82-b14f-4980-8256-9069a45d9975","ios":"levelo://app?vid=b40cbb82-b14f-4980-8256-9069a45d9975"},"vehicle_type_id":"4","last_reported":1736586506,"current_range_meters":32400,"station_id":"ce4bh3h2rcd13ifvqdn0","pricing_plan_id":"cebpf4jnsgd1na2vs0mg"},{"bike_id":"edc2e534-d1c4-4d9c-a67c-87dfaa1de669","system_id":"levelo_inurba_marseille","lat":43.286196,"lon":5.35099,"is_reserved":false,"is_disabled":false,"rental_uris":{"android":"levelo://app?vid=edc2e534-d1c4-4d9c-a67c-87dfaa1de669","ios":"levelo://app?vid=edc2e534-d1c4-4d9c-a67c-87dfaa1de669"},"vehicle_type_id":"4","last_reported":1736586506,"current_range_meters":38800,"station_id":"ce4bhch2rcd13ifvqeug","pricing_plan_id":"cebpf4jnsgd1na2vs0mg"},{"bike_id":"792dda9c-3b53-4221-9448-a56d1531897b","system_id":"levelo_inurba_marseille","lat":43.30098,"lon":5.39081,"is_reserved":false,"is_disabled":false,"rental_uris":{"android":"levelo://app?vid=792dda9c-3b53-4221-9448-a56d1531897b","ios":"levelo://app?vid=792dda9c-3b53-4221-9448-a56d1531897b"},"vehicle_type_id":"4","last_reported":1736586506,"current_range_meters":24000,"station_id":"ce4bh192rcd13ifvqdb0","pricing_plan_id":"cebpf4jnsgd1na2vs0mg"},{"bike_id":"8b88170d-e695-4530-8583-a66b3ec41a93","system_id":"levelo_inurba_marseille","lat":43.3361,"lon":5.40992,"is_reserved":false,"is_disabled":true,"rental_uris":{"android":"levelo://app?vid=8b88170d-e695-4530-8583-a66b3ec41a93","ios":"levelo://app?vid=8b88170d-e695-4530-8583-a66b3ec41a93"},"vehicle_type_id":"4","last_reported":1736586506,"current_range_meters":12000,"station_id":"ce4bhqh2rcd13ifvqhmg","pricing_plan_id":"cebpf4jnsgd1na2vs0mg"},{"bike_id":"3a16c1ee-f720-45eb-bdaf-ae71c9e16faf","system_id":"levelo_inurba_marseille","lat":43.325428,"lon":5.414445,"is_reserved":false,"is_disabled":false,"rental_uris":{"android":"levelo://app?vid=3a16c1ee-f720-45eb-bdaf-ae71c9e16faf","ios":"levelo://app?vid=3a16c1ee-f720-45eb-bdaf-ae71c9e16faf"},"vehicle_type_id":"4","last_reported":1736586506,"current_range_meters":37600,"station_id":"ce4bhq12rcd13ifvqhhg","pricing_plan_id":"cebpf4jnsgd1na2vs0mg"},{"bike_id":"b8acbba0-a715-4ced-a2aa-0517db10ac9d","system_id":"levelo_inurba_marseille","lat":43.22898,"lon":5.35407,"is_reserved":false,"is_disabled":true,"rental_uris":{"android":"levelo://app?vid=b8acbba0-a715-4ced-a2aa-0517db10ac9d","ios":"levelo://app?vid=b8acbba0-a715-4ced-a2aa-0517db10ac9d"},"vehicle_type_id":"4","last_reported":1736586506,"current_range_meters":36800,"station_id":"cpo3532slgdg3j2ikp40","pricing_plan_id":"cebpf4jnsgd1na2vs0mg"},{"bike_id":"93eae98b-5ccf-4ee7-9d96-0e4060f411f2","system_id":"levelo_inurba_marseille","lat":43.23964,"lon":5.36626,"is_reserved":false,"is_disabled":false,"rental_uris":{"android":"levelo://app?vid=93eae98b-5ccf-4ee7-9d96-0e4060f411f2","ios":"levelo://app?vid=93eae98b-5ccf-4ee7-9d96-0e4060f411f2"},"vehicle_type_id":"4","last_reported":1736586506,"current_range_meters":28400,"station_id":"ce4bhi12rcd13ifvqfp0","pricing_plan_id":"cebpf4jnsgd1na2vs0mg"},{"bike_id":"10805d30-f651-42fc-83dc-af6ada96f984","system_id":"levelo_inurba_marseille","lat":43.2318,"lon":5.39991,"is_reserved":false,"is_disabled":false,"rental_uris":{"android":"levelo://app?vid=10805d30-f651-42fc-83dc-af6ada96f984","ios":"levelo://app?vid=10805d30-f651-42fc-83dc-af6ada96f984"},"vehicle_type_id":"4","last_reported":1736586506,"current_range_meters":4800,"station_id":"ce4bhn12rcd13ifvqgqg","pricing_plan_id":"cebpf4jnsgd1na2vs0mg"},{"bike_id":"b4fcb130-d7c5-4185-83e5-bb759b7a3f41","system_id":"levelo_inurba_marseille","lat":43.29448,"lon":5.39751,"is_reserved":false,"is_disabled":false,"rental_uris":{"android":"levelo://app?vid=b4fcb130-d7c5-4185-83e5-bb759b7a3f41","ios":"levelo://app?vid=b4fcb130-d7c5-4185-83e5-bb759b7a3f41"},"vehicle_type_id":"4","last_reported":1736586506,"current_range_meters":28400,"station_id":"ce4bh3h2rcd13ifvqdo0","pricing_plan_id":"cebpf4jnsgd1na2vs0mg"},{"bike_id":"0678955c-edb4-4b5b-90a2-6f15544e4612","system_id":"levelo_inurba_marseille","lat":43.28247,"lon":5.35073,"is_reserved":false,"is_disabled":false,"rental_uris":{"android":"levelo://app?vid=0678955c-edb4-4b5b-90a2-6f15544e4612","ios":"levelo://app?vid=0678955c-edb4-4b5b-90a2-6f15544e4612"},"vehicle_type_id":"4","last_reported":1736586506,"current_range_meters":39200,"station_id":"ce4bhbp2rcd13ifvqerg","pricing_plan_id":"cebpf4jnsgd1na2vs0mg"},{"bike_id":"eb58e795-69d2-4128-9bac-5bf120e11b19","system_id":"levelo_inurba_marseille","lat":43.31338,"lon":5.37332,"is_reserved":false,"is_disabled":false,"rental_uris":{"android":"levelo://app?vid=eb58e795-69d2-4128-9bac-5bf120e11b19","ios":"levelo://app?vid=eb58e795-69d2-4128-9bac-5bf120e11b19"},"vehicle_type_id":"4","last_reported":1736586506,"current_range_meters":27200,"station_id":"","pricing_plan_id":"cebpf4jnsgd1na2vs0mg"},{"bike_id":"492eaeaa-12ec-45d5-becd-2f0b35e16c8d","system_id":"levelo_inurba_marseille","lat":43.24156,"lon":5.36395,"is_reserved":false,"is_disabled":false,"rental_uris":{"android":"levelo://app?vid=492eaeaa-12ec-45d5-becd-2f0b35e16c8d","ios":"levelo://app?vid=492eaeaa-12ec-45d5-becd-2f0b35e16c8d"},"vehicle_type_id":"4","last_reported":1736586506,"current_range_meters":9600,"station_id":"cpo36qri1sfpv3e86is0","pricing_plan_id":"cebpf4jnsgd1na2vs0mg"},{"bike_id":"7b413245-2dac-4d21-bfcd-4634cc9397b7","system_id":"levelo_inurba_marseille","lat":43.2407,"lon":5.37763,"is_reserved":false,"is_disabled":false,"rental_uris":{"android":"levelo://app?vid=7b413245-2dac-4d21-bfcd-4634cc9397b7","ios":"levelo://app?vid=7b413245-2dac-4d21-bfcd-4634cc9397b7"},"vehicle_type_id":"4","last_reported":1736586506,"current_range_meters":34800,"station_id":"ce4bhnp2rcd13ifvqgvg","pricing_plan_id":"cebpf4jnsgd1na2vs0mg"},{"bike_id":"377730c6-0336-4c78-9c46-cdee41ff19a9","system_id":"levelo_inurba_marseille","lat":43.28035,"lon":5.411,"is_reserved":false,"is_disabled":true,"rental_uris":{"android":"levelo://app?vid=377730c6-0336-4c78-9c46-cdee41ff19a9","ios":"levelo://app?vid=377730c6-0336-4c78-9c46-cdee41ff19a9"},"vehicle_type_id":"4","last_reported":1736586506,"current_range_meters":2000,"station_id":"","pricing_plan_id":"cebpf4jnsgd1na2vs0mg"},{"bike_id":"266859f2-18fe-482a-8c9f-5bdad982c716","system_id":"levelo_inurba_marseille","lat":43.28039,"lon":5.41129,"is_reserved":false,"is_disabled":true,"rental_uris":{"android":"levelo://app?vid=266859f2-18fe-482a-8c9f-5bdad982c716","ios":"levelo://app?vid=266859f2-18fe-482a-8c9f-5bdad982c716"},"vehicle_type_id":"4","last_reported":1736586506,"current_range_meters":0,"station_id":"","pricing_plan_id":"cebpf4jnsgd1na2vs0mg"},{"bike_id":"fd01bc8c-af59-4352-a996-47a66c3328f9","system_id":"levelo_inurba_marseille","lat":43.29895,"lon":5.38155,"is_reserved":false,"is_disabled":true,"rental_uris":{"android":"levelo://app?vid=fd01bc8c-af59-4352-a996-47a66c3328f9","ios":"levelo://app?vid=fd01bc8c-af59-4352-a996-47a66c3328f9"},"vehicle_type_id":"4","last_reported":1736586506,"current_range_meters":37600,"station_id":"ce4bgj12rcd13ifvqbc0","pricing_plan_id":"cebpf4jnsgd1na2vs0mg"},{"bike_id":"628a5172-c257-409d-b3ae-8fcd3466530c","system_id":"levelo_inurba_marseille","lat":43.2963,"lon":5.37743,"is_reserved":false,"is_disabled":false,"rental_uris":{"android":"levelo://app?vid=628a5172-c257-409d-b3ae-8fcd3466530c","ios":"levelo://app?vid=628a5172-c257-409d-b3ae-8fcd3466530c"},"vehicle_type_id":"4","last_reported":1736586506,"current_range_meters":14400,"station_id":"ce4bgi92rcd13ifvqb90","pricing_plan_id":"cebpf4jnsgd1na2vs0mg"},{"bike_id":"017a4be0-f9e7-4dbd-8d5b-f9c069e4153a","system_id":"levelo_inurba_marseille","lat":43.26558,"lon":5.37284,"is_reserved":false,"is_disabled":false,"rental_uris":{"android":"levelo://app?vid=017a4be0-f9e7-4dbd-8d5b-f9c069e4153a","ios":"levelo://app?vid=017a4be0-f9e7-4dbd-8d5b-f9c069e4153a"},"vehicle_type_id":"4","last_reported":1736586506,"current_range_meters":4000,"station_id":"ce4bhg12rcd13ifvqf70","pricing_plan_id":"cebpf4jnsgd1na2vs0mg"},{"bike_id":"f3eda479-fbc7-483b-af70-e98c73814492","system_id":"levelo_inurba_marseille","lat":43.28842,"lon":5.358715,"is_reserved":false,"is_disabled":false,"rental_uris":{"android":"levelo://app?vid=f3eda479-fbc7-483b-af70-e98c73814492","ios":"levelo://app?vid=f3eda479-fbc7-483b-af70-e98c73814492"},"vehicle_type_id":"4","last_reported":1736586506,"current_range_meters":36000,"station_id":"ce4bhb12rcd13ifvqem0","pricing_plan_id":"cebpf4jnsgd1na2vs0mg"},{"bike_id":"e53ac43a-53d3-47b2-af6c-16783631ac47","system_id":"levelo_inurba_marseille","lat":43.27979,"lon":5.40046,"is_reserved":false,"is_disabled":false,"rental_uris":{"android":"levelo://app?vid=e53ac43a-53d3-47b2-af6c-16783631ac47","ios":"levelo://app?vid=e53ac43a-53d3-47b2-af6c-16783631ac47"},"vehicle_type_id":"4","last_reported":1736586506,"current_range_meters":39200,"station_id":"ce4bho92rcd13ifvqh4g","pricing_plan_id":"cebpf4jnsgd1na2vs0mg"},{"bike_id":"458a1f53-80d3-4da8-b10b-261d3a24c0a6","system_id":"levelo_inurba_marseille","lat":43.31358,"lon":5.38496,"is_reserved":false,"is_disabled":false,"rental_uris":{"android":"levelo://app?vid=458a1f53-80d3-4da8-b10b-261d3a24c0a6","ios":"levelo://app?vid=458a1f53-80d3-4da8-b10b-261d3a24c0a6"},"vehicle_type_id":"4","last_reported":1736586506,"current_range_meters":34800,"station_id":"ce4bgt92rcd13ifvqcf0","pricing_plan_id":"cebpf4jnsgd1na2vs0mg"},{"bike_id":"fa2ca9db-1b78-4239-b60c-fb8c4e90b039","system_id":"levelo_inurba_marseille","lat":43.25493,"lon":5.37658,"is_reserved":false,"is_disabled":false,"rental_uris":{"android":"levelo://app?vid=fa2ca9db-1b78-4239-b60c-fb8c4e90b039","ios":"levelo://app?vid=fa2ca9db-1b78-4239-b60c-fb8c4e90b039"},"vehicle_type_id":"4","last_reported":1736586506,"current_range_meters":16400,"station_id":"ce4bhh12rcd13ifvqff0","pricing_plan_id":"cebpf4jnsgd1na2vs0mg"},{"bike_id":"c8aef9ab-ffaf-4274-a001-16a43e134b7d","system_id":"levelo_inurba_marseille","lat":43.30839,"lon":5.37771,"is_reserved":false,"is_disabled":false,"rental_uris":{"android":"levelo://app?vid=c8aef9ab-ffaf-4274-a001-16a43e134b7d","ios":"levelo://app?vid=c8aef9ab-ffaf-4274-a001-16a43e134b7d"},"vehicle_type_id":"4","last_reported":1736586506,"current_range_meters":30800,"station_id":"","pricing_plan_id":"cebpf4jnsgd1na2vs0mg"},{"bike_id":"e1cf2823-1b48-4a2a-a96a-bbc41e753ad0","system_id":"levelo_inurba_marseille","lat":43.25851,"lon":5.39916,"is_reserved":false,"is_disabled":false,"rental_uris":{"android":"levelo://app?vid=e1cf2823-1b48-4a2a-a96a-bbc41e753ad0","ios":"levelo://app?vid=e1cf2823-1b48-4a2a-a96a-bbc41e753ad0"},"vehicle_type_id":"4","last_reported":1736586506,"current_range_meters":33200,"station_id":"ce4bhl92rcd13ifvqghg","pricing_plan_id":"cebpf4jnsgd1na2vs0mg"},{"bike_id":"a9aa1b94-1957-4f4f-9995-00505182f30a","system_id":"levelo_inurba_marseille","lat":43.29975,"lon":5.37165,"is_reserved":false,"is_disabled":false,"rental_uris":{"android":"levelo://app?vid=a9aa1b94-1957-4f4f-9995-00505182f30a","ios":"levelo://app?vid=a9aa1b94-1957-4f4f-9995-00505182f30a"},"vehicle_type_id":"4","last_reported":1736586506,"current_range_meters":36000,"station_id":"ce4bgr92rcd13ifvqc7g","pricing_plan_id":"cebpf4jnsgd1na2vs0mg"},{"bike_id":"a7eb4e11-718d-420e-b097-7020bb9eebd0","system_id":"levelo_inurba_marseille","lat":43.2903,"lon":5.38136,"is_reserved":false,"is_disabled":false,"rental_uris":{"android":"levelo://app?vid=a7eb4e11-718d-420e-b097-7020bb9eebd0","ios":"levelo://app?vid=a7eb4e11-718d-420e-b097-7020bb9eebd0"},"vehicle_type_id":"4","last_reported":1736586506,"current_range_meters":34800,"station_id":"ce4bh4p2rcd13ifvqe1g","pricing_plan_id":"cebpf4jnsgd1na2vs0mg"},{"bike_id":"7e1aa8be-c5d8-4762-b051-e4859be99d9c","system_id":"levelo_inurba_marseille","lat":43.24645,"lon":5.3891,"is_reserved":false,"is_disabled":false,"rental_uris":{"android":"levelo://app?vid=7e1aa8be-c5d8-4762-b051-e4859be99d9c","ios":"levelo://app?vid=7e1aa8be-c5d8-4762-b051-e4859be99d9c"},