{"last_updated":1679159151,"ttl":30,"version":"2.2","data":{"bikes":[{"bike_id":"f55d129d-0028-4a6b-8245-6906103d4e19","system_id":"levelo_inurba_marseille","lat":43.312239,"lon":5.368562,"is_reserved":false,"is_disabled":false,"rental_uris":{"android":"levelo://app?vid=f55d129d-0028-4a6b-8245-6906103d4e19","ios":"levelo://app?vid=f55d129d-0028-4a6b-8245-6906103d4e19"},"vehicle_type_id":"4","last_reported":1679159152,"current_range_meters":2000,"station_id":"ce4bgl92rcd13ifvqbq0","pricing_plan_id":"free"},{"bike_id":"04e7b099-cbf9-4896-8edc-c55562320d84","system_id":"levelo_inurba_marseille","lat":43.30907,"lon":5.3684,"is_reserved":false,"is_disabled":false,"rental_uris":{"android":"levelo://app?vid=04e7b099-cbf9-4896-8edc-c55562320d84","ios":"levelo://app?vid=04e7b099-cbf9-4896-8edc-c55562320d84"},"vehicle_type_id":"4","last_reported":1679159152,"current_range_meters":14000,"station_id":"","pricing_plan_id":"free"},{"bike_id":"93a80e25-cbdb-427d-8337-89c8e52e41a7","system_id":"levelo_inurba_marseille","lat":43.30903,"lon":5.36846,"is_reserved":false,"is_disabled":false,"rental_uris":{"android":"levelo://app?vid=93a80e25-cbdb-427d-8337-89c8e52e41a7","ios":"levelo://app?vid=93a80e25-cbdb-427d-8337-89c8e52e41a7"},"vehicle_type_id":"4","last_reported":1679159152,"current_range_meters":11600,"station_id":"","pricing_plan_id":"free"},{"bike_id":"fc87eebc-49b5-4f2b-8f3a-a85f4cae4491","system_id":"levelo_inurba_marseille","lat":43.314811,"lon":5.373103,"is_reserved":false,"is_disabled":false,"rental_uris":{"android":"levelo://app?vid=fc87eebc-49b5-4f2b-8f3a-a85f4cae4491","ios":"levelo://app?vid=fc87eebc-49b5-4f2b-8f3a-a85f4cae4491"},"vehicle_type_id":"4","last_reported":1679159152,"current_range_meters":0,"station_id":"ce4bgt12rcd13ifvqcd0","pricing_plan_id":"free"},{"bike_id":"f68f6cd6-faa4-4111-b4c8-0ba44917cc71","system_id":"levelo_inurba_marseille","lat":43.3061,"lon":5.37233,"is_reserved":false,"is_disabled":false,"rental_uris":{"android":"levelo://app?vid=f68f6cd6-faa4-4111-b4c8-0ba44917cc71","ios":"levelo://app?vid=f68f6cd6-faa4-4111-b4c8-0ba44917cc71"},"vehicle_type_id":"4","last_reported":1679159152,"current_range_meters":3600,"station_id":"ce4bgqh2rcd13ifvqc4g","pricing_plan_id":"free"},{"bike_id":"ebf0ab4d-c9ef-4c65-bb89-3224226c71f3","system_id":"levelo_inurba_marseille","lat":43.306026,"lon":5.372203,"is_reserved":false,"is_disabled":false,"rental_uris":{"android":"levelo://app?vid=ebf0ab4d-c9ef-4c65-bb89-3224226c71f3","ios":"levelo://app?vid=ebf0ab4d-c9ef-4c65-bb89-3224226c71f3"},"vehicle_type_id":"4","last_reported":1679159152,"current_range_meters":400,"station_id":"ce4bgqh2rcd13ifvqc4g","pricing_plan_id":"free"},{"bike_id":"e8fd6002-2699-4595-992f-deecb08d4464","system_id":"levelo_inurba_marseille","lat":43.305989,"lon":5.37225,"is_reserved":false,"is_disabled":false,"rental_uris":{"android":"levelo://app?vid=e8fd6002-2699-4595-992f-deecb08d4464","ios":"levelo://app?vid=e8fd6002-2699-4595-992f-deecb08d4464"},"vehicle_type_id":"4","last_reported":1679159152,"current_range_meters":8400,"station_id":"ce4bgqh2rcd13ifvqc4g","pricing_plan_id":"free"},{"bike_id":"b84c4763-b160-4e98-9f7a-e6150eed8eb1","system_id":"levelo_inurba_marseille","lat":43.305989,"lon":5.37225,"is_reserved":false,"is_disabled":false,"rental_uris":{"android":"levelo://app?vid=b84c4763-b160-4e98-9f7a-e6150eed8eb1","ios":"levelo://app?vid=b84c4763-b160-4e98-9f7a-e6150eed8eb1"},"vehicle_type_id":"4","last_reported":1679159152,"current_range_meters":3600,"station_id":"ce4bgqh2rcd13ifvqc4g","pricing_plan_id":"free"},{"bike_id":"07401fdc-aefc-4262-a9c2-26452f12b8f2","system_id":"levelo_inurba_marseille","lat":43.31709,"lon":5.37751,"is_reserved":false,"is_disabled":false,"rental_uris":{"android":"levelo://app?vid=07401fdc-aefc-4262-a9c2-26452f12b8f2","ios":"levelo://app?vid=07401fdc-aefc-4262-a9c2-26452f12b8f2"},"vehicle_type_id":"4","last_reported":1679159152,"current_range_meters":12400,"station_id":"ce4bgth2rcd13ifvqch0","pricing_plan_id":"free"},{"bike_id":"42da1113-fd49-4507-b355-1977a2a2e6d6","system_id":"levelo_inurba_marseille","lat":43.301939,"lon":5.366286,"is_reserved":false,"is_disabled":false,"rental_uris":{"android":"levelo://app?vid=42da1113-fd49-4507-b355-1977a2a2e6d6","ios":"levelo://app?vid=42da1113-fd49-4507-b355-1977a2a2e6d6"},"vehicle_type_id":"4","last_reported":1679159152,"current_range_meters":1200,"station_id":"ce4bgrh2rcd13ifvqc8g","pricing_plan_id":"free"},{"bike_id":"2637e3ce-f26a-4dcf-b7f9-1507cfd38e4c","system_id":"levelo_inurba_marseille","lat":43.301939,"lon":5.366286,"is_reserved":false,"is_disabled":false,"rental_uris":{"android":"levelo://app?vid=2637e3ce-f26a-4dcf-b7f9-1507cfd38e4c","ios":"levelo://app?vid=2637e3ce-f26a-4dcf-b7f9-1507cfd38e4c"},"vehicle_type_id":"4","last_reported":1679159152,"current_range_meters":400,"station_id":"ce4bgrh2rcd13ifvqc8g","pricing_plan_id":"free"},{"bike_id":"dae31cb3-ccad-43c1-9b15-dc46731e5373","system_id":"levelo_inurba_marseille","lat":43.308012,"lon":5.381511,"is_reserved":false,"is_disabled":false,"rental_uris":{"android":"levelo://app?vid=dae31cb3-ccad-43c1-9b15-dc46731e5373","ios":"levelo://app?vid=dae31cb3-ccad-43c1-9b15-dc46731e5373"},"vehicle_type_id":"4","last_reported":1679159152,"current_range_meters":0,"station_id":"ce4bgt12rcd13ifvqce0","pricing_plan_id":"free"},{"bike_id":"ec1a7048-fdc0-44db-bb36-2573c6e9a67d","system_id":"levelo_inurba_marseille","lat":43.304606,"lon":5.379026,"is_reserved":false,"is_disabled":false,"rental_uris":{"android":"levelo://app?vid=ec1a7048-fdc0-44db-bb36-2573c6e9a67d","ios":"levelo://app?vid=ec1a7048-fdc0-44db-bb36-2573c6e9a67d"},"vehicle_type_id":"4","last_reported":1679159152,"current_range_meters":4400,"station_id":"ce4bgup2rcd13ifvqcn0","pricing_plan_id":"free"},{"bike_id":"a3a26f8a-52f1-484d-b06c-552e0f98d28c","system_id":"levelo_inurba_marseille","lat":43.30142,"lon":5.374113,"is_reserved":false,"is_disabled":false,"rental_uris":{"android":"levelo://app?vid=a3a26f8a-52f1-484d-b06c-552e0f98d28c","ios":"levelo://app?vid=a3a26f8a-52f1-484d-b06c-552e0f98d28c"},"vehicle_type_id":"4","last_reported":1679159152,"current_range_meters":0,"station_id":"ce4bgs92rcd13ifvqcc0","pricing_plan_id":"free"},{"bike_id":"621d81d5-f2c4-4d03-aa1e-0c4a96d06d1e","system_id":"levelo_inurba_marseille","lat":43.31366,"lon":5.3849,"is_reserved":false,"is_disabled":false,"rental_uris":{"android":"levelo://app?vid=621d81d5-f2c4-4d03-aa1e-0c4a96d06d1e","ios":"levelo://app?vid=621d81d5-f2c4-4d03-aa1e-0c4a96d06d1e"},"vehicle_type_id":"4","last_reported":1679159152,"current_range_meters":21600,"station_id":"ce4bgt92rcd13ifvqcf0","pricing_plan_id":"free"},{"bike_id":"6e5ef40c-b2a8-47bf-ac3e-cafa41e5e663","system_id":"levelo_inurba_marseille","lat":43.31367,"lon":5.38494,"is_reserved":false,"is_disabled":false,"rental_uris":{"android":"levelo://app?vid=6e5ef40c-b2a8-47bf-ac3e-cafa41e5e663","ios":"levelo://app?vid=6e5ef40c-b2a8-47bf-ac3e-cafa41e5e663"},"vehicle_type_id":"4","last_reported":1679159152,"current_range_meters":25600,"station_id":"","pricing_plan_id":"free"},{"bike_id":"374832ca-8df8-410b-8b25-233eced28491","system_id":"levelo_inurba_marseille","lat":43.299094,"lon":5.365415,"is_reserved":false,"is_disabled":false,"rental_uris":{"android":"levelo://app?vid=374832ca-8df8-410b-8b25-233eced28491","ios":"levelo://app?vid=374832ca-8df8-410b-8b25-233eced28491"},"vehicle_type_id":"4","last_reported":1679159152,"current_range_meters":24800,"station_id":"ce4bgm92rcd13ifvqbr0","pricing_plan_id":"free"},{"bike_id":"78d7bdf4-a42e-4c54-8121-b5921864fce6","system_id":"levelo_inurba_marseille","lat":43.29787,"lon":5.371029,"is_reserved":false,"is_disabled":false,"rental_uris":{"android":"levelo://app?vid=78d7bdf4-a42e-4c54-8121-b5921864fce6","ios":"levelo://app?vid=78d7bdf4-a42e-4c54-8121-b5921864fce6"},"vehicle_type_id":"4","last_reported":1679159152,"current_range_meters":31600,"station_id":"ce4bgop2rcd13ifvqc1g","pricing_plan_id":"free"},{"bike_id":"18343167-f5e0-48a6-901d-68f7cc188969","system_id":"levelo_inurba_marseille","lat":43.297818,"lon":5.371017,"is_reserved":false,"is_disabled":false,"rental_uris":{"android":"levelo://app?vid=18343167-f5e0-48a6-901d-68f7cc188969","ios":"levelo://app?vid=18343167-f5e0-48a6-901d-68f7cc188969"},"vehicle_type_id":"4","last_reported":1679159152,"current_range_meters":31600,"station_id":"ce4bgop2rcd13ifvqc1g","pricing_plan_id":"free"},{"bike_id":"8a7367ae-cd8b-4b26-985d-bd5a848e6c45","system_id":"levelo_inurba_marseille","lat":43.297793,"lon":5.371055,"is_reserved":false,"is_disabled":false,"rental_uris":{"android":"levelo://app?vid=8a7367ae-cd8b-4b26-985d-bd5a848e6c45","ios":"levelo://app?vid=8a7367ae-cd8b-4b26-985d-bd5a848e6c45"},"vehicle_type_id":"4","last_reported":1679159152,"current_range_meters":31600,"station_id":"ce4bgop2rcd13ifvqc1g","pricing_plan_id":"free"},{"bike_id":"baaf3f0a-5399-45da-81f8-6fa6b9d8bcb9","system_id":"levelo_inurba_marseille","lat":43.296131,"lon":5.370791,"is_reserved":false,"is_disabled":false,"rental_uris":{"android":"levelo://app?vid=baaf3f0a-5399-45da-81f8-6fa6b9d8bcb9","ios":"levelo://app?vid=baaf3f0a-5399-45da-81f8-6fa6b9d8bcb9"},"vehicle_type_id":"4","last_reported":1679159152,"current_range_meters":15200,"station_id":"ce4bgnh2rcd13ifvqc0g","pricing_plan_id":"free"},{"bike_id":"51619a65-0f93-44c7-b5e8-140d63f903f5","system_id":"levelo_inurba_marseille","lat":43.297288,"lon":5.376822,"is_reserved":false,"is_disabled":false,"rental_uris":{"android":"levelo://app?vid=51619a65-0f93-44c7-b5e8-140d63f903f5","ios":"levelo://app?vid=51619a65-0f93-44c7-b5e8-140d63f903f5"},"vehicle_type_id":"4","last_reported":1679159152,"current_range_meters":0,"station_id":"","pricing_plan_id":"free"},{"bike_id":"4dafff6b-9621-4e2b-86a4-abd86b4f6566","system_id":"levelo_inurba_marseille","lat":43.317583,"lon":5.39017,"is_reserved":false,"is_disabled":false,"rental_uris":{"android":"levelo://app?vid=4dafff6b-9621-4e2b-86a4-abd86b4f6566","ios":"levelo://app?vid=4dafff6b-9621-4e2b-86a4-abd86b4f6566"},"vehicle_type_id":"4","last_reported":1679159152,"current_range_meters":0,"station_id":"ce4bhqp2rcd13ifvqhng","pricing_plan_id":"free"},{"bike_id":"7737338f-a82a-4dc4-9e1e-86026a49b5b4","system_id":"levelo_inurba_marseille","lat":43.298037,"lon":5.381066,"is_reserved":false,"is_disabled":false,"rental_uris":{"android":"levelo://app?vid=7737338f-a82a-4dc4-9e1e-86026a49b5b4","ios":"levelo://app?vid=7737338f-a82a-4dc4-9e1e-86026a49b5b4"},"vehicle_type_id":"4","last_reported":1679159152,"current_range_meters":0,"station_id":"ce4bgip2rcd13ifvqbb0","pricing_plan_id":"free"},{"bike_id":"04f901c6-b9f0-4dea-be54-06d8b4e1ba44","system_id":"levelo_inurba_marseille","lat":43.29578,"lon":5.37517,"is_reserved":false,"is_disabled":false,"rental_uris":{"android":"levelo://app?vid=04f901c6-b9f0-4dea-be54-06d8b4e1ba44","ios":"levelo://app?vid=04f901c6-b9f0-4dea-be54-06d8b4e1ba44"},"vehicle_type_id":"4","last_reported":1679159152,"current_range_meters":2000,"station_id":"","pricing_plan_id":"free"},{"bike_id":"5971bedb-4e55-4cca-a827-15c1c85bce63","system_id":"levelo_inurba_marseille","lat":43.299691,"lon":5.384944,"is_reserved":false,"is_disabled":false,"rental_uris":{"android":"levelo://app?vid=5971bedb-4e55-4cca-a827-15c1c85bce63","ios":"levelo://app?vid=5971bedb-4e55-4cca-a827-15c1c85bce63"},"vehicle_type_id":"4","last_reported":1679159152,"current_range_meters":0,"station_id":"ce4bgj92rcd13ifvqbd0","pricing_plan_id":"free"},{"bike_id":"ca70e12c-ccc1-46c9-8c5e-9b6c6e94e0b5","system_id":"levelo_inurba_marseille","lat":43.323695,"lon":5.388878,"is_reserved":false,"is_disabled":false,"rental_uris":{"android":"levelo://app?vid=ca70e12c-ccc1-46c9-8c5e-9b6c6e94e0b5","ios":"levelo://app?vid=ca70e12c-ccc1-46c9-8c5e-9b6c6e94e0b5"},"vehicle_type_id":"4","last_reported":1679159152,"current_range_meters":0,"station_id":"ce4bhqp2rcd13ifvqhog","pricing_plan_id":"free"},{"bike_id":"e0a23be1-fb39-4291-8813-4e3e51109b79","system_id":"levelo_inurba_marseille","lat":43.293011,"lon":5.374509,"is_reserved":false,"is_disabled":false,"rental_uris":{"android":"levelo://app?vid=e0a23be1-fb39-4291-8813-4e3e51109b79","ios":"levelo://app?vid=e0a23be1-fb39-4291-8813-4e3e51109b79"},"vehicle_type_id":"4","last_reported":1679159152,"current_range_meters":0,"station_id":"ce4bgi12rcd13ifvqb70","pricing_plan_id":"free"},{"bike_id":"f52483d0-ab34-4c3c-9ffc-aa4a75696f86","system_id":"levelo_inurba_marseille","lat":43.305994,"lon":5.393687,"is_reserved":false,"is_disabled":false,"rental_uris":{"android":"levelo://app?vid=f52483d0-ab34-4c3c-9ffc-aa4a75696f86","ios":"levelo://app?vid=f52483d0-ab34-4c3c-9ffc-aa4a75696f86"},"vehicle_type_id":"4","last_reported":1679159152,"current_range_meters":6800,"station_id":"ce4bh0p2rcd13ifvqd80","pricing_plan_id":"free"},{"bike_id":"8de1b80a-49e8-4bf1-bf2e-7346e9e19889","system_id":"levelo_inurba_marseille","lat":43.313291,"lon":5.396838,"is_reserved":false,"is_disabled":false,"rental_uris":{"android":"levelo://app?vid=8de1b80a-49e8-4bf1-bf2e-7346e9e19889","ios":"levelo://app?vid=8de1b80a-49e8-4bf1-bf2e-7346e9e19889"},"vehicle_type_id":"4","last_reported":1679159152,"current_range_meters":0,"station_id":"ce4bgvp2rcd13ifvqcu0","pricing_plan_id":"free"},{"bike_id":"1c618ac7-d705-4b52-acc6-dee511246f32","system_id":"levelo_inurba_marseille","lat":43.313291,"lon":5.396838,"is_reserved":false,"is_disabled":false,"rental_uris":{"android":"levelo://app?vid=1c618ac7-d705-4b52-acc6-dee511246f32","ios":"levelo://app?vid=1c618ac7-d705-4b52-acc6-dee511246f32"},"vehicle_type_id":"4","last_reported":1679159152,"current_range_meters":2800,"station_id":"ce4bgvp2rcd13ifvqcu0","pricing_plan_id":"free"},{"bike_id":"a2ea142d-6b25-4c4d-905b-a7ef4e1690ac","system_id":"levelo_inurba_marseille","lat":43.295844,"lon":5.386551,"is_reserved":false,"is_disabled":false,"rental_uris":{"android":"levelo://app?vid=a2ea142d-6b25-4c4d-905b-a7ef4e1690ac","ios":"levelo://app?vid=a2ea142d-6b25-4c4d-905b-a7ef4e1690ac"},"vehicle_type_id":"4","last_reported":1679159152,"current_range_meters":0,"station_id":"","pricing_plan_id":"free"},{"bike_id":"ecac682f-40a2-47f2-ba2b-7d2cb43a2773","system_id":"levelo_inurba_marseille","lat":43.290387,"lon":5.35918,"is_reserved":false,"is_disabled":false,"rental_uris":{"android":"levelo://app?vid=ecac682f-40a2-47f2-ba2b-7d2cb43a2773","ios":"levelo://app?vid=ecac682f-40a2-47f2-ba2b-7d2cb43a2773"},"vehicle_type_id":"4","last_reported":1679159152,"current_range_meters":0,"station_id":"ce4bha92rcd13ifvqeg0","pricing_plan_id":"free"},{"bike_id":"3da8b2bf-9dfd-47c2-bda8-b388c2218215","system_id":"levelo_inurba_marseille","lat":43.292644,"lon":5.384257,"is_reserved":false,"is_disabled":false,"rental_uris":{"android":"levelo://app?vid=3da8b2bf-9dfd-47c2-bda8-b388c2218215","ios":"levelo://app?vid=3da8b2bf-9dfd-47c2-bda8-b388c2218215"},"vehicle_type_id":"4","last_reported":1679159152,"current_range_meters":8000,"station_id":"ce4bh692rcd13ifvqea0","pricing_plan_id":"free"},{"bike_id":"bcf4d34c-dc79-43ed-9f9c-232a7b838691","system_id":"levelo_inurba_marseille","lat":43.290104,"lon":5.356111,"is_reserved":false,"is_disabled":false,"rental_uris":{"android":"levelo://app?vid=bcf4d34c-dc79-43ed-9f9c-232a7b838691","ios":"levelo://app?vid=bcf4d34c-dc79-43ed-9f9c-232a7b838691"},"vehicle_type_id":"4","last_reported":1679159152,"current_range_meters":400,"station_id":"ce4bhb92rcd13ifvqen0","pricing_plan_id":"free"},{"bike_id":"d3280d0c-80ce-43a2-b8e6-0474d7d82186","system_id":"levelo_inurba_marseille","lat":43.291041,"lon":5.381306,"is_reserved":false,"is_disabled":false,"rental_uris":{"android":"levelo://app?vid=d3280d0c-80ce-43a2-b8e6-0474d7d82186","ios":"levelo://app?vid=d3280d0c-80ce-43a2-b8e6-0474d7d82186"},"vehicle_type_id":"4","last_reported":1679159152,"current_range_meters":0,"station_id":"ce4bh512rcd13ifvqe2g","pricing_plan_id":"free"},{"bike_id":"d17231f9-8212-4dc3-821e-bfb9ef883d6f","system_id":"levelo_inurba_marseille","lat":43.289741,"lon":5.378306,"is_reserved":false,"is_disabled":false,"rental_uris":{"android":"levelo://app?vid=d17231f9-8212-4dc3-821e-bfb9ef883d6f","ios":"levelo://app?vid=d17231f9-8212-4dc3-821e-bfb9ef883d6f"},"vehicle_type_id":"4","last_reported":1679159152,"current_range_meters":17200,"station_id":"ce4bh9p2rcd13ifvqed0","pricing_plan_id":"free"},{"bike_id":"42d406f5-8d96-4ba0-87e6-ba4632f78f24","system_id":"levelo_inurba_marseille","lat":43.291,"lon":5.38135,"is_reserved":false,"is_disabled":false,"rental_uris":{"android":"levelo://app?vid=42d406f5-8d96-4ba0-87e6-ba4632f78f24","ios":"levelo://app?vid=42d406f5-8d96-4ba0-87e6-ba4632f78f24"},"vehicle_type_id":"4","last_reported":1679159152,"current_range_meters":17600,"station_id":"","pricing_plan_id":"free"},{"bike_id":"f0888a5d-8469-4a4a-aa32-e51183159fbe","system_id":"levelo_inurba_marseille","lat":43.337455,"lon":5.374605,"is_reserved":false,"is_disabled":false,"rental_uris":{"android":"levelo://app?vid=f0888a5d-8469-4a4a-aa32-e51183159fbe","ios":"levelo://app?vid=f0888a5d-8469-4a4a-aa32-e51183159fbe"},"vehicle_type_id":"4","last_reported":1679159152,"current_range_meters":12400,"station_id":"","pricing_plan_id":"free"},{"bike_id":"3691d997-1cad-46ed-b7e6-586680d35f2f","system_id":"levelo_inurba_marseille","lat":43.337453,"lon":5.37465,"is_reserved":false,"is_disabled":false,"rental_uris":{"android":"levelo://app?vid=3691d997-1cad-46ed-b7e6-586680d35f2f","ios":"levelo://app?vid=3691d997-1cad-46ed-b7e6-586680d35f2f"},"vehicle_type_id":"4","last_reported":1679159152,"current_range_meters":20800,"station_id":"","pricing_plan_id":"free"},{"bike_id":"97a70748-85a2-4139-aa8d-3426ee2a5b86","system_id":"levelo_inurba_marseille","lat":43.337501,"lon":5.374448,"is_reserved":false,"is_disabled":false,"rental_uris":{"android":"levelo://app?vid=97a70748-85a2-4139-aa8d-3426ee2a5b86","ios":"levelo://app?vid=97a70748-85a2-4139-aa8d-3426ee2a5b86"},"vehicle_type_id":"4","last_reported":1679159152,"current_range_meters":0,"station_id":"","pricing_plan_id":"free"},{"bike_id":"f3e60a9c-2b74-43cb-ac11-5dfafdbb73c0","system_id":"levelo_inurba_marseille","lat":43.337556,"lon":5.374671,"is_reserved":false,"is_disabled":false,"rental_uris":{"android":"levelo://app?vid=f3e60a9c-2b74-43cb-ac11-5dfafdbb73c0","ios":"levelo://app?vid=f3e60a9c-2b74-43cb-ac11-5dfafdbb73c0"},"vehicle_type_id":"4","last_reported":1679159152,"current_range_meters":26000,"station_id":"","pricing_plan_id":"free"},{"bike_id":"5c504586-56d4-4b66-81b6-d719e722e569","system_id":"levelo_inurba_marseille","lat":43.30642,"lon":5.401031,"is_reserved":false,"is_disabled":false,"rental_uris":{"android":"levelo://app?vid=5c504586-56d4-4b66-81b6-d719e722e569","ios":"levelo://app?vid=5c504586-56d4-4b66-81b6-d719e722e569"},"vehicle_type_id":"4","last_reported":1679159152,"current_range_meters":0,"station_id":"ce4bh112rcd13ifvqda0","pricing_plan_id":"free"},{"bike_id":"eeb53b16-5e20-4743-853b-416429876e98","system_id":"levelo_inurba_marseille","lat":43.2866,"lon":5.36366,"is_reserved":false,"is_disabled":false,"rental_uris":{"android":"levelo://app?vid=eeb53b16-5e20-4743-853b-416429876e98","ios":"levelo://app?vid=eeb53b16-5e20-4743-853b-416429876e98"},"vehicle_type_id":"4","last_reported":1679159152,"current_range_meters":800,"station_id":"ce4bhah2rcd13ifvqej0","pricing_plan_id":"free"},{"bike_id":"f94bec2c-7096-404d-8e13-0fbec83a35cf","system_id":"levelo_inurba_marseille","lat":43.2866,"lon":5.3636,"is_reserved":false,"is_disabled":false,"rental_uris":{"android":"levelo://app?vid=f94bec2c-7096-404d-8e13-0fbec83a35cf","ios":"levelo://app?vid=f94bec2c-7096-404d-8e13-0fbec83a35cf"},"vehicle_type_id":"4","last_reported":1679159152,"current_range_meters":5200,"station_id":"ce4bhah2rcd13ifvqej0","pricing_plan_id":"free"},{"bike_id":"a15f92c5-b145-4ae8-8957-a96223e64e22","system_id":"levelo_inurba_marseille","lat":43.295286,"lon":5.393994,"is_reserved":false,"is_disabled":false,"rental_uris":{"android":"levelo://app?vid=a15f92c5-b145-4ae8-8957-a96223e64e22","ios":"levelo://app?vid=a15f92c5-b145-4ae8-8957-a96223e64e22"},"vehicle_type_id":"4","last_reported":1679159152,"current_range_meters":30000,"station_id":"ce4bh212rcd13ifvqde0","pricing_plan_id":"free"},{"bike_id":"fed3604a-f5e9-4cb7-bb52-7f8b9d2bf8dc","system_id":"levelo_inurba_marseille","lat":43.295221,"lon":5.394054,"is_reserved":false,"is_disabled":false,"rental_uris":{"android":"levelo://app?vid=fed3604a-f5e9-4cb7-bb52-7f8b9d2bf8dc","ios":"levelo://app?vid=fed3604a-f5e9-4cb7-bb52-7f8b9d2bf8dc"},"vehicle_type_id":"4","last_reported":1679159152,"current_range_meters":26800,"station_id":"ce4bh212rcd13ifvqde0","pricing_plan_id":"free"},{"bike_id":"2504df99-1ded-49b2-9347-ab36c589e5d1","system_id":"levelo_inurba_marseille","lat":43.286039,"lon":5.370679,"is_reserved":false,"is_disabled":false,"rental_uris":{"android":"levelo://app?vid=2504df99-1ded-49b2-9347-ab36c589e5d1","ios":"levelo://app?vid=2504df99-1ded-49b2-9347-ab36c589e5d1"},"vehicle_type_id":"4","last_reported":1679159152,"current_range_meters":3200,"station_id":"ce4bht12rcd13ifvqi60","pricing_plan_id":"free"},{"bike_id":"80f6d5c9-961f-45d9-8878-74ff6899d4dc","system_id":"levelo_inurba_marseille","lat":43.286039,"lon":5.370679,"is_reserved":false,"is_disabled":false,"rental_uris":{"android":"levelo://app?vid=80f6d5c9-961f-45d9-8878-74ff6899d4dc","ios":"levelo://app?vid=80f6d5c9-961f-45d9-8878-74ff6899d4dc"},"vehicle_type_id":"4","last_reported":1679159152,"current_range_meters":800,"station_id":"ce4bht12rcd13ifvqi60","pricing_plan_id":"free"},{"bike_id":"2aa75c71-9f1c-435e-872a-b8800ace6578","system_id":"levelo_inurba_marseille","lat":43.286039,"lon":5.370679,"is_reserved":false,"is_disabled":false,"rental_uris":{"android":"levelo://app?vid=2aa75c71-9f1c-435e-872a-b8800ace6578","ios":"levelo://app?vid=2aa75c71-9f1c-435e-872a-b8800ace6578"},"vehicle_type_id":"4","last_reported":1679159152,"current_range_meters":0,"station_id":"ce4bht12rcd13ifvqi60","pricing_plan_id":"free"},{"bike_id":"dab77d8e-1803-45dc-989b-68d669c9471f","system_id":"levelo_inurba_marseille","lat":43.284219,"lon":5.3497,"is_reserved":false,"is_disabled":false,"rental_uris":{"android":"levelo://app?vid=dab77d8e-1803-45dc-989b-68d669c9471f","ios":"levelo://app?vid=dab77d8e-1803-45dc-989b-68d669c9471f"},"vehicle_type_id":"4","last_reported":1679159152,"current_range_meters":20000,"station_id":"ce4bhbh2rcd13ifvqepg","pricing_plan_id":"free"},{"bike_id":"bd51026a-edee-4257-a106-8fabf71d91c9","system_id":"levelo_inurba_marseille","lat":43.284219,"lon":5.3497,"is_reserved":false,"is_disabled":false,"rental_uris":{"android":"levelo://app?vid=bd51026a-edee-4257-a106-8fabf71d91c9","ios":"levelo://app?vid=bd51026a-edee-4257-a106-8fabf71d91c9"},"vehicle_type_id":"4","last_reported":1679159152,"current_range_meters":18000,"station_id":"ce4bhbh2rcd13ifvqepg","pricing_plan_id":"free"},{"bike_id":"46d67ef8-ffa9-4789-9707-2456c7e93e42","system_id":"levelo_inurba_marseille","lat":43.289363,"lon":5.396322,"is_reserved":false,"is_disabled":false,"rental_uris":{"android":"levelo://app?vid=46d67ef8-ffa9-4789-9707-2456c7e93e42","ios":"levelo://app?vid=46d67ef8-ffa9-4789-9707-2456c7e93e42"},"vehicle_type_id":"4","last_reported":1679159152,"current_range_meters":24000,"station_id":"ce4bh3h2rcd13ifvqdn0","pricing_plan_id":"free"},{"bike_id":"aeb57ca0-ad06-44a8-b30c-e3c72ab31053","system_id":"levelo_inurba_marseille","lat":43.282754,"lon":5.350519,"is_reserved":false,"is_disabled":false,"rental_uris":{"android":"levelo://app?vid=aeb57ca0-ad06-44a8-b30c-e3c72ab31053","ios":"levelo://app?vid=aeb57ca0-ad06-44a8-b30c-e3c72ab31053"},"vehicle_type_id":"4","last_reported":1679159152,"current_range_meters":12800,"station_id":"ce4bhbp2rcd13ifvqerg","pricing_plan_id":"free"},{"bike_id":"9fcc452d-a53a-42c8-a9ee-84008fa926de","system_id":"levelo_inurba_marseille","lat":43.282754,"lon":5.350519,"is_reserved":false,"is_disabled":false,"rental_uris":{"android":"levelo://app?vid=9fcc452d-a53a-42c8-a9ee-84008fa926de","ios":"levelo://app?vid=9fcc452d-a53a-42c8-a9ee-84008fa926de"},"vehicle_type_id":"4","last_reported":1679159152,"current_range_meters":30800,"station_id":"ce4bhbp2rcd13ifvqerg","pricing_plan_id":"free"},{"bike_id":"9209c739-790e-4fc5-87ed-73b7540ffc3d","system_id":"levelo_inurba_marseille","lat":43.28271,"lon":5.35059,"is_reserved":false,"is_disabled":false,"rental_uris":{"android":"levelo://app?vid=9209c739-790e-4fc5-87ed-73b7540ffc3d","ios":"levelo://app?vid=9209c739-790e-4fc5-87ed-73b7540ffc3d"},"vehicle_type_id":"4","last_reported":1679159152,"current_range_meters":16000,"station_id":"","pricing_plan_id":"free"},{"bike_id":"a120d45f-92f8-4970-8651-da3192676d70","system_id":"levelo_inurba_marseille","lat":43.28266,"lon":5.35056,"is_reserved":false,"is_disabled":false,"rental_uris":{"android":"levelo://app?vid=a120d45f-92f8-4970-8651-da3192676d70","ios":"levelo://app?vid=a120d45f-92f8-4970-8651-da3192676d70"},"vehicle_type_id":"4","last_reported":1679159152,"current_range_meters":2000,"station_id":"","pricing_plan_id":"free"},{"bike_id":"63670342-7dea-49e0-a956-019788946bc1","system_id":"levelo_inurba_marseille","lat":43.290412,"lon":5.399633,"is_reserved":false,"is_disabled":false,"rental_uris":{"android":"levelo://app?vid=63670342-7dea-49e0-a956-019788946bc1","ios":"levelo://app?vid=63670342-7dea-49e0-a956-019788946bc1"},"vehicle_type_id":"4","last_reported":1679159152,"current_range_meters":18400,"station_id":"ce4bh392rcd13ifvqdm0","pricing_plan_id":"free"},{"bike_id":"98f2556e-9fb6-435d-8506-bbb585354afc","system_id":"levelo_inurba_marseille","lat":43.28112,"lon":5.37838,"is_reserved":false,"is_disabled":false,"rental_uris":{"android":"levelo://app?vid=98f2556e-9fb6-435d-8506-bbb585354afc","ios":"levelo://app?vid=98f2556e-9fb6-435d-8506-bbb585354afc"},"vehicle_type_id":"4","last_reported":1679159152,"current_range_meters":13600,"station_id":"ce4bha12rcd13ifvqee0","pricing_plan_id":"free"},{"bike_id":"0e5407be-34d0-418e-8da1-927ca8deb682","system_id":"levelo_inurba_marseille","lat":43.281044,"lon":5.378308,"is_reserved":false,"is_disabled":false,"rental_uris":{"android":"levelo://app?vid=0e5407be-34d0-418e-8da1-927ca8deb682","ios":"levelo://app?vid=0e5407be-34d0-418e-8da1-927ca8deb682"},"vehicle_type_id":"4","last_reported":1679159152,"current_range_meters":1200,"station_id":"ce4bha12rcd13ifvqee0","pricing_plan_id":"free"},{"bike_id":"9f87a54e-3921-4574-88f5-a4d57213baec","system_id":"levelo_inurba_marseille","lat":43.284481,"lon":5.392054,"is_reserved":false,"is_disabled":false,"rental_uris":{"android":"levelo://app?vid=9f87a54e-3921-4574-88f5-a4d57213baec","ios":"levelo://app?vid=9f87a54e-3921-4574-88f5-a4d57213baec"},"vehicle_type_id":"4","last_reported":1679159152,"current_range_meters":17600,"station_id":"ce4bhoh2rcd13ifvqh5g","pricing_plan_id":"free"},{"bike_id":"f911e7e8-491a-4692-b5ee-2a84652a5ede","system_id":"levelo_inurba_marseille","lat":43.320045,"lon":5.415048,"is_reserved":false,"is_disabled":false,"rental_uris":{"android":"levelo://app?vid=f911e7e8-491a-4692-b5ee-2a84652a5ede","ios":"levelo://app?vid=f911e7e8-491a-4692-b5ee-2a84652a5ede"},"vehicle_type_id":"4","last_reported":1679159152,"current_range_meters":17200,"station_id":"ce4bhq92rcd13ifvqhkg","pricing_plan_id":"free"},{"bike_id":"1e4eaae4-2629-4e09-89a4-da5d935d35f1","system_id":"levelo_inurba_marseille","lat":43.32465,"lon":5.41429,"is_reserved":false,"is_disabled":false,"rental_uris":{"android":"levelo://app?vid=1e4eaae4-2629-4e09-89a4-da5d935d35f1","ios":"levelo://app?vid=1e4eaae4-2629-4e09-89a4-da5d935d35f1"},"vehicle_type_id":"4","last_reported":1679159152,"current_range_meters":9600,"station_id":"","pricing_plan_id":"free"},{"bike_id":"54736a73-3dad-41c8-8699-35cafb1f9e1d","system_id":"levelo_inurba_marseille","lat":43.292569,"lon":5.409107,"is_reserved":false,"is_disabled":false,"rental_uris":{"android":"levelo://app?vid=54736a73-3dad-41c8-8699-35cafb1f9e1d","ios":"levelo://app?vid=54736a73-3dad-41c8-8699-35cafb1f9e1d"},"vehicle_type_id":"4","last_reported":1679159152,"current_range_meters":28000,"station_id":"ce4bh192rcd13ifvqdc0","pricing_plan_id":"free"},{"bike_id":"72a5f279-c099-43b9-9da1-e1ab0431c129","system_id":"levelo_inurba_marseille","lat":43.276179,"lon":5.361009,"is_reserved":false,"is_disabled":false,"rental_uris":{"android":"levelo://app?vid=72a5f279-c099-43b9-9da1-e1ab0431c129","ios":"levelo://app?vid=72a5f279-c099-43b9-9da1-e1ab0431c129"},"vehicle_type_id":"4","last_reported":1679159152,"current_range_meters":19200,"station_id":"ce4bgj92rcd13ifvqbe0","pricing_plan_id":"free"},{"bike_id":"a426e374-ab4a-4cb7-94dc-3068929b7137","system_id":"levelo_inurba_marseille","lat":43.276769,"lon":5.388787,"is_reserved":false,"is_disabled":false,"rental_uris":{"android":"levelo://app?vid=a426e374-ab4a-4cb7-94dc-3068929b7137","ios":"levelo://app?vid=a426e374-ab4a-4cb7-94dc-3068929b7137"},"vehicle_type_id":"4","last_reported":1679159152,"current_range_meters":23200,"station_id":"ce4bhi12rcd13ifvqfo0","pricing_plan_id":"free"},{"bike_id":"8bccf87e-f4b4-4494-815b-c0d2323a523b","system_id":"levelo_inurba_marseille","lat":43.317121,"lon":5.423936,"is_reserved":false,"is_disabled":false,"rental_uris":{"android":"levelo://app?vid=8bccf87e-f4b4-4494-815b-c0d2323a523b","ios":"levelo://app?vid=8bccf87e-f4b4-4494-815b-c0d2323a523b"},"vehicle_type_id":"4","last_reported":1679159152,"current_range_meters":22000,"station_id":"ce4bhp92rcd13ifvqhbg","pricing_plan_id":"free"},{"bike_id":"b7a56549-6b7d-497e-8496-7ff25fff6ed4","system_id":"levelo_inurba_marseille","lat":43.31081,"lon":5.42427,"is_reserved":false,"is_disabled":false,"rental_uris":{"android":"levelo://app?vid=b7a56549-6b7d-497e-8496-7ff25fff6ed4","ios":"levelo://app?vid=b7a56549-6b7d-497e-8496-7ff25fff6ed4"},"vehicle_type_id":"4","last_reported":1679159152,"current_range_meters":27200,"station_id":"","pricing_plan_id":"free"},{"bike_id":"8895aa92-5fbf-4a87-b2cc-398b3b8d73ea","system_id":"levelo_inurba_marseille","lat":43.31086,"lon":5.4243,"is_reserved":false,"is_disabled":false,"rental_uris":{"android":"levelo://app?vid=8895aa92-5fbf-4a87-b2cc-398b3b8d73ea","ios":"levelo://app?vid=8895aa92-5fbf-4a87-b2cc-398b3b8d73ea"},"vehicle_type_id":"4","last_reported":1679159152,"current_range_meters":9600,"station_id":"ce4bhp92rcd13ifvqhag","pricing_plan_id":"free"},{"bike_id":"f6fa2fd5-a2e8-4b23-bf67-6d7a3fb59d7d","system_id":"levelo_inurba_marseille","lat":43.31085,"lon":5.42433,"is_reserved":false,"is_disabled":false,"rental_uris":{"android":"levelo://app?vid=f6fa2fd5-a2e8-4b23-bf67-6d7a3fb59d7d","ios":"levelo://app?vid=f6fa2fd5-a2e8-4b23-bf67-6d7a3fb59d7d"},"vehicle_type_id":"4","last_reported":1679159152,"current_range_meters":24800,"station_id":"","pricing_plan_id":"free"},{"bike_id":"f3e8fb6d-352b-4dd2-b33c-1eafeef7186f","system_id":"levelo_inurba_marseille","lat":43.31084,"lon":5.42436,"is_reserved":false,"is_disabled":false,"rental_uris":{"android":"levelo://app?vid=f3e8fb6d-352b-4dd2-b33c-1eafeef7186f","ios":"levelo://app?vid=f3e8fb6d-352b-4dd2-b33c-1eafeef7186f"},"vehicle_type_id":"4","last_reported":1679159152,"current_range_meters":27200,"station_id":"ce4bhp92rcd13ifvqhag","pricing_plan_id":"free"},{"bike_id":"5b69bbfd-1151-41d2-9ff2-2d8a42ca96ba","system_id":"levelo_inurba_marseille","lat":43.274103,"lon":5.394016,"is_reserved":false,"is_disabled":false,"rental_uris":{"android":"levelo://app?vid=5b69bbfd-1151-41d2-9ff2-2d8a42ca96ba","ios":"levelo://app?vid=5b69bbfd-1151-41d2-9ff2-2d8a42ca96ba"},"vehicle_type_id":"4","last_reported":1679159152,"current_range_meters":27600,"station_id":"ce4bhdp2rcd13ifvqf20","pricing_plan_id":"free"},{"bike_id":"b4d4a07e-dbb3-4590-a431-9f7400880740","system_id":"levelo_inurba_marseille","lat":43.2742,"lon":5.39414,"is_reserved":false,"is_disabled":false,"rental_uris":{"android":"levelo://app?vid=b4d4a07e-dbb3-4590-a431-9f7400880740","ios":"levelo://app?vid=b4d4a07e-dbb3-4590-a431-9f7400880740"},"vehicle_type_id":"4","last_reported":1679159152,"current_range_meters":25600,"station_id":"","pricing_plan_id":"free"},{"bike_id":"1f65761f-aa09-4a6a-97bf-ab04a1ccd3cc","system_id":"levelo_inurba_marseille","lat":43.304096,"lon":5.425385,"is_reserved":false,"is_disabled":false,"rental_uris":{"android":"levelo://app?vid=1f65761f-aa09-4a6a-97bf-ab04a1ccd3cc","ios":"levelo://app?vid=1f65761f-aa09-4a6a-97bf-ab04a1ccd3cc"},"vehicle_type_id":"4","last_reported":1679159152,"current_range_meters":31600,"station_id":"ce4bhoh2rcd13ifvqh6g","pricing_plan_id":"free"},{"bike_id":"8433c42a-3271-47cc-9468-f3e50a40fa49","system_id":"levelo_inurba_marseille","lat":43.304096,"lon":5.425385,"is_reserved":false,"is_disabled":false,"rental_uris":{"android":"levelo://app?vid=8433c42a-3271-47cc-9468-f3e50a40fa49","ios":"levelo://app?vid=8433c42a-3271-47cc-9468-f3e50a40fa49"},"vehicle_type_id":"4","last_reported":1679159152,"current_range_meters":18800,"station_id":"ce4bhoh2rcd13ifvqh6g","pricing_plan_id":"free"},{"bike_id":"34941cee-be9c-40ca-b44b-5e74a17ea949","system_id":"levelo_inurba_marseille","lat":43.27231,"lon":5.39098,"is_reserved":false,"is_disabled":false,"rental_uris":{"android":"levelo://app?vid=34941cee-be9c-40ca-b44b-5e74a17ea949","ios":"levelo://app?vid=34941cee-be9c-40ca-b44b-5e74a17ea949"},"vehicle_type_id":"4","last_reported":1679159152,"current_range_meters":1600,"station_id":"ce4bgih2rcd13ifvqba0","pricing_plan_id":"free"},{"bike_id":"90ddfdbd-a792-4839-99f3-c499ebe6e5c7","system_id":"levelo_inurba_marseille","lat":43.295523,"lon":5.422926,"is_reserved":false,"is_disabled":false,"rental_uris":{"android":"levelo://app?vid=90ddfdbd-a792-4839-99f3-c499ebe6e5c7","ios":"levelo://app?vid=90ddfdbd-a792-4839-99f3-c499ebe6e5c7"},"vehicle_type_id":"4","last_reported":1679159152,"current_range_meters":24000,"station_id":"ce4bhph2rcd13ifvqhdg","pricing_plan_id":"free"},{"bike_id":"aff614cd-8d57-4790-a5d5-10e2ac65b335","system_id":"levelo_inurba_marseille","lat":43.295577,"lon":5.422875,"is_reserved":false,"is_disabled":false,"rental_uris":{"android":"levelo://app?vid=aff614cd-8d57-4790-a5d5-10e2ac65b335","ios":"levelo://app?vid=aff614cd-8d57-4790-a5d5-10e2ac65b335"},"vehicle_type_id":"4","last_reported":1679159152,"current_range_meters":6800,"station_id":"ce4bhph2rcd13ifvqhdg","pricing_plan_id":"free"},{"bike_id":"53e62ba5-15fe-4d55-bcc1-95289fe00deb","system_id":"levelo_inurba_marseille","lat":43.272118,"lon":5.391758,"is_reserved":false,"is_disabled":false,"rental_uris":{"android":"levelo://app?vid=53e62ba5-15fe-4d55-bcc1-95289fe00deb","ios":"levelo://app?vid=53e62ba5-15fe-4d55-bcc1-95289fe00deb"},"vehicle_type_id":"4","last_reported":1679159152,"current_range_meters":400,"station_id":"ce4bhhp2rcd13ifvqfm0","pricing_plan_id":"free"},{"bike_id":"eff73987-49c6-49ab-801f-01dd0c26c844","system_id":"levelo_inurba_marseille","lat":43.272116,"lon":5.391747,"is_reserved":false,"is_disabled":false,"rental_uris":{"android":"levelo://app?vid=eff73987-49c6-49ab-801f-01dd0c26c844","ios":"levelo://app?vid=eff73987-49c6-49ab-801f-01dd0c26c844"},"vehicle_type_id":"4","last_reported":1679159152,"current_range_meters":25600,"station_id":"ce4bhhp2rcd13ifvqfm0","pricing_plan_id":"free"},{"bike_id":"a094013a-c1b4-4b4b-815a-318b11f6fba6","system_id":"levelo_inurba_marseille","lat":43.278128,"lon":5.407195,"is_reserved":false,"is_disabled":false,"rental_uris":{"android":"levelo://app?vid=a094013a-c1b4-4b4b-815a-318b11f6fba6","ios":"levelo://app?vid=a094013a-c1b4-4b4b-815a-318b11f6fba6"},"vehicle_type_id":"4","last_reported":1679159152,"current_range_meters":5600,"station_id":"ce4bhnh2rcd13ifvqgtg","pricing_plan_id":"free"},{"bike_id":"b5ba9e00-e64a-498e-b738-aa4264c0e12c","system_id":"levelo_inurba_marseille","lat":43.265569,"lon":5.390047,"is_reserved":false,"is_disabled":false,"rental_uris":{"android":"levelo://app?vid=b5ba9e00-e64a-498e-b738-aa4264c0e12c","ios":"levelo://app?vid=b5ba9e00-e64a-498e-b738-aa4264c0e12c"},"vehicle_type_id":"4","last_reported":1679159152,"current_range_meters":3600,"station_id":"ce4bhe12rcd13ifvqf30","pricing_plan_id":"free"},{"bike_id":"14df7461-83e3-4c49-a239-5c8d60acea43","system_id":"levelo_inurba_marseille","lat":43.317104,"lon":5.436818,"is_reserved":false,"is_disabled":false,"rental_uris":{"android":"levelo://app?vid=14df7461-83e3-4c49-a239-5c8d60acea43","ios":"levelo://app?vid=14df7461-83e3-4c49-a239-5c8d60acea43"},"vehicle_type_id":"4","last_reported":1679159152,"current_range_meters":22800,"station_id":"ce4bhp92rcd13ifvqhcg","pricing_plan_id":"free"},{"bike_id":"0f76ae47-8f62-4dd3-b11b-c0eae6672016","system_id":"levelo_inurba_marseille","lat":43.317104,"lon":5.436818,"is_reserved":false,"is_disabled":false,"rental_uris":{"android":"levelo://app?vid=0f76ae47-8f62-4dd3-b11b-c0eae6672016","ios":"levelo://app?vid=0f76ae47-8f62-4dd3-b11b-c0eae6672016"},"vehicle_type_id":"4","last_reported":1679159152,"current_range_meters":4400,"station_id":"ce4bhp92rcd13ifvqhcg","pricing_plan_id":"free"},{"bike_id":"612f61cd-b2cc-4740-9cc7-955391b486cf","system_id":"levelo_inurba_marseille","lat":43.26803,"lon":5.4026,"is_reserved":false,"is_disabled":false,"rental_uris":{"android":"levelo://app?vid=612f61cd-b2cc-4740-9cc7-955391b486cf","ios":"levelo://app?vid=612f61cd-b2cc-4740-9cc7-955391b486cf"},"vehicle_type_id":"4","last_reported":1679159152,"current_range_meters":0,"station_id":"","pricing_plan_id":"free"},{"bike_id":"59741d8a-dee4-4e1d-9230-0d5777fc975c","system_id":"levelo_inurba_marseille","lat":43.26806,"lon":5.40273,"is_reserved":false,"is_disabled":false,"rental_uris":{"android":"levelo://app?vid=59741d8a-dee4-4e1d-9230-0d5777fc975c","ios":"levelo://app?vid=59741d8a-dee4-4e1d-9230-0d5777fc975c"},"vehicle_type_id":"4","last_reported":1679159152,"current_range_meters":2800,"station_id":"","pricing_plan_id":"free"},{"bike_id":"ff1b122d-4325-41bb-8dac-46bf2e383678","system_id":"levelo_inurba_marseille","lat":43.260219,"lon":5.37546,"is_reserved":false,"is_disabled":false,"rental_uris":{"android":"levelo://app?vid=ff1b122d-4325-41bb-8dac-46bf2e383678","ios":"levelo://app?vid=ff1b122d-4325-41bb-8dac-46bf2e383678"},"vehicle_type_id":"4","last_reported":1679159152,"current_range_meters":9600,"station_id":"ce4bhgh2rcd13ifvqfa0","pricing_plan_id":"free"},{"bike_id":"25ec3d9d-6d28-4126-a902-0dfb2151e7f7","system_id":"levelo_inurba_marseille","lat":43.26069,"lon":5.39395,"is_reserved":false,"is_disabled":false,"rental_uris":{"android":"levelo://app?vid=25ec3d9d-6d28-4126-a902-0dfb2151e7f7","ios":"levelo://app?vid=25ec3d9d-6d28-4126-a902-0dfb2151e7f7"},"vehicle_type_id":"4","last_reported":1679159152,"current_range_meters":29600,"station_id":"ce4bhh92rcd13ifvqfj0","pricing_plan_id":"free"},{"bike_id":"832be736-46bd-4584-b8f8-d42bcb42710b","system_id":"levelo_inurba_marseille","lat":43.2607,"lon":5.393983,"is_reserved":false,"is_disabled":false,"rental_uris":{"android":"levelo://app?vid=832be736-46bd-4584-b8f8-d42bcb42710b","ios":"levelo://app?vid=832be736-46bd-4584-b8f8-d42bcb42710b"},"vehicle_type_id":"4","last_reported":1679159152,"current_range_meters":8000,"station_id":"ce4bhh92rcd13ifvqfj0","pricing_plan_id":"free"},{"bike_id":"191b8286-9736-4ffd-873e-5a7b1964aaba","system_id":"levelo_inurba_marseille","lat":43.25582,"lon":5.382254,"is_reserved":false,"is_disabled":false,"rental_uris":{"android":"levelo://app?vid=191b8286-9736-4ffd-873e-5a7b1964aaba","ios":"levelo://app?vid=191b8286-9736-4ffd-873e-5a7b1964aaba"},"vehicle_type_id":"4","last_reported":1679159152,"current_range_meters":19600,"station_id":"ce4bhih2rcd13ifvqfs0","pricing_plan_id":"free"},{"bike_id":"ab921685-20b8-48ea-8984-cb1c39827790","system_id":"levelo_inurba_marseille","lat":43.25582,"lon":5.382337,"is_reserved":false,"is_disabled":false,"rental_uris":{"android":"levelo://app?vid=ab921685-20b8-48ea-8984-cb1c39827790","ios":"levelo://app?vid=ab921685-20b8-48ea-8984-cb1c39827790"},"vehicle_type_id":"4","last_reported":1679159152,"current_range_meters":30800,"station_id":"ce4bhih2rcd13ifvqfs0","pricing_plan_id":"free"},{"bike_id":"c1c94d2c-c232-400f-8df6-4305b0cd2cf2","system_id":"levelo_inurba_marseille","lat":43.255756,"lon":5.382303,"is_reserved":false,"is_disabled":false,"rental_uris":{"android":"levelo://app?vid=c1c94d2c-c232-400f-8df6-4305b0cd2cf2","ios":"levelo://app?vid=c1c94d2c-c232-400f-8df6-4305b0cd2cf2"},"vehicle_type_id":"4","last_reported":1679159152,"current_range_meters":30400,"station_id":"ce4bhih2rcd13ifvqfs0","pricing_plan_id":"free"},{"bike_id":"37b7fc47-0a64-4412-829e-56d193da5f17","system_id":"levelo_inurba_marseille","lat":43.255756,"lon":5.382303,"is_reserved":false,"is_disabled":false,"rental_uris":{"android":"levelo://app?vid=37b7fc47-0a64-4412-829e-56d193da5f17","ios":"levelo://app?vid=37b7fc47-0a64-4412-829e-56d193da5f17"},"vehicle_type_id":"4","last_reported":1679159152,"current_range_meters":28400,"station_id":"ce4bhih2rcd13ifvqfs0","pricing_plan_id":"free"},{"bike_id":"bd7707bb-d45d-43e9-b3d9-03429f45a3ba","system_id":"levelo_inurba_marseille","lat":43.255756,"lon":5.382303,"is_reserved":false,"is_disabled":false,"rental_uris":{"android":"levelo://app?vid=bd7707bb-d45d-43e9-b3d9-03429f45a3ba","ios":"levelo://app?vid=bd7707bb-d45d-43e9-b3d9-03429f45a3ba"},"vehicle_type_id":"4","last_reported":1679159152,"current_range_meters":6400,"station_id":"ce4bhih2rcd13ifvqfs0","pricing_plan_id":"free"},{"bike_id":"41a0c659-2c47-49b9-832a-288a7f263b0d","system_id":"levelo_inurba_marseille","lat":43.25581,"lon":5.3824,"is_reserved":false,"is_disabled":false,"rental_uris":{"android":"levelo://app?vid=41a0c659-2c47-49b9-832a-288a7f263b0d","ios":"levelo://app?vid=41a0c659-2c47-49b9-832a-288a7f263b0d"},"vehicle_type_id":"4","last_reported":1679159152,"current_range_meters":3200,"station_id":"ce4bhih2rcd13ifvqfs0","pricing_plan_id":"free"},{"bike_id":"cf135abf-30ae-495d-b33b-6c59d3e3dde8","system_id":"levelo_inurba_marseille","lat":43.2558,"lon":5.38237,"is_reserved":false,"is_disabled":false,"rental_uris":{"android":"levelo://app?vid=cf135abf-30ae-495d-b33b-6c59d3e3dde8","ios":"levelo://app?vid=cf135abf-30ae-495d-b33b-6c59d3e3dde8"},"vehicle_type_id":"4","last_reported":1679159152,"current_range_meters":31200,"station_id":"","pricing_plan_id":"free"},{"bike_id":"2f763052-6dfd-4647-b705-2a3505fcc8a4","system_id":"levelo_inurba_marseille","lat":43.2558,"lon":5.38238,"is_reserved":false,"is_disabled":false,"rental_uris":{"android":"levelo://app?vid=2f763052-6dfd-4647-b705-2a3505fcc8a4","ios":"levelo://app?vid=2f763052-6dfd-4647-b705-2a3505fcc8a4"},"vehicle_type_id":"4","last_reported":1679159152,"current_range_meters":20000,"station_id":"","pricing_plan_id":"free"},{"bike_id":"d67ea113-d56d-4047-aa43-b522241de76b","system_id":"levelo_inurba_marseille","lat":43.25576,"lon":5.38225,"is_reserved":false,"is_disabled":false,"rental_uris":{"android":"levelo://app?vid=d67ea113-d56d-4047-aa43-b522241de76b","ios":"levelo://app?vid=d67ea113-d56d-4047-aa43-b522241de76b"},"vehicle_type_id":"4","last_reported":1679159152,"current_range_meters":24800,"station_id":"ce4bhih2rcd13ifvqfs0","pricing_plan_id":"free"},{"bike_id":"d413346d-111b-47a2-b320-08accc19881f","system_id":"levelo_inurba_marseille","lat":43.254947,"lon":5.376454,"is_reserved":false,"is_disabled":false,"rental_uris":{"android":"levelo://app?vid=d413346d-111b-47a2-b320-08accc19881f","ios":"levelo://app?vid=d413346d-111b-47a2-b320-08accc19881f"},"vehicle_type_id":"4","last_reported":1679159152,"current_range_meters":32000,"station_id":"ce4bhh12rcd13ifvqff0","pricing_plan_id":"free"},{"bike_id":"87d65741-a967-4b52-b2a8-5535992783db","system_id":"levelo_inurba_marseille","lat":43.254947,"lon":5.376454,"is_reserved":false,"is_disabled":false,"rental_uris":{"android":"levelo://app?vid=87d65741-a967-4b52-b2a8-5535992783db","ios":"levelo://app?vid=87d65741-a967-4b52-b2a8-5535992783db"},"vehicle_type_id":"4","last_reported":1679159152,"current_range_meters":12400,"station_id":"ce4bhh12rcd13ifvqff0","pricing_plan_id":"free"},{"bike_id":"b3283dca-0952-42ab-ae38-2a85a1621214","system_id":"levelo_inurba_marseille","lat":43.254947,"lon":5.376454,"is_reserved":false,"is_disabled":false,"rental_uris":{"android":"levelo://app?vid=b3283dca-0952-42ab-ae38-2a85a1621214","ios":"levelo://app?vid=b3283dca-0952-42ab-ae38-2a85a1621214"},"vehicle_type_id":"4","last_reported":1679159152,"current_range_meters":31600,"station_id":"ce4bhh12rcd13ifvqff0","pricing_plan_id":"free"},{"bike_id":"adc698f1-04fc-4105-8858-b061ed94a8bb","system_id":"levelo_inurba_marseille","lat":43.254947,"lon":5.376454,"is_reserved":false,"is_disabled":false,"rental_uris":{"android":"levelo://app?vid=adc698f1-04fc-4105-8858-b061ed94a8bb","ios":"levelo://app?vid=adc698f1-04fc-4105-8858-b061ed94a8bb"},"vehicle_type_id":"4","last_reported":1679159152,"current_range_meters":30000,"station_id":"ce4bhh12rcd13ifvqff0","pricing_plan_id":"free"},{"bike_id":"9182444a-2836-471e-b8bf-62874a2b94b2","system_id":"levelo_inurba_marseille","lat":43.25869,"lon":5.39897,"is_reserved":false,"is_disabled":false,"rental_uris":{"android":"levelo://app?vid=9182444a-2836-471e-b8bf-62874a2b94b2","ios":"levelo://app?vid=9182444a-2836-471e-b8bf-62874a2b94b2"},"vehicle_type_id":"4","last_reported":1679159152,"current_range_meters":6400,"station_id":"","pricing_plan_id":"free"},{"bike_id":"084b7984-9c04-4ba8-99ce-3394d5c4c1e2","system_id":"levelo_inurba_marseille","lat":43.25866,"lon":5.39897,"is_reserved":false,"is_disabled":false,"rental_uris":{"android":"levelo://app?vid=084b7984-9c04-4ba8-99ce-3394d5c4c1e2","ios":"levelo://app?vid=084b7984-9c04-4ba8-99ce-3394d5c4c1e2"},"vehicle_type_id":"4","last_reported":1679159152,"current_range_meters":28000,"station_id":"","pricing_plan_id":"free"},{"bike_id":"e025c067-d068-4e16-abbf-b9ba0abb7129","system_id":"levelo_inurba_marseille","lat":43.254947,"lon":5.376454,"is_reserved":false,"is_disabled":false,"rental_uris":{"android":"levelo://app?vid=e025c067-d068-4e16-abbf-b9ba0abb7129","ios":"levelo://app?vid=e025c067-d068-4e16-abbf-b9ba0abb7129"},"vehicle_type_id":"4","last_reported":1679159152,"current_range_meters":0,"station_id":"ce4bhh12rcd13ifvqff0","pricing_plan_id":"free"},{"bike_id":"418dcc52-28d2-44b5-b0d5-f47e4a2e2910","system_id":"levelo_inurba_marseille","lat":43.250137,"lon":5.389227,"is_reserved":false,"is_disabled":false,"rental_uris":{"android":"levelo://app?vid=418dcc52-28d2-44b5-b0d5-f47e4a2e2910","ios":"levelo://app?vid=418dcc52-28d2-44b5-b0d5-f47e4a2e2910"},"vehicle_type_id":"4","last_reported":1679159152,"current_range_meters":31600,"station_id":"ce4bhgp2rcd13ifvqfd0","pricing_plan_id":"free"},{"bike_id":"cae90348-cf86-4ca6-ae8a-d6e0a74be010","system_id":"levelo_inurba_marseille","lat":43.248128,"lon":5.374619,"is_reserved":false,"is_disabled":false,"rental_uris":{"android":"levelo://app?vid=cae90348-cf86-4ca6-ae8a-d6e0a74be010","ios":"levelo://app?vid=cae90348-cf86-4ca6-ae8a-d6e0a74be010"},"vehicle_type_id":"4","last_reported":1679159152,"current_range_meters":31600,"station_id":"","pricing_plan_id":"free"},{"bike_id":"d5b3dae1-2651-425c-bde2-264ec56ccbb2","system_id":"levelo_inurba_marseille","lat":43.2479,"lon":5.374457,"is_reserved":false,"is_disabled":false,"rental_uris":{"android":"levelo://app?vid=d5b3dae1-2651-425c-bde2-264ec56ccbb2","ios":"levelo://app?vid=d5b3dae1-2651-425c-bde2-264ec56ccbb2"},"vehicle_type_id":"4","last_reported":1679159152,"current_range_meters":31200,"station_id":"ce4bhgh2rcd13ifvqfb0","pricing_plan_id":"free"},{"bike_id":"e4529a9b-7d2e-4444-af26-2c84133e88c3","system_id":"levelo_inurba_marseille","lat":43.247919,"lon":5.374617,"is_reserved":false,"is_disabled":false,"rental_uris":{"android":"levelo://app?vid=e4529a9b-7d2e-4444-af26-2c84133e88c3","ios":"levelo://app?vid=e4529a9b-7d2e-4444-af26-2c84133e88c3"},"vehicle_type_id":"4","last_reported":1679159152,"current_range_meters":1600,"station_id":"ce4bhgh2rcd13ifvqfb0","pricing_plan_id":"free"},{"bike_id":"cb880012-c3cb-4c51-a580-f7c1d13a54ff","system_id":"levelo_inurba_marseille","lat":43.24693,"lon":5.382096,"is_reserved":false,"is_disabled":false,"rental_uris":{"android":"levelo://app?vid=cb880012-c3cb-4c51-a580-f7c1d13a54ff","ios":"levelo://app?vid=cb880012-c3cb-4c51-a580-f7c1d13a54ff"},"vehicle_type_id":"4","last_reported":1679159152,"current_range_meters":800,"station_id":"ce4bhih2rcd13ifvqfr0","pricing_plan_id":"free"},{"bike_id":"bbd94a6a-cb4a-4694-9147-c18d029fac4d","system_id":"levelo_inurba_marseille","lat":43.24693,"lon":5.382096,"is_reserved":false,"is_disabled":false,"rental_uris":{"android":"levelo://app?vid=bbd94a6a-cb4a-4694-9147-c18d029fac4d","ios":"levelo://app?vid=bbd94a6a-cb4a-4694-9147-c18d029fac4d"},"vehicle_type_id":"4","last_reported":1679159152,"current_range_meters":22000,"station_id":"ce4bhih2rcd13ifvqfr0","pricing_plan_id":"free"},{"bike_id":"5a109eed-a880-4bbf-a1b4-9c0beca869e4","system_id":"levelo_inurba_marseille","lat":43.24693,"lon":5.382096,"is_reserved":false,"is_disabled":false,"rental_uris":{"android":"levelo://app?vid=5a109eed-a880-4bbf-a1b4-9c0beca869e4","ios":"levelo://app?vid=5a109eed-a880-4bbf-a1b4-9c0beca869e4"},"vehicle_type_id":"4","last_reported":1679159152,"current_range_meters":28400,"station_id":"ce4bhih2rcd13ifvqfr0","pricing_plan_id":"free"},{"bike_id":"fccc7206-5837-4470-8b7e-e6cbeb37eadf","system_id":"levelo_inurba_marseille","lat":43.25102,"lon":5.403214,"is_reserved":false,"is_disabled":false,"rental_uris":{"android":"levelo://app?vid=fccc7206-5837-4470-8b7e-e6cbeb37eadf","ios":"levelo://app?vid=fccc7206-5837-4470-8b7e-e6cbeb37eadf"},"vehicle_type_id":"4","last_reported":1679159152,"current_range_meters":15200,"station_id":"ce4bhlh2rcd13ifvqgig","pricing_plan_id":"free"},{"bike_id":"1405e1b5-ea6b-437e-8568-056654c484a1","system_id":"levelo_inurba_marseille","lat":43.241,"lon":5.37738,"is_reserved":false,"is_disabled":false,"rental_uris":{"android":"levelo://app?vid=1405e1b5-ea6b-437e-8568-056654c484a1","ios":"levelo://app?vid=1405e1b5-ea6b-437e-8568-056654c484a1"},"vehicle_type_id":"4","last_reported":1679159152,"current_range_meters":5200,"station_id":"","pricing_plan_id":"free"},{"bike_id":"dffffb9b-ad77-4ef8-8e1b-75b7e9b6626c","system_id":"levelo_inurba_marseille","lat":43.24076,"lon":5.37756,"is_reserved":false,"is_disabled":false,"rental_uris":{"android":"levelo://app?vid=dffffb9b-ad77-4ef8-8e1b-75b7e9b6626c","ios":"levelo://app?vid=dffffb9b-ad77-4ef8-8e1b-75b7e9b6626c"},"vehicle_type_id":"4","last_reported":1679159152,"current_range_meters":30000,"station_id":"ce4bhnp2rcd13ifvqgvg","pricing_plan_id":"free"},{"bike_id":"77800063-d00a-4522-9222-b8d7fdda693b","system_id":"levelo_inurba_marseille","lat":43.24075,"lon":5.37762,"is_reserved":false,"is_disabled":false,"rental_uris":{"android":"levelo://app?vid=77800063-d00a-4522-9222-b8d7fdda693b","ios":"levelo://app?vid=77800063-d00a-4522-9222-b8d7fdda693b"},"vehicle_type_id":"4","last_reported":1679159152,"current_range_meters":30800,"station_id":"ce4bhnp2rcd13ifvqgvg","pricing_plan_id":"free"},{"bike_id":"e3d8335d-9a0d-4ba0-b42b-7349ec611a7a","system_id":"levelo_inurba_marseille","lat":43.240735,"lon":5.37753,"is_reserved":false,"is_disabled":false,"rental_uris":{"android":"levelo://app?vid=e3d8335d-9a0d-4ba0-b42b-7349ec611a7a","ios":"levelo://app?vid=e3d8335d-9a0d-4ba0-b42b-7349ec611a7a"},"vehicle_type_id":"4","last_reported":1679159152,"current_range_meters":31200,"station_id":"","pricing_plan_id":"free"},{"bike_id":"e2b39f61-a433-4fea-8ef4-f9a8742713b8","system_id":"levelo_inurba_marseille","lat":43.24072,"lon":5.37754,"is_reserved":false,"is_disabled":false,"rental_uris":{"android":"levelo://app?vid=e2b39f61-a433-4fea-8ef4-f9a8742713b8","ios":"levelo://app?vid=e2b39f61-a433-4fea-8ef4-f9a8742713b8"},"vehicle_type_id":"4","last_reported":1679159152,"current_range_meters":31600,"station_id":"","pricing_plan_id":"free"},{"bike_id":"2dc6c64b-a336-4241-b75a-c19c36648900","system_id":"levelo_inurba_marseille","lat":43.2407,"lon":5.37763,"is_reserved":false,"is_disabled":false,"rental_uris":{"android":"levelo://app?vid=2dc6c64b-a336-4241-b75a-c19c36648900","ios":"levelo://app?vid=2dc6c64b-a336-4241-b75a-c19c36648900"},"vehicle_type_id":"4","last_reported":1679159152,"current_range_meters":18000,"station_id":"","pricing_plan_id":"free"},{"bike_id":"279a8a3c-473a-4b2b-887d-da9c9a7a6407","system_id":"levelo_inurba_marseille","lat":43.239588,"lon":5.366238,"is_reserved":false,"is_disabled":false,"rental_uris":{"android":"levelo://app?vid=279a8a3c-473a-4b2b-887d-da9c9a7a6407","ios":"levelo://app?vid=279a8a3c-473a-4b2b-887d-da9c9a7a6407"},"vehicle_type_id":"4","last_reported":1679159152,"current_range_meters":17200,"station_id":"ce4bhi12rcd13ifvqfp0","pricing_plan_id":"free"},{"bike_id":"2e320946-fb4c-4f00-85c7-448df362a4a4","system_id":"levelo_inurba_marseille","lat":43.239588,"lon":5.366238,"is_reserved":false,"is_disabled":false,"rental_uris":{"android":"levelo://app?vid=2e320946-fb4c-4f00-85c7-448df362a4a4","ios":"levelo://app?vid=2e320946-fb4c-4f00-85c7-448df362a4a4"},"vehicle_type_id":"4","last_reported":1679159152,"current_range_meters":10800,"station_id":"ce4bhi12rcd13ifvqfp0","pricing_plan_id":"free"},{"bike_id":"9cd938eb-3184-4519-8d0f-15b96744401e","system_id":"levelo_inurba_marseille","lat":43.239588,"lon":5.366238,"is_reserved":false,"is_disabled":false,"rental_uris":{"android":"levelo://app?vid=9cd938eb-3184-4519-8d0f-15b96744401e","ios":"levelo://app?vid=9cd938eb-3184-4519-8d0f-15b96744401e"},"vehicle_type_id":"4","last_reported":1679159152,"current_range_meters":30000,"station_id":"ce4bhi12rcd13ifvqfp0","pricing_plan_id":"free"},{"bike_id":"31785a66-9b6e-4896-add8-797a882dfd6f","system_id":"levelo_inurba_marseille","lat":43.241718,"lon":5.397212,"is_reserved":false,"is_disabled":false,"rental_uris":{"android":"levelo://app?vid=31785a66-9b6e-4896-add8-797a882dfd6f","ios":"levelo://app?vid=31785a66-9b6e-4896-add8-797a882dfd6f"},"vehicle_type_id":"4","last_reported":1679159152,"current_range_meters":0,"station_id":"","pricing_plan_id":"free"},{"bike_id":"0510984e-f649-44d1-8242-9d987e2a499a","system_id":"levelo_inurba_marseille","lat":43.231923,"lon":5.355545,"is_reserved":false,"is_disabled":false,"rental_uris":{"android":"levelo://app?vid=0510984e-f649-44d1-8242-9d987e2a499a","ios":"levelo://app?vid=0510984e-f649-44d1-8242-9d987e2a499a"},"vehicle_type_id":"4","last_reported":1679159152,"current_range_meters":25200,"station_id":"ce4bhu92rcd13ifvqi70","pricing_plan_id":"free"},{"bike_id":"503657a1-e269-432d-b6c0-6475b93e4245","system_id":"levelo_inurba_marseille","lat":43.231923,"lon":5.355545,"is_reserved":false,"is_disabled":false,"rental_uris":{"android":"levelo://app?vid=503657a1-e269-432d-b6c0-6475b93e4245","ios":"levelo://app?vid=503657a1-e269-432d-b6c0-6475b93e4245"},"vehicle_type_id":"4","last_reported":1679159152,"current_range_meters":30000,"station_id":"ce4bhu92rcd13ifvqi70","pricing_plan_id":"free"},{"bike_id":"b71d4bb3-9dd8-4f9d-8402-e3595c6b6b91","system_id":"levelo_inurba_marseille","lat":43.231923,"lon":5.355545,"is_reserved":false,"is_disabled":false,"rental_uris":{"android":"levelo://app?vid=b71d4bb3-9dd8-4f9d-8402-e3595c6b6b91","ios":"levelo://app?vid=b71d4bb3-9dd8-4f9d-8402-e3595c6b6b91"},"vehicle_type_id":"4","last_reported":1679159152,"current_range_meters":25600,"station_id":"ce4bhu92rcd13ifvqi70","pricing_plan_id":"free"},{"bike_id":"0010ebe6-0da4-49c8-96ff-1cfa6d1925a0","system_id":"levelo_inurba_marseille","lat":43.23193,"lon":5.35564,"is_reserved":false,"is_disabled":false,"rental_uris":{"android":"levelo://app?vid=0010ebe6-0da4-49c8-96ff-1cfa6d1925a0","ios":"levelo://app?vid=0010ebe6-0da4-49c8-96ff-1cfa6d1925a0"},"vehicle_type_id":"4","last_reported":1679159152,"current_range_meters":27600,"station_id":"ce4bhu92rcd13ifvqi70","pricing_plan_id":"free"},{"bike_id":"8057768e-761b-41d6-916d-02a9ceb83bc6","system_id":"levelo_inurba_marseille","lat":43.231935,"lon":5.355567,"is_reserved":false,"is_disabled":false,"rental_uris":{"android":"levelo://app?vid=8057768e-761b-41d6-916d-02a9ceb83bc6","ios":"levelo://app?vid=8057768e-761b-41d6-916d-02a9ceb83bc6"},"vehicle_type_id":"4","last_reported":1679159152,"current_range_meters":29200,"station_id":"ce4bhu92rcd13ifvqi70","pricing_plan_id":"free"},{"bike_id":"c4a765e8-1981-4501-b559-fd423b924ef4","system_id":"levelo_inurba_marseille","lat":43.231923,"lon":5.355545,"is_reserved":false,"is_disabled":false,"rental_uris":{"android":"levelo://app?vid=c4a765e8-1981-4501-b559-fd423b924ef4","ios":"levelo://app?vid=c4a765e8-1981-4501-b559-fd423b924ef4"},"vehicle_type_id":"4","last_reported":1679159152,"current_range_meters":20800,"station_id":"ce4bhu92rcd13ifvqi70","pricing_plan_id":"free"},{"bike_id":"5c296cfe-bb42-4ddc-9604-9304ff266475","system_id":"levelo_inurba_marseille","lat":43.231934,"lon":5.355535,"is_reserved":false,"is_disabled":false,"rental_uris":{"android":"levelo://app?vid=5c296cfe-bb42-4ddc-9604-9304ff266475","ios":"levelo://app?vid=5c296cfe-bb42-4ddc-9604-9304ff266475"},"vehicle_type_id":"4","last_reported":1679159152,"current_range_meters":31600,"station_id":"","pricing_plan_id":"free"},{"bike_id":"956fe110-a343-4414-91a1-6e3d50bfa094","system_id":"levelo_inurba_marseille","lat":43.231923,"lon":5.355545,"is_reserved":false,"is_disabled":false,"rental_uris":{"android":"levelo://app?vid=956fe110-a343-4414-91a1-6e3d50bfa094","ios":"levelo://app?vid=956fe110-a343-4414-91a1-6e3d50bfa094"},"vehicle_type_id":"4","last_reported":1679159152,"current_range_meters":31600,"station_id":"ce4bhu92rcd13ifvqi70","pricing_plan_id":"free"},{"bike_id":"b9f6f4f0-f36b-4f70-8715-1fede5862196","system_id":"levelo_inurba_marseille","lat":43.231928,"lon":5.355528,"is_reserved":false,"is_disabled":false,"rental_uris":{"android":"levelo://app?vid=b9f6f4f0-f36b-4f70-8715-1fede5862196","ios":"levelo://app?vid=b9f6f4f0-f36b-4f70-8715-1fede5862196"},"vehicle_type_id":"4","last_reported":1679159152,"current_range_meters":30400,"station_id":"","pricing_plan_id":"free"},{"bike_id":"58573939-0d07-4f8d-8422-6654926c6d8e","system_id":"levelo_inurba_marseille","lat":43.231923,"lon":5.355545,"is_reserved":false,"is_disabled":false,"rental_uris":{"android":"levelo://app?vid=58573939-0d07-4f8d-8422-6654926c6d8e","ios":"levelo://app?vid=58573939-0d07-4f8d-8422-6654926c6d8e"},"vehicle_type_id":"4","last_reported":1679159152,"current_range_meters":24000,"station_id":"ce4bhu92rcd13ifvqi70","pricing_plan_id":"free"},{"bike_id":"b6775b1d-017b-45fd-b96a-1d778f076ef0","system_id":"levelo_inurba_marseille","lat":43.23192,"lon":5.35559,"is_reserved":false,"is_disabled":false,"rental_uris":{"android":"levelo://app?vid=b6775b1d-017b-45fd-b96a-1d778f076ef0","ios":"levelo://app?vid=b6775b1d-017b-45fd-b96a-1d778f076ef0"},"vehicle_type_id":"4","last_reported":1679159152,"current_range_meters":31600,"station_id":"ce4bhu92rcd13ifvqi70","pricing_plan_id":"free"},{"bike_id":"9396a642-8421-4ca9-b20d-a2492104caf9","system_id":"levelo_inurba_marseille","lat":43.23192,"lon":5.35556,"is_reserved":false,"is_disabled":false,"rental_uris":{"android":"levelo://app?vid=9396a642-8421-4ca9-b20d-a2492104caf9","ios":"levelo://app?vid=9396a642-8421-4ca9-b20d-a2492104caf9"},"vehicle_type_id":"4","last_reported":1679159152,"current_range_meters":31600,"station_id":"","pricing_plan_id":"free"},{"bike_id":"ff98316f-748f-4069-a942-b27635abd352","system_id":"levelo_inurba_marseille","lat":43.231923,"lon":5.355545,"is_reserved":false,"is_disabled":false,"rental_uris":{"android":"levelo://app?vid=ff98316f-748f-4069-a942-b27635abd352","ios":"levelo://app?vid=ff98316f-748f-4069-a942-b27635abd352"},"vehicle_type_id":"4","last_reported":1679159152,"current_range_meters":32000,"station_id":"ce4bhu92rcd13ifvqi70","pricing_plan_id":"free"},{"bike_id":"beaf722f-8cce-48cc-9f08-62b9af3ed634","system_id":"levelo_inurba_marseille","lat":43.231908,"lon":5.355541,"is_reserved":false,"is_disabled":false,"rental_uris":{"android":"levelo://app?vid=beaf722f-8cce-48cc-9f08-62b9af3ed634","ios":"levelo://app?vid=beaf722f-8cce-48cc-9f08-62b9af3ed634"},"vehicle_type_id":"4","last_reported":1679159152,"current_range_meters":25200,"station_id":"","pricing_plan_id":"free"}]}}