{"last_updated":1687201496,"ttl":30,"version":"2.2","data":{"bikes":[{"bike_id":"6c4dc3b2-4f00-4ade-a0ee-b2f85f6d62cb","system_id":"levelo_inurba_marseille","lat":43.31341,"lon":5.367098,"is_reserved":false,"is_disabled":false,"rental_uris":{"android":"levelo://app?vid=6c4dc3b2-4f00-4ade-a0ee-b2f85f6d62cb","ios":"levelo://app?vid=6c4dc3b2-4f00-4ade-a0ee-b2f85f6d62cb"},"vehicle_type_id":"4","last_reported":1687201496,"current_range_meters":0,"station_id":"ce4bgr92rcd13ifvqc6g","pricing_plan_id":"free"},{"bike_id":"0fe6c353-6499-4357-a7f0-44df91633bcf","system_id":"levelo_inurba_marseille","lat":43.31341,"lon":5.367098,"is_reserved":false,"is_disabled":false,"rental_uris":{"android":"levelo://app?vid=0fe6c353-6499-4357-a7f0-44df91633bcf","ios":"levelo://app?vid=0fe6c353-6499-4357-a7f0-44df91633bcf"},"vehicle_type_id":"4","last_reported":1687201496,"current_range_meters":0,"station_id":"ce4bgr92rcd13ifvqc6g","pricing_plan_id":"free"},{"bike_id":"9e849c51-de08-44de-88b9-8f8c7796a314","system_id":"levelo_inurba_marseille","lat":43.312239,"lon":5.368562,"is_reserved":false,"is_disabled":false,"rental_uris":{"android":"levelo://app?vid=9e849c51-de08-44de-88b9-8f8c7796a314","ios":"levelo://app?vid=9e849c51-de08-44de-88b9-8f8c7796a314"},"vehicle_type_id":"4","last_reported":1687201496,"current_range_meters":9200,"station_id":"ce4bgl92rcd13ifvqbq0","pricing_plan_id":"free"},{"bike_id":"649553e1-7b3f-4ff3-961c-eb12bb966a2d","system_id":"levelo_inurba_marseille","lat":43.314811,"lon":5.373103,"is_reserved":false,"is_disabled":false,"rental_uris":{"android":"levelo://app?vid=649553e1-7b3f-4ff3-961c-eb12bb966a2d","ios":"levelo://app?vid=649553e1-7b3f-4ff3-961c-eb12bb966a2d"},"vehicle_type_id":"4","last_reported":1687201496,"current_range_meters":26800,"station_id":"ce4bgt12rcd13ifvqcd0","pricing_plan_id":"free"},{"bike_id":"dbbec664-0198-49df-a23d-9ff50ab09d11","system_id":"levelo_inurba_marseille","lat":43.308606,"lon":5.372099,"is_reserved":false,"is_disabled":false,"rental_uris":{"android":"levelo://app?vid=dbbec664-0198-49df-a23d-9ff50ab09d11","ios":"levelo://app?vid=dbbec664-0198-49df-a23d-9ff50ab09d11"},"vehicle_type_id":"4","last_reported":1687201496,"current_range_meters":23200,"station_id":"ce4bguh2rcd13ifvqckg","pricing_plan_id":"free"},{"bike_id":"99337b18-7415-427e-9a4c-577a3c61786c","system_id":"levelo_inurba_marseille","lat":43.308606,"lon":5.372099,"is_reserved":false,"is_disabled":false,"rental_uris":{"android":"levelo://app?vid=99337b18-7415-427e-9a4c-577a3c61786c","ios":"levelo://app?vid=99337b18-7415-427e-9a4c-577a3c61786c"},"vehicle_type_id":"4","last_reported":1687201496,"current_range_meters":7600,"station_id":"ce4bguh2rcd13ifvqckg","pricing_plan_id":"free"},{"bike_id":"e6450de7-59f2-49a8-a38b-1b3318208631","system_id":"levelo_inurba_marseille","lat":43.308606,"lon":5.372099,"is_reserved":false,"is_disabled":false,"rental_uris":{"android":"levelo://app?vid=e6450de7-59f2-49a8-a38b-1b3318208631","ios":"levelo://app?vid=e6450de7-59f2-49a8-a38b-1b3318208631"},"vehicle_type_id":"4","last_reported":1687201496,"current_range_meters":10800,"station_id":"ce4bguh2rcd13ifvqckg","pricing_plan_id":"free"},{"bike_id":"addb8dd8-a70a-4c19-977f-ec5bdcc74995","system_id":"levelo_inurba_marseille","lat":43.308614,"lon":5.372098,"is_reserved":false,"is_disabled":false,"rental_uris":{"android":"levelo://app?vid=addb8dd8-a70a-4c19-977f-ec5bdcc74995","ios":"levelo://app?vid=addb8dd8-a70a-4c19-977f-ec5bdcc74995"},"vehicle_type_id":"4","last_reported":1687201496,"current_range_meters":8400,"station_id":"ce4bguh2rcd13ifvqckg","pricing_plan_id":"free"},{"bike_id":"6eb2d025-77f2-46fb-a6de-ba5fdf1407cf","system_id":"levelo_inurba_marseille","lat":43.31877,"lon":5.373,"is_reserved":false,"is_disabled":false,"rental_uris":{"android":"levelo://app?vid=6eb2d025-77f2-46fb-a6de-ba5fdf1407cf","ios":"levelo://app?vid=6eb2d025-77f2-46fb-a6de-ba5fdf1407cf"},"vehicle_type_id":"4","last_reported":1687201496,"current_range_meters":0,"station_id":"","pricing_plan_id":"free"},{"bike_id":"38de00f1-80c9-4a6e-909c-905d86e98ed3","system_id":"levelo_inurba_marseille","lat":43.305368,"lon":5.367343,"is_reserved":false,"is_disabled":false,"rental_uris":{"android":"levelo://app?vid=38de00f1-80c9-4a6e-909c-905d86e98ed3","ios":"levelo://app?vid=38de00f1-80c9-4a6e-909c-905d86e98ed3"},"vehicle_type_id":"4","last_reported":1687201496,"current_range_meters":12400,"station_id":"ce4bgrp2rcd13ifvqc9g","pricing_plan_id":"free"},{"bike_id":"e8deea3c-d57a-42a2-a02f-afa901b33e08","system_id":"levelo_inurba_marseille","lat":43.305989,"lon":5.37225,"is_reserved":false,"is_disabled":false,"rental_uris":{"android":"levelo://app?vid=e8deea3c-d57a-42a2-a02f-afa901b33e08","ios":"levelo://app?vid=e8deea3c-d57a-42a2-a02f-afa901b33e08"},"vehicle_type_id":"4","last_reported":1687201496,"current_range_meters":6000,"station_id":"ce4bgqh2rcd13ifvqc4g","pricing_plan_id":"free"},{"bike_id":"a593d9a0-3fba-4e01-be9b-5a13aa5104d4","system_id":"levelo_inurba_marseille","lat":43.305989,"lon":5.37225,"is_reserved":false,"is_disabled":false,"rental_uris":{"android":"levelo://app?vid=a593d9a0-3fba-4e01-be9b-5a13aa5104d4","ios":"levelo://app?vid=a593d9a0-3fba-4e01-be9b-5a13aa5104d4"},"vehicle_type_id":"4","last_reported":1687201496,"current_range_meters":16000,"station_id":"ce4bgqh2rcd13ifvqc4g","pricing_plan_id":"free"},{"bike_id":"b505c017-3485-433f-948f-eaec7f670efc","system_id":"levelo_inurba_marseille","lat":43.305989,"lon":5.37225,"is_reserved":false,"is_disabled":false,"rental_uris":{"android":"levelo://app?vid=b505c017-3485-433f-948f-eaec7f670efc","ios":"levelo://app?vid=b505c017-3485-433f-948f-eaec7f670efc"},"vehicle_type_id":"4","last_reported":1687201496,"current_range_meters":27600,"station_id":"ce4bgqh2rcd13ifvqc4g","pricing_plan_id":"free"},{"bike_id":"a9bc8fed-01c0-44a1-9104-db2850739713","system_id":"levelo_inurba_marseille","lat":43.305989,"lon":5.37225,"is_reserved":false,"is_disabled":false,"rental_uris":{"android":"levelo://app?vid=a9bc8fed-01c0-44a1-9104-db2850739713","ios":"levelo://app?vid=a9bc8fed-01c0-44a1-9104-db2850739713"},"vehicle_type_id":"4","last_reported":1687201496,"current_range_meters":6000,"station_id":"ce4bgqh2rcd13ifvqc4g","pricing_plan_id":"free"},{"bike_id":"4d044c9f-070b-4764-8ba9-4e7d66b13721","system_id":"levelo_inurba_marseille","lat":43.311125,"lon":5.377624,"is_reserved":false,"is_disabled":false,"rental_uris":{"android":"levelo://app?vid=4d044c9f-070b-4764-8ba9-4e7d66b13721","ios":"levelo://app?vid=4d044c9f-070b-4764-8ba9-4e7d66b13721"},"vehicle_type_id":"4","last_reported":1687201496,"current_range_meters":12000,"station_id":"ce4bgt92rcd13ifvqcg0","pricing_plan_id":"free"},{"bike_id":"e394e8a3-8395-4593-825c-5dec0d725b94","system_id":"levelo_inurba_marseille","lat":43.30964,"lon":5.37961,"is_reserved":false,"is_disabled":false,"rental_uris":{"android":"levelo://app?vid=e394e8a3-8395-4593-825c-5dec0d725b94","ios":"levelo://app?vid=e394e8a3-8395-4593-825c-5dec0d725b94"},"vehicle_type_id":"4","last_reported":1687201496,"current_range_meters":18000,"station_id":"","pricing_plan_id":"free"},{"bike_id":"b6cdfacb-d921-4ee4-be06-e0fc4e610223","system_id":"levelo_inurba_marseille","lat":43.303046,"lon":5.368981,"is_reserved":false,"is_disabled":false,"rental_uris":{"android":"levelo://app?vid=b6cdfacb-d921-4ee4-be06-e0fc4e610223","ios":"levelo://app?vid=b6cdfacb-d921-4ee4-be06-e0fc4e610223"},"vehicle_type_id":"4","last_reported":1687201496,"current_range_meters":10800,"station_id":"ce4bgqh2rcd13ifvqc5g","pricing_plan_id":"free"},{"bike_id":"42ca8b03-b89a-4548-865c-54181a7d6b09","system_id":"levelo_inurba_marseille","lat":43.31533,"lon":5.38028,"is_reserved":false,"is_disabled":false,"rental_uris":{"android":"levelo://app?vid=42ca8b03-b89a-4548-865c-54181a7d6b09","ios":"levelo://app?vid=42ca8b03-b89a-4548-865c-54181a7d6b09"},"vehicle_type_id":"4","last_reported":1687201496,"current_range_meters":12400,"station_id":"ce4bhsp2rcd13ifvqi50","pricing_plan_id":"free"},{"bike_id":"2e476893-3d5b-439a-b23e-ac4ddf7c3f8e","system_id":"levelo_inurba_marseille","lat":43.315289,"lon":5.380349,"is_reserved":false,"is_disabled":false,"rental_uris":{"android":"levelo://app?vid=2e476893-3d5b-439a-b23e-ac4ddf7c3f8e","ios":"levelo://app?vid=2e476893-3d5b-439a-b23e-ac4ddf7c3f8e"},"vehicle_type_id":"4","last_reported":1687201496,"current_range_meters":23200,"station_id":"ce4bhsp2rcd13ifvqi50","pricing_plan_id":"free"},{"bike_id":"ae33307b-fcd5-479b-9ae1-9002ed226c6e","system_id":"levelo_inurba_marseille","lat":43.308012,"lon":5.381511,"is_reserved":false,"is_disabled":false,"rental_uris":{"android":"levelo://app?vid=ae33307b-fcd5-479b-9ae1-9002ed226c6e","ios":"levelo://app?vid=ae33307b-fcd5-479b-9ae1-9002ed226c6e"},"vehicle_type_id":"4","last_reported":1687201496,"current_range_meters":24000,"station_id":"ce4bgt12rcd13ifvqce0","pricing_plan_id":"free"},{"bike_id":"db52d1a6-c762-4c6d-b7ff-a611dd0d1662","system_id":"levelo_inurba_marseille","lat":43.304606,"lon":5.379026,"is_reserved":false,"is_disabled":false,"rental_uris":{"android":"levelo://app?vid=db52d1a6-c762-4c6d-b7ff-a611dd0d1662","ios":"levelo://app?vid=db52d1a6-c762-4c6d-b7ff-a611dd0d1662"},"vehicle_type_id":"4","last_reported":1687201496,"current_range_meters":11200,"station_id":"ce4bgup2rcd13ifvqcn0","pricing_plan_id":"free"},{"bike_id":"08c8409e-350d-4dcd-8320-bd69b2977fe9","system_id":"levelo_inurba_marseille","lat":43.304606,"lon":5.379026,"is_reserved":false,"is_disabled":false,"rental_uris":{"android":"levelo://app?vid=08c8409e-350d-4dcd-8320-bd69b2977fe9","ios":"levelo://app?vid=08c8409e-350d-4dcd-8320-bd69b2977fe9"},"vehicle_type_id":"4","last_reported":1687201496,"current_range_meters":24800,"station_id":"ce4bgup2rcd13ifvqcn0","pricing_plan_id":"free"},{"bike_id":"6f487f60-4214-4498-b676-89f74f02209c","system_id":"levelo_inurba_marseille","lat":43.328371,"lon":5.366909,"is_reserved":false,"is_disabled":false,"rental_uris":{"android":"levelo://app?vid=6f487f60-4214-4498-b676-89f74f02209c","ios":"levelo://app?vid=6f487f60-4214-4498-b676-89f74f02209c"},"vehicle_type_id":"4","last_reported":1687201496,"current_range_meters":18400,"station_id":"ce4bhs92rcd13ifvqi0g","pricing_plan_id":"free"},{"bike_id":"a0248f4d-f4dd-4972-8941-04f6a45466e7","system_id":"levelo_inurba_marseille","lat":43.304606,"lon":5.379026,"is_reserved":false,"is_disabled":false,"rental_uris":{"android":"levelo://app?vid=a0248f4d-f4dd-4972-8941-04f6a45466e7","ios":"levelo://app?vid=a0248f4d-f4dd-4972-8941-04f6a45466e7"},"vehicle_type_id":"4","last_reported":1687201496,"current_range_meters":24800,"station_id":"ce4bgup2rcd13ifvqcn0","pricing_plan_id":"free"},{"bike_id":"d65e793e-e2cc-403c-ab6f-84768d780ce8","system_id":"levelo_inurba_marseille","lat":43.304606,"lon":5.379026,"is_reserved":false,"is_disabled":false,"rental_uris":{"android":"levelo://app?vid=d65e793e-e2cc-403c-ab6f-84768d780ce8","ios":"levelo://app?vid=d65e793e-e2cc-403c-ab6f-84768d780ce8"},"vehicle_type_id":"4","last_reported":1687201496,"current_range_meters":6000,"station_id":"ce4bgup2rcd13ifvqcn0","pricing_plan_id":"free"},{"bike_id":"18cd8875-ec5f-46be-a50a-547f9ddea84d","system_id":"levelo_inurba_marseille","lat":43.304606,"lon":5.379026,"is_reserved":false,"is_disabled":false,"rental_uris":{"android":"levelo://app?vid=18cd8875-ec5f-46be-a50a-547f9ddea84d","ios":"levelo://app?vid=18cd8875-ec5f-46be-a50a-547f9ddea84d"},"vehicle_type_id":"4","last_reported":1687201496,"current_range_meters":28000,"station_id":"ce4bgup2rcd13ifvqcn0","pricing_plan_id":"free"},{"bike_id":"b9365dc1-202b-4f52-8919-619de8f643e1","system_id":"levelo_inurba_marseille","lat":43.304606,"lon":5.379026,"is_reserved":false,"is_disabled":false,"rental_uris":{"android":"levelo://app?vid=b9365dc1-202b-4f52-8919-619de8f643e1","ios":"levelo://app?vid=b9365dc1-202b-4f52-8919-619de8f643e1"},"vehicle_type_id":"4","last_reported":1687201496,"current_range_meters":30800,"station_id":"ce4bgup2rcd13ifvqcn0","pricing_plan_id":"free"},{"bike_id":"43fc693e-f2a9-4aec-8fd9-d094bb02cb70","system_id":"levelo_inurba_marseille","lat":43.304606,"lon":5.379026,"is_reserved":false,"is_disabled":false,"rental_uris":{"android":"levelo://app?vid=43fc693e-f2a9-4aec-8fd9-d094bb02cb70","ios":"levelo://app?vid=43fc693e-f2a9-4aec-8fd9-d094bb02cb70"},"vehicle_type_id":"4","last_reported":1687201496,"current_range_meters":12800,"station_id":"ce4bgup2rcd13ifvqcn0","pricing_plan_id":"free"},{"bike_id":"5ab790a9-b7bf-472a-aaf1-73b60ccb5218","system_id":"levelo_inurba_marseille","lat":43.319935,"lon":5.381699,"is_reserved":false,"is_disabled":false,"rental_uris":{"android":"levelo://app?vid=5ab790a9-b7bf-472a-aaf1-73b60ccb5218","ios":"levelo://app?vid=5ab790a9-b7bf-472a-aaf1-73b60ccb5218"},"vehicle_type_id":"4","last_reported":1687201496,"current_range_meters":4800,"station_id":"ce4bhr12rcd13ifvqhpg","pricing_plan_id":"free"},{"bike_id":"8846a4b4-eb37-461c-9af6-3503a780d1c9","system_id":"levelo_inurba_marseille","lat":43.30723,"lon":5.38339,"is_reserved":false,"is_disabled":false,"rental_uris":{"android":"levelo://app?vid=8846a4b4-eb37-461c-9af6-3503a780d1c9","ios":"levelo://app?vid=8846a4b4-eb37-461c-9af6-3503a780d1c9"},"vehicle_type_id":"4","last_reported":1687201496,"current_range_meters":16400,"station_id":"","pricing_plan_id":"free"},{"bike_id":"1ca7a614-8c8d-4547-a3d7-e7638c01b6b6","system_id":"levelo_inurba_marseille","lat":43.299222,"lon":5.365554,"is_reserved":false,"is_disabled":false,"rental_uris":{"android":"levelo://app?vid=1ca7a614-8c8d-4547-a3d7-e7638c01b6b6","ios":"levelo://app?vid=1ca7a614-8c8d-4547-a3d7-e7638c01b6b6"},"vehicle_type_id":"4","last_reported":1687201496,"current_range_meters":31200,"station_id":"ce4bgm92rcd13ifvqbr0","pricing_plan_id":"free"},{"bike_id":"13fd7300-bd11-40d6-a378-8c74957aa23c","system_id":"levelo_inurba_marseille","lat":43.299243,"lon":5.37481,"is_reserved":false,"is_disabled":false,"rental_uris":{"android":"levelo://app?vid=13fd7300-bd11-40d6-a378-8c74957aa23c","ios":"levelo://app?vid=13fd7300-bd11-40d6-a378-8c74957aa23c"},"vehicle_type_id":"4","last_reported":1687201496,"current_range_meters":22800,"station_id":"ce4bgjh2rcd13ifvqbg0","pricing_plan_id":"free"},{"bike_id":"eab6c3cb-0c07-47d3-842f-184be59e5327","system_id":"levelo_inurba_marseille","lat":43.298433,"lon":5.362774,"is_reserved":false,"is_disabled":false,"rental_uris":{"android":"levelo://app?vid=eab6c3cb-0c07-47d3-842f-184be59e5327","ios":"levelo://app?vid=eab6c3cb-0c07-47d3-842f-184be59e5327"},"vehicle_type_id":"4","last_reported":1687201496,"current_range_meters":6800,"station_id":"ce4bgpp2rcd13ifvqc3g","pricing_plan_id":"free"},{"bike_id":"eaf54133-6077-404e-8dfa-4bf91aabb0ae","system_id":"levelo_inurba_marseille","lat":43.299243,"lon":5.374807,"is_reserved":false,"is_disabled":false,"rental_uris":{"android":"levelo://app?vid=eaf54133-6077-404e-8dfa-4bf91aabb0ae","ios":"levelo://app?vid=eaf54133-6077-404e-8dfa-4bf91aabb0ae"},"vehicle_type_id":"4","last_reported":1687201496,"current_range_meters":26800,"station_id":"ce4bgjh2rcd13ifvqbg0","pricing_plan_id":"free"},{"bike_id":"60d62953-3d85-40fa-8bc3-b37b53d3a61c","system_id":"levelo_inurba_marseille","lat":43.311722,"lon":5.387247,"is_reserved":false,"is_disabled":false,"rental_uris":{"android":"levelo://app?vid=60d62953-3d85-40fa-8bc3-b37b53d3a61c","ios":"levelo://app?vid=60d62953-3d85-40fa-8bc3-b37b53d3a61c"},"vehicle_type_id":"4","last_reported":1687201496,"current_range_meters":4800,"station_id":"ce4bgv12rcd13ifvqcp0","pricing_plan_id":"free"},{"bike_id":"ed551a1d-28ad-435c-a319-316c408c0167","system_id":"levelo_inurba_marseille","lat":43.311722,"lon":5.387247,"is_reserved":false,"is_disabled":false,"rental_uris":{"android":"levelo://app?vid=ed551a1d-28ad-435c-a319-316c408c0167","ios":"levelo://app?vid=ed551a1d-28ad-435c-a319-316c408c0167"},"vehicle_type_id":"4","last_reported":1687201496,"current_range_meters":31600,"station_id":"ce4bgv12rcd13ifvqcp0","pricing_plan_id":"free"},{"bike_id":"28c906fd-ae46-485e-8f81-ba6b6a7f661f","system_id":"levelo_inurba_marseille","lat":43.328371,"lon":5.366909,"is_reserved":false,"is_disabled":false,"rental_uris":{"android":"levelo://app?vid=28c906fd-ae46-485e-8f81-ba6b6a7f661f","ios":"levelo://app?vid=28c906fd-ae46-485e-8f81-ba6b6a7f661f"},"vehicle_type_id":"4","last_reported":1687201496,"current_range_meters":1200,"station_id":"ce4bhs92rcd13ifvqi0g","pricing_plan_id":"free"},{"bike_id":"88891ba8-b823-4940-ae8b-8c5976032a51","system_id":"levelo_inurba_marseille","lat":43.328371,"lon":5.366909,"is_reserved":false,"is_disabled":false,"rental_uris":{"android":"levelo://app?vid=88891ba8-b823-4940-ae8b-8c5976032a51","ios":"levelo://app?vid=88891ba8-b823-4940-ae8b-8c5976032a51"},"vehicle_type_id":"4","last_reported":1687201496,"current_range_meters":22400,"station_id":"ce4bhs92rcd13ifvqi0g","pricing_plan_id":"free"},{"bike_id":"832e1273-fa14-42aa-b411-4f520f45589b","system_id":"levelo_inurba_marseille","lat":43.328371,"lon":5.366909,"is_reserved":false,"is_disabled":false,"rental_uris":{"android":"levelo://app?vid=832e1273-fa14-42aa-b411-4f520f45589b","ios":"levelo://app?vid=832e1273-fa14-42aa-b411-4f520f45589b"},"vehicle_type_id":"4","last_reported":1687201496,"current_range_meters":11600,"station_id":"ce4bhs92rcd13ifvqi0g","pricing_plan_id":"free"},{"bike_id":"8c36a403-105d-454f-9b4d-de3a6095102f","system_id":"levelo_inurba_marseille","lat":43.328371,"lon":5.366909,"is_reserved":false,"is_disabled":false,"rental_uris":{"android":"levelo://app?vid=8c36a403-105d-454f-9b4d-de3a6095102f","ios":"levelo://app?vid=8c36a403-105d-454f-9b4d-de3a6095102f"},"vehicle_type_id":"4","last_reported":1687201496,"current_range_meters":10800,"station_id":"ce4bhs92rcd13ifvqi0g","pricing_plan_id":"free"},{"bike_id":"f5c7f8b6-0397-45cd-aaf7-282381eb2475","system_id":"levelo_inurba_marseille","lat":43.29715,"lon":5.3662,"is_reserved":false,"is_disabled":false,"rental_uris":{"android":"levelo://app?vid=f5c7f8b6-0397-45cd-aaf7-282381eb2475","ios":"levelo://app?vid=f5c7f8b6-0397-45cd-aaf7-282381eb2475"},"vehicle_type_id":"4","last_reported":1687201496,"current_range_meters":29600,"station_id":"","pricing_plan_id":"free"},{"bike_id":"2a4c1dc3-4e3c-4ab9-bb46-5e19f27e0907","system_id":"levelo_inurba_marseille","lat":43.328371,"lon":5.366909,"is_reserved":false,"is_disabled":false,"rental_uris":{"android":"levelo://app?vid=2a4c1dc3-4e3c-4ab9-bb46-5e19f27e0907","ios":"levelo://app?vid=2a4c1dc3-4e3c-4ab9-bb46-5e19f27e0907"},"vehicle_type_id":"4","last_reported":1687201496,"current_range_meters":16000,"station_id":"ce4bhs92rcd13ifvqi0g","pricing_plan_id":"free"},{"bike_id":"176f4894-d7fc-460e-aa5d-7c8c1e206dc3","system_id":"levelo_inurba_marseille","lat":43.29704,"lon":5.3662,"is_reserved":false,"is_disabled":false,"rental_uris":{"android":"levelo://app?vid=176f4894-d7fc-460e-aa5d-7c8c1e206dc3","ios":"levelo://app?vid=176f4894-d7fc-460e-aa5d-7c8c1e206dc3"},"vehicle_type_id":"4","last_reported":1687201496,"current_range_meters":28400,"station_id":"","pricing_plan_id":"free"},{"bike_id":"edb2068a-f845-41cf-9340-fd1019257168","system_id":"levelo_inurba_marseille","lat":43.311722,"lon":5.387247,"is_reserved":false,"is_disabled":false,"rental_uris":{"android":"levelo://app?vid=edb2068a-f845-41cf-9340-fd1019257168","ios":"levelo://app?vid=edb2068a-f845-41cf-9340-fd1019257168"},"vehicle_type_id":"4","last_reported":1687201496,"current_range_meters":14800,"station_id":"ce4bgv12rcd13ifvqcp0","pricing_plan_id":"free"},{"bike_id":"493b7ee3-0728-4205-925f-0f351e2364a3","system_id":"levelo_inurba_marseille","lat":43.2968,"lon":5.37291,"is_reserved":false,"is_disabled":false,"rental_uris":{"android":"levelo://app?vid=493b7ee3-0728-4205-925f-0f351e2364a3","ios":"levelo://app?vid=493b7ee3-0728-4205-925f-0f351e2364a3"},"vehicle_type_id":"4","last_reported":1687201496,"current_range_meters":11600,"station_id":"ce4bgk12rcd13ifvqbj0","pricing_plan_id":"free"},{"bike_id":"24f41ca5-b432-4feb-a0c8-a15026b97306","system_id":"levelo_inurba_marseille","lat":43.296131,"lon":5.370773,"is_reserved":false,"is_disabled":false,"rental_uris":{"android":"levelo://app?vid=24f41ca5-b432-4feb-a0c8-a15026b97306","ios":"levelo://app?vid=24f41ca5-b432-4feb-a0c8-a15026b97306"},"vehicle_type_id":"4","last_reported":1687201496,"current_range_meters":7200,"station_id":"ce4bgnh2rcd13ifvqc0g","pricing_plan_id":"free"},{"bike_id":"e3d9998a-0f6c-45c5-aacd-5d40d5ff73f3","system_id":"levelo_inurba_marseille","lat":43.299028,"lon":5.381509,"is_reserved":false,"is_disabled":false,"rental_uris":{"android":"levelo://app?vid=e3d9998a-0f6c-45c5-aacd-5d40d5ff73f3","ios":"levelo://app?vid=e3d9998a-0f6c-45c5-aacd-5d40d5ff73f3"},"vehicle_type_id":"4","last_reported":1687201496,"current_range_meters":4400,"station_id":"ce4bgj12rcd13ifvqbc0","pricing_plan_id":"free"},{"bike_id":"ee18b9e5-019d-4ddb-a8dd-fc1aa50a7511","system_id":"levelo_inurba_marseille","lat":43.296921,"lon":5.376579,"is_reserved":false,"is_disabled":false,"rental_uris":{"android":"levelo://app?vid=ee18b9e5-019d-4ddb-a8dd-fc1aa50a7511","ios":"levelo://app?vid=ee18b9e5-019d-4ddb-a8dd-fc1aa50a7511"},"vehicle_type_id":"4","last_reported":1687201496,"current_range_meters":30400,"station_id":"ce4bgkh2rcd13ifvqbl0","pricing_plan_id":"free"},{"bike_id":"e8af4134-1396-497c-865f-0cf8667000e7","system_id":"levelo_inurba_marseille","lat":43.309589,"lon":5.390258,"is_reserved":false,"is_disabled":false,"rental_uris":{"android":"levelo://app?vid=e8af4134-1396-497c-865f-0cf8667000e7","ios":"levelo://app?vid=e8af4134-1396-497c-865f-0cf8667000e7"},"vehicle_type_id":"4","last_reported":1687201496,"current_range_meters":0,"station_id":"ce4bgup2rcd13ifvqco0","pricing_plan_id":"free"},{"bike_id":"ab137c87-7b5d-4a6d-b139-0e4813e4842d","system_id":"levelo_inurba_marseille","lat":43.317557,"lon":5.390173,"is_reserved":false,"is_disabled":false,"rental_uris":{"android":"levelo://app?vid=ab137c87-7b5d-4a6d-b139-0e4813e4842d","ios":"levelo://app?vid=ab137c87-7b5d-4a6d-b139-0e4813e4842d"},"vehicle_type_id":"4","last_reported":1687201496,"current_range_meters":16400,"station_id":"ce4bhqp2rcd13ifvqhng","pricing_plan_id":"free"},{"bike_id":"734ce217-e6fb-41df-bb44-4b53bd35a53a","system_id":"levelo_inurba_marseille","lat":43.317557,"lon":5.390173,"is_reserved":false,"is_disabled":false,"rental_uris":{"android":"levelo://app?vid=734ce217-e6fb-41df-bb44-4b53bd35a53a","ios":"levelo://app?vid=734ce217-e6fb-41df-bb44-4b53bd35a53a"},"vehicle_type_id":"4","last_reported":1687201496,"current_range_meters":6400,"station_id":"ce4bhqp2rcd13ifvqhng","pricing_plan_id":"free"},{"bike_id":"69dbe3ac-94b1-440c-9f50-8ffc6c7bcec0","system_id":"levelo_inurba_marseille","lat":43.29594,"lon":5.37475,"is_reserved":false,"is_disabled":false,"rental_uris":{"android":"levelo://app?vid=69dbe3ac-94b1-440c-9f50-8ffc6c7bcec0","ios":"levelo://app?vid=69dbe3ac-94b1-440c-9f50-8ffc6c7bcec0"},"vehicle_type_id":"4","last_reported":1687201496,"current_range_meters":3600,"station_id":"","pricing_plan_id":"free"},{"bike_id":"45f8c786-b17e-4d84-b4a3-ecfed802f20b","system_id":"levelo_inurba_marseille","lat":43.29591,"lon":5.37482,"is_reserved":false,"is_disabled":false,"rental_uris":{"android":"levelo://app?vid=45f8c786-b17e-4d84-b4a3-ecfed802f20b","ios":"levelo://app?vid=45f8c786-b17e-4d84-b4a3-ecfed802f20b"},"vehicle_type_id":"4","last_reported":1687201496,"current_range_meters":26800,"station_id":"","pricing_plan_id":"free"},{"bike_id":"91efc722-d856-4930-b55e-112cd83cd03f","system_id":"levelo_inurba_marseille","lat":43.298037,"lon":5.381066,"is_reserved":false,"is_disabled":false,"rental_uris":{"android":"levelo://app?vid=91efc722-d856-4930-b55e-112cd83cd03f","ios":"levelo://app?vid=91efc722-d856-4930-b55e-112cd83cd03f"},"vehicle_type_id":"4","last_reported":1687201496,"current_range_meters":27200,"station_id":"ce4bgip2rcd13ifvqbb0","pricing_plan_id":"free"},{"bike_id":"38d68ef7-2cb4-4c19-b836-d35bb114bc2f","system_id":"levelo_inurba_marseille","lat":43.298037,"lon":5.381066,"is_reserved":false,"is_disabled":false,"rental_uris":{"android":"levelo://app?vid=38d68ef7-2cb4-4c19-b836-d35bb114bc2f","ios":"levelo://app?vid=38d68ef7-2cb4-4c19-b836-d35bb114bc2f"},"vehicle_type_id":"4","last_reported":1687201496,"current_range_meters":14000,"station_id":"ce4bgip2rcd13ifvqbb0","pricing_plan_id":"free"},{"bike_id":"945c1ae7-5bbf-473e-82a2-23fb48feaca9","system_id":"levelo_inurba_marseille","lat":43.298037,"lon":5.381066,"is_reserved":false,"is_disabled":false,"rental_uris":{"android":"levelo://app?vid=945c1ae7-5bbf-473e-82a2-23fb48feaca9","ios":"levelo://app?vid=945c1ae7-5bbf-473e-82a2-23fb48feaca9"},"vehicle_type_id":"4","last_reported":1687201496,"current_range_meters":5200,"station_id":"ce4bgip2rcd13ifvqbb0","pricing_plan_id":"free"},{"bike_id":"036db91f-69cf-4c1f-a819-b5f9903b2d73","system_id":"levelo_inurba_marseille","lat":43.298037,"lon":5.381066,"is_reserved":false,"is_disabled":false,"rental_uris":{"android":"levelo://app?vid=036db91f-69cf-4c1f-a819-b5f9903b2d73","ios":"levelo://app?vid=036db91f-69cf-4c1f-a819-b5f9903b2d73"},"vehicle_type_id":"4","last_reported":1687201496,"current_range_meters":22400,"station_id":"ce4bgip2rcd13ifvqbb0","pricing_plan_id":"free"},{"bike_id":"f8c88798-d85c-472c-9489-5d7740a583a0","system_id":"levelo_inurba_marseille","lat":43.298037,"lon":5.381066,"is_reserved":false,"is_disabled":false,"rental_uris":{"android":"levelo://app?vid=f8c88798-d85c-472c-9489-5d7740a583a0","ios":"levelo://app?vid=f8c88798-d85c-472c-9489-5d7740a583a0"},"vehicle_type_id":"4","last_reported":1687201496,"current_range_meters":24000,"station_id":"ce4bgip2rcd13ifvqbb0","pricing_plan_id":"free"},{"bike_id":"6081c3d6-ef7b-4860-ab97-620d85c8f00c","system_id":"levelo_inurba_marseille","lat":43.295761,"lon":5.375029,"is_reserved":false,"is_disabled":false,"rental_uris":{"android":"levelo://app?vid=6081c3d6-ef7b-4860-ab97-620d85c8f00c","ios":"levelo://app?vid=6081c3d6-ef7b-4860-ab97-620d85c8f00c"},"vehicle_type_id":"4","last_reported":1687201496,"current_range_meters":12000,"station_id":"","pricing_plan_id":"free"},{"bike_id":"6aca00d6-60f4-49ca-a26b-158903d4346b","system_id":"levelo_inurba_marseille","lat":43.295748,"lon":5.37522,"is_reserved":false,"is_disabled":false,"rental_uris":{"android":"levelo://app?vid=6aca00d6-60f4-49ca-a26b-158903d4346b","ios":"levelo://app?vid=6aca00d6-60f4-49ca-a26b-158903d4346b"},"vehicle_type_id":"4","last_reported":1687201496,"current_range_meters":22800,"station_id":"ce4bgh92rcd13ifvqb50","pricing_plan_id":"free"},{"bike_id":"250c8a96-8498-4211-b8f3-1b00a8d1fbaf","system_id":"levelo_inurba_marseille","lat":43.296477,"lon":5.37768,"is_reserved":false,"is_disabled":false,"rental_uris":{"android":"levelo://app?vid=250c8a96-8498-4211-b8f3-1b00a8d1fbaf","ios":"levelo://app?vid=250c8a96-8498-4211-b8f3-1b00a8d1fbaf"},"vehicle_type_id":"4","last_reported":1687201496,"current_range_meters":8000,"station_id":"","pricing_plan_id":"free"},{"bike_id":"b7b1d109-f109-46f0-bcde-562f2f46f0be","system_id":"levelo_inurba_marseille","lat":43.30433,"lon":5.38891,"is_reserved":false,"is_disabled":false,"rental_uris":{"android":"levelo://app?vid=b7b1d109-f109-46f0-bcde-562f2f46f0be","ios":"levelo://app?vid=b7b1d109-f109-46f0-bcde-562f2f46f0be"},"vehicle_type_id":"4","last_reported":1687201496,"current_range_meters":0,"station_id":"ce4bgk12rcd13ifvqbi0","pricing_plan_id":"free"},{"bike_id":"e4f29fc9-9a84-40b5-9b9f-eaa1349fd9cc","system_id":"levelo_inurba_marseille","lat":43.29566,"lon":5.37508,"is_reserved":false,"is_disabled":false,"rental_uris":{"android":"levelo://app?vid=e4f29fc9-9a84-40b5-9b9f-eaa1349fd9cc","ios":"levelo://app?vid=e4f29fc9-9a84-40b5-9b9f-eaa1349fd9cc"},"vehicle_type_id":"4","last_reported":1687201496,"current_range_meters":27200,"station_id":"","pricing_plan_id":"free"},{"bike_id":"eb56f040-d7e3-440c-9d05-82afe187dd21","system_id":"levelo_inurba_marseille","lat":43.299717,"lon":5.384845,"is_reserved":false,"is_disabled":false,"rental_uris":{"android":"levelo://app?vid=eb56f040-d7e3-440c-9d05-82afe187dd21","ios":"levelo://app?vid=eb56f040-d7e3-440c-9d05-82afe187dd21"},"vehicle_type_id":"4","last_reported":1687201496,"current_range_meters":30400,"station_id":"ce4bgj92rcd13ifvqbd0","pricing_plan_id":"free"},{"bike_id":"a5b28776-ea2a-48f1-83f4-f6d033b148ae","system_id":"levelo_inurba_marseille","lat":43.32367,"lon":5.388836,"is_reserved":false,"is_disabled":false,"rental_uris":{"android":"levelo://app?vid=a5b28776-ea2a-48f1-83f4-f6d033b148ae","ios":"levelo://app?vid=a5b28776-ea2a-48f1-83f4-f6d033b148ae"},"vehicle_type_id":"4","last_reported":1687201496,"current_range_meters":12000,"station_id":"ce4bhqp2rcd13ifvqhog","pricing_plan_id":"free"},{"bike_id":"e14eef78-65d4-49a3-a7ec-3bb02c8db9ec","system_id":"levelo_inurba_marseille","lat":43.32367,"lon":5.388836,"is_reserved":false,"is_disabled":false,"rental_uris":{"android":"levelo://app?vid=e14eef78-65d4-49a3-a7ec-3bb02c8db9ec","ios":"levelo://app?vid=e14eef78-65d4-49a3-a7ec-3bb02c8db9ec"},"vehicle_type_id":"4","last_reported":1687201496,"current_range_meters":11200,"station_id":"ce4bhqp2rcd13ifvqhog","pricing_plan_id":"free"},{"bike_id":"1bc2a773-d033-4ed1-8799-fc8a8d1aebd8","system_id":"levelo_inurba_marseille","lat":43.32366,"lon":5.38887,"is_reserved":false,"is_disabled":false,"rental_uris":{"android":"levelo://app?vid=1bc2a773-d033-4ed1-8799-fc8a8d1aebd8","ios":"levelo://app?vid=1bc2a773-d033-4ed1-8799-fc8a8d1aebd8"},"vehicle_type_id":"4","last_reported":1687201496,"current_range_meters":22000,"station_id":"ce4bhqp2rcd13ifvqhog","pricing_plan_id":"free"},{"bike_id":"90adb825-5f50-45eb-a1de-312044089240","system_id":"levelo_inurba_marseille","lat":43.32367,"lon":5.38887,"is_reserved":false,"is_disabled":false,"rental_uris":{"android":"levelo://app?vid=90adb825-5f50-45eb-a1de-312044089240","ios":"levelo://app?vid=90adb825-5f50-45eb-a1de-312044089240"},"vehicle_type_id":"4","last_reported":1687201496,"current_range_meters":0,"station_id":"ce4bhqp2rcd13ifvqhog","pricing_plan_id":"free"},{"bike_id":"c25bbca6-334a-48c9-b2aa-c69eb97c9d81","system_id":"levelo_inurba_marseille","lat":43.32367,"lon":5.388836,"is_reserved":false,"is_disabled":false,"rental_uris":{"android":"levelo://app?vid=c25bbca6-334a-48c9-b2aa-c69eb97c9d81","ios":"levelo://app?vid=c25bbca6-334a-48c9-b2aa-c69eb97c9d81"},"vehicle_type_id":"4","last_reported":1687201496,"current_range_meters":24800,"station_id":"ce4bhqp2rcd13ifvqhog","pricing_plan_id":"free"},{"bike_id":"cadfd61a-559a-4d04-9ffe-76e58d1e59a5","system_id":"levelo_inurba_marseille","lat":43.29602,"lon":5.381084,"is_reserved":false,"is_disabled":false,"rental_uris":{"android":"levelo://app?vid=cadfd61a-559a-4d04-9ffe-76e58d1e59a5","ios":"levelo://app?vid=cadfd61a-559a-4d04-9ffe-76e58d1e59a5"},"vehicle_type_id":"4","last_reported":1687201496,"current_range_meters":0,"station_id":"ce4bgl12rcd13ifvqbo0","pricing_plan_id":"free"},{"bike_id":"a1992d99-4166-47a2-9232-caeb23792c5e","system_id":"levelo_inurba_marseille","lat":43.29601,"lon":5.381084,"is_reserved":false,"is_disabled":false,"rental_uris":{"android":"levelo://app?vid=a1992d99-4166-47a2-9232-caeb23792c5e","ios":"levelo://app?vid=a1992d99-4166-47a2-9232-caeb23792c5e"},"vehicle_type_id":"4","last_reported":1687201496,"current_range_meters":5200,"station_id":"ce4bgl12rcd13ifvqbo0","pricing_plan_id":"free"},{"bike_id":"01f4a698-4342-4614-afdc-22354036cdb3","system_id":"levelo_inurba_marseille","lat":43.29307,"lon":5.37178,"is_reserved":false,"is_disabled":false,"rental_uris":{"android":"levelo://app?vid=01f4a698-4342-4614-afdc-22354036cdb3","ios":"levelo://app?vid=01f4a698-4342-4614-afdc-22354036cdb3"},"vehicle_type_id":"4","last_reported":1687201496,"current_range_meters":22800,"station_id":"ce4bgh92rcd13ifvqb40","pricing_plan_id":"free"},{"bike_id":"31940e96-e568-45b5-b5c6-745f0b460e2f","system_id":"levelo_inurba_marseille","lat":43.292749,"lon":5.368402,"is_reserved":false,"is_disabled":false,"rental_uris":{"android":"levelo://app?vid=31940e96-e568-45b5-b5c6-745f0b460e2f","ios":"levelo://app?vid=31940e96-e568-45b5-b5c6-745f0b460e2f"},"vehicle_type_id":"4","last_reported":1687201496,"current_range_meters":18800,"station_id":"ce4bhbp2rcd13ifvqesg","pricing_plan_id":"free"},{"bike_id":"b737374f-289e-4aca-8c8a-bebf1816993d","system_id":"levelo_inurba_marseille","lat":43.293009,"lon":5.374584,"is_reserved":false,"is_disabled":false,"rental_uris":{"android":"levelo://app?vid=b737374f-289e-4aca-8c8a-bebf1816993d","ios":"levelo://app?vid=b737374f-289e-4aca-8c8a-bebf1816993d"},"vehicle_type_id":"4","last_reported":1687201496,"current_range_meters":0,"station_id":"ce4bgi12rcd13ifvqb70","pricing_plan_id":"free"},{"bike_id":"8130f5d2-f0f1-4656-877c-67fe65bff26e","system_id":"levelo_inurba_marseille","lat":43.29301,"lon":5.37458,"is_reserved":false,"is_disabled":false,"rental_uris":{"android":"levelo://app?vid=8130f5d2-f0f1-4656-877c-67fe65bff26e","ios":"levelo://app?vid=8130f5d2-f0f1-4656-877c-67fe65bff26e"},"vehicle_type_id":"4","last_reported":1687201496,"current_range_meters":13600,"station_id":"ce4bgi12rcd13ifvqb70","pricing_plan_id":"free"},{"bike_id":"f96bc5ef-773a-4c29-b818-b40707fecfaa","system_id":"levelo_inurba_marseille","lat":43.305994,"lon":5.393687,"is_reserved":false,"is_disabled":false,"rental_uris":{"android":"levelo://app?vid=f96bc5ef-773a-4c29-b818-b40707fecfaa","ios":"levelo://app?vid=f96bc5ef-773a-4c29-b818-b40707fecfaa"},"vehicle_type_id":"4","last_reported":1687201496,"current_range_meters":31600,"station_id":"ce4bh0p2rcd13ifvqd80","pricing_plan_id":"free"},{"bike_id":"b2e84a52-43df-4406-91b0-b29705444d27","system_id":"levelo_inurba_marseille","lat":43.293009,"lon":5.374584,"is_reserved":false,"is_disabled":false,"rental_uris":{"android":"levelo://app?vid=b2e84a52-43df-4406-91b0-b29705444d27","ios":"levelo://app?vid=b2e84a52-43df-4406-91b0-b29705444d27"},"vehicle_type_id":"4","last_reported":1687201496,"current_range_meters":31200,"station_id":"ce4bgi12rcd13ifvqb70","pricing_plan_id":"free"},{"bike_id":"66b480a6-9947-4496-98e2-93e61a3244b4","system_id":"levelo_inurba_marseille","lat":43.305994,"lon":5.393687,"is_reserved":false,"is_disabled":false,"rental_uris":{"android":"levelo://app?vid=66b480a6-9947-4496-98e2-93e61a3244b4","ios":"levelo://app?vid=66b480a6-9947-4496-98e2-93e61a3244b4"},"vehicle_type_id":"4","last_reported":1687201496,"current_range_meters":30000,"station_id":"ce4bh0p2rcd13ifvqd80","pricing_plan_id":"free"},{"bike_id":"659b5d8b-1631-48ee-8cff-de6411143e1c","system_id":"levelo_inurba_marseille","lat":43.30303,"lon":5.39207,"is_reserved":false,"is_disabled":false,"rental_uris":{"android":"levelo://app?vid=659b5d8b-1631-48ee-8cff-de6411143e1c","ios":"levelo://app?vid=659b5d8b-1631-48ee-8cff-de6411143e1c"},"vehicle_type_id":"4","last_reported":1687201496,"current_range_meters":0,"station_id":"ce4bgkh2rcd13ifvqbk0","pricing_plan_id":"free"},{"bike_id":"53fe354e-5e76-47ca-b3ae-81cbd88e4d9d","system_id":"levelo_inurba_marseille","lat":43.2936,"lon":5.37835,"is_reserved":false,"is_disabled":false,"rental_uris":{"android":"levelo://app?vid=53fe354e-5e76-47ca-b3ae-81cbd88e4d9d","ios":"levelo://app?vid=53fe354e-5e76-47ca-b3ae-81cbd88e4d9d"},"vehicle_type_id":"4","last_reported":1687201496,"current_range_meters":5600,"station_id":"ce4bgjh2rcd13ifvqbf0","pricing_plan_id":"free"},{"bike_id":"5a410217-ebe7-4f02-9deb-0de68b7eb8ca","system_id":"levelo_inurba_marseille","lat":43.2936,"lon":5.37835,"is_reserved":false,"is_disabled":false,"rental_uris":{"android":"levelo://app?vid=5a410217-ebe7-4f02-9deb-0de68b7eb8ca","ios":"levelo://app?vid=5a410217-ebe7-4f02-9deb-0de68b7eb8ca"},"vehicle_type_id":"4","last_reported":1687201496,"current_range_meters":22800,"station_id":"ce4bgjh2rcd13ifvqbf0","pricing_plan_id":"free"},{"bike_id":"b3553dbf-5b83-4012-999c-9728ac571931","system_id":"levelo_inurba_marseille","lat":43.2936,"lon":5.37835,"is_reserved":false,"is_disabled":false,"rental_uris":{"android":"levelo://app?vid=b3553dbf-5b83-4012-999c-9728ac571931","ios":"levelo://app?vid=b3553dbf-5b83-4012-999c-9728ac571931"},"vehicle_type_id":"4","last_reported":1687201496,"current_range_meters":16000,"station_id":"ce4bgjh2rcd13ifvqbf0","pricing_plan_id":"free"},{"bike_id":"ce6713c3-9fe8-47a7-98c0-b629270be072","system_id":"levelo_inurba_marseille","lat":43.2936,"lon":5.37835,"is_reserved":false,"is_disabled":false,"rental_uris":{"android":"levelo://app?vid=ce6713c3-9fe8-47a7-98c0-b629270be072","ios":"levelo://app?vid=ce6713c3-9fe8-47a7-98c0-b629270be072"},"vehicle_type_id":"4","last_reported":1687201496,"current_range_meters":14400,"station_id":"ce4bgjh2rcd13ifvqbf0","pricing_plan_id":"free"},{"bike_id":"7e94c494-5905-44c7-a039-2443b6c3ea88","system_id":"levelo_inurba_marseille","lat":43.2936,"lon":5.37835,"is_reserved":false,"is_disabled":false,"rental_uris":{"android":"levelo://app?vid=7e94c494-5905-44c7-a039-2443b6c3ea88","ios":"levelo://app?vid=7e94c494-5905-44c7-a039-2443b6c3ea88"},"vehicle_type_id":"4","last_reported":1687201496,"current_range_meters":6800,"station_id":"ce4bgjh2rcd13ifvqbf0","pricing_plan_id":"free"},{"bike_id":"7ee8e857-e58f-4d0f-9ec8-cf55d6494b29","system_id":"levelo_inurba_marseille","lat":43.29256,"lon":5.35969,"is_reserved":false,"is_disabled":false,"rental_uris":{"android":"levelo://app?vid=7ee8e857-e58f-4d0f-9ec8-cf55d6494b29","ios":"levelo://app?vid=7ee8e857-e58f-4d0f-9ec8-cf55d6494b29"},"vehicle_type_id":"4","last_reported":1687201496,"current_range_meters":6000,"station_id":"","pricing_plan_id":"free"},{"bike_id":"0b641dbf-8b60-43d3-840d-16f8330c25c4","system_id":"levelo_inurba_marseille","lat":43.300852,"lon":5.390859,"is_reserved":false,"is_disabled":false,"rental_uris":{"android":"levelo://app?vid=0b641dbf-8b60-43d3-840d-16f8330c25c4","ios":"levelo://app?vid=0b641dbf-8b60-43d3-840d-16f8330c25c4"},"vehicle_type_id":"4","last_reported":1687201496,"current_range_meters":30400,"station_id":"ce4bh192rcd13ifvqdb0","pricing_plan_id":"free"},{"bike_id":"4d08caff-29f2-4bda-b0ac-b54fed087009","system_id":"levelo_inurba_marseille","lat":43.300852,"lon":5.390859,"is_reserved":false,"is_disabled":false,"rental_uris":{"android":"levelo://app?vid=4d08caff-29f2-4bda-b0ac-b54fed087009","ios":"levelo://app?vid=4d08caff-29f2-4bda-b0ac-b54fed087009"},"vehicle_type_id":"4","last_reported":1687201496,"current_range_meters":27200,"station_id":"ce4bh192rcd13ifvqdb0","pricing_plan_id":"free"},{"bike_id":"59236d2b-0029-4e05-b517-2fdfe39bdf8b","system_id":"levelo_inurba_marseille","lat":43.2936,"lon":5.37835,"is_reserved":false,"is_disabled":false,"rental_uris":{"android":"levelo://app?vid=59236d2b-0029-4e05-b517-2fdfe39bdf8b","ios":"levelo://app?vid=59236d2b-0029-4e05-b517-2fdfe39bdf8b"},"vehicle_type_id":"4","last_reported":1687201496,"current_range_meters":20400,"station_id":"ce4bgjh2rcd13ifvqbf0","pricing_plan_id":"free"},{"bike_id":"b0d69adf-d46f-4be7-a9a5-4d6326480c97","system_id":"levelo_inurba_marseille","lat":43.300852,"lon":5.390859,"is_reserved":false,"is_disabled":false,"rental_uris":{"android":"levelo://app?vid=b0d69adf-d46f-4be7-a9a5-4d6326480c97","ios":"levelo://app?vid=b0d69adf-d46f-4be7-a9a5-4d6326480c97"},"vehicle_type_id":"4","last_reported":1687201496,"current_range_meters":30000,"station_id":"ce4bh192rcd13ifvqdb0","pricing_plan_id":"free"},{"bike_id":"4941b437-fcd1-49d7-8ca4-0f9695753950","system_id":"levelo_inurba_marseille","lat":43.300852,"lon":5.390859,"is_reserved":false,"is_disabled":false,"rental_uris":{"android":"levelo://app?vid=4941b437-fcd1-49d7-8ca4-0f9695753950","ios":"levelo://app?vid=4941b437-fcd1-49d7-8ca4-0f9695753950"},"vehicle_type_id":"4","last_reported":1687201496,"current_range_meters":20000,"station_id":"ce4bh192rcd13ifvqdb0","pricing_plan_id":"free"},{"bike_id":"e22ad1e3-7607-4f6d-9e60-31fa10ee6b7a","system_id":"levelo_inurba_marseille","lat":43.31328,"lon":5.39682,"is_reserved":false,"is_disabled":false,"rental_uris":{"android":"levelo://app?vid=e22ad1e3-7607-4f6d-9e60-31fa10ee6b7a","ios":"levelo://app?vid=e22ad1e3-7607-4f6d-9e60-31fa10ee6b7a"},"vehicle_type_id":"4","last_reported":1687201496,"current_range_meters":10000,"station_id":"ce4bgvp2rcd13ifvqcu0","pricing_plan_id":"free"},{"bike_id":"d38c5de4-1b75-44fb-88b5-eb30bcdcd7d0","system_id":"levelo_inurba_marseille","lat":43.31325,"lon":5.396882,"is_reserved":false,"is_disabled":false,"rental_uris":{"android":"levelo://app?vid=d38c5de4-1b75-44fb-88b5-eb30bcdcd7d0","ios":"levelo://app?vid=d38c5de4-1b75-44fb-88b5-eb30bcdcd7d0"},"vehicle_type_id":"4","last_reported":1687201496,"current_range_meters":25200,"station_id":"","pricing_plan_id":"free"},{"bike_id":"b96b7f9c-6e6e-4e56-a7ae-4d52968dfcbc","system_id":"levelo_inurba_marseille","lat":43.290779,"lon":5.371482,"is_reserved":false,"is_disabled":false,"rental_uris":{"android":"levelo://app?vid=b96b7f9c-6e6e-4e56-a7ae-4d52968dfcbc","ios":"levelo://app?vid=b96b7f9c-6e6e-4e56-a7ae-4d52968dfcbc"},"vehicle_type_id":"4","last_reported":1687201496,"current_range_meters":8400,"station_id":"ce4bh5p2rcd13ifvqe4g","pricing_plan_id":"free"},{"bike_id":"8a98980b-4282-4d22-b459-ca3715966a4d","system_id":"levelo_inurba_marseille","lat":43.290779,"lon":5.371482,"is_reserved":false,"is_disabled":false,"rental_uris":{"android":"levelo://app?vid=8a98980b-4282-4d22-b459-ca3715966a4d","ios":"levelo://app?vid=8a98980b-4282-4d22-b459-ca3715966a4d"},"vehicle_type_id":"4","last_reported":1687201496,"current_range_meters":5200,"station_id":"ce4bh5p2rcd13ifvqe4g","pricing_plan_id":"free"},{"bike_id":"02aafb01-3e0f-4836-bd95-fdd663d460d2","system_id":"levelo_inurba_marseille","lat":43.290779,"lon":5.371482,"is_reserved":false,"is_disabled":false,"rental_uris":{"android":"levelo://app?vid=02aafb01-3e0f-4836-bd95-fdd663d460d2","ios":"levelo://app?vid=02aafb01-3e0f-4836-bd95-fdd663d460d2"},"vehicle_type_id":"4","last_reported":1687201496,"current_range_meters":10800,"station_id":"ce4bh5p2rcd13ifvqe4g","pricing_plan_id":"free"},{"bike_id":"9252f1f9-2017-4894-a3bb-07e89a912cb5","system_id":"levelo_inurba_marseille","lat":43.29176,"lon":5.37728,"is_reserved":false,"is_disabled":false,"rental_uris":{"android":"levelo://app?vid=9252f1f9-2017-4894-a3bb-07e89a912cb5","ios":"levelo://app?vid=9252f1f9-2017-4894-a3bb-07e89a912cb5"},"vehicle_type_id":"4","last_reported":1687201496,"current_range_meters":10000,"station_id":"","pricing_plan_id":"free"},{"bike_id":"9d647760-40b2-4316-8aa7-7aa65458868f","system_id":"levelo_inurba_marseille","lat":43.290779,"lon":5.371482,"is_reserved":false,"is_disabled":false,"rental_uris":{"android":"levelo://app?vid=9d647760-40b2-4316-8aa7-7aa65458868f","ios":"levelo://app?vid=9d647760-40b2-4316-8aa7-7aa65458868f"},"vehicle_type_id":"4","last_reported":1687201496,"current_range_meters":16800,"station_id":"ce4bh5p2rcd13ifvqe4g","pricing_plan_id":"free"},{"bike_id":"372a747f-b3e2-42c9-9975-8fb5eeb828c6","system_id":"levelo_inurba_marseille","lat":43.295169,"lon":5.390426,"is_reserved":false,"is_disabled":false,"rental_uris":{"android":"levelo://app?vid=372a747f-b3e2-42c9-9975-8fb5eeb828c6","ios":"levelo://app?vid=372a747f-b3e2-42c9-9975-8fb5eeb828c6"},"vehicle_type_id":"4","last_reported":1687201496,"current_range_meters":20800,"station_id":"ce4bh3p2rcd13ifvqdp0","pricing_plan_id":"free"},{"bike_id":"216d5ea7-dc60-4286-83da-24d72c5afa02","system_id":"levelo_inurba_marseille","lat":43.294153,"lon":5.386305,"is_reserved":false,"is_disabled":false,"rental_uris":{"android":"levelo://app?vid=216d5ea7-dc60-4286-83da-24d72c5afa02","ios":"levelo://app?vid=216d5ea7-dc60-4286-83da-24d72c5afa02"},"vehicle_type_id":"4","last_reported":1687201496,"current_range_meters":1600,"station_id":"ce4bh2h2rcd13ifvqdh0","pricing_plan_id":"free"},{"bike_id":"16e1ab2d-df08-4a8a-97ec-cc3df171c2a3","system_id":"levelo_inurba_marseille","lat":43.289468,"lon":5.363719,"is_reserved":false,"is_disabled":false,"rental_uris":{"android":"levelo://app?vid=16e1ab2d-df08-4a8a-97ec-cc3df171c2a3","ios":"levelo://app?vid=16e1ab2d-df08-4a8a-97ec-cc3df171c2a3"},"vehicle_type_id":"4","last_reported":1687201496,"current_range_meters":3600,"station_id":"ce4bhc92rcd13ifvqetg","pricing_plan_id":"free"},{"bike_id":"1bc3a8ed-57af-4ab9-9f7b-ed471a5f09e0","system_id":"levelo_inurba_marseille","lat":43.29029,"lon":5.37557,"is_reserved":false,"is_disabled":false,"rental_uris":{"android":"levelo://app?vid=1bc3a8ed-57af-4ab9-9f7b-ed471a5f09e0","ios":"levelo://app?vid=1bc3a8ed-57af-4ab9-9f7b-ed471a5f09e0"},"vehicle_type_id":"4","last_reported":1687201496,"current_range_meters":17200,"station_id":"ce4bh692rcd13ifvqe90","pricing_plan_id":"free"},{"bike_id":"0609f09b-61e5-40d1-a057-3a5b9409ddd1","system_id":"levelo_inurba_marseille","lat":43.29416,"lon":5.38628,"is_reserved":false,"is_disabled":false,"rental_uris":{"android":"levelo://app?vid=0609f09b-61e5-40d1-a057-3a5b9409ddd1","ios":"levelo://app?vid=0609f09b-61e5-40d1-a057-3a5b9409ddd1"},"vehicle_type_id":"4","last_reported":1687201496,"current_range_meters":28400,"station_id":"ce4bh2h2rcd13ifvqdh0","pricing_plan_id":"free"},{"bike_id":"2c1ddeba-62a2-4bcf-9067-82aad12ab0e1","system_id":"levelo_inurba_marseille","lat":43.289184,"lon":5.366408,"is_reserved":false,"is_disabled":false,"rental_uris":{"android":"levelo://app?vid=2c1ddeba-62a2-4bcf-9067-82aad12ab0e1","ios":"levelo://app?vid=2c1ddeba-62a2-4bcf-9067-82aad12ab0e1"},"vehicle_type_id":"4","last_reported":1687201496,"current_range_meters":28400,"station_id":"ce4bhap2rcd13ifvqek0","pricing_plan_id":"free"},{"bike_id":"d90a5f82-5aa8-4326-8ad8-70720c23a142","system_id":"levelo_inurba_marseille","lat":43.289184,"lon":5.366408,"is_reserved":false,"is_disabled":false,"rental_uris":{"android":"levelo://app?vid=d90a5f82-5aa8-4326-8ad8-70720c23a142","ios":"levelo://app?vid=d90a5f82-5aa8-4326-8ad8-70720c23a142"},"vehicle_type_id":"4","last_reported":1687201496,"current_range_meters":18800,"station_id":"ce4bhap2rcd13ifvqek0","pricing_plan_id":"free"},{"bike_id":"58a48371-534e-41e5-8459-626be01901de","system_id":"levelo_inurba_marseille","lat":43.29416,"lon":5.38635,"is_reserved":false,"is_disabled":false,"rental_uris":{"android":"levelo://app?vid=58a48371-534e-41e5-8459-626be01901de","ios":"levelo://app?vid=58a48371-534e-41e5-8459-626be01901de"},"vehicle_type_id":"4","last_reported":1687201496,"current_range_meters":800,"station_id":"ce4bh2h2rcd13ifvqdh0","pricing_plan_id":"free"},{"bike_id":"298e3d0e-d68f-44d6-831f-eac509fff7b1","system_id":"levelo_inurba_marseille","lat":43.289184,"lon":5.366408,"is_reserved":false,"is_disabled":false,"rental_uris":{"android":"levelo://app?vid=298e3d0e-d68f-44d6-831f-eac509fff7b1","ios":"levelo://app?vid=298e3d0e-d68f-44d6-831f-eac509fff7b1"},"vehicle_type_id":"4","last_reported":1687201496,"current_range_meters":0,"station_id":"ce4bhap2rcd13ifvqek0","pricing_plan_id":"free"},{"bike_id":"13996ae2-4dac-4749-b815-c9135c2ef0e4","system_id":"levelo_inurba_marseille","lat":43.28938,"lon":5.3664,"is_reserved":false,"is_disabled":false,"rental_uris":{"android":"levelo://app?vid=13996ae2-4dac-4749-b815-c9135c2ef0e4","ios":"levelo://app?vid=13996ae2-4dac-4749-b815-c9135c2ef0e4"},"vehicle_type_id":"4","last_reported":1687201496,"current_range_meters":8800,"station_id":"ce4bhap2rcd13ifvqek0","pricing_plan_id":"free"},{"bike_id":"eae60c7f-bfd7-470e-9044-bfb281d0ff32","system_id":"levelo_inurba_marseille","lat":43.289184,"lon":5.366408,"is_reserved":false,"is_disabled":false,"rental_uris":{"android":"levelo://app?vid=eae60c7f-bfd7-470e-9044-bfb281d0ff32","ios":"levelo://app?vid=eae60c7f-bfd7-470e-9044-bfb281d0ff32"},"vehicle_type_id":"4","last_reported":1687201496,"current_range_meters":0,"station_id":"ce4bhap2rcd13ifvqek0","pricing_plan_id":"free"},{"bike_id":"86204a71-32f7-48a3-b865-0fd0dea3e79b","system_id":"levelo_inurba_marseille","lat":43.28937,"lon":5.36628,"is_reserved":false,"is_disabled":false,"rental_uris":{"android":"levelo://app?vid=86204a71-32f7-48a3-b865-0fd0dea3e79b","ios":"levelo://app?vid=86204a71-32f7-48a3-b865-0fd0dea3e79b"},"vehicle_type_id":"4","last_reported":1687201496,"current_range_meters":5600,"station_id":"ce4bhap2rcd13ifvqek0","pricing_plan_id":"free"},{"bike_id":"9fe0326f-536a-4737-963c-2bdf1b644bd0","system_id":"levelo_inurba_marseille","lat":43.289184,"lon":5.366408,"is_reserved":false,"is_disabled":false,"rental_uris":{"android":"levelo://app?vid=9fe0326f-536a-4737-963c-2bdf1b644bd0","ios":"levelo://app?vid=9fe0326f-536a-4737-963c-2bdf1b644bd0"},"vehicle_type_id":"4","last_reported":1687201496,"current_range_meters":28000,"station_id":"ce4bhap2rcd13ifvqek0","pricing_plan_id":"free"},{"bike_id":"e4949276-2f86-4580-acd9-22f5b2dbb6df","system_id":"levelo_inurba_marseille","lat":43.289184,"lon":5.366408,"is_reserved":false,"is_disabled":false,"rental_uris":{"android":"levelo://app?vid=e4949276-2f86-4580-acd9-22f5b2dbb6df","ios":"levelo://app?vid=e4949276-2f86-4580-acd9-22f5b2dbb6df"},"vehicle_type_id":"4","last_reported":1687201496,"current_range_meters":12400,"station_id":"ce4bhap2rcd13ifvqek0","pricing_plan_id":"free"},{"bike_id":"737d5716-ef6d-4bfb-bdc7-d634eb75ef0b","system_id":"levelo_inurba_marseille","lat":43.28931,"lon":5.3663,"is_reserved":false,"is_disabled":false,"rental_uris":{"android":"levelo://app?vid=737d5716-ef6d-4bfb-bdc7-d634eb75ef0b","ios":"levelo://app?vid=737d5716-ef6d-4bfb-bdc7-d634eb75ef0b"},"vehicle_type_id":"4","last_reported":1687201496,"current_range_meters":31200,"station_id":"ce4bhap2rcd13ifvqek0","pricing_plan_id":"free"},{"bike_id":"bee16c1e-f84c-46d2-b97f-ae246b01b0e5","system_id":"levelo_inurba_marseille","lat":43.289184,"lon":5.366408,"is_reserved":false,"is_disabled":false,"rental_uris":{"android":"levelo://app?vid=bee16c1e-f84c-46d2-b97f-ae246b01b0e5","ios":"levelo://app?vid=bee16c1e-f84c-46d2-b97f-ae246b01b0e5"},"vehicle_type_id":"4","last_reported":1687201496,"current_range_meters":31200,"station_id":"ce4bhap2rcd13ifvqek0","pricing_plan_id":"free"},{"bike_id":"253795c1-45b2-4c07-89a5-34d2564de43f","system_id":"levelo_inurba_marseille","lat":43.289184,"lon":5.366408,"is_reserved":false,"is_disabled":false,"rental_uris":{"android":"levelo://app?vid=253795c1-45b2-4c07-89a5-34d2564de43f","ios":"levelo://app?vid=253795c1-45b2-4c07-89a5-34d2564de43f"},"vehicle_type_id":"4","last_reported":1687201496,"current_range_meters":400,"station_id":"ce4bhap2rcd13ifvqek0","pricing_plan_id":"free"},{"bike_id":"4bb725c7-ae91-4525-b1bc-76b24165c39a","system_id":"levelo_inurba_marseille","lat":43.292642,"lon":5.384254,"is_reserved":false,"is_disabled":false,"rental_uris":{"android":"levelo://app?vid=4bb725c7-ae91-4525-b1bc-76b24165c39a","ios":"levelo://app?vid=4bb725c7-ae91-4525-b1bc-76b24165c39a"},"vehicle_type_id":"4","last_reported":1687201496,"current_range_meters":5200,"station_id":"ce4bh692rcd13ifvqea0","pricing_plan_id":"free"},{"bike_id":"c8595641-84ec-4d3c-ae93-e94804876be8","system_id":"levelo_inurba_marseille","lat":43.292642,"lon":5.384254,"is_reserved":false,"is_disabled":false,"rental_uris":{"android":"levelo://app?vid=c8595641-84ec-4d3c-ae93-e94804876be8","ios":"levelo://app?vid=c8595641-84ec-4d3c-ae93-e94804876be8"},"vehicle_type_id":"4","last_reported":1687201496,"current_range_meters":20800,"station_id":"ce4bh692rcd13ifvqea0","pricing_plan_id":"free"},{"bike_id":"f44d880f-e513-448e-9c95-12889e917159","system_id":"levelo_inurba_marseille","lat":43.292642,"lon":5.384254,"is_reserved":false,"is_disabled":false,"rental_uris":{"android":"levelo://app?vid=f44d880f-e513-448e-9c95-12889e917159","ios":"levelo://app?vid=f44d880f-e513-448e-9c95-12889e917159"},"vehicle_type_id":"4","last_reported":1687201496,"current_range_meters":3200,"station_id":"ce4bh692rcd13ifvqea0","pricing_plan_id":"free"},{"bike_id":"1c529055-6786-4483-ae05-c6271161332e","system_id":"levelo_inurba_marseille","lat":43.292644,"lon":5.384257,"is_reserved":false,"is_disabled":false,"rental_uris":{"android":"levelo://app?vid=1c529055-6786-4483-ae05-c6271161332e","ios":"levelo://app?vid=1c529055-6786-4483-ae05-c6271161332e"},"vehicle_type_id":"4","last_reported":1687201496,"current_range_meters":8800,"station_id":"ce4bh692rcd13ifvqea0","pricing_plan_id":"free"},{"bike_id":"e10cca7b-654d-44d8-9249-33a3aaa4d931","system_id":"levelo_inurba_marseille","lat":43.292642,"lon":5.384254,"is_reserved":false,"is_disabled":false,"rental_uris":{"android":"levelo://app?vid=e10cca7b-654d-44d8-9249-33a3aaa4d931","ios":"levelo://app?vid=e10cca7b-654d-44d8-9249-33a3aaa4d931"},"vehicle_type_id":"4","last_reported":1687201496,"current_range_meters":18000,"station_id":"ce4bh692rcd13ifvqea0","pricing_plan_id":"free"},{"bike_id":"38eb09af-7166-42b9-865e-84246929498f","system_id":"levelo_inurba_marseille","lat":43.292644,"lon":5.384257,"is_reserved":false,"is_disabled":false,"rental_uris":{"android":"levelo://app?vid=38eb09af-7166-42b9-865e-84246929498f","ios":"levelo://app?vid=38eb09af-7166-42b9-865e-84246929498f"},"vehicle_type_id":"4","last_reported":1687201496,"current_range_meters":32000,"station_id":"ce4bh692rcd13ifvqea0","pricing_plan_id":"free"},{"bike_id":"b86524c6-ee3b-4fe7-b0d2-a8f8eff9967c","system_id":"levelo_inurba_marseille","lat":43.292644,"lon":5.384257,"is_reserved":false,"is_disabled":false,"rental_uris":{"android":"levelo://app?vid=b86524c6-ee3b-4fe7-b0d2-a8f8eff9967c","ios":"levelo://app?vid=b86524c6-ee3b-4fe7-b0d2-a8f8eff9967c"},"vehicle_type_id":"4","last_reported":1687201496,"current_range_meters":7600,"station_id":"ce4bh692rcd13ifvqea0","pricing_plan_id":"free"},{"bike_id":"4238f08a-0ae4-4151-ab54-950df94f66b8","system_id":"levelo_inurba_marseille","lat":43.292642,"lon":5.384254,"is_reserved":false,"is_disabled":false,"rental_uris":{"android":"levelo://app?vid=4238f08a-0ae4-4151-ab54-950df94f66b8","ios":"levelo://app?vid=4238f08a-0ae4-4151-ab54-950df94f66b8"},"vehicle_type_id":"4","last_reported":1687201496,"current_range_meters":400,"station_id":"ce4bh692rcd13ifvqea0","pricing_plan_id":"free"},{"bike_id":"ae5d4185-04cd-4611-84ac-90f1d23788da","system_id":"levelo_inurba_marseille","lat":43.290104,"lon":5.356111,"is_reserved":false,"is_disabled":false,"rental_uris":{"android":"levelo://app?vid=ae5d4185-04cd-4611-84ac-90f1d23788da","ios":"levelo://app?vid=ae5d4185-04cd-4611-84ac-90f1d23788da"},"vehicle_type_id":"4","last_reported":1687201496,"current_range_meters":21200,"station_id":"ce4bhb92rcd13ifvqen0","pricing_plan_id":"free"},{"bike_id":"3c95d422-677f-4f22-8c19-3a77e981c43b","system_id":"levelo_inurba_marseille","lat":43.29007,"lon":5.35604,"is_reserved":false,"is_disabled":false,"rental_uris":{"android":"levelo://app?vid=3c95d422-677f-4f22-8c19-3a77e981c43b","ios":"levelo://app?vid=3c95d422-677f-4f22-8c19-3a77e981c43b"},"vehicle_type_id":"4","last_reported":1687201496,"current_range_meters":0,"station_id":"ce4bhb92rcd13ifvqen0","pricing_plan_id":"free"},{"bike_id":"1e3050fd-25b7-48f2-8da9-8e9c27061906","system_id":"levelo_inurba_marseille","lat":43.29003,"lon":5.35617,"is_reserved":false,"is_disabled":false,"rental_uris":{"android":"levelo://app?vid=1e3050fd-25b7-48f2-8da9-8e9c27061906","ios":"levelo://app?vid=1e3050fd-25b7-48f2-8da9-8e9c27061906"},"vehicle_type_id":"4","last_reported":1687201496,"current_range_meters":2800,"station_id":"ce4bhb92rcd13ifvqen0","pricing_plan_id":"free"},{"bike_id":"2495fac8-51a1-4d99-b24a-81ca76951f01","system_id":"levelo_inurba_marseille","lat":43.290104,"lon":5.356111,"is_reserved":false,"is_disabled":false,"rental_uris":{"android":"levelo://app?vid=2495fac8-51a1-4d99-b24a-81ca76951f01","ios":"levelo://app?vid=2495fac8-51a1-4d99-b24a-81ca76951f01"},"vehicle_type_id":"4","last_reported":1687201496,"current_range_meters":400,"station_id":"ce4bhb92rcd13ifvqen0","pricing_plan_id":"free"},{"bike_id":"8268ef2b-de32-4e70-b916-9b865fbaa0de","system_id":"levelo_inurba_marseille","lat":43.290995,"lon":5.381361,"is_reserved":false,"is_disabled":false,"rental_uris":{"android":"levelo://app?vid=8268ef2b-de32-4e70-b916-9b865fbaa0de","ios":"levelo://app?vid=8268ef2b-de32-4e70-b916-9b865fbaa0de"},"vehicle_type_id":"4","last_reported":1687201496,"current_range_meters":19200,"station_id":"ce4bh512rcd13ifvqe2g","pricing_plan_id":"free"},{"bike_id":"0a82a79a-0a19-422f-8821-c7dc4a1c374a","system_id":"levelo_inurba_marseille","lat":43.290995,"lon":5.381361,"is_reserved":false,"is_disabled":false,"rental_uris":{"android":"levelo://app?vid=0a82a79a-0a19-422f-8821-c7dc4a1c374a","ios":"levelo://app?vid=0a82a79a-0a19-422f-8821-c7dc4a1c374a"},"vehicle_type_id":"4","last_reported":1687201496,"current_range_meters":30000,"station_id":"ce4bh512rcd13ifvqe2g","pricing_plan_id":"free"},{"bike_id":"3bb8aa89-71fc-4466-9dd7-69fb92eae768","system_id":"levelo_inurba_marseille","lat":43.290995,"lon":5.381361,"is_reserved":false,"is_disabled":false,"rental_uris":{"android":"levelo://app?vid=3bb8aa89-71fc-4466-9dd7-69fb92eae768","ios":"levelo://app?vid=3bb8aa89-71fc-4466-9dd7-69fb92eae768"},"vehicle_type_id":"4","last_reported":1687201496,"current_range_meters":22000,"station_id":"ce4bh512rcd13ifvqe2g","pricing_plan_id":"free"},{"bike_id":"d0c6cb1d-8fe8-4cd7-978b-b0ea5dd299cd","system_id":"levelo_inurba_marseille","lat":43.29099,"lon":5.38137,"is_reserved":false,"is_disabled":false,"rental_uris":{"android":"levelo://app?vid=d0c6cb1d-8fe8-4cd7-978b-b0ea5dd299cd","ios":"levelo://app?vid=d0c6cb1d-8fe8-4cd7-978b-b0ea5dd299cd"},"vehicle_type_id":"4","last_reported":1687201496,"current_range_meters":10000,"station_id":"ce4bh512rcd13ifvqe2g","pricing_plan_id":"free"},{"bike_id":"15d75370-5f0b-4f5e-be92-159e67ec0b37","system_id":"levelo_inurba_marseille","lat":43.290995,"lon":5.381361,"is_reserved":false,"is_disabled":false,"rental_uris":{"android":"levelo://app?vid=15d75370-5f0b-4f5e-be92-159e67ec0b37","ios":"levelo://app?vid=15d75370-5f0b-4f5e-be92-159e67ec0b37"},"vehicle_type_id":"4","last_reported":1687201496,"current_range_meters":8400,"station_id":"ce4bh512rcd13ifvqe2g","pricing_plan_id":"free"},{"bike_id":"c326ecc8-b73d-4d38-b0d4-f33f341fac1d","system_id":"levelo_inurba_marseille","lat":43.295169,"lon":5.390426,"is_reserved":false,"is_disabled":false,"rental_uris":{"android":"levelo://app?vid=c326ecc8-b73d-4d38-b0d4-f33f341fac1d","ios":"levelo://app?vid=c326ecc8-b73d-4d38-b0d4-f33f341fac1d"},"vehicle_type_id":"4","last_reported":1687201496,"current_range_meters":13600,"station_id":"ce4bh3p2rcd13ifvqdp0","pricing_plan_id":"free"},{"bike_id":"829087ba-6630-4dd2-b231-dbc012949f50","system_id":"levelo_inurba_marseille","lat":43.295169,"lon":5.390426,"is_reserved":false,"is_disabled":false,"rental_uris":{"android":"levelo://app?vid=829087ba-6630-4dd2-b231-dbc012949f50","ios":"levelo://app?vid=829087ba-6630-4dd2-b231-dbc012949f50"},"vehicle_type_id":"4","last_reported":1687201496,"current_range_meters":24400,"station_id":"ce4bh3p2rcd13ifvqdp0","pricing_plan_id":"free"},{"bike_id":"f0024a45-4aa0-4dee-88fa-9912da60206c","system_id":"levelo_inurba_marseille","lat":43.295169,"lon":5.390426,"is_reserved":false,"is_disabled":false,"rental_uris":{"android":"levelo://app?vid=f0024a45-4aa0-4dee-88fa-9912da60206c","ios":"levelo://app?vid=f0024a45-4aa0-4dee-88fa-9912da60206c"},"vehicle_type_id":"4","last_reported":1687201496,"current_range_meters":14800,"station_id":"ce4bh3p2rcd13ifvqdp0","pricing_plan_id":"free"},{"bike_id":"7e4375f4-01c3-487a-bef3-f70d227cb57a","system_id":"levelo_inurba_marseille","lat":43.290995,"lon":5.381361,"is_reserved":false,"is_disabled":false,"rental_uris":{"android":"levelo://app?vid=7e4375f4-01c3-487a-bef3-f70d227cb57a","ios":"levelo://app?vid=7e4375f4-01c3-487a-bef3-f70d227cb57a"},"vehicle_type_id":"4","last_reported":1687201496,"current_range_meters":25200,"station_id":"ce4bh512rcd13ifvqe2g","pricing_plan_id":"free"},{"bike_id":"69951c09-f1bf-4dde-99f3-cedc05f03842","system_id":"levelo_inurba_marseille","lat":43.295169,"lon":5.390426,"is_reserved":false,"is_disabled":false,"rental_uris":{"android":"levelo://app?vid=69951c09-f1bf-4dde-99f3-cedc05f03842","ios":"levelo://app?vid=69951c09-f1bf-4dde-99f3-cedc05f03842"},"vehicle_type_id":"4","last_reported":1687201496,"current_range_meters":400,"station_id":"ce4bh3p2rcd13ifvqdp0","pricing_plan_id":"free"},{"bike_id":"55013932-099b-4a7f-9b18-2cc75647124e","system_id":"levelo_inurba_marseille","lat":43.295169,"lon":5.390426,"is_reserved":false,"is_disabled":false,"rental_uris":{"android":"levelo://app?vid=55013932-099b-4a7f-9b18-2cc75647124e","ios":"levelo://app?vid=55013932-099b-4a7f-9b18-2cc75647124e"},"vehicle_type_id":"4","last_reported":1687201496,"current_range_meters":26400,"station_id":"ce4bh3p2rcd13ifvqdp0","pricing_plan_id":"free"},{"bike_id":"13a72da8-722a-4042-98a0-8e51e1b461f1","system_id":"levelo_inurba_marseille","lat":43.295169,"lon":5.390426,"is_reserved":false,"is_disabled":false,"rental_uris":{"android":"levelo://app?vid=13a72da8-722a-4042-98a0-8e51e1b461f1","ios":"levelo://app?vid=13a72da8-722a-4042-98a0-8e51e1b461f1"},"vehicle_type_id":"4","last_reported":1687201496,"current_range_meters":15200,"station_id":"ce4bh3p2rcd13ifvqdp0","pricing_plan_id":"free"},{"bike_id":"7a6e6fc4-6488-4261-978f-d61bfcde5dc1","system_id":"levelo_inurba_marseille","lat":43.295169,"lon":5.390426,"is_reserved":false,"is_disabled":false,"rental_uris":{"android":"levelo://app?vid=7a6e6fc4-6488-4261-978f-d61bfcde5dc1","ios":"levelo://app?vid=7a6e6fc4-6488-4261-978f-d61bfcde5dc1"},"vehicle_type_id":"4","last_reported":1687201496,"current_range_meters":31200,"station_id":"ce4bh3p2rcd13ifvqdp0","pricing_plan_id":"free"},{"bike_id":"33510915-09ce-4b3d-948a-520fc36327fb","system_id":"levelo_inurba_marseille","lat":43.295169,"lon":5.390426,"is_reserved":false,"is_disabled":false,"rental_uris":{"android":"levelo://app?vid=33510915-09ce-4b3d-948a-520fc36327fb","ios":"levelo://app?vid=33510915-09ce-4b3d-948a-520fc36327fb"},"vehicle_type_id":"4","last_reported":1687201496,"current_range_meters":10800,"station_id":"ce4bh3p2rcd13ifvqdp0","pricing_plan_id":"free"},{"bike_id":"b9b44b37-7edf-4ab6-8685-17eb58a26dbc","system_id":"levelo_inurba_marseille","lat":43.295169,"lon":5.390426,"is_reserved":false,"is_disabled":false,"rental_uris":{"android":"levelo://app?vid=b9b44b37-7edf-4ab6-8685-17eb58a26dbc","ios":"levelo://app?vid=b9b44b37-7edf-4ab6-8685-17eb58a26dbc"},"vehicle_type_id":"4","last_reported":1687201496,"current_range_meters":31600,"station_id":"ce4bh3p2rcd13ifvqdp0","pricing_plan_id":"free"},{"bike_id":"01325b95-d7f4-4d71-be84-b9b4ed155d57","system_id":"levelo_inurba_marseille","lat":43.295169,"lon":5.390426,"is_reserved":false,"is_disabled":false,"rental_uris":{"android":"levelo://app?vid=01325b95-d7f4-4d71-be84-b9b4ed155d57","ios":"levelo://app?vid=01325b95-d7f4-4d71-be84-b9b4ed155d57"},"vehicle_type_id":"4","last_reported":1687201496,"current_range_meters":400,"station_id":"ce4bh3p2rcd13ifvqdp0","pricing_plan_id":"free"},{"bike_id":"057039d0-5631-41b8-aa59-a31310a97684","system_id":"levelo_inurba_marseille","lat":43.295169,"lon":5.390426,"is_reserved":false,"is_disabled":false,"rental_uris":{"android":"levelo://app?vid=057039d0-5631-41b8-aa59-a31310a97684","ios":"levelo://app?vid=057039d0-5631-41b8-aa59-a31310a97684"},"vehicle_type_id":"4","last_reported":1687201496,"current_range_meters":16000,"station_id":"ce4bh3p2rcd13ifvqdp0","pricing_plan_id":"free"},{"bike_id":"704e4e02-2735-423c-a05e-0054ac61315c","system_id":"levelo_inurba_marseille","lat":43.295169,"lon":5.390426,"is_reserved":false,"is_disabled":false,"rental_uris":{"android":"levelo://app?vid=704e4e02-2735-423c-a05e-0054ac61315c","ios":"levelo://app?vid=704e4e02-2735-423c-a05e-0054ac61315c"},"vehicle_type_id":"4","last_reported":1687201496,"current_range_meters":13600,"station_id":"ce4bh3p2rcd13ifvqdp0","pricing_plan_id":"free"},{"bike_id":"dbf061f2-72bf-4ade-b69a-4b731333442f","system_id":"levelo_inurba_marseille","lat":43.295169,"lon":5.390426,"is_reserved":false,"is_disabled":false,"rental_uris":{"android":"levelo://app?vid=dbf061f2-72bf-4ade-b69a-4b731333442f","ios":"levelo://app?vid=dbf061f2-72bf-4ade-b69a-4b731333442f"},"vehicle_type_id":"4","last_reported":1687201496,"current_range_meters":18800,"station_id":"ce4bh3p2rcd13ifvqdp0","pricing_plan_id":"free"},{"bike_id":"fd2f6396-d6eb-4a9e-aa6d-387861434165","system_id":"levelo_inurba_marseille","lat":43.28856,"lon":5.358371,"is_reserved":false,"is_disabled":false,"rental_uris":{"android":"levelo://app?vid=fd2f6396-d6eb-4a9e-aa6d-387861434165","ios":"levelo://app?vid=fd2f6396-d6eb-4a9e-aa6d-387861434165"},"vehicle_type_id":"4","last_reported":1687201496,"current_range_meters":27200,"station_id":"ce4bhb12rcd13ifvqem0","pricing_plan_id":"free"},{"bike_id":"e1d2bcdd-523a-4dfc-97bd-c80cf157c34b","system_id":"levelo_inurba_marseille","lat":43.28856,"lon":5.358371,"is_reserved":false,"is_disabled":false,"rental_uris":{"android":"levelo://app?vid=e1d2bcdd-523a-4dfc-97bd-c80cf157c34b","ios":"levelo://app?vid=e1d2bcdd-523a-4dfc-97bd-c80cf157c34b"},"vehicle_type_id":"4","last_reported":1687201496,"current_range_meters":16800,"station_id":"ce4bhb12rcd13ifvqem0","pricing_plan_id":"free"},{"bike_id":"101497e9-751b-48f5-af1f-3e10bc05f182","system_id":"levelo_inurba_marseille","lat":43.28856,"lon":5.358371,"is_reserved":false,"is_disabled":false,"rental_uris":{"android":"levelo://app?vid=101497e9-751b-48f5-af1f-3e10bc05f182","ios":"levelo://app?vid=101497e9-751b-48f5-af1f-3e10bc05f182"},"vehicle_type_id":"4","last_reported":1687201496,"current_range_meters":10400,"station_id":"ce4bhb12rcd13ifvqem0","pricing_plan_id":"free"},{"bike_id":"1d889c17-a1f9-4ede-b73b-cef1742c3f18","system_id":"levelo_inurba_marseille","lat":43.2885,"lon":5.3587,"is_reserved":false,"is_disabled":false,"rental_uris":{"android":"levelo://app?vid=1d889c17-a1f9-4ede-b73b-cef1742c3f18","ios":"levelo://app?vid=1d889c17-a1f9-4ede-b73b-cef1742c3f18"},"vehicle_type_id":"4","last_reported":1687201496,"current_range_meters":400,"station_id":"ce4bhb12rcd13ifvqem0","pricing_plan_id":"free"},{"bike_id":"df270999-7732-4f2f-bcd2-a8b437d7d903","system_id":"levelo_inurba_marseille","lat":43.28856,"lon":5.358371,"is_reserved":false,"is_disabled":false,"rental_uris":{"android":"levelo://app?vid=df270999-7732-4f2f-bcd2-a8b437d7d903","ios":"levelo://app?vid=df270999-7732-4f2f-bcd2-a8b437d7d903"},"vehicle_type_id":"4","last_reported":1687201496,"current_range_meters":14800,"station_id":"ce4bhb12rcd13ifvqem0","pricing_plan_id":"free"},{"bike_id":"ef0e23a3-560e-4358-9406-b3ba8a441459","system_id":"levelo_inurba_marseille","lat":43.28844,"lon":5.35869,"is_reserved":false,"is_disabled":false,"rental_uris":{"android":"levelo://app?vid=ef0e23a3-560e-4358-9406-b3ba8a441459","ios":"levelo://app?vid=ef0e23a3-560e-4358-9406-b3ba8a441459"},"vehicle_type_id":"4","last_reported":1687201496,"current_range_meters":2400,"station_id":"","pricing_plan_id":"free"},{"bike_id":"c13022c2-7bc9-4ed8-a7a6-ed9ece21bf93","system_id":"levelo_inurba_marseille","lat":43.28856,"lon":5.358371,"is_reserved":false,"is_disabled":false,"rental_uris":{"android":"levelo://app?vid=c13022c2-7bc9-4ed8-a7a6-ed9ece21bf93","ios":"levelo://app?vid=c13022c2-7bc9-4ed8-a7a6-ed9ece21bf93"},"vehicle_type_id":"4","last_reported":1687201496,"current_range_meters":13600,"station_id":"ce4bhb12rcd13ifvqem0","pricing_plan_id":"free"},{"bike_id":"e59ecac0-6f20-4955-a005-d5d9f50420c5","system_id":"levelo_inurba_marseille","lat":43.28848,"lon":5.35844,"is_reserved":false,"is_disabled":false,"rental_uris":{"android":"levelo://app?vid=e59ecac0-6f20-4955-a005-d5d9f50420c5","ios":"levelo://app?vid=e59ecac0-6f20-4955-a005-d5d9f50420c5"},"vehicle_type_id":"4","last_reported":1687201496,"current_range_meters":11600,"station_id":"ce4bhb12rcd13ifvqem0","pricing_plan_id":"free"},{"bike_id":"ec070505-5d16-429f-957f-c0a15dcd7c60","system_id":"levelo_inurba_marseille","lat":43.295713,"lon":5.399639,"is_reserved":false,"is_disabled":false,"rental_uris":{"android":"levelo://app?vid=ec070505-5d16-429f-957f-c0a15dcd7c60","ios":"levelo://app?vid=ec070505-5d16-429f-957f-c0a15dcd7c60"},"vehicle_type_id":"4","last_reported":1687201496,"current_range_meters":6000,"station_id":"ce4bh312rcd13ifvqdj0","pricing_plan_id":"free"},{"bike_id":"ee840612-603f-452d-8690-d1fd3c70a0d4","system_id":"levelo_inurba_marseille","lat":43.28837,"lon":5.35862,"is_reserved":false,"is_disabled":false,"rental_uris":{"android":"levelo://app?vid=ee840612-603f-452d-8690-d1fd3c70a0d4","ios":"levelo://app?vid=ee840612-603f-452d-8690-d1fd3c70a0d4"},"vehicle_type_id":"4","last_reported":1687201496,"current_range_meters":18000,"station_id":"","pricing_plan_id":"free"},{"bike_id":"e006e3f1-73af-4d4d-8626-313aed5b5829","system_id":"levelo_inurba_marseille","lat":43.30927,"lon":5.40144,"is_reserved":false,"is_disabled":false,"rental_uris":{"android":"levelo://app?vid=e006e3f1-73af-4d4d-8626-313aed5b5829","ios":"levelo://app?vid=e006e3f1-73af-4d4d-8626-313aed5b5829"},"vehicle_type_id":"4","last_reported":1687201496,"current_range_meters":8000,"station_id":"ce4bgvp2rcd13ifvqct0","pricing_plan_id":"free"},{"bike_id":"282ce7b1-7dd1-4415-a035-623cf8da84df","system_id":"levelo_inurba_marseille","lat":43.309371,"lon":5.401449,"is_reserved":false,"is_disabled":false,"rental_uris":{"android":"levelo://app?vid=282ce7b1-7dd1-4415-a035-623cf8da84df","ios":"levelo://app?vid=282ce7b1-7dd1-4415-a035-623cf8da84df"},"vehicle_type_id":"4","last_reported":1687201496,"current_range_meters":29200,"station_id":"ce4bgvp2rcd13ifvqct0","pricing_plan_id":"free"},{"bike_id":"597f3c43-c39f-4923-a2b3-d905b18f3e9a","system_id":"levelo_inurba_marseille","lat":43.30642,"lon":5.401031,"is_reserved":false,"is_disabled":false,"rental_uris":{"android":"levelo://app?vid=597f3c43-c39f-4923-a2b3-d905b18f3e9a","ios":"levelo://app?vid=597f3c43-c39f-4923-a2b3-d905b18f3e9a"},"vehicle_type_id":"4","last_reported":1687201496,"current_range_meters":9600,"station_id":"ce4bh112rcd13ifvqda0","pricing_plan_id":"free"},{"bike_id":"88e31033-4f89-4587-8c47-fe8ed0779fbc","system_id":"levelo_inurba_marseille","lat":43.30925,"lon":5.40145,"is_reserved":false,"is_disabled":false,"rental_uris":{"android":"levelo://app?vid=88e31033-4f89-4587-8c47-fe8ed0779fbc","ios":"levelo://app?vid=88e31033-4f89-4587-8c47-fe8ed0779fbc"},"vehicle_type_id":"4","last_reported":1687201496,"current_range_meters":11200,"station_id":"ce4bgvp2rcd13ifvqct0","pricing_plan_id":"free"},{"bike_id":"d23da691-1ad9-401f-8ad8-0a9defbe9b1a","system_id":"levelo_inurba_marseille","lat":43.30919,"lon":5.40144,"is_reserved":false,"is_disabled":false,"rental_uris":{"android":"levelo://app?vid=d23da691-1ad9-401f-8ad8-0a9defbe9b1a","ios":"levelo://app?vid=d23da691-1ad9-401f-8ad8-0a9defbe9b1a"},"vehicle_type_id":"4","last_reported":1687201496,"current_range_meters":3600,"station_id":"ce4bgvp2rcd13ifvqct0","pricing_plan_id":"free"},{"bike_id":"db7d0f1c-1716-4712-b15a-04ba07ba0f96","system_id":"levelo_inurba_marseille","lat":43.30647,"lon":5.40077,"is_reserved":false,"is_disabled":false,"rental_uris":{"android":"levelo://app?vid=db7d0f1c-1716-4712-b15a-04ba07ba0f96","ios":"levelo://app?vid=db7d0f1c-1716-4712-b15a-04ba07ba0f96"},"vehicle_type_id":"4","last_reported":1687201496,"current_range_meters":19600,"station_id":"ce4bh112rcd13ifvqda0","pricing_plan_id":"free"},{"bike_id":"41a8749b-6d93-4d1b-8e52-c5f60f65ae7c","system_id":"levelo_inurba_marseille","lat":43.33756,"lon":5.3745,"is_reserved":false,"is_disabled":false,"rental_uris":{"android":"levelo://app?vid=41a8749b-6d93-4d1b-8e52-c5f60f65ae7c","ios":"levelo://app?vid=41a8749b-6d93-4d1b-8e52-c5f60f65ae7c"},"vehicle_type_id":"4","last_reported":1687201496,"current_range_meters":30400,"station_id":"","pricing_plan_id":"free"},{"bike_id":"42a2a75a-9d72-4603-bca9-e6720bab50e0","system_id":"levelo_inurba_marseille","lat":43.306412,"lon":5.401035,"is_reserved":false,"is_disabled":false,"rental_uris":{"android":"levelo://app?vid=42a2a75a-9d72-4603-bca9-e6720bab50e0","ios":"levelo://app?vid=42a2a75a-9d72-4603-bca9-e6720bab50e0"},"vehicle_type_id":"4","last_reported":1687201496,"current_range_meters":23600,"station_id":"ce4bh112rcd13ifvqda0","pricing_plan_id":"free"},{"bike_id":"b95dbf18-353a-46d1-bb93-298a96575a54","system_id":"levelo_inurba_marseille","lat":43.30642,"lon":5.40082,"is_reserved":false,"is_disabled":false,"rental_uris":{"android":"levelo://app?vid=b95dbf18-353a-46d1-bb93-298a96575a54","ios":"levelo://app?vid=b95dbf18-353a-46d1-bb93-298a96575a54"},"vehicle_type_id":"4","last_reported":1687201496,"current_range_meters":16800,"station_id":"ce4bh112rcd13ifvqda0","pricing_plan_id":"free"},{"bike_id":"b1aef845-5190-4d41-999c-90d6242d44f6","system_id":"levelo_inurba_marseille","lat":43.30649,"lon":5.40091,"is_reserved":false,"is_disabled":false,"rental_uris":{"android":"levelo://app?vid=b1aef845-5190-4d41-999c-90d6242d44f6","ios":"levelo://app?vid=b1aef845-5190-4d41-999c-90d6242d44f6"},"vehicle_type_id":"4","last_reported":1687201496,"current_range_meters":1200,"station_id":"","pricing_plan_id":"free"},{"bike_id":"061b316f-d49b-43a5-a6bd-93f4632fb829","system_id":"levelo_inurba_marseille","lat":43.30635,"lon":5.40088,"is_reserved":false,"is_disabled":false,"rental_uris":{"android":"levelo://app?vid=061b316f-d49b-43a5-a6bd-93f4632fb829","ios":"levelo://app?vid=061b316f-d49b-43a5-a6bd-93f4632fb829"},"vehicle_type_id":"4","last_reported":1687201496,"current_range_meters":24800,"station_id":"ce4bh112rcd13ifvqda0","pricing_plan_id":"free"},{"bike_id":"5f83929a-31f4-44b6-bf27-e444cbc3505f","system_id":"levelo_inurba_marseille","lat":43.30645,"lon":5.40092,"is_reserved":false,"is_disabled":false,"rental_uris":{"android":"levelo://app?vid=5f83929a-31f4-44b6-bf27-e444cbc3505f","ios":"levelo://app?vid=5f83929a-31f4-44b6-bf27-e444cbc3505f"},"vehicle_type_id":"4","last_reported":1687201496,"current_range_meters":0,"station_id":"ce4bh112rcd13ifvqda0","pricing_plan_id":"free"},{"bike_id":"84cbbf3f-2053-4a01-8822-7c881be5cf73","system_id":"levelo_inurba_marseille","lat":43.306412,"lon":5.401035,"is_reserved":false,"is_disabled":false,"rental_uris":{"android":"levelo://app?vid=84cbbf3f-2053-4a01-8822-7c881be5cf73","ios":"levelo://app?vid=84cbbf3f-2053-4a01-8822-7c881be5cf73"},"vehicle_type_id":"4","last_reported":1687201496,"current_range_meters":6800,"station_id":"ce4bh112rcd13ifvqda0","pricing_plan_id":"free"},{"bike_id":"b34b0b72-8cc8-4086-a968-440a07c19996","system_id":"levelo_inurba_marseille","lat":43.30583,"lon":5.40103,"is_reserved":false,"is_disabled":false,"rental_uris":{"android":"levelo://app?vid=b34b0b72-8cc8-4086-a968-440a07c19996","ios":"levelo://app?vid=b34b0b72-8cc8-4086-a968-440a07c19996"},"vehicle_type_id":"4","last_reported":1687201496,"current_range_meters":15600,"station_id":"","pricing_plan_id":"free"},{"bike_id":"77f87782-71ce-4bfc-b347-ed91a6cb4e6b","system_id":"levelo_inurba_marseille","lat":43.286961,"lon":5.373785,"is_reserved":false,"is_disabled":false,"rental_uris":{"android":"levelo://app?vid=77f87782-71ce-4bfc-b347-ed91a6cb4e6b","ios":"levelo://app?vid=77f87782-71ce-4bfc-b347-ed91a6cb4e6b"},"vehicle_type_id":"4","last_reported":1687201496,"current_range_meters":20800,"station_id":"ce4bh3p2rcd13ifvqdq0","pricing_plan_id":"free"},{"bike_id":"af02b8ff-b2de-4e7a-807a-76fd7369539e","system_id":"levelo_inurba_marseille","lat":43.2988,"lon":5.39731,"is_reserved":false,"is_disabled":false,"rental_uris":{"android":"levelo://app?vid=af02b8ff-b2de-4e7a-807a-76fd7369539e","ios":"levelo://app?vid=af02b8ff-b2de-4e7a-807a-76fd7369539e"},"vehicle_type_id":"4","last_reported":1687201496,"current_range_meters":24000,"station_id":"ce4bh0h2rcd13ifvqd50","pricing_plan_id":"free"},{"bike_id":"bd25ace9-ff77-492f-9ad4-aa5a03f1f10b","system_id":"levelo_inurba_marseille","lat":43.298681,"lon":5.397225,"is_reserved":false,"is_disabled":false,"rental_uris":{"android":"levelo://app?vid=bd25ace9-ff77-492f-9ad4-aa5a03f1f10b","ios":"levelo://app?vid=bd25ace9-ff77-492f-9ad4-aa5a03f1f10b"},"vehicle_type_id":"4","last_reported":1687201496,"current_range_meters":800,"station_id":"ce4bh0h2rcd13ifvqd50","pricing_plan_id":"free"},{"bike_id":"5bd24d25-dbfc-4194-9a30-1f85667f506b","system_id":"levelo_inurba_marseille","lat":43.28705,"lon":5.37391,"is_reserved":false,"is_disabled":false,"rental_uris":{"android":"levelo://app?vid=5bd24d25-dbfc-4194-9a30-1f85667f506b","ios":"levelo://app?vid=5bd24d25-dbfc-4194-9a30-1f85667f506b"},"vehicle_type_id":"4","last_reported":1687201496,"current_range_meters":0,"station_id":"ce4bh3p2rcd13ifvqdq0","pricing_plan_id":"free"},{"bike_id":"2a38f152-5c6d-4af9-82c3-a8d2b2704d65","system_id":"levelo_inurba_marseille","lat":43.28666,"lon":5.36357,"is_reserved":false,"is_disabled":false,"rental_uris":{"android":"levelo://app?vid=2a38f152-5c6d-4af9-82c3-a8d2b2704d65","ios":"levelo://app?vid=2a38f152-5c6d-4af9-82c3-a8d2b2704d65"},"vehicle_type_id":"4","last_reported":1687201496,"current_range_meters":16400,"station_id":"ce4bhah2rcd13ifvqej0","pricing_plan_id":"free"},{"bike_id":"f6a9d880-3c4c-4303-9e41-a38c3d4fb2d9","system_id":"levelo_inurba_marseille","lat":43.286591,"lon":5.363346,"is_reserved":false,"is_disabled":false,"rental_uris":{"android":"levelo://app?vid=f6a9d880-3c4c-4303-9e41-a38c3d4fb2d9","ios":"levelo://app?vid=f6a9d880-3c4c-4303-9e41-a38c3d4fb2d9"},"vehicle_type_id":"4","last_reported":1687201496,"current_range_meters":20800,"station_id":"ce4bhah2rcd13ifvqej0","pricing_plan_id":"free"},{"bike_id":"0896dc81-9870-4d05-9d15-ec1bb925afc2","system_id":"levelo_inurba_marseille","lat":43.286593,"lon":5.363346,"is_reserved":false,"is_disabled":false,"rental_uris":{"android":"levelo://app?vid=0896dc81-9870-4d05-9d15-ec1bb925afc2","ios":"levelo://app?vid=0896dc81-9870-4d05-9d15-ec1bb925afc2"},"vehicle_type_id":"4","last_reported":1687201496,"current_range_meters":15600,"station_id":"ce4bhah2rcd13ifvqej0","pricing_plan_id":"free"},{"bike_id":"74bd893a-d183-4975-a74c-9e7eb43bc9f4","system_id":"levelo_inurba_marseille","lat":43.286591,"lon":5.363346,"is_reserved":false,"is_disabled":false,"rental_uris":{"android":"levelo://app?vid=74bd893a-d183-4975-a74c-9e7eb43bc9f4","ios":"levelo://app?vid=74bd893a-d183-4975-a74c-9e7eb43bc9f4"},"vehicle_type_id":"4","last_reported":1687201496,"current_range_meters":14400,"station_id":"ce4bhah2rcd13ifvqej0","pricing_plan_id":"free"},{"bike_id":"59a8dd6e-0c6a-4f29-baa9-849daffd0f17","system_id":"levelo_inurba_marseille","lat":43.286591,"lon":5.363346,"is_reserved":false,"is_disabled":false,"rental_uris":{"android":"levelo://app?vid=59a8dd6e-0c6a-4f29-baa9-849daffd0f17","ios":"levelo://app?vid=59a8dd6e-0c6a-4f29-baa9-849daffd0f17"},"vehicle_type_id":"4","last_reported":1687201496,"current_range_meters":25200,"station_id":"ce4bhah2rcd13ifvqej0","pricing_plan_id":"free"},{"bike_id":"41438965-7576-4ba1-a2b9-bf2152b5fe96","system_id":"levelo_inurba_marseille","lat":43.286593,"lon":5.363346,"is_reserved":false,"is_disabled":false,"rental_uris":{"android":"levelo://app?vid=41438965-7576-4ba1-a2b9-bf2152b5fe96","ios":"levelo://app?vid=41438965-7576-4ba1-a2b9-bf2152b5fe96"},"vehicle_type_id":"4","last_reported":1687201496,"current_range_meters":31200,"station_id":"ce4bhah2rcd13ifvqej0","pricing_plan_id":"free"},{"bike_id":"6508969b-e311-4e99-a7e1-d3604e63463d","system_id":"levelo_inurba_marseille","lat":43.28697,"lon":5.37376,"is_reserved":false,"is_disabled":false,"rental_uris":{"android":"levelo://app?vid=6508969b-e311-4e99-a7e1-d3604e63463d","ios":"levelo://app?vid=6508969b-e311-4e99-a7e1-d3604e63463d"},"vehicle_type_id":"4","last_reported":1687201496,"current_range_meters":9600,"station_id":"ce4bh3p2rcd13ifvqdq0","pricing_plan_id":"free"},{"bike_id":"26f2452e-80d2-47a2-b2eb-062da5d2be94","system_id":"levelo_inurba_marseille","lat":43.286591,"lon":5.363346,"is_reserved":false,"is_disabled":false,"rental_uris":{"android":"levelo://app?vid=26f2452e-80d2-47a2-b2eb-062da5d2be94","ios":"levelo://app?vid=26f2452e-80d2-47a2-b2eb-062da5d2be94"},"vehicle_type_id":"4","last_reported":1687201496,"current_range_meters":14800,"station_id":"ce4bhah2rcd13ifvqej0","pricing_plan_id":"free"},{"bike_id":"c476a54f-8d83-4e77-a2f2-049d903ad886","system_id":"levelo_inurba_marseille","lat":43.28697,"lon":5.37387,"is_reserved":false,"is_disabled":false,"rental_uris":{"android":"levelo://app?vid=c476a54f-8d83-4e77-a2f2-049d903ad886","ios":"levelo://app?vid=c476a54f-8d83-4e77-a2f2-049d903ad886"},"vehicle_type_id":"4","last_reported":1687201496,"current_range_meters":24800,"station_id":"ce4bh3p2rcd13ifvqdq0","pricing_plan_id":"free"},{"bike_id":"eca0acdc-7d10-4eea-aa74-3b0ef91d232d","system_id":"levelo_inurba_marseille","lat":43.286593,"lon":5.363346,"is_reserved":false,"is_disabled":false,"rental_uris":{"android":"levelo://app?vid=eca0acdc-7d10-4eea-aa74-3b0ef91d232d","ios":"levelo://app?vid=eca0acdc-7d10-4eea-aa74-3b0ef91d232d"},"vehicle_type_id":"4","last_reported":1687201496,"current_range_meters":12000,"station_id":"ce4bhah2rcd13ifvqej0","pricing_plan_id":"free"},{"bike_id":"6de98da6-6b85-4650-826c-cee1e1701899","system_id":"levelo_inurba_marseille","lat":43.28696,"lon":5.37397,"is_reserved":false,"is_disabled":false,"rental_uris":{"android":"levelo://app?vid=6de98da6-6b85-4650-826c-cee1e1701899","ios":"levelo://app?vid=6de98da6-6b85-4650-826c-cee1e1701899"},"vehicle_type_id":"4","last_reported":1687201496,"current_range_meters":20800,"station_id":"ce4bh3p2rcd13ifvqdq0","pricing_plan_id":"free"},{"bike_id":"42ff071e-316a-4b7a-9675-009743f02561","system_id":"levelo_inurba_marseille","lat":43.28695,"lon":5.37393,"is_reserved":false,"is_disabled":false,"rental_uris":{"android":"levelo://app?vid=42ff071e-316a-4b7a-9675-009743f02561","ios":"levelo://app?vid=42ff071e-316a-4b7a-9675-009743f02561"},"vehicle_type_id":"4","last_reported":1687201496,"current_range_meters":3600,"station_id":"ce4bh3p2rcd13ifvqdq0","pricing_plan_id":"free"},{"bike_id":"7d9876a4-6d60-4a00-913f-f07acb5c951d","system_id":"levelo_inurba_marseille","lat":43.28692,"lon":5.37391,"is_reserved":false,"is_disabled":false,"rental_uris":{"android":"levelo://app?vid=7d9876a4-6d60-4a00-913f-f07acb5c951d","ios":"levelo://app?vid=7d9876a4-6d60-4a00-913f-f07acb5c951d"},"vehicle_type_id":"4","last_reported":1687201496,"current_range_meters":5200,"station_id":"ce4bh3p2rcd13ifvqdq0","pricing_plan_id":"free"},{"bike_id":"a859e5bc-6ff4-4b17-a34d-b8d8f44c2788","system_id":"levelo_inurba_marseille","lat":43.28692,"lon":5.37395,"is_reserved":false,"is_disabled":false,"rental_uris":{"android":"levelo://app?vid=a859e5bc-6ff4-4b17-a34d-b8d8f44c2788","ios":"levelo://app?vid=a859e5bc-6ff4-4b17-a34d-b8d8f44c2788"},"vehicle_type_id":"4","last_reported":1687201496,"current_range_meters":8800,"station_id":"ce4bh3p2rcd13ifvqdq0","pricing_plan_id":"free"},{"bike_id":"dfe6b77a-ca0b-464f-a8fe-7a4dcfc8bf71","system_id":"levelo_inurba_marseille","lat":43.295196,"lon":5.39397,"is_reserved":false,"is_disabled":false,"rental_uris":{"android":"levelo://app?vid=dfe6b77a-ca0b-464f-a8fe-7a4dcfc8bf71","ios":"levelo://app?vid=dfe6b77a-ca0b-464f-a8fe-7a4dcfc8bf71"},"vehicle_type_id":"4","last_reported":1687201496,"current_range_meters":24000,"station_id":"ce4bh292rcd13ifvqdf0","pricing_plan_id":"free"},{"bike_id":"910b273a-2078-4be7-9a1b-47952e614627","system_id":"levelo_inurba_marseille","lat":43.295194,"lon":5.39397,"is_reserved":false,"is_disabled":false,"rental_uris":{"android":"levelo://app?vid=910b273a-2078-4be7-9a1b-47952e614627","ios":"levelo://app?vid=910b273a-2078-4be7-9a1b-47952e614627"},"vehicle_type_id":"4","last_reported":1687201496,"current_range_meters":30000,"station_id":"ce4bh292rcd13ifvqdf0","pricing_plan_id":"free"},{"bike_id":"68de359e-2106-4018-9390-599c65b98823","system_id":"levelo_inurba_marseille","lat":43.295194,"lon":5.39397,"is_reserved":false,"is_disabled":false,"rental_uris":{"android":"levelo://app?vid=68de359e-2106-4018-9390-599c65b98823","ios":"levelo://app?vid=68de359e-2106-4018-9390-599c65b98823"},"vehicle_type_id":"4","last_reported":1687201496,"current_range_meters":26400,"station_id":"ce4bh292rcd13ifvqdf0","pricing_plan_id":"free"},{"bike_id":"5284f260-dd31-4cd9-8ac9-e0974e8922dc","system_id":"levelo_inurba_marseille","lat":43.295194,"lon":5.39397,"is_reserved":false,"is_disabled":false,"rental_uris":{"android":"levelo://app?vid=5284f260-dd31-4cd9-8ac9-e0974e8922dc","ios":"levelo://app?vid=5284f260-dd31-4cd9-8ac9-e0974e8922dc"},"vehicle_type_id":"4","last_reported":1687201496,"current_range_meters":14000,"station_id":"ce4bh292rcd13ifvqdf0","pricing_plan_id":"free"},{"bike_id":"ccc78c48-0be9-4175-b265-c29f8574c0fb","system_id":"levelo_inurba_marseille","lat":43.295194,"lon":5.39397,"is_reserved":false,"is_disabled":false,"rental_uris":{"android":"levelo://app?vid=ccc78c48-0be9-4175-b265-c29f8574c0fb","ios":"levelo://app?vid=ccc78c48-0be9-4175-b265-c29f8574c0fb"},"vehicle_type_id":"4","last_reported":1687201496,"current_range_meters":10400,"station_id":"ce4bh292rcd13ifvqdf0","pricing_plan_id":"free"},{"bike_id":"c1b7a1e2-e92a-4a49-845f-f0ca04a0305f","system_id":"levelo_inurba_marseille","lat":43.295194,"lon":5.39397,"is_reserved":false,"is_disabled":false,"rental_uris":{"android":"levelo://app?vid=c1b7a1e2-e92a-4a49-845f-f0ca04a0305f","ios":"levelo://app?vid=c1b7a1e2-e92a-4a49-845f-f0ca04a0305f"},"vehicle_type_id":"4","last_reported":1687201496,"current_range_meters":1200,"station_id":"ce4bh292rcd13ifvqdf0","pricing_plan_id":"free"},{"bike_id":"92ecafca-5ced-414d-8c42-be91550aa936","system_id":"levelo_inurba_marseille","lat":43.290336,"lon":5.386425,"is_reserved":false,"is_disabled":false,"rental_uris":{"android":"levelo://app?vid=92ecafca-5ced-414d-8c42-be91550aa936","ios":"levelo://app?vid=92ecafca-5ced-414d-8c42-be91550aa936"},"vehicle_type_id":"4","last_reported":1687201496,"current_range_meters":25200,"station_id":"ce4bh4p2rcd13ifvqe0g","pricing_plan_id":"free"},{"bike_id":"f90447ed-a6d6-4ddd-9776-50dd964777dd","system_id":"levelo_inurba_marseille","lat":43.290336,"lon":5.386425,"is_reserved":false,"is_disabled":false,"rental_uris":{"android":"levelo://app?vid=f90447ed-a6d6-4ddd-9776-50dd964777dd","ios":"levelo://app?vid=f90447ed-a6d6-4ddd-9776-50dd964777dd"},"vehicle_type_id":"4","last_reported":1687201496,"current_range_meters":5600,"station_id":"ce4bh4p2rcd13ifvqe0g","pricing_plan_id":"free"},{"bike_id":"ae20650b-9f7c-4b28-adf5-be9355878161","system_id":"levelo_inurba_marseille","lat":43.302759,"lon":5.400793,"is_reserved":false,"is_disabled":false,"rental_uris":{"android":"levelo://app?vid=ae20650b-9f7c-4b28-adf5-be9355878161","ios":"levelo://app?vid=ae20650b-9f7c-4b28-adf5-be9355878161"},"vehicle_type_id":"4","last_reported":1687201496,"current_range_meters":24800,"station_id":"ce4bgvh2rcd13ifvqcs0","pricing_plan_id":"free"},{"bike_id":"a1c8ee6f-2199-4c03-904d-fd737f40cbfc","system_id":"levelo_inurba_marseille","lat":43.286039,"lon":5.370679,"is_reserved":false,"is_disabled":false,"rental_uris":{"android":"levelo://app?vid=a1c8ee6f-2199-4c03-904d-fd737f40cbfc","ios":"levelo://app?vid=a1c8ee6f-2199-4c03-904d-fd737f40cbfc"},"vehicle_type_id":"4","last_reported":1687201496,"current_range_meters":15600,"station_id":"ce4bht12rcd13ifvqi60","pricing_plan_id":"free"},{"bike_id":"a9f795b5-e874-4ef7-a488-5af35dccbd65","system_id":"levelo_inurba_marseille","lat":43.286039,"lon":5.370679,"is_reserved":false,"is_disabled":false,"rental_uris":{"android":"levelo://app?vid=a9f795b5-e874-4ef7-a488-5af35dccbd65","ios":"levelo://app?vid=a9f795b5-e874-4ef7-a488-5af35dccbd65"},"vehicle_type_id":"4","last_reported":1687201496,"current_range_meters":3600,"station_id":"ce4bht12rcd13ifvqi60","pricing_plan_id":"free"},{"bike_id":"c67abad2-7d99-4a97-b547-4caf697f84d5","system_id":"levelo_inurba_marseille","lat":43.286039,"lon":5.370679,"is_reserved":false,"is_disabled":false,"rental_uris":{"android":"levelo://app?vid=c67abad2-7d99-4a97-b547-4caf697f84d5","ios":"levelo://app?vid=c67abad2-7d99-4a97-b547-4caf697f84d5"},"vehicle_type_id":"4","last_reported":1687201496,"current_range_meters":8800,"station_id":"ce4bht12rcd13ifvqi60","pricing_plan_id":"free"},{"bike_id":"fa8ea5f8-793b-432d-85f3-feb7caffc709","system_id":"levelo_inurba_marseille","lat":43.286039,"lon":5.370679,"is_reserved":false,"is_disabled":false,"rental_uris":{"android":"levelo://app?vid=fa8ea5f8-793b-432d-85f3-feb7caffc709","ios":"levelo://app?vid=fa8ea5f8-793b-432d-85f3-feb7caffc709"},"vehicle_type_id":"4","last_reported":1687201496,"current_range_meters":0,"station_id":"ce4bht12rcd13ifvqi60","pricing_plan_id":"free"},{"bike_id":"be821724-5bb3-499c-a063-37a60b49f0a9","system_id":"levelo_inurba_marseille","lat":43.286039,"lon":5.370679,"is_reserved":false,"is_disabled":false,"rental_uris":{"android":"levelo://app?vid=be821724-5bb3-499c-a063-37a60b49f0a9","ios":"levelo://app?vid=be821724-5bb3-499c-a063-37a60b49f0a9"},"vehicle_type_id":"4","last_reported":1687201496,"current_range_meters":27200,"station_id":"ce4bht12rcd13ifvqi60","pricing_plan_id":"free"},{"bike_id":"65088b8c-545d-4903-8294-3cbd3a407d90","system_id":"levelo_inurba_marseille","lat":43.287184,"lon":5.37937,"is_reserved":false,"is_disabled":false,"rental_uris":{"android":"levelo://app?vid=65088b8c-545d-4903-8294-3cbd3a407d90","ios":"levelo://app?vid=65088b8c-545d-4903-8294-3cbd3a407d90"},"vehicle_type_id":"4","last_reported":1687201496,"current_range_meters":18400,"station_id":"ce4bh9p2rcd13ifvqec0","pricing_plan_id":"free"},{"bike_id":"57dbe5a4-9f0b-4f23-b240-c1795b03f5bc","system_id":"levelo_inurba_marseille","lat":43.316517,"lon":5.404375,"is_reserved":false,"is_disabled":false,"rental_uris":{"android":"levelo://app?vid=57dbe5a4-9f0b-4f23-b240-c1795b03f5bc","ios":"levelo://app?vid=57dbe5a4-9f0b-4f23-b240-c1795b03f5bc"},"vehicle_type_id":"4","last_reported":1687201496,"current_range_meters":20800,"station_id":"ce4bh012rcd13ifvqd00","pricing_plan_id":"free"},{"bike_id":"588cb08b-7841-4614-93d1-566388f1e3a3","system_id":"levelo_inurba_marseille","lat":43.316517,"lon":5.404375,"is_reserved":false,"is_disabled":false,"rental_uris":{"android":"levelo://app?vid=588cb08b-7841-4614-93d1-566388f1e3a3","ios":"levelo://app?vid=588cb08b-7841-4614-93d1-566388f1e3a3"},"vehicle_type_id":"4","last_reported":1687201496,"current_range_meters":15600,"station_id":"ce4bh012rcd13ifvqd00","pricing_plan_id":"free"},{"bike_id":"6dda6d9b-07ee-4499-951c-7afb7ba5a2f4","system_id":"levelo_inurba_marseille","lat":43.316517,"lon":5.404375,"is_reserved":false,"is_disabled":false,"rental_uris":{"android":"levelo://app?vid=6dda6d9b-07ee-4499-951c-7afb7ba5a2f4","ios":"levelo://app?vid=6dda6d9b-07ee-4499-951c-7afb7ba5a2f4"},"vehicle_type_id":"4","last_reported":1687201496,"current_range_meters":30400,"station_id":"ce4bh012rcd13ifvqd00","pricing_plan_id":"free"},{"bike_id":"fb6d7503-112a-4e9d-9853-7b957cff013f","system_id":"levelo_inurba_marseille","lat":43.316517,"lon":5.404375,"is_reserved":false,"is_disabled":false,"rental_uris":{"android":"levelo://app?vid=fb6d7503-112a-4e9d-9853-7b957cff013f","ios":"levelo://app?vid=fb6d7503-112a-4e9d-9853-7b957cff013f"},"vehicle_type_id":"4","last_reported":1687201496,"current_range_meters":10800,"station_id":"ce4bh012rcd13ifvqd00","pricing_plan_id":"free"},{"bike_id":"0366a65b-39d8-47a8-935d-16d0e1ade187","system_id":"levelo_inurba_marseille","lat":43.316517,"lon":5.404375,"is_reserved":false,"is_disabled":false,"rental_uris":{"android":"levelo://app?vid=0366a65b-39d8-47a8-935d-16d0e1ade187","ios":"levelo://app?vid=0366a65b-39d8-47a8-935d-16d0e1ade187"},"vehicle_type_id":"4","last_reported":1687201496,"current_range_meters":31200,"station_id":"ce4bh012rcd13ifvqd00","pricing_plan_id":"free"},{"bike_id":"840b3d2f-7501-48d9-b217-774c2b5bcd2f","system_id":"levelo_inurba_marseille","lat":43.291994,"lon":5.392907,"is_reserved":false,"is_disabled":false,"rental_uris":{"android":"levelo://app?vid=840b3d2f-7501-48d9-b217-774c2b5bcd2f","ios":"levelo://app?vid=840b3d2f-7501-48d9-b217-774c2b5bcd2f"},"vehicle_type_id":"4","last_reported":1687201496,"current_range_meters":4400,"station_id":"ce4bh192rcd13ifvqdd0","pricing_plan_id":"free"},{"bike_id":"3b2f76b7-c379-4bd1-8bfe-2ae46fb3669d","system_id":"levelo_inurba_marseille","lat":43.291994,"lon":5.392907,"is_reserved":false,"is_disabled":false,"rental_uris":{"android":"levelo://app?vid=3b2f76b7-c379-4bd1-8bfe-2ae46fb3669d","ios":"levelo://app?vid=3b2f76b7-c379-4bd1-8bfe-2ae46fb3669d"},"vehicle_type_id":"4","last_reported":1687201496,"current_range_meters":12000,"station_id":"ce4bh192rcd13ifvqdd0","pricing_plan_id":"free"},{"bike_id":"449af95a-7b68-48f9-9b49-5f77796e17f4","system_id":"levelo_inurba_marseille","lat":43.291994,"lon":5.392907,"is_reserved":false,"is_disabled":false,"rental_uris":{"android":"levelo://app?vid=449af95a-7b68-48f9-9b49-5f77796e17f4","ios":"levelo://app?vid=449af95a-7b68-48f9-9b49-5f77796e17f4"},"vehicle_type_id":"4","last_reported":1687201496,"current_range_meters":6000,"station_id":"ce4bh192rcd13ifvqdd0","pricing_plan_id":"free"},{"bike_id":"5c9e1ea1-30bc-4955-863e-689493c46550","system_id":"levelo_inurba_marseille","lat":43.291994,"lon":5.392907,"is_reserved":false,"is_disabled":false,"rental_uris":{"android":"levelo://app?vid=5c9e1ea1-30bc-4955-863e-689493c46550","ios":"levelo://app?vid=5c9e1ea1-30bc-4955-863e-689493c46550"},"vehicle_type_id":"4","last_reported":1687201496,"current_range_meters":17600,"station_id":"ce4bh192rcd13ifvqdd0","pricing_plan_id":"free"},{"bike_id":"545826c9-941d-4a1d-a65e-f0b1d830baa1","system_id":"levelo_inurba_marseille","lat":43.29184,"lon":5.39319,"is_reserved":false,"is_disabled":false,"rental_uris":{"android":"levelo://app?vid=545826c9-941d-4a1d-a65e-f0b1d830baa1","ios":"levelo://app?vid=545826c9-941d-4a1d-a65e-f0b1d830baa1"},"vehicle_type_id":"4","last_reported":1687201496,"current_range_meters":30800,"station_id":"","pricing_plan_id":"free"},{"bike_id":"8a6283e4-e183-4339-903a-57ff084e1820","system_id":"levelo_inurba_marseille","lat":43.291994,"lon":5.392907,"is_reserved":false,"is_disabled":false,"rental_uris":{"android":"levelo://app?vid=8a6283e4-e183-4339-903a-57ff084e1820","ios":"levelo://app?vid=8a6283e4-e183-4339-903a-57ff084e1820"},"vehicle_type_id":"4","last_reported":1687201496,"current_range_meters":14800,"station_id":"ce4bh192rcd13ifvqdd0","pricing_plan_id":"free"},{"bike_id":"a7fc1897-79df-49f5-b5a0-3a86b7ed938b","system_id":"levelo_inurba_marseille","lat":43.33352,"lon":5.39379,"is_reserved":false,"is_disabled":false,"rental_uris":{"android":"levelo://app?vid=a7fc1897-79df-49f5-b5a0-3a86b7ed938b","ios":"levelo://app?vid=a7fc1897-79df-49f5-b5a0-3a86b7ed938b"},"vehicle_type_id":"4","last_reported":1687201496,"current_range_meters":4800,"station_id":"","pricing_plan_id":"free"},{"bike_id":"c7a8741f-7590-4017-8b61-9d0e3ce7f5de","system_id":"levelo_inurba_marseille","lat":43.284534,"lon":5.358662,"is_reserved":false,"is_disabled":false,"rental_uris":{"android":"levelo://app?vid=c7a8741f-7590-4017-8b61-9d0e3ce7f5de","ios":"levelo://app?vid=c7a8741f-7590-4017-8b61-9d0e3ce7f5de"},"vehicle_type_id":"4","last_reported":1687201496,"current_range_meters":13200,"station_id":"ce4bhah2rcd13ifvqei0","pricing_plan_id":"free"},{"bike_id":"2dfe1c5c-b69e-46f9-b47c-c310da39e2f4","system_id":"levelo_inurba_marseille","lat":43.284534,"lon":5.358662,"is_reserved":false,"is_disabled":false,"rental_uris":{"android":"levelo://app?vid=2dfe1c5c-b69e-46f9-b47c-c310da39e2f4","ios":"levelo://app?vid=2dfe1c5c-b69e-46f9-b47c-c310da39e2f4"},"vehicle_type_id":"4","last_reported":1687201496,"current_range_meters":30000,"station_id":"ce4bhah2rcd13ifvqei0","pricing_plan_id":"free"},{"bike_id":"87ba3843-7f13-459c-a8b8-3e43c845081b","system_id":"levelo_inurba_marseille","lat":43.284534,"lon":5.358662,"is_reserved":false,"is_disabled":false,"rental_uris":{"android":"levelo://app?vid=87ba3843-7f13-459c-a8b8-3e43c845081b","ios":"levelo://app?vid=87ba3843-7f13-459c-a8b8-3e43c845081b"},"vehicle_type_id":"4","last_reported":1687201496,"current_range_meters":4000,"station_id":"ce4bhah2rcd13ifvqei0","pricing_plan_id":"free"},{"bike_id":"067d59e0-5c7b-4b23-a85c-32d2e7405ead","system_id":"levelo_inurba_marseille","lat":43.284534,"lon":5.358662,"is_reserved":false,"is_disabled":false,"rental_uris":{"android":"levelo://app?vid=067d59e0-5c7b-4b23-a85c-32d2e7405ead","ios":"levelo://app?vid=067d59e0-5c7b-4b23-a85c-32d2e7405ead"},"vehicle_type_id":"4","last_reported":1687201496,"current_range_meters":14000,"station_id":"ce4bhah2rcd13ifvqei0","pricing_plan_id":"free"},{"bike_id":"fafa1ebe-3264-48de-a5a9-d148e565eb30","system_id":"levelo_inurba_marseille","lat":43.284534,"lon":5.358662,"is_reserved":false,"is_disabled":false,"rental_uris":{"android":"levelo://app?vid=fafa1ebe-3264-48de-a5a9-d148e565eb30","ios":"levelo://app?vid=fafa1ebe-3264-48de-a5a9-d148e565eb30"},"vehicle_type_id":"4","last_reported":1687201496,"current_range_meters":20400,"station_id":"ce4bhah2rcd13ifvqei0","pricing_plan_id":"free"},{"bike_id":"112c4fef-0cd3-4194-a6ae-e92e70b287e5","system_id":"levelo_inurba_marseille","lat":43.284534,"lon":5.358662,"is_reserved":false,"is_disabled":false,"rental_uris":{"android":"levelo://app?vid=112c4fef-0cd3-4194-a6ae-e92e70b287e5","ios":"levelo://app?vid=112c4fef-0cd3-4194-a6ae-e92e70b287e5"},"vehicle_type_id":"4","last_reported":1687201496,"current_range_meters":25600,"station_id":"ce4bhah2rcd13ifvqei0","pricing_plan_id":"free"},{"bike_id":"c7875f67-2e7b-4098-b5c9-cfd1f193f550","system_id":"levelo_inurba_marseille","lat":43.284534,"lon":5.358662,"is_reserved":false,"is_disabled":false,"rental_uris":{"android":"levelo://app?vid=c7875f67-2e7b-4098-b5c9-cfd1f193f550","ios":"levelo://app?vid=c7875f67-2e7b-4098-b5c9-cfd1f193f550"},"vehicle_type_id":"4","last_reported":1687201496,"current_range_meters":18800,"station_id":"ce4bhah2rcd13ifvqei0","pricing_plan_id":"free"},{"bike_id":"2aa7921b-598c-4799-ab87-e650e9e7e1b3","system_id":"levelo_inurba_marseille","lat":43.284534,"lon":5.358662,"is_reserved":false,"is_disabled":false,"rental_uris":{"android":"levelo://app?vid=2aa7921b-598c-4799-ab87-e650e9e7e1b3","ios":"levelo://app?vid=2aa7921b-598c-4799-ab87-e650e9e7e1b3"},"vehicle_type_id":"4","last_reported":1687201496,"current_range_meters":17600,"station_id":"ce4bhah2rcd13ifvqei0","pricing_plan_id":"free"},{"bike_id":"b086daeb-f46f-46b6-8420-2ec2c974bd0e","system_id":"levelo_inurba_marseille","lat":43.284534,"lon":5.358662,"is_reserved":false,"is_disabled":false,"rental_uris":{"android":"levelo://app?vid=b086daeb-f46f-46b6-8420-2ec2c974bd0e","ios":"levelo://app?vid=b086daeb-f46f-46b6-8420-2ec2c974bd0e"},"vehicle_type_id":"4","last_reported":1687201496,"current_range_meters":27200,"station_id":"ce4bhah2rcd13ifvqei0","pricing_plan_id":"free"},{"bike_id":"1315a5c3-75d6-4610-af85-28e786b5d881","system_id":"levelo_inurba_marseille","lat":43.284534,"lon":5.358662,"is_reserved":false,"is_disabled":false,"rental_uris":{"android":"levelo://app?vid=1315a5c3-75d6-4610-af85-28e786b5d881","ios":"levelo://app?vid=1315a5c3-75d6-4610-af85-28e786b5d881"},"vehicle_type_id":"4","last_reported":1687201496,"current_range_meters":12400,"station_id":"ce4bhah2rcd13ifvqei0","pricing_plan_id":"free"},{"bike_id":"9e45e0fc-2192-4800-9e7b-3b671c1d3977","system_id":"levelo_inurba_marseille","lat":43.284534,"lon":5.358662,"is_reserved":false,"is_disabled":false,"rental_uris":{"android":"levelo://app?vid=9e45e0fc-2192-4800-9e7b-3b671c1d3977","ios":"levelo://app?vid=9e45e0fc-2192-4800-9e7b-3b671c1d3977"},"vehicle_type_id":"4","last_reported":1687201496,"current_range_meters":30400,"station_id":"ce4bhah2rcd13ifvqei0","pricing_plan_id":"free"},{"bike_id":"3eff5fdd-0391-4072-bf77-7fb98feb0723","system_id":"levelo_inurba_marseille","lat":43.284534,"lon":5.358662,"is_reserved":false,"is_disabled":false,"rental_uris":{"android":"levelo://app?vid=3eff5fdd-0391-4072-bf77-7fb98feb0723","ios":"levelo://app?vid=3eff5fdd-0391-4072-bf77-7fb98feb0723"},"vehicle_type_id":"4","last_reported":1687201496,"current_range_meters":18800,"station_id":"ce4bhah2rcd13ifvqei0","pricing_plan_id":"free"},{"bike_id":"1fe5100e-f94d-400b-9d37-3ec5e01219da","system_id":"levelo_inurba_marseille","lat":43.284534,"lon":5.358662,"is_reserved":false,"is_disabled":false,"rental_uris":{"android":"levelo://app?vid=1fe5100e-f94d-400b-9d37-3ec5e01219da","ios":"levelo://app?vid=1fe5100e-f94d-400b-9d37-3ec5e01219da"},"vehicle_type_id":"4","last_reported":1687201496,"current_range_meters":11200,"station_id":"ce4bhah2rcd13ifvqei0","pricing_plan_id":"free"},