{"last_updated":1707948394,"ttl":30,"version":"2.2","data":{"bikes":[{"bike_id":"14c68aa8-5e6b-40c4-9579-cd909407f0d4","system_id":"levelo_inurba_marseille","lat":43.312247,"lon":5.36848,"is_reserved":false,"is_disabled":false,"rental_uris":{"android":"levelo://app?vid=14c68aa8-5e6b-40c4-9579-cd909407f0d4","ios":"levelo://app?vid=14c68aa8-5e6b-40c4-9579-cd909407f0d4"},"vehicle_type_id":"4","last_reported":1707948394,"current_range_meters":0,"station_id":"ce4bgl92rcd13ifvqbq0","pricing_plan_id":"cebpf4jnsgd1na2vs0mg"},{"bike_id":"bd51af96-fb51-4aae-9ece-d0546ac1f6a2","system_id":"levelo_inurba_marseille","lat":43.309076,"lon":5.368465,"is_reserved":false,"is_disabled":false,"rental_uris":{"android":"levelo://app?vid=bd51af96-fb51-4aae-9ece-d0546ac1f6a2","ios":"levelo://app?vid=bd51af96-fb51-4aae-9ece-d0546ac1f6a2"},"vehicle_type_id":"4","last_reported":1707948394,"current_range_meters":5600,"station_id":"ce4bgn92rcd13ifvqbvg","pricing_plan_id":"cebpf4jnsgd1na2vs0mg"},{"bike_id":"ed352ace-f826-4534-8557-525abc3081ef","system_id":"levelo_inurba_marseille","lat":43.314811,"lon":5.373103,"is_reserved":false,"is_disabled":false,"rental_uris":{"android":"levelo://app?vid=ed352ace-f826-4534-8557-525abc3081ef","ios":"levelo://app?vid=ed352ace-f826-4534-8557-525abc3081ef"},"vehicle_type_id":"4","last_reported":1707948394,"current_range_meters":16800,"station_id":"ce4bgt12rcd13ifvqcd0","pricing_plan_id":"cebpf4jnsgd1na2vs0mg"},{"bike_id":"a9d582b5-4819-46f1-8343-0c6dd5353a77","system_id":"levelo_inurba_marseille","lat":43.31488,"lon":5.37308,"is_reserved":false,"is_disabled":false,"rental_uris":{"android":"levelo://app?vid=a9d582b5-4819-46f1-8343-0c6dd5353a77","ios":"levelo://app?vid=a9d582b5-4819-46f1-8343-0c6dd5353a77"},"vehicle_type_id":"4","last_reported":1707948394,"current_range_meters":29600,"station_id":"ce4bgt12rcd13ifvqcd0","pricing_plan_id":"cebpf4jnsgd1na2vs0mg"},{"bike_id":"354aa4a9-1953-4401-8f8a-b0cd8c86edcc","system_id":"levelo_inurba_marseille","lat":43.314811,"lon":5.373103,"is_reserved":false,"is_disabled":false,"rental_uris":{"android":"levelo://app?vid=354aa4a9-1953-4401-8f8a-b0cd8c86edcc","ios":"levelo://app?vid=354aa4a9-1953-4401-8f8a-b0cd8c86edcc"},"vehicle_type_id":"4","last_reported":1707948394,"current_range_meters":15200,"station_id":"ce4bgt12rcd13ifvqcd0","pricing_plan_id":"cebpf4jnsgd1na2vs0mg"},{"bike_id":"c3ccd1ee-82f6-4881-8a25-54efed3a4122","system_id":"levelo_inurba_marseille","lat":43.314811,"lon":5.373103,"is_reserved":false,"is_disabled":false,"rental_uris":{"android":"levelo://app?vid=c3ccd1ee-82f6-4881-8a25-54efed3a4122","ios":"levelo://app?vid=c3ccd1ee-82f6-4881-8a25-54efed3a4122"},"vehicle_type_id":"4","last_reported":1707948394,"current_range_meters":27600,"station_id":"ce4bgt12rcd13ifvqcd0","pricing_plan_id":"cebpf4jnsgd1na2vs0mg"},{"bike_id":"14e9bf4b-b341-49c2-9a5f-2bf91b3fd440","system_id":"levelo_inurba_marseille","lat":43.314811,"lon":5.373104,"is_reserved":false,"is_disabled":false,"rental_uris":{"android":"levelo://app?vid=14e9bf4b-b341-49c2-9a5f-2bf91b3fd440","ios":"levelo://app?vid=14e9bf4b-b341-49c2-9a5f-2bf91b3fd440"},"vehicle_type_id":"4","last_reported":1707948394,"current_range_meters":27200,"station_id":"ce4bgt12rcd13ifvqcd0","pricing_plan_id":"cebpf4jnsgd1na2vs0mg"},{"bike_id":"3de6263d-7bff-4703-8c51-f7665d9ad4eb","system_id":"levelo_inurba_marseille","lat":43.314811,"lon":5.373104,"is_reserved":false,"is_disabled":false,"rental_uris":{"android":"levelo://app?vid=3de6263d-7bff-4703-8c51-f7665d9ad4eb","ios":"levelo://app?vid=3de6263d-7bff-4703-8c51-f7665d9ad4eb"},"vehicle_type_id":"4","last_reported":1707948394,"current_range_meters":28800,"station_id":"ce4bgt12rcd13ifvqcd0","pricing_plan_id":"cebpf4jnsgd1na2vs0mg"},{"bike_id":"d8cac527-067f-453c-9142-1383f7f64b94","system_id":"levelo_inurba_marseille","lat":43.309039,"lon":5.371797,"is_reserved":false,"is_disabled":false,"rental_uris":{"android":"levelo://app?vid=d8cac527-067f-453c-9142-1383f7f64b94","ios":"levelo://app?vid=d8cac527-067f-453c-9142-1383f7f64b94"},"vehicle_type_id":"4","last_reported":1707948394,"current_range_meters":16000,"station_id":"ce4bguh2rcd13ifvqckg","pricing_plan_id":"cebpf4jnsgd1na2vs0mg"},{"bike_id":"a260498a-a444-4da3-9ae0-187943a25c37","system_id":"levelo_inurba_marseille","lat":43.31094,"lon":5.37492,"is_reserved":false,"is_disabled":false,"rental_uris":{"android":"levelo://app?vid=a260498a-a444-4da3-9ae0-187943a25c37","ios":"levelo://app?vid=a260498a-a444-4da3-9ae0-187943a25c37"},"vehicle_type_id":"4","last_reported":1707948394,"current_range_meters":2800,"station_id":"","pricing_plan_id":"cebpf4jnsgd1na2vs0mg"},{"bike_id":"a5788fc6-9cc5-40f6-809d-2a84b3df21a3","system_id":"levelo_inurba_marseille","lat":43.30537,"lon":5.367345,"is_reserved":false,"is_disabled":false,"rental_uris":{"android":"levelo://app?vid=a5788fc6-9cc5-40f6-809d-2a84b3df21a3","ios":"levelo://app?vid=a5788fc6-9cc5-40f6-809d-2a84b3df21a3"},"vehicle_type_id":"4","last_reported":1707948394,"current_range_meters":17600,"station_id":"ce4bgrp2rcd13ifvqc9g","pricing_plan_id":"cebpf4jnsgd1na2vs0mg"},{"bike_id":"b905b3e1-9a0b-4786-a53a-362c145c5c99","system_id":"levelo_inurba_marseille","lat":43.305714,"lon":5.365633,"is_reserved":false,"is_disabled":false,"rental_uris":{"android":"levelo://app?vid=b905b3e1-9a0b-4786-a53a-362c145c5c99","ios":"levelo://app?vid=b905b3e1-9a0b-4786-a53a-362c145c5c99"},"vehicle_type_id":"4","last_reported":1707948394,"current_range_meters":10400,"station_id":"ce4bgs12rcd13ifvqcag","pricing_plan_id":"cebpf4jnsgd1na2vs0mg"},{"bike_id":"70ec8b05-622a-4a0c-b5e8-9793b0849ec8","system_id":"levelo_inurba_marseille","lat":43.31124,"lon":5.37773,"is_reserved":false,"is_disabled":false,"rental_uris":{"android":"levelo://app?vid=70ec8b05-622a-4a0c-b5e8-9793b0849ec8","ios":"levelo://app?vid=70ec8b05-622a-4a0c-b5e8-9793b0849ec8"},"vehicle_type_id":"4","last_reported":1707948394,"current_range_meters":1600,"station_id":"ce4bgt92rcd13ifvqcg0","pricing_plan_id":"cebpf4jnsgd1na2vs0mg"},{"bike_id":"93d09969-0543-4000-83e5-b91aa660707b","system_id":"levelo_inurba_marseille","lat":43.311125,"lon":5.377624,"is_reserved":false,"is_disabled":false,"rental_uris":{"android":"levelo://app?vid=93d09969-0543-4000-83e5-b91aa660707b","ios":"levelo://app?vid=93d09969-0543-4000-83e5-b91aa660707b"},"vehicle_type_id":"4","last_reported":1707948394,"current_range_meters":18800,"station_id":"ce4bgt92rcd13ifvqcg0","pricing_plan_id":"cebpf4jnsgd1na2vs0mg"},{"bike_id":"58229263-77f9-4cf1-8fce-7d72159f780d","system_id":"levelo_inurba_marseille","lat":43.311131,"lon":5.377651,"is_reserved":false,"is_disabled":false,"rental_uris":{"android":"levelo://app?vid=58229263-77f9-4cf1-8fce-7d72159f780d","ios":"levelo://app?vid=58229263-77f9-4cf1-8fce-7d72159f780d"},"vehicle_type_id":"4","last_reported":1707948394,"current_range_meters":4800,"station_id":"ce4bgt92rcd13ifvqcg0","pricing_plan_id":"cebpf4jnsgd1na2vs0mg"},{"bike_id":"29bb6d50-ad92-4816-9591-035899258542","system_id":"levelo_inurba_marseille","lat":43.307945,"lon":5.376487,"is_reserved":false,"is_disabled":false,"rental_uris":{"android":"levelo://app?vid=29bb6d50-ad92-4816-9591-035899258542","ios":"levelo://app?vid=29bb6d50-ad92-4816-9591-035899258542"},"vehicle_type_id":"4","last_reported":1707948394,"current_range_meters":800,"station_id":"ce4bgv92rcd13ifvqcq0","pricing_plan_id":"cebpf4jnsgd1na2vs0mg"},{"bike_id":"22b62143-9536-46b7-94fd-dc1297249910","system_id":"levelo_inurba_marseille","lat":43.307945,"lon":5.376487,"is_reserved":false,"is_disabled":false,"rental_uris":{"android":"levelo://app?vid=22b62143-9536-46b7-94fd-dc1297249910","ios":"levelo://app?vid=22b62143-9536-46b7-94fd-dc1297249910"},"vehicle_type_id":"4","last_reported":1707948394,"current_range_meters":31200,"station_id":"ce4bgv92rcd13ifvqcq0","pricing_plan_id":"cebpf4jnsgd1na2vs0mg"},{"bike_id":"28cfa7b0-8fdb-4e50-9331-a3e8d341858f","system_id":"levelo_inurba_marseille","lat":43.317075,"lon":5.377367,"is_reserved":false,"is_disabled":false,"rental_uris":{"android":"levelo://app?vid=28cfa7b0-8fdb-4e50-9331-a3e8d341858f","ios":"levelo://app?vid=28cfa7b0-8fdb-4e50-9331-a3e8d341858f"},"vehicle_type_id":"4","last_reported":1707948394,"current_range_meters":16000,"station_id":"ce4bgth2rcd13ifvqch0","pricing_plan_id":"cebpf4jnsgd1na2vs0mg"},{"bike_id":"e0ab11de-fc9c-4d4b-971a-3b2ba2a23340","system_id":"levelo_inurba_marseille","lat":43.317075,"lon":5.377367,"is_reserved":false,"is_disabled":false,"rental_uris":{"android":"levelo://app?vid=e0ab11de-fc9c-4d4b-971a-3b2ba2a23340","ios":"levelo://app?vid=e0ab11de-fc9c-4d4b-971a-3b2ba2a23340"},"vehicle_type_id":"4","last_reported":1707948394,"current_range_meters":28800,"station_id":"ce4bgth2rcd13ifvqch0","pricing_plan_id":"cebpf4jnsgd1na2vs0mg"},{"bike_id":"e8396d9b-01ad-42aa-ae6a-25e7361077f6","system_id":"levelo_inurba_marseille","lat":43.317075,"lon":5.377367,"is_reserved":false,"is_disabled":false,"rental_uris":{"android":"levelo://app?vid=e8396d9b-01ad-42aa-ae6a-25e7361077f6","ios":"levelo://app?vid=e8396d9b-01ad-42aa-ae6a-25e7361077f6"},"vehicle_type_id":"4","last_reported":1707948394,"current_range_meters":31600,"station_id":"ce4bgth2rcd13ifvqch0","pricing_plan_id":"cebpf4jnsgd1na2vs0mg"},{"bike_id":"b6d5e40f-0768-4dde-af2e-64c88f4a667d","system_id":"levelo_inurba_marseille","lat":43.303046,"lon":5.368981,"is_reserved":false,"is_disabled":false,"rental_uris":{"android":"levelo://app?vid=b6d5e40f-0768-4dde-af2e-64c88f4a667d","ios":"levelo://app?vid=b6d5e40f-0768-4dde-af2e-64c88f4a667d"},"vehicle_type_id":"4","last_reported":1707948394,"current_range_meters":28000,"station_id":"ce4bgqh2rcd13ifvqc5g","pricing_plan_id":"cebpf4jnsgd1na2vs0mg"},{"bike_id":"75670fdc-b5f7-4137-9b79-a8d98164401d","system_id":"levelo_inurba_marseille","lat":43.30304,"lon":5.368987,"is_reserved":false,"is_disabled":false,"rental_uris":{"android":"levelo://app?vid=75670fdc-b5f7-4137-9b79-a8d98164401d","ios":"levelo://app?vid=75670fdc-b5f7-4137-9b79-a8d98164401d"},"vehicle_type_id":"4","last_reported":1707948394,"current_range_meters":17600,"station_id":"ce4bgqh2rcd13ifvqc5g","pricing_plan_id":"cebpf4jnsgd1na2vs0mg"},{"bike_id":"c4e8f8a8-7b17-47f4-9155-81481109dceb","system_id":"levelo_inurba_marseille","lat":43.315293,"lon":5.380349,"is_reserved":false,"is_disabled":false,"rental_uris":{"android":"levelo://app?vid=c4e8f8a8-7b17-47f4-9155-81481109dceb","ios":"levelo://app?vid=c4e8f8a8-7b17-47f4-9155-81481109dceb"},"vehicle_type_id":"4","last_reported":1707948394,"current_range_meters":20800,"station_id":"ce4bhsp2rcd13ifvqi50","pricing_plan_id":"cebpf4jnsgd1na2vs0mg"},{"bike_id":"c2e05856-d563-470c-a0cb-3f7b314f9a68","system_id":"levelo_inurba_marseille","lat":43.315293,"lon":5.380349,"is_reserved":false,"is_disabled":false,"rental_uris":{"android":"levelo://app?vid=c2e05856-d563-470c-a0cb-3f7b314f9a68","ios":"levelo://app?vid=c2e05856-d563-470c-a0cb-3f7b314f9a68"},"vehicle_type_id":"4","last_reported":1707948394,"current_range_meters":18400,"station_id":"ce4bhsp2rcd13ifvqi50","pricing_plan_id":"cebpf4jnsgd1na2vs0mg"},{"bike_id":"0fc13ba9-f5d7-4cdc-8c2e-7a511b893740","system_id":"levelo_inurba_marseille","lat":43.301939,"lon":5.366286,"is_reserved":false,"is_disabled":false,"rental_uris":{"android":"levelo://app?vid=0fc13ba9-f5d7-4cdc-8c2e-7a511b893740","ios":"levelo://app?vid=0fc13ba9-f5d7-4cdc-8c2e-7a511b893740"},"vehicle_type_id":"4","last_reported":1707948394,"current_range_meters":3200,"station_id":"ce4bgrh2rcd13ifvqc8g","pricing_plan_id":"cebpf4jnsgd1na2vs0mg"},{"bike_id":"bf5622e7-d28a-40e0-ac04-7b528303c4ec","system_id":"levelo_inurba_marseille","lat":43.308012,"lon":5.381511,"is_reserved":false,"is_disabled":false,"rental_uris":{"android":"levelo://app?vid=bf5622e7-d28a-40e0-ac04-7b528303c4ec","ios":"levelo://app?vid=bf5622e7-d28a-40e0-ac04-7b528303c4ec"},"vehicle_type_id":"4","last_reported":1707948394,"current_range_meters":5600,"station_id":"ce4bgt12rcd13ifvqce0","pricing_plan_id":"cebpf4jnsgd1na2vs0mg"},{"bike_id":"0ebd9dea-3050-4320-a709-90bfdf768b8b","system_id":"levelo_inurba_marseille","lat":43.308012,"lon":5.381511,"is_reserved":false,"is_disabled":false,"rental_uris":{"android":"levelo://app?vid=0ebd9dea-3050-4320-a709-90bfdf768b8b","ios":"levelo://app?vid=0ebd9dea-3050-4320-a709-90bfdf768b8b"},"vehicle_type_id":"4","last_reported":1707948394,"current_range_meters":400,"station_id":"ce4bgt12rcd13ifvqce0","pricing_plan_id":"cebpf4jnsgd1na2vs0mg"},{"bike_id":"0f5408f3-bd51-4db5-87e7-add30a701557","system_id":"levelo_inurba_marseille","lat":43.308012,"lon":5.381511,"is_reserved":false,"is_disabled":false,"rental_uris":{"android":"levelo://app?vid=0f5408f3-bd51-4db5-87e7-add30a701557","ios":"levelo://app?vid=0f5408f3-bd51-4db5-87e7-add30a701557"},"vehicle_type_id":"4","last_reported":1707948394,"current_range_meters":12000,"station_id":"ce4bgt12rcd13ifvqce0","pricing_plan_id":"cebpf4jnsgd1na2vs0mg"},{"bike_id":"f0131c31-1cf9-425e-849b-21b666434967","system_id":"levelo_inurba_marseille","lat":43.308012,"lon":5.381511,"is_reserved":false,"is_disabled":false,"rental_uris":{"android":"levelo://app?vid=f0131c31-1cf9-425e-849b-21b666434967","ios":"levelo://app?vid=f0131c31-1cf9-425e-849b-21b666434967"},"vehicle_type_id":"4","last_reported":1707948394,"current_range_meters":3200,"station_id":"ce4bgt12rcd13ifvqce0","pricing_plan_id":"cebpf4jnsgd1na2vs0mg"},{"bike_id":"8c285e15-e149-4006-bbd8-4b5989001dbf","system_id":"levelo_inurba_marseille","lat":43.308012,"lon":5.381511,"is_reserved":false,"is_disabled":false,"rental_uris":{"android":"levelo://app?vid=8c285e15-e149-4006-bbd8-4b5989001dbf","ios":"levelo://app?vid=8c285e15-e149-4006-bbd8-4b5989001dbf"},"vehicle_type_id":"4","last_reported":1707948394,"current_range_meters":18000,"station_id":"ce4bgt12rcd13ifvqce0","pricing_plan_id":"cebpf4jnsgd1na2vs0mg"},{"bike_id":"9aa7e0e3-ded8-437c-8db5-c8d7d4db9daa","system_id":"levelo_inurba_marseille","lat":43.304606,"lon":5.379026,"is_reserved":false,"is_disabled":false,"rental_uris":{"android":"levelo://app?vid=9aa7e0e3-ded8-437c-8db5-c8d7d4db9daa","ios":"levelo://app?vid=9aa7e0e3-ded8-437c-8db5-c8d7d4db9daa"},"vehicle_type_id":"4","last_reported":1707948394,"current_range_meters":12000,"station_id":"ce4bgup2rcd13ifvqcn0","pricing_plan_id":"cebpf4jnsgd1na2vs0mg"},{"bike_id":"7c327044-e695-422f-9a1c-a204a5d7f1a3","system_id":"levelo_inurba_marseille","lat":43.305706,"lon":5.365654,"is_reserved":false,"is_disabled":false,"rental_uris":{"android":"levelo://app?vid=7c327044-e695-422f-9a1c-a204a5d7f1a3","ios":"levelo://app?vid=7c327044-e695-422f-9a1c-a204a5d7f1a3"},"vehicle_type_id":"4","last_reported":1707948394,"current_range_meters":23600,"station_id":"ce4bgs12rcd13ifvqcag","pricing_plan_id":"cebpf4jnsgd1na2vs0mg"},{"bike_id":"eaf76b94-1cb5-4923-acc9-3ff87ec1a8c2","system_id":"levelo_inurba_marseille","lat":43.324771,"lon":5.36557,"is_reserved":false,"is_disabled":false,"rental_uris":{"android":"levelo://app?vid=eaf76b94-1cb5-4923-acc9-3ff87ec1a8c2","ios":"levelo://app?vid=eaf76b94-1cb5-4923-acc9-3ff87ec1a8c2"},"vehicle_type_id":"4","last_reported":1707948394,"current_range_meters":9200,"station_id":"ce4bhs12rcd13ifvqhvg","pricing_plan_id":"cebpf4jnsgd1na2vs0mg"},{"bike_id":"ce616d52-5fda-4dfc-9562-908adeb662ff","system_id":"levelo_inurba_marseille","lat":43.324771,"lon":5.36557,"is_reserved":false,"is_disabled":false,"rental_uris":{"android":"levelo://app?vid=ce616d52-5fda-4dfc-9562-908adeb662ff","ios":"levelo://app?vid=ce616d52-5fda-4dfc-9562-908adeb662ff"},"vehicle_type_id":"4","last_reported":1707948394,"current_range_meters":6400,"station_id":"ce4bhs12rcd13ifvqhvg","pricing_plan_id":"cebpf4jnsgd1na2vs0mg"},{"bike_id":"77b3f476-61a8-4dee-b4bf-ed097484f428","system_id":"levelo_inurba_marseille","lat":43.302784,"lon":5.377158,"is_reserved":false,"is_disabled":false,"rental_uris":{"android":"levelo://app?vid=77b3f476-61a8-4dee-b4bf-ed097484f428","ios":"levelo://app?vid=77b3f476-61a8-4dee-b4bf-ed097484f428"},"vehicle_type_id":"4","last_reported":1707948394,"current_range_meters":29200,"station_id":"ce4bguh2rcd13ifvqcj0","pricing_plan_id":"cebpf4jnsgd1na2vs0mg"},{"bike_id":"71b4efb8-7aeb-49c5-9a62-83440eb853a7","system_id":"levelo_inurba_marseille","lat":43.310658,"lon":5.383542,"is_reserved":false,"is_disabled":false,"rental_uris":{"android":"levelo://app?vid=71b4efb8-7aeb-49c5-9a62-83440eb853a7","ios":"levelo://app?vid=71b4efb8-7aeb-49c5-9a62-83440eb853a7"},"vehicle_type_id":"4","last_reported":1707948394,"current_range_meters":0,"station_id":"ce4bgv92rcd13ifvqcr0","pricing_plan_id":"cebpf4jnsgd1na2vs0mg"},{"bike_id":"003670cd-8418-4b70-9feb-40a490ec6db9","system_id":"levelo_inurba_marseille","lat":43.310804,"lon":5.38359,"is_reserved":false,"is_disabled":false,"rental_uris":{"android":"levelo://app?vid=003670cd-8418-4b70-9feb-40a490ec6db9","ios":"levelo://app?vid=003670cd-8418-4b70-9feb-40a490ec6db9"},"vehicle_type_id":"4","last_reported":1707948394,"current_range_meters":12800,"station_id":"ce4bgv92rcd13ifvqcr0","pricing_plan_id":"cebpf4jnsgd1na2vs0mg"},{"bike_id":"b91a38e7-759b-436f-bdf9-46b06d86f931","system_id":"levelo_inurba_marseille","lat":43.31069,"lon":5.38357,"is_reserved":false,"is_disabled":false,"rental_uris":{"android":"levelo://app?vid=b91a38e7-759b-436f-bdf9-46b06d86f931","ios":"levelo://app?vid=b91a38e7-759b-436f-bdf9-46b06d86f931"},"vehicle_type_id":"4","last_reported":1707948394,"current_range_meters":14400,"station_id":"ce4bgv92rcd13ifvqcr0","pricing_plan_id":"cebpf4jnsgd1na2vs0mg"},{"bike_id":"03bd98fa-4eb3-4ef7-95d1-f7c83ba6e140","system_id":"levelo_inurba_marseille","lat":43.310767,"lon":5.383597,"is_reserved":false,"is_disabled":false,"rental_uris":{"android":"levelo://app?vid=03bd98fa-4eb3-4ef7-95d1-f7c83ba6e140","ios":"levelo://app?vid=03bd98fa-4eb3-4ef7-95d1-f7c83ba6e140"},"vehicle_type_id":"4","last_reported":1707948394,"current_range_meters":15600,"station_id":"ce4bgv92rcd13ifvqcr0","pricing_plan_id":"cebpf4jnsgd1na2vs0mg"},{"bike_id":"7a43cb56-e57f-4e21-b83d-fbe30286940b","system_id":"levelo_inurba_marseille","lat":43.31078,"lon":5.38362,"is_reserved":false,"is_disabled":false,"rental_uris":{"android":"levelo://app?vid=7a43cb56-e57f-4e21-b83d-fbe30286940b","ios":"levelo://app?vid=7a43cb56-e57f-4e21-b83d-fbe30286940b"},"vehicle_type_id":"4","last_reported":1707948394,"current_range_meters":0,"station_id":"ce4bgv92rcd13ifvqcr0","pricing_plan_id":"cebpf4jnsgd1na2vs0mg"},{"bike_id":"1f6e23da-7d91-4c57-ba22-e9ce507f2ace","system_id":"levelo_inurba_marseille","lat":43.310804,"lon":5.38359,"is_reserved":false,"is_disabled":false,"rental_uris":{"android":"levelo://app?vid=1f6e23da-7d91-4c57-ba22-e9ce507f2ace","ios":"levelo://app?vid=1f6e23da-7d91-4c57-ba22-e9ce507f2ace"},"vehicle_type_id":"4","last_reported":1707948394,"current_range_meters":21600,"station_id":"ce4bgv92rcd13ifvqcr0","pricing_plan_id":"cebpf4jnsgd1na2vs0mg"},{"bike_id":"0ed9ab89-2aa2-40f2-a2c6-64e78b41d9e0","system_id":"levelo_inurba_marseille","lat":43.302784,"lon":5.377158,"is_reserved":false,"is_disabled":false,"rental_uris":{"android":"levelo://app?vid=0ed9ab89-2aa2-40f2-a2c6-64e78b41d9e0","ios":"levelo://app?vid=0ed9ab89-2aa2-40f2-a2c6-64e78b41d9e0"},"vehicle_type_id":"4","last_reported":1707948394,"current_range_meters":18800,"station_id":"ce4bguh2rcd13ifvqcj0","pricing_plan_id":"cebpf4jnsgd1na2vs0mg"},{"bike_id":"357fedbb-6bae-437c-bd5e-e03ef13bc36c","system_id":"levelo_inurba_marseille","lat":43.30143,"lon":5.37413,"is_reserved":false,"is_disabled":false,"rental_uris":{"android":"levelo://app?vid=357fedbb-6bae-437c-bd5e-e03ef13bc36c","ios":"levelo://app?vid=357fedbb-6bae-437c-bd5e-e03ef13bc36c"},"vehicle_type_id":"4","last_reported":1707948394,"current_range_meters":4800,"station_id":"ce4bgs92rcd13ifvqcc0","pricing_plan_id":"cebpf4jnsgd1na2vs0mg"},{"bike_id":"4bb3e3a5-a73f-41c9-a7f7-9e4b5f9978c0","system_id":"levelo_inurba_marseille","lat":43.30143,"lon":5.37413,"is_reserved":false,"is_disabled":false,"rental_uris":{"android":"levelo://app?vid=4bb3e3a5-a73f-41c9-a7f7-9e4b5f9978c0","ios":"levelo://app?vid=4bb3e3a5-a73f-41c9-a7f7-9e4b5f9978c0"},"vehicle_type_id":"4","last_reported":1707948394,"current_range_meters":20000,"station_id":"ce4bgs92rcd13ifvqcc0","pricing_plan_id":"cebpf4jnsgd1na2vs0mg"},{"bike_id":"12152ff0-26d0-44c8-98bd-fdfbcd54aab2","system_id":"levelo_inurba_marseille","lat":43.319935,"lon":5.381699,"is_reserved":false,"is_disabled":false,"rental_uris":{"android":"levelo://app?vid=12152ff0-26d0-44c8-98bd-fdfbcd54aab2","ios":"levelo://app?vid=12152ff0-26d0-44c8-98bd-fdfbcd54aab2"},"vehicle_type_id":"4","last_reported":1707948394,"current_range_meters":10400,"station_id":"ce4bhr12rcd13ifvqhpg","pricing_plan_id":"cebpf4jnsgd1na2vs0mg"},{"bike_id":"d7e1e4c7-d866-4ba1-992a-68bdf64f7e72","system_id":"levelo_inurba_marseille","lat":43.319935,"lon":5.381699,"is_reserved":false,"is_disabled":false,"rental_uris":{"android":"levelo://app?vid=d7e1e4c7-d866-4ba1-992a-68bdf64f7e72","ios":"levelo://app?vid=d7e1e4c7-d866-4ba1-992a-68bdf64f7e72"},"vehicle_type_id":"4","last_reported":1707948394,"current_range_meters":3200,"station_id":"ce4bhr12rcd13ifvqhpg","pricing_plan_id":"cebpf4jnsgd1na2vs0mg"},{"bike_id":"9d586241-c832-456e-b8c2-42caa11d3c95","system_id":"levelo_inurba_marseille","lat":43.319935,"lon":5.381699,"is_reserved":false,"is_disabled":false,"rental_uris":{"android":"levelo://app?vid=9d586241-c832-456e-b8c2-42caa11d3c95","ios":"levelo://app?vid=9d586241-c832-456e-b8c2-42caa11d3c95"},"vehicle_type_id":"4","last_reported":1707948394,"current_range_meters":14400,"station_id":"ce4bhr12rcd13ifvqhpg","pricing_plan_id":"cebpf4jnsgd1na2vs0mg"},{"bike_id":"4f9328d1-96d2-4c4d-b400-a2bcd35e43b4","system_id":"levelo_inurba_marseille","lat":43.319935,"lon":5.381699,"is_reserved":false,"is_disabled":false,"rental_uris":{"android":"levelo://app?vid=4f9328d1-96d2-4c4d-b400-a2bcd35e43b4","ios":"levelo://app?vid=4f9328d1-96d2-4c4d-b400-a2bcd35e43b4"},"vehicle_type_id":"4","last_reported":1707948394,"current_range_meters":29200,"station_id":"ce4bhr12rcd13ifvqhpg","pricing_plan_id":"cebpf4jnsgd1na2vs0mg"},{"bike_id":"32a6a968-1bfb-4aba-9eae-9ffe66342d16","system_id":"levelo_inurba_marseille","lat":43.313571,"lon":5.384829,"is_reserved":false,"is_disabled":false,"rental_uris":{"android":"levelo://app?vid=32a6a968-1bfb-4aba-9eae-9ffe66342d16","ios":"levelo://app?vid=32a6a968-1bfb-4aba-9eae-9ffe66342d16"},"vehicle_type_id":"4","last_reported":1707948394,"current_range_meters":18000,"station_id":"ce4bgt92rcd13ifvqcf0","pricing_plan_id":"cebpf4jnsgd1na2vs0mg"},{"bike_id":"2569cebb-72e8-4864-8961-b7ffae8f683e","system_id":"levelo_inurba_marseille","lat":43.313571,"lon":5.384829,"is_reserved":false,"is_disabled":false,"rental_uris":{"android":"levelo://app?vid=2569cebb-72e8-4864-8961-b7ffae8f683e","ios":"levelo://app?vid=2569cebb-72e8-4864-8961-b7ffae8f683e"},"vehicle_type_id":"4","last_reported":1707948394,"current_range_meters":30000,"station_id":"ce4bgt92rcd13ifvqcf0","pricing_plan_id":"cebpf4jnsgd1na2vs0mg"},{"bike_id":"c1834786-f17f-46e5-9542-bb770fa10308","system_id":"levelo_inurba_marseille","lat":43.313571,"lon":5.384829,"is_reserved":false,"is_disabled":false,"rental_uris":{"android":"levelo://app?vid=c1834786-f17f-46e5-9542-bb770fa10308","ios":"levelo://app?vid=c1834786-f17f-46e5-9542-bb770fa10308"},"vehicle_type_id":"4","last_reported":1707948394,"current_range_meters":5600,"station_id":"ce4bgt92rcd13ifvqcf0","pricing_plan_id":"cebpf4jnsgd1na2vs0mg"},{"bike_id":"a34149dd-9a20-4cde-9af3-ead890e6c25a","system_id":"levelo_inurba_marseille","lat":43.313571,"lon":5.384829,"is_reserved":false,"is_disabled":false,"rental_uris":{"android":"levelo://app?vid=a34149dd-9a20-4cde-9af3-ead890e6c25a","ios":"levelo://app?vid=a34149dd-9a20-4cde-9af3-ead890e6c25a"},"vehicle_type_id":"4","last_reported":1707948394,"current_range_meters":1600,"station_id":"ce4bgt92rcd13ifvqcf0","pricing_plan_id":"cebpf4jnsgd1na2vs0mg"},{"bike_id":"e40b2bcf-2f4e-47cc-9d1f-f92483391d98","system_id":"levelo_inurba_marseille","lat":43.313571,"lon":5.384829,"is_reserved":false,"is_disabled":false,"rental_uris":{"android":"levelo://app?vid=e40b2bcf-2f4e-47cc-9d1f-f92483391d98","ios":"levelo://app?vid=e40b2bcf-2f4e-47cc-9d1f-f92483391d98"},"vehicle_type_id":"4","last_reported":1707948394,"current_range_meters":400,"station_id":"ce4bgt92rcd13ifvqcf0","pricing_plan_id":"cebpf4jnsgd1na2vs0mg"},{"bike_id":"4dbdcb69-73c3-4b88-94a1-74e1c6fda054","system_id":"levelo_inurba_marseille","lat":43.313571,"lon":5.384829,"is_reserved":false,"is_disabled":false,"rental_uris":{"android":"levelo://app?vid=4dbdcb69-73c3-4b88-94a1-74e1c6fda054","ios":"levelo://app?vid=4dbdcb69-73c3-4b88-94a1-74e1c6fda054"},"vehicle_type_id":"4","last_reported":1707948394,"current_range_meters":19200,"station_id":"ce4bgt92rcd13ifvqcf0","pricing_plan_id":"cebpf4jnsgd1na2vs0mg"},{"bike_id":"5954ba55-42bf-496f-9c8a-c5223e34a3fc","system_id":"levelo_inurba_marseille","lat":43.29988,"lon":5.37164,"is_reserved":false,"is_disabled":false,"rental_uris":{"android":"levelo://app?vid=5954ba55-42bf-496f-9c8a-c5223e34a3fc","ios":"levelo://app?vid=5954ba55-42bf-496f-9c8a-c5223e34a3fc"},"vehicle_type_id":"4","last_reported":1707948394,"current_range_meters":6400,"station_id":"ce4bgr92rcd13ifvqc7g","pricing_plan_id":"cebpf4jnsgd1na2vs0mg"},{"bike_id":"32a47b56-89fb-4c3a-9dc5-97daf9b60ea2","system_id":"levelo_inurba_marseille","lat":43.299222,"lon":5.365554,"is_reserved":false,"is_disabled":false,"rental_uris":{"android":"levelo://app?vid=32a47b56-89fb-4c3a-9dc5-97daf9b60ea2","ios":"levelo://app?vid=32a47b56-89fb-4c3a-9dc5-97daf9b60ea2"},"vehicle_type_id":"4","last_reported":1707948394,"current_range_meters":4400,"station_id":"ce4bgm92rcd13ifvqbr0","pricing_plan_id":"cebpf4jnsgd1na2vs0mg"},{"bike_id":"d0c7c1fc-7257-4324-a53d-d062ad3fd611","system_id":"levelo_inurba_marseille","lat":43.299724,"lon":5.371829,"is_reserved":false,"is_disabled":false,"rental_uris":{"android":"levelo://app?vid=d0c7c1fc-7257-4324-a53d-d062ad3fd611","ios":"levelo://app?vid=d0c7c1fc-7257-4324-a53d-d062ad3fd611"},"vehicle_type_id":"4","last_reported":1707948394,"current_range_meters":7200,"station_id":"ce4bgr92rcd13ifvqc7g","pricing_plan_id":"cebpf4jnsgd1na2vs0mg"},{"bike_id":"ced1ea36-8ef6-4cd0-98e2-8a5787a96988","system_id":"levelo_inurba_marseille","lat":43.299753,"lon":5.37178,"is_reserved":false,"is_disabled":false,"rental_uris":{"android":"levelo://app?vid=ced1ea36-8ef6-4cd0-98e2-8a5787a96988","ios":"levelo://app?vid=ced1ea36-8ef6-4cd0-98e2-8a5787a96988"},"vehicle_type_id":"4","last_reported":1707948394,"current_range_meters":10400,"station_id":"ce4bgr92rcd13ifvqc7g","pricing_plan_id":"cebpf4jnsgd1na2vs0mg"},{"bike_id":"7e60f6c7-91e1-41f0-904b-8d140575e3c1","system_id":"levelo_inurba_marseille","lat":43.305364,"lon":5.384119,"is_reserved":false,"is_disabled":false,"rental_uris":{"android":"levelo://app?vid=7e60f6c7-91e1-41f0-904b-8d140575e3c1","ios":"levelo://app?vid=7e60f6c7-91e1-41f0-904b-8d140575e3c1"},"vehicle_type_id":"4","last_reported":1707948394,"current_range_meters":18400,"station_id":"ce4bgg92rcd13ifvqb30","pricing_plan_id":"cebpf4jnsgd1na2vs0mg"},{"bike_id":"f3858902-a8ce-4cc3-89c3-963acb190d86","system_id":"levelo_inurba_marseille","lat":43.298433,"lon":5.362774,"is_reserved":false,"is_disabled":false,"rental_uris":{"android":"levelo://app?vid=f3858902-a8ce-4cc3-89c3-963acb190d86","ios":"levelo://app?vid=f3858902-a8ce-4cc3-89c3-963acb190d86"},"vehicle_type_id":"4","last_reported":1707948394,"current_range_meters":18000,"station_id":"ce4bgpp2rcd13ifvqc3g","pricing_plan_id":"cebpf4jnsgd1na2vs0mg"},{"bike_id":"89fada2f-e49f-48ec-aca4-c0177cf22f6c","system_id":"levelo_inurba_marseille","lat":43.298433,"lon":5.362774,"is_reserved":false,"is_disabled":false,"rental_uris":{"android":"levelo://app?vid=89fada2f-e49f-48ec-aca4-c0177cf22f6c","ios":"levelo://app?vid=89fada2f-e49f-48ec-aca4-c0177cf22f6c"},"vehicle_type_id":"4","last_reported":1707948394,"current_range_meters":28800,"station_id":"ce4bgpp2rcd13ifvqc3g","pricing_plan_id":"cebpf4jnsgd1na2vs0mg"},{"bike_id":"8ecb08da-2f02-4ff4-86b5-62776fe52fe5","system_id":"levelo_inurba_marseille","lat":43.299243,"lon":5.37481,"is_reserved":false,"is_disabled":false,"rental_uris":{"android":"levelo://app?vid=8ecb08da-2f02-4ff4-86b5-62776fe52fe5","ios":"levelo://app?vid=8ecb08da-2f02-4ff4-86b5-62776fe52fe5"},"vehicle_type_id":"4","last_reported":1707948394,"current_range_meters":31200,"station_id":"ce4bgjh2rcd13ifvqbg0","pricing_plan_id":"cebpf4jnsgd1na2vs0mg"},{"bike_id":"627c745f-3541-44de-bb20-87edf81fd65e","system_id":"levelo_inurba_marseille","lat":43.311722,"lon":5.387247,"is_reserved":false,"is_disabled":false,"rental_uris":{"android":"levelo://app?vid=627c745f-3541-44de-bb20-87edf81fd65e","ios":"levelo://app?vid=627c745f-3541-44de-bb20-87edf81fd65e"},"vehicle_type_id":"4","last_reported":1707948394,"current_range_meters":3200,"station_id":"ce4bgv12rcd13ifvqcp0","pricing_plan_id":"cebpf4jnsgd1na2vs0mg"},{"bike_id":"01093a38-282a-4ecc-8f75-4573be9f2a70","system_id":"levelo_inurba_marseille","lat":43.311722,"lon":5.387247,"is_reserved":false,"is_disabled":false,"rental_uris":{"android":"levelo://app?vid=01093a38-282a-4ecc-8f75-4573be9f2a70","ios":"levelo://app?vid=01093a38-282a-4ecc-8f75-4573be9f2a70"},"vehicle_type_id":"4","last_reported":1707948394,"current_range_meters":21200,"station_id":"ce4bgv12rcd13ifvqcp0","pricing_plan_id":"cebpf4jnsgd1na2vs0mg"},{"bike_id":"875887cf-f4e3-4272-b63d-dfe0614966e4","system_id":"levelo_inurba_marseille","lat":43.311722,"lon":5.387247,"is_reserved":false,"is_disabled":false,"rental_uris":{"android":"levelo://app?vid=875887cf-f4e3-4272-b63d-dfe0614966e4","ios":"levelo://app?vid=875887cf-f4e3-4272-b63d-dfe0614966e4"},"vehicle_type_id":"4","last_reported":1707948394,"current_range_meters":31200,"station_id":"ce4bgv12rcd13ifvqcp0","pricing_plan_id":"cebpf4jnsgd1na2vs0mg"},{"bike_id":"1e2ed12b-5f17-4e8e-a940-18ecdcd86a6a","system_id":"levelo_inurba_marseille","lat":43.311722,"lon":5.387247,"is_reserved":false,"is_disabled":false,"rental_uris":{"android":"levelo://app?vid=1e2ed12b-5f17-4e8e-a940-18ecdcd86a6a","ios":"levelo://app?vid=1e2ed12b-5f17-4e8e-a940-18ecdcd86a6a"},"vehicle_type_id":"4","last_reported":1707948394,"current_range_meters":14800,"station_id":"ce4bgv12rcd13ifvqcp0","pricing_plan_id":"cebpf4jnsgd1na2vs0mg"},{"bike_id":"393ec7a3-c0dd-4d07-99a3-1b89dbeb9cec","system_id":"levelo_inurba_marseille","lat":43.297774,"lon":5.370875,"is_reserved":false,"is_disabled":false,"rental_uris":{"android":"levelo://app?vid=393ec7a3-c0dd-4d07-99a3-1b89dbeb9cec","ios":"levelo://app?vid=393ec7a3-c0dd-4d07-99a3-1b89dbeb9cec"},"vehicle_type_id":"4","last_reported":1707948394,"current_range_meters":17600,"station_id":"ce4bgop2rcd13ifvqc1g","pricing_plan_id":"cebpf4jnsgd1na2vs0mg"},{"bike_id":"be38420d-f51a-4967-8251-f13390162da9","system_id":"levelo_inurba_marseille","lat":43.322872,"lon":5.382756,"is_reserved":false,"is_disabled":false,"rental_uris":{"android":"levelo://app?vid=be38420d-f51a-4967-8251-f13390162da9","ios":"levelo://app?vid=be38420d-f51a-4967-8251-f13390162da9"},"vehicle_type_id":"4","last_reported":1707948394,"current_range_meters":26800,"station_id":"ce4bhr12rcd13ifvqhqg","pricing_plan_id":"cebpf4jnsgd1na2vs0mg"},{"bike_id":"aed9e4ad-9c1a-4a51-8095-58a12f0b44f4","system_id":"levelo_inurba_marseille","lat":43.322872,"lon":5.382756,"is_reserved":false,"is_disabled":false,"rental_uris":{"android":"levelo://app?vid=aed9e4ad-9c1a-4a51-8095-58a12f0b44f4","ios":"levelo://app?vid=aed9e4ad-9c1a-4a51-8095-58a12f0b44f4"},"vehicle_type_id":"4","last_reported":1707948394,"current_range_meters":30400,"station_id":"ce4bhr12rcd13ifvqhqg","pricing_plan_id":"cebpf4jnsgd1na2vs0mg"},{"bike_id":"244b7149-7bde-4987-b654-88632569d8fb","system_id":"levelo_inurba_marseille","lat":43.32288,"lon":5.38276,"is_reserved":false,"is_disabled":false,"rental_uris":{"android":"levelo://app?vid=244b7149-7bde-4987-b654-88632569d8fb","ios":"levelo://app?vid=244b7149-7bde-4987-b654-88632569d8fb"},"vehicle_type_id":"4","last_reported":1707948394,"current_range_meters":28000,"station_id":"ce4bhr12rcd13ifvqhqg","pricing_plan_id":"cebpf4jnsgd1na2vs0mg"},{"bike_id":"118fcb4e-73cd-43af-8bf2-be4e0690f9d8","system_id":"levelo_inurba_marseille","lat":43.32291,"lon":5.38277,"is_reserved":false,"is_disabled":false,"rental_uris":{"android":"levelo://app?vid=118fcb4e-73cd-43af-8bf2-be4e0690f9d8","ios":"levelo://app?vid=118fcb4e-73cd-43af-8bf2-be4e0690f9d8"},"vehicle_type_id":"4","last_reported":1707948394,"current_range_meters":10400,"station_id":"ce4bhr12rcd13ifvqhqg","pricing_plan_id":"cebpf4jnsgd1na2vs0mg"},{"bike_id":"ec21c626-faeb-41e5-9192-4d2bef3ee4d3","system_id":"levelo_inurba_marseille","lat":43.32823,"lon":5.36686,"is_reserved":false,"is_disabled":false,"rental_uris":{"android":"levelo://app?vid=ec21c626-faeb-41e5-9192-4d2bef3ee4d3","ios":"levelo://app?vid=ec21c626-faeb-41e5-9192-4d2bef3ee4d3"},"vehicle_type_id":"4","last_reported":1707948394,"current_range_meters":8400,"station_id":"ce4bhs92rcd13ifvqi0g","pricing_plan_id":"cebpf4jnsgd1na2vs0mg"},{"bike_id":"eec18b1c-bcf1-4268-8859-b234d772b467","system_id":"levelo_inurba_marseille","lat":43.32823,"lon":5.36684,"is_reserved":false,"is_disabled":false,"rental_uris":{"android":"levelo://app?vid=eec18b1c-bcf1-4268-8859-b234d772b467","ios":"levelo://app?vid=eec18b1c-bcf1-4268-8859-b234d772b467"},"vehicle_type_id":"4","last_reported":1707948394,"current_range_meters":10800,"station_id":"ce4bhs92rcd13ifvqi0g","pricing_plan_id":"cebpf4jnsgd1na2vs0mg"},{"bike_id":"57f57f96-aa15-40ae-a761-f5242a8c30b7","system_id":"levelo_inurba_marseille","lat":43.32824,"lon":5.36684,"is_reserved":false,"is_disabled":false,"rental_uris":{"android":"levelo://app?vid=57f57f96-aa15-40ae-a761-f5242a8c30b7","ios":"levelo://app?vid=57f57f96-aa15-40ae-a761-f5242a8c30b7"},"vehicle_type_id":"4","last_reported":1707948394,"current_range_meters":14800,"station_id":"ce4bhs92rcd13ifvqi0g","pricing_plan_id":"cebpf4jnsgd1na2vs0mg"},{"bike_id":"c9b88aad-86c2-4a51-9436-08e8586a0048","system_id":"levelo_inurba_marseille","lat":43.32824,"lon":5.366807,"is_reserved":false,"is_disabled":false,"rental_uris":{"android":"levelo://app?vid=c9b88aad-86c2-4a51-9436-08e8586a0048","ios":"levelo://app?vid=c9b88aad-86c2-4a51-9436-08e8586a0048"},"vehicle_type_id":"4","last_reported":1707948394,"current_range_meters":18800,"station_id":"ce4bhs92rcd13ifvqi0g","pricing_plan_id":"cebpf4jnsgd1na2vs0mg"},{"bike_id":"d059372d-713e-4306-a0dc-ef5b2b5ad059","system_id":"levelo_inurba_marseille","lat":43.32826,"lon":5.36678,"is_reserved":false,"is_disabled":false,"rental_uris":{"android":"levelo://app?vid=d059372d-713e-4306-a0dc-ef5b2b5ad059","ios":"levelo://app?vid=d059372d-713e-4306-a0dc-ef5b2b5ad059"},"vehicle_type_id":"4","last_reported":1707948394,"current_range_meters":3200,"station_id":"ce4bhs92rcd13ifvqi0g","pricing_plan_id":"cebpf4jnsgd1na2vs0mg"},{"bike_id":"b354d40e-f748-45df-b8a4-085ee0f39b31","system_id":"levelo_inurba_marseille","lat":43.32827,"lon":5.36679,"is_reserved":false,"is_disabled":false,"rental_uris":{"android":"levelo://app?vid=b354d40e-f748-45df-b8a4-085ee0f39b31","ios":"levelo://app?vid=b354d40e-f748-45df-b8a4-085ee0f39b31"},"vehicle_type_id":"4","last_reported":1707948394,"current_range_meters":23600,"station_id":"ce4bhs92rcd13ifvqi0g","pricing_plan_id":"cebpf4jnsgd1na2vs0mg"},{"bike_id":"ba7e2d45-23a5-46a7-b5c1-beb1b5de7e04","system_id":"levelo_inurba_marseille","lat":43.32828,"lon":5.36693,"is_reserved":false,"is_disabled":false,"rental_uris":{"android":"levelo://app?vid=ba7e2d45-23a5-46a7-b5c1-beb1b5de7e04","ios":"levelo://app?vid=ba7e2d45-23a5-46a7-b5c1-beb1b5de7e04"},"vehicle_type_id":"4","last_reported":1707948394,"current_range_meters":18000,"station_id":"ce4bhs92rcd13ifvqi0g","pricing_plan_id":"cebpf4jnsgd1na2vs0mg"},{"bike_id":"7c47e388-9433-4092-857a-2e1a28e7faaa","system_id":"levelo_inurba_marseille","lat":43.32828,"lon":5.36678,"is_reserved":false,"is_disabled":false,"rental_uris":{"android":"levelo://app?vid=7c47e388-9433-4092-857a-2e1a28e7faaa","ios":"levelo://app?vid=7c47e388-9433-4092-857a-2e1a28e7faaa"},"vehicle_type_id":"4","last_reported":1707948394,"current_range_meters":26800,"station_id":"ce4bhs92rcd13ifvqi0g","pricing_plan_id":"cebpf4jnsgd1na2vs0mg"},{"bike_id":"24cbb04a-c763-4b6c-91c7-7ce4ce9a6969","system_id":"levelo_inurba_marseille","lat":43.328287,"lon":5.36682,"is_reserved":false,"is_disabled":false,"rental_uris":{"android":"levelo://app?vid=24cbb04a-c763-4b6c-91c7-7ce4ce9a6969","ios":"levelo://app?vid=24cbb04a-c763-4b6c-91c7-7ce4ce9a6969"},"vehicle_type_id":"4","last_reported":1707948394,"current_range_meters":16000,"station_id":"ce4bhs92rcd13ifvqi0g","pricing_plan_id":"cebpf4jnsgd1na2vs0mg"},{"bike_id":"c579bad3-e2d0-4712-a783-f41c065e4e3f","system_id":"levelo_inurba_marseille","lat":43.32829,"lon":5.3668,"is_reserved":false,"is_disabled":false,"rental_uris":{"android":"levelo://app?vid=c579bad3-e2d0-4712-a783-f41c065e4e3f","ios":"levelo://app?vid=c579bad3-e2d0-4712-a783-f41c065e4e3f"},"vehicle_type_id":"4","last_reported":1707948394,"current_range_meters":9600,"station_id":"ce4bhs92rcd13ifvqi0g","pricing_plan_id":"cebpf4jnsgd1na2vs0mg"},{"bike_id":"e53477e0-6f81-44d0-bf92-8c0c4ae8ef5b","system_id":"levelo_inurba_marseille","lat":43.328291,"lon":5.366826,"is_reserved":false,"is_disabled":false,"rental_uris":{"android":"levelo://app?vid=e53477e0-6f81-44d0-bf92-8c0c4ae8ef5b","ios":"levelo://app?vid=e53477e0-6f81-44d0-bf92-8c0c4ae8ef5b"},"vehicle_type_id":"4","last_reported":1707948394,"current_range_meters":18000,"station_id":"ce4bhs92rcd13ifvqi0g","pricing_plan_id":"cebpf4jnsgd1na2vs0mg"},{"bike_id":"8d4d4aba-3495-4235-ada7-809a0bcb5c57","system_id":"levelo_inurba_marseille","lat":43.328298,"lon":5.366806,"is_reserved":false,"is_disabled":false,"rental_uris":{"android":"levelo://app?vid=8d4d4aba-3495-4235-ada7-809a0bcb5c57","ios":"levelo://app?vid=8d4d4aba-3495-4235-ada7-809a0bcb5c57"},"vehicle_type_id":"4","last_reported":1707948394,"current_range_meters":22400,"station_id":"ce4bhs92rcd13ifvqi0g","pricing_plan_id":"cebpf4jnsgd1na2vs0mg"},{"bike_id":"20747a73-3ec2-4ec7-9c3a-f0ad85525260","system_id":"levelo_inurba_marseille","lat":43.3283,"lon":5.36677,"is_reserved":false,"is_disabled":false,"rental_uris":{"android":"levelo://app?vid=20747a73-3ec2-4ec7-9c3a-f0ad85525260","ios":"levelo://app?vid=20747a73-3ec2-4ec7-9c3a-f0ad85525260"},"vehicle_type_id":"4","last_reported":1707948394,"current_range_meters":3200,"station_id":"ce4bhs92rcd13ifvqi0g","pricing_plan_id":"cebpf4jnsgd1na2vs0mg"},{"bike_id":"f41ceea4-9289-4d6b-990c-9f2656a72f3b","system_id":"levelo_inurba_marseille","lat":43.3283,"lon":5.36675,"is_reserved":false,"is_disabled":false,"rental_uris":{"android":"levelo://app?vid=f41ceea4-9289-4d6b-990c-9f2656a72f3b","ios":"levelo://app?vid=f41ceea4-9289-4d6b-990c-9f2656a72f3b"},"vehicle_type_id":"4","last_reported":1707948394,"current_range_meters":2400,"station_id":"ce4bhs92rcd13ifvqi0g","pricing_plan_id":"cebpf4jnsgd1na2vs0mg"},{"bike_id":"8b36ce43-3bc7-4f8a-bb1e-1f87c12ac26a","system_id":"levelo_inurba_marseille","lat":43.32831,"lon":5.36679,"is_reserved":false,"is_disabled":false,"rental_uris":{"android":"levelo://app?vid=8b36ce43-3bc7-4f8a-bb1e-1f87c12ac26a","ios":"levelo://app?vid=8b36ce43-3bc7-4f8a-bb1e-1f87c12ac26a"},"vehicle_type_id":"4","last_reported":1707948394,"current_range_meters":8800,"station_id":"ce4bhs92rcd13ifvqi0g","pricing_plan_id":"cebpf4jnsgd1na2vs0mg"},{"bike_id":"b338c1d7-627e-4015-898a-dcde5ba40d9d","system_id":"levelo_inurba_marseille","lat":43.328312,"lon":5.366822,"is_reserved":false,"is_disabled":false,"rental_uris":{"android":"levelo://app?vid=b338c1d7-627e-4015-898a-dcde5ba40d9d","ios":"levelo://app?vid=b338c1d7-627e-4015-898a-dcde5ba40d9d"},"vehicle_type_id":"4","last_reported":1707948394,"current_range_meters":400,"station_id":"ce4bhs92rcd13ifvqi0g","pricing_plan_id":"cebpf4jnsgd1na2vs0mg"},{"bike_id":"6df14f4e-5762-4688-823c-207c1d70636e","system_id":"levelo_inurba_marseille","lat":43.328339,"lon":5.366781,"is_reserved":false,"is_disabled":false,"rental_uris":{"android":"levelo://app?vid=6df14f4e-5762-4688-823c-207c1d70636e","ios":"levelo://app?vid=6df14f4e-5762-4688-823c-207c1d70636e"},"vehicle_type_id":"4","last_reported":1707948394,"current_range_meters":4800,"station_id":"ce4bhs92rcd13ifvqi0g","pricing_plan_id":"cebpf4jnsgd1na2vs0mg"},{"bike_id":"21e34cb8-ab84-4bcf-af44-ce5eaa23f4a9","system_id":"levelo_inurba_marseille","lat":43.32834,"lon":5.36677,"is_reserved":false,"is_disabled":false,"rental_uris":{"android":"levelo://app?vid=21e34cb8-ab84-4bcf-af44-ce5eaa23f4a9","ios":"levelo://app?vid=21e34cb8-ab84-4bcf-af44-ce5eaa23f4a9"},"vehicle_type_id":"4","last_reported":1707948394,"current_range_meters":11600,"station_id":"ce4bhs92rcd13ifvqi0g","pricing_plan_id":"cebpf4jnsgd1na2vs0mg"},{"bike_id":"00c486e2-5b6f-4240-9c00-f34f4cd392e2","system_id":"levelo_inurba_marseille","lat":43.328356,"lon":5.366768,"is_reserved":false,"is_disabled":false,"rental_uris":{"android":"levelo://app?vid=00c486e2-5b6f-4240-9c00-f34f4cd392e2","ios":"levelo://app?vid=00c486e2-5b6f-4240-9c00-f34f4cd392e2"},"vehicle_type_id":"4","last_reported":1707948394,"current_range_meters":17200,"station_id":"ce4bhs92rcd13ifvqi0g","pricing_plan_id":"cebpf4jnsgd1na2vs0mg"},{"bike_id":"55c40696-eac4-4ef2-ab85-010ac245187e","system_id":"levelo_inurba_marseille","lat":43.297163,"lon":5.365866,"is_reserved":false,"is_disabled":false,"rental_uris":{"android":"levelo://app?vid=55c40696-eac4-4ef2-ab85-010ac245187e","ios":"levelo://app?vid=55c40696-eac4-4ef2-ab85-010ac245187e"},"vehicle_type_id":"4","last_reported":1707948394,"current_range_meters":25200,"station_id":"ce4bgn12rcd13ifvqbt0","pricing_plan_id":"cebpf4jnsgd1na2vs0mg"},{"bike_id":"2c0240b9-332f-43a4-b9ad-92a79e9225d2","system_id":"levelo_inurba_marseille","lat":43.32837,"lon":5.36678,"is_reserved":false,"is_disabled":false,"rental_uris":{"android":"levelo://app?vid=2c0240b9-332f-43a4-b9ad-92a79e9225d2","ios":"levelo://app?vid=2c0240b9-332f-43a4-b9ad-92a79e9225d2"},"vehicle_type_id":"4","last_reported":1707948394,"current_range_meters":12000,"station_id":"ce4bhs92rcd13ifvqi0g","pricing_plan_id":"cebpf4jnsgd1na2vs0mg"},{"bike_id":"43957803-f6bd-46a1-8353-81a4fb25d515","system_id":"levelo_inurba_marseille","lat":43.297163,"lon":5.365866,"is_reserved":false,"is_disabled":false,"rental_uris":{"android":"levelo://app?vid=43957803-f6bd-46a1-8353-81a4fb25d515","ios":"levelo://app?vid=43957803-f6bd-46a1-8353-81a4fb25d515"},"vehicle_type_id":"4","last_reported":1707948394,"current_range_meters":10400,"station_id":"ce4bgn12rcd13ifvqbt0","pricing_plan_id":"cebpf4jnsgd1na2vs0mg"},{"bike_id":"455586fa-93db-4262-9aa9-3ec4bb30a061","system_id":"levelo_inurba_marseille","lat":43.297163,"lon":5.365866,"is_reserved":false,"is_disabled":false,"rental_uris":{"android":"levelo://app?vid=455586fa-93db-4262-9aa9-3ec4bb30a061","ios":"levelo://app?vid=455586fa-93db-4262-9aa9-3ec4bb30a061"},"vehicle_type_id":"4","last_reported":1707948394,"current_range_meters":30000,"station_id":"ce4bgn12rcd13ifvqbt0","pricing_plan_id":"cebpf4jnsgd1na2vs0mg"},{"bike_id":"8dabdcb3-fa40-4f17-b247-51e168cb9ce3","system_id":"levelo_inurba_marseille","lat":43.297163,"lon":5.365866,"is_reserved":false,"is_disabled":false,"rental_uris":{"android":"levelo://app?vid=8dabdcb3-fa40-4f17-b247-51e168cb9ce3","ios":"levelo://app?vid=8dabdcb3-fa40-4f17-b247-51e168cb9ce3"},"vehicle_type_id":"4","last_reported":1707948394,"current_range_meters":28800,"station_id":"ce4bgn12rcd13ifvqbt0","pricing_plan_id":"cebpf4jnsgd1na2vs0mg"},{"bike_id":"83fa406e-2a4b-4eeb-94af-e8dd30f86788","system_id":"levelo_inurba_marseille","lat":43.2968,"lon":5.37291,"is_reserved":false,"is_disabled":false,"rental_uris":{"android":"levelo://app?vid=83fa406e-2a4b-4eeb-94af-e8dd30f86788","ios":"levelo://app?vid=83fa406e-2a4b-4eeb-94af-e8dd30f86788"},"vehicle_type_id":"4","last_reported":1707948394,"current_range_meters":24400,"station_id":"ce4bgk12rcd13ifvqbj0","pricing_plan_id":"cebpf4jnsgd1na2vs0mg"},{"bike_id":"7c73092b-1e9f-481b-9ba0-52a2872d5458","system_id":"levelo_inurba_marseille","lat":43.29573,"lon":5.367355,"is_reserved":false,"is_disabled":false,"rental_uris":{"android":"levelo://app?vid=7c73092b-1e9f-481b-9ba0-52a2872d5458","ios":"levelo://app?vid=7c73092b-1e9f-481b-9ba0-52a2872d5458"},"vehicle_type_id":"4","last_reported":1707948394,"current_range_meters":7600,"station_id":"ce4bgph2rcd13ifvqc2g","pricing_plan_id":"cebpf4jnsgd1na2vs0mg"},{"bike_id":"f68ff816-f542-417a-b51a-1aefca266cda","system_id":"levelo_inurba_marseille","lat":43.299028,"lon":5.381509,"is_reserved":false,"is_disabled":false,"rental_uris":{"android":"levelo://app?vid=f68ff816-f542-417a-b51a-1aefca266cda","ios":"levelo://app?vid=f68ff816-f542-417a-b51a-1aefca266cda"},"vehicle_type_id":"4","last_reported":1707948394,"current_range_meters":16400,"station_id":"ce4bgj12rcd13ifvqbc0","pricing_plan_id":"cebpf4jnsgd1na2vs0mg"},{"bike_id":"4219c106-3ad4-4104-93fd-fb833e709d99","system_id":"levelo_inurba_marseille","lat":43.299028,"lon":5.381509,"is_reserved":false,"is_disabled":false,"rental_uris":{"android":"levelo://app?vid=4219c106-3ad4-4104-93fd-fb833e709d99","ios":"levelo://app?vid=4219c106-3ad4-4104-93fd-fb833e709d99"},"vehicle_type_id":"4","last_reported":1707948394,"current_range_meters":20800,"station_id":"ce4bgj12rcd13ifvqbc0","pricing_plan_id":"cebpf4jnsgd1na2vs0mg"},{"bike_id":"dd52907d-2f6a-48bc-8222-6ba9ddf7a053","system_id":"levelo_inurba_marseille","lat":43.296921,"lon":5.376579,"is_reserved":false,"is_disabled":false,"rental_uris":{"android":"levelo://app?vid=dd52907d-2f6a-48bc-8222-6ba9ddf7a053","ios":"levelo://app?vid=dd52907d-2f6a-48bc-8222-6ba9ddf7a053"},"vehicle_type_id":"4","last_reported":1707948394,"current_range_meters":0,"station_id":"ce4bgkh2rcd13ifvqbl0","pricing_plan_id":"cebpf4jnsgd1na2vs0mg"},{"bike_id":"9a3c3e84-20f6-4529-af15-73a8c50c8dd9","system_id":"levelo_inurba_marseille","lat":43.299028,"lon":5.381509,"is_reserved":false,"is_disabled":false,"rental_uris":{"android":"levelo://app?vid=9a3c3e84-20f6-4529-af15-73a8c50c8dd9","ios":"levelo://app?vid=9a3c3e84-20f6-4529-af15-73a8c50c8dd9"},"vehicle_type_id":"4","last_reported":1707948394,"current_range_meters":31600,"station_id":"ce4bgj12rcd13ifvqbc0","pricing_plan_id":"cebpf4jnsgd1na2vs0mg"},{"bike_id":"709e4b08-469c-4805-a1f1-b89d08814ab9","system_id":"levelo_inurba_marseille","lat":43.299028,"lon":5.381509,"is_reserved":false,"is_disabled":false,"rental_uris":{"android":"levelo://app?vid=709e4b08-469c-4805-a1f1-b89d08814ab9","ios":"levelo://app?vid=709e4b08-469c-4805-a1f1-b89d08814ab9"},"vehicle_type_id":"4","last_reported":1707948394,"current_range_meters":16000,"station_id":"ce4bgj12rcd13ifvqbc0","pricing_plan_id":"cebpf4jnsgd1na2vs0mg"},{"bike_id":"43233241-859b-48de-8612-b6c1b825776d","system_id":"levelo_inurba_marseille","lat":43.31763,"lon":5.39,"is_reserved":false,"is_disabled":false,"rental_uris":{"android":"levelo://app?vid=43233241-859b-48de-8612-b6c1b825776d","ios":"levelo://app?vid=43233241-859b-48de-8612-b6c1b825776d"},"vehicle_type_id":"4","last_reported":1707948394,"current_range_meters":10000,"station_id":"ce4bhqp2rcd13ifvqhng","pricing_plan_id":"cebpf4jnsgd1na2vs0mg"},{"bike_id":"b08bf3f2-9895-4d9a-9980-06658a6444a4","system_id":"levelo_inurba_marseille","lat":43.30112,"lon":5.38495,"is_reserved":false,"is_disabled":false,"rental_uris":{"android":"levelo://app?vid=b08bf3f2-9895-4d9a-9980-06658a6444a4","ios":"levelo://app?vid=b08bf3f2-9895-4d9a-9980-06658a6444a4"},"vehicle_type_id":"4","last_reported":1707948394,"current_range_meters":0,"station_id":"","pricing_plan_id":"cebpf4jnsgd1na2vs0mg"},{"bike_id":"46fddee0-8afd-4938-8611-aae2e5c099d9","system_id":"levelo_inurba_marseille","lat":43.31756,"lon":5.3901,"is_reserved":false,"is_disabled":false,"rental_uris":{"android":"levelo://app?vid=46fddee0-8afd-4938-8611-aae2e5c099d9","ios":"levelo://app?vid=46fddee0-8afd-4938-8611-aae2e5c099d9"},"vehicle_type_id":"4","last_reported":1707948394,"current_range_meters":24800,"station_id":"ce4bhqp2rcd13ifvqhng","pricing_plan_id":"cebpf4jnsgd1na2vs0mg"},{"bike_id":"b3dcb9ba-bf07-48c1-aada-2fbdb761a352","system_id":"levelo_inurba_marseille","lat":43.317557,"lon":5.390173,"is_reserved":false,"is_disabled":false,"rental_uris":{"android":"levelo://app?vid=b3dcb9ba-bf07-48c1-aada-2fbdb761a352","ios":"levelo://app?vid=b3dcb9ba-bf07-48c1-aada-2fbdb761a352"},"vehicle_type_id":"4","last_reported":1707948394,"current_range_meters":31200,"station_id":"ce4bhqp2rcd13ifvqhng","pricing_plan_id":"cebpf4jnsgd1na2vs0mg"},{"bike_id":"4d1fc426-76ca-4e7f-b775-e8d4d4862683","system_id":"levelo_inurba_marseille","lat":43.317557,"lon":5.390173,"is_reserved":false,"is_disabled":false,"rental_uris":{"android":"levelo://app?vid=4d1fc426-76ca-4e7f-b775-e8d4d4862683","ios":"levelo://app?vid=4d1fc426-76ca-4e7f-b775-e8d4d4862683"},"vehicle_type_id":"4","last_reported":1707948394,"current_range_meters":29600,"station_id":"ce4bhqp2rcd13ifvqhng","pricing_plan_id":"cebpf4jnsgd1na2vs0mg"},{"bike_id":"13db1a0a-84c8-4ba0-87f6-9800285e27fa","system_id":"levelo_inurba_marseille","lat":43.3176,"lon":5.39019,"is_reserved":false,"is_disabled":false,"rental_uris":{"android":"levelo://app?vid=13db1a0a-84c8-4ba0-87f6-9800285e27fa","ios":"levelo://app?vid=13db1a0a-84c8-4ba0-87f6-9800285e27fa"},"vehicle_type_id":"4","last_reported":1707948394,"current_range_meters":31200,"station_id":"ce4bhqp2rcd13ifvqhng","pricing_plan_id":"cebpf4jnsgd1na2vs0mg"},{"bike_id":"61113e6d-e1f4-49e1-94b1-ccb6fc9bcaf5","system_id":"levelo_inurba_marseille","lat":43.317557,"lon":5.390173,"is_reserved":false,"is_disabled":false,"rental_uris":{"android":"levelo://app?vid=61113e6d-e1f4-49e1-94b1-ccb6fc9bcaf5","ios":"levelo://app?vid=61113e6d-e1f4-49e1-94b1-ccb6fc9bcaf5"},"vehicle_type_id":"4","last_reported":1707948394,"current_range_meters":17200,"station_id":"ce4bhqp2rcd13ifvqhng","pricing_plan_id":"cebpf4jnsgd1na2vs0mg"},{"bike_id":"0d568f49-9e25-417a-91e9-babe78949eca","system_id":"levelo_inurba_marseille","lat":43.317557,"lon":5.390173,"is_reserved":false,"is_disabled":false,"rental_uris":{"android":"levelo://app?vid=0d568f49-9e25-417a-91e9-babe78949eca","ios":"levelo://app?vid=0d568f49-9e25-417a-91e9-babe78949eca"},"vehicle_type_id":"4","last_reported":1707948394,"current_range_meters":30400,"station_id":"ce4bhqp2rcd13ifvqhng","pricing_plan_id":"cebpf4jnsgd1na2vs0mg"},{"bike_id":"bb6e54d1-0e60-4916-a05f-65ed728637f5","system_id":"levelo_inurba_marseille","lat":43.317557,"lon":5.390173,"is_reserved":false,"is_disabled":false,"rental_uris":{"android":"levelo://app?vid=bb6e54d1-0e60-4916-a05f-65ed728637f5","ios":"levelo://app?vid=bb6e54d1-0e60-4916-a05f-65ed728637f5"},"vehicle_type_id":"4","last_reported":1707948394,"current_range_meters":31200,"station_id":"ce4bhqp2rcd13ifvqhng","pricing_plan_id":"cebpf4jnsgd1na2vs0mg"},{"bike_id":"a66fec16-5c26-4073-bc2a-b4cafe2573db","system_id":"levelo_inurba_marseille","lat":43.2975,"lon":5.37929,"is_reserved":false,"is_disabled":false,"rental_uris":{"android":"levelo://app?vid=a66fec16-5c26-4073-bc2a-b4cafe2573db","ios":"levelo://app?vid=a66fec16-5c26-4073-bc2a-b4cafe2573db"},"vehicle_type_id":"4","last_reported":1707948394,"current_range_meters":0,"station_id":"","pricing_plan_id":"cebpf4jnsgd1na2vs0mg"},{"bike_id":"ab21ab42-c44c-4a9e-a668-483dcfe676df","system_id":"levelo_inurba_marseille","lat":43.295748,"lon":5.37522,"is_reserved":false,"is_disabled":false,"rental_uris":{"android":"levelo://app?vid=ab21ab42-c44c-4a9e-a668-483dcfe676df","ios":"levelo://app?vid=ab21ab42-c44c-4a9e-a668-483dcfe676df"},"vehicle_type_id":"4","last_reported":1707948394,"current_range_meters":23200,"station_id":"ce4bgh92rcd13ifvqb50","pricing_plan_id":"cebpf4jnsgd1na2vs0mg"},{"bike_id":"adf06dfc-c898-4a3c-865f-f588f7fd49f0","system_id":"levelo_inurba_marseille","lat":43.29577,"lon":5.37511,"is_reserved":false,"is_disabled":false,"rental_uris":{"android":"levelo://app?vid=adf06dfc-c898-4a3c-865f-f588f7fd49f0","ios":"levelo://app?vid=adf06dfc-c898-4a3c-865f-f588f7fd49f0"},"vehicle_type_id":"4","last_reported":1707948394,"current_range_meters":0,"station_id":"ce4bgh92rcd13ifvqb50","pricing_plan_id":"cebpf4jnsgd1na2vs0mg"},{"bike_id":"c7692928-5216-427c-8fc7-adfeed252dc2","system_id":"levelo_inurba_marseille","lat":43.304278,"lon":5.388868,"is_reserved":false,"is_disabled":false,"rental_uris":{"android":"levelo://app?vid=c7692928-5216-427c-8fc7-adfeed252dc2","ios":"levelo://app?vid=c7692928-5216-427c-8fc7-adfeed252dc2"},"vehicle_type_id":"4","last_reported":1707948394,"current_range_meters":8800,"station_id":"ce4bgk12rcd13ifvqbi0","pricing_plan_id":"cebpf4jnsgd1na2vs0mg"},{"bike_id":"4d2bb00e-b262-4e19-b7ab-27484f0fdcf1","system_id":"levelo_inurba_marseille","lat":43.304274,"lon":5.388873,"is_reserved":false,"is_disabled":false,"rental_uris":{"android":"levelo://app?vid=4d2bb00e-b262-4e19-b7ab-27484f0fdcf1","ios":"levelo://app?vid=4d2bb00e-b262-4e19-b7ab-27484f0fdcf1"},"vehicle_type_id":"4","last_reported":1707948394,"current_range_meters":6400,"station_id":"ce4bgk12rcd13ifvqbi0","pricing_plan_id":"cebpf4jnsgd1na2vs0mg"},{"bike_id":"e603ec54-2953-48aa-8fc8-c80c73ca05dd","system_id":"levelo_inurba_marseille","lat":43.304274,"lon":5.388873,"is_reserved":false,"is_disabled":false,"rental_uris":{"android":"levelo://app?vid=e603ec54-2953-48aa-8fc8-c80c73ca05dd","ios":"levelo://app?vid=e603ec54-2953-48aa-8fc8-c80c73ca05dd"},"vehicle_type_id":"4","last_reported":1707948394,"current_range_meters":25600,"station_id":"ce4bgk12rcd13ifvqbi0","pricing_plan_id":"cebpf4jnsgd1na2vs0mg"},{"bike_id":"dd6c2d74-0885-4086-9ea0-81b2a39c9482","system_id":"levelo_inurba_marseille","lat":43.304278,"lon":5.388868,"is_reserved":false,"is_disabled":false,"rental_uris":{"android":"levelo://app?vid=dd6c2d74-0885-4086-9ea0-81b2a39c9482","ios":"levelo://app?vid=dd6c2d74-0885-4086-9ea0-81b2a39c9482"},"vehicle_type_id":"4","last_reported":1707948394,"current_range_meters":16000,"station_id":"ce4bgk12rcd13ifvqbi0","pricing_plan_id":"cebpf4jnsgd1na2vs0mg"},{"bike_id":"3b0bf31b-5852-48b0-971f-fb8f06fb0b09","system_id":"levelo_inurba_marseille","lat":43.304278,"lon":5.388868,"is_reserved":false,"is_disabled":false,"rental_uris":{"android":"levelo://app?vid=3b0bf31b-5852-48b0-971f-fb8f06fb0b09","ios":"levelo://app?vid=3b0bf31b-5852-48b0-971f-fb8f06fb0b09"},"vehicle_type_id":"4","last_reported":1707948394,"current_range_meters":24800,"station_id":"ce4bgk12rcd13ifvqbi0","pricing_plan_id":"cebpf4jnsgd1na2vs0mg"},{"bike_id":"a42151d1-c406-4d9c-a23b-c856992783dc","system_id":"levelo_inurba_marseille","lat":43.295748,"lon":5.37522,"is_reserved":false,"is_disabled":false,"rental_uris":{"android":"levelo://app?vid=a42151d1-c406-4d9c-a23b-c856992783dc","ios":"levelo://app?vid=a42151d1-c406-4d9c-a23b-c856992783dc"},"vehicle_type_id":"4","last_reported":1707948394,"current_range_meters":16400,"station_id":"ce4bgh92rcd13ifvqb50","pricing_plan_id":"cebpf4jnsgd1na2vs0mg"},{"bike_id":"96351957-83cf-47c0-a0fd-8e5bde6d5195","system_id":"levelo_inurba_marseille","lat":43.299707,"lon":5.384859,"is_reserved":false,"is_disabled":false,"rental_uris":{"android":"levelo://app?vid=96351957-83cf-47c0-a0fd-8e5bde6d5195","ios":"levelo://app?vid=96351957-83cf-47c0-a0fd-8e5bde6d5195"},"vehicle_type_id":"4","last_reported":1707948394,"current_range_meters":8400,"station_id":"ce4bgj92rcd13ifvqbd0","pricing_plan_id":"cebpf4jnsgd1na2vs0mg"},{"bike_id":"4e545c51-2a0a-44eb-ae7b-3b553d70596e","system_id":"levelo_inurba_marseille","lat":43.299707,"lon":5.384859,"is_reserved":false,"is_disabled":false,"rental_uris":{"android":"levelo://app?vid=4e545c51-2a0a-44eb-ae7b-3b553d70596e","ios":"levelo://app?vid=4e545c51-2a0a-44eb-ae7b-3b553d70596e"},"vehicle_type_id":"4","last_reported":1707948394,"current_range_meters":7600,"station_id":"ce4bgj92rcd13ifvqbd0","pricing_plan_id":"cebpf4jnsgd1na2vs0mg"},{"bike_id":"86514e09-ca82-4a87-aa73-8945fadb85a9","system_id":"levelo_inurba_marseille","lat":43.299707,"lon":5.384859,"is_reserved":false,"is_disabled":false,"rental_uris":{"android":"levelo://app?vid=86514e09-ca82-4a87-aa73-8945fadb85a9","ios":"levelo://app?vid=86514e09-ca82-4a87-aa73-8945fadb85a9"},"vehicle_type_id":"4","last_reported":1707948394,"current_range_meters":6000,"station_id":"ce4bgj92rcd13ifvqbd0","pricing_plan_id":"cebpf4jnsgd1na2vs0mg"},{"bike_id":"c4f55f89-f81b-431b-b9be-7e33908aa0e1","system_id":"levelo_inurba_marseille","lat":43.299707,"lon":5.384859,"is_reserved":false,"is_disabled":false,"rental_uris":{"android":"levelo://app?vid=c4f55f89-f81b-431b-b9be-7e33908aa0e1","ios":"levelo://app?vid=c4f55f89-f81b-431b-b9be-7e33908aa0e1"},"vehicle_type_id":"4","last_reported":1707948394,"current_range_meters":31200,"station_id":"ce4bgj92rcd13ifvqbd0","pricing_plan_id":"cebpf4jnsgd1na2vs0mg"},{"bike_id":"a74197e6-77b1-4f4f-8d46-df0a0799560b","system_id":"levelo_inurba_marseille","lat":43.299707,"lon":5.384859,"is_reserved":false,"is_disabled":false,"rental_uris":{"android":"levelo://app?vid=a74197e6-77b1-4f4f-8d46-df0a0799560b","ios":"levelo://app?vid=a74197e6-77b1-4f4f-8d46-df0a0799560b"},"vehicle_type_id":"4","last_reported":1707948394,"current_range_meters":16800,"station_id":"ce4bgj92rcd13ifvqbd0","pricing_plan_id":"cebpf4jnsgd1na2vs0mg"},{"bike_id":"14c4240b-6c6d-4f04-9d81-35e919fc3827","system_id":"levelo_inurba_marseille","lat":43.32367,"lon":5.388836,"is_reserved":false,"is_disabled":false,"rental_uris":{"android":"levelo://app?vid=14c4240b-6c6d-4f04-9d81-35e919fc3827","ios":"levelo://app?vid=14c4240b-6c6d-4f04-9d81-35e919fc3827"},"vehicle_type_id":"4","last_reported":1707948394,"current_range_meters":10800,"station_id":"ce4bhqp2rcd13ifvqhog","pricing_plan_id":"cebpf4jnsgd1na2vs0mg"},{"bike_id":"cc36d624-ed66-4db6-bb3b-42695f88d813","system_id":"levelo_inurba_marseille","lat":43.32367,"lon":5.38882,"is_reserved":false,"is_disabled":false,"rental_uris":{"android":"levelo://app?vid=cc36d624-ed66-4db6-bb3b-42695f88d813","ios":"levelo://app?vid=cc36d624-ed66-4db6-bb3b-42695f88d813"},"vehicle_type_id":"4","last_reported":1707948394,"current_range_meters":8400,"station_id":"ce4bhqp2rcd13ifvqhog","pricing_plan_id":"cebpf4jnsgd1na2vs0mg"},{"bike_id":"9a785585-c85b-4fa3-85aa-80d29ca57d9f","system_id":"levelo_inurba_marseille","lat":43.32367,"lon":5.388836,"is_reserved":false,"is_disabled":false,"rental_uris":{"android":"levelo://app?vid=9a785585-c85b-4fa3-85aa-80d29ca57d9f","ios":"levelo://app?vid=9a785585-c85b-4fa3-85aa-80d29ca57d9f"},"vehicle_type_id":"4","last_reported":1707948394,"current_range_meters":12800,"station_id":"ce4bhqp2rcd13ifvqhog","pricing_plan_id":"cebpf4jnsgd1na2vs0mg"},{"bike_id":"410bf392-d4a4-44a9-8b1d-d839486dc03c","system_id":"levelo_inurba_marseille","lat":43.32361,"lon":5.38889,"is_reserved":false,"is_disabled":false,"rental_uris":{"android":"levelo://app?vid=410bf392-d4a4-44a9-8b1d-d839486dc03c","ios":"levelo://app?vid=410bf392-d4a4-44a9-8b1d-d839486dc03c"},"vehicle_type_id":"4","last_reported":1707948394,"current_range_meters":6000,"station_id":"ce4bhqp2rcd13ifvqhog","pricing_plan_id":"cebpf4jnsgd1na2vs0mg"},{"bike_id":"7b8ae2a5-fea4-420f-9e1d-5f67a20c6887","system_id":"levelo_inurba_marseille","lat":43.32367,"lon":5.388836,"is_reserved":false,"is_disabled":false,"rental_uris":{"android":"levelo://app?vid=7b8ae2a5-fea4-420f-9e1d-5f67a20c6887","ios":"levelo://app?vid=7b8ae2a5-fea4-420f-9e1d-5f67a20c6887"},"vehicle_type_id":"4","last_reported":1707948394,"current_range_meters":24400,"station_id":"ce4bhqp2rcd13ifvqhog","pricing_plan_id":"cebpf4jnsgd1na2vs0mg"},{"bike_id":"60b4e72a-683d-4d3a-b372-9758c47abe0f","system_id":"levelo_inurba_marseille","lat":43.32367,"lon":5.388836,"is_reserved":false,"is_disabled":false,"rental_uris":{"android":"levelo://app?vid=60b4e72a-683d-4d3a-b372-9758c47abe0f","ios":"levelo://app?vid=60b4e72a-683d-4d3a-b372-9758c47abe0f"},"vehicle_type_id":"4","last_reported":1707948394,"current_range_meters":400,"station_id":"ce4bhqp2rcd13ifvqhog","pricing_plan_id":"cebpf4jnsgd1na2vs0mg"},{"bike_id":"24aefc00-aad1-4b8c-bf24-dea0a292f589","system_id":"levelo_inurba_marseille","lat":43.3237,"lon":5.38889,"is_reserved":false,"is_disabled":false,"rental_uris":{"android":"levelo://app?vid=24aefc00-aad1-4b8c-bf24-dea0a292f589","ios":"levelo://app?vid=24aefc00-aad1-4b8c-bf24-dea0a292f589"},"vehicle_type_id":"4","last_reported":1707948394,"current_range_meters":16000,"station_id":"ce4bhqp2rcd13ifvqhog","pricing_plan_id":"cebpf4jnsgd1na2vs0mg"},{"bike_id":"20e5f2ad-9f2c-493e-ac06-9865b2c8d0fa","system_id":"levelo_inurba_marseille","lat":43.299112,"lon":5.386463,"is_reserved":false,"is_disabled":false,"rental_uris":{"android":"levelo://app?vid=20e5f2ad-9f2c-493e-ac06-9865b2c8d0fa","ios":"levelo://app?vid=20e5f2ad-9f2c-493e-ac06-9865b2c8d0fa"},"vehicle_type_id":"4","last_reported":1707948394,"current_range_meters":17600,"station_id":"","pricing_plan_id":"cebpf4jnsgd1na2vs0mg"},{"bike_id":"2fecb683-400d-4cac-87ce-9b2f739795db","system_id":"levelo_inurba_marseille","lat":43.292749,"lon":5.368402,"is_reserved":false,"is_disabled":false,"rental_uris":{"android":"levelo://app?vid=2fecb683-400d-4cac-87ce-9b2f739795db","ios":"levelo://app?vid=2fecb683-400d-4cac-87ce-9b2f739795db"},"vehicle_type_id":"4","last_reported":1707948394,"current_range_meters":0,"station_id":"ce4bhbp2rcd13ifvqesg","pricing_plan_id":"cebpf4jnsgd1na2vs0mg"},{"bike_id":"0fc4d0eb-e7df-4bde-9b30-581d42408287","system_id":"levelo_inurba_marseille","lat":43.305994,"lon":5.393687,"is_reserved":false,"is_disabled":false,"rental_uris":{"android":"levelo://app?vid=0fc4d0eb-e7df-4bde-9b30-581d42408287","ios":"levelo://app?vid=0fc4d0eb-e7df-4bde-9b30-581d42408287"},"vehicle_type_id":"4","last_reported":1707948394,"current_range_meters":24000,"station_id":"ce4bh0p2rcd13ifvqd80","pricing_plan_id":"cebpf4jnsgd1na2vs0mg"},{"bike_id":"1261291f-6907-48fd-84ae-f692e5d28efe","system_id":"levelo_inurba_marseille","lat":43.305994,"lon":5.393687,"is_reserved":false,"is_disabled":false,"rental_uris":{"android":"levelo://app?vid=1261291f-6907-48fd-84ae-f692e5d28efe","ios":"levelo://app?vid=1261291f-6907-48fd-84ae-f692e5d28efe"},"vehicle_type_id":"4","last_reported":1707948394,"current_range_meters":9200,"station_id":"ce4bh0p2rcd13ifvqd80","pricing_plan_id":"cebpf4jnsgd1na2vs0mg"},{"bike_id":"6b1b40eb-7df6-4e5f-b6b9-8345877823d9","system_id":"levelo_inurba_marseille","lat":43.305986,"lon":5.393646,"is_reserved":false,"is_disabled":false,"rental_uris":{"android":"levelo://app?vid=6b1b40eb-7df6-4e5f-b6b9-8345877823d9","ios":"levelo://app?vid=6b1b40eb-7df6-4e5f-b6b9-8345877823d9"},"vehicle_type_id":"4","last_reported":1707948394,"current_range_meters":0,"station_id":"","pricing_plan_id":"cebpf4jnsgd1na2vs0mg"},{"bike_id":"8510471c-3813-4345-ae94-08ffb0948045","system_id":"levelo_inurba_marseille","lat":43.305994,"lon":5.393687,"is_reserved":false,"is_disabled":false,"rental_uris":{"android":"levelo://app?vid=8510471c-3813-4345-ae94-08ffb0948045","ios":"levelo://app?vid=8510471c-3813-4345-ae94-08ffb0948045"},"vehicle_type_id":"4","last_reported":1707948394,"current_range_meters":20400,"station_id":"ce4bh0p2rcd13ifvqd80","pricing_plan_id":"cebpf4jnsgd1na2vs0mg"},{"bike_id":"39d1b64e-33d8-4ba7-b175-9da5e513592c","system_id":"levelo_inurba_marseille","lat":43.302992,"lon":5.392136,"is_reserved":false,"is_disabled":false,"rental_uris":{"android":"levelo://app?vid=39d1b64e-33d8-4ba7-b175-9da5e513592c","ios":"levelo://app?vid=39d1b64e-33d8-4ba7-b175-9da5e513592c"},"vehicle_type_id":"4","last_reported":1707948394,"current_range_meters":17200,"station_id":"ce4bgkh2rcd13ifvqbk0","pricing_plan_id":"cebpf4jnsgd1na2vs0mg"},{"bike_id":"e0d6539b-2a48-4794-862a-51b5231bf25f","system_id":"levelo_inurba_marseille","lat":43.29233,"lon":5.36047,"is_reserved":false,"is_disabled":false,"rental_uris":{"android":"levelo://app?vid=e0d6539b-2a48-4794-862a-51b5231bf25f","ios":"levelo://app?vid=e0d6539b-2a48-4794-862a-51b5231bf25f"},"vehicle_type_id":"4","last_reported":1707948394,"current_range_meters":14800,"station_id":"ce4bhbh2rcd13ifvqeqg","pricing_plan_id":"cebpf4jnsgd1na2vs0mg"},{"bike_id":"56ba3c8b-36f7-49b0-98d8-ac4547b42356","system_id":"levelo_inurba_marseille","lat":43.30085,"lon":5.390856,"is_reserved":false,"is_disabled":false,"rental_uris":{"android":"levelo://app?vid=56ba3c8b-36f7-49b0-98d8-ac4547b42356","ios":"levelo://app?vid=56ba3c8b-36f7-49b0-98d8-ac4547b42356"},"vehicle_type_id":"4","last_reported":1707948394,"current_range_meters":11600,"station_id":"ce4bh192rcd13ifvqdb0","pricing_plan_id":"cebpf4jnsgd1na2vs0mg"},{"bike_id":"dcaee538-aea4-47ce-8a2a-88089efbbd80","system_id":"levelo_inurba_marseille","lat":43.292311,"lon":5.360731,"is_reserved":false,"is_disabled":false,"rental_uris":{"android":"levelo://app?vid=dcaee538-aea4-47ce-8a2a-88089efbbd80","ios":"levelo://app?vid=dcaee538-aea4-47ce-8a2a-88089efbbd80"},"vehicle_type_id":"4","last_reported":1707948394,"current_range_meters":26400,"station_id":"ce4bhbh2rcd13ifvqeqg","pricing_plan_id":"cebpf4jnsgd1na2vs0mg"},{"bike_id":"60c17cb1-0c44-41a7-9314-abf1b9431948","system_id":"levelo_inurba_marseille","lat":43.300852,"lon":5.390859,"is_reserved":false,"is_disabled":false,"rental_uris":{"android":"levelo://app?vid=60c17cb1-0c44-41a7-9314-abf1b9431948","ios":"levelo://app?vid=60c17cb1-0c44-41a7-9314-abf1b9431948"},"vehicle_type_id":"4","last_reported":1707948394,"current_range_meters":26800,"station_id":"ce4bh192rcd13ifvqdb0","pricing_plan_id":"cebpf4jnsgd1na2vs0mg"},{"bike_id":"441508e8-b84c-45cf-881d-9998d18b1f06","system_id":"levelo_inurba_marseille","lat":43.298764,"lon":5.388973,"is_reserved":false,"is_disabled":false,"rental_uris":{"android":"levelo://app?vid=441508e8-b84c-45cf-881d-9998d18b1f06","ios":"levelo://app?vid=441508e8-b84c-45cf-881d-9998d18b1f06"},"vehicle_type_id":"4","last_reported":1707948394,"current_range_meters":8800,"station_id":"ce4bh392rcd13ifvqdl0","pricing_plan_id":"cebpf4jnsgd1na2vs0mg"},{"bike_id":"4832641f-bef0-4f02-aef1-c0211fda2e9d","system_id":"levelo_inurba_marseille","lat":43.298764,"lon":5.388973,"is_reserved":false,"is_disabled":false,"rental_uris":{"android":"levelo://app?vid=4832641f-bef0-4f02-aef1-c0211fda2e9d","ios":"levelo://app?vid=4832641f-bef0-4f02-aef1-c0211fda2e9d"},"vehicle_type_id":"4","last_reported":1707948394,"current_range_meters":5200,"station_id":"ce4bh392rcd13ifvqdl0","pricing_plan_id":"cebpf4jnsgd1na2vs0mg"},{"bike_id":"9e3dffc9-db3f-4d9e-ad0c-168ddad737d8","system_id":"levelo_inurba_marseille","lat":43.298764,"lon":5.388973,"is_reserved":false,"is_disabled":false,"rental_uris":{"android":"levelo://app?vid=9e3dffc9-db3f-4d9e-ad0c-168ddad737d8","ios":"levelo://app?vid=9e3dffc9-db3f-4d9e-ad0c-168ddad737d8"},"vehicle_type_id":"4","last_reported":1707948394,"current_range_meters":15600,"station_id":"ce4bh392rcd13ifvqdl0","pricing_plan_id":"cebpf4jnsgd1na2vs0mg"},{"bike_id":"66aff2d5-0157-4520-8408-f9088a9051ea","system_id":"levelo_inurba_marseille","lat":43.298764,"lon":5.388973,"is_reserved":false,"is_disabled":false,"rental_uris":{"android":"levelo://app?vid=66aff2d5-0157-4520-8408-f9088a9051ea","ios":"levelo://app?vid=66aff2d5-0157-4520-8408-f9088a9051ea"},"vehicle_type_id":"4","last_reported":1707948394,"current_range_meters":15200,"station_id":"ce4bh392rcd13ifvqdl0","pricing_plan_id":"cebpf4jnsgd1na2vs0mg"},{"bike_id":"6318754d-57cd-457b-9e62-23b0edcf4321","system_id":"levelo_inurba_marseille","lat":43.313291,"lon":5.396838,"is_reserved":false,"is_disabled":false,"rental_uris":{"android":"levelo://app?vid=6318754d-57cd-457b-9e62-23b0edcf4321","ios":"levelo://app?vid=6318754d-57cd-457b-9e62-23b0edcf4321"},"vehicle_type_id":"4","last_reported":1707948394,"current_range_meters":800,"station_id":"ce4bgvp2rcd13ifvqcu0","pricing_plan_id":"cebpf4jnsgd1na2vs0mg"},{"bike_id":"12d3d59a-08ed-4fd5-9bf4-952936502efb","system_id":"levelo_inurba_marseille","lat":43.30886,"lon":5.39633,"is_reserved":false,"is_disabled":false,"rental_uris":{"android":"levelo://app?vid=12d3d59a-08ed-4fd5-9bf4-952936502efb","ios":"levelo://app?vid=12d3d59a-08ed-4fd5-9bf4-952936502efb"},"vehicle_type_id":"4","last_reported":1707948394,"current_range_meters":18800,"station_id":"ce4bh012rcd13ifvqcv0","pricing_plan_id":"cebpf4jnsgd1na2vs0mg"},{"bike_id":"bb6c94db-f3f5-42a6-8870-d1d5bd46d02b","system_id":"levelo_inurba_marseille","lat":43.309038,"lon":5.396546,"is_reserved":false,"is_disabled":false,"rental_uris":{"android":"levelo://app?vid=bb6c94db-f3f5-42a6-8870-d1d5bd46d02b","ios":"levelo://app?vid=bb6c94db-f3f5-42a6-8870-d1d5bd46d02b"},"vehicle_type_id":"4","last_reported":1707948394,"current_range_meters":30400,"station_id":"ce4bh012rcd13ifvqcv0","pricing_plan_id":"cebpf4jnsgd1na2vs0mg"},{"bike_id":"415ec480-2d4c-4239-a801-f3425cccc344","system_id":"levelo_inurba_marseille","lat":43.29197,"lon":5.35802,"is_reserved":false,"is_disabled":false,"rental_uris":{"android":"levelo://app?vid=415ec480-2d4c-4239-a801-f3425cccc344","ios":"levelo://app?vid=415ec480-2d4c-4239-a801-f3425cccc344"},"vehicle_type_id":"4","last_reported":1707948394,"current_range_meters":30000,"station_id":"ce4bhb12rcd13ifvqel0","pricing_plan_id":"cebpf4jnsgd1na2vs0mg"},{"bike_id":"41d7be42-4771-4c76-955d-aba7c0310b10","system_id":"levelo_inurba_marseille","lat":43.309038,"lon":5.396546,"is_reserved":false,"is_disabled":false,"rental_uris":{"android":"levelo://app?vid=41d7be42-4771-4c76-955d-aba7c0310b10","ios":"levelo://app?vid=41d7be42-4771-4c76-955d-aba7c0310b10"},"vehicle_type_id":"4","last_reported":1707948394,"current_range_meters":26000,"station_id":"ce4bh012rcd13ifvqcv0","pricing_plan_id":"cebpf4jnsgd1na2vs0mg"},{"bike_id":"5f01c236-b9eb-439a-86d7-a07f58180c4d","system_id":"levelo_inurba_marseille","lat":43.308876,"lon":5.396387,"is_reserved":false,"is_disabled":false,"rental_uris":{"android":"levelo://app?vid=5f01c236-b9eb-439a-86d7-a07f58180c4d","ios":"levelo://app?vid=5f01c236-b9eb-439a-86d7-a07f58180c4d"},"vehicle_type_id":"4","last_reported":1707948394,"current_range_meters":6000,"station_id":"ce4bh012rcd13ifvqcv0","pricing_plan_id":"cebpf4jnsgd1na2vs0mg"},{"bike_id":"33b62021-2d51-466c-b4be-b0ce89d69a54","system_id":"levelo_inurba_marseille","lat":43.308856,"lon":5.396387,"is_reserved":false,"is_disabled":false,"rental_uris":{"android":"levelo://app?vid=33b62021-2d51-466c-b4be-b0ce89d69a54","ios":"levelo://app?vid=33b62021-2d51-466c-b4be-b0ce89d69a54"},"vehicle_type_id":"4","last_reported":1707948394,"current_range_meters":22000,"station_id":"ce4bh012rcd13ifvqcv0","pricing_plan_id":"cebpf4jnsgd1na2vs0mg"},{"bike_id":"53b23731-ec39-4eb9-ade2-9e226873b0a7","system_id":"levelo_inurba_marseille","lat":43.308827,"lon":5.396413,"is_reserved":false,"is_disabled":false,"rental_uris":{"android":"levelo://app?vid=53b23731-ec39-4eb9-ade2-9e226873b0a7","ios":"levelo://app?vid=53b23731-ec39-4eb9-ade2-9e226873b0a7"},"vehicle_type_id":"4","last_reported":1707948394,"current_range_meters":800,"station_id":"ce4bh012rcd13ifvqcv0","pricing_plan_id":"cebpf4jnsgd1na2vs0mg"},{"bike_id":"c40a441f-b699-4482-a0aa-5bd2acc1afa0","system_id":"levelo_inurba_marseille","lat":43.313291,"lon":5.396838,"is_reserved":false,"is_disabled":false,"rental_uris":{"android":"levelo://app?vid=c40a441f-b699-4482-a0aa-5bd2acc1afa0","ios":"levelo://app?vid=c40a441f-b699-4482-a0aa-5bd2acc1afa0"},"vehicle_type_id":"4","last_reported":1707948394,"current_range_meters":8800,"station_id":"ce4bgvp2rcd13ifvqcu0","pricing_plan_id":"cebpf4jnsgd1na2vs0mg"},{"bike_id":"6680fa66-514b-4f2f-8fa3-69f3c9a608f2","system_id":"levelo_inurba_marseille","lat":43.313291,"lon":5.396838,"is_reserved":false,"is_disabled":false,"rental_uris":{"android":"levelo://app?vid=6680fa66-514b-4f2f-8fa3-69f3c9a608f2","ios":"levelo://app?vid=6680fa66-514b-4f2f-8fa3-69f3c9a608f2"},"vehicle_type_id":"4","last_reported":1707948394,"current_range_meters":22800,"station_id":"ce4bgvp2rcd13ifvqcu0","pricing_plan_id":"cebpf4jnsgd1na2vs0mg"},{"bike_id":"40c1a6f5-3321-47e5-b70e-7466e814095c","system_id":"levelo_inurba_marseille","lat":43.313291,"lon":5.396838,"is_reserved":false,"is_disabled":false,"rental_uris":{"android":"levelo://app?vid=40c1a6f5-3321-47e5-b70e-7466e814095c","ios":"levelo://app?vid=40c1a6f5-3321-47e5-b70e-7466e814095c"},"vehicle_type_id":"4","last_reported":1707948394,"current_range_meters":24000,"station_id":"ce4bgvp2rcd13ifvqcu0","pricing_plan_id":"cebpf4jnsgd1na2vs0mg"},{"bike_id":"0df2a391-2880-44c2-ad88-274f6d5bf378","system_id":"levelo_inurba_marseille","lat":43.308798,"lon":5.396464,"is_reserved":false,"is_disabled":false,"rental_uris":{"android":"levelo://app?vid=0df2a391-2880-44c2-ad88-274f6d5bf378","ios":"levelo://app?vid=0df2a391-2880-44c2-ad88-274f6d5bf378"},"vehicle_type_id":"4","last_reported":1707948394,"current_range_meters":21200,"station_id":"ce4bh012rcd13ifvqcv0","pricing_plan_id":"cebpf4jnsgd1na2vs0mg"},{"bike_id":"52b13021-72a3-4806-bc77-baf67751191e","system_id":"levelo_inurba_marseille","lat":43.313291,"lon":5.396838,"is_reserved":false,"is_disabled":false,"rental_uris":{"android":"levelo://app?vid=52b13021-72a3-4806-bc77-baf67751191e","ios":"levelo://app?vid=52b13021-72a3-4806-bc77-baf67751191e"},"vehicle_type_id":"4","last_reported":1707948394,"current_range_meters":15600,"station_id":"ce4bgvp2rcd13ifvqcu0","pricing_plan_id":"cebpf4jnsgd1na2vs0mg"},{"bike_id":"482d5379-516b-45af-a179-28f4bc89f307","system_id":"levelo_inurba_marseille","lat":43.313291,"lon":5.396838,"is_reserved":false,"is_disabled":false,"rental_uris":{"android":"levelo://app?vid=482d5379-516b-45af-a179-28f4bc89f307","ios":"levelo://app?vid=482d5379-516b-45af-a179-28f4bc89f307"},"vehicle_type_id":"4","last_reported":1707948394,"current_range_meters":17600,"station_id":"ce4bgvp2rcd13ifvqcu0","pricing_plan_id":"cebpf4jnsgd1na2vs0mg"},{"bike_id":"689707f0-cf35-46a5-93a6-d2c4c262cf1e","system_id":"levelo_inurba_marseille","lat":43.30885,"lon":5.39654,"is_reserved":false,"is_disabled":false,"rental_uris":{"android":"levelo://app?vid=689707f0-cf35-46a5-93a6-d2c4c262cf1e","ios":"levelo://app?vid=689707f0-cf35-46a5-93a6-d2c4c262cf1e"},"vehicle_type_id":"4","last_reported":1707948394,"current_range_meters":3200,"station_id":"ce4bh012rcd13ifvqcv0","pricing_plan_id":"cebpf4jnsgd1na2vs0mg"},{"bike_id":"145fbc22-336e-4f0e-bd50-f82634132dd8","system_id":"levelo_inurba_marseille","lat":43.309038,"lon":5.396546,"is_reserved":false,"is_disabled":false,"rental_uris":{"android":"levelo://app?vid=145fbc22-336e-4f0e-bd50-f82634132dd8","ios":"levelo://app?vid=145fbc22-336e-4f0e-bd50-f82634132dd8"},"vehicle_type_id":"4","last_reported":1707948394,"current_range_meters":29600,"station_id":"ce4bh012rcd13ifvqcv0","pricing_plan_id":"cebpf4jnsgd1na2vs0mg"},{"bike_id":"e8eab736-9d99-43ab-9fae-1563662e1946","system_id":"levelo_inurba_marseille","lat":43.309038,"lon":5.396546,"is_reserved":false,"is_disabled":false,"rental_uris":{"android":"levelo://app?vid=e8eab736-9d99-43ab-9fae-1563662e1946","ios":"levelo://app?vid=e8eab736-9d99-43ab-9fae-1563662e1946"},"vehicle_type_id":"4","last_reported":1707948394,"current_range_meters":30800,"station_id":"ce4bh012rcd13ifvqcv0","pricing_plan_id":"cebpf4jnsgd1na2vs0mg"},{"bike_id":"4d273257-ee93-4b4f-9d26-34031dca70bb","system_id":"levelo_inurba_marseille","lat":43.291994,"lon":5.357886,"is_reserved":false,"is_disabled":false,"rental_uris":{"android":"levelo://app?vid=4d273257-ee93-4b4f-9d26-34031dca70bb","ios":"levelo://app?vid=4d273257-ee93-4b4f-9d26-34031dca70bb"},"vehicle_type_id":"4","last_reported":1707948394,"current_range_meters":24000,"station_id":"ce4bhb12rcd13ifvqel0","pricing_plan_id":"cebpf4jnsgd1na2vs0mg"},{"bike_id":"4f9b503d-4af5-4340-9207-0d0bbf38c0eb","system_id":"levelo_inurba_marseille","lat":43.30877,"lon":5.39664,"is_reserved":false,"is_disabled":false,"rental_uris":{"android":"levelo://app?vid=4f9b503d-4af5-4340-9207-0d0bbf38c0eb","ios":"levelo://app?vid=4f9b503d-4af5-4340-9207-0d0bbf38c0eb"},"vehicle_type_id":"4","last_reported":1707948394,"current_range_meters":3600,"station_id":"ce4bh012rcd13ifvqcv0","pricing_plan_id":"cebpf4jnsgd1na2vs0mg"},{"bike_id":"b83b29fa-0664-4eef-b136-180288f138b2","system_id":"levelo_inurba_marseille","lat":43.290779,"lon":5.371482,"is_reserved":false,"is_disabled":false,"rental_uris":{"android":"levelo://app?vid=b83b29fa-0664-4eef-b136-180288f138b2","ios":"levelo://app?vid=b83b29fa-0664-4eef-b136-180288f138b2"},"vehicle_type_id":"4","last_reported":1707948394,"current_range_meters":24800,"station_id":"ce4bh5p2rcd13ifvqe4g","pricing_plan_id":"cebpf4jnsgd1na2vs0mg"},{"bike_id":"8c5ac7e7-80ec-4be6-ab6f-867dbd4ac9b3","system_id":"levelo_inurba_marseille","lat":43.290779,"lon":5.371482,"is_reserved":false,"is_disabled":false,"rental_uris":{"android":"levelo://app?vid=8c5ac7e7-80ec-4be6-ab6f-867dbd4ac9b3","ios":"levelo://app?vid=8c5ac7e7-80ec-4be6-ab6f-867dbd4ac9b3"},"vehicle_type_id":"4","last_reported":1707948394,"current_range_meters":10800,"station_id":"ce4bh5p2rcd13ifvqe4g","pricing_plan_id":"cebpf4jnsgd1na2vs0mg"},{"bike_id":"58830d3c-a585-4c86-ad47-9e13fe327df6","system_id":"levelo_inurba_marseille","lat":43.302008,"lon":5.394694,"is_reserved":false,"is_disabled":false,"rental_uris":{"android":"levelo://app?vid=58830d3c-a585-4c86-ad47-9e13fe327df6","ios":"levelo://app?vid=58830d3c-a585-4c86-ad47-9e13fe327df6"},"vehicle_type_id":"4","last_reported":1707948394,"current_range_meters":2400,"station_id":"ce4bh0p2rcd13ifvqd70","pricing_plan_id":"cebpf4jnsgd1na2vs0mg"},{"bike_id":"061fe64c-0263-4719-8ca5-baced9841ff2","system_id":"levelo_inurba_marseille","lat":43.302008,"lon":5.394694,"is_reserved":false,"is_disabled":false,"rental_uris":{"android":"levelo://app?vid=061fe64c-0263-4719-8ca5-baced9841ff2","ios":"levelo://app?vid=061fe64c-0263-4719-8ca5-baced9841ff2"},"vehicle_type_id":"4","last_reported":1707948394,"current_range_meters":16800,"station_id":"ce4bh0p2rcd13ifvqd70","pricing_plan_id":"cebpf4jnsgd1na2vs0mg"},{"bike_id":"ea1bed28-b8e4-4be5-9b25-151f39b31d56","system_id":"levelo_inurba_marseille","lat":43.302008,"lon":5.394694,"is_reserved":false,"is_disabled":false,"rental_uris":{"android":"levelo://app?vid=ea1bed28-b8e4-4be5-9b25-151f39b31d56","ios":"levelo://app?vid=ea1bed28-b8e4-4be5-9b25-151f39b31d56"},"vehicle_type_id":"4","last_reported":1707948394,"current_range_meters":22400,"station_id":"ce4bh0p2rcd13ifvqd70","pricing_plan_id":"cebpf4jnsgd1na2vs0mg"},{"bike_id":"93d5c59a-9c2b-4efe-a9ac-500decaaba10","system_id":"levelo_inurba_marseille","lat":43.290631,"lon":5.359244,"is_reserved":false,"is_disabled":false,"rental_uris":{"android":"levelo://app?vid=93d5c59a-9c2b-4efe-a9ac-500decaaba10","ios":"levelo://app?vid=93d5c59a-9c2b-4efe-a9ac-500decaaba10"},"vehicle_type_id":"4","last_reported":1707948394,"current_range_meters":11600,"station_id":"ce4bha92rcd13ifvqeg0","pricing_plan_id":"cebpf4jnsgd1na2vs0mg"},{"bike_id":"cc8f68c8-09c2-4cd5-a5f3-7dcc0283f10e","system_id":"levelo_inurba_marseille","lat":43.290631,"lon":5.359244,"is_reserved":false,"is_disabled":false,"rental_uris":{"android":"levelo://app?vid=cc8f68c8-09c2-4cd5-a5f3-7dcc0283f10e","ios":"levelo://app?vid=cc8f68c8-09c2-4cd5-a5f3-7dcc0283f10e"},"vehicle_type_id":"4","last_reported":1707948394,"current_range_meters":9600,"station_id":"ce4bha92rcd13ifvqeg0","pricing_plan_id":"cebpf4jnsgd1na2vs0mg"},{"bike_id":"4d40184a-8776-49ce-b459-1f4f5090d458","system_id":"levelo_inurba_marseille","lat":43.290631,"lon":5.359244,"is_reserved":false,"is_disabled":false,"rental_uris":{"android":"levelo://app?vid=4d40184a-8776-49ce-b459-1f4f5090d458","ios":"levelo://app?vid=4d40184a-8776-49ce-b459-1f4f5090d458"},"vehicle_type_id":"4","last_reported":1707948394,"current_range_meters":31200,"station_id":"ce4bha92rcd13ifvqeg0","pricing_plan_id":"cebpf4jnsgd1na2vs0mg"},{"bike_id":"c8b8d1eb-ee7b-4ef6-84b9-864aab6fc47b","system_id":"levelo_inurba_marseille","lat":43.290631,"lon":5.359244,"is_reserved":false,"is_disabled":false,"rental_uris":{"android":"levelo://app?vid=c8b8d1eb-ee7b-4ef6-84b9-864aab6fc47b","ios":"levelo://app?vid=c8b8d1eb-ee7b-4ef6-84b9-864aab6fc47b"},"vehicle_type_id":"4","last_reported":1707948394,"current_range_meters":21200,"station_id":"ce4bha92rcd13ifvqeg0","pricing_plan_id":"cebpf4jnsgd1na2vs0mg"},{"bike_id":"58718ff2-9d09-4464-9116-02ff55fb3365","system_id":"levelo_inurba_marseille","lat":43.294153,"lon":5.386305,"is_reserved":false,"is_disabled":false,"rental_uris":{"android":"levelo://app?vid=58718ff2-9d09-4464-9116-02ff55fb3365","ios":"levelo://app?vid=58718ff2-9d09-4464-9116-02ff55fb3365"},"vehicle_type_id":"4","last_reported":1707948394,"current_range_meters":26400,"station_id":"ce4bh2h2rcd13ifvqdh0","pricing_plan_id":"cebpf4jnsgd1na2vs0mg"},{"bike_id":"f028c85f-e77d-4c93-acec-550540c8bd8c","system_id":"levelo_inurba_marseille","lat":43.294153,"lon":5.386305,"is_reserved":false,"is_disabled":false,"rental_uris":{"android":"levelo://app?vid=f028c85f-e77d-4c93-acec-550540c8bd8c","ios":"levelo://app?vid=f028c85f-e77d-4c93-acec-550540c8bd8c"},"vehicle_type_id":"4","last_reported":1707948394,"current_range_meters":800,"station_id":"ce4bh2h2rcd13ifvqdh0","pricing_plan_id":"cebpf4jnsgd1na2vs0mg"},{"bike_id":"779a8e98-b30d-4577-b0ea-be76cb828c7a","system_id":"levelo_inurba_marseille","lat":43.290319,"lon":5.375732,"is_reserved":false,"is_disabled":false,"rental_uris":{"android":"levelo://app?vid=779a8e98-b30d-4577-b0ea-be76cb828c7a","ios":"levelo://app?vid=779a8e98-b30d-4577-b0ea-be76cb828c7a"},"vehicle_type_id":"4","last_reported":1707948394,"current_range_meters":30400,"station_id":"ce4bh692rcd13ifvqe90","pricing_plan_id":"cebpf4jnsgd1na2vs0mg"},{"bike_id":"69937058-8b67-4961-a590-543672134ec3","system_id":"levelo_inurba_marseille","lat":43.29419,"lon":5.38621,"is_reserved":false,"is_disabled":false,"rental_uris":{"android":"levelo://app?vid=69937058-8b67-4961-a590-543672134ec3","ios":"levelo://app?vid=69937058-8b67-4961-a590-543672134ec3"},"vehicle_type_id":"4","last_reported":1707948394,"current_range_meters":4000,"station_id":"ce4bh2h2rcd13ifvqdh0","pricing_plan_id":"cebpf4jnsgd1na2vs0mg"},{"bike_id":"2454b331-47c4-45e8-85ab-611d47c4d43b","system_id":"levelo_inurba_marseille","lat":43.294153,"lon":5.386305,"is_reserved":false,"is_disabled":false,"rental_uris":{"android":"levelo://app?vid=2454b331-47c4-45e8-85ab-611d47c4d43b","ios":"levelo://app?vid=2454b331-47c4-45e8-85ab-611d47c4d43b"},"vehicle_type_id":"4","last_reported":1707948394,"current_range_meters":20800,"station_id":"ce4bh2h2rcd13ifvqdh0","pricing_plan_id":"cebpf4jnsgd1na2vs0mg"},{"bike_id":"b09656b6-d69f-4f90-934b-eafb1df30e0a","system_id":"levelo_inurba_marseille","lat":43.294153,"lon":5.386305,"is_reserved":false,"is_disabled":false,"rental_uris":{"android":"levelo://app?vid=b09656b6-d69f-4f90-934b-eafb1df30e0a","ios":"levelo://app?vid=b09656b6-d69f-4f90-934b-eafb1df30e0a"},"vehicle_type_id":"4","last_reported":1707948394,"current_range_meters":24000,"station_id":"ce4bh2h2rcd13ifvqdh0","pricing_plan_id":"cebpf4jnsgd1na2vs0mg"},{"bike_id":"de26cbec-753a-47b1-ad13-d80ddc04d5e4","system_id":"levelo_inurba_marseille","lat":43.290319,"lon":5.375732,"is_reserved":false,"is_disabled":false,"rental_uris":{"android":"levelo://app?vid=de26cbec-753a-47b1-ad13-d80ddc04d5e4","ios":"levelo://app?vid=de26cbec-753a-47b1-ad13-d80ddc04d5e4"},"vehicle_type_id":"4","last_reported":1707948394,"current_range_meters":24800,"station_id":"ce4bh692rcd13ifvqe90","pricing_plan_id":"cebpf4jnsgd1na2vs0mg"},{"bike_id":"26782a59-3d70-44a6-aa3b-33095ac8744d","system_id":"levelo_inurba_marseille","lat":43.294153,"lon":5.386305,"is_reserved":false,"is_disabled":false,"rental_uris":{"android":"levelo://app?vid=26782a59-3d70-44a6-aa3b-33095ac8744d","ios":"levelo://app?vid=26782a59-3d70-44a6-aa3b-33095ac8744d"},"vehicle_type_id":"4","last_reported":1707948394,"current_range_meters":15200,"station_id":"ce4bh2h2rcd13ifvqdh0","pricing_plan_id":"cebpf4jnsgd1na2vs0mg"},{"bike_id":"a3cd30c4-81e2-4842-a798-7d6b9d00b05b","system_id":"levelo_inurba_marseille","lat":43.29418,"lon":5.38627,"is_reserved":false,"is_disabled":false,"rental_uris":{"android":"levelo://app?vid=a3cd30c4-81e2-4842-a798-7d6b9d00b05b","ios":"levelo://app?vid=a3cd30c4-81e2-4842-a798-7d6b9d00b05b"},"vehicle_type_id":"4","last_reported":1707948394,"current_range_meters":30400,"station_id":"ce4bh2h2rcd13ifvqdh0","pricing_plan_id":"cebpf4jnsgd1na2vs0mg"},{"bike_id":"9a404653-7a94-4708-a0db-721269989304","system_id":"levelo_inurba_marseille","lat":43.29416,"lon":5.38624,"is_reserved":false,"is_disabled":false,"rental_uris":{"android":"levelo://app?vid=9a404653-7a94-4708-a0db-721269989304","ios":"levelo://app?vid=9a404653-7a94-4708-a0db-721269989304"},"vehicle_type_id":"4","last_reported":1707948394,"current_range_meters":2000,"station_id":"ce4bh2h2rcd13ifvqdh0","pricing_plan_id":"cebpf4jnsgd1na2vs0mg"},{"bike_id":"4488c176-69b8-48cf-b12e-0fd5048df858","system_id":"levelo_inurba_marseille","lat":43.29421,"lon":5.38635,"is_reserved":false,"is_disabled":false,"rental_uris":{"android":"levelo://app?vid=4488c176-69b8-48cf-b12e-0fd5048df858","ios":"levelo://app?vid=4488c176-69b8-48cf-b12e-0fd5048df858"},"vehicle_type_id":"4","last_reported":1707948394,"current_range_meters":4400,"station_id":"ce4bh2h2rcd13ifvqdh0","pricing_plan_id":"cebpf4jnsgd1na2vs0mg"},{"bike_id":"7121fc7d-0244-425a-a234-db20755b8b18","system_id":"levelo_inurba_marseille","lat":43.289184,"lon":5.366408,"is_reserved":false,"is_disabled":false,"rental_uris":{"android":"levelo://app?vid=7121fc7d-0244-425a-a234-db20755b8b18","ios":"levelo://app?vid=7121fc7d-0244-425a-a234-db20755b8b18"},"vehicle_type_id":"4","last_reported":1707948394,"current_range_meters":14800,"station_id":"ce4bhap2rcd13ifvqek0","pricing_plan_id":"cebpf4jnsgd1na2vs0mg"},{"bike_id":"d73e0e8c-c783-4ea4-8038-ba95b3e1820d","system_id":"levelo_inurba_marseille","lat":43.289184,"lon":5.366408,"is_reserved":false,"is_disabled":false,"rental_uris":{"android":"levelo://app?vid=d73e0e8c-c783-4ea4-8038-ba95b3e1820d","ios":"levelo://app?vid=d73e0e8c-c783-4ea4-8038-ba95b3e1820d"},"vehicle_type_id":"4","last_reported":1707948394,"current_range_meters":12000,"station_id":"ce4bhap2rcd13ifvqek0","pricing_plan_id":"cebpf4jnsgd1na2vs0mg"},{"bike_id":"0de33d96-e867-4779-8be7-5078986de686","system_id":"levelo_inurba_marseille","lat":43.289184,"lon":5.366408,"is_reserved":false,"is_disabled":false,"rental_uris":{"android":"levelo://app?vid=0de33d96-e867-4779-8be7-5078986de686","ios":"levelo://app?vid=0de33d96-e867-4779-8be7-5078986de686"},"vehicle_type_id":"4","last_reported":1707948394,"current_range_meters":5600,"station_id":"ce4bhap2rcd13ifvqek0","pricing_plan_id":"cebpf4jnsgd1na2vs0mg"},{"bike_id":"0a91ee48-31bf-4993-9037-8fcddaf1e9b0","system_id":"levelo_inurba_marseille","lat":43.289373,"lon":5.366375,"is_reserved":false,"is_disabled":false,"rental_uris":{"android":"levelo://app?vid=0a91ee48-31bf-4993-9037-8fcddaf1e9b0","ios":"levelo://app?vid=0a91ee48-31bf-4993-9037-8fcddaf1e9b0"},"vehicle_type_id":"4","last_reported":1707948394,"current_range_meters":31200,"station_id":"ce4bhap2rcd13ifvqek0","pricing_plan_id":"cebpf4jnsgd1na2vs0mg"},{"bike_id":"e4f9863c-4f7b-440c-8865-53be0a367c68","system_id":"levelo_inurba_marseille","lat":43.28936,"lon":5.366357,"is_reserved":false,"is_disabled":false,"rental_uris":{"android":"levelo://app?vid=e4f9863c-4f7b-440c-8865-53be0a367c68","ios":"levelo://app?vid=e4f9863c-4f7b-440c-8865-53be0a367c68"},"vehicle_type_id":"4","last_reported":1707948394,"current_range_meters":6800,"station_id":"ce4bhap2rcd13ifvqek0","pricing_plan_id":"cebpf4jnsgd1na2vs0mg"},{"bike_id":"01bcc8c8-a516-4958-9b53-b5b8d71b29e9","system_id":"levelo_inurba_marseille","lat":43.289184,"lon":5.366408,"is_reserved":false,"is_disabled":false,"rental_uris":{"android":"levelo://app?vid=01bcc8c8-a516-4958-9b53-b5b8d71b29e9","ios":"levelo://app?vid=01bcc8c8-a516-4958-9b53-b5b8d71b29e9"},"vehicle_type_id":"4","last_reported":1707948394,"current_range_meters":3200,"station_id":"ce4bhap2rcd13ifvqek0","pricing_plan_id":"cebpf4jnsgd1na2vs0mg"},{"bike_id":"d66b04f5-0b1b-4ecd-a93f-d4f7dd7e8be2","system_id":"levelo_inurba_marseille","lat":43.28931,"lon":5.36633,"is_reserved":false,"is_disabled":false,"rental_uris":{"android":"levelo://app?vid=d66b04f5-0b1b-4ecd-a93f-d4f7dd7e8be2","ios":"levelo://app?vid=d66b04f5-0b1b-4ecd-a93f-d4f7dd7e8be2"},"vehicle_type_id":"4","last_reported":1707948394,"current_range_meters":31200,"station_id":"ce4bhap2rcd13ifvqek0","pricing_plan_id":"cebpf4jnsgd1na2vs0mg"},{"bike_id":"55fc4e34-0003-4415-9706-191446fe4f0f","system_id":"levelo_inurba_marseille","lat":43.289304,"lon":5.366363,"is_reserved":false,"is_disabled":false,"rental_uris":{"android":"levelo://app?vid=55fc4e34-0003-4415-9706-191446fe4f0f","ios":"levelo://app?vid=55fc4e34-0003-4415-9706-191446fe4f0f"},"vehicle_type_id":"4","last_reported":1707948394,"current_range_meters":13200,"station_id":"ce4bhap2rcd13ifvqek0","pricing_plan_id":"cebpf4jnsgd1na2vs0mg"},{"bike_id":"4dfb38b3-eaa7-4ed8-949b-a2c6469a88a1","system_id":"levelo_inurba_marseille","lat":43.289468,"lon":5.363719,"is_reserved":false,"is_disabled":false,"rental_uris":{"android":"levelo://app?vid=4dfb38b3-eaa7-4ed8-949b-a2c6469a88a1","ios":"levelo://app?vid=4dfb38b3-eaa7-4ed8-949b-a2c6469a88a1"},"vehicle_type_id":"4","last_reported":1707948394,"current_range_meters":23600,"station_id":"ce4bhc92rcd13ifvqetg","pricing_plan_id":"cebpf4jnsgd1na2vs0mg"},{"bike_id":"8cd7efb9-35a6-4d88-aa0f-247de35dfa13","system_id":"levelo_inurba_marseille","lat":43.289468,"lon":5.363719,"is_reserved":false,"is_disabled":false,"rental_uris":{"android":"levelo://app?vid=8cd7efb9-35a6-4d88-aa0f-247de35dfa13","ios":"levelo://app?vid=8cd7efb9-35a6-4d88-aa0f-247de35dfa13"},"vehicle_type_id":"4","last_reported":1707948394,"current_range_meters":30000,"station_id":"ce4bhc92rcd13ifvqetg","pricing_plan_id":"cebpf4jnsgd1na2vs0mg"},{"bike_id":"5e3a935a-b822-4bf0-8d37-319855b1107d","system_id":"levelo_inurba_marseille","lat":43.289296,"lon":5.363878,"is_reserved":false,"is_disabled":false,"rental_uris":{"android":"levelo://app?vid=5e3a935a-b822-4bf0-8d37-319855b1107d","ios":"levelo://app?vid=5e3a935a-b822-4bf0-8d37-319855b1107d"},"vehicle_type_id":"4","last_reported":1707948394,"current_range_meters":23200,"station_id":"ce4bhc92rcd13ifvqetg","pricing_plan_id":"cebpf4jnsgd1na2vs0mg"},{"bike_id":"8d9431fe-6f5a-47be-8809-7363c5449cd2","system_id":"levelo_inurba_marseille","lat":43.304296,"lon":5.397513,"is_reserved":false,"is_disabled":false,"rental_uris":{"android":"levelo://app?vid=8d9431fe-6f5a-47be-8809-7363c5449cd2","ios":"levelo://app?vid=8d9431fe-6f5a-47be-8809-7363c5449cd2"},"vehicle_type_id":"4","last_reported":1707948394,"current_range_meters":28400,"station_id":"ce4bh092rcd13ifvqd20","pricing_plan_id":"cebpf4jnsgd1na2vs0mg"},{"bike_id":"4e772bce-abef-4627-be84-8cce60d05018","system_id":"levelo_inurba_marseille","lat":43.29274,"lon":5.38437,"is_reserved":false,"is_disabled":false,"rental_uris":{"android":"levelo://app?vid=4e772bce-abef-4627-be84-8cce60d05018","ios":"levelo://app?vid=4e772bce-abef-4627-be84-8cce60d05018"},"vehicle_type_id":"4","last_reported":1707948394,"current_range_meters":12400,"station_id":"ce4bh692rcd13ifvqea0","pricing_plan_id":"cebpf4jnsgd1na2vs0mg"},{"bike_id":"7c9ef091-31a6-4cde-a063-5c0307cd170a","system_id":"levelo_inurba_marseille","lat":43.29272,"lon":5.38438,"is_reserved":false,"is_disabled":false,"rental_uris":{"android":"levelo://app?vid=7c9ef091-31a6-4cde-a063-5c0307cd170a","ios":"levelo://app?vid=7c9ef091-31a6-4cde-a063-5c0307cd170a"},"vehicle_type_id":"4","last_reported":1707948394,"current_range_meters":31200,"station_id":"ce4bh692rcd13ifvqea0","pricing_plan_id":"cebpf4jnsgd1na2vs0mg"},{"bike_id":"8f0a7b98-1582-413d-98be-8ab63b4b12e7","system_id":"levelo_inurba_marseille","lat":43.304274,"lon":5.397513,"is_reserved":false,"is_disabled":false,"rental_uris":{"android":"levelo://app?vid=8f0a7b98-1582-413d-98be-8ab63b4b12e7","ios":"levelo://app?vid=8f0a7b98-1582-413d-98be-8ab63b4b12e7"},"vehicle_type_id":"4","last_reported":1707948394,"current_range_meters":14800,"station_id":"ce4bh092rcd13ifvqd20","pricing_plan_id":"cebpf4jnsgd1na2vs0mg"},{"bike_id":"8e7519d8-cb4f-4849-b0b3-43a208dc5439","system_id":"levelo_inurba_marseille","lat":43.29263,"lon":5.38442,"is_reserved":false,"is_disabled":false,"rental_uris":{"android":"levelo://app?vid=8e7519d8-cb4f-4849-b0b3-43a208dc5439","ios":"levelo://app?vid=8e7519d8-cb4f-4849-b0b3-43a208dc5439"},"vehicle_type_id":"4","last_reported":1707948394,"current_range_meters":0,"station_id":"ce4bh692rcd13ifvqea0","pricing_plan_id":"cebpf4jnsgd1na2vs0mg"},{"bike_id":"76b1076e-4378-4983-ac4b-a365bf674bb4","system_id":"levelo_inurba_marseille","lat":43.29258,"lon":5.38433,"is_reserved":false,"is_disabled":false,"rental_uris":{"android":"levelo://app?vid=76b1076e-4378-4983-ac4b-a365bf674bb4","ios":"levelo://app?vid=76b1076e-4378-4983-ac4b-a365bf674bb4"},"vehicle_type_id":"4","last_reported":1707948394,"current_range_meters":27200,"station_id":"ce4bh692rcd13ifvqea0","pricing_plan_id":"cebpf4jnsgd1na2vs0mg"},{"bike_id":"80ae5709-3047-484b-bc4d-25f940037fed","system_id":"levelo_inurba_marseille","lat":43.304274,"lon":5.397513,"is_reserved":false,"is_disabled":false,"rental_uris":{"android":"levelo://app?vid=80ae5709-3047-484b-bc4d-25f940037fed","ios":"levelo://app?vid=80ae5709-3047-484b-bc4d-25f940037fed"},"vehicle_type_id":"4","last_reported":1707948394,"current_range_meters":28800,"station_id":"ce4bh092rcd13ifvqd20","pricing_plan_id":"cebpf4jnsgd1na2vs0mg"},{"bike_id":"f5e488f4-a28b-4d9f-a743-bd2eda51ac5c","system_id":"levelo_inurba_marseille","lat":43.29261,"lon":5.38446,"is_reserved":false,"is_disabled":false,"rental_uris":{"android":"levelo://app?vid=f5e488f4-a28b-4d9f-a743-bd2eda51ac5c","ios":"levelo://app?vid=f5e488f4-a28b-4d9f-a743-bd2eda51ac5c"},"vehicle_type_id":"4","last_reported":1707948394,"current_range_meters":31200,"station_id":"ce4bh692rcd13ifvqea0","pricing_plan_id":"cebpf4jnsgd1na2vs0mg"},{"bike_id":"1f9ce48a-0ad3-4054-a534-2b3938c6c80b","system_id":"levelo_inurba_marseille","lat":43.29256,"lon":5.38447,"is_reserved":false,"is_disabled":false,"rental_uris":{"android":"levelo://app?vid=1f9ce48a-0ad3-4054-a534-2b3938c6c80b","ios":"levelo://app?vid=1f9ce48a-0ad3-4054-a534-2b3938c6c80b"},"vehicle_type_id":"4","last_reported":1707948394,"current_range_meters":28000,"station_id":"ce4bh692rcd13ifvqea0","pricing_plan_id":"cebpf4jnsgd1na2vs0mg"},{"bike_id":"8f09752a-adc6-4deb-b861-38646860e495","system_id":"levelo_inurba_marseille","lat":43.29009,"lon":5.35613,"is_reserved":false,"is_disabled":false,"rental_uris":{"android":"levelo://app?vid=8f09752a-adc6-4deb-b861-38646860e495","ios":"levelo://app?vid=8f09752a-adc6-4deb-b861-38646860e495"},"vehicle_type_id":"4","last_reported":1707948394,"current_range_meters":0,"station_id":"ce4bhb92rcd13ifvqen0","pricing_plan_id":"cebpf4jnsgd1na2vs0mg"},{"bike_id":"825d894b-0151-416f-98bc-b60ec00e62a7","system_id":"levelo_inurba_marseille","lat":43.290103,"lon":5.356114,"is_reserved":false,"is_disabled":false,"rental_uris":{"android":"levelo://app?vid=825d894b-0151-416f-98bc-b60ec00e62a7","ios":"levelo://app?vid=825d894b-0151-416f-98bc-b60ec00e62a7"},"vehicle_type_id":"4","last_reported":1707948394,"current_range_meters":13600,"station_id":"ce4bhb92rcd13ifvqen0","pricing_plan_id":"cebpf4jnsgd1na2vs0mg"},{"bike_id":"f6d9b2f8-9c58-4120-ba20-54cb1ab8ba8a","system_id":"levelo_inurba_marseille","lat":43.297923,"lon":5.393348,"is_reserved":false,"is_disabled":false,"rental_uris":{"android":"levelo://app?vid=f6d9b2f8-9c58-4120-ba20-54cb1ab8ba8a","ios":"levelo://app?vid=f6d9b2f8-9c58-4120-ba20-54cb1ab8ba8a"},"vehicle_type_id":"4","last_reported":1707948394,"current_range_meters":5200,"station_id":"chh1huq6cuj3fo74tm60","pricing_plan_id":"cebpf4jnsgd1na2vs0mg"},{"bike_id":"2afd6b37-9fc5-4202-84fe-997a8b95f4ca","system_id":"levelo_inurba_marseille","lat":43.289741,"lon":5.378306,"is_reserved":false,"is_disabled":false,"rental_uris":{"android":"levelo://app?vid=2afd6b37-9fc5-4202-84fe-997a8b95f4ca","ios":"levelo://app?vid=2afd6b37-9fc5-4202-84fe-997a8b95f4ca"},"vehicle_type_id":"4","last_reported":1707948394,"current_range_meters":17200,"station_id":"ce4bh9p2rcd13ifvqed0","pricing_plan_id":"cebpf4jnsgd1na2vs0mg"},{"bike_id":"7f7a54be-2d7c-4de2-acaa-856b7123442f","system_id":"levelo_inurba_marseille","lat":43.297908,"lon":5.39341,"is_reserved":false,"is_disabled":false,"rental_uris":{"android":"levelo://app?vid=7f7a54be-2d7c-4de2-acaa-856b7123442f","ios":"levelo://app?vid=7f7a54be-2d7c-4de2-acaa-856b7123442f"},"vehicle_type_id":"4","last_reported":1707948394,"current_range_meters":23200,"station_id":"chh1huq6cuj3fo74tm60","pricing_plan_id":"cebpf4jnsgd1na2vs0mg"},{"bike_id":"01b06329-52bf-4391-9c94-3722098b070f","system_id":"levelo_inurba_marseille","lat":43.297815,"lon":5.393548,"is_reserved":false,"is_disabled":false,"rental_uris":{"android":"levelo://app?vid=01b06329-52bf-4391-9c94-3722098b070f","ios":"levelo://app?vid=01b06329-52bf-4391-9c94-3722098b070f"},"vehicle_type_id":"4","last_reported":1707948394,"current_range_meters":6800,"station_id":"chh1huq6cuj3fo74tm60","pricing_plan_id":"cebpf4jnsgd1na2vs0mg"},{"bike_id":"11b4e40f-8eab-4bce-947a-4de3396fd8d2","system_id":"levelo_inurba_marseille","lat":43.297815,"lon":5.393548,"is_reserved":false,"is_disabled":false,"rental_uris":{"android":"levelo://app?vid=11b4e40f-8eab-4bce-947a-4de3396fd8d2","ios":"levelo://app?vid=11b4e40f-8eab-4bce-947a-4de3396fd8d2"},"vehicle_type_id":"4","last_reported":1707948394,"current_range_meters":5600,"station_id":"chh1huq6cuj3fo74tm60","pricing_plan_id":"cebpf4jnsgd1na2vs0mg"},{"bike_id":"27b3871e-ce90-4c19-a42f-ea610a562b9d","system_id":"levelo_inurba_marseille","lat":43.297874,"lon":5.393394,"is_reserved":false,"is_disabled":false,"rental_uris":{"android":"levelo://app?vid=27b3871e-ce90-4c19-a42f-ea610a562b9d","ios":"levelo://app?vid=27b3871e-ce90-4c19-a42f-ea610a562b9d"},"vehicle_type_id":"4","last_reported":1707948394,"current_range_meters":8800,"station_id":"chh1huq6cuj3fo74tm60","pricing_plan_id":"cebpf4jnsgd1na2vs0mg"},{"bike_id":"30262b00-fb71-4c64-853c-6f9fef11dbd0","system_id":"levelo_inurba_marseille","lat":43.297883,"lon":5.39341,"is_reserved":false,"is_disabled":false,"rental_uris":{"android":"levelo://app?vid=30262b00-fb71-4c64-853c-6f9fef11dbd0","ios":"levelo://app?vid=30262b00-fb71-4c64-853c-6f9fef11dbd0"},"vehicle_type_id":"4","last_reported":1707948394,"current_range_meters":15600,"station_id":"chh1huq6cuj3fo74tm60","pricing_plan_id":"cebpf4jnsgd1na2vs0mg"},{"bike_id":"40c395bc-942c-4a69-a864-0c2888af43a5","system_id":"levelo_inurba_marseille","lat":43.297815,"lon":5.393548,"is_reserved":false,"is_disabled":false,"rental_uris":{"android":"levelo://app?vid=40c395bc-942c-4a69-a864-0c2888af43a5","ios":"levelo://app?vid=40c395bc-942c-4a69-a864-0c2888af43a5"},"vehicle_type_id":"4","last_reported":1707948394,"current_range_meters":23600,"station_id":"chh1huq6cuj3fo74tm60","pricing_plan_id":"cebpf4jnsgd1na2vs0mg"},{"bike_id":"046dd86a-ef54-4c3c-9057-23f667c7e81a","system_id":"levelo_inurba_marseille","lat":43.295169,"lon":5.390426,"is_reserved":false,"is_disabled":false,"rental_uris":{"android":"levelo://app?vid=046dd86a-ef54-4c3c-9057-23f667c7e81a","ios":"levelo://app?vid=046dd86a-ef54-4c3c-9057-23f667c7e81a"},"vehicle_type_id":"4","last_reported":1707948394,"current_range_meters":17200,"station_id":"ce4bh3p2rcd13ifvqdp0","pricing_plan_id":"cebpf4jnsgd1na2vs0mg"},{"bike_id":"1f57aa7e-524a-4f43-b0f6-cad5514145cb","system_id":"levelo_inurba_marseille","lat":43.29525,"lon":5.39025,"is_reserved":false,"is_disabled":false,"rental_uris":{"android":"levelo://app?vid=1f57aa7e-524a-4f43-b0f6-cad5514145cb","ios":"levelo://app?vid=1f57aa7e-524a-4f43-b0f6-cad5514145cb"},"vehicle_type_id":"4","last_reported":1707948394,"current_range_meters":31200,"station_id":"ce4bh3p2rcd13ifvqdp0","pricing_plan_id":"cebpf4jnsgd1na2vs0mg"},