{"last_updated":1718921230,"ttl":30,"version":"2.2","data":{"bikes":[{"bike_id":"494364cb-a2f6-4f53-9687-0ddc08169f08","system_id":"levelo_inurba_marseille","lat":43.31341,"lon":5.367098,"is_reserved":false,"is_disabled":false,"rental_uris":{"android":"levelo://app?vid=494364cb-a2f6-4f53-9687-0ddc08169f08","ios":"levelo://app?vid=494364cb-a2f6-4f53-9687-0ddc08169f08"},"vehicle_type_id":"4","last_reported":1718921230,"current_range_meters":31200,"station_id":"ce4bgr92rcd13ifvqc6g","pricing_plan_id":"cebpf4jnsgd1na2vs0mg"},{"bike_id":"0e5a9b26-171e-4de8-8b17-4c700006ff4b","system_id":"levelo_inurba_marseille","lat":43.31223,"lon":5.36845,"is_reserved":false,"is_disabled":false,"rental_uris":{"android":"levelo://app?vid=0e5a9b26-171e-4de8-8b17-4c700006ff4b","ios":"levelo://app?vid=0e5a9b26-171e-4de8-8b17-4c700006ff4b"},"vehicle_type_id":"4","last_reported":1718921230,"current_range_meters":31200,"station_id":"ce4bgl92rcd13ifvqbq0","pricing_plan_id":"cebpf4jnsgd1na2vs0mg"},{"bike_id":"e6fdaa17-f062-465d-b055-f4afda796d4f","system_id":"levelo_inurba_marseille","lat":43.31233,"lon":5.36858,"is_reserved":false,"is_disabled":false,"rental_uris":{"android":"levelo://app?vid=e6fdaa17-f062-465d-b055-f4afda796d4f","ios":"levelo://app?vid=e6fdaa17-f062-465d-b055-f4afda796d4f"},"vehicle_type_id":"4","last_reported":1718921230,"current_range_meters":28000,"station_id":"ce4bgl92rcd13ifvqbq0","pricing_plan_id":"cebpf4jnsgd1na2vs0mg"},{"bike_id":"b60fed36-198f-4805-8aaa-61af86f9fdf5","system_id":"levelo_inurba_marseille","lat":43.31219,"lon":5.368543,"is_reserved":false,"is_disabled":false,"rental_uris":{"android":"levelo://app?vid=b60fed36-198f-4805-8aaa-61af86f9fdf5","ios":"levelo://app?vid=b60fed36-198f-4805-8aaa-61af86f9fdf5"},"vehicle_type_id":"4","last_reported":1718921230,"current_range_meters":14800,"station_id":"ce4bgl92rcd13ifvqbq0","pricing_plan_id":"cebpf4jnsgd1na2vs0mg"},{"bike_id":"1f1a8823-2d53-41d3-a2b7-04b7497d51ab","system_id":"levelo_inurba_marseille","lat":43.312239,"lon":5.368562,"is_reserved":false,"is_disabled":false,"rental_uris":{"android":"levelo://app?vid=1f1a8823-2d53-41d3-a2b7-04b7497d51ab","ios":"levelo://app?vid=1f1a8823-2d53-41d3-a2b7-04b7497d51ab"},"vehicle_type_id":"4","last_reported":1718921230,"current_range_meters":31200,"station_id":"ce4bgl92rcd13ifvqbq0","pricing_plan_id":"cebpf4jnsgd1na2vs0mg"},{"bike_id":"ca17e23d-e9c9-4c35-bd7e-80ec9cefe68a","system_id":"levelo_inurba_marseille","lat":43.314811,"lon":5.373103,"is_reserved":false,"is_disabled":false,"rental_uris":{"android":"levelo://app?vid=ca17e23d-e9c9-4c35-bd7e-80ec9cefe68a","ios":"levelo://app?vid=ca17e23d-e9c9-4c35-bd7e-80ec9cefe68a"},"vehicle_type_id":"4","last_reported":1718921230,"current_range_meters":0,"station_id":"ce4bgt12rcd13ifvqcd0","pricing_plan_id":"cebpf4jnsgd1na2vs0mg"},{"bike_id":"0fae4de9-d4eb-483f-99aa-6bb039d7e275","system_id":"levelo_inurba_marseille","lat":43.314811,"lon":5.373103,"is_reserved":false,"is_disabled":false,"rental_uris":{"android":"levelo://app?vid=0fae4de9-d4eb-483f-99aa-6bb039d7e275","ios":"levelo://app?vid=0fae4de9-d4eb-483f-99aa-6bb039d7e275"},"vehicle_type_id":"4","last_reported":1718921230,"current_range_meters":12800,"station_id":"ce4bgt12rcd13ifvqcd0","pricing_plan_id":"cebpf4jnsgd1na2vs0mg"},{"bike_id":"800d5c65-8034-41e2-a115-0ba3c4598f70","system_id":"levelo_inurba_marseille","lat":43.314811,"lon":5.373103,"is_reserved":false,"is_disabled":false,"rental_uris":{"android":"levelo://app?vid=800d5c65-8034-41e2-a115-0ba3c4598f70","ios":"levelo://app?vid=800d5c65-8034-41e2-a115-0ba3c4598f70"},"vehicle_type_id":"4","last_reported":1718921230,"current_range_meters":18000,"station_id":"ce4bgt12rcd13ifvqcd0","pricing_plan_id":"cebpf4jnsgd1na2vs0mg"},{"bike_id":"bf7c91de-4b80-40a5-8c54-c8ef1b737419","system_id":"levelo_inurba_marseille","lat":43.314811,"lon":5.373103,"is_reserved":false,"is_disabled":false,"rental_uris":{"android":"levelo://app?vid=bf7c91de-4b80-40a5-8c54-c8ef1b737419","ios":"levelo://app?vid=bf7c91de-4b80-40a5-8c54-c8ef1b737419"},"vehicle_type_id":"4","last_reported":1718921230,"current_range_meters":4400,"station_id":"ce4bgt12rcd13ifvqcd0","pricing_plan_id":"cebpf4jnsgd1na2vs0mg"},{"bike_id":"769a15a4-3602-4d0c-b76b-63a5f4227d03","system_id":"levelo_inurba_marseille","lat":43.314811,"lon":5.373104,"is_reserved":false,"is_disabled":false,"rental_uris":{"android":"levelo://app?vid=769a15a4-3602-4d0c-b76b-63a5f4227d03","ios":"levelo://app?vid=769a15a4-3602-4d0c-b76b-63a5f4227d03"},"vehicle_type_id":"4","last_reported":1718921230,"current_range_meters":14800,"station_id":"ce4bgt12rcd13ifvqcd0","pricing_plan_id":"cebpf4jnsgd1na2vs0mg"},{"bike_id":"6c3b6594-549d-4b9a-86a5-ce09ebfb907f","system_id":"levelo_inurba_marseille","lat":43.314811,"lon":5.373104,"is_reserved":false,"is_disabled":false,"rental_uris":{"android":"levelo://app?vid=6c3b6594-549d-4b9a-86a5-ce09ebfb907f","ios":"levelo://app?vid=6c3b6594-549d-4b9a-86a5-ce09ebfb907f"},"vehicle_type_id":"4","last_reported":1718921230,"current_range_meters":21600,"station_id":"ce4bgt12rcd13ifvqcd0","pricing_plan_id":"cebpf4jnsgd1na2vs0mg"},{"bike_id":"a66c461e-7e04-43a3-aa47-65b160856416","system_id":"levelo_inurba_marseille","lat":43.314811,"lon":5.373104,"is_reserved":false,"is_disabled":false,"rental_uris":{"android":"levelo://app?vid=a66c461e-7e04-43a3-aa47-65b160856416","ios":"levelo://app?vid=a66c461e-7e04-43a3-aa47-65b160856416"},"vehicle_type_id":"4","last_reported":1718921230,"current_range_meters":6000,"station_id":"ce4bgt12rcd13ifvqcd0","pricing_plan_id":"cebpf4jnsgd1na2vs0mg"},{"bike_id":"b12d78f7-b15d-476d-9ca3-8b842c6e827a","system_id":"levelo_inurba_marseille","lat":43.309039,"lon":5.371797,"is_reserved":false,"is_disabled":false,"rental_uris":{"android":"levelo://app?vid=b12d78f7-b15d-476d-9ca3-8b842c6e827a","ios":"levelo://app?vid=b12d78f7-b15d-476d-9ca3-8b842c6e827a"},"vehicle_type_id":"4","last_reported":1718921230,"current_range_meters":12000,"station_id":"ce4bguh2rcd13ifvqckg","pricing_plan_id":"cebpf4jnsgd1na2vs0mg"},{"bike_id":"186431eb-f9ca-46be-a683-d9c880a5d6c7","system_id":"levelo_inurba_marseille","lat":43.309034,"lon":5.371783,"is_reserved":false,"is_disabled":false,"rental_uris":{"android":"levelo://app?vid=186431eb-f9ca-46be-a683-d9c880a5d6c7","ios":"levelo://app?vid=186431eb-f9ca-46be-a683-d9c880a5d6c7"},"vehicle_type_id":"4","last_reported":1718921230,"current_range_meters":31200,"station_id":"ce4bguh2rcd13ifvqckg","pricing_plan_id":"cebpf4jnsgd1na2vs0mg"},{"bike_id":"4ee88671-9b80-401d-87a2-2ac167b7ebb3","system_id":"levelo_inurba_marseille","lat":43.309034,"lon":5.371783,"is_reserved":false,"is_disabled":false,"rental_uris":{"android":"levelo://app?vid=4ee88671-9b80-401d-87a2-2ac167b7ebb3","ios":"levelo://app?vid=4ee88671-9b80-401d-87a2-2ac167b7ebb3"},"vehicle_type_id":"4","last_reported":1718921230,"current_range_meters":13200,"station_id":"ce4bguh2rcd13ifvqckg","pricing_plan_id":"cebpf4jnsgd1na2vs0mg"},{"bike_id":"9f343050-7df0-4de3-9996-a3657976266e","system_id":"levelo_inurba_marseille","lat":43.316906,"lon":5.372806,"is_reserved":false,"is_disabled":false,"rental_uris":{"android":"levelo://app?vid=9f343050-7df0-4de3-9996-a3657976266e","ios":"levelo://app?vid=9f343050-7df0-4de3-9996-a3657976266e"},"vehicle_type_id":"4","last_reported":1718921230,"current_range_meters":24400,"station_id":"","pricing_plan_id":"cebpf4jnsgd1na2vs0mg"},{"bike_id":"bf79368d-cbaa-4324-9ea0-bc6ae4278bd7","system_id":"levelo_inurba_marseille","lat":43.305714,"lon":5.365633,"is_reserved":false,"is_disabled":false,"rental_uris":{"android":"levelo://app?vid=bf79368d-cbaa-4324-9ea0-bc6ae4278bd7","ios":"levelo://app?vid=bf79368d-cbaa-4324-9ea0-bc6ae4278bd7"},"vehicle_type_id":"4","last_reported":1718921230,"current_range_meters":5200,"station_id":"ce4bgs12rcd13ifvqcag","pricing_plan_id":"cebpf4jnsgd1na2vs0mg"},{"bike_id":"d86e219a-7985-44a2-b25d-75db5dd383f6","system_id":"levelo_inurba_marseille","lat":43.305714,"lon":5.365633,"is_reserved":false,"is_disabled":false,"rental_uris":{"android":"levelo://app?vid=d86e219a-7985-44a2-b25d-75db5dd383f6","ios":"levelo://app?vid=d86e219a-7985-44a2-b25d-75db5dd383f6"},"vehicle_type_id":"4","last_reported":1718921230,"current_range_meters":10000,"station_id":"ce4bgs12rcd13ifvqcag","pricing_plan_id":"cebpf4jnsgd1na2vs0mg"},{"bike_id":"3bcaee32-f762-4187-8dd5-7d2e5337c0c7","system_id":"levelo_inurba_marseille","lat":43.305368,"lon":5.367343,"is_reserved":false,"is_disabled":false,"rental_uris":{"android":"levelo://app?vid=3bcaee32-f762-4187-8dd5-7d2e5337c0c7","ios":"levelo://app?vid=3bcaee32-f762-4187-8dd5-7d2e5337c0c7"},"vehicle_type_id":"4","last_reported":1718921230,"current_range_meters":17200,"station_id":"ce4bgrp2rcd13ifvqc9g","pricing_plan_id":"cebpf4jnsgd1na2vs0mg"},{"bike_id":"0aefd760-5aec-4e04-8692-09933cff466d","system_id":"levelo_inurba_marseille","lat":43.305989,"lon":5.37225,"is_reserved":false,"is_disabled":false,"rental_uris":{"android":"levelo://app?vid=0aefd760-5aec-4e04-8692-09933cff466d","ios":"levelo://app?vid=0aefd760-5aec-4e04-8692-09933cff466d"},"vehicle_type_id":"4","last_reported":1718921230,"current_range_meters":16800,"station_id":"ce4bgqh2rcd13ifvqc4g","pricing_plan_id":"cebpf4jnsgd1na2vs0mg"},{"bike_id":"f47c08ff-426f-427b-87aa-98dfc0348dea","system_id":"levelo_inurba_marseille","lat":43.305989,"lon":5.37225,"is_reserved":false,"is_disabled":false,"rental_uris":{"android":"levelo://app?vid=f47c08ff-426f-427b-87aa-98dfc0348dea","ios":"levelo://app?vid=f47c08ff-426f-427b-87aa-98dfc0348dea"},"vehicle_type_id":"4","last_reported":1718921230,"current_range_meters":24400,"station_id":"ce4bgqh2rcd13ifvqc4g","pricing_plan_id":"cebpf4jnsgd1na2vs0mg"},{"bike_id":"dec471e3-d93f-4127-a4bd-2838be3d21d4","system_id":"levelo_inurba_marseille","lat":43.311131,"lon":5.377651,"is_reserved":false,"is_disabled":false,"rental_uris":{"android":"levelo://app?vid=dec471e3-d93f-4127-a4bd-2838be3d21d4","ios":"levelo://app?vid=dec471e3-d93f-4127-a4bd-2838be3d21d4"},"vehicle_type_id":"4","last_reported":1718921230,"current_range_meters":25200,"station_id":"ce4bgt92rcd13ifvqcg0","pricing_plan_id":"cebpf4jnsgd1na2vs0mg"},{"bike_id":"98654416-a4f9-4ab5-bb3c-04f500814227","system_id":"levelo_inurba_marseille","lat":43.31124,"lon":5.377697,"is_reserved":false,"is_disabled":false,"rental_uris":{"android":"levelo://app?vid=98654416-a4f9-4ab5-bb3c-04f500814227","ios":"levelo://app?vid=98654416-a4f9-4ab5-bb3c-04f500814227"},"vehicle_type_id":"4","last_reported":1718921230,"current_range_meters":0,"station_id":"ce4bgt92rcd13ifvqcg0","pricing_plan_id":"cebpf4jnsgd1na2vs0mg"},{"bike_id":"24dec248-8413-459c-9d68-11dfbe71e199","system_id":"levelo_inurba_marseille","lat":43.311131,"lon":5.377651,"is_reserved":false,"is_disabled":false,"rental_uris":{"android":"levelo://app?vid=24dec248-8413-459c-9d68-11dfbe71e199","ios":"levelo://app?vid=24dec248-8413-459c-9d68-11dfbe71e199"},"vehicle_type_id":"4","last_reported":1718921230,"current_range_meters":4400,"station_id":"ce4bgt92rcd13ifvqcg0","pricing_plan_id":"cebpf4jnsgd1na2vs0mg"},{"bike_id":"82fa2bfa-d74e-4ab2-8863-e418dbc90bfb","system_id":"levelo_inurba_marseille","lat":43.311131,"lon":5.377651,"is_reserved":false,"is_disabled":false,"rental_uris":{"android":"levelo://app?vid=82fa2bfa-d74e-4ab2-8863-e418dbc90bfb","ios":"levelo://app?vid=82fa2bfa-d74e-4ab2-8863-e418dbc90bfb"},"vehicle_type_id":"4","last_reported":1718921230,"current_range_meters":8800,"station_id":"ce4bgt92rcd13ifvqcg0","pricing_plan_id":"cebpf4jnsgd1na2vs0mg"},{"bike_id":"45266536-81c1-4402-88b1-52f7c2935213","system_id":"levelo_inurba_marseille","lat":43.308643,"lon":5.377258,"is_reserved":false,"is_disabled":false,"rental_uris":{"android":"levelo://app?vid=45266536-81c1-4402-88b1-52f7c2935213","ios":"levelo://app?vid=45266536-81c1-4402-88b1-52f7c2935213"},"vehicle_type_id":"4","last_reported":1718921230,"current_range_meters":9600,"station_id":"","pricing_plan_id":"cebpf4jnsgd1na2vs0mg"},{"bike_id":"3b04fdf8-deb3-4374-94d3-fd53bd791197","system_id":"levelo_inurba_marseille","lat":43.307945,"lon":5.376487,"is_reserved":false,"is_disabled":false,"rental_uris":{"android":"levelo://app?vid=3b04fdf8-deb3-4374-94d3-fd53bd791197","ios":"levelo://app?vid=3b04fdf8-deb3-4374-94d3-fd53bd791197"},"vehicle_type_id":"4","last_reported":1718921230,"current_range_meters":17200,"station_id":"ce4bgv92rcd13ifvqcq0","pricing_plan_id":"cebpf4jnsgd1na2vs0mg"},{"bike_id":"4e1bf350-60af-41e2-9f13-ebad0b6ea60e","system_id":"levelo_inurba_marseille","lat":43.317075,"lon":5.377367,"is_reserved":false,"is_disabled":false,"rental_uris":{"android":"levelo://app?vid=4e1bf350-60af-41e2-9f13-ebad0b6ea60e","ios":"levelo://app?vid=4e1bf350-60af-41e2-9f13-ebad0b6ea60e"},"vehicle_type_id":"4","last_reported":1718921230,"current_range_meters":4800,"station_id":"ce4bgth2rcd13ifvqch0","pricing_plan_id":"cebpf4jnsgd1na2vs0mg"},{"bike_id":"88c1c68d-e1cf-4289-98b5-7d1e019d488c","system_id":"levelo_inurba_marseille","lat":43.317075,"lon":5.377367,"is_reserved":false,"is_disabled":false,"rental_uris":{"android":"levelo://app?vid=88c1c68d-e1cf-4289-98b5-7d1e019d488c","ios":"levelo://app?vid=88c1c68d-e1cf-4289-98b5-7d1e019d488c"},"vehicle_type_id":"4","last_reported":1718921230,"current_range_meters":7200,"station_id":"ce4bgth2rcd13ifvqch0","pricing_plan_id":"cebpf4jnsgd1na2vs0mg"},{"bike_id":"d3d198f2-5da1-45cd-9428-63c2fbabb694","system_id":"levelo_inurba_marseille","lat":43.317075,"lon":5.377367,"is_reserved":false,"is_disabled":false,"rental_uris":{"android":"levelo://app?vid=d3d198f2-5da1-45cd-9428-63c2fbabb694","ios":"levelo://app?vid=d3d198f2-5da1-45cd-9428-63c2fbabb694"},"vehicle_type_id":"4","last_reported":1718921230,"current_range_meters":23600,"station_id":"ce4bgth2rcd13ifvqch0","pricing_plan_id":"cebpf4jnsgd1na2vs0mg"},{"bike_id":"2c7c94fd-726c-404e-9c3a-d59a9bcacb35","system_id":"levelo_inurba_marseille","lat":43.31556,"lon":5.38,"is_reserved":false,"is_disabled":false,"rental_uris":{"android":"levelo://app?vid=2c7c94fd-726c-404e-9c3a-d59a9bcacb35","ios":"levelo://app?vid=2c7c94fd-726c-404e-9c3a-d59a9bcacb35"},"vehicle_type_id":"4","last_reported":1718921230,"current_range_meters":25200,"station_id":"","pricing_plan_id":"cebpf4jnsgd1na2vs0mg"},{"bike_id":"583835ad-6b99-4429-a0b5-db8802939c32","system_id":"levelo_inurba_marseille","lat":43.315289,"lon":5.380349,"is_reserved":false,"is_disabled":false,"rental_uris":{"android":"levelo://app?vid=583835ad-6b99-4429-a0b5-db8802939c32","ios":"levelo://app?vid=583835ad-6b99-4429-a0b5-db8802939c32"},"vehicle_type_id":"4","last_reported":1718921230,"current_range_meters":26400,"station_id":"ce4bhsp2rcd13ifvqi50","pricing_plan_id":"cebpf4jnsgd1na2vs0mg"},{"bike_id":"22b3dbde-496a-4157-bd1a-ddf8a6b5c649","system_id":"levelo_inurba_marseille","lat":43.315604,"lon":5.380107,"is_reserved":false,"is_disabled":false,"rental_uris":{"android":"levelo://app?vid=22b3dbde-496a-4157-bd1a-ddf8a6b5c649","ios":"levelo://app?vid=22b3dbde-496a-4157-bd1a-ddf8a6b5c649"},"vehicle_type_id":"4","last_reported":1718921230,"current_range_meters":2000,"station_id":"ce4bhsp2rcd13ifvqi50","pricing_plan_id":"cebpf4jnsgd1na2vs0mg"},{"bike_id":"806a4145-947f-47ba-b6c0-556776295ebc","system_id":"levelo_inurba_marseille","lat":43.315289,"lon":5.380349,"is_reserved":false,"is_disabled":false,"rental_uris":{"android":"levelo://app?vid=806a4145-947f-47ba-b6c0-556776295ebc","ios":"levelo://app?vid=806a4145-947f-47ba-b6c0-556776295ebc"},"vehicle_type_id":"4","last_reported":1718921230,"current_range_meters":28000,"station_id":"ce4bhsp2rcd13ifvqi50","pricing_plan_id":"cebpf4jnsgd1na2vs0mg"},{"bike_id":"b51bd151-e486-4ff8-9148-53722473931d","system_id":"levelo_inurba_marseille","lat":43.30943,"lon":5.3801,"is_reserved":false,"is_disabled":false,"rental_uris":{"android":"levelo://app?vid=b51bd151-e486-4ff8-9148-53722473931d","ios":"levelo://app?vid=b51bd151-e486-4ff8-9148-53722473931d"},"vehicle_type_id":"4","last_reported":1718921230,"current_range_meters":6800,"station_id":"","pricing_plan_id":"cebpf4jnsgd1na2vs0mg"},{"bike_id":"58fa6b46-d7de-422b-a871-470addbe0abe","system_id":"levelo_inurba_marseille","lat":43.310437,"lon":5.38069,"is_reserved":false,"is_disabled":false,"rental_uris":{"android":"levelo://app?vid=58fa6b46-d7de-422b-a871-470addbe0abe","ios":"levelo://app?vid=58fa6b46-d7de-422b-a871-470addbe0abe"},"vehicle_type_id":"4","last_reported":1718921230,"current_range_meters":31200,"station_id":"ce4bgv92rcd13ifvqcr0","pricing_plan_id":"cebpf4jnsgd1na2vs0mg"},{"bike_id":"d09437a8-7dfd-43e4-8616-bbaf218eb373","system_id":"levelo_inurba_marseille","lat":43.301939,"lon":5.366286,"is_reserved":false,"is_disabled":false,"rental_uris":{"android":"levelo://app?vid=d09437a8-7dfd-43e4-8616-bbaf218eb373","ios":"levelo://app?vid=d09437a8-7dfd-43e4-8616-bbaf218eb373"},"vehicle_type_id":"4","last_reported":1718921230,"current_range_meters":27600,"station_id":"ce4bgrh2rcd13ifvqc8g","pricing_plan_id":"cebpf4jnsgd1na2vs0mg"},{"bike_id":"c3985dde-df71-4b46-aa8b-77b2546ea513","system_id":"levelo_inurba_marseille","lat":43.30184,"lon":5.36609,"is_reserved":false,"is_disabled":false,"rental_uris":{"android":"levelo://app?vid=c3985dde-df71-4b46-aa8b-77b2546ea513","ios":"levelo://app?vid=c3985dde-df71-4b46-aa8b-77b2546ea513"},"vehicle_type_id":"4","last_reported":1718921230,"current_range_meters":29200,"station_id":"ce4bgrh2rcd13ifvqc8g","pricing_plan_id":"cebpf4jnsgd1na2vs0mg"},{"bike_id":"f7b53347-f4ab-41b0-be40-5fe775cc60cd","system_id":"levelo_inurba_marseille","lat":43.308012,"lon":5.381511,"is_reserved":false,"is_disabled":false,"rental_uris":{"android":"levelo://app?vid=f7b53347-f4ab-41b0-be40-5fe775cc60cd","ios":"levelo://app?vid=f7b53347-f4ab-41b0-be40-5fe775cc60cd"},"vehicle_type_id":"4","last_reported":1718921230,"current_range_meters":31200,"station_id":"ce4bgt12rcd13ifvqce0","pricing_plan_id":"cebpf4jnsgd1na2vs0mg"},{"bike_id":"1e37087b-ac87-49e2-bb62-bed3d7bc6bc2","system_id":"levelo_inurba_marseille","lat":43.308012,"lon":5.381511,"is_reserved":false,"is_disabled":false,"rental_uris":{"android":"levelo://app?vid=1e37087b-ac87-49e2-bb62-bed3d7bc6bc2","ios":"levelo://app?vid=1e37087b-ac87-49e2-bb62-bed3d7bc6bc2"},"vehicle_type_id":"4","last_reported":1718921230,"current_range_meters":17200,"station_id":"ce4bgt12rcd13ifvqce0","pricing_plan_id":"cebpf4jnsgd1na2vs0mg"},{"bike_id":"400c6b8e-26d4-4c52-937f-75b010ec6712","system_id":"levelo_inurba_marseille","lat":43.308012,"lon":5.381511,"is_reserved":false,"is_disabled":false,"rental_uris":{"android":"levelo://app?vid=400c6b8e-26d4-4c52-937f-75b010ec6712","ios":"levelo://app?vid=400c6b8e-26d4-4c52-937f-75b010ec6712"},"vehicle_type_id":"4","last_reported":1718921230,"current_range_meters":31200,"station_id":"ce4bgt12rcd13ifvqce0","pricing_plan_id":"cebpf4jnsgd1na2vs0mg"},{"bike_id":"3307048c-ad46-4340-85ff-f12b440e6567","system_id":"levelo_inurba_marseille","lat":43.304606,"lon":5.379026,"is_reserved":false,"is_disabled":false,"rental_uris":{"android":"levelo://app?vid=3307048c-ad46-4340-85ff-f12b440e6567","ios":"levelo://app?vid=3307048c-ad46-4340-85ff-f12b440e6567"},"vehicle_type_id":"4","last_reported":1718921230,"current_range_meters":21600,"station_id":"ce4bgup2rcd13ifvqcn0","pricing_plan_id":"cebpf4jnsgd1na2vs0mg"},{"bike_id":"33d0abf7-d5ad-4b52-a0c4-0cbdb2f03d1a","system_id":"levelo_inurba_marseille","lat":43.324771,"lon":5.36557,"is_reserved":false,"is_disabled":false,"rental_uris":{"android":"levelo://app?vid=33d0abf7-d5ad-4b52-a0c4-0cbdb2f03d1a","ios":"levelo://app?vid=33d0abf7-d5ad-4b52-a0c4-0cbdb2f03d1a"},"vehicle_type_id":"4","last_reported":1718921230,"current_range_meters":5200,"station_id":"ce4bhs12rcd13ifvqhvg","pricing_plan_id":"cebpf4jnsgd1na2vs0mg"},{"bike_id":"f1df7c7d-5282-4d0a-9566-19734c560016","system_id":"levelo_inurba_marseille","lat":43.324771,"lon":5.36557,"is_reserved":false,"is_disabled":false,"rental_uris":{"android":"levelo://app?vid=f1df7c7d-5282-4d0a-9566-19734c560016","ios":"levelo://app?vid=f1df7c7d-5282-4d0a-9566-19734c560016"},"vehicle_type_id":"4","last_reported":1718921230,"current_range_meters":22800,"station_id":"ce4bhs12rcd13ifvqhvg","pricing_plan_id":"cebpf4jnsgd1na2vs0mg"},{"bike_id":"3d3be425-8b2a-403b-be0d-a88f90fdca44","system_id":"levelo_inurba_marseille","lat":43.324771,"lon":5.36557,"is_reserved":false,"is_disabled":false,"rental_uris":{"android":"levelo://app?vid=3d3be425-8b2a-403b-be0d-a88f90fdca44","ios":"levelo://app?vid=3d3be425-8b2a-403b-be0d-a88f90fdca44"},"vehicle_type_id":"4","last_reported":1718921230,"current_range_meters":7600,"station_id":"ce4bhs12rcd13ifvqhvg","pricing_plan_id":"cebpf4jnsgd1na2vs0mg"},{"bike_id":"2e4eedb6-9f53-4953-9163-a76b1ba2d868","system_id":"levelo_inurba_marseille","lat":43.324771,"lon":5.36557,"is_reserved":false,"is_disabled":false,"rental_uris":{"android":"levelo://app?vid=2e4eedb6-9f53-4953-9163-a76b1ba2d868","ios":"levelo://app?vid=2e4eedb6-9f53-4953-9163-a76b1ba2d868"},"vehicle_type_id":"4","last_reported":1718921230,"current_range_meters":17600,"station_id":"ce4bhs12rcd13ifvqhvg","pricing_plan_id":"cebpf4jnsgd1na2vs0mg"},{"bike_id":"db38d731-673b-4ff1-9894-d9d4525232c9","system_id":"levelo_inurba_marseille","lat":43.31077,"lon":5.38343,"is_reserved":false,"is_disabled":false,"rental_uris":{"android":"levelo://app?vid=db38d731-673b-4ff1-9894-d9d4525232c9","ios":"levelo://app?vid=db38d731-673b-4ff1-9894-d9d4525232c9"},"vehicle_type_id":"4","last_reported":1718921230,"current_range_meters":26400,"station_id":"ce4bgv92rcd13ifvqcr0","pricing_plan_id":"cebpf4jnsgd1na2vs0mg"},{"bike_id":"7c4df707-ec8d-4659-9c00-d17744ed78ab","system_id":"levelo_inurba_marseille","lat":43.310804,"lon":5.38359,"is_reserved":false,"is_disabled":false,"rental_uris":{"android":"levelo://app?vid=7c4df707-ec8d-4659-9c00-d17744ed78ab","ios":"levelo://app?vid=7c4df707-ec8d-4659-9c00-d17744ed78ab"},"vehicle_type_id":"4","last_reported":1718921230,"current_range_meters":19600,"station_id":"ce4bgv92rcd13ifvqcr0","pricing_plan_id":"cebpf4jnsgd1na2vs0mg"},{"bike_id":"fcfefb24-326d-4618-ac95-451254aec9a9","system_id":"levelo_inurba_marseille","lat":43.310804,"lon":5.38359,"is_reserved":false,"is_disabled":false,"rental_uris":{"android":"levelo://app?vid=fcfefb24-326d-4618-ac95-451254aec9a9","ios":"levelo://app?vid=fcfefb24-326d-4618-ac95-451254aec9a9"},"vehicle_type_id":"4","last_reported":1718921230,"current_range_meters":31200,"station_id":"ce4bgv92rcd13ifvqcr0","pricing_plan_id":"cebpf4jnsgd1na2vs0mg"},{"bike_id":"9fd5b32b-c103-463f-beda-4f46c7d98495","system_id":"levelo_inurba_marseille","lat":43.310804,"lon":5.38359,"is_reserved":false,"is_disabled":false,"rental_uris":{"android":"levelo://app?vid=9fd5b32b-c103-463f-beda-4f46c7d98495","ios":"levelo://app?vid=9fd5b32b-c103-463f-beda-4f46c7d98495"},"vehicle_type_id":"4","last_reported":1718921230,"current_range_meters":31200,"station_id":"ce4bgv92rcd13ifvqcr0","pricing_plan_id":"cebpf4jnsgd1na2vs0mg"},{"bike_id":"957538ef-7a35-4770-8892-96a6b284d9c7","system_id":"levelo_inurba_marseille","lat":43.31076,"lon":5.38351,"is_reserved":false,"is_disabled":false,"rental_uris":{"android":"levelo://app?vid=957538ef-7a35-4770-8892-96a6b284d9c7","ios":"levelo://app?vid=957538ef-7a35-4770-8892-96a6b284d9c7"},"vehicle_type_id":"4","last_reported":1718921230,"current_range_meters":6000,"station_id":"ce4bgv92rcd13ifvqcr0","pricing_plan_id":"cebpf4jnsgd1na2vs0mg"},{"bike_id":"148ceb2c-a3f0-4524-8ab6-093fb6312bff","system_id":"levelo_inurba_marseille","lat":43.3107,"lon":5.38351,"is_reserved":false,"is_disabled":false,"rental_uris":{"android":"levelo://app?vid=148ceb2c-a3f0-4524-8ab6-093fb6312bff","ios":"levelo://app?vid=148ceb2c-a3f0-4524-8ab6-093fb6312bff"},"vehicle_type_id":"4","last_reported":1718921230,"current_range_meters":14400,"station_id":"ce4bgv92rcd13ifvqcr0","pricing_plan_id":"cebpf4jnsgd1na2vs0mg"},{"bike_id":"77efe059-6aa4-4e35-87a2-7137264c14fa","system_id":"levelo_inurba_marseille","lat":43.310804,"lon":5.38359,"is_reserved":false,"is_disabled":false,"rental_uris":{"android":"levelo://app?vid=77efe059-6aa4-4e35-87a2-7137264c14fa","ios":"levelo://app?vid=77efe059-6aa4-4e35-87a2-7137264c14fa"},"vehicle_type_id":"4","last_reported":1718921230,"current_range_meters":14000,"station_id":"ce4bgv92rcd13ifvqcr0","pricing_plan_id":"cebpf4jnsgd1na2vs0mg"},{"bike_id":"9fb8498b-73b5-4d54-a923-3494af377fdb","system_id":"levelo_inurba_marseille","lat":43.310804,"lon":5.38359,"is_reserved":false,"is_disabled":false,"rental_uris":{"android":"levelo://app?vid=9fb8498b-73b5-4d54-a923-3494af377fdb","ios":"levelo://app?vid=9fb8498b-73b5-4d54-a923-3494af377fdb"},"vehicle_type_id":"4","last_reported":1718921230,"current_range_meters":21200,"station_id":"ce4bgv92rcd13ifvqcr0","pricing_plan_id":"cebpf4jnsgd1na2vs0mg"},{"bike_id":"b5c32e22-dcec-4475-81de-836419b8bb35","system_id":"levelo_inurba_marseille","lat":43.310804,"lon":5.38359,"is_reserved":false,"is_disabled":false,"rental_uris":{"android":"levelo://app?vid=b5c32e22-dcec-4475-81de-836419b8bb35","ios":"levelo://app?vid=b5c32e22-dcec-4475-81de-836419b8bb35"},"vehicle_type_id":"4","last_reported":1718921230,"current_range_meters":12000,"station_id":"ce4bgv92rcd13ifvqcr0","pricing_plan_id":"cebpf4jnsgd1na2vs0mg"},{"bike_id":"e3a35b89-7049-4345-be83-76deedd5707e","system_id":"levelo_inurba_marseille","lat":43.310804,"lon":5.38359,"is_reserved":false,"is_disabled":false,"rental_uris":{"android":"levelo://app?vid=e3a35b89-7049-4345-be83-76deedd5707e","ios":"levelo://app?vid=e3a35b89-7049-4345-be83-76deedd5707e"},"vehicle_type_id":"4","last_reported":1718921230,"current_range_meters":12400,"station_id":"ce4bgv92rcd13ifvqcr0","pricing_plan_id":"cebpf4jnsgd1na2vs0mg"},{"bike_id":"aaf6b731-0c4f-4225-a161-1f0641b0c756","system_id":"levelo_inurba_marseille","lat":43.310804,"lon":5.38359,"is_reserved":false,"is_disabled":false,"rental_uris":{"android":"levelo://app?vid=aaf6b731-0c4f-4225-a161-1f0641b0c756","ios":"levelo://app?vid=aaf6b731-0c4f-4225-a161-1f0641b0c756"},"vehicle_type_id":"4","last_reported":1718921230,"current_range_meters":26800,"station_id":"ce4bgv92rcd13ifvqcr0","pricing_plan_id":"cebpf4jnsgd1na2vs0mg"},{"bike_id":"fc39b69e-fb8d-4396-ac61-6d6da3eb54e2","system_id":"levelo_inurba_marseille","lat":43.310804,"lon":5.38359,"is_reserved":false,"is_disabled":false,"rental_uris":{"android":"levelo://app?vid=fc39b69e-fb8d-4396-ac61-6d6da3eb54e2","ios":"levelo://app?vid=fc39b69e-fb8d-4396-ac61-6d6da3eb54e2"},"vehicle_type_id":"4","last_reported":1718921230,"current_range_meters":31200,"station_id":"ce4bgv92rcd13ifvqcr0","pricing_plan_id":"cebpf4jnsgd1na2vs0mg"},{"bike_id":"a71349d4-d31c-43b9-ba84-1176b8b994fb","system_id":"levelo_inurba_marseille","lat":43.310804,"lon":5.38359,"is_reserved":false,"is_disabled":false,"rental_uris":{"android":"levelo://app?vid=a71349d4-d31c-43b9-ba84-1176b8b994fb","ios":"levelo://app?vid=a71349d4-d31c-43b9-ba84-1176b8b994fb"},"vehicle_type_id":"4","last_reported":1718921230,"current_range_meters":11200,"station_id":"ce4bgv92rcd13ifvqcr0","pricing_plan_id":"cebpf4jnsgd1na2vs0mg"},{"bike_id":"f8332fea-0fc2-4527-b3ed-1bd633dea8dc","system_id":"levelo_inurba_marseille","lat":43.301429,"lon":5.37413,"is_reserved":false,"is_disabled":false,"rental_uris":{"android":"levelo://app?vid=f8332fea-0fc2-4527-b3ed-1bd633dea8dc","ios":"levelo://app?vid=f8332fea-0fc2-4527-b3ed-1bd633dea8dc"},"vehicle_type_id":"4","last_reported":1718921230,"current_range_meters":31200,"station_id":"ce4bgs92rcd13ifvqcc0","pricing_plan_id":"cebpf4jnsgd1na2vs0mg"},{"bike_id":"6d161538-fb72-47da-9ed6-ee25c75c3a45","system_id":"levelo_inurba_marseille","lat":43.301429,"lon":5.37413,"is_reserved":false,"is_disabled":false,"rental_uris":{"android":"levelo://app?vid=6d161538-fb72-47da-9ed6-ee25c75c3a45","ios":"levelo://app?vid=6d161538-fb72-47da-9ed6-ee25c75c3a45"},"vehicle_type_id":"4","last_reported":1718921230,"current_range_meters":15200,"station_id":"ce4bgs92rcd13ifvqcc0","pricing_plan_id":"cebpf4jnsgd1na2vs0mg"},{"bike_id":"7214def3-7a6e-4419-b53f-5ba74a879895","system_id":"levelo_inurba_marseille","lat":43.301429,"lon":5.37413,"is_reserved":false,"is_disabled":false,"rental_uris":{"android":"levelo://app?vid=7214def3-7a6e-4419-b53f-5ba74a879895","ios":"levelo://app?vid=7214def3-7a6e-4419-b53f-5ba74a879895"},"vehicle_type_id":"4","last_reported":1718921230,"current_range_meters":21200,"station_id":"ce4bgs92rcd13ifvqcc0","pricing_plan_id":"cebpf4jnsgd1na2vs0mg"},{"bike_id":"6fb525be-4f83-40a0-b7c2-2eb028eb18b3","system_id":"levelo_inurba_marseille","lat":43.319935,"lon":5.381699,"is_reserved":false,"is_disabled":false,"rental_uris":{"android":"levelo://app?vid=6fb525be-4f83-40a0-b7c2-2eb028eb18b3","ios":"levelo://app?vid=6fb525be-4f83-40a0-b7c2-2eb028eb18b3"},"vehicle_type_id":"4","last_reported":1718921230,"current_range_meters":31200,"station_id":"ce4bhr12rcd13ifvqhpg","pricing_plan_id":"cebpf4jnsgd1na2vs0mg"},{"bike_id":"a791e37b-112d-432f-a0bd-612039f13ddc","system_id":"levelo_inurba_marseille","lat":43.319935,"lon":5.381699,"is_reserved":false,"is_disabled":false,"rental_uris":{"android":"levelo://app?vid=a791e37b-112d-432f-a0bd-612039f13ddc","ios":"levelo://app?vid=a791e37b-112d-432f-a0bd-612039f13ddc"},"vehicle_type_id":"4","last_reported":1718921230,"current_range_meters":3200,"station_id":"ce4bhr12rcd13ifvqhpg","pricing_plan_id":"cebpf4jnsgd1na2vs0mg"},{"bike_id":"d18c46dd-b3c1-4e24-a712-147090dd7e75","system_id":"levelo_inurba_marseille","lat":43.319935,"lon":5.381699,"is_reserved":false,"is_disabled":false,"rental_uris":{"android":"levelo://app?vid=d18c46dd-b3c1-4e24-a712-147090dd7e75","ios":"levelo://app?vid=d18c46dd-b3c1-4e24-a712-147090dd7e75"},"vehicle_type_id":"4","last_reported":1718921230,"current_range_meters":31200,"station_id":"ce4bhr12rcd13ifvqhpg","pricing_plan_id":"cebpf4jnsgd1na2vs0mg"},{"bike_id":"bd6b49bc-e1c9-4512-9d8f-7d715002eb4c","system_id":"levelo_inurba_marseille","lat":43.319935,"lon":5.381699,"is_reserved":false,"is_disabled":false,"rental_uris":{"android":"levelo://app?vid=bd6b49bc-e1c9-4512-9d8f-7d715002eb4c","ios":"levelo://app?vid=bd6b49bc-e1c9-4512-9d8f-7d715002eb4c"},"vehicle_type_id":"4","last_reported":1718921230,"current_range_meters":22400,"station_id":"ce4bhr12rcd13ifvqhpg","pricing_plan_id":"cebpf4jnsgd1na2vs0mg"},{"bike_id":"5ef14db4-b750-473c-873d-cc431c796412","system_id":"levelo_inurba_marseille","lat":43.319935,"lon":5.381699,"is_reserved":false,"is_disabled":false,"rental_uris":{"android":"levelo://app?vid=5ef14db4-b750-473c-873d-cc431c796412","ios":"levelo://app?vid=5ef14db4-b750-473c-873d-cc431c796412"},"vehicle_type_id":"4","last_reported":1718921230,"current_range_meters":11200,"station_id":"ce4bhr12rcd13ifvqhpg","pricing_plan_id":"cebpf4jnsgd1na2vs0mg"},{"bike_id":"166dfed8-97ff-41e5-9475-3edea9c8647e","system_id":"levelo_inurba_marseille","lat":43.319935,"lon":5.381699,"is_reserved":false,"is_disabled":false,"rental_uris":{"android":"levelo://app?vid=166dfed8-97ff-41e5-9475-3edea9c8647e","ios":"levelo://app?vid=166dfed8-97ff-41e5-9475-3edea9c8647e"},"vehicle_type_id":"4","last_reported":1718921230,"current_range_meters":26000,"station_id":"ce4bhr12rcd13ifvqhpg","pricing_plan_id":"cebpf4jnsgd1na2vs0mg"},{"bike_id":"624b9996-fc5d-4b87-8a0c-6598343c99c1","system_id":"levelo_inurba_marseille","lat":43.313571,"lon":5.384829,"is_reserved":false,"is_disabled":false,"rental_uris":{"android":"levelo://app?vid=624b9996-fc5d-4b87-8a0c-6598343c99c1","ios":"levelo://app?vid=624b9996-fc5d-4b87-8a0c-6598343c99c1"},"vehicle_type_id":"4","last_reported":1718921230,"current_range_meters":12800,"station_id":"ce4bgt92rcd13ifvqcf0","pricing_plan_id":"cebpf4jnsgd1na2vs0mg"},{"bike_id":"d0b9d14c-f88b-47be-906f-929655a67453","system_id":"levelo_inurba_marseille","lat":43.31366,"lon":5.3848,"is_reserved":false,"is_disabled":false,"rental_uris":{"android":"levelo://app?vid=d0b9d14c-f88b-47be-906f-929655a67453","ios":"levelo://app?vid=d0b9d14c-f88b-47be-906f-929655a67453"},"vehicle_type_id":"4","last_reported":1718921230,"current_range_meters":31200,"station_id":"ce4bgt92rcd13ifvqcf0","pricing_plan_id":"cebpf4jnsgd1na2vs0mg"},{"bike_id":"17049ca2-6317-4ba7-a206-e7682ff7ba7a","system_id":"levelo_inurba_marseille","lat":43.313571,"lon":5.384829,"is_reserved":false,"is_disabled":false,"rental_uris":{"android":"levelo://app?vid=17049ca2-6317-4ba7-a206-e7682ff7ba7a","ios":"levelo://app?vid=17049ca2-6317-4ba7-a206-e7682ff7ba7a"},"vehicle_type_id":"4","last_reported":1718921230,"current_range_meters":30000,"station_id":"ce4bgt92rcd13ifvqcf0","pricing_plan_id":"cebpf4jnsgd1na2vs0mg"},{"bike_id":"bae13b84-f286-47b9-a160-bee5337bcc31","system_id":"levelo_inurba_marseille","lat":43.31358,"lon":5.38485,"is_reserved":false,"is_disabled":false,"rental_uris":{"android":"levelo://app?vid=bae13b84-f286-47b9-a160-bee5337bcc31","ios":"levelo://app?vid=bae13b84-f286-47b9-a160-bee5337bcc31"},"vehicle_type_id":"4","last_reported":1718921230,"current_range_meters":17200,"station_id":"ce4bgt92rcd13ifvqcf0","pricing_plan_id":"cebpf4jnsgd1na2vs0mg"},{"bike_id":"10665ea6-72fe-47b4-b43e-bc489a40e8d9","system_id":"levelo_inurba_marseille","lat":43.31362,"lon":5.38487,"is_reserved":false,"is_disabled":false,"rental_uris":{"android":"levelo://app?vid=10665ea6-72fe-47b4-b43e-bc489a40e8d9","ios":"levelo://app?vid=10665ea6-72fe-47b4-b43e-bc489a40e8d9"},"vehicle_type_id":"4","last_reported":1718921230,"current_range_meters":30000,"station_id":"ce4bgt92rcd13ifvqcf0","pricing_plan_id":"cebpf4jnsgd1na2vs0mg"},{"bike_id":"5a5e5b89-6321-4c01-9963-c4129caf69ff","system_id":"levelo_inurba_marseille","lat":43.313571,"lon":5.384829,"is_reserved":false,"is_disabled":false,"rental_uris":{"android":"levelo://app?vid=5a5e5b89-6321-4c01-9963-c4129caf69ff","ios":"levelo://app?vid=5a5e5b89-6321-4c01-9963-c4129caf69ff"},"vehicle_type_id":"4","last_reported":1718921230,"current_range_meters":26400,"station_id":"ce4bgt92rcd13ifvqcf0","pricing_plan_id":"cebpf4jnsgd1na2vs0mg"},{"bike_id":"871b53f7-c46d-4517-9e05-c9494218fed6","system_id":"levelo_inurba_marseille","lat":43.313571,"lon":5.384829,"is_reserved":false,"is_disabled":false,"rental_uris":{"android":"levelo://app?vid=871b53f7-c46d-4517-9e05-c9494218fed6","ios":"levelo://app?vid=871b53f7-c46d-4517-9e05-c9494218fed6"},"vehicle_type_id":"4","last_reported":1718921230,"current_range_meters":24000,"station_id":"ce4bgt92rcd13ifvqcf0","pricing_plan_id":"cebpf4jnsgd1na2vs0mg"},{"bike_id":"f25a9fe3-f97b-45cb-bdcd-8b5f24c00e2f","system_id":"levelo_inurba_marseille","lat":43.313571,"lon":5.384829,"is_reserved":false,"is_disabled":false,"rental_uris":{"android":"levelo://app?vid=f25a9fe3-f97b-45cb-bdcd-8b5f24c00e2f","ios":"levelo://app?vid=f25a9fe3-f97b-45cb-bdcd-8b5f24c00e2f"},"vehicle_type_id":"4","last_reported":1718921230,"current_range_meters":25200,"station_id":"ce4bgt92rcd13ifvqcf0","pricing_plan_id":"cebpf4jnsgd1na2vs0mg"},{"bike_id":"b8b603fe-50a2-49b1-a524-c9177a27eafd","system_id":"levelo_inurba_marseille","lat":43.313571,"lon":5.384829,"is_reserved":false,"is_disabled":false,"rental_uris":{"android":"levelo://app?vid=b8b603fe-50a2-49b1-a524-c9177a27eafd","ios":"levelo://app?vid=b8b603fe-50a2-49b1-a524-c9177a27eafd"},"vehicle_type_id":"4","last_reported":1718921230,"current_range_meters":19200,"station_id":"ce4bgt92rcd13ifvqcf0","pricing_plan_id":"cebpf4jnsgd1na2vs0mg"},{"bike_id":"6e795a18-c699-4fde-afd7-3ca3516f833f","system_id":"levelo_inurba_marseille","lat":43.313571,"lon":5.384829,"is_reserved":false,"is_disabled":false,"rental_uris":{"android":"levelo://app?vid=6e795a18-c699-4fde-afd7-3ca3516f833f","ios":"levelo://app?vid=6e795a18-c699-4fde-afd7-3ca3516f833f"},"vehicle_type_id":"4","last_reported":1718921230,"current_range_meters":31200,"station_id":"ce4bgt92rcd13ifvqcf0","pricing_plan_id":"cebpf4jnsgd1na2vs0mg"},{"bike_id":"fb1dbbb3-b93d-4359-9f90-b2712704902b","system_id":"levelo_inurba_marseille","lat":43.313571,"lon":5.384829,"is_reserved":false,"is_disabled":false,"rental_uris":{"android":"levelo://app?vid=fb1dbbb3-b93d-4359-9f90-b2712704902b","ios":"levelo://app?vid=fb1dbbb3-b93d-4359-9f90-b2712704902b"},"vehicle_type_id":"4","last_reported":1718921230,"current_range_meters":9600,"station_id":"ce4bgt92rcd13ifvqcf0","pricing_plan_id":"cebpf4jnsgd1na2vs0mg"},{"bike_id":"537d1143-c169-4545-8112-bc0fd7deda47","system_id":"levelo_inurba_marseille","lat":43.31364,"lon":5.38492,"is_reserved":false,"is_disabled":false,"rental_uris":{"android":"levelo://app?vid=537d1143-c169-4545-8112-bc0fd7deda47","ios":"levelo://app?vid=537d1143-c169-4545-8112-bc0fd7deda47"},"vehicle_type_id":"4","last_reported":1718921230,"current_range_meters":30800,"station_id":"ce4bgt92rcd13ifvqcf0","pricing_plan_id":"cebpf4jnsgd1na2vs0mg"},{"bike_id":"61b7f469-9c9e-4189-8fa9-3ac23d54fe58","system_id":"levelo_inurba_marseille","lat":43.31358,"lon":5.38494,"is_reserved":false,"is_disabled":false,"rental_uris":{"android":"levelo://app?vid=61b7f469-9c9e-4189-8fa9-3ac23d54fe58","ios":"levelo://app?vid=61b7f469-9c9e-4189-8fa9-3ac23d54fe58"},"vehicle_type_id":"4","last_reported":1718921230,"current_range_meters":21600,"station_id":"ce4bgt92rcd13ifvqcf0","pricing_plan_id":"cebpf4jnsgd1na2vs0mg"},{"bike_id":"b4724355-938d-428d-9869-e1869ab2a4da","system_id":"levelo_inurba_marseille","lat":43.313571,"lon":5.384829,"is_reserved":false,"is_disabled":false,"rental_uris":{"android":"levelo://app?vid=b4724355-938d-428d-9869-e1869ab2a4da","ios":"levelo://app?vid=b4724355-938d-428d-9869-e1869ab2a4da"},"vehicle_type_id":"4","last_reported":1718921230,"current_range_meters":30400,"station_id":"ce4bgt92rcd13ifvqcf0","pricing_plan_id":"cebpf4jnsgd1na2vs0mg"},{"bike_id":"faf23bbf-18db-4c0c-8350-5ba70ec6e009","system_id":"levelo_inurba_marseille","lat":43.299816,"lon":5.371809,"is_reserved":false,"is_disabled":false,"rental_uris":{"android":"levelo://app?vid=faf23bbf-18db-4c0c-8350-5ba70ec6e009","ios":"levelo://app?vid=faf23bbf-18db-4c0c-8350-5ba70ec6e009"},"vehicle_type_id":"4","last_reported":1718921230,"current_range_meters":0,"station_id":"ce4bgr92rcd13ifvqc7g","pricing_plan_id":"cebpf4jnsgd1na2vs0mg"},{"bike_id":"6c5f004e-ee22-437c-9bfb-6a414446c735","system_id":"levelo_inurba_marseille","lat":43.299724,"lon":5.371829,"is_reserved":false,"is_disabled":false,"rental_uris":{"android":"levelo://app?vid=6c5f004e-ee22-437c-9bfb-6a414446c735","ios":"levelo://app?vid=6c5f004e-ee22-437c-9bfb-6a414446c735"},"vehicle_type_id":"4","last_reported":1718921230,"current_range_meters":29600,"station_id":"ce4bgr92rcd13ifvqc7g","pricing_plan_id":"cebpf4jnsgd1na2vs0mg"},{"bike_id":"7b366b8d-0366-4db4-95cf-13300fa9e4c0","system_id":"levelo_inurba_marseille","lat":43.299724,"lon":5.371829,"is_reserved":false,"is_disabled":false,"rental_uris":{"android":"levelo://app?vid=7b366b8d-0366-4db4-95cf-13300fa9e4c0","ios":"levelo://app?vid=7b366b8d-0366-4db4-95cf-13300fa9e4c0"},"vehicle_type_id":"4","last_reported":1718921230,"current_range_meters":0,"station_id":"ce4bgr92rcd13ifvqc7g","pricing_plan_id":"cebpf4jnsgd1na2vs0mg"},{"bike_id":"1b3d20a4-943b-4793-90b4-d90936b716cd","system_id":"levelo_inurba_marseille","lat":43.30105,"lon":5.37827,"is_reserved":false,"is_disabled":false,"rental_uris":{"android":"levelo://app?vid=1b3d20a4-943b-4793-90b4-d90936b716cd","ios":"levelo://app?vid=1b3d20a4-943b-4793-90b4-d90936b716cd"},"vehicle_type_id":"4","last_reported":1718921230,"current_range_meters":1200,"station_id":"","pricing_plan_id":"cebpf4jnsgd1na2vs0mg"},{"bike_id":"7ad78b5b-5255-48e6-bf46-833fe33a9c89","system_id":"levelo_inurba_marseille","lat":43.298414,"lon":5.364655,"is_reserved":false,"is_disabled":false,"rental_uris":{"android":"levelo://app?vid=7ad78b5b-5255-48e6-bf46-833fe33a9c89","ios":"levelo://app?vid=7ad78b5b-5255-48e6-bf46-833fe33a9c89"},"vehicle_type_id":"4","last_reported":1718921230,"current_range_meters":400,"station_id":"","pricing_plan_id":"cebpf4jnsgd1na2vs0mg"},{"bike_id":"202fb2e5-89ca-4538-8bb7-cdb63339fd18","system_id":"levelo_inurba_marseille","lat":43.298758,"lon":5.371982,"is_reserved":false,"is_disabled":false,"rental_uris":{"android":"levelo://app?vid=202fb2e5-89ca-4538-8bb7-cdb63339fd18","ios":"levelo://app?vid=202fb2e5-89ca-4538-8bb7-cdb63339fd18"},"vehicle_type_id":"4","last_reported":1718921230,"current_range_meters":30800,"station_id":"","pricing_plan_id":"cebpf4jnsgd1na2vs0mg"},{"bike_id":"77589209-24ee-4c05-b073-2ef2b9069265","system_id":"levelo_inurba_marseille","lat":43.298433,"lon":5.362774,"is_reserved":false,"is_disabled":false,"rental_uris":{"android":"levelo://app?vid=77589209-24ee-4c05-b073-2ef2b9069265","ios":"levelo://app?vid=77589209-24ee-4c05-b073-2ef2b9069265"},"vehicle_type_id":"4","last_reported":1718921230,"current_range_meters":31200,"station_id":"ce4bgpp2rcd13ifvqc3g","pricing_plan_id":"cebpf4jnsgd1na2vs0mg"},{"bike_id":"c33094e1-51bb-4d28-b256-12be154218f5","system_id":"levelo_inurba_marseille","lat":43.299243,"lon":5.374807,"is_reserved":false,"is_disabled":false,"rental_uris":{"android":"levelo://app?vid=c33094e1-51bb-4d28-b256-12be154218f5","ios":"levelo://app?vid=c33094e1-51bb-4d28-b256-12be154218f5"},"vehicle_type_id":"4","last_reported":1718921230,"current_range_meters":23200,"station_id":"ce4bgjh2rcd13ifvqbg0","pricing_plan_id":"cebpf4jnsgd1na2vs0mg"},{"bike_id":"79e17655-e69b-4e1f-b6a0-24b41e7c0703","system_id":"levelo_inurba_marseille","lat":43.31183,"lon":5.387059,"is_reserved":false,"is_disabled":false,"rental_uris":{"android":"levelo://app?vid=79e17655-e69b-4e1f-b6a0-24b41e7c0703","ios":"levelo://app?vid=79e17655-e69b-4e1f-b6a0-24b41e7c0703"},"vehicle_type_id":"4","last_reported":1718921230,"current_range_meters":23600,"station_id":"ce4bgv12rcd13ifvqcp0","pricing_plan_id":"cebpf4jnsgd1na2vs0mg"},{"bike_id":"b7457832-8aa2-4d34-81a2-0093d04fe151","system_id":"levelo_inurba_marseille","lat":43.311722,"lon":5.387247,"is_reserved":false,"is_disabled":false,"rental_uris":{"android":"levelo://app?vid=b7457832-8aa2-4d34-81a2-0093d04fe151","ios":"levelo://app?vid=b7457832-8aa2-4d34-81a2-0093d04fe151"},"vehicle_type_id":"4","last_reported":1718921230,"current_range_meters":21200,"station_id":"ce4bgv12rcd13ifvqcp0","pricing_plan_id":"cebpf4jnsgd1na2vs0mg"},{"bike_id":"22f73c25-8b4a-42bc-9a90-7e43fade9509","system_id":"levelo_inurba_marseille","lat":43.31169,"lon":5.38706,"is_reserved":false,"is_disabled":false,"rental_uris":{"android":"levelo://app?vid=22f73c25-8b4a-42bc-9a90-7e43fade9509","ios":"levelo://app?vid=22f73c25-8b4a-42bc-9a90-7e43fade9509"},"vehicle_type_id":"4","last_reported":1718921230,"current_range_meters":30000,"station_id":"ce4bgv12rcd13ifvqcp0","pricing_plan_id":"cebpf4jnsgd1na2vs0mg"},{"bike_id":"67fe12bf-1d2b-45b7-a718-072c6bf215f2","system_id":"levelo_inurba_marseille","lat":43.29919,"lon":5.37473,"is_reserved":false,"is_disabled":false,"rental_uris":{"android":"levelo://app?vid=67fe12bf-1d2b-45b7-a718-072c6bf215f2","ios":"levelo://app?vid=67fe12bf-1d2b-45b7-a718-072c6bf215f2"},"vehicle_type_id":"4","last_reported":1718921230,"current_range_meters":11200,"station_id":"ce4bgjh2rcd13ifvqbg0","pricing_plan_id":"cebpf4jnsgd1na2vs0mg"},{"bike_id":"cdcf4b6b-7830-43ea-a8b3-f58be1648475","system_id":"levelo_inurba_marseille","lat":43.311722,"lon":5.387247,"is_reserved":false,"is_disabled":false,"rental_uris":{"android":"levelo://app?vid=cdcf4b6b-7830-43ea-a8b3-f58be1648475","ios":"levelo://app?vid=cdcf4b6b-7830-43ea-a8b3-f58be1648475"},"vehicle_type_id":"4","last_reported":1718921230,"current_range_meters":16400,"station_id":"ce4bgv12rcd13ifvqcp0","pricing_plan_id":"cebpf4jnsgd1na2vs0mg"},{"bike_id":"9c3d82af-4446-480a-86f1-4f6937f71cf7","system_id":"levelo_inurba_marseille","lat":43.31182,"lon":5.38711,"is_reserved":false,"is_disabled":false,"rental_uris":{"android":"levelo://app?vid=9c3d82af-4446-480a-86f1-4f6937f71cf7","ios":"levelo://app?vid=9c3d82af-4446-480a-86f1-4f6937f71cf7"},"vehicle_type_id":"4","last_reported":1718921230,"current_range_meters":30800,"station_id":"ce4bgv12rcd13ifvqcp0","pricing_plan_id":"cebpf4jnsgd1na2vs0mg"},{"bike_id":"2cfe42d3-7a97-4021-816f-58c1a875c611","system_id":"levelo_inurba_marseille","lat":43.3117,"lon":5.3871,"is_reserved":false,"is_disabled":false,"rental_uris":{"android":"levelo://app?vid=2cfe42d3-7a97-4021-816f-58c1a875c611","ios":"levelo://app?vid=2cfe42d3-7a97-4021-816f-58c1a875c611"},"vehicle_type_id":"4","last_reported":1718921230,"current_range_meters":800,"station_id":"ce4bgv12rcd13ifvqcp0","pricing_plan_id":"cebpf4jnsgd1na2vs0mg"},{"bike_id":"f057cd18-8ecf-4e82-ae26-b8e4f412a14e","system_id":"levelo_inurba_marseille","lat":43.311722,"lon":5.387247,"is_reserved":false,"is_disabled":false,"rental_uris":{"android":"levelo://app?vid=f057cd18-8ecf-4e82-ae26-b8e4f412a14e","ios":"levelo://app?vid=f057cd18-8ecf-4e82-ae26-b8e4f412a14e"},"vehicle_type_id":"4","last_reported":1718921230,"current_range_meters":20800,"station_id":"ce4bgv12rcd13ifvqcp0","pricing_plan_id":"cebpf4jnsgd1na2vs0mg"},{"bike_id":"2887381d-a9ff-4593-bc56-1f8035dc896c","system_id":"levelo_inurba_marseille","lat":43.311722,"lon":5.387247,"is_reserved":false,"is_disabled":false,"rental_uris":{"android":"levelo://app?vid=2887381d-a9ff-4593-bc56-1f8035dc896c","ios":"levelo://app?vid=2887381d-a9ff-4593-bc56-1f8035dc896c"},"vehicle_type_id":"4","last_reported":1718921230,"current_range_meters":22000,"station_id":"ce4bgv12rcd13ifvqcp0","pricing_plan_id":"cebpf4jnsgd1na2vs0mg"},{"bike_id":"c0ff29be-1b5a-43c1-9ee8-37b142781efb","system_id":"levelo_inurba_marseille","lat":43.311722,"lon":5.387247,"is_reserved":false,"is_disabled":false,"rental_uris":{"android":"levelo://app?vid=c0ff29be-1b5a-43c1-9ee8-37b142781efb","ios":"levelo://app?vid=c0ff29be-1b5a-43c1-9ee8-37b142781efb"},"vehicle_type_id":"4","last_reported":1718921230,"current_range_meters":22800,"station_id":"ce4bgv12rcd13ifvqcp0","pricing_plan_id":"cebpf4jnsgd1na2vs0mg"},{"bike_id":"490cbc0e-3a93-4683-9c4c-9b7240674d81","system_id":"levelo_inurba_marseille","lat":43.311722,"lon":5.387247,"is_reserved":false,"is_disabled":false,"rental_uris":{"android":"levelo://app?vid=490cbc0e-3a93-4683-9c4c-9b7240674d81","ios":"levelo://app?vid=490cbc0e-3a93-4683-9c4c-9b7240674d81"},"vehicle_type_id":"4","last_reported":1718921230,"current_range_meters":28800,"station_id":"ce4bgv12rcd13ifvqcp0","pricing_plan_id":"cebpf4jnsgd1na2vs0mg"},{"bike_id":"02a37c7e-e1ce-464f-811b-e564cc2dd376","system_id":"levelo_inurba_marseille","lat":43.301495,"lon":5.380697,"is_reserved":false,"is_disabled":false,"rental_uris":{"android":"levelo://app?vid=02a37c7e-e1ce-464f-811b-e564cc2dd376","ios":"levelo://app?vid=02a37c7e-e1ce-464f-811b-e564cc2dd376"},"vehicle_type_id":"4","last_reported":1718921230,"current_range_meters":9600,"station_id":"","pricing_plan_id":"cebpf4jnsgd1na2vs0mg"},{"bike_id":"cb38189d-ca60-4c77-8b58-8de8bf3a1a8b","system_id":"levelo_inurba_marseille","lat":43.322872,"lon":5.382756,"is_reserved":false,"is_disabled":false,"rental_uris":{"android":"levelo://app?vid=cb38189d-ca60-4c77-8b58-8de8bf3a1a8b","ios":"levelo://app?vid=cb38189d-ca60-4c77-8b58-8de8bf3a1a8b"},"vehicle_type_id":"4","last_reported":1718921230,"current_range_meters":400,"station_id":"ce4bhr12rcd13ifvqhqg","pricing_plan_id":"cebpf4jnsgd1na2vs0mg"},{"bike_id":"2e452a41-55ea-4d4e-87f0-1b8ebe96891f","system_id":"levelo_inurba_marseille","lat":43.322872,"lon":5.382756,"is_reserved":false,"is_disabled":false,"rental_uris":{"android":"levelo://app?vid=2e452a41-55ea-4d4e-87f0-1b8ebe96891f","ios":"levelo://app?vid=2e452a41-55ea-4d4e-87f0-1b8ebe96891f"},"vehicle_type_id":"4","last_reported":1718921230,"current_range_meters":31200,"station_id":"ce4bhr12rcd13ifvqhqg","pricing_plan_id":"cebpf4jnsgd1na2vs0mg"},{"bike_id":"a3a7a749-b70c-458c-9c20-81d61c66a8e5","system_id":"levelo_inurba_marseille","lat":43.297794,"lon":5.370888,"is_reserved":false,"is_disabled":false,"rental_uris":{"android":"levelo://app?vid=a3a7a749-b70c-458c-9c20-81d61c66a8e5","ios":"levelo://app?vid=a3a7a749-b70c-458c-9c20-81d61c66a8e5"},"vehicle_type_id":"4","last_reported":1718921230,"current_range_meters":20800,"station_id":"ce4bgop2rcd13ifvqc1g","pricing_plan_id":"cebpf4jnsgd1na2vs0mg"},{"bike_id":"97f0d075-aabd-4fff-8968-8224efa98fe1","system_id":"levelo_inurba_marseille","lat":43.297794,"lon":5.370888,"is_reserved":false,"is_disabled":false,"rental_uris":{"android":"levelo://app?vid=97f0d075-aabd-4fff-8968-8224efa98fe1","ios":"levelo://app?vid=97f0d075-aabd-4fff-8968-8224efa98fe1"},"vehicle_type_id":"4","last_reported":1718921230,"current_range_meters":6000,"station_id":"ce4bgop2rcd13ifvqc1g","pricing_plan_id":"cebpf4jnsgd1na2vs0mg"},{"bike_id":"8bc5a871-93d0-44d8-a3d8-e546b2b93406","system_id":"levelo_inurba_marseille","lat":43.322872,"lon":5.382756,"is_reserved":false,"is_disabled":false,"rental_uris":{"android":"levelo://app?vid=8bc5a871-93d0-44d8-a3d8-e546b2b93406","ios":"levelo://app?vid=8bc5a871-93d0-44d8-a3d8-e546b2b93406"},"vehicle_type_id":"4","last_reported":1718921230,"current_range_meters":24400,"station_id":"ce4bhr12rcd13ifvqhqg","pricing_plan_id":"cebpf4jnsgd1na2vs0mg"},{"bike_id":"8dd23ea4-9d10-415a-8d04-cec00d71e995","system_id":"levelo_inurba_marseille","lat":43.311722,"lon":5.387247,"is_reserved":false,"is_disabled":false,"rental_uris":{"android":"levelo://app?vid=8dd23ea4-9d10-415a-8d04-cec00d71e995","ios":"levelo://app?vid=8dd23ea4-9d10-415a-8d04-cec00d71e995"},"vehicle_type_id":"4","last_reported":1718921230,"current_range_meters":21200,"station_id":"ce4bgv12rcd13ifvqcp0","pricing_plan_id":"cebpf4jnsgd1na2vs0mg"},{"bike_id":"20f31c62-307b-4c16-93b6-6fcc5accd677","system_id":"levelo_inurba_marseille","lat":43.298275,"lon":5.37717,"is_reserved":false,"is_disabled":false,"rental_uris":{"android":"levelo://app?vid=20f31c62-307b-4c16-93b6-6fcc5accd677","ios":"levelo://app?vid=20f31c62-307b-4c16-93b6-6fcc5accd677"},"vehicle_type_id":"4","last_reported":1718921230,"current_range_meters":16400,"station_id":"","pricing_plan_id":"cebpf4jnsgd1na2vs0mg"},{"bike_id":"7af0c053-ec81-4c56-a3d7-fd1b56cae930","system_id":"levelo_inurba_marseille","lat":43.2968,"lon":5.37291,"is_reserved":false,"is_disabled":false,"rental_uris":{"android":"levelo://app?vid=7af0c053-ec81-4c56-a3d7-fd1b56cae930","ios":"levelo://app?vid=7af0c053-ec81-4c56-a3d7-fd1b56cae930"},"vehicle_type_id":"4","last_reported":1718921230,"current_range_meters":17200,"station_id":"ce4bgk12rcd13ifvqbj0","pricing_plan_id":"cebpf4jnsgd1na2vs0mg"},{"bike_id":"487d4690-e2d7-4353-83d2-71f399bdbc28","system_id":"levelo_inurba_marseille","lat":43.322937,"lon":5.385257,"is_reserved":false,"is_disabled":false,"rental_uris":{"android":"levelo://app?vid=487d4690-e2d7-4353-83d2-71f399bdbc28","ios":"levelo://app?vid=487d4690-e2d7-4353-83d2-71f399bdbc28"},"vehicle_type_id":"4","last_reported":1718921230,"current_range_meters":1600,"station_id":"","pricing_plan_id":"cebpf4jnsgd1na2vs0mg"},{"bike_id":"32129980-62c0-4aef-8433-5b03cffe59d9","system_id":"levelo_inurba_marseille","lat":43.296131,"lon":5.370791,"is_reserved":false,"is_disabled":false,"rental_uris":{"android":"levelo://app?vid=32129980-62c0-4aef-8433-5b03cffe59d9","ios":"levelo://app?vid=32129980-62c0-4aef-8433-5b03cffe59d9"},"vehicle_type_id":"4","last_reported":1718921230,"current_range_meters":16400,"station_id":"ce4bgnh2rcd13ifvqc0g","pricing_plan_id":"cebpf4jnsgd1na2vs0mg"},{"bike_id":"da883bee-ce7c-4977-bcb9-4557fdfeb1ed","system_id":"levelo_inurba_marseille","lat":43.29732,"lon":5.37683,"is_reserved":false,"is_disabled":false,"rental_uris":{"android":"levelo://app?vid=da883bee-ce7c-4977-bcb9-4557fdfeb1ed","ios":"levelo://app?vid=da883bee-ce7c-4977-bcb9-4557fdfeb1ed"},"vehicle_type_id":"4","last_reported":1718921230,"current_range_meters":8400,"station_id":"ce4bgkh2rcd13ifvqbl0","pricing_plan_id":"cebpf4jnsgd1na2vs0mg"},{"bike_id":"f149e019-6e57-40ce-bce0-5636dd77cdd5","system_id":"levelo_inurba_marseille","lat":43.29726,"lon":5.37689,"is_reserved":false,"is_disabled":false,"rental_uris":{"android":"levelo://app?vid=f149e019-6e57-40ce-bce0-5636dd77cdd5","ios":"levelo://app?vid=f149e019-6e57-40ce-bce0-5636dd77cdd5"},"vehicle_type_id":"4","last_reported":1718921230,"current_range_meters":0,"station_id":"ce4bgkh2rcd13ifvqbl0","pricing_plan_id":"cebpf4jnsgd1na2vs0mg"},{"bike_id":"cc30948c-1f21-4948-a45a-d230fa50bb80","system_id":"levelo_inurba_marseille","lat":43.296935,"lon":5.376544,"is_reserved":false,"is_disabled":false,"rental_uris":{"android":"levelo://app?vid=cc30948c-1f21-4948-a45a-d230fa50bb80","ios":"levelo://app?vid=cc30948c-1f21-4948-a45a-d230fa50bb80"},"vehicle_type_id":"4","last_reported":1718921230,"current_range_meters":0,"station_id":"ce4bgkh2rcd13ifvqbl0","pricing_plan_id":"cebpf4jnsgd1na2vs0mg"},{"bike_id":"abd42e9d-f504-46da-add1-68bc0f3d4a68","system_id":"levelo_inurba_marseille","lat":43.309589,"lon":5.390258,"is_reserved":false,"is_disabled":false,"rental_uris":{"android":"levelo://app?vid=abd42e9d-f504-46da-add1-68bc0f3d4a68","ios":"levelo://app?vid=abd42e9d-f504-46da-add1-68bc0f3d4a68"},"vehicle_type_id":"4","last_reported":1718921230,"current_range_meters":23200,"station_id":"ce4bgup2rcd13ifvqco0","pricing_plan_id":"cebpf4jnsgd1na2vs0mg"},{"bike_id":"1c078ec5-81e0-4f56-87ea-de76b7b38858","system_id":"levelo_inurba_marseille","lat":43.31754,"lon":5.39013,"is_reserved":false,"is_disabled":false,"rental_uris":{"android":"levelo://app?vid=1c078ec5-81e0-4f56-87ea-de76b7b38858","ios":"levelo://app?vid=1c078ec5-81e0-4f56-87ea-de76b7b38858"},"vehicle_type_id":"4","last_reported":1718921230,"current_range_meters":28400,"station_id":"ce4bhqp2rcd13ifvqhng","pricing_plan_id":"cebpf4jnsgd1na2vs0mg"},{"bike_id":"ebbfc6d4-bfe5-47da-bb97-efe302f9bfa1","system_id":"levelo_inurba_marseille","lat":43.3176,"lon":5.39018,"is_reserved":false,"is_disabled":false,"rental_uris":{"android":"levelo://app?vid=ebbfc6d4-bfe5-47da-bb97-efe302f9bfa1","ios":"levelo://app?vid=ebbfc6d4-bfe5-47da-bb97-efe302f9bfa1"},"vehicle_type_id":"4","last_reported":1718921230,"current_range_meters":4800,"station_id":"ce4bhqp2rcd13ifvqhng","pricing_plan_id":"cebpf4jnsgd1na2vs0mg"},{"bike_id":"94a26fef-f45b-48bd-b619-f219d8f733b6","system_id":"levelo_inurba_marseille","lat":43.317557,"lon":5.390173,"is_reserved":false,"is_disabled":false,"rental_uris":{"android":"levelo://app?vid=94a26fef-f45b-48bd-b619-f219d8f733b6","ios":"levelo://app?vid=94a26fef-f45b-48bd-b619-f219d8f733b6"},"vehicle_type_id":"4","last_reported":1718921230,"current_range_meters":0,"station_id":"ce4bhqp2rcd13ifvqhng","pricing_plan_id":"cebpf4jnsgd1na2vs0mg"},{"bike_id":"f430036b-255f-42a5-99fb-7510145ebd63","system_id":"levelo_inurba_marseille","lat":43.298037,"lon":5.381066,"is_reserved":false,"is_disabled":false,"rental_uris":{"android":"levelo://app?vid=f430036b-255f-42a5-99fb-7510145ebd63","ios":"levelo://app?vid=f430036b-255f-42a5-99fb-7510145ebd63"},"vehicle_type_id":"4","last_reported":1718921230,"current_range_meters":11600,"station_id":"ce4bgip2rcd13ifvqbb0","pricing_plan_id":"cebpf4jnsgd1na2vs0mg"},{"bike_id":"a5de571e-9612-44ef-94af-0b6dafc2e198","system_id":"levelo_inurba_marseille","lat":43.298037,"lon":5.381066,"is_reserved":false,"is_disabled":false,"rental_uris":{"android":"levelo://app?vid=a5de571e-9612-44ef-94af-0b6dafc2e198","ios":"levelo://app?vid=a5de571e-9612-44ef-94af-0b6dafc2e198"},"vehicle_type_id":"4","last_reported":1718921230,"current_range_meters":7200,"station_id":"ce4bgip2rcd13ifvqbb0","pricing_plan_id":"cebpf4jnsgd1na2vs0mg"},{"bike_id":"3726963a-9cd7-49b9-a681-841b8939a0b3","system_id":"levelo_inurba_marseille","lat":43.304274,"lon":5.388873,"is_reserved":false,"is_disabled":false,"rental_uris":{"android":"levelo://app?vid=3726963a-9cd7-49b9-a681-841b8939a0b3","ios":"levelo://app?vid=3726963a-9cd7-49b9-a681-841b8939a0b3"},"vehicle_type_id":"4","last_reported":1718921230,"current_range_meters":26000,"station_id":"ce4bgk12rcd13ifvqbi0","pricing_plan_id":"cebpf4jnsgd1na2vs0mg"},{"bike_id":"ef491243-a1c1-454c-a95e-b0338d55d146","system_id":"levelo_inurba_marseille","lat":43.30435,"lon":5.38884,"is_reserved":false,"is_disabled":false,"rental_uris":{"android":"levelo://app?vid=ef491243-a1c1-454c-a95e-b0338d55d146","ios":"levelo://app?vid=ef491243-a1c1-454c-a95e-b0338d55d146"},"vehicle_type_id":"4","last_reported":1718921230,"current_range_meters":6800,"station_id":"ce4bgk12rcd13ifvqbi0","pricing_plan_id":"cebpf4jnsgd1na2vs0mg"},{"bike_id":"84edea08-c24e-44fd-9577-5be3c237f653","system_id":"levelo_inurba_marseille","lat":43.304274,"lon":5.388873,"is_reserved":false,"is_disabled":false,"rental_uris":{"android":"levelo://app?vid=84edea08-c24e-44fd-9577-5be3c237f653","ios":"levelo://app?vid=84edea08-c24e-44fd-9577-5be3c237f653"},"vehicle_type_id":"4","last_reported":1718921230,"current_range_meters":6400,"station_id":"ce4bgk12rcd13ifvqbi0","pricing_plan_id":"cebpf4jnsgd1na2vs0mg"},{"bike_id":"fb392f5b-0aff-409f-9891-f92e22f7c309","system_id":"levelo_inurba_marseille","lat":43.304278,"lon":5.388868,"is_reserved":false,"is_disabled":false,"rental_uris":{"android":"levelo://app?vid=fb392f5b-0aff-409f-9891-f92e22f7c309","ios":"levelo://app?vid=fb392f5b-0aff-409f-9891-f92e22f7c309"},"vehicle_type_id":"4","last_reported":1718921230,"current_range_meters":6000,"station_id":"ce4bgk12rcd13ifvqbi0","pricing_plan_id":"cebpf4jnsgd1na2vs0mg"},{"bike_id":"23394150-2c9a-4165-a630-c456cb9f311f","system_id":"levelo_inurba_marseille","lat":43.304278,"lon":5.388868,"is_reserved":false,"is_disabled":false,"rental_uris":{"android":"levelo://app?vid=23394150-2c9a-4165-a630-c456cb9f311f","ios":"levelo://app?vid=23394150-2c9a-4165-a630-c456cb9f311f"},"vehicle_type_id":"4","last_reported":1718921230,"current_range_meters":3600,"station_id":"ce4bgk12rcd13ifvqbi0","pricing_plan_id":"cebpf4jnsgd1na2vs0mg"},{"bike_id":"16a13a42-0730-44e1-ac42-f4f11af4df13","system_id":"levelo_inurba_marseille","lat":43.304274,"lon":5.388873,"is_reserved":false,"is_disabled":false,"rental_uris":{"android":"levelo://app?vid=16a13a42-0730-44e1-ac42-f4f11af4df13","ios":"levelo://app?vid=16a13a42-0730-44e1-ac42-f4f11af4df13"},"vehicle_type_id":"4","last_reported":1718921230,"current_range_meters":17200,"station_id":"ce4bgk12rcd13ifvqbi0","pricing_plan_id":"cebpf4jnsgd1na2vs0mg"},{"bike_id":"f542b0dd-49fe-40ef-9fb1-178b7dcfd600","system_id":"levelo_inurba_marseille","lat":43.2979,"lon":5.38109,"is_reserved":false,"is_disabled":false,"rental_uris":{"android":"levelo://app?vid=f542b0dd-49fe-40ef-9fb1-178b7dcfd600","ios":"levelo://app?vid=f542b0dd-49fe-40ef-9fb1-178b7dcfd600"},"vehicle_type_id":"4","last_reported":1718921230,"current_range_meters":0,"station_id":"ce4bgip2rcd13ifvqbb0","pricing_plan_id":"cebpf4jnsgd1na2vs0mg"},{"bike_id":"99ccf407-77f1-4244-8076-3d089d1a9e2c","system_id":"levelo_inurba_marseille","lat":43.304274,"lon":5.388873,"is_reserved":false,"is_disabled":false,"rental_uris":{"android":"levelo://app?vid=99ccf407-77f1-4244-8076-3d089d1a9e2c","ios":"levelo://app?vid=99ccf407-77f1-4244-8076-3d089d1a9e2c"},"vehicle_type_id":"4","last_reported":1718921230,"current_range_meters":31200,"station_id":"ce4bgk12rcd13ifvqbi0","pricing_plan_id":"cebpf4jnsgd1na2vs0mg"},{"bike_id":"6ec4281c-887a-48ef-a7fe-b34c4613111d","system_id":"levelo_inurba_marseille","lat":43.304278,"lon":5.388868,"is_reserved":false,"is_disabled":false,"rental_uris":{"android":"levelo://app?vid=6ec4281c-887a-48ef-a7fe-b34c4613111d","ios":"levelo://app?vid=6ec4281c-887a-48ef-a7fe-b34c4613111d"},"vehicle_type_id":"4","last_reported":1718921230,"current_range_meters":0,"station_id":"ce4bgk12rcd13ifvqbi0","pricing_plan_id":"cebpf4jnsgd1na2vs0mg"},{"bike_id":"fba8b643-d3a2-47cd-9107-b6178561f466","system_id":"levelo_inurba_marseille","lat":43.304278,"lon":5.388868,"is_reserved":false,"is_disabled":false,"rental_uris":{"android":"levelo://app?vid=fba8b643-d3a2-47cd-9107-b6178561f466","ios":"levelo://app?vid=fba8b643-d3a2-47cd-9107-b6178561f466"},"vehicle_type_id":"4","last_reported":1718921230,"current_range_meters":21600,"station_id":"ce4bgk12rcd13ifvqbi0","pricing_plan_id":"cebpf4jnsgd1na2vs0mg"},{"bike_id":"cde7c59d-0941-49b9-b6c5-2da7bc6f6324","system_id":"levelo_inurba_marseille","lat":43.296121,"lon":5.377293,"is_reserved":false,"is_disabled":false,"rental_uris":{"android":"levelo://app?vid=cde7c59d-0941-49b9-b6c5-2da7bc6f6324","ios":"levelo://app?vid=cde7c59d-0941-49b9-b6c5-2da7bc6f6324"},"vehicle_type_id":"4","last_reported":1718921230,"current_range_meters":14800,"station_id":"ce4bgh92rcd13ifvqb50","pricing_plan_id":"cebpf4jnsgd1na2vs0mg"},{"bike_id":"7d2983a2-c082-4129-8660-261d6aebe313","system_id":"levelo_inurba_marseille","lat":43.299717,"lon":5.384845,"is_reserved":false,"is_disabled":false,"rental_uris":{"android":"levelo://app?vid=7d2983a2-c082-4129-8660-261d6aebe313","ios":"levelo://app?vid=7d2983a2-c082-4129-8660-261d6aebe313"},"vehicle_type_id":"4","last_reported":1718921230,"current_range_meters":4800,"station_id":"ce4bgj92rcd13ifvqbd0","pricing_plan_id":"cebpf4jnsgd1na2vs0mg"},{"bike_id":"1159ba63-5c3e-4c82-81d4-9c4e1cfcfba3","system_id":"levelo_inurba_marseille","lat":43.323663,"lon":5.38882,"is_reserved":false,"is_disabled":false,"rental_uris":{"android":"levelo://app?vid=1159ba63-5c3e-4c82-81d4-9c4e1cfcfba3","ios":"levelo://app?vid=1159ba63-5c3e-4c82-81d4-9c4e1cfcfba3"},"vehicle_type_id":"4","last_reported":1718921230,"current_range_meters":0,"station_id":"ce4bhqp2rcd13ifvqhog","pricing_plan_id":"cebpf4jnsgd1na2vs0mg"},{"bike_id":"25fcd032-39fb-46c5-8147-e8ed94773c95","system_id":"levelo_inurba_marseille","lat":43.292749,"lon":5.368402,"is_reserved":false,"is_disabled":false,"rental_uris":{"android":"levelo://app?vid=25fcd032-39fb-46c5-8147-e8ed94773c95","ios":"levelo://app?vid=25fcd032-39fb-46c5-8147-e8ed94773c95"},"vehicle_type_id":"4","last_reported":1718921230,"current_range_meters":24400,"station_id":"ce4bhbp2rcd13ifvqesg","pricing_plan_id":"cebpf4jnsgd1na2vs0mg"},{"bike_id":"fb2c7ae4-ea42-41df-acde-d21716c313e1","system_id":"levelo_inurba_marseille","lat":43.293259,"lon":5.371586,"is_reserved":false,"is_disabled":false,"rental_uris":{"android":"levelo://app?vid=fb2c7ae4-ea42-41df-acde-d21716c313e1","ios":"levelo://app?vid=fb2c7ae4-ea42-41df-acde-d21716c313e1"},"vehicle_type_id":"4","last_reported":1718921230,"current_range_meters":28800,"station_id":"ce4bgh92rcd13ifvqb40","pricing_plan_id":"cebpf4jnsgd1na2vs0mg"},{"bike_id":"c821a272-0aad-45e2-95e2-61f54ce631b1","system_id":"levelo_inurba_marseille","lat":43.292749,"lon":5.368402,"is_reserved":false,"is_disabled":false,"rental_uris":{"android":"levelo://app?vid=c821a272-0aad-45e2-95e2-61f54ce631b1","ios":"levelo://app?vid=c821a272-0aad-45e2-95e2-61f54ce631b1"},"vehicle_type_id":"4","last_reported":1718921230,"current_range_meters":10400,"station_id":"ce4bhbp2rcd13ifvqesg","pricing_plan_id":"cebpf4jnsgd1na2vs0mg"},{"bike_id":"59a93ccc-9338-4a49-bb45-aaa53a890ca9","system_id":"levelo_inurba_marseille","lat":43.292749,"lon":5.368402,"is_reserved":false,"is_disabled":false,"rental_uris":{"android":"levelo://app?vid=59a93ccc-9338-4a49-bb45-aaa53a890ca9","ios":"levelo://app?vid=59a93ccc-9338-4a49-bb45-aaa53a890ca9"},"vehicle_type_id":"4","last_reported":1718921230,"current_range_meters":29200,"station_id":"ce4bhbp2rcd13ifvqesg","pricing_plan_id":"cebpf4jnsgd1na2vs0mg"},{"bike_id":"02101617-52d4-4057-b4b4-8c6e054ac095","system_id":"levelo_inurba_marseille","lat":43.292749,"lon":5.368402,"is_reserved":false,"is_disabled":false,"rental_uris":{"android":"levelo://app?vid=02101617-52d4-4057-b4b4-8c6e054ac095","ios":"levelo://app?vid=02101617-52d4-4057-b4b4-8c6e054ac095"},"vehicle_type_id":"4","last_reported":1718921230,"current_range_meters":17200,"station_id":"ce4bhbp2rcd13ifvqesg","pricing_plan_id":"cebpf4jnsgd1na2vs0mg"},{"bike_id":"4f7cb61e-ab02-4b77-8bc1-fa946c8934c0","system_id":"levelo_inurba_marseille","lat":43.292749,"lon":5.368402,"is_reserved":false,"is_disabled":false,"rental_uris":{"android":"levelo://app?vid=4f7cb61e-ab02-4b77-8bc1-fa946c8934c0","ios":"levelo://app?vid=4f7cb61e-ab02-4b77-8bc1-fa946c8934c0"},"vehicle_type_id":"4","last_reported":1718921230,"current_range_meters":20400,"station_id":"ce4bhbp2rcd13ifvqesg","pricing_plan_id":"cebpf4jnsgd1na2vs0mg"},{"bike_id":"69ac5d5a-a55f-49fb-9315-3450889771c2","system_id":"levelo_inurba_marseille","lat":43.305994,"lon":5.393687,"is_reserved":false,"is_disabled":false,"rental_uris":{"android":"levelo://app?vid=69ac5d5a-a55f-49fb-9315-3450889771c2","ios":"levelo://app?vid=69ac5d5a-a55f-49fb-9315-3450889771c2"},"vehicle_type_id":"4","last_reported":1718921230,"current_range_meters":0,"station_id":"ce4bh0p2rcd13ifvqd80","pricing_plan_id":"cebpf4jnsgd1na2vs0mg"},{"bike_id":"860538f7-eb9f-4a35-b55a-7f6c34d550c3","system_id":"levelo_inurba_marseille","lat":43.30298,"lon":5.39194,"is_reserved":false,"is_disabled":false,"rental_uris":{"android":"levelo://app?vid=860538f7-eb9f-4a35-b55a-7f6c34d550c3","ios":"levelo://app?vid=860538f7-eb9f-4a35-b55a-7f6c34d550c3"},"vehicle_type_id":"4","last_reported":1718921230,"current_range_meters":27600,"station_id":"ce4bgkh2rcd13ifvqbk0","pricing_plan_id":"cebpf4jnsgd1na2vs0mg"},{"bike_id":"670a0e4b-92b2-43e0-b9ad-028908c5348b","system_id":"levelo_inurba_marseille","lat":43.292311,"lon":5.360731,"is_reserved":false,"is_disabled":false,"rental_uris":{"android":"levelo://app?vid=670a0e4b-92b2-43e0-b9ad-028908c5348b","ios":"levelo://app?vid=670a0e4b-92b2-43e0-b9ad-028908c5348b"},"vehicle_type_id":"4","last_reported":1718921230,"current_range_meters":7600,"station_id":"ce4bhbh2rcd13ifvqeqg","pricing_plan_id":"cebpf4jnsgd1na2vs0mg"},{"bike_id":"6a7be2fe-7c2d-44fd-b92c-b3ac84b53b36","system_id":"levelo_inurba_marseille","lat":43.300852,"lon":5.390859,"is_reserved":false,"is_disabled":false,"rental_uris":{"android":"levelo://app?vid=6a7be2fe-7c2d-44fd-b92c-b3ac84b53b36","ios":"levelo://app?vid=6a7be2fe-7c2d-44fd-b92c-b3ac84b53b36"},"vehicle_type_id":"4","last_reported":1718921230,"current_range_meters":4400,"station_id":"ce4bh192rcd13ifvqdb0","pricing_plan_id":"cebpf4jnsgd1na2vs0mg"},{"bike_id":"00654b6e-dd67-4966-bae7-8d32ad91dd00","system_id":"levelo_inurba_marseille","lat":43.30085,"lon":5.390856,"is_reserved":false,"is_disabled":false,"rental_uris":{"android":"levelo://app?vid=00654b6e-dd67-4966-bae7-8d32ad91dd00","ios":"levelo://app?vid=00654b6e-dd67-4966-bae7-8d32ad91dd00"},"vehicle_type_id":"4","last_reported":1718921230,"current_range_meters":10400,"station_id":"ce4bh192rcd13ifvqdb0","pricing_plan_id":"cebpf4jnsgd1na2vs0mg"},{"bike_id":"e15fbfc9-2a6e-4c2c-ba32-1fc1b8354498","system_id":"levelo_inurba_marseille","lat":43.286591,"lon":5.363346,"is_reserved":false,"is_disabled":false,"rental_uris":{"android":"levelo://app?vid=e15fbfc9-2a6e-4c2c-ba32-1fc1b8354498","ios":"levelo://app?vid=e15fbfc9-2a6e-4c2c-ba32-1fc1b8354498"},"vehicle_type_id":"4","last_reported":1718921230,"current_range_meters":15600,"station_id":"ce4bhah2rcd13ifvqej0","pricing_plan_id":"cebpf4jnsgd1na2vs0mg"},{"bike_id":"797226b6-2925-41c1-b928-b88caed9c4dd","system_id":"levelo_inurba_marseille","lat":43.30888,"lon":5.39631,"is_reserved":false,"is_disabled":false,"rental_uris":{"android":"levelo://app?vid=797226b6-2925-41c1-b928-b88caed9c4dd","ios":"levelo://app?vid=797226b6-2925-41c1-b928-b88caed9c4dd"},"vehicle_type_id":"4","last_reported":1718921230,"current_range_meters":0,"station_id":"ce4bh012rcd13ifvqcv0","pricing_plan_id":"cebpf4jnsgd1na2vs0mg"},{"bike_id":"ab4e232e-0fb7-4510-8b95-fb6d0b2fe629","system_id":"levelo_inurba_marseille","lat":43.313291,"lon":5.396838,"is_reserved":false,"is_disabled":false,"rental_uris":{"android":"levelo://app?vid=ab4e232e-0fb7-4510-8b95-fb6d0b2fe629","ios":"levelo://app?vid=ab4e232e-0fb7-4510-8b95-fb6d0b2fe629"},"vehicle_type_id":"4","last_reported":1718921230,"current_range_meters":12400,"station_id":"ce4bgvp2rcd13ifvqcu0","pricing_plan_id":"cebpf4jnsgd1na2vs0mg"},{"bike_id":"f4dbc20c-ef5a-45ee-9b4d-c55b84ae073c","system_id":"levelo_inurba_marseille","lat":43.313291,"lon":5.396838,"is_reserved":false,"is_disabled":false,"rental_uris":{"android":"levelo://app?vid=f4dbc20c-ef5a-45ee-9b4d-c55b84ae073c","ios":"levelo://app?vid=f4dbc20c-ef5a-45ee-9b4d-c55b84ae073c"},"vehicle_type_id":"4","last_reported":1718921230,"current_range_meters":26400,"station_id":"ce4bgvp2rcd13ifvqcu0","pricing_plan_id":"cebpf4jnsgd1na2vs0mg"},{"bike_id":"7c327da9-a7cf-4026-940a-19a75777cb59","system_id":"levelo_inurba_marseille","lat":43.313291,"lon":5.396838,"is_reserved":false,"is_disabled":false,"rental_uris":{"android":"levelo://app?vid=7c327da9-a7cf-4026-940a-19a75777cb59","ios":"levelo://app?vid=7c327da9-a7cf-4026-940a-19a75777cb59"},"vehicle_type_id":"4","last_reported":1718921230,"current_range_meters":29200,"station_id":"ce4bgvp2rcd13ifvqcu0","pricing_plan_id":"cebpf4jnsgd1na2vs0mg"},{"bike_id":"166c3e5e-dda9-4ebe-a61a-2db174538338","system_id":"levelo_inurba_marseille","lat":43.309047,"lon":5.396551,"is_reserved":false,"is_disabled":false,"rental_uris":{"android":"levelo://app?vid=166c3e5e-dda9-4ebe-a61a-2db174538338","ios":"levelo://app?vid=166c3e5e-dda9-4ebe-a61a-2db174538338"},"vehicle_type_id":"4","last_reported":1718921230,"current_range_meters":12400,"station_id":"ce4bh012rcd13ifvqcv0","pricing_plan_id":"cebpf4jnsgd1na2vs0mg"},{"bike_id":"49919fdb-3316-4510-960d-f488e4779288","system_id":"levelo_inurba_marseille","lat":43.31331,"lon":5.3969,"is_reserved":false,"is_disabled":false,"rental_uris":{"android":"levelo://app?vid=49919fdb-3316-4510-960d-f488e4779288","ios":"levelo://app?vid=49919fdb-3316-4510-960d-f488e4779288"},"vehicle_type_id":"4","last_reported":1718921230,"current_range_meters":31200,"station_id":"ce4bgvp2rcd13ifvqcu0","pricing_plan_id":"cebpf4jnsgd1na2vs0mg"},{"bike_id":"34379dad-3668-4893-bd8c-d336fea45c8b","system_id":"levelo_inurba_marseille","lat":43.31333,"lon":5.3969,"is_reserved":false,"is_disabled":false,"rental_uris":{"android":"levelo://app?vid=34379dad-3668-4893-bd8c-d336fea45c8b","ios":"levelo://app?vid=34379dad-3668-4893-bd8c-d336fea45c8b"},"vehicle_type_id":"4","last_reported":1718921230,"current_range_meters":31200,"station_id":"ce4bgvp2rcd13ifvqcu0","pricing_plan_id":"cebpf4jnsgd1na2vs0mg"},{"bike_id":"4c5a68b8-99f4-466e-8440-f89962e4a41f","system_id":"levelo_inurba_marseille","lat":43.309047,"lon":5.396551,"is_reserved":false,"is_disabled":false,"rental_uris":{"android":"levelo://app?vid=4c5a68b8-99f4-466e-8440-f89962e4a41f","ios":"levelo://app?vid=4c5a68b8-99f4-466e-8440-f89962e4a41f"},"vehicle_type_id":"4","last_reported":1718921230,"current_range_meters":26400,"station_id":"ce4bh012rcd13ifvqcv0","pricing_plan_id":"cebpf4jnsgd1na2vs0mg"},{"bike_id":"eb05c3f0-863f-4177-b661-396965fb1e08","system_id":"levelo_inurba_marseille","lat":43.309038,"lon":5.396546,"is_reserved":false,"is_disabled":false,"rental_uris":{"android":"levelo://app?vid=eb05c3f0-863f-4177-b661-396965fb1e08","ios":"levelo://app?vid=eb05c3f0-863f-4177-b661-396965fb1e08"},"vehicle_type_id":"4","last_reported":1718921230,"current_range_meters":23600,"station_id":"ce4bh012rcd13ifvqcv0","pricing_plan_id":"cebpf4jnsgd1na2vs0mg"},{"bike_id":"1a841173-b1dd-4513-85d9-ed8310bcad96","system_id":"levelo_inurba_marseille","lat":43.30887,"lon":5.39647,"is_reserved":false,"is_disabled":false,"rental_uris":{"android":"levelo://app?vid=1a841173-b1dd-4513-85d9-ed8310bcad96","ios":"levelo://app?vid=1a841173-b1dd-4513-85d9-ed8310bcad96"},"vehicle_type_id":"4","last_reported":1718921230,"current_range_meters":12000,"station_id":"ce4bh012rcd13ifvqcv0","pricing_plan_id":"cebpf4jnsgd1na2vs0mg"},{"bike_id":"8d78a410-1384-46ff-9836-a4485882dc34","system_id":"levelo_inurba_marseille","lat":43.31332,"lon":5.39694,"is_reserved":false,"is_disabled":false,"rental_uris":{"android":"levelo://app?vid=8d78a410-1384-46ff-9836-a4485882dc34","ios":"levelo://app?vid=8d78a410-1384-46ff-9836-a4485882dc34"},"vehicle_type_id":"4","last_reported":1718921230,"current_range_meters":31200,"station_id":"ce4bgvp2rcd13ifvqcu0","pricing_plan_id":"cebpf4jnsgd1na2vs0mg"},{"bike_id":"cd64fdf3-b4ff-4afd-9dbe-3dffa6d81c65","system_id":"levelo_inurba_marseille","lat":43.309038,"lon":5.396546,"is_reserved":false,"is_disabled":false,"rental_uris":{"android":"levelo://app?vid=cd64fdf3-b4ff-4afd-9dbe-3dffa6d81c65","ios":"levelo://app?vid=cd64fdf3-b4ff-4afd-9dbe-3dffa6d81c65"},"vehicle_type_id":"4","last_reported":1718921230,"current_range_meters":13200,"station_id":"ce4bh012rcd13ifvqcv0","pricing_plan_id":"cebpf4jnsgd1na2vs0mg"},{"bike_id":"c31f521b-6d42-46d2-ae6f-efa3f58a5aff","system_id":"levelo_inurba_marseille","lat":43.313291,"lon":5.396838,"is_reserved":false,"is_disabled":false,"rental_uris":{"android":"levelo://app?vid=c31f521b-6d42-46d2-ae6f-efa3f58a5aff","ios":"levelo://app?vid=c31f521b-6d42-46d2-ae6f-efa3f58a5aff"},"vehicle_type_id":"4","last_reported":1718921230,"current_range_meters":24400,"station_id":"ce4bgvp2rcd13ifvqcu0","pricing_plan_id":"cebpf4jnsgd1na2vs0mg"},{"bike_id":"d12ef0cd-a23b-4231-9014-169933119144","system_id":"levelo_inurba_marseille","lat":43.309038,"lon":5.396546,"is_reserved":false,"is_disabled":false,"rental_uris":{"android":"levelo://app?vid=d12ef0cd-a23b-4231-9014-169933119144","ios":"levelo://app?vid=d12ef0cd-a23b-4231-9014-169933119144"},"vehicle_type_id":"4","last_reported":1718921230,"current_range_meters":20000,"station_id":"ce4bh012rcd13ifvqcv0","pricing_plan_id":"cebpf4jnsgd1na2vs0mg"},{"bike_id":"b163c576-ddfa-419f-a086-aa86fb536477","system_id":"levelo_inurba_marseille","lat":43.3089,"lon":5.39652,"is_reserved":false,"is_disabled":false,"rental_uris":{"android":"levelo://app?vid=b163c576-ddfa-419f-a086-aa86fb536477","ios":"levelo://app?vid=b163c576-ddfa-419f-a086-aa86fb536477"},"vehicle_type_id":"4","last_reported":1718921230,"current_range_meters":9600,"station_id":"ce4bh012rcd13ifvqcv0","pricing_plan_id":"cebpf4jnsgd1na2vs0mg"},{"bike_id":"e56251c6-bec1-4123-b2d1-847f92799b68","system_id":"levelo_inurba_marseille","lat":43.309038,"lon":5.396546,"is_reserved":false,"is_disabled":false,"rental_uris":{"android":"levelo://app?vid=e56251c6-bec1-4123-b2d1-847f92799b68","ios":"levelo://app?vid=e56251c6-bec1-4123-b2d1-847f92799b68"},"vehicle_type_id":"4","last_reported":1718921230,"current_range_meters":7600,"station_id":"ce4bh012rcd13ifvqcv0","pricing_plan_id":"cebpf4jnsgd1na2vs0mg"},{"bike_id":"77c0f33c-6b95-4e48-953f-7d95cbec9792","system_id":"levelo_inurba_marseille","lat":43.30894,"lon":5.39654,"is_reserved":false,"is_disabled":false,"rental_uris":{"android":"levelo://app?vid=77c0f33c-6b95-4e48-953f-7d95cbec9792","ios":"levelo://app?vid=77c0f33c-6b95-4e48-953f-7d95cbec9792"},"vehicle_type_id":"4","last_reported":1718921230,"current_range_meters":17600,"station_id":"ce4bh012rcd13ifvqcv0","pricing_plan_id":"cebpf4jnsgd1na2vs0mg"},{"bike_id":"841ca13e-098c-4da9-af60-28a4599f3bf4","system_id":"levelo_inurba_marseille","lat":43.31325,"lon":5.39701,"is_reserved":false,"is_disabled":false,"rental_uris":{"android":"levelo://app?vid=841ca13e-098c-4da9-af60-28a4599f3bf4","ios":"levelo://app?vid=841ca13e-098c-4da9-af60-28a4599f3bf4"},"vehicle_type_id":"4","last_reported":1718921230,"current_range_meters":31200,"station_id":"ce4bgvp2rcd13ifvqcu0","pricing_plan_id":"cebpf4jnsgd1na2vs0mg"},{"bike_id":"b62db549-bc15-46d7-b820-85e29e325d75","system_id":"levelo_inurba_marseille","lat":43.30892,"lon":5.39656,"is_reserved":false,"is_disabled":false,"rental_uris":{"android":"levelo://app?vid=b62db549-bc15-46d7-b820-85e29e325d75","ios":"levelo://app?vid=b62db549-bc15-46d7-b820-85e29e325d75"},"vehicle_type_id":"4","last_reported":1718921230,"current_range_meters":18400,"station_id":"ce4bh012rcd13ifvqcv0","pricing_plan_id":"cebpf4jnsgd1na2vs0mg"},{"bike_id":"a37fbe27-8b1a-4138-ba44-b31c9df490fc","system_id":"levelo_inurba_marseille","lat":43.313291,"lon":5.396838,"is_reserved":false,"is_disabled":false,"rental_uris":{"android":"levelo://app?vid=a37fbe27-8b1a-4138-ba44-b31c9df490fc","ios":"levelo://app?vid=a37fbe27-8b1a-4138-ba44-b31c9df490fc"},"vehicle_type_id":"4","last_reported":1718921230,"current_range_meters":30000,"station_id":"ce4bgvp2rcd13ifvqcu0","pricing_plan_id":"cebpf4jnsgd1na2vs0mg"},{"bike_id":"f7e00d31-30ab-4ee0-b845-c1f4c657f601","system_id":"levelo_inurba_marseille","lat":43.309038,"lon":5.396546,"is_reserved":false,"is_disabled":false,"rental_uris":{"android":"levelo://app?vid=f7e00d31-30ab-4ee0-b845-c1f4c657f601","ios":"levelo://app?vid=f7e00d31-30ab-4ee0-b845-c1f4c657f601"},"vehicle_type_id":"4","last_reported":1718921230,"current_range_meters":26400,"station_id":"ce4bh012rcd13ifvqcv0","pricing_plan_id":"cebpf4jnsgd1na2vs0mg"},{"bike_id":"3965ad11-7b09-4e43-92c9-00902cdb5741","system_id":"levelo_inurba_marseille","lat":43.29529,"lon":5.385581,"is_reserved":false,"is_disabled":false,"rental_uris":{"android":"levelo://app?vid=3965ad11-7b09-4e43-92c9-00902cdb5741","ios":"levelo://app?vid=3965ad11-7b09-4e43-92c9-00902cdb5741"},"vehicle_type_id":"4","last_reported":1718921230,"current_range_meters":3200,"station_id":"ce4bgih2rcd13ifvqba0","pricing_plan_id":"cebpf4jnsgd1na2vs0mg"},{"bike_id":"0aa76266-2d33-446b-a9bb-850bfc662df5","system_id":"levelo_inurba_marseille","lat":43.290779,"lon":5.371482,"is_reserved":false,"is_disabled":false,"rental_uris":{"android":"levelo://app?vid=0aa76266-2d33-446b-a9bb-850bfc662df5","ios":"levelo://app?vid=0aa76266-2d33-446b-a9bb-850bfc662df5"},"vehicle_type_id":"4","last_reported":1718921230,"current_range_meters":31200,"station_id":"ce4bh5p2rcd13ifvqe4g","pricing_plan_id":"cebpf4jnsgd1na2vs0mg"},{"bike_id":"e23f565d-caf7-4452-976a-5a08238afc75","system_id":"levelo_inurba_marseille","lat":43.30216,"lon":5.39468,"is_reserved":false,"is_disabled":false,"rental_uris":{"android":"levelo://app?vid=e23f565d-caf7-4452-976a-5a08238afc75","ios":"levelo://app?vid=e23f565d-caf7-4452-976a-5a08238afc75"},"vehicle_type_id":"4","last_reported":1718921230,"current_range_meters":31200,"station_id":"","pricing_plan_id":"cebpf4jnsgd1na2vs0mg"},{"bike_id":"dd2b9580-69a6-450c-a081-81b026bb5f2c","system_id":"levelo_inurba_marseille","lat":43.2905,"lon":5.35918,"is_reserved":false,"is_disabled":false,"rental_uris":{"android":"levelo://app?vid=dd2b9580-69a6-450c-a081-81b026bb5f2c","ios":"levelo://app?vid=dd2b9580-69a6-450c-a081-81b026bb5f2c"},"vehicle_type_id":"4","last_reported":1718921230,"current_range_meters":31200,"station_id":"ce4bha92rcd13ifvqeg0","pricing_plan_id":"cebpf4jnsgd1na2vs0mg"},{"bike_id":"f5fac054-fb6f-4354-9003-d561933abee6","system_id":"levelo_inurba_marseille","lat":43.29048,"lon":5.3591,"is_reserved":false,"is_disabled":false,"rental_uris":{"android":"levelo://app?vid=f5fac054-fb6f-4354-9003-d561933abee6","ios":"levelo://app?vid=f5fac054-fb6f-4354-9003-d561933abee6"},"vehicle_type_id":"4","last_reported":1718921230,"current_range_meters":31200,"station_id":"","pricing_plan_id":"cebpf4jnsgd1na2vs0mg"},{"bike_id":"b2d7026b-eb9a-4fc1-be34-3ad5c3543d0b","system_id":"levelo_inurba_marseille","lat":43.294162,"lon":5.386292,"is_reserved":false,"is_disabled":false,"rental_uris":{"android":"levelo://app?vid=b2d7026b-eb9a-4fc1-be34-3ad5c3543d0b","ios":"levelo://app?vid=b2d7026b-eb9a-4fc1-be34-3ad5c3543d0b"},"vehicle_type_id":"4","last_reported":1718921230,"current_range_meters":0,"station_id":"ce4bh2h2rcd13ifvqdh0","pricing_plan_id":"cebpf4jnsgd1na2vs0mg"},{"bike_id":"30de48d7-9c6f-4be5-95f6-192b21ba1320","system_id":"levelo_inurba_marseille","lat":43.294153,"lon":5.386305,"is_reserved":false,"is_disabled":false,"rental_uris":{"android":"levelo://app?vid=30de48d7-9c6f-4be5-95f6-192b21ba1320","ios":"levelo://app?vid=30de48d7-9c6f-4be5-95f6-192b21ba1320"},"vehicle_type_id":"4","last_reported":1718921230,"current_range_meters":24400,"station_id":"ce4bh2h2rcd13ifvqdh0","pricing_plan_id":"cebpf4jnsgd1na2vs0mg"},{"bike_id":"52039e84-178a-4cfd-b410-bbad095d3fb3","system_id":"levelo_inurba_marseille","lat":43.290327,"lon":5.375711,"is_reserved":false,"is_disabled":false,"rental_uris":{"android":"levelo://app?vid=52039e84-178a-4cfd-b410-bbad095d3fb3","ios":"levelo://app?vid=52039e84-178a-4cfd-b410-bbad095d3fb3"},"vehicle_type_id":"4","last_reported":1718921230,"current_range_meters":29200,"station_id":"ce4bh692rcd13ifvqe90","pricing_plan_id":"cebpf4jnsgd1na2vs0mg"},{"bike_id":"d3d263cf-e03f-44c4-aa1a-b30f728998c1","system_id":"levelo_inurba_marseille","lat":43.289184,"lon":5.366408,"is_reserved":false,"is_disabled":false,"rental_uris":{"android":"levelo://app?vid=d3d263cf-e03f-44c4-aa1a-b30f728998c1","ios":"levelo://app?vid=d3d263cf-e03f-44c4-aa1a-b30f728998c1"},"vehicle_type_id":"4","last_reported":1718921230,"current_range_meters":7600,"station_id":"ce4bhap2rcd13ifvqek0","pricing_plan_id":"cebpf4jnsgd1na2vs0mg"},{"bike_id":"4ebb3863-2bdb-4d0b-b470-f3f168d94075","system_id":"levelo_inurba_marseille","lat":43.289468,"lon":5.363719,"is_reserved":false,"is_disabled":false,"rental_uris":{"android":"levelo://app?vid=4ebb3863-2bdb-4d0b-b470-f3f168d94075","ios":"levelo://app?vid=4ebb3863-2bdb-4d0b-b470-f3f168d94075"},"vehicle_type_id":"4","last_reported":1718921230,"current_range_meters":22400,"station_id":"ce4bhc92rcd13ifvqetg","pricing_plan_id":"cebpf4jnsgd1na2vs0mg"},{"bike_id":"6d2f10d7-21df-491c-bd32-92054865c331","system_id":"levelo_inurba_marseille","lat":43.289468,"lon":5.363719,"is_reserved":false,"is_disabled":false,"rental_uris":{"android":"levelo://app?vid=6d2f10d7-21df-491c-bd32-92054865c331","ios":"levelo://app?vid=6d2f10d7-21df-491c-bd32-92054865c331"},"vehicle_type_id":"4","last_reported":1718921230,"current_range_meters":6800,"station_id":"ce4bhc92rcd13ifvqetg","pricing_plan_id":"cebpf4jnsgd1na2vs0mg"},{"bike_id":"498da8b1-60e6-4c2f-85ed-ec4ff1af8632","system_id":"levelo_inurba_marseille","lat":43.289468,"lon":5.363719,"is_reserved":false,"is_disabled":false,"rental_uris":{"android":"levelo://app?vid=498da8b1-60e6-4c2f-85ed-ec4ff1af8632","ios":"levelo://app?vid=498da8b1-60e6-4c2f-85ed-ec4ff1af8632"},"vehicle_type_id":"4","last_reported":1718921230,"current_range_meters":25600,"station_id":"ce4bhc92rcd13ifvqetg","pricing_plan_id":"cebpf4jnsgd1na2vs0mg"},{"bike_id":"5042770f-6a8d-4063-9e0b-5f97e5b3fd73","system_id":"levelo_inurba_marseille","lat":43.29024,"lon":5.35729,"is_reserved":false,"is_disabled":false,"rental_uris":{"android":"levelo://app?vid=5042770f-6a8d-4063-9e0b-5f97e5b3fd73","ios":"levelo://app?vid=5042770f-6a8d-4063-9e0b-5f97e5b3fd73"},"vehicle_type_id":"4","last_reported":1718921230,"current_range_meters":8400,"station_id":"ce4bhb92rcd13ifvqen0","pricing_plan_id":"cebpf4jnsgd1na2vs0mg"},{"bike_id":"ef92b559-da84-468f-a3c3-109420237af1","system_id":"levelo_inurba_marseille","lat":43.304296,"lon":5.397513,"is_reserved":false,"is_disabled":false,"rental_uris":{"android":"levelo://app?vid=ef92b559-da84-468f-a3c3-109420237af1","ios":"levelo://app?vid=ef92b559-da84-468f-a3c3-109420237af1"},"vehicle_type_id":"4","last_reported":1718921230,"current_range_meters":12400,"station_id":"ce4bh092rcd13ifvqd20","pricing_plan_id":"cebpf4jnsgd1na2vs0mg"},{"bike_id":"03a137f8-5bc7-4f6b-98f4-a7a16158dd84","system_id":"levelo_inurba_marseille","lat":43.30429,"lon":5.39747,"is_reserved":false,"is_disabled":false,"rental_uris":{"android":"levelo://app?vid=03a137f8-5bc7-4f6b-98f4-a7a16158dd84","ios":"levelo://app?vid=03a137f8-5bc7-4f6b-98f4-a7a16158dd84"},"vehicle_type_id":"4","last_reported":1718921230,"current_range_meters":10000,"station_id":"ce4bh092rcd13ifvqd20","pricing_plan_id":"cebpf4jnsgd1na2vs0mg"},{"bike_id":"96f92477-3ad6-447a-a60d-d9f0478ffb86","system_id":"levelo_inurba_marseille","lat":43.30426,"lon":5.39746,"is_reserved":false,"is_disabled":false,"rental_uris":{"android":"levelo://app?vid=96f92477-3ad6-447a-a60d-d9f0478ffb86","ios":"levelo://app?vid=96f92477-3ad6-447a-a60d-d9f0478ffb86"},"vehicle_type_id":"4","last_reported":1718921230,"current_range_meters":6000,"station_id":"ce4bh092rcd13ifvqd20","pricing_plan_id":"cebpf4jnsgd1na2vs0mg"},{"bike_id":"012f8667-e368-4340-8ba8-1df9ad7dd2f2","system_id":"levelo_inurba_marseille","lat":43.304296,"lon":5.397513,"is_reserved":false,"is_disabled":false,"rental_uris":{"android":"levelo://app?vid=012f8667-e368-4340-8ba8-1df9ad7dd2f2","ios":"levelo://app?vid=012f8667-e368-4340-8ba8-1df9ad7dd2f2"},"vehicle_type_id":"4","last_reported":1718921230,"current_range_meters":12800,"station_id":"ce4bh092rcd13ifvqd20","pricing_plan_id":"cebpf4jnsgd1na2vs0mg"},{"bike_id":"297eaa3a-f02b-493d-aa4c-eb6b81ce6692","system_id":"levelo_inurba_marseille","lat":43.290995,"lon":5.381361,"is_reserved":false,"is_disabled":false,"rental_uris":{"android":"levelo://app?vid=297eaa3a-f02b-493d-aa4c-eb6b81ce6692","ios":"levelo://app?vid=297eaa3a-f02b-493d-aa4c-eb6b81ce6692"},"vehicle_type_id":"4","last_reported":1718921230,"current_range_meters":5600,"station_id":"ce4bh512rcd13ifvqe2g","pricing_plan_id":"cebpf4jnsgd1na2vs0mg"},{"bike_id":"5962cfc6-a783-480a-aafc-6bf0db93de27","system_id":"levelo_inurba_marseille","lat":43.290995,"lon":5.381361,"is_reserved":false,"is_disabled":false,"rental_uris":{"android":"levelo://app?vid=5962cfc6-a783-480a-aafc-6bf0db93de27","ios":"levelo://app?vid=5962cfc6-a783-480a-aafc-6bf0db93de27"},"vehicle_type_id":"4","last_reported":1718921230,"current_range_meters":21200,"station_id":"ce4bh512rcd13ifvqe2g","pricing_plan_id":"cebpf4jnsgd1na2vs0mg"},{"bike_id":"c223f095-04c5-4cc2-a6f2-c027f58cbb47","system_id":"levelo_inurba_marseille","lat":43.290995,"lon":5.381361,"is_reserved":false,"is_disabled":false,"rental_uris":{"android":"levelo://app?vid=c223f095-04c5-4cc2-a6f2-c027f58cbb47","ios":"levelo://app?vid=c223f095-04c5-4cc2-a6f2-c027f58cbb47"},"vehicle_type_id":"4","last_reported":1718921230,"current_range_meters":0,"station_id":"ce4bh512rcd13ifvqe2g","pricing_plan_id":"cebpf4jnsgd1na2vs0mg"},{"bike_id":"51087e11-bf45-482a-aeb8-7e31ac47fc2f","system_id":"levelo_inurba_marseille","lat":43.31047,"lon":5.40005,"is_reserved":false,"is_disabled":false,"rental_uris":{"android":"levelo://app?vid=51087e11-bf45-482a-aeb8-7e31ac47fc2f","ios":"levelo://app?vid=51087e11-bf45-482a-aeb8-7e31ac47fc2f"},"vehicle_type_id":"4","last_reported":1718921230,"current_range_meters":18000,"station_id":"","pricing_plan_id":"cebpf4jnsgd1na2vs0mg"},{"bike_id":"fa3429f3-ef24-45e7-8fd1-8aae5dbf29cc","system_id":"levelo_inurba_marseille","lat":43.297815,"lon":5.393548,"is_reserved":false,"is_disabled":false,"rental_uris":{"android":"levelo://app?vid=fa3429f3-ef24-45e7-8fd1-8aae5dbf29cc","ios":"levelo://app?vid=fa3429f3-ef24-45e7-8fd1-8aae5dbf29cc"},"vehicle_type_id":"4","last_reported":1718921230,"current_range_meters":24400,"station_id":"chh1huq6cuj3fo74tm60","pricing_plan_id":"cebpf4jnsgd1na2vs0mg"},{"bike_id":"c8143115-f8eb-4cd3-b0de-7ecb16ed13a6","system_id":"levelo_inurba_marseille","lat":43.295169,"lon":5.390426,"is_reserved":false,"is_disabled":false,"rental_uris":{"android":"levelo://app?vid=c8143115-f8eb-4cd3-b0de-7ecb16ed13a6","ios":"levelo://app?vid=c8143115-f8eb-4cd3-b0de-7ecb16ed13a6"},"vehicle_type_id":"4","last_reported":1718921230,"current_range_meters":0,"station_id":"ce4bh3p2rcd13ifvqdp0","pricing_plan_id":"cebpf4jnsgd1na2vs0mg"},{"bike_id":"1b2ba2b8-8a14-41bd-a745-fc1ed4e747bf","system_id":"levelo_inurba_marseille","lat":43.330442,"lon":5.389148,"is_reserved":false,"is_disabled":false,"rental_uris":{"android":"levelo://app?vid=1b2ba2b8-8a14-41bd-a745-fc1ed4e747bf","ios":"levelo://app?vid=1b2ba2b8-8a14-41bd-a745-fc1ed4e747bf"},"vehicle_type_id":"4","last_reported":1718921230,"current_range_meters":24000,"station_id":"ce4bhr92rcd13ifvqhrg","pricing_plan_id":"cebpf4jnsgd1na2vs0mg"},{"bike_id":"91cc6f93-4b3d-483f-b941-647992c1ddab","system_id":"levelo_inurba_marseille","lat":43.330442,"lon":5.389148,"is_reserved":false,"is_disabled":false,"rental_uris":{"android":"levelo://app?vid=91cc6f93-4b3d-483f-b941-647992c1ddab","ios":"levelo://app?vid=91cc6f93-4b3d-483f-b941-647992c1ddab"},"vehicle_type_id":"4","last_reported":1718921230,"current_range_meters":8800,"station_id":"ce4bhr92rcd13ifvqhrg","pricing_plan_id":"cebpf4jnsgd1na2vs0mg"},{"bike_id":"1f243108-1d50-4650-a8cd-ede3535c3a07","system_id":"levelo_inurba_marseille","lat":43.330442,"lon":5.389148,"is_reserved":false,"is_disabled":false,"rental_uris":{"android":"levelo://app?vid=1f243108-1d50-4650-a8cd-ede3535c3a07","ios":"levelo://app?vid=1f243108-1d50-4650-a8cd-ede3535c3a07"},"vehicle_type_id":"4","last_reported":1718921230,"current_range_meters":24400,"station_id":"ce4bhr92rcd13ifvqhrg","pricing_plan_id":"cebpf4jnsgd1na2vs0mg"},{"bike_id":"b4e011ec-6a12-40f0-97a8-9bec81c4a95b","system_id":"levelo_inurba_marseille","lat":43.295169,"lon":5.390426,"is_reserved":false,"is_disabled":false,"rental_uris":{"android":"levelo://app?vid=b4e011ec-6a12-40f0-97a8-9bec81c4a95b","ios":"levelo://app?vid=b4e011ec-6a12-40f0-97a8-9bec81c4a95b"},"vehicle_type_id":"4","last_reported":1718921230,"current_range_meters":8000,"station_id":"ce4bh3p2rcd13ifvqdp0","pricing_plan_id":"cebpf4jnsgd1na2vs0mg"},{"bike_id":"a050e984-a7a6-4c0f-a7c8-4b509bc534ab","system_id":"levelo_inurba_marseille","lat":43.28856,"lon":5.358371,"is_reserved":false,"is_disabled":false,"rental_uris":{"android":"levelo://app?vid=a050e984-a7a6-4c0f-a7c8-4b509bc534ab","ios":"levelo://app?vid=a050e984-a7a6-4c0f-a7c8-4b509bc534ab"},"vehicle_type_id":"4","last_reported":1718921230,"current_range_meters":30800,"station_id":"ce4bhb12rcd13ifvqem0","pricing_plan_id":"cebpf4jnsgd1na2vs0mg"},{"bike_id":"b93683d8-7b88-4fa7-be9d-eac01d755a08","system_id":"levelo_inurba_marseille","lat":43.28856,"lon":5.358371,"is_reserved":false,"is_disabled":false,"rental_uris":{"android":"levelo://app?vid=b93683d8-7b88-4fa7-be9d-eac01d755a08","ios":"levelo://app?vid=b93683d8-7b88-4fa7-be9d-eac01d755a08"},"vehicle_type_id":"4","last_reported":1718921230,"current_range_meters":13200,"station_id":"ce4bhb12rcd13ifvqem0","pricing_plan_id":"cebpf4jnsgd1na2vs0mg"},{"bike_id":"5b538169-3c77-4ec0-afdc-34e4a69e2d35","system_id":"levelo_inurba_marseille","lat":43.28856,"lon":5.358371,"is_reserved":false,"is_disabled":false,"rental_uris":{"android":"levelo://app?vid=5b538169-3c77-4ec0-afdc-34e4a69e2d35","ios":"levelo://app?vid=5b538169-3c77-4ec0-afdc-34e4a69e2d35"},"vehicle_type_id":"4","last_reported":1718921230,"current_range_meters":3200,"station_id":"ce4bhb12rcd13ifvqem0","pricing_plan_id":"cebpf4jnsgd1na2vs0mg"},{"bike_id":"8e48be88-ae90-4b7b-9965-976e01f4da1a","system_id":"levelo_inurba_marseille","lat":43.28856,"lon":5.358371,"is_reserved":false,"is_disabled":false,"rental_uris":{"android":"levelo://app?vid=8e48be88-ae90-4b7b-9965-976e01f4da1a","ios":"levelo://app?vid=8e48be88-ae90-4b7b-9965-976e01f4da1a"},"vehicle_type_id":"4","last_reported":1718921230,"current_range_meters":23200,"station_id":"ce4bhb12rcd13ifvqem0","pricing_plan_id":"cebpf4jnsgd1na2vs0mg"},{"bike_id":"ee23d7a5-234a-420e-8c7d-b5633a658d2c","system_id":"levelo_inurba_marseille","lat":43.312609,"lon":5.401662,"is_reserved":false,"is_disabled":false,"rental_uris":{"android":"levelo://app?vid=ee23d7a5-234a-420e-8c7d-b5633a658d2c","ios":"levelo://app?vid=ee23d7a5-234a-420e-8c7d-b5633a658d2c"},"vehicle_type_id":"4","last_reported":1718921230,"current_range_meters":31600,"station_id":"ce4bh092rcd13ifvqd30","pricing_plan_id":"cebpf4jnsgd1na2vs0mg"},{"bike_id":"6649f763-1564-4bd2-a4d8-04b118440976","system_id":"levelo_inurba_marseille","lat":43.312609,"lon":5.401662,"is_reserved":false,"is_disabled":false,"rental_uris":{"android":"levelo://app?vid=6649f763-1564-4bd2-a4d8-04b118440976","ios":"levelo://app?vid=6649f763-1564-4bd2-a4d8-04b118440976"},"vehicle_type_id":"4","last_reported":1718921230,"current_range_meters":28800,"station_id":"ce4bh092rcd13ifvqd30","pricing_plan_id":"cebpf4jnsgd1na2vs0mg"},{"bike_id":"cfd9b8e1-f433-49f8-aa63-2c1ca8927893","system_id":"levelo_inurba_marseille","lat":43.309371,"lon":5.401449,"is_reserved":false,"is_disabled":false,"rental_uris":{"android":"levelo://app?vid=cfd9b8e1-f433-49f8-aa63-2c1ca8927893","ios":"levelo://app?vid=cfd9b8e1-f433-49f8-aa63-2c1ca8927893"},"vehicle_type_id":"4","last_reported":1718921230,"current_range_meters":18800,"station_id":"ce4bgvp2rcd13ifvqct0","pricing_plan_id":"cebpf4jnsgd1na2vs0mg"},{"bike_id":"a2cc0fa3-b318-4df4-b59b-e315653311f1","system_id":"levelo_inurba_marseille","lat":43.309371,"lon":5.401449,"is_reserved":false,"is_disabled":false,"rental_uris":{"android":"levelo://app?vid=a2cc0fa3-b318-4df4-b59b-e315653311f1","ios":"levelo://app?vid=a2cc0fa3-b318-4df4-b59b-e315653311f1"},"vehicle_type_id":"4","last_reported":1718921230,"current_range_meters":10800,"station_id":"ce4bgvp2rcd13ifvqct0","pricing_plan_id":"cebpf4jnsgd1na2vs0mg"},{"bike_id":"7938d3dc-948b-433c-a6f2-4db4a8ad9f94","system_id":"levelo_inurba_marseille","lat":43.309371,"lon":5.401449,"is_reserved":false,"is_disabled":false,"rental_uris":{"android":"levelo://app?vid=7938d3dc-948b-433c-a6f2-4db4a8ad9f94","ios":"levelo://app?vid=7938d3dc-948b-433c-a6f2-4db4a8ad9f94"},"vehicle_type_id":"4","last_reported":1718921230,"current_range_meters":20800,"station_id":"ce4bgvp2rcd13ifvqct0","pricing_plan_id":"cebpf4jnsgd1na2vs0mg"},{"bike_id":"800b6b4b-57a4-48e3-af00-218424a805bd","system_id":"levelo_inurba_marseille","lat":43.309371,"lon":5.401449,"is_reserved":false,"is_disabled":false,"rental_uris":{"android":"levelo://app?vid=800b6b4b-57a4-48e3-af00-218424a805bd","ios":"levelo://app?vid=800b6b4b-57a4-48e3-af00-218424a805bd"},"vehicle_type_id":"4","last_reported":1718921230,"current_range_meters":2000,"station_id":"ce4bgvp2rcd13ifvqct0","pricing_plan_id":"cebpf4jnsgd1na2vs0mg"},{"bike_id":"59402f59-b983-48c1-b59e-6886256706d6","system_id":"levelo_inurba_marseille","lat":43.30925,"lon":5.40139,"is_reserved":false,"is_disabled":false,"rental_uris":{"android":"levelo://app?vid=59402f59-b983-48c1-b59e-6886256706d6","ios":"levelo://app?vid=59402f59-b983-48c1-b59e-6886256706d6"},"vehicle_type_id":"4","last_reported":1718921230,"current_range_meters":31200,"station_id":"ce4bgvp2rcd13ifvqct0","pricing_plan_id":"cebpf4jnsgd1na2vs0mg"},{"bike_id":"de475248-fb49-4ab7-8421-e8e1ead40325","system_id":"levelo_inurba_marseille","lat":43.309371,"lon":5.401449,"is_reserved":false,"is_disabled":false,"rental_uris":{"android":"levelo://app?vid=de475248-fb49-4ab7-8421-e8e1ead40325","ios":"levelo://app?vid=de475248-fb49-4ab7-8421-e8e1ead40325"},"vehicle_type_id":"4","last_reported":1718921230,"current_range_meters":20000,"station_id":"ce4bgvp2rcd13ifvqct0","pricing_plan_id":"cebpf4jnsgd1na2vs0mg"},{"bike_id":"7f2d92e2-bdaf-48cf-b0e4-e30e1796a507","system_id":"levelo_inurba_marseille","lat":43.309371,"lon":5.401449,"is_reserved":false,"is_disabled":false,"rental_uris":{"android":"levelo://app?vid=7f2d92e2-bdaf-48cf-b0e4-e30e1796a507","ios":"levelo://app?vid=7f2d92e2-bdaf-48cf-b0e4-e30e1796a507"},"vehicle_type_id":"4","last_reported":1718921230,"current_range_meters":23200,"station_id":"ce4bgvp2rcd13ifvqct0","pricing_plan_id":"cebpf4jnsgd1na2vs0mg"},{"bike_id":"2c9fa0f6-10e5-4771-9394-f9b207639800","system_id":"levelo_inurba_marseille","lat":43.30929,"lon":5.40142,"is_reserved":false,"is_disabled":false,"rental_uris":{"android":"levelo://app?vid=2c9fa0f6-10e5-4771-9394-f9b207639800","ios":"levelo://app?vid=2c9fa0f6-10e5-4771-9394-f9b207639800"},"vehicle_type_id":"4","last_reported":1718921230,"current_range_meters":31200,"station_id":"ce4bgvp2rcd13ifvqct0","pricing_plan_id":"cebpf4jnsgd1na2vs0mg"},{"bike_id":"12aea8d9-9f66-4ae3-a6fa-68c21a4a8ea9","system_id":"levelo_inurba_marseille","lat":43.309371,"lon":5.401449,"is_reserved":false,"is_disabled":false,"rental_uris":{"android":"levelo://app?vid=12aea8d9-9f66-4ae3-a6fa-68c21a4a8ea9","ios":"levelo://app?vid=12aea8d9-9f66-4ae3-a6fa-68c21a4a8ea9"},"vehicle_type_id":"4","last_reported":1718921230,"current_range_meters":6800,"station_id":"ce4bgvp2rcd13ifvqct0","pricing_plan_id":"cebpf4jnsgd1na2vs0mg"},{"bike_id":"df8b96b9-c0b4-439f-be93-729c3b253f59","system_id":"levelo_inurba_marseille","lat":43.309371,"lon":5.401449,"is_reserved":false,"is_disabled":false,"rental_uris":{"android":"levelo://app?vid=df8b96b9-c0b4-439f-be93-729c3b253f59","ios":"levelo://app?vid=df8b96b9-c0b4-439f-be93-729c3b253f59"},"vehicle_type_id":"4","last_reported":1718921230,"current_range_meters":30800,"station_id":"ce4bgvp2rcd13ifvqct0","pricing_plan_id":"cebpf4jnsgd1na2vs0mg"},{"bike_id":"c6dc8b24-86a6-4b4a-8e99-42e9a990b693","system_id":"levelo_inurba_marseille","lat":43.309371,"lon":5.401449,"is_reserved":false,"is_disabled":false,"rental_uris":{"android":"levelo://app?vid=c6dc8b24-86a6-4b4a-8e99-42e9a990b693","ios":"levelo://app?vid=c6dc8b24-86a6-4b4a-8e99-42e9a990b693"},"vehicle_type_id":"4","last_reported":1718921230,"current_range_meters":23200,"station_id":"ce4bgvp2rcd13ifvqct0","pricing_plan_id":"cebpf4jnsgd1na2vs0mg"},{"bike_id":"6bddb5d1-a883-477e-bd6d-83d97c12f337","system_id":"levelo_inurba_marseille","lat":43.30928,"lon":5.401441,"is_reserved":false,"is_disabled":false,"rental_uris":{"android":"levelo://app?vid=6bddb5d1-a883-477e-bd6d-83d97c12f337","ios":"levelo://app?vid=6bddb5d1-a883-477e-bd6d-83d97c12f337"},"vehicle_type_id":"4","last_reported":1718921230,"current_range_meters":31200,"station_id":"ce4bgvp2rcd13ifvqct0","pricing_plan_id":"cebpf4jnsgd1na2vs0mg"},{"bike_id":"539bf309-08e9-4e49-954b-c9287516ec39","system_id":"levelo_inurba_marseille","lat":43.309371,"lon":5.401449,"is_reserved":false,"is_disabled":false,"rental_uris":{"android":"levelo://app?vid=539bf309-08e9-4e49-954b-c9287516ec39","ios":"levelo://app?vid=539bf309-08e9-4e49-954b-c9287516ec39"},"vehicle_type_id":"4","last_reported":1718921230,"current_range_meters":18800,"station_id":"ce4bgvp2rcd13ifvqct0","pricing_plan_id":"cebpf4jnsgd1na2vs0mg"},{"bike_id":"88975c3c-80f8-40ca-8616-9b699e9d41ea","system_id":"levelo_inurba_marseille","lat":43.312609,"lon":5.401662,"is_reserved":false,"is_disabled":false,"rental_uris":{"android":"levelo://app?vid=88975c3c-80f8-40ca-8616-9b699e9d41ea","ios":"levelo://app?vid=88975c3c-80f8-40ca-8616-9b699e9d41ea"},"vehicle_type_id":"4","last_reported":1718921230,"current_range_meters":7200,"station_id":"ce4bh092rcd13ifvqd30","pricing_plan_id":"cebpf4jnsgd1na2vs0mg"},{"bike_id":"8b00c800-782d-4ad3-90a4-20ecdcab8a44","system_id":"levelo_inurba_marseille","lat":43.309371,"lon":5.401449,"is_reserved":false,"is_disabled":false,"rental_uris":{"android":"levelo://app?vid=8b00c800-782d-4ad3-90a4-20ecdcab8a44","ios":"levelo://app?vid=8b00c800-782d-4ad3-90a4-20ecdcab8a44"},"vehicle_type_id":"4","last_reported":1718921230,"current_range_meters":0,"station_id":"ce4bgvp2rcd13ifvqct0","pricing_plan_id":"cebpf4jnsgd1na2vs0mg"},{"bike_id":"408c166a-726b-4178-8297-0a66412d6be3","system_id":"levelo_inurba_marseille","lat":43.30642,"lon":5.401031,"is_reserved":false,"is_disabled":false,"rental_uris":{"android":"levelo://app?vid=408c166a-726b-4178-8297-0a66412d6be3","ios":"levelo://app?vid=408c166a-726b-4178-8297-0a66412d6be3"},"vehicle_type_id":"4","last_reported":1718921230,"current_range_meters":0,"station_id":"ce4bh112rcd13ifvqda0","pricing_plan_id":"cebpf4jnsgd1na2vs0mg"},{"bike_id":"3ff2fa8f-a7ed-4653-8dc8-e7c6a8b93511","system_id":"levelo_inurba_marseille","lat":43.306412,"lon":5.401035,"is_reserved":false,"is_disabled":false,"rental_uris":{"android":"levelo://app?vid=3ff2fa8f-a7ed-4653-8dc8-e7c6a8b93511","ios":"levelo://app?vid=3ff2fa8f-a7ed-4653-8dc8-e7c6a8b93511"},"vehicle_type_id":"4","last_reported":1718921230,"current_range_meters":27200,"station_id":"ce4bh112rcd13ifvqda0","pricing_plan_id":"cebpf4jnsgd1na2vs0mg"},{"bike_id":"a8dce8fc-530b-4b78-9c88-a68e47102d59","system_id":"levelo_inurba_marseille","lat":43.30642,"lon":5.401031,"is_reserved":false,"is_disabled":false,"rental_uris":{"android":"levelo://app?vid=a8dce8fc-530b-4b78-9c88-a68e47102d59","ios":"levelo://app?vid=a8dce8fc-530b-4b78-9c88-a68e47102d59"},"vehicle_type_id":"4","last_reported":1718921230,"current_range_meters":16400,"station_id":"ce4bh112rcd13ifvqda0","pricing_plan_id":"cebpf4jnsgd1na2vs0mg"},{"bike_id":"de83054a-cb34-4922-b338-ec0b79d10c88","system_id":"levelo_inurba_marseille","lat":43.30642,"lon":5.401031,"is_reserved":false,"is_disabled":false,"rental_uris":{"android":"levelo://app?vid=de83054a-cb34-4922-b338-ec0b79d10c88","ios":"levelo://app?vid=de83054a-cb34-4922-b338-ec0b79d10c88"},