{"last_updated":1736652030,"ttl":60,"version":"2.2","data":{"bikes":[{"bike_id":"a336a768-3fc9-4234-b9b5-8f5b6cade83c","system_id":"levelo_inurba_marseille","lat":43.30598,"lon":5.37234,"is_reserved":false,"is_disabled":false,"rental_uris":{"android":"levelo://app?vid=a336a768-3fc9-4234-b9b5-8f5b6cade83c","ios":"levelo://app?vid=a336a768-3fc9-4234-b9b5-8f5b6cade83c"},"vehicle_type_id":"4","last_reported":1736652030,"current_range_meters":39200,"station_id":"ce4bgqh2rcd13ifvqc4g","pricing_plan_id":"cebpf4jnsgd1na2vs0mg"},{"bike_id":"d6a5003d-5dfd-4f3c-89d0-5bd76fdaf79c","system_id":"levelo_inurba_marseille","lat":43.2972,"lon":5.36598,"is_reserved":false,"is_disabled":false,"rental_uris":{"android":"levelo://app?vid=d6a5003d-5dfd-4f3c-89d0-5bd76fdaf79c","ios":"levelo://app?vid=d6a5003d-5dfd-4f3c-89d0-5bd76fdaf79c"},"vehicle_type_id":"4","last_reported":1736652030,"current_range_meters":38400,"station_id":"ce4bgn12rcd13ifvqbt0","pricing_plan_id":"cebpf4jnsgd1na2vs0mg"},{"bike_id":"e14294db-dcc6-4ace-949f-301fb8152d3b","system_id":"levelo_inurba_marseille","lat":43.28368,"lon":5.38642,"is_reserved":false,"is_disabled":false,"rental_uris":{"android":"levelo://app?vid=e14294db-dcc6-4ace-949f-301fb8152d3b","ios":"levelo://app?vid=e14294db-dcc6-4ace-949f-301fb8152d3b"},"vehicle_type_id":"4","last_reported":1736652030,"current_range_meters":36400,"station_id":"ce4bh492rcd13ifvqdvg","pricing_plan_id":"cebpf4jnsgd1na2vs0mg"},{"bike_id":"17269199-eef7-423c-a4ed-db8e9364dbf9","system_id":"levelo_inurba_marseille","lat":43.2918,"lon":5.39326,"is_reserved":false,"is_disabled":false,"rental_uris":{"android":"levelo://app?vid=17269199-eef7-423c-a4ed-db8e9364dbf9","ios":"levelo://app?vid=17269199-eef7-423c-a4ed-db8e9364dbf9"},"vehicle_type_id":"4","last_reported":1736652030,"current_range_meters":31200,"station_id":"ce4bh192rcd13ifvqdd0","pricing_plan_id":"cebpf4jnsgd1na2vs0mg"},{"bike_id":"1f322ef8-d843-413e-a4bb-1984846676ab","system_id":"levelo_inurba_marseille","lat":43.29947,"lon":5.36531,"is_reserved":false,"is_disabled":false,"rental_uris":{"android":"levelo://app?vid=1f322ef8-d843-413e-a4bb-1984846676ab","ios":"levelo://app?vid=1f322ef8-d843-413e-a4bb-1984846676ab"},"vehicle_type_id":"4","last_reported":1736652030,"current_range_meters":17600,"station_id":"ce4bgm92rcd13ifvqbr0","pricing_plan_id":"cebpf4jnsgd1na2vs0mg"},{"bike_id":"d031f589-3619-4bbf-bbf9-1315e5d3b535","system_id":"levelo_inurba_marseille","lat":43.2861,"lon":5.35101,"is_reserved":false,"is_disabled":false,"rental_uris":{"android":"levelo://app?vid=d031f589-3619-4bbf-bbf9-1315e5d3b535","ios":"levelo://app?vid=d031f589-3619-4bbf-bbf9-1315e5d3b535"},"vehicle_type_id":"4","last_reported":1736652030,"current_range_meters":28400,"station_id":"ce4bhch2rcd13ifvqeug","pricing_plan_id":"cebpf4jnsgd1na2vs0mg"},{"bike_id":"a2f393fe-0e07-4ed4-a52c-e182447a5a41","system_id":"levelo_inurba_marseille","lat":43.24667,"lon":5.3816,"is_reserved":false,"is_disabled":false,"rental_uris":{"android":"levelo://app?vid=a2f393fe-0e07-4ed4-a52c-e182447a5a41","ios":"levelo://app?vid=a2f393fe-0e07-4ed4-a52c-e182447a5a41"},"vehicle_type_id":"4","last_reported":1736652030,"current_range_meters":33600,"station_id":"ce4bhih2rcd13ifvqfr0","pricing_plan_id":"cebpf4jnsgd1na2vs0mg"},{"bike_id":"4a2da948-96bc-42d1-b75f-76973b05aff8","system_id":"levelo_inurba_marseille","lat":43.30671,"lon":5.40078,"is_reserved":false,"is_disabled":false,"rental_uris":{"android":"levelo://app?vid=4a2da948-96bc-42d1-b75f-76973b05aff8","ios":"levelo://app?vid=4a2da948-96bc-42d1-b75f-76973b05aff8"},"vehicle_type_id":"4","last_reported":1736652030,"current_range_meters":38800,"station_id":"ce4bh112rcd13ifvqda0","pricing_plan_id":"cebpf4jnsgd1na2vs0mg"},{"bike_id":"0ea60a2f-cda4-4308-83fa-1ed45460e073","system_id":"levelo_inurba_marseille","lat":43.322892,"lon":5.382646,"is_reserved":false,"is_disabled":false,"rental_uris":{"android":"levelo://app?vid=0ea60a2f-cda4-4308-83fa-1ed45460e073","ios":"levelo://app?vid=0ea60a2f-cda4-4308-83fa-1ed45460e073"},"vehicle_type_id":"4","last_reported":1736652030,"current_range_meters":32800,"station_id":"ce4bhr12rcd13ifvqhqg","pricing_plan_id":"cebpf4jnsgd1na2vs0mg"},{"bike_id":"5e21f01f-2e4d-41b7-987c-0fb5f6a331b4","system_id":"levelo_inurba_marseille","lat":43.31269,"lon":5.40184,"is_reserved":false,"is_disabled":false,"rental_uris":{"android":"levelo://app?vid=5e21f01f-2e4d-41b7-987c-0fb5f6a331b4","ios":"levelo://app?vid=5e21f01f-2e4d-41b7-987c-0fb5f6a331b4"},"vehicle_type_id":"4","last_reported":1736652030,"current_range_meters":39200,"station_id":"ce4bh092rcd13ifvqd30","pricing_plan_id":"cebpf4jnsgd1na2vs0mg"},{"bike_id":"77c7428a-d751-4a96-9a3d-793cc76e156d","system_id":"levelo_inurba_marseille","lat":43.257221,"lon":5.411085,"is_reserved":false,"is_disabled":false,"rental_uris":{"android":"levelo://app?vid=77c7428a-d751-4a96-9a3d-793cc76e156d","ios":"levelo://app?vid=77c7428a-d751-4a96-9a3d-793cc76e156d"},"vehicle_type_id":"4","last_reported":1736652030,"current_range_meters":32800,"station_id":"ce4bhkp2rcd13ifvqgd0","pricing_plan_id":"cebpf4jnsgd1na2vs0mg"},{"bike_id":"a2e22eec-b397-4674-a4ca-c7fe153c7275","system_id":"levelo_inurba_marseille","lat":43.29551,"lon":5.42276,"is_reserved":false,"is_disabled":false,"rental_uris":{"android":"levelo://app?vid=a2e22eec-b397-4674-a4ca-c7fe153c7275","ios":"levelo://app?vid=a2e22eec-b397-4674-a4ca-c7fe153c7275"},"vehicle_type_id":"4","last_reported":1736652030,"current_range_meters":24000,"station_id":"ce4bhph2rcd13ifvqhdg","pricing_plan_id":"cebpf4jnsgd1na2vs0mg"},{"bike_id":"7b64ec25-751a-48cd-9609-57e6513e4188","system_id":"levelo_inurba_marseille","lat":43.29283,"lon":5.40903,"is_reserved":false,"is_disabled":false,"rental_uris":{"android":"levelo://app?vid=7b64ec25-751a-48cd-9609-57e6513e4188","ios":"levelo://app?vid=7b64ec25-751a-48cd-9609-57e6513e4188"},"vehicle_type_id":"4","last_reported":1736652030,"current_range_meters":38400,"station_id":"ce4bh192rcd13ifvqdc0","pricing_plan_id":"cebpf4jnsgd1na2vs0mg"},{"bike_id":"ef831cc2-5920-451a-a230-e0620cbcb55e","system_id":"levelo_inurba_marseille","lat":43.31705,"lon":5.43705,"is_reserved":false,"is_disabled":false,"rental_uris":{"android":"levelo://app?vid=ef831cc2-5920-451a-a230-e0620cbcb55e","ios":"levelo://app?vid=ef831cc2-5920-451a-a230-e0620cbcb55e"},"vehicle_type_id":"4","last_reported":1736652030,"current_range_meters":10000,"station_id":"ce4bhp92rcd13ifvqhcg","pricing_plan_id":"cebpf4jnsgd1na2vs0mg"},{"bike_id":"d35eade4-56bf-4d63-86ef-e00d56e9858c","system_id":"levelo_inurba_marseille","lat":43.27065,"lon":5.42263,"is_reserved":false,"is_disabled":false,"rental_uris":{"android":"levelo://app?vid=d35eade4-56bf-4d63-86ef-e00d56e9858c","ios":"levelo://app?vid=d35eade4-56bf-4d63-86ef-e00d56e9858c"},"vehicle_type_id":"4","last_reported":1736652030,"current_range_meters":4800,"station_id":"ce4bhk92rcd13ifvqgb0","pricing_plan_id":"cebpf4jnsgd1na2vs0mg"},{"bike_id":"75ac131f-b1a2-43ec-8632-a213966b1b9a","system_id":"levelo_inurba_marseille","lat":43.31271,"lon":5.40172,"is_reserved":false,"is_disabled":false,"rental_uris":{"android":"levelo://app?vid=75ac131f-b1a2-43ec-8632-a213966b1b9a","ios":"levelo://app?vid=75ac131f-b1a2-43ec-8632-a213966b1b9a"},"vehicle_type_id":"4","last_reported":1736652030,"current_range_meters":38000,"station_id":"ce4bh092rcd13ifvqd30","pricing_plan_id":"cebpf4jnsgd1na2vs0mg"},{"bike_id":"5f160b55-fb3f-48ee-84e2-54e5caf10a0d","system_id":"levelo_inurba_marseille","lat":43.29049,"lon":5.35914,"is_reserved":false,"is_disabled":false,"rental_uris":{"android":"levelo://app?vid=5f160b55-fb3f-48ee-84e2-54e5caf10a0d","ios":"levelo://app?vid=5f160b55-fb3f-48ee-84e2-54e5caf10a0d"},"vehicle_type_id":"4","last_reported":1736652030,"current_range_meters":38800,"station_id":"ce4bha92rcd13ifvqeg0","pricing_plan_id":"cebpf4jnsgd1na2vs0mg"},{"bike_id":"f4c1775f-57a5-41e1-9281-570509b61244","system_id":"levelo_inurba_marseille","lat":43.246508,"lon":5.389058,"is_reserved":false,"is_disabled":false,"rental_uris":{"android":"levelo://app?vid=f4c1775f-57a5-41e1-9281-570509b61244","ios":"levelo://app?vid=f4c1775f-57a5-41e1-9281-570509b61244"},"vehicle_type_id":"4","last_reported":1736652030,"current_range_meters":28800,"station_id":"ce4bhg12rcd13ifvqf60","pricing_plan_id":"cebpf4jnsgd1na2vs0mg"},{"bike_id":"df769e2a-fe2d-4401-bba1-67494069f92a","system_id":"levelo_inurba_marseille","lat":43.28458,"lon":5.35901,"is_reserved":false,"is_disabled":false,"rental_uris":{"android":"levelo://app?vid=df769e2a-fe2d-4401-bba1-67494069f92a","ios":"levelo://app?vid=df769e2a-fe2d-4401-bba1-67494069f92a"},"vehicle_type_id":"4","last_reported":1736652030,"current_range_meters":30000,"station_id":"ce4bhah2rcd13ifvqei0","pricing_plan_id":"cebpf4jnsgd1na2vs0mg"},{"bike_id":"102f5f37-6d05-471d-a558-1d5ddf00f775","system_id":"levelo_inurba_marseille","lat":43.31698,"lon":5.43709,"is_reserved":false,"is_disabled":false,"rental_uris":{"android":"levelo://app?vid=102f5f37-6d05-471d-a558-1d5ddf00f775","ios":"levelo://app?vid=102f5f37-6d05-471d-a558-1d5ddf00f775"},"vehicle_type_id":"4","last_reported":1736652030,"current_range_meters":9200,"station_id":"ce4bhp92rcd13ifvqhcg","pricing_plan_id":"cebpf4jnsgd1na2vs0mg"},{"bike_id":"295b6b1c-1c9c-4719-a530-ff21d5379a47","system_id":"levelo_inurba_marseille","lat":43.24396,"lon":5.37072,"is_reserved":false,"is_disabled":false,"rental_uris":{"android":"levelo://app?vid=295b6b1c-1c9c-4719-a530-ff21d5379a47","ios":"levelo://app?vid=295b6b1c-1c9c-4719-a530-ff21d5379a47"},"vehicle_type_id":"4","last_reported":1736652030,"current_range_meters":36800,"station_id":"ce4bhhh2rcd13ifvqfk0","pricing_plan_id":"cebpf4jnsgd1na2vs0mg"},{"bike_id":"ab3cede9-6893-464c-ac8b-2a932ab1a8af","system_id":"levelo_inurba_marseille","lat":43.29196,"lon":5.39324,"is_reserved":false,"is_disabled":false,"rental_uris":{"android":"levelo://app?vid=ab3cede9-6893-464c-ac8b-2a932ab1a8af","ios":"levelo://app?vid=ab3cede9-6893-464c-ac8b-2a932ab1a8af"},"vehicle_type_id":"4","last_reported":1736652030,"current_range_meters":38800,"station_id":"ce4bh192rcd13ifvqdd0","pricing_plan_id":"cebpf4jnsgd1na2vs0mg"},{"bike_id":"139ac908-a657-42f3-b14e-97ea7720a05d","system_id":"levelo_inurba_marseille","lat":43.34139,"lon":5.4091,"is_reserved":false,"is_disabled":false,"rental_uris":{"android":"levelo://app?vid=139ac908-a657-42f3-b14e-97ea7720a05d","ios":"levelo://app?vid=139ac908-a657-42f3-b14e-97ea7720a05d"},"vehicle_type_id":"4","last_reported":1736652030,"current_range_meters":37600,"station_id":"ce4bhqh2rcd13ifvqhlg","pricing_plan_id":"cebpf4jnsgd1na2vs0mg"},{"bike_id":"004c2ac5-7f25-4e48-8a80-9a02537f6ba6","system_id":"levelo_inurba_marseille","lat":43.32112,"lon":5.36782,"is_reserved":false,"is_disabled":false,"rental_uris":{"android":"levelo://app?vid=004c2ac5-7f25-4e48-8a80-9a02537f6ba6","ios":"levelo://app?vid=004c2ac5-7f25-4e48-8a80-9a02537f6ba6"},"vehicle_type_id":"4","last_reported":1736652030,"current_range_meters":27600,"station_id":"ce4bhrh2rcd13ifvqhug","pricing_plan_id":"cebpf4jnsgd1na2vs0mg"},{"bike_id":"6a8dc65c-8c47-4239-8815-8efa2acdc338","system_id":"levelo_inurba_marseille","lat":43.27997,"lon":5.41651,"is_reserved":false,"is_disabled":true,"rental_uris":{"android":"levelo://app?vid=6a8dc65c-8c47-4239-8815-8efa2acdc338","ios":"levelo://app?vid=6a8dc65c-8c47-4239-8815-8efa2acdc338"},"vehicle_type_id":"4","last_reported":1736652030,"current_range_meters":8800,"station_id":"ce4bho12rcd13ifvqh1g","pricing_plan_id":"cebpf4jnsgd1na2vs0mg"},{"bike_id":"957b1cab-6d66-4896-ae44-55b3b0cd4e0a","system_id":"levelo_inurba_marseille","lat":43.280327,"lon":5.369472,"is_reserved":false,"is_disabled":false,"rental_uris":{"android":"levelo://app?vid=957b1cab-6d66-4896-ae44-55b3b0cd4e0a","ios":"levelo://app?vid=957b1cab-6d66-4896-ae44-55b3b0cd4e0a"},"vehicle_type_id":"4","last_reported":1736652030,"current_range_meters":29600,"station_id":"ce4bha12rcd13ifvqef0","pricing_plan_id":"cebpf4jnsgd1na2vs0mg"},{"bike_id":"94d00723-79f7-443c-bc62-0c89ddbb1d1c","system_id":"levelo_inurba_marseille","lat":43.28145,"lon":5.42638,"is_reserved":false,"is_disabled":true,"rental_uris":{"android":"levelo://app?vid=94d00723-79f7-443c-bc62-0c89ddbb1d1c","ios":"levelo://app?vid=94d00723-79f7-443c-bc62-0c89ddbb1d1c"},"vehicle_type_id":"4","last_reported":1736652030,"current_range_meters":27200,"station_id":"ce4bhnh2rcd13ifvqgug","pricing_plan_id":"cebpf4jnsgd1na2vs0mg"},{"bike_id":"f2e2570c-bb1f-4460-9d53-954a72a660f1","system_id":"levelo_inurba_marseille","lat":43.29806,"lon":5.40403,"is_reserved":false,"is_disabled":false,"rental_uris":{"android":"levelo://app?vid=f2e2570c-bb1f-4460-9d53-954a72a660f1","ios":"levelo://app?vid=f2e2570c-bb1f-4460-9d53-954a72a660f1"},"vehicle_type_id":"4","last_reported":1736652030,"current_range_meters":38400,"station_id":"ce4bh112rcd13ifvqd90","pricing_plan_id":"cebpf4jnsgd1na2vs0mg"},{"bike_id":"cd6d2208-2ce7-4c3f-a18e-8f409506f7d1","system_id":"levelo_inurba_marseille","lat":43.23059,"lon":5.35509,"is_reserved":false,"is_disabled":false,"rental_uris":{"android":"levelo://app?vid=cd6d2208-2ce7-4c3f-a18e-8f409506f7d1","ios":"levelo://app?vid=cd6d2208-2ce7-4c3f-a18e-8f409506f7d1"},"vehicle_type_id":"4","last_reported":1736652030,"current_range_meters":22000,"station_id":"cpo3342slgdg3j2ifvpg","pricing_plan_id":"cebpf4jnsgd1na2vs0mg"},{"bike_id":"11220a06-5578-40ac-bba5-67b992b32098","system_id":"levelo_inurba_marseille","lat":43.27346,"lon":5.39065,"is_reserved":false,"is_disabled":false,"rental_uris":{"android":"levelo://app?vid=11220a06-5578-40ac-bba5-67b992b32098","ios":"levelo://app?vid=11220a06-5578-40ac-bba5-67b992b32098"},"vehicle_type_id":"4","last_reported":1736652030,"current_range_meters":37600,"station_id":"ce4bhgp2rcd13ifvqfe0","pricing_plan_id":"cebpf4jnsgd1na2vs0mg"},{"bike_id":"e616dde7-4b83-43d4-82e4-041bada11ba1","system_id":"levelo_inurba_marseille","lat":43.310713,"lon":5.383433,"is_reserved":false,"is_disabled":false,"rental_uris":{"android":"levelo://app?vid=e616dde7-4b83-43d4-82e4-041bada11ba1","ios":"levelo://app?vid=e616dde7-4b83-43d4-82e4-041bada11ba1"},"vehicle_type_id":"4","last_reported":1736652030,"current_range_meters":16800,"station_id":"ce4bgv92rcd13ifvqcr0","pricing_plan_id":"cebpf4jnsgd1na2vs0mg"},{"bike_id":"c1dea8eb-dedb-48c3-82b9-ba4d059a0755","system_id":"levelo_inurba_marseille","lat":43.26551,"lon":5.37299,"is_reserved":false,"is_disabled":true,"rental_uris":{"android":"levelo://app?vid=c1dea8eb-dedb-48c3-82b9-ba4d059a0755","ios":"levelo://app?vid=c1dea8eb-dedb-48c3-82b9-ba4d059a0755"},"vehicle_type_id":"4","last_reported":1736652030,"current_range_meters":7200,"station_id":"ce4bhg12rcd13ifvqf70","pricing_plan_id":"cebpf4jnsgd1na2vs0mg"},{"bike_id":"f7253ea7-1840-46d0-b4c6-8bc8303cef00","system_id":"levelo_inurba_marseille","lat":43.24417,"lon":5.37031,"is_reserved":false,"is_disabled":false,"rental_uris":{"android":"levelo://app?vid=f7253ea7-1840-46d0-b4c6-8bc8303cef00","ios":"levelo://app?vid=f7253ea7-1840-46d0-b4c6-8bc8303cef00"},"vehicle_type_id":"4","last_reported":1736652030,"current_range_meters":38800,"station_id":"ce4bhhh2rcd13ifvqfk0","pricing_plan_id":"cebpf4jnsgd1na2vs0mg"},{"bike_id":"824c4c31-cff3-42b3-877b-6f5243ac81c7","system_id":"levelo_inurba_marseille","lat":43.24654,"lon":5.388878,"is_reserved":false,"is_disabled":false,"rental_uris":{"android":"levelo://app?vid=824c4c31-cff3-42b3-877b-6f5243ac81c7","ios":"levelo://app?vid=824c4c31-cff3-42b3-877b-6f5243ac81c7"},"vehicle_type_id":"4","last_reported":1736652030,"current_range_meters":26800,"station_id":"ce4bhg12rcd13ifvqf60","pricing_plan_id":"cebpf4jnsgd1na2vs0mg"},{"bike_id":"bde10037-439a-4c35-9259-2f7d936db73a","system_id":"levelo_inurba_marseille","lat":43.278372,"lon":5.392106,"is_reserved":false,"is_disabled":false,"rental_uris":{"android":"levelo://app?vid=bde10037-439a-4c35-9259-2f7d936db73a","ios":"levelo://app?vid=bde10037-439a-4c35-9259-2f7d936db73a"},"vehicle_type_id":"4","last_reported":1736652030,"current_range_meters":28800,"station_id":"ce4bhjp2rcd13ifvqga0","pricing_plan_id":"cebpf4jnsgd1na2vs0mg"},{"bike_id":"74cd82b8-7007-4ec1-90b0-bde4e296072f","system_id":"levelo_inurba_marseille","lat":43.27938,"lon":5.41051,"is_reserved":false,"is_disabled":false,"rental_uris":{"android":"levelo://app?vid=74cd82b8-7007-4ec1-90b0-bde4e296072f","ios":"levelo://app?vid=74cd82b8-7007-4ec1-90b0-bde4e296072f"},"vehicle_type_id":"4","last_reported":1736652030,"current_range_meters":32000,"station_id":"ce4bhnp2rcd13ifvqh0g","pricing_plan_id":"cebpf4jnsgd1na2vs0mg"},{"bike_id":"2f222ba4-ac09-46d4-8ee2-013b716d4228","system_id":"levelo_inurba_marseille","lat":43.31749,"lon":5.39013,"is_reserved":false,"is_disabled":false,"rental_uris":{"android":"levelo://app?vid=2f222ba4-ac09-46d4-8ee2-013b716d4228","ios":"levelo://app?vid=2f222ba4-ac09-46d4-8ee2-013b716d4228"},"vehicle_type_id":"4","last_reported":1736652030,"current_range_meters":38000,"station_id":"ce4bhqp2rcd13ifvqhng","pricing_plan_id":"cebpf4jnsgd1na2vs0mg"},{"bike_id":"bc574909-8f64-4f3b-a548-6a05ef5e8139","system_id":"levelo_inurba_marseille","lat":43.30249,"lon":5.40056,"is_reserved":false,"is_disabled":false,"rental_uris":{"android":"levelo://app?vid=bc574909-8f64-4f3b-a548-6a05ef5e8139","ios":"levelo://app?vid=bc574909-8f64-4f3b-a548-6a05ef5e8139"},"vehicle_type_id":"4","last_reported":1736652030,"current_range_meters":14000,"station_id":"ce4bgvh2rcd13ifvqcs0","pricing_plan_id":"cebpf4jnsgd1na2vs0mg"},{"bike_id":"7ada66f6-8c37-47c2-bb9d-4345e24f795b","system_id":"levelo_inurba_marseille","lat":43.26924,"lon":5.38933,"is_reserved":false,"is_disabled":false,"rental_uris":{"android":"levelo://app?vid=7ada66f6-8c37-47c2-bb9d-4345e24f795b","ios":"levelo://app?vid=7ada66f6-8c37-47c2-bb9d-4345e24f795b"},"vehicle_type_id":"4","last_reported":1736652030,"current_range_meters":17200,"station_id":"ce4bhhh2rcd13ifvqfl0","pricing_plan_id":"cebpf4jnsgd1na2vs0mg"},{"bike_id":"804acd2c-eff6-4f19-b231-84891b5ea8dc","system_id":"levelo_inurba_marseille","lat":43.25489,"lon":5.37654,"is_reserved":false,"is_disabled":false,"rental_uris":{"android":"levelo://app?vid=804acd2c-eff6-4f19-b231-84891b5ea8dc","ios":"levelo://app?vid=804acd2c-eff6-4f19-b231-84891b5ea8dc"},"vehicle_type_id":"4","last_reported":1736652030,"current_range_meters":10000,"station_id":"ce4bhh12rcd13ifvqff0","pricing_plan_id":"cebpf4jnsgd1na2vs0mg"},{"bike_id":"6b750947-fb43-40e2-9931-495446cc2b3f","system_id":"levelo_inurba_marseille","lat":43.22918,"lon":5.35374,"is_reserved":false,"is_disabled":false,"rental_uris":{"android":"levelo://app?vid=6b750947-fb43-40e2-9931-495446cc2b3f","ios":"levelo://app?vid=6b750947-fb43-40e2-9931-495446cc2b3f"},"vehicle_type_id":"4","last_reported":1736652030,"current_range_meters":35600,"station_id":"cpo3532slgdg3j2ikp40","pricing_plan_id":"cebpf4jnsgd1na2vs0mg"},{"bike_id":"c8e997c0-8580-4d0f-8d9f-0766596381e1","system_id":"levelo_inurba_marseille","lat":43.34022,"lon":5.37553,"is_reserved":false,"is_disabled":false,"rental_uris":{"android":"levelo://app?vid=c8e997c0-8580-4d0f-8d9f-0766596381e1","ios":"levelo://app?vid=c8e997c0-8580-4d0f-8d9f-0766596381e1"},"vehicle_type_id":"4","last_reported":1736652030,"current_range_meters":3200,"station_id":"","pricing_plan_id":"cebpf4jnsgd1na2vs0mg"},{"bike_id":"4b46f18f-aac1-48a7-8621-63c9b65fbd68","system_id":"levelo_inurba_marseille","lat":43.27994,"lon":5.40023,"is_reserved":false,"is_disabled":false,"rental_uris":{"android":"levelo://app?vid=4b46f18f-aac1-48a7-8621-63c9b65fbd68","ios":"levelo://app?vid=4b46f18f-aac1-48a7-8621-63c9b65fbd68"},"vehicle_type_id":"4","last_reported":1736652030,"current_range_meters":4800,"station_id":"ce4bho92rcd13ifvqh4g","pricing_plan_id":"cebpf4jnsgd1na2vs0mg"},{"bike_id":"ba5df164-d25c-4a1c-8679-1bd1a1db0642","system_id":"levelo_inurba_marseille","lat":43.3373,"lon":5.391848,"is_reserved":false,"is_disabled":false,"rental_uris":{"android":"levelo://app?vid=ba5df164-d25c-4a1c-8679-1bd1a1db0642","ios":"levelo://app?vid=ba5df164-d25c-4a1c-8679-1bd1a1db0642"},"vehicle_type_id":"4","last_reported":1736652030,"current_range_meters":25600,"station_id":"ce4bhr92rcd13ifvqhsg","pricing_plan_id":"cebpf4jnsgd1na2vs0mg"},{"bike_id":"087f784c-6451-4665-896b-9e7c7cacc314","system_id":"levelo_inurba_marseille","lat":43.30049,"lon":5.37573,"is_reserved":false,"is_disabled":false,"rental_uris":{"android":"levelo://app?vid=087f784c-6451-4665-896b-9e7c7cacc314","ios":"levelo://app?vid=087f784c-6451-4665-896b-9e7c7cacc314"},"vehicle_type_id":"4","last_reported":1736652030,"current_range_meters":4000,"station_id":"","pricing_plan_id":"cebpf4jnsgd1na2vs0mg"},{"bike_id":"a71f4f01-fb00-4014-8f18-da6de0aa4428","system_id":"levelo_inurba_marseille","lat":43.29242,"lon":5.40916,"is_reserved":false,"is_disabled":false,"rental_uris":{"android":"levelo://app?vid=a71f4f01-fb00-4014-8f18-da6de0aa4428","ios":"levelo://app?vid=a71f4f01-fb00-4014-8f18-da6de0aa4428"},"vehicle_type_id":"4","last_reported":1736652030,"current_range_meters":32000,"station_id":"ce4bh192rcd13ifvqdc0","pricing_plan_id":"cebpf4jnsgd1na2vs0mg"},{"bike_id":"a0fcb8ae-3c62-42ed-9258-294b5ce23087","system_id":"levelo_inurba_marseille","lat":43.25117,"lon":5.40348,"is_reserved":false,"is_disabled":false,"rental_uris":{"android":"levelo://app?vid=a0fcb8ae-3c62-42ed-9258-294b5ce23087","ios":"levelo://app?vid=a0fcb8ae-3c62-42ed-9258-294b5ce23087"},"vehicle_type_id":"4","last_reported":1736652030,"current_range_meters":39200,"station_id":"ce4bhlh2rcd13ifvqgig","pricing_plan_id":"cebpf4jnsgd1na2vs0mg"},{"bike_id":"eb9b2df2-fdc1-4d66-abed-6bda4748c4f1","system_id":"levelo_inurba_marseille","lat":43.26199,"lon":5.37925,"is_reserved":false,"is_disabled":false,"rental_uris":{"android":"levelo://app?vid=eb9b2df2-fdc1-4d66-abed-6bda4748c4f1","ios":"levelo://app?vid=eb9b2df2-fdc1-4d66-abed-6bda4748c4f1"},"vehicle_type_id":"4","last_reported":1736652030,"current_range_meters":24800,"station_id":"ce4bhjp2rcd13ifvqg90","pricing_plan_id":"cebpf4jnsgd1na2vs0mg"},{"bike_id":"7dd5dd5e-1d75-4c5b-b5b8-248a34302cca","system_id":"levelo_inurba_marseille","lat":43.30449,"lon":5.37914,"is_reserved":false,"is_disabled":true,"rental_uris":{"android":"levelo://app?vid=7dd5dd5e-1d75-4c5b-b5b8-248a34302cca","ios":"levelo://app?vid=7dd5dd5e-1d75-4c5b-b5b8-248a34302cca"},"vehicle_type_id":"4","last_reported":1736652030,"current_range_meters":32000,"station_id":"ce4bgup2rcd13ifvqcn0","pricing_plan_id":"cebpf4jnsgd1na2vs0mg"},{"bike_id":"4e6a1fdd-84f1-4ff7-9556-c133bbbd986f","system_id":"levelo_inurba_marseille","lat":43.26187,"lon":5.374589,"is_reserved":false,"is_disabled":false,"rental_uris":{"android":"levelo://app?vid=4e6a1fdd-84f1-4ff7-9556-c133bbbd986f","ios":"levelo://app?vid=4e6a1fdd-84f1-4ff7-9556-c133bbbd986f"},"vehicle_type_id":"4","last_reported":1736652030,"current_range_meters":30400,"station_id":"ce4bhgp2rcd13ifvqfc0","pricing_plan_id":"cebpf4jnsgd1na2vs0mg"},{"bike_id":"226e6ef0-a4fc-4895-9ad6-89f66438544b","system_id":"levelo_inurba_marseille","lat":43.290019,"lon":5.356084,"is_reserved":false,"is_disabled":true,"rental_uris":{"android":"levelo://app?vid=226e6ef0-a4fc-4895-9ad6-89f66438544b","ios":"levelo://app?vid=226e6ef0-a4fc-4895-9ad6-89f66438544b"},"vehicle_type_id":"4","last_reported":1736652030,"current_range_meters":38000,"station_id":"ce4bhb92rcd13ifvqen0","pricing_plan_id":"cebpf4jnsgd1na2vs0mg"},{"bike_id":"d8327471-e10e-4e1d-a46b-c43156fc0620","system_id":"levelo_inurba_marseille","lat":43.26747,"lon":5.39427,"is_reserved":false,"is_disabled":true,"rental_uris":{"android":"levelo://app?vid=d8327471-e10e-4e1d-a46b-c43156fc0620","ios":"levelo://app?vid=d8327471-e10e-4e1d-a46b-c43156fc0620"},"vehicle_type_id":"4","last_reported":1736652030,"current_range_meters":0,"station_id":"ce4bhh12rcd13ifvqfg0","pricing_plan_id":"cebpf4jnsgd1na2vs0mg"},{"bike_id":"c035b76c-6980-4108-a17c-071c32af70e1","system_id":"levelo_inurba_marseille","lat":43.26055,"lon":5.39397,"is_reserved":false,"is_disabled":false,"rental_uris":{"android":"levelo://app?vid=c035b76c-6980-4108-a17c-071c32af70e1","ios":"levelo://app?vid=c035b76c-6980-4108-a17c-071c32af70e1"},"vehicle_type_id":"4","last_reported":1736652030,"current_range_meters":30400,"station_id":"ce4bhh92rcd13ifvqfj0","pricing_plan_id":"cebpf4jnsgd1na2vs0mg"},{"bike_id":"d8f1f104-b6c9-423c-8c65-70d998b9c52b","system_id":"levelo_inurba_marseille","lat":43.3247,"lon":5.36588,"is_reserved":false,"is_disabled":false,"rental_uris":{"android":"levelo://app?vid=d8f1f104-b6c9-423c-8c65-70d998b9c52b","ios":"levelo://app?vid=d8f1f104-b6c9-423c-8c65-70d998b9c52b"},"vehicle_type_id":"4","last_reported":1736652030,"current_range_meters":38000,"station_id":"ce4bhs12rcd13ifvqhvg","pricing_plan_id":"cebpf4jnsgd1na2vs0mg"},{"bike_id":"7d959c37-4d60-4094-901d-194afd224ca0","system_id":"levelo_inurba_marseille","lat":43.28378,"lon":5.38635,"is_reserved":false,"is_disabled":true,"rental_uris":{"android":"levelo://app?vid=7d959c37-4d60-4094-901d-194afd224ca0","ios":"levelo://app?vid=7d959c37-4d60-4094-901d-194afd224ca0"},"vehicle_type_id":"4","last_reported":1736652030,"current_range_meters":12800,"station_id":"ce4bh492rcd13ifvqdvg","pricing_plan_id":"cebpf4jnsgd1na2vs0mg"},{"bike_id":"6efaf63a-d498-4501-96b0-c9655d575055","system_id":"levelo_inurba_marseille","lat":43.2871,"lon":5.39998,"is_reserved":false,"is_disabled":false,"rental_uris":{"android":"levelo://app?vid=6efaf63a-d498-4501-96b0-c9655d575055","ios":"levelo://app?vid=6efaf63a-d498-4501-96b0-c9655d575055"},"vehicle_type_id":"4","last_reported":1736652030,"current_range_meters":38800,"station_id":"ce4bho92rcd13ifvqh3g","pricing_plan_id":"cebpf4jnsgd1na2vs0mg"},{"bike_id":"34ef7f59-05b0-4ddf-8f45-d00ebba3e523","system_id":"levelo_inurba_marseille","lat":43.3302,"lon":5.39053,"is_reserved":false,"is_disabled":false,"rental_uris":{"android":"levelo://app?vid=34ef7f59-05b0-4ddf-8f45-d00ebba3e523","ios":"levelo://app?vid=34ef7f59-05b0-4ddf-8f45-d00ebba3e523"},"vehicle_type_id":"4","last_reported":1736652030,"current_range_meters":32400,"station_id":"ce4bhr92rcd13ifvqhrg","pricing_plan_id":"cebpf4jnsgd1na2vs0mg"},{"bike_id":"28702ed3-2e70-450a-bd81-9f3badadff3b","system_id":"levelo_inurba_marseille","lat":43.2793,"lon":5.41036,"is_reserved":false,"is_disabled":false,"rental_uris":{"android":"levelo://app?vid=28702ed3-2e70-450a-bd81-9f3badadff3b","ios":"levelo://app?vid=28702ed3-2e70-450a-bd81-9f3badadff3b"},"vehicle_type_id":"4","last_reported":1736652030,"current_range_meters":26800,"station_id":"ce4bhnp2rcd13ifvqh0g","pricing_plan_id":"cebpf4jnsgd1na2vs0mg"},{"bike_id":"426ee80e-06b0-4d0f-86a5-ea8ad64aaa11","system_id":"levelo_inurba_marseille","lat":43.28913,"lon":5.43774,"is_reserved":false,"is_disabled":false,"rental_uris":{"android":"levelo://app?vid=426ee80e-06b0-4d0f-86a5-ea8ad64aaa11","ios":"levelo://app?vid=426ee80e-06b0-4d0f-86a5-ea8ad64aaa11"},"vehicle_type_id":"4","last_reported":1736652030,"current_range_meters":14800,"station_id":"","pricing_plan_id":"cebpf4jnsgd1na2vs0mg"},{"bike_id":"af66193d-fd8e-4c6b-a65c-ee1d59367e83","system_id":"levelo_inurba_marseille","lat":43.28458,"lon":5.35884,"is_reserved":false,"is_disabled":false,"rental_uris":{"android":"levelo://app?vid=af66193d-fd8e-4c6b-a65c-ee1d59367e83","ios":"levelo://app?vid=af66193d-fd8e-4c6b-a65c-ee1d59367e83"},"vehicle_type_id":"4","last_reported":1736652030,"current_range_meters":38800,"station_id":"ce4bhah2rcd13ifvqei0","pricing_plan_id":"cebpf4jnsgd1na2vs0mg"},{"bike_id":"b29dca30-1f99-4556-8d02-1cd94cfb8ea1","system_id":"levelo_inurba_marseille","lat":43.32484,"lon":5.36562,"is_reserved":false,"is_disabled":false,"rental_uris":{"android":"levelo://app?vid=b29dca30-1f99-4556-8d02-1cd94cfb8ea1","ios":"levelo://app?vid=b29dca30-1f99-4556-8d02-1cd94cfb8ea1"},"vehicle_type_id":"4","last_reported":1736652030,"current_range_meters":16400,"station_id":"ce4bhs12rcd13ifvqhvg","pricing_plan_id":"cebpf4jnsgd1na2vs0mg"},{"bike_id":"2b8ddac0-7918-454e-af5a-f9c04a1d3f9e","system_id":"levelo_inurba_marseille","lat":43.29776,"lon":5.37866,"is_reserved":false,"is_disabled":false,"rental_uris":{"android":"levelo://app?vid=2b8ddac0-7918-454e-af5a-f9c04a1d3f9e","ios":"levelo://app?vid=2b8ddac0-7918-454e-af5a-f9c04a1d3f9e"},"vehicle_type_id":"4","last_reported":1736652030,"current_range_meters":6800,"station_id":"","pricing_plan_id":"cebpf4jnsgd1na2vs0mg"},{"bike_id":"c62f567e-4ded-498a-9402-2a1005e58f3e","system_id":"levelo_inurba_marseille","lat":43.30166,"lon":5.3663,"is_reserved":false,"is_disabled":false,"rental_uris":{"android":"levelo://app?vid=c62f567e-4ded-498a-9402-2a1005e58f3e","ios":"levelo://app?vid=c62f567e-4ded-498a-9402-2a1005e58f3e"},"vehicle_type_id":"4","last_reported":1736652030,"current_range_meters":38000,"station_id":"ce4bgrh2rcd13ifvqc8g","pricing_plan_id":"cebpf4jnsgd1na2vs0mg"},{"bike_id":"9fa5613d-39b6-40e4-be80-3428e5831144","system_id":"levelo_inurba_marseille","lat":43.25862,"lon":5.39905,"is_reserved":false,"is_disabled":false,"rental_uris":{"android":"levelo://app?vid=9fa5613d-39b6-40e4-be80-3428e5831144","ios":"levelo://app?vid=9fa5613d-39b6-40e4-be80-3428e5831144"},"vehicle_type_id":"4","last_reported":1736652030,"current_range_meters":38000,"station_id":"ce4bhl92rcd13ifvqghg","pricing_plan_id":"cebpf4jnsgd1na2vs0mg"},{"bike_id":"3729f538-7148-458e-bf57-af4b40fcbf2f","system_id":"levelo_inurba_marseille","lat":43.31516,"lon":5.38061,"is_reserved":false,"is_disabled":false,"rental_uris":{"android":"levelo://app?vid=3729f538-7148-458e-bf57-af4b40fcbf2f","ios":"levelo://app?vid=3729f538-7148-458e-bf57-af4b40fcbf2f"},"vehicle_type_id":"4","last_reported":1736652030,"current_range_meters":38800,"station_id":"ce4bhsp2rcd13ifvqi50","pricing_plan_id":"cebpf4jnsgd1na2vs0mg"},{"bike_id":"bfd7fc97-d388-47cb-b784-31a4641f4b4c","system_id":"levelo_inurba_marseille","lat":43.31168,"lon":5.38711,"is_reserved":false,"is_disabled":false,"rental_uris":{"android":"levelo://app?vid=bfd7fc97-d388-47cb-b784-31a4641f4b4c","ios":"levelo://app?vid=bfd7fc97-d388-47cb-b784-31a4641f4b4c"},"vehicle_type_id":"4","last_reported":1736652030,"current_range_meters":39200,"station_id":"ce4bgv12rcd13ifvqcp0","pricing_plan_id":"cebpf4jnsgd1na2vs0mg"},{"bike_id":"ea415a8c-aacb-481b-a750-8855399248a0","system_id":"levelo_inurba_marseille","lat":43.28656,"lon":5.36362,"is_reserved":false,"is_disabled":false,"rental_uris":{"android":"levelo://app?vid=ea415a8c-aacb-481b-a750-8855399248a0","ios":"levelo://app?vid=ea415a8c-aacb-481b-a750-8855399248a0"},"vehicle_type_id":"4","last_reported":1736652030,"current_range_meters":36400,"station_id":"ce4bhah2rcd13ifvqej0","pricing_plan_id":"cebpf4jnsgd1na2vs0mg"},{"bike_id":"27feaeee-0597-491e-960c-390adee3229f","system_id":"levelo_inurba_marseille","lat":43.29199,"lon":5.393274,"is_reserved":false,"is_disabled":true,"rental_uris":{"android":"levelo://app?vid=27feaeee-0597-491e-960c-390adee3229f","ios":"levelo://app?vid=27feaeee-0597-491e-960c-390adee3229f"},"vehicle_type_id":"4","last_reported":1736652030,"current_range_meters":22400,"station_id":"","pricing_plan_id":"cebpf4jnsgd1na2vs0mg"},{"bike_id":"f4dbc556-58b0-4dfd-be99-18a51c032520","system_id":"levelo_inurba_marseille","lat":43.241754,"lon":5.397058,"is_reserved":false,"is_disabled":true,"rental_uris":{"android":"levelo://app?vid=f4dbc556-58b0-4dfd-be99-18a51c032520","ios":"levelo://app?vid=f4dbc556-58b0-4dfd-be99-18a51c032520"},"vehicle_type_id":"4","last_reported":1736652030,"current_range_meters":36800,"station_id":"ce4bhn12rcd13ifvqgpg","pricing_plan_id":"cebpf4jnsgd1na2vs0mg"},{"bike_id":"9c62e164-6cf9-4292-996f-7c2ed5673e8e","system_id":"levelo_inurba_marseille","lat":43.23955,"lon":5.36627,"is_reserved":false,"is_disabled":false,"rental_uris":{"android":"levelo://app?vid=9c62e164-6cf9-4292-996f-7c2ed5673e8e","ios":"levelo://app?vid=9c62e164-6cf9-4292-996f-7c2ed5673e8e"},"vehicle_type_id":"4","last_reported":1736652030,"current_range_meters":28000,"station_id":"ce4bhi12rcd13ifvqfp0","pricing_plan_id":"cebpf4jnsgd1na2vs0mg"},{"bike_id":"0766341f-151d-49eb-a26f-0479a1dc30f8","system_id":"levelo_inurba_marseille","lat":43.27997,"lon":5.40016,"is_reserved":false,"is_disabled":false,"rental_uris":{"android":"levelo://app?vid=0766341f-151d-49eb-a26f-0479a1dc30f8","ios":"levelo://app?vid=0766341f-151d-49eb-a26f-0479a1dc30f8"},"vehicle_type_id":"4","last_reported":1736652030,"current_range_meters":35600,"station_id":"ce4bho92rcd13ifvqh4g","pricing_plan_id":"cebpf4jnsgd1na2vs0mg"},{"bike_id":"b5ed240a-18a2-42c0-8b6e-36914ad075c6","system_id":"levelo_inurba_marseille","lat":43.31099,"lon":5.37787,"is_reserved":false,"is_disabled":false,"rental_uris":{"android":"levelo://app?vid=b5ed240a-18a2-42c0-8b6e-36914ad075c6","ios":"levelo://app?vid=b5ed240a-18a2-42c0-8b6e-36914ad075c6"},"vehicle_type_id":"4","last_reported":1736652030,"current_range_meters":28000,"station_id":"ce4bgt92rcd13ifvqcg0","pricing_plan_id":"cebpf4jnsgd1na2vs0mg"},{"bike_id":"45636413-29bd-43b6-bd8b-1246eb3c7c1a","system_id":"levelo_inurba_marseille","lat":43.27114,"lon":5.38511,"is_reserved":false,"is_disabled":false,"rental_uris":{"android":"levelo://app?vid=45636413-29bd-43b6-bd8b-1246eb3c7c1a","ios":"levelo://app?vid=45636413-29bd-43b6-bd8b-1246eb3c7c1a"},"vehicle_type_id":"4","last_reported":1736652030,"current_range_meters":9600,"station_id":"","pricing_plan_id":"cebpf4jnsgd1na2vs0mg"},{"bike_id":"4d2f8fd0-21ed-4425-9dc5-0ad45a59fb73","system_id":"levelo_inurba_marseille","lat":43.24672,"lon":5.38153,"is_reserved":false,"is_disabled":false,"rental_uris":{"android":"levelo://app?vid=4d2f8fd0-21ed-4425-9dc5-0ad45a59fb73","ios":"levelo://app?vid=4d2f8fd0-21ed-4425-9dc5-0ad45a59fb73"},"vehicle_type_id":"4","last_reported":1736652030,"current_range_meters":8000,"station_id":"ce4bhih2rcd13ifvqfr0","pricing_plan_id":"cebpf4jnsgd1na2vs0mg"},{"bike_id":"dff139cf-08bd-46c2-ad9d-82e646d1cde7","system_id":"levelo_inurba_marseille","lat":43.29072,"lon":5.37166,"is_reserved":false,"is_disabled":false,"rental_uris":{"android":"levelo://app?vid=dff139cf-08bd-46c2-ad9d-82e646d1cde7","ios":"levelo://app?vid=dff139cf-08bd-46c2-ad9d-82e646d1cde7"},"vehicle_type_id":"4","last_reported":1736652030,"current_range_meters":38800,"station_id":"ce4bh5p2rcd13ifvqe4g","pricing_plan_id":"cebpf4jnsgd1na2vs0mg"},{"bike_id":"80609ff8-7d7d-4ae2-9159-aea837c7c52b","system_id":"levelo_inurba_marseille","lat":43.23956,"lon":5.3663,"is_reserved":false,"is_disabled":false,"rental_uris":{"android":"levelo://app?vid=80609ff8-7d7d-4ae2-9159-aea837c7c52b","ios":"levelo://app?vid=80609ff8-7d7d-4ae2-9159-aea837c7c52b"},"vehicle_type_id":"4","last_reported":1736652030,"current_range_meters":8400,"station_id":"ce4bhi12rcd13ifvqfp0","pricing_plan_id":"cebpf4jnsgd1na2vs0mg"},{"bike_id":"01d8cf89-b6fb-431c-ac59-b08e483c001d","system_id":"levelo_inurba_marseille","lat":43.28465,"lon":5.35882,"is_reserved":false,"is_disabled":false,"rental_uris":{"android":"levelo://app?vid=01d8cf89-b6fb-431c-ac59-b08e483c001d","ios":"levelo://app?vid=01d8cf89-b6fb-431c-ac59-b08e483c001d"},"vehicle_type_id":"4","last_reported":1736652030,"current_range_meters":28400,"station_id":"ce4bhah2rcd13ifvqei0","pricing_plan_id":"cebpf4jnsgd1na2vs0mg"},{"bike_id":"c2b657e0-67fb-4721-a4d6-0ebb2fa0fcbe","system_id":"levelo_inurba_marseille","lat":43.2861,"lon":5.35102,"is_reserved":false,"is_disabled":false,"rental_uris":{"android":"levelo://app?vid=c2b657e0-67fb-4721-a4d6-0ebb2fa0fcbe","ios":"levelo://app?vid=c2b657e0-67fb-4721-a4d6-0ebb2fa0fcbe"},"vehicle_type_id":"4","last_reported":1736652030,"current_range_meters":38000,"station_id":"ce4bhch2rcd13ifvqeug","pricing_plan_id":"cebpf4jnsgd1na2vs0mg"},{"bike_id":"ede110e2-d6d1-4df1-a22c-56141f38a63d","system_id":"levelo_inurba_marseille","lat":43.29281,"lon":5.40924,"is_reserved":false,"is_disabled":false,"rental_uris":{"android":"levelo://app?vid=ede110e2-d6d1-4df1-a22c-56141f38a63d","ios":"levelo://app?vid=ede110e2-d6d1-4df1-a22c-56141f38a63d"},"vehicle_type_id":"4","last_reported":1736652030,"current_range_meters":38800,"station_id":"ce4bh192rcd13ifvqdc0","pricing_plan_id":"cebpf4jnsgd1na2vs0mg"},{"bike_id":"aa6a3ea3-cccf-42e6-988f-0695e82a9451","system_id":"levelo_inurba_marseille","lat":43.27997,"lon":5.4002,"is_reserved":false,"is_disabled":false,"rental_uris":{"android":"levelo://app?vid=aa6a3ea3-cccf-42e6-988f-0695e82a9451","ios":"levelo://app?vid=aa6a3ea3-cccf-42e6-988f-0695e82a9451"},"vehicle_type_id":"4","last_reported":1736652030,"current_range_meters":32800,"station_id":"ce4bho92rcd13ifvqh4g","pricing_plan_id":"cebpf4jnsgd1na2vs0mg"},{"bike_id":"3bf91848-c5d0-4524-ac3b-a43d812f5094","system_id":"levelo_inurba_marseille","lat":43.23053,"lon":5.35493,"is_reserved":false,"is_disabled":false,"rental_uris":{"android":"levelo://app?vid=3bf91848-c5d0-4524-ac3b-a43d812f5094","ios":"levelo://app?vid=3bf91848-c5d0-4524-ac3b-a43d812f5094"},"vehicle_type_id":"4","last_reported":1736652030,"current_range_meters":38800,"station_id":"cpo3342slgdg3j2ifvpg","pricing_plan_id":"cebpf4jnsgd1na2vs0mg"},{"bike_id":"c01c79a6-7861-4ee5-bb28-78d429be4a94","system_id":"levelo_inurba_marseille","lat":43.25728,"lon":5.41112,"is_reserved":false,"is_disabled":false,"rental_uris":{"android":"levelo://app?vid=c01c79a6-7861-4ee5-bb28-78d429be4a94","ios":"levelo://app?vid=c01c79a6-7861-4ee5-bb28-78d429be4a94"},"vehicle_type_id":"4","last_reported":1736652030,"current_range_meters":36800,"station_id":"ce4bhkp2rcd13ifvqgd0","pricing_plan_id":"cebpf4jnsgd1na2vs0mg"},{"bike_id":"aa4fa961-77ec-4d6f-875d-5cba342b5b27","system_id":"levelo_inurba_marseille","lat":43.255784,"lon":5.382378,"is_reserved":false,"is_disabled":false,"rental_uris":{"android":"levelo://app?vid=aa4fa961-77ec-4d6f-875d-5cba342b5b27","ios":"levelo://app?vid=aa4fa961-77ec-4d6f-875d-5cba342b5b27"},"vehicle_type_id":"4","last_reported":1736652030,"current_range_meters":38800,"station_id":"ce4bhih2rcd13ifvqfs0","pricing_plan_id":"cebpf4jnsgd1na2vs0mg"},{"bike_id":"33f772a9-3316-47c9-ba2c-b8bb5b0473dc","system_id":"levelo_inurba_marseille","lat":43.295951,"lon":5.367396,"is_reserved":false,"is_disabled":true,"rental_uris":{"android":"levelo://app?vid=33f772a9-3316-47c9-ba2c-b8bb5b0473dc","ios":"levelo://app?vid=33f772a9-3316-47c9-ba2c-b8bb5b0473dc"},"vehicle_type_id":"4","last_reported":1736652030,"current_range_meters":38000,"station_id":"ce4bgph2rcd13ifvqc2g","pricing_plan_id":"cebpf4jnsgd1na2vs0mg"},{"bike_id":"ae114f76-f1bc-493e-ad7e-7b47a3d8314b","system_id":"levelo_inurba_marseille","lat":43.29527,"lon":5.39049,"is_reserved":false,"is_disabled":false,"rental_uris":{"android":"levelo://app?vid=ae114f76-f1bc-493e-ad7e-7b47a3d8314b","ios":"levelo://app?vid=ae114f76-f1bc-493e-ad7e-7b47a3d8314b"},"vehicle_type_id":"4","last_reported":1736652030,"current_range_meters":38000,"station_id":"ce4bh3p2rcd13ifvqdp0","pricing_plan_id":"cebpf4jnsgd1na2vs0mg"},{"bike_id":"55ba99ed-985e-49c8-b072-957201c19c69","system_id":"levelo_inurba_marseille","lat":43.25116,"lon":5.4032,"is_reserved":false,"is_disabled":false,"rental_uris":{"android":"levelo://app?vid=55ba99ed-985e-49c8-b072-957201c19c69","ios":"levelo://app?vid=55ba99ed-985e-49c8-b072-957201c19c69"},"vehicle_type_id":"4","last_reported":1736652030,"current_range_meters":28400,"station_id":"ce4bhlh2rcd13ifvqgig","pricing_plan_id":"cebpf4jnsgd1na2vs0mg"},{"bike_id":"9e3e45cb-74c8-44ce-aa81-179009c6b5b8","system_id":"levelo_inurba_marseille","lat":43.2867,"lon":5.37388,"is_reserved":false,"is_disabled":false,"rental_uris":{"android":"levelo://app?vid=9e3e45cb-74c8-44ce-aa81-179009c6b5b8","ios":"levelo://app?vid=9e3e45cb-74c8-44ce-aa81-179009c6b5b8"},"vehicle_type_id":"4","last_reported":1736652030,"current_range_meters":24400,"station_id":"ce4bh3p2rcd13ifvqdq0","pricing_plan_id":"cebpf4jnsgd1na2vs0mg"},{"bike_id":"b7e2f4aa-3f2d-4412-937a-c1402990155a","system_id":"levelo_inurba_marseille","lat":43.30664,"lon":5.36818,"is_reserved":false,"is_disabled":false,"rental_uris":{"android":"levelo://app?vid=b7e2f4aa-3f2d-4412-937a-c1402990155a","ios":"levelo://app?vid=b7e2f4aa-3f2d-4412-937a-c1402990155a"},"vehicle_type_id":"4","last_reported":1736652030,"current_range_meters":38800,"station_id":"","pricing_plan_id":"cebpf4jnsgd1na2vs0mg"},{"bike_id":"033aae3f-f422-4618-8d9b-13dbb080f3d2","system_id":"levelo_inurba_marseille","lat":43.29058,"lon":5.39962,"is_reserved":false,"is_disabled":false,"rental_uris":{"android":"levelo://app?vid=033aae3f-f422-4618-8d9b-13dbb080f3d2","ios":"levelo://app?vid=033aae3f-f422-4618-8d9b-13dbb080f3d2"},"vehicle_type_id":"4","last_reported":1736652030,"current_range_meters":38800,"station_id":"ce4bh392rcd13ifvqdm0","pricing_plan_id":"cebpf4jnsgd1na2vs0mg"},{"bike_id":"eb135d1a-caa3-4267-9897-276a74f6bc88","system_id":"levelo_inurba_marseille","lat":43.25873,"lon":5.39918,"is_reserved":false,"is_disabled":false,"rental_uris":{"android":"levelo://app?vid=eb135d1a-caa3-4267-9897-276a74f6bc88","ios":"levelo://app?vid=eb135d1a-caa3-4267-9897-276a74f6bc88"},"vehicle_type_id":"4","last_reported":1736652030,"current_range_meters":33600,"station_id":"ce4bhl92rcd13ifvqghg","pricing_plan_id":"cebpf4jnsgd1na2vs0mg"},{"bike_id":"2428042f-2c7c-4044-87d7-377071b0ca76","system_id":"levelo_inurba_marseille","lat":43.2855,"lon":5.39492,"is_reserved":false,"is_disabled":false,"rental_uris":{"android":"levelo://app?vid=2428042f-2c7c-4044-87d7-377071b0ca76","ios":"levelo://app?vid=2428042f-2c7c-4044-87d7-377071b0ca76"},"vehicle_type_id":"4","last_reported":1736652030,"current_range_meters":38400,"station_id":"ce4bh292rcd13ifvqdg0","pricing_plan_id":"cebpf4jnsgd1na2vs0mg"},{"bike_id":"19213f91-67d3-45ba-81c7-434952eb84aa","system_id":"levelo_inurba_marseille","lat":43.2856,"lon":5.39503,"is_reserved":false,"is_disabled":false,"rental_uris":{"android":"levelo://app?vid=19213f91-67d3-45ba-81c7-434952eb84aa","ios":"levelo://app?vid=19213f91-67d3-45ba-81c7-434952eb84aa"},"vehicle_type_id":"4","last_reported":1736652030,"current_range_meters":38000,"station_id":"ce4bh292rcd13ifvqdg0","pricing_plan_id":"cebpf4jnsgd1na2vs0mg"},{"bike_id":"066fc890-cce1-4b7e-a941-320c51e991c9","system_id":"levelo_inurba_marseille","lat":43.23964,"lon":5.36619,"is_reserved":false,"is_disabled":false,"rental_uris":{"android":"levelo://app?vid=066fc890-cce1-4b7e-a941-320c51e991c9","ios":"levelo://app?vid=066fc890-cce1-4b7e-a941-320c51e991c9"},"vehicle_type_id":"4","last_reported":1736652030,"current_range_meters":19200,"station_id":"ce4bhi12rcd13ifvqfp0","pricing_plan_id":"cebpf4jnsgd1na2vs0mg"},{"bike_id":"75911712-e1fe-4582-8d3c-3a9f41d95fcc","system_id":"levelo_inurba_marseille","lat":43.27363,"lon":5.36256,"is_reserved":false,"is_disabled":false,"rental_uris":{"android":"levelo://app?vid=75911712-e1fe-4582-8d3c-3a9f41d95fcc","ios":"levelo://app?vid=75911712-e1fe-4582-8d3c-3a9f41d95fcc"},"vehicle_type_id":"4","last_reported":1736652030,"current_range_meters":12800,"station_id":"ce4bhbh2rcd13ifvqeo0","pricing_plan_id":"cebpf4jnsgd1na2vs0mg"},{"bike_id":"4100518d-ec21-4c20-9cbc-a715dd414659","system_id":"levelo_inurba_marseille","lat":43.27795,"lon":5.39219,"is_reserved":false,"is_disabled":false,"rental_uris":{"android":"levelo://app?vid=4100518d-ec21-4c20-9cbc-a715dd414659","ios":"levelo://app?vid=4100518d-ec21-4c20-9cbc-a715dd414659"},"vehicle_type_id":"4","last_reported":1736652030,"current_range_meters":39200,"station_id":"ce4bhjp2rcd13ifvqga0","pricing_plan_id":"cebpf4jnsgd1na2vs0mg"},{"bike_id":"b672ae72-4e34-41bd-9549-4b8bd64fa036","system_id":"levelo_inurba_marseille","lat":43.28694,"lon":5.37393,"is_reserved":false,"is_disabled":false,"rental_uris":{"android":"levelo://app?vid=b672ae72-4e34-41bd-9549-4b8bd64fa036","ios":"levelo://app?vid=b672ae72-4e34-41bd-9549-4b8bd64fa036"},"vehicle_type_id":"4","last_reported":1736652030,"current_range_meters":36400,"station_id":"ce4bh3p2rcd13ifvqdq0","pricing_plan_id":"cebpf4jnsgd1na2vs0mg"},{"bike_id":"c4a9f4d8-3097-4c73-b16c-f476d0136944","system_id":"levelo_inurba_marseille","lat":43.250002,"lon":5.38937,"is_reserved":false,"is_disabled":false,"rental_uris":{"android":"levelo://app?vid=c4a9f4d8-3097-4c73-b16c-f476d0136944","ios":"levelo://app?vid=c4a9f4d8-3097-4c73-b16c-f476d0136944"},"vehicle_type_id":"4","last_reported":1736652030,"current_range_meters":19600,"station_id":"ce4bhgp2rcd13ifvqfd0","pricing_plan_id":"cebpf4jnsgd1na2vs0mg"},{"bike_id":"9980ce34-22a9-47b3-a5b9-bf2bd1b3c636","system_id":"levelo_inurba_marseille","lat":43.29247,"lon":5.40904,"is_reserved":false,"is_disabled":false,"rental_uris":{"android":"levelo://app?vid=9980ce34-22a9-47b3-a5b9-bf2bd1b3c636","ios":"levelo://app?vid=9980ce34-22a9-47b3-a5b9-bf2bd1b3c636"},"vehicle_type_id":"4","last_reported":1736652030,"current_range_meters":36400,"station_id":"ce4bh192rcd13ifvqdc0","pricing_plan_id":"cebpf4jnsgd1na2vs0mg"},{"bike_id":"54a3f591-d039-4614-bfe0-35b7e0054969","system_id":"levelo_inurba_marseille","lat":43.24682,"lon":5.381473,"is_reserved":false,"is_disabled":false,"rental_uris":{"android":"levelo://app?vid=54a3f591-d039-4614-bfe0-35b7e0054969","ios":"levelo://app?vid=54a3f591-d039-4614-bfe0-35b7e0054969"},"vehicle_type_id":"4","last_reported":1736652030,"current_range_meters":38800,"station_id":"ce4bhih2rcd13ifvqfr0","pricing_plan_id":"cebpf4jnsgd1na2vs0mg"},{"bike_id":"a93f552d-b365-4ed0-9344-b6eeb5fc5fbc","system_id":"levelo_inurba_marseille","lat":43.24398,"lon":5.37054,"is_reserved":false,"is_disabled":false,"rental_uris":{"android":"levelo://app?vid=a93f552d-b365-4ed0-9344-b6eeb5fc5fbc","ios":"levelo://app?vid=a93f552d-b365-4ed0-9344-b6eeb5fc5fbc"},"vehicle_type_id":"4","last_reported":1736652030,"current_range_meters":20000,"station_id":"ce4bhhh2rcd13ifvqfk0","pricing_plan_id":"cebpf4jnsgd1na2vs0mg"},{"bike_id":"705aaf97-205d-4a6b-bf7f-80d89ff319e4","system_id":"levelo_inurba_marseille","lat":43.24665,"lon":5.38143,"is_reserved":false,"is_disabled":false,"rental_uris":{"android":"levelo://app?vid=705aaf97-205d-4a6b-bf7f-80d89ff319e4","ios":"levelo://app?vid=705aaf97-205d-4a6b-bf7f-80d89ff319e4"},"vehicle_type_id":"4","last_reported":1736652030,"current_range_meters":27200,"station_id":"ce4bhih2rcd13ifvqfr0","pricing_plan_id":"cebpf4jnsgd1na2vs0mg"},{"bike_id":"dc388f0e-5ba4-4401-b2b7-3e59da087469","system_id":"levelo_inurba_marseille","lat":43.28621,"lon":5.35106,"is_reserved":false,"is_disabled":false,"rental_uris":{"android":"levelo://app?vid=dc388f0e-5ba4-4401-b2b7-3e59da087469","ios":"levelo://app?vid=dc388f0e-5ba4-4401-b2b7-3e59da087469"},"vehicle_type_id":"4","last_reported":1736652030,"current_range_meters":19600,"station_id":"ce4bhch2rcd13ifvqeug","pricing_plan_id":"cebpf4jnsgd1na2vs0mg"},{"bike_id":"b15cbc2f-10c2-42f9-b186-f042f0ab72f5","system_id":"levelo_inurba_marseille","lat":43.27423,"lon":5.39415,"is_reserved":false,"is_disabled":false,"rental_uris":{"android":"levelo://app?vid=b15cbc2f-10c2-42f9-b186-f042f0ab72f5","ios":"levelo://app?vid=b15cbc2f-10c2-42f9-b186-f042f0ab72f5"},"vehicle_type_id":"4","last_reported":1736652030,"current_range_meters":32800,"station_id":"ce4bhdp2rcd13ifvqf20","pricing_plan_id":"cebpf4jnsgd1na2vs0mg"},{"bike_id":"8c00cf29-540b-4d5d-a97c-7e1b2682eb3a","system_id":"levelo_inurba_marseille","lat":43.24664,"lon":5.3817,"is_reserved":false,"is_disabled":false,"rental_uris":{"android":"levelo://app?vid=8c00cf29-540b-4d5d-a97c-7e1b2682eb3a","ios":"levelo://app?vid=8c00cf29-540b-4d5d-a97c-7e1b2682eb3a"},"vehicle_type_id":"4","last_reported":1736652030,"current_range_meters":6000,"station_id":"ce4bhih2rcd13ifvqfr0","pricing_plan_id":"cebpf4jnsgd1na2vs0mg"},{"bike_id":"eabf8fa3-7034-47ca-ac29-c6c3f424c9ec","system_id":"levelo_inurba_marseille","lat":43.32358,"lon":5.40602,"is_reserved":false,"is_disabled":false,"rental_uris":{"android":"levelo://app?vid=eabf8fa3-7034-47ca-ac29-c6c3f424c9ec","ios":"levelo://app?vid=eabf8fa3-7034-47ca-ac29-c6c3f424c9ec"},"vehicle_type_id":"4","last_reported":1736652030,"current_range_meters":38800,"station_id":"ce4bhq92rcd13ifvqhjg","pricing_plan_id":"cebpf4jnsgd1na2vs0mg"},{"bike_id":"c84c60ce-c7f6-42eb-bb3c-f11a697bd396","system_id":"levelo_inurba_marseille","lat":43.29963,"lon":5.38536,"is_reserved":false,"is_disabled":true,"rental_uris":{"android":"levelo://app?vid=c84c60ce-c7f6-42eb-bb3c-f11a697bd396","ios":"levelo://app?vid=c84c60ce-c7f6-42eb-bb3c-f11a697bd396"},"vehicle_type_id":"4","last_reported":1736652030,"current_range_meters":7200,"station_id":"ce4bgj92rcd13ifvqbd0","pricing_plan_id":"cebpf4jnsgd1na2vs0mg"},{"bike_id":"420cc4f0-5dae-4076-8aa5-3954771a9298","system_id":"levelo_inurba_marseille","lat":43.30778,"lon":5.37613,"is_reserved":false,"is_disabled":false,"rental_uris":{"android":"levelo://app?vid=420cc4f0-5dae-4076-8aa5-3954771a9298","ios":"levelo://app?vid=420cc4f0-5dae-4076-8aa5-3954771a9298"},"vehicle_type_id":"4","last_reported":1736652030,"current_range_meters":35200,"station_id":"ce4bgv92rcd13ifvqcq0","pricing_plan_id":"cebpf4jnsgd1na2vs0mg"},{"bike_id":"5b037463-e776-4f8a-b002-41b2aa90a2b6","system_id":"levelo_inurba_marseille","lat":43.23054,"lon":5.35502,"is_reserved":false,"is_disabled":false,"rental_uris":{"android":"levelo://app?vid=5b037463-e776-4f8a-b002-41b2aa90a2b6","ios":"levelo://app?vid=5b037463-e776-4f8a-b002-41b2aa90a2b6"},"vehicle_type_id":"4","last_reported":1736652030,"current_range_meters":38800,"station_id":"cpo3342slgdg3j2ifvpg","pricing_plan_id":"cebpf4jnsgd1na2vs0mg"},{"bike_id":"b54edf79-c64f-4f8b-9d05-746d947c6f62","system_id":"levelo_inurba_marseille","lat":43.31172,"lon":5.38709,"is_reserved":false,"is_disabled":false,"rental_uris":{"android":"levelo://app?vid=b54edf79-c64f-4f8b-9d05-746d947c6f62","ios":"levelo://app?vid=b54edf79-c64f-4f8b-9d05-746d947c6f62"},"vehicle_type_id":"4","last_reported":1736652030,"current_range_meters":37600,"station_id":"ce4bgv12rcd13ifvqcp0","pricing_plan_id":"cebpf4jnsgd1na2vs0mg"},{"bike_id":"125e826f-483b-47dc-9a84-f3a82cf45a8e","system_id":"levelo_inurba_marseille","lat":43.3012,"lon":5.37833,"is_reserved":false,"is_disabled":false,"rental_uris":{"android":"levelo://app?vid=125e826f-483b-47dc-9a84-f3a82cf45a8e","ios":"levelo://app?vid=125e826f-483b-47dc-9a84-f3a82cf45a8e"},"vehicle_type_id":"4","last_reported":1736652030,"current_range_meters":8400,"station_id":"","pricing_plan_id":"cebpf4jnsgd1na2vs0mg"},{"bike_id":"58ba27ab-c124-4665-ba9c-8ac9098850f3","system_id":"levelo_inurba_marseille","lat":43.265526,"lon":5.373068,"is_reserved":false,"is_disabled":false,"rental_uris":{"android":"levelo://app?vid=58ba27ab-c124-4665-ba9c-8ac9098850f3","ios":"levelo://app?vid=58ba27ab-c124-4665-ba9c-8ac9098850f3"},"vehicle_type_id":"4","last_reported":1736652030,"current_range_meters":38800,"station_id":"ce4bhg12rcd13ifvqf70","pricing_plan_id":"cebpf4jnsgd1na2vs0mg"},{"bike_id":"2c1599c9-7584-4bf2-91fe-b662752a8eaf","system_id":"levelo_inurba_marseille","lat":43.28048,"lon":5.38725,"is_reserved":false,"is_disabled":false,"rental_uris":{"android":"levelo://app?vid=2c1599c9-7584-4bf2-91fe-b662752a8eaf","ios":"levelo://app?vid=2c1599c9-7584-4bf2-91fe-b662752a8eaf"},"vehicle_type_id":"4","last_reported":1736652030,"current_range_meters":32400,"station_id":"ce4bhh12rcd13ifvqfg0","pricing_plan_id":"cebpf4jnsgd1na2vs0mg"},{"bike_id":"c1c51f67-6348-4482-a3d4-31704cefaf37","system_id":"levelo_inurba_marseille","lat":43.28613,"lon":5.35101,"is_reserved":false,"is_disabled":false,"rental_uris":{"android":"levelo://app?vid=c1c51f67-6348-4482-a3d4-31704cefaf37","ios":"levelo://app?vid=c1c51f67-6348-4482-a3d4-31704cefaf37"},"vehicle_type_id":"4","last_reported":1736652030,"current_range_meters":38400,"station_id":"ce4bhch2rcd13ifvqeug","pricing_plan_id":"cebpf4jnsgd1na2vs0mg"},{"bike_id":"4a9587a4-9494-4dc4-942f-938536e77d82","system_id":"levelo_inurba_marseille","lat":43.31771,"lon":5.39001,"is_reserved":false,"is_disabled":false,"rental_uris":{"android":"levelo://app?vid=4a9587a4-9494-4dc4-942f-938536e77d82","ios":"levelo://app?vid=4a9587a4-9494-4dc4-942f-938536e77d82"},"vehicle_type_id":"4","last_reported":1736652030,"current_range_meters":38800,"station_id":"ce4bhqp2rcd13ifvqhng","pricing_plan_id":"cebpf4jnsgd1na2vs0mg"},{"bike_id":"c1c48c9a-040e-4db9-9b0a-6a6d4918484a","system_id":"levelo_inurba_marseille","lat":43.30657,"lon":5.40072,"is_reserved":false,"is_disabled":false,"rental_uris":{"android":"levelo://app?vid=c1c48c9a-040e-4db9-9b0a-6a6d4918484a","ios":"levelo://app?vid=c1c48c9a-040e-4db9-9b0a-6a6d4918484a"},"vehicle_type_id":"4","last_reported":1736652030,"current_range_meters":38800,"station_id":"ce4bh112rcd13ifvqda0","pricing_plan_id":"cebpf4jnsgd1na2vs0mg"},{"bike_id":"cbc13884-0b00-4f96-bee7-a68fdb6fe0b2","system_id":"levelo_inurba_marseille","lat":43.28431,"lon":5.39197,"is_reserved":false,"is_disabled":false,"rental_uris":{"android":"levelo://app?vid=cbc13884-0b00-4f96-bee7-a68fdb6fe0b2","ios":"levelo://app?vid=cbc13884-0b00-4f96-bee7-a68fdb6fe0b2"},"vehicle_type_id":"4","last_reported":1736652030,"current_range_meters":39200,"station_id":"ce4bhoh2rcd13ifvqh5g","pricing_plan_id":"cebpf4jnsgd1na2vs0mg"},{"bike_id":"1a93e2db-cfef-44c3-88cb-cf63f25e1865","system_id":"levelo_inurba_marseille","lat":43.24382,"lon":5.3705,"is_reserved":false,"is_disabled":false,"rental_uris":{"android":"levelo://app?vid=1a93e2db-cfef-44c3-88cb-cf63f25e1865","ios":"levelo://app?vid=1a93e2db-cfef-44c3-88cb-cf63f25e1865"},"vehicle_type_id":"4","last_reported":1736652030,"current_range_meters":30800,"station_id":"ce4bhhh2rcd13ifvqfk0","pricing_plan_id":"cebpf4jnsgd1na2vs0mg"},{"bike_id":"3db15e78-0259-4d3a-9775-04349b1aed30","system_id":"levelo_inurba_marseille","lat":43.30567,"lon":5.36499,"is_reserved":false,"is_disabled":true,"rental_uris":{"android":"levelo://app?vid=3db15e78-0259-4d3a-9775-04349b1aed30","ios":"levelo://app?vid=3db15e78-0259-4d3a-9775-04349b1aed30"},"vehicle_type_id":"4","last_reported":1736652030,"current_range_meters":28000,"station_id":"","pricing_plan_id":"cebpf4jnsgd1na2vs0mg"},{"bike_id":"a754abf4-87cb-4915-a97f-0b4d0e8971f5","system_id":"levelo_inurba_marseille","lat":43.28626,"lon":5.35096,"is_reserved":false,"is_disabled":false,"rental_uris":{"android":"levelo://app?vid=a754abf4-87cb-4915-a97f-0b4d0e8971f5","ios":"levelo://app?vid=a754abf4-87cb-4915-a97f-0b4d0e8971f5"},"vehicle_type_id":"4","last_reported":1736652030,"current_range_meters":38400,"station_id":"ce4bhch2rcd13ifvqeug","pricing_plan_id":"cebpf4jnsgd1na2vs0mg"},{"bike_id":"b51b8509-c21e-40ac-802b-edd56e55cdd0","system_id":"levelo_inurba_marseille","lat":43.303654,"lon":5.418858,"is_reserved":false,"is_disabled":true,"rental_uris":{"android":"levelo://app?vid=b51b8509-c21e-40ac-802b-edd56e55cdd0","ios":"levelo://app?vid=b51b8509-c21e-40ac-802b-edd56e55cdd0"},"vehicle_type_id":"4","last_reported":1736652030,"current_range_meters":27600,"station_id":"ce4bhop2rcd13ifvqh7g","pricing_plan_id":"cebpf4jnsgd1na2vs0mg"},{"bike_id":"2fb7c679-ca6a-4056-8c58-e4c1773d5f28","system_id":"levelo_inurba_marseille","lat":43.27189,"lon":5.3915,"is_reserved":false,"is_disabled":false,"rental_uris":{"android":"levelo://app?vid=2fb7c679-ca6a-4056-8c58-e4c1773d5f28","ios":"levelo://app?vid=2fb7c679-ca6a-4056-8c58-e4c1773d5f28"},"vehicle_type_id":"4","last_reported":1736652030,"current_range_meters":37600,"station_id":"ce4bhhp2rcd13ifvqfm0","pricing_plan_id":"cebpf4jnsgd1na2vs0mg"},{"bike_id":"78fc2529-851e-44ea-9e17-e5a76c9197b1","system_id":"levelo_inurba_marseille","lat":43.29723,"lon":5.37693,"is_reserved":false,"is_disabled":true,"rental_uris":{"android":"levelo://app?vid=78fc2529-851e-44ea-9e17-e5a76c9197b1","ios":"levelo://app?vid=78fc2529-851e-44ea-9e17-e5a76c9197b1"},"vehicle_type_id":"4","last_reported":1736652030,"current_range_meters":35600,"station_id":"ce4bgkh2rcd13ifvqbl0","pricing_plan_id":"cebpf4jnsgd1na2vs0mg"},{"bike_id":"6e0b7390-3f03-4896-850a-30b735b3a5fe","system_id":"levelo_inurba_marseille","lat":43.25489,"lon":5.37647,"is_reserved":false,"is_disabled":false,"rental_uris":{"android":"levelo://app?vid=6e0b7390-3f03-4896-850a-30b735b3a5fe","ios":"levelo://app?vid=6e0b7390-3f03-4896-850a-30b735b3a5fe"},"vehicle_type_id":"4","last_reported":1736652030,"current_range_meters":18000,"station_id":"ce4bhh12rcd13ifvqff0","pricing_plan_id":"cebpf4jnsgd1na2vs0mg"},{"bike_id":"5af95480-8c13-4b34-a3f1-e8d8f8a10af5","system_id":"levelo_inurba_marseille","lat":43.26514,"lon":5.39562,"is_reserved":false,"is_disabled":false,"rental_uris":{"android":"levelo://app?vid=5af95480-8c13-4b34-a3f1-e8d8f8a10af5","ios":"levelo://app?vid=5af95480-8c13-4b34-a3f1-e8d8f8a10af5"},"vehicle_type_id":"4","last_reported":1736652030,"current_range_meters":36800,"station_id":"ce4bhi12rcd13ifvqfq0","pricing_plan_id":"cebpf4jnsgd1na2vs0mg"},{"bike_id":"ebc55eb9-194f-4e99-8e23-b42fca6cc43d","system_id":"levelo_inurba_marseille","lat":43.27672,"lon":5.38929,"is_reserved":false,"is_disabled":true,"rental_uris":{"android":"levelo://app?vid=ebc55eb9-194f-4e99-8e23-b42fca6cc43d","ios":"levelo://app?vid=ebc55eb9-194f-4e99-8e23-b42fca6cc43d"},"vehicle_type_id":"4","last_reported":1736652030,"current_range_meters":38000,"station_id":"ce4bhi12rcd13ifvqfo0","pricing_plan_id":"cebpf4jnsgd1na2vs0mg"},{"bike_id":"63cdcf82-248c-4b6b-8d66-12ed7f09703d","system_id":"levelo_inurba_marseille","lat":43.28669,"lon":5.363398,"is_reserved":false,"is_disabled":false,"rental_uris":{"android":"levelo://app?vid=63cdcf82-248c-4b6b-8d66-12ed7f09703d","ios":"levelo://app?vid=63cdcf82-248c-4b6b-8d66-12ed7f09703d"},"vehicle_type_id":"4","last_reported":1736652030,"current_range_meters":38000,"station_id":"ce4bhah2rcd13ifvqej0","pricing_plan_id":"cebpf4jnsgd1na2vs0mg"},{"bike_id":"efa73633-1e63-4f83-8274-8587a262ba25","system_id":"levelo_inurba_marseille","lat":43.23159,"lon":5.40005,"is_reserved":false,"is_disabled":false,"rental_uris":{"android":"levelo://app?vid=efa73633-1e63-4f83-8274-8587a262ba25","ios":"levelo://app?vid=efa73633-1e63-4f83-8274-8587a262ba25"},"vehicle_type_id":"4","last_reported":1736652030,"current_range_meters":37600,"station_id":"ce4bhn12rcd13ifvqgqg","pricing_plan_id":"cebpf4jnsgd1na2vs0mg"},{"bike_id":"ddb26e6d-71f7-42b8-bd32-1ee91f073019","system_id":"levelo_inurba_marseille","lat":43.24629,"lon":5.38913,"is_reserved":false,"is_disabled":false,"rental_uris":{"android":"levelo://app?vid=ddb26e6d-71f7-42b8-bd32-1ee91f073019","ios":"levelo://app?vid=ddb26e6d-71f7-42b8-bd32-1ee91f073019"},"vehicle_type_id":"4","last_reported":1736652030,"current_range_meters":27200,"station_id":"ce4bhg12rcd13ifvqf60","pricing_plan_id":"cebpf4jnsgd1na2vs0mg"},{"bike_id":"d679e8ad-e35b-4604-a475-064f331d9c01","system_id":"levelo_inurba_marseille","lat":43.31527,"lon":5.38033,"is_reserved":false,"is_disabled":true,"rental_uris":{"android":"levelo://app?vid=d679e8ad-e35b-4604-a475-064f331d9c01","ios":"levelo://app?vid=d679e8ad-e35b-4604-a475-064f331d9c01"},"vehicle_type_id":"4","last_reported":1736652030,"current_range_meters":38800,"station_id":"ce4bhsp2rcd13ifvqi50","pricing_plan_id":"cebpf4jnsgd1na2vs0mg"},{"bike_id":"2439ca0b-c29a-4ffd-b270-87cd3d619d06","system_id":"levelo_inurba_marseille","lat":43.29567,"lon":5.39983,"is_reserved":false,"is_disabled":false,"rental_uris":{"android":"levelo://app?vid=2439ca0b-c29a-4ffd-b270-87cd3d619d06","ios":"levelo://app?vid=2439ca0b-c29a-4ffd-b270-87cd3d619d06"},"vehicle_type_id":"4","last_reported":1736652030,"current_range_meters":38000,"station_id":"ce4bh312rcd13ifvqdj0","pricing_plan_id":"cebpf4jnsgd1na2vs0mg"},{"bike_id":"3bca090d-d2ee-47c3-8380-df45e3cd0054","system_id":"levelo_inurba_marseille","lat":43.28453,"lon":5.35883,"is_reserved":false,"is_disabled":false,"rental_uris":{"android":"levelo://app?vid=3bca090d-d2ee-47c3-8380-df45e3cd0054","ios":"levelo://app?vid=3bca090d-d2ee-47c3-8380-df45e3cd0054"},"vehicle_type_id":"4","last_reported":1736652030,"current_range_meters":25600,"station_id":"ce4bhah2rcd13ifvqei0","pricing_plan_id":"cebpf4jnsgd1na2vs0mg"},{"bike_id":"e2f3c546-7bc9-487d-9bf9-874647abcbcd","system_id":"levelo_inurba_marseille","lat":43.27623,"lon":5.36095,"is_reserved":false,"is_disabled":false,"rental_uris":{"android":"levelo://app?vid=e2f3c546-7bc9-487d-9bf9-874647abcbcd","ios":"levelo://app?vid=e2f3c546-7bc9-487d-9bf9-874647abcbcd"},"vehicle_type_id":"4","last_reported":1736652030,"current_range_meters":37600,"station_id":"ce4bgj92rcd13ifvqbe0","pricing_plan_id":"cebpf4jnsgd1na2vs0mg"},{"bike_id":"78354f3b-a774-4732-adc8-ce9b67d561cc","system_id":"levelo_inurba_marseille","lat":43.29932,"lon":5.36546,"is_reserved":false,"is_disabled":false,"rental_uris":{"android":"levelo://app?vid=78354f3b-a774-4732-adc8-ce9b67d561cc","ios":"levelo://app?vid=78354f3b-a774-4732-adc8-ce9b67d561cc"},"vehicle_type_id":"4","last_reported":1736652030,"current_range_meters":22400,"station_id":"ce4bgm92rcd13ifvqbr0","pricing_plan_id":"cebpf4jnsgd1na2vs0mg"},{"bike_id":"9282bdab-17f2-4c9c-9546-826bd9ad8663","system_id":"levelo_inurba_marseille","lat":43.30557,"lon":5.38415,"is_reserved":false,"is_disabled":false,"rental_uris":{"android":"levelo://app?vid=9282bdab-17f2-4c9c-9546-826bd9ad8663","ios":"levelo://app?vid=9282bdab-17f2-4c9c-9546-826bd9ad8663"},"vehicle_type_id":"4","last_reported":1736652030,"current_range_meters":38000,"station_id":"ce4bgg92rcd13ifvqb30","pricing_plan_id":"cebpf4jnsgd1na2vs0mg"},{"bike_id":"d04cd2d1-575e-479a-80df-de9a65c1551d","system_id":"levelo_inurba_marseille","lat":43.27373,"lon":5.36257,"is_reserved":false,"is_disabled":false,"rental_uris":{"android":"levelo://app?vid=d04cd2d1-575e-479a-80df-de9a65c1551d","ios":"levelo://app?vid=d04cd2d1-575e-479a-80df-de9a65c1551d"},"vehicle_type_id":"4","last_reported":1736652030,"current_range_meters":30000,"station_id":"ce4bhbh2rcd13ifvqeo0","pricing_plan_id":"cebpf4jnsgd1na2vs0mg"},{"bike_id":"d9edb216-ee47-40a8-8ccd-82ecd79a1993","system_id":"levelo_inurba_marseille","lat":43.29032,"lon":5.38106,"is_reserved":false,"is_disabled":true,"rental_uris":{"android":"levelo://app?vid=d9edb216-ee47-40a8-8ccd-82ecd79a1993","ios":"levelo://app?vid=d9edb216-ee47-40a8-8ccd-82ecd79a1993"},"vehicle_type_id":"4","last_reported":1736652030,"current_range_meters":38800,"station_id":"ce4bh4p2rcd13ifvqe1g","pricing_plan_id":"cebpf4jnsgd1na2vs0mg"},{"bike_id":"4729126b-0335-4a3c-bc10-3e11d69e82f2","system_id":"levelo_inurba_marseille","lat":43.24069,"lon":5.37749,"is_reserved":false,"is_disabled":false,"rental_uris":{"android":"levelo://app?vid=4729126b-0335-4a3c-bc10-3e11d69e82f2","ios":"levelo://app?vid=4729126b-0335-4a3c-bc10-3e11d69e82f2"},"vehicle_type_id":"4","last_reported":1736652030,"current_range_meters":5600,"station_id":"ce4bhnp2rcd13ifvqgvg","pricing_plan_id":"cebpf4jnsgd1na2vs0mg"},{"bike_id":"7190806d-6efc-4d5f-adc8-8e7c04344e9c","system_id":"levelo_inurba_marseille","lat":43.305449,"lon":5.365325,"is_reserved":false,"is_disabled":true,"rental_uris":{"android":"levelo://app?vid=7190806d-6efc-4d5f-adc8-8e7c04344e9c","ios":"levelo://app?vid=7190806d-6efc-4d5f-adc8-8e7c04344e9c"},"vehicle_type_id":"4","last_reported":1736652030,"current_range_meters":0,"station_id":"ce4bgs12rcd13ifvqcag","pricing_plan_id":"cebpf4jnsgd1na2vs0mg"},{"bike_id":"717c9b7d-e3d6-441e-a2b5-35caee37f8e8","system_id":"levelo_inurba_marseille","lat":43.28616,"lon":5.35117,"is_reserved":false,"is_disabled":false,"rental_uris":{"android":"levelo://app?vid=717c9b7d-e3d6-441e-a2b5-35caee37f8e8","ios":"levelo://app?vid=717c9b7d-e3d6-441e-a2b5-35caee37f8e8"},"vehicle_type_id":"4","last_reported":1736652030,"current_range_meters":38000,"station_id":"ce4bhch2rcd13ifvqeug","pricing_plan_id":"cebpf4jnsgd1na2vs0mg"},{"bike_id":"a66ed9f8-da03-4a0d-a6ac-a956dec5aa10","system_id":"levelo_inurba_marseille","lat":43.276147,"lon":5.361129,"is_reserved":false,"is_disabled":false,"rental_uris":{"android":"levelo://app?vid=a66ed9f8-da03-4a0d-a6ac-a956dec5aa10","ios":"levelo://app?vid=a66ed9f8-da03-4a0d-a6ac-a956dec5aa10"},"vehicle_type_id":"4","last_reported":1736652030,"current_range_meters":38000,"station_id":"ce4bgj92rcd13ifvqbe0","pricing_plan_id":"cebpf4jnsgd1na2vs0mg"},{"bike_id":"1ff4d6af-d168-4206-80a1-8f85ab0c0a00","system_id":"levelo_inurba_marseille","lat":43.2586,"lon":5.39914,"is_reserved":false,"is_disabled":true,"rental_uris":{"android":"levelo://app?vid=1ff4d6af-d168-4206-80a1-8f85ab0c0a00","ios":"levelo://app?vid=1ff4d6af-d168-4206-80a1-8f85ab0c0a00"},"vehicle_type_id":"4","last_reported":1736652030,"current_range_meters":14800,"station_id":"ce4bhl92rcd13ifvqghg","pricing_plan_id":"cebpf4jnsgd1na2vs0mg"},{"bike_id":"a16fd609-1fc6-4798-b9e0-3ea7526c402a","system_id":"levelo_inurba_marseille","lat":43.23562,"lon":5.37929,"is_reserved":false,"is_disabled":false,"rental_uris":{"android":"levelo://app?vid=a16fd609-1fc6-4798-b9e0-3ea7526c402a","ios":"levelo://app?vid=a16fd609-1fc6-4798-b9e0-3ea7526c402a"},"vehicle_type_id":"4","last_reported":1736652030,"current_range_meters":28800,"station_id":"","pricing_plan_id":"cebpf4jnsgd1na2vs0mg"},{"bike_id":"55e10a13-573c-4876-a3f3-1d7244726716","system_id":"levelo_inurba_marseille","lat":43.24806,"lon":5.37444,"is_reserved":false,"is_disabled":false,"rental_uris":{"android":"levelo://app?vid=55e10a13-573c-4876-a3f3-1d7244726716","ios":"levelo://app?vid=55e10a13-573c-4876-a3f3-1d7244726716"},"vehicle_type_id":"4","last_reported":1736652030,"current_range_meters":39200,"station_id":"ce4bhgh2rcd13ifvqfb0","pricing_plan_id":"cebpf4jnsgd1na2vs0mg"},{"bike_id":"86abeea7-c434-4e10-8df8-12c24097eeb0","system_id":"levelo_inurba_marseille","lat":43.30415,"lon":5.39754,"is_reserved":false,"is_disabled":true,"rental_uris":{"android":"levelo://app?vid=86abeea7-c434-4e10-8df8-12c24097eeb0","ios":"levelo://app?vid=86abeea7-c434-4e10-8df8-12c24097eeb0"},"vehicle_type_id":"4","last_reported":1736652030,"current_range_meters":24800,"station_id":"ce4bh092rcd13ifvqd20","pricing_plan_id":"cebpf4jnsgd1na2vs0mg"},{"bike_id":"9e4b700b-0bd2-4742-b6bd-c75a8782c39a","system_id":"levelo_inurba_marseille","lat":43.26939,"lon":5.3893,"is_reserved":false,"is_disabled":false,"rental_uris":{"android":"levelo://app?vid=9e4b700b-0bd2-4742-b6bd-c75a8782c39a","ios":"levelo://app?vid=9e4b700b-0bd2-4742-b6bd-c75a8782c39a"},"vehicle_type_id":"4","last_reported":1736652030,"current_range_meters":17600,"station_id":"ce4bhhh2rcd13ifvqfl0","pricing_plan_id":"cebpf4jnsgd1na2vs0mg"},{"bike_id":"311416b5-73b1-46de-9478-39cfbd47dd40","system_id":"levelo_inurba_marseille","lat":43.28868,"lon":5.3585,"is_reserved":false,"is_disabled":false,"rental_uris":{"android":"levelo://app?vid=311416b5-73b1-46de-9478-39cfbd47dd40","ios":"levelo://app?vid=311416b5-73b1-46de-9478-39cfbd47dd40"},"vehicle_type_id":"4","last_reported":1736652030,"current_range_meters":38800,"station_id":"ce4bhb12rcd13ifvqem0","pricing_plan_id":"cebpf4jnsgd1na2vs0mg"},{"bike_id":"c72bfc00-b8bb-4330-820c-edf0d16ec086","system_id":"levelo_inurba_marseille","lat":43.289205,"lon":5.384026,"is_reserved":false,"is_disabled":false,"rental_uris":{"android":"levelo://app?vid=c72bfc00-b8bb-4330-820c-edf0d16ec086","ios":"levelo://app?vid=c72bfc00-b8bb-4330-820c-edf0d16ec086"},"vehicle_type_id":"4","last_reported":1736652030,"current_range_meters":34800,"station_id":"","pricing_plan_id":"cebpf4jnsgd1na2vs0mg"},{"bike_id":"9c68656d-b2e9-472f-877f-c6e2c4c021f3","system_id":"levelo_inurba_marseille","lat":43.30599,"lon":5.39347,"is_reserved":false,"is_disabled":false,"rental_uris":{"android":"levelo://app?vid=9c68656d-b2e9-472f-877f-c6e2c4c021f3","ios":"levelo://app?vid=9c68656d-b2e9-472f-877f-c6e2c4c021f3"},"vehicle_type_id":"4","last_reported":1736652030,"current_range_meters":32800,"station_id":"ce4bh0p2rcd13ifvqd80","pricing_plan_id":"cebpf4jnsgd1na2vs0mg"},{"bike_id":"28f9f89f-5f12-409f-9f92-539732c98253","system_id":"levelo_inurba_marseille","lat":43.29193,"lon":5.3933,"is_reserved":false,"is_disabled":false,"rental_uris":{"android":"levelo://app?vid=28f9f89f-5f12-409f-9f92-539732c98253","ios":"levelo://app?vid=28f9f89f-5f12-409f-9f92-539732c98253"},"vehicle_type_id":"4","last_reported":1736652030,"current_range_meters":30400,"station_id":"ce4bh192rcd13ifvqdd0","pricing_plan_id":"cebpf4jnsgd1na2vs0mg"},{"bike_id":"e4f2aa47-c487-488e-84a4-e0ec89ae813d","system_id":"levelo_inurba_marseille","lat":43.28356,"lon":5.3811,"is_reserved":false,"is_disabled":false,"rental_uris":{"android":"levelo://app?vid=e4f2aa47-c487-488e-84a4-e0ec89ae813d","ios":"levelo://app?vid=e4f2aa47-c487-488e-84a4-e0ec89ae813d"},"vehicle_type_id":"4","last_reported":1736652030,"current_range_meters":38800,"station_id":"ce4bh412rcd13ifvqdr0","pricing_plan_id":"cebpf4jnsgd1na2vs0mg"},{"bike_id":"c7a817d3-63e5-4652-8814-98e74bb31058","system_id":"levelo_inurba_marseille","lat":43.23957,"lon":5.36634,"is_reserved":false,"is_disabled":false,"rental_uris":{"android":"levelo://app?vid=c7a817d3-63e5-4652-8814-98e74bb31058","ios":"levelo://app?vid=c7a817d3-63e5-4652-8814-98e74bb31058"},"vehicle_type_id":"4","last_reported":1736652030,"current_range_meters":7200,"station_id":"ce4bhi12rcd13ifvqfp0","pricing_plan_id":"cebpf4jnsgd1na2vs0mg"},{"bike_id":"10f7d31a-ef8d-4e8a-acbf-8aa9a8c72143","system_id":"levelo_inurba_marseille","lat":43.24391,"lon":5.37062,"is_reserved":false,"is_disabled":false,"rental_uris":{"android":"levelo://app?vid=10f7d31a-ef8d-4e8a-acbf-8aa9a8c72143","ios":"levelo://app?vid=10f7d31a-ef8d-4e8a-acbf-8aa9a8c72143"},"vehicle_type_id":"4","last_reported":1736652030,"current_range_meters":14800,"station_id":"ce4bhhh2rcd13ifvqfk0","pricing_plan_id":"cebpf4jnsgd1na2vs0mg"},{"bike_id":"1fedc598-f70f-4c41-a2c3-d78b434b4e36","system_id":"levelo_inurba_marseille","lat":43.26217,"lon":5.37439,"is_reserved":false,"is_disabled":false,"rental_uris":{"android":"levelo://app?vid=1fedc598-f70f-4c41-a2c3-d78b434b4e36","ios":"levelo://app?vid=1fedc598-f70f-4c41-a2c3-d78b434b4e36"},"vehicle_type_id":"4","last_reported":1736652030,"current_range_meters":22400,"station_id":"ce4bhgp2rcd13ifvqfc0","pricing_plan_id":"cebpf4jnsgd1na2vs0mg"},{"bike_id":"9cda7140-cd76-4b76-af44-293be04b201c","system_id":"levelo_inurba_marseille","lat":43.28697,"lon":5.37422,"is_reserved":false,"is_disabled":false,"rental_uris":{"android":"levelo://app?vid=9cda7140-cd76-4b76-af44-293be04b201c","ios":"levelo://app?vid=9cda7140-cd76-4b76-af44-293be04b201c"},"vehicle_type_id":"4","last_reported":1736652030,"current_range_meters":38000,"station_id":"ce4bh3p2rcd13ifvqdq0","pricing_plan_id":"cebpf4jnsgd1na2vs0mg"},{"bike_id":"295bd26f-64bb-4f9a-b1ce-9227768f18ec","system_id":"levelo_inurba_marseille","lat":43.291737,"lon":5.371439,"is_reserved":false,"is_disabled":true,"rental_uris":{"android":"levelo://app?vid=295bd26f-64bb-4f9a-b1ce-9227768f18ec","ios":"levelo://app?vid=295bd26f-64bb-4f9a-b1ce-9227768f18ec"},"vehicle_type_id":"4","last_reported":1736652030,"current_range_meters":36000,"station_id":"ce4bha92rcd13ifvqeh0","pricing_plan_id":"cebpf4jnsgd1na2vs0mg"},{"bike_id":"97d0aab4-651a-4e6a-89b9-fd5129205fd8","system_id":"levelo_inurba_marseille","lat":43.30127,"lon":5.3988,"is_reserved":false,"is_disabled":false,"rental_uris":{"android":"levelo://app?vid=97d0aab4-651a-4e6a-89b9-fd5129205fd8","ios":"levelo://app?vid=97d0aab4-651a-4e6a-89b9-fd5129205fd8"},"vehicle_type_id":"4","last_reported":1736652030,"current_range_meters":39200,"station_id":"ce4bh0h2rcd13ifvqd40","pricing_plan_id":"cebpf4jnsgd1na2vs0mg"},{"bike_id":"1bff2bac-4883-4019-adbe-2dc598af8aad","system_id":"levelo_inurba_marseille","lat":43.27435,"lon":5.39401,"is_reserved":false,"is_disabled":true,"rental_uris":{"android":"levelo://app?vid=1bff2bac-4883-4019-adbe-2dc598af8aad","ios":"levelo://app?vid=1bff2bac-4883-4019-adbe-2dc598af8aad"},"vehicle_type_id":"4","last_reported":1736652030,"current_range_meters":27200,"station_id":"ce4bhdp2rcd13ifvqf20","pricing_plan_id":"cebpf4jnsgd1na2vs0mg"},{"bike_id":"ae29e0de-7b5a-45d6-ace3-313c5e88010a","system_id":"levelo_inurba_marseille","lat":43.27982,"lon":5.41655,"is_reserved":false,"is_disabled":true,"rental_uris":{"android":"levelo://app?vid=ae29e0de-7b5a-45d6-ace3-313c5e88010a","ios":"levelo://app?vid=ae29e0de-7b5a-45d6-ace3-313c5e88010a"},"vehicle_type_id":"4","last_reported":1736652030,"current_range_meters":0,"station_id":"ce4bho12rcd13ifvqh1g","pricing_plan_id":"cebpf4jnsgd1na2vs0mg"},{"bike_id":"0bc3f5f5-60c2-41a0-a6ff-a38fba6be8aa","system_id":"levelo_inurba_marseille","lat":43.254858,"lon":5.376481,"is_reserved":false,"is_disabled":true,"rental_uris":{"android":"levelo://app?vid=0bc3f5f5-60c2-41a0-a6ff-a38fba6be8aa","ios":"levelo://app?vid=0bc3f5f5-60c2-41a0-a6ff-a38fba6be8aa"},"vehicle_type_id":"4","last_reported":1736652030,"current_range_meters":32000,"station_id":"ce4bhh12rcd13ifvqff0","pricing_plan_id":"cebpf4jnsgd1na2vs0mg"},{"bike_id":"572f0254-11cf-4ef2-b3f9-66737ed8298a","system_id":"levelo_inurba_marseille","lat":43.28418,"lon":5.34992,"is_reserved":false,"is_disabled":true,"rental_uris":{"android":"levelo://app?vid=572f0254-11cf-4ef2-b3f9-66737ed8298a","ios":"levelo://app?vid=572f0254-11cf-4ef2-b3f9-66737ed8298a"},"vehicle_type_id":"4","last_reported":1736652030,"current_range_meters":0,"station_id":"ce4bhbh2rcd13ifvqepg","pricing_plan_id":"cebpf4jnsgd1na2vs0mg"},{"bike_id":"b183a068-09e1-48ff-8d83-b4b474340371","system_id":"levelo_inurba_marseille","lat":43.23959,"lon":5.36631,"is_reserved":false,"is_disabled":false,"rental_uris":{"android":"levelo://app?vid=b183a068-09e1-48ff-8d83-b4b474340371","ios":"levelo://app?vid=b183a068-09e1-48ff-8d83-b4b474340371"},"vehicle_type_id":"4","last_reported":1736652030,"current_range_meters":19600,"station_id":"ce4bhi12rcd13ifvqfp0","pricing_plan_id":"cebpf4jnsgd1na2vs0mg"},{"bike_id":"84854fa7-0530-4ca8-ab31-644dc6f4a330","system_id":"levelo_inurba_marseille","lat":43.27976,"lon":5.38738,"is_reserved":false,"is_disabled":false,"rental_uris":{"android":"levelo://app?vid=84854fa7-0530-4ca8-ab31-644dc6f4a330","ios":"levelo://app?vid=84854fa7-0530-4ca8-ab31-644dc6f4a330"},"vehicle_type_id":"4","last_reported":1736652030,"current_range_meters":38800,"station_id":"ce4bhg12rcd13ifvqf80","pricing_plan_id":"cebpf4jnsgd1na2vs0mg"},{"bike_id":"6845255b-3748-47a8-80ff-32e6d62dd708","system_id":"levelo_inurba_marseille","lat":43.23183,"lon":5.39978,"is_reserved":false,"is_disabled":false,"rental_uris":{"android":"levelo://app?vid=6845255b-3748-47a8-80ff-32e6d62dd708","ios":"levelo://app?vid=6845255b-3748-47a8-80ff-32e6d62dd708"},"vehicle_type_id":"4","last_reported":1736652030,"current_range_meters":38800,"station_id":"ce4bhn12rcd13ifvqgqg","pricing_plan_id":"cebpf4jnsgd1na2vs0mg"},{"bike_id":"136c61aa-a244-4f82-9113-620a348666ce","system_id":"levelo_inurba_marseille","lat":43.27548,"lon":5.38433,"is_reserved":false,"is_disabled":true,"rental_uris":{"android":"levelo://app?vid=136c61aa-a244-4f82-9113-620a348666ce","ios":"levelo://app?vid=136c61aa-a244-4f82-9113-620a348666ce"},"vehicle_type_id":"4","last_reported":1736652030,"current_range_meters":30400,"station_id":"ce4bhh92rcd13ifvqfi0","pricing_plan_id":"cebpf4jnsgd1na2vs0mg"},{"bike_id":"ef988ec5-19bd-46c7-8cc2-ce417331a833","system_id":"levelo_inurba_marseille","lat":43.3108,"lon":5.42436,"is_reserved":false,"is_disabled":false,"rental_uris":{"android":"levelo://app?vid=ef988ec5-19bd-46c7-8cc2-ce417331a833","ios":"levelo://app?vid=ef988ec5-19bd-46c7-8cc2-ce417331a833"},"vehicle_type_id":"4","last_reported":1736652030,"current_range_meters":38800,"station_id":"ce4bhp92rcd13ifvqhag","pricing_plan_id":"cebpf4jnsgd1na2vs0mg"},{"bike_id":"42ecc464-da44-487e-b0da-d25d9d2043d6","system_id":"levelo_inurba_marseille","lat":43.257261,"lon":5.41098,"is_reserved":false,"is_disabled":false,"rental_uris":{"android":"levelo://app?vid=42ecc464-da44-487e-b0da-d25d9d2043d6","ios":"levelo://app?vid=42ecc464-da44-487e-b0da-d25d9d2043d6"},"vehicle_type_id":"4","last_reported":1736652030,"current_range_meters":38800,"station_id":"ce4bhkp2rcd13ifvqgd0","pricing_plan_id":"cebpf4jnsgd1na2vs0mg"},{"bike_id":"88b12e91-6dd1-40a2-a474-d190ad538fe1","system_id":"levelo_inurba_marseille","lat":43.31134,"lon":5.37754,"is_reserved":false,"is_disabled":false,"rental_uris":{"android":"levelo://app?vid=88b12e91-6dd1-40a2-a474-d190ad538fe1","ios":"levelo://app?vid=88b12e91-6dd1-40a2-a474-d190ad538fe1"},"vehicle_type_id":"4","last_reported":1736652030,"current_range_meters":39200,"station_id":"ce4bgt92rcd13ifvqcg0","pricing_plan_id":"cebpf4jnsgd1na2vs0mg"},{"bike_id":"b7e8dd08-60c6-4ec8-95ea-61794c9f9e48","system_id":"levelo_inurba_marseille","lat":43.25581,"lon":5.37606,"is_reserved":false,"is_disabled":false,"rental_uris":{"android":"levelo://app?vid=b7e8dd08-60c6-4ec8-95ea-61794c9f9e48","ios":"levelo://app?vid=b7e8dd08-60c6-4ec8-95ea-61794c9f9e48"},"vehicle_type_id":"4","last_reported":1736652030,"current_range_meters":38000,"station_id":"ce4bhh12rcd13ifvqff0","pricing_plan_id":"cebpf4jnsgd1na2vs0mg"},{"bike_id":"65e8b99d-cb00-44f8-a57f-7740743f51e0","system_id":"levelo_inurba_marseille","lat":43.25017,"lon":5.38917,"is_reserved":false,"is_disabled":true,"rental_uris":{"android":"levelo://app?vid=65e8b99d-cb00-44f8-a57f-7740743f51e0","ios":"levelo://app?vid=65e8b99d-cb00-44f8-a57f-7740743f51e0"},"vehicle_type_id":"4","last_reported":1736652030,"current_range_meters":29600,"station_id":"ce4bhgp2rcd13ifvqfd0","pricing_plan_id":"cebpf4jnsgd1na2vs0mg"},{"bike_id":"e7bed24c-76b8-4bfe-8ea5-51efa81df6c2","system_id":"levelo_inurba_marseille","lat":43.27499,"lon":5.42462,"is_reserved":false,"is_disabled":true,"rental_uris":{"android":"levelo://app?vid=e7bed24c-76b8-4bfe-8ea5-51efa81df6c2","ios":"levelo://app?vid=e7bed24c-76b8-4bfe-8ea5-51efa81df6c2"},"vehicle_type_id":"4","last_reported":1736652030,"current_range_meters":0,"station_id":"ce4bhn92rcd13ifvqgrg","pricing_plan_id":"cebpf4jnsgd1na2vs0mg"},{"bike_id":"0ebbf7b5-fec9-4a84-b5c9-ee92041a0819","system_id":"levelo_inurba_marseille","lat":43.29182,"lon":5.39341,"is_reserved":false,"is_disabled":false,"rental_uris":{"android":"levelo://app?vid=0ebbf7b5-fec9-4a84-b5c9-ee92041a0819","ios":"levelo://app?vid=0ebbf7b5-fec9-4a84-b5c9-ee92041a0819"},"vehicle_type_id":"4","last_reported":1736652030,"current_range_meters":38800,"station_id":"ce4bh192rcd13ifvqdd0","pricing_plan_id":"cebpf4jnsgd1na2vs0mg"},{"bike_id":"1f9c2bc2-af69-415b-93c8-180a83e425f4","system_id":"levelo_inurba_marseille","lat":43.29433,"lon":5.39808,"is_reserved":false,"is_disabled":false,"rental_uris":{"android":"levelo://app?vid=1f9c2bc2-af69-415b-93c8-180a83e425f4","ios":"levelo://app?vid=1f9c2bc2-af69-415b-93c8-180a83e425f4"},"vehicle_type_id":"4","last_reported":1736652030,"current_range_meters":16400,"station_id":"ce4bh3h2rcd13ifvqdo0","pricing_plan_id":"cebpf4jnsgd1na2vs0mg"},{"bike_id":"db40b82d-e59d-411f-8102-0c88a2a368c3","system_id":"levelo_inurba_marseille","lat":43.28268,"lon":5.35081,"is_reserved":false,"is_disabled":false,"rental_uris":{"android":"levelo://app?vid=db40b82d-e59d-411f-8102-0c88a2a368c3","ios":"levelo://app?vid=db40b82d-e59d-411f-8102-0c88a2a368c3"},"vehicle_type_id":"4","last_reported":1736652030,"current_range_meters":35600,"station_id":"ce4bhbp2rcd13ifvqerg","pricing_plan_id":"cebpf4jnsgd1na2vs0mg"},{"bike_id":"cc464ccb-457a-4c65-bb12-9e9cbd11ca96","system_id":"levelo_inurba_marseille","lat":43.2499,"lon":5.38945,"is_reserved":false,"is_disabled":false,"rental_uris":{"android":"levelo://app?vid=cc464ccb-457a-4c65-bb12-9e9cbd11ca96","ios":"levelo://app?vid=cc464ccb-457a-4c65-bb12-9e9cbd11ca96"},"vehicle_type_id":"4","last_reported":1736652030,"current_range_meters":35200,"station_id":"ce4bhgp2rcd13ifvqfd0","pricing_plan_id":"cebpf4jnsgd1na2vs0mg"},{"bike_id":"0e61ec43-c876-45d3-a431-7ad6cb87fc6c","system_id":"levelo_inurba_marseille","lat":43.257222,"lon":5.411114,"is_reserved":false,"is_disabled":false,"rental_uris":{"android":"levelo://app?vid=0e61ec43-c876-45d3-a431-7ad6cb87fc6c","ios":"levelo://app?vid=0e61ec43-c876-45d3-a431-7ad6cb87fc6c"},"vehicle_type_id":"4","last_reported":1736652030,"current_range_meters":38800,"station_id":"ce4bhkp2rcd13ifvqgd0","pricing_plan_id":"cebpf4jnsgd1na2vs0mg"},{"bike_id":"b704bf42-2bc7-4506-b669-8ca7a3330fef","system_id":"levelo_inurba_marseille","lat":43.28143,"lon":5.4265,"is_reserved":false,"is_disabled":true,"rental_uris":{"android":"levelo://app?vid=b704bf42-2bc7-4506-b669-8ca7a3330fef","ios":"levelo://app?vid=b704bf42-2bc7-4506-b669-8ca7a3330fef"},"vehicle_type_id":"4","last_reported":1736652030,"current_range_meters":29600,"station_id":"ce4bhnh2rcd13ifvqgug","pricing_plan_id":"cebpf4jnsgd1na2vs0mg"},{"bike_id":"cfb1a237-01a2-45b9-8b75-8a36d55c4428","system_id":"levelo_inurba_marseille","lat":43.29853,"lon":5.36289,"is_reserved":false,"is_disabled":false,"rental_uris":{"android":"levelo://app?vid=cfb1a237-01a2-45b9-8b75-8a36d55c4428","ios":"levelo://app?vid=cfb1a237-01a2-45b9-8b75-8a36d55c4428"},"vehicle_type_id":"4","last_reported":1736652030,"current_range_meters":32400,"station_id":"ce4bgpp2rcd13ifvqc3g","pricing_plan_id":"cebpf4jnsgd1na2vs0mg"},{"bike_id":"52cb6240-5285-4796-91cf-940d48fc7b61","system_id":"levelo_inurba_marseille","lat":43.24547,"lon":5.39536,"is_reserved":false,"is_disabled":false,"rental_uris":{"android":"levelo://app?vid=52cb6240-5285-4796-91cf-940d48fc7b61","ios":"levelo://app?vid=52cb6240-5285-4796-91cf-940d48fc7b61"},"vehicle_type_id":"4","last_reported":1736652030,"current_range_meters":28000,"station_id":"ce4bhlp2rcd13ifvqgjg","pricing_plan_id":"cebpf4jnsgd1na2vs0mg"},{"bike_id":"d1c8ef8e-59d9-4023-b21f-1e6f44d5ee36","system_id":"levelo_inurba_marseille","lat":43.286142,"lon":5.351011,"is_reserved":false,"is_disabled":false,"rental_uris":{"android":"levelo://app?vid=d1c8ef8e-59d9-4023-b21f-1e6f44d5ee36","ios":"levelo://app?vid=d1c8ef8e-59d9-4023-b21f-1e6f44d5ee36"},"vehicle_type_id":"4","last_reported":1736652030,"current_range_meters":29600,"station_id":"ce4bhch2rcd13ifvqeug","pricing_plan_id":"cebpf4jnsgd1na2vs0mg"},{"bike_id":"7ea05d8b-1bc3-43a4-a54e-1574f81a46ab","system_id":"levelo_inurba_marseille","lat":43.323329,"lon":5.406114,"is_reserved":false,"is_disabled":false,"rental_uris":{"android":"levelo://app?vid=7ea05d8b-1bc3-43a4-a54e-1574f81a46ab","ios":"levelo://app?vid=7ea05d8b-1bc3-43a4-a54e-1574f81a46ab"},"vehicle_type_id":"4","last_reported":1736652030,"current_range_meters":24400,"station_id":"ce4bhq92rcd13ifvqhjg","pricing_plan_id":"cebpf4jnsgd1na2vs0mg"},{"bike_id":"99992ce0-e13f-4dee-95af-06d78d23df51","system_id":"levelo_inurba_marseille","lat":43.259317,"lon":5.409052,"is_reserved":false,"is_disabled":false,"rental_uris":{"android":"levelo://app?vid=99992ce0-e13f-4dee-95af-06d78d23df51","ios":"levelo://app?vid=99992ce0-e13f-4dee-95af-06d78d23df51"},"vehicle_type_id":"4","last_reported":1736652030,"current_range_meters":20400,"station_id":"ce4bhm92rcd13ifvqglg","pricing_plan_id":"cebpf4jnsgd1na2vs0mg"},{"bike_id":"f62a7ed4-7c80-4ed8-9568-a4dea62069d1","system_id":"levelo_inurba_marseille","lat":43.280941,"lon":5.39654,"is_reserved":false,"is_disabled":true,"rental_uris":{"android":"levelo://app?vid=f62a7ed4-7c80-4ed8-9568-a4dea62069d1","ios":"levelo://app?vid=f62a7ed4-7c80-4ed8-9568-a4dea62069d1"},"vehicle_type_id":"4","last_reported":1736652030,"current_range_meters":35200,"station_id":"ce4bho12rcd13ifvqh2g","pricing_plan_id":"cebpf4jnsgd1na2vs0mg"},{"bike_id":"e2744ec8-2f1a-4025-9ec0-6a07f5db3fc4","system_id":"levelo_inurba_marseille","lat":43.25511,"lon":5.37682,"is_reserved":false,"is_disabled":false,"rental_uris":{"android":"levelo://app?vid=e2744ec8-2f1a-4025-9ec0-6a07f5db3fc4","ios":"levelo://app?vid=e2744ec8-2f1a-4025-9ec0-6a07f5db3fc4"},"vehicle_type_id":"4","last_reported":1736652030,"current_range_meters":38800,"station_id":"ce4bhh12rcd13ifvqff0","pricing_plan_id":"cebpf4jnsgd1na2vs0mg"},{"bike_id":"486385ae-09ad-4011-8a40-9152b5cca0c1","system_id":"levelo_inurba_marseille","lat":43.28693,"lon":5.37397,"is_reserved":false,"is_disabled":false,"rental_uris":{"android":"levelo://app?vid=486385ae-09ad-4011-8a40-9152b5cca0c1","ios":"levelo://app?vid=486385ae-09ad-4011-8a40-9152b5cca0c1"},"vehicle_type_id":"4","last_reported":1736652030,"current_range_meters":38000,"station_id":"ce4bh3p2rcd13ifvqdq0","pricing_plan_id":"cebpf4jnsgd1na2vs0mg"},{"bike_id":"423ef74a-cf6a-411d-bcff-8a6016aa69ab","system_id":"levelo_inurba_marseille","lat":43.28678,"lon":5.39999,"is_reserved":false,"is_disabled":false,"rental_uris":{"android":"levelo://app?vid=423ef74a-cf6a-411d-bcff-8a6016aa69ab","ios":"levelo://app?vid=423ef74a-cf6a-411d-bcff-8a6016aa69ab"},"vehicle_type_id":"4","last_reported":1736652030,"current_range_meters":38800,"station_id":"ce4bho92rcd13ifvqh3g","pricing_plan_id":"cebpf4jnsgd1na2vs0mg"},{"bike_id":"550b7d8b-4d20-4606-bb0e-3d2c126a392c","system_id":"levelo_inurba_marseille","lat":43.30092,"lon":5.39079,"is_reserved":false,"is_disabled":false,"rental_uris":{"android":"levelo://app?vid=550b7d8b-4d20-4606-bb0e-3d2c126a392c","ios":"levelo://app?vid=550b7d8b-4d20-4606-bb0e-3d2c126a392c"},"vehicle_type_id":"4","last_reported":1736652030,"current_range_meters":39200,"station_id":"ce4bh192rcd13ifvqdb0","pricing_plan_id":"cebpf4jnsgd1na2vs0mg"},{"bike_id":"543ebf20-736a-455c-a69d-62ec28af6cdd","system_id":"levelo_inurba_marseille","lat":43.28969,"lon":5.36395,"is_reserved":false,"is_disabled":false,"rental_uris":{"android":"levelo://app?vid=543ebf20-736a-455c-a69d-62ec28af6cdd","ios":"levelo://app?vid=543ebf20-736a-455c-a69d-62ec28af6cdd"},"vehicle_type_id":"4","last_reported":1736652030,"current_range_meters":38800,"station_id":"ce4bhc92rcd13ifvqetg","pricing_plan_id":"cebpf4jnsgd1na2vs0mg"},{"bike_id":"c0554c14-b732-413c-8451-54f8ec41ea32","system_id":"levelo_inurba_marseille","lat":43.27172,"lon":5.40997,"is_reserved":false,"is_disabled":false,"rental_uris":{"android":"levelo://app?vid=c0554c14-b732-413c-8451-54f8ec41ea32","ios":"levelo://app?vid=c0554c14-b732-413c-8451-54f8ec41ea32"},"vehicle_type_id":"4","last_reported":1736652030,"current_range_meters":38800,"station_id":"ce4bhl12rcd13ifvqgf0","pricing_plan_id":"cebpf4jnsgd1na2vs0mg"},{"bike_id":"5c381e93-4073-49d5-a465-9aabfddfee01","system_id":"levelo_inurba_marseille","lat":43.24653,"lon":5.3815,"is_reserved":false,"is_disabled":false,"rental_uris":{"android":"levelo://app?vid=5c381e93-4073-49d5-a465-9aabfddfee01","ios":"levelo://app?vid=5c381e93-4073-49d5-a465-9aabfddfee01"},"vehicle_type_id":"4","last_reported":1736652030,"current_range_meters":18000,"station_id":"ce4bhih2rcd13ifvqfr0","pricing_plan_id":"cebpf4jnsgd1na2vs0mg"},{"bike_id":"31240ca4-9f64-4406-9c52-14b4354e548c","system_id":"levelo_inurba_marseille","lat":43.28618,"lon":5.35103,"is_reserved":false,"is_disabled":false,"rental_uris":{"android":"levelo://app?vid=31240ca4-9f64-4406-9c52-14b4354e548c","ios":"levelo://app?vid=31240ca4-9f64-4406-9c52-14b4354e548c"},"vehicle_type_id":"4","last_reported":1736652030,"current_range_meters":38000,"station_id":"ce4bhch2rcd13ifvqeug","pricing_plan_id":"cebpf4jnsgd1na2vs0mg"},{"bike_id":"b1cf0171-e6f8-4824-8fe5-a17e6d6e7517","system_id":"levelo_inurba_marseille","lat":43.31321,"lon":5.39693,"is_reserved":false,"is_disabled":false,"rental_uris":{"android":"levelo://app?vid=b1cf0171-e6f8-4824-8fe5-a17e6d6e7517","ios":"levelo://app?vid=b1cf0171-e6f8-4824-8fe5-a17e6d6e7517"},"vehicle_type_id":"4","last_reported":1736652030,"current_range_meters":22000,"station_id":"ce4bgvp2rcd13ifvqcu0","pricing_plan_id":"cebpf4jnsgd1na2vs0mg"},{"bike_id":"d9b042e2-bbf3-47bf-851f-426caf4d0e01","system_id":"levelo_inurba_marseille","lat":43.24808,"lon":5.3746,"is_reserved":false,"is_disabled":false,"rental_uris":{"android":"levelo://app?vid=d9b042e2-bbf3-47bf-851f-426caf4d0e01","ios":"levelo://app?vid=d9b042e2-bbf3-47bf-851f-426caf4d0e01"},"vehicle_type_id":"4","last_reported":1736652030,"current_range_meters":38800,"station_id":"ce4bhgh2rcd13ifvqfb0","pricing_plan_id":"cebpf4jnsgd1na2vs0mg"},{"bike_id":"ce124b13-208e-4c9a-8beb-e49fc2a49e4a","system_id":"levelo_inurba_marseille","lat":43.30241,"lon":5.36943,"is_reserved":false,"is_disabled":true,"rental_uris":{"android":"levelo://app?vid=ce124b13-208e-4c9a-8beb-e49fc2a49e4a","ios":"levelo://app?vid=ce124b13-208e-4c9a-8beb-e49fc2a49e4a"},"vehicle_type_id":"4","last_reported":1736652030,"current_range_meters":38800,"station_id":"","pricing_plan_id":"cebpf4jnsgd1na2vs0mg"},{"bike_id":"1e2223a2-c032-49e7-8dbf-982df86a0520","system_id":"levelo_inurba_marseille","lat":43.229262,"lon":5.353636,"is_reserved":false,"is_disabled":false,"rental_uris":{"android":"levelo://app?vid=1e2223a2-c032-49e7-8dbf-982df86a0520","ios":"levelo://app?vid=1e2223a2-c032-49e7-8dbf-982df86a0520"},"vehicle_type_id":"4","last_reported":1736652030,"current_range_meters":26000,"station_id":"cpo3532slgdg3j2ikp40","pricing_plan_id":"cebpf4jnsgd1na2vs0mg"},{"bike_id":"b2a49521-11bf-4cd5-b57b-779b50b4b536","system_id":"levelo_inurba_marseille","lat":43.30933,"lon":5.40158,"is_reserved":false,"is_disabled":false,"rental_uris":{"android":"levelo://app?vid=b2a49521-11bf-4cd5-b57b-779b50b4b536","ios":"levelo://app?vid=b2a49521-11bf-4cd5-b57b-779b50b4b536"},"vehicle_type_id":"4","last_reported":1736652030,"current_range_meters":37600,"station_id":"ce4bgvp2rcd13ifvqct0","pricing_plan_id":"cebpf4jnsgd1na2vs0mg"},{"bike_id":"a63426c7-a66f-4969-b012-6febe3d329f9","system_id":"levelo_inurba_marseille","lat":43.28408,"lon":5.375107,"is_reserved":false,"is_disabled":false,"rental_uris":{"android":"levelo://app?vid=a63426c7-a66f-4969-b012-6febe3d329f9","ios":"levelo://app?vid=a63426c7-a66f-4969-b012-6febe3d329f9"},"vehicle_type_id":"4","last_reported":1736652030,"current_range_meters":16000,"station_id":"ce4bh412rcd13ifvqds0","pricing_plan_id":"cebpf4jnsgd1na2vs0mg"},{"bike_id":"5f2cf356-122a-4d24-85ba-e38bc4612223","system_id":"levelo_inurba_marseille","lat":43.255779,"lon":5.382362,"is_reserved":false,"is_disabled":true,"rental_uris":{"android":"levelo://app?vid=5f2cf356-122a-4d24-85ba-e38bc4612223","ios":"levelo://app?vid=5f2cf356-122a-4d24-85ba-e38bc4612223"},"vehicle_type_id":"4","last_reported":1736652030,"current_range_meters":30400,"station_id":"ce4bhih2rcd13ifvqfs0","pricing_plan_id":"cebpf4jnsgd1na2vs0mg"},{"bike_id":"0fa5a85f-7a9d-4dea-b522-cdd0eb609691","system_id":"levelo_inurba_marseille","lat":43.27372,"lon":5.36255,"is_reserved":false,"is_disabled":false,"rental_uris":{"android":"levelo://app?vid=0fa5a85f-7a9d-4dea-b522-cdd0eb609691","ios":"levelo://app?vid=0fa5a85f-7a9d-4dea-b522-cdd0eb609691"},"vehicle_type_id":"4","last_reported":1736652030,"current_range_meters":6800,"station_id":"ce4bhbh2rcd13ifvqeo0","pricing_plan_id":"cebpf4jnsgd1na2vs0mg"},{"bike_id":"ac5ad7d8-ccea-458d-83e0-31976cff9c0d","system_id":"levelo_inurba_marseille","lat":43.25716,"lon":5.41115,"is_reserved":false,"is_disabled":false,"rental_uris":{"android":"levelo://app?vid=ac5ad7d8-ccea-458d-83e0-31976cff9c0d","ios":"levelo://app?vid=ac5ad7d8-ccea-458d-83e0-31976cff9c0d"},"vehicle_type_id":"4","last_reported":1736652030,"current_range_meters":38800,"station_id":"ce4bhkp2rcd13ifvqgd0","pricing_plan_id":"cebpf4jnsgd1na2vs0mg"},{"bike_id":"ff93243d-51a0-4416-8745-9b0d7ce138cb","system_id":"levelo_inurba_marseille","lat":43.28709,"lon":5.36097,"is_reserved":false,"is_disabled":false,"rental_uris":{"android":"levelo://app?vid=ff93243d-51a0-4416-8745-9b0d7ce138cb","ios":"levelo://app?vid=ff93243d-51a0-4416-8745-9b0d7ce138cb"},"vehicle_type_id":"4","last_reported":1736652030,"current_range_meters":38800,"station_id":"cki0cbj6b192h4jlfktg","pricing_plan_id":"cebpf4jnsgd1na2vs0mg"},{"bike_id":"39c3c4a5-d4ec-4fce-95db-3823db8f6b82","system_id":"levelo_inurba_marseille","lat":43.25736,"lon":5.41113,"is_reserved":false,"is_disabled":false,"rental_uris":{"android":"levelo://app?vid=39c3c4a5-d4ec-4fce-95db-3823db8f6b82","ios":"levelo://app?vid=39c3c4a5-d4ec-4fce-95db-3823db8f6b82"},"vehicle_type_id":"4","last_reported":1736652030,"current_range_meters":33200,"station_id":"ce4bhkp2rcd13ifvqgd0","pricing_plan_id":"cebpf4jnsgd1na2vs0mg"},{"bike_id":"eed1aa98-aaa3-4bf9-b90f-e5c0714c3fe6","system_id":"levelo_inurba_marseille","lat":43.279904,"lon":5.416594,"is_reserved":false,"is_disabled":false,"rental_uris":{"android":"levelo://app?vid=eed1aa98-aaa3-4bf9-b90f-e5c0714c3fe6","ios":"levelo://app?vid=eed1aa98-aaa3-4bf9-b90f-e5c0714c3fe6"},"vehicle_type_id":"4","last_reported":1736652030,"current_range_meters":36400,"station_id":"ce4bho12rcd13ifvqh1g","pricing_plan_id":"cebpf4jnsgd1na2vs0mg"},{"bike_id":"6557bc8c-74fd-4fa7-ab08-bf03f041fb06","system_id":"levelo_inurba_marseille","lat":43.31309,"lon":5.38529,"is_reserved":false,"is_disabled":false,"rental_uris":{"android":"levelo://app?vid=6557bc8c-74fd-4fa7-ab08-bf03f041fb06","ios":"levelo://app?vid=6557bc8c-74fd-4fa7-ab08-bf03f041fb06"},"vehicle_type_id":"4","last_reported":1736652030,"current_range_meters":19600,"station_id":"","pricing_plan_id":"cebpf4jnsgd1na2vs0mg"},{"bike_id":"8242826e-ab20-43ea-95c1-e76b426a119e","system_id":"levelo_inurba_marseille","lat":43.33759,"lon":5.37448,"is_reserved":false,"is_disabled":false,"rental_uris":{"android":"levelo://app?vid=8242826e-ab20-43ea-95c1-e76b426a119e","ios":"levelo://app?vid=8242826e-ab20-43ea-95c1-e76b426a119e"},"vehicle_type_id":"4","last_reported":1736652030,"current_range_meters":14000,"station_id":"","pricing_plan_id":"cebpf4jnsgd1na2vs0mg"},{"bike_id":"57f5a8a9-f2e5-4673-966d-ca04b8d8c8e6","system_id":"levelo_inurba_marseille","lat":43.31152,"lon":5.37742,"is_reserved":false,"is_disabled":true,"rental_uris":{"android":"levelo://app?vid=57f5a8a9-f2e5-4673-966d-ca04b8d8c8e6","ios":"levelo://app?vid=57f5a8a9-f2e5-4673-966d-ca04b8d8c8e6"},"vehicle_type_id":"4","last_reported":1736652030,"current_range_meters":4000,"station_id":"ce4bgt92rcd13ifvqcg0","pricing_plan_id":"cebpf4jnsgd1na2vs0mg"},{"bike_id":"70be71ea-57e2-4728-b52f-40370cdcd946","system_id":"levelo_inurba_marseille","lat":43.24804,"lon":5.37458,"is_reserved":false,"is_disabled":false,"rental_uris":{"android":"levelo://app?vid=70be71ea-57e2-4728-b52f-40370cdcd946","ios":"levelo://app?vid=70be71ea-57e2-4728-b52f-40370cdcd946"},"vehicle_type_id":"4","last_reported":1736652030,"current_range_meters":32800,"station_id":"ce4bhgh2rcd13ifvqfb0","pricing_plan_id":"cebpf4jnsgd1na2vs0mg"},{"bike_id":"314fd024-3bf3-476c-9171-845caa5395db","system_id":"levelo_inurba_marseille","lat":43.28661,"lon":5.36353,"is_reserved":false,"is_disabled":false,"rental_uris":{"android":"levelo://app?vid=314fd024-3bf3-476c-9171-845caa5395db","ios":"levelo://app?vid=314fd024-3bf3-476c-9171-845caa5395db"},"vehicle_type_id":"4","last_reported":1736652030,"current_range_meters":34800,"station_id":"ce4bhah2rcd13ifvqej0","pricing_plan_id":"cebpf4jnsgd1na2vs0mg"},{"bike_id":"9343157b-1c2d-4548-bf4c-6991e6c0cdde","system_id":"levelo_inurba_marseille","lat":43.2976,"lon":5.3711,"is_reserved":false,"is_disabled":true,"rental_uris":{"android":"levelo://app?vid=9343157b-1c2d-4548-bf4c-6991e6c0cdde","ios":"levelo://app?vid=9343157b-1c2d-4548-bf4c-6991e6c0cdde"},"vehicle_type_id":"4","last_reported":1736652030,"current_range_meters":28400,"station_id":"ce4bgop2rcd13ifvqc1g","pricing_plan_id":"cebpf4jnsgd1na2vs0mg"},{"bike_id":"7966a29c-09c7-4115-9f20-e57dfa9fe5cc","system_id":"levelo_inurba_marseille","lat":43.27914,"lon":5.3959,"is_reserved":false,"is_disabled":false,"rental_uris":{"android":"levelo://app?vid=7966a29c-09c7-4115-9f20-e57dfa9fe5cc","ios":"levelo://app?vid=7966a29c-09c7-4115-9f20-e57dfa9fe5cc"},"vehicle_type_id":"4","last_reported":1736652030,"current_range_meters":9200,"station_id":"ce4bhf92rcd13ifvqf40","pricing_plan_id":"cebpf4jnsgd1na2vs0mg"},{"bike_id":"f3d63fbe-0b15-4d5a-b8ba-74356810cdf7","system_id":"levelo_inurba_marseille","lat":43.27066,"lon":5.42275,"is_reserved":false,"is_disabled":false,"rental_uris":{"android":"levelo://app?vid=f3d63fbe-0b15-4d5a-b8ba-74356810cdf7","ios":"levelo://app?vid=f3d63fbe-0b15-4d5a-b8ba-74356810cdf7"},"vehicle_type_id":"4","last_reported":1736652030,"current_range_meters":39200,"station_id":"ce4bhk92rcd13ifvqgb0","pricing_plan_id":"cebpf4jnsgd1na2vs0mg"},{"bike_id":"cfc7d4e2-0371-4fb2-9ec5-116a185cb80c","system_id":"levelo_inurba_marseille","lat":43.23193,"lon":5.3998,"is_reserved":false,"is_disabled":false,"rental_uris":{"android":"levelo://app?vid=cfc7d4e2-0371-4fb2-9ec5-116a185cb80c","ios":"levelo://app?vid=cfc7d4e2-0371-4fb2-9ec5-116a185cb80c"},"vehicle_type_id":"4","last_reported":1736652030,"current_range_meters":22000,"station_id":"ce4bhn12rcd13ifvqgqg","pricing_plan_id":"cebpf4jnsgd1na2vs0mg"},{"bike_id":"6f8d5613-68e8-453b-9903-0b6c2da05e2d","system_id":"levelo_inurba_marseille","lat":43.24166,"lon":5.36398,"is_reserved":false,"is_disabled":false,"rental_uris":{"android":"levelo://app?vid=6f8d5613-68e8-453b-9903-0b6c2da05e2d","ios":"levelo://app?vid=6f8d5613-68e8-453b-9903-0b6c2da05e2d"},"vehicle_type_id":"4","last_reported":1736652030,"current_range_meters":37600,"station_id":"cpo36qri1sfpv3e86is0","pricing_plan_id":"cebpf4jnsgd1na2vs0mg"},{"bike_id":"297ed5aa-c846-407f-9135-c1596f506589","system_id":"levelo_inurba_marseille","lat":43.3032,"lon":5.40445,"is_reserved":false,"is_disabled":false,"rental_uris":{"android":"levelo://app?vid=297ed5aa-c846-407f-9135-c1596f506589","ios":"levelo://app?vid=297ed5aa-c846-407f-9135-c1596f506589"},"vehicle_type_id":"4","last_reported":1736652030,"current_range_meters":38800,"station_id":"ce4bh012rcd13ifvqd10","pricing_plan_id":"cebpf4jnsgd1na2vs0mg"},{"bike_id":"7b35c2fe-050b-40d9-94fc-35cf60930f7e","system_id":"levelo_inurba_marseille","lat":43.30796,"lon":5.38158,"is_reserved":false,"is_disabled":false,"rental_uris":{"android":"levelo://app?vid=7b35c2fe-050b-40d9-94fc-35cf60930f7e","ios":"levelo://app?vid=7b35c2fe-050b-40d9-94fc-35cf60930f7e"},"vehicle_type_id":"4","last_reported":1736652030,"current_range_meters":31200,"station_id":"ce4bgt12rcd13ifvqce0","pricing_plan_id":"cebpf4jnsgd1na2vs0mg"},{"bike_id":"ed3f3c69-27c8-48af-8c96-2ad0c07b0d26","system_id":"levelo_inurba_marseille","lat":43.30924,"lon":5.40151,"is_reserved":false,"is_disabled":false,"rental_uris":{"android":"levelo://app?vid=ed3f3c69-27c8-48af-8c96-2ad0c07b0d26","ios":"levelo://app?vid=ed3f3c69-27c8-48af-8c96-2ad0c07b0d26"},"vehicle_type_id":"4","last_reported":1736652030,"current_range_meters":35200,"station_id":"ce4bgvp2rcd13ifvqct0","pricing_plan_id":"cebpf4jnsgd1na2vs0mg"},{"bike_id":"4ea89943-560f-4480-a533-4fe6664bd873","system_id":"levelo_inurba_marseille","lat":43.261896,"lon":5.374534,"is_reserved":false,"is_disabled":false,"rental_uris":{"android":"levelo://app?vid=4ea89943-560f-4480-a533-4fe6664bd873","ios":"levelo://app?vid=4ea89943-560f-4480-a533-4fe6664bd873"},"vehicle_type_id":"4","last_reported":1736652030,"current_range_meters":16400,"station_id":"ce4bhgp2rcd13ifvqfc0","pricing_plan_id":"cebpf4jnsgd1na2vs0mg"},{"bike_id":"85603f95-286b-4848-8682-ec6ae6094237","system_id":"levelo_inurba_marseille","lat":43.27067,"lon":5.40254,"is_reserved":false,"is_disabled":true,"rental_uris":{"android":"levelo://app?vid=85603f95-286b-4848-8682-ec6ae6094237","ios":"levelo://app?vid=85603f95-286b-4848-8682-ec6ae6094237"},"vehicle_type_id":"4","last_reported":1736652030,"current_range_meters":9200,"station_id":"ce4bhk92rcd13ifvqgc0","pricing_plan_id":"cebpf4jnsgd1na2vs0mg"},{"bike_id":"b52cf5d7-d0ff-45b3-ac5b-ffe5c33591d4","system_id":"levelo_inurba_marseille","lat":43.23072,"lon":5.35501,"is_reserved":false,"is_disabled":false,"rental_uris":{"android":"levelo://app?vid=b52cf5d7-d0ff-45b3-ac5b-ffe5c33591d4","ios":"levelo://app?vid=b52cf5d7-d0ff-45b3-ac5b-ffe5c33591d4"},"vehicle_type_id":"4","last_reported":1736652030,"current_range_meters":6800,"station_id":"cpo3342slgdg3j2ifvpg","pricing_plan_id":"cebpf4jnsgd1na2vs0mg"},{"bike_id":"7bf02e16-6190-4930-8162-baf2e5016afa","system_id":"levelo_inurba_marseille","lat":43.286247,"lon":5.351005,"is_reserved":false,"is_disabled":false,"rental_uris":{"android":"levelo://app?vid=7bf02e16-6190-4930-8162-baf2e5016afa","ios":"levelo://app?vid=7bf02e16-6190-4930-8162-baf2e5016afa"},"vehicle_type_id":"4","last_reported":1736652030,"current_range_meters":24000,"station_id":"ce4bhch2rcd13ifvqeug","pricing_plan_id":"cebpf4jnsgd1na2vs0mg"},