{"last_updated":1756203130,"ttl":60,"version":"2.2","data":{"bikes":[{"bike_id":"bd194d06-a166-42a8-95d4-0e30c99a021f","system_id":"levelo_inurba_marseille","lat":43.30554,"lon":5.36709,"is_reserved":false,"is_disabled":false,"rental_uris":{"android":"levelo://app?vid=bd194d06-a166-42a8-95d4-0e30c99a021f","ios":"levelo://app?vid=bd194d06-a166-42a8-95d4-0e30c99a021f"},"vehicle_type_id":"4","last_reported":1756203131,"current_range_meters":2800,"station_id":"ce4bgrp2rcd13ifvqc9g","pricing_plan_id":"cebpf4jnsgd1na2vs0mg"},{"bike_id":"a9c07287-3c1e-415c-9df0-d270d3f548e1","system_id":"levelo_inurba_marseille","lat":43.265571,"lon":5.37283,"is_reserved":false,"is_disabled":false,"rental_uris":{"android":"levelo://app?vid=a9c07287-3c1e-415c-9df0-d270d3f548e1","ios":"levelo://app?vid=a9c07287-3c1e-415c-9df0-d270d3f548e1"},"vehicle_type_id":"4","last_reported":1756203131,"current_range_meters":3200,"station_id":"ce4bhg12rcd13ifvqf70","pricing_plan_id":"cebpf4jnsgd1na2vs0mg"},{"bike_id":"5a94cd1f-5ae1-47d0-a15d-d5554856827f","system_id":"levelo_inurba_marseille","lat":43.30567,"lon":5.37548,"is_reserved":false,"is_disabled":false,"rental_uris":{"android":"levelo://app?vid=5a94cd1f-5ae1-47d0-a15d-d5554856827f","ios":"levelo://app?vid=5a94cd1f-5ae1-47d0-a15d-d5554856827f"},"vehicle_type_id":"4","last_reported":1756203131,"current_range_meters":3600,"station_id":"","pricing_plan_id":"cebpf4jnsgd1na2vs0mg"},{"bike_id":"0490c530-845d-44f9-bf75-09a8b4d2b9b9","system_id":"levelo_inurba_marseille","lat":43.297548,"lon":5.380865,"is_reserved":false,"is_disabled":false,"rental_uris":{"android":"levelo://app?vid=0490c530-845d-44f9-bf75-09a8b4d2b9b9","ios":"levelo://app?vid=0490c530-845d-44f9-bf75-09a8b4d2b9b9"},"vehicle_type_id":"4","last_reported":1756203131,"current_range_meters":3600,"station_id":"ce4bgip2rcd13ifvqbb0","pricing_plan_id":"cebpf4jnsgd1na2vs0mg"},{"bike_id":"897057d3-dbba-4db6-a583-70f828a3824c","system_id":"levelo_inurba_marseille","lat":43.30139,"lon":5.37414,"is_reserved":false,"is_disabled":false,"rental_uris":{"android":"levelo://app?vid=897057d3-dbba-4db6-a583-70f828a3824c","ios":"levelo://app?vid=897057d3-dbba-4db6-a583-70f828a3824c"},"vehicle_type_id":"4","last_reported":1756203131,"current_range_meters":3600,"station_id":"ce4bgs92rcd13ifvqcc0","pricing_plan_id":"cebpf4jnsgd1na2vs0mg"},{"bike_id":"44ce78c9-c7e8-4cae-881e-b43a8a4aea0a","system_id":"levelo_inurba_marseille","lat":43.27811,"lon":5.40722,"is_reserved":false,"is_disabled":false,"rental_uris":{"android":"levelo://app?vid=44ce78c9-c7e8-4cae-881e-b43a8a4aea0a","ios":"levelo://app?vid=44ce78c9-c7e8-4cae-881e-b43a8a4aea0a"},"vehicle_type_id":"4","last_reported":1756203131,"current_range_meters":3600,"station_id":"ce4bhnh2rcd13ifvqgtg","pricing_plan_id":"cebpf4jnsgd1na2vs0mg"},{"bike_id":"158fe4a9-48cc-491f-95fd-2aa73bd55cc0","system_id":"levelo_inurba_marseille","lat":43.30569,"lon":5.36924,"is_reserved":false,"is_disabled":false,"rental_uris":{"android":"levelo://app?vid=158fe4a9-48cc-491f-95fd-2aa73bd55cc0","ios":"levelo://app?vid=158fe4a9-48cc-491f-95fd-2aa73bd55cc0"},"vehicle_type_id":"4","last_reported":1756203131,"current_range_meters":3600,"station_id":"","pricing_plan_id":"cebpf4jnsgd1na2vs0mg"},{"bike_id":"8278d03d-5584-48a8-a86a-7847a162c713","system_id":"levelo_inurba_marseille","lat":43.30925,"lon":5.38167,"is_reserved":false,"is_disabled":false,"rental_uris":{"android":"levelo://app?vid=8278d03d-5584-48a8-a86a-7847a162c713","ios":"levelo://app?vid=8278d03d-5584-48a8-a86a-7847a162c713"},"vehicle_type_id":"4","last_reported":1756203131,"current_range_meters":4000,"station_id":"","pricing_plan_id":"cebpf4jnsgd1na2vs0mg"},{"bike_id":"43abf335-2c4f-4d08-9198-10ebe0a2b5e3","system_id":"levelo_inurba_marseille","lat":43.28616,"lon":5.35108,"is_reserved":false,"is_disabled":false,"rental_uris":{"android":"levelo://app?vid=43abf335-2c4f-4d08-9198-10ebe0a2b5e3","ios":"levelo://app?vid=43abf335-2c4f-4d08-9198-10ebe0a2b5e3"},"vehicle_type_id":"4","last_reported":1756203131,"current_range_meters":4400,"station_id":"ce4bhch2rcd13ifvqeug","pricing_plan_id":"cebpf4jnsgd1na2vs0mg"},{"bike_id":"108b622f-741f-46bc-a63e-f53025af3542","system_id":"levelo_inurba_marseille","lat":43.239634,"lon":5.3664,"is_reserved":false,"is_disabled":false,"rental_uris":{"android":"levelo://app?vid=108b622f-741f-46bc-a63e-f53025af3542","ios":"levelo://app?vid=108b622f-741f-46bc-a63e-f53025af3542"},"vehicle_type_id":"4","last_reported":1756203131,"current_range_meters":4800,"station_id":"ce4bhi12rcd13ifvqfp0","pricing_plan_id":"cebpf4jnsgd1na2vs0mg"},{"bike_id":"91623bd8-bd63-4b0c-acb3-61a92819004f","system_id":"levelo_inurba_marseille","lat":43.282623,"lon":5.350578,"is_reserved":false,"is_disabled":false,"rental_uris":{"android":"levelo://app?vid=91623bd8-bd63-4b0c-acb3-61a92819004f","ios":"levelo://app?vid=91623bd8-bd63-4b0c-acb3-61a92819004f"},"vehicle_type_id":"4","last_reported":1756203131,"current_range_meters":4800,"station_id":"","pricing_plan_id":"cebpf4jnsgd1na2vs0mg"},{"bike_id":"32d552a1-5d1a-4f33-a2e3-3fc411b50db0","system_id":"levelo_inurba_marseille","lat":43.262005,"lon":5.379212,"is_reserved":false,"is_disabled":false,"rental_uris":{"android":"levelo://app?vid=32d552a1-5d1a-4f33-a2e3-3fc411b50db0","ios":"levelo://app?vid=32d552a1-5d1a-4f33-a2e3-3fc411b50db0"},"vehicle_type_id":"4","last_reported":1756203131,"current_range_meters":4800,"station_id":"ce4bhjp2rcd13ifvqg90","pricing_plan_id":"cebpf4jnsgd1na2vs0mg"},{"bike_id":"b0f358be-0080-4db6-81d0-22fa973b2a45","system_id":"levelo_inurba_marseille","lat":43.28709,"lon":5.3797,"is_reserved":false,"is_disabled":true,"rental_uris":{"android":"levelo://app?vid=b0f358be-0080-4db6-81d0-22fa973b2a45","ios":"levelo://app?vid=b0f358be-0080-4db6-81d0-22fa973b2a45"},"vehicle_type_id":"4","last_reported":1756203131,"current_range_meters":5600,"station_id":"ce4bh9p2rcd13ifvqec0","pricing_plan_id":"cebpf4jnsgd1na2vs0mg"},{"bike_id":"d370a5ea-1a68-4d90-867d-687dd68a5ce9","system_id":"levelo_inurba_marseille","lat":43.29222,"lon":5.36057,"is_reserved":false,"is_disabled":false,"rental_uris":{"android":"levelo://app?vid=d370a5ea-1a68-4d90-867d-687dd68a5ce9","ios":"levelo://app?vid=d370a5ea-1a68-4d90-867d-687dd68a5ce9"},"vehicle_type_id":"4","last_reported":1756203131,"current_range_meters":6000,"station_id":"ce4bhbh2rcd13ifvqeqg","pricing_plan_id":"cebpf4jnsgd1na2vs0mg"},{"bike_id":"566a8ca0-d412-45ee-85f5-53129ebbc0fe","system_id":"levelo_inurba_marseille","lat":43.26554,"lon":5.37281,"is_reserved":false,"is_disabled":false,"rental_uris":{"android":"levelo://app?vid=566a8ca0-d412-45ee-85f5-53129ebbc0fe","ios":"levelo://app?vid=566a8ca0-d412-45ee-85f5-53129ebbc0fe"},"vehicle_type_id":"4","last_reported":1756203131,"current_range_meters":6000,"station_id":"ce4bhg12rcd13ifvqf70","pricing_plan_id":"cebpf4jnsgd1na2vs0mg"},{"bike_id":"c4ccc10f-8ccd-44be-a00a-f6ebdc6ec159","system_id":"levelo_inurba_marseille","lat":43.30401,"lon":5.43446,"is_reserved":false,"is_disabled":false,"rental_uris":{"android":"levelo://app?vid=c4ccc10f-8ccd-44be-a00a-f6ebdc6ec159","ios":"levelo://app?vid=c4ccc10f-8ccd-44be-a00a-f6ebdc6ec159"},"vehicle_type_id":"4","last_reported":1756203131,"current_range_meters":6400,"station_id":"","pricing_plan_id":"cebpf4jnsgd1na2vs0mg"},{"bike_id":"5460667f-33c3-4e8d-8ece-a4e491713ed9","system_id":"levelo_inurba_marseille","lat":43.296718,"lon":5.403812,"is_reserved":false,"is_disabled":false,"rental_uris":{"android":"levelo://app?vid=5460667f-33c3-4e8d-8ece-a4e491713ed9","ios":"levelo://app?vid=5460667f-33c3-4e8d-8ece-a4e491713ed9"},"vehicle_type_id":"4","last_reported":1756203131,"current_range_meters":6400,"station_id":"","pricing_plan_id":"cebpf4jnsgd1na2vs0mg"},{"bike_id":"fb0ecd7c-2c0f-42f1-9e73-9448c9893367","system_id":"levelo_inurba_marseille","lat":43.26473,"lon":5.37026,"is_reserved":false,"is_disabled":false,"rental_uris":{"android":"levelo://app?vid=fb0ecd7c-2c0f-42f1-9e73-9448c9893367","ios":"levelo://app?vid=fb0ecd7c-2c0f-42f1-9e73-9448c9893367"},"vehicle_type_id":"4","last_reported":1756203131,"current_range_meters":6400,"station_id":"","pricing_plan_id":"cebpf4jnsgd1na2vs0mg"},{"bike_id":"ae6e7466-f79a-43dd-ba01-51043638613b","system_id":"levelo_inurba_marseille","lat":43.21186,"lon":5.35093,"is_reserved":false,"is_disabled":false,"rental_uris":{"android":"levelo://app?vid=ae6e7466-f79a-43dd-ba01-51043638613b","ios":"levelo://app?vid=ae6e7466-f79a-43dd-ba01-51043638613b"},"vehicle_type_id":"4","last_reported":1756203131,"current_range_meters":6400,"station_id":"","pricing_plan_id":"cebpf4jnsgd1na2vs0mg"},{"bike_id":"79da8d6e-1634-4680-858f-e23da98a7ae7","system_id":"levelo_inurba_marseille","lat":43.29223,"lon":5.36061,"is_reserved":false,"is_disabled":false,"rental_uris":{"android":"levelo://app?vid=79da8d6e-1634-4680-858f-e23da98a7ae7","ios":"levelo://app?vid=79da8d6e-1634-4680-858f-e23da98a7ae7"},"vehicle_type_id":"4","last_reported":1756203131,"current_range_meters":6400,"station_id":"ce4bhbh2rcd13ifvqeqg","pricing_plan_id":"cebpf4jnsgd1na2vs0mg"},{"bike_id":"e27e0b4a-a50a-4625-9add-bf936c99b703","system_id":"levelo_inurba_marseille","lat":43.27372,"lon":5.36262,"is_reserved":false,"is_disabled":false,"rental_uris":{"android":"levelo://app?vid=e27e0b4a-a50a-4625-9add-bf936c99b703","ios":"levelo://app?vid=e27e0b4a-a50a-4625-9add-bf936c99b703"},"vehicle_type_id":"4","last_reported":1756203131,"current_range_meters":6800,"station_id":"ce4bhbh2rcd13ifvqeo0","pricing_plan_id":"cebpf4jnsgd1na2vs0mg"},{"bike_id":"b72ddfe3-c483-48b6-a880-a138054f95e8","system_id":"levelo_inurba_marseille","lat":43.21194,"lon":5.35083,"is_reserved":false,"is_disabled":false,"rental_uris":{"android":"levelo://app?vid=b72ddfe3-c483-48b6-a880-a138054f95e8","ios":"levelo://app?vid=b72ddfe3-c483-48b6-a880-a138054f95e8"},"vehicle_type_id":"4","last_reported":1756203131,"current_range_meters":7200,"station_id":"st_cvj6sg6p6f1abm77japg","pricing_plan_id":"cebpf4jnsgd1na2vs0mg"},{"bike_id":"2e68dcd4-af1b-4f6b-8cc5-8cd0e0f3e3a7","system_id":"levelo_inurba_marseille","lat":43.32036,"lon":5.4156,"is_reserved":false,"is_disabled":false,"rental_uris":{"android":"levelo://app?vid=2e68dcd4-af1b-4f6b-8cc5-8cd0e0f3e3a7","ios":"levelo://app?vid=2e68dcd4-af1b-4f6b-8cc5-8cd0e0f3e3a7"},"vehicle_type_id":"4","last_reported":1756203131,"current_range_meters":7200,"station_id":"ce4bhq92rcd13ifvqhkg","pricing_plan_id":"cebpf4jnsgd1na2vs0mg"},{"bike_id":"f1fe5379-1bdf-4970-ae21-6bf7f8fac95a","system_id":"levelo_inurba_marseille","lat":43.2953,"lon":5.37567,"is_reserved":false,"is_disabled":false,"rental_uris":{"android":"levelo://app?vid=f1fe5379-1bdf-4970-ae21-6bf7f8fac95a","ios":"levelo://app?vid=f1fe5379-1bdf-4970-ae21-6bf7f8fac95a"},"vehicle_type_id":"4","last_reported":1756203131,"current_range_meters":8000,"station_id":"","pricing_plan_id":"cebpf4jnsgd1na2vs0mg"},{"bike_id":"4914b99b-bbad-44c9-8c7f-2b8a4a7b66e2","system_id":"levelo_inurba_marseille","lat":43.312252,"lon":5.368588,"is_reserved":false,"is_disabled":false,"rental_uris":{"android":"levelo://app?vid=4914b99b-bbad-44c9-8c7f-2b8a4a7b66e2","ios":"levelo://app?vid=4914b99b-bbad-44c9-8c7f-2b8a4a7b66e2"},"vehicle_type_id":"4","last_reported":1756203131,"current_range_meters":8000,"station_id":"ce4bgl92rcd13ifvqbq0","pricing_plan_id":"cebpf4jnsgd1na2vs0mg"},{"bike_id":"397ed655-6057-46ca-b1a6-81e6bf142508","system_id":"levelo_inurba_marseille","lat":43.30556,"lon":5.3656,"is_reserved":false,"is_disabled":false,"rental_uris":{"android":"levelo://app?vid=397ed655-6057-46ca-b1a6-81e6bf142508","ios":"levelo://app?vid=397ed655-6057-46ca-b1a6-81e6bf142508"},"vehicle_type_id":"4","last_reported":1756203131,"current_range_meters":8000,"station_id":"ce4bgs12rcd13ifvqcag","pricing_plan_id":"cebpf4jnsgd1na2vs0mg"},{"bike_id":"d1e22d98-9622-4c7e-8921-3c7160ce6895","system_id":"levelo_inurba_marseille","lat":43.29224,"lon":5.36056,"is_reserved":false,"is_disabled":false,"rental_uris":{"android":"levelo://app?vid=d1e22d98-9622-4c7e-8921-3c7160ce6895","ios":"levelo://app?vid=d1e22d98-9622-4c7e-8921-3c7160ce6895"},"vehicle_type_id":"4","last_reported":1756203131,"current_range_meters":8000,"station_id":"ce4bhbh2rcd13ifvqeqg","pricing_plan_id":"cebpf4jnsgd1na2vs0mg"},{"bike_id":"2ee0b61c-a294-4c91-911b-404068851234","system_id":"levelo_inurba_marseille","lat":43.28844,"lon":5.39299,"is_reserved":false,"is_disabled":false,"rental_uris":{"android":"levelo://app?vid=2ee0b61c-a294-4c91-911b-404068851234","ios":"levelo://app?vid=2ee0b61c-a294-4c91-911b-404068851234"},"vehicle_type_id":"4","last_reported":1756203131,"current_range_meters":8000,"station_id":"ce4bh2p2rcd13ifvqdi0","pricing_plan_id":"cebpf4jnsgd1na2vs0mg"},{"bike_id":"ada5a971-1bbf-48b4-9eed-6fcda504888e","system_id":"levelo_inurba_marseille","lat":43.29201,"lon":5.36065,"is_reserved":false,"is_disabled":false,"rental_uris":{"android":"levelo://app?vid=ada5a971-1bbf-48b4-9eed-6fcda504888e","ios":"levelo://app?vid=ada5a971-1bbf-48b4-9eed-6fcda504888e"},"vehicle_type_id":"4","last_reported":1756203131,"current_range_meters":8400,"station_id":"ce4bhbh2rcd13ifvqeqg","pricing_plan_id":"cebpf4jnsgd1na2vs0mg"},{"bike_id":"d982071b-ff86-4f4b-ae6f-2fde20fa6984","system_id":"levelo_inurba_marseille","lat":43.309535,"lon":5.390285,"is_reserved":false,"is_disabled":false,"rental_uris":{"android":"levelo://app?vid=d982071b-ff86-4f4b-ae6f-2fde20fa6984","ios":"levelo://app?vid=d982071b-ff86-4f4b-ae6f-2fde20fa6984"},"vehicle_type_id":"4","last_reported":1756203131,"current_range_meters":8000,"station_id":"ce4bgup2rcd13ifvqco0","pricing_plan_id":"cebpf4jnsgd1na2vs0mg"},{"bike_id":"0d944743-e134-48e5-94b4-4ee23c5bf363","system_id":"levelo_inurba_marseille","lat":43.23146,"lon":5.43726,"is_reserved":false,"is_disabled":false,"rental_uris":{"android":"levelo://app?vid=0d944743-e134-48e5-94b4-4ee23c5bf363","ios":"levelo://app?vid=0d944743-e134-48e5-94b4-4ee23c5bf363"},"vehicle_type_id":"4","last_reported":1756203131,"current_range_meters":8400,"station_id":"ce4bhmp2rcd13ifvqgog","pricing_plan_id":"cebpf4jnsgd1na2vs0mg"},{"bike_id":"4e7e88b4-93aa-47f7-9ee7-2ab56b693f87","system_id":"levelo_inurba_marseille","lat":43.28413,"lon":5.3499,"is_reserved":false,"is_disabled":false,"rental_uris":{"android":"levelo://app?vid=4e7e88b4-93aa-47f7-9ee7-2ab56b693f87","ios":"levelo://app?vid=4e7e88b4-93aa-47f7-9ee7-2ab56b693f87"},"vehicle_type_id":"4","last_reported":1756203131,"current_range_meters":8400,"station_id":"ce4bhbh2rcd13ifvqepg","pricing_plan_id":"cebpf4jnsgd1na2vs0mg"},{"bike_id":"f5b9bdf3-e981-4ec9-b3c8-e8477d05dbe8","system_id":"levelo_inurba_marseille","lat":43.32535,"lon":5.41448,"is_reserved":false,"is_disabled":false,"rental_uris":{"android":"levelo://app?vid=f5b9bdf3-e981-4ec9-b3c8-e8477d05dbe8","ios":"levelo://app?vid=f5b9bdf3-e981-4ec9-b3c8-e8477d05dbe8"},"vehicle_type_id":"4","last_reported":1756203131,"current_range_meters":8400,"station_id":"ce4bhq12rcd13ifvqhhg","pricing_plan_id":"cebpf4jnsgd1na2vs0mg"},{"bike_id":"925f41a7-6827-485d-b9b9-13235e59630f","system_id":"levelo_inurba_marseille","lat":43.28458,"lon":5.35879,"is_reserved":false,"is_disabled":false,"rental_uris":{"android":"levelo://app?vid=925f41a7-6827-485d-b9b9-13235e59630f","ios":"levelo://app?vid=925f41a7-6827-485d-b9b9-13235e59630f"},"vehicle_type_id":"4","last_reported":1756203131,"current_range_meters":8400,"station_id":"ce4bhah2rcd13ifvqei0","pricing_plan_id":"cebpf4jnsgd1na2vs0mg"},{"bike_id":"d9d7f21b-ad3a-4eff-959b-5e61f83b556f","system_id":"levelo_inurba_marseille","lat":43.30535,"lon":5.3841,"is_reserved":false,"is_disabled":false,"rental_uris":{"android":"levelo://app?vid=d9d7f21b-ad3a-4eff-959b-5e61f83b556f","ios":"levelo://app?vid=d9d7f21b-ad3a-4eff-959b-5e61f83b556f"},"vehicle_type_id":"4","last_reported":1756203131,"current_range_meters":8800,"station_id":"ce4bgg92rcd13ifvqb30","pricing_plan_id":"cebpf4jnsgd1na2vs0mg"},{"bike_id":"a8e303c4-60a0-4201-811f-ef38fd01b35b","system_id":"levelo_inurba_marseille","lat":43.32363,"lon":5.40595,"is_reserved":false,"is_disabled":false,"rental_uris":{"android":"levelo://app?vid=a8e303c4-60a0-4201-811f-ef38fd01b35b","ios":"levelo://app?vid=a8e303c4-60a0-4201-811f-ef38fd01b35b"},"vehicle_type_id":"4","last_reported":1756203131,"current_range_meters":8800,"station_id":"ce4bhq92rcd13ifvqhjg","pricing_plan_id":"cebpf4jnsgd1na2vs0mg"},{"bike_id":"03f5f876-44ad-4a09-864e-4760f62be40f","system_id":"levelo_inurba_marseille","lat":43.27612,"lon":5.366063,"is_reserved":false,"is_disabled":false,"rental_uris":{"android":"levelo://app?vid=03f5f876-44ad-4a09-864e-4760f62be40f","ios":"levelo://app?vid=03f5f876-44ad-4a09-864e-4760f62be40f"},"vehicle_type_id":"4","last_reported":1756203131,"current_range_meters":8800,"station_id":"ce4bh412rcd13ifvqds0","pricing_plan_id":"cebpf4jnsgd1na2vs0mg"},{"bike_id":"236f1a17-bd84-4b8e-977f-7df7d8cf402c","system_id":"levelo_inurba_marseille","lat":43.30812,"lon":5.43524,"is_reserved":false,"is_disabled":true,"rental_uris":{"android":"levelo://app?vid=236f1a17-bd84-4b8e-977f-7df7d8cf402c","ios":"levelo://app?vid=236f1a17-bd84-4b8e-977f-7df7d8cf402c"},"vehicle_type_id":"4","last_reported":1756203131,"current_range_meters":8800,"station_id":"ce4bhph2rcd13ifvqheg","pricing_plan_id":"cebpf4jnsgd1na2vs0mg"},{"bike_id":"0394a526-4bd8-4efa-bec2-3e8db1fa215c","system_id":"levelo_inurba_marseille","lat":43.30528,"lon":5.36554,"is_reserved":false,"is_disabled":false,"rental_uris":{"android":"levelo://app?vid=0394a526-4bd8-4efa-bec2-3e8db1fa215c","ios":"levelo://app?vid=0394a526-4bd8-4efa-bec2-3e8db1fa215c"},"vehicle_type_id":"4","last_reported":1756203131,"current_range_meters":8800,"station_id":"ce4bgs12rcd13ifvqcag","pricing_plan_id":"cebpf4jnsgd1na2vs0mg"},{"bike_id":"e6c90b04-fbb6-41a2-a95e-e2143b2a634a","system_id":"levelo_inurba_marseille","lat":43.241672,"lon":5.363951,"is_reserved":false,"is_disabled":false,"rental_uris":{"android":"levelo://app?vid=e6c90b04-fbb6-41a2-a95e-e2143b2a634a","ios":"levelo://app?vid=e6c90b04-fbb6-41a2-a95e-e2143b2a634a"},"vehicle_type_id":"4","last_reported":1756203131,"current_range_meters":8800,"station_id":"cpo36qri1sfpv3e86is0","pricing_plan_id":"cebpf4jnsgd1na2vs0mg"},{"bike_id":"1477b8c1-6655-4153-89d9-a4d4480a4a3d","system_id":"levelo_inurba_marseille","lat":43.26677,"lon":5.38274,"is_reserved":false,"is_disabled":false,"rental_uris":{"android":"levelo://app?vid=1477b8c1-6655-4153-89d9-a4d4480a4a3d","ios":"levelo://app?vid=1477b8c1-6655-4153-89d9-a4d4480a4a3d"},"vehicle_type_id":"4","last_reported":1756203131,"current_range_meters":9200,"station_id":"ce4bhg92rcd13ifvqf90","pricing_plan_id":"cebpf4jnsgd1na2vs0mg"},{"bike_id":"fcdfb1d4-2f58-4004-b07f-bc087fd0169f","system_id":"levelo_inurba_marseille","lat":43.303887,"lon":5.373754,"is_reserved":false,"is_disabled":false,"rental_uris":{"android":"levelo://app?vid=fcdfb1d4-2f58-4004-b07f-bc087fd0169f","ios":"levelo://app?vid=fcdfb1d4-2f58-4004-b07f-bc087fd0169f"},"vehicle_type_id":"4","last_reported":1756203131,"current_range_meters":9200,"station_id":"","pricing_plan_id":"cebpf4jnsgd1na2vs0mg"},{"bike_id":"df75f1fa-75ae-4074-a5b6-5911a8c1b6a8","system_id":"levelo_inurba_marseille","lat":43.30761,"lon":5.3721,"is_reserved":false,"is_disabled":false,"rental_uris":{"android":"levelo://app?vid=df75f1fa-75ae-4074-a5b6-5911a8c1b6a8","ios":"levelo://app?vid=df75f1fa-75ae-4074-a5b6-5911a8c1b6a8"},"vehicle_type_id":"4","last_reported":1756203131,"current_range_meters":9200,"station_id":"","pricing_plan_id":"cebpf4jnsgd1na2vs0mg"},{"bike_id":"2212480b-bee6-4788-b430-60f8d621ca9e","system_id":"levelo_inurba_marseille","lat":43.30518,"lon":5.36546,"is_reserved":false,"is_disabled":false,"rental_uris":{"android":"levelo://app?vid=2212480b-bee6-4788-b430-60f8d621ca9e","ios":"levelo://app?vid=2212480b-bee6-4788-b430-60f8d621ca9e"},"vehicle_type_id":"4","last_reported":1756203131,"current_range_meters":9200,"station_id":"","pricing_plan_id":"cebpf4jnsgd1na2vs0mg"},{"bike_id":"baf1e75f-6603-4be6-a673-efe7efcdac10","system_id":"levelo_inurba_marseille","lat":43.217483,"lon":5.345973,"is_reserved":false,"is_disabled":false,"rental_uris":{"android":"levelo://app?vid=baf1e75f-6603-4be6-a673-efe7efcdac10","ios":"levelo://app?vid=baf1e75f-6603-4be6-a673-efe7efcdac10"},"vehicle_type_id":"4","last_reported":1756203131,"current_range_meters":9600,"station_id":"st_cvj6r9ubvosntc0bgbag","pricing_plan_id":"cebpf4jnsgd1na2vs0mg"},{"bike_id":"a25faefd-0357-4bc0-914c-e2f2949d57b3","system_id":"levelo_inurba_marseille","lat":43.27074,"lon":5.4228,"is_reserved":false,"is_disabled":false,"rental_uris":{"android":"levelo://app?vid=a25faefd-0357-4bc0-914c-e2f2949d57b3","ios":"levelo://app?vid=a25faefd-0357-4bc0-914c-e2f2949d57b3"},"vehicle_type_id":"4","last_reported":1756203131,"current_range_meters":9600,"station_id":"ce4bhk92rcd13ifvqgb0","pricing_plan_id":"cebpf4jnsgd1na2vs0mg"},{"bike_id":"e4a83a85-29e6-42a3-9b61-556a430e1b30","system_id":"levelo_inurba_marseille","lat":43.275151,"lon":5.360099,"is_reserved":false,"is_disabled":false,"rental_uris":{"android":"levelo://app?vid=e4a83a85-29e6-42a3-9b61-556a430e1b30","ios":"levelo://app?vid=e4a83a85-29e6-42a3-9b61-556a430e1b30"},"vehicle_type_id":"4","last_reported":1756203131,"current_range_meters":10000,"station_id":"ce4bh0p2rcd13ifvqd80","pricing_plan_id":"cebpf4jnsgd1na2vs0mg"},{"bike_id":"178a835f-5043-41a0-8f33-d02cc02b786a","system_id":"levelo_inurba_marseille","lat":43.30106,"lon":5.37424,"is_reserved":false,"is_disabled":false,"rental_uris":{"android":"levelo://app?vid=178a835f-5043-41a0-8f33-d02cc02b786a","ios":"levelo://app?vid=178a835f-5043-41a0-8f33-d02cc02b786a"},"vehicle_type_id":"4","last_reported":1756203131,"current_range_meters":10000,"station_id":"ce4bgs92rcd13ifvqcc0","pricing_plan_id":"cebpf4jnsgd1na2vs0mg"},{"bike_id":"96290dcb-5422-4c66-b871-eb048cbeec71","system_id":"levelo_inurba_marseille","lat":43.21196,"lon":5.35062,"is_reserved":false,"is_disabled":false,"rental_uris":{"android":"levelo://app?vid=96290dcb-5422-4c66-b871-eb048cbeec71","ios":"levelo://app?vid=96290dcb-5422-4c66-b871-eb048cbeec71"},"vehicle_type_id":"4","last_reported":1756203131,"current_range_meters":10000,"station_id":"st_cvj6sg6p6f1abm77japg","pricing_plan_id":"cebpf4jnsgd1na2vs0mg"},{"bike_id":"a7617eaa-1f94-4263-82ae-df4c6a62a5c5","system_id":"levelo_inurba_marseille","lat":43.21741,"lon":5.34592,"is_reserved":false,"is_disabled":false,"rental_uris":{"android":"levelo://app?vid=a7617eaa-1f94-4263-82ae-df4c6a62a5c5","ios":"levelo://app?vid=a7617eaa-1f94-4263-82ae-df4c6a62a5c5"},"vehicle_type_id":"4","last_reported":1756203131,"current_range_meters":10000,"station_id":"st_cvj6r9ubvosntc0bgbag","pricing_plan_id":"cebpf4jnsgd1na2vs0mg"},{"bike_id":"c4125b36-b83a-49b8-a58f-c20fd94c714f","system_id":"levelo_inurba_marseille","lat":43.29854,"lon":5.39784,"is_reserved":false,"is_disabled":false,"rental_uris":{"android":"levelo://app?vid=c4125b36-b83a-49b8-a58f-c20fd94c714f","ios":"levelo://app?vid=c4125b36-b83a-49b8-a58f-c20fd94c714f"},"vehicle_type_id":"4","last_reported":1756203131,"current_range_meters":10800,"station_id":"","pricing_plan_id":"cebpf4jnsgd1na2vs0mg"},{"bike_id":"1f8b66a7-7d0e-4bd0-8036-b71126b0720a","system_id":"levelo_inurba_marseille","lat":43.27422,"lon":5.39401,"is_reserved":false,"is_disabled":false,"rental_uris":{"android":"levelo://app?vid=1f8b66a7-7d0e-4bd0-8036-b71126b0720a","ios":"levelo://app?vid=1f8b66a7-7d0e-4bd0-8036-b71126b0720a"},"vehicle_type_id":"4","last_reported":1756203131,"current_range_meters":10800,"station_id":"ce4bhdp2rcd13ifvqf20","pricing_plan_id":"cebpf4jnsgd1na2vs0mg"},{"bike_id":"bea9b573-b0c0-471b-a983-7d2a5da760bb","system_id":"levelo_inurba_marseille","lat":43.30373,"lon":5.42476,"is_reserved":false,"is_disabled":false,"rental_uris":{"android":"levelo://app?vid=bea9b573-b0c0-471b-a983-7d2a5da760bb","ios":"levelo://app?vid=bea9b573-b0c0-471b-a983-7d2a5da760bb"},"vehicle_type_id":"4","last_reported":1756203131,"current_range_meters":11200,"station_id":"ce4bhoh2rcd13ifvqh6g","pricing_plan_id":"cebpf4jnsgd1na2vs0mg"},{"bike_id":"b0bfe768-960a-4d09-a4ce-a57b03cbafa1","system_id":"levelo_inurba_marseille","lat":43.273636,"lon":5.362513,"is_reserved":false,"is_disabled":false,"rental_uris":{"android":"levelo://app?vid=b0bfe768-960a-4d09-a4ce-a57b03cbafa1","ios":"levelo://app?vid=b0bfe768-960a-4d09-a4ce-a57b03cbafa1"},"vehicle_type_id":"4","last_reported":1756203131,"current_range_meters":11200,"station_id":"ce4bhbh2rcd13ifvqeo0","pricing_plan_id":"cebpf4jnsgd1na2vs0mg"},{"bike_id":"4e326991-524a-498f-8eda-9c8ae7d86a4d","system_id":"levelo_inurba_marseille","lat":43.30534,"lon":5.36528,"is_reserved":false,"is_disabled":false,"rental_uris":{"android":"levelo://app?vid=4e326991-524a-498f-8eda-9c8ae7d86a4d","ios":"levelo://app?vid=4e326991-524a-498f-8eda-9c8ae7d86a4d"},"vehicle_type_id":"4","last_reported":1756203131,"current_range_meters":11200,"station_id":"ce4bgs12rcd13ifvqcag","pricing_plan_id":"cebpf4jnsgd1na2vs0mg"},{"bike_id":"35b6b29e-3252-46e0-a27b-46f9c37abd31","system_id":"levelo_inurba_marseille","lat":43.23148,"lon":5.43727,"is_reserved":false,"is_disabled":false,"rental_uris":{"android":"levelo://app?vid=35b6b29e-3252-46e0-a27b-46f9c37abd31","ios":"levelo://app?vid=35b6b29e-3252-46e0-a27b-46f9c37abd31"},"vehicle_type_id":"4","last_reported":1756203131,"current_range_meters":11200,"station_id":"ce4bhmp2rcd13ifvqgog","pricing_plan_id":"cebpf4jnsgd1na2vs0mg"},{"bike_id":"ef5a33ab-4e59-421a-ab20-eabe76b7f338","system_id":"levelo_inurba_marseille","lat":43.23152,"lon":5.43709,"is_reserved":false,"is_disabled":false,"rental_uris":{"android":"levelo://app?vid=ef5a33ab-4e59-421a-ab20-eabe76b7f338","ios":"levelo://app?vid=ef5a33ab-4e59-421a-ab20-eabe76b7f338"},"vehicle_type_id":"4","last_reported":1756203131,"current_range_meters":11200,"station_id":"ce4bhmp2rcd13ifvqgog","pricing_plan_id":"cebpf4jnsgd1na2vs0mg"},{"bike_id":"b2b3b180-9370-46dd-a9aa-715d0204f82b","system_id":"levelo_inurba_marseille","lat":43.288455,"lon":5.384632,"is_reserved":false,"is_disabled":false,"rental_uris":{"android":"levelo://app?vid=b2b3b180-9370-46dd-a9aa-715d0204f82b","ios":"levelo://app?vid=b2b3b180-9370-46dd-a9aa-715d0204f82b"},"vehicle_type_id":"4","last_reported":1756203131,"current_range_meters":11600,"station_id":"ce4bh612rcd13ifvqe6g","pricing_plan_id":"cebpf4jnsgd1na2vs0mg"},{"bike_id":"c8f19ab0-2650-42bf-bf99-315bb14cecb1","system_id":"levelo_inurba_marseille","lat":43.32335,"lon":5.36727,"is_reserved":false,"is_disabled":false,"rental_uris":{"android":"levelo://app?vid=c8f19ab0-2650-42bf-bf99-315bb14cecb1","ios":"levelo://app?vid=c8f19ab0-2650-42bf-bf99-315bb14cecb1"},"vehicle_type_id":"4","last_reported":1756203131,"current_range_meters":11600,"station_id":"ce4bhsh2rcd13ifvqi2g","pricing_plan_id":"cebpf4jnsgd1na2vs0mg"},{"bike_id":"8b09d6e8-3175-46a4-a882-3f13b9ad4be3","system_id":"levelo_inurba_marseille","lat":43.24633,"lon":5.43165,"is_reserved":false,"is_disabled":false,"rental_uris":{"android":"levelo://app?vid=8b09d6e8-3175-46a4-a882-3f13b9ad4be3","ios":"levelo://app?vid=8b09d6e8-3175-46a4-a882-3f13b9ad4be3"},"vehicle_type_id":"4","last_reported":1756203131,"current_range_meters":11600,"station_id":"st_d2m6c4gdas8pm72e190g","pricing_plan_id":"cebpf4jnsgd1na2vs0mg"},{"bike_id":"421d1e9c-d61b-4367-b016-161fba3b9921","system_id":"levelo_inurba_marseille","lat":43.29618,"lon":5.37718,"is_reserved":false,"is_disabled":false,"rental_uris":{"android":"levelo://app?vid=421d1e9c-d61b-4367-b016-161fba3b9921","ios":"levelo://app?vid=421d1e9c-d61b-4367-b016-161fba3b9921"},"vehicle_type_id":"4","last_reported":1756203131,"current_range_meters":11600,"station_id":"ce4bgi92rcd13ifvqb90","pricing_plan_id":"cebpf4jnsgd1na2vs0mg"},{"bike_id":"bb3b1f8e-8cc5-4b98-b134-1d38210e2d7b","system_id":"levelo_inurba_marseille","lat":43.28408,"lon":5.34983,"is_reserved":false,"is_disabled":false,"rental_uris":{"android":"levelo://app?vid=bb3b1f8e-8cc5-4b98-b134-1d38210e2d7b","ios":"levelo://app?vid=bb3b1f8e-8cc5-4b98-b134-1d38210e2d7b"},"vehicle_type_id":"4","last_reported":1756203131,"current_range_meters":12000,"station_id":"ce4bhbh2rcd13ifvqepg","pricing_plan_id":"cebpf4jnsgd1na2vs0mg"},{"bike_id":"7173eb3e-99a3-44ce-ba5b-b3338c469814","system_id":"levelo_inurba_marseille","lat":43.24179,"lon":5.39729,"is_reserved":false,"is_disabled":false,"rental_uris":{"android":"levelo://app?vid=7173eb3e-99a3-44ce-ba5b-b3338c469814","ios":"levelo://app?vid=7173eb3e-99a3-44ce-ba5b-b3338c469814"},"vehicle_type_id":"4","last_reported":1756203131,"current_range_meters":12000,"station_id":"ce4bhn12rcd13ifvqgpg","pricing_plan_id":"cebpf4jnsgd1na2vs0mg"},{"bike_id":"cfd66be3-eb77-4fcb-9808-b084ac439d43","system_id":"levelo_inurba_marseille","lat":43.33752,"lon":5.37466,"is_reserved":false,"is_disabled":false,"rental_uris":{"android":"levelo://app?vid=cfd66be3-eb77-4fcb-9808-b084ac439d43","ios":"levelo://app?vid=cfd66be3-eb77-4fcb-9808-b084ac439d43"},"vehicle_type_id":"4","last_reported":1756203131,"current_range_meters":12000,"station_id":"","pricing_plan_id":"cebpf4jnsgd1na2vs0mg"},{"bike_id":"32167ab3-27cb-4d58-b342-5db8fc6dc386","system_id":"levelo_inurba_marseille","lat":43.29582,"lon":5.37667,"is_reserved":false,"is_disabled":false,"rental_uris":{"android":"levelo://app?vid=32167ab3-27cb-4d58-b342-5db8fc6dc386","ios":"levelo://app?vid=32167ab3-27cb-4d58-b342-5db8fc6dc386"},"vehicle_type_id":"4","last_reported":1756203131,"current_range_meters":12400,"station_id":"","pricing_plan_id":"cebpf4jnsgd1na2vs0mg"},{"bike_id":"3fdab342-812b-4e87-a622-3fd4fcd806fa","system_id":"levelo_inurba_marseille","lat":43.31177,"lon":5.36921,"is_reserved":false,"is_disabled":false,"rental_uris":{"android":"levelo://app?vid=3fdab342-812b-4e87-a622-3fd4fcd806fa","ios":"levelo://app?vid=3fdab342-812b-4e87-a622-3fd4fcd806fa"},"vehicle_type_id":"4","last_reported":1756203131,"current_range_meters":12400,"station_id":"","pricing_plan_id":"cebpf4jnsgd1na2vs0mg"},{"bike_id":"e2b0f307-cfe9-4ad5-b104-d661fcb0d809","system_id":"levelo_inurba_marseille","lat":43.229276,"lon":5.353714,"is_reserved":false,"is_disabled":false,"rental_uris":{"android":"levelo://app?vid=e2b0f307-cfe9-4ad5-b104-d661fcb0d809","ios":"levelo://app?vid=e2b0f307-cfe9-4ad5-b104-d661fcb0d809"},"vehicle_type_id":"4","last_reported":1756203131,"current_range_meters":12800,"station_id":"cpo3532slgdg3j2ikp40","pricing_plan_id":"cebpf4jnsgd1na2vs0mg"},{"bike_id":"c30b301c-7f7b-494a-8ee4-1d6c5f9cce1b","system_id":"levelo_inurba_marseille","lat":43.28404,"lon":5.37535,"is_reserved":false,"is_disabled":true,"rental_uris":{"android":"levelo://app?vid=c30b301c-7f7b-494a-8ee4-1d6c5f9cce1b","ios":"levelo://app?vid=c30b301c-7f7b-494a-8ee4-1d6c5f9cce1b"},"vehicle_type_id":"4","last_reported":1756203131,"current_range_meters":12800,"station_id":"ce4bh412rcd13ifvqds0","pricing_plan_id":"cebpf4jnsgd1na2vs0mg"},{"bike_id":"a02c36f2-5c73-4274-9dab-3dcfac8b6d0b","system_id":"levelo_inurba_marseille","lat":43.32361,"lon":5.3677,"is_reserved":false,"is_disabled":false,"rental_uris":{"android":"levelo://app?vid=a02c36f2-5c73-4274-9dab-3dcfac8b6d0b","ios":"levelo://app?vid=a02c36f2-5c73-4274-9dab-3dcfac8b6d0b"},"vehicle_type_id":"4","last_reported":1756203131,"current_range_meters":12800,"station_id":"ce4bhsh2rcd13ifvqi2g","pricing_plan_id":"cebpf4jnsgd1na2vs0mg"},{"bike_id":"af732ca8-2cea-448a-9928-59e03d12656f","system_id":"levelo_inurba_marseille","lat":43.335739,"lon":5.358753,"is_reserved":false,"is_disabled":false,"rental_uris":{"android":"levelo://app?vid=af732ca8-2cea-448a-9928-59e03d12656f","ios":"levelo://app?vid=af732ca8-2cea-448a-9928-59e03d12656f"},"vehicle_type_id":"4","last_reported":1756203131,"current_range_meters":12800,"station_id":"","pricing_plan_id":"cebpf4jnsgd1na2vs0mg"},{"bike_id":"3e130ff4-87da-4c51-a264-44d1f277fd66","system_id":"levelo_inurba_marseille","lat":43.321036,"lon":5.367791,"is_reserved":false,"is_disabled":false,"rental_uris":{"android":"levelo://app?vid=3e130ff4-87da-4c51-a264-44d1f277fd66","ios":"levelo://app?vid=3e130ff4-87da-4c51-a264-44d1f277fd66"},"vehicle_type_id":"4","last_reported":1756203131,"current_range_meters":12800,"station_id":"ce4bhrh2rcd13ifvqhug","pricing_plan_id":"cebpf4jnsgd1na2vs0mg"},{"bike_id":"b375d41b-9575-4c77-a6a9-d089747042e7","system_id":"levelo_inurba_marseille","lat":43.32254,"lon":5.36794,"is_reserved":false,"is_disabled":false,"rental_uris":{"android":"levelo://app?vid=b375d41b-9575-4c77-a6a9-d089747042e7","ios":"levelo://app?vid=b375d41b-9575-4c77-a6a9-d089747042e7"},"vehicle_type_id":"4","last_reported":1756203131,"current_range_meters":13600,"station_id":"","pricing_plan_id":"cebpf4jnsgd1na2vs0mg"},{"bike_id":"531d9ab7-49a5-4eb1-b075-60a9e93e5981","system_id":"levelo_inurba_marseille","lat":43.30469,"lon":5.37915,"is_reserved":false,"is_disabled":false,"rental_uris":{"android":"levelo://app?vid=531d9ab7-49a5-4eb1-b075-60a9e93e5981","ios":"levelo://app?vid=531d9ab7-49a5-4eb1-b075-60a9e93e5981"},"vehicle_type_id":"4","last_reported":1756203131,"current_range_meters":13600,"station_id":"ce4bgup2rcd13ifvqcn0","pricing_plan_id":"cebpf4jnsgd1na2vs0mg"},{"bike_id":"274104e2-3fa0-4365-89f5-02857629db45","system_id":"levelo_inurba_marseille","lat":43.25107,"lon":5.40324,"is_reserved":false,"is_disabled":false,"rental_uris":{"android":"levelo://app?vid=274104e2-3fa0-4365-89f5-02857629db45","ios":"levelo://app?vid=274104e2-3fa0-4365-89f5-02857629db45"},"vehicle_type_id":"4","last_reported":1756203131,"current_range_meters":13600,"station_id":"ce4bhlh2rcd13ifvqgig","pricing_plan_id":"cebpf4jnsgd1na2vs0mg"},{"bike_id":"6ce08359-e6d0-4748-b7e4-05fc8338a875","system_id":"levelo_inurba_marseille","lat":43.284834,"lon":5.385709,"is_reserved":false,"is_disabled":false,"rental_uris":{"android":"levelo://app?vid=6ce08359-e6d0-4748-b7e4-05fc8338a875","ios":"levelo://app?vid=6ce08359-e6d0-4748-b7e4-05fc8338a875"},"vehicle_type_id":"4","last_reported":1756203131,"current_range_meters":14000,"station_id":"ce4bh8p2rcd13ifvqeb0","pricing_plan_id":"cebpf4jnsgd1na2vs0mg"},{"bike_id":"b6d727d8-b5ab-46d2-9978-fd5ba1dad8e0","system_id":"levelo_inurba_marseille","lat":43.30949,"lon":5.36833,"is_reserved":false,"is_disabled":false,"rental_uris":{"android":"levelo://app?vid=b6d727d8-b5ab-46d2-9978-fd5ba1dad8e0","ios":"levelo://app?vid=b6d727d8-b5ab-46d2-9978-fd5ba1dad8e0"},"vehicle_type_id":"4","last_reported":1756203131,"current_range_meters":14000,"station_id":"ce4bgn92rcd13ifvqbvg","pricing_plan_id":"cebpf4jnsgd1na2vs0mg"},{"bike_id":"39b33d0b-0941-4ebc-89cc-6b454c9ecf4f","system_id":"levelo_inurba_marseille","lat":43.28257,"lon":5.35062,"is_reserved":false,"is_disabled":false,"rental_uris":{"android":"levelo://app?vid=39b33d0b-0941-4ebc-89cc-6b454c9ecf4f","ios":"levelo://app?vid=39b33d0b-0941-4ebc-89cc-6b454c9ecf4f"},"vehicle_type_id":"4","last_reported":1756203131,"current_range_meters":14000,"station_id":"ce4bhbp2rcd13ifvqerg","pricing_plan_id":"cebpf4jnsgd1na2vs0mg"},{"bike_id":"632030b5-1498-47c0-aa28-dfb19d01a1ea","system_id":"levelo_inurba_marseille","lat":43.26215,"lon":5.37448,"is_reserved":false,"is_disabled":false,"rental_uris":{"android":"levelo://app?vid=632030b5-1498-47c0-aa28-dfb19d01a1ea","ios":"levelo://app?vid=632030b5-1498-47c0-aa28-dfb19d01a1ea"},"vehicle_type_id":"4","last_reported":1756203131,"current_range_meters":14000,"station_id":"ce4bhgp2rcd13ifvqfc0","pricing_plan_id":"cebpf4jnsgd1na2vs0mg"},{"bike_id":"97baab57-b07e-4a6b-8fbd-e3de8dfb7142","system_id":"levelo_inurba_marseille","lat":43.2439,"lon":5.37062,"is_reserved":false,"is_disabled":false,"rental_uris":{"android":"levelo://app?vid=97baab57-b07e-4a6b-8fbd-e3de8dfb7142","ios":"levelo://app?vid=97baab57-b07e-4a6b-8fbd-e3de8dfb7142"},"vehicle_type_id":"4","last_reported":1756203131,"current_range_meters":14000,"station_id":"ce4bhhh2rcd13ifvqfk0","pricing_plan_id":"cebpf4jnsgd1na2vs0mg"},{"bike_id":"1f4c0096-157c-43e3-aaba-697c79c4436b","system_id":"levelo_inurba_marseille","lat":43.27667,"lon":5.38871,"is_reserved":false,"is_disabled":false,"rental_uris":{"android":"levelo://app?vid=1f4c0096-157c-43e3-aaba-697c79c4436b","ios":"levelo://app?vid=1f4c0096-157c-43e3-aaba-697c79c4436b"},"vehicle_type_id":"4","last_reported":1756203131,"current_range_meters":14000,"station_id":"ce4bhi12rcd13ifvqfo0","pricing_plan_id":"cebpf4jnsgd1na2vs0mg"},{"bike_id":"83e818dd-7ff3-45dd-b46a-ecfe9cbc3bf8","system_id":"levelo_inurba_marseille","lat":43.26215,"lon":5.37439,"is_reserved":false,"is_disabled":false,"rental_uris":{"android":"levelo://app?vid=83e818dd-7ff3-45dd-b46a-ecfe9cbc3bf8","ios":"levelo://app?vid=83e818dd-7ff3-45dd-b46a-ecfe9cbc3bf8"},"vehicle_type_id":"4","last_reported":1756203131,"current_range_meters":14000,"station_id":"","pricing_plan_id":"cebpf4jnsgd1na2vs0mg"},{"bike_id":"979e73f7-3abb-449f-9bdc-cb11a72712d9","system_id":"levelo_inurba_marseille","lat":43.28615,"lon":5.35112,"is_reserved":false,"is_disabled":true,"rental_uris":{"android":"levelo://app?vid=979e73f7-3abb-449f-9bdc-cb11a72712d9","ios":"levelo://app?vid=979e73f7-3abb-449f-9bdc-cb11a72712d9"},"vehicle_type_id":"4","last_reported":1756203131,"current_range_meters":14000,"station_id":"ce4bhch2rcd13ifvqeug","pricing_plan_id":"cebpf4jnsgd1na2vs0mg"},{"bike_id":"0d502687-08ef-4491-8893-8a03d8688be8","system_id":"levelo_inurba_marseille","lat":43.29589,"lon":5.3615,"is_reserved":false,"is_disabled":false,"rental_uris":{"android":"levelo://app?vid=0d502687-08ef-4491-8893-8a03d8688be8","ios":"levelo://app?vid=0d502687-08ef-4491-8893-8a03d8688be8"},"vehicle_type_id":"4","last_reported":1756203131,"current_range_meters":14000,"station_id":"","pricing_plan_id":"cebpf4jnsgd1na2vs0mg"},{"bike_id":"1027bb83-a668-47de-9094-84302cb909d4","system_id":"levelo_inurba_marseille","lat":43.21189,"lon":5.3508,"is_reserved":false,"is_disabled":false,"rental_uris":{"android":"levelo://app?vid=1027bb83-a668-47de-9094-84302cb909d4","ios":"levelo://app?vid=1027bb83-a668-47de-9094-84302cb909d4"},"vehicle_type_id":"4","last_reported":1756203131,"current_range_meters":14400,"station_id":"st_cvj6sg6p6f1abm77japg","pricing_plan_id":"cebpf4jnsgd1na2vs0mg"},{"bike_id":"444fa21b-a878-42ec-8f08-8b38e06bf791","system_id":"levelo_inurba_marseille","lat":43.24388,"lon":5.37059,"is_reserved":false,"is_disabled":false,"rental_uris":{"android":"levelo://app?vid=444fa21b-a878-42ec-8f08-8b38e06bf791","ios":"levelo://app?vid=444fa21b-a878-42ec-8f08-8b38e06bf791"},"vehicle_type_id":"4","last_reported":1756203131,"current_range_meters":14400,"station_id":"ce4bhhh2rcd13ifvqfk0","pricing_plan_id":"cebpf4jnsgd1na2vs0mg"},{"bike_id":"f84f46c8-243d-42cd-b308-2b289e4c09d3","system_id":"levelo_inurba_marseille","lat":43.334514,"lon":5.356717,"is_reserved":false,"is_disabled":false,"rental_uris":{"android":"levelo://app?vid=f84f46c8-243d-42cd-b308-2b289e4c09d3","ios":"levelo://app?vid=f84f46c8-243d-42cd-b308-2b289e4c09d3"},"vehicle_type_id":"4","last_reported":1756203131,"current_range_meters":14400,"station_id":"","pricing_plan_id":"cebpf4jnsgd1na2vs0mg"},{"bike_id":"323c6e3a-fc3c-4ffe-95ed-fcec0f0049a0","system_id":"levelo_inurba_marseille","lat":43.28258,"lon":5.350632,"is_reserved":false,"is_disabled":false,"rental_uris":{"android":"levelo://app?vid=323c6e3a-fc3c-4ffe-95ed-fcec0f0049a0","ios":"levelo://app?vid=323c6e3a-fc3c-4ffe-95ed-fcec0f0049a0"},"vehicle_type_id":"4","last_reported":1756203131,"current_range_meters":14400,"station_id":"ce4bhbp2rcd13ifvqerg","pricing_plan_id":"cebpf4jnsgd1na2vs0mg"},{"bike_id":"a15a1c44-718b-407d-acaa-0383628c87d7","system_id":"levelo_inurba_marseille","lat":43.32689,"lon":5.39222,"is_reserved":false,"is_disabled":false,"rental_uris":{"android":"levelo://app?vid=a15a1c44-718b-407d-acaa-0383628c87d7","ios":"levelo://app?vid=a15a1c44-718b-407d-acaa-0383628c87d7"},"vehicle_type_id":"4","last_reported":1756203131,"current_range_meters":14800,"station_id":"","pricing_plan_id":"cebpf4jnsgd1na2vs0mg"},{"bike_id":"c47b2876-c564-417f-9d7f-97cdd2f94270","system_id":"levelo_inurba_marseille","lat":43.24161,"lon":5.36397,"is_reserved":false,"is_disabled":false,"rental_uris":{"android":"levelo://app?vid=c47b2876-c564-417f-9d7f-97cdd2f94270","ios":"levelo://app?vid=c47b2876-c564-417f-9d7f-97cdd2f94270"},"vehicle_type_id":"4","last_reported":1756203131,"current_range_meters":14800,"station_id":"cpo36qri1sfpv3e86is0","pricing_plan_id":"cebpf4jnsgd1na2vs0mg"},{"bike_id":"fd67696d-ef93-4fd1-be0a-8a9116cbc5b1","system_id":"levelo_inurba_marseille","lat":43.25006,"lon":5.389113,"is_reserved":false,"is_disabled":false,"rental_uris":{"android":"levelo://app?vid=fd67696d-ef93-4fd1-be0a-8a9116cbc5b1","ios":"levelo://app?vid=fd67696d-ef93-4fd1-be0a-8a9116cbc5b1"},"vehicle_type_id":"4","last_reported":1756203131,"current_range_meters":14800,"station_id":"","pricing_plan_id":"cebpf4jnsgd1na2vs0mg"},{"bike_id":"51842e17-ef10-4624-a23e-c8a182427991","system_id":"levelo_inurba_marseille","lat":43.315845,"lon":5.382327,"is_reserved":false,"is_disabled":false,"rental_uris":{"android":"levelo://app?vid=51842e17-ef10-4624-a23e-c8a182427991","ios":"levelo://app?vid=51842e17-ef10-4624-a23e-c8a182427991"},"vehicle_type_id":"4","last_reported":1756203131,"current_range_meters":14800,"station_id":"","pricing_plan_id":"cebpf4jnsgd1na2vs0mg"},{"bike_id":"5f9365e2-60dc-4158-a2c3-0e40911a7a32","system_id":"levelo_inurba_marseille","lat":43.334214,"lon":5.400499,"is_reserved":false,"is_disabled":false,"rental_uris":{"android":"levelo://app?vid=5f9365e2-60dc-4158-a2c3-0e40911a7a32","ios":"levelo://app?vid=5f9365e2-60dc-4158-a2c3-0e40911a7a32"},"vehicle_type_id":"4","last_reported":1756203131,"current_range_meters":14800,"station_id":"","pricing_plan_id":"cebpf4jnsgd1na2vs0mg"},{"bike_id":"b5ffa393-2ace-4441-a658-0017f1ce8c98","system_id":"levelo_inurba_marseille","lat":43.24169,"lon":5.3976,"is_reserved":false,"is_disabled":false,"rental_uris":{"android":"levelo://app?vid=b5ffa393-2ace-4441-a658-0017f1ce8c98","ios":"levelo://app?vid=b5ffa393-2ace-4441-a658-0017f1ce8c98"},"vehicle_type_id":"4","last_reported":1756203131,"current_range_meters":14800,"station_id":"ce4bhn12rcd13ifvqgpg","pricing_plan_id":"cebpf4jnsgd1na2vs0mg"},{"bike_id":"8084f761-4f01-4c05-87a9-58caeef465ca","system_id":"levelo_inurba_marseille","lat":43.21759,"lon":5.34588,"is_reserved":false,"is_disabled":false,"rental_uris":{"android":"levelo://app?vid=8084f761-4f01-4c05-87a9-58caeef465ca","ios":"levelo://app?vid=8084f761-4f01-4c05-87a9-58caeef465ca"},"vehicle_type_id":"4","last_reported":1756203131,"current_range_meters":14800,"station_id":"st_cvj6r9ubvosntc0bgbag","pricing_plan_id":"cebpf4jnsgd1na2vs0mg"},{"bike_id":"806216fb-9217-4875-8fd5-9f139c321bc6","system_id":"levelo_inurba_marseille","lat":43.2737,"lon":5.36264,"is_reserved":false,"is_disabled":false,"rental_uris":{"android":"levelo://app?vid=806216fb-9217-4875-8fd5-9f139c321bc6","ios":"levelo://app?vid=806216fb-9217-4875-8fd5-9f139c321bc6"},"vehicle_type_id":"4","last_reported":1756203131,"current_range_meters":14800,"station_id":"ce4bhbh2rcd13ifvqeo0","pricing_plan_id":"cebpf4jnsgd1na2vs0mg"},{"bike_id":"bfb58077-af5c-4f59-acd7-5c13c9676491","system_id":"levelo_inurba_marseille","lat":43.23956,"lon":5.36626,"is_reserved":false,"is_disabled":false,"rental_uris":{"android":"levelo://app?vid=bfb58077-af5c-4f59-acd7-5c13c9676491","ios":"levelo://app?vid=bfb58077-af5c-4f59-acd7-5c13c9676491"},"vehicle_type_id":"4","last_reported":1756203131,"current_range_meters":14800,"station_id":"ce4bhi12rcd13ifvqfp0","pricing_plan_id":"cebpf4jnsgd1na2vs0mg"},{"bike_id":"943d95a7-9535-411f-ba22-8068aaf6ac69","system_id":"levelo_inurba_marseille","lat":43.29605,"lon":5.38107,"is_reserved":false,"is_disabled":true,"rental_uris":{"android":"levelo://app?vid=943d95a7-9535-411f-ba22-8068aaf6ac69","ios":"levelo://app?vid=943d95a7-9535-411f-ba22-8068aaf6ac69"},"vehicle_type_id":"4","last_reported":1756203131,"current_range_meters":15200,"station_id":"ce4bgl12rcd13ifvqbo0","pricing_plan_id":"cebpf4jnsgd1na2vs0mg"},{"bike_id":"f50e029c-78e4-4943-96e6-f587e062386c","system_id":"levelo_inurba_marseille","lat":43.31717,"lon":5.42431,"is_reserved":false,"is_disabled":false,"rental_uris":{"android":"levelo://app?vid=f50e029c-78e4-4943-96e6-f587e062386c","ios":"levelo://app?vid=f50e029c-78e4-4943-96e6-f587e062386c"},"vehicle_type_id":"4","last_reported":1756203131,"current_range_meters":15200,"station_id":"ce4bhp92rcd13ifvqhbg","pricing_plan_id":"cebpf4jnsgd1na2vs0mg"},{"bike_id":"50080086-5ad6-41c2-b993-d4f4d5e2439a","system_id":"levelo_inurba_marseille","lat":43.33101,"lon":5.38932,"is_reserved":false,"is_disabled":false,"rental_uris":{"android":"levelo://app?vid=50080086-5ad6-41c2-b993-d4f4d5e2439a","ios":"levelo://app?vid=50080086-5ad6-41c2-b993-d4f4d5e2439a"},"vehicle_type_id":"4","last_reported":1756203131,"current_range_meters":16000,"station_id":"","pricing_plan_id":"cebpf4jnsgd1na2vs0mg"},{"bike_id":"026e3973-93d1-4c5c-ae15-8b22641bac68","system_id":"levelo_inurba_marseille","lat":43.28622,"lon":5.35103,"is_reserved":false,"is_disabled":false,"rental_uris":{"android":"levelo://app?vid=026e3973-93d1-4c5c-ae15-8b22641bac68","ios":"levelo://app?vid=026e3973-93d1-4c5c-ae15-8b22641bac68"},"vehicle_type_id":"4","last_reported":1756203131,"current_range_meters":16000,"station_id":"ce4bhch2rcd13ifvqeug","pricing_plan_id":"cebpf4jnsgd1na2vs0mg"},{"bike_id":"eaac1ac6-6c5d-4274-970f-7bad9d177f4b","system_id":"levelo_inurba_marseille","lat":43.27213,"lon":5.3919,"is_reserved":false,"is_disabled":false,"rental_uris":{"android":"levelo://app?vid=eaac1ac6-6c5d-4274-970f-7bad9d177f4b","ios":"levelo://app?vid=eaac1ac6-6c5d-4274-970f-7bad9d177f4b"},"vehicle_type_id":"4","last_reported":1756203131,"current_range_meters":16000,"station_id":"ce4bhhp2rcd13ifvqfm0","pricing_plan_id":"cebpf4jnsgd1na2vs0mg"},{"bike_id":"ad9bd69b-d68c-4c45-91a0-01922e0e465b","system_id":"levelo_inurba_marseille","lat":43.28616,"lon":5.35102,"is_reserved":false,"is_disabled":false,"rental_uris":{"android":"levelo://app?vid=ad9bd69b-d68c-4c45-91a0-01922e0e465b","ios":"levelo://app?vid=ad9bd69b-d68c-4c45-91a0-01922e0e465b"},"vehicle_type_id":"4","last_reported":1756203131,"current_range_meters":16000,"station_id":"ce4bhch2rcd13ifvqeug","pricing_plan_id":"cebpf4jnsgd1na2vs0mg"},{"bike_id":"0b4dbfbd-ee9a-4729-bbe3-65b55aebc579","system_id":"levelo_inurba_marseille","lat":43.28414,"lon":5.3499,"is_reserved":false,"is_disabled":false,"rental_uris":{"android":"levelo://app?vid=0b4dbfbd-ee9a-4729-bbe3-65b55aebc579","ios":"levelo://app?vid=0b4dbfbd-ee9a-4729-bbe3-65b55aebc579"},"vehicle_type_id":"4","last_reported":1756203131,"current_range_meters":16000,"station_id":"ce4bhbh2rcd13ifvqepg","pricing_plan_id":"cebpf4jnsgd1na2vs0mg"},{"bike_id":"974ad24a-ebe3-4eaf-93e5-d979d93ceb49","system_id":"levelo_inurba_marseille","lat":43.30523,"lon":5.36549,"is_reserved":false,"is_disabled":false,"rental_uris":{"android":"levelo://app?vid=974ad24a-ebe3-4eaf-93e5-d979d93ceb49","ios":"levelo://app?vid=974ad24a-ebe3-4eaf-93e5-d979d93ceb49"},"vehicle_type_id":"4","last_reported":1756203131,"current_range_meters":16000,"station_id":"ce4bgs12rcd13ifvqcag","pricing_plan_id":"cebpf4jnsgd1na2vs0mg"},{"bike_id":"2a3016f2-32bb-4f7a-b933-f0f47d2a2fdf","system_id":"levelo_inurba_marseille","lat":43.26052,"lon":5.39404,"is_reserved":false,"is_disabled":false,"rental_uris":{"android":"levelo://app?vid=2a3016f2-32bb-4f7a-b933-f0f47d2a2fdf","ios":"levelo://app?vid=2a3016f2-32bb-4f7a-b933-f0f47d2a2fdf"},"vehicle_type_id":"4","last_reported":1756203131,"current_range_meters":16000,"station_id":"ce4bhh92rcd13ifvqfj0","pricing_plan_id":"cebpf4jnsgd1na2vs0mg"},{"bike_id":"de580a8f-8d7c-4184-b582-47976228e18d","system_id":"levelo_inurba_marseille","lat":43.30304,"lon":5.39212,"is_reserved":false,"is_disabled":false,"rental_uris":{"android":"levelo://app?vid=de580a8f-8d7c-4184-b582-47976228e18d","ios":"levelo://app?vid=de580a8f-8d7c-4184-b582-47976228e18d"},"vehicle_type_id":"4","last_reported":1756203131,"current_range_meters":16000,"station_id":"ce4bgkh2rcd13ifvqbk0","pricing_plan_id":"cebpf4jnsgd1na2vs0mg"},{"bike_id":"362e989e-a4bd-4853-a096-119dc695446f","system_id":"levelo_inurba_marseille","lat":43.30467,"lon":5.37891,"is_reserved":false,"is_disabled":false,"rental_uris":{"android":"levelo://app?vid=362e989e-a4bd-4853-a096-119dc695446f","ios":"levelo://app?vid=362e989e-a4bd-4853-a096-119dc695446f"},"vehicle_type_id":"4","last_reported":1756203131,"current_range_meters":16000,"station_id":"ce4bgup2rcd13ifvqcn0","pricing_plan_id":"cebpf4jnsgd1na2vs0mg"},{"bike_id":"db7d3d83-f39a-4469-8445-29697e69fec4","system_id":"levelo_inurba_marseille","lat":43.32225,"lon":5.38579,"is_reserved":false,"is_disabled":false,"rental_uris":{"android":"levelo://app?vid=db7d3d83-f39a-4469-8445-29697e69fec4","ios":"levelo://app?vid=db7d3d83-f39a-4469-8445-29697e69fec4"},"vehicle_type_id":"4","last_reported":1756203131,"current_range_meters":16000,"station_id":"","pricing_plan_id":"cebpf4jnsgd1na2vs0mg"},{"bike_id":"a9e83ed4-a7a8-4810-af83-b671eb56efd7","system_id":"levelo_inurba_marseille","lat":43.26548,"lon":5.37307,"is_reserved":false,"is_disabled":false,"rental_uris":{"android":"levelo://app?vid=a9e83ed4-a7a8-4810-af83-b671eb56efd7","ios":"levelo://app?vid=a9e83ed4-a7a8-4810-af83-b671eb56efd7"},"vehicle_type_id":"4","last_reported":1756203131,"current_range_meters":16000,"station_id":"ce4bhg12rcd13ifvqf70","pricing_plan_id":"cebpf4jnsgd1na2vs0mg"},{"bike_id":"977df7ca-21e9-43e2-ade8-22de20bad5aa","system_id":"levelo_inurba_marseille","lat":43.262098,"lon":5.374429,"is_reserved":false,"is_disabled":false,"rental_uris":{"android":"levelo://app?vid=977df7ca-21e9-43e2-ade8-22de20bad5aa","ios":"levelo://app?vid=977df7ca-21e9-43e2-ade8-22de20bad5aa"},"vehicle_type_id":"4","last_reported":1756203131,"current_range_meters":16400,"station_id":"ce4bhgp2rcd13ifvqfc0","pricing_plan_id":"cebpf4jnsgd1na2vs0mg"},{"bike_id":"826f9c0a-980b-43d8-bf4c-e43d77c221ed","system_id":"levelo_inurba_marseille","lat":43.23171,"lon":5.39981,"is_reserved":false,"is_disabled":false,"rental_uris":{"android":"levelo://app?vid=826f9c0a-980b-43d8-bf4c-e43d77c221ed","ios":"levelo://app?vid=826f9c0a-980b-43d8-bf4c-e43d77c221ed"},"vehicle_type_id":"4","last_reported":1756203131,"current_range_meters":16400,"station_id":"ce4bhn12rcd13ifvqgqg","pricing_plan_id":"cebpf4jnsgd1na2vs0mg"},{"bike_id":"84d12ccb-6366-409a-bb47-44f6ad184127","system_id":"levelo_inurba_marseille","lat":43.31237,"lon":5.36895,"is_reserved":false,"is_disabled":false,"rental_uris":{"android":"levelo://app?vid=84d12ccb-6366-409a-bb47-44f6ad184127","ios":"levelo://app?vid=84d12ccb-6366-409a-bb47-44f6ad184127"},"vehicle_type_id":"4","last_reported":1756203131,"current_range_meters":16400,"station_id":"ce4bgl92rcd13ifvqbq0","pricing_plan_id":"cebpf4jnsgd1na2vs0mg"},{"bike_id":"777a8c83-aed8-4881-84b6-34465956e738","system_id":"levelo_inurba_marseille","lat":43.257589,"lon":5.410322,"is_reserved":false,"is_disabled":false,"rental_uris":{"android":"levelo://app?vid=777a8c83-aed8-4881-84b6-34465956e738","ios":"levelo://app?vid=777a8c83-aed8-4881-84b6-34465956e738"},"vehicle_type_id":"4","last_reported":1756203131,"current_range_meters":16400,"station_id":"","pricing_plan_id":"cebpf4jnsgd1na2vs0mg"},{"bike_id":"507bfa7a-77ad-4faf-874f-5e94ad334f53","system_id":"levelo_inurba_marseille","lat":43.2318,"lon":5.40003,"is_reserved":false,"is_disabled":false,"rental_uris":{"android":"levelo://app?vid=507bfa7a-77ad-4faf-874f-5e94ad334f53","ios":"levelo://app?vid=507bfa7a-77ad-4faf-874f-5e94ad334f53"},"vehicle_type_id":"4","last_reported":1756203131,"current_range_meters":16400,"station_id":"ce4bhn12rcd13ifvqgqg","pricing_plan_id":"cebpf4jnsgd1na2vs0mg"},{"bike_id":"f0400c37-c7f6-4929-b1ac-d92430ff6f2d","system_id":"levelo_inurba_marseille","lat":43.27558,"lon":5.39715,"is_reserved":false,"is_disabled":false,"rental_uris":{"android":"levelo://app?vid=f0400c37-c7f6-4929-b1ac-d92430ff6f2d","ios":"levelo://app?vid=f0400c37-c7f6-4929-b1ac-d92430ff6f2d"},"vehicle_type_id":"4","last_reported":1756203131,"current_range_meters":16800,"station_id":"","pricing_plan_id":"cebpf4jnsgd1na2vs0mg"},{"bike_id":"5bce688b-fc81-4596-8277-b66f54be87c1","system_id":"levelo_inurba_marseille","lat":43.33768,"lon":5.37438,"is_reserved":false,"is_disabled":false,"rental_uris":{"android":"levelo://app?vid=5bce688b-fc81-4596-8277-b66f54be87c1","ios":"levelo://app?vid=5bce688b-fc81-4596-8277-b66f54be87c1"},"vehicle_type_id":"4","last_reported":1756203131,"current_range_meters":16800,"station_id":"","pricing_plan_id":"cebpf4jnsgd1na2vs0mg"},{"bike_id":"80ca4da6-3284-4b8a-ade1-4216b77968fe","system_id":"levelo_inurba_marseille","lat":43.30787,"lon":5.37639,"is_reserved":false,"is_disabled":false,"rental_uris":{"android":"levelo://app?vid=80ca4da6-3284-4b8a-ade1-4216b77968fe","ios":"levelo://app?vid=80ca4da6-3284-4b8a-ade1-4216b77968fe"},"vehicle_type_id":"4","last_reported":1756203131,"current_range_meters":16800,"station_id":"ce4bgv92rcd13ifvqcq0","pricing_plan_id":"cebpf4jnsgd1na2vs0mg"},{"bike_id":"cb1eb6d7-4acd-4aa6-be9a-ffa1ac8012d5","system_id":"levelo_inurba_marseille","lat":43.27075,"lon":5.4228,"is_reserved":false,"is_disabled":false,"rental_uris":{"android":"levelo://app?vid=cb1eb6d7-4acd-4aa6-be9a-ffa1ac8012d5","ios":"levelo://app?vid=cb1eb6d7-4acd-4aa6-be9a-ffa1ac8012d5"},"vehicle_type_id":"4","last_reported":1756203131,"current_range_meters":16800,"station_id":"ce4bhk92rcd13ifvqgb0","pricing_plan_id":"cebpf4jnsgd1na2vs0mg"},{"bike_id":"23d0fbf5-3329-4832-a3f6-fbbab0e7db5f","system_id":"levelo_inurba_marseille","lat":43.27649,"lon":5.38931,"is_reserved":false,"is_disabled":false,"rental_uris":{"android":"levelo://app?vid=23d0fbf5-3329-4832-a3f6-fbbab0e7db5f","ios":"levelo://app?vid=23d0fbf5-3329-4832-a3f6-fbbab0e7db5f"},"vehicle_type_id":"4","last_reported":1756203131,"current_range_meters":16400,"station_id":"ce4bhi12rcd13ifvqfo0","pricing_plan_id":"cebpf4jnsgd1na2vs0mg"},{"bike_id":"0c1e9825-4b68-4826-9fef-1e3737ea31f4","system_id":"levelo_inurba_marseille","lat":43.2695,"lon":5.38642,"is_reserved":false,"is_disabled":false,"rental_uris":{"android":"levelo://app?vid=0c1e9825-4b68-4826-9fef-1e3737ea31f4","ios":"levelo://app?vid=0c1e9825-4b68-4826-9fef-1e3737ea31f4"},"vehicle_type_id":"4","last_reported":1756203131,"current_range_meters":16800,"station_id":"ce4bhh92rcd13ifvqfh0","pricing_plan_id":"cebpf4jnsgd1na2vs0mg"},{"bike_id":"fd0d17b8-25ae-4ac8-9d67-05955a2b3e59","system_id":"levelo_inurba_marseille","lat":43.28266,"lon":5.35078,"is_reserved":false,"is_disabled":false,"rental_uris":{"android":"levelo://app?vid=fd0d17b8-25ae-4ac8-9d67-05955a2b3e59","ios":"levelo://app?vid=fd0d17b8-25ae-4ac8-9d67-05955a2b3e59"},"vehicle_type_id":"4","last_reported":1756203131,"current_range_meters":16800,"station_id":"ce4bhbp2rcd13ifvqerg","pricing_plan_id":"cebpf4jnsgd1na2vs0mg"},{"bike_id":"af744081-2681-4d1e-9525-a9843cca33d2","system_id":"levelo_inurba_marseille","lat":43.32527,"lon":5.3649,"is_reserved":false,"is_disabled":false,"rental_uris":{"android":"levelo://app?vid=af744081-2681-4d1e-9525-a9843cca33d2","ios":"levelo://app?vid=af744081-2681-4d1e-9525-a9843cca33d2"},"vehicle_type_id":"4","last_reported":1756203131,"current_range_meters":16800,"station_id":"","pricing_plan_id":"cebpf4jnsgd1na2vs0mg"},{"bike_id":"ab8f50b5-a0e2-45d0-95fc-b2c911cf9254","system_id":"levelo_inurba_marseille","lat":43.2679,"lon":5.39408,"is_reserved":false,"is_disabled":false,"rental_uris":{"android":"levelo://app?vid=ab8f50b5-a0e2-45d0-95fc-b2c911cf9254","ios":"levelo://app?vid=ab8f50b5-a0e2-45d0-95fc-b2c911cf9254"},"vehicle_type_id":"4","last_reported":1756203131,"current_range_meters":18000,"station_id":"ce4bhh12rcd13ifvqfg0","pricing_plan_id":"cebpf4jnsgd1na2vs0mg"},{"bike_id":"c6ef2a91-302a-4379-99e8-b1435be1f8dd","system_id":"levelo_inurba_marseille","lat":43.30878,"lon":5.39658,"is_reserved":false,"is_disabled":false,"rental_uris":{"android":"levelo://app?vid=c6ef2a91-302a-4379-99e8-b1435be1f8dd","ios":"levelo://app?vid=c6ef2a91-302a-4379-99e8-b1435be1f8dd"},"vehicle_type_id":"4","last_reported":1756203131,"current_range_meters":17200,"station_id":"ce4bh012rcd13ifvqcv0","pricing_plan_id":"cebpf4jnsgd1na2vs0mg"},{"bike_id":"1c629e24-c639-49bc-8947-341df2bb10d4","system_id":"levelo_inurba_marseille","lat":43.29013,"lon":5.38141,"is_reserved":false,"is_disabled":false,"rental_uris":{"android":"levelo://app?vid=1c629e24-c639-49bc-8947-341df2bb10d4","ios":"levelo://app?vid=1c629e24-c639-49bc-8947-341df2bb10d4"},"vehicle_type_id":"4","last_reported":1756203131,"current_range_meters":16800,"station_id":"ce4bh4p2rcd13ifvqe1g","pricing_plan_id":"cebpf4jnsgd1na2vs0mg"},{"bike_id":"070c5c08-8102-4233-9aa2-6dc44cc7988e","system_id":"levelo_inurba_marseille","lat":43.30285,"lon":5.38408,"is_reserved":false,"is_disabled":false,"rental_uris":{"android":"levelo://app?vid=070c5c08-8102-4233-9aa2-6dc44cc7988e","ios":"levelo://app?vid=070c5c08-8102-4233-9aa2-6dc44cc7988e"},"vehicle_type_id":"4","last_reported":1756203131,"current_range_meters":17200,"station_id":"","pricing_plan_id":"cebpf4jnsgd1na2vs0mg"},{"bike_id":"4fc0d636-130b-4784-b54f-8e669b16fbd9","system_id":"levelo_inurba_marseille","lat":43.32486,"lon":5.3656,"is_reserved":false,"is_disabled":false,"rental_uris":{"android":"levelo://app?vid=4fc0d636-130b-4784-b54f-8e669b16fbd9","ios":"levelo://app?vid=4fc0d636-130b-4784-b54f-8e669b16fbd9"},"vehicle_type_id":"4","last_reported":1756203131,"current_range_meters":17200,"station_id":"ce4bhs12rcd13ifvqhvg","pricing_plan_id":"cebpf4jnsgd1na2vs0mg"},{"bike_id":"1f8abda0-b398-458e-b1d4-8f630b737e5e","system_id":"levelo_inurba_marseille","lat":43.257237,"lon":5.411177,"is_reserved":false,"is_disabled":false,"rental_uris":{"android":"levelo://app?vid=1f8abda0-b398-458e-b1d4-8f630b737e5e","ios":"levelo://app?vid=1f8abda0-b398-458e-b1d4-8f630b737e5e"},"vehicle_type_id":"4","last_reported":1756203131,"current_range_meters":17200,"station_id":"ce4bhkp2rcd13ifvqgd0","pricing_plan_id":"cebpf4jnsgd1na2vs0mg"},{"bike_id":"80e85dd1-4c23-41ef-bb24-2b8de14aaf1f","system_id":"levelo_inurba_marseille","lat":43.26544,"lon":5.37316,"is_reserved":false,"is_disabled":false,"rental_uris":{"android":"levelo://app?vid=80e85dd1-4c23-41ef-bb24-2b8de14aaf1f","ios":"levelo://app?vid=80e85dd1-4c23-41ef-bb24-2b8de14aaf1f"},"vehicle_type_id":"4","last_reported":1756203131,"current_range_meters":17200,"station_id":"ce4bhg12rcd13ifvqf70","pricing_plan_id":"cebpf4jnsgd1na2vs0mg"},{"bike_id":"0ef030ff-10c9-4f1e-9e70-19a552511a56","system_id":"levelo_inurba_marseille","lat":43.304596,"lon":5.379125,"is_reserved":false,"is_disabled":false,"rental_uris":{"android":"levelo://app?vid=0ef030ff-10c9-4f1e-9e70-19a552511a56","ios":"levelo://app?vid=0ef030ff-10c9-4f1e-9e70-19a552511a56"},"vehicle_type_id":"4","last_reported":1756203131,"current_range_meters":16800,"station_id":"ce4bgup2rcd13ifvqcn0","pricing_plan_id":"cebpf4jnsgd1na2vs0mg"},{"bike_id":"f20d33e7-7322-492b-a458-228c763f42cf","system_id":"levelo_inurba_marseille","lat":43.2841,"lon":5.34982,"is_reserved":false,"is_disabled":false,"rental_uris":{"android":"levelo://app?vid=f20d33e7-7322-492b-a458-228c763f42cf","ios":"levelo://app?vid=f20d33e7-7322-492b-a458-228c763f42cf"},"vehicle_type_id":"4","last_reported":1756203131,"current_range_meters":17200,"station_id":"ce4bhbh2rcd13ifvqepg","pricing_plan_id":"cebpf4jnsgd1na2vs0mg"},{"bike_id":"fc71a6e8-3e80-4206-845f-bdc84b652473","system_id":"levelo_inurba_marseille","lat":43.29685,"lon":5.37308,"is_reserved":false,"is_disabled":false,"rental_uris":{"android":"levelo://app?vid=fc71a6e8-3e80-4206-845f-bdc84b652473","ios":"levelo://app?vid=fc71a6e8-3e80-4206-845f-bdc84b652473"},"vehicle_type_id":"4","last_reported":1756203131,"current_range_meters":17200,"station_id":"ce4bgk12rcd13ifvqbj0","pricing_plan_id":"cebpf4jnsgd1na2vs0mg"},{"bike_id":"8c5907a3-ee80-4821-a7f8-82ac1417cc1c","system_id":"levelo_inurba_marseille","lat":43.30536,"lon":5.36544,"is_reserved":false,"is_disabled":false,"rental_uris":{"android":"levelo://app?vid=8c5907a3-ee80-4821-a7f8-82ac1417cc1c","ios":"levelo://app?vid=8c5907a3-ee80-4821-a7f8-82ac1417cc1c"},"vehicle_type_id":"4","last_reported":1756203131,"current_range_meters":17200,"station_id":"ce4bgs12rcd13ifvqcag","pricing_plan_id":"cebpf4jnsgd1na2vs0mg"},{"bike_id":"a30d9dc8-3587-4727-92c7-3342534aaaa9","system_id":"levelo_inurba_marseille","lat":43.243921,"lon":5.370601,"is_reserved":false,"is_disabled":false,"rental_uris":{"android":"levelo://app?vid=a30d9dc8-3587-4727-92c7-3342534aaaa9","ios":"levelo://app?vid=a30d9dc8-3587-4727-92c7-3342534aaaa9"},"vehicle_type_id":"4","last_reported":1756203131,"current_range_meters":17600,"station_id":"ce4bhhh2rcd13ifvqfk0","pricing_plan_id":"cebpf4jnsgd1na2vs0mg"},{"bike_id":"c6ba7f4a-bb96-4ec2-9faa-495b79ff7b59","system_id":"levelo_inurba_marseille","lat":43.31223,"lon":5.36856,"is_reserved":false,"is_disabled":false,"rental_uris":{"android":"levelo://app?vid=c6ba7f4a-bb96-4ec2-9faa-495b79ff7b59","ios":"levelo://app?vid=c6ba7f4a-bb96-4ec2-9faa-495b79ff7b59"},"vehicle_type_id":"4","last_reported":1756203131,"current_range_meters":18000,"station_id":"ce4bgl92rcd13ifvqbq0","pricing_plan_id":"cebpf4jnsgd1na2vs0mg"},{"bike_id":"7574a184-e163-435b-be50-4d80b1f9f304","system_id":"levelo_inurba_marseille","lat":43.24167,"lon":5.36391,"is_reserved":false,"is_disabled":false,"rental_uris":{"android":"levelo://app?vid=7574a184-e163-435b-be50-4d80b1f9f304","ios":"levelo://app?vid=7574a184-e163-435b-be50-4d80b1f9f304"},"vehicle_type_id":"4","last_reported":1756203131,"current_range_meters":18000,"station_id":"cpo36qri1sfpv3e86is0","pricing_plan_id":"cebpf4jnsgd1na2vs0mg"},{"bike_id":"11a73b22-493c-4ae8-b36e-76917aa24c9d","system_id":"levelo_inurba_marseille","lat":43.284831,"lon":5.385655,"is_reserved":false,"is_disabled":false,"rental_uris":{"android":"levelo://app?vid=11a73b22-493c-4ae8-b36e-76917aa24c9d","ios":"levelo://app?vid=11a73b22-493c-4ae8-b36e-76917aa24c9d"},"vehicle_type_id":"4","last_reported":1756203131,"current_range_meters":18800,"station_id":"ce4bh8p2rcd13ifvqeb0","pricing_plan_id":"cebpf4jnsgd1na2vs0mg"},{"bike_id":"fd0865b3-af49-4c3e-86f4-49934bd2d289","system_id":"levelo_inurba_marseille","lat":43.29675,"lon":5.36631,"is_reserved":false,"is_disabled":true,"rental_uris":{"android":"levelo://app?vid=fd0865b3-af49-4c3e-86f4-49934bd2d289","ios":"levelo://app?vid=fd0865b3-af49-4c3e-86f4-49934bd2d289"},"vehicle_type_id":"4","last_reported":1756203131,"current_range_meters":18800,"station_id":"ce4bgn12rcd13ifvqbt0","pricing_plan_id":"cebpf4jnsgd1na2vs0mg"},{"bike_id":"d5edd176-dc20-48cc-aea0-c4b4119653a3","system_id":"levelo_inurba_marseille","lat":43.28406,"lon":5.35003,"is_reserved":false,"is_disabled":false,"rental_uris":{"android":"levelo://app?vid=d5edd176-dc20-48cc-aea0-c4b4119653a3","ios":"levelo://app?vid=d5edd176-dc20-48cc-aea0-c4b4119653a3"},"vehicle_type_id":"4","last_reported":1756203131,"current_range_meters":18800,"station_id":"ce4bhbh2rcd13ifvqepg","pricing_plan_id":"cebpf4jnsgd1na2vs0mg"},{"bike_id":"3dff11d5-3872-4ffe-8cce-b5631d6c6058","system_id":"levelo_inurba_marseille","lat":43.32694,"lon":5.39222,"is_reserved":false,"is_disabled":false,"rental_uris":{"android":"levelo://app?vid=3dff11d5-3872-4ffe-8cce-b5631d6c6058","ios":"levelo://app?vid=3dff11d5-3872-4ffe-8cce-b5631d6c6058"},"vehicle_type_id":"4","last_reported":1756203131,"current_range_meters":18800,"station_id":"","pricing_plan_id":"cebpf4jnsgd1na2vs0mg"},{"bike_id":"210b214a-604a-4776-8072-ff9a42cfd5e2","system_id":"levelo_inurba_marseille","lat":43.27209,"lon":5.39185,"is_reserved":false,"is_disabled":false,"rental_uris":{"android":"levelo://app?vid=210b214a-604a-4776-8072-ff9a42cfd5e2","ios":"levelo://app?vid=210b214a-604a-4776-8072-ff9a42cfd5e2"},"vehicle_type_id":"4","last_reported":1756203131,"current_range_meters":18800,"station_id":"ce4bhhp2rcd13ifvqfm0","pricing_plan_id":"cebpf4jnsgd1na2vs0mg"},{"bike_id":"40c1fb45-9550-4904-9c4b-5647cd1299ba","system_id":"levelo_inurba_marseille","lat":43.21194,"lon":5.35078,"is_reserved":false,"is_disabled":false,"rental_uris":{"android":"levelo://app?vid=40c1fb45-9550-4904-9c4b-5647cd1299ba","ios":"levelo://app?vid=40c1fb45-9550-4904-9c4b-5647cd1299ba"},"vehicle_type_id":"4","last_reported":1756203131,"current_range_meters":19200,"station_id":"st_cvj6sg6p6f1abm77japg","pricing_plan_id":"cebpf4jnsgd1na2vs0mg"},{"bike_id":"248bf14d-378d-4e2f-9999-982acfdf56f9","system_id":"levelo_inurba_marseille","lat":43.284223,"lon":5.349873,"is_reserved":false,"is_disabled":false,"rental_uris":{"android":"levelo://app?vid=248bf14d-378d-4e2f-9999-982acfdf56f9","ios":"levelo://app?vid=248bf14d-378d-4e2f-9999-982acfdf56f9"},"vehicle_type_id":"4","last_reported":1756203131,"current_range_meters":19200,"station_id":"ce4bhbh2rcd13ifvqepg","pricing_plan_id":"cebpf4jnsgd1na2vs0mg"},{"bike_id":"900bbe11-ef93-430f-98d2-d72b420655c0","system_id":"levelo_inurba_marseille","lat":43.30462,"lon":5.37894,"is_reserved":false,"is_disabled":false,"rental_uris":{"android":"levelo://app?vid=900bbe11-ef93-430f-98d2-d72b420655c0","ios":"levelo://app?vid=900bbe11-ef93-430f-98d2-d72b420655c0"},"vehicle_type_id":"4","last_reported":1756203131,"current_range_meters":19200,"station_id":"ce4bgup2rcd13ifvqcn0","pricing_plan_id":"cebpf4jnsgd1na2vs0mg"},{"bike_id":"abaf99ca-5823-4460-ba5c-ff01280743d0","system_id":"levelo_inurba_marseille","lat":43.27062,"lon":5.42273,"is_reserved":false,"is_disabled":false,"rental_uris":{"android":"levelo://app?vid=abaf99ca-5823-4460-ba5c-ff01280743d0","ios":"levelo://app?vid=abaf99ca-5823-4460-ba5c-ff01280743d0"},"vehicle_type_id":"4","last_reported":1756203131,"current_range_meters":19200,"station_id":"ce4bhk92rcd13ifvqgb0","pricing_plan_id":"cebpf4jnsgd1na2vs0mg"},{"bike_id":"4dd066a3-5039-4c08-96e4-92ee4cbb306d","system_id":"levelo_inurba_marseille","lat":43.23187,"lon":5.35553,"is_reserved":false,"is_disabled":false,"rental_uris":{"android":"levelo://app?vid=4dd066a3-5039-4c08-96e4-92ee4cbb306d","ios":"levelo://app?vid=4dd066a3-5039-4c08-96e4-92ee4cbb306d"},"vehicle_type_id":"4","last_reported":1756203131,"current_range_meters":19200,"station_id":"ce4bhu92rcd13ifvqi70","pricing_plan_id":"cebpf4jnsgd1na2vs0mg"},{"bike_id":"4e9e705b-7667-42c6-adf5-4a09a858987f","system_id":"levelo_inurba_marseille","lat":43.211928,"lon":5.350734,"is_reserved":false,"is_disabled":false,"rental_uris":{"android":"levelo://app?vid=4e9e705b-7667-42c6-adf5-4a09a858987f","ios":"levelo://app?vid=4e9e705b-7667-42c6-adf5-4a09a858987f"},"vehicle_type_id":"4","last_reported":1756203131,"current_range_meters":19200,"station_id":"","pricing_plan_id":"cebpf4jnsgd1na2vs0mg"},{"bike_id":"a0b9bdcf-f094-46cf-909f-0d75d9bbbee6","system_id":"levelo_inurba_marseille","lat":43.29097,"lon":5.38139,"is_reserved":false,"is_disabled":false,"rental_uris":{"android":"levelo://app?vid=a0b9bdcf-f094-46cf-909f-0d75d9bbbee6","ios":"levelo://app?vid=a0b9bdcf-f094-46cf-909f-0d75d9bbbee6"},"vehicle_type_id":"4","last_reported":1756203131,"current_range_meters":19200,"station_id":"ce4bh512rcd13ifvqe2g","pricing_plan_id":"cebpf4jnsgd1na2vs0mg"},{"bike_id":"3efd5b4c-544b-47ae-b771-88c8225668bb","system_id":"levelo_inurba_marseille","lat":43.24167,"lon":5.36403,"is_reserved":false,"is_disabled":false,"rental_uris":{"android":"levelo://app?vid=3efd5b4c-544b-47ae-b771-88c8225668bb","ios":"levelo://app?vid=3efd5b4c-544b-47ae-b771-88c8225668bb"},"vehicle_type_id":"4","last_reported":1756203131,"current_range_meters":19600,"station_id":"cpo36qri1sfpv3e86is0","pricing_plan_id":"cebpf4jnsgd1na2vs0mg"},{"bike_id":"67c3b2b5-f8d4-4e0b-b236-025fa705e9f4","system_id":"levelo_inurba_marseille","lat":43.24387,"lon":5.37057,"is_reserved":false,"is_disabled":false,"rental_uris":{"android":"levelo://app?vid=67c3b2b5-f8d4-4e0b-b236-025fa705e9f4","ios":"levelo://app?vid=67c3b2b5-f8d4-4e0b-b236-025fa705e9f4"},"vehicle_type_id":"4","last_reported":1756203131,"current_range_meters":19600,"station_id":"ce4bhhh2rcd13ifvqfk0","pricing_plan_id":"cebpf4jnsgd1na2vs0mg"},{"bike_id":"e5eabf25-4e1c-476e-b130-9f83cdcfc80c","system_id":"levelo_inurba_marseille","lat":43.298137,"lon":5.417216,"is_reserved":false,"is_disabled":false,"rental_uris":{"android":"levelo://app?vid=e5eabf25-4e1c-476e-b130-9f83cdcfc80c","ios":"levelo://app?vid=e5eabf25-4e1c-476e-b130-9f83cdcfc80c"},"vehicle_type_id":"4","last_reported":1756203131,"current_range_meters":19600,"station_id":"","pricing_plan_id":"cebpf4jnsgd1na2vs0mg"},{"bike_id":"fbf0e9b4-0244-4455-89e8-bb336b1646cf","system_id":"levelo_inurba_marseille","lat":43.23191,"lon":5.39992,"is_reserved":false,"is_disabled":false,"rental_uris":{"android":"levelo://app?vid=fbf0e9b4-0244-4455-89e8-bb336b1646cf","ios":"levelo://app?vid=fbf0e9b4-0244-4455-89e8-bb336b1646cf"},"vehicle_type_id":"4","last_reported":1756203131,"current_range_meters":19600,"station_id":"ce4bhn12rcd13ifvqgqg","pricing_plan_id":"cebpf4jnsgd1na2vs0mg"},{"bike_id":"2e15eb2a-29a5-458c-b1e7-35e0d403e0d0","system_id":"levelo_inurba_marseille","lat":43.217449,"lon":5.346024,"is_reserved":false,"is_disabled":false,"rental_uris":{"android":"levelo://app?vid=2e15eb2a-29a5-458c-b1e7-35e0d403e0d0","ios":"levelo://app?vid=2e15eb2a-29a5-458c-b1e7-35e0d403e0d0"},"vehicle_type_id":"4","last_reported":1756203131,"current_range_meters":19600,"station_id":"st_cvj6r9ubvosntc0bgbag","pricing_plan_id":"cebpf4jnsgd1na2vs0mg"},{"bike_id":"eb43fbbe-eeda-4587-885e-53c2803804df","system_id":"levelo_inurba_marseille","lat":43.284162,"lon":5.349905,"is_reserved":false,"is_disabled":false,"rental_uris":{"android":"levelo://app?vid=eb43fbbe-eeda-4587-885e-53c2803804df","ios":"levelo://app?vid=eb43fbbe-eeda-4587-885e-53c2803804df"},"vehicle_type_id":"4","last_reported":1756203131,"current_range_meters":19600,"station_id":"ce4bhbh2rcd13ifvqepg","pricing_plan_id":"cebpf4jnsgd1na2vs0mg"},{"bike_id":"e72f1034-bdfb-40ef-8e3d-78ba48657b4a","system_id":"levelo_inurba_marseille","lat":43.28001,"lon":5.40017,"is_reserved":false,"is_disabled":false,"rental_uris":{"android":"levelo://app?vid=e72f1034-bdfb-40ef-8e3d-78ba48657b4a","ios":"levelo://app?vid=e72f1034-bdfb-40ef-8e3d-78ba48657b4a"},"vehicle_type_id":"4","last_reported":1756203131,"current_range_meters":19600,"station_id":"ce4bho92rcd13ifvqh4g","pricing_plan_id":"cebpf4jnsgd1na2vs0mg"},{"bike_id":"ea8195ce-fa26-4c79-b0d3-38aa3f0c9ccc","system_id":"levelo_inurba_marseille","lat":43.27215,"lon":5.3918,"is_reserved":false,"is_disabled":false,"rental_uris":{"android":"levelo://app?vid=ea8195ce-fa26-4c79-b0d3-38aa3f0c9ccc","ios":"levelo://app?vid=ea8195ce-fa26-4c79-b0d3-38aa3f0c9ccc"},"vehicle_type_id":"4","last_reported":1756203131,"current_range_meters":20000,"station_id":"ce4bhhp2rcd13ifvqfm0","pricing_plan_id":"cebpf4jnsgd1na2vs0mg"},{"bike_id":"5c26a54e-1e97-4ad3-a16d-614ad930b130","system_id":"levelo_inurba_marseille","lat":43.321022,"lon":5.367745,"is_reserved":false,"is_disabled":false,"rental_uris":{"android":"levelo://app?vid=5c26a54e-1e97-4ad3-a16d-614ad930b130","ios":"levelo://app?vid=5c26a54e-1e97-4ad3-a16d-614ad930b130"},"vehicle_type_id":"4","last_reported":1756203131,"current_range_meters":20000,"station_id":"ce4bhrh2rcd13ifvqhug","pricing_plan_id":"cebpf4jnsgd1na2vs0mg"},{"bike_id":"0f8868c6-fcd1-4ebf-8dba-f3e4ed9bfeb3","system_id":"levelo_inurba_marseille","lat":43.30931,"lon":5.40138,"is_reserved":false,"is_disabled":false,"rental_uris":{"android":"levelo://app?vid=0f8868c6-fcd1-4ebf-8dba-f3e4ed9bfeb3","ios":"levelo://app?vid=0f8868c6-fcd1-4ebf-8dba-f3e4ed9bfeb3"},"vehicle_type_id":"4","last_reported":1756203131,"current_range_meters":20000,"station_id":"ce4bgvp2rcd13ifvqct0","pricing_plan_id":"cebpf4jnsgd1na2vs0mg"},{"bike_id":"2b7c0331-aaba-4c2f-bb76-d9c6226406a9","system_id":"levelo_inurba_marseille","lat":43.27569,"lon":5.38425,"is_reserved":false,"is_disabled":false,"rental_uris":{"android":"levelo://app?vid=2b7c0331-aaba-4c2f-bb76-d9c6226406a9","ios":"levelo://app?vid=2b7c0331-aaba-4c2f-bb76-d9c6226406a9"},"vehicle_type_id":"4","last_reported":1756203131,"current_range_meters":18000,"station_id":"ce4bhh92rcd13ifvqfi0","pricing_plan_id":"cebpf4jnsgd1na2vs0mg"},{"bike_id":"3115c199-1541-45cb-a98a-f6ff5bbd4b1f","system_id":"levelo_inurba_marseille","lat":43.3079,"lon":5.36984,"is_reserved":false,"is_disabled":false,"rental_uris":{"android":"levelo://app?vid=3115c199-1541-45cb-a98a-f6ff5bbd4b1f","ios":"levelo://app?vid=3115c199-1541-45cb-a98a-f6ff5bbd4b1f"},"vehicle_type_id":"4","last_reported":1756203131,"current_range_meters":20000,"station_id":"","pricing_plan_id":"cebpf4jnsgd1na2vs0mg"},{"bike_id":"a9d83b21-9821-4029-bb59-40c830188146","system_id":"levelo_inurba_marseille","lat":43.32368,"lon":5.3676,"is_reserved":false,"is_disabled":false,"rental_uris":{"android":"levelo://app?vid=a9d83b21-9821-4029-bb59-40c830188146","ios":"levelo://app?vid=a9d83b21-9821-4029-bb59-40c830188146"},"vehicle_type_id":"4","last_reported":1756203131,"current_range_meters":20000,"station_id":"ce4bhsh2rcd13ifvqi2g","pricing_plan_id":"cebpf4jnsgd1na2vs0mg"},{"bike_id":"22ce1947-4063-4c1e-ba33-9f8238f8bf45","system_id":"levelo_inurba_marseille","lat":43.32288,"lon":5.38279,"is_reserved":false,"is_disabled":false,"rental_uris":{"android":"levelo://app?vid=22ce1947-4063-4c1e-ba33-9f8238f8bf45","ios":"levelo://app?vid=22ce1947-4063-4c1e-ba33-9f8238f8bf45"},"vehicle_type_id":"4","last_reported":1756203131,"current_range_meters":19600,"station_id":"ce4bhr12rcd13ifvqhqg","pricing_plan_id":"cebpf4jnsgd1na2vs0mg"},{"bike_id":"f67c8e5e-7af8-4847-a4ce-1e12088b4291","system_id":"levelo_inurba_marseille","lat":43.3251,"lon":5.36874,"is_reserved":false,"is_disabled":false,"rental_uris":{"android":"levelo://app?vid=f67c8e5e-7af8-4847-a4ce-1e12088b4291","ios":"levelo://app?vid=f67c8e5e-7af8-4847-a4ce-1e12088b4291"},"vehicle_type_id":"4","last_reported":1756203131,"current_range_meters":20000,"station_id":"","pricing_plan_id":"cebpf4jnsgd1na2vs0mg"},{"bike_id":"f8fec405-e7fb-4d9c-8dcf-bfa8ed96f666","system_id":"levelo_inurba_marseille","lat":43.21191,"lon":5.35073,"is_reserved":false,"is_disabled":false,"rental_uris":{"android":"levelo://app?vid=f8fec405-e7fb-4d9c-8dcf-bfa8ed96f666","ios":"levelo://app?vid=f8fec405-e7fb-4d9c-8dcf-bfa8ed96f666"},"vehicle_type_id":"4","last_reported":1756203131,"current_range_meters":20000,"station_id":"st_cvj6sg6p6f1abm77japg","pricing_plan_id":"cebpf4jnsgd1na2vs0mg"},{"bike_id":"ea3f0e70-58f7-4c4e-9a18-402a5de5f326","system_id":"levelo_inurba_marseille","lat":43.31196,"lon":5.3682,"is_reserved":false,"is_disabled":false,"rental_uris":{"android":"levelo://app?vid=ea3f0e70-58f7-4c4e-9a18-402a5de5f326","ios":"levelo://app?vid=ea3f0e70-58f7-4c4e-9a18-402a5de5f326"},"vehicle_type_id":"4","last_reported":1756203131,"current_range_meters":20000,"station_id":"ce4bgl92rcd13ifvqbq0","pricing_plan_id":"cebpf4jnsgd1na2vs0mg"},{"bike_id":"fec3738c-a6ee-4b10-8e51-25febf52437e","system_id":"levelo_inurba_marseille","lat":43.31361,"lon":5.36752,"is_reserved":false,"is_disabled":false,"rental_uris":{"android":"levelo://app?vid=fec3738c-a6ee-4b10-8e51-25febf52437e","ios":"levelo://app?vid=fec3738c-a6ee-4b10-8e51-25febf52437e"},"vehicle_type_id":"4","last_reported":1756203131,"current_range_meters":20000,"station_id":"ce4bgr92rcd13ifvqc6g","pricing_plan_id":"cebpf4jnsgd1na2vs0mg"},{"bike_id":"70573650-9cf4-4bd3-81cb-ccd1ff54a0ac","system_id":"levelo_inurba_marseille","lat":43.26219,"lon":5.37418,"is_reserved":false,"is_disabled":false,"rental_uris":{"android":"levelo://app?vid=70573650-9cf4-4bd3-81cb-ccd1ff54a0ac","ios":"levelo://app?vid=70573650-9cf4-4bd3-81cb-ccd1ff54a0ac"},"vehicle_type_id":"4","last_reported":1756203131,"current_range_meters":20000,"station_id":"","pricing_plan_id":"cebpf4jnsgd1na2vs0mg"},{"bike_id":"0dfd991b-4ec1-4a54-b2fb-14786d8ab31f","system_id":"levelo_inurba_marseille","lat":43.284817,"lon":5.385658,"is_reserved":false,"is_disabled":false,"rental_uris":{"android":"levelo://app?vid=0dfd991b-4ec1-4a54-b2fb-14786d8ab31f","ios":"levelo://app?vid=0dfd991b-4ec1-4a54-b2fb-14786d8ab31f"},"vehicle_type_id":"4","last_reported":1756203131,"current_range_meters":20000,"station_id":"ce4bh8p2rcd13ifvqeb0","pricing_plan_id":"cebpf4jnsgd1na2vs0mg"},{"bike_id":"5557189e-4d8c-412b-8888-94db0ea051a7","system_id":"levelo_inurba_marseille","lat":43.33782,"lon":5.37452,"is_reserved":false,"is_disabled":false,"rental_uris":{"android":"levelo://app?vid=5557189e-4d8c-412b-8888-94db0ea051a7","ios":"levelo://app?vid=5557189e-4d8c-412b-8888-94db0ea051a7"},"vehicle_type_id":"4","last_reported":1756203131,"current_range_meters":20000,"station_id":"","pricing_plan_id":"cebpf4jnsgd1na2vs0mg"},{"bike_id":"b17e9630-4e67-4e4a-bb95-0a4f7773f222","system_id":"levelo_inurba_marseille","lat":43.29645,"lon":5.37619,"is_reserved":false,"is_disabled":false,"rental_uris":{"android":"levelo://app?vid=b17e9630-4e67-4e4a-bb95-0a4f7773f222","ios":"levelo://app?vid=b17e9630-4e67-4e4a-bb95-0a4f7773f222"},"vehicle_type_id":"4","last_reported":1756203131,"current_range_meters":20000,"station_id":"","pricing_plan_id":"cebpf4jnsgd1na2vs0mg"},{"bike_id":"84ba8b0b-6d6a-4919-9e45-3a5593232fd2","system_id":"levelo_inurba_marseille","lat":43.2417,"lon":5.36395,"is_reserved":false,"is_disabled":false,"rental_uris":{"android":"levelo://app?vid=84ba8b0b-6d6a-4919-9e45-3a5593232fd2","ios":"levelo://app?vid=84ba8b0b-6d6a-4919-9e45-3a5593232fd2"},"vehicle_type_id":"4","last_reported":1756203131,"current_range_meters":20000,"station_id":"cpo36qri1sfpv3e86is0","pricing_plan_id":"cebpf4jnsgd1na2vs0mg"},{"bike_id":"7d802eb3-8055-4765-a5e9-6c32f6d7ebc7","system_id":"levelo_inurba_marseille","lat":43.23943,"lon":5.36637,"is_reserved":false,"is_disabled":false,"rental_uris":{"android":"levelo://app?vid=7d802eb3-8055-4765-a5e9-6c32f6d7ebc7","ios":"levelo://app?vid=7d802eb3-8055-4765-a5e9-6c32f6d7ebc7"},"vehicle_type_id":"4","last_reported":1756203131,"current_range_meters":20400,"station_id":"ce4bhi12rcd13ifvqfp0","pricing_plan_id":"cebpf4jnsgd1na2vs0mg"},{"bike_id":"5002ab8f-0c9d-4313-b523-fd24100199d7","system_id":"levelo_inurba_marseille","lat":43.32486,"lon":5.36586,"is_reserved":false,"is_disabled":false,"rental_uris":{"android":"levelo://app?vid=5002ab8f-0c9d-4313-b523-fd24100199d7","ios":"levelo://app?vid=5002ab8f-0c9d-4313-b523-fd24100199d7"},"vehicle_type_id":"4","last_reported":1756203131,"current_range_meters":20400,"station_id":"ce4bhs12rcd13ifvqhvg","pricing_plan_id":"cebpf4jnsgd1na2vs0mg"},{"bike_id":"27ed6ef4-212c-4a1d-8bee-f1ac9a3f11b9","system_id":"levelo_inurba_marseille","lat":43.2737,"lon":5.36263,"is_reserved":false,"is_disabled":false,"rental_uris":{"android":"levelo://app?vid=27ed6ef4-212c-4a1d-8bee-f1ac9a3f11b9","ios":"levelo://app?vid=27ed6ef4-212c-4a1d-8bee-f1ac9a3f11b9"},"vehicle_type_id":"4","last_reported":1756203131,"current_range_meters":20400,"station_id":"ce4bhbh2rcd13ifvqeo0","pricing_plan_id":"cebpf4jnsgd1na2vs0mg"},{"bike_id":"71136ea1-3aaf-4521-8084-554abe261412","system_id":"levelo_inurba_marseille","lat":43.303037,"lon":5.369059,"is_reserved":false,"is_disabled":true,"rental_uris":{"android":"levelo://app?vid=71136ea1-3aaf-4521-8084-554abe261412","ios":"levelo://app?vid=71136ea1-3aaf-4521-8084-554abe261412"},"vehicle_type_id":"4","last_reported":1756203131,"current_range_meters":20400,"station_id":"","pricing_plan_id":"cebpf4jnsgd1na2vs0mg"},{"bike_id":"808441c7-d7fb-4687-8e45-b53778e3b9d0","system_id":"levelo_inurba_marseille","lat":43.29552,"lon":5.42293,"is_reserved":false,"is_disabled":false,"rental_uris":{"android":"levelo://app?vid=808441c7-d7fb-4687-8e45-b53778e3b9d0","ios":"levelo://app?vid=808441c7-d7fb-4687-8e45-b53778e3b9d0"},"vehicle_type_id":"4","last_reported":1756203131,"current_range_meters":20400,"station_id":"ce4bhph2rcd13ifvqhdg","pricing_plan_id":"cebpf4jnsgd1na2vs0mg"},{"bike_id":"d2ab2fa5-68a1-46f6-8c98-59b00c0f5258","system_id":"levelo_inurba_marseille","lat":43.29226,"lon":5.36071,"is_reserved":false,"is_disabled":false,"rental_uris":{"android":"levelo://app?vid=d2ab2fa5-68a1-46f6-8c98-59b00c0f5258","ios":"levelo://app?vid=d2ab2fa5-68a1-46f6-8c98-59b00c0f5258"},"vehicle_type_id":"4","last_reported":1756203131,"current_range_meters":20400,"station_id":"ce4bhbh2rcd13ifvqeqg","pricing_plan_id":"cebpf4jnsgd1na2vs0mg"},{"bike_id":"c561b3be-23f4-46ed-8d38-1fc2450f503d","system_id":"levelo_inurba_marseille","lat":43.23649,"lon":5.36229,"is_reserved":false,"is_disabled":false,"rental_uris":{"android":"levelo://app?vid=c561b3be-23f4-46ed-8d38-1fc2450f503d","ios":"levelo://app?vid=c561b3be-23f4-46ed-8d38-1fc2450f503d"},"vehicle_type_id":"4","last_reported":1756203131,"current_range_meters":20400,"station_id":"","pricing_plan_id":"cebpf4jnsgd1na2vs0mg"},{"bike_id":"5ae0b730-282c-47e7-ad5d-6c44221d9fc5","system_id":"levelo_inurba_marseille","lat":43.28616,"lon":5.35106,"is_reserved":false,"is_disabled":false,"rental_uris":{"android":"levelo://app?vid=5ae0b730-282c-47e7-ad5d-6c44221d9fc5","ios":"levelo://app?vid=5ae0b730-282c-47e7-ad5d-6c44221d9fc5"},"vehicle_type_id":"4","last_reported":1756203131,"current_range_meters":20400,"station_id":"ce4bhch2rcd13ifvqeug","pricing_plan_id":"cebpf4jnsgd1na2vs0mg"},{"bike_id":"459f3c5b-caeb-4d46-a351-46b218540e0d","system_id":"levelo_inurba_marseille","lat":43.27197,"lon":5.40978,"is_reserved":false,"is_disabled":false,"rental_uris":{"android":"levelo://app?vid=459f3c5b-caeb-4d46-a351-46b218540e0d","ios":"levelo://app?vid=459f3c5b-caeb-4d46-a351-46b218540e0d"},"vehicle_type_id":"4","last_reported":1756203131,"current_range_meters":20400,"station_id":"ce4bhl12rcd13ifvqgf0","pricing_plan_id":"cebpf4jnsgd1na2vs0mg"},{"bike_id":"eb599440-6f2c-49c6-9d40-9082e15345a9","system_id":"levelo_inurba_marseille","lat":43.28615,"lon":5.35105,"is_reserved":false,"is_disabled":false,"rental_uris":{"android":"levelo://app?vid=eb599440-6f2c-49c6-9d40-9082e15345a9","ios":"levelo://app?vid=eb599440-6f2c-49c6-9d40-9082e15345a9"},"vehicle_type_id":"4","last_reported":1756203131,"current_range_meters":20800,"station_id":"ce4bhch2rcd13ifvqeug","pricing_plan_id":"cebpf4jnsgd1na2vs0mg"},{"bike_id":"dcde8d9e-f882-4230-a37f-7ddc04dac0e0","system_id":"levelo_inurba_marseille","lat":43.29927,"lon":5.37472,"is_reserved":false,"is_disabled":false,"rental_uris":{"android":"levelo://app?vid=dcde8d9e-f882-4230-a37f-7ddc04dac0e0","ios":"levelo://app?vid=dcde8d9e-f882-4230-a37f-7ddc04dac0e0"},"vehicle_type_id":"4","last_reported":1756203131,"current_range_meters":20800,"station_id":"ce4bgjh2rcd13ifvqbg0","pricing_plan_id":"cebpf4jnsgd1na2vs0mg"},{"bike_id":"3f9be686-da07-4cff-aa83-58ad7250b77b","system_id":"levelo_inurba_marseille","lat":43.28413,"lon":5.34994,"is_reserved":false,"is_disabled":false,"rental_uris":{"android":"levelo://app?vid=3f9be686-da07-4cff-aa83-58ad7250b77b","ios":"levelo://app?vid=3f9be686-da07-4cff-aa83-58ad7250b77b"},"vehicle_type_id":"4","last_reported":1756203131,"current_range_meters":20800,"station_id":"ce4bhbh2rcd13ifvqepg","pricing_plan_id":"cebpf4jnsgd1na2vs0mg"},{"bike_id":"f2cd7f15-518b-47ce-9446-f10b47349109","system_id":"levelo_inurba_marseille","lat":43.25491,"lon":5.37647,"is_reserved":false,"is_disabled":false,"rental_uris":{"android":"levelo://app?vid=f2cd7f15-518b-47ce-9446-f10b47349109","ios":"levelo://app?vid=f2cd7f15-518b-47ce-9446-f10b47349109"},"vehicle_type_id":"4","last_reported":1756203131,"current_range_meters":20800,"station_id":"ce4bhh12rcd13ifvqff0","pricing_plan_id":"cebpf4jnsgd1na2vs0mg"},{"bike_id":"a43818d8-5b6c-449f-8f83-88de3d3da543","system_id":"levelo_inurba_marseille","lat":43.2857,"lon":5.39495,"is_reserved":false,"is_disabled":false,"rental_uris":{"android":"levelo://app?vid=a43818d8-5b6c-449f-8f83-88de3d3da543","ios":"levelo://app?vid=a43818d8-5b6c-449f-8f83-88de3d3da543"},"vehicle_type_id":"4","last_reported":1756203131,"current_range_meters":20800,"station_id":"ce4bh292rcd13ifvqdg0","pricing_plan_id":"cebpf4jnsgd1na2vs0mg"},{"bike_id":"56549030-cc83-4b19-a3aa-2f805261aac3","system_id":"levelo_inurba_marseille","lat":43.27498,"lon":5.42446,"is_reserved":false,"is_disabled":false,"rental_uris":{"android":"levelo://app?vid=56549030-cc83-4b19-a3aa-2f805261aac3","ios":"levelo://app?vid=56549030-cc83-4b19-a3aa-2f805261aac3"},"vehicle_type_id":"4","last_reported":1756203131,"current_range_meters":20800,"station_id":"ce4bhn92rcd13ifvqgrg","pricing_plan_id":"cebpf4jnsgd1na2vs0mg"},{"bike_id":"25f4b77a-dec1-42dd-827a-ea3cfe136f79","system_id":"levelo_inurba_marseille","lat":43.29893,"lon":5.37473,"is_reserved":false,"is_disabled":false,"rental_uris":{"android":"levelo://app?vid=25f4b77a-dec1-42dd-827a-ea3cfe136f79","ios":"levelo://app?vid=25f4b77a-dec1-42dd-827a-ea3cfe136f79"},"vehicle_type_id":"4","last_reported":1756203131,"current_range_meters":20800,"station_id":"ce4bgjh2rcd13ifvqbg0","pricing_plan_id":"cebpf4jnsgd1na2vs0mg"},{"bike_id":"a8b9cad2-0019-4f70-b523-7d394f9ffda0","system_id":"levelo_inurba_marseille","lat":43.312602,"lon":5.368534,"is_reserved":false,"is_disabled":false,"rental_uris":{"android":"levelo://app?vid=a8b9cad2-0019-4f70-b523-7d394f9ffda0","ios":"levelo://app?vid=a8b9cad2-0019-4f70-b523-7d394f9ffda0"},"vehicle_type_id":"4","last_reported":1756203131,"current_range_meters":22000,"station_id":"ce4bgl92rcd13ifvqbq0","pricing_plan_id":"cebpf4jnsgd1na2vs0mg"},{"bike_id":"f8dc753e-c188-4ad9-abd2-e512924ce35e","system_id":"levelo_inurba_marseille","lat":43.23156,"lon":5.43724,"is_reserved":false,"is_disabled":false,"rental_uris":{"android":"levelo://app?vid=f8dc753e-c188-4ad9-abd2-e512924ce35e","ios":"levelo://app?vid=f8dc753e-c188-4ad9-abd2-e512924ce35e"},"vehicle_type_id":"4","last_reported":1756203131,"current_range_meters":21600,"station_id":"ce4bhmp2rcd13ifvqgog","pricing_plan_id":"cebpf4jnsgd1na2vs0mg"},{"bike_id":"ce350f98-d176-4650-8576-d643b6053e11","system_id":"levelo_inurba_marseille","lat":43.27206,"lon":5.39179,"is_reserved":false,"is_disabled":false,"rental_uris":{"android":"levelo://app?vid=ce350f98-d176-4650-8576-d643b6053e11","ios":"levelo://app?vid=ce350f98-d176-4650-8576-d643b6053e11"},"vehicle_type_id":"4","last_reported":1756203131,"current_range_meters":21600,"station_id":"ce4bhhp2rcd13ifvqfm0","pricing_plan_id":"cebpf4jnsgd1na2vs0mg"},{"bike_id":"0970f5f1-5ff8-4d13-9347-e6dc16a21b71","system_id":"levelo_inurba_marseille","lat":43.23152,"lon":5.43712,"is_reserved":false,"is_disabled":false,"rental_uris":{"android":"levelo://app?vid=0970f5f1-5ff8-4d13-9347-e6dc16a21b71","ios":"levelo://app?vid=0970f5f1-5ff8-4d13-9347-e6dc16a21b71"},"vehicle_type_id":"4","last_reported":1756203131,"current_range_meters":20800,"station_id":"ce4bhmp2rcd13ifvqgog","pricing_plan_id":"cebpf4jnsgd1na2vs0mg"},{"bike_id":"9f2bb7dc-bd4f-42d8-99ee-fec2cba10242","system_id":"levelo_inurba_marseille","lat":43.29932,"lon":5.38002,"is_reserved":false,"is_disabled":false,"rental_uris":{"android":"levelo://app?vid=9f2bb7dc-bd4f-42d8-99ee-fec2cba10242","ios":"levelo://app?vid=9f2bb7dc-bd4f-42d8-99ee-fec2cba10242"},"vehicle_type_id":"4","last_reported":1756203131,"current_range_meters":21600,"station_id":"","pricing_plan_id":"cebpf4jnsgd1na2vs0mg"},{"bike_id":"0b56a93b-e284-4698-9a80-9c054c2fc3c9","system_id":"levelo_inurba_marseille","lat":43.268069,"lon":5.390578,"is_reserved":false,"is_disabled":false,"rental_uris":{"android":"levelo://app?vid=0b56a93b-e284-4698-9a80-9c054c2fc3c9","ios":"levelo://app?vid=0b56a93b-e284-4698-9a80-9c054c2fc3c9"},"vehicle_type_id":"4","last_reported":1756203131,"current_range_meters":21600,"station_id":"","pricing_plan_id":"cebpf4jnsgd1na2vs0mg"},{"bike_id":"6227c0c1-141f-4170-ad30-a9be3fc37746","system_id":"levelo_inurba_marseille","lat":43.26191,"lon":5.37448,"is_reserved":false,"is_disabled":false,"rental_uris":{"android":"levelo://app?vid=6227c0c1-141f-4170-ad30-a9be3fc37746","ios":"levelo://app?vid=6227c0c1-141f-4170-ad30-a9be3fc37746"},"vehicle_type_id":"4","last_reported":1756203131,"current_range_meters":21600,"station_id":"ce4bhgp2rcd13ifvqfc0","pricing_plan_id":"cebpf4jnsgd1na2vs0mg"},{"bike_id":"ff8eca27-c3af-4b5f-a8ea-f625dcefbe2a","system_id":"levelo_inurba_marseille","lat":43.27441,"lon":5.39391,"is_reserved":false,"is_disabled":false,"rental_uris":{"android":"levelo://app?vid=ff8eca27-c3af-4b5f-a8ea-f625dcefbe2a","ios":"levelo://app?vid=ff8eca27-c3af-4b5f-a8ea-f625dcefbe2a"},"vehicle_type_id":"4","last_reported":1756203131,"current_range_meters":21600,"station_id":"ce4bhdp2rcd13ifvqf20","pricing_plan_id":"cebpf4jnsgd1na2vs0mg"},{"bike_id":"50bdb719-89cb-41fc-aa92-0f2bd4971dc2","system_id":"levelo_inurba_marseille","lat":43.29004,"lon":5.3561,"is_reserved":false,"is_disabled":false,"rental_uris":{"android":"levelo://app?vid=50bdb719-89cb-41fc-aa92-0f2bd4971dc2","ios":"levelo://app?vid=50bdb719-89cb-41fc-aa92-0f2bd4971dc2"},"vehicle_type_id":"4","last_reported":1756203131,"current_range_meters":21600,"station_id":"ce4bhb92rcd13ifvqen0","pricing_plan_id":"cebpf4jnsgd1na2vs0mg"},{"bike_id":"e564862f-31e7-4d3c-a6d9-15762769e435","system_id":"levelo_inurba_marseille","lat":43.2952,"lon":5.37534,"is_reserved":false,"is_disabled":true,"rental_uris":{"android":"levelo://app?vid=e564862f-31e7-4d3c-a6d9-15762769e435","ios":"levelo://app?vid=e564862f-31e7-4d3c-a6d9-15762769e435"},"vehicle_type_id":"4","last_reported":1756203131,"current_range_meters":21600,"station_id":"ce4bgkp2rcd13ifvqbmg","pricing_plan_id":"cebpf4jnsgd1na2vs0mg"},{"bike_id":"36036a36-829b-47c5-a8e3-74d91dc2970b","system_id":"levelo_inurba_marseille","lat":43.26219,"lon":5.37452,"is_reserved":false,"is_disabled":false,"rental_uris":{"android":"levelo://app?vid=36036a36-829b-47c5-a8e3-74d91dc2970b","ios":"levelo://app?vid=36036a36-829b-47c5-a8e3-74d91dc2970b"},"vehicle_type_id":"4","last_reported":1756203131,"current_range_meters":21600,"station_id":"ce4bhgp2rcd13ifvqfc0","pricing_plan_id":"cebpf4jnsgd1na2vs0mg"},{"bike_id":"bf3a85c1-7e1f-452c-8c2b-563a3906b4da","system_id":"levelo_inurba_marseille","lat":43.25912,"lon":5.40879,"is_reserved":false,"is_disabled":false,"rental_uris":{"android":"levelo://app?vid=bf3a85c1-7e1f-452c-8c2b-563a3906b4da","ios":"levelo://app?vid=bf3a85c1-7e1f-452c-8c2b-563a3906b4da"},"vehicle_type_id":"4","last_reported":1756203131,"current_range_meters":22000,"station_id":"ce4bhm92rcd13ifvqglg","pricing_plan_id":"cebpf4jnsgd1na2vs0mg"},{"bike_id":"bd4376ea-7d2d-4cf4-9dc1-caf98f82dced","system_id":"levelo_inurba_marseille","lat":43.3332,"lon":5.39747,"is_reserved":false,"is_disabled":false,"rental_uris":{"android":"levelo://app?vid=bd4376ea-7d2d-4cf4-9dc1-caf98f82dced","ios":"levelo://app?vid=bd4376ea-7d2d-4cf4-9dc1-caf98f82dced"},"vehicle_type_id":"4","last_reported":1756203131,"current_range_meters":22000,"station_id":"","pricing_plan_id":"cebpf4jnsgd1na2vs0mg"},{"bike_id":"f41112e9-aa22-4a4e-8da5-21c07780b294","system_id":"levelo_inurba_marseille","lat":43.24078,"lon":5.37748,"is_reserved":false,"is_disabled":false,"rental_uris":{"android":"levelo://app?vid=f41112e9-aa22-4a4e-8da5-21c07780b294","ios":"levelo://app?vid=f41112e9-aa22-4a4e-8da5-21c07780b294"},"vehicle_type_id":"4","last_reported":1756203131,"current_range_meters":22000,"station_id":"ce4bhnp2rcd13ifvqgvg","pricing_plan_id":"cebpf4jnsgd1na2vs0mg"},{"bike_id":"2be1f5b3-c908-41bb-a3d4-60efea6b3c4e","system_id":"levelo_inurba_marseille","lat":43.282647,"lon":5.350669,"is_reserved":false,"is_disabled":false,"rental_uris":{"android":"levelo://app?vid=2be1f5b3-c908-41bb-a3d4-60efea6b3c4e","ios":"levelo://app?vid=2be1f5b3-c908-41bb-a3d4-60efea6b3c4e"},"vehicle_type_id":"4","last_reported":1756203131,"current_range_meters":22000,"station_id":"ce4bhbp2rcd13ifvqerg","pricing_plan_id":"cebpf4jnsgd1na2vs0mg"},{"bike_id":"d810acf0-5bd2-4bf1-848d-31cd30d105e6","system_id":"levelo_inurba_marseille","lat":43.269831,"lon":5.392782,"is_reserved":false,"is_disabled":false,"rental_uris":{"android":"levelo://app?vid=d810acf0-5bd2-4bf1-848d-31cd30d105e6","ios":"levelo://app?vid=d810acf0-5bd2-4bf1-848d-31cd30d105e6"},"vehicle_type_id":"4","last_reported":1756203131,"current_range_meters":22000,"station_id":"","pricing_plan_id":"cebpf4jnsgd1na2vs0mg"},{"bike_id":"2cfebdd9-a4fd-4a0b-8705-31908abfc17f","system_id":"levelo_inurba_marseille","lat":43.290057,"lon":5.356157,"is_reserved":false,"is_disabled":false,"rental_uris":{"android":"levelo://app?vid=2cfebdd9-a4fd-4a0b-8705-31908abfc17f","ios":"levelo://app?vid=2cfebdd9-a4fd-4a0b-8705-31908abfc17f"},"vehicle_type_id":"4","last_reported":1756203131,"current_range_meters":22000,"station_id":"ce4bhb92rcd13ifvqen0","pricing_plan_id":"cebpf4jnsgd1na2vs0mg"},{"bike_id":"4c82beab-1cad-46f7-a8ca-eb8dcbd949ef","system_id":"levelo_inurba_marseille","lat":43.27577,"lon":5.39681,"is_reserved":false,"is_disabled":false,"rental_uris":{"android":"levelo://app?vid=4c82beab-1cad-46f7-a8ca-eb8dcbd949ef","ios":"levelo://app?vid=4c82beab-1cad-46f7-a8ca-eb8dcbd949ef"},"vehicle_type_id":"4","last_reported":1756203131,"current_range_meters":22000,"station_id":"","pricing_plan_id":"cebpf4jnsgd1na2vs0mg"},{"bike_id":"5db5e512-4551-4f59-9808-a87ad95d5eec","system_id":"levelo_inurba_marseille","lat":43.30878,"lon":5.37194,"is_reserved":false,"is_disabled":false,"rental_uris":{"android":"levelo://app?vid=5db5e512-4551-4f59-9808-a87ad95d5eec","ios":"levelo://app?vid=5db5e512-4551-4f59-9808-a87ad95d5eec"},"vehicle_type_id":"4","last_reported":1756203131,"current_range_meters":22000,"station_id":"ce4bguh2rcd13ifvqckg","pricing_plan_id":"cebpf4jnsgd1na2vs0mg"},{"bike_id":"2624aae5-9ba3-4f09-8178-030b99ca9a56","system_id":"levelo_inurba_marseille","lat":43.29714,"lon":5.36984,"is_reserved":false,"is_disabled":false,"rental_uris":{"android":"levelo://app?vid=2624aae5-9ba3-4f09-8178-030b99ca9a56","ios":"levelo://app?vid=2624aae5-9ba3-4f09-8178-030b99ca9a56"},"vehicle_type_id":"4","last_reported":1756203131,"current_range_meters":22000,"station_id":"","pricing_plan_id":"cebpf4jnsgd1na2vs0mg"},{"bike_id":"7c92f749-9cd2-407f-8f72-19a1b34ab8e2","system_id":"levelo_inurba_marseille","lat":43.23965,"lon":5.3663,"is_reserved":false,"is_disabled":false,"rental_uris":{"android":"levelo://app?vid=7c92f749-9cd2-407f-8f72-19a1b34ab8e2","ios":"levelo://app?vid=7c92f749-9cd2-407f-8f72-19a1b34ab8e2"},"vehicle_type_id":"4","last_reported":1756203131,"current_range_meters":22400,"station_id":"ce4bhi12rcd13ifvqfp0","pricing_plan_id":"cebpf4jnsgd1na2vs0mg"},{"bike_id":"092a5237-759a-4573-badc-e5246e842eef","system_id":"levelo_inurba_marseille","lat":43.217484,"lon":5.345999,"is_reserved":false,"is_disabled":false,"rental_uris":{"android":"levelo://app?vid=092a5237-759a-4573-badc-e5246e842eef","ios":"levelo://app?vid=092a5237-759a-4573-badc-e5246e842eef"},"vehicle_type_id":"4","last_reported":1756203131,"current_range_meters":22400,"station_id":"st_cvj6r9ubvosntc0bgbag","pricing_plan_id":"cebpf4jnsgd1na2vs0mg"},{"bike_id":"dc0aff09-54eb-44ca-b2db-76465f39a0ad","system_id":"levelo_inurba_marseille","lat":43.25581,"lon":5.38238,"is_reserved":false,"is_disabled":false,"rental_uris":{"android":"levelo://app?vid=dc0aff09-54eb-44ca-b2db-76465f39a0ad","ios":"levelo://app?vid=dc0aff09-54eb-44ca-b2db-76465f39a0ad"},"vehicle_type_id":"4","last_reported":1756203131,"current_range_meters":22400,"station_id":"ce4bhih2rcd13ifvqfs0","pricing_plan_id":"cebpf4jnsgd1na2vs0mg"},{"bike_id":"d5c57a1a-928a-455d-918b-cbd133cfbe71","system_id":"levelo_inurba_marseille","lat":43.21748,"lon":5.34604,"is_reserved":false,"is_disabled":false,"rental_uris":{"android":"levelo://app?vid=d5c57a1a-928a-455d-918b-cbd133cfbe71","ios":"levelo://app?vid=d5c57a1a-928a-455d-918b-cbd133cfbe71"},"vehicle_type_id":"4","last_reported":1756203131,"current_range_meters":22400,"station_id":"","pricing_plan_id":"cebpf4jnsgd1na2vs0mg"},{"bike_id":"23ae6fed-deff-411b-8b6e-f95e32ccd4d0","system_id":"levelo_inurba_marseille","lat":43.32104,"lon":5.36783,"is_reserved":false,"is_disabled":false,"rental_uris":{"android":"levelo://app?vid=23ae6fed-deff-411b-8b6e-f95e32ccd4d0","ios":"levelo://app?vid=23ae6fed-deff-411b-8b6e-f95e32ccd4d0"},"vehicle_type_id":"4","last_reported":1756203131,"current_range_meters":22400,"station_id":"ce4bhrh2rcd13ifvqhug","pricing_plan_id":"cebpf4jnsgd1na2vs0mg"},{"bike_id":"4d9231c1-fb88-4e2d-b4bf-cbc3b88b39f9","system_id":"levelo_inurba_marseille","lat":43.295433,"lon":5.387352,"is_reserved":false,"is_disabled":false,"rental_uris":{"android":"levelo://app?vid=4d9231c1-fb88-4e2d-b4bf-cbc3b88b39f9","ios":"levelo://app?vid=4d9231c1-fb88-4e2d-b4bf-cbc3b88b39f9"},"vehicle_type_id":"4","last_reported":1756203131,"current_range_meters":22400,"station_id":"","pricing_plan_id":"cebpf4jnsgd1na2vs0mg"},{"bike_id":"d91839b0-e7a0-46f5-a182-2d76a894fdae","system_id":"levelo_inurba_marseille","lat":43.24173,"lon":5.39741,"is_reserved":false,"is_disabled":false,"rental_uris":{"android":"levelo://app?vid=d91839b0-e7a0-46f5-a182-2d76a894fdae","ios":"levelo://app?vid=d91839b0-e7a0-46f5-a182-2d76a894fdae"},"vehicle_type_id":"4","last_reported":1756203131,"current_range_meters":22400,"station_id":"ce4bhn12rcd13ifvqgpg","pricing_plan_id":"cebpf4jnsgd1na2vs0mg"},{"bike_id":"a5345bd1-21fc-4f75-81ca-6e5549daa7bf","system_id":"levelo_inurba_marseille","lat":43.262102,"lon":5.374465,"is_reserved":false,"is_disabled":false,"rental_uris":{"android":"levelo://app?vid=a5345bd1-21fc-4f75-81ca-6e5549daa7bf","ios":"levelo://app?vid=a5345bd1-21fc-4f75-81ca-6e5549daa7bf"},"vehicle_type_id":"4","last_reported":1756203131,"current_range_meters":22400,"station_id":"ce4bhgp2rcd13ifvqfc0","pricing_plan_id":"cebpf4jnsgd1na2vs0mg"},{"bike_id":"ddb47c97-dae8-4aed-a716-3515b8a72bad","system_id":"levelo_inurba_marseille","lat":43.25932,"lon":5.409,"is_reserved":false,"is_disabled":false,"rental_uris":{"android":"levelo://app?vid=ddb47c97-dae8-4aed-a716-3515b8a72bad","ios":"levelo://app?vid=ddb47c97-dae8-4aed-a716-3515b8a72bad"},"vehicle_type_id":"4","last_reported":1756203131,"current_range_meters":22400,"station_id":"ce4bhm92rcd13ifvqglg","pricing_plan_id":"cebpf4jnsgd1na2vs0mg"},{"bike_id":"6aa893cc-1fc1-44ee-8d93-abcccbff0559","system_id":"levelo_inurba_marseille","lat":43.30785,"lon":5.37646,"is_reserved":false,"is_disabled":false,"rental_uris":{"android":"levelo://app?vid=6aa893cc-1fc1-44ee-8d93-abcccbff0559","ios":"levelo://app?vid=6aa893cc-1fc1-44ee-8d93-abcccbff0559"},"vehicle_type_id":"4","last_reported":1756203131,"current_range_meters":22400,"station_id":"ce4bgv92rcd13ifvqcq0","pricing_plan_id":"cebpf4jnsgd1na2vs0mg"},{"bike_id":"eeeb6f39-52ee-4ac5-8842-954adbd00762","system_id":"levelo_inurba_marseille","lat":43.30555,"lon":5.36551,"is_reserved":false,"is_disabled":false,"rental_uris":{"android":"levelo://app?vid=eeeb6f39-52ee-4ac5-8842-954adbd00762","ios":"levelo://app?vid=eeeb6f39-52ee-4ac5-8842-954adbd00762"},"vehicle_type_id":"4","last_reported":1756203131,"current_range_meters":22000,"station_id":"ce4bgs12rcd13ifvqcag","pricing_plan_id":"cebpf4jnsgd1na2vs0mg"},{"bike_id":"a8257add-7065-48a8-acf5-e8272a521e15","system_id":"levelo_inurba_marseille","lat":43.29687,"lon":5.37196,"is_reserved":false,"is_disabled":false,"rental_uris":{"android":"levelo://app?vid=a8257add-7065-48a8-acf5-e8272a521e15","ios":"levelo://app?vid=a8257add-7065-48a8-acf5-e8272a521e15"},"vehicle_type_id":"4","last_reported":1756203131,"current_range_meters":22800,"station_id":"","pricing_plan_id":"cebpf4jnsgd1na2vs0mg"},{"bike_id":"b578eacf-0633-4cc1-814b-98d359eb35e9","system_id":"levelo_inurba_marseille","lat":43.27075,"lon":5.42273,"is_reserved":false,"is_disabled":false,"rental_uris":{"android":"levelo://app?vid=b578eacf-0633-4cc1-814b-98d359eb35e9","ios":"levelo://app?vid=b578eacf-0633-4cc1-814b-98d359eb35e9"},"vehicle_type_id":"4","last_reported":1756203131,"current_range_meters":22800,"station_id":"ce4bhk92rcd13ifvqgb0","pricing_plan_id":"cebpf4jnsgd1na2vs0mg"},{"bike_id":"9f0005d5-d358-4f4a-af02-69d72ad93a9e","system_id":"levelo_inurba_marseille","lat":43.31164,"lon":5.37116,"is_reserved":false,"is_disabled":false,"rental_uris":{"android":"levelo://app?vid=9f0005d5-d358-4f4a-af02-69d72ad93a9e","ios":"levelo://app?vid=9f0005d5-d358-4f4a-af02-69d72ad93a9e"},