{"last_updated":1762150658,"ttl":60,"version":"2.2","data":{"bikes":[{"bike_id":"dcb5f4d6-a57a-45ea-b185-de3fe952058c","system_id":"levelo_inurba_marseille","lat":43.28104,"lon":5.37839,"is_reserved":false,"is_disabled":true,"rental_uris":{"android":"levelo://app?vid=dcb5f4d6-a57a-45ea-b185-de3fe952058c","ios":"levelo://app?vid=dcb5f4d6-a57a-45ea-b185-de3fe952058c"},"vehicle_type_id":"4","last_reported":1762150658,"current_range_meters":2800,"station_id":"ce4bha12rcd13ifvqee0","pricing_plan_id":"cebpf4jnsgd1na2vs0mg"},{"bike_id":"f3aa2b01-0a4c-4939-9943-856a2be759f0","system_id":"levelo_inurba_marseille","lat":43.21745,"lon":5.34601,"is_reserved":false,"is_disabled":false,"rental_uris":{"android":"levelo://app?vid=f3aa2b01-0a4c-4939-9943-856a2be759f0","ios":"levelo://app?vid=f3aa2b01-0a4c-4939-9943-856a2be759f0"},"vehicle_type_id":"4","last_reported":1762150658,"current_range_meters":3200,"station_id":"st_cvj6r9ubvosntc0bgbag","pricing_plan_id":"cebpf4jnsgd1na2vs0mg"},{"bike_id":"0ecfa881-79f7-4120-b47b-fcf56cfed856","system_id":"levelo_inurba_marseille","lat":43.30939,"lon":5.40147,"is_reserved":false,"is_disabled":false,"rental_uris":{"android":"levelo://app?vid=0ecfa881-79f7-4120-b47b-fcf56cfed856","ios":"levelo://app?vid=0ecfa881-79f7-4120-b47b-fcf56cfed856"},"vehicle_type_id":"4","last_reported":1762150658,"current_range_meters":3200,"station_id":"ce4bgvp2rcd13ifvqct0","pricing_plan_id":"cebpf4jnsgd1na2vs0mg"},{"bike_id":"60c7e9df-6bcd-4513-82ea-171bc1fa25e5","system_id":"levelo_inurba_marseille","lat":43.2967,"lon":5.38051,"is_reserved":false,"is_disabled":false,"rental_uris":{"android":"levelo://app?vid=60c7e9df-6bcd-4513-82ea-171bc1fa25e5","ios":"levelo://app?vid=60c7e9df-6bcd-4513-82ea-171bc1fa25e5"},"vehicle_type_id":"4","last_reported":1762150658,"current_range_meters":4000,"station_id":"","pricing_plan_id":"cebpf4jnsgd1na2vs0mg"},{"bike_id":"ed890a36-02ef-4914-b497-b0b60f616f2a","system_id":"levelo_inurba_marseille","lat":43.28155,"lon":5.42652,"is_reserved":false,"is_disabled":false,"rental_uris":{"android":"levelo://app?vid=ed890a36-02ef-4914-b497-b0b60f616f2a","ios":"levelo://app?vid=ed890a36-02ef-4914-b497-b0b60f616f2a"},"vehicle_type_id":"4","last_reported":1762150658,"current_range_meters":4400,"station_id":"ce4bhnh2rcd13ifvqgug","pricing_plan_id":"cebpf4jnsgd1na2vs0mg"},{"bike_id":"b1e81361-2b17-4ef1-8a58-6def5753471b","system_id":"levelo_inurba_marseille","lat":43.33753,"lon":5.37484,"is_reserved":false,"is_disabled":false,"rental_uris":{"android":"levelo://app?vid=b1e81361-2b17-4ef1-8a58-6def5753471b","ios":"levelo://app?vid=b1e81361-2b17-4ef1-8a58-6def5753471b"},"vehicle_type_id":"4","last_reported":1762150658,"current_range_meters":4400,"station_id":"","pricing_plan_id":"cebpf4jnsgd1na2vs0mg"},{"bike_id":"7cb4ab7f-28fb-4e07-b863-99009afb5a54","system_id":"levelo_inurba_marseille","lat":43.28513,"lon":5.38374,"is_reserved":false,"is_disabled":false,"rental_uris":{"android":"levelo://app?vid=7cb4ab7f-28fb-4e07-b863-99009afb5a54","ios":"levelo://app?vid=7cb4ab7f-28fb-4e07-b863-99009afb5a54"},"vehicle_type_id":"4","last_reported":1762150658,"current_range_meters":4800,"station_id":"ce4bh512rcd13ifvqe3g","pricing_plan_id":"cebpf4jnsgd1na2vs0mg"},{"bike_id":"3d2ac210-d1e5-43ba-b4cc-8cd99b96e0c8","system_id":"levelo_inurba_marseille","lat":43.30614,"lon":5.37424,"is_reserved":false,"is_disabled":false,"rental_uris":{"android":"levelo://app?vid=3d2ac210-d1e5-43ba-b4cc-8cd99b96e0c8","ios":"levelo://app?vid=3d2ac210-d1e5-43ba-b4cc-8cd99b96e0c8"},"vehicle_type_id":"4","last_reported":1762150658,"current_range_meters":4800,"station_id":"","pricing_plan_id":"cebpf4jnsgd1na2vs0mg"},{"bike_id":"a8c37853-0b1d-4686-a393-5126f07eea8e","system_id":"levelo_inurba_marseille","lat":43.288147,"lon":5.391652,"is_reserved":false,"is_disabled":false,"rental_uris":{"android":"levelo://app?vid=a8c37853-0b1d-4686-a393-5126f07eea8e","ios":"levelo://app?vid=a8c37853-0b1d-4686-a393-5126f07eea8e"},"vehicle_type_id":"4","last_reported":1762150658,"current_range_meters":4800,"station_id":"","pricing_plan_id":"cebpf4jnsgd1na2vs0mg"},{"bike_id":"dac08df6-19c9-4a84-a3a5-a9c364e343e0","system_id":"levelo_inurba_marseille","lat":43.29894,"lon":5.4367,"is_reserved":false,"is_disabled":false,"rental_uris":{"android":"levelo://app?vid=dac08df6-19c9-4a84-a3a5-a9c364e343e0","ios":"levelo://app?vid=dac08df6-19c9-4a84-a3a5-a9c364e343e0"},"vehicle_type_id":"4","last_reported":1762150658,"current_range_meters":4800,"station_id":"ce4bhpp2rcd13ifvqhfg","pricing_plan_id":"cebpf4jnsgd1na2vs0mg"},{"bike_id":"1da56141-654f-442c-b20c-6c2bd52c2965","system_id":"levelo_inurba_marseille","lat":43.312588,"lon":5.382062,"is_reserved":false,"is_disabled":true,"rental_uris":{"android":"levelo://app?vid=1da56141-654f-442c-b20c-6c2bd52c2965","ios":"levelo://app?vid=1da56141-654f-442c-b20c-6c2bd52c2965"},"vehicle_type_id":"4","last_reported":1762150658,"current_range_meters":5600,"station_id":"","pricing_plan_id":"cebpf4jnsgd1na2vs0mg"},{"bike_id":"d28f03fe-2ccc-41a4-9dc1-c2fee233c8a0","system_id":"levelo_inurba_marseille","lat":43.253437,"lon":5.421677,"is_reserved":false,"is_disabled":false,"rental_uris":{"android":"levelo://app?vid=d28f03fe-2ccc-41a4-9dc1-c2fee233c8a0","ios":"levelo://app?vid=d28f03fe-2ccc-41a4-9dc1-c2fee233c8a0"},"vehicle_type_id":"4","last_reported":1762150658,"current_range_meters":5600,"station_id":"st_d2m65c5bi1j21697t3ng","pricing_plan_id":"cebpf4jnsgd1na2vs0mg"},{"bike_id":"603f84c7-55e1-4d19-8f37-178ddadc668f","system_id":"levelo_inurba_marseille","lat":43.21205,"lon":5.3506,"is_reserved":false,"is_disabled":false,"rental_uris":{"android":"levelo://app?vid=603f84c7-55e1-4d19-8f37-178ddadc668f","ios":"levelo://app?vid=603f84c7-55e1-4d19-8f37-178ddadc668f"},"vehicle_type_id":"4","last_reported":1762150658,"current_range_meters":6000,"station_id":"st_cvj6sg6p6f1abm77japg","pricing_plan_id":"cebpf4jnsgd1na2vs0mg"},{"bike_id":"41a0e05b-05bf-4f74-92d2-741c85fb6fe4","system_id":"levelo_inurba_marseille","lat":43.25506,"lon":5.3767,"is_reserved":false,"is_disabled":true,"rental_uris":{"android":"levelo://app?vid=41a0e05b-05bf-4f74-92d2-741c85fb6fe4","ios":"levelo://app?vid=41a0e05b-05bf-4f74-92d2-741c85fb6fe4"},"vehicle_type_id":"4","last_reported":1762150658,"current_range_meters":6000,"station_id":"ce4bhh12rcd13ifvqff0","pricing_plan_id":"cebpf4jnsgd1na2vs0mg"},{"bike_id":"05108a94-d15f-474a-885d-e0833823b72f","system_id":"levelo_inurba_marseille","lat":43.30464,"lon":5.37913,"is_reserved":false,"is_disabled":false,"rental_uris":{"android":"levelo://app?vid=05108a94-d15f-474a-885d-e0833823b72f","ios":"levelo://app?vid=05108a94-d15f-474a-885d-e0833823b72f"},"vehicle_type_id":"4","last_reported":1762150658,"current_range_meters":6000,"station_id":"ce4bgup2rcd13ifvqcn0","pricing_plan_id":"cebpf4jnsgd1na2vs0mg"},{"bike_id":"7aec6a47-ba31-4135-ae0b-7051d5593433","system_id":"levelo_inurba_marseille","lat":43.28151,"lon":5.4267,"is_reserved":false,"is_disabled":false,"rental_uris":{"android":"levelo://app?vid=7aec6a47-ba31-4135-ae0b-7051d5593433","ios":"levelo://app?vid=7aec6a47-ba31-4135-ae0b-7051d5593433"},"vehicle_type_id":"4","last_reported":1762150658,"current_range_meters":6000,"station_id":"ce4bhnh2rcd13ifvqgug","pricing_plan_id":"cebpf4jnsgd1na2vs0mg"},{"bike_id":"ef4bb5e7-9fea-4aea-9d78-3b7ddf5eaba0","system_id":"levelo_inurba_marseille","lat":43.251153,"lon":5.403113,"is_reserved":false,"is_disabled":false,"rental_uris":{"android":"levelo://app?vid=ef4bb5e7-9fea-4aea-9d78-3b7ddf5eaba0","ios":"levelo://app?vid=ef4bb5e7-9fea-4aea-9d78-3b7ddf5eaba0"},"vehicle_type_id":"4","last_reported":1762150658,"current_range_meters":6000,"station_id":"ce4bhlh2rcd13ifvqgig","pricing_plan_id":"cebpf4jnsgd1na2vs0mg"},{"bike_id":"059b442e-d040-495a-991c-662b79177c55","system_id":"levelo_inurba_marseille","lat":43.29361,"lon":5.45374,"is_reserved":false,"is_disabled":false,"rental_uris":{"android":"levelo://app?vid=059b442e-d040-495a-991c-662b79177c55","ios":"levelo://app?vid=059b442e-d040-495a-991c-662b79177c55"},"vehicle_type_id":"4","last_reported":1762150658,"current_range_meters":6400,"station_id":"","pricing_plan_id":"cebpf4jnsgd1na2vs0mg"},{"bike_id":"db8b9d55-f078-4002-ace1-4fa350d5c76a","system_id":"levelo_inurba_marseille","lat":43.24062,"lon":5.37735,"is_reserved":false,"is_disabled":false,"rental_uris":{"android":"levelo://app?vid=db8b9d55-f078-4002-ace1-4fa350d5c76a","ios":"levelo://app?vid=db8b9d55-f078-4002-ace1-4fa350d5c76a"},"vehicle_type_id":"4","last_reported":1762150658,"current_range_meters":6400,"station_id":"ce4bhnp2rcd13ifvqgvg","pricing_plan_id":"cebpf4jnsgd1na2vs0mg"},{"bike_id":"3215137c-f236-4cc4-b31c-0996faebebac","system_id":"levelo_inurba_marseille","lat":43.24052,"lon":5.37794,"is_reserved":false,"is_disabled":false,"rental_uris":{"android":"levelo://app?vid=3215137c-f236-4cc4-b31c-0996faebebac","ios":"levelo://app?vid=3215137c-f236-4cc4-b31c-0996faebebac"},"vehicle_type_id":"4","last_reported":1762150658,"current_range_meters":6400,"station_id":"ce4bhnp2rcd13ifvqgvg","pricing_plan_id":"cebpf4jnsgd1na2vs0mg"},{"bike_id":"30ff92fc-b0fd-4e28-a064-702810b1ef0e","system_id":"levelo_inurba_marseille","lat":43.27973,"lon":5.4167,"is_reserved":false,"is_disabled":false,"rental_uris":{"android":"levelo://app?vid=30ff92fc-b0fd-4e28-a064-702810b1ef0e","ios":"levelo://app?vid=30ff92fc-b0fd-4e28-a064-702810b1ef0e"},"vehicle_type_id":"4","last_reported":1762150658,"current_range_meters":6400,"station_id":"ce4bho12rcd13ifvqh1g","pricing_plan_id":"cebpf4jnsgd1na2vs0mg"},{"bike_id":"f556ad88-b0ef-4d15-8048-f36fbe8e026c","system_id":"levelo_inurba_marseille","lat":43.28555,"lon":5.44104,"is_reserved":false,"is_disabled":false,"rental_uris":{"android":"levelo://app?vid=f556ad88-b0ef-4d15-8048-f36fbe8e026c","ios":"levelo://app?vid=f556ad88-b0ef-4d15-8048-f36fbe8e026c"},"vehicle_type_id":"4","last_reported":1762150658,"current_range_meters":6800,"station_id":"st_d3j3df2ikq2c7380ej80","pricing_plan_id":"cebpf4jnsgd1na2vs0mg"},{"bike_id":"8a759722-19f7-4a56-9646-2c26a5e7e25d","system_id":"levelo_inurba_marseille","lat":43.279821,"lon":5.387392,"is_reserved":false,"is_disabled":true,"rental_uris":{"android":"levelo://app?vid=8a759722-19f7-4a56-9646-2c26a5e7e25d","ios":"levelo://app?vid=8a759722-19f7-4a56-9646-2c26a5e7e25d"},"vehicle_type_id":"4","last_reported":1762150658,"current_range_meters":6800,"station_id":"ce4bhg12rcd13ifvqf80","pricing_plan_id":"cebpf4jnsgd1na2vs0mg"},{"bike_id":"a8d70c66-72e5-4632-81cc-cadbc23f8097","system_id":"levelo_inurba_marseille","lat":43.31348,"lon":5.38508,"is_reserved":false,"is_disabled":false,"rental_uris":{"android":"levelo://app?vid=a8d70c66-72e5-4632-81cc-cadbc23f8097","ios":"levelo://app?vid=a8d70c66-72e5-4632-81cc-cadbc23f8097"},"vehicle_type_id":"4","last_reported":1762150658,"current_range_meters":7200,"station_id":"ce4bgt92rcd13ifvqcf0","pricing_plan_id":"cebpf4jnsgd1na2vs0mg"},{"bike_id":"9587522a-7510-4ff4-9414-e2a752a04cbd","system_id":"levelo_inurba_marseille","lat":43.26932,"lon":5.38918,"is_reserved":false,"is_disabled":false,"rental_uris":{"android":"levelo://app?vid=9587522a-7510-4ff4-9414-e2a752a04cbd","ios":"levelo://app?vid=9587522a-7510-4ff4-9414-e2a752a04cbd"},"vehicle_type_id":"4","last_reported":1762150658,"current_range_meters":7200,"station_id":"ce4bhhh2rcd13ifvqfl0","pricing_plan_id":"cebpf4jnsgd1na2vs0mg"},{"bike_id":"098d7ae5-5b2b-4d49-ad2f-d14f29937957","system_id":"levelo_inurba_marseille","lat":43.289717,"lon":5.378424,"is_reserved":false,"is_disabled":true,"rental_uris":{"android":"levelo://app?vid=098d7ae5-5b2b-4d49-ad2f-d14f29937957","ios":"levelo://app?vid=098d7ae5-5b2b-4d49-ad2f-d14f29937957"},"vehicle_type_id":"4","last_reported":1762150658,"current_range_meters":7200,"station_id":"ce4bh9p2rcd13ifvqed0","pricing_plan_id":"cebpf4jnsgd1na2vs0mg"},{"bike_id":"1e2dc5c8-091b-4fb3-bdb5-df6798b652c9","system_id":"levelo_inurba_marseille","lat":43.27673,"lon":5.38886,"is_reserved":false,"is_disabled":false,"rental_uris":{"android":"levelo://app?vid=1e2dc5c8-091b-4fb3-bdb5-df6798b652c9","ios":"levelo://app?vid=1e2dc5c8-091b-4fb3-bdb5-df6798b652c9"},"vehicle_type_id":"4","last_reported":1762150658,"current_range_meters":7200,"station_id":"ce4bhi12rcd13ifvqfo0","pricing_plan_id":"cebpf4jnsgd1na2vs0mg"},{"bike_id":"1d29646a-da1f-4f66-b008-0838ffb2fa84","system_id":"levelo_inurba_marseille","lat":43.29995,"lon":5.37235,"is_reserved":false,"is_disabled":false,"rental_uris":{"android":"levelo://app?vid=1d29646a-da1f-4f66-b008-0838ffb2fa84","ios":"levelo://app?vid=1d29646a-da1f-4f66-b008-0838ffb2fa84"},"vehicle_type_id":"4","last_reported":1762150658,"current_range_meters":7200,"station_id":"ce4bgr92rcd13ifvqc7g","pricing_plan_id":"cebpf4jnsgd1na2vs0mg"},{"bike_id":"ccbb9b89-ebba-4c6c-b9fe-acafe29ddb47","system_id":"levelo_inurba_marseille","lat":43.33509,"lon":5.42769,"is_reserved":false,"is_disabled":false,"rental_uris":{"android":"levelo://app?vid=ccbb9b89-ebba-4c6c-b9fe-acafe29ddb47","ios":"levelo://app?vid=ccbb9b89-ebba-4c6c-b9fe-acafe29ddb47"},"vehicle_type_id":"4","last_reported":1762150658,"current_range_meters":8000,"station_id":"","pricing_plan_id":"cebpf4jnsgd1na2vs0mg"},{"bike_id":"b243c8d5-adba-4140-bdc6-444dd067124b","system_id":"levelo_inurba_marseille","lat":43.246749,"lon":5.381717,"is_reserved":false,"is_disabled":false,"rental_uris":{"android":"levelo://app?vid=b243c8d5-adba-4140-bdc6-444dd067124b","ios":"levelo://app?vid=b243c8d5-adba-4140-bdc6-444dd067124b"},"vehicle_type_id":"4","last_reported":1762150658,"current_range_meters":8000,"station_id":"ce4bhih2rcd13ifvqfr0","pricing_plan_id":"cebpf4jnsgd1na2vs0mg"},{"bike_id":"742e4b85-debb-487a-b93d-560b01a45e08","system_id":"levelo_inurba_marseille","lat":43.30145,"lon":5.38088,"is_reserved":false,"is_disabled":false,"rental_uris":{"android":"levelo://app?vid=742e4b85-debb-487a-b93d-560b01a45e08","ios":"levelo://app?vid=742e4b85-debb-487a-b93d-560b01a45e08"},"vehicle_type_id":"4","last_reported":1762150658,"current_range_meters":8000,"station_id":"ce4bgjp2rcd13ifvqbh0","pricing_plan_id":"cebpf4jnsgd1na2vs0mg"},{"bike_id":"52a204ee-7a6c-4350-a63b-8c2b387e6adc","system_id":"levelo_inurba_marseille","lat":43.302502,"lon":5.400583,"is_reserved":false,"is_disabled":false,"rental_uris":{"android":"levelo://app?vid=52a204ee-7a6c-4350-a63b-8c2b387e6adc","ios":"levelo://app?vid=52a204ee-7a6c-4350-a63b-8c2b387e6adc"},"vehicle_type_id":"4","last_reported":1762150658,"current_range_meters":8000,"station_id":"ce4bgvh2rcd13ifvqcs0","pricing_plan_id":"cebpf4jnsgd1na2vs0mg"},{"bike_id":"2e3cf598-af65-4baa-94fc-f35c6061045d","system_id":"levelo_inurba_marseille","lat":43.30145,"lon":5.38077,"is_reserved":false,"is_disabled":false,"rental_uris":{"android":"levelo://app?vid=2e3cf598-af65-4baa-94fc-f35c6061045d","ios":"levelo://app?vid=2e3cf598-af65-4baa-94fc-f35c6061045d"},"vehicle_type_id":"4","last_reported":1762150658,"current_range_meters":8400,"station_id":"ce4bgjp2rcd13ifvqbh0","pricing_plan_id":"cebpf4jnsgd1na2vs0mg"},{"bike_id":"d785f95d-a02b-4b29-80ce-bdc32a02a852","system_id":"levelo_inurba_marseille","lat":43.29496,"lon":5.43293,"is_reserved":false,"is_disabled":false,"rental_uris":{"android":"levelo://app?vid=d785f95d-a02b-4b29-80ce-bdc32a02a852","ios":"levelo://app?vid=d785f95d-a02b-4b29-80ce-bdc32a02a852"},"vehicle_type_id":"4","last_reported":1762150658,"current_range_meters":8400,"station_id":"st_d3j5ugp08ojc73fj9d10","pricing_plan_id":"cebpf4jnsgd1na2vs0mg"},{"bike_id":"3317c32d-170a-4567-96de-ddeec7c81a5a","system_id":"levelo_inurba_marseille","lat":43.24647,"lon":5.38884,"is_reserved":false,"is_disabled":false,"rental_uris":{"android":"levelo://app?vid=3317c32d-170a-4567-96de-ddeec7c81a5a","ios":"levelo://app?vid=3317c32d-170a-4567-96de-ddeec7c81a5a"},"vehicle_type_id":"4","last_reported":1762150658,"current_range_meters":8400,"station_id":"ce4bhg12rcd13ifvqf60","pricing_plan_id":"cebpf4jnsgd1na2vs0mg"},{"bike_id":"f032dcd8-9da5-4d43-9733-2e1aaa8ea167","system_id":"levelo_inurba_marseille","lat":43.25326,"lon":5.42176,"is_reserved":false,"is_disabled":false,"rental_uris":{"android":"levelo://app?vid=f032dcd8-9da5-4d43-9733-2e1aaa8ea167","ios":"levelo://app?vid=f032dcd8-9da5-4d43-9733-2e1aaa8ea167"},"vehicle_type_id":"4","last_reported":1762150658,"current_range_meters":8800,"station_id":"st_d2m65c5bi1j21697t3ng","pricing_plan_id":"cebpf4jnsgd1na2vs0mg"},{"bike_id":"de0ca7a8-116a-46c8-8c50-6b445a473423","system_id":"levelo_inurba_marseille","lat":43.28868,"lon":5.42536,"is_reserved":false,"is_disabled":false,"rental_uris":{"android":"levelo://app?vid=de0ca7a8-116a-46c8-8c50-6b445a473423","ios":"levelo://app?vid=de0ca7a8-116a-46c8-8c50-6b445a473423"},"vehicle_type_id":"4","last_reported":1762150658,"current_range_meters":8800,"station_id":"st_d3b462108ojc7389ooeg","pricing_plan_id":"cebpf4jnsgd1na2vs0mg"},{"bike_id":"c4f2ef56-a448-4bb1-9320-6136c50246c9","system_id":"levelo_inurba_marseille","lat":43.24785,"lon":5.3746,"is_reserved":false,"is_disabled":true,"rental_uris":{"android":"levelo://app?vid=c4f2ef56-a448-4bb1-9320-6136c50246c9","ios":"levelo://app?vid=c4f2ef56-a448-4bb1-9320-6136c50246c9"},"vehicle_type_id":"4","last_reported":1762150658,"current_range_meters":8800,"station_id":"ce4bhgh2rcd13ifvqfb0","pricing_plan_id":"cebpf4jnsgd1na2vs0mg"},{"bike_id":"84f1bfac-8d21-499b-b8e1-fdc8049e10ac","system_id":"levelo_inurba_marseille","lat":43.31263,"lon":5.37762,"is_reserved":false,"is_disabled":false,"rental_uris":{"android":"levelo://app?vid=84f1bfac-8d21-499b-b8e1-fdc8049e10ac","ios":"levelo://app?vid=84f1bfac-8d21-499b-b8e1-fdc8049e10ac"},"vehicle_type_id":"4","last_reported":1762150658,"current_range_meters":8800,"station_id":"","pricing_plan_id":"cebpf4jnsgd1na2vs0mg"},{"bike_id":"c4c5d540-caac-4903-aba8-275aa7fb9054","system_id":"levelo_inurba_marseille","lat":43.26561,"lon":5.39871,"is_reserved":false,"is_disabled":false,"rental_uris":{"android":"levelo://app?vid=c4c5d540-caac-4903-aba8-275aa7fb9054","ios":"levelo://app?vid=c4c5d540-caac-4903-aba8-275aa7fb9054"},"vehicle_type_id":"4","last_reported":1762150658,"current_range_meters":8800,"station_id":"","pricing_plan_id":"cebpf4jnsgd1na2vs0mg"},{"bike_id":"0f583a9b-84b4-45e2-a280-f0ff1282968e","system_id":"levelo_inurba_marseille","lat":43.27657,"lon":5.38914,"is_reserved":false,"is_disabled":true,"rental_uris":{"android":"levelo://app?vid=0f583a9b-84b4-45e2-a280-f0ff1282968e","ios":"levelo://app?vid=0f583a9b-84b4-45e2-a280-f0ff1282968e"},"vehicle_type_id":"4","last_reported":1762150658,"current_range_meters":8800,"station_id":"ce4bhi12rcd13ifvqfo0","pricing_plan_id":"cebpf4jnsgd1na2vs0mg"},{"bike_id":"eac454ff-66bd-449f-80c4-80eadb3284b8","system_id":"levelo_inurba_marseille","lat":43.2894,"lon":5.36638,"is_reserved":false,"is_disabled":false,"rental_uris":{"android":"levelo://app?vid=eac454ff-66bd-449f-80c4-80eadb3284b8","ios":"levelo://app?vid=eac454ff-66bd-449f-80c4-80eadb3284b8"},"vehicle_type_id":"4","last_reported":1762150658,"current_range_meters":8800,"station_id":"ce4bhap2rcd13ifvqek0","pricing_plan_id":"cebpf4jnsgd1na2vs0mg"},{"bike_id":"2027ca7f-2d34-4bbf-9ad0-ab60b2ac1397","system_id":"levelo_inurba_marseille","lat":43.23151,"lon":5.43706,"is_reserved":false,"is_disabled":false,"rental_uris":{"android":"levelo://app?vid=2027ca7f-2d34-4bbf-9ad0-ab60b2ac1397","ios":"levelo://app?vid=2027ca7f-2d34-4bbf-9ad0-ab60b2ac1397"},"vehicle_type_id":"4","last_reported":1762150658,"current_range_meters":8800,"station_id":"ce4bhmp2rcd13ifvqgog","pricing_plan_id":"cebpf4jnsgd1na2vs0mg"},{"bike_id":"da2cc2c7-e93c-44a9-900c-55c5bc9280c8","system_id":"levelo_inurba_marseille","lat":43.22938,"lon":5.3536,"is_reserved":false,"is_disabled":false,"rental_uris":{"android":"levelo://app?vid=da2cc2c7-e93c-44a9-900c-55c5bc9280c8","ios":"levelo://app?vid=da2cc2c7-e93c-44a9-900c-55c5bc9280c8"},"vehicle_type_id":"4","last_reported":1762150658,"current_range_meters":9200,"station_id":"cpo3532slgdg3j2ikp40","pricing_plan_id":"cebpf4jnsgd1na2vs0mg"},{"bike_id":"26451360-c1c8-464f-a7bf-bc2a31850d65","system_id":"levelo_inurba_marseille","lat":43.22534,"lon":5.34836,"is_reserved":false,"is_disabled":false,"rental_uris":{"android":"levelo://app?vid=26451360-c1c8-464f-a7bf-bc2a31850d65","ios":"levelo://app?vid=26451360-c1c8-464f-a7bf-bc2a31850d65"},"vehicle_type_id":"4","last_reported":1762150658,"current_range_meters":9600,"station_id":"","pricing_plan_id":"cebpf4jnsgd1na2vs0mg"},{"bike_id":"ebf85bdb-1a2b-49af-a88d-03e90d4c31b8","system_id":"levelo_inurba_marseille","lat":43.23956,"lon":5.36625,"is_reserved":false,"is_disabled":true,"rental_uris":{"android":"levelo://app?vid=ebf85bdb-1a2b-49af-a88d-03e90d4c31b8","ios":"levelo://app?vid=ebf85bdb-1a2b-49af-a88d-03e90d4c31b8"},"vehicle_type_id":"4","last_reported":1762150658,"current_range_meters":9600,"station_id":"ce4bhi12rcd13ifvqfp0","pricing_plan_id":"cebpf4jnsgd1na2vs0mg"},{"bike_id":"77679107-31f6-4769-888c-bfa8b6d2bccd","system_id":"levelo_inurba_marseille","lat":43.28866,"lon":5.42527,"is_reserved":false,"is_disabled":false,"rental_uris":{"android":"levelo://app?vid=77679107-31f6-4769-888c-bfa8b6d2bccd","ios":"levelo://app?vid=77679107-31f6-4769-888c-bfa8b6d2bccd"},"vehicle_type_id":"4","last_reported":1762150658,"current_range_meters":9600,"station_id":"st_d3b462108ojc7389ooeg","pricing_plan_id":"cebpf4jnsgd1na2vs0mg"},{"bike_id":"8adef542-af60-4b61-8a5b-4b604c3bcfe4","system_id":"levelo_inurba_marseille","lat":43.24634,"lon":5.43141,"is_reserved":false,"is_disabled":false,"rental_uris":{"android":"levelo://app?vid=8adef542-af60-4b61-8a5b-4b604c3bcfe4","ios":"levelo://app?vid=8adef542-af60-4b61-8a5b-4b604c3bcfe4"},"vehicle_type_id":"4","last_reported":1762150658,"current_range_meters":9600,"station_id":"st_d2m6c4gdas8pm72e190g","pricing_plan_id":"cebpf4jnsgd1na2vs0mg"},{"bike_id":"af79d3f1-ea9f-4c0b-9a2d-782b39386671","system_id":"levelo_inurba_marseille","lat":43.217551,"lon":5.346056,"is_reserved":false,"is_disabled":true,"rental_uris":{"android":"levelo://app?vid=af79d3f1-ea9f-4c0b-9a2d-782b39386671","ios":"levelo://app?vid=af79d3f1-ea9f-4c0b-9a2d-782b39386671"},"vehicle_type_id":"4","last_reported":1762150658,"current_range_meters":9600,"station_id":"st_cvj6r9ubvosntc0bgbag","pricing_plan_id":"cebpf4jnsgd1na2vs0mg"},{"bike_id":"d87e8435-a903-4228-b33e-bd6d66e6673b","system_id":"levelo_inurba_marseille","lat":43.24613,"lon":5.4317,"is_reserved":false,"is_disabled":false,"rental_uris":{"android":"levelo://app?vid=d87e8435-a903-4228-b33e-bd6d66e6673b","ios":"levelo://app?vid=d87e8435-a903-4228-b33e-bd6d66e6673b"},"vehicle_type_id":"4","last_reported":1762150658,"current_range_meters":9600,"station_id":"st_d2m6c4gdas8pm72e190g","pricing_plan_id":"cebpf4jnsgd1na2vs0mg"},{"bike_id":"ba541a52-7e4e-4241-9791-ae6f1fb03dcd","system_id":"levelo_inurba_marseille","lat":43.32007,"lon":5.41558,"is_reserved":false,"is_disabled":false,"rental_uris":{"android":"levelo://app?vid=ba541a52-7e4e-4241-9791-ae6f1fb03dcd","ios":"levelo://app?vid=ba541a52-7e4e-4241-9791-ae6f1fb03dcd"},"vehicle_type_id":"4","last_reported":1762150658,"current_range_meters":9600,"station_id":"ce4bhq92rcd13ifvqhkg","pricing_plan_id":"cebpf4jnsgd1na2vs0mg"},{"bike_id":"066ede02-47a2-4c83-bcb1-7eb633a370fb","system_id":"levelo_inurba_marseille","lat":43.3127,"lon":5.3776,"is_reserved":false,"is_disabled":false,"rental_uris":{"android":"levelo://app?vid=066ede02-47a2-4c83-bcb1-7eb633a370fb","ios":"levelo://app?vid=066ede02-47a2-4c83-bcb1-7eb633a370fb"},"vehicle_type_id":"4","last_reported":1762150658,"current_range_meters":10000,"station_id":"","pricing_plan_id":"cebpf4jnsgd1na2vs0mg"},{"bike_id":"cc2837ee-a4b9-4193-b56b-39b21040193a","system_id":"levelo_inurba_marseille","lat":43.310741,"lon":5.383673,"is_reserved":false,"is_disabled":false,"rental_uris":{"android":"levelo://app?vid=cc2837ee-a4b9-4193-b56b-39b21040193a","ios":"levelo://app?vid=cc2837ee-a4b9-4193-b56b-39b21040193a"},"vehicle_type_id":"4","last_reported":1762150658,"current_range_meters":10000,"station_id":"ce4bgv92rcd13ifvqcr0","pricing_plan_id":"cebpf4jnsgd1na2vs0mg"},{"bike_id":"24905811-f9ad-494d-8e18-ca5626363886","system_id":"levelo_inurba_marseille","lat":43.2793,"lon":5.39588,"is_reserved":false,"is_disabled":false,"rental_uris":{"android":"levelo://app?vid=24905811-f9ad-494d-8e18-ca5626363886","ios":"levelo://app?vid=24905811-f9ad-494d-8e18-ca5626363886"},"vehicle_type_id":"4","last_reported":1762150658,"current_range_meters":10000,"station_id":"ce4bhf92rcd13ifvqf40","pricing_plan_id":"cebpf4jnsgd1na2vs0mg"},{"bike_id":"6a599560-1868-4048-a5b7-d6d721742c3f","system_id":"levelo_inurba_marseille","lat":43.28385,"lon":5.37546,"is_reserved":false,"is_disabled":false,"rental_uris":{"android":"levelo://app?vid=6a599560-1868-4048-a5b7-d6d721742c3f","ios":"levelo://app?vid=6a599560-1868-4048-a5b7-d6d721742c3f"},"vehicle_type_id":"4","last_reported":1762150658,"current_range_meters":10000,"station_id":"ce4bh412rcd13ifvqds0","pricing_plan_id":"cebpf4jnsgd1na2vs0mg"},{"bike_id":"14b92a7a-0805-475a-abfd-8c979184b42b","system_id":"levelo_inurba_marseille","lat":43.3099,"lon":5.37041,"is_reserved":false,"is_disabled":false,"rental_uris":{"android":"levelo://app?vid=14b92a7a-0805-475a-abfd-8c979184b42b","ios":"levelo://app?vid=14b92a7a-0805-475a-abfd-8c979184b42b"},"vehicle_type_id":"4","last_reported":1762150658,"current_range_meters":10000,"station_id":"","pricing_plan_id":"cebpf4jnsgd1na2vs0mg"},{"bike_id":"7419db87-3322-4dfb-9891-f33725aac996","system_id":"levelo_inurba_marseille","lat":43.27072,"lon":5.42272,"is_reserved":false,"is_disabled":false,"rental_uris":{"android":"levelo://app?vid=7419db87-3322-4dfb-9891-f33725aac996","ios":"levelo://app?vid=7419db87-3322-4dfb-9891-f33725aac996"},"vehicle_type_id":"4","last_reported":1762150658,"current_range_meters":10000,"station_id":"ce4bhk92rcd13ifvqgb0","pricing_plan_id":"cebpf4jnsgd1na2vs0mg"},{"bike_id":"f9b2e450-883a-4a04-a063-fca376a2c55a","system_id":"levelo_inurba_marseille","lat":43.225536,"lon":5.416284,"is_reserved":false,"is_disabled":false,"rental_uris":{"android":"levelo://app?vid=f9b2e450-883a-4a04-a063-fca376a2c55a","ios":"levelo://app?vid=f9b2e450-883a-4a04-a063-fca376a2c55a"},"vehicle_type_id":"4","last_reported":1762150658,"current_range_meters":10000,"station_id":"st_d2o4gvlbi1j2169b742g","pricing_plan_id":"cebpf4jnsgd1na2vs0mg"},{"bike_id":"47481a7f-1ce2-4f44-b88d-ce69ffa7731c","system_id":"levelo_inurba_marseille","lat":43.27942,"lon":5.41044,"is_reserved":false,"is_disabled":false,"rental_uris":{"android":"levelo://app?vid=47481a7f-1ce2-4f44-b88d-ce69ffa7731c","ios":"levelo://app?vid=47481a7f-1ce2-4f44-b88d-ce69ffa7731c"},"vehicle_type_id":"4","last_reported":1762150658,"current_range_meters":10000,"station_id":"ce4bhnp2rcd13ifvqh0g","pricing_plan_id":"cebpf4jnsgd1na2vs0mg"},{"bike_id":"bebae95e-1e51-4e89-9f8b-f413cb5a56ac","system_id":"levelo_inurba_marseille","lat":43.27349,"lon":5.36239,"is_reserved":false,"is_disabled":false,"rental_uris":{"android":"levelo://app?vid=bebae95e-1e51-4e89-9f8b-f413cb5a56ac","ios":"levelo://app?vid=bebae95e-1e51-4e89-9f8b-f413cb5a56ac"},"vehicle_type_id":"4","last_reported":1762150658,"current_range_meters":10000,"station_id":"ce4bhbh2rcd13ifvqeo0","pricing_plan_id":"cebpf4jnsgd1na2vs0mg"},{"bike_id":"423802bb-722e-4533-9018-c0f75cce34a6","system_id":"levelo_inurba_marseille","lat":43.30678,"lon":5.38182,"is_reserved":false,"is_disabled":false,"rental_uris":{"android":"levelo://app?vid=423802bb-722e-4533-9018-c0f75cce34a6","ios":"levelo://app?vid=423802bb-722e-4533-9018-c0f75cce34a6"},"vehicle_type_id":"4","last_reported":1762150658,"current_range_meters":10800,"station_id":"","pricing_plan_id":"cebpf4jnsgd1na2vs0mg"},{"bike_id":"b53ff486-849c-4668-84f1-30d27196f827","system_id":"levelo_inurba_marseille","lat":43.28395,"lon":5.37542,"is_reserved":false,"is_disabled":true,"rental_uris":{"android":"levelo://app?vid=b53ff486-849c-4668-84f1-30d27196f827","ios":"levelo://app?vid=b53ff486-849c-4668-84f1-30d27196f827"},"vehicle_type_id":"4","last_reported":1762150658,"current_range_meters":10800,"station_id":"ce4bh412rcd13ifvqds0","pricing_plan_id":"cebpf4jnsgd1na2vs0mg"},{"bike_id":"aef75ae5-d606-43b6-8ba5-d53a35c16de5","system_id":"levelo_inurba_marseille","lat":43.27427,"lon":5.39407,"is_reserved":false,"is_disabled":true,"rental_uris":{"android":"levelo://app?vid=aef75ae5-d606-43b6-8ba5-d53a35c16de5","ios":"levelo://app?vid=aef75ae5-d606-43b6-8ba5-d53a35c16de5"},"vehicle_type_id":"4","last_reported":1762150658,"current_range_meters":10800,"station_id":"ce4bhdp2rcd13ifvqf20","pricing_plan_id":"cebpf4jnsgd1na2vs0mg"},{"bike_id":"1c7e9560-2754-4a88-b1cb-cdee38fc1289","system_id":"levelo_inurba_marseille","lat":43.26955,"lon":5.40318,"is_reserved":false,"is_disabled":true,"rental_uris":{"android":"levelo://app?vid=1c7e9560-2754-4a88-b1cb-cdee38fc1289","ios":"levelo://app?vid=1c7e9560-2754-4a88-b1cb-cdee38fc1289"},"vehicle_type_id":"4","last_reported":1762150658,"current_range_meters":10800,"station_id":"cjm6bp8fraef2m0cb0m0","pricing_plan_id":"cebpf4jnsgd1na2vs0mg"},{"bike_id":"8f37d7b9-05da-4937-8327-280e878574fe","system_id":"levelo_inurba_marseille","lat":43.30423,"lon":5.397558,"is_reserved":false,"is_disabled":true,"rental_uris":{"android":"levelo://app?vid=8f37d7b9-05da-4937-8327-280e878574fe","ios":"levelo://app?vid=8f37d7b9-05da-4937-8327-280e878574fe"},"vehicle_type_id":"4","last_reported":1762150658,"current_range_meters":10800,"station_id":"","pricing_plan_id":"cebpf4jnsgd1na2vs0mg"},{"bike_id":"9a8800fa-24be-4848-a250-19e32415acb4","system_id":"levelo_inurba_marseille","lat":43.21202,"lon":5.35061,"is_reserved":false,"is_disabled":false,"rental_uris":{"android":"levelo://app?vid=9a8800fa-24be-4848-a250-19e32415acb4","ios":"levelo://app?vid=9a8800fa-24be-4848-a250-19e32415acb4"},"vehicle_type_id":"4","last_reported":1762150658,"current_range_meters":10800,"station_id":"st_cvj6sg6p6f1abm77japg","pricing_plan_id":"cebpf4jnsgd1na2vs0mg"},{"bike_id":"2ff20ab9-b52b-4e51-beea-738711729e0e","system_id":"levelo_inurba_marseille","lat":43.211939,"lon":5.350681,"is_reserved":false,"is_disabled":false,"rental_uris":{"android":"levelo://app?vid=2ff20ab9-b52b-4e51-beea-738711729e0e","ios":"levelo://app?vid=2ff20ab9-b52b-4e51-beea-738711729e0e"},"vehicle_type_id":"4","last_reported":1762150658,"current_range_meters":10800,"station_id":"st_cvj6sg6p6f1abm77japg","pricing_plan_id":"cebpf4jnsgd1na2vs0mg"},{"bike_id":"02ab0480-1393-487e-95a2-314141ae01bf","system_id":"levelo_inurba_marseille","lat":43.28155,"lon":5.42644,"is_reserved":false,"is_disabled":false,"rental_uris":{"android":"levelo://app?vid=02ab0480-1393-487e-95a2-314141ae01bf","ios":"levelo://app?vid=02ab0480-1393-487e-95a2-314141ae01bf"},"vehicle_type_id":"4","last_reported":1762150658,"current_range_meters":11200,"station_id":"ce4bhnh2rcd13ifvqgug","pricing_plan_id":"cebpf4jnsgd1na2vs0mg"},{"bike_id":"e69f8bd5-0149-4d61-9765-0c3880e86e54","system_id":"levelo_inurba_marseille","lat":43.24086,"lon":5.3773,"is_reserved":false,"is_disabled":false,"rental_uris":{"android":"levelo://app?vid=e69f8bd5-0149-4d61-9765-0c3880e86e54","ios":"levelo://app?vid=e69f8bd5-0149-4d61-9765-0c3880e86e54"},"vehicle_type_id":"4","last_reported":1762150658,"current_range_meters":11200,"station_id":"ce4bhnp2rcd13ifvqgvg","pricing_plan_id":"cebpf4jnsgd1na2vs0mg"},{"bike_id":"85d8043d-b929-43f8-9188-ad421047c360","system_id":"levelo_inurba_marseille","lat":43.25327,"lon":5.42168,"is_reserved":false,"is_disabled":false,"rental_uris":{"android":"levelo://app?vid=85d8043d-b929-43f8-9188-ad421047c360","ios":"levelo://app?vid=85d8043d-b929-43f8-9188-ad421047c360"},"vehicle_type_id":"4","last_reported":1762150658,"current_range_meters":11200,"station_id":"st_d2m65c5bi1j21697t3ng","pricing_plan_id":"cebpf4jnsgd1na2vs0mg"},{"bike_id":"fe2272ea-7316-4280-b90c-d8c4db7bc73e","system_id":"levelo_inurba_marseille","lat":43.27923,"lon":5.39304,"is_reserved":false,"is_disabled":false,"rental_uris":{"android":"levelo://app?vid=fe2272ea-7316-4280-b90c-d8c4db7bc73e","ios":"levelo://app?vid=fe2272ea-7316-4280-b90c-d8c4db7bc73e"},"vehicle_type_id":"4","last_reported":1762150658,"current_range_meters":11200,"station_id":"","pricing_plan_id":"cebpf4jnsgd1na2vs0mg"},{"bike_id":"defdb3c1-03e5-4111-85e3-0fcf6a4154b6","system_id":"levelo_inurba_marseille","lat":43.28476,"lon":5.38418,"is_reserved":false,"is_disabled":true,"rental_uris":{"android":"levelo://app?vid=defdb3c1-03e5-4111-85e3-0fcf6a4154b6","ios":"levelo://app?vid=defdb3c1-03e5-4111-85e3-0fcf6a4154b6"},"vehicle_type_id":"4","last_reported":1762150658,"current_range_meters":11200,"station_id":"ce4bh512rcd13ifvqe3g","pricing_plan_id":"cebpf4jnsgd1na2vs0mg"},{"bike_id":"af955f97-1344-421e-927d-88f64c2eed9f","system_id":"levelo_inurba_marseille","lat":43.24071,"lon":5.37767,"is_reserved":false,"is_disabled":false,"rental_uris":{"android":"levelo://app?vid=af955f97-1344-421e-927d-88f64c2eed9f","ios":"levelo://app?vid=af955f97-1344-421e-927d-88f64c2eed9f"},"vehicle_type_id":"4","last_reported":1762150658,"current_range_meters":11200,"station_id":"ce4bhnp2rcd13ifvqgvg","pricing_plan_id":"cebpf4jnsgd1na2vs0mg"},{"bike_id":"34018df0-6cee-4de9-bf8e-758b24b04ddf","system_id":"levelo_inurba_marseille","lat":43.31688,"lon":5.40478,"is_reserved":false,"is_disabled":false,"rental_uris":{"android":"levelo://app?vid=34018df0-6cee-4de9-bf8e-758b24b04ddf","ios":"levelo://app?vid=34018df0-6cee-4de9-bf8e-758b24b04ddf"},"vehicle_type_id":"4","last_reported":1762150658,"current_range_meters":11600,"station_id":"ce4bh012rcd13ifvqd00","pricing_plan_id":"cebpf4jnsgd1na2vs0mg"},{"bike_id":"f70f748f-8fb7-492e-9711-10c275d247f5","system_id":"levelo_inurba_marseille","lat":43.28848,"lon":5.39323,"is_reserved":false,"is_disabled":false,"rental_uris":{"android":"levelo://app?vid=f70f748f-8fb7-492e-9711-10c275d247f5","ios":"levelo://app?vid=f70f748f-8fb7-492e-9711-10c275d247f5"},"vehicle_type_id":"4","last_reported":1762150658,"current_range_meters":11600,"station_id":"ce4bh2p2rcd13ifvqdi0","pricing_plan_id":"cebpf4jnsgd1na2vs0mg"},{"bike_id":"19d2fb0a-31e4-4d14-8026-bd6e8e59d813","system_id":"levelo_inurba_marseille","lat":43.29185,"lon":5.3934,"is_reserved":false,"is_disabled":false,"rental_uris":{"android":"levelo://app?vid=19d2fb0a-31e4-4d14-8026-bd6e8e59d813","ios":"levelo://app?vid=19d2fb0a-31e4-4d14-8026-bd6e8e59d813"},"vehicle_type_id":"4","last_reported":1762150658,"current_range_meters":11600,"station_id":"ce4bh192rcd13ifvqdd0","pricing_plan_id":"cebpf4jnsgd1na2vs0mg"},{"bike_id":"f557c786-2345-4ac4-a840-c1dcc726774f","system_id":"levelo_inurba_marseille","lat":43.31072,"lon":5.38341,"is_reserved":false,"is_disabled":true,"rental_uris":{"android":"levelo://app?vid=f557c786-2345-4ac4-a840-c1dcc726774f","ios":"levelo://app?vid=f557c786-2345-4ac4-a840-c1dcc726774f"},"vehicle_type_id":"4","last_reported":1762150658,"current_range_meters":11600,"station_id":"ce4bgv92rcd13ifvqcr0","pricing_plan_id":"cebpf4jnsgd1na2vs0mg"},{"bike_id":"62f9cf62-5d06-4dd6-b282-7b747589a777","system_id":"levelo_inurba_marseille","lat":43.28723,"lon":5.39992,"is_reserved":false,"is_disabled":true,"rental_uris":{"android":"levelo://app?vid=62f9cf62-5d06-4dd6-b282-7b747589a777","ios":"levelo://app?vid=62f9cf62-5d06-4dd6-b282-7b747589a777"},"vehicle_type_id":"4","last_reported":1762150658,"current_range_meters":11600,"station_id":"ce4bho92rcd13ifvqh3g","pricing_plan_id":"cebpf4jnsgd1na2vs0mg"},{"bike_id":"61a6a505-f092-4794-9aef-784bdf43c4c1","system_id":"levelo_inurba_marseille","lat":43.24066,"lon":5.37731,"is_reserved":false,"is_disabled":false,"rental_uris":{"android":"levelo://app?vid=61a6a505-f092-4794-9aef-784bdf43c4c1","ios":"levelo://app?vid=61a6a505-f092-4794-9aef-784bdf43c4c1"},"vehicle_type_id":"4","last_reported":1762150658,"current_range_meters":11600,"station_id":"ce4bhnp2rcd13ifvqgvg","pricing_plan_id":"cebpf4jnsgd1na2vs0mg"},{"bike_id":"fec5a92b-82bd-48ac-9547-956aa00aec51","system_id":"levelo_inurba_marseille","lat":43.279963,"lon":5.416763,"is_reserved":false,"is_disabled":false,"rental_uris":{"android":"levelo://app?vid=fec5a92b-82bd-48ac-9547-956aa00aec51","ios":"levelo://app?vid=fec5a92b-82bd-48ac-9547-956aa00aec51"},"vehicle_type_id":"4","last_reported":1762150658,"current_range_meters":11600,"station_id":"ce4bho12rcd13ifvqh1g","pricing_plan_id":"cebpf4jnsgd1na2vs0mg"},{"bike_id":"1f4bf620-5a86-4131-b1aa-491aa828d1ad","system_id":"levelo_inurba_marseille","lat":43.250849,"lon":5.395076,"is_reserved":false,"is_disabled":false,"rental_uris":{"android":"levelo://app?vid=1f4bf620-5a86-4131-b1aa-491aa828d1ad","ios":"levelo://app?vid=1f4bf620-5a86-4131-b1aa-491aa828d1ad"},"vehicle_type_id":"4","last_reported":1762150658,"current_range_meters":12000,"station_id":"ce4bhm12rcd13ifvqgkg","pricing_plan_id":"cebpf4jnsgd1na2vs0mg"},{"bike_id":"b4c048b9-1823-4e62-ab25-5a91620c3c00","system_id":"levelo_inurba_marseille","lat":43.29787,"lon":5.3811,"is_reserved":false,"is_disabled":true,"rental_uris":{"android":"levelo://app?vid=b4c048b9-1823-4e62-ab25-5a91620c3c00","ios":"levelo://app?vid=b4c048b9-1823-4e62-ab25-5a91620c3c00"},"vehicle_type_id":"4","last_reported":1762150658,"current_range_meters":12000,"station_id":"ce4bgip2rcd13ifvqbb0","pricing_plan_id":"cebpf4jnsgd1na2vs0mg"},{"bike_id":"0b29fc28-1f0d-4d6c-b71f-627728651ef4","system_id":"levelo_inurba_marseille","lat":43.301347,"lon":5.387769,"is_reserved":false,"is_disabled":false,"rental_uris":{"android":"levelo://app?vid=0b29fc28-1f0d-4d6c-b71f-627728651ef4","ios":"levelo://app?vid=0b29fc28-1f0d-4d6c-b71f-627728651ef4"},"vehicle_type_id":"4","last_reported":1762150658,"current_range_meters":12000,"station_id":"ce4bghh2rcd13ifvqb60","pricing_plan_id":"cebpf4jnsgd1na2vs0mg"},{"bike_id":"5a3b55bf-3980-4469-95ec-f32deb7bdad3","system_id":"levelo_inurba_marseille","lat":43.31411,"lon":5.39245,"is_reserved":false,"is_disabled":false,"rental_uris":{"android":"levelo://app?vid=5a3b55bf-3980-4469-95ec-f32deb7bdad3","ios":"levelo://app?vid=5a3b55bf-3980-4469-95ec-f32deb7bdad3"},"vehicle_type_id":"4","last_reported":1762150658,"current_range_meters":12000,"station_id":"","pricing_plan_id":"cebpf4jnsgd1na2vs0mg"},{"bike_id":"60bc6e1e-7591-4711-a46b-96d8fc633900","system_id":"levelo_inurba_marseille","lat":43.24061,"lon":5.37754,"is_reserved":false,"is_disabled":false,"rental_uris":{"android":"levelo://app?vid=60bc6e1e-7591-4711-a46b-96d8fc633900","ios":"levelo://app?vid=60bc6e1e-7591-4711-a46b-96d8fc633900"},"vehicle_type_id":"4","last_reported":1762150658,"current_range_meters":12000,"station_id":"ce4bhnp2rcd13ifvqgvg","pricing_plan_id":"cebpf4jnsgd1na2vs0mg"},{"bike_id":"0a54d18f-fe43-4be5-a009-461a89594788","system_id":"levelo_inurba_marseille","lat":43.28275,"lon":5.35186,"is_reserved":false,"is_disabled":true,"rental_uris":{"android":"levelo://app?vid=0a54d18f-fe43-4be5-a009-461a89594788","ios":"levelo://app?vid=0a54d18f-fe43-4be5-a009-461a89594788"},"vehicle_type_id":"4","last_reported":1762150658,"current_range_meters":12400,"station_id":"","pricing_plan_id":"cebpf4jnsgd1na2vs0mg"},{"bike_id":"bbfaa054-3bde-4aa6-8d40-ce2fd793f9c3","system_id":"levelo_inurba_marseille","lat":43.24168,"lon":5.36403,"is_reserved":false,"is_disabled":true,"rental_uris":{"android":"levelo://app?vid=bbfaa054-3bde-4aa6-8d40-ce2fd793f9c3","ios":"levelo://app?vid=bbfaa054-3bde-4aa6-8d40-ce2fd793f9c3"},"vehicle_type_id":"4","last_reported":1762150658,"current_range_meters":12400,"station_id":"cpo36qri1sfpv3e86is0","pricing_plan_id":"cebpf4jnsgd1na2vs0mg"},{"bike_id":"a86e4117-515a-45fd-a9ae-9bf165d5c212","system_id":"levelo_inurba_marseille","lat":43.31285,"lon":5.37829,"is_reserved":false,"is_disabled":false,"rental_uris":{"android":"levelo://app?vid=a86e4117-515a-45fd-a9ae-9bf165d5c212","ios":"levelo://app?vid=a86e4117-515a-45fd-a9ae-9bf165d5c212"},"vehicle_type_id":"4","last_reported":1762150658,"current_range_meters":12400,"station_id":"","pricing_plan_id":"cebpf4jnsgd1na2vs0mg"},{"bike_id":"6eb523a4-350d-4959-ac5e-1335d8f70954","system_id":"levelo_inurba_marseille","lat":43.315717,"lon":5.406423,"is_reserved":false,"is_disabled":false,"rental_uris":{"android":"levelo://app?vid=6eb523a4-350d-4959-ac5e-1335d8f70954","ios":"levelo://app?vid=6eb523a4-350d-4959-ac5e-1335d8f70954"},"vehicle_type_id":"4","last_reported":1762150658,"current_range_meters":12400,"station_id":"","pricing_plan_id":"cebpf4jnsgd1na2vs0mg"},{"bike_id":"7de4d9b9-0f7b-40c5-8432-f8a759f77d1a","system_id":"levelo_inurba_marseille","lat":43.29974,"lon":5.37175,"is_reserved":false,"is_disabled":false,"rental_uris":{"android":"levelo://app?vid=7de4d9b9-0f7b-40c5-8432-f8a759f77d1a","ios":"levelo://app?vid=7de4d9b9-0f7b-40c5-8432-f8a759f77d1a"},"vehicle_type_id":"4","last_reported":1762150658,"current_range_meters":12400,"station_id":"ce4bgr92rcd13ifvqc7g","pricing_plan_id":"cebpf4jnsgd1na2vs0mg"},{"bike_id":"2e92fea8-4cb2-44b2-b951-570ed1e11137","system_id":"levelo_inurba_marseille","lat":43.23127,"lon":5.43708,"is_reserved":false,"is_disabled":false,"rental_uris":{"android":"levelo://app?vid=2e92fea8-4cb2-44b2-b951-570ed1e11137","ios":"levelo://app?vid=2e92fea8-4cb2-44b2-b951-570ed1e11137"},"vehicle_type_id":"4","last_reported":1762150658,"current_range_meters":12400,"station_id":"ce4bhmp2rcd13ifvqgog","pricing_plan_id":"cebpf4jnsgd1na2vs0mg"},{"bike_id":"609aa62b-6b42-43fc-b33d-a59982117e81","system_id":"levelo_inurba_marseille","lat":43.274379,"lon":5.393834,"is_reserved":false,"is_disabled":true,"rental_uris":{"android":"levelo://app?vid=609aa62b-6b42-43fc-b33d-a59982117e81","ios":"levelo://app?vid=609aa62b-6b42-43fc-b33d-a59982117e81"},"vehicle_type_id":"4","last_reported":1762150658,"current_range_meters":12800,"station_id":"ce4bhdp2rcd13ifvqf20","pricing_plan_id":"cebpf4jnsgd1na2vs0mg"},{"bike_id":"cb6c36c2-4646-44ee-b9d1-9f2d0dee0a1f","system_id":"levelo_inurba_marseille","lat":43.24067,"lon":5.37762,"is_reserved":false,"is_disabled":false,"rental_uris":{"android":"levelo://app?vid=cb6c36c2-4646-44ee-b9d1-9f2d0dee0a1f","ios":"levelo://app?vid=cb6c36c2-4646-44ee-b9d1-9f2d0dee0a1f"},"vehicle_type_id":"4","last_reported":1762150658,"current_range_meters":12800,"station_id":"ce4bhnp2rcd13ifvqgvg","pricing_plan_id":"cebpf4jnsgd1na2vs0mg"},{"bike_id":"aa56963e-5f6a-4043-b1c7-23e4d9f05d8c","system_id":"levelo_inurba_marseille","lat":43.313499,"lon":5.379119,"is_reserved":false,"is_disabled":false,"rental_uris":{"android":"levelo://app?vid=aa56963e-5f6a-4043-b1c7-23e4d9f05d8c","ios":"levelo://app?vid=aa56963e-5f6a-4043-b1c7-23e4d9f05d8c"},"vehicle_type_id":"4","last_reported":1762150658,"current_range_meters":12800,"station_id":"","pricing_plan_id":"cebpf4jnsgd1na2vs0mg"},{"bike_id":"81249dfb-74e7-4e01-b7ae-b9cf56a56cc5","system_id":"levelo_inurba_marseille","lat":43.31692,"lon":5.40465,"is_reserved":false,"is_disabled":false,"rental_uris":{"android":"levelo://app?vid=81249dfb-74e7-4e01-b7ae-b9cf56a56cc5","ios":"levelo://app?vid=81249dfb-74e7-4e01-b7ae-b9cf56a56cc5"},"vehicle_type_id":"4","last_reported":1762150658,"current_range_meters":12800,"station_id":"ce4bh012rcd13ifvqd00","pricing_plan_id":"cebpf4jnsgd1na2vs0mg"},{"bike_id":"e27fda61-b1ea-4be9-b4bc-43ffc7d4bd8e","system_id":"levelo_inurba_marseille","lat":43.27924,"lon":5.39586,"is_reserved":false,"is_disabled":false,"rental_uris":{"android":"levelo://app?vid=e27fda61-b1ea-4be9-b4bc-43ffc7d4bd8e","ios":"levelo://app?vid=e27fda61-b1ea-4be9-b4bc-43ffc7d4bd8e"},"vehicle_type_id":"4","last_reported":1762150658,"current_range_meters":13600,"station_id":"ce4bhf92rcd13ifvqf40","pricing_plan_id":"cebpf4jnsgd1na2vs0mg"},{"bike_id":"b2514755-0f11-4833-b225-7d1f8289efa4","system_id":"levelo_inurba_marseille","lat":43.22939,"lon":5.35365,"is_reserved":false,"is_disabled":false,"rental_uris":{"android":"levelo://app?vid=b2514755-0f11-4833-b225-7d1f8289efa4","ios":"levelo://app?vid=b2514755-0f11-4833-b225-7d1f8289efa4"},"vehicle_type_id":"4","last_reported":1762150658,"current_range_meters":13600,"station_id":"cpo3532slgdg3j2ikp40","pricing_plan_id":"cebpf4jnsgd1na2vs0mg"},{"bike_id":"28f5c609-94bd-4f1d-9186-f66e4c2140b5","system_id":"levelo_inurba_marseille","lat":43.30729,"lon":5.42446,"is_reserved":false,"is_disabled":false,"rental_uris":{"android":"levelo://app?vid=28f5c609-94bd-4f1d-9186-f66e4c2140b5","ios":"levelo://app?vid=28f5c609-94bd-4f1d-9186-f66e4c2140b5"},"vehicle_type_id":"4","last_reported":1762150658,"current_range_meters":13600,"station_id":"st_cvj6ca6bvosntc0bfgr0","pricing_plan_id":"cebpf4jnsgd1na2vs0mg"},{"bike_id":"bc97e72b-f479-4cfb-ba90-458ce1432bd8","system_id":"levelo_inurba_marseille","lat":43.30289,"lon":5.377,"is_reserved":false,"is_disabled":true,"rental_uris":{"android":"levelo://app?vid=bc97e72b-f479-4cfb-ba90-458ce1432bd8","ios":"levelo://app?vid=bc97e72b-f479-4cfb-ba90-458ce1432bd8"},"vehicle_type_id":"4","last_reported":1762150658,"current_range_meters":13600,"station_id":"ce4bguh2rcd13ifvqcj0","pricing_plan_id":"cebpf4jnsgd1na2vs0mg"},{"bike_id":"7f4ea1c9-e771-489a-82b2-fae7d0c0a729","system_id":"levelo_inurba_marseille","lat":43.297928,"lon":5.393489,"is_reserved":false,"is_disabled":true,"rental_uris":{"android":"levelo://app?vid=7f4ea1c9-e771-489a-82b2-fae7d0c0a729","ios":"levelo://app?vid=7f4ea1c9-e771-489a-82b2-fae7d0c0a729"},"vehicle_type_id":"4","last_reported":1762150658,"current_range_meters":14000,"station_id":"chh1huq6cuj3fo74tm60","pricing_plan_id":"cebpf4jnsgd1na2vs0mg"},{"bike_id":"05133a3c-4eb3-4543-b466-5164c89c5e30","system_id":"levelo_inurba_marseille","lat":43.25332,"lon":5.4216,"is_reserved":false,"is_disabled":false,"rental_uris":{"android":"levelo://app?vid=05133a3c-4eb3-4543-b466-5164c89c5e30","ios":"levelo://app?vid=05133a3c-4eb3-4543-b466-5164c89c5e30"},"vehicle_type_id":"4","last_reported":1762150658,"current_range_meters":14000,"station_id":"st_d2m65c5bi1j21697t3ng","pricing_plan_id":"cebpf4jnsgd1na2vs0mg"},{"bike_id":"65959e76-2dec-43d3-b15c-b4e7433182fd","system_id":"levelo_inurba_marseille","lat":43.293631,"lon":5.371955,"is_reserved":false,"is_disabled":false,"rental_uris":{"android":"levelo://app?vid=65959e76-2dec-43d3-b15c-b4e7433182fd","ios":"levelo://app?vid=65959e76-2dec-43d3-b15c-b4e7433182fd"},"vehicle_type_id":"4","last_reported":1762150658,"current_range_meters":14000,"station_id":"","pricing_plan_id":"cebpf4jnsgd1na2vs0mg"},{"bike_id":"36459938-6c95-4b4c-a1a2-3e0f1fc043f2","system_id":"levelo_inurba_marseille","lat":43.29264,"lon":5.40921,"is_reserved":false,"is_disabled":false,"rental_uris":{"android":"levelo://app?vid=36459938-6c95-4b4c-a1a2-3e0f1fc043f2","ios":"levelo://app?vid=36459938-6c95-4b4c-a1a2-3e0f1fc043f2"},"vehicle_type_id":"4","last_reported":1762150658,"current_range_meters":14000,"station_id":"ce4bh192rcd13ifvqdc0","pricing_plan_id":"cebpf4jnsgd1na2vs0mg"},{"bike_id":"ef3051ac-87a4-400e-a432-5bfc2a83a3e3","system_id":"levelo_inurba_marseille","lat":43.32473,"lon":5.36544,"is_reserved":false,"is_disabled":false,"rental_uris":{"android":"levelo://app?vid=ef3051ac-87a4-400e-a432-5bfc2a83a3e3","ios":"levelo://app?vid=ef3051ac-87a4-400e-a432-5bfc2a83a3e3"},"vehicle_type_id":"4","last_reported":1762150658,"current_range_meters":14000,"station_id":"ce4bhs12rcd13ifvqhvg","pricing_plan_id":"cebpf4jnsgd1na2vs0mg"},{"bike_id":"61166d87-49fd-4891-bef4-876ae521537e","system_id":"levelo_inurba_marseille","lat":43.27924,"lon":5.39598,"is_reserved":false,"is_disabled":false,"rental_uris":{"android":"levelo://app?vid=61166d87-49fd-4891-bef4-876ae521537e","ios":"levelo://app?vid=61166d87-49fd-4891-bef4-876ae521537e"},"vehicle_type_id":"4","last_reported":1762150658,"current_range_meters":14000,"station_id":"ce4bhf92rcd13ifvqf40","pricing_plan_id":"cebpf4jnsgd1na2vs0mg"},{"bike_id":"f10c1fd0-819c-4bcb-a779-837cb537741a","system_id":"levelo_inurba_marseille","lat":43.29486,"lon":5.37466,"is_reserved":false,"is_disabled":false,"rental_uris":{"android":"levelo://app?vid=f10c1fd0-819c-4bcb-a779-837cb537741a","ios":"levelo://app?vid=f10c1fd0-819c-4bcb-a779-837cb537741a"},"vehicle_type_id":"4","last_reported":1762150658,"current_range_meters":14000,"station_id":"","pricing_plan_id":"cebpf4jnsgd1na2vs0mg"},{"bike_id":"561a5efe-bdd5-4c7d-acda-fefaa2a975c6","system_id":"levelo_inurba_marseille","lat":43.273155,"lon":5.39058,"is_reserved":false,"is_disabled":false,"rental_uris":{"android":"levelo://app?vid=561a5efe-bdd5-4c7d-acda-fefaa2a975c6","ios":"levelo://app?vid=561a5efe-bdd5-4c7d-acda-fefaa2a975c6"},"vehicle_type_id":"4","last_reported":1762150658,"current_range_meters":14400,"station_id":"ce4bhmh2rcd13ifvqgmg","pricing_plan_id":"cebpf4jnsgd1na2vs0mg"},{"bike_id":"eb37c568-c2ee-4632-9af3-8a2aea623250","system_id":"levelo_inurba_marseille","lat":43.24807,"lon":5.37457,"is_reserved":false,"is_disabled":false,"rental_uris":{"android":"levelo://app?vid=eb37c568-c2ee-4632-9af3-8a2aea623250","ios":"levelo://app?vid=eb37c568-c2ee-4632-9af3-8a2aea623250"},"vehicle_type_id":"4","last_reported":1762150658,"current_range_meters":14400,"station_id":"ce4bhgh2rcd13ifvqfb0","pricing_plan_id":"cebpf4jnsgd1na2vs0mg"},{"bike_id":"fcee59e2-db65-4ca9-a5d2-1a3d88e8c115","system_id":"levelo_inurba_marseille","lat":43.30412,"lon":5.39752,"is_reserved":false,"is_disabled":false,"rental_uris":{"android":"levelo://app?vid=fcee59e2-db65-4ca9-a5d2-1a3d88e8c115","ios":"levelo://app?vid=fcee59e2-db65-4ca9-a5d2-1a3d88e8c115"},"vehicle_type_id":"4","last_reported":1762150658,"current_range_meters":14400,"station_id":"ce4bh092rcd13ifvqd20","pricing_plan_id":"cebpf4jnsgd1na2vs0mg"},{"bike_id":"fa26f30c-f4d8-4ef3-973f-f6b6f33bca8a","system_id":"levelo_inurba_marseille","lat":43.32994,"lon":5.40379,"is_reserved":false,"is_disabled":false,"rental_uris":{"android":"levelo://app?vid=fa26f30c-f4d8-4ef3-973f-f6b6f33bca8a","ios":"levelo://app?vid=fa26f30c-f4d8-4ef3-973f-f6b6f33bca8a"},"vehicle_type_id":"4","last_reported":1762150658,"current_range_meters":14400,"station_id":"","pricing_plan_id":"cebpf4jnsgd1na2vs0mg"},{"bike_id":"079d2352-ba60-4c63-b7a4-6ec0ccf76dcc","system_id":"levelo_inurba_marseille","lat":43.257168,"lon":5.411205,"is_reserved":false,"is_disabled":false,"rental_uris":{"android":"levelo://app?vid=079d2352-ba60-4c63-b7a4-6ec0ccf76dcc","ios":"levelo://app?vid=079d2352-ba60-4c63-b7a4-6ec0ccf76dcc"},"vehicle_type_id":"4","last_reported":1762150658,"current_range_meters":14800,"station_id":"ce4bhkp2rcd13ifvqgd0","pricing_plan_id":"cebpf4jnsgd1na2vs0mg"},{"bike_id":"238e5387-9a21-4ac0-a8e7-668d58955516","system_id":"levelo_inurba_marseille","lat":43.30785,"lon":5.37641,"is_reserved":false,"is_disabled":false,"rental_uris":{"android":"levelo://app?vid=238e5387-9a21-4ac0-a8e7-668d58955516","ios":"levelo://app?vid=238e5387-9a21-4ac0-a8e7-668d58955516"},"vehicle_type_id":"4","last_reported":1762150658,"current_range_meters":14800,"station_id":"ce4bgv92rcd13ifvqcq0","pricing_plan_id":"cebpf4jnsgd1na2vs0mg"},{"bike_id":"c63d01d8-c33e-4c65-8498-c3a461a45b0a","system_id":"levelo_inurba_marseille","lat":43.27061,"lon":5.40251,"is_reserved":false,"is_disabled":false,"rental_uris":{"android":"levelo://app?vid=c63d01d8-c33e-4c65-8498-c3a461a45b0a","ios":"levelo://app?vid=c63d01d8-c33e-4c65-8498-c3a461a45b0a"},"vehicle_type_id":"4","last_reported":1762150658,"current_range_meters":14800,"station_id":"ce4bhk92rcd13ifvqgc0","pricing_plan_id":"cebpf4jnsgd1na2vs0mg"},{"bike_id":"14e0fcd6-488b-4da1-b9ec-2f06247e9652","system_id":"levelo_inurba_marseille","lat":43.30728,"lon":5.42449,"is_reserved":false,"is_disabled":false,"rental_uris":{"android":"levelo://app?vid=14e0fcd6-488b-4da1-b9ec-2f06247e9652","ios":"levelo://app?vid=14e0fcd6-488b-4da1-b9ec-2f06247e9652"},"vehicle_type_id":"4","last_reported":1762150658,"current_range_meters":14800,"station_id":"st_cvj6ca6bvosntc0bfgr0","pricing_plan_id":"cebpf4jnsgd1na2vs0mg"},{"bike_id":"1b1e71cc-c221-4e91-89c8-2d987f944d9c","system_id":"levelo_inurba_marseille","lat":43.24158,"lon":5.36412,"is_reserved":false,"is_disabled":true,"rental_uris":{"android":"levelo://app?vid=1b1e71cc-c221-4e91-89c8-2d987f944d9c","ios":"levelo://app?vid=1b1e71cc-c221-4e91-89c8-2d987f944d9c"},"vehicle_type_id":"4","last_reported":1762150658,"current_range_meters":14800,"station_id":"cpo36qri1sfpv3e86is0","pricing_plan_id":"cebpf4jnsgd1na2vs0mg"},{"bike_id":"054e5513-a18a-4fec-bab2-96a168188b7d","system_id":"levelo_inurba_marseille","lat":43.31178,"lon":5.3737,"is_reserved":false,"is_disabled":false,"rental_uris":{"android":"levelo://app?vid=054e5513-a18a-4fec-bab2-96a168188b7d","ios":"levelo://app?vid=054e5513-a18a-4fec-bab2-96a168188b7d"},"vehicle_type_id":"4","last_reported":1762150658,"current_range_meters":14800,"station_id":"","pricing_plan_id":"cebpf4jnsgd1na2vs0mg"},{"bike_id":"1a9255c3-f809-427d-b153-cdb99d824189","system_id":"levelo_inurba_marseille","lat":43.2496,"lon":5.40498,"is_reserved":false,"is_disabled":false,"rental_uris":{"android":"levelo://app?vid=1a9255c3-f809-427d-b153-cdb99d824189","ios":"levelo://app?vid=1a9255c3-f809-427d-b153-cdb99d824189"},"vehicle_type_id":"4","last_reported":1762150658,"current_range_meters":14800,"station_id":"st_d2ngiaodas8pm72gd1h0","pricing_plan_id":"cebpf4jnsgd1na2vs0mg"},{"bike_id":"32d4a401-7eac-4706-9e22-d4c2a7e55b17","system_id":"levelo_inurba_marseille","lat":43.24646,"lon":5.43125,"is_reserved":false,"is_disabled":false,"rental_uris":{"android":"levelo://app?vid=32d4a401-7eac-4706-9e22-d4c2a7e55b17","ios":"levelo://app?vid=32d4a401-7eac-4706-9e22-d4c2a7e55b17"},"vehicle_type_id":"4","last_reported":1762150658,"current_range_meters":15200,"station_id":"st_d2m6c4gdas8pm72e190g","pricing_plan_id":"cebpf4jnsgd1na2vs0mg"},{"bike_id":"2457a6da-e737-4e7a-9c85-e9723cf378b9","system_id":"levelo_inurba_marseille","lat":43.27185,"lon":5.40994,"is_reserved":false,"is_disabled":false,"rental_uris":{"android":"levelo://app?vid=2457a6da-e737-4e7a-9c85-e9723cf378b9","ios":"levelo://app?vid=2457a6da-e737-4e7a-9c85-e9723cf378b9"},"vehicle_type_id":"4","last_reported":1762150658,"current_range_meters":15200,"station_id":"ce4bhl12rcd13ifvqgf0","pricing_plan_id":"cebpf4jnsgd1na2vs0mg"},{"bike_id":"cfc27691-61f7-4b7d-9c2b-fa331c214f26","system_id":"levelo_inurba_marseille","lat":43.280335,"lon":5.369477,"is_reserved":false,"is_disabled":false,"rental_uris":{"android":"levelo://app?vid=cfc27691-61f7-4b7d-9c2b-fa331c214f26","ios":"levelo://app?vid=cfc27691-61f7-4b7d-9c2b-fa331c214f26"},"vehicle_type_id":"4","last_reported":1762150658,"current_range_meters":15200,"station_id":"ce4bha12rcd13ifvqef0","pricing_plan_id":"cebpf4jnsgd1na2vs0mg"},{"bike_id":"dbf47974-c0cd-4d34-8ddb-f4c787c09a8a","system_id":"levelo_inurba_marseille","lat":43.31697,"lon":5.40467,"is_reserved":false,"is_disabled":false,"rental_uris":{"android":"levelo://app?vid=dbf47974-c0cd-4d34-8ddb-f4c787c09a8a","ios":"levelo://app?vid=dbf47974-c0cd-4d34-8ddb-f4c787c09a8a"},"vehicle_type_id":"4","last_reported":1762150658,"current_range_meters":15200,"station_id":"","pricing_plan_id":"cebpf4jnsgd1na2vs0mg"},{"bike_id":"822c328b-6288-4111-8d02-9fd184fd3387","system_id":"levelo_inurba_marseille","lat":43.30454,"lon":5.37904,"is_reserved":false,"is_disabled":false,"rental_uris":{"android":"levelo://app?vid=822c328b-6288-4111-8d02-9fd184fd3387","ios":"levelo://app?vid=822c328b-6288-4111-8d02-9fd184fd3387"},"vehicle_type_id":"4","last_reported":1762150658,"current_range_meters":15200,"station_id":"ce4bgup2rcd13ifvqcn0","pricing_plan_id":"cebpf4jnsgd1na2vs0mg"},{"bike_id":"5a96cc8c-7aea-4f8c-941f-8c7122bd9517","system_id":"levelo_inurba_marseille","lat":43.284778,"lon":5.483896,"is_reserved":false,"is_disabled":false,"rental_uris":{"android":"levelo://app?vid=5a96cc8c-7aea-4f8c-941f-8c7122bd9517","ios":"levelo://app?vid=5a96cc8c-7aea-4f8c-941f-8c7122bd9517"},"vehicle_type_id":"4","last_reported":1762150658,"current_range_meters":16000,"station_id":"","pricing_plan_id":"cebpf4jnsgd1na2vs0mg"},{"bike_id":"4c4b8bcf-4ef8-4551-8b0c-0892f8af6559","system_id":"levelo_inurba_marseille","lat":43.22569,"lon":5.4164,"is_reserved":false,"is_disabled":false,"rental_uris":{"android":"levelo://app?vid=4c4b8bcf-4ef8-4551-8b0c-0892f8af6559","ios":"levelo://app?vid=4c4b8bcf-4ef8-4551-8b0c-0892f8af6559"},"vehicle_type_id":"4","last_reported":1762150658,"current_range_meters":16000,"station_id":"st_d2o4gvlbi1j2169b742g","pricing_plan_id":"cebpf4jnsgd1na2vs0mg"},{"bike_id":"7273bb4c-7b97-46c2-a633-6e5e1fe1f98b","system_id":"levelo_inurba_marseille","lat":43.28515,"lon":5.44114,"is_reserved":false,"is_disabled":false,"rental_uris":{"android":"levelo://app?vid=7273bb4c-7b97-46c2-a633-6e5e1fe1f98b","ios":"levelo://app?vid=7273bb4c-7b97-46c2-a633-6e5e1fe1f98b"},"vehicle_type_id":"4","last_reported":1762150658,"current_range_meters":16000,"station_id":"st_d3j3df2ikq2c7380ej80","pricing_plan_id":"cebpf4jnsgd1na2vs0mg"},{"bike_id":"aad6a064-c048-4ba9-a156-1745b89548aa","system_id":"levelo_inurba_marseille","lat":43.28314,"lon":5.411,"is_reserved":false,"is_disabled":false,"rental_uris":{"android":"levelo://app?vid=aad6a064-c048-4ba9-a156-1745b89548aa","ios":"levelo://app?vid=aad6a064-c048-4ba9-a156-1745b89548aa"},"vehicle_type_id":"4","last_reported":1762150658,"current_range_meters":16000,"station_id":"","pricing_plan_id":"cebpf4jnsgd1na2vs0mg"},{"bike_id":"88a37c3f-2822-4e65-9019-f92712cd5915","system_id":"levelo_inurba_marseille","lat":43.21186,"lon":5.35078,"is_reserved":false,"is_disabled":true,"rental_uris":{"android":"levelo://app?vid=88a37c3f-2822-4e65-9019-f92712cd5915","ios":"levelo://app?vid=88a37c3f-2822-4e65-9019-f92712cd5915"},"vehicle_type_id":"4","last_reported":1762150658,"current_range_meters":16000,"station_id":"st_cvj6sg6p6f1abm77japg","pricing_plan_id":"cebpf4jnsgd1na2vs0mg"},{"bike_id":"600594a6-be69-4e43-ad17-c2d891da9a62","system_id":"levelo_inurba_marseille","lat":43.29019,"lon":5.38141,"is_reserved":false,"is_disabled":true,"rental_uris":{"android":"levelo://app?vid=600594a6-be69-4e43-ad17-c2d891da9a62","ios":"levelo://app?vid=600594a6-be69-4e43-ad17-c2d891da9a62"},"vehicle_type_id":"4","last_reported":1762150658,"current_range_meters":16400,"station_id":"ce4bh4p2rcd13ifvqe1g","pricing_plan_id":"cebpf4jnsgd1na2vs0mg"},{"bike_id":"4316ebb6-af9e-414e-ba87-072103d4da75","system_id":"levelo_inurba_marseille","lat":43.33511,"lon":5.39752,"is_reserved":false,"is_disabled":false,"rental_uris":{"android":"levelo://app?vid=4316ebb6-af9e-414e-ba87-072103d4da75","ios":"levelo://app?vid=4316ebb6-af9e-414e-ba87-072103d4da75"},"vehicle_type_id":"4","last_reported":1762150658,"current_range_meters":16400,"station_id":"","pricing_plan_id":"cebpf4jnsgd1na2vs0mg"},{"bike_id":"ac2f2e0c-7f3a-4615-95a9-755ddbeafcff","system_id":"levelo_inurba_marseille","lat":43.27376,"lon":5.36253,"is_reserved":false,"is_disabled":true,"rental_uris":{"android":"levelo://app?vid=ac2f2e0c-7f3a-4615-95a9-755ddbeafcff","ios":"levelo://app?vid=ac2f2e0c-7f3a-4615-95a9-755ddbeafcff"},"vehicle_type_id":"4","last_reported":1762150658,"current_range_meters":16400,"station_id":"ce4bhbh2rcd13ifvqeo0","pricing_plan_id":"cebpf4jnsgd1na2vs0mg"},{"bike_id":"d1b7e294-8ae6-48ef-89d0-e05e23f9f8e0","system_id":"levelo_inurba_marseille","lat":43.29531,"lon":5.36107,"is_reserved":false,"is_disabled":true,"rental_uris":{"android":"levelo://app?vid=d1b7e294-8ae6-48ef-89d0-e05e23f9f8e0","ios":"levelo://app?vid=d1b7e294-8ae6-48ef-89d0-e05e23f9f8e0"},"vehicle_type_id":"4","last_reported":1762150658,"current_range_meters":16400,"station_id":"","pricing_plan_id":"cebpf4jnsgd1na2vs0mg"},{"bike_id":"03518348-a473-43a5-aebe-4dbf2f87920e","system_id":"levelo_inurba_marseille","lat":43.28488,"lon":5.3788,"is_reserved":false,"is_disabled":false,"rental_uris":{"android":"levelo://app?vid=03518348-a473-43a5-aebe-4dbf2f87920e","ios":"levelo://app?vid=03518348-a473-43a5-aebe-4dbf2f87920e"},"vehicle_type_id":"4","last_reported":1762150658,"current_range_meters":16400,"station_id":"","pricing_plan_id":"cebpf4jnsgd1na2vs0mg"},{"bike_id":"05d6a3f7-b83a-4da1-9593-ef5015b8f8ec","system_id":"levelo_inurba_marseille","lat":43.28047,"lon":5.39965,"is_reserved":false,"is_disabled":false,"rental_uris":{"android":"levelo://app?vid=05d6a3f7-b83a-4da1-9593-ef5015b8f8ec","ios":"levelo://app?vid=05d6a3f7-b83a-4da1-9593-ef5015b8f8ec"},"vehicle_type_id":"4","last_reported":1762150658,"current_range_meters":16400,"station_id":"","pricing_plan_id":"cebpf4jnsgd1na2vs0mg"},{"bike_id":"a8ec203b-d616-4825-acb4-ec9a8037e9f2","system_id":"levelo_inurba_marseille","lat":43.28139,"lon":5.38336,"is_reserved":false,"is_disabled":false,"rental_uris":{"android":"levelo://app?vid=a8ec203b-d616-4825-acb4-ec9a8037e9f2","ios":"levelo://app?vid=a8ec203b-d616-4825-acb4-ec9a8037e9f2"},"vehicle_type_id":"4","last_reported":1762150658,"current_range_meters":16400,"station_id":"","pricing_plan_id":"cebpf4jnsgd1na2vs0mg"},{"bike_id":"e7f5bc6d-4c00-409e-904d-e5b750d916a9","system_id":"levelo_inurba_marseille","lat":43.2853,"lon":5.44112,"is_reserved":false,"is_disabled":false,"rental_uris":{"android":"levelo://app?vid=e7f5bc6d-4c00-409e-904d-e5b750d916a9","ios":"levelo://app?vid=e7f5bc6d-4c00-409e-904d-e5b750d916a9"},"vehicle_type_id":"4","last_reported":1762150658,"current_range_meters":16800,"station_id":"st_d3j3df2ikq2c7380ej80","pricing_plan_id":"cebpf4jnsgd1na2vs0mg"},{"bike_id":"71b45b4b-15cb-4bff-a519-69121756ac1d","system_id":"levelo_inurba_marseille","lat":43.24662,"lon":5.3887,"is_reserved":false,"is_disabled":false,"rental_uris":{"android":"levelo://app?vid=71b45b4b-15cb-4bff-a519-69121756ac1d","ios":"levelo://app?vid=71b45b4b-15cb-4bff-a519-69121756ac1d"},"vehicle_type_id":"4","last_reported":1762150658,"current_range_meters":16800,"station_id":"ce4bhg12rcd13ifvqf60","pricing_plan_id":"cebpf4jnsgd1na2vs0mg"},{"bike_id":"c37decea-906a-43ca-8450-8ed6fad0917a","system_id":"levelo_inurba_marseille","lat":43.217441,"lon":5.346122,"is_reserved":false,"is_disabled":false,"rental_uris":{"android":"levelo://app?vid=c37decea-906a-43ca-8450-8ed6fad0917a","ios":"levelo://app?vid=c37decea-906a-43ca-8450-8ed6fad0917a"},"vehicle_type_id":"4","last_reported":1762150658,"current_range_meters":16800,"station_id":"","pricing_plan_id":"cebpf4jnsgd1na2vs0mg"},{"bike_id":"5eee67bb-3614-4f3b-ab22-554d031d3012","system_id":"levelo_inurba_marseille","lat":43.25724,"lon":5.41119,"is_reserved":false,"is_disabled":false,"rental_uris":{"android":"levelo://app?vid=5eee67bb-3614-4f3b-ab22-554d031d3012","ios":"levelo://app?vid=5eee67bb-3614-4f3b-ab22-554d031d3012"},"vehicle_type_id":"4","last_reported":1762150658,"current_range_meters":16800,"station_id":"ce4bhkp2rcd13ifvqgd0","pricing_plan_id":"cebpf4jnsgd1na2vs0mg"},{"bike_id":"145adec1-02ad-4d16-a5dd-42bf80721343","system_id":"levelo_inurba_marseille","lat":43.30117,"lon":5.38443,"is_reserved":false,"is_disabled":false,"rental_uris":{"android":"levelo://app?vid=145adec1-02ad-4d16-a5dd-42bf80721343","ios":"levelo://app?vid=145adec1-02ad-4d16-a5dd-42bf80721343"},"vehicle_type_id":"4","last_reported":1762150658,"current_range_meters":16800,"station_id":"","pricing_plan_id":"cebpf4jnsgd1na2vs0mg"},{"bike_id":"5eb9db26-abf8-4b3a-a40c-77af04cc957e","system_id":"levelo_inurba_marseille","lat":43.24148,"lon":5.36398,"is_reserved":false,"is_disabled":false,"rental_uris":{"android":"levelo://app?vid=5eb9db26-abf8-4b3a-a40c-77af04cc957e","ios":"levelo://app?vid=5eb9db26-abf8-4b3a-a40c-77af04cc957e"},"vehicle_type_id":"4","last_reported":1762150658,"current_range_meters":16800,"station_id":"cpo36qri1sfpv3e86is0","pricing_plan_id":"cebpf4jnsgd1na2vs0mg"},{"bike_id":"69c1aeeb-9516-4f56-9a6b-c0e80261caaf","system_id":"levelo_inurba_marseille","lat":43.26556,"lon":5.37312,"is_reserved":false,"is_disabled":false,"rental_uris":{"android":"levelo://app?vid=69c1aeeb-9516-4f56-9a6b-c0e80261caaf","ios":"levelo://app?vid=69c1aeeb-9516-4f56-9a6b-c0e80261caaf"},"vehicle_type_id":"4","last_reported":1762150658,"current_range_meters":16800,"station_id":"ce4bhg12rcd13ifvqf70","pricing_plan_id":"cebpf4jnsgd1na2vs0mg"},{"bike_id":"0b0c3ccd-c9f7-42c0-aa5e-7e6469ec820c","system_id":"levelo_inurba_marseille","lat":43.25518,"lon":5.37657,"is_reserved":false,"is_disabled":false,"rental_uris":{"android":"levelo://app?vid=0b0c3ccd-c9f7-42c0-aa5e-7e6469ec820c","ios":"levelo://app?vid=0b0c3ccd-c9f7-42c0-aa5e-7e6469ec820c"},"vehicle_type_id":"4","last_reported":1762150658,"current_range_meters":16800,"station_id":"ce4bhh12rcd13ifvqff0","pricing_plan_id":"cebpf4jnsgd1na2vs0mg"},{"bike_id":"dfafc353-61c4-40ae-835b-c3799534af4a","system_id":"levelo_inurba_marseille","lat":43.2956,"lon":5.37509,"is_reserved":false,"is_disabled":true,"rental_uris":{"android":"levelo://app?vid=dfafc353-61c4-40ae-835b-c3799534af4a","ios":"levelo://app?vid=dfafc353-61c4-40ae-835b-c3799534af4a"},"vehicle_type_id":"4","last_reported":1762150658,"current_range_meters":16800,"station_id":"ce4bgh92rcd13ifvqb50","pricing_plan_id":"cebpf4jnsgd1na2vs0mg"},{"bike_id":"fdfa22f5-dc36-4644-8eb0-e0aa2a1f5c2a","system_id":"levelo_inurba_marseille","lat":43.28489,"lon":5.38585,"is_reserved":false,"is_disabled":false,"rental_uris":{"android":"levelo://app?vid=fdfa22f5-dc36-4644-8eb0-e0aa2a1f5c2a","ios":"levelo://app?vid=fdfa22f5-dc36-4644-8eb0-e0aa2a1f5c2a"},"vehicle_type_id":"4","last_reported":1762150658,"current_range_meters":16800,"station_id":"ce4bh8p2rcd13ifvqeb0","pricing_plan_id":"cebpf4jnsgd1na2vs0mg"},{"bike_id":"87a4a94b-97ae-4ad7-ac15-44fb37281e5e","system_id":"levelo_inurba_marseille","lat":43.307346,"lon":5.424356,"is_reserved":false,"is_disabled":false,"rental_uris":{"android":"levelo://app?vid=87a4a94b-97ae-4ad7-ac15-44fb37281e5e","ios":"levelo://app?vid=87a4a94b-97ae-4ad7-ac15-44fb37281e5e"},"vehicle_type_id":"4","last_reported":1762150658,"current_range_meters":16800,"station_id":"st_cvj6ca6bvosntc0bfgr0","pricing_plan_id":"cebpf4jnsgd1na2vs0mg"},{"bike_id":"7aef1029-9880-4ac1-bc62-5df1ae769dad","system_id":"levelo_inurba_marseille","lat":43.31006,"lon":5.37024,"is_reserved":false,"is_disabled":false,"rental_uris":{"android":"levelo://app?vid=7aef1029-9880-4ac1-bc62-5df1ae769dad","ios":"levelo://app?vid=7aef1029-9880-4ac1-bc62-5df1ae769dad"},"vehicle_type_id":"4","last_reported":1762150658,"current_range_meters":16800,"station_id":"","pricing_plan_id":"cebpf4jnsgd1na2vs0mg"},{"bike_id":"ba8beff8-2a00-446e-8803-415bde955a8b","system_id":"levelo_inurba_marseille","lat":43.30537,"lon":5.36554,"is_reserved":false,"is_disabled":false,"rental_uris":{"android":"levelo://app?vid=ba8beff8-2a00-446e-8803-415bde955a8b","ios":"levelo://app?vid=ba8beff8-2a00-446e-8803-415bde955a8b"},"vehicle_type_id":"4","last_reported":1762150658,"current_range_meters":16800,"station_id":"ce4bgs12rcd13ifvqcag","pricing_plan_id":"cebpf4jnsgd1na2vs0mg"},{"bike_id":"bb50bd2a-e9d2-4da1-ba78-7e5b23b1a722","system_id":"levelo_inurba_marseille","lat":43.30187,"lon":5.37045,"is_reserved":false,"is_disabled":false,"rental_uris":{"android":"levelo://app?vid=bb50bd2a-e9d2-4da1-ba78-7e5b23b1a722","ios":"levelo://app?vid=bb50bd2a-e9d2-4da1-ba78-7e5b23b1a722"},"vehicle_type_id":"4","last_reported":1762150658,"current_range_meters":17200,"station_id":"","pricing_plan_id":"cebpf4jnsgd1na2vs0mg"},{"bike_id":"782a02c9-f51b-4b61-89b2-ec2ecf7d0e40","system_id":"levelo_inurba_marseille","lat":43.24947,"lon":5.40487,"is_reserved":false,"is_disabled":false,"rental_uris":{"android":"levelo://app?vid=782a02c9-f51b-4b61-89b2-ec2ecf7d0e40","ios":"levelo://app?vid=782a02c9-f51b-4b61-89b2-ec2ecf7d0e40"},"vehicle_type_id":"4","last_reported":1762150658,"current_range_meters":17200,"station_id":"st_d2ngiaodas8pm72gd1h0","pricing_plan_id":"cebpf4jnsgd1na2vs0mg"},{"bike_id":"7697f83b-11c1-4978-89f1-e9d9aca50ac7","system_id":"levelo_inurba_marseille","lat":43.246763,"lon":5.381874,"is_reserved":false,"is_disabled":true,"rental_uris":{"android":"levelo://app?vid=7697f83b-11c1-4978-89f1-e9d9aca50ac7","ios":"levelo://app?vid=7697f83b-11c1-4978-89f1-e9d9aca50ac7"},"vehicle_type_id":"4","last_reported":1762150658,"current_range_meters":17200,"station_id":"ce4bhih2rcd13ifvqfr0","pricing_plan_id":"cebpf4jnsgd1na2vs0mg"},{"bike_id":"e8b28a79-d960-431b-99a8-00e81e08fcb5","system_id":"levelo_inurba_marseille","lat":43.24626,"lon":5.4314,"is_reserved":false,"is_disabled":false,"rental_uris":{"android":"levelo://app?vid=e8b28a79-d960-431b-99a8-00e81e08fcb5","ios":"levelo://app?vid=e8b28a79-d960-431b-99a8-00e81e08fcb5"},"vehicle_type_id":"4","last_reported":1762150658,"current_range_meters":17200,"station_id":"st_d2m6c4gdas8pm72e190g","pricing_plan_id":"cebpf4jnsgd1na2vs0mg"},{"bike_id":"a8d0be4c-3e38-4247-b462-6e35f9043fea","system_id":"levelo_inurba_marseille","lat":43.2573,"lon":5.41093,"is_reserved":false,"is_disabled":true,"rental_uris":{"android":"levelo://app?vid=a8d0be4c-3e38-4247-b462-6e35f9043fea","ios":"levelo://app?vid=a8d0be4c-3e38-4247-b462-6e35f9043fea"},"vehicle_type_id":"4","last_reported":1762150658,"current_range_meters":17200,"station_id":"ce4bhkp2rcd13ifvqgd0","pricing_plan_id":"cebpf4jnsgd1na2vs0mg"},{"bike_id":"37843105-62c4-4d82-bee6-44395fbbf429","system_id":"levelo_inurba_marseille","lat":43.245612,"lon":5.416148,"is_reserved":false,"is_disabled":false,"rental_uris":{"android":"levelo://app?vid=37843105-62c4-4d82-bee6-44395fbbf429","ios":"levelo://app?vid=37843105-62c4-4d82-bee6-44395fbbf429"},"vehicle_type_id":"4","last_reported":1762150658,"current_range_meters":17200,"station_id":"","pricing_plan_id":"cebpf4jnsgd1na2vs0mg"},{"bike_id":"51bf3cb7-470c-477e-9e73-8c565aae20cb","system_id":"levelo_inurba_marseille","lat":43.29742,"lon":5.42692,"is_reserved":false,"is_disabled":false,"rental_uris":{"android":"levelo://app?vid=51bf3cb7-470c-477e-9e73-8c565aae20cb","ios":"levelo://app?vid=51bf3cb7-470c-477e-9e73-8c565aae20cb"},"vehicle_type_id":"4","last_reported":1762150658,"current_range_meters":17600,"station_id":"","pricing_plan_id":"cebpf4jnsgd1na2vs0mg"},{"bike_id":"258d165a-449f-4925-b56e-beae8f481fb2","system_id":"levelo_inurba_marseille","lat":43.284004,"lon":5.349923,"is_reserved":false,"is_disabled":true,"rental_uris":{"android":"levelo://app?vid=258d165a-449f-4925-b56e-beae8f481fb2","ios":"levelo://app?vid=258d165a-449f-4925-b56e-beae8f481fb2"},"vehicle_type_id":"4","last_reported":1762150658,"current_range_meters":17600,"station_id":"","pricing_plan_id":"cebpf4jnsgd1na2vs0mg"},{"bike_id":"e8adea7e-0a90-49fd-b3a2-32134cae9db0","system_id":"levelo_inurba_marseille","lat":43.21189,"lon":5.35071,"is_reserved":false,"is_disabled":false,"rental_uris":{"android":"levelo://app?vid=e8adea7e-0a90-49fd-b3a2-32134cae9db0","ios":"levelo://app?vid=e8adea7e-0a90-49fd-b3a2-32134cae9db0"},"vehicle_type_id":"4","last_reported":1762150658,"current_range_meters":17600,"station_id":"","pricing_plan_id":"cebpf4jnsgd1na2vs0mg"},{"bike_id":"7266ed46-2381-404a-9c13-a92f05fa953b","system_id":"levelo_inurba_marseille","lat":43.337608,"lon":5.374329,"is_reserved":false,"is_disabled":false,"rental_uris":{"android":"levelo://app?vid=7266ed46-2381-404a-9c13-a92f05fa953b","ios":"levelo://app?vid=7266ed46-2381-404a-9c13-a92f05fa953b"},"vehicle_type_id":"4","last_reported":1762150658,"current_range_meters":17600,"station_id":"","pricing_plan_id":"cebpf4jnsgd1na2vs0mg"},{"bike_id":"f234ad47-0901-40bf-a06a-e46adc6b907e","system_id":"levelo_inurba_marseille","lat":43.23199,"lon":5.35476,"is_reserved":false,"is_disabled":true,"rental_uris":{"android":"levelo://app?vid=f234ad47-0901-40bf-a06a-e46adc6b907e","ios":"levelo://app?vid=f234ad47-0901-40bf-a06a-e46adc6b907e"},"vehicle_type_id":"4","last_reported":1762150658,"current_range_meters":17600,"station_id":"","pricing_plan_id":"cebpf4jnsgd1na2vs0mg"},{"bike_id":"7ee96323-da9c-4c60-bbe4-d1054018acab","system_id":"levelo_inurba_marseille","lat":43.30538,"lon":5.36691,"is_reserved":false,"is_disabled":true,"rental_uris":{"android":"levelo://app?vid=7ee96323-da9c-4c60-bbe4-d1054018acab","ios":"levelo://app?vid=7ee96323-da9c-4c60-bbe4-d1054018acab"},"vehicle_type_id":"4","last_reported":1762150658,"current_range_meters":17600,"station_id":"","pricing_plan_id":"cebpf4jnsgd1na2vs0mg"},{"bike_id":"000ce947-4908-4c11-b0bd-313c6978ddf6","system_id":"levelo_inurba_marseille","lat":43.28472,"lon":5.38435,"is_reserved":false,"is_disabled":false,"rental_uris":{"android":"levelo://app?vid=000ce947-4908-4c11-b0bd-313c6978ddf6","ios":"levelo://app?vid=000ce947-4908-4c11-b0bd-313c6978ddf6"},"vehicle_type_id":"4","last_reported":1762150658,"current_range_meters":18000,"station_id":"ce4bh512rcd13ifvqe3g","pricing_plan_id":"cebpf4jnsgd1na2vs0mg"},{"bike_id":"7b3ada81-0ff3-49e9-8471-eb10e4c9b7f2","system_id":"levelo_inurba_marseille","lat":43.290189,"lon":5.381331,"is_reserved":false,"is_disabled":false,"rental_uris":{"android":"levelo://app?vid=7b3ada81-0ff3-49e9-8471-eb10e4c9b7f2","ios":"levelo://app?vid=7b3ada81-0ff3-49e9-8471-eb10e4c9b7f2"},"vehicle_type_id":"4","last_reported":1762150658,"current_range_meters":18000,"station_id":"ce4bh4p2rcd13ifvqe1g","pricing_plan_id":"cebpf4jnsgd1na2vs0mg"},{"bike_id":"9c182b54-339d-4510-b32d-4fa9957bf129","system_id":"levelo_inurba_marseille","lat":43.24064,"lon":5.37766,"is_reserved":false,"is_disabled":false,"rental_uris":{"android":"levelo://app?vid=9c182b54-339d-4510-b32d-4fa9957bf129","ios":"levelo://app?vid=9c182b54-339d-4510-b32d-4fa9957bf129"},"vehicle_type_id":"4","last_reported":1762150658,"current_range_meters":18000,"station_id":"ce4bhnp2rcd13ifvqgvg","pricing_plan_id":"cebpf4jnsgd1na2vs0mg"},{"bike_id":"20e70bf0-b6e6-4e7a-add8-8e0c8d57fdb0","system_id":"levelo_inurba_marseille","lat":43.24745,"lon":5.40682,"is_reserved":false,"is_disabled":false,"rental_uris":{"android":"levelo://app?vid=20e70bf0-b6e6-4e7a-add8-8e0c8d57fdb0","ios":"levelo://app?vid=20e70bf0-b6e6-4e7a-add8-8e0c8d57fdb0"},"vehicle_type_id":"4","last_reported":1762150658,"current_range_meters":18800,"station_id":"","pricing_plan_id":"cebpf4jnsgd1na2vs0mg"},{"bike_id":"5cfd3702-7691-45d0-bc4c-dd48583392da","system_id":"levelo_inurba_marseille","lat":43.2894,"lon":5.39626,"is_reserved":false,"is_disabled":true,"rental_uris":{"android":"levelo://app?vid=5cfd3702-7691-45d0-bc4c-dd48583392da","ios":"levelo://app?vid=5cfd3702-7691-45d0-bc4c-dd48583392da"},"vehicle_type_id":"4","last_reported":1762150658,"current_range_meters":18800,"station_id":"ce4bh3h2rcd13ifvqdn0","pricing_plan_id":"cebpf4jnsgd1na2vs0mg"},{"bike_id":"9aa8e647-5d35-4da4-a0d7-9280e13a02c7","system_id":"levelo_inurba_marseille","lat":43.28128,"lon":5.42647,"is_reserved":false,"is_disabled":false,"rental_uris":{"android":"levelo://app?vid=9aa8e647-5d35-4da4-a0d7-9280e13a02c7","ios":"levelo://app?vid=9aa8e647-5d35-4da4-a0d7-9280e13a02c7"},"vehicle_type_id":"4","last_reported":1762150658,"current_range_meters":18800,"station_id":"ce4bhnh2rcd13ifvqgug","pricing_plan_id":"cebpf4jnsgd1na2vs0mg"},{"bike_id":"e7082184-bbd2-4e79-aba1-51e0892249ea","system_id":"levelo_inurba_marseille","lat":43.2705,"lon":5.42288,"is_reserved":false,"is_disabled":false,"rental_uris":{"android":"levelo://app?vid=e7082184-bbd2-4e79-aba1-51e0892249ea","ios":"levelo://app?vid=e7082184-bbd2-4e79-aba1-51e0892249ea"},"vehicle_type_id":"4","last_reported":1762150658,"current_range_meters":18800,"station_id":"ce4bhk92rcd13ifvqgb0","pricing_plan_id":"cebpf4jnsgd1na2vs0mg"},{"bike_id":"484598d9-3fc7-4dd6-8292-f3adcea97683","system_id":"levelo_inurba_marseille","lat":43.32392,"lon":5.36757,"is_reserved":false,"is_disabled":false,"rental_uris":{"android":"levelo://app?vid=484598d9-3fc7-4dd6-8292-f3adcea97683","ios":"levelo://app?vid=484598d9-3fc7-4dd6-8292-f3adcea97683"},"vehicle_type_id":"4","last_reported":1762150658,"current_range_meters":18800,"station_id":"ce4bhsh2rcd13ifvqi2g","pricing_plan_id":"cebpf4jnsgd1na2vs0mg"},{"bike_id":"45178dd9-b960-4161-871b-52bd5ff2bc66","system_id":"levelo_inurba_marseille","lat":43.25522,"lon":5.37651,"is_reserved":false,"is_disabled":false,"rental_uris":{"android":"levelo://app?vid=45178dd9-b960-4161-871b-52bd5ff2bc66","ios":"levelo://app?vid=45178dd9-b960-4161-871b-52bd5ff2bc66"},"vehicle_type_id":"4","last_reported":1762150658,"current_range_meters":18800,"station_id":"ce4bhh12rcd13ifvqff0","pricing_plan_id":"cebpf4jnsgd1na2vs0mg"},{"bike_id":"5225d382-76e2-4da5-a248-b31b5a43f796","system_id":"levelo_inurba_marseille","lat":43.24171,"lon":5.39721,"is_reserved":false,"is_disabled":false,"rental_uris":{"android":"levelo://app?vid=5225d382-76e2-4da5-a248-b31b5a43f796","ios":"levelo://app?vid=5225d382-76e2-4da5-a248-b31b5a43f796"},"vehicle_type_id":"4","last_reported":1762150658,"current_range_meters":18800,"station_id":"ce4bhn12rcd13ifvqgpg","pricing_plan_id":"cebpf4jnsgd1na2vs0mg"},{"bike_id":"b4dde6e3-ddc1-4617-9a9a-ccef2987eb1d","system_id":"levelo_inurba_marseille","lat":43.30149,"lon":5.38089,"is_reserved":false,"is_disabled":false,"rental_uris":{"android":"levelo://app?vid=b4dde6e3-ddc1-4617-9a9a-ccef2987eb1d","ios":"levelo://app?vid=b4dde6e3-ddc1-4617-9a9a-ccef2987eb1d"},"vehicle_type_id":"4","last_reported":1762150658,"current_range_meters":19200,"station_id":"ce4bgjp2rcd13ifvqbh0","pricing_plan_id":"cebpf4jnsgd1na2vs0mg"},{"bike_id":"b2737500-4dea-476f-aff3-24f8b3bdd233","system_id":"levelo_inurba_marseille","lat":43.30059,"lon":5.37846,"is_reserved":false,"is_disabled":true,"rental_uris":{"android":"levelo://app?vid=b2737500-4dea-476f-aff3-24f8b3bdd233","ios":"levelo://app?vid=b2737500-4dea-476f-aff3-24f8b3bdd233"},"vehicle_type_id":"4","last_reported":1762150658,"current_range_meters":19200,"station_id":"","pricing_plan_id":"cebpf4jnsgd1na2vs0mg"},{"bike_id":"94c8e5dd-db6b-4b74-9c2f-ff1511050070","system_id":"levelo_inurba_marseille","lat":43.28435,"lon":5.37516,"is_reserved":false,"is_disabled":false,"rental_uris":{"android":"levelo://app?vid=94c8e5dd-db6b-4b74-9c2f-ff1511050070","ios":"levelo://app?vid=94c8e5dd-db6b-4b74-9c2f-ff1511050070"},"vehicle_type_id":"4","last_reported":1762150658,"current_range_meters":19200,"station_id":"ce4bh412rcd13ifvqds0","pricing_plan_id":"cebpf4jnsgd1na2vs0mg"},{"bike_id":"e63cb36e-d726-47ba-9669-f6bfde566583","system_id":"levelo_inurba_marseille","lat":43.27992,"lon":5.40025,"is_reserved":false,"is_disabled":false,"rental_uris":{"android":"levelo://app?vid=e63cb36e-d726-47ba-9669-f6bfde566583","ios":"levelo://app?vid=e63cb36e-d726-47ba-9669-f6bfde566583"},"vehicle_type_id":"4","last_reported":1762150658,"current_range_meters":19200,"station_id":"ce4bho92rcd13ifvqh4g","pricing_plan_id":"cebpf4jnsgd1na2vs0mg"},{"bike_id":"c2355dc4-632d-4ba0-8bc2-f0457cf83d4c","system_id":"levelo_inurba_marseille","lat":43.292278,"lon":5.360552,"is_reserved":false,"is_disabled":false,"rental_uris":{"android":"levelo://app?vid=c2355dc4-632d-4ba0-8bc2-f0457cf83d4c","ios":"levelo://app?vid=c2355dc4-632d-4ba0-8bc2-f0457cf83d4c"},"vehicle_type_id":"4","last_reported":1762150658,"current_range_meters":19200,"station_id":"","pricing_plan_id":"cebpf4jnsgd1na2vs0mg"},{"bike_id":"9c6ca871-f5b0-414f-a25e-0027df3ab686","system_id":"levelo_inurba_marseille","lat":43.24641,"lon":5.43144,"is_reserved":false,"is_disabled":false,"rental_uris":{"android":"levelo://app?vid=9c6ca871-f5b0-414f-a25e-0027df3ab686","ios":"levelo://app?vid=9c6ca871-f5b0-414f-a25e-0027df3ab686"},"vehicle_type_id":"4","last_reported":1762150658,"current_range_meters":19200,"station_id":"st_d2m6c4gdas8pm72e190g","pricing_plan_id":"cebpf4jnsgd1na2vs0mg"},{"bike_id":"89b37ab5-e5ef-415e-b703-e15662b88284","system_id":"levelo_inurba_marseille","lat":43.28149,"lon":5.42643,"is_reserved":false,"is_disabled":false,"rental_uris":{"android":"levelo://app?vid=89b37ab5-e5ef-415e-b703-e15662b88284","ios":"levelo://app?vid=89b37ab5-e5ef-415e-b703-e15662b88284"},"vehicle_type_id":"4","last_reported":1762150658,"current_range_meters":19200,"station_id":"ce4bhnh2rcd13ifvqgug","pricing_plan_id":"cebpf4jnsgd1na2vs0mg"},{"bike_id":"0e4756ef-8d65-4a4b-b4d1-662246103808","system_id":"levelo_inurba_marseille","lat":43.28385,"lon":5.34988,"is_reserved":false,"is_disabled":true,"rental_uris":{"android":"levelo://app?vid=0e4756ef-8d65-4a4b-b4d1-662246103808","ios":"levelo://app?vid=0e4756ef-8d65-4a4b-b4d1-662246103808"},"vehicle_type_id":"4","last_reported":1762150658,"current_range_meters":19200,"station_id":"ce4bhbh2rcd13ifvqepg","pricing_plan_id":"cebpf4jnsgd1na2vs0mg"},{"bike_id":"aa57417c-8bed-4ac9-901e-05a2c4cc9773","system_id":"levelo_inurba_marseille","lat":43.246326,"lon":5.431418,"is_reserved":false,"is_disabled":false,"rental_uris":{"android":"levelo://app?vid=aa57417c-8bed-4ac9-901e-05a2c4cc9773","ios":"levelo://app?vid=aa57417c-8bed-4ac9-901e-05a2c4cc9773"},"vehicle_type_id":"4","last_reported":1762150658,"current_range_meters":19600,"station_id":"st_d2m6c4gdas8pm72e190g","pricing_plan_id":"cebpf4jnsgd1na2vs0mg"},{"bike_id":"89cf87b0-cd91-4cff-8d8c-29eff9a2ff58","system_id":"levelo_inurba_marseille","lat":43.30146,"lon":5.38086,"is_reserved":false,"is_disabled":false,"rental_uris":{"android":"levelo://app?vid=89cf87b0-cd91-4cff-8d8c-29eff9a2ff58","ios":"levelo://app?vid=89cf87b0-cd91-4cff-8d8c-29eff9a2ff58"},"vehicle_type_id":"4","last_reported":1762150658,"current_range_meters":19600,"station_id":"ce4bgjp2rcd13ifvqbh0","pricing_plan_id":"cebpf4jnsgd1na2vs0mg"},{"bike_id":"f8a00c60-56bb-47f7-ad0c-170f2e65ebf8","system_id":"levelo_inurba_marseille","lat":43.23964,"lon":5.36627,"is_reserved":false,"is_disabled":false,"rental_uris":{"android":"levelo://app?vid=f8a00c60-56bb-47f7-ad0c-170f2e65ebf8","ios":"levelo://app?vid=f8a00c60-56bb-47f7-ad0c-170f2e65ebf8"},"vehicle_type_id":"4","last_reported":1762150658,"current_range_meters":19600,"station_id":"ce4bhi12rcd13ifvqfp0","pricing_plan_id":"cebpf4jnsgd1na2vs0mg"},{"bike_id":"e5b0cdc5-83d2-4169-8762-fec082c6afd4","system_id":"levelo_inurba_marseille","lat":43.288577,"lon":5.425178,"is_reserved":false,"is_disabled":false,"rental_uris":{"android":"levelo://app?vid=e5b0cdc5-83d2-4169-8762-fec082c6afd4","ios":"levelo://app?vid=e5b0cdc5-83d2-4169-8762-fec082c6afd4"},"vehicle_type_id":"4","last_reported":1762150658,"current_range_meters":19600,"station_id":"st_d3b462108ojc7389ooeg","pricing_plan_id":"cebpf4jnsgd1na2vs0mg"},{"bike_id":"b792aa60-3e96-4534-bbc2-bcb4007102ba","system_id":"levelo_inurba_marseille","lat":43.23232,"lon":5.35876,"is_reserved":false,"is_disabled":false,"rental_uris":{"android":"levelo://app?vid=b792aa60-3e96-4534-bbc2-bcb4007102ba","ios":"levelo://app?vid=b792aa60-3e96-4534-bbc2-bcb4007102ba"},"vehicle_type_id":"4","last_reported":1762150658,"current_range_meters":19600,"station_id":"","pricing_plan_id":"cebpf4jnsgd1na2vs0mg"},{"bike_id":"bc49af1b-00fb-458d-a85a-c9d31a51aef1","system_id":"levelo_inurba_marseille","lat":43.30641,"lon":5.37332,"is_reserved":false,"is_disabled":true,"rental_uris":{"android":"levelo://app?vid=bc49af1b-00fb-458d-a85a-c9d31a51aef1","ios":"levelo://app?vid=bc49af1b-00fb-458d-a85a-c9d31a51aef1"},"vehicle_type_id":"4","last_reported":1762150658,"current_range_meters":19600,"station_id":"","pricing_plan_id":"cebpf4jnsgd1na2vs0mg"},{"bike_id":"e3b21cd4-4b51-47a5-a49c-78c85c27336d","system_id":"levelo_inurba_marseille","lat":43.25931,"lon":5.40875,"is_reserved":false,"is_disabled":false,"rental_uris":{"android":"levelo://app?vid=e3b21cd4-4b51-47a5-a49c-78c85c27336d","ios":"levelo://app?vid=e3b21cd4-4b51-47a5-a49c-78c85c27336d"},"vehicle_type_id":"4","last_reported":1762150658,"current_range_meters":19600,"station_id":"ce4bhm92rcd13ifvqglg","pricing_plan_id":"cebpf4jnsgd1na2vs0mg"},{"bike_id":"417f2e6e-1eac-4051-94d3-b7cb95ea1a72","system_id":"levelo_inurba_marseille","lat":43.32001,"lon":5.37618,"is_reserved":false,"is_disabled":false,"rental_uris":{"android":"levelo://app?vid=417f2e6e-1eac-4051-94d3-b7cb95ea1a72","ios":"levelo://app?vid=417f2e6e-1eac-4051-94d3-b7cb95ea1a72"},"vehicle_type_id":"4","last_reported":1762150658,"current_range_meters":19600,"station_id":"","pricing_plan_id":"cebpf4jnsgd1na2vs0mg"},{"bike_id":"744c9faa-d6dc-43e3-a36e-112e67c000d1","system_id":"levelo_inurba_marseille","lat":43.25738,"lon":5.4109,"is_reserved":false,"is_disabled":true,"rental_uris":{"android":"levelo://app?vid=744c9faa-d6dc-43e3-a36e-112e67c000d1","ios":"levelo://app?vid=744c9faa-d6dc-43e3-a36e-112e67c000d1"},"vehicle_type_id":"4","last_reported":1762150658,"current_range_meters":19600,"station_id":"ce4bhkp2rcd13ifvqgd0","pricing_plan_id":"cebpf4jnsgd1na2vs0mg"},{"bike_id":"f0f240de-3f41-4242-8f07-ff905bd769ec","system_id":"levelo_inurba_marseille","lat":43.3015,"lon":5.38087,"is_reserved":false,"is_disabled":false,"rental_uris":{"android":"levelo://app?vid=f0f240de-3f41-4242-8f07-ff905bd769ec","ios":"levelo://app?vid=f0f240de-3f41-4242-8f07-ff905bd769ec"},"vehicle_type_id":"4","last_reported":1762150658,"current_range_meters":19600,"station_id":"ce4bgjp2rcd13ifvqbh0","pricing_plan_id":"cebpf4jnsgd1na2vs0mg"},{"bike_id":"c2c41c56-053c-4889-88df-57fa33106c1d","system_id":"levelo_inurba_marseille","lat":43.30781,"lon":5.40564,"is_reserved":false,"is_disabled":false,"rental_uris":{"android":"levelo://app?vid=c2c41c56-053c-4889-88df-57fa33106c1d","ios":"levelo://app?vid=c2c41c56-053c-4889-88df-57fa33106c1d"},"vehicle_type_id":"4","last_reported":1762150658,"current_range_meters":19600,"station_id":"","pricing_plan_id":"cebpf4jnsgd1na2vs0mg"},{"bike_id":"5d9073fa-c98a-4910-aab6-d0d16da730b2","system_id":"levelo_inurba_marseille","lat":43.31769,"lon":5.39015,"is_reserved":false,"is_disabled":false,"rental_uris":{"android":"levelo://app?vid=5d9073fa-c98a-4910-aab6-d0d16da730b2","ios":"levelo://app?vid=5d9073fa-c98a-4910-aab6-d0d16da730b2"},"vehicle_type_id":"4","last_reported":1762150658,"current_range_meters":20000,"station_id":"ce4bhqp2rcd13ifvqhng","pricing_plan_id":"cebpf4jnsgd1na2vs0mg"},{"bike_id":"14b85bc8-e0c7-4f84-9243-26bd3bb154c0","system_id":"levelo_inurba_marseille","lat":43.31161,"lon":5.39331,"is_reserved":false,"is_disabled":false,"rental_uris":{"android":"levelo://app?vid=14b85bc8-e0c7-4f84-9243-26bd3bb154c0","ios":"levelo://app?vid=14b85bc8-e0c7-4f84-9243-26bd3bb154c0"},"vehicle_type_id":"4","last_reported":1762150658,"current_range_meters":20000,"station_id":"","pricing_plan_id":"cebpf4jnsgd1na2vs0mg"},{"bike_id":"978ae0d5-a713-47b7-9ffa-d1a725f0a46f","system_id":"levelo_inurba_marseille","lat":43.30308,"lon":5.36912,"is_reserved":false,"is_disabled":true,"rental_uris":{"android":"levelo://app?vid=978ae0d5-a713-47b7-9ffa-d1a725f0a46f","ios":"levelo://app?vid=978ae0d5-a713-47b7-9ffa-d1a725f0a46f"},"vehicle_type_id":"4","last_reported":1762150658,"current_range_meters":20000,"station_id":"ce4bgqh2rcd13ifvqc5g","pricing_plan_id":"cebpf4jnsgd1na2vs0mg"},{"bike_id":"42cdf60a-02c0-45bb-beb5-98e147c52c8d","system_id":"levelo_inurba_marseille","lat":43.25125,"lon":5.40283,"is_reserved":false,"is_disabled":false,"rental_uris":{"android":"levelo://app?vid=42cdf60a-02c0-45bb-beb5-98e147c52c8d","ios":"levelo://app?vid=42cdf60a-02c0-45bb-beb5-98e147c52c8d"},"vehicle_type_id":"4","last_reported":1762150658,"current_range_meters":20000,"station_id":"ce4bhlh2rcd13ifvqgig","pricing_plan_id":"cebpf4jnsgd1na2vs0mg"},{"bike_id":"1d3a01c9-6b5b-4519-818e-9e4f240a0a94","system_id":"levelo_inurba_marseille","lat":43.26197,"lon":5.40479,"is_reserved":false,"is_disabled":false,"rental_uris":{"android":"levelo://app?vid=1d3a01c9-6b5b-4519-818e-9e4f240a0a94","ios":"levelo://app?vid=1d3a01c9-6b5b-4519-818e-9e4f240a0a94"},"vehicle_type_id":"4","last_reported":1762150658,"current_range_meters":20000,"station_id":"ce4bhmh2rcd13ifvqgmg","pricing_plan_id":"cebpf4jnsgd1na2vs0mg"},{"bike_id":"c95db287-9d12-45a9-bfc8-a2dfe95c4ab3","system_id":"levelo_inurba_marseille","lat":43.2948,"lon":5.43312,"is_reserved":false,"is_disabled":false,"rental_uris":{"android":"levelo://app?vid=c95db287-9d12-45a9-bfc8-a2dfe95c4ab3","ios":"levelo://app?vid=c95db287-9d12-45a9-bfc8-a2dfe95c4ab3"},"vehicle_type_id":"4","last_reported":1762150658,"current_range_meters":20000,"station_id":"st_d3j5ugp08ojc73fj9d10","pricing_plan_id":"cebpf4jnsgd1na2vs0mg"},{"bike_id":"b773bce2-368d-4ff9-99a2-fe4a03716bc0","system_id":"levelo_inurba_marseille","lat":43.32091,"lon":5.36789,"is_reserved":false,"is_disabled":false,"rental_uris":{"android":"levelo://app?vid=b773bce2-368d-4ff9-99a2-fe4a03716bc0","ios":"levelo://app?vid=b773bce2-368d-4ff9-99a2-fe4a03716bc0"},"vehicle_type_id":"4","last_reported":1762150658,"current_range_meters":20000,"station_id":"ce4bhrh2rcd13ifvqhug","pricing_plan_id":"cebpf4jnsgd1na2vs0mg"},{"bike_id":"90afe9a9-fc57-4a21-989a-fefb78114232","system_id":"levelo_inurba_marseille","lat":43.2838,"lon":5.384534,"is_reserved":false,"is_disabled":false,"rental_uris":{"android":"levelo://app?vid=90afe9a9-fc57-4a21-989a-fefb78114232","ios":"levelo://app?vid=90afe9a9-fc57-4a21-989a-fefb78114232"},"vehicle_type_id":"4","last_reported":1762150658,"current_range_meters":20000,"station_id":"ce4bgjp2rcd13ifvqbh0","pricing_plan_id":"cebpf4jnsgd1na2vs0mg"},{"bike_id":"01d1b93a-9231-419c-96d9-c264cb9d81e1","system_id":"levelo_inurba_marseille","lat":43.32086,"lon":5.36776,"is_reserved":false,"is_disabled":false,"rental_uris":{"android":"levelo://app?vid=01d1b93a-9231-419c-96d9-c264cb9d81e1","ios":"levelo://app?vid=01d1b93a-9231-419c-96d9-c264cb9d81e1"},"vehicle_type_id":"4","last_reported":1762150658,"current_range_meters":20400,"station_id":"ce4bhrh2rcd13ifvqhug","pricing_plan_id":"cebpf4jnsgd1na2vs0mg"},{"bike_id":"493855c2-be51-41c7-9722-c62c137d07ec","system_id":"levelo_inurba_marseille","lat":43.231394,"lon":5.437408,"is_reserved":false,"is_disabled":false,"rental_uris":{"android":"levelo://app?vid=493855c2-be51-41c7-9722-c62c137d07ec","ios":"levelo://app?vid=493855c2-be51-41c7-9722-c62c137d07ec"},"vehicle_type_id":"4","last_reported":1762150658,"current_range_meters":20400,"station_id":"","pricing_plan_id":"cebpf4jnsgd1na2vs0mg"},{"bike_id":"396983e8-3b9e-4e95-b7ff-907cace2ea18","system_id":"levelo_inurba_marseille","lat":43.2424,"lon":5.39345,"is_reserved":false,"is_disabled":false,"rental_uris":{"android":"levelo://app?vid=396983e8-3b9e-4e95-b7ff-907cace2ea18","ios":"levelo://app?vid=396983e8-3b9e-4e95-b7ff-907cace2ea18"},"vehicle_type_id":"4","last_reported":1762150658,"current_range_meters":20400,"station_id":"","pricing_plan_id":"cebpf4jnsgd1na2vs0mg"},{"bike_id":"b4d634a7-fd92-4bfd-a3ec-28810093309e","system_id":"levelo_inurba_marseille","lat":43.282052,"lon":5.39053,"is_reserved":false,"is_disabled":false,"rental_uris":{"android":"levelo://app?vid=b4d634a7-fd92-4bfd-a3ec-28810093309e","ios":"levelo://app?vid=b4d634a7-fd92-4bfd-a3ec-28810093309e"},"vehicle_type_id":"4","last_reported":1762150658,"current_range_meters":20400,"station_id":"ce4bhn92rcd13ifvqgsg","pricing_plan_id":"cebpf4jnsgd1na2vs0mg"},{"bike_id":"23a8d273-d4b3-4549-86de-e6aeef20cf48","system_id":"levelo_inurba_marseille","lat":43.28462,"lon":5.35907,"is_reserved":false,"is_disabled":false,"rental_uris":{"android":"levelo://app?vid=23a8d273-d4b3-4549-86de-e6aeef20cf48","ios":"levelo://app?vid=23a8d273-d4b3-4549-86de-e6aeef20cf48"},"vehicle_type_id":"4","last_reported":1762150658,"current_range_meters":20400,"station_id":"ce4bhah2rcd13ifvqei0","pricing_plan_id":"cebpf4jnsgd1na2vs0mg"},{"bike_id":"26992424-0cab-4467-8238-2e14f9593116","system_id":"levelo_inurba_marseille","lat":43.25724,"lon":5.41103,"is_reserved":false,"is_disabled":false,"rental_uris":{"android":"levelo://app?vid=26992424-0cab-4467-8238-2e14f9593116","ios":"levelo://app?vid=26992424-0cab-4467-8238-2e14f9593116"},"vehicle_type_id":"4","last_reported":1762150658,"current_range_meters":20400,"station_id":"ce4bhkp2rcd13ifvqgd0","pricing_plan_id":"cebpf4jnsgd1na2vs0mg"},{"bike_id":"bd04da82-a6e2-4c54-8683-bce1cebd9bfd","system_id":"levelo_inurba_marseille","lat":43.298042,"lon":5.380897,"is_reserved":false,"is_disabled":true,"rental_uris":{"android":"levelo://app?vid=bd04da82-a6e2-4c54-8683-bce1cebd9bfd","ios":"levelo://app?vid=bd04da82-a6e2-4c54-8683-bce1cebd9bfd"},"vehicle_type_id":"4","last_reported":1762150658,"current_range_meters":20800,"station_id":"","pricing_plan_id":"cebpf4jnsgd1na2vs0mg"},{"bike_id":"7f7e3e83-94f9-421b-9747-b01b8381a93b","system_id":"levelo_inurba_marseille","lat":43.29511,"lon":5.37504,"is_reserved":false,"is_disabled":true,"rental_uris":{"android":"levelo://app?vid=7f7e3e83-94f9-421b-9747-b01b8381a93b","ios":"levelo://app?vid=7f7e3e83-94f9-421b-9747-b01b8381a93b"},"vehicle_type_id":"4","last_reported":1762150658,"current_range_meters":20800,"station_id":"ce4bgkp2rcd13ifvqbmg","pricing_plan_id":"cebpf4jnsgd1na2vs0mg"},{"bike_id":"b6f7768e-d328-40df-8993-3bc1475382cb","system_id":"levelo_inurba_marseille","lat":43.31463,"lon":5.37463,"is_reserved":false,"is_disabled":false,"rental_uris":{"android":"levelo://app?vid=b6f7768e-d328-40df-8993-3bc1475382cb","ios":"levelo://app?vid=b6f7768e-d328-40df-8993-3bc1475382cb"},"vehicle_type_id":"4","last_reported":1762150658,"current_range_meters":20800,"station_id":"","pricing_plan_id":"cebpf4jnsgd1na2vs0mg"},{"bike_id":"75214922-1e7d-4be3-84ae-23b8d8279199","system_id":"levelo_inurba_marseille","lat":43.32502,"lon":5.36556,"is_reserved":false,"is_disabled":false,"rental_uris":{"android":"levelo://app?vid=75214922-1e7d-4be3-84ae-23b8d8279199","ios":"levelo://app?vid=75214922-1e7d-4be3-84ae-23b8d8279199"},"vehicle_type_id":"4","last_reported":1762150658,"current_range_meters":20800,"station_id":"ce4bhs12rcd13ifvqhvg","pricing_plan_id":"cebpf4jnsgd1na2vs0mg"},{"bike_id":"97e8223b-7895-46cb-9e74-a7dc56d50a63","system_id":"levelo_inurba_marseille","lat":43.284069,"lon":5.375247,"is_reserved":false,"is_disabled":true,"rental_uris":{"android":"levelo://app?vid=97e8223b-7895-46cb-9e74-a7dc56d50a63","ios":"levelo://app?vid=97e8223b-7895-46cb-9e74-a7dc56d50a63"},"vehicle_type_id":"4","last_reported":1762150658,"current_range_meters":20800,"station_id":"ce4bh412rcd13ifvqds0","pricing_plan_id":"cebpf4jnsgd1na2vs0mg"},{"bike_id":"8866a0e1-2d86-4c82-a016-0fa2054b2776","system_id":"levelo_inurba_marseille","lat":43.30732,"lon":5.42453,"is_reserved":false,"is_disabled":false,"rental_uris":{"android":"levelo://app?vid=8866a0e1-2d86-4c82-a016-0fa2054b2776","ios":"levelo://app?vid=8866a0e1-2d86-4c82-a016-0fa2054b2776"},"vehicle_type_id":"4","last_reported":1762150658,"current_range_meters":20800,"station_id":"st_cvj6ca6bvosntc0bfgr0","pricing_plan_id":"cebpf4jnsgd1na2vs0mg"},{"bike_id":"441a7c63-09ad-475d-a32e-1937866b4c3c","system_id":"levelo_inurba_marseille","lat":43.28145,"lon":5.42641,"is_reserved":false,"is_disabled":false,"rental_uris":{"android":"levelo://app?vid=441a7c63-09ad-475d-a32e-1937866b4c3c","ios":"levelo://app?vid=441a7c63-09ad-475d-a32e-1937866b4c3c"},"vehicle_type_id":"4","last_reported":1762150658,"current_range_meters":20800,"station_id":"ce4bhnh2rcd13ifvqgug","pricing_plan_id":"cebpf4jnsgd1na2vs0mg"},{"bike_id":"409f828f-b26c-4197-81cf-db5fe4c597fa","system_id":"levelo_inurba_marseille","lat":43.25715,"lon":5.41119,"is_reserved":false,"is_disabled":false,"rental_uris":{"android":"levelo://app?vid=409f828f-b26c-4197-81cf-db5fe4c597fa","ios":"levelo://app?vid=409f828f-b26c-4197-81cf-db5fe4c597fa"},"vehicle_type_id":"4","last_reported":1762150658,"current_range_meters":21600,"station_id":"ce4bhkp2rcd13ifvqgd0","pricing_plan_id":"cebpf4jnsgd1na2vs0mg"},{"bike_id":"f19c762d-e08a-462f-9fe7-cc66358cf3b3","system_id":"levelo_inurba_marseille","lat":43.27064,"lon":5.40248,"is_reserved":false,"is_disabled":true,"rental_uris":{"android":"levelo://app?vid=f19c762d-e08a-462f-9fe7-cc66358cf3b3","ios":"levelo://app?vid=f19c762d-e08a-462f-9fe7-cc66358cf3b3"},"vehicle_type_id":"4","last_reported":1762150658,"current_range_meters":21600,"station_id":"ce4bhk92rcd13ifvqgc0","pricing_plan_id":"cebpf4jnsgd1na2vs0mg"},{"bike_id":"09af7181-452c-41e4-b4e5-8ebb2e01290c","system_id":"levelo_inurba_marseille","lat":43.28873,"lon":5.42499,"is_reserved":false,"is_disabled":false,"rental_uris":{"android":"levelo://app?vid=09af7181-452c-41e4-b4e5-8ebb2e01290c","ios":"levelo://app?vid=09af7181-452c-41e4-b4e5-8ebb2e01290c"},"vehicle_type_id":"4","last_reported":1762150658,"current_range_meters":21600,"station_id":"st_d3b462108ojc7389ooeg","pricing_plan_id":"cebpf4jnsgd1na2vs0mg"},{"bike_id":"86b3033c-fd76-4996-b4c4-25a784a732bb","system_id":"levelo_inurba_marseille","lat":43.24632,"lon":5.38891,"is_reserved":false,"is_disabled":false,"rental_uris":{"android":"levelo://app?vid=86b3033c-fd76-4996-b4c4-25a784a732bb","ios":"levelo://app?vid=86b3033c-fd76-4996-b4c4-25a784a732bb"},"vehicle_type_id":"4","last_reported":1762150658,"current_range_meters":21600,"station_id":"ce4bhg12rcd13ifvqf60","pricing_plan_id":"cebpf4jnsgd1na2vs0mg"},{"bike_id":"40de0d6e-1f04-4160-9878-707cae9ffa84","system_id":"levelo_inurba_marseille","lat":43.24056,"lon":5.37786,"is_reserved":false,"is_disabled":false,"rental_uris":{"android":"levelo://app?vid=40de0d6e-1f04-4160-9878-707cae9ffa84","ios":"levelo://app?vid=40de0d6e-1f04-4160-9878-707cae9ffa84"},"vehicle_type_id":"4","last_reported":1762150658,"current_range_meters":21600,"station_id":"ce4bhnp2rcd13ifvqgvg","pricing_plan_id":"cebpf4jnsgd1na2vs0mg"},{"bike_id":"a4ea0361-bb9a-42c8-adbd-b984d3daa795","system_id":"levelo_inurba_marseille","lat":43.29067,"lon":5.35599,"is_reserved":false,"is_disabled":false,"rental_uris":{"android":"levelo://app?vid=a4ea0361-bb9a-42c8-adbd-b984d3daa795","ios":"levelo://app?vid=a4ea0361-bb9a-42c8-adbd-b984d3daa795"},"vehicle_type_id":"4","last_reported":1762150658,"current_range_meters":21600,"station_id":"","pricing_plan_id":"cebpf4jnsgd1na2vs0mg"},{"bike_id":"41844ed1-ffe3-4a4b-a1b7-3aab40d999d8","system_id":"levelo_inurba_marseille","lat":43.31304,"lon":5.38198,"is_reserved":false,"is_disabled":false,"rental_uris":{"android":"levelo://app?vid=41844ed1-ffe3-4a4b-a1b7-3aab40d999d8","ios":"levelo://app?vid=41844ed1-ffe3-4a4b-a1b7-3aab40d999d8"},"vehicle_type_id":"4","last_reported":1762150658,"current_range_meters":21600,"station_id":"","pricing_plan_id":"cebpf4jnsgd1na2vs0mg"},{"bike_id":"16db1dd1-8510-41c2-8664-b4b83a78ee62","system_id":"levelo_inurba_marseille","lat":43.28346,"lon":5.3811,"is_reserved":false,"is_disabled":true,"rental_uris":{"android":"levelo://app?vid=16db1dd1-8510-41c2-8664-b4b83a78ee62","ios":"levelo://app?vid=16db1dd1-8510-41c2-8664-b4b83a78ee62"},"vehicle_type_id":"4","last_reported":1762150658,"current_range_meters":21600,"station_id":"ce4bh412rcd13ifvqdr0","pricing_plan_id":"cebpf4jnsgd1na2vs0mg"},{"bike_id":"fe15e684-e4c3-49fe-a1d1-1cfd258709d5","system_id":"levelo_inurba_marseille","lat":43.26028,"lon":5.41728,"is_reserved":false,"is_disabled":false,"rental_uris":{"android":"levelo://app?vid=fe15e684-e4c3-49fe-a1d1-1cfd258709d5","ios":"levelo://app?vid=fe15e684-e4c3-49fe-a1d1-1cfd258709d5"},"vehicle_type_id":"4","last_reported":1762150658,"current_range_meters":21600,"station_id":"","pricing_plan_id":"cebpf4jnsgd1na2vs0mg"},{"bike_id":"a612a18c-b789-487c-b94b-f2160a57bba2","system_id":"levelo_inurba_marseille","lat":43.307421,"lon":5.424522,"is_reserved":false,"is_disabled":false,"rental_uris":{"android":"levelo://app?vid=a612a18c-b789-487c-b94b-f2160a57bba2","ios":"levelo://app?vid=a612a18c-b789-487c-b94b-f2160a57bba2"},"vehicle_type_id":"4","last_reported":1762150658,"current_range_meters":21600,"station_id":"st_cvj6ca6bvosntc0bfgr0","pricing_plan_id":"cebpf4jnsgd1na2vs0mg"},{"bike_id":"77963984-ca74-4174-a8fa-407af9c6c7da","system_id":"levelo_inurba_marseille","lat":43.3209,"lon":5.36776,"is_reserved":false,"is_disabled":false,"rental_uris":{"android":"levelo://app?vid=77963984-ca74-4174-a8fa-407af9c6c7da","ios":"levelo://app?vid=77963984-ca74-4174-a8fa-407af9c6c7da"},"vehicle_type_id":"4","last_reported":1762150658,"current_range_meters":21600,"station_id":"ce4bhrh2rcd13ifvqhug","pricing_plan_id":"cebpf4jnsgd1na2vs0mg"},{"bike_id":"65c17eba-730f-4ecf-8507-63a92956e212","system_id":"levelo_inurba_marseille","lat":43.28833,"lon":5.39343,"is_reserved":false,"is_disabled":false,"rental_uris":{"android":"levelo://app?vid=65c17eba-730f-4ecf-8507-63a92956e212","ios":"levelo://app?vid=65c17eba-730f-4ecf-8507-63a92956e212"},"vehicle_type_id":"4","last_reported":1762150658,"current_range_meters":21600,"station_id":"ce4bh2p2rcd13ifvqdi0","pricing_plan_id":"cebpf4jnsgd1na2vs0mg"},