{"last_updated":1739297505,"ttl":60,"version":"2.2","data":{"bikes":[{"bike_id":"5cda301b-bce8-41d3-abea-2e981f99524e","system_id":"levelo_inurba_marseille","lat":43.29858,"lon":5.3629,"is_reserved":false,"is_disabled":false,"rental_uris":{"android":"levelo://app?vid=5cda301b-bce8-41d3-abea-2e981f99524e","ios":"levelo://app?vid=5cda301b-bce8-41d3-abea-2e981f99524e"},"vehicle_type_id":"4","last_reported":1739297505,"current_range_meters":24400,"station_id":"ce4bgpp2rcd13ifvqc3g","pricing_plan_id":"cebpf4jnsgd1na2vs0mg"},{"bike_id":"3448abec-b769-43c7-b3c9-baf63ba0c259","system_id":"levelo_inurba_marseille","lat":43.29425,"lon":5.39745,"is_reserved":false,"is_disabled":false,"rental_uris":{"android":"levelo://app?vid=3448abec-b769-43c7-b3c9-baf63ba0c259","ios":"levelo://app?vid=3448abec-b769-43c7-b3c9-baf63ba0c259"},"vehicle_type_id":"4","last_reported":1739297505,"current_range_meters":36000,"station_id":"ce4bh3h2rcd13ifvqdo0","pricing_plan_id":"cebpf4jnsgd1na2vs0mg"},{"bike_id":"77fc8b4c-94e7-413f-ba24-49239e361f9a","system_id":"levelo_inurba_marseille","lat":43.28401,"lon":5.37517,"is_reserved":false,"is_disabled":false,"rental_uris":{"android":"levelo://app?vid=77fc8b4c-94e7-413f-ba24-49239e361f9a","ios":"levelo://app?vid=77fc8b4c-94e7-413f-ba24-49239e361f9a"},"vehicle_type_id":"4","last_reported":1739297505,"current_range_meters":30000,"station_id":"ce4bh412rcd13ifvqds0","pricing_plan_id":"cebpf4jnsgd1na2vs0mg"},{"bike_id":"1f2c0a83-934a-4c79-95a2-7565674d26f8","system_id":"levelo_inurba_marseille","lat":43.28854,"lon":5.35837,"is_reserved":false,"is_disabled":false,"rental_uris":{"android":"levelo://app?vid=1f2c0a83-934a-4c79-95a2-7565674d26f8","ios":"levelo://app?vid=1f2c0a83-934a-4c79-95a2-7565674d26f8"},"vehicle_type_id":"4","last_reported":1739297505,"current_range_meters":38800,"station_id":"ce4bhb12rcd13ifvqem0","pricing_plan_id":"cebpf4jnsgd1na2vs0mg"},{"bike_id":"66d18785-c7e3-431b-b36b-90f0b93c010c","system_id":"levelo_inurba_marseille","lat":43.28933,"lon":5.36626,"is_reserved":false,"is_disabled":false,"rental_uris":{"android":"levelo://app?vid=66d18785-c7e3-431b-b36b-90f0b93c010c","ios":"levelo://app?vid=66d18785-c7e3-431b-b36b-90f0b93c010c"},"vehicle_type_id":"4","last_reported":1739297505,"current_range_meters":32800,"station_id":"ce4bhap2rcd13ifvqek0","pricing_plan_id":"cebpf4jnsgd1na2vs0mg"},{"bike_id":"7662219c-9ef7-43ab-a72f-34becfbbe2fa","system_id":"levelo_inurba_marseille","lat":43.30002,"lon":5.37162,"is_reserved":false,"is_disabled":false,"rental_uris":{"android":"levelo://app?vid=7662219c-9ef7-43ab-a72f-34becfbbe2fa","ios":"levelo://app?vid=7662219c-9ef7-43ab-a72f-34becfbbe2fa"},"vehicle_type_id":"4","last_reported":1739297505,"current_range_meters":32400,"station_id":"ce4bgr92rcd13ifvqc7g","pricing_plan_id":"cebpf4jnsgd1na2vs0mg"},{"bike_id":"20ff866e-f247-480a-bcfa-812e984a844d","system_id":"levelo_inurba_marseille","lat":43.28735,"lon":5.36069,"is_reserved":false,"is_disabled":false,"rental_uris":{"android":"levelo://app?vid=20ff866e-f247-480a-bcfa-812e984a844d","ios":"levelo://app?vid=20ff866e-f247-480a-bcfa-812e984a844d"},"vehicle_type_id":"4","last_reported":1739297505,"current_range_meters":30800,"station_id":"cki0cbj6b192h4jlfktg","pricing_plan_id":"cebpf4jnsgd1na2vs0mg"},{"bike_id":"6ad12fed-a7c3-4ded-a0c5-213958e34b8e","system_id":"levelo_inurba_marseille","lat":43.32478,"lon":5.36555,"is_reserved":false,"is_disabled":false,"rental_uris":{"android":"levelo://app?vid=6ad12fed-a7c3-4ded-a0c5-213958e34b8e","ios":"levelo://app?vid=6ad12fed-a7c3-4ded-a0c5-213958e34b8e"},"vehicle_type_id":"4","last_reported":1739297505,"current_range_meters":38800,"station_id":"ce4bhs12rcd13ifvqhvg","pricing_plan_id":"cebpf4jnsgd1na2vs0mg"},{"bike_id":"15e34e7f-d9d2-42d1-a4f3-b8d04c42a957","system_id":"levelo_inurba_marseille","lat":43.27915,"lon":5.3958,"is_reserved":false,"is_disabled":false,"rental_uris":{"android":"levelo://app?vid=15e34e7f-d9d2-42d1-a4f3-b8d04c42a957","ios":"levelo://app?vid=15e34e7f-d9d2-42d1-a4f3-b8d04c42a957"},"vehicle_type_id":"4","last_reported":1739297505,"current_range_meters":37600,"station_id":"ce4bhf92rcd13ifvqf40","pricing_plan_id":"cebpf4jnsgd1na2vs0mg"},{"bike_id":"070ded19-db45-4133-9e69-a50aacceab14","system_id":"levelo_inurba_marseille","lat":43.26805,"lon":5.40285,"is_reserved":false,"is_disabled":false,"rental_uris":{"android":"levelo://app?vid=070ded19-db45-4133-9e69-a50aacceab14","ios":"levelo://app?vid=070ded19-db45-4133-9e69-a50aacceab14"},"vehicle_type_id":"4","last_reported":1739297505,"current_range_meters":38800,"station_id":"ce501612rcd8frsf0b60","pricing_plan_id":"cebpf4jnsgd1na2vs0mg"},{"bike_id":"f759837a-69cc-4770-96c2-faf60f712aca","system_id":"levelo_inurba_marseille","lat":43.30539,"lon":5.3654,"is_reserved":false,"is_disabled":false,"rental_uris":{"android":"levelo://app?vid=f759837a-69cc-4770-96c2-faf60f712aca","ios":"levelo://app?vid=f759837a-69cc-4770-96c2-faf60f712aca"},"vehicle_type_id":"4","last_reported":1739297505,"current_range_meters":10000,"station_id":"ce4bgs12rcd13ifvqcag","pricing_plan_id":"cebpf4jnsgd1na2vs0mg"},{"bike_id":"682a0be4-bc1f-41db-a1c5-11daa81b5088","system_id":"levelo_inurba_marseille","lat":43.3062,"lon":5.37223,"is_reserved":false,"is_disabled":false,"rental_uris":{"android":"levelo://app?vid=682a0be4-bc1f-41db-a1c5-11daa81b5088","ios":"levelo://app?vid=682a0be4-bc1f-41db-a1c5-11daa81b5088"},"vehicle_type_id":"4","last_reported":1739297505,"current_range_meters":34000,"station_id":"ce4bgqh2rcd13ifvqc4g","pricing_plan_id":"cebpf4jnsgd1na2vs0mg"},{"bike_id":"0497d784-c056-45f5-a997-c997e3fb1a75","system_id":"levelo_inurba_marseille","lat":43.31712,"lon":5.40465,"is_reserved":false,"is_disabled":true,"rental_uris":{"android":"levelo://app?vid=0497d784-c056-45f5-a997-c997e3fb1a75","ios":"levelo://app?vid=0497d784-c056-45f5-a997-c997e3fb1a75"},"vehicle_type_id":"4","last_reported":1739297505,"current_range_meters":38800,"station_id":"ce4bh012rcd13ifvqd00","pricing_plan_id":"cebpf4jnsgd1na2vs0mg"},{"bike_id":"9e4564f0-0519-46c9-beea-73f529a3ce6a","system_id":"levelo_inurba_marseille","lat":43.24809,"lon":5.37445,"is_reserved":false,"is_disabled":false,"rental_uris":{"android":"levelo://app?vid=9e4564f0-0519-46c9-beea-73f529a3ce6a","ios":"levelo://app?vid=9e4564f0-0519-46c9-beea-73f529a3ce6a"},"vehicle_type_id":"4","last_reported":1739297505,"current_range_meters":32000,"station_id":"ce4bhgh2rcd13ifvqfb0","pricing_plan_id":"cebpf4jnsgd1na2vs0mg"},{"bike_id":"46e433ac-b519-4d59-9231-189aeeb0c3a5","system_id":"levelo_inurba_marseille","lat":43.30616,"lon":5.37196,"is_reserved":false,"is_disabled":false,"rental_uris":{"android":"levelo://app?vid=46e433ac-b519-4d59-9231-189aeeb0c3a5","ios":"levelo://app?vid=46e433ac-b519-4d59-9231-189aeeb0c3a5"},"vehicle_type_id":"4","last_reported":1739297505,"current_range_meters":38800,"station_id":"ce4bgqh2rcd13ifvqc4g","pricing_plan_id":"cebpf4jnsgd1na2vs0mg"},{"bike_id":"a94d2018-f678-4713-bf2d-5da0b28f3e59","system_id":"levelo_inurba_marseille","lat":43.29785,"lon":5.37097,"is_reserved":false,"is_disabled":false,"rental_uris":{"android":"levelo://app?vid=a94d2018-f678-4713-bf2d-5da0b28f3e59","ios":"levelo://app?vid=a94d2018-f678-4713-bf2d-5da0b28f3e59"},"vehicle_type_id":"4","last_reported":1739297505,"current_range_meters":36800,"station_id":"ce4bgop2rcd13ifvqc1g","pricing_plan_id":"cebpf4jnsgd1na2vs0mg"},{"bike_id":"6e1261de-61ca-45f3-8263-50cd9c374486","system_id":"levelo_inurba_marseille","lat":43.29605,"lon":5.3768,"is_reserved":false,"is_disabled":false,"rental_uris":{"android":"levelo://app?vid=6e1261de-61ca-45f3-8263-50cd9c374486","ios":"levelo://app?vid=6e1261de-61ca-45f3-8263-50cd9c374486"},"vehicle_type_id":"4","last_reported":1739297505,"current_range_meters":35200,"station_id":"ce4bgi92rcd13ifvqb90","pricing_plan_id":"cebpf4jnsgd1na2vs0mg"},{"bike_id":"3df3041b-27b7-4def-8d60-99d6191bfdce","system_id":"levelo_inurba_marseille","lat":43.27501,"lon":5.42449,"is_reserved":false,"is_disabled":false,"rental_uris":{"android":"levelo://app?vid=3df3041b-27b7-4def-8d60-99d6191bfdce","ios":"levelo://app?vid=3df3041b-27b7-4def-8d60-99d6191bfdce"},"vehicle_type_id":"4","last_reported":1739297505,"current_range_meters":38800,"station_id":"ce4bhn92rcd13ifvqgrg","pricing_plan_id":"cebpf4jnsgd1na2vs0mg"},{"bike_id":"23f60d92-f573-40e9-86b2-9b160ac7d931","system_id":"levelo_inurba_marseille","lat":43.29544,"lon":5.4228,"is_reserved":false,"is_disabled":false,"rental_uris":{"android":"levelo://app?vid=23f60d92-f573-40e9-86b2-9b160ac7d931","ios":"levelo://app?vid=23f60d92-f573-40e9-86b2-9b160ac7d931"},"vehicle_type_id":"4","last_reported":1739297505,"current_range_meters":35600,"station_id":"ce4bhph2rcd13ifvqhdg","pricing_plan_id":"cebpf4jnsgd1na2vs0mg"},{"bike_id":"b00cd1fe-6986-4a4a-9e4b-6dd0afa33530","system_id":"levelo_inurba_marseille","lat":43.29706,"lon":5.36602,"is_reserved":false,"is_disabled":false,"rental_uris":{"android":"levelo://app?vid=b00cd1fe-6986-4a4a-9e4b-6dd0afa33530","ios":"levelo://app?vid=b00cd1fe-6986-4a4a-9e4b-6dd0afa33530"},"vehicle_type_id":"4","last_reported":1739297505,"current_range_meters":39200,"station_id":"ce4bgn12rcd13ifvqbt0","pricing_plan_id":"cebpf4jnsgd1na2vs0mg"},{"bike_id":"8258c8e4-7775-45b7-a1f1-6659658d08a6","system_id":"levelo_inurba_marseille","lat":43.26537,"lon":5.37301,"is_reserved":false,"is_disabled":false,"rental_uris":{"android":"levelo://app?vid=8258c8e4-7775-45b7-a1f1-6659658d08a6","ios":"levelo://app?vid=8258c8e4-7775-45b7-a1f1-6659658d08a6"},"vehicle_type_id":"4","last_reported":1739297505,"current_range_meters":38800,"station_id":"ce4bhg12rcd13ifvqf70","pricing_plan_id":"cebpf4jnsgd1na2vs0mg"},{"bike_id":"03e763eb-2ea5-4191-8380-138ad06f19b1","system_id":"levelo_inurba_marseille","lat":43.32453,"lon":5.36543,"is_reserved":false,"is_disabled":false,"rental_uris":{"android":"levelo://app?vid=03e763eb-2ea5-4191-8380-138ad06f19b1","ios":"levelo://app?vid=03e763eb-2ea5-4191-8380-138ad06f19b1"},"vehicle_type_id":"4","last_reported":1739297505,"current_range_meters":29600,"station_id":"ce4bhs12rcd13ifvqhvg","pricing_plan_id":"cebpf4jnsgd1na2vs0mg"},{"bike_id":"fb2b099d-60d9-470e-98ca-c297ad3f8158","system_id":"levelo_inurba_marseille","lat":43.29623,"lon":5.37733,"is_reserved":false,"is_disabled":false,"rental_uris":{"android":"levelo://app?vid=fb2b099d-60d9-470e-98ca-c297ad3f8158","ios":"levelo://app?vid=fb2b099d-60d9-470e-98ca-c297ad3f8158"},"vehicle_type_id":"4","last_reported":1739297505,"current_range_meters":4800,"station_id":"ce4bgi92rcd13ifvqb90","pricing_plan_id":"cebpf4jnsgd1na2vs0mg"},{"bike_id":"26c79ef5-6f5f-49d9-b4aa-17fb6a7df4bb","system_id":"levelo_inurba_marseille","lat":43.29852,"lon":5.3628,"is_reserved":false,"is_disabled":false,"rental_uris":{"android":"levelo://app?vid=26c79ef5-6f5f-49d9-b4aa-17fb6a7df4bb","ios":"levelo://app?vid=26c79ef5-6f5f-49d9-b4aa-17fb6a7df4bb"},"vehicle_type_id":"4","last_reported":1739297505,"current_range_meters":38800,"station_id":"ce4bgpp2rcd13ifvqc3g","pricing_plan_id":"cebpf4jnsgd1na2vs0mg"},{"bike_id":"39e55a90-fe76-4904-bf9c-9841fe168f13","system_id":"levelo_inurba_marseille","lat":43.33729,"lon":5.39187,"is_reserved":false,"is_disabled":false,"rental_uris":{"android":"levelo://app?vid=39e55a90-fe76-4904-bf9c-9841fe168f13","ios":"levelo://app?vid=39e55a90-fe76-4904-bf9c-9841fe168f13"},"vehicle_type_id":"4","last_reported":1739297505,"current_range_meters":38800,"station_id":"ce4bhr92rcd13ifvqhsg","pricing_plan_id":"cebpf4jnsgd1na2vs0mg"},{"bike_id":"1ab17f89-ff2a-4845-8f56-b593d509f0fc","system_id":"levelo_inurba_marseille","lat":43.29615,"lon":5.37724,"is_reserved":false,"is_disabled":false,"rental_uris":{"android":"levelo://app?vid=1ab17f89-ff2a-4845-8f56-b593d509f0fc","ios":"levelo://app?vid=1ab17f89-ff2a-4845-8f56-b593d509f0fc"},"vehicle_type_id":"4","last_reported":1739297505,"current_range_meters":37600,"station_id":"ce4bgi92rcd13ifvqb90","pricing_plan_id":"cebpf4jnsgd1na2vs0mg"},{"bike_id":"f798cbc4-a869-471f-bce8-f64397eebe81","system_id":"levelo_inurba_marseille","lat":43.23942,"lon":5.36605,"is_reserved":false,"is_disabled":false,"rental_uris":{"android":"levelo://app?vid=f798cbc4-a869-471f-bce8-f64397eebe81","ios":"levelo://app?vid=f798cbc4-a869-471f-bce8-f64397eebe81"},"vehicle_type_id":"4","last_reported":1739297505,"current_range_meters":20800,"station_id":"ce4bhi12rcd13ifvqfp0","pricing_plan_id":"cebpf4jnsgd1na2vs0mg"},{"bike_id":"aa12f343-72f4-483e-a293-73fd3d081759","system_id":"levelo_inurba_marseille","lat":43.29226,"lon":5.36064,"is_reserved":false,"is_disabled":false,"rental_uris":{"android":"levelo://app?vid=aa12f343-72f4-483e-a293-73fd3d081759","ios":"levelo://app?vid=aa12f343-72f4-483e-a293-73fd3d081759"},"vehicle_type_id":"4","last_reported":1739297505,"current_range_meters":34800,"station_id":"ce4bhbh2rcd13ifvqeqg","pricing_plan_id":"cebpf4jnsgd1na2vs0mg"},{"bike_id":"28413155-a714-4c6f-956c-f41cd00ef255","system_id":"levelo_inurba_marseille","lat":43.30439,"lon":5.39736,"is_reserved":false,"is_disabled":false,"rental_uris":{"android":"levelo://app?vid=28413155-a714-4c6f-956c-f41cd00ef255","ios":"levelo://app?vid=28413155-a714-4c6f-956c-f41cd00ef255"},"vehicle_type_id":"4","last_reported":1739297505,"current_range_meters":39200,"station_id":"ce4bh092rcd13ifvqd20","pricing_plan_id":"cebpf4jnsgd1na2vs0mg"},{"bike_id":"30e15755-4421-4ffd-b252-ccac53c81cda","system_id":"levelo_inurba_marseille","lat":43.27891,"lon":5.37984,"is_reserved":false,"is_disabled":false,"rental_uris":{"android":"levelo://app?vid=30e15755-4421-4ffd-b252-ccac53c81cda","ios":"levelo://app?vid=30e15755-4421-4ffd-b252-ccac53c81cda"},"vehicle_type_id":"4","last_reported":1739297505,"current_range_meters":29600,"station_id":"ce4bhf92rcd13ifvqf50","pricing_plan_id":"cebpf4jnsgd1na2vs0mg"},{"bike_id":"a0ba3445-7b99-4e73-8428-73ec9bfdccc9","system_id":"levelo_inurba_marseille","lat":43.28357,"lon":5.38113,"is_reserved":false,"is_disabled":false,"rental_uris":{"android":"levelo://app?vid=a0ba3445-7b99-4e73-8428-73ec9bfdccc9","ios":"levelo://app?vid=a0ba3445-7b99-4e73-8428-73ec9bfdccc9"},"vehicle_type_id":"4","last_reported":1739297505,"current_range_meters":13600,"station_id":"ce4bh412rcd13ifvqdr0","pricing_plan_id":"cebpf4jnsgd1na2vs0mg"},{"bike_id":"3d356dc3-e2f3-4977-ab42-12e47e449107","system_id":"levelo_inurba_marseille","lat":43.29344,"lon":5.37834,"is_reserved":false,"is_disabled":false,"rental_uris":{"android":"levelo://app?vid=3d356dc3-e2f3-4977-ab42-12e47e449107","ios":"levelo://app?vid=3d356dc3-e2f3-4977-ab42-12e47e449107"},"vehicle_type_id":"4","last_reported":1739297505,"current_range_meters":38800,"station_id":"ce4bgjh2rcd13ifvqbf0","pricing_plan_id":"cebpf4jnsgd1na2vs0mg"},{"bike_id":"c2b02070-0769-4672-a982-f0e2857da1ea","system_id":"levelo_inurba_marseille","lat":43.31328,"lon":5.39696,"is_reserved":false,"is_disabled":false,"rental_uris":{"android":"levelo://app?vid=c2b02070-0769-4672-a982-f0e2857da1ea","ios":"levelo://app?vid=c2b02070-0769-4672-a982-f0e2857da1ea"},"vehicle_type_id":"4","last_reported":1739297505,"current_range_meters":32000,"station_id":"ce4bgvp2rcd13ifvqcu0","pricing_plan_id":"cebpf4jnsgd1na2vs0mg"},{"bike_id":"bf8cd02e-ccdc-4523-894a-3fce83d782e3","system_id":"levelo_inurba_marseille","lat":43.33738,"lon":5.3919,"is_reserved":false,"is_disabled":false,"rental_uris":{"android":"levelo://app?vid=bf8cd02e-ccdc-4523-894a-3fce83d782e3","ios":"levelo://app?vid=bf8cd02e-ccdc-4523-894a-3fce83d782e3"},"vehicle_type_id":"4","last_reported":1739297505,"current_range_meters":38800,"station_id":"ce4bhr92rcd13ifvqhsg","pricing_plan_id":"cebpf4jnsgd1na2vs0mg"},{"bike_id":"b737ae82-c86e-4ede-80b2-31fc6f755e14","system_id":"levelo_inurba_marseille","lat":43.29546,"lon":5.38562,"is_reserved":false,"is_disabled":false,"rental_uris":{"android":"levelo://app?vid=b737ae82-c86e-4ede-80b2-31fc6f755e14","ios":"levelo://app?vid=b737ae82-c86e-4ede-80b2-31fc6f755e14"},"vehicle_type_id":"4","last_reported":1739297505,"current_range_meters":3200,"station_id":"ce4bgih2rcd13ifvqba0","pricing_plan_id":"cebpf4jnsgd1na2vs0mg"},{"bike_id":"bf8e0073-3935-4e32-86d0-9614b299b0c3","system_id":"levelo_inurba_marseille","lat":43.30706,"lon":5.40055,"is_reserved":false,"is_disabled":false,"rental_uris":{"android":"levelo://app?vid=bf8e0073-3935-4e32-86d0-9614b299b0c3","ios":"levelo://app?vid=bf8e0073-3935-4e32-86d0-9614b299b0c3"},"vehicle_type_id":"4","last_reported":1739297505,"current_range_meters":38800,"station_id":"ce4bh112rcd13ifvqda0","pricing_plan_id":"cebpf4jnsgd1na2vs0mg"},{"bike_id":"8eff28d5-b16e-4630-bfce-0b77c4d8082d","system_id":"levelo_inurba_marseille","lat":43.29174,"lon":5.358,"is_reserved":false,"is_disabled":false,"rental_uris":{"android":"levelo://app?vid=8eff28d5-b16e-4630-bfce-0b77c4d8082d","ios":"levelo://app?vid=8eff28d5-b16e-4630-bfce-0b77c4d8082d"},"vehicle_type_id":"4","last_reported":1739297505,"current_range_meters":39200,"station_id":"ce4bhb12rcd13ifvqel0","pricing_plan_id":"cebpf4jnsgd1na2vs0mg"},{"bike_id":"7363b34c-f4e3-4a4d-a370-ef3739411451","system_id":"levelo_inurba_marseille","lat":43.26804,"lon":5.40269,"is_reserved":false,"is_disabled":false,"rental_uris":{"android":"levelo://app?vid=7363b34c-f4e3-4a4d-a370-ef3739411451","ios":"levelo://app?vid=7363b34c-f4e3-4a4d-a370-ef3739411451"},"vehicle_type_id":"4","last_reported":1739297505,"current_range_meters":38800,"station_id":"ce501612rcd8frsf0b60","pricing_plan_id":"cebpf4jnsgd1na2vs0mg"},{"bike_id":"2ab8c28d-7a84-4293-9e81-ebc14a76c0cd","system_id":"levelo_inurba_marseille","lat":43.29571,"lon":5.37511,"is_reserved":false,"is_disabled":false,"rental_uris":{"android":"levelo://app?vid=2ab8c28d-7a84-4293-9e81-ebc14a76c0cd","ios":"levelo://app?vid=2ab8c28d-7a84-4293-9e81-ebc14a76c0cd"},"vehicle_type_id":"4","last_reported":1739297505,"current_range_meters":38400,"station_id":"ce4bgh92rcd13ifvqb50","pricing_plan_id":"cebpf4jnsgd1na2vs0mg"},{"bike_id":"c179f179-1614-4d6a-9586-627695823c73","system_id":"levelo_inurba_marseille","lat":43.26809,"lon":5.40267,"is_reserved":false,"is_disabled":false,"rental_uris":{"android":"levelo://app?vid=c179f179-1614-4d6a-9586-627695823c73","ios":"levelo://app?vid=c179f179-1614-4d6a-9586-627695823c73"},"vehicle_type_id":"4","last_reported":1739297505,"current_range_meters":28800,"station_id":"ce501612rcd8frsf0b60","pricing_plan_id":"cebpf4jnsgd1na2vs0mg"},{"bike_id":"c573048d-b0bb-4a11-b456-07d3f804372d","system_id":"levelo_inurba_marseille","lat":43.28853,"lon":5.39298,"is_reserved":false,"is_disabled":false,"rental_uris":{"android":"levelo://app?vid=c573048d-b0bb-4a11-b456-07d3f804372d","ios":"levelo://app?vid=c573048d-b0bb-4a11-b456-07d3f804372d"},"vehicle_type_id":"4","last_reported":1739297505,"current_range_meters":32800,"station_id":"ce4bh2p2rcd13ifvqdi0","pricing_plan_id":"cebpf4jnsgd1na2vs0mg"},{"bike_id":"542c162a-2c01-4221-88ba-bc0cf2c81047","system_id":"levelo_inurba_marseille","lat":43.26807,"lon":5.40273,"is_reserved":false,"is_disabled":false,"rental_uris":{"android":"levelo://app?vid=542c162a-2c01-4221-88ba-bc0cf2c81047","ios":"levelo://app?vid=542c162a-2c01-4221-88ba-bc0cf2c81047"},"vehicle_type_id":"4","last_reported":1739297505,"current_range_meters":39200,"station_id":"ce501612rcd8frsf0b60","pricing_plan_id":"cebpf4jnsgd1na2vs0mg"},{"bike_id":"fa163a79-84da-4fa6-a485-eac763f81b01","system_id":"levelo_inurba_marseille","lat":43.29046,"lon":5.37144,"is_reserved":false,"is_disabled":false,"rental_uris":{"android":"levelo://app?vid=fa163a79-84da-4fa6-a485-eac763f81b01","ios":"levelo://app?vid=fa163a79-84da-4fa6-a485-eac763f81b01"},"vehicle_type_id":"4","last_reported":1739297505,"current_range_meters":32400,"station_id":"ce4bh5p2rcd13ifvqe4g","pricing_plan_id":"cebpf4jnsgd1na2vs0mg"},{"bike_id":"87f29faa-759a-425a-824e-ac3220e83fd2","system_id":"levelo_inurba_marseille","lat":43.31013,"lon":5.40069,"is_reserved":false,"is_disabled":false,"rental_uris":{"android":"levelo://app?vid=87f29faa-759a-425a-824e-ac3220e83fd2","ios":"levelo://app?vid=87f29faa-759a-425a-824e-ac3220e83fd2"},"vehicle_type_id":"4","last_reported":1739297505,"current_range_meters":38800,"station_id":"","pricing_plan_id":"cebpf4jnsgd1na2vs0mg"},{"bike_id":"5b6c5ba9-3dba-44df-9b8a-d982f4eb4bd7","system_id":"levelo_inurba_marseille","lat":43.29385,"lon":5.39494,"is_reserved":false,"is_disabled":false,"rental_uris":{"android":"levelo://app?vid=5b6c5ba9-3dba-44df-9b8a-d982f4eb4bd7","ios":"levelo://app?vid=5b6c5ba9-3dba-44df-9b8a-d982f4eb4bd7"},"vehicle_type_id":"4","last_reported":1739297505,"current_range_meters":25600,"station_id":"","pricing_plan_id":"cebpf4jnsgd1na2vs0mg"},{"bike_id":"3064df36-f96d-4330-8930-85d32b9f3083","system_id":"levelo_inurba_marseille","lat":43.29264,"lon":5.38463,"is_reserved":false,"is_disabled":false,"rental_uris":{"android":"levelo://app?vid=3064df36-f96d-4330-8930-85d32b9f3083","ios":"levelo://app?vid=3064df36-f96d-4330-8930-85d32b9f3083"},"vehicle_type_id":"4","last_reported":1739297505,"current_range_meters":12000,"station_id":"ce4bh692rcd13ifvqea0","pricing_plan_id":"cebpf4jnsgd1na2vs0mg"},{"bike_id":"1add35ea-4fc7-486b-99a6-cfb5eca5d89c","system_id":"levelo_inurba_marseille","lat":43.30209,"lon":5.39476,"is_reserved":false,"is_disabled":false,"rental_uris":{"android":"levelo://app?vid=1add35ea-4fc7-486b-99a6-cfb5eca5d89c","ios":"levelo://app?vid=1add35ea-4fc7-486b-99a6-cfb5eca5d89c"},"vehicle_type_id":"4","last_reported":1739297505,"current_range_meters":32400,"station_id":"ce4bh0p2rcd13ifvqd70","pricing_plan_id":"cebpf4jnsgd1na2vs0mg"},{"bike_id":"8dc60ba6-d690-49b8-8adf-a6261b5bfebb","system_id":"levelo_inurba_marseille","lat":43.24393,"lon":5.370552,"is_reserved":false,"is_disabled":false,"rental_uris":{"android":"levelo://app?vid=8dc60ba6-d690-49b8-8adf-a6261b5bfebb","ios":"levelo://app?vid=8dc60ba6-d690-49b8-8adf-a6261b5bfebb"},"vehicle_type_id":"4","last_reported":1739297505,"current_range_meters":32400,"station_id":"ce4bhhh2rcd13ifvqfk0","pricing_plan_id":"cebpf4jnsgd1na2vs0mg"},{"bike_id":"022bfa62-7cd3-460d-bff2-01870edd9da6","system_id":"levelo_inurba_marseille","lat":43.28735,"lon":5.3607,"is_reserved":false,"is_disabled":false,"rental_uris":{"android":"levelo://app?vid=022bfa62-7cd3-460d-bff2-01870edd9da6","ios":"levelo://app?vid=022bfa62-7cd3-460d-bff2-01870edd9da6"},"vehicle_type_id":"4","last_reported":1739297505,"current_range_meters":36800,"station_id":"cki0cbj6b192h4jlfktg","pricing_plan_id":"cebpf4jnsgd1na2vs0mg"},{"bike_id":"af834613-ca42-4c8f-ab36-217177217196","system_id":"levelo_inurba_marseille","lat":43.24998,"lon":5.38931,"is_reserved":false,"is_disabled":false,"rental_uris":{"android":"levelo://app?vid=af834613-ca42-4c8f-ab36-217177217196","ios":"levelo://app?vid=af834613-ca42-4c8f-ab36-217177217196"},"vehicle_type_id":"4","last_reported":1739297505,"current_range_meters":36800,"station_id":"ce4bhgp2rcd13ifvqfd0","pricing_plan_id":"cebpf4jnsgd1na2vs0mg"},{"bike_id":"d6e53530-3cc7-4db9-8a0d-93dc58983b28","system_id":"levelo_inurba_marseille","lat":43.29709,"lon":5.36607,"is_reserved":false,"is_disabled":false,"rental_uris":{"android":"levelo://app?vid=d6e53530-3cc7-4db9-8a0d-93dc58983b28","ios":"levelo://app?vid=d6e53530-3cc7-4db9-8a0d-93dc58983b28"},"vehicle_type_id":"4","last_reported":1739297505,"current_range_meters":39200,"station_id":"ce4bgn12rcd13ifvqbt0","pricing_plan_id":"cebpf4jnsgd1na2vs0mg"},{"bike_id":"8d9024d1-e65d-448c-be5d-fcc051bd95bc","system_id":"levelo_inurba_marseille","lat":43.30129,"lon":5.38776,"is_reserved":false,"is_disabled":false,"rental_uris":{"android":"levelo://app?vid=8d9024d1-e65d-448c-be5d-fcc051bd95bc","ios":"levelo://app?vid=8d9024d1-e65d-448c-be5d-fcc051bd95bc"},"vehicle_type_id":"4","last_reported":1739297505,"current_range_meters":38800,"station_id":"ce4bghh2rcd13ifvqb60","pricing_plan_id":"cebpf4jnsgd1na2vs0mg"},{"bike_id":"e169a236-33c1-4557-8a4d-0eca73ad1806","system_id":"levelo_inurba_marseille","lat":43.28004,"lon":5.40016,"is_reserved":false,"is_disabled":false,"rental_uris":{"android":"levelo://app?vid=e169a236-33c1-4557-8a4d-0eca73ad1806","ios":"levelo://app?vid=e169a236-33c1-4557-8a4d-0eca73ad1806"},"vehicle_type_id":"4","last_reported":1739297505,"current_range_meters":25200,"station_id":"ce4bho92rcd13ifvqh4g","pricing_plan_id":"cebpf4jnsgd1na2vs0mg"},{"bike_id":"6bef5661-98f3-427d-9fe9-ace76ea423c3","system_id":"levelo_inurba_marseille","lat":43.290051,"lon":5.356176,"is_reserved":false,"is_disabled":false,"rental_uris":{"android":"levelo://app?vid=6bef5661-98f3-427d-9fe9-ace76ea423c3","ios":"levelo://app?vid=6bef5661-98f3-427d-9fe9-ace76ea423c3"},"vehicle_type_id":"4","last_reported":1739297505,"current_range_meters":38000,"station_id":"","pricing_plan_id":"cebpf4jnsgd1na2vs0mg"},{"bike_id":"75c83c56-afce-4268-9805-1dfe0c30279a","system_id":"levelo_inurba_marseille","lat":43.28747,"lon":5.40023,"is_reserved":false,"is_disabled":false,"rental_uris":{"android":"levelo://app?vid=75c83c56-afce-4268-9805-1dfe0c30279a","ios":"levelo://app?vid=75c83c56-afce-4268-9805-1dfe0c30279a"},"vehicle_type_id":"4","last_reported":1739297505,"current_range_meters":22800,"station_id":"ce4bho92rcd13ifvqh3g","pricing_plan_id":"cebpf4jnsgd1na2vs0mg"},{"bike_id":"f96d9290-7566-4c01-a4f3-765d931e8a38","system_id":"levelo_inurba_marseille","lat":43.29798,"lon":5.3811,"is_reserved":false,"is_disabled":false,"rental_uris":{"android":"levelo://app?vid=f96d9290-7566-4c01-a4f3-765d931e8a38","ios":"levelo://app?vid=f96d9290-7566-4c01-a4f3-765d931e8a38"},"vehicle_type_id":"4","last_reported":1739297505,"current_range_meters":28000,"station_id":"ce4bgip2rcd13ifvqbb0","pricing_plan_id":"cebpf4jnsgd1na2vs0mg"},{"bike_id":"ab27ba9e-3fb3-41b1-a802-4cdc50ceeacd","system_id":"levelo_inurba_marseille","lat":43.3234,"lon":5.40616,"is_reserved":false,"is_disabled":false,"rental_uris":{"android":"levelo://app?vid=ab27ba9e-3fb3-41b1-a802-4cdc50ceeacd","ios":"levelo://app?vid=ab27ba9e-3fb3-41b1-a802-4cdc50ceeacd"},"vehicle_type_id":"4","last_reported":1739297505,"current_range_meters":38800,"station_id":"ce4bhq92rcd13ifvqhjg","pricing_plan_id":"cebpf4jnsgd1na2vs0mg"},{"bike_id":"76ebc75d-2fe5-45e0-9f44-dea2f5f86814","system_id":"levelo_inurba_marseille","lat":43.24395,"lon":5.37058,"is_reserved":false,"is_disabled":false,"rental_uris":{"android":"levelo://app?vid=76ebc75d-2fe5-45e0-9f44-dea2f5f86814","ios":"levelo://app?vid=76ebc75d-2fe5-45e0-9f44-dea2f5f86814"},"vehicle_type_id":"4","last_reported":1739297505,"current_range_meters":32000,"station_id":"ce4bhhh2rcd13ifvqfk0","pricing_plan_id":"cebpf4jnsgd1na2vs0mg"},{"bike_id":"c30dfd55-b891-4456-a6ce-f5e9d05e4a09","system_id":"levelo_inurba_marseille","lat":43.28628,"lon":5.35097,"is_reserved":false,"is_disabled":false,"rental_uris":{"android":"levelo://app?vid=c30dfd55-b891-4456-a6ce-f5e9d05e4a09","ios":"levelo://app?vid=c30dfd55-b891-4456-a6ce-f5e9d05e4a09"},"vehicle_type_id":"4","last_reported":1739297505,"current_range_meters":16800,"station_id":"ce4bhch2rcd13ifvqeug","pricing_plan_id":"cebpf4jnsgd1na2vs0mg"},{"bike_id":"76305925-afef-4e0d-9960-6de968abbadf","system_id":"levelo_inurba_marseille","lat":43.248093,"lon":5.37459,"is_reserved":false,"is_disabled":false,"rental_uris":{"android":"levelo://app?vid=76305925-afef-4e0d-9960-6de968abbadf","ios":"levelo://app?vid=76305925-afef-4e0d-9960-6de968abbadf"},"vehicle_type_id":"4","last_reported":1739297505,"current_range_meters":36800,"station_id":"ce4bhgh2rcd13ifvqfb0","pricing_plan_id":"cebpf4jnsgd1na2vs0mg"},{"bike_id":"1fb1a03a-258b-416a-92dc-66b98dcbe7d9","system_id":"levelo_inurba_marseille","lat":43.33727,"lon":5.39203,"is_reserved":false,"is_disabled":false,"rental_uris":{"android":"levelo://app?vid=1fb1a03a-258b-416a-92dc-66b98dcbe7d9","ios":"levelo://app?vid=1fb1a03a-258b-416a-92dc-66b98dcbe7d9"},"vehicle_type_id":"4","last_reported":1739297505,"current_range_meters":38800,"station_id":"ce4bhr92rcd13ifvqhsg","pricing_plan_id":"cebpf4jnsgd1na2vs0mg"},{"bike_id":"0dbd0d81-4da6-4a7b-a928-c122921cd867","system_id":"levelo_inurba_marseille","lat":43.28923,"lon":5.38395,"is_reserved":false,"is_disabled":false,"rental_uris":{"android":"levelo://app?vid=0dbd0d81-4da6-4a7b-a928-c122921cd867","ios":"levelo://app?vid=0dbd0d81-4da6-4a7b-a928-c122921cd867"},"vehicle_type_id":"4","last_reported":1739297505,"current_range_meters":38800,"station_id":"ce4bh612rcd13ifvqe6g","pricing_plan_id":"cebpf4jnsgd1na2vs0mg"},{"bike_id":"51ab7186-5043-4bed-baca-73708608a302","system_id":"levelo_inurba_marseille","lat":43.29584,"lon":5.37026,"is_reserved":false,"is_disabled":true,"rental_uris":{"android":"levelo://app?vid=51ab7186-5043-4bed-baca-73708608a302","ios":"levelo://app?vid=51ab7186-5043-4bed-baca-73708608a302"},"vehicle_type_id":"4","last_reported":1739297505,"current_range_meters":6400,"station_id":"","pricing_plan_id":"cebpf4jnsgd1na2vs0mg"},{"bike_id":"770b9dad-3bfe-421f-b4ac-d1656285cf59","system_id":"levelo_inurba_marseille","lat":43.29361,"lon":5.37849,"is_reserved":false,"is_disabled":false,"rental_uris":{"android":"levelo://app?vid=770b9dad-3bfe-421f-b4ac-d1656285cf59","ios":"levelo://app?vid=770b9dad-3bfe-421f-b4ac-d1656285cf59"},"vehicle_type_id":"4","last_reported":1739297505,"current_range_meters":38800,"station_id":"ce4bgjh2rcd13ifvqbf0","pricing_plan_id":"cebpf4jnsgd1na2vs0mg"},{"bike_id":"3b6d719d-a650-4e95-a280-b2faafcc0f73","system_id":"levelo_inurba_marseille","lat":43.31322,"lon":5.3971,"is_reserved":false,"is_disabled":false,"rental_uris":{"android":"levelo://app?vid=3b6d719d-a650-4e95-a280-b2faafcc0f73","ios":"levelo://app?vid=3b6d719d-a650-4e95-a280-b2faafcc0f73"},"vehicle_type_id":"4","last_reported":1739297505,"current_range_meters":39200,"station_id":"ce4bgvp2rcd13ifvqcu0","pricing_plan_id":"cebpf4jnsgd1na2vs0mg"},{"bike_id":"0e044507-a48e-46b2-974e-f875ee3d4847","system_id":"levelo_inurba_marseille","lat":43.28934,"lon":5.36638,"is_reserved":false,"is_disabled":false,"rental_uris":{"android":"levelo://app?vid=0e044507-a48e-46b2-974e-f875ee3d4847","ios":"levelo://app?vid=0e044507-a48e-46b2-974e-f875ee3d4847"},"vehicle_type_id":"4","last_reported":1739297505,"current_range_meters":39200,"station_id":"ce4bhap2rcd13ifvqek0","pricing_plan_id":"cebpf4jnsgd1na2vs0mg"},{"bike_id":"2df9ea44-1468-43c2-82ec-de1fd1b84b65","system_id":"levelo_inurba_marseille","lat":43.26942,"lon":5.40258,"is_reserved":false,"is_disabled":false,"rental_uris":{"android":"levelo://app?vid=2df9ea44-1468-43c2-82ec-de1fd1b84b65","ios":"levelo://app?vid=2df9ea44-1468-43c2-82ec-de1fd1b84b65"},"vehicle_type_id":"4","last_reported":1739297505,"current_range_meters":27600,"station_id":"cjm6bp8fraef2m0cb0m0","pricing_plan_id":"cebpf4jnsgd1na2vs0mg"},{"bike_id":"20a48ecc-be84-4a19-af41-d4d79c7ee9f1","system_id":"levelo_inurba_marseille","lat":43.29524,"lon":5.39036,"is_reserved":false,"is_disabled":false,"rental_uris":{"android":"levelo://app?vid=20a48ecc-be84-4a19-af41-d4d79c7ee9f1","ios":"levelo://app?vid=20a48ecc-be84-4a19-af41-d4d79c7ee9f1"},"vehicle_type_id":"4","last_reported":1739297505,"current_range_meters":33200,"station_id":"ce4bh3p2rcd13ifvqdp0","pricing_plan_id":"cebpf4jnsgd1na2vs0mg"},{"bike_id":"e9d6d52e-ae73-4562-b275-f61781a951b6","system_id":"levelo_inurba_marseille","lat":43.28478,"lon":5.38406,"is_reserved":false,"is_disabled":false,"rental_uris":{"android":"levelo://app?vid=e9d6d52e-ae73-4562-b275-f61781a951b6","ios":"levelo://app?vid=e9d6d52e-ae73-4562-b275-f61781a951b6"},"vehicle_type_id":"4","last_reported":1739297505,"current_range_meters":38400,"station_id":"ce4bh512rcd13ifvqe3g","pricing_plan_id":"cebpf4jnsgd1na2vs0mg"},{"bike_id":"a9b142c9-8146-4cd2-9929-de6fa12b9ff4","system_id":"levelo_inurba_marseille","lat":43.29792,"lon":5.40413,"is_reserved":false,"is_disabled":false,"rental_uris":{"android":"levelo://app?vid=a9b142c9-8146-4cd2-9929-de6fa12b9ff4","ios":"levelo://app?vid=a9b142c9-8146-4cd2-9929-de6fa12b9ff4"},"vehicle_type_id":"4","last_reported":1739297505,"current_range_meters":39200,"station_id":"ce4bh112rcd13ifvqd90","pricing_plan_id":"cebpf4jnsgd1na2vs0mg"},{"bike_id":"cbac4209-36af-45af-b559-a20e845b0471","system_id":"levelo_inurba_marseille","lat":43.28352,"lon":5.38633,"is_reserved":false,"is_disabled":false,"rental_uris":{"android":"levelo://app?vid=cbac4209-36af-45af-b559-a20e845b0471","ios":"levelo://app?vid=cbac4209-36af-45af-b559-a20e845b0471"},"vehicle_type_id":"4","last_reported":1739297505,"current_range_meters":38000,"station_id":"ce4bh492rcd13ifvqdvg","pricing_plan_id":"cebpf4jnsgd1na2vs0mg"},{"bike_id":"441f1b10-b083-4d0e-9a93-a5e4de8f2610","system_id":"levelo_inurba_marseille","lat":43.28445,"lon":5.39174,"is_reserved":false,"is_disabled":false,"rental_uris":{"android":"levelo://app?vid=441f1b10-b083-4d0e-9a93-a5e4de8f2610","ios":"levelo://app?vid=441f1b10-b083-4d0e-9a93-a5e4de8f2610"},"vehicle_type_id":"4","last_reported":1739297505,"current_range_meters":19600,"station_id":"ce4bhoh2rcd13ifvqh5g","pricing_plan_id":"cebpf4jnsgd1na2vs0mg"},{"bike_id":"f9fcd84c-9a0b-4471-a4a8-56349dc37728","system_id":"levelo_inurba_marseille","lat":43.27331,"lon":5.39055,"is_reserved":false,"is_disabled":false,"rental_uris":{"android":"levelo://app?vid=f9fcd84c-9a0b-4471-a4a8-56349dc37728","ios":"levelo://app?vid=f9fcd84c-9a0b-4471-a4a8-56349dc37728"},"vehicle_type_id":"4","last_reported":1739297505,"current_range_meters":27200,"station_id":"ce4bhgp2rcd13ifvqfe0","pricing_plan_id":"cebpf4jnsgd1na2vs0mg"},{"bike_id":"8c682dc3-92c1-4499-99d8-ad092b7ee0e7","system_id":"levelo_inurba_marseille","lat":43.24673,"lon":5.38147,"is_reserved":false,"is_disabled":false,"rental_uris":{"android":"levelo://app?vid=8c682dc3-92c1-4499-99d8-ad092b7ee0e7","ios":"levelo://app?vid=8c682dc3-92c1-4499-99d8-ad092b7ee0e7"},"vehicle_type_id":"4","last_reported":1739297505,"current_range_meters":27200,"station_id":"ce4bhih2rcd13ifvqfr0","pricing_plan_id":"cebpf4jnsgd1na2vs0mg"},{"bike_id":"dcd4b525-77ac-4259-8ab3-b627e3be70cc","system_id":"levelo_inurba_marseille","lat":43.28003,"lon":5.39989,"is_reserved":false,"is_disabled":false,"rental_uris":{"android":"levelo://app?vid=dcd4b525-77ac-4259-8ab3-b627e3be70cc","ios":"levelo://app?vid=dcd4b525-77ac-4259-8ab3-b627e3be70cc"},"vehicle_type_id":"4","last_reported":1739297505,"current_range_meters":38000,"station_id":"ce4bho92rcd13ifvqh4g","pricing_plan_id":"cebpf4jnsgd1na2vs0mg"},{"bike_id":"de77abfa-6f74-40e9-8131-b7884eda37eb","system_id":"levelo_inurba_marseille","lat":43.29942,"lon":5.39392,"is_reserved":false,"is_disabled":false,"rental_uris":{"android":"levelo://app?vid=de77abfa-6f74-40e9-8131-b7884eda37eb","ios":"levelo://app?vid=de77abfa-6f74-40e9-8131-b7884eda37eb"},"vehicle_type_id":"4","last_reported":1739297505,"current_range_meters":28000,"station_id":"","pricing_plan_id":"cebpf4jnsgd1na2vs0mg"},{"bike_id":"f96b7d13-dd91-4711-95db-28f8504f214f","system_id":"levelo_inurba_marseille","lat":43.28721,"lon":5.36091,"is_reserved":false,"is_disabled":false,"rental_uris":{"android":"levelo://app?vid=f96b7d13-dd91-4711-95db-28f8504f214f","ios":"levelo://app?vid=f96b7d13-dd91-4711-95db-28f8504f214f"},"vehicle_type_id":"4","last_reported":1739297505,"current_range_meters":20400,"station_id":"cki0cbj6b192h4jlfktg","pricing_plan_id":"cebpf4jnsgd1na2vs0mg"},{"bike_id":"aa081435-b5f9-4834-b16c-7f35c836b33a","system_id":"levelo_inurba_marseille","lat":43.30167,"lon":5.3742,"is_reserved":false,"is_disabled":false,"rental_uris":{"android":"levelo://app?vid=aa081435-b5f9-4834-b16c-7f35c836b33a","ios":"levelo://app?vid=aa081435-b5f9-4834-b16c-7f35c836b33a"},"vehicle_type_id":"4","last_reported":1739297505,"current_range_meters":38800,"station_id":"ce4bgs92rcd13ifvqcc0","pricing_plan_id":"cebpf4jnsgd1na2vs0mg"},{"bike_id":"ee079ffa-4416-4a91-bc98-3bd665acea3b","system_id":"levelo_inurba_marseille","lat":43.33729,"lon":5.39168,"is_reserved":false,"is_disabled":false,"rental_uris":{"android":"levelo://app?vid=ee079ffa-4416-4a91-bc98-3bd665acea3b","ios":"levelo://app?vid=ee079ffa-4416-4a91-bc98-3bd665acea3b"},"vehicle_type_id":"4","last_reported":1739297505,"current_range_meters":38800,"station_id":"ce4bhr92rcd13ifvqhsg","pricing_plan_id":"cebpf4jnsgd1na2vs0mg"},{"bike_id":"1fa82dc6-47d4-4356-bbca-393bf4461726","system_id":"levelo_inurba_marseille","lat":43.23961,"lon":5.36619,"is_reserved":false,"is_disabled":false,"rental_uris":{"android":"levelo://app?vid=1fa82dc6-47d4-4356-bbca-393bf4461726","ios":"levelo://app?vid=1fa82dc6-47d4-4356-bbca-393bf4461726"},"vehicle_type_id":"4","last_reported":1739297505,"current_range_meters":18000,"station_id":"ce4bhi12rcd13ifvqfp0","pricing_plan_id":"cebpf4jnsgd1na2vs0mg"},{"bike_id":"8f27805b-e45e-482f-800b-3745204b0141","system_id":"levelo_inurba_marseille","lat":43.24646,"lon":5.38187,"is_reserved":false,"is_disabled":false,"rental_uris":{"android":"levelo://app?vid=8f27805b-e45e-482f-800b-3745204b0141","ios":"levelo://app?vid=8f27805b-e45e-482f-800b-3745204b0141"},"vehicle_type_id":"4","last_reported":1739297505,"current_range_meters":27600,"station_id":"ce4bhih2rcd13ifvqfr0","pricing_plan_id":"cebpf4jnsgd1na2vs0mg"},{"bike_id":"bcb645d7-c598-4777-888d-2e2637a0a4f2","system_id":"levelo_inurba_marseille","lat":43.27901,"lon":5.37993,"is_reserved":false,"is_disabled":false,"rental_uris":{"android":"levelo://app?vid=bcb645d7-c598-4777-888d-2e2637a0a4f2","ios":"levelo://app?vid=bcb645d7-c598-4777-888d-2e2637a0a4f2"},"vehicle_type_id":"4","last_reported":1739297505,"current_range_meters":33200,"station_id":"ce4bhf92rcd13ifvqf50","pricing_plan_id":"cebpf4jnsgd1na2vs0mg"},{"bike_id":"43d9c899-b698-4010-980b-b17004dc2d7c","system_id":"levelo_inurba_marseille","lat":43.29995,"lon":5.37171,"is_reserved":false,"is_disabled":false,"rental_uris":{"android":"levelo://app?vid=43d9c899-b698-4010-980b-b17004dc2d7c","ios":"levelo://app?vid=43d9c899-b698-4010-980b-b17004dc2d7c"},"vehicle_type_id":"4","last_reported":1739297505,"current_range_meters":38800,"station_id":"ce4bgr92rcd13ifvqc7g","pricing_plan_id":"cebpf4jnsgd1na2vs0mg"},{"bike_id":"67c77a93-95e0-4dde-b030-1b6a0f65cf9a","system_id":"levelo_inurba_marseille","lat":43.27175,"lon":5.40996,"is_reserved":false,"is_disabled":false,"rental_uris":{"android":"levelo://app?vid=67c77a93-95e0-4dde-b030-1b6a0f65cf9a","ios":"levelo://app?vid=67c77a93-95e0-4dde-b030-1b6a0f65cf9a"},"vehicle_type_id":"4","last_reported":1739297505,"current_range_meters":7200,"station_id":"ce4bhl12rcd13ifvqgf0","pricing_plan_id":"cebpf4jnsgd1na2vs0mg"},{"bike_id":"c77c56a9-565c-475f-bd1c-605db7105c42","system_id":"levelo_inurba_marseille","lat":43.2693,"lon":5.38914,"is_reserved":false,"is_disabled":false,"rental_uris":{"android":"levelo://app?vid=c77c56a9-565c-475f-bd1c-605db7105c42","ios":"levelo://app?vid=c77c56a9-565c-475f-bd1c-605db7105c42"},"vehicle_type_id":"4","last_reported":1739297505,"current_range_meters":37600,"station_id":"ce4bhhh2rcd13ifvqfl0","pricing_plan_id":"cebpf4jnsgd1na2vs0mg"},{"bike_id":"496fa2ad-a547-4095-b8b9-a29f1a78ab4b","system_id":"levelo_inurba_marseille","lat":43.2782,"lon":5.40727,"is_reserved":false,"is_disabled":true,"rental_uris":{"android":"levelo://app?vid=496fa2ad-a547-4095-b8b9-a29f1a78ab4b","ios":"levelo://app?vid=496fa2ad-a547-4095-b8b9-a29f1a78ab4b"},"vehicle_type_id":"4","last_reported":1739297505,"current_range_meters":36400,"station_id":"ce4bhnh2rcd13ifvqgtg","pricing_plan_id":"cebpf4jnsgd1na2vs0mg"},{"bike_id":"726ae336-bb50-4e54-8a7d-95388aae943d","system_id":"levelo_inurba_marseille","lat":43.27094,"lon":5.42216,"is_reserved":false,"is_disabled":false,"rental_uris":{"android":"levelo://app?vid=726ae336-bb50-4e54-8a7d-95388aae943d","ios":"levelo://app?vid=726ae336-bb50-4e54-8a7d-95388aae943d"},"vehicle_type_id":"4","last_reported":1739297505,"current_range_meters":38000,"station_id":"ce4bhk92rcd13ifvqgb0","pricing_plan_id":"cebpf4jnsgd1na2vs0mg"},{"bike_id":"3db29e58-0383-464f-82dd-fb2e9d4db242","system_id":"levelo_inurba_marseille","lat":43.28115,"lon":5.37812,"is_reserved":false,"is_disabled":false,"rental_uris":{"android":"levelo://app?vid=3db29e58-0383-464f-82dd-fb2e9d4db242","ios":"levelo://app?vid=3db29e58-0383-464f-82dd-fb2e9d4db242"},"vehicle_type_id":"4","last_reported":1739297505,"current_range_meters":33200,"station_id":"ce4bha12rcd13ifvqee0","pricing_plan_id":"cebpf4jnsgd1na2vs0mg"},{"bike_id":"05f6ac8f-0127-4e39-bd11-d53a74225ef8","system_id":"levelo_inurba_marseille","lat":43.27874,"lon":5.40597,"is_reserved":false,"is_disabled":true,"rental_uris":{"android":"levelo://app?vid=05f6ac8f-0127-4e39-bd11-d53a74225ef8","ios":"levelo://app?vid=05f6ac8f-0127-4e39-bd11-d53a74225ef8"},"vehicle_type_id":"4","last_reported":1739297505,"current_range_meters":0,"station_id":"","pricing_plan_id":"cebpf4jnsgd1na2vs0mg"},{"bike_id":"79c67923-64b6-4fa8-abef-19fcbf7ed71b","system_id":"levelo_inurba_marseille","lat":43.24808,"lon":5.37475,"is_reserved":false,"is_disabled":false,"rental_uris":{"android":"levelo://app?vid=79c67923-64b6-4fa8-abef-19fcbf7ed71b","ios":"levelo://app?vid=79c67923-64b6-4fa8-abef-19fcbf7ed71b"},"vehicle_type_id":"4","last_reported":1739297505,"current_range_meters":17600,"station_id":"ce4bhgh2rcd13ifvqfb0","pricing_plan_id":"cebpf4jnsgd1na2vs0mg"},{"bike_id":"5e251f3a-b20d-4413-bffe-e10c72520158","system_id":"levelo_inurba_marseille","lat":43.2707,"lon":5.42268,"is_reserved":false,"is_disabled":false,"rental_uris":{"android":"levelo://app?vid=5e251f3a-b20d-4413-bffe-e10c72520158","ios":"levelo://app?vid=5e251f3a-b20d-4413-bffe-e10c72520158"},"vehicle_type_id":"4","last_reported":1739297505,"current_range_meters":36400,"station_id":"ce4bhk92rcd13ifvqgb0","pricing_plan_id":"cebpf4jnsgd1na2vs0mg"},{"bike_id":"1a977b22-108e-45ce-bfbb-a16bbbb07843","system_id":"levelo_inurba_marseille","lat":43.30541,"lon":5.36525,"is_reserved":false,"is_disabled":false,"rental_uris":{"android":"levelo://app?vid=1a977b22-108e-45ce-bfbb-a16bbbb07843","ios":"levelo://app?vid=1a977b22-108e-45ce-bfbb-a16bbbb07843"},"vehicle_type_id":"4","last_reported":1739297505,"current_range_meters":24000,"station_id":"ce4bgs12rcd13ifvqcag","pricing_plan_id":"cebpf4jnsgd1na2vs0mg"},{"bike_id":"4e7bd3df-8690-4e70-9b5b-ad9e2c2f4eb7","system_id":"levelo_inurba_marseille","lat":43.29264,"lon":5.3844,"is_reserved":false,"is_disabled":false,"rental_uris":{"android":"levelo://app?vid=4e7bd3df-8690-4e70-9b5b-ad9e2c2f4eb7","ios":"levelo://app?vid=4e7bd3df-8690-4e70-9b5b-ad9e2c2f4eb7"},"vehicle_type_id":"4","last_reported":1739297505,"current_range_meters":15200,"station_id":"ce4bh692rcd13ifvqea0","pricing_plan_id":"cebpf4jnsgd1na2vs0mg"},{"bike_id":"4bc69c7f-9593-488a-a501-daee6e543a6d","system_id":"levelo_inurba_marseille","lat":43.27052,"lon":5.40263,"is_reserved":false,"is_disabled":false,"rental_uris":{"android":"levelo://app?vid=4bc69c7f-9593-488a-a501-daee6e543a6d","ios":"levelo://app?vid=4bc69c7f-9593-488a-a501-daee6e543a6d"},"vehicle_type_id":"4","last_reported":1739297505,"current_range_meters":36800,"station_id":"ce4bhk92rcd13ifvqgc0","pricing_plan_id":"cebpf4jnsgd1na2vs0mg"},{"bike_id":"3d01ee57-be5d-4165-815d-c5b06c8be331","system_id":"levelo_inurba_marseille","lat":43.25007,"lon":5.38936,"is_reserved":false,"is_disabled":false,"rental_uris":{"android":"levelo://app?vid=3d01ee57-be5d-4165-815d-c5b06c8be331","ios":"levelo://app?vid=3d01ee57-be5d-4165-815d-c5b06c8be331"},"vehicle_type_id":"4","last_reported":1739297505,"current_range_meters":39200,"station_id":"ce4bhgp2rcd13ifvqfd0","pricing_plan_id":"cebpf4jnsgd1na2vs0mg"},{"bike_id":"c9f66a3b-63cf-4ad4-8d82-46ec7c71c1e3","system_id":"levelo_inurba_marseille","lat":43.28477,"lon":5.3843,"is_reserved":false,"is_disabled":false,"rental_uris":{"android":"levelo://app?vid=c9f66a3b-63cf-4ad4-8d82-46ec7c71c1e3","ios":"levelo://app?vid=c9f66a3b-63cf-4ad4-8d82-46ec7c71c1e3"},"vehicle_type_id":"4","last_reported":1739297505,"current_range_meters":28400,"station_id":"ce4bh512rcd13ifvqe3g","pricing_plan_id":"cebpf4jnsgd1na2vs0mg"},{"bike_id":"721f5fb6-7349-49b7-a109-77ff84c72bdd","system_id":"levelo_inurba_marseille","lat":43.302,"lon":5.39473,"is_reserved":false,"is_disabled":false,"rental_uris":{"android":"levelo://app?vid=721f5fb6-7349-49b7-a109-77ff84c72bdd","ios":"levelo://app?vid=721f5fb6-7349-49b7-a109-77ff84c72bdd"},"vehicle_type_id":"4","last_reported":1739297505,"current_range_meters":38800,"station_id":"ce4bh0p2rcd13ifvqd70","pricing_plan_id":"cebpf4jnsgd1na2vs0mg"},{"bike_id":"a89cb6fd-5271-408f-9ac0-f40ad210763d","system_id":"levelo_inurba_marseille","lat":43.28927,"lon":5.38402,"is_reserved":false,"is_disabled":false,"rental_uris":{"android":"levelo://app?vid=a89cb6fd-5271-408f-9ac0-f40ad210763d","ios":"levelo://app?vid=a89cb6fd-5271-408f-9ac0-f40ad210763d"},"vehicle_type_id":"4","last_reported":1739297505,"current_range_meters":24400,"station_id":"ce4bh612rcd13ifvqe6g","pricing_plan_id":"cebpf4jnsgd1na2vs0mg"},{"bike_id":"76ed4e97-7fa9-4836-bcd3-e52753ef31b4","system_id":"levelo_inurba_marseille","lat":43.29853,"lon":5.36277,"is_reserved":false,"is_disabled":false,"rental_uris":{"android":"levelo://app?vid=76ed4e97-7fa9-4836-bcd3-e52753ef31b4","ios":"levelo://app?vid=76ed4e97-7fa9-4836-bcd3-e52753ef31b4"},"vehicle_type_id":"4","last_reported":1739297505,"current_range_meters":37600,"station_id":"ce4bgpp2rcd13ifvqc3g","pricing_plan_id":"cebpf4jnsgd1na2vs0mg"},{"bike_id":"fd7cd6eb-8023-4160-9061-39fa556cf25c","system_id":"levelo_inurba_marseille","lat":43.30313,"lon":5.40429,"is_reserved":false,"is_disabled":true,"rental_uris":{"android":"levelo://app?vid=fd7cd6eb-8023-4160-9061-39fa556cf25c","ios":"levelo://app?vid=fd7cd6eb-8023-4160-9061-39fa556cf25c"},"vehicle_type_id":"4","last_reported":1739297505,"current_range_meters":28000,"station_id":"ce4bh012rcd13ifvqd10","pricing_plan_id":"cebpf4jnsgd1na2vs0mg"},{"bike_id":"d32849cf-4c14-4032-9063-172d06d3f04f","system_id":"levelo_inurba_marseille","lat":43.23192,"lon":5.35552,"is_reserved":false,"is_disabled":false,"rental_uris":{"android":"levelo://app?vid=d32849cf-4c14-4032-9063-172d06d3f04f","ios":"levelo://app?vid=d32849cf-4c14-4032-9063-172d06d3f04f"},"vehicle_type_id":"4","last_reported":1739297505,"current_range_meters":34000,"station_id":"ce4bhu92rcd13ifvqi70","pricing_plan_id":"cebpf4jnsgd1na2vs0mg"},{"bike_id":"a4eaaa69-6c5f-4bbb-8db1-625e149d651e","system_id":"levelo_inurba_marseille","lat":43.29525,"lon":5.39041,"is_reserved":false,"is_disabled":false,"rental_uris":{"android":"levelo://app?vid=a4eaaa69-6c5f-4bbb-8db1-625e149d651e","ios":"levelo://app?vid=a4eaaa69-6c5f-4bbb-8db1-625e149d651e"},"vehicle_type_id":"4","last_reported":1739297505,"current_range_meters":38800,"station_id":"ce4bh3p2rcd13ifvqdp0","pricing_plan_id":"cebpf4jnsgd1na2vs0mg"},{"bike_id":"923fee55-079c-42f4-b99f-4928932f7207","system_id":"levelo_inurba_marseille","lat":43.27067,"lon":5.42275,"is_reserved":false,"is_disabled":false,"rental_uris":{"android":"levelo://app?vid=923fee55-079c-42f4-b99f-4928932f7207","ios":"levelo://app?vid=923fee55-079c-42f4-b99f-4928932f7207"},"vehicle_type_id":"4","last_reported":1739297505,"current_range_meters":38400,"station_id":"ce4bhk92rcd13ifvqgb0","pricing_plan_id":"cebpf4jnsgd1na2vs0mg"},{"bike_id":"09a31e22-31a3-4a8b-a8f3-c6b84a9cc357","system_id":"levelo_inurba_marseille","lat":43.275612,"lon":5.384236,"is_reserved":false,"is_disabled":false,"rental_uris":{"android":"levelo://app?vid=09a31e22-31a3-4a8b-a8f3-c6b84a9cc357","ios":"levelo://app?vid=09a31e22-31a3-4a8b-a8f3-c6b84a9cc357"},"vehicle_type_id":"4","last_reported":1739297505,"current_range_meters":27200,"station_id":"ce4bhh92rcd13ifvqfi0","pricing_plan_id":"cebpf4jnsgd1na2vs0mg"},{"bike_id":"b7cfafc0-fba3-47fa-8c3d-d96c6bee1f7a","system_id":"levelo_inurba_marseille","lat":43.24409,"lon":5.37029,"is_reserved":false,"is_disabled":false,"rental_uris":{"android":"levelo://app?vid=b7cfafc0-fba3-47fa-8c3d-d96c6bee1f7a","ios":"levelo://app?vid=b7cfafc0-fba3-47fa-8c3d-d96c6bee1f7a"},"vehicle_type_id":"4","last_reported":1739297505,"current_range_meters":32800,"station_id":"ce4bhhh2rcd13ifvqfk0","pricing_plan_id":"cebpf4jnsgd1na2vs0mg"},{"bike_id":"9ba133ba-7b58-4607-8737-7fb5bce66e58","system_id":"levelo_inurba_marseille","lat":43.24387,"lon":5.37048,"is_reserved":false,"is_disabled":false,"rental_uris":{"android":"levelo://app?vid=9ba133ba-7b58-4607-8737-7fb5bce66e58","ios":"levelo://app?vid=9ba133ba-7b58-4607-8737-7fb5bce66e58"},"vehicle_type_id":"4","last_reported":1739297505,"current_range_meters":38800,"station_id":"ce4bhhh2rcd13ifvqfk0","pricing_plan_id":"cebpf4jnsgd1na2vs0mg"},{"bike_id":"e6fe9a70-0f1c-455d-ac88-7e5800c50bb4","system_id":"levelo_inurba_marseille","lat":43.29276,"lon":5.38455,"is_reserved":false,"is_disabled":false,"rental_uris":{"android":"levelo://app?vid=e6fe9a70-0f1c-455d-ac88-7e5800c50bb4","ios":"levelo://app?vid=e6fe9a70-0f1c-455d-ac88-7e5800c50bb4"},"vehicle_type_id":"4","last_reported":1739297505,"current_range_meters":27200,"station_id":"ce4bh692rcd13ifvqea0","pricing_plan_id":"cebpf4jnsgd1na2vs0mg"},{"bike_id":"f6e41f32-e235-432e-b657-0d4bc89c9b05","system_id":"levelo_inurba_marseille","lat":43.26565,"lon":5.37299,"is_reserved":false,"is_disabled":false,"rental_uris":{"android":"levelo://app?vid=f6e41f32-e235-432e-b657-0d4bc89c9b05","ios":"levelo://app?vid=f6e41f32-e235-432e-b657-0d4bc89c9b05"},"vehicle_type_id":"4","last_reported":1739297505,"current_range_meters":37600,"station_id":"ce4bhg12rcd13ifvqf70","pricing_plan_id":"cebpf4jnsgd1na2vs0mg"},{"bike_id":"13852333-758e-410b-bb6e-a82ae1bc3a77","system_id":"levelo_inurba_marseille","lat":43.28934,"lon":5.36635,"is_reserved":false,"is_disabled":false,"rental_uris":{"android":"levelo://app?vid=13852333-758e-410b-bb6e-a82ae1bc3a77","ios":"levelo://app?vid=13852333-758e-410b-bb6e-a82ae1bc3a77"},"vehicle_type_id":"4","last_reported":1739297505,"current_range_meters":39200,"station_id":"ce4bhap2rcd13ifvqek0","pricing_plan_id":"cebpf4jnsgd1na2vs0mg"},{"bike_id":"a31059c9-b8b5-4ad8-a4f0-735d0ee6470b","system_id":"levelo_inurba_marseille","lat":43.29956,"lon":5.38554,"is_reserved":false,"is_disabled":false,"rental_uris":{"android":"levelo://app?vid=a31059c9-b8b5-4ad8-a4f0-735d0ee6470b","ios":"levelo://app?vid=a31059c9-b8b5-4ad8-a4f0-735d0ee6470b"},"vehicle_type_id":"4","last_reported":1739297505,"current_range_meters":16400,"station_id":"","pricing_plan_id":"cebpf4jnsgd1na2vs0mg"},{"bike_id":"14b2070b-6ddc-42e3-b1e8-9c0cbc081f72","system_id":"levelo_inurba_marseille","lat":43.33746,"lon":5.39188,"is_reserved":false,"is_disabled":false,"rental_uris":{"android":"levelo://app?vid=14b2070b-6ddc-42e3-b1e8-9c0cbc081f72","ios":"levelo://app?vid=14b2070b-6ddc-42e3-b1e8-9c0cbc081f72"},"vehicle_type_id":"4","last_reported":1739297505,"current_range_meters":38000,"station_id":"ce4bhr92rcd13ifvqhsg","pricing_plan_id":"cebpf4jnsgd1na2vs0mg"},{"bike_id":"a4ffd37d-e603-4662-a8c5-11a265291ed9","system_id":"levelo_inurba_marseille","lat":43.28952,"lon":5.36428,"is_reserved":false,"is_disabled":false,"rental_uris":{"android":"levelo://app?vid=a4ffd37d-e603-4662-a8c5-11a265291ed9","ios":"levelo://app?vid=a4ffd37d-e603-4662-a8c5-11a265291ed9"},"vehicle_type_id":"4","last_reported":1739297505,"current_range_meters":33600,"station_id":"ce4bhc92rcd13ifvqetg","pricing_plan_id":"cebpf4jnsgd1na2vs0mg"},{"bike_id":"3ad78980-d954-4439-b88d-56e0dcfe7b89","system_id":"levelo_inurba_marseille","lat":43.2396,"lon":5.36617,"is_reserved":false,"is_disabled":false,"rental_uris":{"android":"levelo://app?vid=3ad78980-d954-4439-b88d-56e0dcfe7b89","ios":"levelo://app?vid=3ad78980-d954-4439-b88d-56e0dcfe7b89"},"vehicle_type_id":"4","last_reported":1739297505,"current_range_meters":9200,"station_id":"ce4bhi12rcd13ifvqfp0","pricing_plan_id":"cebpf4jnsgd1na2vs0mg"},{"bike_id":"f654d2d3-817a-4c55-8ebd-8025694bc89f","system_id":"levelo_inurba_marseille","lat":43.30163,"lon":5.38096,"is_reserved":false,"is_disabled":false,"rental_uris":{"android":"levelo://app?vid=f654d2d3-817a-4c55-8ebd-8025694bc89f","ios":"levelo://app?vid=f654d2d3-817a-4c55-8ebd-8025694bc89f"},"vehicle_type_id":"4","last_reported":1739297505,"current_range_meters":26000,"station_id":"ce4bgjp2rcd13ifvqbh0","pricing_plan_id":"cebpf4jnsgd1na2vs0mg"},{"bike_id":"46db1648-ba2a-4dfb-a6c4-3b2d857c956e","system_id":"levelo_inurba_marseille","lat":43.29517,"lon":5.39037,"is_reserved":false,"is_disabled":false,"rental_uris":{"android":"levelo://app?vid=46db1648-ba2a-4dfb-a6c4-3b2d857c956e","ios":"levelo://app?vid=46db1648-ba2a-4dfb-a6c4-3b2d857c956e"},"vehicle_type_id":"4","last_reported":1739297505,"current_range_meters":24000,"station_id":"ce4bh3p2rcd13ifvqdp0","pricing_plan_id":"cebpf4jnsgd1na2vs0mg"},{"bike_id":"421cb472-1c29-468f-833b-ebfe57fecb5a","system_id":"levelo_inurba_marseille","lat":43.29894,"lon":5.43667,"is_reserved":false,"is_disabled":false,"rental_uris":{"android":"levelo://app?vid=421cb472-1c29-468f-833b-ebfe57fecb5a","ios":"levelo://app?vid=421cb472-1c29-468f-833b-ebfe57fecb5a"},"vehicle_type_id":"4","last_reported":1739297505,"current_range_meters":25200,"station_id":"ce4bhpp2rcd13ifvqhfg","pricing_plan_id":"cebpf4jnsgd1na2vs0mg"},{"bike_id":"95196f63-97a2-4d11-b1b4-7f573bcf1b03","system_id":"levelo_inurba_marseille","lat":43.29893,"lon":5.43664,"is_reserved":false,"is_disabled":false,"rental_uris":{"android":"levelo://app?vid=95196f63-97a2-4d11-b1b4-7f573bcf1b03","ios":"levelo://app?vid=95196f63-97a2-4d11-b1b4-7f573bcf1b03"},"vehicle_type_id":"4","last_reported":1739297505,"current_range_meters":32400,"station_id":"ce4bhpp2rcd13ifvqhfg","pricing_plan_id":"cebpf4jnsgd1na2vs0mg"},{"bike_id":"b507b4d5-abc0-4e38-97c9-745526e1e06d","system_id":"levelo_inurba_marseille","lat":43.27318,"lon":5.39084,"is_reserved":false,"is_disabled":false,"rental_uris":{"android":"levelo://app?vid=b507b4d5-abc0-4e38-97c9-745526e1e06d","ios":"levelo://app?vid=b507b4d5-abc0-4e38-97c9-745526e1e06d"},"vehicle_type_id":"4","last_reported":1739297505,"current_range_meters":12400,"station_id":"ce4bhgp2rcd13ifvqfe0","pricing_plan_id":"cebpf4jnsgd1na2vs0mg"},{"bike_id":"2f9fa20d-f7ac-4209-b2dc-c07725e33917","system_id":"levelo_inurba_marseille","lat":43.31711,"lon":5.37766,"is_reserved":false,"is_disabled":false,"rental_uris":{"android":"levelo://app?vid=2f9fa20d-f7ac-4209-b2dc-c07725e33917","ios":"levelo://app?vid=2f9fa20d-f7ac-4209-b2dc-c07725e33917"},"vehicle_type_id":"4","last_reported":1739297505,"current_range_meters":38800,"station_id":"ce4bgth2rcd13ifvqch0","pricing_plan_id":"cebpf4jnsgd1na2vs0mg"},{"bike_id":"22d74d04-1961-4f7f-92af-3cd3da99f40b","system_id":"levelo_inurba_marseille","lat":43.2962,"lon":5.3811,"is_reserved":false,"is_disabled":false,"rental_uris":{"android":"levelo://app?vid=22d74d04-1961-4f7f-92af-3cd3da99f40b","ios":"levelo://app?vid=22d74d04-1961-4f7f-92af-3cd3da99f40b"},"vehicle_type_id":"4","last_reported":1739297505,"current_range_meters":24000,"station_id":"ce4bgl12rcd13ifvqbo0","pricing_plan_id":"cebpf4jnsgd1na2vs0mg"},{"bike_id":"a59b1799-366c-4f90-b175-fea2f17ac49c","system_id":"levelo_inurba_marseille","lat":43.30521,"lon":5.36683,"is_reserved":false,"is_disabled":false,"rental_uris":{"android":"levelo://app?vid=a59b1799-366c-4f90-b175-fea2f17ac49c","ios":"levelo://app?vid=a59b1799-366c-4f90-b175-fea2f17ac49c"},"vehicle_type_id":"4","last_reported":1739297505,"current_range_meters":35600,"station_id":"ce4bgrp2rcd13ifvqc9g","pricing_plan_id":"cebpf4jnsgd1na2vs0mg"},{"bike_id":"201b14f4-65c7-45ff-8010-fe136e6675ac","system_id":"levelo_inurba_marseille","lat":43.24164,"lon":5.39735,"is_reserved":false,"is_disabled":false,"rental_uris":{"android":"levelo://app?vid=201b14f4-65c7-45ff-8010-fe136e6675ac","ios":"levelo://app?vid=201b14f4-65c7-45ff-8010-fe136e6675ac"},"vehicle_type_id":"4","last_reported":1739297505,"current_range_meters":24800,"station_id":"ce4bhn12rcd13ifvqgpg","pricing_plan_id":"cebpf4jnsgd1na2vs0mg"},{"bike_id":"3cec7d93-7a9e-4977-a3e7-c4380fcb63b0","system_id":"levelo_inurba_marseille","lat":43.30144,"lon":5.39879,"is_reserved":false,"is_disabled":false,"rental_uris":{"android":"levelo://app?vid=3cec7d93-7a9e-4977-a3e7-c4380fcb63b0","ios":"levelo://app?vid=3cec7d93-7a9e-4977-a3e7-c4380fcb63b0"},"vehicle_type_id":"4","last_reported":1739297505,"current_range_meters":38800,"station_id":"ce4bh0h2rcd13ifvqd40","pricing_plan_id":"cebpf4jnsgd1na2vs0mg"},{"bike_id":"9207b0f3-9707-4707-b4f6-b2339a5ec8ff","system_id":"levelo_inurba_marseille","lat":43.28163,"lon":5.42638,"is_reserved":false,"is_disabled":false,"rental_uris":{"android":"levelo://app?vid=9207b0f3-9707-4707-b4f6-b2339a5ec8ff","ios":"levelo://app?vid=9207b0f3-9707-4707-b4f6-b2339a5ec8ff"},"vehicle_type_id":"4","last_reported":1739297505,"current_range_meters":35600,"station_id":"ce4bhnh2rcd13ifvqgug","pricing_plan_id":"cebpf4jnsgd1na2vs0mg"},{"bike_id":"adb5398a-0bf7-42ce-82a3-9cc07c747928","system_id":"levelo_inurba_marseille","lat":43.2651,"lon":5.39529,"is_reserved":false,"is_disabled":true,"rental_uris":{"android":"levelo://app?vid=adb5398a-0bf7-42ce-82a3-9cc07c747928","ios":"levelo://app?vid=adb5398a-0bf7-42ce-82a3-9cc07c747928"},"vehicle_type_id":"4","last_reported":1739297505,"current_range_meters":0,"station_id":"ce4bhi12rcd13ifvqfq0","pricing_plan_id":"cebpf4jnsgd1na2vs0mg"},{"bike_id":"56533ae9-01e0-4fbd-a2eb-8ec6e6269a75","system_id":"levelo_inurba_marseille","lat":43.27058,"lon":5.40256,"is_reserved":false,"is_disabled":false,"rental_uris":{"android":"levelo://app?vid=56533ae9-01e0-4fbd-a2eb-8ec6e6269a75","ios":"levelo://app?vid=56533ae9-01e0-4fbd-a2eb-8ec6e6269a75"},"vehicle_type_id":"4","last_reported":1739297505,"current_range_meters":25200,"station_id":"ce4bhk92rcd13ifvqgc0","pricing_plan_id":"cebpf4jnsgd1na2vs0mg"},{"bike_id":"7c71ad91-930b-4856-a3a6-b776fe0ad731","system_id":"levelo_inurba_marseille","lat":43.2971,"lon":5.36619,"is_reserved":false,"is_disabled":false,"rental_uris":{"android":"levelo://app?vid=7c71ad91-930b-4856-a3a6-b776fe0ad731","ios":"levelo://app?vid=7c71ad91-930b-4856-a3a6-b776fe0ad731"},"vehicle_type_id":"4","last_reported":1739297505,"current_range_meters":39200,"station_id":"ce4bgn12rcd13ifvqbt0","pricing_plan_id":"cebpf4jnsgd1na2vs0mg"},{"bike_id":"ddbfc913-16cf-4d9f-a892-35d08e1e6767","system_id":"levelo_inurba_marseille","lat":43.29587,"lon":5.36745,"is_reserved":false,"is_disabled":false,"rental_uris":{"android":"levelo://app?vid=ddbfc913-16cf-4d9f-a892-35d08e1e6767","ios":"levelo://app?vid=ddbfc913-16cf-4d9f-a892-35d08e1e6767"},"vehicle_type_id":"4","last_reported":1739297505,"current_range_meters":15200,"station_id":"ce4bgph2rcd13ifvqc2g","pricing_plan_id":"cebpf4jnsgd1na2vs0mg"},{"bike_id":"8743d68f-c109-4bec-b7f2-a8e08c57a8b4","system_id":"levelo_inurba_marseille","lat":43.29299,"lon":5.37459,"is_reserved":false,"is_disabled":false,"rental_uris":{"android":"levelo://app?vid=8743d68f-c109-4bec-b7f2-a8e08c57a8b4","ios":"levelo://app?vid=8743d68f-c109-4bec-b7f2-a8e08c57a8b4"},"vehicle_type_id":"4","last_reported":1739297505,"current_range_meters":23200,"station_id":"ce4bgi12rcd13ifvqb70","pricing_plan_id":"cebpf4jnsgd1na2vs0mg"},{"bike_id":"2f9bd2bf-a185-422b-bd75-db406051386b","system_id":"levelo_inurba_marseille","lat":43.28468,"lon":5.38413,"is_reserved":false,"is_disabled":false,"rental_uris":{"android":"levelo://app?vid=2f9bd2bf-a185-422b-bd75-db406051386b","ios":"levelo://app?vid=2f9bd2bf-a185-422b-bd75-db406051386b"},"vehicle_type_id":"4","last_reported":1739297505,"current_range_meters":39200,"station_id":"ce4bh512rcd13ifvqe3g","pricing_plan_id":"cebpf4jnsgd1na2vs0mg"},{"bike_id":"83a2a506-9d34-46d4-9534-d25047a14e5f","system_id":"levelo_inurba_marseille","lat":43.280001,"lon":5.400009,"is_reserved":false,"is_disabled":false,"rental_uris":{"android":"levelo://app?vid=83a2a506-9d34-46d4-9534-d25047a14e5f","ios":"levelo://app?vid=83a2a506-9d34-46d4-9534-d25047a14e5f"},"vehicle_type_id":"4","last_reported":1739297505,"current_range_meters":36800,"station_id":"ce4bho92rcd13ifvqh4g","pricing_plan_id":"cebpf4jnsgd1na2vs0mg"},{"bike_id":"c2250f20-2283-4e17-b7ce-382f2f740aa1","system_id":"levelo_inurba_marseille","lat":43.24812,"lon":5.37462,"is_reserved":false,"is_disabled":false,"rental_uris":{"android":"levelo://app?vid=c2250f20-2283-4e17-b7ce-382f2f740aa1","ios":"levelo://app?vid=c2250f20-2283-4e17-b7ce-382f2f740aa1"},"vehicle_type_id":"4","last_reported":1739297505,"current_range_meters":38800,"station_id":"ce4bhgh2rcd13ifvqfb0","pricing_plan_id":"cebpf4jnsgd1na2vs0mg"},{"bike_id":"2ba57bae-d489-49e7-95d5-93a9bbd24d80","system_id":"levelo_inurba_marseille","lat":43.29602,"lon":5.38106,"is_reserved":false,"is_disabled":false,"rental_uris":{"android":"levelo://app?vid=2ba57bae-d489-49e7-95d5-93a9bbd24d80","ios":"levelo://app?vid=2ba57bae-d489-49e7-95d5-93a9bbd24d80"},"vehicle_type_id":"4","last_reported":1739297505,"current_range_meters":36000,"station_id":"ce4bgl12rcd13ifvqbo0","pricing_plan_id":"cebpf4jnsgd1na2vs0mg"},{"bike_id":"a7553041-8337-41cf-859f-54b65f7556fc","system_id":"levelo_inurba_marseille","lat":43.26799,"lon":5.40261,"is_reserved":false,"is_disabled":false,"rental_uris":{"android":"levelo://app?vid=a7553041-8337-41cf-859f-54b65f7556fc","ios":"levelo://app?vid=a7553041-8337-41cf-859f-54b65f7556fc"},"vehicle_type_id":"4","last_reported":1739297505,"current_range_meters":28000,"station_id":"ce501612rcd8frsf0b60","pricing_plan_id":"cebpf4jnsgd1na2vs0mg"},{"bike_id":"b02787c6-1773-463a-b894-5d28034066fe","system_id":"levelo_inurba_marseille","lat":43.27443,"lon":5.39433,"is_reserved":false,"is_disabled":false,"rental_uris":{"android":"levelo://app?vid=b02787c6-1773-463a-b894-5d28034066fe","ios":"levelo://app?vid=b02787c6-1773-463a-b894-5d28034066fe"},"vehicle_type_id":"4","last_reported":1739297505,"current_range_meters":38800,"station_id":"ce4bhdp2rcd13ifvqf20","pricing_plan_id":"cebpf4jnsgd1na2vs0mg"},{"bike_id":"baf358ae-086d-4010-83ca-6eb774131dfe","system_id":"levelo_inurba_marseille","lat":43.29037,"lon":5.3867,"is_reserved":false,"is_disabled":false,"rental_uris":{"android":"levelo://app?vid=baf358ae-086d-4010-83ca-6eb774131dfe","ios":"levelo://app?vid=baf358ae-086d-4010-83ca-6eb774131dfe"},"vehicle_type_id":"4","last_reported":1739297505,"current_range_meters":8000,"station_id":"ce4bh4p2rcd13ifvqe0g","pricing_plan_id":"cebpf4jnsgd1na2vs0mg"},{"bike_id":"8aaacf93-7a76-463b-82dc-340e7efb76fd","system_id":"levelo_inurba_marseille","lat":43.29804,"lon":5.40405,"is_reserved":false,"is_disabled":false,"rental_uris":{"android":"levelo://app?vid=8aaacf93-7a76-463b-82dc-340e7efb76fd","ios":"levelo://app?vid=8aaacf93-7a76-463b-82dc-340e7efb76fd"},"vehicle_type_id":"4","last_reported":1739297505,"current_range_meters":26000,"station_id":"ce4bh112rcd13ifvqd90","pricing_plan_id":"cebpf4jnsgd1na2vs0mg"},{"bike_id":"f85fd452-5bde-4296-ab83-dac7111c9b77","system_id":"levelo_inurba_marseille","lat":43.32538,"lon":5.41442,"is_reserved":false,"is_disabled":false,"rental_uris":{"android":"levelo://app?vid=f85fd452-5bde-4296-ab83-dac7111c9b77","ios":"levelo://app?vid=f85fd452-5bde-4296-ab83-dac7111c9b77"},"vehicle_type_id":"4","last_reported":1739297505,"current_range_meters":38000,"station_id":"ce4bhq12rcd13ifvqhhg","pricing_plan_id":"cebpf4jnsgd1na2vs0mg"},{"bike_id":"f839e883-f6ad-4ce5-84ca-3be20d7a32ba","system_id":"levelo_inurba_marseille","lat":43.29574,"lon":5.3673,"is_reserved":false,"is_disabled":false,"rental_uris":{"android":"levelo://app?vid=f839e883-f6ad-4ce5-84ca-3be20d7a32ba","ios":"levelo://app?vid=f839e883-f6ad-4ce5-84ca-3be20d7a32ba"},"vehicle_type_id":"4","last_reported":1739297505,"current_range_meters":16400,"station_id":"ce4bgph2rcd13ifvqc2g","pricing_plan_id":"cebpf4jnsgd1na2vs0mg"},{"bike_id":"7776790c-20ea-432b-8a14-53ac6ffe7c91","system_id":"levelo_inurba_marseille","lat":43.27971,"lon":5.3875,"is_reserved":false,"is_disabled":false,"rental_uris":{"android":"levelo://app?vid=7776790c-20ea-432b-8a14-53ac6ffe7c91","ios":"levelo://app?vid=7776790c-20ea-432b-8a14-53ac6ffe7c91"},"vehicle_type_id":"4","last_reported":1739297505,"current_range_meters":38800,"station_id":"ce4bhg12rcd13ifvqf80","pricing_plan_id":"cebpf4jnsgd1na2vs0mg"},{"bike_id":"40c8a688-58f2-44ef-8f91-ac265ecb16b2","system_id":"levelo_inurba_marseille","lat":43.2558,"lon":5.38237,"is_reserved":false,"is_disabled":false,"rental_uris":{"android":"levelo://app?vid=40c8a688-58f2-44ef-8f91-ac265ecb16b2","ios":"levelo://app?vid=40c8a688-58f2-44ef-8f91-ac265ecb16b2"},"vehicle_type_id":"4","last_reported":1739297505,"current_range_meters":16000,"station_id":"ce4bhih2rcd13ifvqfs0","pricing_plan_id":"cebpf4jnsgd1na2vs0mg"},{"bike_id":"25e3e4f2-83d1-4615-9c23-92799a0fca9f","system_id":"levelo_inurba_marseille","lat":43.29705,"lon":5.37668,"is_reserved":false,"is_disabled":false,"rental_uris":{"android":"levelo://app?vid=25e3e4f2-83d1-4615-9c23-92799a0fca9f","ios":"levelo://app?vid=25e3e4f2-83d1-4615-9c23-92799a0fca9f"},"vehicle_type_id":"4","last_reported":1739297505,"current_range_meters":23200,"station_id":"ce4bgkh2rcd13ifvqbl0","pricing_plan_id":"cebpf4jnsgd1na2vs0mg"},{"bike_id":"737daa80-7287-4860-bc1a-f260f9d335ee","system_id":"levelo_inurba_marseille","lat":43.30218,"lon":5.39474,"is_reserved":false,"is_disabled":false,"rental_uris":{"android":"levelo://app?vid=737daa80-7287-4860-bc1a-f260f9d335ee","ios":"levelo://app?vid=737daa80-7287-4860-bc1a-f260f9d335ee"},"vehicle_type_id":"4","last_reported":1739297505,"current_range_meters":38000,"station_id":"ce4bh0p2rcd13ifvqd70","pricing_plan_id":"cebpf4jnsgd1na2vs0mg"},{"bike_id":"c66b0c10-3fd0-4fdf-90ff-239fa926541d","system_id":"levelo_inurba_marseille","lat":43.26942,"lon":5.40232,"is_reserved":false,"is_disabled":false,"rental_uris":{"android":"levelo://app?vid=c66b0c10-3fd0-4fdf-90ff-239fa926541d","ios":"levelo://app?vid=c66b0c10-3fd0-4fdf-90ff-239fa926541d"},"vehicle_type_id":"4","last_reported":1739297505,"current_range_meters":21600,"station_id":"cjm6bp8fraef2m0cb0m0","pricing_plan_id":"cebpf4jnsgd1na2vs0mg"},{"bike_id":"64387a61-7414-453e-8131-28fa15536541","system_id":"levelo_inurba_marseille","lat":43.25826,"lon":5.39891,"is_reserved":false,"is_disabled":false,"rental_uris":{"android":"levelo://app?vid=64387a61-7414-453e-8131-28fa15536541","ios":"levelo://app?vid=64387a61-7414-453e-8131-28fa15536541"},"vehicle_type_id":"4","last_reported":1739297505,"current_range_meters":9200,"station_id":"ce4bhl92rcd13ifvqghg","pricing_plan_id":"cebpf4jnsgd1na2vs0mg"},{"bike_id":"ac3db915-85ff-460a-b948-c32ecd7db728","system_id":"levelo_inurba_marseille","lat":43.30157,"lon":5.38071,"is_reserved":false,"is_disabled":false,"rental_uris":{"android":"levelo://app?vid=ac3db915-85ff-460a-b948-c32ecd7db728","ios":"levelo://app?vid=ac3db915-85ff-460a-b948-c32ecd7db728"},"vehicle_type_id":"4","last_reported":1739297505,"current_range_meters":37600,"station_id":"ce4bgjp2rcd13ifvqbh0","pricing_plan_id":"cebpf4jnsgd1na2vs0mg"},{"bike_id":"1d2000e3-6e82-4c8d-9a0a-5d8181e36eb3","system_id":"levelo_inurba_marseille","lat":43.25007,"lon":5.38902,"is_reserved":false,"is_disabled":false,"rental_uris":{"android":"levelo://app?vid=1d2000e3-6e82-4c8d-9a0a-5d8181e36eb3","ios":"levelo://app?vid=1d2000e3-6e82-4c8d-9a0a-5d8181e36eb3"},"vehicle_type_id":"4","last_reported":1739297505,"current_range_meters":38800,"station_id":"ce4bhgp2rcd13ifvqfd0","pricing_plan_id":"cebpf4jnsgd1na2vs0mg"},{"bike_id":"ad1132e5-698d-42b0-a3e6-6ac75510d87b","system_id":"levelo_inurba_marseille","lat":43.28841,"lon":5.35878,"is_reserved":false,"is_disabled":false,"rental_uris":{"android":"levelo://app?vid=ad1132e5-698d-42b0-a3e6-6ac75510d87b","ios":"levelo://app?vid=ad1132e5-698d-42b0-a3e6-6ac75510d87b"},"vehicle_type_id":"4","last_reported":1739297505,"current_range_meters":29600,"station_id":"ce4bhb12rcd13ifvqem0","pricing_plan_id":"cebpf4jnsgd1na2vs0mg"},{"bike_id":"a69e567e-3774-43da-9871-c9cd59263ec8","system_id":"levelo_inurba_marseille","lat":43.288391,"lon":5.392483,"is_reserved":false,"is_disabled":true,"rental_uris":{"android":"levelo://app?vid=a69e567e-3774-43da-9871-c9cd59263ec8","ios":"levelo://app?vid=a69e567e-3774-43da-9871-c9cd59263ec8"},"vehicle_type_id":"4","last_reported":1739297505,"current_range_meters":33600,"station_id":"","pricing_plan_id":"cebpf4jnsgd1na2vs0mg"},{"bike_id":"e673b253-bd7c-45ce-a06f-ff88a62a7e4e","system_id":"levelo_inurba_marseille","lat":43.30159,"lon":5.38088,"is_reserved":false,"is_disabled":false,"rental_uris":{"android":"levelo://app?vid=e673b253-bd7c-45ce-a06f-ff88a62a7e4e","ios":"levelo://app?vid=e673b253-bd7c-45ce-a06f-ff88a62a7e4e"},"vehicle_type_id":"4","last_reported":1739297505,"current_range_meters":38400,"station_id":"ce4bgjp2rcd13ifvqbh0","pricing_plan_id":"cebpf4jnsgd1na2vs0mg"},{"bike_id":"114230f1-fda9-4a9e-962b-4f7a3ae198a2","system_id":"levelo_inurba_marseille","lat":43.27426,"lon":5.394,"is_reserved":false,"is_disabled":false,"rental_uris":{"android":"levelo://app?vid=114230f1-fda9-4a9e-962b-4f7a3ae198a2","ios":"levelo://app?vid=114230f1-fda9-4a9e-962b-4f7a3ae198a2"},"vehicle_type_id":"4","last_reported":1739297505,"current_range_meters":38800,"station_id":"ce4bhdp2rcd13ifvqf20","pricing_plan_id":"cebpf4jnsgd1na2vs0mg"},{"bike_id":"d1ddb5e3-f782-4586-9816-4c99acfb03c1","system_id":"levelo_inurba_marseille","lat":43.30809,"lon":5.38159,"is_reserved":false,"is_disabled":false,"rental_uris":{"android":"levelo://app?vid=d1ddb5e3-f782-4586-9816-4c99acfb03c1","ios":"levelo://app?vid=d1ddb5e3-f782-4586-9816-4c99acfb03c1"},"vehicle_type_id":"4","last_reported":1739297505,"current_range_meters":28000,"station_id":"ce4bgt12rcd13ifvqce0","pricing_plan_id":"cebpf4jnsgd1na2vs0mg"},{"bike_id":"f370e622-b28e-4afc-8892-3e78caaa7e19","system_id":"levelo_inurba_marseille","lat":43.29046,"lon":5.39949,"is_reserved":false,"is_disabled":true,"rental_uris":{"android":"levelo://app?vid=f370e622-b28e-4afc-8892-3e78caaa7e19","ios":"levelo://app?vid=f370e622-b28e-4afc-8892-3e78caaa7e19"},"vehicle_type_id":"4","last_reported":1739297505,"current_range_meters":38800,"station_id":"ce4bh392rcd13ifvqdm0","pricing_plan_id":"cebpf4jnsgd1na2vs0mg"},{"bike_id":"8f958795-1d0e-4a72-96cf-46fac3cf00bf","system_id":"levelo_inurba_marseille","lat":43.25514,"lon":5.3943,"is_reserved":false,"is_disabled":false,"rental_uris":{"android":"levelo://app?vid=8f958795-1d0e-4a72-96cf-46fac3cf00bf","ios":"levelo://app?vid=8f958795-1d0e-4a72-96cf-46fac3cf00bf"},"vehicle_type_id":"4","last_reported":1739297505,"current_range_meters":27200,"station_id":"","pricing_plan_id":"cebpf4jnsgd1na2vs0mg"},{"bike_id":"e610e16a-fcef-40f5-91c1-9e10b63c48e9","system_id":"levelo_inurba_marseille","lat":43.30302,"lon":5.39211,"is_reserved":false,"is_disabled":false,"rental_uris":{"android":"levelo://app?vid=e610e16a-fcef-40f5-91c1-9e10b63c48e9","ios":"levelo://app?vid=e610e16a-fcef-40f5-91c1-9e10b63c48e9"},"vehicle_type_id":"4","last_reported":1739297505,"current_range_meters":19600,"station_id":"ce4bgkh2rcd13ifvqbk0","pricing_plan_id":"cebpf4jnsgd1na2vs0mg"},{"bike_id":"7d53cd04-03c8-428a-b4fb-0e771333a4f5","system_id":"levelo_inurba_marseille","lat":43.24807,"lon":5.37456,"is_reserved":false,"is_disabled":false,"rental_uris":{"android":"levelo://app?vid=7d53cd04-03c8-428a-b4fb-0e771333a4f5","ios":"levelo://app?vid=7d53cd04-03c8-428a-b4fb-0e771333a4f5"},"vehicle_type_id":"4","last_reported":1739297505,"current_range_meters":38800,"station_id":"ce4bhgh2rcd13ifvqfb0","pricing_plan_id":"cebpf4jnsgd1na2vs0mg"},{"bike_id":"04d4b8ab-1d4d-44ab-9d49-e10f569c0553","system_id":"levelo_inurba_marseille","lat":43.298439,"lon":5.362625,"is_reserved":false,"is_disabled":false,"rental_uris":{"android":"levelo://app?vid=04d4b8ab-1d4d-44ab-9d49-e10f569c0553","ios":"levelo://app?vid=04d4b8ab-1d4d-44ab-9d49-e10f569c0553"},"vehicle_type_id":"4","last_reported":1739297505,"current_range_meters":38000,"station_id":"ce4bgpp2rcd13ifvqc3g","pricing_plan_id":"cebpf4jnsgd1na2vs0mg"},{"bike_id":"1aa20f28-8d10-4408-8fc5-fd6e535e6f55","system_id":"levelo_inurba_marseille","lat":43.30793,"lon":5.43528,"is_reserved":false,"is_disabled":false,"rental_uris":{"android":"levelo://app?vid=1aa20f28-8d10-4408-8fc5-fd6e535e6f55","ios":"levelo://app?vid=1aa20f28-8d10-4408-8fc5-fd6e535e6f55"},"vehicle_type_id":"4","last_reported":1739297505,"current_range_meters":38800,"station_id":"ce4bhph2rcd13ifvqheg","pricing_plan_id":"cebpf4jnsgd1na2vs0mg"},{"bike_id":"31ef7217-bcfe-43ce-b994-2ac5b1fe87c2","system_id":"levelo_inurba_marseille","lat":43.25719,"lon":5.41115,"is_reserved":false,"is_disabled":true,"rental_uris":{"android":"levelo://app?vid=31ef7217-bcfe-43ce-b994-2ac5b1fe87c2","ios":"levelo://app?vid=31ef7217-bcfe-43ce-b994-2ac5b1fe87c2"},"vehicle_type_id":"4","last_reported":1739297505,"current_range_meters":38800,"station_id":"ce4bhkp2rcd13ifvqgd0","pricing_plan_id":"cebpf4jnsgd1na2vs0mg"},{"bike_id":"90037e4a-a934-46fa-8514-6ab0532a1c0b","system_id":"levelo_inurba_marseille","lat":43.27916,"lon":5.41192,"is_reserved":false,"is_disabled":false,"rental_uris":{"android":"levelo://app?vid=90037e4a-a934-46fa-8514-6ab0532a1c0b","ios":"levelo://app?vid=90037e4a-a934-46fa-8514-6ab0532a1c0b"},"vehicle_type_id":"4","last_reported":1739297505,"current_range_meters":38800,"station_id":"","pricing_plan_id":"cebpf4jnsgd1na2vs0mg"},{"bike_id":"b241ded4-5ef0-43cd-9909-3624018db950","system_id":"levelo_inurba_marseille","lat":43.3203,"lon":5.41553,"is_reserved":false,"is_disabled":false,"rental_uris":{"android":"levelo://app?vid=b241ded4-5ef0-43cd-9909-3624018db950","ios":"levelo://app?vid=b241ded4-5ef0-43cd-9909-3624018db950"},"vehicle_type_id":"4","last_reported":1739297505,"current_range_meters":37600,"station_id":"ce4bhq92rcd13ifvqhkg","pricing_plan_id":"cebpf4jnsgd1na2vs0mg"},{"bike_id":"c4813b27-4250-43ea-8be5-ccd7321d2af3","system_id":"levelo_inurba_marseille","lat":43.2822,"lon":5.36982,"is_reserved":false,"is_disabled":false,"rental_uris":{"android":"levelo://app?vid=c4813b27-4250-43ea-8be5-ccd7321d2af3","ios":"levelo://app?vid=c4813b27-4250-43ea-8be5-ccd7321d2af3"},"vehicle_type_id":"4","last_reported":1739297505,"current_range_meters":20800,"station_id":"","pricing_plan_id":"cebpf4jnsgd1na2vs0mg"},{"bike_id":"336a8004-bc8a-4425-9029-c2c7e82e23ba","system_id":"levelo_inurba_marseille","lat":43.28704,"lon":5.37396,"is_reserved":false,"is_disabled":false,"rental_uris":{"android":"levelo://app?vid=336a8004-bc8a-4425-9029-c2c7e82e23ba","ios":"levelo://app?vid=336a8004-bc8a-4425-9029-c2c7e82e23ba"},"vehicle_type_id":"4","last_reported":1739297505,"current_range_meters":29600,"station_id":"ce4bh3p2rcd13ifvqdq0","pricing_plan_id":"cebpf4jnsgd1na2vs0mg"},{"bike_id":"42f49824-5dbd-4245-b0ef-e9b83256b3c9","system_id":"levelo_inurba_marseille","lat":43.27953,"lon":5.41046,"is_reserved":false,"is_disabled":true,"rental_uris":{"android":"levelo://app?vid=42f49824-5dbd-4245-b0ef-e9b83256b3c9","ios":"levelo://app?vid=42f49824-5dbd-4245-b0ef-e9b83256b3c9"},"vehicle_type_id":"4","last_reported":1739297505,"current_range_meters":22800,"station_id":"ce4bhnp2rcd13ifvqh0g","pricing_plan_id":"cebpf4jnsgd1na2vs0mg"},{"bike_id":"cd59f4ff-0812-4c8f-ae01-036ffad71a2a","system_id":"levelo_inurba_marseille","lat":43.28347,"lon":5.38094,"is_reserved":false,"is_disabled":false,"rental_uris":{"android":"levelo://app?vid=cd59f4ff-0812-4c8f-ae01-036ffad71a2a","ios":"levelo://app?vid=cd59f4ff-0812-4c8f-ae01-036ffad71a2a"},"vehicle_type_id":"4","last_reported":1739297505,"current_range_meters":23200,"station_id":"ce4bh412rcd13ifvqdr0","pricing_plan_id":"cebpf4jnsgd1na2vs0mg"},{"bike_id":"768e3af5-0f89-468a-a6b1-44ea9f56d72c","system_id":"levelo_inurba_marseille","lat":43.2925,"lon":5.40912,"is_reserved":false,"is_disabled":false,"rental_uris":{"android":"levelo://app?vid=768e3af5-0f89-468a-a6b1-44ea9f56d72c","ios":"levelo://app?vid=768e3af5-0f89-468a-a6b1-44ea9f56d72c"},"vehicle_type_id":"4","last_reported":1739297505,"current_range_meters":10800,"station_id":"ce4bh192rcd13ifvqdc0","pricing_plan_id":"cebpf4jnsgd1na2vs0mg"},{"bike_id":"36ff92ad-ebc1-4fd8-8dd7-e924b8bea389","system_id":"levelo_inurba_marseille","lat":43.30475,"lon":5.37911,"is_reserved":false,"is_disabled":true,"rental_uris":{"android":"levelo://app?vid=36ff92ad-ebc1-4fd8-8dd7-e924b8bea389","ios":"levelo://app?vid=36ff92ad-ebc1-4fd8-8dd7-e924b8bea389"},"vehicle_type_id":"4","last_reported":1739297505,"current_range_meters":22000,"station_id":"ce4bho92rcd13ifvqh3g","pricing_plan_id":"cebpf4jnsgd1na2vs0mg"},{"bike_id":"89989227-1c97-4085-ad79-5fb53c2c0083","system_id":"levelo_inurba_marseille","lat":43.291762,"lon":5.371606,"is_reserved":false,"is_disabled":false,"rental_uris":{"android":"levelo://app?vid=89989227-1c97-4085-ad79-5fb53c2c0083","ios":"levelo://app?vid=89989227-1c97-4085-ad79-5fb53c2c0083"},"vehicle_type_id":"4","last_reported":1739297505,"current_range_meters":33600,"station_id":"ce4bha92rcd13ifvqeh0","pricing_plan_id":"cebpf4jnsgd1na2vs0mg"},{"bike_id":"c6e9e330-1aab-422c-8245-ce8d62525fd3","system_id":"levelo_inurba_marseille","lat":43.28928,"lon":5.3839,"is_reserved":false,"is_disabled":false,"rental_uris":{"android":"levelo://app?vid=c6e9e330-1aab-422c-8245-ce8d62525fd3","ios":"levelo://app?vid=c6e9e330-1aab-422c-8245-ce8d62525fd3"},"vehicle_type_id":"4","last_reported":1739297505,"current_range_meters":38000,"station_id":"ce4bh612rcd13ifvqe6g","pricing_plan_id":"cebpf4jnsgd1na2vs0mg"},{"bike_id":"7aecc94e-b93d-4ef2-8aeb-7239752cbb5a","system_id":"levelo_inurba_marseille","lat":43.30799,"lon":5.37665,"is_reserved":false,"is_disabled":false,"rental_uris":{"android":"levelo://app?vid=7aecc94e-b93d-4ef2-8aeb-7239752cbb5a","ios":"levelo://app?vid=7aecc94e-b93d-4ef2-8aeb-7239752cbb5a"},"vehicle_type_id":"4","last_reported":1739297505,"current_range_meters":19200,"station_id":"ce4bgv92rcd13ifvqcq0","pricing_plan_id":"cebpf4jnsgd1na2vs0mg"},{"bike_id":"260e9838-2399-4eb1-b0ca-e79e7c0785e4","system_id":"levelo_inurba_marseille","lat":43.29847,"lon":5.36279,"is_reserved":false,"is_disabled":false,"rental_uris":{"android":"levelo://app?vid=260e9838-2399-4eb1-b0ca-e79e7c0785e4","ios":"levelo://app?vid=260e9838-2399-4eb1-b0ca-e79e7c0785e4"},"vehicle_type_id":"4","last_reported":1739297505,"current_range_meters":13600,"station_id":"ce4bgpp2rcd13ifvqc3g","pricing_plan_id":"cebpf4jnsgd1na2vs0mg"},{"bike_id":"ec51a9f1-f61f-485d-bb7d-c6488e79e667","system_id":"levelo_inurba_marseille","lat":43.28929,"lon":5.36402,"is_reserved":false,"is_disabled":false,"rental_uris":{"android":"levelo://app?vid=ec51a9f1-f61f-485d-bb7d-c6488e79e667","ios":"levelo://app?vid=ec51a9f1-f61f-485d-bb7d-c6488e79e667"},"vehicle_type_id":"4","last_reported":1739297505,"current_range_meters":15200,"station_id":"ce4bhc92rcd13ifvqetg","pricing_plan_id":"cebpf4jnsgd1na2vs0mg"},{"bike_id":"841e0f04-b00a-44de-83b7-b9b92c40d93b","system_id":"levelo_inurba_marseille","lat":43.28157,"lon":5.42654,"is_reserved":false,"is_disabled":false,"rental_uris":{"android":"levelo://app?vid=841e0f04-b00a-44de-83b7-b9b92c40d93b","ios":"levelo://app?vid=841e0f04-b00a-44de-83b7-b9b92c40d93b"},"vehicle_type_id":"4","last_reported":1739297505,"current_range_meters":12400,"station_id":"ce4bhnh2rcd13ifvqgug","pricing_plan_id":"cebpf4jnsgd1na2vs0mg"},{"bike_id":"0a602d4e-01cc-402d-a26a-b87e6733efdf","system_id":"levelo_inurba_marseille","lat":43.30145,"lon":5.3742,"is_reserved":false,"is_disabled":false,"rental_uris":{"android":"levelo://app?vid=0a602d4e-01cc-402d-a26a-b87e6733efdf","ios":"levelo://app?vid=0a602d4e-01cc-402d-a26a-b87e6733efdf"},"vehicle_type_id":"4","last_reported":1739297505,"current_range_meters":36800,"station_id":"ce4bgs92rcd13ifvqcc0","pricing_plan_id":"cebpf4jnsgd1na2vs0mg"},{"bike_id":"30c0885a-ee3f-424b-8753-d2f0c1a6c3c4","system_id":"levelo_inurba_marseille","lat":43.317097,"lon":5.377558,"is_reserved":false,"is_disabled":false,"rental_uris":{"android":"levelo://app?vid=30c0885a-ee3f-424b-8753-d2f0c1a6c3c4","ios":"levelo://app?vid=30c0885a-ee3f-424b-8753-d2f0c1a6c3c4"},"vehicle_type_id":"4","last_reported":1739297505,"current_range_meters":38800,"station_id":"ce4bgth2rcd13ifvqch0","pricing_plan_id":"cebpf4jnsgd1na2vs0mg"},{"bike_id":"d672dfd1-eb49-41bd-98e9-cf0079bce74f","system_id":"levelo_inurba_marseille","lat":43.31037,"lon":5.36874,"is_reserved":false,"is_disabled":false,"rental_uris":{"android":"levelo://app?vid=d672dfd1-eb49-41bd-98e9-cf0079bce74f","ios":"levelo://app?vid=d672dfd1-eb49-41bd-98e9-cf0079bce74f"},"vehicle_type_id":"4","last_reported":1739297505,"current_range_meters":38800,"station_id":"ce4bgl92rcd13ifvqbq0","pricing_plan_id":"cebpf4jnsgd1na2vs0mg"},{"bike_id":"417f3606-5ee9-420c-b410-4264e6d2c83b","system_id":"levelo_inurba_marseille","lat":43.29203,"lon":5.39334,"is_reserved":false,"is_disabled":false,"rental_uris":{"android":"levelo://app?vid=417f3606-5ee9-420c-b410-4264e6d2c83b","ios":"levelo://app?vid=417f3606-5ee9-420c-b410-4264e6d2c83b"},"vehicle_type_id":"4","last_reported":1739297505,"current_range_meters":3200,"station_id":"ce4bh192rcd13ifvqdd0","pricing_plan_id":"cebpf4jnsgd1na2vs0mg"},{"bike_id":"f86e3ee6-2729-42ae-a7ac-cb66adb4a95e","system_id":"levelo_inurba_marseille","lat":43.24684,"lon":5.38136,"is_reserved":false,"is_disabled":false,"rental_uris":{"android":"levelo://app?vid=f86e3ee6-2729-42ae-a7ac-cb66adb4a95e","ios":"levelo://app?vid=f86e3ee6-2729-42ae-a7ac-cb66adb4a95e"},"vehicle_type_id":"4","last_reported":1739297505,"current_range_meters":11200,"station_id":"ce4bhih2rcd13ifvqfr0","pricing_plan_id":"cebpf4jnsgd1na2vs0mg"},{"bike_id":"1ec14052-2d33-4aa1-9ab8-58cc71db74d1","system_id":"levelo_inurba_marseille","lat":43.24169,"lon":5.36399,"is_reserved":false,"is_disabled":false,"rental_uris":{"android":"levelo://app?vid=1ec14052-2d33-4aa1-9ab8-58cc71db74d1","ios":"levelo://app?vid=1ec14052-2d33-4aa1-9ab8-58cc71db74d1"},"vehicle_type_id":"4","last_reported":1739297505,"current_range_meters":12800,"station_id":"cpo36qri1sfpv3e86is0","pricing_plan_id":"cebpf4jnsgd1na2vs0mg"},{"bike_id":"b3b45130-4456-4f49-a726-9923bcb61db7","system_id":"levelo_inurba_marseille","lat":43.26956,"lon":5.38643,"is_reserved":false,"is_disabled":false,"rental_uris":{"android":"levelo://app?vid=b3b45130-4456-4f49-a726-9923bcb61db7","ios":"levelo://app?vid=b3b45130-4456-4f49-a726-9923bcb61db7"},"vehicle_type_id":"4","last_reported":1739297505,"current_range_meters":38800,"station_id":"ce4bhh92rcd13ifvqfh0","pricing_plan_id":"cebpf4jnsgd1na2vs0mg"},{"bike_id":"dec1e0bd-a523-43f1-89a4-3be714f43620","system_id":"levelo_inurba_marseille","lat":43.311693,"lon":5.387198,"is_reserved":false,"is_disabled":false,"rental_uris":{"android":"levelo://app?vid=dec1e0bd-a523-43f1-89a4-3be714f43620","ios":"levelo://app?vid=dec1e0bd-a523-43f1-89a4-3be714f43620"},"vehicle_type_id":"4","last_reported":1739297505,"current_range_meters":18800,"station_id":"ce4bgv12rcd13ifvqcp0","pricing_plan_id":"cebpf4jnsgd1na2vs0mg"},{"bike_id":"7c161e76-669e-4bf1-b7b4-e460334b4c76","system_id":"levelo_inurba_marseille","lat":43.32008,"lon":5.41466,"is_reserved":false,"is_disabled":false,"rental_uris":{"android":"levelo://app?vid=7c161e76-669e-4bf1-b7b4-e460334b4c76","ios":"levelo://app?vid=7c161e76-669e-4bf1-b7b4-e460334b4c76"},"vehicle_type_id":"4","last_reported":1739297505,"current_range_meters":19600,"station_id":"ce4bhq92rcd13ifvqhkg","pricing_plan_id":"cebpf4jnsgd1na2vs0mg"},{"bike_id":"e859d2f4-21a5-41bf-aa12-2604d8d6afc4","system_id":"levelo_inurba_marseille","lat":43.2998,"lon":5.38482,"is_reserved":false,"is_disabled":false,"rental_uris":{"android":"levelo://app?vid=e859d2f4-21a5-41bf-aa12-2604d8d6afc4","ios":"levelo://app?vid=e859d2f4-21a5-41bf-aa12-2604d8d6afc4"},"vehicle_type_id":"4","last_reported":1739297505,"current_range_meters":28800,"station_id":"ce4bgj92rcd13ifvqbd0","pricing_plan_id":"cebpf4jnsgd1na2vs0mg"},{"bike_id":"79df8d93-a019-4f4d-ad9b-607d770a7910","system_id":"levelo_inurba_marseille","lat":43.29391,"lon":5.38893,"is_reserved":false,"is_disabled":false,"rental_uris":{"android":"levelo://app?vid=79df8d93-a019-4f4d-ad9b-607d770a7910","ios":"levelo://app?vid=79df8d93-a019-4f4d-ad9b-607d770a7910"},"vehicle_type_id":"4","last_reported":1739297505,"current_range_meters":25600,"station_id":"","pricing_plan_id":"cebpf4jnsgd1na2vs0mg"},{"bike_id":"fbb98623-bd6f-4427-9463-8f7fc3b3bd20","system_id":"levelo_inurba_marseille","lat":43.28029,"lon":5.36938,"is_reserved":false,"is_disabled":false,"rental_uris":{"android":"levelo://app?vid=fbb98623-bd6f-4427-9463-8f7fc3b3bd20","ios":"levelo://app?vid=fbb98623-bd6f-4427-9463-8f7fc3b3bd20"},"vehicle_type_id":"4","last_reported":1739297505,"current_range_meters":27600,"station_id":"ce4bha12rcd13ifvqef0","pricing_plan_id":"cebpf4jnsgd1na2vs0mg"},{"bike_id":"10a8a33b-62d6-4137-a5b2-ed208638ca88","system_id":"levelo_inurba_marseille","lat":43.29704,"lon":5.36606,"is_reserved":false,"is_disabled":false,"rental_uris":{"android":"levelo://app?vid=10a8a33b-62d6-4137-a5b2-ed208638ca88","ios":"levelo://app?vid=10a8a33b-62d6-4137-a5b2-ed208638ca88"},"vehicle_type_id":"4","last_reported":1739297505,"current_range_meters":39200,"station_id":"ce4bgn12rcd13ifvqbt0","pricing_plan_id":"cebpf4jnsgd1na2vs0mg"},{"bike_id":"29c3ac46-78a2-45ae-8d8f-cdd8abdf7857","system_id":"levelo_inurba_marseille","lat":43.28448,"lon":5.35872,"is_reserved":false,"is_disabled":false,"rental_uris":{"android":"levelo://app?vid=29c3ac46-78a2-45ae-8d8f-cdd8abdf7857","ios":"levelo://app?vid=29c3ac46-78a2-45ae-8d8f-cdd8abdf7857"},"vehicle_type_id":"4","last_reported":1739297505,"current_range_meters":38800,"station_id":"ce4bhah2rcd13ifvqei0","pricing_plan_id":"cebpf4jnsgd1na2vs0mg"},{"bike_id":"3072c860-6a06-4429-8629-72daeba313c2","system_id":"levelo_inurba_marseille","lat":43.29872,"lon":5.39726,"is_reserved":false,"is_disabled":false,"rental_uris":{"android":"levelo://app?vid=3072c860-6a06-4429-8629-72daeba313c2","ios":"levelo://app?vid=3072c860-6a06-4429-8629-72daeba313c2"},"vehicle_type_id":"4","last_reported":1739297505,"current_range_meters":38000,"station_id":"ce4bh0h2rcd13ifvqd50","pricing_plan_id":"cebpf4jnsgd1na2vs0mg"},{"bike_id":"ea93fbec-e91a-412d-bc1c-7eb78a8d03fa","system_id":"levelo_inurba_marseille","lat":43.30131,"lon":5.37418,"is_reserved":false,"is_disabled":false,"rental_uris":{"android":"levelo://app?vid=ea93fbec-e91a-412d-bc1c-7eb78a8d03fa","ios":"levelo://app?vid=ea93fbec-e91a-412d-bc1c-7eb78a8d03fa"},"vehicle_type_id":"4","last_reported":1739297505,"current_range_meters":38800,"station_id":"ce4bgs92rcd13ifvqcc0","pricing_plan_id":"cebpf4jnsgd1na2vs0mg"},{"bike_id":"e74edd37-0ec7-4f56-b77f-e7249fd01314","system_id":"levelo_inurba_marseille","lat":43.30531,"lon":5.36503,"is_reserved":false,"is_disabled":false,"rental_uris":{"android":"levelo://app?vid=e74edd37-0ec7-4f56-b77f-e7249fd01314","ios":"levelo://app?vid=e74edd37-0ec7-4f56-b77f-e7249fd01314"},"vehicle_type_id":"4","last_reported":1739297505,"current_range_meters":11600,"station_id":"","pricing_plan_id":"cebpf4jnsgd1na2vs0mg"},{"bike_id":"7e4e372b-f283-4f3f-bcd3-0fa3a5f705cc","system_id":"levelo_inurba_marseille","lat":43.27913,"lon":5.39576,"is_reserved":false,"is_disabled":false,"rental_uris":{"android":"levelo://app?vid=7e4e372b-f283-4f3f-bcd3-0fa3a5f705cc","ios":"levelo://app?vid=7e4e372b-f283-4f3f-bcd3-0fa3a5f705cc"},"vehicle_type_id":"4","last_reported":1739297505,"current_range_meters":34000,"station_id":"ce4bhf92rcd13ifvqf40","pricing_plan_id":"cebpf4jnsgd1na2vs0mg"},{"bike_id":"ca63d75f-d551-49cb-bec7-e060cadddd73","system_id":"levelo_inurba_marseille","lat":43.28096,"lon":5.44185,"is_reserved":false,"is_disabled":false,"rental_uris":{"android":"levelo://app?vid=ca63d75f-d551-49cb-bec7-e060cadddd73","ios":"levelo://app?vid=ca63d75f-d551-49cb-bec7-e060cadddd73"},"vehicle_type_id":"4","last_reported":1739297505,"current_range_meters":13600,"station_id":"","pricing_plan_id":"cebpf4jnsgd1na2vs0mg"},{"bike_id":"f7ae9a97-641a-4598-bcd7-5d3ae922b145","system_id":"levelo_inurba_marseille","lat":43.30423,"lon":5.39747,"is_reserved":false,"is_disabled":false,"rental_uris":{"android":"levelo://app?vid=f7ae9a97-641a-4598-bcd7-5d3ae922b145","ios":"levelo://app?vid=f7ae9a97-641a-4598-bcd7-5d3ae922b145"},"vehicle_type_id":"4","last_reported":1739297505,"current_range_meters":38800,"station_id":"ce4bh092rcd13ifvqd20","pricing_plan_id":"cebpf4jnsgd1na2vs0mg"},{"bike_id":"2b101a62-b165-446d-b8c3-7a5ea6e1a86d","system_id":"levelo_inurba_marseille","lat":43.29198,"lon":5.39319,"is_reserved":false,"is_disabled":false,"rental_uris":{"android":"levelo://app?vid=2b101a62-b165-446d-b8c3-7a5ea6e1a86d","ios":"levelo://app?vid=2b101a62-b165-446d-b8c3-7a5ea6e1a86d"},"vehicle_type_id":"4","last_reported":1739297505,"current_range_meters":32000,"station_id":"ce4bh192rcd13ifvqdd0","pricing_plan_id":"cebpf4jnsgd1na2vs0mg"},{"bike_id":"dd7e4e2f-f2db-4c41-9b95-8e20b6da1267","system_id":"levelo_inurba_marseille","lat":43.32472,"lon":5.36568,"is_reserved":false,"is_disabled":false,"rental_uris":{"android":"levelo://app?vid=dd7e4e2f-f2db-4c41-9b95-8e20b6da1267","ios":"levelo://app?vid=dd7e4e2f-f2db-4c41-9b95-8e20b6da1267"},"vehicle_type_id":"4","last_reported":1739297505,"current_range_meters":16400,"station_id":"ce4bhs12rcd13ifvqhvg","pricing_plan_id":"cebpf4jnsgd1na2vs0mg"},{"bike_id":"d06b3b54-dc24-493e-97db-e54b37ab5416","system_id":"levelo_inurba_marseille","lat":43.30533,"lon":5.36527,"is_reserved":false,"is_disabled":false,"rental_uris":{"android":"levelo://app?vid=d06b3b54-dc24-493e-97db-e54b37ab5416","ios":"levelo://app?vid=d06b3b54-dc24-493e-97db-e54b37ab5416"},"vehicle_type_id":"4","last_reported":1739297505,"current_range_meters":29600,"station_id":"ce4bgs12rcd13ifvqcag","pricing_plan_id":"cebpf4jnsgd1na2vs0mg"},{"bike_id":"91f8274d-f215-4cef-97ab-b8259e58eb3d","system_id":"levelo_inurba_marseille","lat":43.30442,"lon":5.39761,"is_reserved":false,"is_disabled":false,"rental_uris":{"android":"levelo://app?vid=91f8274d-f215-4cef-97ab-b8259e58eb3d","ios":"levelo://app?vid=91f8274d-f215-4cef-97ab-b8259e58eb3d"},"vehicle_type_id":"4","last_reported":1739297505,"current_range_meters":38800,"station_id":"ce4bh092rcd13ifvqd20","pricing_plan_id":"cebpf4jnsgd1na2vs0mg"},{"bike_id":"df5b7297-c656-434e-b72b-f3164076974b","system_id":"levelo_inurba_marseille","lat":43.29004,"lon":5.35616,"is_reserved":false,"is_disabled":false,"rental_uris":{"android":"levelo://app?vid=df5b7297-c656-434e-b72b-f3164076974b","ios":"levelo://app?vid=df5b7297-c656-434e-b72b-f3164076974b"},"vehicle_type_id":"4","last_reported":1739297505,"current_range_meters":32000,"station_id":"ce4bhb92rcd13ifvqen0","pricing_plan_id":"cebpf4jnsgd1na2vs0mg"},{"bike_id":"1d0a94af-b0de-4f0e-bc0f-ba4a06b04be1","system_id":"levelo_inurba_marseille","lat":43.29634,"lon":5.40593,"is_reserved":false,"is_disabled":false,"rental_uris":{"android":"levelo://app?vid=1d0a94af-b0de-4f0e-bc0f-ba4a06b04be1","ios":"levelo://app?vid=1d0a94af-b0de-4f0e-bc0f-ba4a06b04be1"},"vehicle_type_id":"4","last_reported":1739297505,"current_range_meters":38800,"station_id":"ce4bh0h2rcd13ifvqd60","pricing_plan_id":"cebpf4jnsgd1na2vs0mg"},{"bike_id":"118acaa8-c377-4759-a8f9-c3303973ef34","system_id":"levelo_inurba_marseille","lat":43.29879,"lon":5.38903,"is_reserved":false,"is_disabled":false,"rental_uris":{"android":"levelo://app?vid=118acaa8-c377-4759-a8f9-c3303973ef34","ios":"levelo://app?vid=118acaa8-c377-4759-a8f9-c3303973ef34"},"vehicle_type_id":"4","last_reported":1739297505,"current_range_meters":24000,"station_id":"ce4bh392rcd13ifvqdl0","pricing_plan_id":"cebpf4jnsgd1na2vs0mg"},{"bike_id":"4e18434e-3693-4449-ba4f-3b0af82e3b5c","system_id":"levelo_inurba_marseille","lat":43.29732,"lon":5.37702,"is_reserved":false,"is_disabled":false,"rental_uris":{"android":"levelo://app?vid=4e18434e-3693-4449-ba4f-3b0af82e3b5c","ios":"levelo://app?vid=4e18434e-3693-4449-ba4f-3b0af82e3b5c"},"vehicle_type_id":"4","last_reported":1739297505,"current_range_meters":16000,"station_id":"ce4bgkh2rcd13ifvqbl0","pricing_plan_id":"cebpf4jnsgd1na2vs0mg"},{"bike_id":"fe13a370-c3c1-4b94-b07d-037e05cb1b29","system_id":"levelo_inurba_marseille","lat":43.31067,"lon":5.38368,"is_reserved":false,"is_disabled":false,"rental_uris":{"android":"levelo://app?vid=fe13a370-c3c1-4b94-b07d-037e05cb1b29","ios":"levelo://app?vid=fe13a370-c3c1-4b94-b07d-037e05cb1b29"},"vehicle_type_id":"4","last_reported":1739297505,"current_range_meters":4400,"station_id":"ce4bgv92rcd13ifvqcr0","pricing_plan_id":"cebpf4jnsgd1na2vs0mg"},{"bike_id":"3244e5ed-5be3-4c40-96ce-855e65dc2bd0","system_id":"levelo_inurba_marseille","lat":43.27893,"lon":5.38007,"is_reserved":false,"is_disabled":false,"rental_uris":{"android":"levelo://app?vid=3244e5ed-5be3-4c40-96ce-855e65dc2bd0","ios":"levelo://app?vid=3244e5ed-5be3-4c40-96ce-855e65dc2bd0"},"vehicle_type_id":"4","last_reported":1739297505,"current_range_meters":22800,"station_id":"ce4bhf92rcd13ifvqf50","pricing_plan_id":"cebpf4jnsgd1na2vs0mg"},{"bike_id":"72439510-9364-4b4d-92f9-a88d26b23c0e","system_id":"levelo_inurba_marseille","lat":43.3021,"lon":5.39468,"is_reserved":false,"is_disabled":false,"rental_uris":{"android":"levelo://app?vid=72439510-9364-4b4d-92f9-a88d26b23c0e","ios":"levelo://app?vid=72439510-9364-4b4d-92f9-a88d26b23c0e"},"vehicle_type_id":"4","last_reported":1739297505,"current_range_meters":16800,"station_id":"ce4bh0p2rcd13ifvqd70","pricing_plan_id":"cebpf4jnsgd1na2vs0mg"},{"bike_id":"9b288ae1-410a-4e49-8c78-c759a226f421","system_id":"levelo_inurba_marseille","lat":43.2958,"lon":5.37505,"is_reserved":false,"is_disabled":false,"rental_uris":{"android":"levelo://app?vid=9b288ae1-410a-4e49-8c78-c759a226f421","ios":"levelo://app?vid=9b288ae1-410a-4e49-8c78-c759a226f421"},"vehicle_type_id":"4","last_reported":1739297505,"current_range_meters":12800,"station_id":"ce4bgh92rcd13ifvqb50","pricing_plan_id":"cebpf4jnsgd1na2vs0mg"},{"bike_id":"6c2be036-a262-4455-9b32-abb648bab260","system_id":"levelo_inurba_marseille","lat":43.32293,"lon":5.38249,"is_reserved":false,"is_disabled":false,"rental_uris":{"android":"levelo://app?vid=6c2be036-a262-4455-9b32-abb648bab260","ios":"levelo://app?vid=6c2be036-a262-4455-9b32-abb648bab260"},"vehicle_type_id":"4","last_reported":1739297505,"current_range_meters":30000,"station_id":"ce4bhr12rcd13ifvqhqg","pricing_plan_id":"cebpf4jnsgd1na2vs0mg"},{"bike_id":"54ce597b-1ca1-4d62-923d-d4b29eec04b3","system_id":"levelo_inurba_marseille","lat":43.31131,"lon":5.38261,"is_reserved":false,"is_disabled":false,"rental_uris":{"android":"levelo://app?vid=54ce597b-1ca1-4d62-923d-d4b29eec04b3","ios":"levelo://app?vid=54ce597b-1ca1-4d62-923d-d4b29eec04b3"},"vehicle_type_id":"4","last_reported":1739297505,"current_range_meters":19200,"station_id":"","pricing_plan_id":"cebpf4jnsgd1na2vs0mg"},{"bike_id":"b4765ae2-b7fb-4718-bf68-ce7ba2c817f9","system_id":"levelo_inurba_marseille","lat":43.27066,"lon":5.42283,"is_reserved":false,"is_disabled":false,"rental_uris":{"android":"levelo://app?vid=b4765ae2-b7fb-4718-bf68-ce7ba2c817f9","ios":"levelo://app?vid=b4765ae2-b7fb-4718-bf68-ce7ba2c817f9"},"vehicle_type_id":"4","last_reported":1739297505,"current_range_meters":22400,"station_id":"ce4bhk92rcd13ifvqgb0","pricing_plan_id":"cebpf4jnsgd1na2vs0mg"},{"bike_id":"ebf691c6-8a00-492d-9baf-d41b495016bd","system_id":"levelo_inurba_marseille","lat":43.25943,"lon":5.39413,"is_reserved":false,"is_disabled":false,"rental_uris":{"android":"levelo://app?vid=ebf691c6-8a00-492d-9baf-d41b495016bd","ios":"levelo://app?vid=ebf691c6-8a00-492d-9baf-d41b495016bd"},"vehicle_type_id":"4","last_reported":1739297505,"current_range_meters":22000,"station_id":"ce4bhh92rcd13ifvqfi0","pricing_plan_id":"cebpf4jnsgd1na2vs0mg"},{"bike_id":"ed22b738-1280-4e28-bdfe-5a8aa889b31d","system_id":"levelo_inurba_marseille","lat":43.30439,"lon":5.38885,"is_reserved":false,"is_disabled":false,"rental_uris":{"android":"levelo://app?vid=ed22b738-1280-4e28-bdfe-5a8aa889b31d","ios":"levelo://app?vid=ed22b738-1280-4e28-bdfe-5a8aa889b31d"},"vehicle_type_id":"4","last_reported":1739297505,"current_range_meters":38800,"station_id":"ce4bgk12rcd13ifvqbi0","pricing_plan_id":"cebpf4jnsgd1na2vs0mg"},{"bike_id":"6781aa85-34f7-4835-bddc-391492c4d5fe","system_id":"levelo_inurba_marseille","lat":43.24995,"lon":5.38933,"is_reserved":false,"is_disabled":false,"rental_uris":{"android":"levelo://app?vid=6781aa85-34f7-4835-bddc-391492c4d5fe","ios":"levelo://app?vid=6781aa85-34f7-4835-bddc-391492c4d5fe"},"vehicle_type_id":"4","last_reported":1739297505,"current_range_meters":38800,"station_id":"ce4bhgp2rcd13ifvqfd0","pricing_plan_id":"cebpf4jnsgd1na2vs0mg"},{"bike_id":"edaca68b-6267-4d88-b9f6-6caf88338e54","system_id":"levelo_inurba_marseille","lat":43.33025,"lon":5.3905,"is_reserved":false,"is_disabled":false,"rental_uris":{"android":"levelo://app?vid=edaca68b-6267-4d88-b9f6-6caf88338e54","ios":"levelo://app?vid=edaca68b-6267-4d88-b9f6-6caf88338e54"},"vehicle_type_id":"4","last_reported":1739297505,"current_range_meters":38000,"station_id":"ce4bhr92rcd13ifvqhrg","pricing_plan_id":"cebpf4jnsgd1na2vs0mg"},{"bike_id":"7434c5be-1787-4d49-8df0-b34b02c99ab8","system_id":"levelo_inurba_marseille","lat":43.29512,"lon":5.39404,"is_reserved":false,"is_disabled":false,"rental_uris":{"android":"levelo://app?vid=7434c5be-1787-4d49-8df0-b34b02c99ab8","ios":"levelo://app?vid=7434c5be-1787-4d49-8df0-b34b02c99ab8"},"vehicle_type_id":"4","last_reported":1739297505,"current_range_meters":28800,"station_id":"ce4bh292rcd13ifvqdf0","pricing_plan_id":"cebpf4jnsgd1na2vs0mg"},{"bike_id":"d0092077-961c-4ee7-9b48-e5202a0c2921","system_id":"levelo_inurba_marseille","lat":43.29296,"lon":5.37466,"is_reserved":false,"is_disabled":false,"rental_uris":{"android":"levelo://app?vid=d0092077-961c-4ee7-9b48-e5202a0c2921","ios":"levelo://app?vid=d0092077-961c-4ee7-9b48-e5202a0c2921"},"vehicle_type_id":"4","last_reported":1739297505,"current_range_meters":4000,"station_id":"ce4bgi12rcd13ifvqb70","pricing_plan_id":"cebpf4jnsgd1na2vs0mg"},{"bike_id":"fa2a3872-083d-45d4-83dc-0f3069d49b31","system_id":"levelo_inurba_marseille","lat":43.27072,"lon":5.40247,"is_reserved":false,"is_disabled":false,"rental_uris":{"android":"levelo://app?vid=fa2a3872-083d-45d4-83dc-0f3069d49b31","ios":"levelo://app?vid=fa2a3872-083d-45d4-83dc-0f3069d49b31"},"vehicle_type_id":"4","last_reported":1739297505,"current_range_meters":8400,"station_id":"ce4bhk92rcd13ifvqgc0","pricing_plan_id":"cebpf4jnsgd1na2vs0mg"},{"bike_id":"730d42d7-222e-417d-b339-bb29ca0d0c33","system_id":"levelo_inurba_marseille","lat":43.29421,"lon":5.38627,"is_reserved":false,"is_disabled":false,"rental_uris":{"android":"levelo://app?vid=730d42d7-222e-417d-b339-bb29ca0d0c33","ios":"levelo://app?vid=730d42d7-222e-417d-b339-bb29ca0d0c33"},"vehicle_type_id":"4","last_reported":1739297505,"current_range_meters":39200,"station_id":"ce4bh2h2rcd13ifvqdh0","pricing_plan_id":"cebpf4jnsgd1na2vs0mg"},{"bike_id":"f109eb90-6c8f-4830-8d9d-77ce3a798bd2","system_id":"levelo_inurba_marseille","lat":43.30182,"lon":5.36628,"is_reserved":false,"is_disabled":false,"rental_uris":{"android":"levelo://app?vid=f109eb90-6c8f-4830-8d9d-77ce3a798bd2","ios":"levelo://app?vid=f109eb90-6c8f-4830-8d9d-77ce3a798bd2"},"vehicle_type_id":"4","last_reported":1739297505,"current_range_meters":38000,"station_id":"ce4bgrh2rcd13ifvqc8g","pricing_plan_id":"cebpf4jnsgd1na2vs0mg"},{"bike_id":"2ecfc064-16ee-47ea-a726-26c86c17056d","system_id":"levelo_inurba_marseille","lat":43.25501,"lon":5.37675,"is_reserved":false,"is_disabled":false,"rental_uris":{"android":"levelo://app?vid=2ecfc064-16ee-47ea-a726-26c86c17056d","ios":"levelo://app?vid=2ecfc064-16ee-47ea-a726-26c86c17056d"},"vehicle_type_id":"4","last_reported":1739297505,"current_range_meters":38000,"station_id":"ce4bhh12rcd13ifvqff0","pricing_plan_id":"cebpf4jnsgd1na2vs0mg"},{"bike_id":"c0e6e853-624a-4b86-af76-4c09f685818c","system_id":"levelo_inurba_marseille","lat":43.29574,"lon":5.37484,"is_reserved":false,"is_disabled":false,"rental_uris":{"android":"levelo://app?vid=c0e6e853-624a-4b86-af76-4c09f685818c","ios":"levelo://app?vid=c0e6e853-624a-4b86-af76-4c09f685818c"},"vehicle_type_id":"4","last_reported":1739297505,"current_range_meters":38800,"station_id":"ce4bgh92rcd13ifvqb50","pricing_plan_id":"cebpf4jnsgd1na2vs0mg"},