{"last_updated":1762449038,"ttl":60,"version":"2.2","data":{"bikes":[{"bike_id":"9c46a9f5-39cb-461a-ac28-286dc216524b","system_id":"levelo_inurba_marseille","lat":43.337444,"lon":5.374475,"is_reserved":false,"is_disabled":false,"rental_uris":{"android":"levelo://app?vid=9c46a9f5-39cb-461a-ac28-286dc216524b","ios":"levelo://app?vid=9c46a9f5-39cb-461a-ac28-286dc216524b"},"vehicle_type_id":"4","last_reported":1762449038,"current_range_meters":0,"station_id":"","pricing_plan_id":"cebpf4jnsgd1na2vs0mg"},{"bike_id":"ff5fb0fe-6be9-4f82-803a-22b1a7ed6c61","system_id":"levelo_inurba_marseille","lat":43.28213,"lon":5.39068,"is_reserved":false,"is_disabled":false,"rental_uris":{"android":"levelo://app?vid=ff5fb0fe-6be9-4f82-803a-22b1a7ed6c61","ios":"levelo://app?vid=ff5fb0fe-6be9-4f82-803a-22b1a7ed6c61"},"vehicle_type_id":"4","last_reported":1762449038,"current_range_meters":2800,"station_id":"ce4bhn92rcd13ifvqgsg","pricing_plan_id":"cebpf4jnsgd1na2vs0mg"},{"bike_id":"2e7bd310-1a5f-4d72-a5aa-19f0c8e64587","system_id":"levelo_inurba_marseille","lat":43.30931,"lon":5.40188,"is_reserved":false,"is_disabled":false,"rental_uris":{"android":"levelo://app?vid=2e7bd310-1a5f-4d72-a5aa-19f0c8e64587","ios":"levelo://app?vid=2e7bd310-1a5f-4d72-a5aa-19f0c8e64587"},"vehicle_type_id":"4","last_reported":1762449038,"current_range_meters":3200,"station_id":"ce4bgvp2rcd13ifvqct0","pricing_plan_id":"cebpf4jnsgd1na2vs0mg"},{"bike_id":"4e255d04-9436-450d-a2bf-7c4e0c7bad10","system_id":"levelo_inurba_marseille","lat":43.32368,"lon":5.38886,"is_reserved":false,"is_disabled":false,"rental_uris":{"android":"levelo://app?vid=4e255d04-9436-450d-a2bf-7c4e0c7bad10","ios":"levelo://app?vid=4e255d04-9436-450d-a2bf-7c4e0c7bad10"},"vehicle_type_id":"4","last_reported":1762449038,"current_range_meters":4000,"station_id":"ce4bhqp2rcd13ifvqhog","pricing_plan_id":"cebpf4jnsgd1na2vs0mg"},{"bike_id":"90f354f7-8e1f-413d-91a7-97557f732f65","system_id":"levelo_inurba_marseille","lat":43.27431,"lon":5.3941,"is_reserved":false,"is_disabled":false,"rental_uris":{"android":"levelo://app?vid=90f354f7-8e1f-413d-91a7-97557f732f65","ios":"levelo://app?vid=90f354f7-8e1f-413d-91a7-97557f732f65"},"vehicle_type_id":"4","last_reported":1762449038,"current_range_meters":4400,"station_id":"ce4bhdp2rcd13ifvqf20","pricing_plan_id":"cebpf4jnsgd1na2vs0mg"},{"bike_id":"cd9c6c8f-813a-4b2c-b0c7-7a3265cb2fa0","system_id":"levelo_inurba_marseille","lat":43.24234,"lon":5.39323,"is_reserved":false,"is_disabled":false,"rental_uris":{"android":"levelo://app?vid=cd9c6c8f-813a-4b2c-b0c7-7a3265cb2fa0","ios":"levelo://app?vid=cd9c6c8f-813a-4b2c-b0c7-7a3265cb2fa0"},"vehicle_type_id":"4","last_reported":1762449038,"current_range_meters":4400,"station_id":"","pricing_plan_id":"cebpf4jnsgd1na2vs0mg"},{"bike_id":"7ab5dc7b-4262-4668-8616-c4f77160ead2","system_id":"levelo_inurba_marseille","lat":43.25502,"lon":5.37681,"is_reserved":false,"is_disabled":false,"rental_uris":{"android":"levelo://app?vid=7ab5dc7b-4262-4668-8616-c4f77160ead2","ios":"levelo://app?vid=7ab5dc7b-4262-4668-8616-c4f77160ead2"},"vehicle_type_id":"4","last_reported":1762449038,"current_range_meters":4400,"station_id":"ce4bhh12rcd13ifvqff0","pricing_plan_id":"cebpf4jnsgd1na2vs0mg"},{"bike_id":"d444d522-7896-4da7-9f82-25e8f814d891","system_id":"levelo_inurba_marseille","lat":43.29318,"lon":5.37179,"is_reserved":false,"is_disabled":false,"rental_uris":{"android":"levelo://app?vid=d444d522-7896-4da7-9f82-25e8f814d891","ios":"levelo://app?vid=d444d522-7896-4da7-9f82-25e8f814d891"},"vehicle_type_id":"4","last_reported":1762449038,"current_range_meters":4400,"station_id":"ce4bgh92rcd13ifvqb40","pricing_plan_id":"cebpf4jnsgd1na2vs0mg"},{"bike_id":"9db23817-100d-4feb-906a-faeaa5a942cd","system_id":"levelo_inurba_marseille","lat":43.30546,"lon":5.36529,"is_reserved":false,"is_disabled":false,"rental_uris":{"android":"levelo://app?vid=9db23817-100d-4feb-906a-faeaa5a942cd","ios":"levelo://app?vid=9db23817-100d-4feb-906a-faeaa5a942cd"},"vehicle_type_id":"4","last_reported":1762449038,"current_range_meters":4400,"station_id":"ce4bgs12rcd13ifvqcag","pricing_plan_id":"cebpf4jnsgd1na2vs0mg"},{"bike_id":"a3d867ae-f4dd-486a-a20d-682f4496217d","system_id":"levelo_inurba_marseille","lat":43.337561,"lon":5.37443,"is_reserved":false,"is_disabled":false,"rental_uris":{"android":"levelo://app?vid=a3d867ae-f4dd-486a-a20d-682f4496217d","ios":"levelo://app?vid=a3d867ae-f4dd-486a-a20d-682f4496217d"},"vehicle_type_id":"4","last_reported":1762449038,"current_range_meters":4800,"station_id":"","pricing_plan_id":"cebpf4jnsgd1na2vs0mg"},{"bike_id":"5e6b5e6b-9f8a-43ab-9eb8-b69e41a6c1e6","system_id":"levelo_inurba_marseille","lat":43.22538,"lon":5.34841,"is_reserved":false,"is_disabled":false,"rental_uris":{"android":"levelo://app?vid=5e6b5e6b-9f8a-43ab-9eb8-b69e41a6c1e6","ios":"levelo://app?vid=5e6b5e6b-9f8a-43ab-9eb8-b69e41a6c1e6"},"vehicle_type_id":"4","last_reported":1762449038,"current_range_meters":4800,"station_id":"","pricing_plan_id":"cebpf4jnsgd1na2vs0mg"},{"bike_id":"16e8ecd0-1bbc-4db1-8997-1affeee864a8","system_id":"levelo_inurba_marseille","lat":43.29805,"lon":5.4407,"is_reserved":false,"is_disabled":false,"rental_uris":{"android":"levelo://app?vid=16e8ecd0-1bbc-4db1-8997-1affeee864a8","ios":"levelo://app?vid=16e8ecd0-1bbc-4db1-8997-1affeee864a8"},"vehicle_type_id":"4","last_reported":1762449038,"current_range_meters":4800,"station_id":"st_d3jp68qikq2c7381ktn0","pricing_plan_id":"cebpf4jnsgd1na2vs0mg"},{"bike_id":"ea4f4b84-78b0-4180-a7f8-ecb8c6182713","system_id":"levelo_inurba_marseille","lat":43.2953,"lon":5.36104,"is_reserved":false,"is_disabled":true,"rental_uris":{"android":"levelo://app?vid=ea4f4b84-78b0-4180-a7f8-ecb8c6182713","ios":"levelo://app?vid=ea4f4b84-78b0-4180-a7f8-ecb8c6182713"},"vehicle_type_id":"4","last_reported":1762449038,"current_range_meters":4800,"station_id":"","pricing_plan_id":"cebpf4jnsgd1na2vs0mg"},{"bike_id":"398fd9da-daf6-446f-bd04-db3123ae7dd2","system_id":"levelo_inurba_marseille","lat":43.29022,"lon":5.38126,"is_reserved":false,"is_disabled":false,"rental_uris":{"android":"levelo://app?vid=398fd9da-daf6-446f-bd04-db3123ae7dd2","ios":"levelo://app?vid=398fd9da-daf6-446f-bd04-db3123ae7dd2"},"vehicle_type_id":"4","last_reported":1762449038,"current_range_meters":4800,"station_id":"ce4bh4p2rcd13ifvqe1g","pricing_plan_id":"cebpf4jnsgd1na2vs0mg"},{"bike_id":"6a64520d-e8bd-47fe-abfc-1394dd338b06","system_id":"levelo_inurba_marseille","lat":43.258199,"lon":5.39436,"is_reserved":false,"is_disabled":false,"rental_uris":{"android":"levelo://app?vid=6a64520d-e8bd-47fe-abfc-1394dd338b06","ios":"levelo://app?vid=6a64520d-e8bd-47fe-abfc-1394dd338b06"},"vehicle_type_id":"4","last_reported":1762449038,"current_range_meters":5600,"station_id":"ce4bhip2rcd13ifvqft0","pricing_plan_id":"cebpf4jnsgd1na2vs0mg"},{"bike_id":"0258a731-9719-4e23-bb20-6fb6c0d79742","system_id":"levelo_inurba_marseille","lat":43.27917,"lon":5.39599,"is_reserved":false,"is_disabled":false,"rental_uris":{"android":"levelo://app?vid=0258a731-9719-4e23-bb20-6fb6c0d79742","ios":"levelo://app?vid=0258a731-9719-4e23-bb20-6fb6c0d79742"},"vehicle_type_id":"4","last_reported":1762449038,"current_range_meters":5600,"station_id":"ce4bhf92rcd13ifvqf40","pricing_plan_id":"cebpf4jnsgd1na2vs0mg"},{"bike_id":"23622548-85c4-4b8e-aa8d-dd01b209ea4b","system_id":"levelo_inurba_marseille","lat":43.26494,"lon":5.39541,"is_reserved":false,"is_disabled":false,"rental_uris":{"android":"levelo://app?vid=23622548-85c4-4b8e-aa8d-dd01b209ea4b","ios":"levelo://app?vid=23622548-85c4-4b8e-aa8d-dd01b209ea4b"},"vehicle_type_id":"4","last_reported":1762449038,"current_range_meters":5600,"station_id":"ce4bhi12rcd13ifvqfq0","pricing_plan_id":"cebpf4jnsgd1na2vs0mg"},{"bike_id":"1b9f60e9-1202-4344-b646-c3c56bcd62d8","system_id":"levelo_inurba_marseille","lat":43.24173,"lon":5.36401,"is_reserved":false,"is_disabled":false,"rental_uris":{"android":"levelo://app?vid=1b9f60e9-1202-4344-b646-c3c56bcd62d8","ios":"levelo://app?vid=1b9f60e9-1202-4344-b646-c3c56bcd62d8"},"vehicle_type_id":"4","last_reported":1762449038,"current_range_meters":6000,"station_id":"cpo36qri1sfpv3e86is0","pricing_plan_id":"cebpf4jnsgd1na2vs0mg"},{"bike_id":"9b56e28d-18a0-450a-84a4-d4d003710fa5","system_id":"levelo_inurba_marseille","lat":43.29065,"lon":5.37148,"is_reserved":false,"is_disabled":false,"rental_uris":{"android":"levelo://app?vid=9b56e28d-18a0-450a-84a4-d4d003710fa5","ios":"levelo://app?vid=9b56e28d-18a0-450a-84a4-d4d003710fa5"},"vehicle_type_id":"4","last_reported":1762449038,"current_range_meters":6400,"station_id":"ce4bh5p2rcd13ifvqe4g","pricing_plan_id":"cebpf4jnsgd1na2vs0mg"},{"bike_id":"765b9661-2b24-4c0f-a9fb-732d7409b10c","system_id":"levelo_inurba_marseille","lat":43.21612,"lon":5.34432,"is_reserved":false,"is_disabled":false,"rental_uris":{"android":"levelo://app?vid=765b9661-2b24-4c0f-a9fb-732d7409b10c","ios":"levelo://app?vid=765b9661-2b24-4c0f-a9fb-732d7409b10c"},"vehicle_type_id":"4","last_reported":1762449038,"current_range_meters":6400,"station_id":"","pricing_plan_id":"cebpf4jnsgd1na2vs0mg"},{"bike_id":"95ae1777-b7c8-4c2b-a8ca-f03f887e0169","system_id":"levelo_inurba_marseille","lat":43.29768,"lon":5.38109,"is_reserved":false,"is_disabled":false,"rental_uris":{"android":"levelo://app?vid=95ae1777-b7c8-4c2b-a8ca-f03f887e0169","ios":"levelo://app?vid=95ae1777-b7c8-4c2b-a8ca-f03f887e0169"},"vehicle_type_id":"4","last_reported":1762449038,"current_range_meters":6400,"station_id":"ce4bgip2rcd13ifvqbb0","pricing_plan_id":"cebpf4jnsgd1na2vs0mg"},{"bike_id":"e7002296-a724-4792-9c77-9aa7da662e7d","system_id":"levelo_inurba_marseille","lat":43.29752,"lon":5.36248,"is_reserved":false,"is_disabled":false,"rental_uris":{"android":"levelo://app?vid=e7002296-a724-4792-9c77-9aa7da662e7d","ios":"levelo://app?vid=e7002296-a724-4792-9c77-9aa7da662e7d"},"vehicle_type_id":"4","last_reported":1762449038,"current_range_meters":6400,"station_id":"","pricing_plan_id":"cebpf4jnsgd1na2vs0mg"},{"bike_id":"1be15ad6-0175-4d9f-ac40-15c34d4992fa","system_id":"levelo_inurba_marseille","lat":43.24172,"lon":5.36389,"is_reserved":false,"is_disabled":false,"rental_uris":{"android":"levelo://app?vid=1be15ad6-0175-4d9f-ac40-15c34d4992fa","ios":"levelo://app?vid=1be15ad6-0175-4d9f-ac40-15c34d4992fa"},"vehicle_type_id":"4","last_reported":1762449038,"current_range_meters":6400,"station_id":"cpo36qri1sfpv3e86is0","pricing_plan_id":"cebpf4jnsgd1na2vs0mg"},{"bike_id":"e5d284cd-0bc3-4fd2-8826-6b91c3c548cd","system_id":"levelo_inurba_marseille","lat":43.286699,"lon":5.38208,"is_reserved":false,"is_disabled":false,"rental_uris":{"android":"levelo://app?vid=e5d284cd-0bc3-4fd2-8826-6b91c3c548cd","ios":"levelo://app?vid=e5d284cd-0bc3-4fd2-8826-6b91c3c548cd"},"vehicle_type_id":"4","last_reported":1762449038,"current_range_meters":6800,"station_id":"","pricing_plan_id":"cebpf4jnsgd1na2vs0mg"},{"bike_id":"dcd7cc05-09ca-451c-b5c3-aec30ed844a3","system_id":"levelo_inurba_marseille","lat":43.29495,"lon":5.42755,"is_reserved":false,"is_disabled":false,"rental_uris":{"android":"levelo://app?vid=dcd7cc05-09ca-451c-b5c3-aec30ed844a3","ios":"levelo://app?vid=dcd7cc05-09ca-451c-b5c3-aec30ed844a3"},"vehicle_type_id":"4","last_reported":1762449038,"current_range_meters":6800,"station_id":"","pricing_plan_id":"cebpf4jnsgd1na2vs0mg"},{"bike_id":"f4778c9a-6dd1-4867-973f-176df11332ec","system_id":"levelo_inurba_marseille","lat":43.293671,"lon":5.378555,"is_reserved":false,"is_disabled":false,"rental_uris":{"android":"levelo://app?vid=f4778c9a-6dd1-4867-973f-176df11332ec","ios":"levelo://app?vid=f4778c9a-6dd1-4867-973f-176df11332ec"},"vehicle_type_id":"4","last_reported":1762449038,"current_range_meters":7200,"station_id":"ce4bgjh2rcd13ifvqbf0","pricing_plan_id":"cebpf4jnsgd1na2vs0mg"},{"bike_id":"39454994-d7c2-415d-beec-36cc05c4b04c","system_id":"levelo_inurba_marseille","lat":43.27947,"lon":5.41044,"is_reserved":false,"is_disabled":false,"rental_uris":{"android":"levelo://app?vid=39454994-d7c2-415d-beec-36cc05c4b04c","ios":"levelo://app?vid=39454994-d7c2-415d-beec-36cc05c4b04c"},"vehicle_type_id":"4","last_reported":1762449038,"current_range_meters":7200,"station_id":"ce4bhnp2rcd13ifvqh0g","pricing_plan_id":"cebpf4jnsgd1na2vs0mg"},{"bike_id":"32862b27-8eef-487d-8809-014586b0bdde","system_id":"levelo_inurba_marseille","lat":43.30126,"lon":5.3987,"is_reserved":false,"is_disabled":false,"rental_uris":{"android":"levelo://app?vid=32862b27-8eef-487d-8809-014586b0bdde","ios":"levelo://app?vid=32862b27-8eef-487d-8809-014586b0bdde"},"vehicle_type_id":"4","last_reported":1762449038,"current_range_meters":7200,"station_id":"ce4bh0h2rcd13ifvqd40","pricing_plan_id":"cebpf4jnsgd1na2vs0mg"},{"bike_id":"3752aba2-ad7b-4a53-8de9-f546a9283c85","system_id":"levelo_inurba_marseille","lat":43.30933,"lon":5.40143,"is_reserved":false,"is_disabled":false,"rental_uris":{"android":"levelo://app?vid=3752aba2-ad7b-4a53-8de9-f546a9283c85","ios":"levelo://app?vid=3752aba2-ad7b-4a53-8de9-f546a9283c85"},"vehicle_type_id":"4","last_reported":1762449038,"current_range_meters":7200,"station_id":"ce4bgvp2rcd13ifvqct0","pricing_plan_id":"cebpf4jnsgd1na2vs0mg"},{"bike_id":"3ed02add-87f3-41d7-bdf1-1cf82493034f","system_id":"levelo_inurba_marseille","lat":43.29307,"lon":5.38344,"is_reserved":false,"is_disabled":false,"rental_uris":{"android":"levelo://app?vid=3ed02add-87f3-41d7-bdf1-1cf82493034f","ios":"levelo://app?vid=3ed02add-87f3-41d7-bdf1-1cf82493034f"},"vehicle_type_id":"4","last_reported":1762449038,"current_range_meters":7200,"station_id":"","pricing_plan_id":"cebpf4jnsgd1na2vs0mg"},{"bike_id":"e63b906b-1e2b-4b0e-bbf0-4d3516fe1c53","system_id":"levelo_inurba_marseille","lat":43.29637,"lon":5.41915,"is_reserved":false,"is_disabled":false,"rental_uris":{"android":"levelo://app?vid=e63b906b-1e2b-4b0e-bbf0-4d3516fe1c53","ios":"levelo://app?vid=e63b906b-1e2b-4b0e-bbf0-4d3516fe1c53"},"vehicle_type_id":"4","last_reported":1762449038,"current_range_meters":7200,"station_id":"","pricing_plan_id":"cebpf4jnsgd1na2vs0mg"},{"bike_id":"ed47b7c3-0a30-48f0-8edc-2983afb69a83","system_id":"levelo_inurba_marseille","lat":43.29796,"lon":5.37107,"is_reserved":false,"is_disabled":false,"rental_uris":{"android":"levelo://app?vid=ed47b7c3-0a30-48f0-8edc-2983afb69a83","ios":"levelo://app?vid=ed47b7c3-0a30-48f0-8edc-2983afb69a83"},"vehicle_type_id":"4","last_reported":1762449038,"current_range_meters":7200,"station_id":"ce4bgop2rcd13ifvqc1g","pricing_plan_id":"cebpf4jnsgd1na2vs0mg"},{"bike_id":"571bd3a6-912b-44a3-9841-50c558a61481","system_id":"levelo_inurba_marseille","lat":43.28113,"lon":5.40564,"is_reserved":false,"is_disabled":false,"rental_uris":{"android":"levelo://app?vid=571bd3a6-912b-44a3-9841-50c558a61481","ios":"levelo://app?vid=571bd3a6-912b-44a3-9841-50c558a61481"},"vehicle_type_id":"4","last_reported":1762449038,"current_range_meters":8000,"station_id":"","pricing_plan_id":"cebpf4jnsgd1na2vs0mg"},{"bike_id":"1b9d7008-71d9-498e-9c19-9f92e6ac48c3","system_id":"levelo_inurba_marseille","lat":43.30221,"lon":5.39472,"is_reserved":false,"is_disabled":false,"rental_uris":{"android":"levelo://app?vid=1b9d7008-71d9-498e-9c19-9f92e6ac48c3","ios":"levelo://app?vid=1b9d7008-71d9-498e-9c19-9f92e6ac48c3"},"vehicle_type_id":"4","last_reported":1762449038,"current_range_meters":8000,"station_id":"ce4bh0p2rcd13ifvqd70","pricing_plan_id":"cebpf4jnsgd1na2vs0mg"},{"bike_id":"d3a8c452-bd73-4909-9cfe-f1c0285f3d0c","system_id":"levelo_inurba_marseille","lat":43.28477,"lon":5.48398,"is_reserved":false,"is_disabled":false,"rental_uris":{"android":"levelo://app?vid=d3a8c452-bd73-4909-9cfe-f1c0285f3d0c","ios":"levelo://app?vid=d3a8c452-bd73-4909-9cfe-f1c0285f3d0c"},"vehicle_type_id":"4","last_reported":1762449038,"current_range_meters":8400,"station_id":"","pricing_plan_id":"cebpf4jnsgd1na2vs0mg"},{"bike_id":"62a9dbe2-38eb-490b-9a97-409cc07f948c","system_id":"levelo_inurba_marseille","lat":43.25087,"lon":5.39505,"is_reserved":false,"is_disabled":false,"rental_uris":{"android":"levelo://app?vid=62a9dbe2-38eb-490b-9a97-409cc07f948c","ios":"levelo://app?vid=62a9dbe2-38eb-490b-9a97-409cc07f948c"},"vehicle_type_id":"4","last_reported":1762449038,"current_range_meters":8400,"station_id":"ce4bhm12rcd13ifvqgkg","pricing_plan_id":"cebpf4jnsgd1na2vs0mg"},{"bike_id":"fc77f0d5-7f86-4180-92cb-31fe1865f593","system_id":"levelo_inurba_marseille","lat":43.28033,"lon":5.36947,"is_reserved":false,"is_disabled":false,"rental_uris":{"android":"levelo://app?vid=fc77f0d5-7f86-4180-92cb-31fe1865f593","ios":"levelo://app?vid=fc77f0d5-7f86-4180-92cb-31fe1865f593"},"vehicle_type_id":"4","last_reported":1762449038,"current_range_meters":8400,"station_id":"ce4bha12rcd13ifvqef0","pricing_plan_id":"cebpf4jnsgd1na2vs0mg"},{"bike_id":"a80322af-ed5b-4292-a927-2fe8792435d5","system_id":"levelo_inurba_marseille","lat":43.29406,"lon":5.38483,"is_reserved":false,"is_disabled":false,"rental_uris":{"android":"levelo://app?vid=a80322af-ed5b-4292-a927-2fe8792435d5","ios":"levelo://app?vid=a80322af-ed5b-4292-a927-2fe8792435d5"},"vehicle_type_id":"4","last_reported":1762449038,"current_range_meters":8400,"station_id":"","pricing_plan_id":"cebpf4jnsgd1na2vs0mg"},{"bike_id":"252d66bc-1139-4744-a591-30b196e06308","system_id":"levelo_inurba_marseille","lat":43.26065,"lon":5.39788,"is_reserved":false,"is_disabled":false,"rental_uris":{"android":"levelo://app?vid=252d66bc-1139-4744-a591-30b196e06308","ios":"levelo://app?vid=252d66bc-1139-4744-a591-30b196e06308"},"vehicle_type_id":"4","last_reported":1762449038,"current_range_meters":8800,"station_id":"ce4bhl92rcd13ifvqghg","pricing_plan_id":"cebpf4jnsgd1na2vs0mg"},{"bike_id":"2ab67ed7-596b-4f91-8eed-19637d8caa8b","system_id":"levelo_inurba_marseille","lat":43.260698,"lon":5.393835,"is_reserved":false,"is_disabled":false,"rental_uris":{"android":"levelo://app?vid=2ab67ed7-596b-4f91-8eed-19637d8caa8b","ios":"levelo://app?vid=2ab67ed7-596b-4f91-8eed-19637d8caa8b"},"vehicle_type_id":"4","last_reported":1762449038,"current_range_meters":8800,"station_id":"ce4bhh92rcd13ifvqfj0","pricing_plan_id":"cebpf4jnsgd1na2vs0mg"},{"bike_id":"899c7bd6-9e93-4d72-97a9-ee40ee984755","system_id":"levelo_inurba_marseille","lat":43.2848,"lon":5.38549,"is_reserved":false,"is_disabled":false,"rental_uris":{"android":"levelo://app?vid=899c7bd6-9e93-4d72-97a9-ee40ee984755","ios":"levelo://app?vid=899c7bd6-9e93-4d72-97a9-ee40ee984755"},"vehicle_type_id":"4","last_reported":1762449038,"current_range_meters":8800,"station_id":"ce4bh8p2rcd13ifvqeb0","pricing_plan_id":"cebpf4jnsgd1na2vs0mg"},{"bike_id":"2689d3e2-06d1-4f0a-8a0e-af7286fa0f4a","system_id":"levelo_inurba_marseille","lat":43.28697,"lon":5.37388,"is_reserved":false,"is_disabled":false,"rental_uris":{"android":"levelo://app?vid=2689d3e2-06d1-4f0a-8a0e-af7286fa0f4a","ios":"levelo://app?vid=2689d3e2-06d1-4f0a-8a0e-af7286fa0f4a"},"vehicle_type_id":"4","last_reported":1762449038,"current_range_meters":8800,"station_id":"ce4bh3p2rcd13ifvqdq0","pricing_plan_id":"cebpf4jnsgd1na2vs0mg"},{"bike_id":"773ad1fd-b993-47b7-87fa-ad001e35edf7","system_id":"levelo_inurba_marseille","lat":43.31214,"lon":5.36872,"is_reserved":false,"is_disabled":false,"rental_uris":{"android":"levelo://app?vid=773ad1fd-b993-47b7-87fa-ad001e35edf7","ios":"levelo://app?vid=773ad1fd-b993-47b7-87fa-ad001e35edf7"},"vehicle_type_id":"4","last_reported":1762449038,"current_range_meters":9200,"station_id":"ce4bgl92rcd13ifvqbq0","pricing_plan_id":"cebpf4jnsgd1na2vs0mg"},{"bike_id":"00065666-b382-40c8-87f2-d52ded706b03","system_id":"levelo_inurba_marseille","lat":43.30178,"lon":5.39203,"is_reserved":false,"is_disabled":false,"rental_uris":{"android":"levelo://app?vid=00065666-b382-40c8-87f2-d52ded706b03","ios":"levelo://app?vid=00065666-b382-40c8-87f2-d52ded706b03"},"vehicle_type_id":"4","last_reported":1762449038,"current_range_meters":9200,"station_id":"","pricing_plan_id":"cebpf4jnsgd1na2vs0mg"},{"bike_id":"794b0378-7658-40ab-8f57-a84e739e60bf","system_id":"levelo_inurba_marseille","lat":43.24174,"lon":5.39721,"is_reserved":false,"is_disabled":false,"rental_uris":{"android":"levelo://app?vid=794b0378-7658-40ab-8f57-a84e739e60bf","ios":"levelo://app?vid=794b0378-7658-40ab-8f57-a84e739e60bf"},"vehicle_type_id":"4","last_reported":1762449038,"current_range_meters":9200,"station_id":"ce4bhn12rcd13ifvqgpg","pricing_plan_id":"cebpf4jnsgd1na2vs0mg"},{"bike_id":"81dcc136-dea2-46c0-98af-42dbdee92b54","system_id":"levelo_inurba_marseille","lat":43.28479,"lon":5.48396,"is_reserved":false,"is_disabled":false,"rental_uris":{"android":"levelo://app?vid=81dcc136-dea2-46c0-98af-42dbdee92b54","ios":"levelo://app?vid=81dcc136-dea2-46c0-98af-42dbdee92b54"},"vehicle_type_id":"4","last_reported":1762449038,"current_range_meters":9200,"station_id":"","pricing_plan_id":"cebpf4jnsgd1na2vs0mg"},{"bike_id":"94b06f3e-9c43-404e-899a-d1e48d6d7a76","system_id":"levelo_inurba_marseille","lat":43.287102,"lon":5.399967,"is_reserved":false,"is_disabled":false,"rental_uris":{"android":"levelo://app?vid=94b06f3e-9c43-404e-899a-d1e48d6d7a76","ios":"levelo://app?vid=94b06f3e-9c43-404e-899a-d1e48d6d7a76"},"vehicle_type_id":"4","last_reported":1762449038,"current_range_meters":9600,"station_id":"ce4bho92rcd13ifvqh3g","pricing_plan_id":"cebpf4jnsgd1na2vs0mg"},{"bike_id":"bcb3c39b-ec48-48ef-9eac-eb8b71840959","system_id":"levelo_inurba_marseille","lat":43.33757,"lon":5.37464,"is_reserved":false,"is_disabled":false,"rental_uris":{"android":"levelo://app?vid=bcb3c39b-ec48-48ef-9eac-eb8b71840959","ios":"levelo://app?vid=bcb3c39b-ec48-48ef-9eac-eb8b71840959"},"vehicle_type_id":"4","last_reported":1762449038,"current_range_meters":9600,"station_id":"","pricing_plan_id":"cebpf4jnsgd1na2vs0mg"},{"bike_id":"b4586849-be59-4c8b-a11e-9a30751aafa0","system_id":"levelo_inurba_marseille","lat":43.27935,"lon":5.41042,"is_reserved":false,"is_disabled":false,"rental_uris":{"android":"levelo://app?vid=b4586849-be59-4c8b-a11e-9a30751aafa0","ios":"levelo://app?vid=b4586849-be59-4c8b-a11e-9a30751aafa0"},"vehicle_type_id":"4","last_reported":1762449038,"current_range_meters":9600,"station_id":"ce4bhnp2rcd13ifvqh0g","pricing_plan_id":"cebpf4jnsgd1na2vs0mg"},{"bike_id":"2c89c3ed-62de-4c74-8e11-a37172c6c77b","system_id":"levelo_inurba_marseille","lat":43.228704,"lon":5.402423,"is_reserved":false,"is_disabled":false,"rental_uris":{"android":"levelo://app?vid=2c89c3ed-62de-4c74-8e11-a37172c6c77b","ios":"levelo://app?vid=2c89c3ed-62de-4c74-8e11-a37172c6c77b"},"vehicle_type_id":"4","last_reported":1762449038,"current_range_meters":9600,"station_id":"","pricing_plan_id":"cebpf4jnsgd1na2vs0mg"},{"bike_id":"6b546487-40e6-4d31-809f-b59610404506","system_id":"levelo_inurba_marseille","lat":43.287032,"lon":5.374858,"is_reserved":false,"is_disabled":false,"rental_uris":{"android":"levelo://app?vid=6b546487-40e6-4d31-809f-b59610404506","ios":"levelo://app?vid=6b546487-40e6-4d31-809f-b59610404506"},"vehicle_type_id":"4","last_reported":1762449038,"current_range_meters":9600,"station_id":"ce4bh3p2rcd13ifvqdq0","pricing_plan_id":"cebpf4jnsgd1na2vs0mg"},{"bike_id":"21b93312-5688-495a-be55-165dc9da6ce0","system_id":"levelo_inurba_marseille","lat":43.29931,"lon":5.36548,"is_reserved":false,"is_disabled":false,"rental_uris":{"android":"levelo://app?vid=21b93312-5688-495a-be55-165dc9da6ce0","ios":"levelo://app?vid=21b93312-5688-495a-be55-165dc9da6ce0"},"vehicle_type_id":"4","last_reported":1762449038,"current_range_meters":9600,"station_id":"ce4bgm92rcd13ifvqbr0","pricing_plan_id":"cebpf4jnsgd1na2vs0mg"},{"bike_id":"4650e02f-f60a-4ff2-a214-56837e0e12af","system_id":"levelo_inurba_marseille","lat":43.26036,"lon":5.37552,"is_reserved":false,"is_disabled":false,"rental_uris":{"android":"levelo://app?vid=4650e02f-f60a-4ff2-a214-56837e0e12af","ios":"levelo://app?vid=4650e02f-f60a-4ff2-a214-56837e0e12af"},"vehicle_type_id":"4","last_reported":1762449038,"current_range_meters":10000,"station_id":"ce4bhgh2rcd13ifvqfa0","pricing_plan_id":"cebpf4jnsgd1na2vs0mg"},{"bike_id":"a715c0ef-3857-414c-967a-b5d1a542eb13","system_id":"levelo_inurba_marseille","lat":43.22534,"lon":5.34827,"is_reserved":false,"is_disabled":false,"rental_uris":{"android":"levelo://app?vid=a715c0ef-3857-414c-967a-b5d1a542eb13","ios":"levelo://app?vid=a715c0ef-3857-414c-967a-b5d1a542eb13"},"vehicle_type_id":"4","last_reported":1762449038,"current_range_meters":10000,"station_id":"","pricing_plan_id":"cebpf4jnsgd1na2vs0mg"},{"bike_id":"2b2ab16d-753b-41be-b7c0-94f4be36356c","system_id":"levelo_inurba_marseille","lat":43.23795,"lon":5.3664,"is_reserved":false,"is_disabled":false,"rental_uris":{"android":"levelo://app?vid=2b2ab16d-753b-41be-b7c0-94f4be36356c","ios":"levelo://app?vid=2b2ab16d-753b-41be-b7c0-94f4be36356c"},"vehicle_type_id":"4","last_reported":1762449038,"current_range_meters":10000,"station_id":"st_d3nk18o9ro0c73en2l3g","pricing_plan_id":"cebpf4jnsgd1na2vs0mg"},{"bike_id":"403170e3-dd2c-4b20-b12f-8cd8ee70c37d","system_id":"levelo_inurba_marseille","lat":43.30886,"lon":5.39627,"is_reserved":false,"is_disabled":false,"rental_uris":{"android":"levelo://app?vid=403170e3-dd2c-4b20-b12f-8cd8ee70c37d","ios":"levelo://app?vid=403170e3-dd2c-4b20-b12f-8cd8ee70c37d"},"vehicle_type_id":"4","last_reported":1762449038,"current_range_meters":10000,"station_id":"ce4bh012rcd13ifvqcv0","pricing_plan_id":"cebpf4jnsgd1na2vs0mg"},{"bike_id":"7573b0ce-2bea-4f9b-b8d0-df9704e404a1","system_id":"levelo_inurba_marseille","lat":43.337444,"lon":5.374475,"is_reserved":false,"is_disabled":false,"rental_uris":{"android":"levelo://app?vid=7573b0ce-2bea-4f9b-b8d0-df9704e404a1","ios":"levelo://app?vid=7573b0ce-2bea-4f9b-b8d0-df9704e404a1"},"vehicle_type_id":"4","last_reported":1762449038,"current_range_meters":10000,"station_id":"","pricing_plan_id":"cebpf4jnsgd1na2vs0mg"},{"bike_id":"78a2ab8f-4f7c-4ddc-9701-1001c917a1ce","system_id":"levelo_inurba_marseille","lat":43.285385,"lon":5.441005,"is_reserved":false,"is_disabled":false,"rental_uris":{"android":"levelo://app?vid=78a2ab8f-4f7c-4ddc-9701-1001c917a1ce","ios":"levelo://app?vid=78a2ab8f-4f7c-4ddc-9701-1001c917a1ce"},"vehicle_type_id":"4","last_reported":1762449038,"current_range_meters":10000,"station_id":"st_d3j3df2ikq2c7380ej80","pricing_plan_id":"cebpf4jnsgd1na2vs0mg"},{"bike_id":"dd9dd3ba-f841-4d2a-b206-9ab2184df950","system_id":"levelo_inurba_marseille","lat":43.29134,"lon":5.37078,"is_reserved":false,"is_disabled":false,"rental_uris":{"android":"levelo://app?vid=dd9dd3ba-f841-4d2a-b206-9ab2184df950","ios":"levelo://app?vid=dd9dd3ba-f841-4d2a-b206-9ab2184df950"},"vehicle_type_id":"4","last_reported":1762449038,"current_range_meters":10800,"station_id":"","pricing_plan_id":"cebpf4jnsgd1na2vs0mg"},{"bike_id":"f0dc7254-913b-4960-b9a0-67e32f447551","system_id":"levelo_inurba_marseille","lat":43.29285,"lon":5.37444,"is_reserved":false,"is_disabled":false,"rental_uris":{"android":"levelo://app?vid=f0dc7254-913b-4960-b9a0-67e32f447551","ios":"levelo://app?vid=f0dc7254-913b-4960-b9a0-67e32f447551"},"vehicle_type_id":"4","last_reported":1762449038,"current_range_meters":10800,"station_id":"ce4bgi12rcd13ifvqb70","pricing_plan_id":"cebpf4jnsgd1na2vs0mg"},{"bike_id":"2609ce9a-9928-4dab-b0d4-bafbf43c3f80","system_id":"levelo_inurba_marseille","lat":43.31309,"lon":5.39709,"is_reserved":false,"is_disabled":false,"rental_uris":{"android":"levelo://app?vid=2609ce9a-9928-4dab-b0d4-bafbf43c3f80","ios":"levelo://app?vid=2609ce9a-9928-4dab-b0d4-bafbf43c3f80"},"vehicle_type_id":"4","last_reported":1762449038,"current_range_meters":10800,"station_id":"ce4bgvp2rcd13ifvqcu0","pricing_plan_id":"cebpf4jnsgd1na2vs0mg"},{"bike_id":"6e9601c8-3a9b-4c4f-8a50-e778f7d9a229","system_id":"levelo_inurba_marseille","lat":43.29937,"lon":5.3656,"is_reserved":false,"is_disabled":false,"rental_uris":{"android":"levelo://app?vid=6e9601c8-3a9b-4c4f-8a50-e778f7d9a229","ios":"levelo://app?vid=6e9601c8-3a9b-4c4f-8a50-e778f7d9a229"},"vehicle_type_id":"4","last_reported":1762449038,"current_range_meters":11200,"station_id":"ce4bgm92rcd13ifvqbr0","pricing_plan_id":"cebpf4jnsgd1na2vs0mg"},{"bike_id":"0c1a36b3-f92a-4714-8964-548e61ed4d4a","system_id":"levelo_inurba_marseille","lat":43.2926,"lon":5.38443,"is_reserved":false,"is_disabled":false,"rental_uris":{"android":"levelo://app?vid=0c1a36b3-f92a-4714-8964-548e61ed4d4a","ios":"levelo://app?vid=0c1a36b3-f92a-4714-8964-548e61ed4d4a"},"vehicle_type_id":"4","last_reported":1762449038,"current_range_meters":11200,"station_id":"ce4bh692rcd13ifvqea0","pricing_plan_id":"cebpf4jnsgd1na2vs0mg"},{"bike_id":"8d00dbca-b5c1-42d2-89ba-f167016578da","system_id":"levelo_inurba_marseille","lat":43.29842,"lon":5.36277,"is_reserved":false,"is_disabled":false,"rental_uris":{"android":"levelo://app?vid=8d00dbca-b5c1-42d2-89ba-f167016578da","ios":"levelo://app?vid=8d00dbca-b5c1-42d2-89ba-f167016578da"},"vehicle_type_id":"4","last_reported":1762449038,"current_range_meters":11200,"station_id":"ce4bgpp2rcd13ifvqc3g","pricing_plan_id":"cebpf4jnsgd1na2vs0mg"},{"bike_id":"dae30738-204c-4787-a9b5-e056fa94e0c9","system_id":"levelo_inurba_marseille","lat":43.2256,"lon":5.41631,"is_reserved":false,"is_disabled":false,"rental_uris":{"android":"levelo://app?vid=dae30738-204c-4787-a9b5-e056fa94e0c9","ios":"levelo://app?vid=dae30738-204c-4787-a9b5-e056fa94e0c9"},"vehicle_type_id":"4","last_reported":1762449038,"current_range_meters":11200,"station_id":"st_d2o4gvlbi1j2169b742g","pricing_plan_id":"cebpf4jnsgd1na2vs0mg"},{"bike_id":"09ed3eb5-c2d4-4c5e-b9d1-44fb102a0a7e","system_id":"levelo_inurba_marseille","lat":43.22557,"lon":5.4165,"is_reserved":false,"is_disabled":false,"rental_uris":{"android":"levelo://app?vid=09ed3eb5-c2d4-4c5e-b9d1-44fb102a0a7e","ios":"levelo://app?vid=09ed3eb5-c2d4-4c5e-b9d1-44fb102a0a7e"},"vehicle_type_id":"4","last_reported":1762449038,"current_range_meters":11200,"station_id":"st_d2o4gvlbi1j2169b742g","pricing_plan_id":"cebpf4jnsgd1na2vs0mg"},{"bike_id":"1fc9d8fa-d679-4cc2-920a-28002ad654c8","system_id":"levelo_inurba_marseille","lat":43.29038,"lon":5.37574,"is_reserved":false,"is_disabled":false,"rental_uris":{"android":"levelo://app?vid=1fc9d8fa-d679-4cc2-920a-28002ad654c8","ios":"levelo://app?vid=1fc9d8fa-d679-4cc2-920a-28002ad654c8"},"vehicle_type_id":"4","last_reported":1762449038,"current_range_meters":11200,"station_id":"ce4bh692rcd13ifvqe90","pricing_plan_id":"cebpf4jnsgd1na2vs0mg"},{"bike_id":"39c243bb-a405-42fa-b50e-53adb5534ed5","system_id":"levelo_inurba_marseille","lat":43.301401,"lon":5.398669,"is_reserved":false,"is_disabled":false,"rental_uris":{"android":"levelo://app?vid=39c243bb-a405-42fa-b50e-53adb5534ed5","ios":"levelo://app?vid=39c243bb-a405-42fa-b50e-53adb5534ed5"},"vehicle_type_id":"4","last_reported":1762449038,"current_range_meters":11600,"station_id":"ce4bh0h2rcd13ifvqd40","pricing_plan_id":"cebpf4jnsgd1na2vs0mg"},{"bike_id":"cdab2d56-f5f6-4762-a361-0a359c187951","system_id":"levelo_inurba_marseille","lat":43.28091,"lon":5.3786,"is_reserved":false,"is_disabled":false,"rental_uris":{"android":"levelo://app?vid=cdab2d56-f5f6-4762-a361-0a359c187951","ios":"levelo://app?vid=cdab2d56-f5f6-4762-a361-0a359c187951"},"vehicle_type_id":"4","last_reported":1762449038,"current_range_meters":11600,"station_id":"ce4bha12rcd13ifvqee0","pricing_plan_id":"cebpf4jnsgd1na2vs0mg"},{"bike_id":"05bac233-8b70-46d4-a480-f148fb7e8001","system_id":"levelo_inurba_marseille","lat":43.28915,"lon":5.38395,"is_reserved":false,"is_disabled":false,"rental_uris":{"android":"levelo://app?vid=05bac233-8b70-46d4-a480-f148fb7e8001","ios":"levelo://app?vid=05bac233-8b70-46d4-a480-f148fb7e8001"},"vehicle_type_id":"4","last_reported":1762449038,"current_range_meters":11600,"station_id":"ce4bh612rcd13ifvqe6g","pricing_plan_id":"cebpf4jnsgd1na2vs0mg"},{"bike_id":"b4263e8d-f2f5-4e00-8528-97bdba47ed20","system_id":"levelo_inurba_marseille","lat":43.29315,"lon":5.37174,"is_reserved":false,"is_disabled":false,"rental_uris":{"android":"levelo://app?vid=b4263e8d-f2f5-4e00-8528-97bdba47ed20","ios":"levelo://app?vid=b4263e8d-f2f5-4e00-8528-97bdba47ed20"},"vehicle_type_id":"4","last_reported":1762449038,"current_range_meters":11600,"station_id":"ce4bgh92rcd13ifvqb40","pricing_plan_id":"cebpf4jnsgd1na2vs0mg"},{"bike_id":"71967476-752a-4f5e-b222-99c0eea95f39","system_id":"levelo_inurba_marseille","lat":43.3232,"lon":5.38447,"is_reserved":false,"is_disabled":false,"rental_uris":{"android":"levelo://app?vid=71967476-752a-4f5e-b222-99c0eea95f39","ios":"levelo://app?vid=71967476-752a-4f5e-b222-99c0eea95f39"},"vehicle_type_id":"4","last_reported":1762449038,"current_range_meters":11600,"station_id":"","pricing_plan_id":"cebpf4jnsgd1na2vs0mg"},{"bike_id":"864a9729-ce58-4e79-982b-8161767b37d8","system_id":"levelo_inurba_marseille","lat":43.33766,"lon":5.37425,"is_reserved":false,"is_disabled":false,"rental_uris":{"android":"levelo://app?vid=864a9729-ce58-4e79-982b-8161767b37d8","ios":"levelo://app?vid=864a9729-ce58-4e79-982b-8161767b37d8"},"vehicle_type_id":"4","last_reported":1762449038,"current_range_meters":11600,"station_id":"","pricing_plan_id":"cebpf4jnsgd1na2vs0mg"},{"bike_id":"f94d989f-60db-4f42-b90c-28c276f0febe","system_id":"levelo_inurba_marseille","lat":43.301462,"lon":5.380929,"is_reserved":false,"is_disabled":false,"rental_uris":{"android":"levelo://app?vid=f94d989f-60db-4f42-b90c-28c276f0febe","ios":"levelo://app?vid=f94d989f-60db-4f42-b90c-28c276f0febe"},"vehicle_type_id":"4","last_reported":1762449038,"current_range_meters":11600,"station_id":"ce4bgjp2rcd13ifvqbh0","pricing_plan_id":"cebpf4jnsgd1na2vs0mg"},{"bike_id":"a5c3acfa-37e1-4f49-acd1-2ea1fd12c477","system_id":"levelo_inurba_marseille","lat":43.293671,"lon":5.378798,"is_reserved":false,"is_disabled":false,"rental_uris":{"android":"levelo://app?vid=a5c3acfa-37e1-4f49-acd1-2ea1fd12c477","ios":"levelo://app?vid=a5c3acfa-37e1-4f49-acd1-2ea1fd12c477"},"vehicle_type_id":"4","last_reported":1762449038,"current_range_meters":12000,"station_id":"ce4bgjh2rcd13ifvqbf0","pricing_plan_id":"cebpf4jnsgd1na2vs0mg"},{"bike_id":"59b31ef2-3fe3-46e5-b5a5-685f264695ce","system_id":"levelo_inurba_marseille","lat":43.28476,"lon":5.48405,"is_reserved":false,"is_disabled":false,"rental_uris":{"android":"levelo://app?vid=59b31ef2-3fe3-46e5-b5a5-685f264695ce","ios":"levelo://app?vid=59b31ef2-3fe3-46e5-b5a5-685f264695ce"},"vehicle_type_id":"4","last_reported":1762449038,"current_range_meters":12000,"station_id":"","pricing_plan_id":"cebpf4jnsgd1na2vs0mg"},{"bike_id":"3ffe2c7b-f27f-49bd-95c3-0ecfbf0880d2","system_id":"levelo_inurba_marseille","lat":43.30678,"lon":5.38449,"is_reserved":false,"is_disabled":false,"rental_uris":{"android":"levelo://app?vid=3ffe2c7b-f27f-49bd-95c3-0ecfbf0880d2","ios":"levelo://app?vid=3ffe2c7b-f27f-49bd-95c3-0ecfbf0880d2"},"vehicle_type_id":"4","last_reported":1762449038,"current_range_meters":12000,"station_id":"","pricing_plan_id":"cebpf4jnsgd1na2vs0mg"},{"bike_id":"bb24e88c-b2f4-456a-8628-aa2a5f358ac4","system_id":"levelo_inurba_marseille","lat":43.30182,"lon":5.36617,"is_reserved":false,"is_disabled":false,"rental_uris":{"android":"levelo://app?vid=bb24e88c-b2f4-456a-8628-aa2a5f358ac4","ios":"levelo://app?vid=bb24e88c-b2f4-456a-8628-aa2a5f358ac4"},"vehicle_type_id":"4","last_reported":1762449038,"current_range_meters":12000,"station_id":"ce4bgrh2rcd13ifvqc8g","pricing_plan_id":"cebpf4jnsgd1na2vs0mg"},{"bike_id":"8e77a43c-9dc4-47ec-8663-1fc87de25da5","system_id":"levelo_inurba_marseille","lat":43.29789,"lon":5.3811,"is_reserved":false,"is_disabled":false,"rental_uris":{"android":"levelo://app?vid=8e77a43c-9dc4-47ec-8663-1fc87de25da5","ios":"levelo://app?vid=8e77a43c-9dc4-47ec-8663-1fc87de25da5"},"vehicle_type_id":"4","last_reported":1762449038,"current_range_meters":12400,"station_id":"ce4bgip2rcd13ifvqbb0","pricing_plan_id":"cebpf4jnsgd1na2vs0mg"},{"bike_id":"7e7213ec-2249-40ec-b5fd-d1d235238496","system_id":"levelo_inurba_marseille","lat":43.28068,"lon":5.39651,"is_reserved":false,"is_disabled":false,"rental_uris":{"android":"levelo://app?vid=7e7213ec-2249-40ec-b5fd-d1d235238496","ios":"levelo://app?vid=7e7213ec-2249-40ec-b5fd-d1d235238496"},"vehicle_type_id":"4","last_reported":1762449038,"current_range_meters":12400,"station_id":"ce4bho12rcd13ifvqh2g","pricing_plan_id":"cebpf4jnsgd1na2vs0mg"},{"bike_id":"ac034e5a-871e-452b-9658-fd7e70d3f0b2","system_id":"levelo_inurba_marseille","lat":43.29338,"lon":5.37436,"is_reserved":false,"is_disabled":true,"rental_uris":{"android":"levelo://app?vid=ac034e5a-871e-452b-9658-fd7e70d3f0b2","ios":"levelo://app?vid=ac034e5a-871e-452b-9658-fd7e70d3f0b2"},"vehicle_type_id":"4","last_reported":1762449038,"current_range_meters":12800,"station_id":"ce4bgi12rcd13ifvqb70","pricing_plan_id":"cebpf4jnsgd1na2vs0mg"},{"bike_id":"ab3a4d6b-b442-44b9-8f02-c1c222f445ba","system_id":"levelo_inurba_marseille","lat":43.27439,"lon":5.39283,"is_reserved":false,"is_disabled":false,"rental_uris":{"android":"levelo://app?vid=ab3a4d6b-b442-44b9-8f02-c1c222f445ba","ios":"levelo://app?vid=ab3a4d6b-b442-44b9-8f02-c1c222f445ba"},"vehicle_type_id":"4","last_reported":1762449038,"current_range_meters":12800,"station_id":"","pricing_plan_id":"cebpf4jnsgd1na2vs0mg"},{"bike_id":"4e0d28cc-2608-4ce0-8ec4-3a6245490cbd","system_id":"levelo_inurba_marseille","lat":43.2872,"lon":5.36085,"is_reserved":false,"is_disabled":false,"rental_uris":{"android":"levelo://app?vid=4e0d28cc-2608-4ce0-8ec4-3a6245490cbd","ios":"levelo://app?vid=4e0d28cc-2608-4ce0-8ec4-3a6245490cbd"},"vehicle_type_id":"4","last_reported":1762449038,"current_range_meters":12800,"station_id":"cki0cbj6b192h4jlfktg","pricing_plan_id":"cebpf4jnsgd1na2vs0mg"},{"bike_id":"e3ac346c-0805-4945-ad7e-2886590e1e41","system_id":"levelo_inurba_marseille","lat":43.24949,"lon":5.40499,"is_reserved":false,"is_disabled":false,"rental_uris":{"android":"levelo://app?vid=e3ac346c-0805-4945-ad7e-2886590e1e41","ios":"levelo://app?vid=e3ac346c-0805-4945-ad7e-2886590e1e41"},"vehicle_type_id":"4","last_reported":1762449038,"current_range_meters":12800,"station_id":"st_d2ngiaodas8pm72gd1h0","pricing_plan_id":"cebpf4jnsgd1na2vs0mg"},{"bike_id":"e5b7a6a7-d553-4b7e-8e86-265ea393fc63","system_id":"levelo_inurba_marseille","lat":43.29023,"lon":5.38141,"is_reserved":false,"is_disabled":false,"rental_uris":{"android":"levelo://app?vid=e5b7a6a7-d553-4b7e-8e86-265ea393fc63","ios":"levelo://app?vid=e5b7a6a7-d553-4b7e-8e86-265ea393fc63"},"vehicle_type_id":"4","last_reported":1762449038,"current_range_meters":12800,"station_id":"ce4bh4p2rcd13ifvqe1g","pricing_plan_id":"cebpf4jnsgd1na2vs0mg"},{"bike_id":"cdca9be0-e7ef-4f81-9bc7-a6f0802db29d","system_id":"levelo_inurba_marseille","lat":43.25,"lon":5.389204,"is_reserved":false,"is_disabled":false,"rental_uris":{"android":"levelo://app?vid=cdca9be0-e7ef-4f81-9bc7-a6f0802db29d","ios":"levelo://app?vid=cdca9be0-e7ef-4f81-9bc7-a6f0802db29d"},"vehicle_type_id":"4","last_reported":1762449038,"current_range_meters":13600,"station_id":"ce4bhgp2rcd13ifvqfd0","pricing_plan_id":"cebpf4jnsgd1na2vs0mg"},{"bike_id":"62108f50-122e-4e55-b472-d8dccec44f91","system_id":"levelo_inurba_marseille","lat":43.2952,"lon":5.39403,"is_reserved":false,"is_disabled":false,"rental_uris":{"android":"levelo://app?vid=62108f50-122e-4e55-b472-d8dccec44f91","ios":"levelo://app?vid=62108f50-122e-4e55-b472-d8dccec44f91"},"vehicle_type_id":"4","last_reported":1762449038,"current_range_meters":13600,"station_id":"ce4bh292rcd13ifvqdf0","pricing_plan_id":"cebpf4jnsgd1na2vs0mg"},{"bike_id":"b565574a-9bdf-4792-b451-221643610acf","system_id":"levelo_inurba_marseille","lat":43.22508,"lon":5.34904,"is_reserved":false,"is_disabled":false,"rental_uris":{"android":"levelo://app?vid=b565574a-9bdf-4792-b451-221643610acf","ios":"levelo://app?vid=b565574a-9bdf-4792-b451-221643610acf"},"vehicle_type_id":"4","last_reported":1762449038,"current_range_meters":13600,"station_id":"","pricing_plan_id":"cebpf4jnsgd1na2vs0mg"},{"bike_id":"ab9b2bcc-ea75-449d-adbb-4add292d38c4","system_id":"levelo_inurba_marseille","lat":43.3405,"lon":5.38253,"is_reserved":false,"is_disabled":false,"rental_uris":{"android":"levelo://app?vid=ab9b2bcc-ea75-449d-adbb-4add292d38c4","ios":"levelo://app?vid=ab9b2bcc-ea75-449d-adbb-4add292d38c4"},"vehicle_type_id":"4","last_reported":1762449038,"current_range_meters":13600,"station_id":"","pricing_plan_id":"cebpf4jnsgd1na2vs0mg"},{"bike_id":"76bb29b8-40e2-42af-b2d4-2b51e853d022","system_id":"levelo_inurba_marseille","lat":43.27814,"lon":5.40722,"is_reserved":false,"is_disabled":false,"rental_uris":{"android":"levelo://app?vid=76bb29b8-40e2-42af-b2d4-2b51e853d022","ios":"levelo://app?vid=76bb29b8-40e2-42af-b2d4-2b51e853d022"},"vehicle_type_id":"4","last_reported":1762449038,"current_range_meters":13600,"station_id":"ce4bhnh2rcd13ifvqgtg","pricing_plan_id":"cebpf4jnsgd1na2vs0mg"},{"bike_id":"d0581743-e06c-4ad1-9f8a-41b25975ba07","system_id":"levelo_inurba_marseille","lat":43.2982,"lon":5.4406,"is_reserved":false,"is_disabled":false,"rental_uris":{"android":"levelo://app?vid=d0581743-e06c-4ad1-9f8a-41b25975ba07","ios":"levelo://app?vid=d0581743-e06c-4ad1-9f8a-41b25975ba07"},"vehicle_type_id":"4","last_reported":1762449038,"current_range_meters":13600,"station_id":"st_d3jp68qikq2c7381ktn0","pricing_plan_id":"cebpf4jnsgd1na2vs0mg"},{"bike_id":"f0162dd0-493e-4789-b7c3-cabd55d30c5f","system_id":"levelo_inurba_marseille","lat":43.32456,"lon":5.36574,"is_reserved":false,"is_disabled":false,"rental_uris":{"android":"levelo://app?vid=f0162dd0-493e-4789-b7c3-cabd55d30c5f","ios":"levelo://app?vid=f0162dd0-493e-4789-b7c3-cabd55d30c5f"},"vehicle_type_id":"4","last_reported":1762449038,"current_range_meters":13600,"station_id":"ce4bhs12rcd13ifvqhvg","pricing_plan_id":"cebpf4jnsgd1na2vs0mg"},{"bike_id":"93fdce70-ebd3-4171-95a1-c27d6d292d8a","system_id":"levelo_inurba_marseille","lat":43.28038,"lon":5.36947,"is_reserved":false,"is_disabled":false,"rental_uris":{"android":"levelo://app?vid=93fdce70-ebd3-4171-95a1-c27d6d292d8a","ios":"levelo://app?vid=93fdce70-ebd3-4171-95a1-c27d6d292d8a"},"vehicle_type_id":"4","last_reported":1762449038,"current_range_meters":13600,"station_id":"ce4bha12rcd13ifvqef0","pricing_plan_id":"cebpf4jnsgd1na2vs0mg"},{"bike_id":"46fe2783-a355-454f-ae46-be492fa224af","system_id":"levelo_inurba_marseille","lat":43.28938,"lon":5.36403,"is_reserved":false,"is_disabled":false,"rental_uris":{"android":"levelo://app?vid=46fe2783-a355-454f-ae46-be492fa224af","ios":"levelo://app?vid=46fe2783-a355-454f-ae46-be492fa224af"},"vehicle_type_id":"4","last_reported":1762449038,"current_range_meters":13600,"station_id":"ce4bhc92rcd13ifvqetg","pricing_plan_id":"cebpf4jnsgd1na2vs0mg"},{"bike_id":"8d52ea93-c1b3-4c53-844e-a20efd913cd8","system_id":"levelo_inurba_marseille","lat":43.246492,"lon":5.38891,"is_reserved":false,"is_disabled":false,"rental_uris":{"android":"levelo://app?vid=8d52ea93-c1b3-4c53-844e-a20efd913cd8","ios":"levelo://app?vid=8d52ea93-c1b3-4c53-844e-a20efd913cd8"},"vehicle_type_id":"4","last_reported":1762449038,"current_range_meters":13600,"station_id":"ce4bhg12rcd13ifvqf60","pricing_plan_id":"cebpf4jnsgd1na2vs0mg"},{"bike_id":"90fb8975-4c34-4228-869a-efb507d720cf","system_id":"levelo_inurba_marseille","lat":43.27483,"lon":5.42467,"is_reserved":false,"is_disabled":false,"rental_uris":{"android":"levelo://app?vid=90fb8975-4c34-4228-869a-efb507d720cf","ios":"levelo://app?vid=90fb8975-4c34-4228-869a-efb507d720cf"},"vehicle_type_id":"4","last_reported":1762449038,"current_range_meters":14000,"station_id":"ce4bhn92rcd13ifvqgrg","pricing_plan_id":"cebpf4jnsgd1na2vs0mg"},{"bike_id":"55ff4a49-6e4a-4d71-80e6-a9d0ecea7ce9","system_id":"levelo_inurba_marseille","lat":43.287,"lon":5.37397,"is_reserved":false,"is_disabled":false,"rental_uris":{"android":"levelo://app?vid=55ff4a49-6e4a-4d71-80e6-a9d0ecea7ce9","ios":"levelo://app?vid=55ff4a49-6e4a-4d71-80e6-a9d0ecea7ce9"},"vehicle_type_id":"4","last_reported":1762449038,"current_range_meters":14000,"station_id":"ce4bh3p2rcd13ifvqdq0","pricing_plan_id":"cebpf4jnsgd1na2vs0mg"},{"bike_id":"1325040d-fbf5-40a6-8210-0cbf7c277ee5","system_id":"levelo_inurba_marseille","lat":43.2649,"lon":5.39539,"is_reserved":false,"is_disabled":false,"rental_uris":{"android":"levelo://app?vid=1325040d-fbf5-40a6-8210-0cbf7c277ee5","ios":"levelo://app?vid=1325040d-fbf5-40a6-8210-0cbf7c277ee5"},"vehicle_type_id":"4","last_reported":1762449038,"current_range_meters":14000,"station_id":"ce4bhi12rcd13ifvqfq0","pricing_plan_id":"cebpf4jnsgd1na2vs0mg"},{"bike_id":"319ffc4e-7711-40e6-a5bd-4d90d7a995da","system_id":"levelo_inurba_marseille","lat":43.31088,"lon":5.4243,"is_reserved":false,"is_disabled":false,"rental_uris":{"android":"levelo://app?vid=319ffc4e-7711-40e6-a5bd-4d90d7a995da","ios":"levelo://app?vid=319ffc4e-7711-40e6-a5bd-4d90d7a995da"},"vehicle_type_id":"4","last_reported":1762449038,"current_range_meters":14000,"station_id":"ce4bhp92rcd13ifvqhag","pricing_plan_id":"cebpf4jnsgd1na2vs0mg"},{"bike_id":"be1b7314-ccf5-4de1-b732-e92a01cb7756","system_id":"levelo_inurba_marseille","lat":43.30131,"lon":5.39875,"is_reserved":false,"is_disabled":false,"rental_uris":{"android":"levelo://app?vid=be1b7314-ccf5-4de1-b732-e92a01cb7756","ios":"levelo://app?vid=be1b7314-ccf5-4de1-b732-e92a01cb7756"},"vehicle_type_id":"4","last_reported":1762449038,"current_range_meters":14400,"station_id":"ce4bh0h2rcd13ifvqd40","pricing_plan_id":"cebpf4jnsgd1na2vs0mg"},{"bike_id":"33ae4984-5f12-485a-9589-62afcaed0591","system_id":"levelo_inurba_marseille","lat":43.291268,"lon":5.408029,"is_reserved":false,"is_disabled":false,"rental_uris":{"android":"levelo://app?vid=33ae4984-5f12-485a-9589-62afcaed0591","ios":"levelo://app?vid=33ae4984-5f12-485a-9589-62afcaed0591"},"vehicle_type_id":"4","last_reported":1762449038,"current_range_meters":14400,"station_id":"","pricing_plan_id":"cebpf4jnsgd1na2vs0mg"},{"bike_id":"bdb6bbd9-55b9-4a62-92f3-9d9c3a1f45fb","system_id":"levelo_inurba_marseille","lat":43.27915,"lon":5.38014,"is_reserved":false,"is_disabled":false,"rental_uris":{"android":"levelo://app?vid=bdb6bbd9-55b9-4a62-92f3-9d9c3a1f45fb","ios":"levelo://app?vid=bdb6bbd9-55b9-4a62-92f3-9d9c3a1f45fb"},"vehicle_type_id":"4","last_reported":1762449038,"current_range_meters":14400,"station_id":"ce4bhf92rcd13ifvqf50","pricing_plan_id":"cebpf4jnsgd1na2vs0mg"},{"bike_id":"40ca7ce3-7a0f-4891-aa48-499278bd7bfd","system_id":"levelo_inurba_marseille","lat":43.295738,"lon":5.399765,"is_reserved":false,"is_disabled":false,"rental_uris":{"android":"levelo://app?vid=40ca7ce3-7a0f-4891-aa48-499278bd7bfd","ios":"levelo://app?vid=40ca7ce3-7a0f-4891-aa48-499278bd7bfd"},"vehicle_type_id":"4","last_reported":1762449038,"current_range_meters":14400,"station_id":"ce4bh312rcd13ifvqdj0","pricing_plan_id":"cebpf4jnsgd1na2vs0mg"},{"bike_id":"9328fd89-349b-4ba0-95e4-f4bbb0451d35","system_id":"levelo_inurba_marseille","lat":43.30161,"lon":5.3809,"is_reserved":false,"is_disabled":false,"rental_uris":{"android":"levelo://app?vid=9328fd89-349b-4ba0-95e4-f4bbb0451d35","ios":"levelo://app?vid=9328fd89-349b-4ba0-95e4-f4bbb0451d35"},"vehicle_type_id":"4","last_reported":1762449038,"current_range_meters":14800,"station_id":"ce4bgjp2rcd13ifvqbh0","pricing_plan_id":"cebpf4jnsgd1na2vs0mg"},{"bike_id":"1c1406c3-ccbf-4c7e-948d-af3d562996c8","system_id":"levelo_inurba_marseille","lat":43.29814,"lon":5.44063,"is_reserved":false,"is_disabled":false,"rental_uris":{"android":"levelo://app?vid=1c1406c3-ccbf-4c7e-948d-af3d562996c8","ios":"levelo://app?vid=1c1406c3-ccbf-4c7e-948d-af3d562996c8"},"vehicle_type_id":"4","last_reported":1762449038,"current_range_meters":14800,"station_id":"st_d3jp68qikq2c7381ktn0","pricing_plan_id":"cebpf4jnsgd1na2vs0mg"},{"bike_id":"0990d13d-02e1-4e54-9d32-bff81dbbfd6f","system_id":"levelo_inurba_marseille","lat":43.30136,"lon":5.37419,"is_reserved":false,"is_disabled":false,"rental_uris":{"android":"levelo://app?vid=0990d13d-02e1-4e54-9d32-bff81dbbfd6f","ios":"levelo://app?vid=0990d13d-02e1-4e54-9d32-bff81dbbfd6f"},"vehicle_type_id":"4","last_reported":1762449038,"current_range_meters":14800,"station_id":"ce4bgs92rcd13ifvqcc0","pricing_plan_id":"cebpf4jnsgd1na2vs0mg"},{"bike_id":"54a1426f-ab8c-4ef5-b7b1-c239d546b191","system_id":"levelo_inurba_marseille","lat":43.2417,"lon":5.36401,"is_reserved":false,"is_disabled":false,"rental_uris":{"android":"levelo://app?vid=54a1426f-ab8c-4ef5-b7b1-c239d546b191","ios":"levelo://app?vid=54a1426f-ab8c-4ef5-b7b1-c239d546b191"},"vehicle_type_id":"4","last_reported":1762449038,"current_range_meters":14800,"station_id":"cpo36qri1sfpv3e86is0","pricing_plan_id":"cebpf4jnsgd1na2vs0mg"},{"bike_id":"15b54e6d-22a9-4e87-bca1-10f51918d8f7","system_id":"levelo_inurba_marseille","lat":43.2416,"lon":5.3972,"is_reserved":false,"is_disabled":false,"rental_uris":{"android":"levelo://app?vid=15b54e6d-22a9-4e87-bca1-10f51918d8f7","ios":"levelo://app?vid=15b54e6d-22a9-4e87-bca1-10f51918d8f7"},"vehicle_type_id":"4","last_reported":1762449038,"current_range_meters":14800,"station_id":"ce4bhn12rcd13ifvqgpg","pricing_plan_id":"cebpf4jnsgd1na2vs0mg"},{"bike_id":"97dc0ca8-407a-41f8-a449-5ecd65e5e0e3","system_id":"levelo_inurba_marseille","lat":43.24658,"lon":5.389,"is_reserved":false,"is_disabled":false,"rental_uris":{"android":"levelo://app?vid=97dc0ca8-407a-41f8-a449-5ecd65e5e0e3","ios":"levelo://app?vid=97dc0ca8-407a-41f8-a449-5ecd65e5e0e3"},"vehicle_type_id":"4","last_reported":1762449038,"current_range_meters":14800,"station_id":"ce4bhg12rcd13ifvqf60","pricing_plan_id":"cebpf4jnsgd1na2vs0mg"},{"bike_id":"24e2a0b1-a4d5-4f1b-abbb-aa22e0fbb736","system_id":"levelo_inurba_marseille","lat":43.231482,"lon":5.437069,"is_reserved":false,"is_disabled":false,"rental_uris":{"android":"levelo://app?vid=24e2a0b1-a4d5-4f1b-abbb-aa22e0fbb736","ios":"levelo://app?vid=24e2a0b1-a4d5-4f1b-abbb-aa22e0fbb736"},"vehicle_type_id":"4","last_reported":1762449038,"current_range_meters":15200,"station_id":"ce4bhmp2rcd13ifvqgog","pricing_plan_id":"cebpf4jnsgd1na2vs0mg"},{"bike_id":"1e89aa19-8456-4398-b70e-ce2874dd6d89","system_id":"levelo_inurba_marseille","lat":43.21555,"lon":5.34464,"is_reserved":false,"is_disabled":false,"rental_uris":{"android":"levelo://app?vid=1e89aa19-8456-4398-b70e-ce2874dd6d89","ios":"levelo://app?vid=1e89aa19-8456-4398-b70e-ce2874dd6d89"},"vehicle_type_id":"4","last_reported":1762449038,"current_range_meters":15200,"station_id":"","pricing_plan_id":"cebpf4jnsgd1na2vs0mg"},{"bike_id":"43cfab9e-f547-4304-9999-4a8329474751","system_id":"levelo_inurba_marseille","lat":43.21188,"lon":5.35076,"is_reserved":false,"is_disabled":false,"rental_uris":{"android":"levelo://app?vid=43cfab9e-f547-4304-9999-4a8329474751","ios":"levelo://app?vid=43cfab9e-f547-4304-9999-4a8329474751"},"vehicle_type_id":"4","last_reported":1762449038,"current_range_meters":15200,"station_id":"st_cvj6sg6p6f1abm77japg","pricing_plan_id":"cebpf4jnsgd1na2vs0mg"},{"bike_id":"4a440a57-1f4b-45b1-ae85-351b9b3e414d","system_id":"levelo_inurba_marseille","lat":43.27369,"lon":5.36261,"is_reserved":false,"is_disabled":false,"rental_uris":{"android":"levelo://app?vid=4a440a57-1f4b-45b1-ae85-351b9b3e414d","ios":"levelo://app?vid=4a440a57-1f4b-45b1-ae85-351b9b3e414d"},"vehicle_type_id":"4","last_reported":1762449038,"current_range_meters":15200,"station_id":"ce4bhbh2rcd13ifvqeo0","pricing_plan_id":"cebpf4jnsgd1na2vs0mg"},{"bike_id":"6b965bfc-884a-484d-88c5-749454f2331e","system_id":"levelo_inurba_marseille","lat":43.27491,"lon":5.42469,"is_reserved":false,"is_disabled":true,"rental_uris":{"android":"levelo://app?vid=6b965bfc-884a-484d-88c5-749454f2331e","ios":"levelo://app?vid=6b965bfc-884a-484d-88c5-749454f2331e"},"vehicle_type_id":"4","last_reported":1762449038,"current_range_meters":15200,"station_id":"ce4bhn92rcd13ifvqgrg","pricing_plan_id":"cebpf4jnsgd1na2vs0mg"},{"bike_id":"50240306-a2a0-43f4-94e9-3211133f58d6","system_id":"levelo_inurba_marseille","lat":43.281088,"lon":5.378316,"is_reserved":false,"is_disabled":false,"rental_uris":{"android":"levelo://app?vid=50240306-a2a0-43f4-94e9-3211133f58d6","ios":"levelo://app?vid=50240306-a2a0-43f4-94e9-3211133f58d6"},"vehicle_type_id":"4","last_reported":1762449038,"current_range_meters":16000,"station_id":"ce4bha12rcd13ifvqee0","pricing_plan_id":"cebpf4jnsgd1na2vs0mg"},{"bike_id":"06f25dea-ca18-4cca-a251-573298dd6aba","system_id":"levelo_inurba_marseille","lat":43.32102,"lon":5.36785,"is_reserved":false,"is_disabled":false,"rental_uris":{"android":"levelo://app?vid=06f25dea-ca18-4cca-a251-573298dd6aba","ios":"levelo://app?vid=06f25dea-ca18-4cca-a251-573298dd6aba"},"vehicle_type_id":"4","last_reported":1762449038,"current_range_meters":16000,"station_id":"ce4bhrh2rcd13ifvqhug","pricing_plan_id":"cebpf4jnsgd1na2vs0mg"},{"bike_id":"01eed466-66d3-43b6-acb9-94704c7a5d64","system_id":"levelo_inurba_marseille","lat":43.29792,"lon":5.37905,"is_reserved":false,"is_disabled":false,"rental_uris":{"android":"levelo://app?vid=01eed466-66d3-43b6-acb9-94704c7a5d64","ios":"levelo://app?vid=01eed466-66d3-43b6-acb9-94704c7a5d64"},"vehicle_type_id":"4","last_reported":1762449038,"current_range_meters":16000,"station_id":"","pricing_plan_id":"cebpf4jnsgd1na2vs0mg"},{"bike_id":"d40b73b5-bd6e-44b3-8a71-c6b99a5293e6","system_id":"levelo_inurba_marseille","lat":43.28078,"lon":5.39667,"is_reserved":false,"is_disabled":false,"rental_uris":{"android":"levelo://app?vid=d40b73b5-bd6e-44b3-8a71-c6b99a5293e6","ios":"levelo://app?vid=d40b73b5-bd6e-44b3-8a71-c6b99a5293e6"},"vehicle_type_id":"4","last_reported":1762449038,"current_range_meters":16000,"station_id":"ce4bho12rcd13ifvqh2g","pricing_plan_id":"cebpf4jnsgd1na2vs0mg"},{"bike_id":"335722df-d2ab-4fd8-bd1a-3588e9165b02","system_id":"levelo_inurba_marseille","lat":43.34142,"lon":5.40902,"is_reserved":false,"is_disabled":false,"rental_uris":{"android":"levelo://app?vid=335722df-d2ab-4fd8-bd1a-3588e9165b02","ios":"levelo://app?vid=335722df-d2ab-4fd8-bd1a-3588e9165b02"},"vehicle_type_id":"4","last_reported":1762449038,"current_range_meters":16000,"station_id":"ce4bhqh2rcd13ifvqhlg","pricing_plan_id":"cebpf4jnsgd1na2vs0mg"},{"bike_id":"e071e82c-cdb6-459f-b22d-eefcbaca951d","system_id":"levelo_inurba_marseille","lat":43.31605,"lon":5.38293,"is_reserved":false,"is_disabled":false,"rental_uris":{"android":"levelo://app?vid=e071e82c-cdb6-459f-b22d-eefcbaca951d","ios":"levelo://app?vid=e071e82c-cdb6-459f-b22d-eefcbaca951d"},"vehicle_type_id":"4","last_reported":1762449038,"current_range_meters":16400,"station_id":"","pricing_plan_id":"cebpf4jnsgd1na2vs0mg"},{"bike_id":"ef860c1c-3e4f-49da-9f52-3ad2e51b444c","system_id":"levelo_inurba_marseille","lat":43.30555,"lon":5.36516,"is_reserved":false,"is_disabled":false,"rental_uris":{"android":"levelo://app?vid=ef860c1c-3e4f-49da-9f52-3ad2e51b444c","ios":"levelo://app?vid=ef860c1c-3e4f-49da-9f52-3ad2e51b444c"},"vehicle_type_id":"4","last_reported":1762449038,"current_range_meters":16400,"station_id":"ce4bgs12rcd13ifvqcag","pricing_plan_id":"cebpf4jnsgd1na2vs0mg"},{"bike_id":"ea3493ac-549f-4563-8ebc-3496272766af","system_id":"levelo_inurba_marseille","lat":43.25332,"lon":5.42175,"is_reserved":false,"is_disabled":false,"rental_uris":{"android":"levelo://app?vid=ea3493ac-549f-4563-8ebc-3496272766af","ios":"levelo://app?vid=ea3493ac-549f-4563-8ebc-3496272766af"},"vehicle_type_id":"4","last_reported":1762449038,"current_range_meters":16400,"station_id":"st_d2m65c5bi1j21697t3ng","pricing_plan_id":"cebpf4jnsgd1na2vs0mg"},{"bike_id":"cda8ee5f-cad7-4035-b7f0-7ee3b38adda9","system_id":"levelo_inurba_marseille","lat":43.284617,"lon":5.384094,"is_reserved":false,"is_disabled":false,"rental_uris":{"android":"levelo://app?vid=cda8ee5f-cad7-4035-b7f0-7ee3b38adda9","ios":"levelo://app?vid=cda8ee5f-cad7-4035-b7f0-7ee3b38adda9"},"vehicle_type_id":"4","last_reported":1762449038,"current_range_meters":16400,"station_id":"","pricing_plan_id":"cebpf4jnsgd1na2vs0mg"},{"bike_id":"aaad2aa1-50b4-4664-ab28-5814de27dff3","system_id":"levelo_inurba_marseille","lat":43.29029,"lon":5.38649,"is_reserved":false,"is_disabled":false,"rental_uris":{"android":"levelo://app?vid=aaad2aa1-50b4-4664-ab28-5814de27dff3","ios":"levelo://app?vid=aaad2aa1-50b4-4664-ab28-5814de27dff3"},"vehicle_type_id":"4","last_reported":1762449038,"current_range_meters":16400,"station_id":"ce4bh4p2rcd13ifvqe0g","pricing_plan_id":"cebpf4jnsgd1na2vs0mg"},{"bike_id":"b6d6ed38-4c87-427d-b530-709237f9a962","system_id":"levelo_inurba_marseille","lat":43.23156,"lon":5.43736,"is_reserved":false,"is_disabled":false,"rental_uris":{"android":"levelo://app?vid=b6d6ed38-4c87-427d-b530-709237f9a962","ios":"levelo://app?vid=b6d6ed38-4c87-427d-b530-709237f9a962"},"vehicle_type_id":"4","last_reported":1762449038,"current_range_meters":16400,"station_id":"ce4bhmp2rcd13ifvqgog","pricing_plan_id":"cebpf4jnsgd1na2vs0mg"},{"bike_id":"5ef84235-eddd-425b-8be4-c31c46a00271","system_id":"levelo_inurba_marseille","lat":43.24164,"lon":5.3643,"is_reserved":false,"is_disabled":false,"rental_uris":{"android":"levelo://app?vid=5ef84235-eddd-425b-8be4-c31c46a00271","ios":"levelo://app?vid=5ef84235-eddd-425b-8be4-c31c46a00271"},"vehicle_type_id":"4","last_reported":1762449038,"current_range_meters":16400,"station_id":"cpo36qri1sfpv3e86is0","pricing_plan_id":"cebpf4jnsgd1na2vs0mg"},{"bike_id":"0f4ffc77-cafe-489d-b8b6-ccbf6aa9af95","system_id":"levelo_inurba_marseille","lat":43.28605,"lon":5.35113,"is_reserved":false,"is_disabled":false,"rental_uris":{"android":"levelo://app?vid=0f4ffc77-cafe-489d-b8b6-ccbf6aa9af95","ios":"levelo://app?vid=0f4ffc77-cafe-489d-b8b6-ccbf6aa9af95"},"vehicle_type_id":"4","last_reported":1762449038,"current_range_meters":16400,"station_id":"ce4bhch2rcd13ifvqeug","pricing_plan_id":"cebpf4jnsgd1na2vs0mg"},{"bike_id":"0ab43d90-1272-4d3e-93ca-d153c21b67be","system_id":"levelo_inurba_marseille","lat":43.30528,"lon":5.3653,"is_reserved":false,"is_disabled":false,"rental_uris":{"android":"levelo://app?vid=0ab43d90-1272-4d3e-93ca-d153c21b67be","ios":"levelo://app?vid=0ab43d90-1272-4d3e-93ca-d153c21b67be"},"vehicle_type_id":"4","last_reported":1762449038,"current_range_meters":16400,"station_id":"","pricing_plan_id":"cebpf4jnsgd1na2vs0mg"},{"bike_id":"a5173696-5ba0-4fe6-bac5-de4a58477c02","system_id":"levelo_inurba_marseille","lat":43.33776,"lon":5.37469,"is_reserved":false,"is_disabled":false,"rental_uris":{"android":"levelo://app?vid=a5173696-5ba0-4fe6-bac5-de4a58477c02","ios":"levelo://app?vid=a5173696-5ba0-4fe6-bac5-de4a58477c02"},"vehicle_type_id":"4","last_reported":1762449038,"current_range_meters":16800,"station_id":"","pricing_plan_id":"cebpf4jnsgd1na2vs0mg"},{"bike_id":"711b5184-06a1-46c6-b1ad-270408b914a4","system_id":"levelo_inurba_marseille","lat":43.30012,"lon":5.40972,"is_reserved":false,"is_disabled":false,"rental_uris":{"android":"levelo://app?vid=711b5184-06a1-46c6-b1ad-270408b914a4","ios":"levelo://app?vid=711b5184-06a1-46c6-b1ad-270408b914a4"},"vehicle_type_id":"4","last_reported":1762449038,"current_range_meters":16800,"station_id":"","pricing_plan_id":"cebpf4jnsgd1na2vs0mg"},{"bike_id":"735af335-66bf-4340-87fb-78f795989dcc","system_id":"levelo_inurba_marseille","lat":43.298937,"lon":5.382325,"is_reserved":false,"is_disabled":false,"rental_uris":{"android":"levelo://app?vid=735af335-66bf-4340-87fb-78f795989dcc","ios":"levelo://app?vid=735af335-66bf-4340-87fb-78f795989dcc"},"vehicle_type_id":"4","last_reported":1762449038,"current_range_meters":16800,"station_id":"","pricing_plan_id":"cebpf4jnsgd1na2vs0mg"},{"bike_id":"acd11f1f-a797-4d8a-ac97-7cfd85277af2","system_id":"levelo_inurba_marseille","lat":43.229272,"lon":5.353873,"is_reserved":false,"is_disabled":false,"rental_uris":{"android":"levelo://app?vid=acd11f1f-a797-4d8a-ac97-7cfd85277af2","ios":"levelo://app?vid=acd11f1f-a797-4d8a-ac97-7cfd85277af2"},"vehicle_type_id":"4","last_reported":1762449038,"current_range_meters":16800,"station_id":"cpo3532slgdg3j2ikp40","pricing_plan_id":"cebpf4jnsgd1na2vs0mg"},{"bike_id":"28b54568-250f-48ad-b030-25d760bf4abc","system_id":"levelo_inurba_marseille","lat":43.32104,"lon":5.3677,"is_reserved":false,"is_disabled":false,"rental_uris":{"android":"levelo://app?vid=28b54568-250f-48ad-b030-25d760bf4abc","ios":"levelo://app?vid=28b54568-250f-48ad-b030-25d760bf4abc"},"vehicle_type_id":"4","last_reported":1762449038,"current_range_meters":16800,"station_id":"ce4bhrh2rcd13ifvqhug","pricing_plan_id":"cebpf4jnsgd1na2vs0mg"},{"bike_id":"5bee8f0f-57fe-4257-a72a-04a4967570b5","system_id":"levelo_inurba_marseille","lat":43.30046,"lon":5.37716,"is_reserved":false,"is_disabled":false,"rental_uris":{"android":"levelo://app?vid=5bee8f0f-57fe-4257-a72a-04a4967570b5","ios":"levelo://app?vid=5bee8f0f-57fe-4257-a72a-04a4967570b5"},"vehicle_type_id":"4","last_reported":1762449038,"current_range_meters":16800,"station_id":"","pricing_plan_id":"cebpf4jnsgd1na2vs0mg"},{"bike_id":"fa78b530-e94c-4303-9152-5f5df6990fc2","system_id":"levelo_inurba_marseille","lat":43.282436,"lon":5.398308,"is_reserved":false,"is_disabled":false,"rental_uris":{"android":"levelo://app?vid=fa78b530-e94c-4303-9152-5f5df6990fc2","ios":"levelo://app?vid=fa78b530-e94c-4303-9152-5f5df6990fc2"},"vehicle_type_id":"4","last_reported":1762449038,"current_range_meters":16800,"station_id":"","pricing_plan_id":"cebpf4jnsgd1na2vs0mg"},{"bike_id":"7e8b075e-712b-44a9-8508-eea32041c70d","system_id":"levelo_inurba_marseille","lat":43.28931,"lon":5.39634,"is_reserved":false,"is_disabled":false,"rental_uris":{"android":"levelo://app?vid=7e8b075e-712b-44a9-8508-eea32041c70d","ios":"levelo://app?vid=7e8b075e-712b-44a9-8508-eea32041c70d"},"vehicle_type_id":"4","last_reported":1762449038,"current_range_meters":16800,"station_id":"ce4bh3h2rcd13ifvqdn0","pricing_plan_id":"cebpf4jnsgd1na2vs0mg"},{"bike_id":"364e7252-6c8d-481d-b075-6ed46540f13b","system_id":"levelo_inurba_marseille","lat":43.26275,"lon":5.39855,"is_reserved":false,"is_disabled":false,"rental_uris":{"android":"levelo://app?vid=364e7252-6c8d-481d-b075-6ed46540f13b","ios":"levelo://app?vid=364e7252-6c8d-481d-b075-6ed46540f13b"},"vehicle_type_id":"4","last_reported":1762449038,"current_range_meters":17200,"station_id":"","pricing_plan_id":"cebpf4jnsgd1na2vs0mg"},{"bike_id":"91195dc3-7219-4139-a8eb-8e52bb6d271e","system_id":"levelo_inurba_marseille","lat":43.23186,"lon":5.35567,"is_reserved":false,"is_disabled":false,"rental_uris":{"android":"levelo://app?vid=91195dc3-7219-4139-a8eb-8e52bb6d271e","ios":"levelo://app?vid=91195dc3-7219-4139-a8eb-8e52bb6d271e"},"vehicle_type_id":"4","last_reported":1762449038,"current_range_meters":17200,"station_id":"ce4bhu92rcd13ifvqi70","pricing_plan_id":"cebpf4jnsgd1na2vs0mg"},{"bike_id":"f139cdd1-44ec-4b6b-a57a-49ae8d79747a","system_id":"levelo_inurba_marseille","lat":43.27318,"lon":5.39081,"is_reserved":false,"is_disabled":false,"rental_uris":{"android":"levelo://app?vid=f139cdd1-44ec-4b6b-a57a-49ae8d79747a","ios":"levelo://app?vid=f139cdd1-44ec-4b6b-a57a-49ae8d79747a"},"vehicle_type_id":"4","last_reported":1762449038,"current_range_meters":17200,"station_id":"","pricing_plan_id":"cebpf4jnsgd1na2vs0mg"},{"bike_id":"65d83eaf-428a-43cd-a356-ecaed95948ff","system_id":"levelo_inurba_marseille","lat":43.24849,"lon":5.39783,"is_reserved":false,"is_disabled":false,"rental_uris":{"android":"levelo://app?vid=65d83eaf-428a-43cd-a356-ecaed95948ff","ios":"levelo://app?vid=65d83eaf-428a-43cd-a356-ecaed95948ff"},"vehicle_type_id":"4","last_reported":1762449038,"current_range_meters":17200,"station_id":"","pricing_plan_id":"cebpf4jnsgd1na2vs0mg"},{"bike_id":"329070e8-d502-4a6c-b48c-e60c98fc285b","system_id":"levelo_inurba_marseille","lat":43.31263,"lon":5.38934,"is_reserved":false,"is_disabled":false,"rental_uris":{"android":"levelo://app?vid=329070e8-d502-4a6c-b48c-e60c98fc285b","ios":"levelo://app?vid=329070e8-d502-4a6c-b48c-e60c98fc285b"},"vehicle_type_id":"4","last_reported":1762449038,"current_range_meters":17200,"station_id":"","pricing_plan_id":"cebpf4jnsgd1na2vs0mg"},{"bike_id":"4db561fa-0133-449c-a0eb-011343a5bd3a","system_id":"levelo_inurba_marseille","lat":43.2886,"lon":5.42544,"is_reserved":false,"is_disabled":false,"rental_uris":{"android":"levelo://app?vid=4db561fa-0133-449c-a0eb-011343a5bd3a","ios":"levelo://app?vid=4db561fa-0133-449c-a0eb-011343a5bd3a"},"vehicle_type_id":"4","last_reported":1762449038,"current_range_meters":17200,"station_id":"st_d3b462108ojc7389ooeg","pricing_plan_id":"cebpf4jnsgd1na2vs0mg"},{"bike_id":"ec44e195-cde1-4252-aadf-701a64256dd7","system_id":"levelo_inurba_marseille","lat":43.24627,"lon":5.43145,"is_reserved":false,"is_disabled":false,"rental_uris":{"android":"levelo://app?vid=ec44e195-cde1-4252-aadf-701a64256dd7","ios":"levelo://app?vid=ec44e195-cde1-4252-aadf-701a64256dd7"},"vehicle_type_id":"4","last_reported":1762449038,"current_range_meters":17200,"station_id":"st_d2m6c4gdas8pm72e190g","pricing_plan_id":"cebpf4jnsgd1na2vs0mg"},{"bike_id":"4ccea25f-2fc3-4ed4-a980-08ad43f86d65","system_id":"levelo_inurba_marseille","lat":43.26561,"lon":5.40332,"is_reserved":false,"is_disabled":false,"rental_uris":{"android":"levelo://app?vid=4ccea25f-2fc3-4ed4-a980-08ad43f86d65","ios":"levelo://app?vid=4ccea25f-2fc3-4ed4-a980-08ad43f86d65"},"vehicle_type_id":"4","last_reported":1762449038,"current_range_meters":17200,"station_id":"ce4bhmp2rcd13ifvqgng","pricing_plan_id":"cebpf4jnsgd1na2vs0mg"},{"bike_id":"decad613-875f-4e39-a5cc-a2636a2419c6","system_id":"levelo_inurba_marseille","lat":43.2315,"lon":5.43709,"is_reserved":false,"is_disabled":false,"rental_uris":{"android":"levelo://app?vid=decad613-875f-4e39-a5cc-a2636a2419c6","ios":"levelo://app?vid=decad613-875f-4e39-a5cc-a2636a2419c6"},"vehicle_type_id":"4","last_reported":1762449038,"current_range_meters":17200,"station_id":"ce4bhmp2rcd13ifvqgog","pricing_plan_id":"cebpf4jnsgd1na2vs0mg"},{"bike_id":"b3ef1f8f-45a0-41b6-b3fd-960c674e4ba3","system_id":"levelo_inurba_marseille","lat":43.30136,"lon":5.37425,"is_reserved":false,"is_disabled":false,"rental_uris":{"android":"levelo://app?vid=b3ef1f8f-45a0-41b6-b3fd-960c674e4ba3","ios":"levelo://app?vid=b3ef1f8f-45a0-41b6-b3fd-960c674e4ba3"},"vehicle_type_id":"4","last_reported":1762449038,"current_range_meters":17200,"station_id":"ce4bgs92rcd13ifvqcc0","pricing_plan_id":"cebpf4jnsgd1na2vs0mg"},{"bike_id":"d4e9d211-996c-4b4a-819e-c03f71e7b112","system_id":"levelo_inurba_marseille","lat":43.26547,"lon":5.37288,"is_reserved":false,"is_disabled":false,"rental_uris":{"android":"levelo://app?vid=d4e9d211-996c-4b4a-819e-c03f71e7b112","ios":"levelo://app?vid=d4e9d211-996c-4b4a-819e-c03f71e7b112"},"vehicle_type_id":"4","last_reported":1762449038,"current_range_meters":17200,"station_id":"ce4bhg12rcd13ifvqf70","pricing_plan_id":"cebpf4jnsgd1na2vs0mg"},{"bike_id":"55c6a609-9074-4f89-a752-5a65b39a1df5","system_id":"levelo_inurba_marseille","lat":43.3211,"lon":5.36772,"is_reserved":false,"is_disabled":false,"rental_uris":{"android":"levelo://app?vid=55c6a609-9074-4f89-a752-5a65b39a1df5","ios":"levelo://app?vid=55c6a609-9074-4f89-a752-5a65b39a1df5"},"vehicle_type_id":"4","last_reported":1762449038,"current_range_meters":17600,"station_id":"ce4bhrh2rcd13ifvqhug","pricing_plan_id":"cebpf4jnsgd1na2vs0mg"},{"bike_id":"809f7a44-c5b2-41d0-b5fd-761522a121c5","system_id":"levelo_inurba_marseille","lat":43.25579,"lon":5.38247,"is_reserved":false,"is_disabled":false,"rental_uris":{"android":"levelo://app?vid=809f7a44-c5b2-41d0-b5fd-761522a121c5","ios":"levelo://app?vid=809f7a44-c5b2-41d0-b5fd-761522a121c5"},"vehicle_type_id":"4","last_reported":1762449038,"current_range_meters":17600,"station_id":"ce4bhih2rcd13ifvqfs0","pricing_plan_id":"cebpf4jnsgd1na2vs0mg"},{"bike_id":"c8d8b967-cd2b-48d6-8a86-f835c36154a8","system_id":"levelo_inurba_marseille","lat":43.2649,"lon":5.39545,"is_reserved":false,"is_disabled":false,"rental_uris":{"android":"levelo://app?vid=c8d8b967-cd2b-48d6-8a86-f835c36154a8","ios":"levelo://app?vid=c8d8b967-cd2b-48d6-8a86-f835c36154a8"},"vehicle_type_id":"4","last_reported":1762449038,"current_range_meters":17600,"station_id":"ce4bhi12rcd13ifvqfq0","pricing_plan_id":"cebpf4jnsgd1na2vs0mg"},{"bike_id":"ada7c068-07f5-4885-8cb5-5c4f9b537ace","system_id":"levelo_inurba_marseille","lat":43.23139,"lon":5.43712,"is_reserved":false,"is_disabled":false,"rental_uris":{"android":"levelo://app?vid=ada7c068-07f5-4885-8cb5-5c4f9b537ace","ios":"levelo://app?vid=ada7c068-07f5-4885-8cb5-5c4f9b537ace"},"vehicle_type_id":"4","last_reported":1762449038,"current_range_meters":17600,"station_id":"ce4bhmp2rcd13ifvqgog","pricing_plan_id":"cebpf4jnsgd1na2vs0mg"},{"bike_id":"781f864f-0610-42a1-8539-b44ad3ca704a","system_id":"levelo_inurba_marseille","lat":43.23201,"lon":5.35536,"is_reserved":false,"is_disabled":false,"rental_uris":{"android":"levelo://app?vid=781f864f-0610-42a1-8539-b44ad3ca704a","ios":"levelo://app?vid=781f864f-0610-42a1-8539-b44ad3ca704a"},"vehicle_type_id":"4","last_reported":1762449038,"current_range_meters":17600,"station_id":"ce4bhu92rcd13ifvqi70","pricing_plan_id":"cebpf4jnsgd1na2vs0mg"},{"bike_id":"7c8627a5-565b-4b37-9dc9-7bce13187d0b","system_id":"levelo_inurba_marseille","lat":43.31755,"lon":5.39017,"is_reserved":false,"is_disabled":false,"rental_uris":{"android":"levelo://app?vid=7c8627a5-565b-4b37-9dc9-7bce13187d0b","ios":"levelo://app?vid=7c8627a5-565b-4b37-9dc9-7bce13187d0b"},"vehicle_type_id":"4","last_reported":1762449038,"current_range_meters":17600,"station_id":"ce4bhqp2rcd13ifvqhng","pricing_plan_id":"cebpf4jnsgd1na2vs0mg"},{"bike_id":"f68cdb11-4ad5-494f-8b44-dc318ce342e5","system_id":"levelo_inurba_marseille","lat":43.27817,"lon":5.40699,"is_reserved":false,"is_disabled":false,"rental_uris":{"android":"levelo://app?vid=f68cdb11-4ad5-494f-8b44-dc318ce342e5","ios":"levelo://app?vid=f68cdb11-4ad5-494f-8b44-dc318ce342e5"},"vehicle_type_id":"4","last_reported":1762449038,"current_range_meters":18000,"station_id":"ce4bhnh2rcd13ifvqgtg","pricing_plan_id":"cebpf4jnsgd1na2vs0mg"},{"bike_id":"a88522c2-7f31-460d-8b59-1c10109fed19","system_id":"levelo_inurba_marseille","lat":43.31439,"lon":5.37597,"is_reserved":false,"is_disabled":false,"rental_uris":{"android":"levelo://app?vid=a88522c2-7f31-460d-8b59-1c10109fed19","ios":"levelo://app?vid=a88522c2-7f31-460d-8b59-1c10109fed19"},"vehicle_type_id":"4","last_reported":1762449038,"current_range_meters":18000,"station_id":"","pricing_plan_id":"cebpf4jnsgd1na2vs0mg"},{"bike_id":"09bf8980-9ed9-43ab-90aa-5b1a3de1cc81","system_id":"levelo_inurba_marseille","lat":43.25829,"lon":5.39438,"is_reserved":false,"is_disabled":false,"rental_uris":{"android":"levelo://app?vid=09bf8980-9ed9-43ab-90aa-5b1a3de1cc81","ios":"levelo://app?vid=09bf8980-9ed9-43ab-90aa-5b1a3de1cc81"},"vehicle_type_id":"4","last_reported":1762449038,"current_range_meters":18000,"station_id":"ce4bhip2rcd13ifvqft0","pricing_plan_id":"cebpf4jnsgd1na2vs0mg"},{"bike_id":"d9217edb-2a77-46d2-8c74-1939f00ab8dd","system_id":"levelo_inurba_marseille","lat":43.25093,"lon":5.39518,"is_reserved":false,"is_disabled":false,"rental_uris":{"android":"levelo://app?vid=d9217edb-2a77-46d2-8c74-1939f00ab8dd","ios":"levelo://app?vid=d9217edb-2a77-46d2-8c74-1939f00ab8dd"},"vehicle_type_id":"4","last_reported":1762449038,"current_range_meters":18000,"station_id":"ce4bhm12rcd13ifvqgkg","pricing_plan_id":"cebpf4jnsgd1na2vs0mg"},{"bike_id":"2214147d-b2bc-47a5-8262-b29a2f3cbd90","system_id":"levelo_inurba_marseille","lat":43.28861,"lon":5.42511,"is_reserved":false,"is_disabled":false,"rental_uris":{"android":"levelo://app?vid=2214147d-b2bc-47a5-8262-b29a2f3cbd90","ios":"levelo://app?vid=2214147d-b2bc-47a5-8262-b29a2f3cbd90"},"vehicle_type_id":"4","last_reported":1762449038,"current_range_meters":18000,"station_id":"st_d3b462108ojc7389ooeg","pricing_plan_id":"cebpf4jnsgd1na2vs0mg"},{"bike_id":"ba00a797-bc94-42f1-aba8-9bf207fe458c","system_id":"levelo_inurba_marseille","lat":43.30542,"lon":5.36519,"is_reserved":false,"is_disabled":false,"rental_uris":{"android":"levelo://app?vid=ba00a797-bc94-42f1-aba8-9bf207fe458c","ios":"levelo://app?vid=ba00a797-bc94-42f1-aba8-9bf207fe458c"},"vehicle_type_id":"4","last_reported":1762449038,"current_range_meters":18000,"station_id":"ce4bgs12rcd13ifvqcag","pricing_plan_id":"cebpf4jnsgd1na2vs0mg"},{"bike_id":"b74854bb-0331-417a-801d-fddc45f18697","system_id":"levelo_inurba_marseille","lat":43.337444,"lon":5.374475,"is_reserved":false,"is_disabled":false,"rental_uris":{"android":"levelo://app?vid=b74854bb-0331-417a-801d-fddc45f18697","ios":"levelo://app?vid=b74854bb-0331-417a-801d-fddc45f18697"},"vehicle_type_id":"4","last_reported":1762449038,"current_range_meters":18000,"station_id":"ce4bhi12rcd13ifvqfp0","pricing_plan_id":"cebpf4jnsgd1na2vs0mg"},{"bike_id":"a0268f72-51b3-47c5-a008-fa38e7b7cd0d","system_id":"levelo_inurba_marseille","lat":43.309609,"lon":5.390333,"is_reserved":false,"is_disabled":false,"rental_uris":{"android":"levelo://app?vid=a0268f72-51b3-47c5-a008-fa38e7b7cd0d","ios":"levelo://app?vid=a0268f72-51b3-47c5-a008-fa38e7b7cd0d"},"vehicle_type_id":"4","last_reported":1762449038,"current_range_meters":18800,"station_id":"ce4bh3p2rcd13ifvqdp0","pricing_plan_id":"cebpf4jnsgd1na2vs0mg"},{"bike_id":"0767b797-8806-47e8-9164-d5c7e2e97d33","system_id":"levelo_inurba_marseille","lat":43.301263,"lon":5.374217,"is_reserved":false,"is_disabled":false,"rental_uris":{"android":"levelo://app?vid=0767b797-8806-47e8-9164-d5c7e2e97d33","ios":"levelo://app?vid=0767b797-8806-47e8-9164-d5c7e2e97d33"},"vehicle_type_id":"4","last_reported":1762449038,"current_range_meters":18800,"station_id":"ce4bgs92rcd13ifvqcc0","pricing_plan_id":"cebpf4jnsgd1na2vs0mg"},{"bike_id":"a0780bc9-5bab-46f2-8d08-98e1e3141e80","system_id":"levelo_inurba_marseille","lat":43.30901,"lon":5.36853,"is_reserved":false,"is_disabled":false,"rental_uris":{"android":"levelo://app?vid=a0780bc9-5bab-46f2-8d08-98e1e3141e80","ios":"levelo://app?vid=a0780bc9-5bab-46f2-8d08-98e1e3141e80"},"vehicle_type_id":"4","last_reported":1762449038,"current_range_meters":18800,"station_id":"ce4bgn92rcd13ifvqbvg","pricing_plan_id":"cebpf4jnsgd1na2vs0mg"},{"bike_id":"7edce6bb-4534-4ecb-9202-e0a89a2ae942","system_id":"levelo_inurba_marseille","lat":43.26806,"lon":5.4027,"is_reserved":false,"is_disabled":false,"rental_uris":{"android":"levelo://app?vid=7edce6bb-4534-4ecb-9202-e0a89a2ae942","ios":"levelo://app?vid=7edce6bb-4534-4ecb-9202-e0a89a2ae942"},"vehicle_type_id":"4","last_reported":1762449038,"current_range_meters":18800,"station_id":"ce501612rcd8frsf0b60","pricing_plan_id":"cebpf4jnsgd1na2vs0mg"},{"bike_id":"51b9afea-e3f9-46da-a79d-624b2847ee35","system_id":"levelo_inurba_marseille","lat":43.29927,"lon":5.36605,"is_reserved":false,"is_disabled":false,"rental_uris":{"android":"levelo://app?vid=51b9afea-e3f9-46da-a79d-624b2847ee35","ios":"levelo://app?vid=51b9afea-e3f9-46da-a79d-624b2847ee35"},"vehicle_type_id":"4","last_reported":1762449038,"current_range_meters":18800,"station_id":"ce4bgm92rcd13ifvqbr0","pricing_plan_id":"cebpf4jnsgd1na2vs0mg"},{"bike_id":"c677b586-dbe3-4301-9b4e-19ce9afad917","system_id":"levelo_inurba_marseille","lat":43.31706,"lon":5.37784,"is_reserved":false,"is_disabled":false,"rental_uris":{"android":"levelo://app?vid=c677b586-dbe3-4301-9b4e-19ce9afad917","ios":"levelo://app?vid=c677b586-dbe3-4301-9b4e-19ce9afad917"},"vehicle_type_id":"4","last_reported":1762449038,"current_range_meters":18800,"station_id":"ce4bgth2rcd13ifvqch0","pricing_plan_id":"cebpf4jnsgd1na2vs0mg"},{"bike_id":"1679969c-611f-47e9-9d02-40ff3326d6bf","system_id":"levelo_inurba_marseille","lat":43.299207,"lon":5.374723,"is_reserved":false,"is_disabled":false,"rental_uris":{"android":"levelo://app?vid=1679969c-611f-47e9-9d02-40ff3326d6bf","ios":"levelo://app?vid=1679969c-611f-47e9-9d02-40ff3326d6bf"},"vehicle_type_id":"4","last_reported":1762449038,"current_range_meters":19200,"station_id":"ce4bgjh2rcd13ifvqbg0","pricing_plan_id":"cebpf4jnsgd1na2vs0mg"},{"bike_id":"d08ee228-c2c7-475f-9a3e-386d21e2995f","system_id":"levelo_inurba_marseille","lat":43.28856,"lon":5.42515,"is_reserved":false,"is_disabled":false,"rental_uris":{"android":"levelo://app?vid=d08ee228-c2c7-475f-9a3e-386d21e2995f","ios":"levelo://app?vid=d08ee228-c2c7-475f-9a3e-386d21e2995f"},"vehicle_type_id":"4","last_reported":1762449038,"current_range_meters":19200,"station_id":"st_d3b462108ojc7389ooeg","pricing_plan_id":"cebpf4jnsgd1na2vs0mg"},{"bike_id":"73923697-cbc8-46f5-914d-7f23d51f6ac0","system_id":"levelo_inurba_marseille","lat":43.30209,"lon":5.39465,"is_reserved":false,"is_disabled":false,"rental_uris":{"android":"levelo://app?vid=73923697-cbc8-46f5-914d-7f23d51f6ac0","ios":"levelo://app?vid=73923697-cbc8-46f5-914d-7f23d51f6ac0"},"vehicle_type_id":"4","last_reported":1762449038,"current_range_meters":19200,"station_id":"ce4bh0p2rcd13ifvqd70","pricing_plan_id":"cebpf4jnsgd1na2vs0mg"},{"bike_id":"702b228e-48c7-4846-ad48-f2ad00aac197","system_id":"levelo_inurba_marseille","lat":43.303069,"lon":5.369044,"is_reserved":false,"is_disabled":false,"rental_uris":{"android":"levelo://app?vid=702b228e-48c7-4846-ad48-f2ad00aac197","ios":"levelo://app?vid=702b228e-48c7-4846-ad48-f2ad00aac197"},"vehicle_type_id":"4","last_reported":1762449038,"current_range_meters":19200,"station_id":"ce4bgqh2rcd13ifvqc5g","pricing_plan_id":"cebpf4jnsgd1na2vs0mg"},{"bike_id":"f2ee0327-2532-4f68-9a04-468c09658714","system_id":"levelo_inurba_marseille","lat":43.26561,"lon":5.40328,"is_reserved":false,"is_disabled":false,"rental_uris":{"android":"levelo://app?vid=f2ee0327-2532-4f68-9a04-468c09658714","ios":"levelo://app?vid=f2ee0327-2532-4f68-9a04-468c09658714"},"vehicle_type_id":"4","last_reported":1762449038,"current_range_meters":19200,"station_id":"ce4bhmp2rcd13ifvqgng","pricing_plan_id":"cebpf4jnsgd1na2vs0mg"},{"bike_id":"14bede57-e6c3-42e3-85ea-7147697689db","system_id":"levelo_inurba_marseille","lat":43.249512,"lon":5.404949,"is_reserved":false,"is_disabled":false,"rental_uris":{"android":"levelo://app?vid=14bede57-e6c3-42e3-85ea-7147697689db","ios":"levelo://app?vid=14bede57-e6c3-42e3-85ea-7147697689db"},"vehicle_type_id":"4","last_reported":1762449038,"current_range_meters":19200,"station_id":"st_d2ngiaodas8pm72gd1h0","pricing_plan_id":"cebpf4jnsgd1na2vs0mg"},{"bike_id":"a7628e15-e703-4ea9-b322-ccb8d1addac4","system_id":"levelo_inurba_marseille","lat":43.31487,"lon":5.37301,"is_reserved":false,"is_disabled":false,"rental_uris":{"android":"levelo://app?vid=a7628e15-e703-4ea9-b322-ccb8d1addac4","ios":"levelo://app?vid=a7628e15-e703-4ea9-b322-ccb8d1addac4"},"vehicle_type_id":"4","last_reported":1762449038,"current_range_meters":19200,"station_id":"ce4bgt12rcd13ifvqcd0","pricing_plan_id":"cebpf4jnsgd1na2vs0mg"},{"bike_id":"5557556a-fa8d-4b28-8cca-1df677730186","system_id":"levelo_inurba_marseille","lat":43.25092,"lon":5.40506,"is_reserved":false,"is_disabled":false,"rental_uris":{"android":"levelo://app?vid=5557556a-fa8d-4b28-8cca-1df677730186","ios":"levelo://app?vid=5557556a-fa8d-4b28-8cca-1df677730186"},"vehicle_type_id":"4","last_reported":1762449038,"current_range_meters":19200,"station_id":"","pricing_plan_id":"cebpf4jnsgd1na2vs0mg"},{"bike_id":"3a6b939b-8483-4a00-8652-d825cdd856d7","system_id":"levelo_inurba_marseille","lat":43.22551,"lon":5.41638,"is_reserved":false,"is_disabled":false,"rental_uris":{"android":"levelo://app?vid=3a6b939b-8483-4a00-8652-d825cdd856d7","ios":"levelo://app?vid=3a6b939b-8483-4a00-8652-d825cdd856d7"},"vehicle_type_id":"4","last_reported":1762449038,"current_range_meters":19200,"station_id":"st_d2o4gvlbi1j2169b742g","pricing_plan_id":"cebpf4jnsgd1na2vs0mg"},{"bike_id":"165aff21-73e8-4451-9d3e-5e99dd0c2bd0","system_id":"levelo_inurba_marseille","lat":43.27954,"lon":5.41048,"is_reserved":false,"is_disabled":false,"rental_uris":{"android":"levelo://app?vid=165aff21-73e8-4451-9d3e-5e99dd0c2bd0","ios":"levelo://app?vid=165aff21-73e8-4451-9d3e-5e99dd0c2bd0"},"vehicle_type_id":"4","last_reported":1762449038,"current_range_meters":19200,"station_id":"ce4bhnp2rcd13ifvqh0g","pricing_plan_id":"cebpf4jnsgd1na2vs0mg"},{"bike_id":"9599e800-c0f3-4d1c-ae6f-0370f8960f5c","system_id":"levelo_inurba_marseille","lat":43.321,"lon":5.36797,"is_reserved":false,"is_disabled":false,"rental_uris":{"android":"levelo://app?vid=9599e800-c0f3-4d1c-ae6f-0370f8960f5c","ios":"levelo://app?vid=9599e800-c0f3-4d1c-ae6f-0370f8960f5c"},"vehicle_type_id":"4","last_reported":1762449038,"current_range_meters":19200,"station_id":"ce4bhrh2rcd13ifvqhug","pricing_plan_id":"cebpf4jnsgd1na2vs0mg"},{"bike_id":"bd77fb55-ef5f-4ba5-8d74-b75da74b00ed","system_id":"levelo_inurba_marseille","lat":43.29566,"lon":5.3997,"is_reserved":false,"is_disabled":false,"rental_uris":{"android":"levelo://app?vid=bd77fb55-ef5f-4ba5-8d74-b75da74b00ed","ios":"levelo://app?vid=bd77fb55-ef5f-4ba5-8d74-b75da74b00ed"},"vehicle_type_id":"4","last_reported":1762449038,"current_range_meters":19200,"station_id":"ce4bh312rcd13ifvqdj0","pricing_plan_id":"cebpf4jnsgd1na2vs0mg"},{"bike_id":"c278268f-fbfc-47d2-88c4-1cf41927faa2","system_id":"levelo_inurba_marseille","lat":43.3073,"lon":5.42452,"is_reserved":false,"is_disabled":false,"rental_uris":{"android":"levelo://app?vid=c278268f-fbfc-47d2-88c4-1cf41927faa2","ios":"levelo://app?vid=c278268f-fbfc-47d2-88c4-1cf41927faa2"},"vehicle_type_id":"4","last_reported":1762449038,"current_range_meters":19200,"station_id":"st_cvj6ca6bvosntc0bfgr0","pricing_plan_id":"cebpf4jnsgd1na2vs0mg"},{"bike_id":"401209f9-1098-407a-9275-182f209531f6","system_id":"levelo_inurba_marseille","lat":43.29545,"lon":5.42289,"is_reserved":false,"is_disabled":false,"rental_uris":{"android":"levelo://app?vid=401209f9-1098-407a-9275-182f209531f6","ios":"levelo://app?vid=401209f9-1098-407a-9275-182f209531f6"},"vehicle_type_id":"4","last_reported":1762449038,"current_range_meters":19200,"station_id":"ce4bhph2rcd13ifvqhdg","pricing_plan_id":"cebpf4jnsgd1na2vs0mg"},{"bike_id":"310115a0-7bf2-4a4a-9d53-56bf6918e4d0","system_id":"levelo_inurba_marseille","lat":43.28474,"lon":5.484,"is_reserved":false,"is_disabled":false,"rental_uris":{"android":"levelo://app?vid=310115a0-7bf2-4a4a-9d53-56bf6918e4d0","ios":"levelo://app?vid=310115a0-7bf2-4a4a-9d53-56bf6918e4d0"},"vehicle_type_id":"4","last_reported":1762449038,"current_range_meters":19600,"station_id":"st_d3svhcjqgbts73a3dn0g","pricing_plan_id":"cebpf4jnsgd1na2vs0mg"},{"bike_id":"5853500c-1636-4ee0-9bac-02bc91b70108","system_id":"levelo_inurba_marseille","lat":43.30137,"lon":5.39856,"is_reserved":false,"is_disabled":false,"rental_uris":{"android":"levelo://app?vid=5853500c-1636-4ee0-9bac-02bc91b70108","ios":"levelo://app?vid=5853500c-1636-4ee0-9bac-02bc91b70108"},"vehicle_type_id":"4","last_reported":1762449038,"current_range_meters":19600,"station_id":"ce4bh0h2rcd13ifvqd40","pricing_plan_id":"cebpf4jnsgd1na2vs0mg"},{"bike_id":"4b18c56b-4410-45b0-bd39-2e4be739c205","system_id":"levelo_inurba_marseille","lat":43.32471,"lon":5.36583,"is_reserved":false,"is_disabled":false,"rental_uris":{"android":"levelo://app?vid=4b18c56b-4410-45b0-bd39-2e4be739c205","ios":"levelo://app?vid=4b18c56b-4410-45b0-bd39-2e4be739c205"},"vehicle_type_id":"4","last_reported":1762449038,"current_range_meters":19600,"station_id":"ce4bhs12rcd13ifvqhvg","pricing_plan_id":"cebpf4jnsgd1na2vs0mg"},{"bike_id":"55f1dab9-4e73-4d5a-a5af-9097e35c1bc1","system_id":"levelo_inurba_marseille","lat":43.24954,"lon":5.40498,"is_reserved":false,"is_disabled":false,"rental_uris":{"android":"levelo://app?vid=55f1dab9-4e73-4d5a-a5af-9097e35c1bc1","ios":"levelo://app?vid=55f1dab9-4e73-4d5a-a5af-9097e35c1bc1"},"vehicle_type_id":"4","last_reported":1762449038,"current_range_meters":19600,"station_id":"st_d2ngiaodas8pm72gd1h0","pricing_plan_id":"cebpf4jnsgd1na2vs0mg"},{"bike_id":"14a9a516-5d6c-4018-94fe-ffcfc99a0213","system_id":"levelo_inurba_marseille","lat":43.30139,"lon":5.37425,"is_reserved":false,"is_disabled":false,"rental_uris":{"android":"levelo://app?vid=14a9a516-5d6c-4018-94fe-ffcfc99a0213","ios":"levelo://app?vid=14a9a516-5d6c-4018-94fe-ffcfc99a0213"},"vehicle_type_id":"4","last_reported":1762449038,"current_range_meters":19600,"station_id":"ce4bgs92rcd13ifvqcc0","pricing_plan_id":"cebpf4jnsgd1na2vs0mg"},{"bike_id":"aecb97f5-54bc-4fe4-94cb-ad69643bef71","system_id":"levelo_inurba_marseille","lat":43.28471,"lon":5.38389,"is_reserved":false,"is_disabled":false,"rental_uris":{"android":"levelo://app?vid=aecb97f5-54bc-4fe4-94cb-ad69643bef71","ios":"levelo://app?vid=aecb97f5-54bc-4fe4-94cb-ad69643bef71"},"vehicle_type_id":"4","last_reported":1762449038,"current_range_meters":19600,"station_id":"ce4bh512rcd13ifvqe3g","pricing_plan_id":"cebpf4jnsgd1na2vs0mg"},{"bike_id":"9bec4afe-155d-48d1-a4e6-904550ab93e2","system_id":"levelo_inurba_marseille","lat":43.2956,"lon":5.37518,"is_reserved":false,"is_disabled":false,"rental_uris":{"android":"levelo://app?vid=9bec4afe-155d-48d1-a4e6-904550ab93e2","ios":"levelo://app?vid=9bec4afe-155d-48d1-a4e6-904550ab93e2"},"vehicle_type_id":"4","last_reported":1762449038,"current_range_meters":19600,"station_id":"ce4bgh92rcd13ifvqb50","pricing_plan_id":"cebpf4jnsgd1na2vs0mg"},{"bike_id":"79606fcb-c57e-4cfd-a218-339376c90dd9","system_id":"levelo_inurba_marseille","lat":43.33779,"lon":5.37467,"is_reserved":false,"is_disabled":false,"rental_uris":{"android":"levelo://app?vid=79606fcb-c57e-4cfd-a218-339376c90dd9","ios":"levelo://app?vid=79606fcb-c57e-4cfd-a218-339376c90dd9"},"vehicle_type_id":"4","last_reported":1762449038,"current_range_meters":19600,"station_id":"","pricing_plan_id":"cebpf4jnsgd1na2vs0mg"},{"bike_id":"c6924217-d0bf-4770-b7f2-b216d1636b0e","system_id":"levelo_inurba_marseille","lat":43.27984,"lon":5.38728,"is_reserved":false,"is_disabled":false,"rental_uris":{"android":"levelo://app?vid=c6924217-d0bf-4770-b7f2-b216d1636b0e","ios":"levelo://app?vid=c6924217-d0bf-4770-b7f2-b216d1636b0e"},"vehicle_type_id":"4","last_reported":1762449038,"current_range_meters":19600,"station_id":"ce4bhg12rcd13ifvqf80","pricing_plan_id":"cebpf4jnsgd1na2vs0mg"},{"bike_id":"85f6acdc-81ad-4320-94f8-05d1cf71a9db","system_id":"levelo_inurba_marseille","lat":43.250904,"lon":5.39526,"is_reserved":false,"is_disabled":false,"rental_uris":{"android":"levelo://app?vid=85f6acdc-81ad-4320-94f8-05d1cf71a9db","ios":"levelo://app?vid=85f6acdc-81ad-4320-94f8-05d1cf71a9db"},"vehicle_type_id":"4","last_reported":1762449038,"current_range_meters":19600,"station_id":"ce4bhm12rcd13ifvqgkg","pricing_plan_id":"cebpf4jnsgd1na2vs0mg"},{"bike_id":"c3929a33-012c-4424-8bab-c8c804018fb1","system_id":"levelo_inurba_marseille","lat":43.29065,"lon":5.37174,"is_reserved":false,"is_disabled":false,"rental_uris":{"android":"levelo://app?vid=c3929a33-012c-4424-8bab-c8c804018fb1","ios":"levelo://app?vid=c3929a33-012c-4424-8bab-c8c804018fb1"},"vehicle_type_id":"4","last_reported":1762449038,"current_range_meters":19600,"station_id":"ce4bh5p2rcd13ifvqe4g","pricing_plan_id":"cebpf4jnsgd1na2vs0mg"},{"bike_id":"3ab21f04-3c40-4908-afbe-83e7ca374ea7","system_id":"levelo_inurba_marseille","lat":43.286148,"lon":5.351055,"is_reserved":false,"is_disabled":false,"rental_uris":{"android":"levelo://app?vid=3ab21f04-3c40-4908-afbe-83e7ca374ea7","ios":"levelo://app?vid=3ab21f04-3c40-4908-afbe-83e7ca374ea7"},"vehicle_type_id":"4","last_reported":1762449038,"current_range_meters":20000,"station_id":"ce4bhch2rcd13ifvqeug","pricing_plan_id":"cebpf4jnsgd1na2vs0mg"},{"bike_id":"89a91f04-ec5f-419d-ba7e-0ced18f2d259","system_id":"levelo_inurba_marseille","lat":43.305188,"lon":5.366289,"is_reserved":false,"is_disabled":false,"rental_uris":{"android":"levelo://app?vid=89a91f04-ec5f-419d-ba7e-0ced18f2d259","ios":"levelo://app?vid=89a91f04-ec5f-419d-ba7e-0ced18f2d259"},"vehicle_type_id":"4","last_reported":1762449038,"current_range_meters":20000,"station_id":"","pricing_plan_id":"cebpf4jnsgd1na2vs0mg"},{"bike_id":"de13d42a-6a5a-4ebb-a1cf-c57031a1d135","system_id":"levelo_inurba_marseille","lat":43.3015,"lon":5.38084,"is_reserved":false,"is_disabled":false,"rental_uris":{"android":"levelo://app?vid=de13d42a-6a5a-4ebb-a1cf-c57031a1d135","ios":"levelo://app?vid=de13d42a-6a5a-4ebb-a1cf-c57031a1d135"},"vehicle_type_id":"4","last_reported":1762449038,"current_range_meters":20000,"station_id":"ce4bgjp2rcd13ifvqbh0","pricing_plan_id":"cebpf4jnsgd1na2vs0mg"},{"bike_id":"2b1f2a98-a419-43aa-b7e3-50cfb4d00012","system_id":"levelo_inurba_marseille","lat":43.30307,"lon":5.36889,"is_reserved":false,"is_disabled":false,"rental_uris":{"android":"levelo://app?vid=2b1f2a98-a419-43aa-b7e3-50cfb4d00012","ios":"levelo://app?vid=2b1f2a98-a419-43aa-b7e3-50cfb4d00012"},"vehicle_type_id":"4","last_reported":1762449038,"current_range_meters":20000,"station_id":"ce4bgqh2rcd13ifvqc5g","pricing_plan_id":"cebpf4jnsgd1na2vs0mg"},{"bike_id":"0a693bd9-ea79-409d-9256-4f1db0292c0c","system_id":"levelo_inurba_marseille","lat":43.297071,"lon":5.362925,"is_reserved":false,"is_disabled":false,"rental_uris":{"android":"levelo://app?vid=0a693bd9-ea79-409d-9256-4f1db0292c0c","ios":"levelo://app?vid=0a693bd9-ea79-409d-9256-4f1db0292c0c"},"vehicle_type_id":"4","last_reported":1762449038,"current_range_meters":20000,"station_id":"","pricing_plan_id":"cebpf4jnsgd1na2vs0mg"},{"bike_id":"44d11a68-da92-400c-93ae-66d99a6a6d31","system_id":"levelo_inurba_marseille","lat":43.28006,"lon":5.40018,"is_reserved":false,"is_disabled":false,"rental_uris":{"android":"levelo://app?vid=44d11a68-da92-400c-93ae-66d99a6a6d31","ios":"levelo://app?vid=44d11a68-da92-400c-93ae-66d99a6a6d31"},"vehicle_type_id":"4","last_reported":1762449038,"current_range_meters":20000,"station_id":"ce4bho92rcd13ifvqh4g","pricing_plan_id":"cebpf4jnsgd1na2vs0mg"},{"bike_id":"d2270021-6bf8-44d3-8ee4-7a93247c7a5f","system_id":"levelo_inurba_marseille","lat":43.28615,"lon":5.35107,"is_reserved":false,"is_disabled":false,"rental_uris":{"android":"levelo://app?vid=d2270021-6bf8-44d3-8ee4-7a93247c7a5f","ios":"levelo://app?vid=d2270021-6bf8-44d3-8ee4-7a93247c7a5f"},"vehicle_type_id":"4","last_reported":1762449038,"current_range_meters":20000,"station_id":"ce4bhch2rcd13ifvqeug","pricing_plan_id":"cebpf4jnsgd1na2vs0mg"},{"bike_id":"a24ecaa7-dc5d-4c8e-a910-6021da3d40da","system_id":"levelo_inurba_marseille","lat":43.22555,"lon":5.41642,"is_reserved":false,"is_disabled":false,"rental_uris":{"android":"levelo://app?vid=a24ecaa7-dc5d-4c8e-a910-6021da3d40da","ios":"levelo://app?vid=a24ecaa7-dc5d-4c8e-a910-6021da3d40da"},"vehicle_type_id":"4","last_reported":1762449038,"current_range_meters":20400,"station_id":"st_d2o4gvlbi1j2169b742g","pricing_plan_id":"cebpf4jnsgd1na2vs0mg"},{"bike_id":"22918fb7-a391-4f35-8c21-8eb60e2ab03f","system_id":"levelo_inurba_marseille","lat":43.22551,"lon":5.41641,"is_reserved":false,"is_disabled":false,"rental_uris":{"android":"levelo://app?vid=22918fb7-a391-4f35-8c21-8eb60e2ab03f","ios":"levelo://app?vid=22918fb7-a391-4f35-8c21-8eb60e2ab03f"},"vehicle_type_id":"4","last_reported":1762449038,"current_range_meters":20400,"station_id":"st_d2o4gvlbi1j2169b742g","pricing_plan_id":"cebpf4jnsgd1na2vs0mg"},{"bike_id":"d975e5c1-3a94-457d-8066-9bb046a73e78","system_id":"levelo_inurba_marseille","lat":43.2319,"lon":5.39984,"is_reserved":false,"is_disabled":false,"rental_uris":{"android":"levelo://app?vid=d975e5c1-3a94-457d-8066-9bb046a73e78","ios":"levelo://app?vid=d975e5c1-3a94-457d-8066-9bb046a73e78"},"vehicle_type_id":"4","last_reported":1762449038,"current_range_meters":20400,"station_id":"ce4bhn12rcd13ifvqgqg","pricing_plan_id":"cebpf4jnsgd1na2vs0mg"},{"bike_id":"7fa2016d-25f7-48f2-b00a-5381b1c067b0","system_id":"levelo_inurba_marseille","lat":43.31272,"lon":5.40167,"is_reserved":false,"is_disabled":false,"rental_uris":{"android":"levelo://app?vid=7fa2016d-25f7-48f2-b00a-5381b1c067b0","ios":"levelo://app?vid=7fa2016d-25f7-48f2-b00a-5381b1c067b0"},"vehicle_type_id":"4","last_reported":1762449038,"current_range_meters":20400,"station_id":"ce4bh092rcd13ifvqd30","pricing_plan_id":"cebpf4jnsgd1na2vs0mg"},{"bike_id":"f0bc3f78-8247-434d-b9ec-89fca1027ea4","system_id":"levelo_inurba_marseille","lat":43.27909,"lon":5.395779,"is_reserved":false,"is_disabled":false,"rental_uris":{"android":"levelo://app?vid=f0bc3f78-8247-434d-b9ec-89fca1027ea4","ios":"levelo://app?vid=f0bc3f78-8247-434d-b9ec-89fca1027ea4"},"vehicle_type_id":"4","last_reported":1762449038,"current_range_meters":20400,"station_id":"","pricing_plan_id":"cebpf4jnsgd1na2vs0mg"},{"bike_id":"5b03e0a7-e5b7-4bb1-a15f-78dcdc45fd57","system_id":"levelo_inurba_marseille","lat":43.2315,"lon":5.43719,"is_reserved":false,"is_disabled":false,"rental_uris":{"android":"levelo://app?vid=5b03e0a7-e5b7-4bb1-a15f-78dcdc45fd57","ios":"levelo://app?vid=5b03e0a7-e5b7-4bb1-a15f-78dcdc45fd57"},"vehicle_type_id":"4","last_reported":1762449038,"current_range_meters":20400,"station_id":"ce4bhmp2rcd13ifvqgog","pricing_plan_id":"cebpf4jnsgd1na2vs0mg"},{"bike_id":"a718cc29-6f54-49e3-862a-351d7a32001f","system_id":"levelo_inurba_marseille","lat":43.28466,"lon":5.48399,"is_reserved":false,"is_disabled":false,"rental_uris":{"android":"levelo://app?vid=a718cc29-6f54-49e3-862a-351d7a32001f","ios":"levelo://app?vid=a718cc29-6f54-49e3-862a-351d7a32001f"},"vehicle_type_id":"4","last_reported":1762449038,"current_range_meters":20400,"station_id":"","pricing_plan_id":"cebpf4jnsgd1na2vs0mg"},{"bike_id":"e0667b9e-2ba6-4bcf-a602-dadc17015078","system_id":"levelo_inurba_marseille","lat":43.30422,"lon":5.41275,"is_reserved":false,"is_disabled":false,"rental_uris":{"android":"levelo://app?vid=e0667b9e-2ba6-4bcf-a602-dadc17015078","ios":"levelo://app?vid=e0667b9e-2ba6-4bcf-a602-dadc17015078"},"vehicle_type_id":"4","last_reported":1762449038,"current_range_meters":20800,"station_id":"ce4bhop2rcd13ifvqh8g","pricing_plan_id":"cebpf4jnsgd1na2vs0mg"},{"bike_id":"8aaf6076-9d73-493d-8f8a-b94b200d7fb2","system_id":"levelo_inurba_marseille","lat":43.302098,"lon":5.382026,"is_reserved":false,"is_disabled":false,"rental_uris":{"android":"levelo://app?vid=8aaf6076-9d73-493d-8f8a-b94b200d7fb2","ios":"levelo://app?vid=8aaf6076-9d73-493d-8f8a-b94b200d7fb2"},"vehicle_type_id":"4","last_reported":1762449038,"current_range_meters":20800,"station_id":"ce4bh412rcd13ifvqdr0","pricing_plan_id":"cebpf4jnsgd1na2vs0mg"},{"bike_id":"411bd33d-544c-466a-b305-883b2b978318","system_id":"levelo_inurba_marseille","lat":43.25587,"lon":5.38231,"is_reserved":false,"is_disabled":false,"rental_uris":{"android":"levelo://app?vid=411bd33d-544c-466a-b305-883b2b978318","ios":"levelo://app?vid=411bd33d-544c-466a-b305-883b2b978318"},"vehicle_type_id":"4","last_reported":1762449038,"current_range_meters":20800,"station_id":"ce4bhih2rcd13ifvqfs0","pricing_plan_id":"cebpf4jnsgd1na2vs0mg"},{"bike_id":"9af0687b-3e79-4e11-b844-dd239618aeba","system_id":"levelo_inurba_marseille","lat":43.28867,"lon":5.42514,"is_reserved":false,"is_disabled":false,"rental_uris":{"android":"levelo://app?vid=9af0687b-3e79-4e11-b844-dd239618aeba","ios":"levelo://app?vid=9af0687b-3e79-4e11-b844-dd239618aeba"},"vehicle_type_id":"4","last_reported":1762449038,"current_range_meters":20800,"station_id":"st_d3b462108ojc7389ooeg","pricing_plan_id":"cebpf4jnsgd1na2vs0mg"},{"bike_id":"2d7344b1-0030-4280-b0f6-0a3871e86dd4","system_id":"levelo_inurba_marseille","lat":43.28865,"lon":5.39325,"is_reserved":false,"is_disabled":true,"rental_uris":{"android":"levelo://app?vid=2d7344b1-0030-4280-b0f6-0a3871e86dd4","ios":"levelo://app?vid=2d7344b1-0030-4280-b0f6-0a3871e86dd4"},"vehicle_type_id":"4","last_reported":1762449038,"current_range_meters":20800,"station_id":"ce4bh2p2rcd13ifvqdi0","pricing_plan_id":"cebpf4jnsgd1na2vs0mg"},{"bike_id":"09742958-d3e6-4ec0-b4f0-504594c894d6","system_id":"levelo_inurba_marseille","lat":43.29275,"lon":5.40144,"is_reserved":false,"is_disabled":false,"rental_uris":{"android":"levelo://app?vid=09742958-d3e6-4ec0-b4f0-504594c894d6","ios":"levelo://app?vid=09742958-d3e6-4ec0-b4f0-504594c894d6"},"vehicle_type_id":"4","last_reported":1762449038,"current_range_meters":21600,"station_id":"ce4bh312rcd13ifvqdk0","pricing_plan_id":"cebpf4jnsgd1na2vs0mg"},{"bike_id":"5fce23db-de2a-46ce-8767-afa5d8a24f7d","system_id":"levelo_inurba_marseille","lat":43.29032,"lon":5.39966,"is_reserved":false,"is_disabled":false,"rental_uris":{"android":"levelo://app?vid=5fce23db-de2a-46ce-8767-afa5d8a24f7d","ios":"levelo://app?vid=5fce23db-de2a-46ce-8767-afa5d8a24f7d"},"vehicle_type_id":"4","last_reported":1762449038,"current_range_meters":21600,"station_id":"ce4bh392rcd13ifvqdm0","pricing_plan_id":"cebpf4jnsgd1na2vs0mg"},{"bike_id":"f4a31bd8-b6ca-4d2b-9c79-309bc9179a63","system_id":"levelo_inurba_marseille","lat":43.25488,"lon":5.37678,"is_reserved":false,"is_disabled":false,"rental_uris":{"android":"levelo://app?vid=f4a31bd8-b6ca-4d2b-9c79-309bc9179a63","ios":"levelo://app?vid=f4a31bd8-b6ca-4d2b-9c79-309bc9179a63"},"vehicle_type_id":"4","last_reported":1762449038,"current_range_meters":21600,"station_id":"ce4bhh12rcd13ifvqff0","pricing_plan_id":"cebpf4jnsgd1na2vs0mg"},{"bike_id":"011c8469-4db8-40a3-bf70-1afd53260839","system_id":"levelo_inurba_marseille","lat":43.231916,"lon":5.355461,"is_reserved":false,"is_disabled":false,"rental_uris":{"android":"levelo://app?vid=011c8469-4db8-40a3-bf70-1afd53260839","ios":"levelo://app?vid=011c8469-4db8-40a3-bf70-1afd53260839"},"vehicle_type_id":"4","last_reported":1762449038,"current_range_meters":21600,"station_id":"ce4bhu92rcd13ifvqi70","pricing_plan_id":"cebpf4jnsgd1na2vs0mg"},{"bike_id":"adc728c4-7d88-468c-be89-220c19218372","system_id":"levelo_inurba_marseille","lat":43.32159,"lon":5.37878,"is_reserved":false,"is_disabled":false,"rental_uris":{"android":"levelo://app?vid=adc728c4-7d88-468c-be89-220c19218372","ios":"levelo://app?vid=adc728c4-7d88-468c-be89-220c19218372"},"vehicle_type_id":"4","last_reported":1762449038,"current_range_meters":21600,"station_id":"","pricing_plan_id":"cebpf4jnsgd1na2vs0mg"},{"bike_id":"cbaf6e70-be37-4c92-8bb7-677f9be0a37d","system_id":"levelo_inurba_marseille","lat":43.30123,"lon":5.43119,"is_reserved":false,"is_disabled":false,"rental_uris":{"android":"levelo://app?vid=cbaf6e70-be37-4c92-8bb7-677f9be0a37d","ios":"levelo://app?vid=cbaf6e70-be37-4c92-8bb7-677f9be0a37d"},"vehicle_type_id":"4","last_reported":1762449038,"current_range_meters":21600,"station_id":"st_d3js3co5814s73ftftug","pricing_plan_id":"cebpf4jnsgd1na2vs0mg"},{"bike_id":"101702e2-1b44-4c12-bcf9-5c543e0da166","system_id":"levelo_inurba_marseille","lat":43.321066,"lon":5.367758,"is_reserved":false,"is_disabled":false,"rental_uris":{"android":"levelo://app?vid=101702e2-1b44-4c12-bcf9-5c543e0da166","ios":"levelo://app?vid=101702e2-1b44-4c12-bcf9-5c543e0da166"},"vehicle_type_id":"4","last_reported":1762449038,"current_range_meters":21600,"station_id":"ce4bhrh2rcd13ifvqhug","pricing_plan_id":"cebpf4jnsgd1na2vs0mg"},{"bike_id":"fe792e64-3218-4771-9fcf-718c4ff7df46","system_id":"levelo_inurba_marseille","lat":43.3109,"lon":5.38339,"is_reserved":false,"is_disabled":false,"rental_uris":{"android":"levelo://app?vid=fe792e64-3218-4771-9fcf-718c4ff7df46","ios":"levelo://app?vid=fe792e64-3218-4771-9fcf-718c4ff7df46"},"vehicle_type_id":"4","last_reported":1762449038,"current_range_meters":21600,"station_id":"ce4bgv92rcd13ifvqcr0","pricing_plan_id":"cebpf4jnsgd1na2vs0mg"},{"bike_id":"74bb8ce2-1ec5-4414-94bf-bc4889d1e14c","system_id":"levelo_inurba_marseille","lat":43.32474,"lon":5.39547,"is_reserved":false,"is_disabled":false,"rental_uris":{"android":"levelo://app?vid=74bb8ce2-1ec5-4414-94bf-bc4889d1e14c","ios":"levelo://app?vid=74bb8ce2-1ec5-4414-94bf-bc4889d1e14c"},"vehicle_type_id":"4","last_reported":1762449038,"current_range_meters":21600,"station_id":"","pricing_plan_id":"cebpf4jnsgd1na2vs0mg"},{"bike_id":"8e4d1b5b-b5b9-49d8-8947-f984cd0c32db","system_id":"levelo_inurba_marseille","lat":43.30313,"lon":5.36933,"is_reserved":false,"is_disabled":false,"rental_uris":{"android":"levelo://app?vid=8e4d1b5b-b5b9-49d8-8947-f984cd0c32db","ios":"levelo://app?vid=8e4d1b5b-b5b9-49d8-8947-f984cd0c32db"},"vehicle_type_id":"4","last_reported":1762449038,"current_range_meters":21600,"station_id":"ce4bgqh2rcd13ifvqc5g","pricing_plan_id":"cebpf4jnsgd1na2vs0mg"},{"bike_id":"2c17eeb7-e808-46be-b258-0d75b2e03425","system_id":"levelo_inurba_marseille","lat":43.29599,"lon":5.381021,"is_reserved":false,"is_disabled":false,"rental_uris":{"android":"levelo://app?vid=2c17eeb7-e808-46be-b258-0d75b2e03425","ios":"levelo://app?vid=2c17eeb7-e808-46be-b258-0d75b2e03425"},