{"last_updated":1781249442,"ttl":60,"version":"2.2","data":{"bikes":[{"bike_id":"ec12d144-24c8-4071-abf6-197e520eae96","system_id":"levelo_inurba_marseille","lat":43.337444,"lon":5.374475,"is_reserved":false,"is_disabled":false,"rental_uris":{"android":"levelo://app?vid=ec12d144-24c8-4071-abf6-197e520eae96","ios":"levelo://app?vid=ec12d144-24c8-4071-abf6-197e520eae96"},"vehicle_type_id":"4","last_reported":1781249443,"current_range_meters":0,"station_id":"","pricing_plan_id":"cebpf4jnsgd1na2vs0mg"},{"bike_id":"3472ffc0-2e13-4b1c-9597-5a1a384a74cc","system_id":"levelo_inurba_marseille","lat":43.26792,"lon":5.39466,"is_reserved":false,"is_disabled":false,"rental_uris":{"android":"levelo://app?vid=3472ffc0-2e13-4b1c-9597-5a1a384a74cc","ios":"levelo://app?vid=3472ffc0-2e13-4b1c-9597-5a1a384a74cc"},"vehicle_type_id":"4","last_reported":1781249443,"current_range_meters":400,"station_id":"ce4bhh12rcd13ifvqfg0","pricing_plan_id":"cebpf4jnsgd1na2vs0mg"},{"bike_id":"89c3f86b-f66b-4b83-8042-5f610fdb4aa4","system_id":"levelo_inurba_marseille","lat":43.30741,"lon":5.42452,"is_reserved":false,"is_disabled":false,"rental_uris":{"android":"levelo://app?vid=89c3f86b-f66b-4b83-8042-5f610fdb4aa4","ios":"levelo://app?vid=89c3f86b-f66b-4b83-8042-5f610fdb4aa4"},"vehicle_type_id":"4","last_reported":1781249443,"current_range_meters":400,"station_id":"st_cvj6ca6bvosntc0bfgr0","pricing_plan_id":"cebpf4jnsgd1na2vs0mg"},{"bike_id":"927086f8-7ecb-440b-abaa-181340b16941","system_id":"levelo_inurba_marseille","lat":43.29033,"lon":5.39969,"is_reserved":false,"is_disabled":false,"rental_uris":{"android":"levelo://app?vid=927086f8-7ecb-440b-abaa-181340b16941","ios":"levelo://app?vid=927086f8-7ecb-440b-abaa-181340b16941"},"vehicle_type_id":"4","last_reported":1781249443,"current_range_meters":400,"station_id":"ce4bh392rcd13ifvqdm0","pricing_plan_id":"cebpf4jnsgd1na2vs0mg"},{"bike_id":"e4eaad5d-4588-47de-855a-05ac2c946955","system_id":"levelo_inurba_marseille","lat":43.31384,"lon":5.36684,"is_reserved":false,"is_disabled":false,"rental_uris":{"android":"levelo://app?vid=e4eaad5d-4588-47de-855a-05ac2c946955","ios":"levelo://app?vid=e4eaad5d-4588-47de-855a-05ac2c946955"},"vehicle_type_id":"4","last_reported":1781249443,"current_range_meters":2800,"station_id":"","pricing_plan_id":"cebpf4jnsgd1na2vs0mg"},{"bike_id":"b68ac898-24ec-4e7b-a0ff-9c3ee1c5c114","system_id":"levelo_inurba_marseille","lat":43.30913,"lon":5.368471,"is_reserved":false,"is_disabled":false,"rental_uris":{"android":"levelo://app?vid=b68ac898-24ec-4e7b-a0ff-9c3ee1c5c114","ios":"levelo://app?vid=b68ac898-24ec-4e7b-a0ff-9c3ee1c5c114"},"vehicle_type_id":"4","last_reported":1781249443,"current_range_meters":2800,"station_id":"ce4bgn92rcd13ifvqbvg","pricing_plan_id":"cebpf4jnsgd1na2vs0mg"},{"bike_id":"dd88cf6f-1214-48e8-b095-2f6fbc723758","system_id":"levelo_inurba_marseille","lat":43.29166,"lon":5.37177,"is_reserved":false,"is_disabled":false,"rental_uris":{"android":"levelo://app?vid=dd88cf6f-1214-48e8-b095-2f6fbc723758","ios":"levelo://app?vid=dd88cf6f-1214-48e8-b095-2f6fbc723758"},"vehicle_type_id":"4","last_reported":1781249443,"current_range_meters":2800,"station_id":"ce4bha92rcd13ifvqeh0","pricing_plan_id":"cebpf4jnsgd1na2vs0mg"},{"bike_id":"9c4807a3-37fe-455e-9520-ca7c91b8047f","system_id":"levelo_inurba_marseille","lat":43.29564,"lon":5.37544,"is_reserved":false,"is_disabled":false,"rental_uris":{"android":"levelo://app?vid=9c4807a3-37fe-455e-9520-ca7c91b8047f","ios":"levelo://app?vid=9c4807a3-37fe-455e-9520-ca7c91b8047f"},"vehicle_type_id":"4","last_reported":1781249443,"current_range_meters":2800,"station_id":"ce4bgh92rcd13ifvqb50","pricing_plan_id":"cebpf4jnsgd1na2vs0mg"},{"bike_id":"12ba270c-9254-4a88-8bf7-4c86a4576b2e","system_id":"levelo_inurba_marseille","lat":43.30661,"lon":5.40093,"is_reserved":false,"is_disabled":false,"rental_uris":{"android":"levelo://app?vid=12ba270c-9254-4a88-8bf7-4c86a4576b2e","ios":"levelo://app?vid=12ba270c-9254-4a88-8bf7-4c86a4576b2e"},"vehicle_type_id":"4","last_reported":1781249443,"current_range_meters":2800,"station_id":"ce4bh112rcd13ifvqda0","pricing_plan_id":"cebpf4jnsgd1na2vs0mg"},{"bike_id":"4c0a8f24-ecc0-4345-b630-46ca6846bd78","system_id":"levelo_inurba_marseille","lat":43.29462,"lon":5.38366,"is_reserved":false,"is_disabled":false,"rental_uris":{"android":"levelo://app?vid=4c0a8f24-ecc0-4345-b630-46ca6846bd78","ios":"levelo://app?vid=4c0a8f24-ecc0-4345-b630-46ca6846bd78"},"vehicle_type_id":"4","last_reported":1781249443,"current_range_meters":2800,"station_id":"","pricing_plan_id":"cebpf4jnsgd1na2vs0mg"},{"bike_id":"c80c6026-31d8-4628-9c0f-94d6a8ec15bb","system_id":"levelo_inurba_marseille","lat":43.30539,"lon":5.36541,"is_reserved":false,"is_disabled":false,"rental_uris":{"android":"levelo://app?vid=c80c6026-31d8-4628-9c0f-94d6a8ec15bb","ios":"levelo://app?vid=c80c6026-31d8-4628-9c0f-94d6a8ec15bb"},"vehicle_type_id":"4","last_reported":1781249443,"current_range_meters":2800,"station_id":"ce4bgs12rcd13ifvqcag","pricing_plan_id":"cebpf4jnsgd1na2vs0mg"},{"bike_id":"2342907d-28d7-441e-a79f-1a070462f8e5","system_id":"levelo_inurba_marseille","lat":43.28952,"lon":5.39602,"is_reserved":false,"is_disabled":false,"rental_uris":{"android":"levelo://app?vid=2342907d-28d7-441e-a79f-1a070462f8e5","ios":"levelo://app?vid=2342907d-28d7-441e-a79f-1a070462f8e5"},"vehicle_type_id":"4","last_reported":1781249443,"current_range_meters":2800,"station_id":"ce4bh3h2rcd13ifvqdn0","pricing_plan_id":"cebpf4jnsgd1na2vs0mg"},{"bike_id":"84b6ef24-a4ce-43a4-9ff2-873f8b9a2cb8","system_id":"levelo_inurba_marseille","lat":43.25541,"lon":5.37726,"is_reserved":false,"is_disabled":false,"rental_uris":{"android":"levelo://app?vid=84b6ef24-a4ce-43a4-9ff2-873f8b9a2cb8","ios":"levelo://app?vid=84b6ef24-a4ce-43a4-9ff2-873f8b9a2cb8"},"vehicle_type_id":"4","last_reported":1781249443,"current_range_meters":2800,"station_id":"","pricing_plan_id":"cebpf4jnsgd1na2vs0mg"},{"bike_id":"3989f440-91ef-49c4-b6f8-866e081ae34d","system_id":"levelo_inurba_marseille","lat":43.28734,"lon":5.40027,"is_reserved":false,"is_disabled":false,"rental_uris":{"android":"levelo://app?vid=3989f440-91ef-49c4-b6f8-866e081ae34d","ios":"levelo://app?vid=3989f440-91ef-49c4-b6f8-866e081ae34d"},"vehicle_type_id":"4","last_reported":1781249443,"current_range_meters":2800,"station_id":"ce4bho92rcd13ifvqh3g","pricing_plan_id":"cebpf4jnsgd1na2vs0mg"},{"bike_id":"76f5dd5d-ca31-4b0e-8dbb-b6ce3553ebe9","system_id":"levelo_inurba_marseille","lat":43.26058,"lon":5.39398,"is_reserved":false,"is_disabled":false,"rental_uris":{"android":"levelo://app?vid=76f5dd5d-ca31-4b0e-8dbb-b6ce3553ebe9","ios":"levelo://app?vid=76f5dd5d-ca31-4b0e-8dbb-b6ce3553ebe9"},"vehicle_type_id":"4","last_reported":1781249443,"current_range_meters":2800,"station_id":"ce4bhh92rcd13ifvqfj0","pricing_plan_id":"cebpf4jnsgd1na2vs0mg"},{"bike_id":"80b6575a-787e-4cc1-9c47-73963fb63968","system_id":"levelo_inurba_marseille","lat":43.28613,"lon":5.35108,"is_reserved":false,"is_disabled":false,"rental_uris":{"android":"levelo://app?vid=80b6575a-787e-4cc1-9c47-73963fb63968","ios":"levelo://app?vid=80b6575a-787e-4cc1-9c47-73963fb63968"},"vehicle_type_id":"4","last_reported":1781249443,"current_range_meters":2800,"station_id":"ce4bhch2rcd13ifvqeug","pricing_plan_id":"cebpf4jnsgd1na2vs0mg"},{"bike_id":"9caa4f18-c443-48c6-a3d1-f58fac60bb1f","system_id":"levelo_inurba_marseille","lat":43.26124,"lon":5.37531,"is_reserved":false,"is_disabled":false,"rental_uris":{"android":"levelo://app?vid=9caa4f18-c443-48c6-a3d1-f58fac60bb1f","ios":"levelo://app?vid=9caa4f18-c443-48c6-a3d1-f58fac60bb1f"},"vehicle_type_id":"4","last_reported":1781249443,"current_range_meters":2800,"station_id":"","pricing_plan_id":"cebpf4jnsgd1na2vs0mg"},{"bike_id":"14b4b371-8f26-4cf1-95b4-880cc3bc4611","system_id":"levelo_inurba_marseille","lat":43.29318,"lon":5.37166,"is_reserved":false,"is_disabled":true,"rental_uris":{"android":"levelo://app?vid=14b4b371-8f26-4cf1-95b4-880cc3bc4611","ios":"levelo://app?vid=14b4b371-8f26-4cf1-95b4-880cc3bc4611"},"vehicle_type_id":"4","last_reported":1781249443,"current_range_meters":2800,"station_id":"ce4bgh92rcd13ifvqb40","pricing_plan_id":"cebpf4jnsgd1na2vs0mg"},{"bike_id":"4df93a2d-aa6a-4b31-93fb-7fa77fa8a80d","system_id":"levelo_inurba_marseille","lat":43.32196,"lon":5.44041,"is_reserved":false,"is_disabled":false,"rental_uris":{"android":"levelo://app?vid=4df93a2d-aa6a-4b31-93fb-7fa77fa8a80d","ios":"levelo://app?vid=4df93a2d-aa6a-4b31-93fb-7fa77fa8a80d"},"vehicle_type_id":"4","last_reported":1781249443,"current_range_meters":2800,"station_id":"","pricing_plan_id":"cebpf4jnsgd1na2vs0mg"},{"bike_id":"31d391cf-deb0-4bdc-8122-c7bce88320de","system_id":"levelo_inurba_marseille","lat":43.28534,"lon":5.38377,"is_reserved":false,"is_disabled":false,"rental_uris":{"android":"levelo://app?vid=31d391cf-deb0-4bdc-8122-c7bce88320de","ios":"levelo://app?vid=31d391cf-deb0-4bdc-8122-c7bce88320de"},"vehicle_type_id":"4","last_reported":1781249443,"current_range_meters":3200,"station_id":"","pricing_plan_id":"cebpf4jnsgd1na2vs0mg"},{"bike_id":"06b0e4c9-7d0e-4204-99ac-ea2c0040b0a5","system_id":"levelo_inurba_marseille","lat":43.27943,"lon":5.41048,"is_reserved":false,"is_disabled":true,"rental_uris":{"android":"levelo://app?vid=06b0e4c9-7d0e-4204-99ac-ea2c0040b0a5","ios":"levelo://app?vid=06b0e4c9-7d0e-4204-99ac-ea2c0040b0a5"},"vehicle_type_id":"4","last_reported":1781249443,"current_range_meters":3200,"station_id":"ce4bhnp2rcd13ifvqh0g","pricing_plan_id":"cebpf4jnsgd1na2vs0mg"},{"bike_id":"e2efc7c7-a347-4a56-a140-e9f45c94d1eb","system_id":"levelo_inurba_marseille","lat":43.28495,"lon":5.38548,"is_reserved":false,"is_disabled":true,"rental_uris":{"android":"levelo://app?vid=e2efc7c7-a347-4a56-a140-e9f45c94d1eb","ios":"levelo://app?vid=e2efc7c7-a347-4a56-a140-e9f45c94d1eb"},"vehicle_type_id":"4","last_reported":1781249443,"current_range_meters":3200,"station_id":"ce4bh8p2rcd13ifvqeb0","pricing_plan_id":"cebpf4jnsgd1na2vs0mg"},{"bike_id":"d1e52f74-9805-4b1f-a1fd-b182ee644ba7","system_id":"levelo_inurba_marseille","lat":43.30129,"lon":5.38094,"is_reserved":false,"is_disabled":false,"rental_uris":{"android":"levelo://app?vid=d1e52f74-9805-4b1f-a1fd-b182ee644ba7","ios":"levelo://app?vid=d1e52f74-9805-4b1f-a1fd-b182ee644ba7"},"vehicle_type_id":"4","last_reported":1781249443,"current_range_meters":3200,"station_id":"ce4bgjp2rcd13ifvqbh0","pricing_plan_id":"cebpf4jnsgd1na2vs0mg"},{"bike_id":"0409b556-d205-4919-bf91-20f96fd181fe","system_id":"levelo_inurba_marseille","lat":43.27212,"lon":5.39181,"is_reserved":false,"is_disabled":false,"rental_uris":{"android":"levelo://app?vid=0409b556-d205-4919-bf91-20f96fd181fe","ios":"levelo://app?vid=0409b556-d205-4919-bf91-20f96fd181fe"},"vehicle_type_id":"4","last_reported":1781249443,"current_range_meters":3200,"station_id":"ce4bhhp2rcd13ifvqfm0","pricing_plan_id":"cebpf4jnsgd1na2vs0mg"},{"bike_id":"b69da2de-bbdc-4fd7-82a0-458a8b12a3e4","system_id":"levelo_inurba_marseille","lat":43.25507,"lon":5.3766,"is_reserved":false,"is_disabled":false,"rental_uris":{"android":"levelo://app?vid=b69da2de-bbdc-4fd7-82a0-458a8b12a3e4","ios":"levelo://app?vid=b69da2de-bbdc-4fd7-82a0-458a8b12a3e4"},"vehicle_type_id":"4","last_reported":1781249443,"current_range_meters":3200,"station_id":"ce4bhh12rcd13ifvqff0","pricing_plan_id":"cebpf4jnsgd1na2vs0mg"},{"bike_id":"8e1bc8ab-341d-4e90-9a05-52978b7143b9","system_id":"levelo_inurba_marseille","lat":43.23152,"lon":5.43706,"is_reserved":false,"is_disabled":false,"rental_uris":{"android":"levelo://app?vid=8e1bc8ab-341d-4e90-9a05-52978b7143b9","ios":"levelo://app?vid=8e1bc8ab-341d-4e90-9a05-52978b7143b9"},"vehicle_type_id":"4","last_reported":1781249443,"current_range_meters":3200,"station_id":"ce4bhmp2rcd13ifvqgog","pricing_plan_id":"cebpf4jnsgd1na2vs0mg"},{"bike_id":"613e5dc5-11c6-43c6-a65c-b6cb8341cb41","system_id":"levelo_inurba_marseille","lat":43.26213,"lon":5.40438,"is_reserved":false,"is_disabled":false,"rental_uris":{"android":"levelo://app?vid=613e5dc5-11c6-43c6-a65c-b6cb8341cb41","ios":"levelo://app?vid=613e5dc5-11c6-43c6-a65c-b6cb8341cb41"},"vehicle_type_id":"4","last_reported":1781249443,"current_range_meters":3200,"station_id":"ce4bhmh2rcd13ifvqgmg","pricing_plan_id":"cebpf4jnsgd1na2vs0mg"},{"bike_id":"25e31f55-f43f-4fb5-8b6c-84e01401dfdd","system_id":"levelo_inurba_marseille","lat":43.26375,"lon":5.41099,"is_reserved":false,"is_disabled":false,"rental_uris":{"android":"levelo://app?vid=25e31f55-f43f-4fb5-8b6c-84e01401dfdd","ios":"levelo://app?vid=25e31f55-f43f-4fb5-8b6c-84e01401dfdd"},"vehicle_type_id":"4","last_reported":1781249443,"current_range_meters":3200,"station_id":"st_d4e5ca6na9uc73bfl5fg","pricing_plan_id":"cebpf4jnsgd1na2vs0mg"},{"bike_id":"858bc1f1-e9df-4cf9-9233-92d9caba6756","system_id":"levelo_inurba_marseille","lat":43.265528,"lon":5.372853,"is_reserved":false,"is_disabled":false,"rental_uris":{"android":"levelo://app?vid=858bc1f1-e9df-4cf9-9233-92d9caba6756","ios":"levelo://app?vid=858bc1f1-e9df-4cf9-9233-92d9caba6756"},"vehicle_type_id":"4","last_reported":1781249443,"current_range_meters":3200,"station_id":"ce4bhg12rcd13ifvqf70","pricing_plan_id":"cebpf4jnsgd1na2vs0mg"},{"bike_id":"f42ad956-5eb1-4d9b-82e8-cfaf1aa616a2","system_id":"levelo_inurba_marseille","lat":43.26026,"lon":5.37548,"is_reserved":false,"is_disabled":false,"rental_uris":{"android":"levelo://app?vid=f42ad956-5eb1-4d9b-82e8-cfaf1aa616a2","ios":"levelo://app?vid=f42ad956-5eb1-4d9b-82e8-cfaf1aa616a2"},"vehicle_type_id":"4","last_reported":1781249443,"current_range_meters":3200,"station_id":"ce4bhgh2rcd13ifvqfa0","pricing_plan_id":"cebpf4jnsgd1na2vs0mg"},{"bike_id":"1ce90460-dbf8-4efb-b450-ae204565a0ce","system_id":"levelo_inurba_marseille","lat":43.3035,"lon":5.40712,"is_reserved":false,"is_disabled":false,"rental_uris":{"android":"levelo://app?vid=1ce90460-dbf8-4efb-b450-ae204565a0ce","ios":"levelo://app?vid=1ce90460-dbf8-4efb-b450-ae204565a0ce"},"vehicle_type_id":"4","last_reported":1781249443,"current_range_meters":3200,"station_id":"","pricing_plan_id":"cebpf4jnsgd1na2vs0mg"},{"bike_id":"a1c015e9-3e11-46f0-b642-1fa3036dfa73","system_id":"levelo_inurba_marseille","lat":43.33154,"lon":5.37697,"is_reserved":false,"is_disabled":false,"rental_uris":{"android":"levelo://app?vid=a1c015e9-3e11-46f0-b642-1fa3036dfa73","ios":"levelo://app?vid=a1c015e9-3e11-46f0-b642-1fa3036dfa73"},"vehicle_type_id":"4","last_reported":1781249443,"current_range_meters":3200,"station_id":"st_d46cu089ee8s73dldbu0","pricing_plan_id":"cebpf4jnsgd1na2vs0mg"},{"bike_id":"39f787fe-25c8-4fab-8baa-0a15e7a463cf","system_id":"levelo_inurba_marseille","lat":43.30535,"lon":5.38428,"is_reserved":false,"is_disabled":false,"rental_uris":{"android":"levelo://app?vid=39f787fe-25c8-4fab-8baa-0a15e7a463cf","ios":"levelo://app?vid=39f787fe-25c8-4fab-8baa-0a15e7a463cf"},"vehicle_type_id":"4","last_reported":1781249443,"current_range_meters":3200,"station_id":"ce4bgg92rcd13ifvqb30","pricing_plan_id":"cebpf4jnsgd1na2vs0mg"},{"bike_id":"e1c6c299-9da3-4fb8-8020-b461c214840d","system_id":"levelo_inurba_marseille","lat":43.31957,"lon":5.3902,"is_reserved":false,"is_disabled":false,"rental_uris":{"android":"levelo://app?vid=e1c6c299-9da3-4fb8-8020-b461c214840d","ios":"levelo://app?vid=e1c6c299-9da3-4fb8-8020-b461c214840d"},"vehicle_type_id":"4","last_reported":1781249443,"current_range_meters":3200,"station_id":"","pricing_plan_id":"cebpf4jnsgd1na2vs0mg"},{"bike_id":"f91f41b7-5ab9-4cca-91aa-52761ba2982b","system_id":"levelo_inurba_marseille","lat":43.31438,"lon":5.36659,"is_reserved":false,"is_disabled":false,"rental_uris":{"android":"levelo://app?vid=f91f41b7-5ab9-4cca-91aa-52761ba2982b","ios":"levelo://app?vid=f91f41b7-5ab9-4cca-91aa-52761ba2982b"},"vehicle_type_id":"4","last_reported":1781249443,"current_range_meters":3200,"station_id":"ce4bgr92rcd13ifvqc6g","pricing_plan_id":"cebpf4jnsgd1na2vs0mg"},{"bike_id":"4343f291-38b8-47e7-a883-039a0fd0f77e","system_id":"levelo_inurba_marseille","lat":43.32094,"lon":5.36811,"is_reserved":false,"is_disabled":false,"rental_uris":{"android":"levelo://app?vid=4343f291-38b8-47e7-a883-039a0fd0f77e","ios":"levelo://app?vid=4343f291-38b8-47e7-a883-039a0fd0f77e"},"vehicle_type_id":"4","last_reported":1781249443,"current_range_meters":3200,"station_id":"ce4bhrh2rcd13ifvqhug","pricing_plan_id":"cebpf4jnsgd1na2vs0mg"},{"bike_id":"60210465-87aa-4993-adce-44c433a76140","system_id":"levelo_inurba_marseille","lat":43.27324,"lon":5.36289,"is_reserved":false,"is_disabled":false,"rental_uris":{"android":"levelo://app?vid=60210465-87aa-4993-adce-44c433a76140","ios":"levelo://app?vid=60210465-87aa-4993-adce-44c433a76140"},"vehicle_type_id":"4","last_reported":1781249443,"current_range_meters":3200,"station_id":"ce4bhbh2rcd13ifvqeo0","pricing_plan_id":"cebpf4jnsgd1na2vs0mg"},{"bike_id":"a5738529-d6fe-4d63-b356-4ef3c5027584","system_id":"levelo_inurba_marseille","lat":43.24924,"lon":5.39009,"is_reserved":false,"is_disabled":false,"rental_uris":{"android":"levelo://app?vid=a5738529-d6fe-4d63-b356-4ef3c5027584","ios":"levelo://app?vid=a5738529-d6fe-4d63-b356-4ef3c5027584"},"vehicle_type_id":"4","last_reported":1781249443,"current_range_meters":3200,"station_id":"","pricing_plan_id":"cebpf4jnsgd1na2vs0mg"},{"bike_id":"3815202b-f051-4785-a52d-048a09751a00","system_id":"levelo_inurba_marseille","lat":43.31056,"lon":5.37179,"is_reserved":false,"is_disabled":false,"rental_uris":{"android":"levelo://app?vid=3815202b-f051-4785-a52d-048a09751a00","ios":"levelo://app?vid=3815202b-f051-4785-a52d-048a09751a00"},"vehicle_type_id":"4","last_reported":1781249443,"current_range_meters":3200,"station_id":"st_d4kl2rp97mjs73e7tdfg","pricing_plan_id":"cebpf4jnsgd1na2vs0mg"},{"bike_id":"fafdb545-4263-4738-90a4-2c4a24e0b45a","system_id":"levelo_inurba_marseille","lat":43.33337,"lon":5.41027,"is_reserved":false,"is_disabled":false,"rental_uris":{"android":"levelo://app?vid=fafdb545-4263-4738-90a4-2c4a24e0b45a","ios":"levelo://app?vid=fafdb545-4263-4738-90a4-2c4a24e0b45a"},"vehicle_type_id":"4","last_reported":1781249443,"current_range_meters":3200,"station_id":"","pricing_plan_id":"cebpf4jnsgd1na2vs0mg"},{"bike_id":"23323579-966f-4734-9f7a-f160e2838293","system_id":"levelo_inurba_marseille","lat":43.29854,"lon":5.36276,"is_reserved":false,"is_disabled":false,"rental_uris":{"android":"levelo://app?vid=23323579-966f-4734-9f7a-f160e2838293","ios":"levelo://app?vid=23323579-966f-4734-9f7a-f160e2838293"},"vehicle_type_id":"4","last_reported":1781249443,"current_range_meters":3600,"station_id":"ce4bgpp2rcd13ifvqc3g","pricing_plan_id":"cebpf4jnsgd1na2vs0mg"},{"bike_id":"4e98de82-8af1-4e04-997f-4c927f977466","system_id":"levelo_inurba_marseille","lat":43.30422,"lon":5.39742,"is_reserved":false,"is_disabled":true,"rental_uris":{"android":"levelo://app?vid=4e98de82-8af1-4e04-997f-4c927f977466","ios":"levelo://app?vid=4e98de82-8af1-4e04-997f-4c927f977466"},"vehicle_type_id":"4","last_reported":1781249443,"current_range_meters":3600,"station_id":"ce4bh092rcd13ifvqd20","pricing_plan_id":"cebpf4jnsgd1na2vs0mg"},{"bike_id":"a49e079e-56e5-45de-9def-f5d53e5437d9","system_id":"levelo_inurba_marseille","lat":43.28036,"lon":5.35384,"is_reserved":false,"is_disabled":false,"rental_uris":{"android":"levelo://app?vid=a49e079e-56e5-45de-9def-f5d53e5437d9","ios":"levelo://app?vid=a49e079e-56e5-45de-9def-f5d53e5437d9"},"vehicle_type_id":"4","last_reported":1781249443,"current_range_meters":3600,"station_id":"","pricing_plan_id":"cebpf4jnsgd1na2vs0mg"},{"bike_id":"d29a03a5-7db2-4453-971e-8376452e073c","system_id":"levelo_inurba_marseille","lat":43.26685,"lon":5.38268,"is_reserved":false,"is_disabled":false,"rental_uris":{"android":"levelo://app?vid=d29a03a5-7db2-4453-971e-8376452e073c","ios":"levelo://app?vid=d29a03a5-7db2-4453-971e-8376452e073c"},"vehicle_type_id":"4","last_reported":1781249443,"current_range_meters":3600,"station_id":"ce4bhg92rcd13ifvqf90","pricing_plan_id":"cebpf4jnsgd1na2vs0mg"},{"bike_id":"581eb976-4601-4f87-b521-f567cf030906","system_id":"levelo_inurba_marseille","lat":43.2393,"lon":5.43801,"is_reserved":false,"is_disabled":false,"rental_uris":{"android":"levelo://app?vid=581eb976-4601-4f87-b521-f567cf030906","ios":"levelo://app?vid=581eb976-4601-4f87-b521-f567cf030906"},"vehicle_type_id":"4","last_reported":1781249443,"current_range_meters":3600,"station_id":"","pricing_plan_id":"cebpf4jnsgd1na2vs0mg"},{"bike_id":"02de2836-131b-4de4-9d25-55aa023be55e","system_id":"levelo_inurba_marseille","lat":43.28485,"lon":5.48385,"is_reserved":false,"is_disabled":false,"rental_uris":{"android":"levelo://app?vid=02de2836-131b-4de4-9d25-55aa023be55e","ios":"levelo://app?vid=02de2836-131b-4de4-9d25-55aa023be55e"},"vehicle_type_id":"4","last_reported":1781249443,"current_range_meters":3600,"station_id":"st_d3svhcjqgbts73a3dn0g","pricing_plan_id":"cebpf4jnsgd1na2vs0mg"},{"bike_id":"7549dd2a-b37e-4af7-85e0-2ee402edd8d5","system_id":"levelo_inurba_marseille","lat":43.285806,"lon":5.384994,"is_reserved":false,"is_disabled":false,"rental_uris":{"android":"levelo://app?vid=7549dd2a-b37e-4af7-85e0-2ee402edd8d5","ios":"levelo://app?vid=7549dd2a-b37e-4af7-85e0-2ee402edd8d5"},"vehicle_type_id":"4","last_reported":1781249443,"current_range_meters":3600,"station_id":"ce4bh512rcd13ifvqe2g","pricing_plan_id":"cebpf4jnsgd1na2vs0mg"},{"bike_id":"7a2582a1-9f4e-4b77-a662-c666529e13ef","system_id":"levelo_inurba_marseille","lat":43.28056,"lon":5.35002,"is_reserved":false,"is_disabled":false,"rental_uris":{"android":"levelo://app?vid=7a2582a1-9f4e-4b77-a662-c666529e13ef","ios":"levelo://app?vid=7a2582a1-9f4e-4b77-a662-c666529e13ef"},"vehicle_type_id":"4","last_reported":1781249443,"current_range_meters":3600,"station_id":"","pricing_plan_id":"cebpf4jnsgd1na2vs0mg"},{"bike_id":"72477282-3901-47f8-8e4f-cec0d47fffe9","system_id":"levelo_inurba_marseille","lat":43.27081,"lon":5.42269,"is_reserved":false,"is_disabled":false,"rental_uris":{"android":"levelo://app?vid=72477282-3901-47f8-8e4f-cec0d47fffe9","ios":"levelo://app?vid=72477282-3901-47f8-8e4f-cec0d47fffe9"},"vehicle_type_id":"4","last_reported":1781249443,"current_range_meters":3600,"station_id":"ce4bhk92rcd13ifvqgb0","pricing_plan_id":"cebpf4jnsgd1na2vs0mg"},{"bike_id":"becf7538-a49a-47b2-898c-da691a16b228","system_id":"levelo_inurba_marseille","lat":43.29037,"lon":5.35918,"is_reserved":false,"is_disabled":true,"rental_uris":{"android":"levelo://app?vid=becf7538-a49a-47b2-898c-da691a16b228","ios":"levelo://app?vid=becf7538-a49a-47b2-898c-da691a16b228"},"vehicle_type_id":"4","last_reported":1781249443,"current_range_meters":3600,"station_id":"ce4bha92rcd13ifvqeg0","pricing_plan_id":"cebpf4jnsgd1na2vs0mg"},{"bike_id":"9815e895-16e2-4666-976c-e20e09536df1","system_id":"levelo_inurba_marseille","lat":43.29811,"lon":5.40418,"is_reserved":false,"is_disabled":true,"rental_uris":{"android":"levelo://app?vid=9815e895-16e2-4666-976c-e20e09536df1","ios":"levelo://app?vid=9815e895-16e2-4666-976c-e20e09536df1"},"vehicle_type_id":"4","last_reported":1781249443,"current_range_meters":3600,"station_id":"ce4bh112rcd13ifvqd90","pricing_plan_id":"cebpf4jnsgd1na2vs0mg"},{"bike_id":"ee630227-b472-4a9b-99e9-bdd036978952","system_id":"levelo_inurba_marseille","lat":43.28584,"lon":5.39382,"is_reserved":false,"is_disabled":false,"rental_uris":{"android":"levelo://app?vid=ee630227-b472-4a9b-99e9-bdd036978952","ios":"levelo://app?vid=ee630227-b472-4a9b-99e9-bdd036978952"},"vehicle_type_id":"4","last_reported":1781249443,"current_range_meters":3600,"station_id":"","pricing_plan_id":"cebpf4jnsgd1na2vs0mg"},{"bike_id":"7c131e63-4882-494d-814c-185065bffc7c","system_id":"levelo_inurba_marseille","lat":43.2848,"lon":5.48408,"is_reserved":false,"is_disabled":false,"rental_uris":{"android":"levelo://app?vid=7c131e63-4882-494d-814c-185065bffc7c","ios":"levelo://app?vid=7c131e63-4882-494d-814c-185065bffc7c"},"vehicle_type_id":"4","last_reported":1781249443,"current_range_meters":3600,"station_id":"st_d3svhcjqgbts73a3dn0g","pricing_plan_id":"cebpf4jnsgd1na2vs0mg"},{"bike_id":"6a3a9e96-f803-42f5-80e8-8edbd3802204","system_id":"levelo_inurba_marseille","lat":43.317,"lon":5.37799,"is_reserved":false,"is_disabled":false,"rental_uris":{"android":"levelo://app?vid=6a3a9e96-f803-42f5-80e8-8edbd3802204","ios":"levelo://app?vid=6a3a9e96-f803-42f5-80e8-8edbd3802204"},"vehicle_type_id":"4","last_reported":1781249443,"current_range_meters":3600,"station_id":"","pricing_plan_id":"cebpf4jnsgd1na2vs0mg"},{"bike_id":"afc7a2d7-7fbb-4d84-8363-6c93d81d938f","system_id":"levelo_inurba_marseille","lat":43.29976,"lon":5.37179,"is_reserved":false,"is_disabled":false,"rental_uris":{"android":"levelo://app?vid=afc7a2d7-7fbb-4d84-8363-6c93d81d938f","ios":"levelo://app?vid=afc7a2d7-7fbb-4d84-8363-6c93d81d938f"},"vehicle_type_id":"4","last_reported":1781249443,"current_range_meters":3600,"station_id":"ce4bgr92rcd13ifvqc7g","pricing_plan_id":"cebpf4jnsgd1na2vs0mg"},{"bike_id":"4c2252fc-e4e5-45d5-aee3-e7266645c2c8","system_id":"levelo_inurba_marseille","lat":43.31477,"lon":5.37227,"is_reserved":false,"is_disabled":false,"rental_uris":{"android":"levelo://app?vid=4c2252fc-e4e5-45d5-aee3-e7266645c2c8","ios":"levelo://app?vid=4c2252fc-e4e5-45d5-aee3-e7266645c2c8"},"vehicle_type_id":"4","last_reported":1781249443,"current_range_meters":3600,"station_id":"","pricing_plan_id":"cebpf4jnsgd1na2vs0mg"},{"bike_id":"291d431b-1870-4de3-b0a0-cfb5e860476f","system_id":"levelo_inurba_marseille","lat":43.26678,"lon":5.38262,"is_reserved":false,"is_disabled":false,"rental_uris":{"android":"levelo://app?vid=291d431b-1870-4de3-b0a0-cfb5e860476f","ios":"levelo://app?vid=291d431b-1870-4de3-b0a0-cfb5e860476f"},"vehicle_type_id":"4","last_reported":1781249443,"current_range_meters":3600,"station_id":"ce4bhg92rcd13ifvqf90","pricing_plan_id":"cebpf4jnsgd1na2vs0mg"},{"bike_id":"ca7d472d-be7b-4dff-a5e8-20110a5cc5c0","system_id":"levelo_inurba_marseille","lat":43.30845,"lon":5.40258,"is_reserved":false,"is_disabled":false,"rental_uris":{"android":"levelo://app?vid=ca7d472d-be7b-4dff-a5e8-20110a5cc5c0","ios":"levelo://app?vid=ca7d472d-be7b-4dff-a5e8-20110a5cc5c0"},"vehicle_type_id":"4","last_reported":1781249443,"current_range_meters":4000,"station_id":"","pricing_plan_id":"cebpf4jnsgd1na2vs0mg"},{"bike_id":"3baa0b0a-3f15-4a6e-8e8a-c926251735e9","system_id":"levelo_inurba_marseille","lat":43.3054,"lon":5.36536,"is_reserved":false,"is_disabled":true,"rental_uris":{"android":"levelo://app?vid=3baa0b0a-3f15-4a6e-8e8a-c926251735e9","ios":"levelo://app?vid=3baa0b0a-3f15-4a6e-8e8a-c926251735e9"},"vehicle_type_id":"4","last_reported":1781249443,"current_range_meters":4000,"station_id":"ce4bgs12rcd13ifvqcag","pricing_plan_id":"cebpf4jnsgd1na2vs0mg"},{"bike_id":"ead06185-83ad-46af-bbf8-3154a394a502","system_id":"levelo_inurba_marseille","lat":43.28878,"lon":5.38236,"is_reserved":false,"is_disabled":false,"rental_uris":{"android":"levelo://app?vid=ead06185-83ad-46af-bbf8-3154a394a502","ios":"levelo://app?vid=ead06185-83ad-46af-bbf8-3154a394a502"},"vehicle_type_id":"4","last_reported":1781249443,"current_range_meters":4000,"station_id":"","pricing_plan_id":"cebpf4jnsgd1na2vs0mg"},{"bike_id":"406c92e3-e806-4551-a2b6-fea67fbe0a72","system_id":"levelo_inurba_marseille","lat":43.28606,"lon":5.35082,"is_reserved":false,"is_disabled":false,"rental_uris":{"android":"levelo://app?vid=406c92e3-e806-4551-a2b6-fea67fbe0a72","ios":"levelo://app?vid=406c92e3-e806-4551-a2b6-fea67fbe0a72"},"vehicle_type_id":"4","last_reported":1781249443,"current_range_meters":4000,"station_id":"ce4bhch2rcd13ifvqeug","pricing_plan_id":"cebpf4jnsgd1na2vs0mg"},{"bike_id":"6bcc356f-7f69-45b4-a42f-c8af24594173","system_id":"levelo_inurba_marseille","lat":43.29627,"lon":5.3808,"is_reserved":false,"is_disabled":false,"rental_uris":{"android":"levelo://app?vid=6bcc356f-7f69-45b4-a42f-c8af24594173","ios":"levelo://app?vid=6bcc356f-7f69-45b4-a42f-c8af24594173"},"vehicle_type_id":"4","last_reported":1781249443,"current_range_meters":4000,"station_id":"ce4bgl12rcd13ifvqbo0","pricing_plan_id":"cebpf4jnsgd1na2vs0mg"},{"bike_id":"2b05ddd0-a145-4ab2-9ca3-273992d1b305","system_id":"levelo_inurba_marseille","lat":43.30558,"lon":5.36508,"is_reserved":false,"is_disabled":false,"rental_uris":{"android":"levelo://app?vid=2b05ddd0-a145-4ab2-9ca3-273992d1b305","ios":"levelo://app?vid=2b05ddd0-a145-4ab2-9ca3-273992d1b305"},"vehicle_type_id":"4","last_reported":1781249443,"current_range_meters":4000,"station_id":"ce4bgs12rcd13ifvqcag","pricing_plan_id":"cebpf4jnsgd1na2vs0mg"},{"bike_id":"e47dfd39-5c0c-45eb-a41f-cf3fd7d5df32","system_id":"levelo_inurba_marseille","lat":43.28983,"lon":5.46101,"is_reserved":false,"is_disabled":true,"rental_uris":{"android":"levelo://app?vid=e47dfd39-5c0c-45eb-a41f-cf3fd7d5df32","ios":"levelo://app?vid=e47dfd39-5c0c-45eb-a41f-cf3fd7d5df32"},"vehicle_type_id":"4","last_reported":1781249443,"current_range_meters":4000,"station_id":"","pricing_plan_id":"cebpf4jnsgd1na2vs0mg"},{"bike_id":"758b8575-bd39-4c4b-83ba-b708bb22f91d","system_id":"levelo_inurba_marseille","lat":43.27542,"lon":5.35939,"is_reserved":false,"is_disabled":false,"rental_uris":{"android":"levelo://app?vid=758b8575-bd39-4c4b-83ba-b708bb22f91d","ios":"levelo://app?vid=758b8575-bd39-4c4b-83ba-b708bb22f91d"},"vehicle_type_id":"4","last_reported":1781249443,"current_range_meters":4000,"station_id":"","pricing_plan_id":"cebpf4jnsgd1na2vs0mg"},{"bike_id":"3a75f0d0-f871-460b-9645-7adb90b5c1ca","system_id":"levelo_inurba_marseille","lat":43.25125,"lon":5.40304,"is_reserved":false,"is_disabled":true,"rental_uris":{"android":"levelo://app?vid=3a75f0d0-f871-460b-9645-7adb90b5c1ca","ios":"levelo://app?vid=3a75f0d0-f871-460b-9645-7adb90b5c1ca"},"vehicle_type_id":"4","last_reported":1781249443,"current_range_meters":4000,"station_id":"ce4bhlh2rcd13ifvqgig","pricing_plan_id":"cebpf4jnsgd1na2vs0mg"},{"bike_id":"9c877c17-7613-4948-b87f-cef2fcc55875","system_id":"levelo_inurba_marseille","lat":43.2919,"lon":5.39305,"is_reserved":false,"is_disabled":false,"rental_uris":{"android":"levelo://app?vid=9c877c17-7613-4948-b87f-cef2fcc55875","ios":"levelo://app?vid=9c877c17-7613-4948-b87f-cef2fcc55875"},"vehicle_type_id":"4","last_reported":1781249443,"current_range_meters":4000,"station_id":"ce4bh192rcd13ifvqdd0","pricing_plan_id":"cebpf4jnsgd1na2vs0mg"},{"bike_id":"9826efbc-d2e1-4e63-9475-12c373907229","system_id":"levelo_inurba_marseille","lat":43.24391,"lon":5.37038,"is_reserved":false,"is_disabled":false,"rental_uris":{"android":"levelo://app?vid=9826efbc-d2e1-4e63-9475-12c373907229","ios":"levelo://app?vid=9826efbc-d2e1-4e63-9475-12c373907229"},"vehicle_type_id":"4","last_reported":1781249443,"current_range_meters":4000,"station_id":"ce4bhhh2rcd13ifvqfk0","pricing_plan_id":"cebpf4jnsgd1na2vs0mg"},{"bike_id":"1cb8ef7c-e98e-4cfb-992d-d3305541d0a3","system_id":"levelo_inurba_marseille","lat":43.27347,"lon":5.36192,"is_reserved":false,"is_disabled":false,"rental_uris":{"android":"levelo://app?vid=1cb8ef7c-e98e-4cfb-992d-d3305541d0a3","ios":"levelo://app?vid=1cb8ef7c-e98e-4cfb-992d-d3305541d0a3"},"vehicle_type_id":"4","last_reported":1781249443,"current_range_meters":4000,"station_id":"","pricing_plan_id":"cebpf4jnsgd1na2vs0mg"},{"bike_id":"04160d5d-06c9-4bf1-aaa6-9c65f87720bd","system_id":"levelo_inurba_marseille","lat":43.31375,"lon":5.38522,"is_reserved":false,"is_disabled":false,"rental_uris":{"android":"levelo://app?vid=04160d5d-06c9-4bf1-aaa6-9c65f87720bd","ios":"levelo://app?vid=04160d5d-06c9-4bf1-aaa6-9c65f87720bd"},"vehicle_type_id":"4","last_reported":1781249443,"current_range_meters":4000,"station_id":"ce4bgt92rcd13ifvqcf0","pricing_plan_id":"cebpf4jnsgd1na2vs0mg"},{"bike_id":"b3904e30-64e1-4a34-8850-d3d6d78019e8","system_id":"levelo_inurba_marseille","lat":43.26548,"lon":5.37282,"is_reserved":false,"is_disabled":false,"rental_uris":{"android":"levelo://app?vid=b3904e30-64e1-4a34-8850-d3d6d78019e8","ios":"levelo://app?vid=b3904e30-64e1-4a34-8850-d3d6d78019e8"},"vehicle_type_id":"4","last_reported":1781249443,"current_range_meters":4000,"station_id":"ce4bhg12rcd13ifvqf70","pricing_plan_id":"cebpf4jnsgd1na2vs0mg"},{"bike_id":"643a5108-6712-460c-84ac-96a9e310c2a1","system_id":"levelo_inurba_marseille","lat":43.32316,"lon":5.36777,"is_reserved":false,"is_disabled":false,"rental_uris":{"android":"levelo://app?vid=643a5108-6712-460c-84ac-96a9e310c2a1","ios":"levelo://app?vid=643a5108-6712-460c-84ac-96a9e310c2a1"},"vehicle_type_id":"4","last_reported":1781249443,"current_range_meters":4400,"station_id":"ce4bhsh2rcd13ifvqi2g","pricing_plan_id":"cebpf4jnsgd1na2vs0mg"},{"bike_id":"b2ad6388-0d4f-4e9c-8ff3-f1ad38b97382","system_id":"levelo_inurba_marseille","lat":43.27676,"lon":5.42441,"is_reserved":false,"is_disabled":false,"rental_uris":{"android":"levelo://app?vid=b2ad6388-0d4f-4e9c-8ff3-f1ad38b97382","ios":"levelo://app?vid=b2ad6388-0d4f-4e9c-8ff3-f1ad38b97382"},"vehicle_type_id":"4","last_reported":1781249443,"current_range_meters":4400,"station_id":"","pricing_plan_id":"cebpf4jnsgd1na2vs0mg"},{"bike_id":"286db485-33c3-48c3-89b9-068f9d594321","system_id":"levelo_inurba_marseille","lat":43.26562,"lon":5.39012,"is_reserved":false,"is_disabled":false,"rental_uris":{"android":"levelo://app?vid=286db485-33c3-48c3-89b9-068f9d594321","ios":"levelo://app?vid=286db485-33c3-48c3-89b9-068f9d594321"},"vehicle_type_id":"4","last_reported":1781249443,"current_range_meters":4400,"station_id":"ce4bhe12rcd13ifvqf30","pricing_plan_id":"cebpf4jnsgd1na2vs0mg"},{"bike_id":"bf0d513d-d24a-47b1-bcdb-11e9c8e00198","system_id":"levelo_inurba_marseille","lat":43.26377,"lon":5.41137,"is_reserved":false,"is_disabled":true,"rental_uris":{"android":"levelo://app?vid=bf0d513d-d24a-47b1-bcdb-11e9c8e00198","ios":"levelo://app?vid=bf0d513d-d24a-47b1-bcdb-11e9c8e00198"},"vehicle_type_id":"4","last_reported":1781249443,"current_range_meters":4400,"station_id":"st_d4e5ca6na9uc73bfl5fg","pricing_plan_id":"cebpf4jnsgd1na2vs0mg"},{"bike_id":"a686562f-0ebc-45bc-abe5-36f83ba9c471","system_id":"levelo_inurba_marseille","lat":43.30961,"lon":5.39054,"is_reserved":false,"is_disabled":false,"rental_uris":{"android":"levelo://app?vid=a686562f-0ebc-45bc-abe5-36f83ba9c471","ios":"levelo://app?vid=a686562f-0ebc-45bc-abe5-36f83ba9c471"},"vehicle_type_id":"4","last_reported":1781249443,"current_range_meters":4400,"station_id":"ce4bgup2rcd13ifvqco0","pricing_plan_id":"cebpf4jnsgd1na2vs0mg"},{"bike_id":"8184427b-bea5-4494-bb32-41fffc6d9711","system_id":"levelo_inurba_marseille","lat":43.25585,"lon":5.38246,"is_reserved":false,"is_disabled":false,"rental_uris":{"android":"levelo://app?vid=8184427b-bea5-4494-bb32-41fffc6d9711","ios":"levelo://app?vid=8184427b-bea5-4494-bb32-41fffc6d9711"},"vehicle_type_id":"4","last_reported":1781249443,"current_range_meters":4400,"station_id":"ce4bhih2rcd13ifvqfs0","pricing_plan_id":"cebpf4jnsgd1na2vs0mg"},{"bike_id":"3555cecc-f85d-484f-b52e-9f16ec060059","system_id":"levelo_inurba_marseille","lat":43.28855,"lon":5.35885,"is_reserved":false,"is_disabled":false,"rental_uris":{"android":"levelo://app?vid=3555cecc-f85d-484f-b52e-9f16ec060059","ios":"levelo://app?vid=3555cecc-f85d-484f-b52e-9f16ec060059"},"vehicle_type_id":"4","last_reported":1781249443,"current_range_meters":4400,"station_id":"ce4bhb12rcd13ifvqem0","pricing_plan_id":"cebpf4jnsgd1na2vs0mg"},{"bike_id":"a08238a5-44aa-4136-806c-7dd5fa1239a9","system_id":"levelo_inurba_marseille","lat":43.24069,"lon":5.37762,"is_reserved":false,"is_disabled":false,"rental_uris":{"android":"levelo://app?vid=a08238a5-44aa-4136-806c-7dd5fa1239a9","ios":"levelo://app?vid=a08238a5-44aa-4136-806c-7dd5fa1239a9"},"vehicle_type_id":"4","last_reported":1781249443,"current_range_meters":4400,"station_id":"ce4bhnp2rcd13ifvqgvg","pricing_plan_id":"cebpf4jnsgd1na2vs0mg"},{"bike_id":"4d5a2ee1-44fb-4ccd-b174-16d3b0e125ed","system_id":"levelo_inurba_marseille","lat":43.29001,"lon":5.35612,"is_reserved":false,"is_disabled":false,"rental_uris":{"android":"levelo://app?vid=4d5a2ee1-44fb-4ccd-b174-16d3b0e125ed","ios":"levelo://app?vid=4d5a2ee1-44fb-4ccd-b174-16d3b0e125ed"},"vehicle_type_id":"4","last_reported":1781249443,"current_range_meters":4400,"station_id":"ce4bhb92rcd13ifvqen0","pricing_plan_id":"cebpf4jnsgd1na2vs0mg"},{"bike_id":"8682f4e8-0798-4b4f-8fef-c4dc002ea1c8","system_id":"levelo_inurba_marseille","lat":43.2915,"lon":5.46108,"is_reserved":false,"is_disabled":false,"rental_uris":{"android":"levelo://app?vid=8682f4e8-0798-4b4f-8fef-c4dc002ea1c8","ios":"levelo://app?vid=8682f4e8-0798-4b4f-8fef-c4dc002ea1c8"},"vehicle_type_id":"4","last_reported":1781249443,"current_range_meters":4400,"station_id":"","pricing_plan_id":"cebpf4jnsgd1na2vs0mg"},{"bike_id":"760ec69e-13d9-4dd4-bc91-a3e3c036629e","system_id":"levelo_inurba_marseille","lat":43.27962,"lon":5.38728,"is_reserved":false,"is_disabled":false,"rental_uris":{"android":"levelo://app?vid=760ec69e-13d9-4dd4-bc91-a3e3c036629e","ios":"levelo://app?vid=760ec69e-13d9-4dd4-bc91-a3e3c036629e"},"vehicle_type_id":"4","last_reported":1781249443,"current_range_meters":4800,"station_id":"ce4bhg12rcd13ifvqf80","pricing_plan_id":"cebpf4jnsgd1na2vs0mg"},{"bike_id":"3279c3c6-7a1b-4db0-bda8-489e9add2323","system_id":"levelo_inurba_marseille","lat":43.25555,"lon":5.38256,"is_reserved":false,"is_disabled":false,"rental_uris":{"android":"levelo://app?vid=3279c3c6-7a1b-4db0-bda8-489e9add2323","ios":"levelo://app?vid=3279c3c6-7a1b-4db0-bda8-489e9add2323"},"vehicle_type_id":"4","last_reported":1781249443,"current_range_meters":4800,"station_id":"ce4bhih2rcd13ifvqfs0","pricing_plan_id":"cebpf4jnsgd1na2vs0mg"},{"bike_id":"17369bee-43fb-4510-ab11-4bc54a77a2f2","system_id":"levelo_inurba_marseille","lat":43.28616,"lon":5.35087,"is_reserved":false,"is_disabled":false,"rental_uris":{"android":"levelo://app?vid=17369bee-43fb-4510-ab11-4bc54a77a2f2","ios":"levelo://app?vid=17369bee-43fb-4510-ab11-4bc54a77a2f2"},"vehicle_type_id":"4","last_reported":1781249443,"current_range_meters":4800,"station_id":"ce4bhch2rcd13ifvqeug","pricing_plan_id":"cebpf4jnsgd1na2vs0mg"},{"bike_id":"5ac28b06-af05-4d8b-a509-2f5043908588","system_id":"levelo_inurba_marseille","lat":43.2343,"lon":5.36835,"is_reserved":false,"is_disabled":false,"rental_uris":{"android":"levelo://app?vid=5ac28b06-af05-4d8b-a509-2f5043908588","ios":"levelo://app?vid=5ac28b06-af05-4d8b-a509-2f5043908588"},"vehicle_type_id":"4","last_reported":1781249443,"current_range_meters":4800,"station_id":"","pricing_plan_id":"cebpf4jnsgd1na2vs0mg"},{"bike_id":"39008bdd-ec06-4509-aef5-6005174c0c03","system_id":"levelo_inurba_marseille","lat":43.27963,"lon":5.38522,"is_reserved":false,"is_disabled":false,"rental_uris":{"android":"levelo://app?vid=39008bdd-ec06-4509-aef5-6005174c0c03","ios":"levelo://app?vid=39008bdd-ec06-4509-aef5-6005174c0c03"},"vehicle_type_id":"4","last_reported":1781249443,"current_range_meters":4800,"station_id":"","pricing_plan_id":"cebpf4jnsgd1na2vs0mg"},{"bike_id":"c9cfca1a-c4a6-4e9e-804e-d95c55cdc46e","system_id":"levelo_inurba_marseille","lat":43.26486,"lon":5.39564,"is_reserved":false,"is_disabled":true,"rental_uris":{"android":"levelo://app?vid=c9cfca1a-c4a6-4e9e-804e-d95c55cdc46e","ios":"levelo://app?vid=c9cfca1a-c4a6-4e9e-804e-d95c55cdc46e"},"vehicle_type_id":"4","last_reported":1781249443,"current_range_meters":4800,"station_id":"ce4bhi12rcd13ifvqfq0","pricing_plan_id":"cebpf4jnsgd1na2vs0mg"},{"bike_id":"4fafcd02-6f3d-4d71-b55b-077e047dcdf3","system_id":"levelo_inurba_marseille","lat":43.29227,"lon":5.3606,"is_reserved":false,"is_disabled":false,"rental_uris":{"android":"levelo://app?vid=4fafcd02-6f3d-4d71-b55b-077e047dcdf3","ios":"levelo://app?vid=4fafcd02-6f3d-4d71-b55b-077e047dcdf3"},"vehicle_type_id":"4","last_reported":1781249443,"current_range_meters":4800,"station_id":"ce4bhbh2rcd13ifvqeqg","pricing_plan_id":"cebpf4jnsgd1na2vs0mg"},{"bike_id":"8afeb7a8-b686-4611-8220-2ade2d33c717","system_id":"levelo_inurba_marseille","lat":43.29615,"lon":5.37697,"is_reserved":false,"is_disabled":true,"rental_uris":{"android":"levelo://app?vid=8afeb7a8-b686-4611-8220-2ade2d33c717","ios":"levelo://app?vid=8afeb7a8-b686-4611-8220-2ade2d33c717"},"vehicle_type_id":"4","last_reported":1781249443,"current_range_meters":4800,"station_id":"ce4bgi92rcd13ifvqb90","pricing_plan_id":"cebpf4jnsgd1na2vs0mg"},{"bike_id":"cee6644e-3f7f-438f-874a-02654dd35298","system_id":"levelo_inurba_marseille","lat":43.24551,"lon":5.39511,"is_reserved":false,"is_disabled":false,"rental_uris":{"android":"levelo://app?vid=cee6644e-3f7f-438f-874a-02654dd35298","ios":"levelo://app?vid=cee6644e-3f7f-438f-874a-02654dd35298"},"vehicle_type_id":"4","last_reported":1781249443,"current_range_meters":4800,"station_id":"ce4bhlp2rcd13ifvqgjg","pricing_plan_id":"cebpf4jnsgd1na2vs0mg"},{"bike_id":"75248494-6e46-4c4b-92d2-9db9ddbe9016","system_id":"levelo_inurba_marseille","lat":43.28482,"lon":5.48385,"is_reserved":false,"is_disabled":false,"rental_uris":{"android":"levelo://app?vid=75248494-6e46-4c4b-92d2-9db9ddbe9016","ios":"levelo://app?vid=75248494-6e46-4c4b-92d2-9db9ddbe9016"},"vehicle_type_id":"4","last_reported":1781249443,"current_range_meters":4800,"station_id":"st_d3svhcjqgbts73a3dn0g","pricing_plan_id":"cebpf4jnsgd1na2vs0mg"},{"bike_id":"078a9912-314b-4791-a1b5-9e120e7893fe","system_id":"levelo_inurba_marseille","lat":43.26034,"lon":5.37514,"is_reserved":false,"is_disabled":false,"rental_uris":{"android":"levelo://app?vid=078a9912-314b-4791-a1b5-9e120e7893fe","ios":"levelo://app?vid=078a9912-314b-4791-a1b5-9e120e7893fe"},"vehicle_type_id":"4","last_reported":1781249443,"current_range_meters":4800,"station_id":"ce4bhgh2rcd13ifvqfa0","pricing_plan_id":"cebpf4jnsgd1na2vs0mg"},{"bike_id":"216e856e-229a-4998-9698-f2699480ab86","system_id":"levelo_inurba_marseille","lat":43.31071,"lon":5.37177,"is_reserved":false,"is_disabled":false,"rental_uris":{"android":"levelo://app?vid=216e856e-229a-4998-9698-f2699480ab86","ios":"levelo://app?vid=216e856e-229a-4998-9698-f2699480ab86"},"vehicle_type_id":"4","last_reported":1781249443,"current_range_meters":4800,"station_id":"st_d4kl2rp97mjs73e7tdfg","pricing_plan_id":"cebpf4jnsgd1na2vs0mg"},{"bike_id":"75c05d49-8a94-417a-8869-c0d0e40ea54f","system_id":"levelo_inurba_marseille","lat":43.2872,"lon":5.37992,"is_reserved":false,"is_disabled":false,"rental_uris":{"android":"levelo://app?vid=75c05d49-8a94-417a-8869-c0d0e40ea54f","ios":"levelo://app?vid=75c05d49-8a94-417a-8869-c0d0e40ea54f"},"vehicle_type_id":"4","last_reported":1781249443,"current_range_meters":5600,"station_id":"ce4bh9p2rcd13ifvqec0","pricing_plan_id":"cebpf4jnsgd1na2vs0mg"},{"bike_id":"977075a4-40dc-4723-a526-d5ddfecea214","system_id":"levelo_inurba_marseille","lat":43.2497,"lon":5.40503,"is_reserved":false,"is_disabled":false,"rental_uris":{"android":"levelo://app?vid=977075a4-40dc-4723-a526-d5ddfecea214","ios":"levelo://app?vid=977075a4-40dc-4723-a526-d5ddfecea214"},"vehicle_type_id":"4","last_reported":1781249443,"current_range_meters":5600,"station_id":"st_d2ngiaodas8pm72gd1h0","pricing_plan_id":"cebpf4jnsgd1na2vs0mg"},{"bike_id":"2e41d0d3-9e86-4c08-89a6-e0a70cc8ae89","system_id":"levelo_inurba_marseille","lat":43.29248,"lon":5.38251,"is_reserved":false,"is_disabled":true,"rental_uris":{"android":"levelo://app?vid=2e41d0d3-9e86-4c08-89a6-e0a70cc8ae89","ios":"levelo://app?vid=2e41d0d3-9e86-4c08-89a6-e0a70cc8ae89"},"vehicle_type_id":"4","last_reported":1781249443,"current_range_meters":5600,"station_id":"","pricing_plan_id":"cebpf4jnsgd1na2vs0mg"},{"bike_id":"f0818b5d-42d0-4804-9926-1b5efffc7a77","system_id":"levelo_inurba_marseille","lat":43.26238,"lon":5.37446,"is_reserved":false,"is_disabled":false,"rental_uris":{"android":"levelo://app?vid=f0818b5d-42d0-4804-9926-1b5efffc7a77","ios":"levelo://app?vid=f0818b5d-42d0-4804-9926-1b5efffc7a77"},"vehicle_type_id":"4","last_reported":1781249443,"current_range_meters":5600,"station_id":"","pricing_plan_id":"cebpf4jnsgd1na2vs0mg"},{"bike_id":"b6d507f5-c915-4915-8d1e-3c84726370da","system_id":"levelo_inurba_marseille","lat":43.32093,"lon":5.36768,"is_reserved":false,"is_disabled":false,"rental_uris":{"android":"levelo://app?vid=b6d507f5-c915-4915-8d1e-3c84726370da","ios":"levelo://app?vid=b6d507f5-c915-4915-8d1e-3c84726370da"},"vehicle_type_id":"4","last_reported":1781249443,"current_range_meters":5600,"station_id":"ce4bhrh2rcd13ifvqhug","pricing_plan_id":"cebpf4jnsgd1na2vs0mg"},{"bike_id":"8859d173-9f5d-4e39-86ed-34ec86a90175","system_id":"levelo_inurba_marseille","lat":43.29936,"lon":5.4279,"is_reserved":false,"is_disabled":false,"rental_uris":{"android":"levelo://app?vid=8859d173-9f5d-4e39-86ed-34ec86a90175","ios":"levelo://app?vid=8859d173-9f5d-4e39-86ed-34ec86a90175"},"vehicle_type_id":"4","last_reported":1781249443,"current_range_meters":5600,"station_id":"","pricing_plan_id":"cebpf4jnsgd1na2vs0mg"},{"bike_id":"1a9d2cd0-5e2d-4f9c-8eb2-26b62c824b0c","system_id":"levelo_inurba_marseille","lat":43.31707,"lon":5.43702,"is_reserved":false,"is_disabled":false,"rental_uris":{"android":"levelo://app?vid=1a9d2cd0-5e2d-4f9c-8eb2-26b62c824b0c","ios":"levelo://app?vid=1a9d2cd0-5e2d-4f9c-8eb2-26b62c824b0c"},"vehicle_type_id":"4","last_reported":1781249443,"current_range_meters":5600,"station_id":"ce4bhp92rcd13ifvqhcg","pricing_plan_id":"cebpf4jnsgd1na2vs0mg"},{"bike_id":"f36a7326-9811-479f-8f8d-7d9611e1577d","system_id":"levelo_inurba_marseille","lat":43.26224,"lon":5.37435,"is_reserved":false,"is_disabled":false,"rental_uris":{"android":"levelo://app?vid=f36a7326-9811-479f-8f8d-7d9611e1577d","ios":"levelo://app?vid=f36a7326-9811-479f-8f8d-7d9611e1577d"},"vehicle_type_id":"4","last_reported":1781249443,"current_range_meters":5600,"station_id":"","pricing_plan_id":"cebpf4jnsgd1na2vs0mg"},{"bike_id":"c4e25dd2-8766-4481-ae84-2d0da555d937","system_id":"levelo_inurba_marseille","lat":43.31363,"lon":5.384849,"is_reserved":false,"is_disabled":false,"rental_uris":{"android":"levelo://app?vid=c4e25dd2-8766-4481-ae84-2d0da555d937","ios":"levelo://app?vid=c4e25dd2-8766-4481-ae84-2d0da555d937"},"vehicle_type_id":"4","last_reported":1781249443,"current_range_meters":5600,"station_id":"ce4bgt92rcd13ifvqcf0","pricing_plan_id":"cebpf4jnsgd1na2vs0mg"},{"bike_id":"5f721a5f-ca5a-4420-932f-15b3fc7dcc90","system_id":"levelo_inurba_marseille","lat":43.31053,"lon":5.37171,"is_reserved":false,"is_disabled":false,"rental_uris":{"android":"levelo://app?vid=5f721a5f-ca5a-4420-932f-15b3fc7dcc90","ios":"levelo://app?vid=5f721a5f-ca5a-4420-932f-15b3fc7dcc90"},"vehicle_type_id":"4","last_reported":1781249443,"current_range_meters":5600,"station_id":"st_d4kl2rp97mjs73e7tdfg","pricing_plan_id":"cebpf4jnsgd1na2vs0mg"},{"bike_id":"f165abb2-7744-4ffb-b278-55e94862d529","system_id":"levelo_inurba_marseille","lat":43.25556,"lon":5.39209,"is_reserved":false,"is_disabled":false,"rental_uris":{"android":"levelo://app?vid=f165abb2-7744-4ffb-b278-55e94862d529","ios":"levelo://app?vid=f165abb2-7744-4ffb-b278-55e94862d529"},"vehicle_type_id":"4","last_reported":1781249443,"current_range_meters":5600,"station_id":"","pricing_plan_id":"cebpf4jnsgd1na2vs0mg"},{"bike_id":"985cd24b-f767-4712-8a7b-aaa140e8d7a8","system_id":"levelo_inurba_marseille","lat":43.30472,"lon":5.37899,"is_reserved":false,"is_disabled":false,"rental_uris":{"android":"levelo://app?vid=985cd24b-f767-4712-8a7b-aaa140e8d7a8","ios":"levelo://app?vid=985cd24b-f767-4712-8a7b-aaa140e8d7a8"},"vehicle_type_id":"4","last_reported":1781249443,"current_range_meters":5600,"station_id":"ce4bgup2rcd13ifvqcn0","pricing_plan_id":"cebpf4jnsgd1na2vs0mg"},{"bike_id":"191609c5-76f2-4aa7-8070-84a029bf692a","system_id":"levelo_inurba_marseille","lat":43.30529,"lon":5.36715,"is_reserved":false,"is_disabled":false,"rental_uris":{"android":"levelo://app?vid=191609c5-76f2-4aa7-8070-84a029bf692a","ios":"levelo://app?vid=191609c5-76f2-4aa7-8070-84a029bf692a"},"vehicle_type_id":"4","last_reported":1781249443,"current_range_meters":5600,"station_id":"ce4bgrp2rcd13ifvqc9g","pricing_plan_id":"cebpf4jnsgd1na2vs0mg"},{"bike_id":"32e65dbb-64c4-4911-9176-a4e011b0a593","system_id":"levelo_inurba_marseille","lat":43.28668,"lon":5.42637,"is_reserved":false,"is_disabled":false,"rental_uris":{"android":"levelo://app?vid=32e65dbb-64c4-4911-9176-a4e011b0a593","ios":"levelo://app?vid=32e65dbb-64c4-4911-9176-a4e011b0a593"},"vehicle_type_id":"4","last_reported":1781249443,"current_range_meters":5600,"station_id":"","pricing_plan_id":"cebpf4jnsgd1na2vs0mg"},{"bike_id":"e97973f0-2265-42ac-bbee-5cccabea8201","system_id":"levelo_inurba_marseille","lat":43.26369,"lon":5.41063,"is_reserved":false,"is_disabled":false,"rental_uris":{"android":"levelo://app?vid=e97973f0-2265-42ac-bbee-5cccabea8201","ios":"levelo://app?vid=e97973f0-2265-42ac-bbee-5cccabea8201"},"vehicle_type_id":"4","last_reported":1781249443,"current_range_meters":5600,"station_id":"st_d4e5ca6na9uc73bfl5fg","pricing_plan_id":"cebpf4jnsgd1na2vs0mg"},{"bike_id":"7f91218d-0d53-4bf9-9040-6aef680a5923","system_id":"levelo_inurba_marseille","lat":43.30319,"lon":5.36892,"is_reserved":false,"is_disabled":false,"rental_uris":{"android":"levelo://app?vid=7f91218d-0d53-4bf9-9040-6aef680a5923","ios":"levelo://app?vid=7f91218d-0d53-4bf9-9040-6aef680a5923"},"vehicle_type_id":"4","last_reported":1781249443,"current_range_meters":5600,"station_id":"ce4bgqh2rcd13ifvqc5g","pricing_plan_id":"cebpf4jnsgd1na2vs0mg"},{"bike_id":"2a192182-021b-439d-a0e2-993561972500","system_id":"levelo_inurba_marseille","lat":43.225345,"lon":5.348271,"is_reserved":false,"is_disabled":false,"rental_uris":{"android":"levelo://app?vid=2a192182-021b-439d-a0e2-993561972500","ios":"levelo://app?vid=2a192182-021b-439d-a0e2-993561972500"},"vehicle_type_id":"4","last_reported":1781249443,"current_range_meters":6000,"station_id":"st_cvj5dfep6f1abm77gieg","pricing_plan_id":"cebpf4jnsgd1na2vs0mg"},{"bike_id":"779fdad7-e7f4-436c-9fce-9a7825f91cf8","system_id":"levelo_inurba_marseille","lat":43.26224,"lon":5.37434,"is_reserved":false,"is_disabled":false,"rental_uris":{"android":"levelo://app?vid=779fdad7-e7f4-436c-9fce-9a7825f91cf8","ios":"levelo://app?vid=779fdad7-e7f4-436c-9fce-9a7825f91cf8"},"vehicle_type_id":"4","last_reported":1781249443,"current_range_meters":6000,"station_id":"","pricing_plan_id":"cebpf4jnsgd1na2vs0mg"},{"bike_id":"3c1659d8-5e56-4dbb-908b-68c028d3c70c","system_id":"levelo_inurba_marseille","lat":43.24822,"lon":5.37456,"is_reserved":false,"is_disabled":false,"rental_uris":{"android":"levelo://app?vid=3c1659d8-5e56-4dbb-908b-68c028d3c70c","ios":"levelo://app?vid=3c1659d8-5e56-4dbb-908b-68c028d3c70c"},"vehicle_type_id":"4","last_reported":1781249443,"current_range_meters":6000,"station_id":"ce4bhgh2rcd13ifvqfb0","pricing_plan_id":"cebpf4jnsgd1na2vs0mg"},{"bike_id":"9c13aded-ffa8-4c4f-8c30-224f2df46d93","system_id":"levelo_inurba_marseille","lat":43.25863,"lon":5.39927,"is_reserved":false,"is_disabled":false,"rental_uris":{"android":"levelo://app?vid=9c13aded-ffa8-4c4f-8c30-224f2df46d93","ios":"levelo://app?vid=9c13aded-ffa8-4c4f-8c30-224f2df46d93"},"vehicle_type_id":"4","last_reported":1781249443,"current_range_meters":6000,"station_id":"ce4bhl92rcd13ifvqghg","pricing_plan_id":"cebpf4jnsgd1na2vs0mg"},{"bike_id":"3643eb2e-b0e4-40f6-9aa2-b567c4963540","system_id":"levelo_inurba_marseille","lat":43.32102,"lon":5.3679,"is_reserved":false,"is_disabled":false,"rental_uris":{"android":"levelo://app?vid=3643eb2e-b0e4-40f6-9aa2-b567c4963540","ios":"levelo://app?vid=3643eb2e-b0e4-40f6-9aa2-b567c4963540"},"vehicle_type_id":"4","last_reported":1781249443,"current_range_meters":6000,"station_id":"ce4bhrh2rcd13ifvqhug","pricing_plan_id":"cebpf4jnsgd1na2vs0mg"},{"bike_id":"2e26d0e9-aca9-4cbe-acea-6ca83db1a561","system_id":"levelo_inurba_marseille","lat":43.297053,"lon":5.376977,"is_reserved":false,"is_disabled":false,"rental_uris":{"android":"levelo://app?vid=2e26d0e9-aca9-4cbe-acea-6ca83db1a561","ios":"levelo://app?vid=2e26d0e9-aca9-4cbe-acea-6ca83db1a561"},"vehicle_type_id":"4","last_reported":1781249443,"current_range_meters":6000,"station_id":"ce4bh392rcd13ifvqdm0","pricing_plan_id":"cebpf4jnsgd1na2vs0mg"},{"bike_id":"86980992-c341-4d42-9003-5f417602c220","system_id":"levelo_inurba_marseille","lat":43.29604,"lon":5.3802,"is_reserved":false,"is_disabled":false,"rental_uris":{"android":"levelo://app?vid=86980992-c341-4d42-9003-5f417602c220","ios":"levelo://app?vid=86980992-c341-4d42-9003-5f417602c220"},"vehicle_type_id":"4","last_reported":1781249443,"current_range_meters":6000,"station_id":"","pricing_plan_id":"cebpf4jnsgd1na2vs0mg"},{"bike_id":"f63e0e69-6a54-4e19-8d8e-f67680de3ed1","system_id":"levelo_inurba_marseille","lat":43.24627,"lon":5.43143,"is_reserved":false,"is_disabled":false,"rental_uris":{"android":"levelo://app?vid=f63e0e69-6a54-4e19-8d8e-f67680de3ed1","ios":"levelo://app?vid=f63e0e69-6a54-4e19-8d8e-f67680de3ed1"},"vehicle_type_id":"4","last_reported":1781249443,"current_range_meters":6000,"station_id":"st_d2m6c4gdas8pm72e190g","pricing_plan_id":"cebpf4jnsgd1na2vs0mg"},{"bike_id":"40de0209-043c-4ed6-84c3-7ac1da5cf58d","system_id":"levelo_inurba_marseille","lat":43.3211,"lon":5.36771,"is_reserved":false,"is_disabled":false,"rental_uris":{"android":"levelo://app?vid=40de0209-043c-4ed6-84c3-7ac1da5cf58d","ios":"levelo://app?vid=40de0209-043c-4ed6-84c3-7ac1da5cf58d"},"vehicle_type_id":"4","last_reported":1781249443,"current_range_meters":6000,"station_id":"ce4bhrh2rcd13ifvqhug","pricing_plan_id":"cebpf4jnsgd1na2vs0mg"},{"bike_id":"95936fb9-6643-4bdd-8b1f-c4ea9a60a36a","system_id":"levelo_inurba_marseille","lat":43.26231,"lon":5.3876,"is_reserved":false,"is_disabled":false,"rental_uris":{"android":"levelo://app?vid=95936fb9-6643-4bdd-8b1f-c4ea9a60a36a","ios":"levelo://app?vid=95936fb9-6643-4bdd-8b1f-c4ea9a60a36a"},"vehicle_type_id":"4","last_reported":1781249443,"current_range_meters":6000,"station_id":"st_d8gjfg747rts73coq3b0","pricing_plan_id":"cebpf4jnsgd1na2vs0mg"},{"bike_id":"97fecbcd-7014-46cf-af35-baf889ba3f2d","system_id":"levelo_inurba_marseille","lat":43.231521,"lon":5.437268,"is_reserved":false,"is_disabled":false,"rental_uris":{"android":"levelo://app?vid=97fecbcd-7014-46cf-af35-baf889ba3f2d","ios":"levelo://app?vid=97fecbcd-7014-46cf-af35-baf889ba3f2d"},"vehicle_type_id":"4","last_reported":1781249443,"current_range_meters":6000,"station_id":"ce4bhmp2rcd13ifvqgog","pricing_plan_id":"cebpf4jnsgd1na2vs0mg"},{"bike_id":"2507d607-3822-4c87-a669-ab9b0690fc01","system_id":"levelo_inurba_marseille","lat":43.28591,"lon":5.35142,"is_reserved":false,"is_disabled":false,"rental_uris":{"android":"levelo://app?vid=2507d607-3822-4c87-a669-ab9b0690fc01","ios":"levelo://app?vid=2507d607-3822-4c87-a669-ab9b0690fc01"},"vehicle_type_id":"4","last_reported":1781249443,"current_range_meters":6000,"station_id":"ce4bhch2rcd13ifvqeug","pricing_plan_id":"cebpf4jnsgd1na2vs0mg"},{"bike_id":"a220ee0c-9c3a-4283-ae1e-969b332b8993","system_id":"levelo_inurba_marseille","lat":43.27958,"lon":5.3873,"is_reserved":false,"is_disabled":false,"rental_uris":{"android":"levelo://app?vid=a220ee0c-9c3a-4283-ae1e-969b332b8993","ios":"levelo://app?vid=a220ee0c-9c3a-4283-ae1e-969b332b8993"},"vehicle_type_id":"4","last_reported":1781249443,"current_range_meters":6000,"station_id":"ce4bhg12rcd13ifvqf80","pricing_plan_id":"cebpf4jnsgd1na2vs0mg"},{"bike_id":"63dbdc45-35d4-4618-aba5-207467753bb9","system_id":"levelo_inurba_marseille","lat":43.30147,"lon":5.38088,"is_reserved":false,"is_disabled":false,"rental_uris":{"android":"levelo://app?vid=63dbdc45-35d4-4618-aba5-207467753bb9","ios":"levelo://app?vid=63dbdc45-35d4-4618-aba5-207467753bb9"},"vehicle_type_id":"4","last_reported":1781249443,"current_range_meters":6000,"station_id":"ce4bgjp2rcd13ifvqbh0","pricing_plan_id":"cebpf4jnsgd1na2vs0mg"},{"bike_id":"e9ce25b8-b480-4907-8ce1-b8aecfbb3105","system_id":"levelo_inurba_marseille","lat":43.32324,"lon":5.36731,"is_reserved":false,"is_disabled":false,"rental_uris":{"android":"levelo://app?vid=e9ce25b8-b480-4907-8ce1-b8aecfbb3105","ios":"levelo://app?vid=e9ce25b8-b480-4907-8ce1-b8aecfbb3105"},"vehicle_type_id":"4","last_reported":1781249443,"current_range_meters":6000,"station_id":"ce4bhsh2rcd13ifvqi2g","pricing_plan_id":"cebpf4jnsgd1na2vs0mg"},{"bike_id":"82fe5de3-874d-4dc2-9977-385d666b9164","system_id":"levelo_inurba_marseille","lat":43.26207,"lon":5.40433,"is_reserved":false,"is_disabled":false,"rental_uris":{"android":"levelo://app?vid=82fe5de3-874d-4dc2-9977-385d666b9164","ios":"levelo://app?vid=82fe5de3-874d-4dc2-9977-385d666b9164"},"vehicle_type_id":"4","last_reported":1781249443,"current_range_meters":6000,"station_id":"ce4bhmh2rcd13ifvqgmg","pricing_plan_id":"cebpf4jnsgd1na2vs0mg"},{"bike_id":"14e3ef24-a961-4d00-9086-77d7b011aac7","system_id":"levelo_inurba_marseille","lat":43.3234,"lon":5.36732,"is_reserved":false,"is_disabled":false,"rental_uris":{"android":"levelo://app?vid=14e3ef24-a961-4d00-9086-77d7b011aac7","ios":"levelo://app?vid=14e3ef24-a961-4d00-9086-77d7b011aac7"},"vehicle_type_id":"4","last_reported":1781249443,"current_range_meters":6000,"station_id":"ce4bhsh2rcd13ifvqi2g","pricing_plan_id":"cebpf4jnsgd1na2vs0mg"},{"bike_id":"3371e92b-963a-4ab0-918d-9217e8fd09be","system_id":"levelo_inurba_marseille","lat":43.28365,"lon":5.36726,"is_reserved":false,"is_disabled":false,"rental_uris":{"android":"levelo://app?vid=3371e92b-963a-4ab0-918d-9217e8fd09be","ios":"levelo://app?vid=3371e92b-963a-4ab0-918d-9217e8fd09be"},"vehicle_type_id":"4","last_reported":1781249443,"current_range_meters":6000,"station_id":"","pricing_plan_id":"cebpf4jnsgd1na2vs0mg"},{"bike_id":"0d98c1f7-de46-4dc9-bb72-1dafbfa0d32f","system_id":"levelo_inurba_marseille","lat":43.24071,"lon":5.37767,"is_reserved":false,"is_disabled":false,"rental_uris":{"android":"levelo://app?vid=0d98c1f7-de46-4dc9-bb72-1dafbfa0d32f","ios":"levelo://app?vid=0d98c1f7-de46-4dc9-bb72-1dafbfa0d32f"},"vehicle_type_id":"4","last_reported":1781249443,"current_range_meters":6000,"station_id":"ce4bhnp2rcd13ifvqgvg","pricing_plan_id":"cebpf4jnsgd1na2vs0mg"},{"bike_id":"3a44773b-a64a-45f6-9197-56969bf49878","system_id":"levelo_inurba_marseille","lat":43.29704,"lon":5.37043,"is_reserved":false,"is_disabled":false,"rental_uris":{"android":"levelo://app?vid=3a44773b-a64a-45f6-9197-56969bf49878","ios":"levelo://app?vid=3a44773b-a64a-45f6-9197-56969bf49878"},"vehicle_type_id":"4","last_reported":1781249443,"current_range_meters":6000,"station_id":"","pricing_plan_id":"cebpf4jnsgd1na2vs0mg"},{"bike_id":"ac1c5b12-558b-407f-9da1-653a11a6b5a8","system_id":"levelo_inurba_marseille","lat":43.26332,"lon":5.41146,"is_reserved":false,"is_disabled":false,"rental_uris":{"android":"levelo://app?vid=ac1c5b12-558b-407f-9da1-653a11a6b5a8","ios":"levelo://app?vid=ac1c5b12-558b-407f-9da1-653a11a6b5a8"},"vehicle_type_id":"4","last_reported":1781249443,"current_range_meters":6000,"station_id":"","pricing_plan_id":"cebpf4jnsgd1na2vs0mg"},{"bike_id":"0d7b97a3-66b9-4613-bc51-d369a4edd144","system_id":"levelo_inurba_marseille","lat":43.27955,"lon":5.3877,"is_reserved":false,"is_disabled":false,"rental_uris":{"android":"levelo://app?vid=0d7b97a3-66b9-4613-bc51-d369a4edd144","ios":"levelo://app?vid=0d7b97a3-66b9-4613-bc51-d369a4edd144"},"vehicle_type_id":"4","last_reported":1781249443,"current_range_meters":6000,"station_id":"ce4bhg12rcd13ifvqf80","pricing_plan_id":"cebpf4jnsgd1na2vs0mg"},{"bike_id":"1ccee54a-d7a5-493f-99a9-fe5241c39e7e","system_id":"levelo_inurba_marseille","lat":43.25718,"lon":5.41094,"is_reserved":false,"is_disabled":false,"rental_uris":{"android":"levelo://app?vid=1ccee54a-d7a5-493f-99a9-fe5241c39e7e","ios":"levelo://app?vid=1ccee54a-d7a5-493f-99a9-fe5241c39e7e"},"vehicle_type_id":"4","last_reported":1781249443,"current_range_meters":6000,"station_id":"ce4bhkp2rcd13ifvqgd0","pricing_plan_id":"cebpf4jnsgd1na2vs0mg"},{"bike_id":"40877921-cf64-4231-b6a7-7f65220da3fe","system_id":"levelo_inurba_marseille","lat":43.29597,"lon":5.38102,"is_reserved":false,"is_disabled":true,"rental_uris":{"android":"levelo://app?vid=40877921-cf64-4231-b6a7-7f65220da3fe","ios":"levelo://app?vid=40877921-cf64-4231-b6a7-7f65220da3fe"},"vehicle_type_id":"4","last_reported":1781249443,"current_range_meters":6400,"station_id":"ce4bgl12rcd13ifvqbo0","pricing_plan_id":"cebpf4jnsgd1na2vs0mg"},{"bike_id":"0e86ce8f-0e91-432f-80bf-d4513463cb14","system_id":"levelo_inurba_marseille","lat":43.26221,"lon":5.37457,"is_reserved":false,"is_disabled":false,"rental_uris":{"android":"levelo://app?vid=0e86ce8f-0e91-432f-80bf-d4513463cb14","ios":"levelo://app?vid=0e86ce8f-0e91-432f-80bf-d4513463cb14"},"vehicle_type_id":"4","last_reported":1781249443,"current_range_meters":6400,"station_id":"ce4bhgp2rcd13ifvqfc0","pricing_plan_id":"cebpf4jnsgd1na2vs0mg"},{"bike_id":"9ff9450d-279a-4786-b3f8-f5b100f3edb0","system_id":"levelo_inurba_marseille","lat":43.29292,"lon":5.40132,"is_reserved":false,"is_disabled":false,"rental_uris":{"android":"levelo://app?vid=9ff9450d-279a-4786-b3f8-f5b100f3edb0","ios":"levelo://app?vid=9ff9450d-279a-4786-b3f8-f5b100f3edb0"},"vehicle_type_id":"4","last_reported":1781249443,"current_range_meters":6400,"station_id":"ce4bh312rcd13ifvqdk0","pricing_plan_id":"cebpf4jnsgd1na2vs0mg"},{"bike_id":"f4604c3b-a56a-425f-8d90-3b8e1f77f859","system_id":"levelo_inurba_marseille","lat":43.31374,"lon":5.38495,"is_reserved":false,"is_disabled":false,"rental_uris":{"android":"levelo://app?vid=f4604c3b-a56a-425f-8d90-3b8e1f77f859","ios":"levelo://app?vid=f4604c3b-a56a-425f-8d90-3b8e1f77f859"},"vehicle_type_id":"4","last_reported":1781249443,"current_range_meters":6400,"station_id":"ce4bgt92rcd13ifvqcf0","pricing_plan_id":"cebpf4jnsgd1na2vs0mg"},{"bike_id":"fbdfa317-724b-4527-894d-7d409cedbf5f","system_id":"levelo_inurba_marseille","lat":43.26053,"lon":5.39403,"is_reserved":false,"is_disabled":false,"rental_uris":{"android":"levelo://app?vid=fbdfa317-724b-4527-894d-7d409cedbf5f","ios":"levelo://app?vid=fbdfa317-724b-4527-894d-7d409cedbf5f"},"vehicle_type_id":"4","last_reported":1781249443,"current_range_meters":6400,"station_id":"ce4bhh92rcd13ifvqfj0","pricing_plan_id":"cebpf4jnsgd1na2vs0mg"},{"bike_id":"cd5a2c25-fd9e-4431-bd1a-8ca27c187142","system_id":"levelo_inurba_marseille","lat":43.27495,"lon":5.42444,"is_reserved":false,"is_disabled":false,"rental_uris":{"android":"levelo://app?vid=cd5a2c25-fd9e-4431-bd1a-8ca27c187142","ios":"levelo://app?vid=cd5a2c25-fd9e-4431-bd1a-8ca27c187142"},"vehicle_type_id":"4","last_reported":1781249443,"current_range_meters":6400,"station_id":"ce4bhn92rcd13ifvqgrg","pricing_plan_id":"cebpf4jnsgd1na2vs0mg"},{"bike_id":"3570045d-68d1-44c4-89a4-c4877f8e7816","system_id":"levelo_inurba_marseille","lat":43.28284,"lon":5.3506,"is_reserved":false,"is_disabled":true,"rental_uris":{"android":"levelo://app?vid=3570045d-68d1-44c4-89a4-c4877f8e7816","ios":"levelo://app?vid=3570045d-68d1-44c4-89a4-c4877f8e7816"},"vehicle_type_id":"4","last_reported":1781249443,"current_range_meters":6400,"station_id":"ce4bhbp2rcd13ifvqerg","pricing_plan_id":"cebpf4jnsgd1na2vs0mg"},{"bike_id":"189594c6-9f9f-40fb-989b-d5c8f60301dd","system_id":"levelo_inurba_marseille","lat":43.2906,"lon":5.37726,"is_reserved":false,"is_disabled":false,"rental_uris":{"android":"levelo://app?vid=189594c6-9f9f-40fb-989b-d5c8f60301dd","ios":"levelo://app?vid=189594c6-9f9f-40fb-989b-d5c8f60301dd"},"vehicle_type_id":"4","last_reported":1781249443,"current_range_meters":6400,"station_id":"","pricing_plan_id":"cebpf4jnsgd1na2vs0mg"},{"bike_id":"f7af250a-2380-4e6f-8023-6e780e77fde3","system_id":"levelo_inurba_marseille","lat":43.2903,"lon":5.39223,"is_reserved":false,"is_disabled":false,"rental_uris":{"android":"levelo://app?vid=f7af250a-2380-4e6f-8023-6e780e77fde3","ios":"levelo://app?vid=f7af250a-2380-4e6f-8023-6e780e77fde3"},"vehicle_type_id":"4","last_reported":1781249443,"current_range_meters":6400,"station_id":"","pricing_plan_id":"cebpf4jnsgd1na2vs0mg"},{"bike_id":"c59256da-821e-42bd-9bae-e23e92cfd004","system_id":"levelo_inurba_marseille","lat":43.28953,"lon":5.38794,"is_reserved":false,"is_disabled":false,"rental_uris":{"android":"levelo://app?vid=c59256da-821e-42bd-9bae-e23e92cfd004","ios":"levelo://app?vid=c59256da-821e-42bd-9bae-e23e92cfd004"},"vehicle_type_id":"4","last_reported":1781249443,"current_range_meters":6400,"station_id":"","pricing_plan_id":"cebpf4jnsgd1na2vs0mg"},{"bike_id":"1f4db870-cf31-4d2c-805e-104dfb5bc01f","system_id":"levelo_inurba_marseille","lat":43.28054,"lon":5.3534,"is_reserved":false,"is_disabled":false,"rental_uris":{"android":"levelo://app?vid=1f4db870-cf31-4d2c-805e-104dfb5bc01f","ios":"levelo://app?vid=1f4db870-cf31-4d2c-805e-104dfb5bc01f"},"vehicle_type_id":"4","last_reported":1781249443,"current_range_meters":6400,"station_id":"","pricing_plan_id":"cebpf4jnsgd1na2vs0mg"},{"bike_id":"e286b9db-9cdb-47bf-83f8-bf3f4913b34e","system_id":"levelo_inurba_marseille","lat":43.31114,"lon":5.3779,"is_reserved":false,"is_disabled":false,"rental_uris":{"android":"levelo://app?vid=e286b9db-9cdb-47bf-83f8-bf3f4913b34e","ios":"levelo://app?vid=e286b9db-9cdb-47bf-83f8-bf3f4913b34e"},"vehicle_type_id":"4","last_reported":1781249443,"current_range_meters":6400,"station_id":"ce4bgt92rcd13ifvqcg0","pricing_plan_id":"cebpf4jnsgd1na2vs0mg"},{"bike_id":"edd7f6cf-c00d-4334-ba4f-ddda86c6a12e","system_id":"levelo_inurba_marseille","lat":43.30316,"lon":5.37617,"is_reserved":false,"is_disabled":false,"rental_uris":{"android":"levelo://app?vid=edd7f6cf-c00d-4334-ba4f-ddda86c6a12e","ios":"levelo://app?vid=edd7f6cf-c00d-4334-ba4f-ddda86c6a12e"},"vehicle_type_id":"4","last_reported":1781249443,"current_range_meters":6400,"station_id":"","pricing_plan_id":"cebpf4jnsgd1na2vs0mg"},{"bike_id":"0193df8e-e671-4439-b878-059ede893bd0","system_id":"levelo_inurba_marseille","lat":43.24668,"lon":5.38171,"is_reserved":false,"is_disabled":false,"rental_uris":{"android":"levelo://app?vid=0193df8e-e671-4439-b878-059ede893bd0","ios":"levelo://app?vid=0193df8e-e671-4439-b878-059ede893bd0"},"vehicle_type_id":"4","last_reported":1781249443,"current_range_meters":6400,"station_id":"ce4bhih2rcd13ifvqfr0","pricing_plan_id":"cebpf4jnsgd1na2vs0mg"},{"bike_id":"8a2f8245-c309-4616-a7d1-163b5c6d8e13","system_id":"levelo_inurba_marseille","lat":43.22795,"lon":5.34928,"is_reserved":false,"is_disabled":false,"rental_uris":{"android":"levelo://app?vid=8a2f8245-c309-4616-a7d1-163b5c6d8e13","ios":"levelo://app?vid=8a2f8245-c309-4616-a7d1-163b5c6d8e13"},"vehicle_type_id":"4","last_reported":1781249443,"current_range_meters":6400,"station_id":"","pricing_plan_id":"cebpf4jnsgd1na2vs0mg"},{"bike_id":"df0910d2-98e4-41b7-80c0-bc63c01fde5e","system_id":"levelo_inurba_marseille","lat":43.31313,"lon":5.43266,"is_reserved":false,"is_disabled":false,"rental_uris":{"android":"levelo://app?vid=df0910d2-98e4-41b7-80c0-bc63c01fde5e","ios":"levelo://app?vid=df0910d2-98e4-41b7-80c0-bc63c01fde5e"},"vehicle_type_id":"4","last_reported":1781249443,"current_range_meters":6400,"station_id":"","pricing_plan_id":"cebpf4jnsgd1na2vs0mg"},{"bike_id":"088a5444-f5d5-4beb-9db7-274b2519a022","system_id":"levelo_inurba_marseille","lat":43.31871,"lon":5.40006,"is_reserved":false,"is_disabled":false,"rental_uris":{"android":"levelo://app?vid=088a5444-f5d5-4beb-9db7-274b2519a022","ios":"levelo://app?vid=088a5444-f5d5-4beb-9db7-274b2519a022"},"vehicle_type_id":"4","last_reported":1781249443,"current_range_meters":6400,"station_id":"","pricing_plan_id":"cebpf4jnsgd1na2vs0mg"},{"bike_id":"bc21bf03-4137-4d04-86ac-ec41e9d80439","system_id":"levelo_inurba_marseille","lat":43.28864,"lon":5.42514,"is_reserved":false,"is_disabled":false,"rental_uris":{"android":"levelo://app?vid=bc21bf03-4137-4d04-86ac-ec41e9d80439","ios":"levelo://app?vid=bc21bf03-4137-4d04-86ac-ec41e9d80439"},"vehicle_type_id":"4","last_reported":1781249443,"current_range_meters":6400,"station_id":"st_d3b462108ojc7389ooeg","pricing_plan_id":"cebpf4jnsgd1na2vs0mg"},{"bike_id":"bb5c455c-4f49-463e-b880-cdbc7c4a5e22","system_id":"levelo_inurba_marseille","lat":43.29903,"lon":5.38655,"is_reserved":false,"is_disabled":false,"rental_uris":{"android":"levelo://app?vid=bb5c455c-4f49-463e-b880-cdbc7c4a5e22","ios":"levelo://app?vid=bb5c455c-4f49-463e-b880-cdbc7c4a5e22"},"vehicle_type_id":"4","last_reported":1781249443,"current_range_meters":6800,"station_id":"","pricing_plan_id":"cebpf4jnsgd1na2vs0mg"},{"bike_id":"c48d0cd6-9afd-4f24-97bc-cfac1a2467e0","system_id":"levelo_inurba_marseille","lat":43.31259,"lon":5.42806,"is_reserved":false,"is_disabled":false,"rental_uris":{"android":"levelo://app?vid=c48d0cd6-9afd-4f24-97bc-cfac1a2467e0","ios":"levelo://app?vid=c48d0cd6-9afd-4f24-97bc-cfac1a2467e0"},"vehicle_type_id":"4","last_reported":1781249443,"current_range_meters":6800,"station_id":"","pricing_plan_id":"cebpf4jnsgd1na2vs0mg"},{"bike_id":"cb4a87f1-ecd2-4522-a840-5c2028883f08","system_id":"levelo_inurba_marseille","lat":43.28621,"lon":5.3509,"is_reserved":false,"is_disabled":false,"rental_uris":{"android":"levelo://app?vid=cb4a87f1-ecd2-4522-a840-5c2028883f08","ios":"levelo://app?vid=cb4a87f1-ecd2-4522-a840-5c2028883f08"},"vehicle_type_id":"4","last_reported":1781249443,"current_range_meters":6800,"station_id":"ce4bhch2rcd13ifvqeug","pricing_plan_id":"cebpf4jnsgd1na2vs0mg"},{"bike_id":"ffe64971-2235-4928-8273-139de2def9e3","system_id":"levelo_inurba_marseille","lat":43.29369,"lon":5.37245,"is_reserved":false,"is_disabled":false,"rental_uris":{"android":"levelo://app?vid=ffe64971-2235-4928-8273-139de2def9e3","ios":"levelo://app?vid=ffe64971-2235-4928-8273-139de2def9e3"},"vehicle_type_id":"4","last_reported":1781249443,"current_range_meters":6800,"station_id":"","pricing_plan_id":"cebpf4jnsgd1na2vs0mg"},{"bike_id":"cab0a3cc-b4db-4a30-9f5f-9584fe8f0124","system_id":"levelo_inurba_marseille","lat":43.291671,"lon":5.371598,"is_reserved":false,"is_disabled":false,"rental_uris":{"android":"levelo://app?vid=cab0a3cc-b4db-4a30-9f5f-9584fe8f0124","ios":"levelo://app?vid=cab0a3cc-b4db-4a30-9f5f-9584fe8f0124"},"vehicle_type_id":"4","last_reported":1781249443,"current_range_meters":6800,"station_id":"ce4bha92rcd13ifvqeh0","pricing_plan_id":"cebpf4jnsgd1na2vs0mg"},{"bike_id":"a69ea79a-0fe3-4880-b708-4d75290f88b6","system_id":"levelo_inurba_marseille","lat":43.284718,"lon":5.384193,"is_reserved":false,"is_disabled":false,"rental_uris":{"android":"levelo://app?vid=a69ea79a-0fe3-4880-b708-4d75290f88b6","ios":"levelo://app?vid=a69ea79a-0fe3-4880-b708-4d75290f88b6"},"vehicle_type_id":"4","last_reported":1781249443,"current_range_meters":6800,"station_id":"ce4bh512rcd13ifvqe3g","pricing_plan_id":"cebpf4jnsgd1na2vs0mg"},{"bike_id":"38e82c5b-a024-41ea-9414-094d1d87f4f4","system_id":"levelo_inurba_marseille","lat":43.24662,"lon":5.38174,"is_reserved":false,"is_disabled":false,"rental_uris":{"android":"levelo://app?vid=38e82c5b-a024-41ea-9414-094d1d87f4f4","ios":"levelo://app?vid=38e82c5b-a024-41ea-9414-094d1d87f4f4"},"vehicle_type_id":"4","last_reported":1781249443,"current_range_meters":6800,"station_id":"ce4bhih2rcd13ifvqfr0","pricing_plan_id":"cebpf4jnsgd1na2vs0mg"},{"bike_id":"2096edbb-5760-41ec-847e-3b369aa48d23","system_id":"levelo_inurba_marseille","lat":43.27947,"lon":5.38738,"is_reserved":false,"is_disabled":false,"rental_uris":{"android":"levelo://app?vid=2096edbb-5760-41ec-847e-3b369aa48d23","ios":"levelo://app?vid=2096edbb-5760-41ec-847e-3b369aa48d23"},"vehicle_type_id":"4","last_reported":1781249443,"current_range_meters":6800,"station_id":"ce4bhg12rcd13ifvqf80","pricing_plan_id":"cebpf4jnsgd1na2vs0mg"},{"bike_id":"e69ff938-bff1-463a-a137-ae69e8a50c2b","system_id":"levelo_inurba_marseille","lat":43.25337,"lon":5.42165,"is_reserved":false,"is_disabled":false,"rental_uris":{"android":"levelo://app?vid=e69ff938-bff1-463a-a137-ae69e8a50c2b","ios":"levelo://app?vid=e69ff938-bff1-463a-a137-ae69e8a50c2b"},"vehicle_type_id":"4","last_reported":1781249443,"current_range_meters":6800,"station_id":"st_d2m65c5bi1j21697t3ng","pricing_plan_id":"cebpf4jnsgd1na2vs0mg"},{"bike_id":"90f8f679-21ba-45f4-87f3-79468aeeabc5","system_id":"levelo_inurba_marseille","lat":43.3189,"lon":5.36808,"is_reserved":false,"is_disabled":false,"rental_uris":{"android":"levelo://app?vid=90f8f679-21ba-45f4-87f3-79468aeeabc5","ios":"levelo://app?vid=90f8f679-21ba-45f4-87f3-79468aeeabc5"},"vehicle_type_id":"4","last_reported":1781249443,"current_range_meters":6800,"station_id":"st_d6o2h0d0559c73evc1b0","pricing_plan_id":"cebpf4jnsgd1na2vs0mg"},{"bike_id":"1518bef0-a0df-44e2-a6c4-aa33575d6cf1","system_id":"levelo_inurba_marseille","lat":43.23153,"lon":5.43714,"is_reserved":false,"is_disabled":false,"rental_uris":{"android":"levelo://app?vid=1518bef0-a0df-44e2-a6c4-aa33575d6cf1","ios":"levelo://app?vid=1518bef0-a0df-44e2-a6c4-aa33575d6cf1"},"vehicle_type_id":"4","last_reported":1781249443,"current_range_meters":6800,"station_id":"ce4bhmp2rcd13ifvqgog","pricing_plan_id":"cebpf4jnsgd1na2vs0mg"},{"bike_id":"f7698676-1932-4dbf-ab9d-6c907c9bbe14","system_id":"levelo_inurba_marseille","lat":43.31886,"lon":5.37143,"is_reserved":false,"is_disabled":false,"rental_uris":{"android":"levelo://app?vid=f7698676-1932-4dbf-ab9d-6c907c9bbe14","ios":"levelo://app?vid=f7698676-1932-4dbf-ab9d-6c907c9bbe14"},"vehicle_type_id":"4","last_reported":1781249443,"current_range_meters":6800,"station_id":"","pricing_plan_id":"cebpf4jnsgd1na2vs0mg"},{"bike_id":"24f02d56-4cb2-4734-b396-c4353be9b86c","system_id":"levelo_inurba_marseille","lat":43.32114,"lon":5.36778,"is_reserved":false,"is_disabled":false,"rental_uris":{"android":"levelo://app?vid=24f02d56-4cb2-4734-b396-c4353be9b86c","ios":"levelo://app?vid=24f02d56-4cb2-4734-b396-c4353be9b86c"},"vehicle_type_id":"4","last_reported":1781249443,"current_range_meters":6800,"station_id":"ce4bhrh2rcd13ifvqhug","pricing_plan_id":"cebpf4jnsgd1na2vs0mg"},{"bike_id":"bd86ed6d-2aab-447c-8d64-ff086f383c06","system_id":"levelo_inurba_marseille","lat":43.28317,"lon":5.43628,"is_reserved":false,"is_disabled":false,"rental_uris":{"android":"levelo://app?vid=bd86ed6d-2aab-447c-8d64-ff086f383c06","ios":"levelo://app?vid=bd86ed6d-2aab-447c-8d64-ff086f383c06"},"vehicle_type_id":"4","last_reported":1781249443,"current_range_meters":6800,"station_id":"","pricing_plan_id":"cebpf4jnsgd1na2vs0mg"},{"bike_id":"3c510bac-2053-47e8-91df-a337cabda1f3","system_id":"levelo_inurba_marseille","lat":43.30546,"lon":5.36502,"is_reserved":false,"is_disabled":false,"rental_uris":{"android":"levelo://app?vid=3c510bac-2053-47e8-91df-a337cabda1f3","ios":"levelo://app?vid=3c510bac-2053-47e8-91df-a337cabda1f3"},"vehicle_type_id":"4","last_reported":1781249443,"current_range_meters":6800,"station_id":"ce4bgs12rcd13ifvqcag","pricing_plan_id":"cebpf4jnsgd1na2vs0mg"},{"bike_id":"26053d19-4246-45ab-96bb-68ffe4d3fc54","system_id":"levelo_inurba_marseille","lat":43.299066,"lon":5.381432,"is_reserved":false,"is_disabled":false,"rental_uris":{"android":"levelo://app?vid=26053d19-4246-45ab-96bb-68ffe4d3fc54","ios":"levelo://app?vid=26053d19-4246-45ab-96bb-68ffe4d3fc54"},"vehicle_type_id":"4","last_reported":1781249443,"current_range_meters":6800,"station_id":"ce4bgj12rcd13ifvqbc0","pricing_plan_id":"cebpf4jnsgd1na2vs0mg"},{"bike_id":"ccca9ee5-7bf9-4425-a9b2-ecb6b4ef44af","system_id":"levelo_inurba_marseille","lat":43.27374,"lon":5.3625,"is_reserved":false,"is_disabled":false,"rental_uris":{"android":"levelo://app?vid=ccca9ee5-7bf9-4425-a9b2-ecb6b4ef44af","ios":"levelo://app?vid=ccca9ee5-7bf9-4425-a9b2-ecb6b4ef44af"},"vehicle_type_id":"4","last_reported":1781249443,"current_range_meters":6800,"station_id":"ce4bhbh2rcd13ifvqeo0","pricing_plan_id":"cebpf4jnsgd1na2vs0mg"},{"bike_id":"eef23bf3-0d5d-4d47-8d9f-17cde65d53f1","system_id":"levelo_inurba_marseille","lat":43.30947,"lon":5.3903,"is_reserved":false,"is_disabled":false,"rental_uris":{"android":"levelo://app?vid=eef23bf3-0d5d-4d47-8d9f-17cde65d53f1","ios":"levelo://app?vid=eef23bf3-0d5d-4d47-8d9f-17cde65d53f1"},"vehicle_type_id":"4","last_reported":1781249443,"current_range_meters":6800,"station_id":"ce4bgup2rcd13ifvqco0","pricing_plan_id":"cebpf4jnsgd1na2vs0mg"},{"bike_id":"31e2ad24-3edc-483e-9c48-bdf3d89974f0","system_id":"levelo_inurba_marseille","lat":43.28131,"lon":5.38299,"is_reserved":false,"is_disabled":false,"rental_uris":{"android":"levelo://app?vid=31e2ad24-3edc-483e-9c48-bdf3d89974f0","ios":"levelo://app?vid=31e2ad24-3edc-483e-9c48-bdf3d89974f0"},"vehicle_type_id":"4","last_reported":1781249443,"current_range_meters":6800,"station_id":"","pricing_plan_id":"cebpf4jnsgd1na2vs0mg"},{"bike_id":"95a6a820-080c-4047-9edc-2eab85cc3ea0","system_id":"levelo_inurba_marseille","lat":43.31271,"lon":5.37253,"is_reserved":false,"is_disabled":false,"rental_uris":{"android":"levelo://app?vid=95a6a820-080c-4047-9edc-2eab85cc3ea0","ios":"levelo://app?vid=95a6a820-080c-4047-9edc-2eab85cc3ea0"},"vehicle_type_id":"4","last_reported":1781249443,"current_range_meters":6800,"station_id":"","pricing_plan_id":"cebpf4jnsgd1na2vs0mg"},{"bike_id":"6df8c994-d2f9-4c69-bdc0-f2d80a3ae7b3","system_id":"levelo_inurba_marseille","lat":43.30535,"lon":5.36689,"is_reserved":false,"is_disabled":false,"rental_uris":{"android":"levelo://app?vid=6df8c994-d2f9-4c69-bdc0-f2d80a3ae7b3","ios":"levelo://app?vid=6df8c994-d2f9-4c69-bdc0-f2d80a3ae7b3"},"vehicle_type_id":"4","last_reported":1781249443,"current_range_meters":6800,"station_id":"ce4bgrp2rcd13ifvqc9g","pricing_plan_id":"cebpf4jnsgd1na2vs0mg"},{"bike_id":"aaa66412-2aa3-4106-bf51-3d316dbc10b4","system_id":"levelo_inurba_marseille","lat":43.22563,"lon":5.41625,"is_reserved":false,"is_disabled":false,"rental_uris":{"android":"levelo://app?vid=aaa66412-2aa3-4106-bf51-3d316dbc10b4","ios":"levelo://app?vid=aaa66412-2aa3-4106-bf51-3d316dbc10b4"},"vehicle_type_id":"4","last_reported":1781249443,"current_range_meters":7200,"station_id":"st_d2o4gvlbi1j2169b742g","pricing_plan_id":"cebpf4jnsgd1na2vs0mg"},{"bike_id":"9d08f453-997e-4a86-bb77-48f13810d5e6","system_id":"levelo_inurba_marseille","lat":43.26735,"lon":5.38953,"is_reserved":false,"is_disabled":false,"rental_uris":{"android":"levelo://app?vid=9d08f453-997e-4a86-bb77-48f13810d5e6","ios":"levelo://app?vid=9d08f453-997e-4a86-bb77-48f13810d5e6"},"vehicle_type_id":"4","last_reported":1781249443,"current_range_meters":7200,"station_id":"","pricing_plan_id":"cebpf4jnsgd1na2vs0mg"},{"bike_id":"3df71518-9221-4ece-90aa-5900531e736d","system_id":"levelo_inurba_marseille","lat":43.2606,"lon":5.39412,"is_reserved":false,"is_disabled":false,"rental_uris":{"android":"levelo://app?vid=3df71518-9221-4ece-90aa-5900531e736d","ios":"levelo://app?vid=3df71518-9221-4ece-90aa-5900531e736d"},"vehicle_type_id":"4","last_reported":1781249443,"current_range_meters":7200,"station_id":"ce4bhh92rcd13ifvqfj0","pricing_plan_id":"cebpf4jnsgd1na2vs0mg"},{"bike_id":"313bc9a5-279b-4ac1-a78a-098f1d425938","system_id":"levelo_inurba_marseille","lat":43.303,"lon":5.36877,"is_reserved":false,"is_disabled":false,"rental_uris":{"android":"levelo://app?vid=313bc9a5-279b-4ac1-a78a-098f1d425938","ios":"levelo://app?vid=313bc9a5-279b-4ac1-a78a-098f1d425938"},"vehicle_type_id":"4","last_reported":1781249443,"current_range_meters":7200,"station_id":"ce4bgqh2rcd13ifvqc5g","pricing_plan_id":"cebpf4jnsgd1na2vs0mg"},{"bike_id":"2569d490-0385-4986-85ff-b9b3c90c4a98","system_id":"levelo_inurba_marseille","lat":43.25337,"lon":5.42131,"is_reserved":false,"is_disabled":false,"rental_uris":{"android":"levelo://app?vid=2569d490-0385-4986-85ff-b9b3c90c4a98","ios":"levelo://app?vid=2569d490-0385-4986-85ff-b9b3c90c4a98"},"vehicle_type_id":"4","last_reported":1781249443,"current_range_meters":7200,"station_id":"st_d2m65c5bi1j21697t3ng","pricing_plan_id":"cebpf4jnsgd1na2vs0mg"},{"bike_id":"d31a2197-85de-4860-a093-9e4b03aee0c4","system_id":"levelo_inurba_marseille","lat":43.31485,"lon":5.373,"is_reserved":false,"is_disabled":false,"rental_uris":{"android":"levelo://app?vid=d31a2197-85de-4860-a093-9e4b03aee0c4","ios":"levelo://app?vid=d31a2197-85de-4860-a093-9e4b03aee0c4"},"vehicle_type_id":"4","last_reported":1781249443,"current_range_meters":7200,"station_id":"ce4bgt12rcd13ifvqcd0","pricing_plan_id":"cebpf4jnsgd1na2vs0mg"},{"bike_id":"04d916b4-d9a6-4eda-8fbf-268b6191f060","system_id":"levelo_inurba_marseille","lat":43.29221,"lon":5.35807,"is_reserved":false,"is_disabled":false,"rental_uris":{"android":"levelo://app?vid=04d916b4-d9a6-4eda-8fbf-268b6191f060","ios":"levelo://app?vid=04d916b4-d9a6-4eda-8fbf-268b6191f060"},"vehicle_type_id":"4","last_reported":1781249443,"current_range_meters":7200,"station_id":"ce4bhb12rcd13ifvqel0","pricing_plan_id":"cebpf4jnsgd1na2vs0mg"},{"bike_id":"318c2327-cd61-4b3a-8efa-5ff92eb9038b","system_id":"levelo_inurba_marseille","lat":43.32784,"lon":5.36823,"is_reserved":false,"is_disabled":false,"rental_uris":{"android":"levelo://app?vid=318c2327-cd61-4b3a-8efa-5ff92eb9038b","ios":"levelo://app?vid=318c2327-cd61-4b3a-8efa-5ff92eb9038b"},"vehicle_type_id":"4","last_reported":1781249443,"current_range_meters":7200,"station_id":"","pricing_plan_id":"cebpf4jnsgd1na2vs0mg"},{"bike_id":"a63f155e-51bd-44f4-8362-a779933a2eb3","system_id":"levelo_inurba_marseille","lat":43.27371,"lon":5.36258,"is_reserved":false,"is_disabled":false,"rental_uris":{"android":"levelo://app?vid=a63f155e-51bd-44f4-8362-a779933a2eb3","ios":"levelo://app?vid=a63f155e-51bd-44f4-8362-a779933a2eb3"},"vehicle_type_id":"4","last_reported":1781249443,"current_range_meters":7200,"station_id":"ce4bhbh2rcd13ifvqeo0","pricing_plan_id":"cebpf4jnsgd1na2vs0mg"},{"bike_id":"72741d4e-ee71-41c4-9235-5f95a04fddaf","system_id":"levelo_inurba_marseille","lat":43.31495,"lon":5.37302,"is_reserved":false,"is_disabled":false,"rental_uris":{"android":"levelo://app?vid=72741d4e-ee71-41c4-9235-5f95a04fddaf","ios":"levelo://app?vid=72741d4e-ee71-41c4-9235-5f95a04fddaf"},"vehicle_type_id":"4","last_reported":1781249443,"current_range_meters":7200,"station_id":"ce4bgt12rcd13ifvqcd0","pricing_plan_id":"cebpf4jnsgd1na2vs0mg"},{"bike_id":"69751a1d-7f22-44e7-bea4-0d2897024487","system_id":"levelo_inurba_marseille","lat":43.28476,"lon":5.38436,"is_reserved":false,"is_disabled":true,"rental_uris":{"android":"levelo://app?vid=69751a1d-7f22-44e7-bea4-0d2897024487","ios":"levelo://app?vid=69751a1d-7f22-44e7-bea4-0d2897024487"},"vehicle_type_id":"4","last_reported":1781249443,"current_range_meters":7200,"station_id":"ce4bh512rcd13ifvqe3g","pricing_plan_id":"cebpf4jnsgd1na2vs0mg"},{"bike_id":"1f9a8c3f-6879-4a56-a4a9-e31ef21ef730","system_id":"levelo_inurba_marseille","lat":43.30908,"lon":5.36854,"is_reserved":false,"is_disabled":false,"rental_uris":{"android":"levelo://app?vid=1f9a8c3f-6879-4a56-a4a9-e31ef21ef730","ios":"levelo://app?vid=1f9a8c3f-6879-4a56-a4a9-e31ef21ef730"},"vehicle_type_id":"4","last_reported":1781249443,"current_range_meters":7200,"station_id":"ce4bgn92rcd13ifvqbvg","pricing_plan_id":"cebpf4jnsgd1na2vs0mg"},{"bike_id":"254d10ff-fd65-47cc-b3f8-2dc9a288e5aa","system_id":"levelo_inurba_marseille","lat":43.24166,"lon":5.39684,"is_reserved":false,"is_disabled":false,"rental_uris":{"android":"levelo://app?vid=254d10ff-fd65-47cc-b3f8-2dc9a288e5aa","ios":"levelo://app?vid=254d10ff-fd65-47cc-b3f8-2dc9a288e5aa"},"vehicle_type_id":"4","last_reported":1781249443,"current_range_meters":7200,"station_id":"ce4bhn12rcd13ifvqgpg","pricing_plan_id":"cebpf4jnsgd1na2vs0mg"},{"bike_id":"a0eacf42-f1df-4252-a017-d32bffe0c0e0","system_id":"levelo_inurba_marseille","lat":43.28105,"lon":5.378309,"is_reserved":false,"is_disabled":false,"rental_uris":{"android":"levelo://app?vid=a0eacf42-f1df-4252-a017-d32bffe0c0e0","ios":"levelo://app?vid=a0eacf42-f1df-4252-a017-d32bffe0c0e0"},"vehicle_type_id":"4","last_reported":1781249443,"current_range_meters":7200,"station_id":"ce4bha12rcd13ifvqee0","pricing_plan_id":"cebpf4jnsgd1na2vs0mg"},{"bike_id":"6edb1571-ff0e-41be-86f6-ab57a8172f99","system_id":"levelo_inurba_marseille","lat":43.32093,"lon":5.36776,"is_reserved":false,"is_disabled":false,"rental_uris":{"android":"levelo://app?vid=6edb1571-ff0e-41be-86f6-ab57a8172f99","ios":"levelo://app?vid=6edb1571-ff0e-41be-86f6-ab57a8172f99"},"vehicle_type_id":"4","last_reported":1781249443,"current_range_meters":7200,"station_id":"ce4bhrh2rcd13ifvqhug","pricing_plan_id":"cebpf4jnsgd1na2vs0mg"},{"bike_id":"c4c8f592-2f0a-488a-9059-30a67bfcfd66","system_id":"levelo_inurba_marseille","lat":43.24824,"lon":5.37443,"is_reserved":false,"is_disabled":false,"rental_uris":{"android":"levelo://app?vid=c4c8f592-2f0a-488a-9059-30a67bfcfd66","ios":"levelo://app?vid=c4c8f592-2f0a-488a-9059-30a67bfcfd66"},"vehicle_type_id":"4","last_reported":1781249443,"current_range_meters":7200,"station_id":"ce4bhgh2rcd13ifvqfb0","pricing_plan_id":"cebpf4jnsgd1na2vs0mg"},{"bike_id":"8148c0e0-aa12-45e8-903a-433ca8b036d1","system_id":"levelo_inurba_marseille","lat":43.28674,"lon":5.38272,"is_reserved":false,"is_disabled":false,"rental_uris":{"android":"levelo://app?vid=8148c0e0-aa12-45e8-903a-433ca8b036d1","ios":"levelo://app?vid=8148c0e0-aa12-45e8-903a-433ca8b036d1"},"vehicle_type_id":"4","last_reported":1781249443,"current_range_meters":7200,"station_id":"","pricing_plan_id":"cebpf4jnsgd1na2vs0mg"},{"bike_id":"3124ce88-1f05-4fdb-a8ce-ab2d7e6b47b0","system_id":"levelo_inurba_marseille","lat":43.26236,"lon":5.38772,"is_reserved":false,"is_disabled":false,"rental_uris":{"android":"levelo://app?vid=3124ce88-1f05-4fdb-a8ce-ab2d7e6b47b0","ios":"levelo://app?vid=3124ce88-1f05-4fdb-a8ce-ab2d7e6b47b0"},"vehicle_type_id":"4","last_reported":1781249443,"current_range_meters":7200,"station_id":"st_d8gjfg747rts73coq3b0","pricing_plan_id":"cebpf4jnsgd1na2vs0mg"},{"bike_id":"a848a5d1-feb4-4560-89e7-b2ad298b123f","system_id":"levelo_inurba_marseille","lat":43.24629,"lon":5.43176,"is_reserved":false,"is_disabled":false,"rental_uris":{"android":"levelo://app?vid=a848a5d1-feb4-4560-89e7-b2ad298b123f","ios":"levelo://app?vid=a848a5d1-feb4-4560-89e7-b2ad298b123f"},"vehicle_type_id":"4","last_reported":1781249443,"current_range_meters":7200,"station_id":"st_d2m6c4gdas8pm72e190g","pricing_plan_id":"cebpf4jnsgd1na2vs0mg"},{"bike_id":"b4c0f195-58a3-456c-9ed4-e0663f1468e6","system_id":"levelo_inurba_marseille","lat":43.2825,"lon":5.3738,"is_reserved":false,"is_disabled":false,"rental_uris":{"android":"levelo://app?vid=b4c0f195-58a3-456c-9ed4-e0663f1468e6","ios":"levelo://app?vid=b4c0f195-58a3-456c-9ed4-e0663f1468e6"},"vehicle_type_id":"4","last_reported":1781249443,"current_range_meters":7200,"station_id":"","pricing_plan_id":"cebpf4jnsgd1na2vs0mg"},{"bike_id":"8f215127-d94c-4367-a6cc-58ce59a5f2db","system_id":"levelo_inurba_marseille","lat":43.29689,"lon":5.373,"is_reserved":false,"is_disabled":false,"rental_uris":{"android":"levelo://app?vid=8f215127-d94c-4367-a6cc-58ce59a5f2db","ios":"levelo://app?vid=8f215127-d94c-4367-a6cc-58ce59a5f2db"},"vehicle_type_id":"4","last_reported":1781249443,"current_range_meters":7200,"station_id":"ce4bgk12rcd13ifvqbj0","pricing_plan_id":"cebpf4jnsgd1na2vs0mg"},{"bike_id":"8a01fa38-0939-4730-8f16-253590ffcaf0","system_id":"levelo_inurba_marseille","lat":43.28534,"lon":5.44095,"is_reserved":false,"is_disabled":false,"rental_uris":{"android":"levelo://app?vid=8a01fa38-0939-4730-8f16-253590ffcaf0","ios":"levelo://app?vid=8a01fa38-0939-4730-8f16-253590ffcaf0"},"vehicle_type_id":"4","last_reported":1781249443,"current_range_meters":7200,"station_id":"st_d3j3df2ikq2c7380ej80","pricing_plan_id":"cebpf4jnsgd1na2vs0mg"},{"bike_id":"03497d97-4ed5-4953-81b9-8747f3df671b","system_id":"levelo_inurba_marseille","lat":43.28318,"lon":5.38929,"is_reserved":false,"is_disabled":false,"rental_uris":{"android":"levelo://app?vid=03497d97-4ed5-4953-81b9-8747f3df671b","ios":"levelo://app?vid=03497d97-4ed5-4953-81b9-8747f3df671b"},"vehicle_type_id":"4","last_reported":1781249443,"current_range_meters":7200,"station_id":"","pricing_plan_id":"cebpf4jnsgd1na2vs0mg"},{"bike_id":"9add5ea5-d360-44a6-9dfc-f6a1d8934e60","system_id":"levelo_inurba_marseille","lat":43.30115,"lon":5.40215,"is_reserved":false,"is_disabled":false,"rental_uris":{"android":"levelo://app?vid=9add5ea5-d360-44a6-9dfc-f6a1d8934e60","ios":"levelo://app?vid=9add5ea5-d360-44a6-9dfc-f6a1d8934e60"},"vehicle_type_id":"4","last_reported":1781249443,"current_range_meters":7200,"station_id":"","pricing_plan_id":"cebpf4jnsgd1na2vs0mg"},{"bike_id":"c7003374-df0a-4adf-a763-b7ffcb27c463","system_id":"levelo_inurba_marseille","lat":43.28484,"lon":5.48389,"is_reserved":false,"is_disabled":false,"rental_uris":{"android":"levelo://app?vid=c7003374-df0a-4adf-a763-b7ffcb27c463","ios":"levelo://app?vid=c7003374-df0a-4adf-a763-b7ffcb27c463"},"vehicle_type_id":"4","last_reported":1781249443,"current_range_meters":7200,"station_id":"st_d3svhcjqgbts73a3dn0g","pricing_plan_id":"cebpf4jnsgd1na2vs0mg"},{"bike_id":"5a21a7e0-ae73-4bb0-89b4-0a9a18d73640","system_id":"levelo_inurba_marseille","lat":43.27309,"lon":5.39086,"is_reserved":false,"is_disabled":false,"rental_uris":{"android":"levelo://app?vid=5a21a7e0-ae73-4bb0-89b4-0a9a18d73640","ios":"levelo://app?vid=5a21a7e0-ae73-4bb0-89b4-0a9a18d73640"},"vehicle_type_id":"4","last_reported":1781249443,"current_range_meters":7200,"station_id":"ce4bhgp2rcd13ifvqfe0","pricing_plan_id":"cebpf4jnsgd1na2vs0mg"},{"bike_id":"ee494397-ad1c-4b5e-80ed-9cc6e888762d","system_id":"levelo_inurba_marseille","lat":43.31887,"lon":5.42483,"is_reserved":false,"is_disabled":false,"rental_uris":{"android":"levelo://app?vid=ee494397-ad1c-4b5e-80ed-9cc6e888762d","ios":"levelo://app?vid=ee494397-ad1c-4b5e-80ed-9cc6e888762d"},"vehicle_type_id":"4","last_reported":1781249443,"current_range_meters":7200,"station_id":"","pricing_plan_id":"cebpf4jnsgd1na2vs0mg"},{"bike_id":"0cb02c47-c711-4cb8-a54b-04a50b797778","system_id":"levelo_inurba_marseille","lat":43.27369,"lon":5.36264,"is_reserved":false,"is_disabled":false,"rental_uris":{"android":"levelo://app?vid=0cb02c47-c711-4cb8-a54b-04a50b797778","ios":"levelo://app?vid=0cb02c47-c711-4cb8-a54b-04a50b797778"},"vehicle_type_id":"4","last_reported":1781249443,"current_range_meters":8000,"station_id":"ce4bhbh2rcd13ifvqeo0","pricing_plan_id":"cebpf4jnsgd1na2vs0mg"},{"bike_id":"97df535e-85a8-4b8b-90c2-6f23039a1940","system_id":"levelo_inurba_marseille","lat":43.29279,"lon":5.37414,"is_reserved":false,"is_disabled":true,"rental_uris":{"android":"levelo://app?vid=97df535e-85a8-4b8b-90c2-6f23039a1940","ios":"levelo://app?vid=97df535e-85a8-4b8b-90c2-6f23039a1940"},"vehicle_type_id":"4","last_reported":1781249443,"current_range_meters":8000,"station_id":"ce4bgi12rcd13ifvqb70","pricing_plan_id":"cebpf4jnsgd1na2vs0mg"},{"bike_id":"4d2bebf7-8386-415b-a6ab-191c1fd6ecb0","system_id":"levelo_inurba_marseille","lat":43.26064,"lon":5.39381,"is_reserved":false,"is_disabled":false,"rental_uris":{"android":"levelo://app?vid=4d2bebf7-8386-415b-a6ab-191c1fd6ecb0","ios":"levelo://app?vid=4d2bebf7-8386-415b-a6ab-191c1fd6ecb0"},"vehicle_type_id":"4","last_reported":1781249443,"current_range_meters":8000,"station_id":"ce4bhh92rcd13ifvqfj0","pricing_plan_id":"cebpf4jnsgd1na2vs0mg"},{"bike_id":"18457be2-b611-4aab-b482-f77da53306f7","system_id":"levelo_inurba_marseille","lat":43.26192,"lon":5.37448,"is_reserved":false,"is_disabled":true,"rental_uris":{"android":"levelo://app?vid=18457be2-b611-4aab-b482-f77da53306f7","ios":"levelo://app?vid=18457be2-b611-4aab-b482-f77da53306f7"},"vehicle_type_id":"4","last_reported":1781249443,"current_range_meters":8000,"station_id":"ce4bhgp2rcd13ifvqfc0","pricing_plan_id":"cebpf4jnsgd1na2vs0mg"},{"bike_id":"4865a1c5-afe2-4dda-8194-f69b08d22f31","system_id":"levelo_inurba_marseille","lat":43.255805,"lon":5.382245,"is_reserved":false,"is_disabled":false,"rental_uris":{"android":"levelo://app?vid=4865a1c5-afe2-4dda-8194-f69b08d22f31","ios":"levelo://app?vid=4865a1c5-afe2-4dda-8194-f69b08d22f31"},"vehicle_type_id":"4","last_reported":1781249443,"current_range_meters":8000,"station_id":"ce4bhih2rcd13ifvqfs0","pricing_plan_id":"cebpf4jnsgd1na2vs0mg"},{"bike_id":"7517084f-fe9a-4d45-ab85-e98fc61d6524","system_id":"levelo_inurba_marseille","lat":43.30956,"lon":5.39068,"is_reserved":false,"is_disabled":false,"rental_uris":{"android":"levelo://app?vid=7517084f-fe9a-4d45-ab85-e98fc61d6524","ios":"levelo://app?vid=7517084f-fe9a-4d45-ab85-e98fc61d6524"},"vehicle_type_id":"4","last_reported":1781249443,"current_range_meters":8000,"station_id":"ce4bgup2rcd13ifvqco0","pricing_plan_id":"cebpf4jnsgd1na2vs0mg"},{"bike_id":"e709d536-92d3-4ca3-8221-f3eccb7a50dc","system_id":"levelo_inurba_marseille","lat":43.33544,"lon":5.37482,"is_reserved":false,"is_disabled":false,"rental_uris":{"android":"levelo://app?vid=e709d536-92d3-4ca3-8221-f3eccb7a50dc","ios":"levelo://app?vid=e709d536-92d3-4ca3-8221-f3eccb7a50dc"},"vehicle_type_id":"4","last_reported":1781249443,"current_range_meters":8000,"station_id":"st_d46tts09ee8s73dlu43g","pricing_plan_id":"cebpf4jnsgd1na2vs0mg"},{"bike_id":"88d88840-9fc2-4a2e-b363-e13f413fcb82","system_id":"levelo_inurba_marseille","lat":43.31046,"lon":5.37158,"is_reserved":false,"is_disabled":false,"rental_uris":{"android":"levelo://app?vid=88d88840-9fc2-4a2e-b363-e13f413fcb82","ios":"levelo://app?vid=88d88840-9fc2-4a2e-b363-e13f413fcb82"},"vehicle_type_id":"4","last_reported":1781249443,"current_range_meters":8000,"station_id":"st_d4kl2rp97mjs73e7tdfg","pricing_plan_id":"cebpf4jnsgd1na2vs0mg"},{"bike_id":"81cfb551-2551-4d13-95d0-3097f2b6eeb4","system_id":"levelo_inurba_marseille","lat":43.27179,"lon":5.41029,"is_reserved":false,"is_disabled":false,"rental_uris":{"android":"levelo://app?vid=81cfb551-2551-4d13-95d0-3097f2b6eeb4","ios":"levelo://app?vid=81cfb551-2551-4d13-95d0-3097f2b6eeb4"},"vehicle_type_id":"4","last_reported":1781249443,"current_range_meters":8000,"station_id":"ce4bhl12rcd13ifvqgf0","pricing_plan_id":"cebpf4jnsgd1na2vs0mg"},{"bike_id":"b105e559-ad92-41ad-9bdf-4bd2f454dd68","system_id":"levelo_inurba_marseille","lat":43.30205,"lon":5.44918,"is_reserved":false,"is_disabled":false,"rental_uris":{"android":"levelo://app?vid=b105e559-ad92-41ad-9bdf-4bd2f454dd68","ios":"levelo://app?vid=b105e559-ad92-41ad-9bdf-4bd2f454dd68"},"vehicle_type_id":"4","last_reported":1781249443,"current_range_meters":8000,"station_id":"","pricing_plan_id":"cebpf4jnsgd1na2vs0mg"},{"bike_id":"6129c293-e1ac-4d7e-85c8-adbe022df066","system_id":"levelo_inurba_marseille","lat":43.24954,"lon":5.40484,"is_reserved":false,"is_disabled":false,"rental_uris":{"android":"levelo://app?vid=6129c293-e1ac-4d7e-85c8-adbe022df066","ios":"levelo://app?vid=6129c293-e1ac-4d7e-85c8-adbe022df066"},"vehicle_type_id":"4","last_reported":1781249443,"current_range_meters":8000,"station_id":"st_d2ngiaodas8pm72gd1h0","pricing_plan_id":"cebpf4jnsgd1na2vs0mg"},{"bike_id":"474936c9-a214-4b5a-9241-5f7ab07670f7","system_id":"levelo_inurba_marseille","lat":43.29654,"lon":5.37672,"is_reserved":false,"is_disabled":true,"rental_uris":{"android":"levelo://app?vid=474936c9-a214-4b5a-9241-5f7ab07670f7","ios":"levelo://app?vid=474936c9-a214-4b5a-9241-5f7ab07670f7"},"vehicle_type_id":"4","last_reported":1781249443,"current_range_meters":8000,"station_id":"ce4bgi92rcd13ifvqb90","pricing_plan_id":"cebpf4jnsgd1na2vs0mg"},{"bike_id":"06462e2f-504d-4811-a03d-beaf15379edb","system_id":"levelo_inurba_marseille","lat":43.2821,"lon":5.39047,"is_reserved":false,"is_disabled":false,"rental_uris":{"android":"levelo://app?vid=06462e2f-504d-4811-a03d-beaf15379edb","ios":"levelo://app?vid=06462e2f-504d-4811-a03d-beaf15379edb"},"vehicle_type_id":"4","last_reported":1781249443,"current_range_meters":8000,"station_id":"ce4bhn92rcd13ifvqgsg","pricing_plan_id":"cebpf4jnsgd1na2vs0mg"},{"bike_id":"54e2db86-bc1a-49f7-9ee8-28ddee2e83cf","system_id":"levelo_inurba_marseille","lat":43.29982,"lon":5.4087,"is_reserved":false,"is_disabled":false,"rental_uris":{"android":"levelo://app?vid=54e2db86-bc1a-49f7-9ee8-28ddee2e83cf","ios":"levelo://app?vid=54e2db86-bc1a-49f7-9ee8-28ddee2e83cf"},"vehicle_type_id":"4","last_reported":1781249443,"current_range_meters":8000,"station_id":"","pricing_plan_id":"cebpf4jnsgd1na2vs0mg"},{"bike_id":"088f1d47-6cae-41ff-900f-7fd15a7f9f92","system_id":"levelo_inurba_marseille","lat":43.33019,"lon":5.39053,"is_reserved":false,"is_disabled":false,"rental_uris":{"android":"levelo://app?vid=088f1d47-6cae-41ff-900f-7fd15a7f9f92","ios":"levelo://app?vid=088f1d47-6cae-41ff-900f-7fd15a7f9f92"},"vehicle_type_id":"4","last_reported":1781249443,"current_range_meters":8000,"station_id":"ce4bhr92rcd13ifvqhrg","pricing_plan_id":"cebpf4jnsgd1na2vs0mg"},{"bike_id":"6f0e3da0-c648-4ebc-87a0-852734f0967b","system_id":"levelo_inurba_marseille","lat":43.26791,"lon":5.39405,"is_reserved":false,"is_disabled":false,"rental_uris":{"android":"levelo://app?vid=6f0e3da0-c648-4ebc-87a0-852734f0967b","ios":"levelo://app?vid=6f0e3da0-c648-4ebc-87a0-852734f0967b"},"vehicle_type_id":"4","last_reported":1781249443,"current_range_meters":8000,"station_id":"ce4bhh12rcd13ifvqfg0","pricing_plan_id":"cebpf4jnsgd1na2vs0mg"},{"bike_id":"1429e0a9-aeaf-4cb8-8e3e-76381f380fe2","system_id":"levelo_inurba_marseille","lat":43.27641,"lon":5.36093,"is_reserved":false,"is_disabled":false,"rental_uris":{"android":"levelo://app?vid=1429e0a9-aeaf-4cb8-8e3e-76381f380fe2","ios":"levelo://app?vid=1429e0a9-aeaf-4cb8-8e3e-76381f380fe2"},"vehicle_type_id":"4","last_reported":1781249443,"current_range_meters":8000,"station_id":"ce4bgj92rcd13ifvqbe0","pricing_plan_id":"cebpf4jnsgd1na2vs0mg"},{"bike_id":"a0ce5c91-f6f6-45d4-8507-cbc7fe930086","system_id":"levelo_inurba_marseille","lat":43.25341,"lon":5.42179,"is_reserved":false,"is_disabled":false,"rental_uris":{"android":"levelo://app?vid=a0ce5c91-f6f6-45d4-8507-cbc7fe930086","ios":"levelo://app?vid=a0ce5c91-f6f6-45d4-8507-cbc7fe930086"},"vehicle_type_id":"4","last_reported":1781249443,"current_range_meters":8000,"station_id":"st_d2m65c5bi1j21697t3ng","pricing_plan_id":"cebpf4jnsgd1na2vs0mg"},{"bike_id":"23916f15-e9ab-4699-b77c-aa70e00b7371","system_id":"levelo_inurba_marseille","lat":43.22565,"lon":5.41624,"is_reserved":false,"is_disabled":false,"rental_uris":{"android":"levelo://app?vid=23916f15-e9ab-4699-b77c-aa70e00b7371","ios":"levelo://app?vid=23916f15-e9ab-4699-b77c-aa70e00b7371"},"vehicle_type_id":"4","last_reported":1781249443,"current_range_meters":8000,"station_id":"st_d2o4gvlbi1j2169b742g","pricing_plan_id":"cebpf4jnsgd1na2vs0mg"},{"bike_id":"3e4303bd-4e13-42f8-ae0c-25a66192c901","system_id":"levelo_inurba_marseille","lat":43.31547,"lon":5.38823,"is_reserved":false,"is_disabled":false,"rental_uris":{"android":"levelo://app?vid=3e4303bd-4e13-42f8-ae0c-25a66192c901","ios":"levelo://app?vid=3e4303bd-4e13-42f8-ae0c-25a66192c901"},"vehicle_type_id":"4","last_reported":1781249443,"current_range_meters":8400,"station_id":"","pricing_plan_id":"cebpf4jnsgd1na2vs0mg"},{"bike_id":"315d3cd3-9556-47d2-bf87-42573b9faa84","system_id":"levelo_inurba_marseille","lat":43.2989,"lon":5.38386,"is_reserved":false,"is_disabled":false,"rental_uris":{"android":"levelo://app?vid=315d3cd3-9556-47d2-bf87-42573b9faa84","ios":"levelo://app?vid=315d3cd3-9556-47d2-bf87-42573b9faa84"},"vehicle_type_id":"4","last_reported":1781249443,"current_range_meters":8400,"station_id":"","pricing_plan_id":"cebpf4jnsgd1na2vs0mg"},{"bike_id":"b0a17de6-1215-47ee-b07f-69c40add1f50","system_id":"levelo_inurba_marseille","lat":43.26591,"lon":5.39029,"is_reserved":false,"is_disabled":false,"rental_uris":{"android":"levelo://app?vid=b0a17de6-1215-47ee-b07f-69c40add1f50","ios":"levelo://app?vid=b0a17de6-1215-47ee-b07f-69c40add1f50"},"vehicle_type_id":"4","last_reported":1781249443,"current_range_meters":8400,"station_id":"ce4bhe12rcd13ifvqf30","pricing_plan_id":"cebpf4jnsgd1na2vs0mg"},{"bike_id":"d39db183-6bf7-420a-96f5-b25822544857","system_id":"levelo_inurba_marseille","lat":43.32378,"lon":5.36685,"is_reserved":false,"is_disabled":false,"rental_uris":{"android":"levelo://app?vid=d39db183-6bf7-420a-96f5-b25822544857","ios":"levelo://app?vid=d39db183-6bf7-420a-96f5-b25822544857"},"vehicle_type_id":"4","last_reported":1781249443,"current_range_meters":8400,"station_id":"","pricing_plan_id":"cebpf4jnsgd1na2vs0mg"},{"bike_id":"590f4a72-6c54-48f1-a4be-bc50efb4efde","system_id":"levelo_inurba_marseille","lat":43.295976,"lon":5.381038,"is_reserved":false,"is_disabled":true,"rental_uris":{"android":"levelo://app?vid=590f4a72-6c54-48f1-a4be-bc50efb4efde","ios":"levelo://app?vid=590f4a72-6c54-48f1-a4be-bc50efb4efde"},