{"last_updated":1746534136,"ttl":60,"version":"2.2","data":{"bikes":[{"bike_id":"74b2651a-119f-408f-b612-79b8dce89b25","system_id":"levelo_inurba_marseille","lat":43.25113,"lon":5.40321,"is_reserved":false,"is_disabled":false,"rental_uris":{"android":"levelo://app?vid=74b2651a-119f-408f-b612-79b8dce89b25","ios":"levelo://app?vid=74b2651a-119f-408f-b612-79b8dce89b25"},"vehicle_type_id":"4","last_reported":1746534136,"current_range_meters":2800,"station_id":"ce4bhlh2rcd13ifvqgig","pricing_plan_id":"cebpf4jnsgd1na2vs0mg"},{"bike_id":"905bcb84-acab-4f28-a474-a2d8c0791998","system_id":"levelo_inurba_marseille","lat":43.288428,"lon":5.392818,"is_reserved":false,"is_disabled":false,"rental_uris":{"android":"levelo://app?vid=905bcb84-acab-4f28-a474-a2d8c0791998","ios":"levelo://app?vid=905bcb84-acab-4f28-a474-a2d8c0791998"},"vehicle_type_id":"4","last_reported":1746534136,"current_range_meters":3200,"station_id":"ce4bh2p2rcd13ifvqdi0","pricing_plan_id":"cebpf4jnsgd1na2vs0mg"},{"bike_id":"57f7a092-d104-467f-9e6e-db5552af0f36","system_id":"levelo_inurba_marseille","lat":43.28157,"lon":5.42647,"is_reserved":false,"is_disabled":false,"rental_uris":{"android":"levelo://app?vid=57f7a092-d104-467f-9e6e-db5552af0f36","ios":"levelo://app?vid=57f7a092-d104-467f-9e6e-db5552af0f36"},"vehicle_type_id":"4","last_reported":1746534136,"current_range_meters":3200,"station_id":"ce4bhnh2rcd13ifvqgug","pricing_plan_id":"cebpf4jnsgd1na2vs0mg"},{"bike_id":"66b646b3-6352-44bb-9bfb-21570512e3e5","system_id":"levelo_inurba_marseille","lat":43.28166,"lon":5.40392,"is_reserved":false,"is_disabled":false,"rental_uris":{"android":"levelo://app?vid=66b646b3-6352-44bb-9bfb-21570512e3e5","ios":"levelo://app?vid=66b646b3-6352-44bb-9bfb-21570512e3e5"},"vehicle_type_id":"4","last_reported":1746534136,"current_range_meters":3600,"station_id":"","pricing_plan_id":"cebpf4jnsgd1na2vs0mg"},{"bike_id":"495afa83-145a-4d93-a1ec-19e6021bbbd2","system_id":"levelo_inurba_marseille","lat":43.29307,"lon":5.371799,"is_reserved":false,"is_disabled":false,"rental_uris":{"android":"levelo://app?vid=495afa83-145a-4d93-a1ec-19e6021bbbd2","ios":"levelo://app?vid=495afa83-145a-4d93-a1ec-19e6021bbbd2"},"vehicle_type_id":"4","last_reported":1746534136,"current_range_meters":3600,"station_id":"ce4bgh92rcd13ifvqb40","pricing_plan_id":"cebpf4jnsgd1na2vs0mg"},{"bike_id":"05970a38-e4d4-45d9-a7a4-251c7cfeb41b","system_id":"levelo_inurba_marseille","lat":43.28354,"lon":5.38109,"is_reserved":false,"is_disabled":false,"rental_uris":{"android":"levelo://app?vid=05970a38-e4d4-45d9-a7a4-251c7cfeb41b","ios":"levelo://app?vid=05970a38-e4d4-45d9-a7a4-251c7cfeb41b"},"vehicle_type_id":"4","last_reported":1746534136,"current_range_meters":3600,"station_id":"ce4bh412rcd13ifvqdr0","pricing_plan_id":"cebpf4jnsgd1na2vs0mg"},{"bike_id":"45366526-a62a-4665-ba13-4ed8fd6059bc","system_id":"levelo_inurba_marseille","lat":43.30524,"lon":5.36709,"is_reserved":false,"is_disabled":false,"rental_uris":{"android":"levelo://app?vid=45366526-a62a-4665-ba13-4ed8fd6059bc","ios":"levelo://app?vid=45366526-a62a-4665-ba13-4ed8fd6059bc"},"vehicle_type_id":"4","last_reported":1746534136,"current_range_meters":4000,"station_id":"ce4bgrp2rcd13ifvqc9g","pricing_plan_id":"cebpf4jnsgd1na2vs0mg"},{"bike_id":"ba40fb55-1751-4579-8dfb-dbe59665a7c9","system_id":"levelo_inurba_marseille","lat":43.30455,"lon":5.37906,"is_reserved":false,"is_disabled":false,"rental_uris":{"android":"levelo://app?vid=ba40fb55-1751-4579-8dfb-dbe59665a7c9","ios":"levelo://app?vid=ba40fb55-1751-4579-8dfb-dbe59665a7c9"},"vehicle_type_id":"4","last_reported":1746534136,"current_range_meters":4000,"station_id":"ce4bgup2rcd13ifvqcn0","pricing_plan_id":"cebpf4jnsgd1na2vs0mg"},{"bike_id":"105cf3e3-9061-4535-949c-97d662f7705a","system_id":"levelo_inurba_marseille","lat":43.31481,"lon":5.37308,"is_reserved":false,"is_disabled":false,"rental_uris":{"android":"levelo://app?vid=105cf3e3-9061-4535-949c-97d662f7705a","ios":"levelo://app?vid=105cf3e3-9061-4535-949c-97d662f7705a"},"vehicle_type_id":"4","last_reported":1746534136,"current_range_meters":4800,"station_id":"ce4bgt12rcd13ifvqcd0","pricing_plan_id":"cebpf4jnsgd1na2vs0mg"},{"bike_id":"2d07ba52-9587-463f-a15e-0dc9acd35623","system_id":"levelo_inurba_marseille","lat":43.31212,"lon":5.36879,"is_reserved":false,"is_disabled":false,"rental_uris":{"android":"levelo://app?vid=2d07ba52-9587-463f-a15e-0dc9acd35623","ios":"levelo://app?vid=2d07ba52-9587-463f-a15e-0dc9acd35623"},"vehicle_type_id":"4","last_reported":1746534136,"current_range_meters":4400,"station_id":"ce4bgl92rcd13ifvqbq0","pricing_plan_id":"cebpf4jnsgd1na2vs0mg"},{"bike_id":"713addbb-83ed-4bb4-8953-037e3c486bd4","system_id":"levelo_inurba_marseille","lat":43.24164,"lon":5.36392,"is_reserved":false,"is_disabled":false,"rental_uris":{"android":"levelo://app?vid=713addbb-83ed-4bb4-8953-037e3c486bd4","ios":"levelo://app?vid=713addbb-83ed-4bb4-8953-037e3c486bd4"},"vehicle_type_id":"4","last_reported":1746534136,"current_range_meters":4800,"station_id":"cpo36qri1sfpv3e86is0","pricing_plan_id":"cebpf4jnsgd1na2vs0mg"},{"bike_id":"c2fff035-6128-402a-b38b-ebc94261b3d8","system_id":"levelo_inurba_marseille","lat":43.21189,"lon":5.35073,"is_reserved":false,"is_disabled":false,"rental_uris":{"android":"levelo://app?vid=c2fff035-6128-402a-b38b-ebc94261b3d8","ios":"levelo://app?vid=c2fff035-6128-402a-b38b-ebc94261b3d8"},"vehicle_type_id":"4","last_reported":1746534136,"current_range_meters":4800,"station_id":"st_cvj6sg6p6f1abm77japg","pricing_plan_id":"cebpf4jnsgd1na2vs0mg"},{"bike_id":"5c7249a3-596f-4101-8dbd-1087a1f3b438","system_id":"levelo_inurba_marseille","lat":43.231857,"lon":5.355551,"is_reserved":false,"is_disabled":false,"rental_uris":{"android":"levelo://app?vid=5c7249a3-596f-4101-8dbd-1087a1f3b438","ios":"levelo://app?vid=5c7249a3-596f-4101-8dbd-1087a1f3b438"},"vehicle_type_id":"4","last_reported":1746534136,"current_range_meters":5600,"station_id":"ce4bhu92rcd13ifvqi70","pricing_plan_id":"cebpf4jnsgd1na2vs0mg"},{"bike_id":"10c5aa5a-53d9-4e2a-99a9-4cbd6991bd0e","system_id":"levelo_inurba_marseille","lat":43.29978,"lon":5.37184,"is_reserved":false,"is_disabled":false,"rental_uris":{"android":"levelo://app?vid=10c5aa5a-53d9-4e2a-99a9-4cbd6991bd0e","ios":"levelo://app?vid=10c5aa5a-53d9-4e2a-99a9-4cbd6991bd0e"},"vehicle_type_id":"4","last_reported":1746534136,"current_range_meters":5600,"station_id":"ce4bgr92rcd13ifvqc7g","pricing_plan_id":"cebpf4jnsgd1na2vs0mg"},{"bike_id":"3b9dbdf0-6696-4fb0-a657-2d32493853d2","system_id":"levelo_inurba_marseille","lat":43.30905,"lon":5.36844,"is_reserved":false,"is_disabled":false,"rental_uris":{"android":"levelo://app?vid=3b9dbdf0-6696-4fb0-a657-2d32493853d2","ios":"levelo://app?vid=3b9dbdf0-6696-4fb0-a657-2d32493853d2"},"vehicle_type_id":"4","last_reported":1746534136,"current_range_meters":5600,"station_id":"ce4bgn92rcd13ifvqbvg","pricing_plan_id":"cebpf4jnsgd1na2vs0mg"},{"bike_id":"7773ae02-7680-4969-97e6-89560db22fa9","system_id":"levelo_inurba_marseille","lat":43.29003,"lon":5.35609,"is_reserved":false,"is_disabled":false,"rental_uris":{"android":"levelo://app?vid=7773ae02-7680-4969-97e6-89560db22fa9","ios":"levelo://app?vid=7773ae02-7680-4969-97e6-89560db22fa9"},"vehicle_type_id":"4","last_reported":1746534136,"current_range_meters":4800,"station_id":"ce4bhb92rcd13ifvqen0","pricing_plan_id":"cebpf4jnsgd1na2vs0mg"},{"bike_id":"36f34711-80ee-4c52-8eb6-49f76d3e2cea","system_id":"levelo_inurba_marseille","lat":43.28342,"lon":5.38105,"is_reserved":false,"is_disabled":false,"rental_uris":{"android":"levelo://app?vid=36f34711-80ee-4c52-8eb6-49f76d3e2cea","ios":"levelo://app?vid=36f34711-80ee-4c52-8eb6-49f76d3e2cea"},"vehicle_type_id":"4","last_reported":1746534136,"current_range_meters":5600,"station_id":"ce4bh412rcd13ifvqdr0","pricing_plan_id":"cebpf4jnsgd1na2vs0mg"},{"bike_id":"18218d09-6087-4f36-b33d-ce54fa2c9754","system_id":"levelo_inurba_marseille","lat":43.28081,"lon":5.39672,"is_reserved":false,"is_disabled":false,"rental_uris":{"android":"levelo://app?vid=18218d09-6087-4f36-b33d-ce54fa2c9754","ios":"levelo://app?vid=18218d09-6087-4f36-b33d-ce54fa2c9754"},"vehicle_type_id":"4","last_reported":1746534136,"current_range_meters":6000,"station_id":"ce4bho12rcd13ifvqh2g","pricing_plan_id":"cebpf4jnsgd1na2vs0mg"},{"bike_id":"5d330410-087d-4039-aa78-1fe03d68fda8","system_id":"levelo_inurba_marseille","lat":43.29916,"lon":5.37469,"is_reserved":false,"is_disabled":false,"rental_uris":{"android":"levelo://app?vid=5d330410-087d-4039-aa78-1fe03d68fda8","ios":"levelo://app?vid=5d330410-087d-4039-aa78-1fe03d68fda8"},"vehicle_type_id":"4","last_reported":1746534136,"current_range_meters":6000,"station_id":"ce4bgjh2rcd13ifvqbg0","pricing_plan_id":"cebpf4jnsgd1na2vs0mg"},{"bike_id":"482344f1-460c-48ea-83dd-01b9a385e5cf","system_id":"levelo_inurba_marseille","lat":43.306687,"lon":5.36863,"is_reserved":false,"is_disabled":false,"rental_uris":{"android":"levelo://app?vid=482344f1-460c-48ea-83dd-01b9a385e5cf","ios":"levelo://app?vid=482344f1-460c-48ea-83dd-01b9a385e5cf"},"vehicle_type_id":"4","last_reported":1746534136,"current_range_meters":6000,"station_id":"","pricing_plan_id":"cebpf4jnsgd1na2vs0mg"},{"bike_id":"4efeeafe-3df6-4e43-b093-56656f3be2bf","system_id":"levelo_inurba_marseille","lat":43.28985,"lon":5.37833,"is_reserved":false,"is_disabled":false,"rental_uris":{"android":"levelo://app?vid=4efeeafe-3df6-4e43-b093-56656f3be2bf","ios":"levelo://app?vid=4efeeafe-3df6-4e43-b093-56656f3be2bf"},"vehicle_type_id":"4","last_reported":1746534136,"current_range_meters":5600,"station_id":"ce4bh9p2rcd13ifvqed0","pricing_plan_id":"cebpf4jnsgd1na2vs0mg"},{"bike_id":"2ff68842-498e-42d9-9d7b-6b8bed618382","system_id":"levelo_inurba_marseille","lat":43.26499,"lon":5.39535,"is_reserved":false,"is_disabled":false,"rental_uris":{"android":"levelo://app?vid=2ff68842-498e-42d9-9d7b-6b8bed618382","ios":"levelo://app?vid=2ff68842-498e-42d9-9d7b-6b8bed618382"},"vehicle_type_id":"4","last_reported":1746534136,"current_range_meters":6400,"station_id":"ce4bhi12rcd13ifvqfq0","pricing_plan_id":"cebpf4jnsgd1na2vs0mg"},{"bike_id":"c676dae3-bce5-46b1-88af-446d448b2c1d","system_id":"levelo_inurba_marseille","lat":43.31359,"lon":5.38498,"is_reserved":false,"is_disabled":false,"rental_uris":{"android":"levelo://app?vid=c676dae3-bce5-46b1-88af-446d448b2c1d","ios":"levelo://app?vid=c676dae3-bce5-46b1-88af-446d448b2c1d"},"vehicle_type_id":"4","last_reported":1746534136,"current_range_meters":6400,"station_id":"ce4bgt92rcd13ifvqcf0","pricing_plan_id":"cebpf4jnsgd1na2vs0mg"},{"bike_id":"f4e3a0bc-3256-41a2-b924-1223235b9563","system_id":"levelo_inurba_marseille","lat":43.309298,"lon":5.401396,"is_reserved":false,"is_disabled":false,"rental_uris":{"android":"levelo://app?vid=f4e3a0bc-3256-41a2-b924-1223235b9563","ios":"levelo://app?vid=f4e3a0bc-3256-41a2-b924-1223235b9563"},"vehicle_type_id":"4","last_reported":1746534136,"current_range_meters":6400,"station_id":"ce4bgvp2rcd13ifvqct0","pricing_plan_id":"cebpf4jnsgd1na2vs0mg"},{"bike_id":"b29e9d65-57f6-4f4f-8782-20fba7b2673f","system_id":"levelo_inurba_marseille","lat":43.273133,"lon":5.390804,"is_reserved":false,"is_disabled":false,"rental_uris":{"android":"levelo://app?vid=b29e9d65-57f6-4f4f-8782-20fba7b2673f","ios":"levelo://app?vid=b29e9d65-57f6-4f4f-8782-20fba7b2673f"},"vehicle_type_id":"4","last_reported":1746534136,"current_range_meters":6000,"station_id":"ce4bhgp2rcd13ifvqfe0","pricing_plan_id":"cebpf4jnsgd1na2vs0mg"},{"bike_id":"2b013f2d-b3eb-46f2-8196-7b7ffb24b2be","system_id":"levelo_inurba_marseille","lat":43.26959,"lon":5.38633,"is_reserved":false,"is_disabled":false,"rental_uris":{"android":"levelo://app?vid=2b013f2d-b3eb-46f2-8196-7b7ffb24b2be","ios":"levelo://app?vid=2b013f2d-b3eb-46f2-8196-7b7ffb24b2be"},"vehicle_type_id":"4","last_reported":1746534136,"current_range_meters":6800,"station_id":"ce4bhh92rcd13ifvqfh0","pricing_plan_id":"cebpf4jnsgd1na2vs0mg"},{"bike_id":"6449f70a-7445-4d9d-bd9a-24512d102ed7","system_id":"levelo_inurba_marseille","lat":43.27669,"lon":5.38892,"is_reserved":false,"is_disabled":false,"rental_uris":{"android":"levelo://app?vid=6449f70a-7445-4d9d-bd9a-24512d102ed7","ios":"levelo://app?vid=6449f70a-7445-4d9d-bd9a-24512d102ed7"},"vehicle_type_id":"4","last_reported":1746534136,"current_range_meters":6800,"station_id":"ce4bhi12rcd13ifvqfo0","pricing_plan_id":"cebpf4jnsgd1na2vs0mg"},{"bike_id":"b2d48c3d-8a8e-489a-b867-8f1149fa2a66","system_id":"levelo_inurba_marseille","lat":43.274953,"lon":5.4245,"is_reserved":false,"is_disabled":false,"rental_uris":{"android":"levelo://app?vid=b2d48c3d-8a8e-489a-b867-8f1149fa2a66","ios":"levelo://app?vid=b2d48c3d-8a8e-489a-b867-8f1149fa2a66"},"vehicle_type_id":"4","last_reported":1746534136,"current_range_meters":6800,"station_id":"ce4bhn92rcd13ifvqgrg","pricing_plan_id":"cebpf4jnsgd1na2vs0mg"},{"bike_id":"416f578b-a76d-4698-b5ca-69135ef4b579","system_id":"levelo_inurba_marseille","lat":43.24145,"lon":5.36389,"is_reserved":false,"is_disabled":false,"rental_uris":{"android":"levelo://app?vid=416f578b-a76d-4698-b5ca-69135ef4b579","ios":"levelo://app?vid=416f578b-a76d-4698-b5ca-69135ef4b579"},"vehicle_type_id":"4","last_reported":1746534136,"current_range_meters":7200,"station_id":"cpo36qri1sfpv3e86is0","pricing_plan_id":"cebpf4jnsgd1na2vs0mg"},{"bike_id":"c366abcd-bace-4ab0-8c29-c7ef1b6078a5","system_id":"levelo_inurba_marseille","lat":43.28722,"lon":5.37941,"is_reserved":false,"is_disabled":false,"rental_uris":{"android":"levelo://app?vid=c366abcd-bace-4ab0-8c29-c7ef1b6078a5","ios":"levelo://app?vid=c366abcd-bace-4ab0-8c29-c7ef1b6078a5"},"vehicle_type_id":"4","last_reported":1746534136,"current_range_meters":7200,"station_id":"ce4bh9p2rcd13ifvqec0","pricing_plan_id":"cebpf4jnsgd1na2vs0mg"},{"bike_id":"5053cbed-ece9-40a8-904a-a132deb3e02e","system_id":"levelo_inurba_marseille","lat":43.2981,"lon":5.38107,"is_reserved":false,"is_disabled":false,"rental_uris":{"android":"levelo://app?vid=5053cbed-ece9-40a8-904a-a132deb3e02e","ios":"levelo://app?vid=5053cbed-ece9-40a8-904a-a132deb3e02e"},"vehicle_type_id":"4","last_reported":1746534136,"current_range_meters":8400,"station_id":"","pricing_plan_id":"cebpf4jnsgd1na2vs0mg"},{"bike_id":"9e1854ae-0ffa-428e-a405-151b7e4bf46d","system_id":"levelo_inurba_marseille","lat":43.28686,"lon":5.38675,"is_reserved":false,"is_disabled":true,"rental_uris":{"android":"levelo://app?vid=9e1854ae-0ffa-428e-a405-151b7e4bf46d","ios":"levelo://app?vid=9e1854ae-0ffa-428e-a405-151b7e4bf46d"},"vehicle_type_id":"4","last_reported":1746534136,"current_range_meters":8000,"station_id":"ce4bh492rcd13ifvqdug","pricing_plan_id":"cebpf4jnsgd1na2vs0mg"},{"bike_id":"6679e7a9-87eb-4a52-bc6f-7409edf93162","system_id":"levelo_inurba_marseille","lat":43.24069,"lon":5.37767,"is_reserved":false,"is_disabled":false,"rental_uris":{"android":"levelo://app?vid=6679e7a9-87eb-4a52-bc6f-7409edf93162","ios":"levelo://app?vid=6679e7a9-87eb-4a52-bc6f-7409edf93162"},"vehicle_type_id":"4","last_reported":1746534136,"current_range_meters":8000,"station_id":"ce4bhnp2rcd13ifvqgvg","pricing_plan_id":"cebpf4jnsgd1na2vs0mg"},{"bike_id":"709cbf51-0179-4197-b68c-2cda64deb0f3","system_id":"levelo_inurba_marseille","lat":43.30795,"lon":5.38169,"is_reserved":false,"is_disabled":false,"rental_uris":{"android":"levelo://app?vid=709cbf51-0179-4197-b68c-2cda64deb0f3","ios":"levelo://app?vid=709cbf51-0179-4197-b68c-2cda64deb0f3"},"vehicle_type_id":"4","last_reported":1746534136,"current_range_meters":8000,"station_id":"ce4bgt12rcd13ifvqce0","pricing_plan_id":"cebpf4jnsgd1na2vs0mg"},{"bike_id":"f201e35f-0887-46ff-bb2e-950f0791d4ee","system_id":"levelo_inurba_marseille","lat":43.26549,"lon":5.37291,"is_reserved":false,"is_disabled":false,"rental_uris":{"android":"levelo://app?vid=f201e35f-0887-46ff-bb2e-950f0791d4ee","ios":"levelo://app?vid=f201e35f-0887-46ff-bb2e-950f0791d4ee"},"vehicle_type_id":"4","last_reported":1746534136,"current_range_meters":8000,"station_id":"ce4bhg12rcd13ifvqf70","pricing_plan_id":"cebpf4jnsgd1na2vs0mg"},{"bike_id":"3a977798-ab7f-40c8-8787-c9c3dc15ec2e","system_id":"levelo_inurba_marseille","lat":43.29802,"lon":5.38106,"is_reserved":false,"is_disabled":false,"rental_uris":{"android":"levelo://app?vid=3a977798-ab7f-40c8-8787-c9c3dc15ec2e","ios":"levelo://app?vid=3a977798-ab7f-40c8-8787-c9c3dc15ec2e"},"vehicle_type_id":"4","last_reported":1746534136,"current_range_meters":4400,"station_id":"ce4bgip2rcd13ifvqbb0","pricing_plan_id":"cebpf4jnsgd1na2vs0mg"},{"bike_id":"4bbdc891-5a1b-4026-b12c-c98fadf559d0","system_id":"levelo_inurba_marseille","lat":43.28436,"lon":5.39198,"is_reserved":false,"is_disabled":false,"rental_uris":{"android":"levelo://app?vid=4bbdc891-5a1b-4026-b12c-c98fadf559d0","ios":"levelo://app?vid=4bbdc891-5a1b-4026-b12c-c98fadf559d0"},"vehicle_type_id":"4","last_reported":1746534136,"current_range_meters":8400,"station_id":"ce4bhoh2rcd13ifvqh5g","pricing_plan_id":"cebpf4jnsgd1na2vs0mg"},{"bike_id":"a9bf9d3e-6263-49ed-9888-f091bffa6f3e","system_id":"levelo_inurba_marseille","lat":43.2904,"lon":5.37563,"is_reserved":false,"is_disabled":false,"rental_uris":{"android":"levelo://app?vid=a9bf9d3e-6263-49ed-9888-f091bffa6f3e","ios":"levelo://app?vid=a9bf9d3e-6263-49ed-9888-f091bffa6f3e"},"vehicle_type_id":"4","last_reported":1746534136,"current_range_meters":8400,"station_id":"ce4bh692rcd13ifvqe90","pricing_plan_id":"cebpf4jnsgd1na2vs0mg"},{"bike_id":"29421bc5-8f5d-46a2-84e7-dc6b0c156186","system_id":"levelo_inurba_marseille","lat":43.292895,"lon":5.374508,"is_reserved":false,"is_disabled":false,"rental_uris":{"android":"levelo://app?vid=29421bc5-8f5d-46a2-84e7-dc6b0c156186","ios":"levelo://app?vid=29421bc5-8f5d-46a2-84e7-dc6b0c156186"},"vehicle_type_id":"4","last_reported":1746534136,"current_range_meters":8800,"station_id":"ce4bhah2rcd13ifvqei0","pricing_plan_id":"cebpf4jnsgd1na2vs0mg"},{"bike_id":"e0eac0ca-3d77-4486-ab2a-39de88e693b8","system_id":"levelo_inurba_marseille","lat":43.31352,"lon":5.38498,"is_reserved":false,"is_disabled":false,"rental_uris":{"android":"levelo://app?vid=e0eac0ca-3d77-4486-ab2a-39de88e693b8","ios":"levelo://app?vid=e0eac0ca-3d77-4486-ab2a-39de88e693b8"},"vehicle_type_id":"4","last_reported":1746534136,"current_range_meters":8800,"station_id":"ce4bgt92rcd13ifvqcf0","pricing_plan_id":"cebpf4jnsgd1na2vs0mg"},{"bike_id":"2577e1a4-4e0b-4307-a692-716226c9c78a","system_id":"levelo_inurba_marseille","lat":43.31319,"lon":5.39692,"is_reserved":false,"is_disabled":false,"rental_uris":{"android":"levelo://app?vid=2577e1a4-4e0b-4307-a692-716226c9c78a","ios":"levelo://app?vid=2577e1a4-4e0b-4307-a692-716226c9c78a"},"vehicle_type_id":"4","last_reported":1746534136,"current_range_meters":8800,"station_id":"ce4bgvp2rcd13ifvqcu0","pricing_plan_id":"cebpf4jnsgd1na2vs0mg"},{"bike_id":"3a2c8568-6b18-4203-9201-f27eb3c68399","system_id":"levelo_inurba_marseille","lat":43.29702,"lon":5.37289,"is_reserved":false,"is_disabled":false,"rental_uris":{"android":"levelo://app?vid=3a2c8568-6b18-4203-9201-f27eb3c68399","ios":"levelo://app?vid=3a2c8568-6b18-4203-9201-f27eb3c68399"},"vehicle_type_id":"4","last_reported":1746534136,"current_range_meters":9200,"station_id":"ce4bgk12rcd13ifvqbj0","pricing_plan_id":"cebpf4jnsgd1na2vs0mg"},{"bike_id":"4318860e-2016-43b7-84e6-6a9f77f41648","system_id":"levelo_inurba_marseille","lat":43.2622,"lon":5.37429,"is_reserved":false,"is_disabled":false,"rental_uris":{"android":"levelo://app?vid=4318860e-2016-43b7-84e6-6a9f77f41648","ios":"levelo://app?vid=4318860e-2016-43b7-84e6-6a9f77f41648"},"vehicle_type_id":"4","last_reported":1746534136,"current_range_meters":9200,"station_id":"ce4bhgp2rcd13ifvqfc0","pricing_plan_id":"cebpf4jnsgd1na2vs0mg"},{"bike_id":"9d8f73eb-df09-4699-86a7-d631e2319093","system_id":"levelo_inurba_marseille","lat":43.26255,"lon":5.37411,"is_reserved":false,"is_disabled":false,"rental_uris":{"android":"levelo://app?vid=9d8f73eb-df09-4699-86a7-d631e2319093","ios":"levelo://app?vid=9d8f73eb-df09-4699-86a7-d631e2319093"},"vehicle_type_id":"4","last_reported":1746534136,"current_range_meters":9200,"station_id":"","pricing_plan_id":"cebpf4jnsgd1na2vs0mg"},{"bike_id":"7b95a9ea-f338-49df-9e1f-f0be4cbd9937","system_id":"levelo_inurba_marseille","lat":43.2973,"lon":5.37684,"is_reserved":false,"is_disabled":false,"rental_uris":{"android":"levelo://app?vid=7b95a9ea-f338-49df-9e1f-f0be4cbd9937","ios":"levelo://app?vid=7b95a9ea-f338-49df-9e1f-f0be4cbd9937"},"vehicle_type_id":"4","last_reported":1746534136,"current_range_meters":9200,"station_id":"ce4bgkh2rcd13ifvqbl0","pricing_plan_id":"cebpf4jnsgd1na2vs0mg"},{"bike_id":"328cb2fa-40e1-430a-95ec-964ae9b69d0d","system_id":"levelo_inurba_marseille","lat":43.28729,"lon":5.36086,"is_reserved":false,"is_disabled":false,"rental_uris":{"android":"levelo://app?vid=328cb2fa-40e1-430a-95ec-964ae9b69d0d","ios":"levelo://app?vid=328cb2fa-40e1-430a-95ec-964ae9b69d0d"},"vehicle_type_id":"4","last_reported":1746534136,"current_range_meters":8800,"station_id":"cki0cbj6b192h4jlfktg","pricing_plan_id":"cebpf4jnsgd1na2vs0mg"},{"bike_id":"62bfa9fa-531f-4d2b-9e57-eb50b2d48c8c","system_id":"levelo_inurba_marseille","lat":43.24277,"lon":5.3799,"is_reserved":false,"is_disabled":false,"rental_uris":{"android":"levelo://app?vid=62bfa9fa-531f-4d2b-9e57-eb50b2d48c8c","ios":"levelo://app?vid=62bfa9fa-531f-4d2b-9e57-eb50b2d48c8c"},"vehicle_type_id":"4","last_reported":1746534136,"current_range_meters":9200,"station_id":"","pricing_plan_id":"cebpf4jnsgd1na2vs0mg"},{"bike_id":"b5581828-3236-4a60-aaa4-3b424fc90817","system_id":"levelo_inurba_marseille","lat":43.23154,"lon":5.43717,"is_reserved":false,"is_disabled":false,"rental_uris":{"android":"levelo://app?vid=b5581828-3236-4a60-aaa4-3b424fc90817","ios":"levelo://app?vid=b5581828-3236-4a60-aaa4-3b424fc90817"},"vehicle_type_id":"4","last_reported":1746534136,"current_range_meters":9200,"station_id":"ce4bhmp2rcd13ifvqgog","pricing_plan_id":"cebpf4jnsgd1na2vs0mg"},{"bike_id":"fbda12d9-6999-44a5-a236-2a288c2ac07c","system_id":"levelo_inurba_marseille","lat":43.24071,"lon":5.37767,"is_reserved":false,"is_disabled":false,"rental_uris":{"android":"levelo://app?vid=fbda12d9-6999-44a5-a236-2a288c2ac07c","ios":"levelo://app?vid=fbda12d9-6999-44a5-a236-2a288c2ac07c"},"vehicle_type_id":"4","last_reported":1746534136,"current_range_meters":9600,"station_id":"ce4bhnp2rcd13ifvqgvg","pricing_plan_id":"cebpf4jnsgd1na2vs0mg"},{"bike_id":"3ffb72b3-3870-4ecb-bb52-bfefa0d19a50","system_id":"levelo_inurba_marseille","lat":43.27064,"lon":5.42285,"is_reserved":false,"is_disabled":false,"rental_uris":{"android":"levelo://app?vid=3ffb72b3-3870-4ecb-bb52-bfefa0d19a50","ios":"levelo://app?vid=3ffb72b3-3870-4ecb-bb52-bfefa0d19a50"},"vehicle_type_id":"4","last_reported":1746534136,"current_range_meters":9600,"station_id":"ce4bhk92rcd13ifvqgb0","pricing_plan_id":"cebpf4jnsgd1na2vs0mg"},{"bike_id":"4d2c38cf-5403-4a1e-a35a-1c60ce6b78f2","system_id":"levelo_inurba_marseille","lat":43.24164,"lon":5.39726,"is_reserved":false,"is_disabled":false,"rental_uris":{"android":"levelo://app?vid=4d2c38cf-5403-4a1e-a35a-1c60ce6b78f2","ios":"levelo://app?vid=4d2c38cf-5403-4a1e-a35a-1c60ce6b78f2"},"vehicle_type_id":"4","last_reported":1746534136,"current_range_meters":9600,"station_id":"ce4bhn12rcd13ifvqgpg","pricing_plan_id":"cebpf4jnsgd1na2vs0mg"},{"bike_id":"d1c5fc64-b646-4f3b-a203-846673a23f40","system_id":"levelo_inurba_marseille","lat":43.29005,"lon":5.35613,"is_reserved":false,"is_disabled":false,"rental_uris":{"android":"levelo://app?vid=d1c5fc64-b646-4f3b-a203-846673a23f40","ios":"levelo://app?vid=d1c5fc64-b646-4f3b-a203-846673a23f40"},"vehicle_type_id":"4","last_reported":1746534136,"current_range_meters":9600,"station_id":"ce4bhb92rcd13ifvqen0","pricing_plan_id":"cebpf4jnsgd1na2vs0mg"},{"bike_id":"f635aacf-6f4f-4113-8cd1-67cccf6da210","system_id":"levelo_inurba_marseille","lat":43.30149,"lon":5.38777,"is_reserved":false,"is_disabled":false,"rental_uris":{"android":"levelo://app?vid=f635aacf-6f4f-4113-8cd1-67cccf6da210","ios":"levelo://app?vid=f635aacf-6f4f-4113-8cd1-67cccf6da210"},"vehicle_type_id":"4","last_reported":1746534136,"current_range_meters":9200,"station_id":"ce4bghh2rcd13ifvqb60","pricing_plan_id":"cebpf4jnsgd1na2vs0mg"},{"bike_id":"0c377d9d-9a3a-47a7-9944-6039314b5e15","system_id":"levelo_inurba_marseille","lat":43.24585,"lon":5.40475,"is_reserved":false,"is_disabled":false,"rental_uris":{"android":"levelo://app?vid=0c377d9d-9a3a-47a7-9944-6039314b5e15","ios":"levelo://app?vid=0c377d9d-9a3a-47a7-9944-6039314b5e15"},"vehicle_type_id":"4","last_reported":1746534136,"current_range_meters":9600,"station_id":"","pricing_plan_id":"cebpf4jnsgd1na2vs0mg"},{"bike_id":"18b31028-34d8-42d5-b973-a727c2dada23","system_id":"levelo_inurba_marseille","lat":43.269383,"lon":5.386313,"is_reserved":false,"is_disabled":false,"rental_uris":{"android":"levelo://app?vid=18b31028-34d8-42d5-b973-a727c2dada23","ios":"levelo://app?vid=18b31028-34d8-42d5-b973-a727c2dada23"},"vehicle_type_id":"4","last_reported":1746534136,"current_range_meters":9600,"station_id":"ce4bhh92rcd13ifvqfh0","pricing_plan_id":"cebpf4jnsgd1na2vs0mg"},{"bike_id":"d75e25b4-10a3-408e-a3fe-3720cb7d9d33","system_id":"levelo_inurba_marseille","lat":43.24666,"lon":5.38153,"is_reserved":false,"is_disabled":false,"rental_uris":{"android":"levelo://app?vid=d75e25b4-10a3-408e-a3fe-3720cb7d9d33","ios":"levelo://app?vid=d75e25b4-10a3-408e-a3fe-3720cb7d9d33"},"vehicle_type_id":"4","last_reported":1746534136,"current_range_meters":9600,"station_id":"ce4bhih2rcd13ifvqfr0","pricing_plan_id":"cebpf4jnsgd1na2vs0mg"},{"bike_id":"503569af-07db-461f-918e-29f89d0c1c24","system_id":"levelo_inurba_marseille","lat":43.2249,"lon":5.348,"is_reserved":false,"is_disabled":false,"rental_uris":{"android":"levelo://app?vid=503569af-07db-461f-918e-29f89d0c1c24","ios":"levelo://app?vid=503569af-07db-461f-918e-29f89d0c1c24"},"vehicle_type_id":"4","last_reported":1746534136,"current_range_meters":9600,"station_id":"st_cvj5dfep6f1abm77gieg","pricing_plan_id":"cebpf4jnsgd1na2vs0mg"},{"bike_id":"05a84f69-0592-442a-b098-6253d0b70e9e","system_id":"levelo_inurba_marseille","lat":43.29987,"lon":5.37225,"is_reserved":false,"is_disabled":false,"rental_uris":{"android":"levelo://app?vid=05a84f69-0592-442a-b098-6253d0b70e9e","ios":"levelo://app?vid=05a84f69-0592-442a-b098-6253d0b70e9e"},"vehicle_type_id":"4","last_reported":1746534136,"current_range_meters":9600,"station_id":"ce4bgr92rcd13ifvqc7g","pricing_plan_id":"cebpf4jnsgd1na2vs0mg"},{"bike_id":"d7baf11c-482e-4e9e-8fc8-c79689c51a43","system_id":"levelo_inurba_marseille","lat":43.24806,"lon":5.37459,"is_reserved":false,"is_disabled":false,"rental_uris":{"android":"levelo://app?vid=d7baf11c-482e-4e9e-8fc8-c79689c51a43","ios":"levelo://app?vid=d7baf11c-482e-4e9e-8fc8-c79689c51a43"},"vehicle_type_id":"4","last_reported":1746534136,"current_range_meters":10000,"station_id":"ce4bhgh2rcd13ifvqfb0","pricing_plan_id":"cebpf4jnsgd1na2vs0mg"},{"bike_id":"836c01f9-bcf7-4efd-9d8b-ee9d09d3ca09","system_id":"levelo_inurba_marseille","lat":43.24997,"lon":5.38936,"is_reserved":false,"is_disabled":false,"rental_uris":{"android":"levelo://app?vid=836c01f9-bcf7-4efd-9d8b-ee9d09d3ca09","ios":"levelo://app?vid=836c01f9-bcf7-4efd-9d8b-ee9d09d3ca09"},"vehicle_type_id":"4","last_reported":1746534136,"current_range_meters":10000,"station_id":"ce4bhgp2rcd13ifvqfd0","pricing_plan_id":"cebpf4jnsgd1na2vs0mg"},{"bike_id":"db607aba-0db6-423b-a818-c23224727203","system_id":"levelo_inurba_marseille","lat":43.231536,"lon":5.436904,"is_reserved":false,"is_disabled":false,"rental_uris":{"android":"levelo://app?vid=db607aba-0db6-423b-a818-c23224727203","ios":"levelo://app?vid=db607aba-0db6-423b-a818-c23224727203"},"vehicle_type_id":"4","last_reported":1746534136,"current_range_meters":10000,"station_id":"ce4bhmp2rcd13ifvqgog","pricing_plan_id":"cebpf4jnsgd1na2vs0mg"},{"bike_id":"235a200c-19a2-467b-b70b-cb13b65b3331","system_id":"levelo_inurba_marseille","lat":43.27815,"lon":5.40711,"is_reserved":false,"is_disabled":false,"rental_uris":{"android":"levelo://app?vid=235a200c-19a2-467b-b70b-cb13b65b3331","ios":"levelo://app?vid=235a200c-19a2-467b-b70b-cb13b65b3331"},"vehicle_type_id":"4","last_reported":1746534136,"current_range_meters":10800,"station_id":"ce4bhnh2rcd13ifvqgtg","pricing_plan_id":"cebpf4jnsgd1na2vs0mg"},{"bike_id":"a46b5721-597c-404e-8ddb-3ba6469f967d","system_id":"levelo_inurba_marseille","lat":43.23197,"lon":5.35556,"is_reserved":false,"is_disabled":false,"rental_uris":{"android":"levelo://app?vid=a46b5721-597c-404e-8ddb-3ba6469f967d","ios":"levelo://app?vid=a46b5721-597c-404e-8ddb-3ba6469f967d"},"vehicle_type_id":"4","last_reported":1746534136,"current_range_meters":10800,"station_id":"ce4bhu92rcd13ifvqi70","pricing_plan_id":"cebpf4jnsgd1na2vs0mg"},{"bike_id":"fa37bfe9-0fcc-4f35-84b9-67041a093339","system_id":"levelo_inurba_marseille","lat":43.24034,"lon":5.37808,"is_reserved":false,"is_disabled":false,"rental_uris":{"android":"levelo://app?vid=fa37bfe9-0fcc-4f35-84b9-67041a093339","ios":"levelo://app?vid=fa37bfe9-0fcc-4f35-84b9-67041a093339"},"vehicle_type_id":"4","last_reported":1746534136,"current_range_meters":10800,"station_id":"","pricing_plan_id":"cebpf4jnsgd1na2vs0mg"},{"bike_id":"47329aa6-fc8b-489b-ac77-65f29b942c25","system_id":"levelo_inurba_marseille","lat":43.3055,"lon":5.38429,"is_reserved":false,"is_disabled":false,"rental_uris":{"android":"levelo://app?vid=47329aa6-fc8b-489b-ac77-65f29b942c25","ios":"levelo://app?vid=47329aa6-fc8b-489b-ac77-65f29b942c25"},"vehicle_type_id":"4","last_reported":1746534136,"current_range_meters":10800,"station_id":"ce4bgg92rcd13ifvqb30","pricing_plan_id":"cebpf4jnsgd1na2vs0mg"},{"bike_id":"df692c57-7995-435b-b45e-704ede271c51","system_id":"levelo_inurba_marseille","lat":43.2963,"lon":5.40597,"is_reserved":false,"is_disabled":false,"rental_uris":{"android":"levelo://app?vid=df692c57-7995-435b-b45e-704ede271c51","ios":"levelo://app?vid=df692c57-7995-435b-b45e-704ede271c51"},"vehicle_type_id":"4","last_reported":1746534136,"current_range_meters":10800,"station_id":"ce4bh0h2rcd13ifvqd60","pricing_plan_id":"cebpf4jnsgd1na2vs0mg"},{"bike_id":"e0eebb06-5c98-44a4-9f84-563b62ed60fe","system_id":"levelo_inurba_marseille","lat":43.25918,"lon":5.4093,"is_reserved":false,"is_disabled":false,"rental_uris":{"android":"levelo://app?vid=e0eebb06-5c98-44a4-9f84-563b62ed60fe","ios":"levelo://app?vid=e0eebb06-5c98-44a4-9f84-563b62ed60fe"},"vehicle_type_id":"4","last_reported":1746534136,"current_range_meters":10800,"station_id":"ce4bhm92rcd13ifvqglg","pricing_plan_id":"cebpf4jnsgd1na2vs0mg"},{"bike_id":"823d7771-4b5c-4850-8bfc-115e064c7028","system_id":"levelo_inurba_marseille","lat":43.32354,"lon":5.38896,"is_reserved":false,"is_disabled":false,"rental_uris":{"android":"levelo://app?vid=823d7771-4b5c-4850-8bfc-115e064c7028","ios":"levelo://app?vid=823d7771-4b5c-4850-8bfc-115e064c7028"},"vehicle_type_id":"4","last_reported":1746534136,"current_range_meters":11200,"station_id":"ce4bhqp2rcd13ifvqhog","pricing_plan_id":"cebpf4jnsgd1na2vs0mg"},{"bike_id":"b3c046fb-e53b-4ac2-b783-8c00a2c37598","system_id":"levelo_inurba_marseille","lat":43.27497,"lon":5.42441,"is_reserved":false,"is_disabled":false,"rental_uris":{"android":"levelo://app?vid=b3c046fb-e53b-4ac2-b783-8c00a2c37598","ios":"levelo://app?vid=b3c046fb-e53b-4ac2-b783-8c00a2c37598"},"vehicle_type_id":"4","last_reported":1746534136,"current_range_meters":11200,"station_id":"ce4bhn92rcd13ifvqgrg","pricing_plan_id":"cebpf4jnsgd1na2vs0mg"},{"bike_id":"dcb8f5fe-853c-4595-b30e-01d17656c7fe","system_id":"levelo_inurba_marseille","lat":43.2593,"lon":5.40903,"is_reserved":false,"is_disabled":false,"rental_uris":{"android":"levelo://app?vid=dcb8f5fe-853c-4595-b30e-01d17656c7fe","ios":"levelo://app?vid=dcb8f5fe-853c-4595-b30e-01d17656c7fe"},"vehicle_type_id":"4","last_reported":1746534136,"current_range_meters":11200,"station_id":"ce4bhm92rcd13ifvqglg","pricing_plan_id":"cebpf4jnsgd1na2vs0mg"},{"bike_id":"c9592205-9409-4f74-aed1-7c4141a58caa","system_id":"levelo_inurba_marseille","lat":43.27153,"lon":5.36349,"is_reserved":false,"is_disabled":false,"rental_uris":{"android":"levelo://app?vid=c9592205-9409-4f74-aed1-7c4141a58caa","ios":"levelo://app?vid=c9592205-9409-4f74-aed1-7c4141a58caa"},"vehicle_type_id":"4","last_reported":1746534136,"current_range_meters":11200,"station_id":"","pricing_plan_id":"cebpf4jnsgd1na2vs0mg"},{"bike_id":"b9fba262-34cc-4ea2-9937-5e8d5563ee78","system_id":"levelo_inurba_marseille","lat":43.29099,"lon":5.3813,"is_reserved":false,"is_disabled":false,"rental_uris":{"android":"levelo://app?vid=b9fba262-34cc-4ea2-9937-5e8d5563ee78","ios":"levelo://app?vid=b9fba262-34cc-4ea2-9937-5e8d5563ee78"},"vehicle_type_id":"4","last_reported":1746534136,"current_range_meters":11200,"station_id":"ce4bh512rcd13ifvqe2g","pricing_plan_id":"cebpf4jnsgd1na2vs0mg"},{"bike_id":"4eabc4b6-b64a-48a8-a961-881ab0b1d73c","system_id":"levelo_inurba_marseille","lat":43.26234,"lon":5.40451,"is_reserved":false,"is_disabled":false,"rental_uris":{"android":"levelo://app?vid=4eabc4b6-b64a-48a8-a961-881ab0b1d73c","ios":"levelo://app?vid=4eabc4b6-b64a-48a8-a961-881ab0b1d73c"},"vehicle_type_id":"4","last_reported":1746534136,"current_range_meters":11200,"station_id":"ce4bhmh2rcd13ifvqgmg","pricing_plan_id":"cebpf4jnsgd1na2vs0mg"},{"bike_id":"c41f6373-2a0d-433c-802a-830b47aa3e1e","system_id":"levelo_inurba_marseille","lat":43.21191,"lon":5.35069,"is_reserved":false,"is_disabled":false,"rental_uris":{"android":"levelo://app?vid=c41f6373-2a0d-433c-802a-830b47aa3e1e","ios":"levelo://app?vid=c41f6373-2a0d-433c-802a-830b47aa3e1e"},"vehicle_type_id":"4","last_reported":1746534136,"current_range_meters":11200,"station_id":"st_cvj6sg6p6f1abm77japg","pricing_plan_id":"cebpf4jnsgd1na2vs0mg"},{"bike_id":"93f9c31a-33af-443e-bb0a-ed7cb8358a5c","system_id":"levelo_inurba_marseille","lat":43.32105,"lon":5.36793,"is_reserved":false,"is_disabled":false,"rental_uris":{"android":"levelo://app?vid=93f9c31a-33af-443e-bb0a-ed7cb8358a5c","ios":"levelo://app?vid=93f9c31a-33af-443e-bb0a-ed7cb8358a5c"},"vehicle_type_id":"4","last_reported":1746534136,"current_range_meters":11600,"station_id":"ce4bhrh2rcd13ifvqhug","pricing_plan_id":"cebpf4jnsgd1na2vs0mg"},{"bike_id":"c5181f38-5b8e-498e-a230-66f845acb4f5","system_id":"levelo_inurba_marseille","lat":43.28669,"lon":5.38662,"is_reserved":false,"is_disabled":false,"rental_uris":{"android":"levelo://app?vid=c5181f38-5b8e-498e-a230-66f845acb4f5","ios":"levelo://app?vid=c5181f38-5b8e-498e-a230-66f845acb4f5"},"vehicle_type_id":"4","last_reported":1746534136,"current_range_meters":11200,"station_id":"ce4bh492rcd13ifvqdug","pricing_plan_id":"cebpf4jnsgd1na2vs0mg"},{"bike_id":"0924e5ac-0cca-4cc9-92d6-c814dd5b50a8","system_id":"levelo_inurba_marseille","lat":43.27505,"lon":5.42465,"is_reserved":false,"is_disabled":false,"rental_uris":{"android":"levelo://app?vid=0924e5ac-0cca-4cc9-92d6-c814dd5b50a8","ios":"levelo://app?vid=0924e5ac-0cca-4cc9-92d6-c814dd5b50a8"},"vehicle_type_id":"4","last_reported":1746534136,"current_range_meters":12000,"station_id":"ce4bhn92rcd13ifvqgrg","pricing_plan_id":"cebpf4jnsgd1na2vs0mg"},{"bike_id":"fd4cf188-528d-475a-bd03-4efe9b83fdd1","system_id":"levelo_inurba_marseille","lat":43.25102,"lon":5.40326,"is_reserved":false,"is_disabled":false,"rental_uris":{"android":"levelo://app?vid=fd4cf188-528d-475a-bd03-4efe9b83fdd1","ios":"levelo://app?vid=fd4cf188-528d-475a-bd03-4efe9b83fdd1"},"vehicle_type_id":"4","last_reported":1746534136,"current_range_meters":12000,"station_id":"ce4bhlh2rcd13ifvqgig","pricing_plan_id":"cebpf4jnsgd1na2vs0mg"},{"bike_id":"3f84d55c-f7b3-443f-a8ba-1f83ba8291a2","system_id":"levelo_inurba_marseille","lat":43.21191,"lon":5.35078,"is_reserved":false,"is_disabled":false,"rental_uris":{"android":"levelo://app?vid=3f84d55c-f7b3-443f-a8ba-1f83ba8291a2","ios":"levelo://app?vid=3f84d55c-f7b3-443f-a8ba-1f83ba8291a2"},"vehicle_type_id":"4","last_reported":1746534136,"current_range_meters":12000,"station_id":"","pricing_plan_id":"cebpf4jnsgd1na2vs0mg"},{"bike_id":"423ffd1c-ee05-4b8c-91f3-2a6e91af13f7","system_id":"levelo_inurba_marseille","lat":43.31358,"lon":5.38496,"is_reserved":false,"is_disabled":false,"rental_uris":{"android":"levelo://app?vid=423ffd1c-ee05-4b8c-91f3-2a6e91af13f7","ios":"levelo://app?vid=423ffd1c-ee05-4b8c-91f3-2a6e91af13f7"},"vehicle_type_id":"4","last_reported":1746534136,"current_range_meters":12400,"station_id":"ce4bgt92rcd13ifvqcf0","pricing_plan_id":"cebpf4jnsgd1na2vs0mg"},{"bike_id":"15c09dcd-05a4-4cf3-bc03-c10b5e4b7868","system_id":"levelo_inurba_marseille","lat":43.25936,"lon":5.40919,"is_reserved":false,"is_disabled":false,"rental_uris":{"android":"levelo://app?vid=15c09dcd-05a4-4cf3-bc03-c10b5e4b7868","ios":"levelo://app?vid=15c09dcd-05a4-4cf3-bc03-c10b5e4b7868"},"vehicle_type_id":"4","last_reported":1746534136,"current_range_meters":12400,"station_id":"ce4bhm92rcd13ifvqglg","pricing_plan_id":"cebpf4jnsgd1na2vs0mg"},{"bike_id":"54110873-a98e-407e-acbb-5816191ee78a","system_id":"levelo_inurba_marseille","lat":43.29599,"lon":5.38105,"is_reserved":false,"is_disabled":false,"rental_uris":{"android":"levelo://app?vid=54110873-a98e-407e-acbb-5816191ee78a","ios":"levelo://app?vid=54110873-a98e-407e-acbb-5816191ee78a"},"vehicle_type_id":"4","last_reported":1746534136,"current_range_meters":12000,"station_id":"ce4bgl12rcd13ifvqbo0","pricing_plan_id":"cebpf4jnsgd1na2vs0mg"},{"bike_id":"1c7dd804-5ed5-48cf-9295-ed68c13a0b9a","system_id":"levelo_inurba_marseille","lat":43.27497,"lon":5.42464,"is_reserved":false,"is_disabled":false,"rental_uris":{"android":"levelo://app?vid=1c7dd804-5ed5-48cf-9295-ed68c13a0b9a","ios":"levelo://app?vid=1c7dd804-5ed5-48cf-9295-ed68c13a0b9a"},"vehicle_type_id":"4","last_reported":1746534136,"current_range_meters":12400,"station_id":"ce4bhn92rcd13ifvqgrg","pricing_plan_id":"cebpf4jnsgd1na2vs0mg"},{"bike_id":"39a0e451-7aaa-42d3-9143-fb3b9252d4a1","system_id":"levelo_inurba_marseille","lat":43.28001,"lon":5.40015,"is_reserved":false,"is_disabled":false,"rental_uris":{"android":"levelo://app?vid=39a0e451-7aaa-42d3-9143-fb3b9252d4a1","ios":"levelo://app?vid=39a0e451-7aaa-42d3-9143-fb3b9252d4a1"},"vehicle_type_id":"4","last_reported":1746534136,"current_range_meters":12800,"station_id":"ce4bho92rcd13ifvqh4g","pricing_plan_id":"cebpf4jnsgd1na2vs0mg"},{"bike_id":"13ebfc6a-b3e8-4bd2-9055-317da3a3d7f6","system_id":"levelo_inurba_marseille","lat":43.24072,"lon":5.37753,"is_reserved":false,"is_disabled":false,"rental_uris":{"android":"levelo://app?vid=13ebfc6a-b3e8-4bd2-9055-317da3a3d7f6","ios":"levelo://app?vid=13ebfc6a-b3e8-4bd2-9055-317da3a3d7f6"},"vehicle_type_id":"4","last_reported":1746534136,"current_range_meters":12800,"station_id":"ce4bhnp2rcd13ifvqgvg","pricing_plan_id":"cebpf4jnsgd1na2vs0mg"},{"bike_id":"2bb700ae-f0b2-4921-b826-e3db894b5f1a","system_id":"levelo_inurba_marseille","lat":43.301447,"lon":5.38066,"is_reserved":false,"is_disabled":false,"rental_uris":{"android":"levelo://app?vid=2bb700ae-f0b2-4921-b826-e3db894b5f1a","ios":"levelo://app?vid=2bb700ae-f0b2-4921-b826-e3db894b5f1a"},"vehicle_type_id":"4","last_reported":1746534136,"current_range_meters":12800,"station_id":"ce4bgjp2rcd13ifvqbh0","pricing_plan_id":"cebpf4jnsgd1na2vs0mg"},{"bike_id":"08c71cdf-0356-479b-894d-3b8c444daecd","system_id":"levelo_inurba_marseille","lat":43.283413,"lon":5.38107,"is_reserved":false,"is_disabled":false,"rental_uris":{"android":"levelo://app?vid=08c71cdf-0356-479b-894d-3b8c444daecd","ios":"levelo://app?vid=08c71cdf-0356-479b-894d-3b8c444daecd"},"vehicle_type_id":"4","last_reported":1746534136,"current_range_meters":12400,"station_id":"ce4bh412rcd13ifvqdr0","pricing_plan_id":"cebpf4jnsgd1na2vs0mg"},{"bike_id":"d7b1e4d8-f726-4ea7-bc51-7e6d351a33c5","system_id":"levelo_inurba_marseille","lat":43.24077,"lon":5.37745,"is_reserved":false,"is_disabled":false,"rental_uris":{"android":"levelo://app?vid=d7b1e4d8-f726-4ea7-bc51-7e6d351a33c5","ios":"levelo://app?vid=d7b1e4d8-f726-4ea7-bc51-7e6d351a33c5"},"vehicle_type_id":"4","last_reported":1746534136,"current_range_meters":12800,"station_id":"ce4bhnp2rcd13ifvqgvg","pricing_plan_id":"cebpf4jnsgd1na2vs0mg"},{"bike_id":"53926fcd-d73e-4c5c-bd77-4c490e283652","system_id":"levelo_inurba_marseille","lat":43.23962,"lon":5.36638,"is_reserved":false,"is_disabled":false,"rental_uris":{"android":"levelo://app?vid=53926fcd-d73e-4c5c-bd77-4c490e283652","ios":"levelo://app?vid=53926fcd-d73e-4c5c-bd77-4c490e283652"},"vehicle_type_id":"4","last_reported":1746534136,"current_range_meters":12800,"station_id":"ce4bhi12rcd13ifvqfp0","pricing_plan_id":"cebpf4jnsgd1na2vs0mg"},{"bike_id":"a30bab8e-b55d-4ceb-aa8a-a1051ce7ae55","system_id":"levelo_inurba_marseille","lat":43.27498,"lon":5.42458,"is_reserved":false,"is_disabled":false,"rental_uris":{"android":"levelo://app?vid=a30bab8e-b55d-4ceb-aa8a-a1051ce7ae55","ios":"levelo://app?vid=a30bab8e-b55d-4ceb-aa8a-a1051ce7ae55"},"vehicle_type_id":"4","last_reported":1746534136,"current_range_meters":13600,"station_id":"ce4bhn92rcd13ifvqgrg","pricing_plan_id":"cebpf4jnsgd1na2vs0mg"},{"bike_id":"17725b2c-5fb0-411c-9456-2ba1870fb169","system_id":"levelo_inurba_marseille","lat":43.29048,"lon":5.35917,"is_reserved":false,"is_disabled":false,"rental_uris":{"android":"levelo://app?vid=17725b2c-5fb0-411c-9456-2ba1870fb169","ios":"levelo://app?vid=17725b2c-5fb0-411c-9456-2ba1870fb169"},"vehicle_type_id":"4","last_reported":1746534136,"current_range_meters":13600,"station_id":"ce4bha92rcd13ifvqeg0","pricing_plan_id":"cebpf4jnsgd1na2vs0mg"},{"bike_id":"f458f65d-c5e8-4730-850e-2ff831642423","system_id":"levelo_inurba_marseille","lat":43.23148,"lon":5.43702,"is_reserved":false,"is_disabled":false,"rental_uris":{"android":"levelo://app?vid=f458f65d-c5e8-4730-850e-2ff831642423","ios":"levelo://app?vid=f458f65d-c5e8-4730-850e-2ff831642423"},"vehicle_type_id":"4","last_reported":1746534136,"current_range_meters":13600,"station_id":"ce4bhmp2rcd13ifvqgog","pricing_plan_id":"cebpf4jnsgd1na2vs0mg"},{"bike_id":"583cbb13-c145-4efe-a6f1-2cbe82bb0914","system_id":"levelo_inurba_marseille","lat":43.30722,"lon":5.37288,"is_reserved":false,"is_disabled":false,"rental_uris":{"android":"levelo://app?vid=583cbb13-c145-4efe-a6f1-2cbe82bb0914","ios":"levelo://app?vid=583cbb13-c145-4efe-a6f1-2cbe82bb0914"},"vehicle_type_id":"4","last_reported":1746534136,"current_range_meters":14000,"station_id":"","pricing_plan_id":"cebpf4jnsgd1na2vs0mg"},{"bike_id":"961e477c-afaf-4034-99dd-403eb1597523","system_id":"levelo_inurba_marseille","lat":43.317187,"lon":5.423921,"is_reserved":false,"is_disabled":false,"rental_uris":{"android":"levelo://app?vid=961e477c-afaf-4034-99dd-403eb1597523","ios":"levelo://app?vid=961e477c-afaf-4034-99dd-403eb1597523"},"vehicle_type_id":"4","last_reported":1746534136,"current_range_meters":14000,"station_id":"","pricing_plan_id":"cebpf4jnsgd1na2vs0mg"},{"bike_id":"33120c76-706c-4328-9cc0-136fd41663d5","system_id":"levelo_inurba_marseille","lat":43.28069,"lon":5.39652,"is_reserved":false,"is_disabled":false,"rental_uris":{"android":"levelo://app?vid=33120c76-706c-4328-9cc0-136fd41663d5","ios":"levelo://app?vid=33120c76-706c-4328-9cc0-136fd41663d5"},"vehicle_type_id":"4","last_reported":1746534136,"current_range_meters":14000,"station_id":"ce4bho12rcd13ifvqh2g","pricing_plan_id":"cebpf4jnsgd1na2vs0mg"},{"bike_id":"8bdeaf5f-6ace-4dd7-ace9-967863211c66","system_id":"levelo_inurba_marseille","lat":43.2481,"lon":5.37459,"is_reserved":false,"is_disabled":false,"rental_uris":{"android":"levelo://app?vid=8bdeaf5f-6ace-4dd7-ace9-967863211c66","ios":"levelo://app?vid=8bdeaf5f-6ace-4dd7-ace9-967863211c66"},"vehicle_type_id":"4","last_reported":1746534136,"current_range_meters":14400,"station_id":"ce4bhgh2rcd13ifvqfb0","pricing_plan_id":"cebpf4jnsgd1na2vs0mg"},{"bike_id":"61d0a38a-67ca-4874-9b41-dc1f1423a342","system_id":"levelo_inurba_marseille","lat":43.3254,"lon":5.41424,"is_reserved":false,"is_disabled":false,"rental_uris":{"android":"levelo://app?vid=61d0a38a-67ca-4874-9b41-dc1f1423a342","ios":"levelo://app?vid=61d0a38a-67ca-4874-9b41-dc1f1423a342"},"vehicle_type_id":"4","last_reported":1746534136,"current_range_meters":14400,"station_id":"ce4bhq12rcd13ifvqhhg","pricing_plan_id":"cebpf4jnsgd1na2vs0mg"},{"bike_id":"40fd1688-c944-4cf2-9591-74e6a15d7419","system_id":"levelo_inurba_marseille","lat":43.31711,"lon":5.37742,"is_reserved":false,"is_disabled":false,"rental_uris":{"android":"levelo://app?vid=40fd1688-c944-4cf2-9591-74e6a15d7419","ios":"levelo://app?vid=40fd1688-c944-4cf2-9591-74e6a15d7419"},"vehicle_type_id":"4","last_reported":1746534136,"current_range_meters":14800,"station_id":"ce4bgth2rcd13ifvqch0","pricing_plan_id":"cebpf4jnsgd1na2vs0mg"},{"bike_id":"d2125939-b570-4b67-9cb5-f5a5bc562ba6","system_id":"levelo_inurba_marseille","lat":43.31711,"lon":5.43699,"is_reserved":false,"is_disabled":false,"rental_uris":{"android":"levelo://app?vid=d2125939-b570-4b67-9cb5-f5a5bc562ba6","ios":"levelo://app?vid=d2125939-b570-4b67-9cb5-f5a5bc562ba6"},"vehicle_type_id":"4","last_reported":1746534136,"current_range_meters":14800,"station_id":"ce4bhp92rcd13ifvqhcg","pricing_plan_id":"cebpf4jnsgd1na2vs0mg"},{"bike_id":"82d187e6-58a1-4f0d-b286-805466f4316c","system_id":"levelo_inurba_marseille","lat":43.25829,"lon":5.39432,"is_reserved":false,"is_disabled":false,"rental_uris":{"android":"levelo://app?vid=82d187e6-58a1-4f0d-b286-805466f4316c","ios":"levelo://app?vid=82d187e6-58a1-4f0d-b286-805466f4316c"},"vehicle_type_id":"4","last_reported":1746534136,"current_range_meters":14800,"station_id":"ce4bhip2rcd13ifvqft0","pricing_plan_id":"cebpf4jnsgd1na2vs0mg"},{"bike_id":"bff2e38f-6918-44cc-b37b-c2be0afbc1e2","system_id":"levelo_inurba_marseille","lat":43.30897,"lon":5.37193,"is_reserved":false,"is_disabled":false,"rental_uris":{"android":"levelo://app?vid=bff2e38f-6918-44cc-b37b-c2be0afbc1e2","ios":"levelo://app?vid=bff2e38f-6918-44cc-b37b-c2be0afbc1e2"},"vehicle_type_id":"4","last_reported":1746534136,"current_range_meters":14400,"station_id":"ce4bguh2rcd13ifvqckg","pricing_plan_id":"cebpf4jnsgd1na2vs0mg"},{"bike_id":"1c36dda6-4942-4121-b78e-4e4924baa9bf","system_id":"levelo_inurba_marseille","lat":43.28675,"lon":5.38667,"is_reserved":false,"is_disabled":false,"rental_uris":{"android":"levelo://app?vid=1c36dda6-4942-4121-b78e-4e4924baa9bf","ios":"levelo://app?vid=1c36dda6-4942-4121-b78e-4e4924baa9bf"},"vehicle_type_id":"4","last_reported":1746534136,"current_range_meters":14400,"station_id":"ce4bh492rcd13ifvqdug","pricing_plan_id":"cebpf4jnsgd1na2vs0mg"},{"bike_id":"ba83c54c-63dc-4f4c-a717-537e9eedc453","system_id":"levelo_inurba_marseille","lat":43.30612,"lon":5.37211,"is_reserved":false,"is_disabled":false,"rental_uris":{"android":"levelo://app?vid=ba83c54c-63dc-4f4c-a717-537e9eedc453","ios":"levelo://app?vid=ba83c54c-63dc-4f4c-a717-537e9eedc453"},"vehicle_type_id":"4","last_reported":1746534136,"current_range_meters":14400,"station_id":"ce4bgqh2rcd13ifvqc4g","pricing_plan_id":"cebpf4jnsgd1na2vs0mg"},{"bike_id":"71dcdfd5-0269-477f-8c7f-8d33adcb94f0","system_id":"levelo_inurba_marseille","lat":43.2901,"lon":5.38105,"is_reserved":false,"is_disabled":false,"rental_uris":{"android":"levelo://app?vid=71dcdfd5-0269-477f-8c7f-8d33adcb94f0","ios":"levelo://app?vid=71dcdfd5-0269-477f-8c7f-8d33adcb94f0"},"vehicle_type_id":"4","last_reported":1746534136,"current_range_meters":14400,"station_id":"ce4bh4p2rcd13ifvqe1g","pricing_plan_id":"cebpf4jnsgd1na2vs0mg"},{"bike_id":"7cfc5b58-eacf-449e-a332-6b730376e538","system_id":"levelo_inurba_marseille","lat":43.241812,"lon":5.397172,"is_reserved":false,"is_disabled":false,"rental_uris":{"android":"levelo://app?vid=7cfc5b58-eacf-449e-a332-6b730376e538","ios":"levelo://app?vid=7cfc5b58-eacf-449e-a332-6b730376e538"},"vehicle_type_id":"4","last_reported":1746534136,"current_range_meters":14800,"station_id":"ce4bhn12rcd13ifvqgpg","pricing_plan_id":"cebpf4jnsgd1na2vs0mg"},{"bike_id":"00913472-b55b-4324-ad49-b292d67915bd","system_id":"levelo_inurba_marseille","lat":43.24661,"lon":5.38169,"is_reserved":false,"is_disabled":false,"rental_uris":{"android":"levelo://app?vid=00913472-b55b-4324-ad49-b292d67915bd","ios":"levelo://app?vid=00913472-b55b-4324-ad49-b292d67915bd"},"vehicle_type_id":"4","last_reported":1746534136,"current_range_meters":15200,"station_id":"ce4bhih2rcd13ifvqfr0","pricing_plan_id":"cebpf4jnsgd1na2vs0mg"},{"bike_id":"0569f571-386c-4e04-ab5f-6538eb0cd63c","system_id":"levelo_inurba_marseille","lat":43.29578,"lon":5.36731,"is_reserved":false,"is_disabled":false,"rental_uris":{"android":"levelo://app?vid=0569f571-386c-4e04-ab5f-6538eb0cd63c","ios":"levelo://app?vid=0569f571-386c-4e04-ab5f-6538eb0cd63c"},"vehicle_type_id":"4","last_reported":1746534136,"current_range_meters":14800,"station_id":"ce4bgph2rcd13ifvqc2g","pricing_plan_id":"cebpf4jnsgd1na2vs0mg"},{"bike_id":"741922f7-49ff-4751-a228-5a73f2c8c24d","system_id":"levelo_inurba_marseille","lat":43.241698,"lon":5.364018,"is_reserved":false,"is_disabled":false,"rental_uris":{"android":"levelo://app?vid=741922f7-49ff-4751-a228-5a73f2c8c24d","ios":"levelo://app?vid=741922f7-49ff-4751-a228-5a73f2c8c24d"},"vehicle_type_id":"4","last_reported":1746534136,"current_range_meters":15200,"station_id":"cpo36qri1sfpv3e86is0","pricing_plan_id":"cebpf4jnsgd1na2vs0mg"},{"bike_id":"ed01ef7e-7021-458a-b1e4-33765f19f4fe","system_id":"levelo_inurba_marseille","lat":43.31368,"lon":5.3675,"is_reserved":false,"is_disabled":false,"rental_uris":{"android":"levelo://app?vid=ed01ef7e-7021-458a-b1e4-33765f19f4fe","ios":"levelo://app?vid=ed01ef7e-7021-458a-b1e4-33765f19f4fe"},"vehicle_type_id":"4","last_reported":1746534136,"current_range_meters":15200,"station_id":"ce4bgr92rcd13ifvqc6g","pricing_plan_id":"cebpf4jnsgd1na2vs0mg"},{"bike_id":"80305bfc-1987-44c1-93b0-99ad7f91a348","system_id":"levelo_inurba_marseille","lat":43.267069,"lon":5.382822,"is_reserved":false,"is_disabled":false,"rental_uris":{"android":"levelo://app?vid=80305bfc-1987-44c1-93b0-99ad7f91a348","ios":"levelo://app?vid=80305bfc-1987-44c1-93b0-99ad7f91a348"},"vehicle_type_id":"4","last_reported":1746534136,"current_range_meters":15200,"station_id":"ce4bhgh2rcd13ifvqfb0","pricing_plan_id":"cebpf4jnsgd1na2vs0mg"},{"bike_id":"e77f2bb2-ecfd-404d-9062-d0bf870b3424","system_id":"levelo_inurba_marseille","lat":43.30531,"lon":5.36531,"is_reserved":false,"is_disabled":false,"rental_uris":{"android":"levelo://app?vid=e77f2bb2-ecfd-404d-9062-d0bf870b3424","ios":"levelo://app?vid=e77f2bb2-ecfd-404d-9062-d0bf870b3424"},"vehicle_type_id":"4","last_reported":1746534136,"current_range_meters":15200,"station_id":"ce4bgs12rcd13ifvqcag","pricing_plan_id":"cebpf4jnsgd1na2vs0mg"},{"bike_id":"03bb5049-51e5-461e-8353-3cc13edfbfb8","system_id":"levelo_inurba_marseille","lat":43.23962,"lon":5.36615,"is_reserved":false,"is_disabled":false,"rental_uris":{"android":"levelo://app?vid=03bb5049-51e5-461e-8353-3cc13edfbfb8","ios":"levelo://app?vid=03bb5049-51e5-461e-8353-3cc13edfbfb8"},"vehicle_type_id":"4","last_reported":1746534136,"current_range_meters":16000,"station_id":"ce4bhi12rcd13ifvqfp0","pricing_plan_id":"cebpf4jnsgd1na2vs0mg"},{"bike_id":"b4bac287-3615-423a-bca2-a11fb80cb066","system_id":"levelo_inurba_marseille","lat":43.2305,"lon":5.35493,"is_reserved":false,"is_disabled":false,"rental_uris":{"android":"levelo://app?vid=b4bac287-3615-423a-bca2-a11fb80cb066","ios":"levelo://app?vid=b4bac287-3615-423a-bca2-a11fb80cb066"},"vehicle_type_id":"4","last_reported":1746534136,"current_range_meters":16000,"station_id":"cpo3342slgdg3j2ifvpg","pricing_plan_id":"cebpf4jnsgd1na2vs0mg"},{"bike_id":"e0a0fb85-9539-4fb6-b21f-392540fb8a26","system_id":"levelo_inurba_marseille","lat":43.32366,"lon":5.36764,"is_reserved":false,"is_disabled":false,"rental_uris":{"android":"levelo://app?vid=e0a0fb85-9539-4fb6-b21f-392540fb8a26","ios":"levelo://app?vid=e0a0fb85-9539-4fb6-b21f-392540fb8a26"},"vehicle_type_id":"4","last_reported":1746534136,"current_range_meters":16000,"station_id":"ce4bhsh2rcd13ifvqi2g","pricing_plan_id":"cebpf4jnsgd1na2vs0mg"},{"bike_id":"200745fa-fb76-476a-b7a2-47e3e813b060","system_id":"levelo_inurba_marseille","lat":43.305233,"lon":5.366877,"is_reserved":false,"is_disabled":false,"rental_uris":{"android":"levelo://app?vid=200745fa-fb76-476a-b7a2-47e3e813b060","ios":"levelo://app?vid=200745fa-fb76-476a-b7a2-47e3e813b060"},"vehicle_type_id":"4","last_reported":1746534136,"current_range_meters":16000,"station_id":"ce4bgrp2rcd13ifvqc9g","pricing_plan_id":"cebpf4jnsgd1na2vs0mg"},{"bike_id":"46a428a1-3a45-4310-8fc1-8ac5239110b0","system_id":"levelo_inurba_marseille","lat":43.25821,"lon":5.39422,"is_reserved":false,"is_disabled":false,"rental_uris":{"android":"levelo://app?vid=46a428a1-3a45-4310-8fc1-8ac5239110b0","ios":"levelo://app?vid=46a428a1-3a45-4310-8fc1-8ac5239110b0"},"vehicle_type_id":"4","last_reported":1746534136,"current_range_meters":16000,"station_id":"ce4bhip2rcd13ifvqft0","pricing_plan_id":"cebpf4jnsgd1na2vs0mg"},{"bike_id":"2595947c-fcb6-46c7-9dab-026cb2f804dc","system_id":"levelo_inurba_marseille","lat":43.24177,"lon":5.39719,"is_reserved":false,"is_disabled":false,"rental_uris":{"android":"levelo://app?vid=2595947c-fcb6-46c7-9dab-026cb2f804dc","ios":"levelo://app?vid=2595947c-fcb6-46c7-9dab-026cb2f804dc"},"vehicle_type_id":"4","last_reported":1746534136,"current_range_meters":16000,"station_id":"ce4bhn12rcd13ifvqgpg","pricing_plan_id":"cebpf4jnsgd1na2vs0mg"},{"bike_id":"1900e395-19ba-404e-aa6a-262b7656599d","system_id":"levelo_inurba_marseille","lat":43.2888,"lon":5.43707,"is_reserved":false,"is_disabled":false,"rental_uris":{"android":"levelo://app?vid=1900e395-19ba-404e-aa6a-262b7656599d","ios":"levelo://app?vid=1900e395-19ba-404e-aa6a-262b7656599d"},"vehicle_type_id":"4","last_reported":1746534136,"current_range_meters":16000,"station_id":"","pricing_plan_id":"cebpf4jnsgd1na2vs0mg"},{"bike_id":"8628899e-76bf-4794-9773-2f5cc2bf87c0","system_id":"levelo_inurba_marseille","lat":43.27173,"lon":5.40992,"is_reserved":false,"is_disabled":false,"rental_uris":{"android":"levelo://app?vid=8628899e-76bf-4794-9773-2f5cc2bf87c0","ios":"levelo://app?vid=8628899e-76bf-4794-9773-2f5cc2bf87c0"},"vehicle_type_id":"4","last_reported":1746534136,"current_range_meters":16000,"station_id":"ce4bhl12rcd13ifvqgf0","pricing_plan_id":"cebpf4jnsgd1na2vs0mg"},{"bike_id":"13b2c874-ba4b-4be4-99d7-919faae7d0b5","system_id":"levelo_inurba_marseille","lat":43.29596,"lon":5.3811,"is_reserved":false,"is_disabled":false,"rental_uris":{"android":"levelo://app?vid=13b2c874-ba4b-4be4-99d7-919faae7d0b5","ios":"levelo://app?vid=13b2c874-ba4b-4be4-99d7-919faae7d0b5"},"vehicle_type_id":"4","last_reported":1746534136,"current_range_meters":16400,"station_id":"ce4bgl12rcd13ifvqbo0","pricing_plan_id":"cebpf4jnsgd1na2vs0mg"},{"bike_id":"6271a4c2-8659-4225-b551-4cc759bd6046","system_id":"levelo_inurba_marseille","lat":43.30583,"lon":5.36555,"is_reserved":false,"is_disabled":false,"rental_uris":{"android":"levelo://app?vid=6271a4c2-8659-4225-b551-4cc759bd6046","ios":"levelo://app?vid=6271a4c2-8659-4225-b551-4cc759bd6046"},"vehicle_type_id":"4","last_reported":1746534136,"current_range_meters":16400,"station_id":"ce4bgs12rcd13ifvqcag","pricing_plan_id":"cebpf4jnsgd1na2vs0mg"},{"bike_id":"b6f4e974-b313-4ba0-93fd-04e29bce726f","system_id":"levelo_inurba_marseille","lat":43.28151,"lon":5.42644,"is_reserved":false,"is_disabled":false,"rental_uris":{"android":"levelo://app?vid=b6f4e974-b313-4ba0-93fd-04e29bce726f","ios":"levelo://app?vid=b6f4e974-b313-4ba0-93fd-04e29bce726f"},"vehicle_type_id":"4","last_reported":1746534136,"current_range_meters":16400,"station_id":"ce4bhnh2rcd13ifvqgug","pricing_plan_id":"cebpf4jnsgd1na2vs0mg"},{"bike_id":"da7e9696-8a54-4e8e-aecd-d552b60fe6a9","system_id":"levelo_inurba_marseille","lat":43.31724,"lon":5.42394,"is_reserved":false,"is_disabled":false,"rental_uris":{"android":"levelo://app?vid=da7e9696-8a54-4e8e-aecd-d552b60fe6a9","ios":"levelo://app?vid=da7e9696-8a54-4e8e-aecd-d552b60fe6a9"},"vehicle_type_id":"4","last_reported":1746534136,"current_range_meters":16000,"station_id":"ce4bhp92rcd13ifvqhbg","pricing_plan_id":"cebpf4jnsgd1na2vs0mg"},{"bike_id":"db23f96b-2c7c-4adb-ab09-2857b659b0fc","system_id":"levelo_inurba_marseille","lat":43.29231,"lon":5.36066,"is_reserved":false,"is_disabled":false,"rental_uris":{"android":"levelo://app?vid=db23f96b-2c7c-4adb-ab09-2857b659b0fc","ios":"levelo://app?vid=db23f96b-2c7c-4adb-ab09-2857b659b0fc"},"vehicle_type_id":"4","last_reported":1746534136,"current_range_meters":16400,"station_id":"ce4bhbh2rcd13ifvqeqg","pricing_plan_id":"cebpf4jnsgd1na2vs0mg"},{"bike_id":"ab25dbc8-fcac-49a5-993f-64cc918e16ad","system_id":"levelo_inurba_marseille","lat":43.29306,"lon":5.37172,"is_reserved":false,"is_disabled":false,"rental_uris":{"android":"levelo://app?vid=ab25dbc8-fcac-49a5-993f-64cc918e16ad","ios":"levelo://app?vid=ab25dbc8-fcac-49a5-993f-64cc918e16ad"},"vehicle_type_id":"4","last_reported":1746534136,"current_range_meters":16800,"station_id":"ce4bgh92rcd13ifvqb40","pricing_plan_id":"cebpf4jnsgd1na2vs0mg"},{"bike_id":"1471d6a7-b110-4412-9bb0-f33a028a221b","system_id":"levelo_inurba_marseille","lat":43.32338,"lon":5.38909,"is_reserved":false,"is_disabled":false,"rental_uris":{"android":"levelo://app?vid=1471d6a7-b110-4412-9bb0-f33a028a221b","ios":"levelo://app?vid=1471d6a7-b110-4412-9bb0-f33a028a221b"},"vehicle_type_id":"4","last_reported":1746534136,"current_range_meters":16800,"station_id":"ce4bhqp2rcd13ifvqhog","pricing_plan_id":"cebpf4jnsgd1na2vs0mg"},{"bike_id":"23c31e95-e912-4f37-922a-9438dfc625cc","system_id":"levelo_inurba_marseille","lat":43.31081,"lon":5.4243,"is_reserved":false,"is_disabled":false,"rental_uris":{"android":"levelo://app?vid=23c31e95-e912-4f37-922a-9438dfc625cc","ios":"levelo://app?vid=23c31e95-e912-4f37-922a-9438dfc625cc"},"vehicle_type_id":"4","last_reported":1746534136,"current_range_meters":16800,"station_id":"ce4bhp92rcd13ifvqhag","pricing_plan_id":"cebpf4jnsgd1na2vs0mg"},{"bike_id":"214fdd12-7c37-4d48-abcb-ca5afcde0365","system_id":"levelo_inurba_marseille","lat":43.31701,"lon":5.4046,"is_reserved":false,"is_disabled":false,"rental_uris":{"android":"levelo://app?vid=214fdd12-7c37-4d48-abcb-ca5afcde0365","ios":"levelo://app?vid=214fdd12-7c37-4d48-abcb-ca5afcde0365"},"vehicle_type_id":"4","last_reported":1746534136,"current_range_meters":16800,"station_id":"ce4bh012rcd13ifvqd00","pricing_plan_id":"cebpf4jnsgd1na2vs0mg"},{"bike_id":"965da70f-545b-43fa-bc3a-87259172dd6a","system_id":"levelo_inurba_marseille","lat":43.30908,"lon":5.36841,"is_reserved":false,"is_disabled":false,"rental_uris":{"android":"levelo://app?vid=965da70f-545b-43fa-bc3a-87259172dd6a","ios":"levelo://app?vid=965da70f-545b-43fa-bc3a-87259172dd6a"},"vehicle_type_id":"4","last_reported":1746534136,"current_range_meters":16800,"station_id":"ce4bgn92rcd13ifvqbvg","pricing_plan_id":"cebpf4jnsgd1na2vs0mg"},{"bike_id":"32bf9068-b85f-4e8d-9294-a3442956bc5a","system_id":"levelo_inurba_marseille","lat":43.319983,"lon":5.381547,"is_reserved":false,"is_disabled":false,"rental_uris":{"android":"levelo://app?vid=32bf9068-b85f-4e8d-9294-a3442956bc5a","ios":"levelo://app?vid=32bf9068-b85f-4e8d-9294-a3442956bc5a"},"vehicle_type_id":"4","last_reported":1746534136,"current_range_meters":17200,"station_id":"ce4bhr12rcd13ifvqhpg","pricing_plan_id":"cebpf4jnsgd1na2vs0mg"},{"bike_id":"865ec0c1-5373-4254-ad6c-e2ec7e46305c","system_id":"levelo_inurba_marseille","lat":43.2469,"lon":5.38152,"is_reserved":false,"is_disabled":false,"rental_uris":{"android":"levelo://app?vid=865ec0c1-5373-4254-ad6c-e2ec7e46305c","ios":"levelo://app?vid=865ec0c1-5373-4254-ad6c-e2ec7e46305c"},"vehicle_type_id":"4","last_reported":1746534136,"current_range_meters":17200,"station_id":"ce4bhih2rcd13ifvqfr0","pricing_plan_id":"cebpf4jnsgd1na2vs0mg"},{"bike_id":"3587b69a-4cd3-4bd5-abe0-1f90335cc124","system_id":"levelo_inurba_marseille","lat":43.266824,"lon":5.382697,"is_reserved":false,"is_disabled":false,"rental_uris":{"android":"levelo://app?vid=3587b69a-4cd3-4bd5-abe0-1f90335cc124","ios":"levelo://app?vid=3587b69a-4cd3-4bd5-abe0-1f90335cc124"},"vehicle_type_id":"4","last_reported":1746534136,"current_range_meters":16800,"station_id":"ce4bhg92rcd13ifvqf90","pricing_plan_id":"cebpf4jnsgd1na2vs0mg"},{"bike_id":"2714f713-c769-4f6a-ac44-441a635e9cba","system_id":"levelo_inurba_marseille","lat":43.21593,"lon":5.34274,"is_reserved":false,"is_disabled":false,"rental_uris":{"android":"levelo://app?vid=2714f713-c769-4f6a-ac44-441a635e9cba","ios":"levelo://app?vid=2714f713-c769-4f6a-ac44-441a635e9cba"},"vehicle_type_id":"4","last_reported":1746534136,"current_range_meters":17200,"station_id":"","pricing_plan_id":"cebpf4jnsgd1na2vs0mg"},{"bike_id":"8a076199-6384-4a29-876b-59de24f4e932","system_id":"levelo_inurba_marseille","lat":43.28719,"lon":5.37934,"is_reserved":false,"is_disabled":false,"rental_uris":{"android":"levelo://app?vid=8a076199-6384-4a29-876b-59de24f4e932","ios":"levelo://app?vid=8a076199-6384-4a29-876b-59de24f4e932"},"vehicle_type_id":"4","last_reported":1746534136,"current_range_meters":17200,"station_id":"ce4bh9p2rcd13ifvqec0","pricing_plan_id":"cebpf4jnsgd1na2vs0mg"},{"bike_id":"825b51f9-e8a5-4278-9719-a74fbd6abefa","system_id":"levelo_inurba_marseille","lat":43.32363,"lon":5.38893,"is_reserved":false,"is_disabled":false,"rental_uris":{"android":"levelo://app?vid=825b51f9-e8a5-4278-9719-a74fbd6abefa","ios":"levelo://app?vid=825b51f9-e8a5-4278-9719-a74fbd6abefa"},"vehicle_type_id":"4","last_reported":1746534136,"current_range_meters":17200,"station_id":"ce4bhqp2rcd13ifvqhog","pricing_plan_id":"cebpf4jnsgd1na2vs0mg"},{"bike_id":"e780dcea-2277-44d8-9114-97957f80fd1b","system_id":"levelo_inurba_marseille","lat":43.30579,"lon":5.37264,"is_reserved":false,"is_disabled":false,"rental_uris":{"android":"levelo://app?vid=e780dcea-2277-44d8-9114-97957f80fd1b","ios":"levelo://app?vid=e780dcea-2277-44d8-9114-97957f80fd1b"},"vehicle_type_id":"4","last_reported":1746534136,"current_range_meters":17600,"station_id":"ce4bgqh2rcd13ifvqc4g","pricing_plan_id":"cebpf4jnsgd1na2vs0mg"},{"bike_id":"5638fae2-2e1b-469b-8abd-91d7d799618a","system_id":"levelo_inurba_marseille","lat":43.32094,"lon":5.36766,"is_reserved":false,"is_disabled":false,"rental_uris":{"android":"levelo://app?vid=5638fae2-2e1b-469b-8abd-91d7d799618a","ios":"levelo://app?vid=5638fae2-2e1b-469b-8abd-91d7d799618a"},"vehicle_type_id":"4","last_reported":1746534136,"current_range_meters":17600,"station_id":"ce4bhrh2rcd13ifvqhug","pricing_plan_id":"cebpf4jnsgd1na2vs0mg"},{"bike_id":"c83756da-bdf6-4820-a506-f88416981b9e","system_id":"levelo_inurba_marseille","lat":43.26681,"lon":5.38277,"is_reserved":false,"is_disabled":false,"rental_uris":{"android":"levelo://app?vid=c83756da-bdf6-4820-a506-f88416981b9e","ios":"levelo://app?vid=c83756da-bdf6-4820-a506-f88416981b9e"},"vehicle_type_id":"4","last_reported":1746534136,"current_range_meters":17600,"station_id":"ce4bhg92rcd13ifvqf90","pricing_plan_id":"cebpf4jnsgd1na2vs0mg"},{"bike_id":"dbe2d0c9-0901-475b-bd50-eeb9dc6c06fa","system_id":"levelo_inurba_marseille","lat":43.270675,"lon":5.422768,"is_reserved":false,"is_disabled":false,"rental_uris":{"android":"levelo://app?vid=dbe2d0c9-0901-475b-bd50-eeb9dc6c06fa","ios":"levelo://app?vid=dbe2d0c9-0901-475b-bd50-eeb9dc6c06fa"},"vehicle_type_id":"4","last_reported":1746534136,"current_range_meters":18000,"station_id":"ce4bhk92rcd13ifvqgb0","pricing_plan_id":"cebpf4jnsgd1na2vs0mg"},{"bike_id":"98987198-e3c5-4fce-8c74-4fe81f1f77fa","system_id":"levelo_inurba_marseille","lat":43.27233,"lon":5.38697,"is_reserved":false,"is_disabled":false,"rental_uris":{"android":"levelo://app?vid=98987198-e3c5-4fce-8c74-4fe81f1f77fa","ios":"levelo://app?vid=98987198-e3c5-4fce-8c74-4fe81f1f77fa"},"vehicle_type_id":"4","last_reported":1746534136,"current_range_meters":18000,"station_id":"ce4bhbh2rcd13ifvqeo0","pricing_plan_id":"cebpf4jnsgd1na2vs0mg"},{"bike_id":"6fedbe5c-64b9-41c2-9a5f-5f7929240312","system_id":"levelo_inurba_marseille","lat":43.28718,"lon":5.39971,"is_reserved":false,"is_disabled":false,"rental_uris":{"android":"levelo://app?vid=6fedbe5c-64b9-41c2-9a5f-5f7929240312","ios":"levelo://app?vid=6fedbe5c-64b9-41c2-9a5f-5f7929240312"},"vehicle_type_id":"4","last_reported":1746534136,"current_range_meters":17600,"station_id":"ce4bho92rcd13ifvqh3g","pricing_plan_id":"cebpf4jnsgd1na2vs0mg"},{"bike_id":"ac700e2e-c129-4f82-a3c3-f628077933a6","system_id":"levelo_inurba_marseille","lat":43.21192,"lon":5.35074,"is_reserved":false,"is_disabled":false,"rental_uris":{"android":"levelo://app?vid=ac700e2e-c129-4f82-a3c3-f628077933a6","ios":"levelo://app?vid=ac700e2e-c129-4f82-a3c3-f628077933a6"},"vehicle_type_id":"4","last_reported":1746534136,"current_range_meters":18000,"station_id":"st_cvj6sg6p6f1abm77japg","pricing_plan_id":"cebpf4jnsgd1na2vs0mg"},{"bike_id":"425474cb-1503-45db-9cb7-1dc966f15e48","system_id":"levelo_inurba_marseille","lat":43.31756,"lon":5.39025,"is_reserved":false,"is_disabled":false,"rental_uris":{"android":"levelo://app?vid=425474cb-1503-45db-9cb7-1dc966f15e48","ios":"levelo://app?vid=425474cb-1503-45db-9cb7-1dc966f15e48"},"vehicle_type_id":"4","last_reported":1746534136,"current_range_meters":18800,"station_id":"ce4bhqp2rcd13ifvqhng","pricing_plan_id":"cebpf4jnsgd1na2vs0mg"},{"bike_id":"0e87f288-e8c8-42f7-9b45-5d07827eac14","system_id":"levelo_inurba_marseille","lat":43.32357,"lon":5.36752,"is_reserved":false,"is_disabled":false,"rental_uris":{"android":"levelo://app?vid=0e87f288-e8c8-42f7-9b45-5d07827eac14","ios":"levelo://app?vid=0e87f288-e8c8-42f7-9b45-5d07827eac14"},"vehicle_type_id":"4","last_reported":1746534136,"current_range_meters":18800,"station_id":"ce4bhsh2rcd13ifvqi2g","pricing_plan_id":"cebpf4jnsgd1na2vs0mg"},{"bike_id":"72ebbbdb-13e1-4c88-ab3c-b8b2bc65db3e","system_id":"levelo_inurba_marseille","lat":43.24072,"lon":5.37762,"is_reserved":false,"is_disabled":false,"rental_uris":{"android":"levelo://app?vid=72ebbbdb-13e1-4c88-ab3c-b8b2bc65db3e","ios":"levelo://app?vid=72ebbbdb-13e1-4c88-ab3c-b8b2bc65db3e"},"vehicle_type_id":"4","last_reported":1746534136,"current_range_meters":18800,"station_id":"ce4bhnp2rcd13ifvqgvg","pricing_plan_id":"cebpf4jnsgd1na2vs0mg"},{"bike_id":"4179e946-fef7-41ac-a83f-c0385275126b","system_id":"levelo_inurba_marseille","lat":43.31357,"lon":5.3674,"is_reserved":false,"is_disabled":false,"rental_uris":{"android":"levelo://app?vid=4179e946-fef7-41ac-a83f-c0385275126b","ios":"levelo://app?vid=4179e946-fef7-41ac-a83f-c0385275126b"},"vehicle_type_id":"4","last_reported":1746534136,"current_range_meters":19200,"station_id":"ce4bgr92rcd13ifvqc6g","pricing_plan_id":"cebpf4jnsgd1na2vs0mg"},{"bike_id":"be2383e9-3aac-4dee-827d-16f6be2b213d","system_id":"levelo_inurba_marseille","lat":43.30374,"lon":5.42496,"is_reserved":false,"is_disabled":false,"rental_uris":{"android":"levelo://app?vid=be2383e9-3aac-4dee-827d-16f6be2b213d","ios":"levelo://app?vid=be2383e9-3aac-4dee-827d-16f6be2b213d"},"vehicle_type_id":"4","last_reported":1746534136,"current_range_meters":19200,"station_id":"ce4bhoh2rcd13ifvqh6g","pricing_plan_id":"cebpf4jnsgd1na2vs0mg"},{"bike_id":"37d2634a-38fd-41c0-b0a5-8bb139b41325","system_id":"levelo_inurba_marseille","lat":43.30459,"lon":5.37905,"is_reserved":false,"is_disabled":false,"rental_uris":{"android":"levelo://app?vid=37d2634a-38fd-41c0-b0a5-8bb139b41325","ios":"levelo://app?vid=37d2634a-38fd-41c0-b0a5-8bb139b41325"},"vehicle_type_id":"4","last_reported":1746534136,"current_range_meters":18800,"station_id":"ce4bgup2rcd13ifvqcn0","pricing_plan_id":"cebpf4jnsgd1na2vs0mg"},{"bike_id":"6884004a-e1aa-4639-95ae-1ff9c2053390","system_id":"levelo_inurba_marseille","lat":43.243866,"lon":5.370529,"is_reserved":false,"is_disabled":false,"rental_uris":{"android":"levelo://app?vid=6884004a-e1aa-4639-95ae-1ff9c2053390","ios":"levelo://app?vid=6884004a-e1aa-4639-95ae-1ff9c2053390"},"vehicle_type_id":"4","last_reported":1746534136,"current_range_meters":19200,"station_id":"ce4bhhh2rcd13ifvqfk0","pricing_plan_id":"cebpf4jnsgd1na2vs0mg"},{"bike_id":"2d681e3a-2beb-4980-ae98-d93c0b6af1c3","system_id":"levelo_inurba_marseille","lat":43.24061,"lon":5.37725,"is_reserved":false,"is_disabled":false,"rental_uris":{"android":"levelo://app?vid=2d681e3a-2beb-4980-ae98-d93c0b6af1c3","ios":"levelo://app?vid=2d681e3a-2beb-4980-ae98-d93c0b6af1c3"},"vehicle_type_id":"4","last_reported":1746534136,"current_range_meters":19600,"station_id":"ce4bhnp2rcd13ifvqgvg","pricing_plan_id":"cebpf4jnsgd1na2vs0mg"},{"bike_id":"4fa44a4d-c738-41bc-9022-213fbeae4065","system_id":"levelo_inurba_marseille","lat":43.23193,"lon":5.39975,"is_reserved":false,"is_disabled":false,"rental_uris":{"android":"levelo://app?vid=4fa44a4d-c738-41bc-9022-213fbeae4065","ios":"levelo://app?vid=4fa44a4d-c738-41bc-9022-213fbeae4065"},"vehicle_type_id":"4","last_reported":1746534136,"current_range_meters":19600,"station_id":"ce4bhn12rcd13ifvqgqg","pricing_plan_id":"cebpf4jnsgd1na2vs0mg"},{"bike_id":"a38e7df7-63ad-4bd5-b000-4249278a98a2","system_id":"levelo_inurba_marseille","lat":43.30545,"lon":5.36552,"is_reserved":false,"is_disabled":false,"rental_uris":{"android":"levelo://app?vid=a38e7df7-63ad-4bd5-b000-4249278a98a2","ios":"levelo://app?vid=a38e7df7-63ad-4bd5-b000-4249278a98a2"},"vehicle_type_id":"4","last_reported":1746534136,"current_range_meters":19600,"station_id":"ce4bgs12rcd13ifvqcag","pricing_plan_id":"cebpf4jnsgd1na2vs0mg"},{"bike_id":"f095a4fa-d14d-447e-9df9-fb9024867469","system_id":"levelo_inurba_marseille","lat":43.318937,"lon":5.407424,"is_reserved":false,"is_disabled":false,"rental_uris":{"android":"levelo://app?vid=f095a4fa-d14d-447e-9df9-fb9024867469","ios":"levelo://app?vid=f095a4fa-d14d-447e-9df9-fb9024867469"},"vehicle_type_id":"4","last_reported":1746534136,"current_range_meters":20000,"station_id":"ce4bhq12rcd13ifvqhig","pricing_plan_id":"cebpf4jnsgd1na2vs0mg"},{"bike_id":"03140226-8d7f-4d77-ad54-d4210b427b6f","system_id":"levelo_inurba_marseille","lat":43.26808,"lon":5.40273,"is_reserved":false,"is_disabled":false,"rental_uris":{"android":"levelo://app?vid=03140226-8d7f-4d77-ad54-d4210b427b6f","ios":"levelo://app?vid=03140226-8d7f-4d77-ad54-d4210b427b6f"},"vehicle_type_id":"4","last_reported":1746534136,"current_range_meters":20000,"station_id":"ce501612rcd8frsf0b60","pricing_plan_id":"cebpf4jnsgd1na2vs0mg"},{"bike_id":"f45321ad-a54b-404d-981b-802d3c9e0607","system_id":"levelo_inurba_marseille","lat":43.21189,"lon":5.35071,"is_reserved":false,"is_disabled":true,"rental_uris":{"android":"levelo://app?vid=f45321ad-a54b-404d-981b-802d3c9e0607","ios":"levelo://app?vid=f45321ad-a54b-404d-981b-802d3c9e0607"},"vehicle_type_id":"4","last_reported":1746534136,"current_range_meters":20000,"station_id":"st_cvj6sg6p6f1abm77japg","pricing_plan_id":"cebpf4jnsgd1na2vs0mg"},{"bike_id":"dba2ad5d-ccd2-49fd-b272-7a77870a23e6","system_id":"levelo_inurba_marseille","lat":43.30947,"lon":5.39036,"is_reserved":false,"is_disabled":false,"rental_uris":{"android":"levelo://app?vid=dba2ad5d-ccd2-49fd-b272-7a77870a23e6","ios":"levelo://app?vid=dba2ad5d-ccd2-49fd-b272-7a77870a23e6"},"vehicle_type_id":"4","last_reported":1746534136,"current_range_meters":20000,"station_id":"ce4bgup2rcd13ifvqco0","pricing_plan_id":"cebpf4jnsgd1na2vs0mg"},{"bike_id":"81dd1c4b-6a3b-4570-b1e2-1c9b93ab7410","system_id":"levelo_inurba_marseille","lat":43.22502,"lon":5.34785,"is_reserved":false,"is_disabled":false,"rental_uris":{"android":"levelo://app?vid=81dd1c4b-6a3b-4570-b1e2-1c9b93ab7410","ios":"levelo://app?vid=81dd1c4b-6a3b-4570-b1e2-1c9b93ab7410"},"vehicle_type_id":"4","last_reported":1746534136,"current_range_meters":20000,"station_id":"","pricing_plan_id":"cebpf4jnsgd1na2vs0mg"},{"bike_id":"7d836210-9a7b-422b-af24-042be4c08bdd","system_id":"levelo_inurba_marseille","lat":43.316605,"lon":5.403818,"is_reserved":false,"is_disabled":false,"rental_uris":{"android":"levelo://app?vid=7d836210-9a7b-422b-af24-042be4c08bdd","ios":"levelo://app?vid=7d836210-9a7b-422b-af24-042be4c08bdd"},"vehicle_type_id":"4","last_reported":1746534136,"current_range_meters":20000,"station_id":"ce4bhq12rcd13ifvqhig","pricing_plan_id":"cebpf4jnsgd1na2vs0mg"},{"bike_id":"1aec3b5d-eb1c-4ded-b229-0608252b313c","system_id":"levelo_inurba_marseille","lat":43.265682,"lon":5.390174,"is_reserved":false,"is_disabled":true,"rental_uris":{"android":"levelo://app?vid=1aec3b5d-eb1c-4ded-b229-0608252b313c","ios":"levelo://app?vid=1aec3b5d-eb1c-4ded-b229-0608252b313c"},"vehicle_type_id":"4","last_reported":1746534136,"current_range_meters":20000,"station_id":"ce4bgk12rcd13ifvqbj0","pricing_plan_id":"cebpf4jnsgd1na2vs0mg"},{"bike_id":"cfa48441-2949-4753-a9d0-3172cb79d096","system_id":"levelo_inurba_marseille","lat":43.31201,"lon":5.37633,"is_reserved":false,"is_disabled":false,"rental_uris":{"android":"levelo://app?vid=cfa48441-2949-4753-a9d0-3172cb79d096","ios":"levelo://app?vid=cfa48441-2949-4753-a9d0-3172cb79d096"},"vehicle_type_id":"4","last_reported":1746534136,"current_range_meters":20400,"station_id":"","pricing_plan_id":"cebpf4jnsgd1na2vs0mg"},{"bike_id":"7e243975-62b9-42fc-a33d-7466008d9035","system_id":"levelo_inurba_marseille","lat":43.2974,"lon":5.37086,"is_reserved":false,"is_disabled":false,"rental_uris":{"android":"levelo://app?vid=7e243975-62b9-42fc-a33d-7466008d9035","ios":"levelo://app?vid=7e243975-62b9-42fc-a33d-7466008d9035"},"vehicle_type_id":"4","last_reported":1746534136,"current_range_meters":20400,"station_id":"ce4bgop2rcd13ifvqc1g","pricing_plan_id":"cebpf4jnsgd1na2vs0mg"},{"bike_id":"c2c728f8-99cf-4cdc-b101-2bbfa1e83827","system_id":"levelo_inurba_marseille","lat":43.29264,"lon":5.38438,"is_reserved":false,"is_disabled":false,"rental_uris":{"android":"levelo://app?vid=c2c728f8-99cf-4cdc-b101-2bbfa1e83827","ios":"levelo://app?vid=c2c728f8-99cf-4cdc-b101-2bbfa1e83827"},"vehicle_type_id":"4","last_reported":1746534136,"current_range_meters":20800,"station_id":"ce4bh692rcd13ifvqea0","pricing_plan_id":"cebpf4jnsgd1na2vs0mg"},{"bike_id":"24384f0e-408a-42ee-9dc0-46996d573e79","system_id":"levelo_inurba_marseille","lat":43.225125,"lon":5.348256,"is_reserved":false,"is_disabled":false,"rental_uris":{"android":"levelo://app?vid=24384f0e-408a-42ee-9dc0-46996d573e79","ios":"levelo://app?vid=24384f0e-408a-42ee-9dc0-46996d573e79"},"vehicle_type_id":"4","last_reported":1746534136,"current_range_meters":20800,"station_id":"","pricing_plan_id":"cebpf4jnsgd1na2vs0mg"},{"bike_id":"8416f62f-d687-4dd6-b803-7174556f6fbf","system_id":"levelo_inurba_marseille","lat":43.3053,"lon":5.38427,"is_reserved":false,"is_disabled":false,"rental_uris":{"android":"levelo://app?vid=8416f62f-d687-4dd6-b803-7174556f6fbf","ios":"levelo://app?vid=8416f62f-d687-4dd6-b803-7174556f6fbf"},"vehicle_type_id":"4","last_reported":1746534136,"current_range_meters":20400,"station_id":"ce4bgg92rcd13ifvqb30","pricing_plan_id":"cebpf4jnsgd1na2vs0mg"},{"bike_id":"aae78705-7aae-48e9-8c18-bc4726a7f8d8","system_id":"levelo_inurba_marseille","lat":43.31503,"lon":5.37289,"is_reserved":false,"is_disabled":false,"rental_uris":{"android":"levelo://app?vid=aae78705-7aae-48e9-8c18-bc4726a7f8d8","ios":"levelo://app?vid=aae78705-7aae-48e9-8c18-bc4726a7f8d8"},"vehicle_type_id":"4","last_reported":1746534136,"current_range_meters":20800,"station_id":"","pricing_plan_id":"cebpf4jnsgd1na2vs0mg"},{"bike_id":"269cba8c-3522-4dd5-a5cd-2645cca39e6b","system_id":"levelo_inurba_marseille","lat":43.2572,"lon":5.41117,"is_reserved":false,"is_disabled":false,"rental_uris":{"android":"levelo://app?vid=269cba8c-3522-4dd5-a5cd-2645cca39e6b","ios":"levelo://app?vid=269cba8c-3522-4dd5-a5cd-2645cca39e6b"},"vehicle_type_id":"4","last_reported":1746534136,"current_range_meters":20400,"station_id":"ce4bhkp2rcd13ifvqgd0","pricing_plan_id":"cebpf4jnsgd1na2vs0mg"},{"bike_id":"6a379d45-64f9-45fe-9998-ddd0ffa8ebbc","system_id":"levelo_inurba_marseille","lat":43.31362,"lon":5.36704,"is_reserved":false,"is_disabled":false,"rental_uris":{"android":"levelo://app?vid=6a379d45-64f9-45fe-9998-ddd0ffa8ebbc","ios":"levelo://app?vid=6a379d45-64f9-45fe-9998-ddd0ffa8ebbc"},"vehicle_type_id":"4","last_reported":1746534136,"current_range_meters":20800,"station_id":"ce4bgr92rcd13ifvqc6g","pricing_plan_id":"cebpf4jnsgd1na2vs0mg"},{"bike_id":"14337fb3-110b-4ce4-8246-da5ba55825f1","system_id":"levelo_inurba_marseille","lat":43.30435,"lon":5.38882,"is_reserved":false,"is_disabled":false,"rental_uris":{"android":"levelo://app?vid=14337fb3-110b-4ce4-8246-da5ba55825f1","ios":"levelo://app?vid=14337fb3-110b-4ce4-8246-da5ba55825f1"},"vehicle_type_id":"4","last_reported":1746534136,"current_range_meters":20800,"station_id":"ce4bgk12rcd13ifvqbi0","pricing_plan_id":"cebpf4jnsgd1na2vs0mg"},{"bike_id":"7f3f8a0b-e6a2-4710-b5a0-0effe6a9abd2","system_id":"levelo_inurba_marseille","lat":43.30374,"lon":5.42486,"is_reserved":false,"is_disabled":false,"rental_uris":{"android":"levelo://app?vid=7f3f8a0b-e6a2-4710-b5a0-0effe6a9abd2","ios":"levelo://app?vid=7f3f8a0b-e6a2-4710-b5a0-0effe6a9abd2"},"vehicle_type_id":"4","last_reported":1746534136,"current_range_meters":21600,"station_id":"ce4bhoh2rcd13ifvqh6g","pricing_plan_id":"cebpf4jnsgd1na2vs0mg"},{"bike_id":"d4882ba5-cdd0-457d-bf01-aa39b2b3b1e7","system_id":"levelo_inurba_marseille","lat":43.2827,"lon":5.35069,"is_reserved":false,"is_disabled":false,"rental_uris":{"android":"levelo://app?vid=d4882ba5-cdd0-457d-bf01-aa39b2b3b1e7","ios":"levelo://app?vid=d4882ba5-cdd0-457d-bf01-aa39b2b3b1e7"},"vehicle_type_id":"4","last_reported":1746534136,"current_range_meters":21600,"station_id":"ce4bhbp2rcd13ifvqerg","pricing_plan_id":"cebpf4jnsgd1na2vs0mg"},{"bike_id":"243b5624-b5d4-4dac-bc47-fe04605b3088","system_id":"levelo_inurba_marseille","lat":43.306644,"lon":5.401318,"is_reserved":false,"is_disabled":false,"rental_uris":{"android":"levelo://app?vid=243b5624-b5d4-4dac-bc47-fe04605b3088","ios":"levelo://app?vid=243b5624-b5d4-4dac-bc47-fe04605b3088"},"vehicle_type_id":"4","last_reported":1746534136,"current_range_meters":21600,"station_id":"ce4bh112rcd13ifvqda0","pricing_plan_id":"cebpf4jnsgd1na2vs0mg"},{"bike_id":"62edaaea-1956-4cfc-bf6e-a3813befece2","system_id":"levelo_inurba_marseille","lat":43.33027,"lon":5.39036,"is_reserved":false,"is_disabled":false,"rental_uris":{"android":"levelo://app?vid=62edaaea-1956-4cfc-bf6e-a3813befece2","ios":"levelo://app?vid=62edaaea-1956-4cfc-bf6e-a3813befece2"},"vehicle_type_id":"4","last_reported":1746534136,"current_range_meters":22000,"station_id":"ce4bhr92rcd13ifvqhrg","pricing_plan_id":"cebpf4jnsgd1na2vs0mg"},{"bike_id":"77d0f85d-18d8-49f0-a3fb-c4b87df38947","system_id":"levelo_inurba_marseille","lat":43.29171,"lon":5.37167,"is_reserved":false,"is_disabled":false,"rental_uris":{"android":"levelo://app?vid=77d0f85d-18d8-49f0-a3fb-c4b87df38947","ios":"levelo://app?vid=77d0f85d-18d8-49f0-a3fb-c4b87df38947"},"vehicle_type_id":"4","last_reported":1746534136,"current_range_meters":22000,"station_id":"ce4bha92rcd13ifvqeh0","pricing_plan_id":"cebpf4jnsgd1na2vs0mg"},{"bike_id":"6bd196ed-f87d-4cc4-8913-f964abef0310","system_id":"levelo_inurba_marseille","lat":43.30141,"lon":5.38066,"is_reserved":false,"is_disabled":false,"rental_uris":{"android":"levelo://app?vid=6bd196ed-f87d-4cc4-8913-f964abef0310","ios":"levelo://app?vid=6bd196ed-f87d-4cc4-8913-f964abef0310"},"vehicle_type_id":"4","last_reported":1746534136,"current_range_meters":22000,"station_id":"ce4bgjp2rcd13ifvqbh0","pricing_plan_id":"cebpf4jnsgd1na2vs0mg"},{"bike_id":"9e399378-affa-4675-8b4d-c259726694da","system_id":"levelo_inurba_marseille","lat":43.29929,"lon":5.36534,"is_reserved":false,"is_disabled":false,"rental_uris":{"android":"levelo://app?vid=9e399378-affa-4675-8b4d-c259726694da","ios":"levelo://app?vid=9e399378-affa-4675-8b4d-c259726694da"},"vehicle_type_id":"4","last_reported":1746534136,"current_range_meters":22000,"station_id":"ce4bgm92rcd13ifvqbr0","pricing_plan_id":"cebpf4jnsgd1na2vs0mg"},{"bike_id":"8b7c92ca-9ac7-4138-9048-6eb59e93efa5","system_id":"levelo_inurba_marseille","lat":43.30526,"lon":5.36691,"is_reserved":false,"is_disabled":false,"rental_uris":{"android":"levelo://app?vid=8b7c92ca-9ac7-4138-9048-6eb59e93efa5","ios":"levelo://app?vid=8b7c92ca-9ac7-4138-9048-6eb59e93efa5"},"vehicle_type_id":"4","last_reported":1746534136,"current_range_meters":22000,"station_id":"ce4bgrp2rcd13ifvqc9g","pricing_plan_id":"cebpf4jnsgd1na2vs0mg"},{"bike_id":"06ad8920-aab3-4ee1-aaec-98fa8c752b92","system_id":"levelo_inurba_marseille","lat":43.31507,"lon":5.37283,"is_reserved":false,"is_disabled":false,"rental_uris":{"android":"levelo://app?vid=06ad8920-aab3-4ee1-aaec-98fa8c752b92","ios":"levelo://app?vid=06ad8920-aab3-4ee1-aaec-98fa8c752b92"},"vehicle_type_id":"4","last_reported":1746534136,"current_range_meters":22000,"station_id":"ce4bgt12rcd13ifvqcd0","pricing_plan_id":"cebpf4jnsgd1na2vs0mg"},{"bike_id":"dc0467b6-d94b-4d80-868c-a3678d0577bb","system_id":"levelo_inurba_marseille","lat":43.28859,"lon":5.35845,"is_reserved":false,"is_disabled":false,"rental_uris":{"android":"levelo://app?vid=dc0467b6-d94b-4d80-868c-a3678d0577bb","ios":"levelo://app?vid=dc0467b6-d94b-4d80-868c-a3678d0577bb"},"vehicle_type_id":"4","last_reported":1746534136,"current_range_meters":22000,"station_id":"ce4bhb12rcd13ifvqem0","pricing_plan_id":"cebpf4jnsgd1na2vs0mg"},{"bike_id":"bac7f684-2423-4e2b-8fd4-078a9a398e21","system_id":"levelo_inurba_marseille","lat":43.24074,"lon":5.37725,"is_reserved":false,"is_disabled":false,"rental_uris":{"android":"levelo://app?vid=bac7f684-2423-4e2b-8fd4-078a9a398e21","ios":"levelo://app?vid=bac7f684-2423-4e2b-8fd4-078a9a398e21"},"vehicle_type_id":"4","last_reported":1746534136,"current_range_meters":22400,"station_id":"ce4bhnp2rcd13ifvqgvg","pricing_plan_id":"cebpf4jnsgd1na2vs0mg"},{"bike_id":"4c92ddfb-82c6-411c-8a4c-50ec62be918b","system_id":"levelo_inurba_marseille","lat":43.2408,"lon":5.37746,"is_reserved":false,"is_disabled":false,"rental_uris":{"android":"levelo://app?vid=4c92ddfb-82c6-411c-8a4c-50ec62be918b","ios":"levelo://app?vid=4c92ddfb-82c6-411c-8a4c-50ec62be918b"},"vehicle_type_id":"4","last_reported":1746534136,"current_range_meters":22400,"station_id":"ce4bhnp2rcd13ifvqgvg","pricing_plan_id":"cebpf4jnsgd1na2vs0mg"},{"bike_id":"a6f11497-5c8f-4265-816c-3c67aaf3f670","system_id":"levelo_inurba_marseille","lat":43.29929,"lon":5.36543,"is_reserved":false,"is_disabled":false,"rental_uris":{"android":"levelo://app?vid=a6f11497-5c8f-4265-816c-3c67aaf3f670","ios":"levelo://app?vid=a6f11497-5c8f-4265-816c-3c67aaf3f670"},"vehicle_type_id":"4","last_reported":1746534136,"current_range_meters":22800,"station_id":"ce4bgm92rcd13ifvqbr0","pricing_plan_id":"cebpf4jnsgd1na2vs0mg"},{"bike_id":"587cf1c6-af80-4e76-aa43-2d57119c8877","system_id":"levelo_inurba_marseille","lat":43.23156,"lon":5.43704,"is_reserved":false,"is_disabled":false,"rental_uris":{"android":"levelo://app?vid=587cf1c6-af80-4e76-aa43-2d57119c8877","ios":"levelo://app?vid=587cf1c6-af80-4e76-aa43-2d57119c8877"},"vehicle_type_id":"4","last_reported":1746534136,"current_range_meters":22800,"station_id":"ce4bhmp2rcd13ifvqgog","pricing_plan_id":"cebpf4jnsgd1na2vs0mg"},{"bike_id":"60689545-5d60-47bd-8c83-dfeb87ae92a6","system_id":"levelo_inurba_marseille","lat":43.23051,"lon":5.35499,"is_reserved":false,"is_disabled":false,"rental_uris":{"android":"levelo://app?vid=60689545-5d60-47bd-8c83-dfeb87ae92a6","ios":"levelo://app?vid=60689545-5d60-47bd-8c83-dfeb87ae92a6"},"vehicle_type_id":"4","last_reported":1746534136,"current_range_meters":22800,"station_id":"cpo3342slgdg3j2ifvpg","pricing_plan_id":"cebpf4jnsgd1na2vs0mg"},{"bike_id":"24cb5bd8-1a1f-4a28-9427-7490b45f8762","system_id":"levelo_inurba_marseille","lat":43.21174,"lon":5.35097,"is_reserved":false,"is_disabled":false,"rental_uris":{"android":"levelo://app?vid=24cb5bd8-1a1f-4a28-9427-7490b45f8762","ios":"levelo://app?vid=24cb5bd8-1a1f-4a28-9427-7490b45f8762"},"vehicle_type_id":"4","last_reported":1746534136,"current_range_meters":22800,"station_id":"st_cvj6sg6p6f1abm77japg","pricing_plan_id":"cebpf4jnsgd1na2vs0mg"},{"bike_id":"8f03aace-332a-4bda-87f3-534607421873","system_id":"levelo_inurba_marseille","lat":43.32485,"lon":5.41455,"is_reserved":false,"is_disabled":false,"rental_uris":{"android":"levelo://app?vid=8f03aace-332a-4bda-87f3-534607421873","ios":"levelo://app?vid=8f03aace-332a-4bda-87f3-534607421873"},"vehicle_type_id":"4","last_reported":1746534136,"current_range_meters":22800,"station_id":"ce4bhq12rcd13ifvqhhg","pricing_plan_id":"cebpf4jnsgd1na2vs0mg"},{"bike_id":"4f239bce-087b-407f-b490-534beb77cf7b","system_id":"levelo_inurba_marseille","lat":43.288483,"lon":5.393167,"is_reserved":false,"is_disabled":false,"rental_uris":{"android":"levelo://app?vid=4f239bce-087b-407f-b490-534beb77cf7b","ios":"levelo://app?vid=4f239bce-087b-407f-b490-534beb77cf7b"},"vehicle_type_id":"4","last_reported":1746534136,"current_range_meters":22800,"station_id":"ce4bh2p2rcd13ifvqdi0","pricing_plan_id":"cebpf4jnsgd1na2vs0mg"},{"bike_id":"ea61e7f0-6e5b-4f4a-b348-c1a47e1ce974","system_id":"levelo_inurba_marseille","lat":43.28724,"lon":5.37948,"is_reserved":false,"is_disabled":false,"rental_uris":{"android":"levelo://app?vid=ea61e7f0-6e5b-4f4a-b348-c1a47e1ce974","ios":"levelo://app?vid=ea61e7f0-6e5b-4f4a-b348-c1a47e1ce974"},"vehicle_type_id":"4","last_reported":1746534136,"current_range_meters":22800,"station_id":"ce4bh9p2rcd13ifvqec0","pricing_plan_id":"cebpf4jnsgd1na2vs0mg"},{"bike_id":"0b56e35a-4075-4aa0-8c22-62addacec161","system_id":"levelo_inurba_marseille","lat":43.28155,"lon":5.42644,"is_reserved":false,"is_disabled":false,"rental_uris":{"android":"levelo://app?vid=0b56e35a-4075-4aa0-8c22-62addacec161","ios":"levelo://app?vid=0b56e35a-4075-4aa0-8c22-62addacec161"},"vehicle_type_id":"4","last_reported":1746534136,"current_range_meters":22400,"station_id":"ce4bhnh2rcd13ifvqgug","pricing_plan_id":"cebpf4jnsgd1na2vs0mg"},{"bike_id":"96175c6b-7676-4c4f-8523-d41df33ea507","system_id":"levelo_inurba_marseille","lat":43.24078,"lon":5.37752,"is_reserved":false,"is_disabled":false,"rental_uris":{"android":"levelo://app?vid=96175c6b-7676-4c4f-8523-d41df33ea507","ios":"levelo://app?vid=96175c6b-7676-4c4f-8523-d41df33ea507"},"vehicle_type_id":"4","last_reported":1746534136,"current_range_meters":22800,"station_id":"ce4bhnp2rcd13ifvqgvg","pricing_plan_id":"cebpf4jnsgd1na2vs0mg"},{"bike_id":"0df3111c-fd99-4e63-915e-e7763d46bb1b","system_id":"levelo_inurba_marseille","lat":43.28507,"lon":5.37075,"is_reserved":false,"is_disabled":false,"rental_uris":{"android":"levelo://app?vid=0df3111c-fd99-4e63-915e-e7763d46bb1b","ios":"levelo://app?vid=0df3111c-fd99-4e63-915e-e7763d46bb1b"},"vehicle_type_id":"4","last_reported":1746534136,"current_range_meters":23200,"station_id":"","pricing_plan_id":"cebpf4jnsgd1na2vs0mg"},{"bike_id":"961799e0-30b9-433b-afe0-71f48d161e46","system_id":"levelo_inurba_marseille","lat":43.27497,"lon":5.42452,"is_reserved":false,"is_disabled":false,"rental_uris":{"android":"levelo://app?vid=961799e0-30b9-433b-afe0-71f48d161e46","ios":"levelo://app?vid=961799e0-30b9-433b-afe0-71f48d161e46"},"vehicle_type_id":"4","last_reported":1746534136,"current_range_meters":22800,"station_id":"ce4bhn92rcd13ifvqgrg","pricing_plan_id":"cebpf4jnsgd1na2vs0mg"},{"bike_id":"d5ab06e3-e77d-4b7f-a195-6a14c71353d9","system_id":"levelo_inurba_marseille","lat":43.26219,"lon":5.40466,"is_reserved":false,"is_disabled":false,"rental_uris":{"android":"levelo://app?vid=d5ab06e3-e77d-4b7f-a195-6a14c71353d9","ios":"levelo://app?vid=d5ab06e3-e77d-4b7f-a195-6a14c71353d9"},"vehicle_type_id":"4","last_reported":1746534136,"current_range_meters":23200,"station_id":"ce4bhmh2rcd13ifvqgmg","pricing_plan_id":"cebpf4jnsgd1na2vs0mg"},{"bike_id":"e792faf4-2e9f-4df7-9a66-f970dd817aa6","system_id":"levelo_inurba_marseille","lat":43.30292,"lon":5.36876,"is_reserved":false,"is_disabled":false,"rental_uris":{"android":"levelo://app?vid=e792faf4-2e9f-4df7-9a66-f970dd817aa6","ios":"levelo://app?vid=e792faf4-2e9f-4df7-9a66-f970dd817aa6"},"vehicle_type_id":"4","last_reported":1746534136,"current_range_meters":23200,"station_id":"ce4bgqh2rcd13ifvqc5g","pricing_plan_id":"cebpf4jnsgd1na2vs0mg"},{"bike_id":"939e4a63-2df1-4763-89c8-b49ce0665daa","system_id":"levelo_inurba_marseille","lat":43.29029,"lon":5.38144,"is_reserved":false,"is_disabled":false,"rental_uris":{"android":"levelo://app?vid=939e4a63-2df1-4763-89c8-b49ce0665daa","ios":"levelo://app?vid=939e4a63-2df1-4763-89c8-b49ce0665daa"},"vehicle_type_id":"4","last_reported":1746534136,"current_range_meters":23200,"station_id":"ce4bh4p2rcd13ifvqe1g","pricing_plan_id":"cebpf4jnsgd1na2vs0mg"},{"bike_id":"9164aace-04bb-49d9-9faa-3a795154ecb1","system_id":"levelo_inurba_marseille","lat":43.21187,"lon":5.35069,"is_reserved":false,"is_disabled":false,"rental_uris":{"android":"levelo://app?vid=9164aace-04bb-49d9-9faa-3a795154ecb1","ios":"levelo://app?vid=9164aace-04bb-49d9-9faa-3a795154ecb1"},"vehicle_type_id":"4","last_reported":1746534136,"current_range_meters":23200,"station_id":"st_cvj6sg6p6f1abm77japg","pricing_plan_id":"cebpf4jnsgd1na2vs0mg"},{"bike_id":"e5de2e02-a449-4ba8-a7ca-a78e01cb0bc6","system_id":"levelo_inurba_marseille","lat":43.298208,"lon":5.386219,"is_reserved":false,"is_disabled":false,"rental_uris":{"android":"levelo://app?vid=e5de2e02-a449-4ba8-a7ca-a78e01cb0bc6","ios":"levelo://app?vid=e5de2e02-a449-4ba8-a7ca-a78e01cb0bc6"},"vehicle_type_id":"4","last_reported":1746534136,"current_range_meters":24000,"station_id":"ce4bhop2rcd13ifvqh8g","pricing_plan_id":"cebpf4jnsgd1na2vs0mg"},{"bike_id":"2db12796-a895-4595-9b3c-705aecf4a155","system_id":"levelo_inurba_marseille","lat":43.30793,"lon":5.38154,"is_reserved":false,"is_disabled":false,"rental_uris":{"android":"levelo://app?vid=2db12796-a895-4595-9b3c-705aecf4a155","ios":"levelo://app?vid=2db12796-a895-4595-9b3c-705aecf4a155"},"vehicle_type_id":"4","last_reported":1746534136,"current_range_meters":24000,"station_id":"","pricing_plan_id":"cebpf4jnsgd1na2vs0mg"},{"bike_id":"288525d9-2fea-4462-a6ca-b3a916da5cdf","system_id":"levelo_inurba_marseille","lat":43.27569,"lon":5.3844,"is_reserved":false,"is_disabled":false,"rental_uris":{"android":"levelo://app?vid=288525d9-2fea-4462-a6ca-b3a916da5cdf","ios":"levelo://app?vid=288525d9-2fea-4462-a6ca-b3a916da5cdf"},"vehicle_type_id":"4","last_reported":1746534136,"current_range_meters":24000,"station_id":"ce4bhh92rcd13ifvqfi0","pricing_plan_id":"cebpf4jnsgd1na2vs0mg"},{"bike_id":"1ebb0654-7931-4105-904f-a721bf72813e","system_id":"levelo_inurba_marseille","lat":43.25506,"lon":5.37647,"is_reserved":false,"is_disabled":false,"rental_uris":{"android":"levelo://app?vid=1ebb0654-7931-4105-904f-a721bf72813e","ios":"levelo://app?vid=1ebb0654-7931-4105-904f-a721bf72813e"},"vehicle_type_id":"4","last_reported":1746534136,"current_range_meters":23200,"station_id":"ce4bhh12rcd13ifvqff0","pricing_plan_id":"cebpf4jnsgd1na2vs0mg"},{"bike_id":"4c15013c-0453-4bec-8e50-51a7345d5f6a","system_id":"levelo_inurba_marseille","lat":43.24149,"lon":5.39737,"is_reserved":false,"is_disabled":false,"rental_uris":{"android":"levelo://app?vid=4c15013c-0453-4bec-8e50-51a7345d5f6a","ios":"levelo://app?vid=4c15013c-0453-4bec-8e50-51a7345d5f6a"},"vehicle_type_id":"4","last_reported":1746534136,"current_range_meters":24000,"station_id":"ce4bhn12rcd13ifvqgpg","pricing_plan_id":"cebpf4jnsgd1na2vs0mg"},{"bike_id":"fdf9f5c4-3a60-4270-b353-f838298e39d5","system_id":"levelo_inurba_marseille","lat":43.29278,"lon":5.40109,"is_reserved":false,"is_disabled":false,"rental_uris":{"android":"levelo://app?vid=fdf9f5c4-3a60-4270-b353-f838298e39d5","ios":"levelo://app?vid=fdf9f5c4-3a60-4270-b353-f838298e39d5"},"vehicle_type_id":"4","last_reported":1746534136,"current_range_meters":24000,"station_id":"ce4bh312rcd13ifvqdk0","pricing_plan_id":"cebpf4jnsgd1na2vs0mg"},{"bike_id":"341f5cb2-78bc-4224-b8c4-e48e1bf2b361","system_id":"levelo_inurba_marseille","lat":43.24545,"lon":5.39524,"is_reserved":false,"is_disabled":false,"rental_uris":{"android":"levelo://app?vid=341f5cb2-78bc-4224-b8c4-e48e1bf2b361","ios":"levelo://app?vid=341f5cb2-78bc-4224-b8c4-e48e1bf2b361"},"vehicle_type_id":"4","last_reported":1746534136,"current_range_meters":24000,"station_id":"ce4bhlp2rcd13ifvqgjg","pricing_plan_id":"cebpf4jnsgd1na2vs0mg"},{"bike_id":"60832423-0bb6-48d4-8bb2-5bd12eb7bfae","system_id":"levelo_inurba_marseille","lat":43.25927,"lon":5.40906,"is_reserved":false,"is_disabled":false,"rental_uris":{"android":"levelo://app?vid=60832423-0bb6-48d4-8bb2-5bd12eb7bfae","ios":"levelo://app?vid=60832423-0bb6-48d4-8bb2-5bd12eb7bfae"},"vehicle_type_id":"4","last_reported":1746534136,"current_range_meters":24400,"station_id":"ce4bhm92rcd13ifvqglg","pricing_plan_id":"cebpf4jnsgd1na2vs0mg"},{"bike_id":"18644f67-72ce-4631-9d9d-aa6cb4af4f83","system_id":"levelo_inurba_marseille","lat":43.21195,"lon":5.35069,"is_reserved":false,"is_disabled":false,"rental_uris":{"android":"levelo://app?vid=18644f67-72ce-4631-9d9d-aa6cb4af4f83","ios":"levelo://app?vid=18644f67-72ce-4631-9d9d-aa6cb4af4f83"},"vehicle_type_id":"4","last_reported":1746534136,"current_range_meters":24400,"station_id":"st_cvj6sg6p6f1abm77japg","pricing_plan_id":"cebpf4jnsgd1na2vs0mg"},{"bike_id":"98154f32-a2a4-44c1-8b3b-8d3825fc3ba6","system_id":"levelo_inurba_marseille","lat":43.26225,"lon":5.40445,"is_reserved":false,"is_disabled":false,"rental_uris":{"android":"levelo://app?vid=98154f32-a2a4-44c1-8b3b-8d3825fc3ba6","ios":"levelo://app?vid=98154f32-a2a4-44c1-8b3b-8d3825fc3ba6"},"vehicle_type_id":"4","last_reported":1746534136,"current_range_meters":24400,"station_id":"ce4bhmh2rcd13ifvqgmg","pricing_plan_id":"cebpf4jnsgd1na2vs0mg"},{"bike_id":"a4b464ac-8de5-49d3-86ab-c4917811e0dc","system_id":"levelo_inurba_marseille","lat":43.3138,"lon":5.36728,"is_reserved":false,"is_disabled":false,"rental_uris":{"android":"levelo://app?vid=a4b464ac-8de5-49d3-86ab-c4917811e0dc","ios":"levelo://app?vid=a4b464ac-8de5-49d3-86ab-c4917811e0dc"},"vehicle_type_id":"4","last_reported":1746534136,"current_range_meters":24400,"station_id":"ce4bgr92rcd13ifvqc6g","pricing_plan_id":"cebpf4jnsgd1na2vs0mg"},{"bike_id":"d143cbc7-f1ce-4d44-9be8-1e7d70bd783e","system_id":"levelo_inurba_marseille","lat":43.28462,"lon":5.35885,"is_reserved":false,"is_disabled":false,"rental_uris":{"android":"levelo://app?vid=d143cbc7-f1ce-4d44-9be8-1e7d70bd783e","ios":"levelo://app?vid=d143cbc7-f1ce-4d44-9be8-1e7d70bd783e"},"vehicle_type_id":"4","last_reported":1746534136,"current_range_meters":24800,"station_id":"ce4bhah2rcd13ifvqei0","pricing_plan_id":"cebpf4jnsgd1na2vs0mg"},{"bike_id":"57a075ab-58f9-4336-b622-3fa123a6cf43","system_id":"levelo_inurba_marseille","lat":43.26569,"lon":5.37276,"is_reserved":false,"is_disabled":false,"rental_uris":{"android":"levelo://app?vid=57a075ab-58f9-4336-b622-3fa123a6cf43","ios":"levelo://app?vid=57a075ab-58f9-4336-b622-3fa123a6cf43"},"vehicle_type_id":"4","last_reported":1746534136,"current_range_meters":24800,"station_id":"ce4bhg12rcd13ifvqf70","pricing_plan_id":"cebpf4jnsgd1na2vs0mg"},{"bike_id":"d5a40544-afc9-4ec8-864b-499051f2d40a","system_id":"levelo_inurba_marseille","lat":43.24789,"lon":5.37466,"is_reserved":false,"is_disabled":false,"rental_uris":{"android":"levelo://app?vid=d5a40544-afc9-4ec8-864b-499051f2d40a","ios":"levelo://app?vid=d5a40544-afc9-4ec8-864b-499051f2d40a"},"vehicle_type_id":"4","last_reported":1746534136,"current_range_meters":24800,"station_id":"ce4bhgh2rcd13ifvqfb0","pricing_plan_id":"cebpf4jnsgd1na2vs0mg"},{"bike_id":"632f3346-e78e-4a65-9fc1-3fdf6cd4055d","system_id":"levelo_inurba_marseille","lat":43.33028,"lon":5.39032,"is_reserved":false,"is_disabled":false,"rental_uris":{"android":"levelo://app?vid=632f3346-e78e-4a65-9fc1-3fdf6cd4055d","ios":"levelo://app?vid=632f3346-e78e-4a65-9fc1-3fdf6cd4055d"},"vehicle_type_id":"4","last_reported":1746534136,"current_range_meters":24800,"station_id":"ce4bhr92rcd13ifvqhrg","pricing_plan_id":"cebpf4jnsgd1na2vs0mg"},{"bike_id":"2377a625-f3da-4217-ab4b-fe3854a1754c","system_id":"levelo_inurba_marseille","lat":43.24387,"lon":5.37066,"is_reserved":false,"is_disabled":false,"rental_uris":{"android":"levelo://app?vid=2377a625-f3da-4217-ab4b-fe3854a1754c","ios":"levelo://app?vid=2377a625-f3da-4217-ab4b-fe3854a1754c"},"vehicle_type_id":"4","last_reported":1746534136,"current_range_meters":24400,"station_id":"ce4bhhh2rcd13ifvqfk0","pricing_plan_id":"cebpf4jnsgd1na2vs0mg"},{"bike_id":"bac09eb2-4eee-461f-9753-6b7ba80e5001","system_id":"levelo_inurba_marseille","lat":43.27496,"lon":5.42451,"is_reserved":false,"is_disabled":false,"rental_uris":{"android":"levelo://app?vid=bac09eb2-4eee-461f-9753-6b7ba80e5001","ios":"levelo://app?vid=bac09eb2-4eee-461f-9753-6b7ba80e5001"},"vehicle_type_id":"4","last_reported":1746534136,"current_range_meters":24800,"station_id":"ce4bhn92rcd13ifvqgrg","pricing_plan_id":"cebpf4jnsgd1na2vs0mg"},{"bike_id":"312e2a1f-756d-4f40-b70c-6a958b09c1bd","system_id":"levelo_inurba_marseille","lat":43.26953,"lon":5.386381,"is_reserved":false,"is_disabled":false,"rental_uris":{"android":"levelo://app?vid=312e2a1f-756d-4f40-b70c-6a958b09c1bd","ios":"levelo://app?vid=312e2a1f-756d-4f40-b70c-6a958b09c1bd"},"vehicle_type_id":"4","last_reported":1746534136,"current_range_meters":24800,"station_id":"ce4bhg92rcd13ifvqf90","pricing_plan_id":"cebpf4jnsgd1na2vs0mg"},{"bike_id":"8eab9964-a8cc-4e4a-b230-1a4037f8a117","system_id":"levelo_inurba_marseille","lat":43.2952,"lon":5.394025,"is_reserved":false,"is_disabled":false,"rental_uris":{"android":"levelo://app?vid=8eab9964-a8cc-4e4a-b230-1a4037f8a117","ios":"levelo://app?vid=8eab9964-a8cc-4e4a-b230-1a4037f8a117"},"vehicle_type_id":"4","last_reported":1746534136,"current_range_meters":24800,"station_id":"ce4bh292rcd13ifvqdf0","pricing_plan_id":"cebpf4jnsgd1na2vs0mg"},{"bike_id":"b6775097-f46a-459b-b367-22bda90e26bb","system_id":"levelo_inurba_marseille","lat":43.31331,"lon":5.39688,"is_reserved":false,"is_disabled":false,"rental_uris":{"android":"levelo://app?vid=b6775097-f46a-459b-b367-22bda90e26bb","ios":"levelo://app?vid=b6775097-f46a-459b-b367-22bda90e26bb"},"vehicle_type_id":"4","last_reported":1746534136,"current_range_meters":24800,"station_id":"ce4bgvp2rcd13ifvqcu0","pricing_plan_id":"cebpf4jnsgd1na2vs0mg"},{"bike_id":"89b5c51b-cd9c-475c-ba7a-726b12d22f75","system_id":"levelo_inurba_marseille","lat":43.2119,"lon":5.3507,"is_reserved":false,"is_disabled":false,"rental_uris":{"android":"levelo://app?vid=89b5c51b-cd9c-475c-ba7a-726b12d22f75","ios":"levelo://app?vid=89b5c51b-cd9c-475c-ba7a-726b12d22f75"},"vehicle_type_id":"4","last_reported":1746534136,"current_range_meters":24800,"station_id":"st_cvj6sg6p6f1abm77japg","pricing_plan_id":"cebpf4jnsgd1na2vs0mg"},{"bike_id":"aa7bc2f2-99f3-45b9-9645-f4a9070bf00b","system_id":"levelo_inurba_marseille","lat":43.2847,"lon":5.37198,"is_reserved":false,"is_disabled":false,"rental_uris":{"android":"levelo://app?vid=aa7bc2f2-99f3-45b9-9645-f4a9070bf00b","ios":"levelo://app?vid=aa7bc2f2-99f3-45b9-9645-f4a9070bf00b"},"vehicle_type_id":"4","last_reported":1746534136,"current_range_meters":24800,"station_id":"","pricing_plan_id":"cebpf4jnsgd1na2vs0mg"},{"bike_id":"baa0990c-63b8-40f5-9c59-db7c8b182c0e","system_id":"levelo_inurba_marseille","lat":43.3211,"lon":5.36771,"is_reserved":false,"is_disabled":false,"rental_uris":{"android":"levelo://app?vid=baa0990c-63b8-40f5-9c59-db7c8b182c0e","ios":"levelo://app?vid=baa0990c-63b8-40f5-9c59-db7c8b182c0e"},"vehicle_type_id":"4","last_reported":1746534136,"current_range_meters":24800,"station_id":"ce4bhrh2rcd13ifvqhug","pricing_plan_id":"cebpf4jnsgd1na2vs0mg"},{"bike_id":"be14af02-7701-4605-b2d6-5fd0439029d8","system_id":"levelo_inurba_marseille","lat":43.21169,"lon":5.35049,"is_reserved":false,"is_disabled":false,"rental_uris":{"android":"levelo://app?vid=be14af02-7701-4605-b2d6-5fd0439029d8","ios":"levelo://app?vid=be14af02-7701-4605-b2d6-5fd0439029d8"},"vehicle_type_id":"4","last_reported":1746534136,"current_range_meters":24800,"station_id":"st_cvj6sg6p6f1abm77japg","pricing_plan_id":"cebpf4jnsgd1na2vs0mg"},