{"last_updated":1734944976,"ttl":60,"version":"2.2","data":{"bikes":[{"bike_id":"a89677ed-a537-4584-bca4-543a07895283","system_id":"levelo_inurba_marseille","lat":43.31073,"lon":5.38343,"is_reserved":false,"is_disabled":false,"rental_uris":{"android":"levelo://app?vid=a89677ed-a537-4584-bca4-543a07895283","ios":"levelo://app?vid=a89677ed-a537-4584-bca4-543a07895283"},"vehicle_type_id":"4","last_reported":1734944976,"current_range_meters":37600,"station_id":"ce4bgv92rcd13ifvqcr0","pricing_plan_id":"cebpf4jnsgd1na2vs0mg"},{"bike_id":"b6d5cdcb-02d9-4d62-bd96-9fa666630c54","system_id":"levelo_inurba_marseille","lat":43.29521,"lon":5.39034,"is_reserved":false,"is_disabled":false,"rental_uris":{"android":"levelo://app?vid=b6d5cdcb-02d9-4d62-bd96-9fa666630c54","ios":"levelo://app?vid=b6d5cdcb-02d9-4d62-bd96-9fa666630c54"},"vehicle_type_id":"4","last_reported":1734944976,"current_range_meters":34000,"station_id":"ce4bh3p2rcd13ifvqdp0","pricing_plan_id":"cebpf4jnsgd1na2vs0mg"},{"bike_id":"134fd750-5e81-4718-9454-ae267ac3728d","system_id":"levelo_inurba_marseille","lat":43.29511,"lon":5.39043,"is_reserved":false,"is_disabled":false,"rental_uris":{"android":"levelo://app?vid=134fd750-5e81-4718-9454-ae267ac3728d","ios":"levelo://app?vid=134fd750-5e81-4718-9454-ae267ac3728d"},"vehicle_type_id":"4","last_reported":1734944976,"current_range_meters":39200,"station_id":"ce4bh3p2rcd13ifvqdp0","pricing_plan_id":"cebpf4jnsgd1na2vs0mg"},{"bike_id":"b5251cd0-66bc-4e10-9cd1-311b5de694fa","system_id":"levelo_inurba_marseille","lat":43.2762,"lon":5.36103,"is_reserved":false,"is_disabled":false,"rental_uris":{"android":"levelo://app?vid=b5251cd0-66bc-4e10-9cd1-311b5de694fa","ios":"levelo://app?vid=b5251cd0-66bc-4e10-9cd1-311b5de694fa"},"vehicle_type_id":"4","last_reported":1734944976,"current_range_meters":12000,"station_id":"ce4bgj92rcd13ifvqbe0","pricing_plan_id":"cebpf4jnsgd1na2vs0mg"},{"bike_id":"919aef3f-1a9e-401c-be44-605278bdc2a8","system_id":"levelo_inurba_marseille","lat":43.29575,"lon":5.36737,"is_reserved":false,"is_disabled":false,"rental_uris":{"android":"levelo://app?vid=919aef3f-1a9e-401c-be44-605278bdc2a8","ios":"levelo://app?vid=919aef3f-1a9e-401c-be44-605278bdc2a8"},"vehicle_type_id":"4","last_reported":1734944976,"current_range_meters":26000,"station_id":"","pricing_plan_id":"cebpf4jnsgd1na2vs0mg"},{"bike_id":"a96f33ed-4e95-4e70-8945-eb6f1c9c7e57","system_id":"levelo_inurba_marseille","lat":43.30542,"lon":5.38433,"is_reserved":false,"is_disabled":false,"rental_uris":{"android":"levelo://app?vid=a96f33ed-4e95-4e70-8945-eb6f1c9c7e57","ios":"levelo://app?vid=a96f33ed-4e95-4e70-8945-eb6f1c9c7e57"},"vehicle_type_id":"4","last_reported":1734944976,"current_range_meters":38000,"station_id":"ce4bgg92rcd13ifvqb30","pricing_plan_id":"cebpf4jnsgd1na2vs0mg"},{"bike_id":"f7bb8206-7fb4-4c1b-9a15-dea460dfe0f5","system_id":"levelo_inurba_marseille","lat":43.24161,"lon":5.39689,"is_reserved":false,"is_disabled":false,"rental_uris":{"android":"levelo://app?vid=f7bb8206-7fb4-4c1b-9a15-dea460dfe0f5","ios":"levelo://app?vid=f7bb8206-7fb4-4c1b-9a15-dea460dfe0f5"},"vehicle_type_id":"4","last_reported":1734944976,"current_range_meters":28400,"station_id":"ce4bhn12rcd13ifvqgpg","pricing_plan_id":"cebpf4jnsgd1na2vs0mg"},{"bike_id":"67034a8e-5efd-4774-9ebc-c28a00434396","system_id":"levelo_inurba_marseille","lat":43.27805,"lon":5.4071,"is_reserved":false,"is_disabled":false,"rental_uris":{"android":"levelo://app?vid=67034a8e-5efd-4774-9ebc-c28a00434396","ios":"levelo://app?vid=67034a8e-5efd-4774-9ebc-c28a00434396"},"vehicle_type_id":"4","last_reported":1734944976,"current_range_meters":39200,"station_id":"ce4bhnh2rcd13ifvqgtg","pricing_plan_id":"cebpf4jnsgd1na2vs0mg"},{"bike_id":"31389d71-7dbf-49f1-b789-8b313b9821e9","system_id":"levelo_inurba_marseille","lat":43.27564,"lon":5.38421,"is_reserved":false,"is_disabled":false,"rental_uris":{"android":"levelo://app?vid=31389d71-7dbf-49f1-b789-8b313b9821e9","ios":"levelo://app?vid=31389d71-7dbf-49f1-b789-8b313b9821e9"},"vehicle_type_id":"4","last_reported":1734944976,"current_range_meters":38800,"station_id":"ce4bhh92rcd13ifvqfi0","pricing_plan_id":"cebpf4jnsgd1na2vs0mg"},{"bike_id":"96f67906-c94f-4a78-ae6e-fdff28a17019","system_id":"levelo_inurba_marseille","lat":43.337614,"lon":5.374551,"is_reserved":false,"is_disabled":false,"rental_uris":{"android":"levelo://app?vid=96f67906-c94f-4a78-ae6e-fdff28a17019","ios":"levelo://app?vid=96f67906-c94f-4a78-ae6e-fdff28a17019"},"vehicle_type_id":"4","last_reported":1734944976,"current_range_meters":30400,"station_id":"","pricing_plan_id":"cebpf4jnsgd1na2vs0mg"},{"bike_id":"4ae04926-163e-4ffb-be62-88da4a5836ca","system_id":"levelo_inurba_marseille","lat":43.29233,"lon":5.36053,"is_reserved":false,"is_disabled":false,"rental_uris":{"android":"levelo://app?vid=4ae04926-163e-4ffb-be62-88da4a5836ca","ios":"levelo://app?vid=4ae04926-163e-4ffb-be62-88da4a5836ca"},"vehicle_type_id":"4","last_reported":1734944976,"current_range_meters":14000,"station_id":"ce4bhbh2rcd13ifvqeqg","pricing_plan_id":"cebpf4jnsgd1na2vs0mg"},{"bike_id":"454a2917-bbfc-4010-a3c2-3e352c41d99d","system_id":"levelo_inurba_marseille","lat":43.29254,"lon":5.40912,"is_reserved":false,"is_disabled":false,"rental_uris":{"android":"levelo://app?vid=454a2917-bbfc-4010-a3c2-3e352c41d99d","ios":"levelo://app?vid=454a2917-bbfc-4010-a3c2-3e352c41d99d"},"vehicle_type_id":"4","last_reported":1734944976,"current_range_meters":31200,"station_id":"ce4bh192rcd13ifvqdc0","pricing_plan_id":"cebpf4jnsgd1na2vs0mg"},{"bike_id":"876ed8a6-2c4d-4810-a7c8-88c81271cd29","system_id":"levelo_inurba_marseille","lat":43.27981,"lon":5.40017,"is_reserved":false,"is_disabled":false,"rental_uris":{"android":"levelo://app?vid=876ed8a6-2c4d-4810-a7c8-88c81271cd29","ios":"levelo://app?vid=876ed8a6-2c4d-4810-a7c8-88c81271cd29"},"vehicle_type_id":"4","last_reported":1734944976,"current_range_meters":38000,"station_id":"ce4bho92rcd13ifvqh4g","pricing_plan_id":"cebpf4jnsgd1na2vs0mg"},{"bike_id":"4d468b85-a316-4fea-af75-f6894bc519f2","system_id":"levelo_inurba_marseille","lat":43.337444,"lon":5.374475,"is_reserved":false,"is_disabled":false,"rental_uris":{"android":"levelo://app?vid=4d468b85-a316-4fea-af75-f6894bc519f2","ios":"levelo://app?vid=4d468b85-a316-4fea-af75-f6894bc519f2"},"vehicle_type_id":"4","last_reported":1734944976,"current_range_meters":38800,"station_id":"ce4bh192rcd13ifvqdc0","pricing_plan_id":"cebpf4jnsgd1na2vs0mg"},{"bike_id":"d55fdcc2-cfa3-496d-b456-16d493dfb3b2","system_id":"levelo_inurba_marseille","lat":43.29045,"lon":5.39944,"is_reserved":false,"is_disabled":false,"rental_uris":{"android":"levelo://app?vid=d55fdcc2-cfa3-496d-b456-16d493dfb3b2","ios":"levelo://app?vid=d55fdcc2-cfa3-496d-b456-16d493dfb3b2"},"vehicle_type_id":"4","last_reported":1734944976,"current_range_meters":17600,"station_id":"ce4bh392rcd13ifvqdm0","pricing_plan_id":"cebpf4jnsgd1na2vs0mg"},{"bike_id":"d7148982-187c-4b15-9fd7-d4a1e5266c9e","system_id":"levelo_inurba_marseille","lat":43.26199,"lon":5.37925,"is_reserved":false,"is_disabled":false,"rental_uris":{"android":"levelo://app?vid=d7148982-187c-4b15-9fd7-d4a1e5266c9e","ios":"levelo://app?vid=d7148982-187c-4b15-9fd7-d4a1e5266c9e"},"vehicle_type_id":"4","last_reported":1734944976,"current_range_meters":25200,"station_id":"ce4bhjp2rcd13ifvqg90","pricing_plan_id":"cebpf4jnsgd1na2vs0mg"},{"bike_id":"12077225-0151-4b61-a64e-e4fc908916e8","system_id":"levelo_inurba_marseille","lat":43.30187,"lon":5.36606,"is_reserved":false,"is_disabled":false,"rental_uris":{"android":"levelo://app?vid=12077225-0151-4b61-a64e-e4fc908916e8","ios":"levelo://app?vid=12077225-0151-4b61-a64e-e4fc908916e8"},"vehicle_type_id":"4","last_reported":1734944976,"current_range_meters":38000,"station_id":"ce4bgrh2rcd13ifvqc8g","pricing_plan_id":"cebpf4jnsgd1na2vs0mg"},{"bike_id":"f8d67374-979b-4d79-bc93-011ad219eb26","system_id":"levelo_inurba_marseille","lat":43.27202,"lon":5.3918,"is_reserved":false,"is_disabled":false,"rental_uris":{"android":"levelo://app?vid=f8d67374-979b-4d79-bc93-011ad219eb26","ios":"levelo://app?vid=f8d67374-979b-4d79-bc93-011ad219eb26"},"vehicle_type_id":"4","last_reported":1734944976,"current_range_meters":10000,"station_id":"ce4bhhp2rcd13ifvqfm0","pricing_plan_id":"cebpf4jnsgd1na2vs0mg"},{"bike_id":"483c1a88-3d76-4ce2-b8a0-18ab3d6306de","system_id":"levelo_inurba_marseille","lat":43.299353,"lon":5.365393,"is_reserved":false,"is_disabled":false,"rental_uris":{"android":"levelo://app?vid=483c1a88-3d76-4ce2-b8a0-18ab3d6306de","ios":"levelo://app?vid=483c1a88-3d76-4ce2-b8a0-18ab3d6306de"},"vehicle_type_id":"4","last_reported":1734944976,"current_range_meters":11200,"station_id":"ce4bgm92rcd13ifvqbr0","pricing_plan_id":"cebpf4jnsgd1na2vs0mg"},{"bike_id":"14cd210b-7c9c-4b1d-82b0-ae8167a057e2","system_id":"levelo_inurba_marseille","lat":43.25586,"lon":5.38224,"is_reserved":false,"is_disabled":false,"rental_uris":{"android":"levelo://app?vid=14cd210b-7c9c-4b1d-82b0-ae8167a057e2","ios":"levelo://app?vid=14cd210b-7c9c-4b1d-82b0-ae8167a057e2"},"vehicle_type_id":"4","last_reported":1734944976,"current_range_meters":8400,"station_id":"ce4bhih2rcd13ifvqfs0","pricing_plan_id":"cebpf4jnsgd1na2vs0mg"},{"bike_id":"1e5de7ac-7200-40ae-b566-061958bf5c9a","system_id":"levelo_inurba_marseille","lat":43.25085,"lon":5.39517,"is_reserved":false,"is_disabled":false,"rental_uris":{"android":"levelo://app?vid=1e5de7ac-7200-40ae-b566-061958bf5c9a","ios":"levelo://app?vid=1e5de7ac-7200-40ae-b566-061958bf5c9a"},"vehicle_type_id":"4","last_reported":1734944976,"current_range_meters":26800,"station_id":"ce4bhm12rcd13ifvqgkg","pricing_plan_id":"cebpf4jnsgd1na2vs0mg"},{"bike_id":"75f58907-2c93-4f07-9984-ba307a32a5e1","system_id":"levelo_inurba_marseille","lat":43.29523,"lon":5.39043,"is_reserved":false,"is_disabled":false,"rental_uris":{"android":"levelo://app?vid=75f58907-2c93-4f07-9984-ba307a32a5e1","ios":"levelo://app?vid=75f58907-2c93-4f07-9984-ba307a32a5e1"},"vehicle_type_id":"4","last_reported":1734944976,"current_range_meters":33600,"station_id":"ce4bh3p2rcd13ifvqdp0","pricing_plan_id":"cebpf4jnsgd1na2vs0mg"},{"bike_id":"4e2e6240-5440-4ed7-ace9-4c9e6bd778e5","system_id":"levelo_inurba_marseille","lat":43.24047,"lon":5.37756,"is_reserved":false,"is_disabled":false,"rental_uris":{"android":"levelo://app?vid=4e2e6240-5440-4ed7-ace9-4c9e6bd778e5","ios":"levelo://app?vid=4e2e6240-5440-4ed7-ace9-4c9e6bd778e5"},"vehicle_type_id":"4","last_reported":1734944976,"current_range_meters":28800,"station_id":"ce4bhnp2rcd13ifvqgvg","pricing_plan_id":"cebpf4jnsgd1na2vs0mg"},{"bike_id":"df357b14-4c6a-4905-8927-9863400f5dca","system_id":"levelo_inurba_marseille","lat":43.25864,"lon":5.39897,"is_reserved":false,"is_disabled":false,"rental_uris":{"android":"levelo://app?vid=df357b14-4c6a-4905-8927-9863400f5dca","ios":"levelo://app?vid=df357b14-4c6a-4905-8927-9863400f5dca"},"vehicle_type_id":"4","last_reported":1734944976,"current_range_meters":28800,"station_id":"ce4bhl92rcd13ifvqghg","pricing_plan_id":"cebpf4jnsgd1na2vs0mg"},{"bike_id":"b76cea7e-5025-4e14-a8c7-eebf31292c4c","system_id":"levelo_inurba_marseille","lat":43.26066,"lon":5.39394,"is_reserved":false,"is_disabled":true,"rental_uris":{"android":"levelo://app?vid=b76cea7e-5025-4e14-a8c7-eebf31292c4c","ios":"levelo://app?vid=b76cea7e-5025-4e14-a8c7-eebf31292c4c"},"vehicle_type_id":"4","last_reported":1734944976,"current_range_meters":29600,"station_id":"ce4bhh92rcd13ifvqfj0","pricing_plan_id":"cebpf4jnsgd1na2vs0mg"},{"bike_id":"61d31d0f-b8a0-41e9-a988-1a5e04ea1bd5","system_id":"levelo_inurba_marseille","lat":43.31233,"lon":5.36873,"is_reserved":false,"is_disabled":false,"rental_uris":{"android":"levelo://app?vid=61d31d0f-b8a0-41e9-a988-1a5e04ea1bd5","ios":"levelo://app?vid=61d31d0f-b8a0-41e9-a988-1a5e04ea1bd5"},"vehicle_type_id":"4","last_reported":1734944976,"current_range_meters":28000,"station_id":"ce4bgl92rcd13ifvqbq0","pricing_plan_id":"cebpf4jnsgd1na2vs0mg"},{"bike_id":"b385a3ef-d6ae-472e-981a-32c07a4ffc9c","system_id":"levelo_inurba_marseille","lat":43.27053,"lon":5.40264,"is_reserved":false,"is_disabled":false,"rental_uris":{"android":"levelo://app?vid=b385a3ef-d6ae-472e-981a-32c07a4ffc9c","ios":"levelo://app?vid=b385a3ef-d6ae-472e-981a-32c07a4ffc9c"},"vehicle_type_id":"4","last_reported":1734944976,"current_range_meters":37600,"station_id":"ce4bhk92rcd13ifvqgc0","pricing_plan_id":"cebpf4jnsgd1na2vs0mg"},{"bike_id":"24fa1a3b-278d-4dd9-a42d-ad0d1b0a7b28","system_id":"levelo_inurba_marseille","lat":43.28433,"lon":5.37519,"is_reserved":false,"is_disabled":false,"rental_uris":{"android":"levelo://app?vid=24fa1a3b-278d-4dd9-a42d-ad0d1b0a7b28","ios":"levelo://app?vid=24fa1a3b-278d-4dd9-a42d-ad0d1b0a7b28"},"vehicle_type_id":"4","last_reported":1734944976,"current_range_meters":37600,"station_id":"ce4bh412rcd13ifvqds0","pricing_plan_id":"cebpf4jnsgd1na2vs0mg"},{"bike_id":"f64237d5-46cf-42d8-870d-cc1e4d25f3e7","system_id":"levelo_inurba_marseille","lat":43.26684,"lon":5.38273,"is_reserved":false,"is_disabled":false,"rental_uris":{"android":"levelo://app?vid=f64237d5-46cf-42d8-870d-cc1e4d25f3e7","ios":"levelo://app?vid=f64237d5-46cf-42d8-870d-cc1e4d25f3e7"},"vehicle_type_id":"4","last_reported":1734944976,"current_range_meters":35200,"station_id":"ce4bhg92rcd13ifvqf90","pricing_plan_id":"cebpf4jnsgd1na2vs0mg"},{"bike_id":"651844bd-4f3d-4f9f-9e62-99695174b835","system_id":"levelo_inurba_marseille","lat":43.30557,"lon":5.36528,"is_reserved":false,"is_disabled":true,"rental_uris":{"android":"levelo://app?vid=651844bd-4f3d-4f9f-9e62-99695174b835","ios":"levelo://app?vid=651844bd-4f3d-4f9f-9e62-99695174b835"},"vehicle_type_id":"4","last_reported":1734944976,"current_range_meters":27600,"station_id":"ce4bgs12rcd13ifvqcag","pricing_plan_id":"cebpf4jnsgd1na2vs0mg"},{"bike_id":"5d29fc56-dbb2-4006-96bc-27e181f8d4f5","system_id":"levelo_inurba_marseille","lat":43.298528,"lon":5.36295,"is_reserved":false,"is_disabled":false,"rental_uris":{"android":"levelo://app?vid=5d29fc56-dbb2-4006-96bc-27e181f8d4f5","ios":"levelo://app?vid=5d29fc56-dbb2-4006-96bc-27e181f8d4f5"},"vehicle_type_id":"4","last_reported":1734944976,"current_range_meters":38000,"station_id":"ce4bgpp2rcd13ifvqc3g","pricing_plan_id":"cebpf4jnsgd1na2vs0mg"},{"bike_id":"b7c6dbd5-17a8-4fda-a45a-10a78784087b","system_id":"levelo_inurba_marseille","lat":43.31116,"lon":5.37779,"is_reserved":false,"is_disabled":false,"rental_uris":{"android":"levelo://app?vid=b7c6dbd5-17a8-4fda-a45a-10a78784087b","ios":"levelo://app?vid=b7c6dbd5-17a8-4fda-a45a-10a78784087b"},"vehicle_type_id":"4","last_reported":1734944976,"current_range_meters":35600,"station_id":"ce4bgt92rcd13ifvqcg0","pricing_plan_id":"cebpf4jnsgd1na2vs0mg"},{"bike_id":"d0d86539-b0ce-4402-a411-272db2b261f6","system_id":"levelo_inurba_marseille","lat":43.286265,"lon":5.351073,"is_reserved":false,"is_disabled":true,"rental_uris":{"android":"levelo://app?vid=d0d86539-b0ce-4402-a411-272db2b261f6","ios":"levelo://app?vid=d0d86539-b0ce-4402-a411-272db2b261f6"},"vehicle_type_id":"4","last_reported":1734944976,"current_range_meters":0,"station_id":"ce4bhch2rcd13ifvqeug","pricing_plan_id":"cebpf4jnsgd1na2vs0mg"},{"bike_id":"e1a1fefb-6ade-46e6-98d6-844f07ab9872","system_id":"levelo_inurba_marseille","lat":43.29263,"lon":5.36852,"is_reserved":false,"is_disabled":false,"rental_uris":{"android":"levelo://app?vid=e1a1fefb-6ade-46e6-98d6-844f07ab9872","ios":"levelo://app?vid=e1a1fefb-6ade-46e6-98d6-844f07ab9872"},"vehicle_type_id":"4","last_reported":1734944976,"current_range_meters":20800,"station_id":"ce4bhbp2rcd13ifvqesg","pricing_plan_id":"cebpf4jnsgd1na2vs0mg"},{"bike_id":"1bafc42a-64da-44ff-90b0-888912d65257","system_id":"levelo_inurba_marseille","lat":43.27809,"lon":5.40703,"is_reserved":false,"is_disabled":false,"rental_uris":{"android":"levelo://app?vid=1bafc42a-64da-44ff-90b0-888912d65257","ios":"levelo://app?vid=1bafc42a-64da-44ff-90b0-888912d65257"},"vehicle_type_id":"4","last_reported":1734944976,"current_range_meters":26000,"station_id":"ce4bhnh2rcd13ifvqgtg","pricing_plan_id":"cebpf4jnsgd1na2vs0mg"},{"bike_id":"0195b741-d9da-4dbf-a5ab-ca3b181873e0","system_id":"levelo_inurba_marseille","lat":43.30308,"lon":5.36886,"is_reserved":false,"is_disabled":false,"rental_uris":{"android":"levelo://app?vid=0195b741-d9da-4dbf-a5ab-ca3b181873e0","ios":"levelo://app?vid=0195b741-d9da-4dbf-a5ab-ca3b181873e0"},"vehicle_type_id":"4","last_reported":1734944976,"current_range_meters":37600,"station_id":"ce4bgqh2rcd13ifvqc5g","pricing_plan_id":"cebpf4jnsgd1na2vs0mg"},{"bike_id":"41d0d9f5-bb31-41f6-8358-898df39bf21c","system_id":"levelo_inurba_marseille","lat":43.25867,"lon":5.39925,"is_reserved":false,"is_disabled":false,"rental_uris":{"android":"levelo://app?vid=41d0d9f5-bb31-41f6-8358-898df39bf21c","ios":"levelo://app?vid=41d0d9f5-bb31-41f6-8358-898df39bf21c"},"vehicle_type_id":"4","last_reported":1734944976,"current_range_meters":38800,"station_id":"ce4bhl92rcd13ifvqghg","pricing_plan_id":"cebpf4jnsgd1na2vs0mg"},{"bike_id":"7e211114-fd49-4399-8a81-09d040af8d46","system_id":"levelo_inurba_marseille","lat":43.2482,"lon":5.37447,"is_reserved":false,"is_disabled":false,"rental_uris":{"android":"levelo://app?vid=7e211114-fd49-4399-8a81-09d040af8d46","ios":"levelo://app?vid=7e211114-fd49-4399-8a81-09d040af8d46"},"vehicle_type_id":"4","last_reported":1734944976,"current_range_meters":12400,"station_id":"ce4bhgh2rcd13ifvqfb0","pricing_plan_id":"cebpf4jnsgd1na2vs0mg"},{"bike_id":"8fd4ed25-e7b3-49be-b1e0-521234d05b10","system_id":"levelo_inurba_marseille","lat":43.32478,"lon":5.36559,"is_reserved":false,"is_disabled":false,"rental_uris":{"android":"levelo://app?vid=8fd4ed25-e7b3-49be-b1e0-521234d05b10","ios":"levelo://app?vid=8fd4ed25-e7b3-49be-b1e0-521234d05b10"},"vehicle_type_id":"4","last_reported":1734944976,"current_range_meters":28000,"station_id":"ce4bhs12rcd13ifvqhvg","pricing_plan_id":"cebpf4jnsgd1na2vs0mg"},{"bike_id":"2b17e224-506b-4180-a5a4-44e29d9f947a","system_id":"levelo_inurba_marseille","lat":43.30137,"lon":5.39864,"is_reserved":false,"is_disabled":false,"rental_uris":{"android":"levelo://app?vid=2b17e224-506b-4180-a5a4-44e29d9f947a","ios":"levelo://app?vid=2b17e224-506b-4180-a5a4-44e29d9f947a"},"vehicle_type_id":"4","last_reported":1734944976,"current_range_meters":24400,"station_id":"ce4bh0h2rcd13ifvqd40","pricing_plan_id":"cebpf4jnsgd1na2vs0mg"},{"bike_id":"6ef2e911-30d2-46b5-aa51-7b2a25b0c3a5","system_id":"levelo_inurba_marseille","lat":43.30306,"lon":5.36895,"is_reserved":false,"is_disabled":false,"rental_uris":{"android":"levelo://app?vid=6ef2e911-30d2-46b5-aa51-7b2a25b0c3a5","ios":"levelo://app?vid=6ef2e911-30d2-46b5-aa51-7b2a25b0c3a5"},"vehicle_type_id":"4","last_reported":1734944976,"current_range_meters":35200,"station_id":"ce4bgqh2rcd13ifvqc5g","pricing_plan_id":"cebpf4jnsgd1na2vs0mg"},{"bike_id":"e724f4e5-0922-4e36-91f4-8a4c9d514ff5","system_id":"levelo_inurba_marseille","lat":43.298431,"lon":5.36261,"is_reserved":false,"is_disabled":false,"rental_uris":{"android":"levelo://app?vid=e724f4e5-0922-4e36-91f4-8a4c9d514ff5","ios":"levelo://app?vid=e724f4e5-0922-4e36-91f4-8a4c9d514ff5"},"vehicle_type_id":"4","last_reported":1734944976,"current_range_meters":38000,"station_id":"ce4bgpp2rcd13ifvqc3g","pricing_plan_id":"cebpf4jnsgd1na2vs0mg"},{"bike_id":"e758d540-a49b-4c63-beac-9556d1c03d6f","system_id":"levelo_inurba_marseille","lat":43.31714,"lon":5.42398,"is_reserved":false,"is_disabled":false,"rental_uris":{"android":"levelo://app?vid=e758d540-a49b-4c63-beac-9556d1c03d6f","ios":"levelo://app?vid=e758d540-a49b-4c63-beac-9556d1c03d6f"},"vehicle_type_id":"4","last_reported":1734944976,"current_range_meters":37600,"station_id":"ce4bhp92rcd13ifvqhbg","pricing_plan_id":"cebpf4jnsgd1na2vs0mg"},{"bike_id":"b567452d-1653-4b1e-8f57-3d9ff57e59c9","system_id":"levelo_inurba_marseille","lat":43.29576,"lon":5.37499,"is_reserved":false,"is_disabled":false,"rental_uris":{"android":"levelo://app?vid=b567452d-1653-4b1e-8f57-3d9ff57e59c9","ios":"levelo://app?vid=b567452d-1653-4b1e-8f57-3d9ff57e59c9"},"vehicle_type_id":"4","last_reported":1734944976,"current_range_meters":17600,"station_id":"ce4bgh92rcd13ifvqb50","pricing_plan_id":"cebpf4jnsgd1na2vs0mg"},{"bike_id":"d98f0b8a-1ef4-43b4-85a1-12b00b5f4de1","system_id":"levelo_inurba_marseille","lat":43.28409,"lon":5.34954,"is_reserved":false,"is_disabled":false,"rental_uris":{"android":"levelo://app?vid=d98f0b8a-1ef4-43b4-85a1-12b00b5f4de1","ios":"levelo://app?vid=d98f0b8a-1ef4-43b4-85a1-12b00b5f4de1"},"vehicle_type_id":"4","last_reported":1734944976,"current_range_meters":32000,"station_id":"ce4bhbh2rcd13ifvqepg","pricing_plan_id":"cebpf4jnsgd1na2vs0mg"},{"bike_id":"dd3dbacf-347a-4a33-90ce-76bd61257750","system_id":"levelo_inurba_marseille","lat":43.3209,"lon":5.41546,"is_reserved":false,"is_disabled":true,"rental_uris":{"android":"levelo://app?vid=dd3dbacf-347a-4a33-90ce-76bd61257750","ios":"levelo://app?vid=dd3dbacf-347a-4a33-90ce-76bd61257750"},"vehicle_type_id":"4","last_reported":1734944976,"current_range_meters":36000,"station_id":"ce4bhq92rcd13ifvqhkg","pricing_plan_id":"cebpf4jnsgd1na2vs0mg"},{"bike_id":"71bbaaf0-30fa-412b-9088-f880a672af88","system_id":"levelo_inurba_marseille","lat":43.26025,"lon":5.37555,"is_reserved":false,"is_disabled":false,"rental_uris":{"android":"levelo://app?vid=71bbaaf0-30fa-412b-9088-f880a672af88","ios":"levelo://app?vid=71bbaaf0-30fa-412b-9088-f880a672af88"},"vehicle_type_id":"4","last_reported":1734944976,"current_range_meters":32800,"station_id":"ce4bhgh2rcd13ifvqfa0","pricing_plan_id":"cebpf4jnsgd1na2vs0mg"},{"bike_id":"d5d5a90d-3e5a-4476-93ca-f26ce9e46c4f","system_id":"levelo_inurba_marseille","lat":43.30212,"lon":5.39466,"is_reserved":false,"is_disabled":true,"rental_uris":{"android":"levelo://app?vid=d5d5a90d-3e5a-4476-93ca-f26ce9e46c4f","ios":"levelo://app?vid=d5d5a90d-3e5a-4476-93ca-f26ce9e46c4f"},"vehicle_type_id":"4","last_reported":1734944976,"current_range_meters":20400,"station_id":"ce4bgop2rcd13ifvqc1g","pricing_plan_id":"cebpf4jnsgd1na2vs0mg"},{"bike_id":"f5e6703a-bc41-4203-86c3-4f827fbf6c7f","system_id":"levelo_inurba_marseille","lat":43.30438,"lon":5.38887,"is_reserved":false,"is_disabled":false,"rental_uris":{"android":"levelo://app?vid=f5e6703a-bc41-4203-86c3-4f827fbf6c7f","ios":"levelo://app?vid=f5e6703a-bc41-4203-86c3-4f827fbf6c7f"},"vehicle_type_id":"4","last_reported":1734944976,"current_range_meters":28400,"station_id":"ce4bgk12rcd13ifvqbi0","pricing_plan_id":"cebpf4jnsgd1na2vs0mg"},{"bike_id":"d1aed847-98af-41ac-a611-c35d33b973ea","system_id":"levelo_inurba_marseille","lat":43.2792,"lon":5.39572,"is_reserved":false,"is_disabled":true,"rental_uris":{"android":"levelo://app?vid=d1aed847-98af-41ac-a611-c35d33b973ea","ios":"levelo://app?vid=d1aed847-98af-41ac-a611-c35d33b973ea"},"vehicle_type_id":"4","last_reported":1734944976,"current_range_meters":38800,"station_id":"ce4bhf92rcd13ifvqf40","pricing_plan_id":"cebpf4jnsgd1na2vs0mg"},{"bike_id":"a45d7bd1-4293-495f-bfde-11f55f0dec91","system_id":"levelo_inurba_marseille","lat":43.27967,"lon":5.38724,"is_reserved":false,"is_disabled":false,"rental_uris":{"android":"levelo://app?vid=a45d7bd1-4293-495f-bfde-11f55f0dec91","ios":"levelo://app?vid=a45d7bd1-4293-495f-bfde-11f55f0dec91"},"vehicle_type_id":"4","last_reported":1734944976,"current_range_meters":32400,"station_id":"ce4bhg12rcd13ifvqf80","pricing_plan_id":"cebpf4jnsgd1na2vs0mg"},{"bike_id":"252b4c9e-12c7-4a8a-8059-ec130627e2f7","system_id":"levelo_inurba_marseille","lat":43.25879,"lon":5.39902,"is_reserved":false,"is_disabled":false,"rental_uris":{"android":"levelo://app?vid=252b4c9e-12c7-4a8a-8059-ec130627e2f7","ios":"levelo://app?vid=252b4c9e-12c7-4a8a-8059-ec130627e2f7"},"vehicle_type_id":"4","last_reported":1734944976,"current_range_meters":22800,"station_id":"ce4bhl92rcd13ifvqghg","pricing_plan_id":"cebpf4jnsgd1na2vs0mg"},{"bike_id":"ede16cbb-850f-47ad-82f6-5d8be41499b7","system_id":"levelo_inurba_marseille","lat":43.30797,"lon":5.43516,"is_reserved":false,"is_disabled":true,"rental_uris":{"android":"levelo://app?vid=ede16cbb-850f-47ad-82f6-5d8be41499b7","ios":"levelo://app?vid=ede16cbb-850f-47ad-82f6-5d8be41499b7"},"vehicle_type_id":"4","last_reported":1734944976,"current_range_meters":37600,"station_id":"ce4bhph2rcd13ifvqheg","pricing_plan_id":"cebpf4jnsgd1na2vs0mg"},{"bike_id":"3ae25c76-d5e1-4010-8d1a-4eb0e439c69d","system_id":"levelo_inurba_marseille","lat":43.29285,"lon":5.37438,"is_reserved":false,"is_disabled":false,"rental_uris":{"android":"levelo://app?vid=3ae25c76-d5e1-4010-8d1a-4eb0e439c69d","ios":"levelo://app?vid=3ae25c76-d5e1-4010-8d1a-4eb0e439c69d"},"vehicle_type_id":"4","last_reported":1734944976,"current_range_meters":38800,"station_id":"ce4bgi12rcd13ifvqb70","pricing_plan_id":"cebpf4jnsgd1na2vs0mg"},{"bike_id":"eda9a8f7-6066-4f25-9e19-1a99ec6e49b4","system_id":"levelo_inurba_marseille","lat":43.2979,"lon":5.39345,"is_reserved":false,"is_disabled":false,"rental_uris":{"android":"levelo://app?vid=eda9a8f7-6066-4f25-9e19-1a99ec6e49b4","ios":"levelo://app?vid=eda9a8f7-6066-4f25-9e19-1a99ec6e49b4"},"vehicle_type_id":"4","last_reported":1734944976,"current_range_meters":38000,"station_id":"chh1huq6cuj3fo74tm60","pricing_plan_id":"cebpf4jnsgd1na2vs0mg"},{"bike_id":"370a5638-7ba2-4fb7-a94d-eb38ce88ddf9","system_id":"levelo_inurba_marseille","lat":43.31354,"lon":5.36752,"is_reserved":false,"is_disabled":false,"rental_uris":{"android":"levelo://app?vid=370a5638-7ba2-4fb7-a94d-eb38ce88ddf9","ios":"levelo://app?vid=370a5638-7ba2-4fb7-a94d-eb38ce88ddf9"},"vehicle_type_id":"4","last_reported":1734944976,"current_range_meters":38800,"station_id":"ce4bgr92rcd13ifvqc6g","pricing_plan_id":"cebpf4jnsgd1na2vs0mg"},{"bike_id":"1bff88cc-7e80-4f66-93cd-eccfe100465b","system_id":"levelo_inurba_marseille","lat":43.30528,"lon":5.36523,"is_reserved":false,"is_disabled":false,"rental_uris":{"android":"levelo://app?vid=1bff88cc-7e80-4f66-93cd-eccfe100465b","ios":"levelo://app?vid=1bff88cc-7e80-4f66-93cd-eccfe100465b"},"vehicle_type_id":"4","last_reported":1734944976,"current_range_meters":36800,"station_id":"ce4bgs12rcd13ifvqcag","pricing_plan_id":"cebpf4jnsgd1na2vs0mg"},{"bike_id":"afd88562-6d4f-4033-b9d3-3fd8fb966437","system_id":"levelo_inurba_marseille","lat":43.31111,"lon":5.377727,"is_reserved":false,"is_disabled":true,"rental_uris":{"android":"levelo://app?vid=afd88562-6d4f-4033-b9d3-3fd8fb966437","ios":"levelo://app?vid=afd88562-6d4f-4033-b9d3-3fd8fb966437"},"vehicle_type_id":"4","last_reported":1734944976,"current_range_meters":12000,"station_id":"ce4bgt92rcd13ifvqcg0","pricing_plan_id":"cebpf4jnsgd1na2vs0mg"},{"bike_id":"fa27ee24-baf1-4edf-912c-c35c66d5d9f9","system_id":"levelo_inurba_marseille","lat":43.3053,"lon":5.3654,"is_reserved":false,"is_disabled":false,"rental_uris":{"android":"levelo://app?vid=fa27ee24-baf1-4edf-912c-c35c66d5d9f9","ios":"levelo://app?vid=fa27ee24-baf1-4edf-912c-c35c66d5d9f9"},"vehicle_type_id":"4","last_reported":1734944976,"current_range_meters":38800,"station_id":"ce4bgs12rcd13ifvqcag","pricing_plan_id":"cebpf4jnsgd1na2vs0mg"},{"bike_id":"6c43cd76-1806-4286-a6e9-ddc4428ed433","system_id":"levelo_inurba_marseille","lat":43.29523,"lon":5.37498,"is_reserved":false,"is_disabled":false,"rental_uris":{"android":"levelo://app?vid=6c43cd76-1806-4286-a6e9-ddc4428ed433","ios":"levelo://app?vid=6c43cd76-1806-4286-a6e9-ddc4428ed433"},"vehicle_type_id":"4","last_reported":1734944976,"current_range_meters":38000,"station_id":"ce4bgkp2rcd13ifvqbmg","pricing_plan_id":"cebpf4jnsgd1na2vs0mg"},{"bike_id":"90a73335-dcbe-4037-be07-976cb1c8a574","system_id":"levelo_inurba_marseille","lat":43.30608,"lon":5.37246,"is_reserved":false,"is_disabled":false,"rental_uris":{"android":"levelo://app?vid=90a73335-dcbe-4037-be07-976cb1c8a574","ios":"levelo://app?vid=90a73335-dcbe-4037-be07-976cb1c8a574"},"vehicle_type_id":"4","last_reported":1734944976,"current_range_meters":37600,"station_id":"ce4bgqh2rcd13ifvqc4g","pricing_plan_id":"cebpf4jnsgd1na2vs0mg"},{"bike_id":"a1e07c40-bd4f-4cb3-b419-277f9bb6cc2f","system_id":"levelo_inurba_marseille","lat":43.27687,"lon":5.389,"is_reserved":false,"is_disabled":false,"rental_uris":{"android":"levelo://app?vid=a1e07c40-bd4f-4cb3-b419-277f9bb6cc2f","ios":"levelo://app?vid=a1e07c40-bd4f-4cb3-b419-277f9bb6cc2f"},"vehicle_type_id":"4","last_reported":1734944976,"current_range_meters":38800,"station_id":"ce4bhi12rcd13ifvqfo0","pricing_plan_id":"cebpf4jnsgd1na2vs0mg"},{"bike_id":"a3f20b06-fbbc-488d-ab74-510676955d57","system_id":"levelo_inurba_marseille","lat":43.31888,"lon":5.40731,"is_reserved":false,"is_disabled":false,"rental_uris":{"android":"levelo://app?vid=a3f20b06-fbbc-488d-ab74-510676955d57","ios":"levelo://app?vid=a3f20b06-fbbc-488d-ab74-510676955d57"},"vehicle_type_id":"4","last_reported":1734944976,"current_range_meters":31200,"station_id":"ce4bhq12rcd13ifvqhig","pricing_plan_id":"cebpf4jnsgd1na2vs0mg"},{"bike_id":"2633e9ba-ac8f-41eb-8615-a08e37b3083a","system_id":"levelo_inurba_marseille","lat":43.27168,"lon":5.40992,"is_reserved":false,"is_disabled":false,"rental_uris":{"android":"levelo://app?vid=2633e9ba-ac8f-41eb-8615-a08e37b3083a","ios":"levelo://app?vid=2633e9ba-ac8f-41eb-8615-a08e37b3083a"},"vehicle_type_id":"4","last_reported":1734944976,"current_range_meters":33600,"station_id":"ce4bhl12rcd13ifvqgf0","pricing_plan_id":"cebpf4jnsgd1na2vs0mg"},{"bike_id":"42504198-7683-425c-bc1a-4188fde13f5b","system_id":"levelo_inurba_marseille","lat":43.29726,"lon":5.37694,"is_reserved":false,"is_disabled":false,"rental_uris":{"android":"levelo://app?vid=42504198-7683-425c-bc1a-4188fde13f5b","ios":"levelo://app?vid=42504198-7683-425c-bc1a-4188fde13f5b"},"vehicle_type_id":"4","last_reported":1734944976,"current_range_meters":36800,"station_id":"ce4bgkh2rcd13ifvqbl0","pricing_plan_id":"cebpf4jnsgd1na2vs0mg"},{"bike_id":"4602f08c-ccf5-4982-92bf-c4dd40d6772d","system_id":"levelo_inurba_marseille","lat":43.29185,"lon":5.35809,"is_reserved":false,"is_disabled":false,"rental_uris":{"android":"levelo://app?vid=4602f08c-ccf5-4982-92bf-c4dd40d6772d","ios":"levelo://app?vid=4602f08c-ccf5-4982-92bf-c4dd40d6772d"},"vehicle_type_id":"4","last_reported":1734944976,"current_range_meters":38800,"station_id":"ce4bhb12rcd13ifvqel0","pricing_plan_id":"cebpf4jnsgd1na2vs0mg"},{"bike_id":"e73e6057-e6e9-407b-a17e-f4e119a96aba","system_id":"levelo_inurba_marseille","lat":43.32107,"lon":5.36771,"is_reserved":false,"is_disabled":false,"rental_uris":{"android":"levelo://app?vid=e73e6057-e6e9-407b-a17e-f4e119a96aba","ios":"levelo://app?vid=e73e6057-e6e9-407b-a17e-f4e119a96aba"},"vehicle_type_id":"4","last_reported":1734944976,"current_range_meters":8400,"station_id":"ce4bhrh2rcd13ifvqhug","pricing_plan_id":"cebpf4jnsgd1na2vs0mg"},{"bike_id":"8c23ca40-0769-4ca8-b1f0-68e8fb86c54b","system_id":"levelo_inurba_marseille","lat":43.24999,"lon":5.38923,"is_reserved":false,"is_disabled":false,"rental_uris":{"android":"levelo://app?vid=8c23ca40-0769-4ca8-b1f0-68e8fb86c54b","ios":"levelo://app?vid=8c23ca40-0769-4ca8-b1f0-68e8fb86c54b"},"vehicle_type_id":"4","last_reported":1734944976,"current_range_meters":10000,"station_id":"ce4bhgp2rcd13ifvqfd0","pricing_plan_id":"cebpf4jnsgd1na2vs0mg"},{"bike_id":"ff19ce84-10b6-4ffc-b9fc-1625914b166c","system_id":"levelo_inurba_marseille","lat":43.29707,"lon":5.36618,"is_reserved":false,"is_disabled":false,"rental_uris":{"android":"levelo://app?vid=ff19ce84-10b6-4ffc-b9fc-1625914b166c","ios":"levelo://app?vid=ff19ce84-10b6-4ffc-b9fc-1625914b166c"},"vehicle_type_id":"4","last_reported":1734944976,"current_range_meters":29600,"station_id":"ce4bgn12rcd13ifvqbt0","pricing_plan_id":"cebpf4jnsgd1na2vs0mg"},{"bike_id":"6a08560b-0a43-454b-9264-e23eff30c55e","system_id":"levelo_inurba_marseille","lat":43.3127,"lon":5.4016,"is_reserved":false,"is_disabled":false,"rental_uris":{"android":"levelo://app?vid=6a08560b-0a43-454b-9264-e23eff30c55e","ios":"levelo://app?vid=6a08560b-0a43-454b-9264-e23eff30c55e"},"vehicle_type_id":"4","last_reported":1734944976,"current_range_meters":38800,"station_id":"ce4bh092rcd13ifvqd30","pricing_plan_id":"cebpf4jnsgd1na2vs0mg"},{"bike_id":"2ecd7a5c-6b03-4906-a193-c1bc16b7668c","system_id":"levelo_inurba_marseille","lat":43.302425,"lon":5.400765,"is_reserved":false,"is_disabled":true,"rental_uris":{"android":"levelo://app?vid=2ecd7a5c-6b03-4906-a193-c1bc16b7668c","ios":"levelo://app?vid=2ecd7a5c-6b03-4906-a193-c1bc16b7668c"},"vehicle_type_id":"4","last_reported":1734944976,"current_range_meters":33600,"station_id":"ce4bgvh2rcd13ifvqcs0","pricing_plan_id":"cebpf4jnsgd1na2vs0mg"},{"bike_id":"4bcb37c0-9249-499d-890c-0bbf93d29f8b","system_id":"levelo_inurba_marseille","lat":43.23188,"lon":5.35554,"is_reserved":false,"is_disabled":true,"rental_uris":{"android":"levelo://app?vid=4bcb37c0-9249-499d-890c-0bbf93d29f8b","ios":"levelo://app?vid=4bcb37c0-9249-499d-890c-0bbf93d29f8b"},"vehicle_type_id":"4","last_reported":1734944976,"current_range_meters":23200,"station_id":"ce4bhu92rcd13ifvqi70","pricing_plan_id":"cebpf4jnsgd1na2vs0mg"},{"bike_id":"57263b19-bd39-4f7b-b29d-fb59d05995ff","system_id":"levelo_inurba_marseille","lat":43.24646,"lon":5.37685,"is_reserved":false,"is_disabled":false,"rental_uris":{"android":"levelo://app?vid=57263b19-bd39-4f7b-b29d-fb59d05995ff","ios":"levelo://app?vid=57263b19-bd39-4f7b-b29d-fb59d05995ff"},"vehicle_type_id":"4","last_reported":1734944976,"current_range_meters":9600,"station_id":"","pricing_plan_id":"cebpf4jnsgd1na2vs0mg"},{"bike_id":"5b22937c-462e-4f52-b2bb-868d31258da1","system_id":"levelo_inurba_marseille","lat":43.31366,"lon":5.38497,"is_reserved":false,"is_disabled":true,"rental_uris":{"android":"levelo://app?vid=5b22937c-462e-4f52-b2bb-868d31258da1","ios":"levelo://app?vid=5b22937c-462e-4f52-b2bb-868d31258da1"},"vehicle_type_id":"4","last_reported":1734944976,"current_range_meters":0,"station_id":"ce4bgt92rcd13ifvqcf0","pricing_plan_id":"cebpf4jnsgd1na2vs0mg"},{"bike_id":"ebd4c9c9-c1c9-4753-be58-a8d7cfdadcd2","system_id":"levelo_inurba_marseille","lat":43.29979,"lon":5.38488,"is_reserved":false,"is_disabled":false,"rental_uris":{"android":"levelo://app?vid=ebd4c9c9-c1c9-4753-be58-a8d7cfdadcd2","ios":"levelo://app?vid=ebd4c9c9-c1c9-4753-be58-a8d7cfdadcd2"},"vehicle_type_id":"4","last_reported":1734944976,"current_range_meters":38800,"station_id":"ce4bgj92rcd13ifvqbd0","pricing_plan_id":"cebpf4jnsgd1na2vs0mg"},{"bike_id":"8b9d5d43-e1e5-4987-a650-78e7d5f537cc","system_id":"levelo_inurba_marseille","lat":43.29706,"lon":5.3659,"is_reserved":false,"is_disabled":false,"rental_uris":{"android":"levelo://app?vid=8b9d5d43-e1e5-4987-a650-78e7d5f537cc","ios":"levelo://app?vid=8b9d5d43-e1e5-4987-a650-78e7d5f537cc"},"vehicle_type_id":"4","last_reported":1734944976,"current_range_meters":38800,"station_id":"ce4bgn12rcd13ifvqbt0","pricing_plan_id":"cebpf4jnsgd1na2vs0mg"},{"bike_id":"a4f2a1ba-4c33-4d0d-8c83-eb221d73f773","system_id":"levelo_inurba_marseille","lat":43.29616,"lon":5.37729,"is_reserved":false,"is_disabled":false,"rental_uris":{"android":"levelo://app?vid=a4f2a1ba-4c33-4d0d-8c83-eb221d73f773","ios":"levelo://app?vid=a4f2a1ba-4c33-4d0d-8c83-eb221d73f773"},"vehicle_type_id":"4","last_reported":1734944976,"current_range_meters":26800,"station_id":"ce4bgi92rcd13ifvqb90","pricing_plan_id":"cebpf4jnsgd1na2vs0mg"},{"bike_id":"343bc065-3555-49ac-90b9-9f9335d87211","system_id":"levelo_inurba_marseille","lat":43.25817,"lon":5.39435,"is_reserved":false,"is_disabled":false,"rental_uris":{"android":"levelo://app?vid=343bc065-3555-49ac-90b9-9f9335d87211","ios":"levelo://app?vid=343bc065-3555-49ac-90b9-9f9335d87211"},"vehicle_type_id":"4","last_reported":1734944976,"current_range_meters":34800,"station_id":"ce4bhip2rcd13ifvqft0","pricing_plan_id":"cebpf4jnsgd1na2vs0mg"},{"bike_id":"01a9a6a2-4647-4232-b349-711b3638ffcf","system_id":"levelo_inurba_marseille","lat":43.30146,"lon":5.38093,"is_reserved":false,"is_disabled":true,"rental_uris":{"android":"levelo://app?vid=01a9a6a2-4647-4232-b349-711b3638ffcf","ios":"levelo://app?vid=01a9a6a2-4647-4232-b349-711b3638ffcf"},"vehicle_type_id":"4","last_reported":1734944976,"current_range_meters":30000,"station_id":"ce4bgjp2rcd13ifvqbh0","pricing_plan_id":"cebpf4jnsgd1na2vs0mg"},{"bike_id":"ddbfce67-cbf8-4481-9917-3eaa981e7b2e","system_id":"levelo_inurba_marseille","lat":43.22933,"lon":5.35374,"is_reserved":false,"is_disabled":false,"rental_uris":{"android":"levelo://app?vid=ddbfce67-cbf8-4481-9917-3eaa981e7b2e","ios":"levelo://app?vid=ddbfce67-cbf8-4481-9917-3eaa981e7b2e"},"vehicle_type_id":"4","last_reported":1734944976,"current_range_meters":28800,"station_id":"cpo3532slgdg3j2ikp40","pricing_plan_id":"cebpf4jnsgd1na2vs0mg"},{"bike_id":"f05c7e32-ee1f-4822-9688-1d8bdc5b4813","system_id":"levelo_inurba_marseille","lat":43.2668,"lon":5.38267,"is_reserved":false,"is_disabled":false,"rental_uris":{"android":"levelo://app?vid=f05c7e32-ee1f-4822-9688-1d8bdc5b4813","ios":"levelo://app?vid=f05c7e32-ee1f-4822-9688-1d8bdc5b4813"},"vehicle_type_id":"4","last_reported":1734944976,"current_range_meters":9600,"station_id":"ce4bhg92rcd13ifvqf90","pricing_plan_id":"cebpf4jnsgd1na2vs0mg"},{"bike_id":"0a349881-46d8-4ec0-9688-78a828092ccc","system_id":"levelo_inurba_marseille","lat":43.27555,"lon":5.38416,"is_reserved":false,"is_disabled":false,"rental_uris":{"android":"levelo://app?vid=0a349881-46d8-4ec0-9688-78a828092ccc","ios":"levelo://app?vid=0a349881-46d8-4ec0-9688-78a828092ccc"},"vehicle_type_id":"4","last_reported":1734944976,"current_range_meters":38800,"station_id":"ce4bhh92rcd13ifvqfi0","pricing_plan_id":"cebpf4jnsgd1na2vs0mg"},{"bike_id":"dad6db58-f5bc-4da2-b0b4-3d5d1002166b","system_id":"levelo_inurba_marseille","lat":43.32111,"lon":5.36775,"is_reserved":false,"is_disabled":false,"rental_uris":{"android":"levelo://app?vid=dad6db58-f5bc-4da2-b0b4-3d5d1002166b","ios":"levelo://app?vid=dad6db58-f5bc-4da2-b0b4-3d5d1002166b"},"vehicle_type_id":"4","last_reported":1734944976,"current_range_meters":36800,"station_id":"ce4bhrh2rcd13ifvqhug","pricing_plan_id":"cebpf4jnsgd1na2vs0mg"},{"bike_id":"60770c9f-5288-402e-a2f3-9eefe1cc354e","system_id":"levelo_inurba_marseille","lat":43.29556,"lon":5.37528,"is_reserved":false,"is_disabled":false,"rental_uris":{"android":"levelo://app?vid=60770c9f-5288-402e-a2f3-9eefe1cc354e","ios":"levelo://app?vid=60770c9f-5288-402e-a2f3-9eefe1cc354e"},"vehicle_type_id":"4","last_reported":1734944976,"current_range_meters":19600,"station_id":"ce4bgh92rcd13ifvqb50","pricing_plan_id":"cebpf4jnsgd1na2vs0mg"},{"bike_id":"4413ecaa-a62d-4d62-acc7-513b6d9b231d","system_id":"levelo_inurba_marseille","lat":43.3128,"lon":5.40151,"is_reserved":false,"is_disabled":false,"rental_uris":{"android":"levelo://app?vid=4413ecaa-a62d-4d62-acc7-513b6d9b231d","ios":"levelo://app?vid=4413ecaa-a62d-4d62-acc7-513b6d9b231d"},"vehicle_type_id":"4","last_reported":1734944976,"current_range_meters":29600,"station_id":"ce4bh092rcd13ifvqd30","pricing_plan_id":"cebpf4jnsgd1na2vs0mg"},{"bike_id":"6507bce1-e9b4-4aad-bbab-13ef4b5297a4","system_id":"levelo_inurba_marseille","lat":43.31724,"lon":5.42401,"is_reserved":false,"is_disabled":false,"rental_uris":{"android":"levelo://app?vid=6507bce1-e9b4-4aad-bbab-13ef4b5297a4","ios":"levelo://app?vid=6507bce1-e9b4-4aad-bbab-13ef4b5297a4"},"vehicle_type_id":"4","last_reported":1734944976,"current_range_meters":39200,"station_id":"ce4bhp92rcd13ifvqhbg","pricing_plan_id":"cebpf4jnsgd1na2vs0mg"},{"bike_id":"eae506a3-9f78-4227-a9ba-e37197863c70","system_id":"levelo_inurba_marseille","lat":43.30914,"lon":5.36857,"is_reserved":false,"is_disabled":false,"rental_uris":{"android":"levelo://app?vid=eae506a3-9f78-4227-a9ba-e37197863c70","ios":"levelo://app?vid=eae506a3-9f78-4227-a9ba-e37197863c70"},"vehicle_type_id":"4","last_reported":1734944976,"current_range_meters":38800,"station_id":"ce4bgn92rcd13ifvqbvg","pricing_plan_id":"cebpf4jnsgd1na2vs0mg"},{"bike_id":"1eef5757-2a74-4727-868d-9821df78eaa2","system_id":"levelo_inurba_marseille","lat":43.25866,"lon":5.39882,"is_reserved":false,"is_disabled":false,"rental_uris":{"android":"levelo://app?vid=1eef5757-2a74-4727-868d-9821df78eaa2","ios":"levelo://app?vid=1eef5757-2a74-4727-868d-9821df78eaa2"},"vehicle_type_id":"4","last_reported":1734944976,"current_range_meters":38800,"station_id":"ce4bhl92rcd13ifvqghg","pricing_plan_id":"cebpf4jnsgd1na2vs0mg"},{"bike_id":"ab786567-8bd4-45bd-b8e6-badf38aee9ee","system_id":"levelo_inurba_marseille","lat":43.31362,"lon":5.366943,"is_reserved":false,"is_disabled":true,"rental_uris":{"android":"levelo://app?vid=ab786567-8bd4-45bd-b8e6-badf38aee9ee","ios":"levelo://app?vid=ab786567-8bd4-45bd-b8e6-badf38aee9ee"},"vehicle_type_id":"4","last_reported":1734944976,"current_range_meters":38800,"station_id":"ce4bgr92rcd13ifvqc6g","pricing_plan_id":"cebpf4jnsgd1na2vs0mg"},{"bike_id":"fc89cbac-5c72-48df-b1dd-d331761b39da","system_id":"levelo_inurba_marseille","lat":43.32484,"lon":5.36548,"is_reserved":false,"is_disabled":false,"rental_uris":{"android":"levelo://app?vid=fc89cbac-5c72-48df-b1dd-d331761b39da","ios":"levelo://app?vid=fc89cbac-5c72-48df-b1dd-d331761b39da"},"vehicle_type_id":"4","last_reported":1734944976,"current_range_meters":13600,"station_id":"ce4bhs12rcd13ifvqhvg","pricing_plan_id":"cebpf4jnsgd1na2vs0mg"},{"bike_id":"7d51f556-7ada-4233-9b93-03f8f492aa76","system_id":"levelo_inurba_marseille","lat":43.24541,"lon":5.39512,"is_reserved":false,"is_disabled":true,"rental_uris":{"android":"levelo://app?vid=7d51f556-7ada-4233-9b93-03f8f492aa76","ios":"levelo://app?vid=7d51f556-7ada-4233-9b93-03f8f492aa76"},"vehicle_type_id":"4","last_reported":1734944976,"current_range_meters":12800,"station_id":"ce4bhlp2rcd13ifvqgjg","pricing_plan_id":"cebpf4jnsgd1na2vs0mg"},{"bike_id":"3bdd61d6-e4c3-4336-a2b3-6f388d794652","system_id":"levelo_inurba_marseille","lat":43.27067,"lon":5.42277,"is_reserved":false,"is_disabled":false,"rental_uris":{"android":"levelo://app?vid=3bdd61d6-e4c3-4336-a2b3-6f388d794652","ios":"levelo://app?vid=3bdd61d6-e4c3-4336-a2b3-6f388d794652"},"vehicle_type_id":"4","last_reported":1734944976,"current_range_meters":36800,"station_id":"ce4bhk92rcd13ifvqgb0","pricing_plan_id":"cebpf4jnsgd1na2vs0mg"},{"bike_id":"50ed8d09-e307-4804-8048-b331687ea0e6","system_id":"levelo_inurba_marseille","lat":43.24673,"lon":5.38161,"is_reserved":false,"is_disabled":false,"rental_uris":{"android":"levelo://app?vid=50ed8d09-e307-4804-8048-b331687ea0e6","ios":"levelo://app?vid=50ed8d09-e307-4804-8048-b331687ea0e6"},"vehicle_type_id":"4","last_reported":1734944976,"current_range_meters":24800,"station_id":"ce4bhih2rcd13ifvqfr0","pricing_plan_id":"cebpf4jnsgd1na2vs0mg"},{"bike_id":"71365203-264c-4804-af64-6a13e7e9827b","system_id":"levelo_inurba_marseille","lat":43.30313,"lon":5.36896,"is_reserved":false,"is_disabled":false,"rental_uris":{"android":"levelo://app?vid=71365203-264c-4804-af64-6a13e7e9827b","ios":"levelo://app?vid=71365203-264c-4804-af64-6a13e7e9827b"},"vehicle_type_id":"4","last_reported":1734944976,"current_range_meters":28000,"station_id":"ce4bgqh2rcd13ifvqc5g","pricing_plan_id":"cebpf4jnsgd1na2vs0mg"},{"bike_id":"a59b4cb8-90c9-45c9-b1be-98d2502dd8e7","system_id":"levelo_inurba_marseille","lat":43.24663,"lon":5.38153,"is_reserved":false,"is_disabled":false,"rental_uris":{"android":"levelo://app?vid=a59b4cb8-90c9-45c9-b1be-98d2502dd8e7","ios":"levelo://app?vid=a59b4cb8-90c9-45c9-b1be-98d2502dd8e7"},"vehicle_type_id":"4","last_reported":1734944976,"current_range_meters":27200,"station_id":"ce4bhih2rcd13ifvqfr0","pricing_plan_id":"cebpf4jnsgd1na2vs0mg"},{"bike_id":"4c4857d7-70f5-4e5f-9880-b0ffae53456c","system_id":"levelo_inurba_marseille","lat":43.31163,"lon":5.36707,"is_reserved":false,"is_disabled":false,"rental_uris":{"android":"levelo://app?vid=4c4857d7-70f5-4e5f-9880-b0ffae53456c","ios":"levelo://app?vid=4c4857d7-70f5-4e5f-9880-b0ffae53456c"},"vehicle_type_id":"4","last_reported":1734944976,"current_range_meters":30400,"station_id":"","pricing_plan_id":"cebpf4jnsgd1na2vs0mg"},{"bike_id":"5454f0d7-ef31-4315-9d53-d90419166723","system_id":"levelo_inurba_marseille","lat":43.24998,"lon":5.3893,"is_reserved":false,"is_disabled":false,"rental_uris":{"android":"levelo://app?vid=5454f0d7-ef31-4315-9d53-d90419166723","ios":"levelo://app?vid=5454f0d7-ef31-4315-9d53-d90419166723"},"vehicle_type_id":"4","last_reported":1734944976,"current_range_meters":16800,"station_id":"ce4bhgp2rcd13ifvqfd0","pricing_plan_id":"cebpf4jnsgd1na2vs0mg"},{"bike_id":"da429427-7a9a-4c67-9798-8c4930d4e36c","system_id":"levelo_inurba_marseille","lat":43.24072,"lon":5.37753,"is_reserved":false,"is_disabled":false,"rental_uris":{"android":"levelo://app?vid=da429427-7a9a-4c67-9798-8c4930d4e36c","ios":"levelo://app?vid=da429427-7a9a-4c67-9798-8c4930d4e36c"},"vehicle_type_id":"4","last_reported":1734944976,"current_range_meters":32000,"station_id":"ce4bhnp2rcd13ifvqgvg","pricing_plan_id":"cebpf4jnsgd1na2vs0mg"},{"bike_id":"aca644f7-1dca-4969-8fda-f7acf7913db7","system_id":"levelo_inurba_marseille","lat":43.28491,"lon":5.38579,"is_reserved":false,"is_disabled":false,"rental_uris":{"android":"levelo://app?vid=aca644f7-1dca-4969-8fda-f7acf7913db7","ios":"levelo://app?vid=aca644f7-1dca-4969-8fda-f7acf7913db7"},"vehicle_type_id":"4","last_reported":1734944976,"current_range_meters":38000,"station_id":"ce4bh8p2rcd13ifvqeb0","pricing_plan_id":"cebpf4jnsgd1na2vs0mg"},{"bike_id":"e49c0908-b584-44dc-a33b-91192daad42a","system_id":"levelo_inurba_marseille","lat":43.29581,"lon":5.36776,"is_reserved":false,"is_disabled":true,"rental_uris":{"android":"levelo://app?vid=e49c0908-b584-44dc-a33b-91192daad42a","ios":"levelo://app?vid=e49c0908-b584-44dc-a33b-91192daad42a"},"vehicle_type_id":"4","last_reported":1734944976,"current_range_meters":28800,"station_id":"ce4bgph2rcd13ifvqc2g","pricing_plan_id":"cebpf4jnsgd1na2vs0mg"},{"bike_id":"84e09380-e07c-4182-a487-97ea66008fd0","system_id":"levelo_inurba_marseille","lat":43.29792,"lon":5.38092,"is_reserved":false,"is_disabled":true,"rental_uris":{"android":"levelo://app?vid=84e09380-e07c-4182-a487-97ea66008fd0","ios":"levelo://app?vid=84e09380-e07c-4182-a487-97ea66008fd0"},"vehicle_type_id":"4","last_reported":1734944976,"current_range_meters":22000,"station_id":"ce4bgip2rcd13ifvqbb0","pricing_plan_id":"cebpf4jnsgd1na2vs0mg"},{"bike_id":"9c7eeb5b-f97e-4fc2-ab19-aaf7531bd9e2","system_id":"levelo_inurba_marseille","lat":43.30159,"lon":5.3808,"is_reserved":false,"is_disabled":false,"rental_uris":{"android":"levelo://app?vid=9c7eeb5b-f97e-4fc2-ab19-aaf7531bd9e2","ios":"levelo://app?vid=9c7eeb5b-f97e-4fc2-ab19-aaf7531bd9e2"},"vehicle_type_id":"4","last_reported":1734944976,"current_range_meters":30800,"station_id":"ce4bgjp2rcd13ifvqbh0","pricing_plan_id":"cebpf4jnsgd1na2vs0mg"},{"bike_id":"85d62086-a3d1-49e3-9f87-bf67844518de","system_id":"levelo_inurba_marseille","lat":43.29005,"lon":5.35611,"is_reserved":false,"is_disabled":false,"rental_uris":{"android":"levelo://app?vid=85d62086-a3d1-49e3-9f87-bf67844518de","ios":"levelo://app?vid=85d62086-a3d1-49e3-9f87-bf67844518de"},"vehicle_type_id":"4","last_reported":1734944976,"current_range_meters":38800,"station_id":"ce4bhb92rcd13ifvqen0","pricing_plan_id":"cebpf4jnsgd1na2vs0mg"},{"bike_id":"ee331041-93c8-4661-8147-0a95f1e11bec","system_id":"levelo_inurba_marseille","lat":43.31355,"lon":5.36741,"is_reserved":false,"is_disabled":false,"rental_uris":{"android":"levelo://app?vid=ee331041-93c8-4661-8147-0a95f1e11bec","ios":"levelo://app?vid=ee331041-93c8-4661-8147-0a95f1e11bec"},"vehicle_type_id":"4","last_reported":1734944976,"current_range_meters":25200,"station_id":"ce4bgr92rcd13ifvqc6g","pricing_plan_id":"cebpf4jnsgd1na2vs0mg"},{"bike_id":"f8416cf3-28eb-4197-9702-1f7d128bf330","system_id":"levelo_inurba_marseille","lat":43.2957,"lon":5.37517,"is_reserved":false,"is_disabled":false,"rental_uris":{"android":"levelo://app?vid=f8416cf3-28eb-4197-9702-1f7d128bf330","ios":"levelo://app?vid=f8416cf3-28eb-4197-9702-1f7d128bf330"},"vehicle_type_id":"4","last_reported":1734944976,"current_range_meters":28800,"station_id":"ce4bgh92rcd13ifvqb50","pricing_plan_id":"cebpf4jnsgd1na2vs0mg"},{"bike_id":"ded90c74-f6b9-417a-a609-2eb91947766e","system_id":"levelo_inurba_marseille","lat":43.23185,"lon":5.39974,"is_reserved":false,"is_disabled":false,"rental_uris":{"android":"levelo://app?vid=ded90c74-f6b9-417a-a609-2eb91947766e","ios":"levelo://app?vid=ded90c74-f6b9-417a-a609-2eb91947766e"},"vehicle_type_id":"4","last_reported":1734944976,"current_range_meters":28800,"station_id":"ce4bhn12rcd13ifvqgqg","pricing_plan_id":"cebpf4jnsgd1na2vs0mg"},{"bike_id":"b90b88ca-29ac-4ef1-b1c2-b462caae62b3","system_id":"levelo_inurba_marseille","lat":43.28031,"lon":5.36944,"is_reserved":false,"is_disabled":false,"rental_uris":{"android":"levelo://app?vid=b90b88ca-29ac-4ef1-b1c2-b462caae62b3","ios":"levelo://app?vid=b90b88ca-29ac-4ef1-b1c2-b462caae62b3"},"vehicle_type_id":"4","last_reported":1734944976,"current_range_meters":38800,"station_id":"ce4bha12rcd13ifvqef0","pricing_plan_id":"cebpf4jnsgd1na2vs0mg"},{"bike_id":"fe7a8e8f-ba83-4dca-808f-b10b308f68ce","system_id":"levelo_inurba_marseille","lat":43.27997,"lon":5.40011,"is_reserved":false,"is_disabled":false,"rental_uris":{"android":"levelo://app?vid=fe7a8e8f-ba83-4dca-808f-b10b308f68ce","ios":"levelo://app?vid=fe7a8e8f-ba83-4dca-808f-b10b308f68ce"},"vehicle_type_id":"4","last_reported":1734944976,"current_range_meters":38000,"station_id":"ce4bho92rcd13ifvqh4g","pricing_plan_id":"cebpf4jnsgd1na2vs0mg"},{"bike_id":"8a759128-9dee-4f88-9ac0-6df8e76e0715","system_id":"levelo_inurba_marseille","lat":43.28928,"lon":5.38368,"is_reserved":false,"is_disabled":false,"rental_uris":{"android":"levelo://app?vid=8a759128-9dee-4f88-9ac0-6df8e76e0715","ios":"levelo://app?vid=8a759128-9dee-4f88-9ac0-6df8e76e0715"},"vehicle_type_id":"4","last_reported":1734944976,"current_range_meters":38800,"station_id":"ce4bh612rcd13ifvqe6g","pricing_plan_id":"cebpf4jnsgd1na2vs0mg"},{"bike_id":"54c315b6-ce30-4d23-99a7-a112ef2b7153","system_id":"levelo_inurba_marseille","lat":43.26685,"lon":5.38272,"is_reserved":false,"is_disabled":false,"rental_uris":{"android":"levelo://app?vid=54c315b6-ce30-4d23-99a7-a112ef2b7153","ios":"levelo://app?vid=54c315b6-ce30-4d23-99a7-a112ef2b7153"},"vehicle_type_id":"4","last_reported":1734944976,"current_range_meters":10000,"station_id":"ce4bhg92rcd13ifvqf90","pricing_plan_id":"cebpf4jnsgd1na2vs0mg"},{"bike_id":"7e8975c6-da2c-404e-97b8-cabbfa211dd8","system_id":"levelo_inurba_marseille","lat":43.289535,"lon":5.396355,"is_reserved":false,"is_disabled":true,"rental_uris":{"android":"levelo://app?vid=7e8975c6-da2c-404e-97b8-cabbfa211dd8","ios":"levelo://app?vid=7e8975c6-da2c-404e-97b8-cabbfa211dd8"},"vehicle_type_id":"4","last_reported":1734944976,"current_range_meters":17200,"station_id":"ce4bh3h2rcd13ifvqdn0","pricing_plan_id":"cebpf4jnsgd1na2vs0mg"},{"bike_id":"4723ef55-16c9-41eb-8289-ad28982c8a6d","system_id":"levelo_inurba_marseille","lat":43.26936,"lon":5.40251,"is_reserved":false,"is_disabled":false,"rental_uris":{"android":"levelo://app?vid=4723ef55-16c9-41eb-8289-ad28982c8a6d","ios":"levelo://app?vid=4723ef55-16c9-41eb-8289-ad28982c8a6d"},"vehicle_type_id":"4","last_reported":1734944976,"current_range_meters":12800,"station_id":"cjm6bp8fraef2m0cb0m0","pricing_plan_id":"cebpf4jnsgd1na2vs0mg"},{"bike_id":"fa46f150-8345-4c47-89dc-dd714e8f2794","system_id":"levelo_inurba_marseille","lat":43.29707,"lon":5.36608,"is_reserved":false,"is_disabled":false,"rental_uris":{"android":"levelo://app?vid=fa46f150-8345-4c47-89dc-dd714e8f2794","ios":"levelo://app?vid=fa46f150-8345-4c47-89dc-dd714e8f2794"},"vehicle_type_id":"4","last_reported":1734944976,"current_range_meters":38400,"station_id":"ce4bgn12rcd13ifvqbt0","pricing_plan_id":"cebpf4jnsgd1na2vs0mg"},{"bike_id":"1f9f0188-3181-4844-ac85-01533254bf9e","system_id":"levelo_inurba_marseille","lat":43.31116,"lon":5.37769,"is_reserved":false,"is_disabled":false,"rental_uris":{"android":"levelo://app?vid=1f9f0188-3181-4844-ac85-01533254bf9e","ios":"levelo://app?vid=1f9f0188-3181-4844-ac85-01533254bf9e"},"vehicle_type_id":"4","last_reported":1734944976,"current_range_meters":34000,"station_id":"ce4bgt92rcd13ifvqcg0","pricing_plan_id":"cebpf4jnsgd1na2vs0mg"},{"bike_id":"3174c70f-58ab-444d-925c-f2800db09601","system_id":"levelo_inurba_marseille","lat":43.29532,"lon":5.37493,"is_reserved":false,"is_disabled":false,"rental_uris":{"android":"levelo://app?vid=3174c70f-58ab-444d-925c-f2800db09601","ios":"levelo://app?vid=3174c70f-58ab-444d-925c-f2800db09601"},"vehicle_type_id":"4","last_reported":1734944976,"current_range_meters":34000,"station_id":"ce4bgkp2rcd13ifvqbmg","pricing_plan_id":"cebpf4jnsgd1na2vs0mg"},{"bike_id":"f25eaf0b-1452-4e92-be63-c0d5987b6cbc","system_id":"levelo_inurba_marseille","lat":43.337444,"lon":5.374475,"is_reserved":false,"is_disabled":false,"rental_uris":{"android":"levelo://app?vid=f25eaf0b-1452-4e92-be63-c0d5987b6cbc","ios":"levelo://app?vid=f25eaf0b-1452-4e92-be63-c0d5987b6cbc"},"vehicle_type_id":"4","last_reported":1734944976,"current_range_meters":38000,"station_id":"ce4bhg12rcd13ifvqf80","pricing_plan_id":"cebpf4jnsgd1na2vs0mg"},{"bike_id":"ff56034c-dd12-401a-8a88-7523c2f1a1ed","system_id":"levelo_inurba_marseille","lat":43.260571,"lon":5.393958,"is_reserved":false,"is_disabled":false,"rental_uris":{"android":"levelo://app?vid=ff56034c-dd12-401a-8a88-7523c2f1a1ed","ios":"levelo://app?vid=ff56034c-dd12-401a-8a88-7523c2f1a1ed"},"vehicle_type_id":"4","last_reported":1734944976,"current_range_meters":39200,"station_id":"ce4bhh92rcd13ifvqfj0","pricing_plan_id":"cebpf4jnsgd1na2vs0mg"},{"bike_id":"c69655e7-3264-4896-967a-e5083595e931","system_id":"levelo_inurba_marseille","lat":43.29577,"lon":5.37493,"is_reserved":false,"is_disabled":false,"rental_uris":{"android":"levelo://app?vid=c69655e7-3264-4896-967a-e5083595e931","ios":"levelo://app?vid=c69655e7-3264-4896-967a-e5083595e931"},"vehicle_type_id":"4","last_reported":1734944976,"current_range_meters":37600,"station_id":"ce4bgh92rcd13ifvqb50","pricing_plan_id":"cebpf4jnsgd1na2vs0mg"},{"bike_id":"33ae1ba2-17d4-483e-b4b1-e8e27e931226","system_id":"levelo_inurba_marseille","lat":43.33725,"lon":5.3918,"is_reserved":false,"is_disabled":false,"rental_uris":{"android":"levelo://app?vid=33ae1ba2-17d4-483e-b4b1-e8e27e931226","ios":"levelo://app?vid=33ae1ba2-17d4-483e-b4b1-e8e27e931226"},"vehicle_type_id":"4","last_reported":1734944976,"current_range_meters":37600,"station_id":"ce4bhr92rcd13ifvqhsg","pricing_plan_id":"cebpf4jnsgd1na2vs0mg"},{"bike_id":"591e56d3-570f-4000-8104-235340497ab2","system_id":"levelo_inurba_marseille","lat":43.28029,"lon":5.3694,"is_reserved":false,"is_disabled":false,"rental_uris":{"android":"levelo://app?vid=591e56d3-570f-4000-8104-235340497ab2","ios":"levelo://app?vid=591e56d3-570f-4000-8104-235340497ab2"},"vehicle_type_id":"4","last_reported":1734944976,"current_range_meters":38800,"station_id":"ce4bha12rcd13ifvqef0","pricing_plan_id":"cebpf4jnsgd1na2vs0mg"},{"bike_id":"17c8ca44-2370-40ed-a2ff-3881fd21ee02","system_id":"levelo_inurba_marseille","lat":43.23184,"lon":5.39993,"is_reserved":false,"is_disabled":false,"rental_uris":{"android":"levelo://app?vid=17c8ca44-2370-40ed-a2ff-3881fd21ee02","ios":"levelo://app?vid=17c8ca44-2370-40ed-a2ff-3881fd21ee02"},"vehicle_type_id":"4","last_reported":1734944976,"current_range_meters":39200,"station_id":"ce4bhn12rcd13ifvqgqg","pricing_plan_id":"cebpf4jnsgd1na2vs0mg"},{"bike_id":"46611bb0-2fc9-4dc9-9dfe-ebe29c8484c7","system_id":"levelo_inurba_marseille","lat":43.32657,"lon":5.40983,"is_reserved":false,"is_disabled":false,"rental_uris":{"android":"levelo://app?vid=46611bb0-2fc9-4dc9-9dfe-ebe29c8484c7","ios":"levelo://app?vid=46611bb0-2fc9-4dc9-9dfe-ebe29c8484c7"},"vehicle_type_id":"4","last_reported":1734944976,"current_range_meters":39200,"station_id":"ce4bhpp2rcd13ifvqhgg","pricing_plan_id":"cebpf4jnsgd1na2vs0mg"},{"bike_id":"1bfb59b3-5d70-4c84-8077-a6771e996a2b","system_id":"levelo_inurba_marseille","lat":43.29942,"lon":5.36514,"is_reserved":false,"is_disabled":false,"rental_uris":{"android":"levelo://app?vid=1bfb59b3-5d70-4c84-8077-a6771e996a2b","ios":"levelo://app?vid=1bfb59b3-5d70-4c84-8077-a6771e996a2b"},"vehicle_type_id":"4","last_reported":1734944976,"current_range_meters":38800,"station_id":"ce4bgm92rcd13ifvqbr0","pricing_plan_id":"cebpf4jnsgd1na2vs0mg"},{"bike_id":"b9a2a5db-4e4f-4472-9221-981416be1b6c","system_id":"levelo_inurba_marseille","lat":43.30132,"lon":5.3987,"is_reserved":false,"is_disabled":true,"rental_uris":{"android":"levelo://app?vid=b9a2a5db-4e4f-4472-9221-981416be1b6c","ios":"levelo://app?vid=b9a2a5db-4e4f-4472-9221-981416be1b6c"},"vehicle_type_id":"4","last_reported":1734944976,"current_range_meters":30400,"station_id":"ce4bh0h2rcd13ifvqd40","pricing_plan_id":"cebpf4jnsgd1na2vs0mg"},{"bike_id":"68db534e-0067-497a-971b-c0ac21bdd722","system_id":"levelo_inurba_marseille","lat":43.26207,"lon":5.37907,"is_reserved":false,"is_disabled":false,"rental_uris":{"android":"levelo://app?vid=68db534e-0067-497a-971b-c0ac21bdd722","ios":"levelo://app?vid=68db534e-0067-497a-971b-c0ac21bdd722"},"vehicle_type_id":"4","last_reported":1734944976,"current_range_meters":38000,"station_id":"ce4bhjp2rcd13ifvqg90","pricing_plan_id":"cebpf4jnsgd1na2vs0mg"},{"bike_id":"1e73c81f-7d8d-42c9-8216-05e0c8d2e4e9","system_id":"levelo_inurba_marseille","lat":43.29599,"lon":5.37741,"is_reserved":false,"is_disabled":false,"rental_uris":{"android":"levelo://app?vid=1e73c81f-7d8d-42c9-8216-05e0c8d2e4e9","ios":"levelo://app?vid=1e73c81f-7d8d-42c9-8216-05e0c8d2e4e9"},"vehicle_type_id":"4","last_reported":1734944976,"current_range_meters":38800,"station_id":"ce4bgi92rcd13ifvqb90","pricing_plan_id":"cebpf4jnsgd1na2vs0mg"},{"bike_id":"0c5de0f9-0c1b-4d60-8fb2-53c22faee0bb","system_id":"levelo_inurba_marseille","lat":43.28469,"lon":5.38422,"is_reserved":false,"is_disabled":true,"rental_uris":{"android":"levelo://app?vid=0c5de0f9-0c1b-4d60-8fb2-53c22faee0bb","ios":"levelo://app?vid=0c5de0f9-0c1b-4d60-8fb2-53c22faee0bb"},"vehicle_type_id":"4","last_reported":1734944976,"current_range_meters":8800,"station_id":"ce4bh512rcd13ifvqe3g","pricing_plan_id":"cebpf4jnsgd1na2vs0mg"},{"bike_id":"af30a030-7bba-44d5-989f-f377db8c7017","system_id":"levelo_inurba_marseille","lat":43.29565,"lon":5.37501,"is_reserved":false,"is_disabled":false,"rental_uris":{"android":"levelo://app?vid=af30a030-7bba-44d5-989f-f377db8c7017","ios":"levelo://app?vid=af30a030-7bba-44d5-989f-f377db8c7017"},"vehicle_type_id":"4","last_reported":1734944976,"current_range_meters":36400,"station_id":"ce4bgh92rcd13ifvqb50","pricing_plan_id":"cebpf4jnsgd1na2vs0mg"},{"bike_id":"18bc712f-05f8-4bfe-a81a-9b0f3911a5b1","system_id":"levelo_inurba_marseille","lat":43.2756,"lon":5.38418,"is_reserved":false,"is_disabled":false,"rental_uris":{"android":"levelo://app?vid=18bc712f-05f8-4bfe-a81a-9b0f3911a5b1","ios":"levelo://app?vid=18bc712f-05f8-4bfe-a81a-9b0f3911a5b1"},"vehicle_type_id":"4","last_reported":1734944976,"current_range_meters":38800,"station_id":"ce4bhh92rcd13ifvqfi0","pricing_plan_id":"cebpf4jnsgd1na2vs0mg"},{"bike_id":"ea17cfdb-c345-440f-8386-310685aac5f3","system_id":"levelo_inurba_marseille","lat":43.28468,"lon":5.35889,"is_reserved":false,"is_disabled":false,"rental_uris":{"android":"levelo://app?vid=ea17cfdb-c345-440f-8386-310685aac5f3","ios":"levelo://app?vid=ea17cfdb-c345-440f-8386-310685aac5f3"},"vehicle_type_id":"4","last_reported":1734944976,"current_range_meters":24800,"station_id":"ce4bhah2rcd13ifvqei0","pricing_plan_id":"cebpf4jnsgd1na2vs0mg"},{"bike_id":"2d995820-d040-480b-a897-bf9d5f03891e","system_id":"levelo_inurba_marseille","lat":43.293795,"lon":5.37872,"is_reserved":false,"is_disabled":true,"rental_uris":{"android":"levelo://app?vid=2d995820-d040-480b-a897-bf9d5f03891e","ios":"levelo://app?vid=2d995820-d040-480b-a897-bf9d5f03891e"},"vehicle_type_id":"4","last_reported":1734944976,"current_range_meters":31200,"station_id":"ce4bgjh2rcd13ifvqbf0","pricing_plan_id":"cebpf4jnsgd1na2vs0mg"},{"bike_id":"343bdba5-56cf-4dfd-9495-0464c409cdad","system_id":"levelo_inurba_marseille","lat":43.24087,"lon":5.37728,"is_reserved":false,"is_disabled":false,"rental_uris":{"android":"levelo://app?vid=343bdba5-56cf-4dfd-9495-0464c409cdad","ios":"levelo://app?vid=343bdba5-56cf-4dfd-9495-0464c409cdad"},"vehicle_type_id":"4","last_reported":1734944976,"current_range_meters":30000,"station_id":"ce4bhnp2rcd13ifvqgvg","pricing_plan_id":"cebpf4jnsgd1na2vs0mg"},{"bike_id":"13b86537-f90d-4e73-8d81-e42239efbc6c","system_id":"levelo_inurba_marseille","lat":43.29725,"lon":5.37694,"is_reserved":false,"is_disabled":false,"rental_uris":{"android":"levelo://app?vid=13b86537-f90d-4e73-8d81-e42239efbc6c","ios":"levelo://app?vid=13b86537-f90d-4e73-8d81-e42239efbc6c"},"vehicle_type_id":"4","last_reported":1734944976,"current_range_meters":14800,"station_id":"ce4bgkh2rcd13ifvqbl0","pricing_plan_id":"cebpf4jnsgd1na2vs0mg"},{"bike_id":"8aa29a25-71b0-47b4-8794-3774a275bf08","system_id":"levelo_inurba_marseille","lat":43.27171,"lon":5.40987,"is_reserved":false,"is_disabled":false,"rental_uris":{"android":"levelo://app?vid=8aa29a25-71b0-47b4-8794-3774a275bf08","ios":"levelo://app?vid=8aa29a25-71b0-47b4-8794-3774a275bf08"},"vehicle_type_id":"4","last_reported":1734944976,"current_range_meters":20400,"station_id":"ce4bhl12rcd13ifvqgf0","pricing_plan_id":"cebpf4jnsgd1na2vs0mg"},{"bike_id":"50771762-6294-492b-bae5-db8bd88e73ed","system_id":"levelo_inurba_marseille","lat":43.27426,"lon":5.3941,"is_reserved":false,"is_disabled":false,"rental_uris":{"android":"levelo://app?vid=50771762-6294-492b-bae5-db8bd88e73ed","ios":"levelo://app?vid=50771762-6294-492b-bae5-db8bd88e73ed"},"vehicle_type_id":"4","last_reported":1734944976,"current_range_meters":30000,"station_id":"ce4bhdp2rcd13ifvqf20","pricing_plan_id":"cebpf4jnsgd1na2vs0mg"},{"bike_id":"a32643ba-7afa-4689-a15c-154e2bfcd54f","system_id":"levelo_inurba_marseille","lat":43.29096,"lon":5.3814,"is_reserved":false,"is_disabled":false,"rental_uris":{"android":"levelo://app?vid=a32643ba-7afa-4689-a15c-154e2bfcd54f","ios":"levelo://app?vid=a32643ba-7afa-4689-a15c-154e2bfcd54f"},"vehicle_type_id":"4","last_reported":1734944976,"current_range_meters":38800,"station_id":"ce4bh512rcd13ifvqe2g","pricing_plan_id":"cebpf4jnsgd1na2vs0mg"},{"bike_id":"0b1dbe83-06bc-4dd0-a526-062173db1059","system_id":"levelo_inurba_marseille","lat":43.337444,"lon":5.374475,"is_reserved":false,"is_disabled":false,"rental_uris":{"android":"levelo://app?vid=0b1dbe83-06bc-4dd0-a526-062173db1059","ios":"levelo://app?vid=0b1dbe83-06bc-4dd0-a526-062173db1059"},"vehicle_type_id":"4","last_reported":1734944976,"current_range_meters":28800,"station_id":"ce4bh192rcd13ifvqdc0","pricing_plan_id":"cebpf4jnsgd1na2vs0mg"},{"bike_id":"fee78949-50f8-4793-8caf-6118d380ec2b","system_id":"levelo_inurba_marseille","lat":43.28935,"lon":5.39622,"is_reserved":false,"is_disabled":false,"rental_uris":{"android":"levelo://app?vid=fee78949-50f8-4793-8caf-6118d380ec2b","ios":"levelo://app?vid=fee78949-50f8-4793-8caf-6118d380ec2b"},"vehicle_type_id":"4","last_reported":1734944976,"current_range_meters":25200,"station_id":"ce4bh3h2rcd13ifvqdn0","pricing_plan_id":"cebpf4jnsgd1na2vs0mg"},{"bike_id":"d7efaae7-c3bf-455b-9bb3-b3749e76c4cd","system_id":"levelo_inurba_marseille","lat":43.31229,"lon":5.36869,"is_reserved":false,"is_disabled":false,"rental_uris":{"android":"levelo://app?vid=d7efaae7-c3bf-455b-9bb3-b3749e76c4cd","ios":"levelo://app?vid=d7efaae7-c3bf-455b-9bb3-b3749e76c4cd"},"vehicle_type_id":"4","last_reported":1734944976,"current_range_meters":27200,"station_id":"ce4bgl92rcd13ifvqbq0","pricing_plan_id":"cebpf4jnsgd1na2vs0mg"},{"bike_id":"9a93a604-158f-437c-847a-f9b2772a28db","system_id":"levelo_inurba_marseille","lat":43.29064,"lon":5.37158,"is_reserved":false,"is_disabled":false,"rental_uris":{"android":"levelo://app?vid=9a93a604-158f-437c-847a-f9b2772a28db","ios":"levelo://app?vid=9a93a604-158f-437c-847a-f9b2772a28db"},"vehicle_type_id":"4","last_reported":1734944976,"current_range_meters":28400,"station_id":"ce4bh5p2rcd13ifvqe4g","pricing_plan_id":"cebpf4jnsgd1na2vs0mg"},{"bike_id":"fb66cd6e-c5a0-474c-9088-97f132f59360","system_id":"levelo_inurba_marseille","lat":43.29541,"lon":5.37499,"is_reserved":false,"is_disabled":false,"rental_uris":{"android":"levelo://app?vid=fb66cd6e-c5a0-474c-9088-97f132f59360","ios":"levelo://app?vid=fb66cd6e-c5a0-474c-9088-97f132f59360"},"vehicle_type_id":"4","last_reported":1734944976,"current_range_meters":35200,"station_id":"ce4bgkp2rcd13ifvqbmg","pricing_plan_id":"cebpf4jnsgd1na2vs0mg"},{"bike_id":"49580bca-7fdd-4980-ba9d-b58e16ff3054","system_id":"levelo_inurba_marseille","lat":43.29847,"lon":5.36273,"is_reserved":false,"is_disabled":false,"rental_uris":{"android":"levelo://app?vid=49580bca-7fdd-4980-ba9d-b58e16ff3054","ios":"levelo://app?vid=49580bca-7fdd-4980-ba9d-b58e16ff3054"},"vehicle_type_id":"4","last_reported":1734944976,"current_range_meters":28400,"station_id":"ce4bgpp2rcd13ifvqc3g","pricing_plan_id":"cebpf4jnsgd1na2vs0mg"},{"bike_id":"24a28824-23fe-4a40-97b0-c8ce73315934","system_id":"levelo_inurba_marseille","lat":43.25821,"lon":5.39436,"is_reserved":false,"is_disabled":false,"rental_uris":{"android":"levelo://app?vid=24a28824-23fe-4a40-97b0-c8ce73315934","ios":"levelo://app?vid=24a28824-23fe-4a40-97b0-c8ce73315934"},"vehicle_type_id":"4","last_reported":1734944976,"current_range_meters":25200,"station_id":"ce4bhip2rcd13ifvqft0","pricing_plan_id":"cebpf4jnsgd1na2vs0mg"},{"bike_id":"ef79c047-6c72-4916-ad9a-fd9a3dd38f21","system_id":"levelo_inurba_marseille","lat":43.27493,"lon":5.42459,"is_reserved":false,"is_disabled":false,"rental_uris":{"android":"levelo://app?vid=ef79c047-6c72-4916-ad9a-fd9a3dd38f21","ios":"levelo://app?vid=ef79c047-6c72-4916-ad9a-fd9a3dd38f21"},"vehicle_type_id":"4","last_reported":1734944976,"current_range_meters":36000,"station_id":"ce4bhn92rcd13ifvqgrg","pricing_plan_id":"cebpf4jnsgd1na2vs0mg"},{"bike_id":"a8241d4a-6511-4c13-8389-e037a362bfcf","system_id":"levelo_inurba_marseille","lat":43.284605,"lon":5.358983,"is_reserved":false,"is_disabled":true,"rental_uris":{"android":"levelo://app?vid=a8241d4a-6511-4c13-8389-e037a362bfcf","ios":"levelo://app?vid=a8241d4a-6511-4c13-8389-e037a362bfcf"},"vehicle_type_id":"4","last_reported":1734944976,"current_range_meters":34800,"station_id":"ce4bhah2rcd13ifvqei0","pricing_plan_id":"cebpf4jnsgd1na2vs0mg"},{"bike_id":"69225cf1-9dc6-4294-9c9e-592b4658a09f","system_id":"levelo_inurba_marseille","lat":43.31274,"lon":5.40155,"is_reserved":false,"is_disabled":true,"rental_uris":{"android":"levelo://app?vid=69225cf1-9dc6-4294-9c9e-592b4658a09f","ios":"levelo://app?vid=69225cf1-9dc6-4294-9c9e-592b4658a09f"},"vehicle_type_id":"4","last_reported":1734944976,"current_range_meters":29600,"station_id":"ce4bh092rcd13ifvqd30","pricing_plan_id":"cebpf4jnsgd1na2vs0mg"},{"bike_id":"537ef1bf-3a78-45af-b334-3a2c52a599a8","system_id":"levelo_inurba_marseille","lat":43.34142,"lon":5.40901,"is_reserved":false,"is_disabled":false,"rental_uris":{"android":"levelo://app?vid=537ef1bf-3a78-45af-b334-3a2c52a599a8","ios":"levelo://app?vid=537ef1bf-3a78-45af-b334-3a2c52a599a8"},"vehicle_type_id":"4","last_reported":1734944976,"current_range_meters":36800,"station_id":"ce4bhqh2rcd13ifvqhlg","pricing_plan_id":"cebpf4jnsgd1na2vs0mg"},{"bike_id":"b3961213-ac8d-4e61-b1b3-c5d9fdca1a75","system_id":"levelo_inurba_marseille","lat":43.24794,"lon":5.37454,"is_reserved":false,"is_disabled":false,"rental_uris":{"android":"levelo://app?vid=b3961213-ac8d-4e61-b1b3-c5d9fdca1a75","ios":"levelo://app?vid=b3961213-ac8d-4e61-b1b3-c5d9fdca1a75"},"vehicle_type_id":"4","last_reported":1734944976,"current_range_meters":9200,"station_id":"ce4bhgh2rcd13ifvqfb0","pricing_plan_id":"cebpf4jnsgd1na2vs0mg"},{"bike_id":"7cfa7914-a6fa-49c8-b1ec-dbe48b7366ea","system_id":"levelo_inurba_marseille","lat":43.24391,"lon":5.37059,"is_reserved":false,"is_disabled":false,"rental_uris":{"android":"levelo://app?vid=7cfa7914-a6fa-49c8-b1ec-dbe48b7366ea","ios":"levelo://app?vid=7cfa7914-a6fa-49c8-b1ec-dbe48b7366ea"},"vehicle_type_id":"4","last_reported":1734944976,"current_range_meters":38800,"station_id":"ce4bhhh2rcd13ifvqfk0","pricing_plan_id":"cebpf4jnsgd1na2vs0mg"},{"bike_id":"90f19238-5c8a-460b-96a7-7fc5e8fe2240","system_id":"levelo_inurba_marseille","lat":43.29289,"lon":5.37454,"is_reserved":false,"is_disabled":true,"rental_uris":{"android":"levelo://app?vid=90f19238-5c8a-460b-96a7-7fc5e8fe2240","ios":"levelo://app?vid=90f19238-5c8a-460b-96a7-7fc5e8fe2240"},"vehicle_type_id":"4","last_reported":1734944976,"current_range_meters":38800,"station_id":"ce4bgi12rcd13ifvqb70","pricing_plan_id":"cebpf4jnsgd1na2vs0mg"},{"bike_id":"b07e0204-2c57-49d1-a1f7-320de8610e25","system_id":"levelo_inurba_marseille","lat":43.29402,"lon":5.37344,"is_reserved":false,"is_disabled":true,"rental_uris":{"android":"levelo://app?vid=b07e0204-2c57-49d1-a1f7-320de8610e25","ios":"levelo://app?vid=b07e0204-2c57-49d1-a1f7-320de8610e25"},"vehicle_type_id":"4","last_reported":1734944976,"current_range_meters":24800,"station_id":"","pricing_plan_id":"cebpf4jnsgd1na2vs0mg"},{"bike_id":"ea004471-b609-40bf-876b-0bd08916cde3","system_id":"levelo_inurba_marseille","lat":43.32727,"lon":5.40842,"is_reserved":false,"is_disabled":false,"rental_uris":{"android":"levelo://app?vid=ea004471-b609-40bf-876b-0bd08916cde3","ios":"levelo://app?vid=ea004471-b609-40bf-876b-0bd08916cde3"},"vehicle_type_id":"4","last_reported":1734944976,"current_range_meters":30400,"station_id":"ce4bhpp2rcd13ifvqhgg","pricing_plan_id":"cebpf4jnsgd1na2vs0mg"},{"bike_id":"f97162d8-ac35-4106-9dab-07f272349842","system_id":"levelo_inurba_marseille","lat":43.25827,"lon":5.39434,"is_reserved":false,"is_disabled":false,"rental_uris":{"android":"levelo://app?vid=f97162d8-ac35-4106-9dab-07f272349842","ios":"levelo://app?vid=f97162d8-ac35-4106-9dab-07f272349842"},"vehicle_type_id":"4","last_reported":1734944976,"current_range_meters":11200,"station_id":"ce4bhip2rcd13ifvqft0","pricing_plan_id":"cebpf4jnsgd1na2vs0mg"},{"bike_id":"7befd885-7fc8-4dc1-b970-da31c9e46ce6","system_id":"levelo_inurba_marseille","lat":43.26033,"lon":5.37551,"is_reserved":false,"is_disabled":false,"rental_uris":{"android":"levelo://app?vid=7befd885-7fc8-4dc1-b970-da31c9e46ce6","ios":"levelo://app?vid=7befd885-7fc8-4dc1-b970-da31c9e46ce6"},"vehicle_type_id":"4","last_reported":1734944976,"current_range_meters":32800,"station_id":"ce4bhgh2rcd13ifvqfa0","pricing_plan_id":"cebpf4jnsgd1na2vs0mg"},{"bike_id":"0ba6d847-b04d-4662-8e74-a4fd8409ab96","system_id":"levelo_inurba_marseille","lat":43.26767,"lon":5.39428,"is_reserved":false,"is_disabled":true,"rental_uris":{"android":"levelo://app?vid=0ba6d847-b04d-4662-8e74-a4fd8409ab96","ios":"levelo://app?vid=0ba6d847-b04d-4662-8e74-a4fd8409ab96"},"vehicle_type_id":"4","last_reported":1734944976,"current_range_meters":16400,"station_id":"ce4bhh12rcd13ifvqfg0","pricing_plan_id":"cebpf4jnsgd1na2vs0mg"},{"bike_id":"f3fe0314-8e40-4845-abe1-4c14c28f0999","system_id":"levelo_inurba_marseille","lat":43.2945,"lon":5.41536,"is_reserved":false,"is_disabled":false,"rental_uris":{"android":"levelo://app?vid=f3fe0314-8e40-4845-abe1-4c14c28f0999","ios":"levelo://app?vid=f3fe0314-8e40-4845-abe1-4c14c28f0999"},"vehicle_type_id":"4","last_reported":1734944976,"current_range_meters":36800,"station_id":"ce4bh192rcd13ifvqdc0","pricing_plan_id":"cebpf4jnsgd1na2vs0mg"},{"bike_id":"f0bcbb45-555d-4c5b-8534-084b0fafc4e9","system_id":"levelo_inurba_marseille","lat":43.29165,"lon":5.37143,"is_reserved":false,"is_disabled":true,"rental_uris":{"android":"levelo://app?vid=f0bcbb45-555d-4c5b-8534-084b0fafc4e9","ios":"levelo://app?vid=f0bcbb45-555d-4c5b-8534-084b0fafc4e9"},"vehicle_type_id":"4","last_reported":1734944976,"current_range_meters":30800,"station_id":"ce4bha92rcd13ifvqeh0","pricing_plan_id":"cebpf4jnsgd1na2vs0mg"},{"bike_id":"a6cdc187-c8a8-46bd-94fc-c241052810e0","system_id":"levelo_inurba_marseille","lat":43.27968,"lon":5.38758,"is_reserved":false,"is_disabled":false,"rental_uris":{"android":"levelo://app?vid=a6cdc187-c8a8-46bd-94fc-c241052810e0","ios":"levelo://app?vid=a6cdc187-c8a8-46bd-94fc-c241052810e0"},"vehicle_type_id":"4","last_reported":1734944976,"current_range_meters":27600,"station_id":"ce4bhg12rcd13ifvqf80","pricing_plan_id":"cebpf4jnsgd1na2vs0mg"},{"bike_id":"7b4d282c-a7d9-4676-b525-fa109a59185c","system_id":"levelo_inurba_marseille","lat":43.26947,"lon":5.38635,"is_reserved":false,"is_disabled":false,"rental_uris":{"android":"levelo://app?vid=7b4d282c-a7d9-4676-b525-fa109a59185c","ios":"levelo://app?vid=7b4d282c-a7d9-4676-b525-fa109a59185c"},"vehicle_type_id":"4","last_reported":1734944976,"current_range_meters":38800,"station_id":"ce4bhh92rcd13ifvqfh0","pricing_plan_id":"cebpf4jnsgd1na2vs0mg"},{"bike_id":"d8e19718-03bc-417c-998d-d1b1d907c453","system_id":"levelo_inurba_marseille","lat":43.26678,"lon":5.3828,"is_reserved":false,"is_disabled":false,"rental_uris":{"android":"levelo://app?vid=d8e19718-03bc-417c-998d-d1b1d907c453","ios":"levelo://app?vid=d8e19718-03bc-417c-998d-d1b1d907c453"},"vehicle_type_id":"4","last_reported":1734944976,"current_range_meters":19200,"station_id":"ce4bhg92rcd13ifvqf90","pricing_plan_id":"cebpf4jnsgd1na2vs0mg"},{"bike_id":"99c269e8-66ee-4359-ae4b-e3f8b5c0970a","system_id":"levelo_inurba_marseille","lat":43.30881,"lon":5.39659,"is_reserved":false,"is_disabled":true,"rental_uris":{"android":"levelo://app?vid=99c269e8-66ee-4359-ae4b-e3f8b5c0970a","ios":"levelo://app?vid=99c269e8-66ee-4359-ae4b-e3f8b5c0970a"},"vehicle_type_id":"4","last_reported":1734944976,"current_range_meters":400,"station_id":"ce4bh012rcd13ifvqcv0","pricing_plan_id":"cebpf4jnsgd1na2vs0mg"},{"bike_id":"725f2ba4-42ee-480b-a31f-097189b1c2cf","system_id":"levelo_inurba_marseille","lat":43.29376,"lon":5.37086,"is_reserved":false,"is_disabled":true,"rental_uris":{"android":"levelo://app?vid=725f2ba4-42ee-480b-a31f-097189b1c2cf","ios":"levelo://app?vid=725f2ba4-42ee-480b-a31f-097189b1c2cf"},"vehicle_type_id":"4","last_reported":1734944976,"current_range_meters":35600,"station_id":"","pricing_plan_id":"cebpf4jnsgd1na2vs0mg"},{"bike_id":"611af7a6-bc77-4393-bb36-1871203bf0bb","system_id":"levelo_inurba_marseille","lat":43.284608,"lon":5.35901,"is_reserved":false,"is_disabled":false,"rental_uris":{"android":"levelo://app?vid=611af7a6-bc77-4393-bb36-1871203bf0bb","ios":"levelo://app?vid=611af7a6-bc77-4393-bb36-1871203bf0bb"},"vehicle_type_id":"4","last_reported":1734944976,"current_range_meters":28000,"station_id":"ce4bhah2rcd13ifvqei0","pricing_plan_id":"cebpf4jnsgd1na2vs0mg"},{"bike_id":"d0d918a4-8ae9-4abd-b34c-444575b56e5b","system_id":"levelo_inurba_marseille","lat":43.29274,"lon":5.36851,"is_reserved":false,"is_disabled":false,"rental_uris":{"android":"levelo://app?vid=d0d918a4-8ae9-4abd-b34c-444575b56e5b","ios":"levelo://app?vid=d0d918a4-8ae9-4abd-b34c-444575b56e5b"},"vehicle_type_id":"4","last_reported":1734944976,"current_range_meters":14000,"station_id":"ce4bhbp2rcd13ifvqesg","pricing_plan_id":"cebpf4jnsgd1na2vs0mg"},{"bike_id":"4094ac40-fe97-4483-91f4-bc4b6a97b4f3","system_id":"levelo_inurba_marseille","lat":43.25828,"lon":5.39434,"is_reserved":false,"is_disabled":true,"rental_uris":{"android":"levelo://app?vid=4094ac40-fe97-4483-91f4-bc4b6a97b4f3","ios":"levelo://app?vid=4094ac40-fe97-4483-91f4-bc4b6a97b4f3"},"vehicle_type_id":"4","last_reported":1734944976,"current_range_meters":0,"station_id":"ce4bhip2rcd13ifvqft0","pricing_plan_id":"cebpf4jnsgd1na2vs0mg"},{"bike_id":"ed495aba-f9b6-4311-b39c-649f2202b23f","system_id":"levelo_inurba_marseille","lat":43.27569,"lon":5.38415,"is_reserved":false,"is_disabled":false,"rental_uris":{"android":"levelo://app?vid=ed495aba-f9b6-4311-b39c-649f2202b23f","ios":"levelo://app?vid=ed495aba-f9b6-4311-b39c-649f2202b23f"},"vehicle_type_id":"4","last_reported":1734944976,"current_range_meters":38800,"station_id":"ce4bhh92rcd13ifvqfi0","pricing_plan_id":"cebpf4jnsgd1na2vs0mg"},{"bike_id":"e05bf4ea-d74d-49ed-a7dc-94fa3a3cc350","system_id":"levelo_inurba_marseille","lat":43.32359,"lon":5.36756,"is_reserved":false,"is_disabled":false,"rental_uris":{"android":"levelo://app?vid=e05bf4ea-d74d-49ed-a7dc-94fa3a3cc350","ios":"levelo://app?vid=e05bf4ea-d74d-49ed-a7dc-94fa3a3cc350"},"vehicle_type_id":"4","last_reported":1734944976,"current_range_meters":14800,"station_id":"ce4bhsh2rcd13ifvqi2g","pricing_plan_id":"cebpf4jnsgd1na2vs0mg"},{"bike_id":"6b186745-2091-424b-a646-ec954a3aff8a","system_id":"levelo_inurba_marseille","lat":43.24664,"lon":5.3816,"is_reserved":false,"is_disabled":false,"rental_uris":{"android":"levelo://app?vid=6b186745-2091-424b-a646-ec954a3aff8a","ios":"levelo://app?vid=6b186745-2091-424b-a646-ec954a3aff8a"},"vehicle_type_id":"4","last_reported":1734944976,"current_range_meters":18000,"station_id":"ce4bhih2rcd13ifvqfr0","pricing_plan_id":"cebpf4jnsgd1na2vs0mg"},{"bike_id":"b73b3cc8-26fa-4032-8e99-f74b6ff40c2a","system_id":"levelo_inurba_marseille","lat":43.27058,"lon":5.40261,"is_reserved":false,"is_disabled":false,"rental_uris":{"android":"levelo://app?vid=b73b3cc8-26fa-4032-8e99-f74b6ff40c2a","ios":"levelo://app?vid=b73b3cc8-26fa-4032-8e99-f74b6ff40c2a"},"vehicle_type_id":"4","last_reported":1734944976,"current_range_meters":8400,"station_id":"ce4bhk92rcd13ifvqgc0","pricing_plan_id":"cebpf4jnsgd1na2vs0mg"},{"bike_id":"0fa4fd6a-c920-470e-9628-342bc95af557","system_id":"levelo_inurba_marseille","lat":43.24667,"lon":5.38148,"is_reserved":false,"is_disabled":false,"rental_uris":{"android":"levelo://app?vid=0fa4fd6a-c920-470e-9628-342bc95af557","ios":"levelo://app?vid=0fa4fd6a-c920-470e-9628-342bc95af557"},"vehicle_type_id":"4","last_reported":1734944976,"current_range_meters":30000,"station_id":"ce4bhih2rcd13ifvqfr0","pricing_plan_id":"cebpf4jnsgd1na2vs0mg"},{"bike_id":"32ebf098-e002-4aa6-88f7-5b365ee05e11","system_id":"levelo_inurba_marseille","lat":43.24079,"lon":5.37743,"is_reserved":false,"is_disabled":true,"rental_uris":{"android":"levelo://app?vid=32ebf098-e002-4aa6-88f7-5b365ee05e11","ios":"levelo://app?vid=32ebf098-e002-4aa6-88f7-5b365ee05e11"},"vehicle_type_id":"4","last_reported":1734944976,"current_range_meters":0,"station_id":"ce4bhnp2rcd13ifvqgvg","pricing_plan_id":"cebpf4jnsgd1na2vs0mg"},{"bike_id":"51092a0b-c258-4d4f-8fbf-b61d8d751561","system_id":"levelo_inurba_marseille","lat":43.2842,"lon":5.34983,"is_reserved":false,"is_disabled":false,"rental_uris":{"android":"levelo://app?vid=51092a0b-c258-4d4f-8fbf-b61d8d751561","ios":"levelo://app?vid=51092a0b-c258-4d4f-8fbf-b61d8d751561"},"vehicle_type_id":"4","last_reported":1734944976,"current_range_meters":16400,"station_id":"ce4bhbh2rcd13ifvqepg","pricing_plan_id":"cebpf4jnsgd1na2vs0mg"},{"bike_id":"aea1fce2-2ac2-4214-9613-fa3aae7cc4b7","system_id":"levelo_inurba_marseille","lat":43.29586,"lon":5.374,"is_reserved":false,"is_disabled":false,"rental_uris":{"android":"levelo://app?vid=aea1fce2-2ac2-4214-9613-fa3aae7cc4b7","ios":"levelo://app?vid=aea1fce2-2ac2-4214-9613-fa3aae7cc4b7"},"vehicle_type_id":"4","last_reported":1734944976,"current_range_meters":26800,"station_id":"","pricing_plan_id":"cebpf4jnsgd1na2vs0mg"},{"bike_id":"3f821dae-136e-4817-8d16-0800fb38ab20","system_id":"levelo_inurba_marseille","lat":43.30152,"lon":5.38073,"is_reserved":false,"is_disabled":false,"rental_uris":{"android":"levelo://app?vid=3f821dae-136e-4817-8d16-0800fb38ab20","ios":"levelo://app?vid=3f821dae-136e-4817-8d16-0800fb38ab20"},"vehicle_type_id":"4","last_reported":1734944976,"current_range_meters":24400,"station_id":"ce4bgjp2rcd13ifvqbh0","pricing_plan_id":"cebpf4jnsgd1na2vs0mg"},{"bike_id":"c71b6c55-aa7b-437b-a540-8c383a22f437","system_id":"levelo_inurba_marseille","lat":43.28412,"lon":5.37508,"is_reserved":false,"is_disabled":false,"rental_uris":{"android":"levelo://app?vid=c71b6c55-aa7b-437b-a540-8c383a22f437","ios":"levelo://app?vid=c71b6c55-aa7b-437b-a540-8c383a22f437"},"vehicle_type_id":"4","last_reported":1734944976,"current_range_meters":17600,"station_id":"ce4bh412rcd13ifvqds0","pricing_plan_id":"cebpf4jnsgd1na2vs0mg"},{"bike_id":"91f01120-be8b-4783-bf69-48ae2321a0e4","system_id":"levelo_inurba_marseille","lat":43.29598,"lon":5.38097,"is_reserved":false,"is_disabled":false,"rental_uris":{"android":"levelo://app?vid=91f01120-be8b-4783-bf69-48ae2321a0e4","ios":"levelo://app?vid=91f01120-be8b-4783-bf69-48ae2321a0e4"},"vehicle_type_id":"4","last_reported":1734944976,"current_range_meters":35600,"station_id":"ce4bgl12rcd13ifvqbo0","pricing_plan_id":"cebpf4jnsgd1na2vs0mg"},{"bike_id":"18e2a1c9-1052-4bfa-af19-a6dbfa68f78a","system_id":"levelo_inurba_marseille","lat":43.30212,"lon":5.39462,"is_reserved":false,"is_disabled":false,"rental_uris":{"android":"levelo://app?vid=18e2a1c9-1052-4bfa-af19-a6dbfa68f78a","ios":"levelo://app?vid=18e2a1c9-1052-4bfa-af19-a6dbfa68f78a"},"vehicle_type_id":"4","last_reported":1734944976,"current_range_meters":38800,"station_id":"ce4bh0p2rcd13ifvqd70","pricing_plan_id":"cebpf4jnsgd1na2vs0mg"},{"bike_id":"ba623d7f-de4d-43e6-9a39-be19938e75fb","system_id":"levelo_inurba_marseille","lat":43.29369,"lon":5.37856,"is_reserved":false,"is_disabled":true,"rental_uris":{"android":"levelo://app?vid=ba623d7f-de4d-43e6-9a39-be19938e75fb","ios":"levelo://app?vid=ba623d7f-de4d-43e6-9a39-be19938e75fb"},"vehicle_type_id":"4","last_reported":1734944976,"current_range_meters":33200,"station_id":"","pricing_plan_id":"cebpf4jnsgd1na2vs0mg"},{"bike_id":"f5c3066f-e226-4517-a90e-b453d0a6feae","system_id":"levelo_inurba_marseille","lat":43.24655,"lon":5.38186,"is_reserved":false,"is_disabled":false,"rental_uris":{"android":"levelo://app?vid=f5c3066f-e226-4517-a90e-b453d0a6feae","ios":"levelo://app?vid=f5c3066f-e226-4517-a90e-b453d0a6feae"},"vehicle_type_id":"4","last_reported":1734944976,"current_range_meters":20400,"station_id":"ce4bhih2rcd13ifvqfr0","pricing_plan_id":"cebpf4jnsgd1na2vs0mg"},{"bike_id":"7a3c923f-89ef-49bc-946e-cd036cf042f6","system_id":"levelo_inurba_marseille","lat":43.31759,"lon":5.39011,"is_reserved":false,"is_disabled":false,"rental_uris":{"android":"levelo://app?vid=7a3c923f-89ef-49bc-946e-cd036cf042f6","ios":"levelo://app?vid=7a3c923f-89ef-49bc-946e-cd036cf042f6"},"vehicle_type_id":"4","last_reported":1734944976,"current_range_meters":38000,"station_id":"ce4bhqp2rcd13ifvqhng","pricing_plan_id":"cebpf4jnsgd1na2vs0mg"},{"bike_id":"5e1ef48a-8f1f-4cfa-b2b3-a4053e96881b","system_id":"levelo_inurba_marseille","lat":43.27988,"lon":5.40009,"is_reserved":false,"is_disabled":false,"rental_uris":{"android":"levelo://app?vid=5e1ef48a-8f1f-4cfa-b2b3-a4053e96881b","ios":"levelo://app?vid=5e1ef48a-8f1f-4cfa-b2b3-a4053e96881b"},"vehicle_type_id":"4","last_reported":1734944976,"current_range_meters":16000,"station_id":"ce4bho92rcd13ifvqh4g","pricing_plan_id":"cebpf4jnsgd1na2vs0mg"},{"bike_id":"f6c5d7d8-070f-43c6-8fe7-a91620c2d235","system_id":"levelo_inurba_marseille","lat":43.29585,"lon":5.36743,"is_reserved":false,"is_disabled":true,"rental_uris":{"android":"levelo://app?vid=f6c5d7d8-070f-43c6-8fe7-a91620c2d235","ios":"levelo://app?vid=f6c5d7d8-070f-43c6-8fe7-a91620c2d235"},"vehicle_type_id":"4","last_reported":1734944976,"current_range_meters":30000,"station_id":"ce4bgph2rcd13ifvqc2g","pricing_plan_id":"cebpf4jnsgd1na2vs0mg"},{"bike_id":"10d16ca8-28c0-405d-8543-1a0f299451c6","system_id":"levelo_inurba_marseille","lat":43.27807,"lon":5.4071,"is_reserved":false,"is_disabled":false,"rental_uris":{"android":"levelo://app?vid=10d16ca8-28c0-405d-8543-1a0f299451c6","ios":"levelo://app?vid=10d16ca8-28c0-405d-8543-1a0f299451c6"},"vehicle_type_id":"4","last_reported":1734944976,"current_range_meters":38000,"station_id":"ce4bhnh2rcd13ifvqgtg","pricing_plan_id":"cebpf4jnsgd1na2vs0mg"},{"bike_id":"d7a9a039-2919-4498-94bc-85df69bbf9b4","system_id":"levelo_inurba_marseille","lat":43.25099,"lon":5.39513,"is_reserved":false,"is_disabled":true,"rental_uris":{"android":"levelo://app?vid=d7a9a039-2919-4498-94bc-85df69bbf9b4","ios":"levelo://app?vid=d7a9a039-2919-4498-94bc-85df69bbf9b4"},"vehicle_type_id":"4","last_reported":1734944976,"current_range_meters":0,"station_id":"ce4bhm12rcd13ifvqgkg","pricing_plan_id":"cebpf4jnsgd1na2vs0mg"},{"bike_id":"c8e14c01-3b48-48db-86ed-8cf899d83d09","system_id":"levelo_inurba_marseille","lat":43.30104,"lon":5.39075,"is_reserved":false,"is_disabled":false,"rental_uris":{"android":"levelo://app?vid=c8e14c01-3b48-48db-86ed-8cf899d83d09","ios":"levelo://app?vid=c8e14c01-3b48-48db-86ed-8cf899d83d09"},"vehicle_type_id":"4","last_reported":1734944976,"current_range_meters":10800,"station_id":"ce4bh192rcd13ifvqdb0","pricing_plan_id":"cebpf4jnsgd1na2vs0mg"},{"bike_id":"a37f8d66-bc3d-46c0-b697-94f983e94105","system_id":"levelo_inurba_marseille","lat":43.26944,"lon":5.40251,"is_reserved":false,"is_disabled":false,"rental_uris":{"android":"levelo://app?vid=a37f8d66-bc3d-46c0-b697-94f983e94105","ios":"levelo://app?vid=a37f8d66-bc3d-46c0-b697-94f983e94105"},"vehicle_type_id":"4","last_reported":1734944976,"current_range_meters":38000,"station_id":"cjm6bp8fraef2m0cb0m0","pricing_plan_id":"cebpf4jnsgd1na2vs0mg"},{"bike_id":"864c8c07-623f-46e0-a84e-8c24a90096f0","system_id":"levelo_inurba_marseille","lat":43.30529,"lon":5.3653,"is_reserved":false,"is_disabled":false,"rental_uris":{"android":"levelo://app?vid=864c8c07-623f-46e0-a84e-8c24a90096f0","ios":"levelo://app?vid=864c8c07-623f-46e0-a84e-8c24a90096f0"},"vehicle_type_id":"4","last_reported":1734944976,"current_range_meters":29600,"station_id":"ce4bgs12rcd13ifvqcag","pricing_plan_id":"cebpf4jnsgd1na2vs0mg"},{"bike_id":"c8875d6b-8a22-4454-99ec-4e4ef59cbf9f","system_id":"levelo_inurba_marseille","lat":43.25863,"lon":5.39899,"is_reserved":false,"is_disabled":false,"rental_uris":{"android":"levelo://app?vid=c8875d6b-8a22-4454-99ec-4e4ef59cbf9f","ios":"levelo://app?vid=c8875d6b-8a22-4454-99ec-4e4ef59cbf9f"},"vehicle_type_id":"4","last_reported":1734944976,"current_range_meters":37600,"station_id":"ce4bhl92rcd13ifvqghg","pricing_plan_id":"cebpf4jnsgd1na2vs0mg"},{"bike_id":"6ee7d7f8-5f69-42ca-b9fc-7a5fff9996af","system_id":"levelo_inurba_marseille","lat":43.27907,"lon":5.37992,"is_reserved":false,"is_disabled":false,"rental_uris":{"android":"levelo://app?vid=6ee7d7f8-5f69-42ca-b9fc-7a5fff9996af","ios":"levelo://app?vid=6ee7d7f8-5f69-42ca-b9fc-7a5fff9996af"},"vehicle_type_id":"4","last_reported":1734944976,"current_range_meters":38800,"station_id":"ce4bhf92rcd13ifvqf50","pricing_plan_id":"cebpf4jnsgd1na2vs0mg"},{"bike_id":"9a149b2b-b12e-44b8-a774-9c8464bdb92c","system_id":"levelo_inurba_marseille","lat":43.28431,"lon":5.39182,"is_reserved":false,"is_disabled":false,"rental_uris":{"android":"levelo://app?vid=9a149b2b-b12e-44b8-a774-9c8464bdb92c","ios":"levelo://app?vid=9a149b2b-b12e-44b8-a774-9c8464bdb92c"},"vehicle_type_id":"4","last_reported":1734944976,"current_range_meters":39200,"station_id":"ce4bhoh2rcd13ifvqh5g","pricing_plan_id":"cebpf4jnsgd1na2vs0mg"},{"bike_id":"e82b34cf-6ab8-4c24-9733-0bec0f5d6239","system_id":"levelo_inurba_marseille","lat":43.30461,"lon":5.37915,"is_reserved":false,"is_disabled":false,"rental_uris":{"android":"levelo://app?vid=e82b34cf-6ab8-4c24-9733-0bec0f5d6239","ios":"levelo://app?vid=e82b34cf-6ab8-4c24-9733-0bec0f5d6239"},"vehicle_type_id":"4","last_reported":1734944976,"current_range_meters":22400,"station_id":"ce4bgup2rcd13ifvqcn0","pricing_plan_id":"cebpf4jnsgd1na2vs0mg"},{"bike_id":"566f5cf2-e4ef-4698-bcb0-3321455fd423","system_id":"levelo_inurba_marseille","lat":43.30889,"lon":5.37178,"is_reserved":false,"is_disabled":false,"rental_uris":{"android":"levelo://app?vid=566f5cf2-e4ef-4698-bcb0-3321455fd423","ios":"levelo://app?vid=566f5cf2-e4ef-4698-bcb0-3321455fd423"},"vehicle_type_id":"4","last_reported":1734944976,"current_range_meters":29600,"station_id":"ce4bguh2rcd13ifvqckg","pricing_plan_id":"cebpf4jnsgd1na2vs0mg"},{"bike_id":"c13a7413-a260-44fd-85a3-ce8c2ef0f5e8","system_id":"levelo_inurba_marseille","lat":43.33731,"lon":5.39181,"is_reserved":false,"is_disabled":false,"rental_uris":{"android":"levelo://app?vid=c13a7413-a260-44fd-85a3-ce8c2ef0f5e8","ios":"levelo://app?vid=c13a7413-a260-44fd-85a3-ce8c2ef0f5e8"},"vehicle_type_id":"4","last_reported":1734944976,"current_range_meters":37600,"station_id":"ce4bhr92rcd13ifvqhsg","pricing_plan_id":"cebpf4jnsgd1na2vs0mg"},{"bike_id":"cd373cda-cec3-416e-8cc5-6e47537ef3e5","system_id":"levelo_inurba_marseille","lat":43.30911,"lon":5.36845,"is_reserved":false,"is_disabled":false,"rental_uris":{"android":"levelo://app?vid=cd373cda-cec3-416e-8cc5-6e47537ef3e5","ios":"levelo://app?vid=cd373cda-cec3-416e-8cc5-6e47537ef3e5"},"vehicle_type_id":"4","last_reported":1734944976,"current_range_meters":38800,"station_id":"ce4bgn92rcd13ifvqbvg","pricing_plan_id":"cebpf4jnsgd1na2vs0mg"},{"bike_id":"1fbc2411-62e1-47f8-ab8b-1b2422cad3cd","system_id":"levelo_inurba_marseille","lat":43.29163,"lon":5.37163,"is_reserved":false,"is_disabled":false,"rental_uris":{"android":"levelo://app?vid=1fbc2411-62e1-47f8-ab8b-1b2422cad3cd","ios":"levelo://app?vid=1fbc2411-62e1-47f8-ab8b-1b2422cad3cd"},"vehicle_type_id":"4","last_reported":1734944976,"current_range_meters":38800,"station_id":"ce4bha92rcd13ifvqeh0","pricing_plan_id":"cebpf4jnsgd1na2vs0mg"},{"bike_id":"5ccf2ec0-267c-42e2-95b9-0f62ea4d8baa","system_id":"levelo_inurba_marseille","lat":43.31751,"lon":5.39019,"is_reserved":false,"is_disabled":false,"rental_uris":{"android":"levelo://app?vid=5ccf2ec0-267c-42e2-95b9-0f62ea4d8baa","ios":"levelo://app?vid=5ccf2ec0-267c-42e2-95b9-0f62ea4d8baa"},"vehicle_type_id":"4","last_reported":1734944976,"current_range_meters":4400,"station_id":"ce4bhqp2rcd13ifvqhng","pricing_plan_id":"cebpf4jnsgd1na2vs0mg"},{"bike_id":"dac94ecf-3203-4c89-acc0-21c14e979588","system_id":"levelo_inurba_marseille","lat":43.26686,"lon":5.38273,"is_reserved":false,"is_disabled":false,"rental_uris":{"android":"levelo://app?vid=dac94ecf-3203-4c89-acc0-21c14e979588","ios":"levelo://app?vid=dac94ecf-3203-4c89-acc0-21c14e979588"},"vehicle_type_id":"4","last_reported":1734944976,"current_range_meters":22800,"station_id":"ce4bhg92rcd13ifvqf90","pricing_plan_id":"cebpf4jnsgd1na2vs0mg"},{"bike_id":"7a90d79c-efb7-473f-8f60-a6e952fac037","system_id":"levelo_inurba_marseille","lat":43.305338,"lon":5.365426,"is_reserved":false,"is_disabled":false,"rental_uris":{"android":"levelo://app?vid=7a90d79c-efb7-473f-8f60-a6e952fac037","ios":"levelo://app?vid=7a90d79c-efb7-473f-8f60-a6e952fac037"},"vehicle_type_id":"4","last_reported":1734944976,"current_range_meters":30400,"station_id":"ce4bgs12rcd13ifvqcag","pricing_plan_id":"cebpf4jnsgd1na2vs0mg"},{"bike_id":"990ebefd-6b2a-4210-8818-ddb901b1a87f","system_id":"levelo_inurba_marseille","lat":43.25716,"lon":5.41105,"is_reserved":false,"is_disabled":false,"rental_uris":{"android":"levelo://app?vid=990ebefd-6b2a-4210-8818-ddb901b1a87f","ios":"levelo://app?vid=990ebefd-6b2a-4210-8818-ddb901b1a87f"},"vehicle_type_id":"4","last_reported":1734944976,"current_range_meters":31200,"station_id":"ce4bhkp2rcd13ifvqgd0","pricing_plan_id":"cebpf4jnsgd1na2vs0mg"},{"bike_id":"41b3b17a-a3c9-4e41-9947-0409f1be0905","system_id":"levelo_inurba_marseille","lat":43.33731,"lon":5.39175,"is_reserved":false,"is_disabled":false,"rental_uris":{"android":"levelo://app?vid=41b3b17a-a3c9-4e41-9947-0409f1be0905","ios":"levelo://app?vid=41b3b17a-a3c9-4e41-9947-0409f1be0905"},"vehicle_type_id":"4","last_reported":1734944976,"current_range_meters":38000,"station_id":"ce4bhr92rcd13ifvqhsg","pricing_plan_id":"cebpf4jnsgd1na2vs0mg"},{"bike_id":"85a77aca-42e3-4258-84b5-d443d80cb96b","system_id":"levelo_inurba_marseille","lat":43.24067,"lon":5.37755,"is_reserved":false,"is_disabled":false,"rental_uris":{"android":"levelo://app?vid=85a77aca-42e3-4258-84b5-d443d80cb96b","ios":"levelo://app?vid=85a77aca-42e3-4258-84b5-d443d80cb96b"},"vehicle_type_id":"4","last_reported":1734944976,"current_range_meters":38400,"station_id":"ce4bhnp2rcd13ifvqgvg","pricing_plan_id":"cebpf4jnsgd1na2vs0mg"},{"bike_id":"fcaa428f-5b81-4cef-aa5d-f496099afa0b","system_id":"levelo_inurba_marseille","lat":43.30536,"lon":5.36519,"is_reserved":false,"is_disabled":false,"rental_uris":{"android":"levelo://app?vid=fcaa428f-5b81-4cef-aa5d-f496099afa0b","ios":"levelo://app?vid=fcaa428f-5b81-4cef-aa5d-f496099afa0b"},"vehicle_type_id":"4","last_reported":1734944976,"current_range_meters":30800,"station_id":"ce4bgs12rcd13ifvqcag","pricing_plan_id":"cebpf4jnsgd1na2vs0mg"},{"bike_id":"f49f2065-63f7-48f9-a133-99400e9cec56","system_id":"levelo_inurba_marseille","lat":43.30806,"lon":5.38148,"is_reserved":false,"is_disabled":false,"rental_uris":{"android":"levelo://app?vid=f49f2065-63f7-48f9-a133-99400e9cec56","ios":"levelo://app?vid=f49f2065-63f7-48f9-a133-99400e9cec56"},"vehicle_type_id":"4","last_reported":1734944976,"current_range_meters":37600,"station_id":"ce4bgt12rcd13ifvqce0","pricing_plan_id":"cebpf4jnsgd1na2vs0mg"},{"bike_id":"0c70c65f-0918-4002-b4f0-9ea267468017","system_id":"levelo_inurba_marseille","lat":43.29702,"lon":5.36575,"is_reserved":false,"is_disabled":false,"rental_uris":{"android":"levelo://app?vid=0c70c65f-0918-4002-b4f0-9ea267468017","ios":"levelo://app?vid=0c70c65f-0918-4002-b4f0-9ea267468017"},"vehicle_type_id":"4","last_reported":1734944976,"current_range_meters":30800,"station_id":"ce4bgn12rcd13ifvqbt0","pricing_plan_id":"cebpf4jnsgd1na2vs0mg"},{"bike_id":"aeb21815-fda5-4673-a326-4fbe39a203b0","system_id":"levelo_inurba_marseille","lat":43.32481,"lon":5.36563,"is_reserved":false,"is_disabled":false,"rental_uris":{"android":"levelo://app?vid=aeb21815-fda5-4673-a326-4fbe39a203b0","ios":"levelo://app?vid=aeb21815-fda5-4673-a326-4fbe39a203b0"},"vehicle_type_id":"4","last_reported":1734944976,"current_range_meters":10800,"station_id":"ce4bhs12rcd13ifvqhvg","pricing_plan_id":"cebpf4jnsgd1na2vs0mg"},{"bike_id":"dd7bc593-5dd1-4f32-a997-f04f17fe8722","system_id":"levelo_inurba_marseille","lat":43.32332,"lon":5.40619,"is_reserved":false,"is_disabled":false,"rental_uris":{"android":"levelo://app?vid=dd7bc593-5dd1-4f32-a997-f04f17fe8722","ios":"levelo://app?vid=dd7bc593-5dd1-4f32-a997-f04f17fe8722"},"vehicle_type_id":"4","last_reported":1734944976,"current_range_meters":38800,"station_id":"ce4bhq92rcd13ifvqhjg","pricing_plan_id":"cebpf4jnsgd1na2vs0mg"},{"bike_id":"f6c1aaf0-43f9-4bfc-8eeb-4f4fc3a3e816","system_id":"levelo_inurba_marseille","lat":43.29364,"lon":5.3785,"is_reserved":false,"is_disabled":false,"rental_uris":{"android":"levelo://app?vid=f6c1aaf0-43f9-4bfc-8eeb-4f4fc3a3e816","ios":"levelo://app?vid=f6c1aaf0-43f9-4bfc-8eeb-4f4fc3a3e816"},"vehicle_type_id":"4","last_reported":1734944976,"current_range_meters":38800,"station_id":"ce4bgjh2rcd13ifvqbf0","pricing_plan_id":"cebpf4jnsgd1na2vs0mg"},{"bike_id":"e353d62c-c5ff-4f13-94a9-2d54b9fdbe08","system_id":"levelo_inurba_marseille","lat":43.288463,"lon":5.358413,"is_reserved":false,"is_disabled":true,"rental_uris":{"android":"levelo://app?vid=e353d62c-c5ff-4f13-94a9-2d54b9fdbe08","ios":"levelo://app?vid=e353d62c-c5ff-4f13-94a9-2d54b9fdbe08"},"vehicle_type_id":"4","last_reported":1734944976,"current_range_meters":0,"station_id":"ce4bhb12rcd13ifvqem0","pricing_plan_id":"cebpf4jnsgd1na2vs0mg"},{"bike_id":"88cfebe8-3088-46c4-b250-d1b75923a432","system_id":"levelo_inurba_marseille","lat":43.24688,"lon":5.38159,"is_reserved":false,"is_disabled":false,"rental_uris":{"android":"levelo://app?vid=88cfebe8-3088-46c4-b250-d1b75923a432","ios":"levelo://app?vid=88cfebe8-3088-46c4-b250-d1b75923a432"},"vehicle_type_id":"4","last_reported":1734944976,"current_range_meters":36000,"station_id":"ce4bhih2rcd13ifvqfr0","pricing_plan_id":"cebpf4jnsgd1na2vs0mg"},{"bike_id":"085f67b0-44f2-4732-999e-5d735b9a7008","system_id":"levelo_inurba_marseille","lat":43.27376,"lon":5.36247,"is_reserved":false,"is_disabled":false,"rental_uris":{"android":"levelo://app?vid=085f67b0-44f2-4732-999e-5d735b9a7008","ios":"levelo://app?vid=085f67b0-44f2-4732-999e-5d735b9a7008"},"vehicle_type_id":"4","last_reported":1734944976,"current_range_meters":33200,"station_id":"ce4bhbh2rcd13ifvqeo0","pricing_plan_id":"cebpf4jnsgd1na2vs0mg"},{"bike_id":"826f30f8-361a-44e5-9754-a7633a3dca76","system_id":"levelo_inurba_marseille","lat":43.26234,"lon":5.40248,"is_reserved":false,"is_disabled":true,"rental_uris":{"android":"levelo://app?vid=826f30f8-361a-44e5-9754-a7633a3dca76","ios":"levelo://app?vid=826f30f8-361a-44e5-9754-a7633a3dca76"},"vehicle_type_id":"4","last_reported":1734944976,"current_range_meters":31200,"station_id":"","pricing_plan_id":"cebpf4jnsgd1na2vs0mg"},{"bike_id":"d8516e49-9f1e-434a-acf9-21daae4231b2","system_id":"levelo_inurba_marseille","lat":43.29529,"lon":5.37497,"is_reserved":false,"is_disabled":false,"rental_uris":{"android":"levelo://app?vid=d8516e49-9f1e-434a-acf9-21daae4231b2","ios":"levelo://app?vid=d8516e49-9f1e-434a-acf9-21daae4231b2"},"vehicle_type_id":"4","last_reported":1734944976,"current_range_meters":32000,"station_id":"ce4bgkp2rcd13ifvqbmg","pricing_plan_id":"cebpf4jnsgd1na2vs0mg"},{"bike_id":"776a6173-20af-419e-be93-6a6546f91e60","system_id":"levelo_inurba_marseille","lat":43.31732,"lon":5.37777,"is_reserved":false,"is_disabled":true,"rental_uris":{"android":"levelo://app?vid=776a6173-20af-419e-be93-6a6546f91e60","ios":"levelo://app?vid=776a6173-20af-419e-be93-6a6546f91e60"},"vehicle_type_id":"4","last_reported":1734944976,"current_range_meters":38800,"station_id":"ce4bgth2rcd13ifvqch0","pricing_plan_id":"cebpf4jnsgd1na2vs0mg"},{"bike_id":"327ac0ad-8301-4368-83e0-2233c29e1bd3","system_id":"levelo_inurba_marseille","lat":43.24796,"lon":5.39942,"is_reserved":false,"is_disabled":false,"rental_uris":{"android":"levelo://app?vid=327ac0ad-8301-4368-83e0-2233c29e1bd3","ios":"levelo://app?vid=327ac0ad-8301-4368-83e0-2233c29e1bd3"},"vehicle_type_id":"4","last_reported":1734944976,"current_range_meters":33600,"station_id":"","pricing_plan_id":"cebpf4jnsgd1na2vs0mg"},{"bike_id":"a37c10b7-1da8-4cc6-b0f3-2a310cde69cc","system_id":"levelo_inurba_marseille","lat":43.29527,"lon":5.39023,"is_reserved":false,"is_disabled":true,"rental_uris":{"android":"levelo://app?vid=a37c10b7-1da8-4cc6-b0f3-2a310cde69cc","ios":"levelo://app?vid=a37c10b7-1da8-4cc6-b0f3-2a310cde69cc"},"vehicle_type_id":"4","last_reported":1734944976,"current_range_meters":24400,"station_id":"ce4bh3p2rcd13ifvqdp0","pricing_plan_id":"cebpf4jnsgd1na2vs0mg"},{"bike_id":"d1853d76-78cf-466d-9558-f0792250c702","system_id":"levelo_inurba_marseille","lat":43.33815,"lon":5.37432,"is_reserved":false,"is_disabled":false,"rental_uris":{"android":"levelo://app?vid=d1853d76-78cf-466d-9558-f0792250c702","ios":"levelo://app?vid=d1853d76-78cf-466d-9558-f0792250c702"},"vehicle_type_id":"4","last_reported":1734944976,"current_range_meters":20800,"station_id":"","pricing_plan_id":"cebpf4jnsgd1na2vs0mg"},{"bike_id":"95546b90-2fc2-4976-99a5-9b6a7d41750a","system_id":"levelo_inurba_marseille","lat":43.24666,"lon":5.38163,"is_reserved":false,"is_disabled":false,"rental_uris":{"android":"levelo://app?vid=95546b90-2fc2-4976-99a5-9b6a7d41750a","ios":"levelo://app?vid=95546b90-2fc2-4976-99a5-9b6a7d41750a"},"vehicle_type_id":"4","last_reported":1734944976,"current_range_meters":39200,"station_id":"ce4bhih2rcd13ifvqfr0","pricing_plan_id":"cebpf4jnsgd1na2vs0mg"},{"bike_id":"8748b527-011a-44e2-b7fd-54ba8b4e0814","system_id":"levelo_inurba_marseille","lat":43.22935,"lon":5.35371,"is_reserved":false,"is_disabled":false,"rental_uris":{"android":"levelo://app?vid=8748b527-011a-44e2-b7fd-54ba8b4e0814","ios":"levelo://app?vid=8748b527-011a-44e2-b7fd-54ba8b4e0814"},"vehicle_type_id":"4","last_reported":1734944976,"current_range_meters":29600,"station_id":"cpo3532slgdg3j2ikp40","pricing_plan_id":"cebpf4jnsgd1na2vs0mg"},{"bike_id":"17bf19a7-8371-47ad-b306-e3bf978cd395","system_id":"levelo_inurba_marseille","lat":43.28418,"lon":5.349893,"is_reserved":false,"is_disabled":false,"rental_uris":{"android":"levelo://app?vid=17bf19a7-8371-47ad-b306-e3bf978cd395","ios":"levelo://app?vid=17bf19a7-8371-47ad-b306-e3bf978cd395"},"vehicle_type_id":"4","last_reported":1734944976,"current_range_meters":33200,"station_id":"ce4bhbh2rcd13ifvqepg","pricing_plan_id":"cebpf4jnsgd1na2vs0mg"},