{"last_updated":1751094593,"ttl":60,"version":"2.2","data":{"bikes":[{"bike_id":"3da29fb8-fc97-44c6-b9ac-31dd456b2fd4","system_id":"levelo_inurba_marseille","lat":43.33771,"lon":5.37424,"is_reserved":false,"is_disabled":true,"rental_uris":{"android":"levelo://app?vid=3da29fb8-fc97-44c6-b9ac-31dd456b2fd4","ios":"levelo://app?vid=3da29fb8-fc97-44c6-b9ac-31dd456b2fd4"},"vehicle_type_id":"4","last_reported":1751094594,"current_range_meters":0,"station_id":"","pricing_plan_id":"cebpf4jnsgd1na2vs0mg"},{"bike_id":"01861ad8-a8d7-4be6-816e-651927c87584","system_id":"levelo_inurba_marseille","lat":43.33751,"lon":5.37456,"is_reserved":false,"is_disabled":true,"rental_uris":{"android":"levelo://app?vid=01861ad8-a8d7-4be6-816e-651927c87584","ios":"levelo://app?vid=01861ad8-a8d7-4be6-816e-651927c87584"},"vehicle_type_id":"4","last_reported":1751094594,"current_range_meters":0,"station_id":"","pricing_plan_id":"cebpf4jnsgd1na2vs0mg"},{"bike_id":"2c5ab5ef-6e3c-47bf-9405-4e96ff645858","system_id":"levelo_inurba_marseille","lat":43.340387,"lon":5.428989,"is_reserved":false,"is_disabled":true,"rental_uris":{"android":"levelo://app?vid=2c5ab5ef-6e3c-47bf-9405-4e96ff645858","ios":"levelo://app?vid=2c5ab5ef-6e3c-47bf-9405-4e96ff645858"},"vehicle_type_id":"4","last_reported":1751094594,"current_range_meters":0,"station_id":"","pricing_plan_id":"cebpf4jnsgd1na2vs0mg"},{"bike_id":"77673b0f-fa8d-4a5f-802e-e3125964cb45","system_id":"levelo_inurba_marseille","lat":43.331003,"lon":5.364961,"is_reserved":false,"is_disabled":true,"rental_uris":{"android":"levelo://app?vid=77673b0f-fa8d-4a5f-802e-e3125964cb45","ios":"levelo://app?vid=77673b0f-fa8d-4a5f-802e-e3125964cb45"},"vehicle_type_id":"4","last_reported":1751094594,"current_range_meters":0,"station_id":"","pricing_plan_id":"cebpf4jnsgd1na2vs0mg"},{"bike_id":"913e64d8-dc37-43f3-b393-04b1bad561d0","system_id":"levelo_inurba_marseille","lat":43.30317,"lon":5.39203,"is_reserved":false,"is_disabled":true,"rental_uris":{"android":"levelo://app?vid=913e64d8-dc37-43f3-b393-04b1bad561d0","ios":"levelo://app?vid=913e64d8-dc37-43f3-b393-04b1bad561d0"},"vehicle_type_id":"4","last_reported":1751094594,"current_range_meters":0,"station_id":"ce4bgkh2rcd13ifvqbk0","pricing_plan_id":"cebpf4jnsgd1na2vs0mg"},{"bike_id":"29ec4185-f87e-45a2-91e6-759a1d934b1c","system_id":"levelo_inurba_marseille","lat":43.21739,"lon":5.34598,"is_reserved":false,"is_disabled":true,"rental_uris":{"android":"levelo://app?vid=29ec4185-f87e-45a2-91e6-759a1d934b1c","ios":"levelo://app?vid=29ec4185-f87e-45a2-91e6-759a1d934b1c"},"vehicle_type_id":"4","last_reported":1751094594,"current_range_meters":0,"station_id":"st_cvj6r9ubvosntc0bgbag","pricing_plan_id":"cebpf4jnsgd1na2vs0mg"},{"bike_id":"94a3f830-928d-41b3-9302-d9939615052d","system_id":"levelo_inurba_marseille","lat":43.30174,"lon":5.38071,"is_reserved":false,"is_disabled":true,"rental_uris":{"android":"levelo://app?vid=94a3f830-928d-41b3-9302-d9939615052d","ios":"levelo://app?vid=94a3f830-928d-41b3-9302-d9939615052d"},"vehicle_type_id":"4","last_reported":1751094594,"current_range_meters":400,"station_id":"ce4bgjp2rcd13ifvqbh0","pricing_plan_id":"cebpf4jnsgd1na2vs0mg"},{"bike_id":"a0aa7f48-2c07-453d-845a-eaeace62b973","system_id":"levelo_inurba_marseille","lat":43.311243,"lon":5.377721,"is_reserved":false,"is_disabled":true,"rental_uris":{"android":"levelo://app?vid=a0aa7f48-2c07-453d-845a-eaeace62b973","ios":"levelo://app?vid=a0aa7f48-2c07-453d-845a-eaeace62b973"},"vehicle_type_id":"4","last_reported":1751094594,"current_range_meters":800,"station_id":"ce4bgt92rcd13ifvqcg0","pricing_plan_id":"cebpf4jnsgd1na2vs0mg"},{"bike_id":"92d3bb11-4cf3-47e6-bc0f-ff80eea58ad1","system_id":"levelo_inurba_marseille","lat":43.30383,"lon":5.42491,"is_reserved":false,"is_disabled":true,"rental_uris":{"android":"levelo://app?vid=92d3bb11-4cf3-47e6-bc0f-ff80eea58ad1","ios":"levelo://app?vid=92d3bb11-4cf3-47e6-bc0f-ff80eea58ad1"},"vehicle_type_id":"4","last_reported":1751094594,"current_range_meters":1200,"station_id":"ce4bhoh2rcd13ifvqh6g","pricing_plan_id":"cebpf4jnsgd1na2vs0mg"},{"bike_id":"f47876d7-9c85-474e-92c5-7a242e08b67c","system_id":"levelo_inurba_marseille","lat":43.30572,"lon":5.37519,"is_reserved":false,"is_disabled":true,"rental_uris":{"android":"levelo://app?vid=f47876d7-9c85-474e-92c5-7a242e08b67c","ios":"levelo://app?vid=f47876d7-9c85-474e-92c5-7a242e08b67c"},"vehicle_type_id":"4","last_reported":1751094594,"current_range_meters":2000,"station_id":"","pricing_plan_id":"cebpf4jnsgd1na2vs0mg"},{"bike_id":"74e505e0-3a5d-4e22-99eb-be24c90afaaf","system_id":"levelo_inurba_marseille","lat":43.30492,"lon":5.37921,"is_reserved":false,"is_disabled":false,"rental_uris":{"android":"levelo://app?vid=74e505e0-3a5d-4e22-99eb-be24c90afaaf","ios":"levelo://app?vid=74e505e0-3a5d-4e22-99eb-be24c90afaaf"},"vehicle_type_id":"4","last_reported":1751094594,"current_range_meters":3200,"station_id":"ce4bgup2rcd13ifvqcn0","pricing_plan_id":"cebpf4jnsgd1na2vs0mg"},{"bike_id":"288db955-e2ec-4513-8356-4cb73119337f","system_id":"levelo_inurba_marseille","lat":43.29868,"lon":5.39736,"is_reserved":false,"is_disabled":false,"rental_uris":{"android":"levelo://app?vid=288db955-e2ec-4513-8356-4cb73119337f","ios":"levelo://app?vid=288db955-e2ec-4513-8356-4cb73119337f"},"vehicle_type_id":"4","last_reported":1751094594,"current_range_meters":3200,"station_id":"ce4bh0h2rcd13ifvqd50","pricing_plan_id":"cebpf4jnsgd1na2vs0mg"},{"bike_id":"e85e9c87-eaf9-499b-8ff1-063e66d35a2c","system_id":"levelo_inurba_marseille","lat":43.30777,"lon":5.37641,"is_reserved":false,"is_disabled":false,"rental_uris":{"android":"levelo://app?vid=e85e9c87-eaf9-499b-8ff1-063e66d35a2c","ios":"levelo://app?vid=e85e9c87-eaf9-499b-8ff1-063e66d35a2c"},"vehicle_type_id":"4","last_reported":1751094594,"current_range_meters":4000,"station_id":"ce4bgv92rcd13ifvqcq0","pricing_plan_id":"cebpf4jnsgd1na2vs0mg"},{"bike_id":"472420f0-8103-49ec-a2d2-2745c024f2c0","system_id":"levelo_inurba_marseille","lat":43.25817,"lon":5.39443,"is_reserved":false,"is_disabled":false,"rental_uris":{"android":"levelo://app?vid=472420f0-8103-49ec-a2d2-2745c024f2c0","ios":"levelo://app?vid=472420f0-8103-49ec-a2d2-2745c024f2c0"},"vehicle_type_id":"4","last_reported":1751094594,"current_range_meters":4000,"station_id":"ce4bhip2rcd13ifvqft0","pricing_plan_id":"cebpf4jnsgd1na2vs0mg"},{"bike_id":"e69593c0-4b3b-4dc4-90c2-b828632bc7e2","system_id":"levelo_inurba_marseille","lat":43.28411,"lon":5.37522,"is_reserved":false,"is_disabled":false,"rental_uris":{"android":"levelo://app?vid=e69593c0-4b3b-4dc4-90c2-b828632bc7e2","ios":"levelo://app?vid=e69593c0-4b3b-4dc4-90c2-b828632bc7e2"},"vehicle_type_id":"4","last_reported":1751094594,"current_range_meters":4400,"station_id":"ce4bh412rcd13ifvqds0","pricing_plan_id":"cebpf4jnsgd1na2vs0mg"},{"bike_id":"58feb9a6-75a3-430e-a98e-43bd2c6a17d9","system_id":"levelo_inurba_marseille","lat":43.292958,"lon":5.3722,"is_reserved":false,"is_disabled":false,"rental_uris":{"android":"levelo://app?vid=58feb9a6-75a3-430e-a98e-43bd2c6a17d9","ios":"levelo://app?vid=58feb9a6-75a3-430e-a98e-43bd2c6a17d9"},"vehicle_type_id":"4","last_reported":1751094594,"current_range_meters":4800,"station_id":"ce4bgh92rcd13ifvqb40","pricing_plan_id":"cebpf4jnsgd1na2vs0mg"},{"bike_id":"94e84186-d780-461a-b647-8d1cf3f036ad","system_id":"levelo_inurba_marseille","lat":43.3173,"lon":5.37776,"is_reserved":false,"is_disabled":false,"rental_uris":{"android":"levelo://app?vid=94e84186-d780-461a-b647-8d1cf3f036ad","ios":"levelo://app?vid=94e84186-d780-461a-b647-8d1cf3f036ad"},"vehicle_type_id":"4","last_reported":1751094594,"current_range_meters":4800,"station_id":"ce4bgth2rcd13ifvqch0","pricing_plan_id":"cebpf4jnsgd1na2vs0mg"},{"bike_id":"c99f12ec-b2f2-4eca-bc3c-bf7f31e3d76b","system_id":"levelo_inurba_marseille","lat":43.29875,"lon":5.39723,"is_reserved":false,"is_disabled":false,"rental_uris":{"android":"levelo://app?vid=c99f12ec-b2f2-4eca-bc3c-bf7f31e3d76b","ios":"levelo://app?vid=c99f12ec-b2f2-4eca-bc3c-bf7f31e3d76b"},"vehicle_type_id":"4","last_reported":1751094594,"current_range_meters":5600,"station_id":"ce4bh0h2rcd13ifvqd50","pricing_plan_id":"cebpf4jnsgd1na2vs0mg"},{"bike_id":"dc13ebea-27c3-41b6-9c8a-96ca11c59cbf","system_id":"levelo_inurba_marseille","lat":43.29276,"lon":5.40917,"is_reserved":false,"is_disabled":false,"rental_uris":{"android":"levelo://app?vid=dc13ebea-27c3-41b6-9c8a-96ca11c59cbf","ios":"levelo://app?vid=dc13ebea-27c3-41b6-9c8a-96ca11c59cbf"},"vehicle_type_id":"4","last_reported":1751094594,"current_range_meters":5600,"station_id":"ce4bh192rcd13ifvqdc0","pricing_plan_id":"cebpf4jnsgd1na2vs0mg"},{"bike_id":"3ce29ae7-b135-4cbf-af94-a974192a5e77","system_id":"levelo_inurba_marseille","lat":43.28102,"lon":5.37868,"is_reserved":false,"is_disabled":false,"rental_uris":{"android":"levelo://app?vid=3ce29ae7-b135-4cbf-af94-a974192a5e77","ios":"levelo://app?vid=3ce29ae7-b135-4cbf-af94-a974192a5e77"},"vehicle_type_id":"4","last_reported":1751094594,"current_range_meters":5600,"station_id":"ce4bha12rcd13ifvqee0","pricing_plan_id":"cebpf4jnsgd1na2vs0mg"},{"bike_id":"73a03650-973e-42b0-bad4-545481e15f73","system_id":"levelo_inurba_marseille","lat":43.312411,"lon":5.390588,"is_reserved":false,"is_disabled":false,"rental_uris":{"android":"levelo://app?vid=73a03650-973e-42b0-bad4-545481e15f73","ios":"levelo://app?vid=73a03650-973e-42b0-bad4-545481e15f73"},"vehicle_type_id":"4","last_reported":1751094594,"current_range_meters":6800,"station_id":"","pricing_plan_id":"cebpf4jnsgd1na2vs0mg"},{"bike_id":"dcea07ca-9323-4b9b-98f6-e1fc9b106559","system_id":"levelo_inurba_marseille","lat":43.30321,"lon":5.37633,"is_reserved":false,"is_disabled":false,"rental_uris":{"android":"levelo://app?vid=dcea07ca-9323-4b9b-98f6-e1fc9b106559","ios":"levelo://app?vid=dcea07ca-9323-4b9b-98f6-e1fc9b106559"},"vehicle_type_id":"4","last_reported":1751094594,"current_range_meters":6800,"station_id":"","pricing_plan_id":"cebpf4jnsgd1na2vs0mg"},{"bike_id":"4b8da722-ee9e-48a4-a5e5-3a8a10364708","system_id":"levelo_inurba_marseille","lat":43.312198,"lon":5.378215,"is_reserved":false,"is_disabled":false,"rental_uris":{"android":"levelo://app?vid=4b8da722-ee9e-48a4-a5e5-3a8a10364708","ios":"levelo://app?vid=4b8da722-ee9e-48a4-a5e5-3a8a10364708"},"vehicle_type_id":"4","last_reported":1751094594,"current_range_meters":7200,"station_id":"","pricing_plan_id":"cebpf4jnsgd1na2vs0mg"},{"bike_id":"13eeb800-f015-4177-9830-fa5520c66b43","system_id":"levelo_inurba_marseille","lat":43.28104,"lon":5.37844,"is_reserved":false,"is_disabled":false,"rental_uris":{"android":"levelo://app?vid=13eeb800-f015-4177-9830-fa5520c66b43","ios":"levelo://app?vid=13eeb800-f015-4177-9830-fa5520c66b43"},"vehicle_type_id":"4","last_reported":1751094594,"current_range_meters":7200,"station_id":"ce4bha12rcd13ifvqee0","pricing_plan_id":"cebpf4jnsgd1na2vs0mg"},{"bike_id":"7a92a51b-12db-41cc-98c0-2618d3831133","system_id":"levelo_inurba_marseille","lat":43.322923,"lon":5.382917,"is_reserved":false,"is_disabled":false,"rental_uris":{"android":"levelo://app?vid=7a92a51b-12db-41cc-98c0-2618d3831133","ios":"levelo://app?vid=7a92a51b-12db-41cc-98c0-2618d3831133"},"vehicle_type_id":"4","last_reported":1751094594,"current_range_meters":7200,"station_id":"ce4bhr12rcd13ifvqhqg","pricing_plan_id":"cebpf4jnsgd1na2vs0mg"},{"bike_id":"b7d0d8a1-c5dd-4278-8b3b-f5786872fe32","system_id":"levelo_inurba_marseille","lat":43.32126,"lon":5.36749,"is_reserved":false,"is_disabled":false,"rental_uris":{"android":"levelo://app?vid=b7d0d8a1-c5dd-4278-8b3b-f5786872fe32","ios":"levelo://app?vid=b7d0d8a1-c5dd-4278-8b3b-f5786872fe32"},"vehicle_type_id":"4","last_reported":1751094594,"current_range_meters":7200,"station_id":"ce4bhrh2rcd13ifvqhug","pricing_plan_id":"cebpf4jnsgd1na2vs0mg"},{"bike_id":"0e3c4545-23ac-400c-b613-5a7b70527fa4","system_id":"levelo_inurba_marseille","lat":43.279498,"lon":5.410399,"is_reserved":false,"is_disabled":false,"rental_uris":{"android":"levelo://app?vid=0e3c4545-23ac-400c-b613-5a7b70527fa4","ios":"levelo://app?vid=0e3c4545-23ac-400c-b613-5a7b70527fa4"},"vehicle_type_id":"4","last_reported":1751094594,"current_range_meters":8000,"station_id":"ce4bhnp2rcd13ifvqh0g","pricing_plan_id":"cebpf4jnsgd1na2vs0mg"},{"bike_id":"ee0962f1-2f0d-4cba-9adb-c698d6222e90","system_id":"levelo_inurba_marseille","lat":43.311707,"lon":5.387161,"is_reserved":false,"is_disabled":false,"rental_uris":{"android":"levelo://app?vid=ee0962f1-2f0d-4cba-9adb-c698d6222e90","ios":"levelo://app?vid=ee0962f1-2f0d-4cba-9adb-c698d6222e90"},"vehicle_type_id":"4","last_reported":1751094594,"current_range_meters":8400,"station_id":"ce4bgv12rcd13ifvqcp0","pricing_plan_id":"cebpf4jnsgd1na2vs0mg"},{"bike_id":"a440f2f6-8cf8-4348-9ba1-e21002a18a07","system_id":"levelo_inurba_marseille","lat":43.32119,"lon":5.36796,"is_reserved":false,"is_disabled":false,"rental_uris":{"android":"levelo://app?vid=a440f2f6-8cf8-4348-9ba1-e21002a18a07","ios":"levelo://app?vid=a440f2f6-8cf8-4348-9ba1-e21002a18a07"},"vehicle_type_id":"4","last_reported":1751094594,"current_range_meters":8400,"station_id":"ce4bhrh2rcd13ifvqhug","pricing_plan_id":"cebpf4jnsgd1na2vs0mg"},{"bike_id":"d93518a7-acea-49d1-8b1d-66917831e25a","system_id":"levelo_inurba_marseille","lat":43.28376,"lon":5.39569,"is_reserved":false,"is_disabled":false,"rental_uris":{"android":"levelo://app?vid=d93518a7-acea-49d1-8b1d-66917831e25a","ios":"levelo://app?vid=d93518a7-acea-49d1-8b1d-66917831e25a"},"vehicle_type_id":"4","last_reported":1751094594,"current_range_meters":8800,"station_id":"","pricing_plan_id":"cebpf4jnsgd1na2vs0mg"},{"bike_id":"9f3ed873-0c75-4c31-9e76-b76ade6b18ef","system_id":"levelo_inurba_marseille","lat":43.30922,"lon":5.40141,"is_reserved":false,"is_disabled":false,"rental_uris":{"android":"levelo://app?vid=9f3ed873-0c75-4c31-9e76-b76ade6b18ef","ios":"levelo://app?vid=9f3ed873-0c75-4c31-9e76-b76ade6b18ef"},"vehicle_type_id":"4","last_reported":1751094594,"current_range_meters":8800,"station_id":"ce4bgvp2rcd13ifvqct0","pricing_plan_id":"cebpf4jnsgd1na2vs0mg"},{"bike_id":"f8b7b14b-dd4b-4643-98f4-b92c1b158d74","system_id":"levelo_inurba_marseille","lat":43.28922,"lon":5.39634,"is_reserved":false,"is_disabled":false,"rental_uris":{"android":"levelo://app?vid=f8b7b14b-dd4b-4643-98f4-b92c1b158d74","ios":"levelo://app?vid=f8b7b14b-dd4b-4643-98f4-b92c1b158d74"},"vehicle_type_id":"4","last_reported":1751094594,"current_range_meters":8800,"station_id":"ce4bh3h2rcd13ifvqdn0","pricing_plan_id":"cebpf4jnsgd1na2vs0mg"},{"bike_id":"fa977c68-8a3d-40da-a813-47f9d0b3b591","system_id":"levelo_inurba_marseille","lat":43.29375,"lon":5.37861,"is_reserved":false,"is_disabled":false,"rental_uris":{"android":"levelo://app?vid=fa977c68-8a3d-40da-a813-47f9d0b3b591","ios":"levelo://app?vid=fa977c68-8a3d-40da-a813-47f9d0b3b591"},"vehicle_type_id":"4","last_reported":1751094594,"current_range_meters":9200,"station_id":"ce4bgjh2rcd13ifvqbf0","pricing_plan_id":"cebpf4jnsgd1na2vs0mg"},{"bike_id":"a1efc803-1520-45fc-9e03-1f27beb25e3d","system_id":"levelo_inurba_marseille","lat":43.30671,"lon":5.40097,"is_reserved":false,"is_disabled":false,"rental_uris":{"android":"levelo://app?vid=a1efc803-1520-45fc-9e03-1f27beb25e3d","ios":"levelo://app?vid=a1efc803-1520-45fc-9e03-1f27beb25e3d"},"vehicle_type_id":"4","last_reported":1751094594,"current_range_meters":9200,"station_id":"ce4bh112rcd13ifvqda0","pricing_plan_id":"cebpf4jnsgd1na2vs0mg"},{"bike_id":"530805b6-b020-4449-9044-8c2804baabe5","system_id":"levelo_inurba_marseille","lat":43.28117,"lon":5.37856,"is_reserved":false,"is_disabled":false,"rental_uris":{"android":"levelo://app?vid=530805b6-b020-4449-9044-8c2804baabe5","ios":"levelo://app?vid=530805b6-b020-4449-9044-8c2804baabe5"},"vehicle_type_id":"4","last_reported":1751094594,"current_range_meters":9200,"station_id":"ce4bha12rcd13ifvqee0","pricing_plan_id":"cebpf4jnsgd1na2vs0mg"},{"bike_id":"cd1bc6c1-6b6c-49cc-81a7-97fdf0f3a681","system_id":"levelo_inurba_marseille","lat":43.24063,"lon":5.37754,"is_reserved":false,"is_disabled":false,"rental_uris":{"android":"levelo://app?vid=cd1bc6c1-6b6c-49cc-81a7-97fdf0f3a681","ios":"levelo://app?vid=cd1bc6c1-6b6c-49cc-81a7-97fdf0f3a681"},"vehicle_type_id":"4","last_reported":1751094594,"current_range_meters":9200,"station_id":"ce4bhnp2rcd13ifvqgvg","pricing_plan_id":"cebpf4jnsgd1na2vs0mg"},{"bike_id":"1c8ab180-05fd-405f-9922-b2b2c2d5142f","system_id":"levelo_inurba_marseille","lat":43.321096,"lon":5.3677,"is_reserved":false,"is_disabled":false,"rental_uris":{"android":"levelo://app?vid=1c8ab180-05fd-405f-9922-b2b2c2d5142f","ios":"levelo://app?vid=1c8ab180-05fd-405f-9922-b2b2c2d5142f"},"vehicle_type_id":"4","last_reported":1751094594,"current_range_meters":9200,"station_id":"ce4bhrh2rcd13ifvqhug","pricing_plan_id":"cebpf4jnsgd1na2vs0mg"},{"bike_id":"5d5e13a4-10cc-485c-a362-06d02242e666","system_id":"levelo_inurba_marseille","lat":43.211906,"lon":5.350799,"is_reserved":false,"is_disabled":false,"rental_uris":{"android":"levelo://app?vid=5d5e13a4-10cc-485c-a362-06d02242e666","ios":"levelo://app?vid=5d5e13a4-10cc-485c-a362-06d02242e666"},"vehicle_type_id":"4","last_reported":1751094594,"current_range_meters":9200,"station_id":"st_cvj6sg6p6f1abm77japg","pricing_plan_id":"cebpf4jnsgd1na2vs0mg"},{"bike_id":"3e82f598-9d1d-4257-8afa-a4dc7305de09","system_id":"levelo_inurba_marseille","lat":43.21196,"lon":5.35071,"is_reserved":false,"is_disabled":false,"rental_uris":{"android":"levelo://app?vid=3e82f598-9d1d-4257-8afa-a4dc7305de09","ios":"levelo://app?vid=3e82f598-9d1d-4257-8afa-a4dc7305de09"},"vehicle_type_id":"4","last_reported":1751094594,"current_range_meters":9200,"station_id":"st_cvj6sg6p6f1abm77japg","pricing_plan_id":"cebpf4jnsgd1na2vs0mg"},{"bike_id":"5a01ae6d-9064-484c-8d77-2d9e141e2313","system_id":"levelo_inurba_marseille","lat":43.244846,"lon":5.39021,"is_reserved":false,"is_disabled":false,"rental_uris":{"android":"levelo://app?vid=5a01ae6d-9064-484c-8d77-2d9e141e2313","ios":"levelo://app?vid=5a01ae6d-9064-484c-8d77-2d9e141e2313"},"vehicle_type_id":"4","last_reported":1751094594,"current_range_meters":9600,"station_id":"","pricing_plan_id":"cebpf4jnsgd1na2vs0mg"},{"bike_id":"70b80a5f-fe30-4296-9fe6-9d49a76b6cf3","system_id":"levelo_inurba_marseille","lat":43.27823,"lon":5.41456,"is_reserved":false,"is_disabled":false,"rental_uris":{"android":"levelo://app?vid=70b80a5f-fe30-4296-9fe6-9d49a76b6cf3","ios":"levelo://app?vid=70b80a5f-fe30-4296-9fe6-9d49a76b6cf3"},"vehicle_type_id":"4","last_reported":1751094594,"current_range_meters":9600,"station_id":"","pricing_plan_id":"cebpf4jnsgd1na2vs0mg"},{"bike_id":"78c80fd3-64b3-4a78-a36b-8273408f1f43","system_id":"levelo_inurba_marseille","lat":43.30144,"lon":5.38071,"is_reserved":false,"is_disabled":false,"rental_uris":{"android":"levelo://app?vid=78c80fd3-64b3-4a78-a36b-8273408f1f43","ios":"levelo://app?vid=78c80fd3-64b3-4a78-a36b-8273408f1f43"},"vehicle_type_id":"4","last_reported":1751094594,"current_range_meters":9600,"station_id":"ce4bgjp2rcd13ifvqbh0","pricing_plan_id":"cebpf4jnsgd1na2vs0mg"},{"bike_id":"dad7f891-c3aa-461c-ac84-524bfe8ac636","system_id":"levelo_inurba_marseille","lat":43.30471,"lon":5.37906,"is_reserved":false,"is_disabled":false,"rental_uris":{"android":"levelo://app?vid=dad7f891-c3aa-461c-ac84-524bfe8ac636","ios":"levelo://app?vid=dad7f891-c3aa-461c-ac84-524bfe8ac636"},"vehicle_type_id":"4","last_reported":1751094594,"current_range_meters":9600,"station_id":"ce4bgup2rcd13ifvqcn0","pricing_plan_id":"cebpf4jnsgd1na2vs0mg"},{"bike_id":"2b75d8da-597f-4ca1-9ed9-fa0feca636f1","system_id":"levelo_inurba_marseille","lat":43.30946,"lon":5.40147,"is_reserved":false,"is_disabled":false,"rental_uris":{"android":"levelo://app?vid=2b75d8da-597f-4ca1-9ed9-fa0feca636f1","ios":"levelo://app?vid=2b75d8da-597f-4ca1-9ed9-fa0feca636f1"},"vehicle_type_id":"4","last_reported":1751094594,"current_range_meters":9600,"station_id":"ce4bgvp2rcd13ifvqct0","pricing_plan_id":"cebpf4jnsgd1na2vs0mg"},{"bike_id":"ae585140-2ebc-4e9e-9c6f-37fd3c7c898e","system_id":"levelo_inurba_marseille","lat":43.23179,"lon":5.3999,"is_reserved":false,"is_disabled":false,"rental_uris":{"android":"levelo://app?vid=ae585140-2ebc-4e9e-9c6f-37fd3c7c898e","ios":"levelo://app?vid=ae585140-2ebc-4e9e-9c6f-37fd3c7c898e"},"vehicle_type_id":"4","last_reported":1751094594,"current_range_meters":9600,"station_id":"ce4bhn12rcd13ifvqgqg","pricing_plan_id":"cebpf4jnsgd1na2vs0mg"},{"bike_id":"e14bed2b-62a4-4a48-b824-f7b6d3331ad9","system_id":"levelo_inurba_marseille","lat":43.2861,"lon":5.3707,"is_reserved":false,"is_disabled":false,"rental_uris":{"android":"levelo://app?vid=e14bed2b-62a4-4a48-b824-f7b6d3331ad9","ios":"levelo://app?vid=e14bed2b-62a4-4a48-b824-f7b6d3331ad9"},"vehicle_type_id":"4","last_reported":1751094594,"current_range_meters":9600,"station_id":"ce4bht12rcd13ifvqi60","pricing_plan_id":"cebpf4jnsgd1na2vs0mg"},{"bike_id":"4fd70823-7f50-409a-80c0-aa5ee76e2e20","system_id":"levelo_inurba_marseille","lat":43.306471,"lon":5.400793,"is_reserved":false,"is_disabled":false,"rental_uris":{"android":"levelo://app?vid=4fd70823-7f50-409a-80c0-aa5ee76e2e20","ios":"levelo://app?vid=4fd70823-7f50-409a-80c0-aa5ee76e2e20"},"vehicle_type_id":"4","last_reported":1751094594,"current_range_meters":10000,"station_id":"ce4bh112rcd13ifvqda0","pricing_plan_id":"cebpf4jnsgd1na2vs0mg"},{"bike_id":"06ee009d-fb3d-49c6-8a98-8a4efa61368d","system_id":"levelo_inurba_marseille","lat":43.28566,"lon":5.395131,"is_reserved":false,"is_disabled":false,"rental_uris":{"android":"levelo://app?vid=06ee009d-fb3d-49c6-8a98-8a4efa61368d","ios":"levelo://app?vid=06ee009d-fb3d-49c6-8a98-8a4efa61368d"},"vehicle_type_id":"4","last_reported":1751094594,"current_range_meters":10000,"station_id":"ce4bh292rcd13ifvqdg0","pricing_plan_id":"cebpf4jnsgd1na2vs0mg"},{"bike_id":"1422aae9-4428-4bc5-9f1e-88df6f664dde","system_id":"levelo_inurba_marseille","lat":43.247968,"lon":5.374612,"is_reserved":false,"is_disabled":false,"rental_uris":{"android":"levelo://app?vid=1422aae9-4428-4bc5-9f1e-88df6f664dde","ios":"levelo://app?vid=1422aae9-4428-4bc5-9f1e-88df6f664dde"},"vehicle_type_id":"4","last_reported":1751094594,"current_range_meters":10000,"station_id":"ce4bhgh2rcd13ifvqfb0","pricing_plan_id":"cebpf4jnsgd1na2vs0mg"},{"bike_id":"52404d38-61d8-462c-8e59-e83380c2aa57","system_id":"levelo_inurba_marseille","lat":43.28561,"lon":5.394948,"is_reserved":false,"is_disabled":false,"rental_uris":{"android":"levelo://app?vid=52404d38-61d8-462c-8e59-e83380c2aa57","ios":"levelo://app?vid=52404d38-61d8-462c-8e59-e83380c2aa57"},"vehicle_type_id":"4","last_reported":1751094594,"current_range_meters":10800,"station_id":"ce4bh292rcd13ifvqdg0","pricing_plan_id":"cebpf4jnsgd1na2vs0mg"},{"bike_id":"ea8aef64-b77d-45df-891c-526c816c3810","system_id":"levelo_inurba_marseille","lat":43.29212,"lon":5.35842,"is_reserved":false,"is_disabled":false,"rental_uris":{"android":"levelo://app?vid=ea8aef64-b77d-45df-891c-526c816c3810","ios":"levelo://app?vid=ea8aef64-b77d-45df-891c-526c816c3810"},"vehicle_type_id":"4","last_reported":1751094594,"current_range_meters":10800,"station_id":"ce4bhb12rcd13ifvqel0","pricing_plan_id":"cebpf4jnsgd1na2vs0mg"},{"bike_id":"d641659c-64fc-486a-91a2-3cc8072043e6","system_id":"levelo_inurba_marseille","lat":43.32118,"lon":5.36778,"is_reserved":false,"is_disabled":false,"rental_uris":{"android":"levelo://app?vid=d641659c-64fc-486a-91a2-3cc8072043e6","ios":"levelo://app?vid=d641659c-64fc-486a-91a2-3cc8072043e6"},"vehicle_type_id":"4","last_reported":1751094594,"current_range_meters":10800,"station_id":"ce4bhrh2rcd13ifvqhug","pricing_plan_id":"cebpf4jnsgd1na2vs0mg"},{"bike_id":"2a9a5366-8dad-42f1-bee6-ffb042c54776","system_id":"levelo_inurba_marseille","lat":43.21196,"lon":5.35089,"is_reserved":false,"is_disabled":false,"rental_uris":{"android":"levelo://app?vid=2a9a5366-8dad-42f1-bee6-ffb042c54776","ios":"levelo://app?vid=2a9a5366-8dad-42f1-bee6-ffb042c54776"},"vehicle_type_id":"4","last_reported":1751094594,"current_range_meters":10800,"station_id":"st_cvj6sg6p6f1abm77japg","pricing_plan_id":"cebpf4jnsgd1na2vs0mg"},{"bike_id":"f0057ca2-de2d-4464-8902-068dc3677e00","system_id":"levelo_inurba_marseille","lat":43.21192,"lon":5.350811,"is_reserved":false,"is_disabled":false,"rental_uris":{"android":"levelo://app?vid=f0057ca2-de2d-4464-8902-068dc3677e00","ios":"levelo://app?vid=f0057ca2-de2d-4464-8902-068dc3677e00"},"vehicle_type_id":"4","last_reported":1751094594,"current_range_meters":10800,"station_id":"st_cvj6sg6p6f1abm77japg","pricing_plan_id":"cebpf4jnsgd1na2vs0mg"},{"bike_id":"03bf2de9-e7e9-4523-9bf9-8ff0185e31f3","system_id":"levelo_inurba_marseille","lat":43.31076,"lon":5.38384,"is_reserved":false,"is_disabled":false,"rental_uris":{"android":"levelo://app?vid=03bf2de9-e7e9-4523-9bf9-8ff0185e31f3","ios":"levelo://app?vid=03bf2de9-e7e9-4523-9bf9-8ff0185e31f3"},"vehicle_type_id":"4","last_reported":1751094594,"current_range_meters":11200,"station_id":"ce4bgv92rcd13ifvqcr0","pricing_plan_id":"cebpf4jnsgd1na2vs0mg"},{"bike_id":"f9bc5838-6de1-4bee-a9e2-fb1c20e06dc5","system_id":"levelo_inurba_marseille","lat":43.285563,"lon":5.394998,"is_reserved":false,"is_disabled":false,"rental_uris":{"android":"levelo://app?vid=f9bc5838-6de1-4bee-a9e2-fb1c20e06dc5","ios":"levelo://app?vid=f9bc5838-6de1-4bee-a9e2-fb1c20e06dc5"},"vehicle_type_id":"4","last_reported":1751094594,"current_range_meters":11200,"station_id":"ce4bh292rcd13ifvqdg0","pricing_plan_id":"cebpf4jnsgd1na2vs0mg"},{"bike_id":"19dc3be5-f54e-42ad-85cb-87f2e08a1fb2","system_id":"levelo_inurba_marseille","lat":43.246841,"lon":5.381679,"is_reserved":false,"is_disabled":false,"rental_uris":{"android":"levelo://app?vid=19dc3be5-f54e-42ad-85cb-87f2e08a1fb2","ios":"levelo://app?vid=19dc3be5-f54e-42ad-85cb-87f2e08a1fb2"},"vehicle_type_id":"4","last_reported":1751094594,"current_range_meters":11200,"station_id":"ce4bhih2rcd13ifvqfr0","pricing_plan_id":"cebpf4jnsgd1na2vs0mg"},{"bike_id":"84cdea62-7b1d-4b1a-8f94-00854ad22848","system_id":"levelo_inurba_marseille","lat":43.271807,"lon":5.409877,"is_reserved":false,"is_disabled":false,"rental_uris":{"android":"levelo://app?vid=84cdea62-7b1d-4b1a-8f94-00854ad22848","ios":"levelo://app?vid=84cdea62-7b1d-4b1a-8f94-00854ad22848"},"vehicle_type_id":"4","last_reported":1751094594,"current_range_meters":11200,"station_id":"ce4bhl12rcd13ifvqgf0","pricing_plan_id":"cebpf4jnsgd1na2vs0mg"},{"bike_id":"2d10d829-aff1-4886-be29-26e16412203e","system_id":"levelo_inurba_marseille","lat":43.2593,"lon":5.40896,"is_reserved":false,"is_disabled":false,"rental_uris":{"android":"levelo://app?vid=2d10d829-aff1-4886-be29-26e16412203e","ios":"levelo://app?vid=2d10d829-aff1-4886-be29-26e16412203e"},"vehicle_type_id":"4","last_reported":1751094594,"current_range_meters":11200,"station_id":"ce4bhm92rcd13ifvqglg","pricing_plan_id":"cebpf4jnsgd1na2vs0mg"},{"bike_id":"6910b214-f4f8-4108-ba03-c3a5bc8e06b5","system_id":"levelo_inurba_marseille","lat":43.32287,"lon":5.382698,"is_reserved":false,"is_disabled":false,"rental_uris":{"android":"levelo://app?vid=6910b214-f4f8-4108-ba03-c3a5bc8e06b5","ios":"levelo://app?vid=6910b214-f4f8-4108-ba03-c3a5bc8e06b5"},"vehicle_type_id":"4","last_reported":1751094594,"current_range_meters":11200,"station_id":"ce4bhr12rcd13ifvqhqg","pricing_plan_id":"cebpf4jnsgd1na2vs0mg"},{"bike_id":"d5e70777-ad97-4594-91b6-43ede9611b14","system_id":"levelo_inurba_marseille","lat":43.321145,"lon":5.367715,"is_reserved":false,"is_disabled":false,"rental_uris":{"android":"levelo://app?vid=d5e70777-ad97-4594-91b6-43ede9611b14","ios":"levelo://app?vid=d5e70777-ad97-4594-91b6-43ede9611b14"},"vehicle_type_id":"4","last_reported":1751094594,"current_range_meters":11200,"station_id":"ce4bhrh2rcd13ifvqhug","pricing_plan_id":"cebpf4jnsgd1na2vs0mg"},{"bike_id":"7dfc5216-abd2-4eb0-aa98-27c7a95c769d","system_id":"levelo_inurba_marseille","lat":43.22933,"lon":5.35392,"is_reserved":false,"is_disabled":false,"rental_uris":{"android":"levelo://app?vid=7dfc5216-abd2-4eb0-aa98-27c7a95c769d","ios":"levelo://app?vid=7dfc5216-abd2-4eb0-aa98-27c7a95c769d"},"vehicle_type_id":"4","last_reported":1751094594,"current_range_meters":11200,"station_id":"cpo3532slgdg3j2ikp40","pricing_plan_id":"cebpf4jnsgd1na2vs0mg"},{"bike_id":"8b1bcd7a-ec52-47cf-be70-5fb3dda94674","system_id":"levelo_inurba_marseille","lat":43.3173,"lon":5.40457,"is_reserved":false,"is_disabled":false,"rental_uris":{"android":"levelo://app?vid=8b1bcd7a-ec52-47cf-be70-5fb3dda94674","ios":"levelo://app?vid=8b1bcd7a-ec52-47cf-be70-5fb3dda94674"},"vehicle_type_id":"4","last_reported":1751094594,"current_range_meters":11600,"station_id":"ce4bh012rcd13ifvqd00","pricing_plan_id":"cebpf4jnsgd1na2vs0mg"},{"bike_id":"e3737af0-ea05-40ea-97c5-841f080be31c","system_id":"levelo_inurba_marseille","lat":43.29873,"lon":5.39726,"is_reserved":false,"is_disabled":false,"rental_uris":{"android":"levelo://app?vid=e3737af0-ea05-40ea-97c5-841f080be31c","ios":"levelo://app?vid=e3737af0-ea05-40ea-97c5-841f080be31c"},"vehicle_type_id":"4","last_reported":1751094594,"current_range_meters":11600,"station_id":"ce4bh0h2rcd13ifvqd50","pricing_plan_id":"cebpf4jnsgd1na2vs0mg"},{"bike_id":"d4842fa7-29c0-4bed-a9c8-211f417d62e9","system_id":"levelo_inurba_marseille","lat":43.29037,"lon":5.37569,"is_reserved":false,"is_disabled":false,"rental_uris":{"android":"levelo://app?vid=d4842fa7-29c0-4bed-a9c8-211f417d62e9","ios":"levelo://app?vid=d4842fa7-29c0-4bed-a9c8-211f417d62e9"},"vehicle_type_id":"4","last_reported":1751094594,"current_range_meters":11600,"station_id":"ce4bh692rcd13ifvqe90","pricing_plan_id":"cebpf4jnsgd1na2vs0mg"},{"bike_id":"9fa54c40-f9fe-46ac-98ef-3acb1b2ba56b","system_id":"levelo_inurba_marseille","lat":43.28506,"lon":5.38582,"is_reserved":false,"is_disabled":false,"rental_uris":{"android":"levelo://app?vid=9fa54c40-f9fe-46ac-98ef-3acb1b2ba56b","ios":"levelo://app?vid=9fa54c40-f9fe-46ac-98ef-3acb1b2ba56b"},"vehicle_type_id":"4","last_reported":1751094594,"current_range_meters":11600,"station_id":"ce4bh8p2rcd13ifvqeb0","pricing_plan_id":"cebpf4jnsgd1na2vs0mg"},{"bike_id":"425f470a-b25c-41b1-9707-5e2c6f66ada2","system_id":"levelo_inurba_marseille","lat":43.28109,"lon":5.37842,"is_reserved":false,"is_disabled":false,"rental_uris":{"android":"levelo://app?vid=425f470a-b25c-41b1-9707-5e2c6f66ada2","ios":"levelo://app?vid=425f470a-b25c-41b1-9707-5e2c6f66ada2"},"vehicle_type_id":"4","last_reported":1751094594,"current_range_meters":11600,"station_id":"ce4bha12rcd13ifvqee0","pricing_plan_id":"cebpf4jnsgd1na2vs0mg"},{"bike_id":"2cbc9dfa-e1cd-4337-956e-0b5e63845a02","system_id":"levelo_inurba_marseille","lat":43.28612,"lon":5.37072,"is_reserved":false,"is_disabled":false,"rental_uris":{"android":"levelo://app?vid=2cbc9dfa-e1cd-4337-956e-0b5e63845a02","ios":"levelo://app?vid=2cbc9dfa-e1cd-4337-956e-0b5e63845a02"},"vehicle_type_id":"4","last_reported":1751094594,"current_range_meters":11600,"station_id":"ce4bht12rcd13ifvqi60","pricing_plan_id":"cebpf4jnsgd1na2vs0mg"},{"bike_id":"e6ce70f7-9138-485c-a4db-2c9174614cff","system_id":"levelo_inurba_marseille","lat":43.317744,"lon":5.368541,"is_reserved":false,"is_disabled":false,"rental_uris":{"android":"levelo://app?vid=e6ce70f7-9138-485c-a4db-2c9174614cff","ios":"levelo://app?vid=e6ce70f7-9138-485c-a4db-2c9174614cff"},"vehicle_type_id":"4","last_reported":1751094594,"current_range_meters":12000,"station_id":"","pricing_plan_id":"cebpf4jnsgd1na2vs0mg"},{"bike_id":"bbc4a376-bee7-4ad5-a49a-1022d27c1489","system_id":"levelo_inurba_marseille","lat":43.32035,"lon":5.3676,"is_reserved":false,"is_disabled":false,"rental_uris":{"android":"levelo://app?vid=bbc4a376-bee7-4ad5-a49a-1022d27c1489","ios":"levelo://app?vid=bbc4a376-bee7-4ad5-a49a-1022d27c1489"},"vehicle_type_id":"4","last_reported":1751094594,"current_range_meters":12000,"station_id":"","pricing_plan_id":"cebpf4jnsgd1na2vs0mg"},{"bike_id":"181e9af0-5490-4f46-9a76-4c450ccf62c6","system_id":"levelo_inurba_marseille","lat":43.23965,"lon":5.36627,"is_reserved":false,"is_disabled":false,"rental_uris":{"android":"levelo://app?vid=181e9af0-5490-4f46-9a76-4c450ccf62c6","ios":"levelo://app?vid=181e9af0-5490-4f46-9a76-4c450ccf62c6"},"vehicle_type_id":"4","last_reported":1751094594,"current_range_meters":12000,"station_id":"ce4bhi12rcd13ifvqfp0","pricing_plan_id":"cebpf4jnsgd1na2vs0mg"},{"bike_id":"13726ea4-91b3-4b24-87ce-db653217d50c","system_id":"levelo_inurba_marseille","lat":43.32099,"lon":5.36796,"is_reserved":false,"is_disabled":false,"rental_uris":{"android":"levelo://app?vid=13726ea4-91b3-4b24-87ce-db653217d50c","ios":"levelo://app?vid=13726ea4-91b3-4b24-87ce-db653217d50c"},"vehicle_type_id":"4","last_reported":1751094594,"current_range_meters":12000,"station_id":"ce4bhrh2rcd13ifvqhug","pricing_plan_id":"cebpf4jnsgd1na2vs0mg"},{"bike_id":"b2059454-34f9-4639-b91e-0f3e6ae72b4f","system_id":"levelo_inurba_marseille","lat":43.335808,"lon":5.428264,"is_reserved":false,"is_disabled":false,"rental_uris":{"android":"levelo://app?vid=b2059454-34f9-4639-b91e-0f3e6ae72b4f","ios":"levelo://app?vid=b2059454-34f9-4639-b91e-0f3e6ae72b4f"},"vehicle_type_id":"4","last_reported":1751094594,"current_range_meters":12400,"station_id":"","pricing_plan_id":"cebpf4jnsgd1na2vs0mg"},{"bike_id":"1142d72b-1dd8-4635-bc3e-36ec4fae41d4","system_id":"levelo_inurba_marseille","lat":43.306423,"lon":5.400724,"is_reserved":false,"is_disabled":false,"rental_uris":{"android":"levelo://app?vid=1142d72b-1dd8-4635-bc3e-36ec4fae41d4","ios":"levelo://app?vid=1142d72b-1dd8-4635-bc3e-36ec4fae41d4"},"vehicle_type_id":"4","last_reported":1751094594,"current_range_meters":12400,"station_id":"ce4bh112rcd13ifvqda0","pricing_plan_id":"cebpf4jnsgd1na2vs0mg"},{"bike_id":"744c47a9-26c5-4082-ae3a-354917d41df0","system_id":"levelo_inurba_marseille","lat":43.29521,"lon":5.39407,"is_reserved":false,"is_disabled":false,"rental_uris":{"android":"levelo://app?vid=744c47a9-26c5-4082-ae3a-354917d41df0","ios":"levelo://app?vid=744c47a9-26c5-4082-ae3a-354917d41df0"},"vehicle_type_id":"4","last_reported":1751094594,"current_range_meters":12400,"station_id":"ce4bh292rcd13ifvqdf0","pricing_plan_id":"cebpf4jnsgd1na2vs0mg"},{"bike_id":"a61101a2-743e-458d-bad8-585e8755b65f","system_id":"levelo_inurba_marseille","lat":43.23077,"lon":5.35484,"is_reserved":false,"is_disabled":false,"rental_uris":{"android":"levelo://app?vid=a61101a2-743e-458d-bad8-585e8755b65f","ios":"levelo://app?vid=a61101a2-743e-458d-bad8-585e8755b65f"},"vehicle_type_id":"4","last_reported":1751094594,"current_range_meters":12400,"station_id":"cpo3342slgdg3j2ifvpg","pricing_plan_id":"cebpf4jnsgd1na2vs0mg"},{"bike_id":"e3299a8e-fc96-4606-a794-c882d492a94d","system_id":"levelo_inurba_marseille","lat":43.29876,"lon":5.39736,"is_reserved":false,"is_disabled":false,"rental_uris":{"android":"levelo://app?vid=e3299a8e-fc96-4606-a794-c882d492a94d","ios":"levelo://app?vid=e3299a8e-fc96-4606-a794-c882d492a94d"},"vehicle_type_id":"4","last_reported":1751094594,"current_range_meters":12800,"station_id":"ce4bh0h2rcd13ifvqd50","pricing_plan_id":"cebpf4jnsgd1na2vs0mg"},{"bike_id":"f1953887-1b02-447a-bc77-4e2cfee8acd9","system_id":"levelo_inurba_marseille","lat":43.2792,"lon":5.39568,"is_reserved":false,"is_disabled":false,"rental_uris":{"android":"levelo://app?vid=f1953887-1b02-447a-bc77-4e2cfee8acd9","ios":"levelo://app?vid=f1953887-1b02-447a-bc77-4e2cfee8acd9"},"vehicle_type_id":"4","last_reported":1751094594,"current_range_meters":12800,"station_id":"ce4bhf92rcd13ifvqf40","pricing_plan_id":"cebpf4jnsgd1na2vs0mg"},{"bike_id":"44b677c8-76ed-4eac-8888-58151f9d5d6e","system_id":"levelo_inurba_marseille","lat":43.319557,"lon":5.367479,"is_reserved":false,"is_disabled":false,"rental_uris":{"android":"levelo://app?vid=44b677c8-76ed-4eac-8888-58151f9d5d6e","ios":"levelo://app?vid=44b677c8-76ed-4eac-8888-58151f9d5d6e"},"vehicle_type_id":"4","last_reported":1751094594,"current_range_meters":13600,"station_id":"","pricing_plan_id":"cebpf4jnsgd1na2vs0mg"},{"bike_id":"1e0c2c2e-f630-47b6-96c7-ad924bdc8036","system_id":"levelo_inurba_marseille","lat":43.29635,"lon":5.40617,"is_reserved":false,"is_disabled":false,"rental_uris":{"android":"levelo://app?vid=1e0c2c2e-f630-47b6-96c7-ad924bdc8036","ios":"levelo://app?vid=1e0c2c2e-f630-47b6-96c7-ad924bdc8036"},"vehicle_type_id":"4","last_reported":1751094594,"current_range_meters":13600,"station_id":"ce4bh0h2rcd13ifvqd60","pricing_plan_id":"cebpf4jnsgd1na2vs0mg"},{"bike_id":"bb3d10f7-eb37-4ff9-a86c-148e7550b8e8","system_id":"levelo_inurba_marseille","lat":43.29571,"lon":5.42292,"is_reserved":false,"is_disabled":false,"rental_uris":{"android":"levelo://app?vid=bb3d10f7-eb37-4ff9-a86c-148e7550b8e8","ios":"levelo://app?vid=bb3d10f7-eb37-4ff9-a86c-148e7550b8e8"},"vehicle_type_id":"4","last_reported":1751094594,"current_range_meters":13600,"station_id":"ce4bhph2rcd13ifvqhdg","pricing_plan_id":"cebpf4jnsgd1na2vs0mg"},{"bike_id":"751ac1e5-4352-48a6-8a46-df8b44b17786","system_id":"levelo_inurba_marseille","lat":43.30161,"lon":5.37402,"is_reserved":false,"is_disabled":false,"rental_uris":{"android":"levelo://app?vid=751ac1e5-4352-48a6-8a46-df8b44b17786","ios":"levelo://app?vid=751ac1e5-4352-48a6-8a46-df8b44b17786"},"vehicle_type_id":"4","last_reported":1751094594,"current_range_meters":14000,"station_id":"ce4bgs92rcd13ifvqcc0","pricing_plan_id":"cebpf4jnsgd1na2vs0mg"},{"bike_id":"7f7e76fa-2d51-478b-8049-c513ca528061","system_id":"levelo_inurba_marseille","lat":43.30929,"lon":5.40139,"is_reserved":false,"is_disabled":false,"rental_uris":{"android":"levelo://app?vid=7f7e76fa-2d51-478b-8049-c513ca528061","ios":"levelo://app?vid=7f7e76fa-2d51-478b-8049-c513ca528061"},"vehicle_type_id":"4","last_reported":1751094594,"current_range_meters":14000,"station_id":"ce4bgvp2rcd13ifvqct0","pricing_plan_id":"cebpf4jnsgd1na2vs0mg"},{"bike_id":"f2201f56-13d3-426d-aa1e-df6167b1fc1b","system_id":"levelo_inurba_marseille","lat":43.25872,"lon":5.39908,"is_reserved":false,"is_disabled":false,"rental_uris":{"android":"levelo://app?vid=f2201f56-13d3-426d-aa1e-df6167b1fc1b","ios":"levelo://app?vid=f2201f56-13d3-426d-aa1e-df6167b1fc1b"},"vehicle_type_id":"4","last_reported":1751094594,"current_range_meters":14000,"station_id":"ce4bhl92rcd13ifvqghg","pricing_plan_id":"cebpf4jnsgd1na2vs0mg"},{"bike_id":"d74d7be5-ba54-4d68-9cdb-a520d677c267","system_id":"levelo_inurba_marseille","lat":43.23202,"lon":5.35577,"is_reserved":false,"is_disabled":false,"rental_uris":{"android":"levelo://app?vid=d74d7be5-ba54-4d68-9cdb-a520d677c267","ios":"levelo://app?vid=d74d7be5-ba54-4d68-9cdb-a520d677c267"},"vehicle_type_id":"4","last_reported":1751094594,"current_range_meters":14000,"station_id":"ce4bhu92rcd13ifvqi70","pricing_plan_id":"cebpf4jnsgd1na2vs0mg"},{"bike_id":"3c145ce0-c8e4-4f0d-be0d-d377b5e1c240","system_id":"levelo_inurba_marseille","lat":43.30312,"lon":5.3691,"is_reserved":false,"is_disabled":false,"rental_uris":{"android":"levelo://app?vid=3c145ce0-c8e4-4f0d-be0d-d377b5e1c240","ios":"levelo://app?vid=3c145ce0-c8e4-4f0d-be0d-d377b5e1c240"},"vehicle_type_id":"4","last_reported":1751094594,"current_range_meters":14400,"station_id":"ce4bgqh2rcd13ifvqc5g","pricing_plan_id":"cebpf4jnsgd1na2vs0mg"},{"bike_id":"721165c1-ef6f-40cc-8d33-af3a7999864b","system_id":"levelo_inurba_marseille","lat":43.32665,"lon":5.3786,"is_reserved":false,"is_disabled":false,"rental_uris":{"android":"levelo://app?vid=721165c1-ef6f-40cc-8d33-af3a7999864b","ios":"levelo://app?vid=721165c1-ef6f-40cc-8d33-af3a7999864b"},"vehicle_type_id":"4","last_reported":1751094594,"current_range_meters":14800,"station_id":"","pricing_plan_id":"cebpf4jnsgd1na2vs0mg"},{"bike_id":"873ce198-d36d-4815-8778-b72bd2ca0116","system_id":"levelo_inurba_marseille","lat":43.32121,"lon":5.36789,"is_reserved":false,"is_disabled":false,"rental_uris":{"android":"levelo://app?vid=873ce198-d36d-4815-8778-b72bd2ca0116","ios":"levelo://app?vid=873ce198-d36d-4815-8778-b72bd2ca0116"},"vehicle_type_id":"4","last_reported":1751094594,"current_range_meters":14800,"station_id":"ce4bhrh2rcd13ifvqhug","pricing_plan_id":"cebpf4jnsgd1na2vs0mg"},{"bike_id":"12c7fc9f-7c7b-4185-9b2f-badd0c17e36b","system_id":"levelo_inurba_marseille","lat":43.24735,"lon":5.37439,"is_reserved":false,"is_disabled":false,"rental_uris":{"android":"levelo://app?vid=12c7fc9f-7c7b-4185-9b2f-badd0c17e36b","ios":"levelo://app?vid=12c7fc9f-7c7b-4185-9b2f-badd0c17e36b"},"vehicle_type_id":"4","last_reported":1751094594,"current_range_meters":15200,"station_id":"","pricing_plan_id":"cebpf4jnsgd1na2vs0mg"},{"bike_id":"2c9484a9-4dab-4c41-9a4a-6af8a024adcf","system_id":"levelo_inurba_marseille","lat":43.26786,"lon":5.39418,"is_reserved":false,"is_disabled":false,"rental_uris":{"android":"levelo://app?vid=2c9484a9-4dab-4c41-9a4a-6af8a024adcf","ios":"levelo://app?vid=2c9484a9-4dab-4c41-9a4a-6af8a024adcf"},"vehicle_type_id":"4","last_reported":1751094594,"current_range_meters":15200,"station_id":"ce4bhh12rcd13ifvqfg0","pricing_plan_id":"cebpf4jnsgd1na2vs0mg"},{"bike_id":"97c9868a-f3a2-4cd4-8de7-116c13ee811b","system_id":"levelo_inurba_marseille","lat":43.27809,"lon":5.40713,"is_reserved":false,"is_disabled":false,"rental_uris":{"android":"levelo://app?vid=97c9868a-f3a2-4cd4-8de7-116c13ee811b","ios":"levelo://app?vid=97c9868a-f3a2-4cd4-8de7-116c13ee811b"},"vehicle_type_id":"4","last_reported":1751094594,"current_range_meters":15200,"station_id":"ce4bhnh2rcd13ifvqgtg","pricing_plan_id":"cebpf4jnsgd1na2vs0mg"},{"bike_id":"a7883090-0e10-4075-944b-a3cca54bc544","system_id":"levelo_inurba_marseille","lat":43.22509,"lon":5.34769,"is_reserved":false,"is_disabled":false,"rental_uris":{"android":"levelo://app?vid=a7883090-0e10-4075-944b-a3cca54bc544","ios":"levelo://app?vid=a7883090-0e10-4075-944b-a3cca54bc544"},"vehicle_type_id":"4","last_reported":1751094594,"current_range_meters":15200,"station_id":"st_cvj5dfep6f1abm77gieg","pricing_plan_id":"cebpf4jnsgd1na2vs0mg"},{"bike_id":"14e8ef37-e834-4d76-9946-e98f7a083a2f","system_id":"levelo_inurba_marseille","lat":43.211967,"lon":5.350643,"is_reserved":false,"is_disabled":false,"rental_uris":{"android":"levelo://app?vid=14e8ef37-e834-4d76-9946-e98f7a083a2f","ios":"levelo://app?vid=14e8ef37-e834-4d76-9946-e98f7a083a2f"},"vehicle_type_id":"4","last_reported":1751094594,"current_range_meters":15200,"station_id":"st_cvj6sg6p6f1abm77japg","pricing_plan_id":"cebpf4jnsgd1na2vs0mg"},{"bike_id":"805073ca-85b9-42b0-9e57-7e7428595d04","system_id":"levelo_inurba_marseille","lat":43.28857,"lon":5.38467,"is_reserved":false,"is_disabled":false,"rental_uris":{"android":"levelo://app?vid=805073ca-85b9-42b0-9e57-7e7428595d04","ios":"levelo://app?vid=805073ca-85b9-42b0-9e57-7e7428595d04"},"vehicle_type_id":"4","last_reported":1751094594,"current_range_meters":16000,"station_id":"","pricing_plan_id":"cebpf4jnsgd1na2vs0mg"},{"bike_id":"14dec76d-f969-4f49-af7c-50ca62449b09","system_id":"levelo_inurba_marseille","lat":43.307801,"lon":5.376515,"is_reserved":false,"is_disabled":false,"rental_uris":{"android":"levelo://app?vid=14dec76d-f969-4f49-af7c-50ca62449b09","ios":"levelo://app?vid=14dec76d-f969-4f49-af7c-50ca62449b09"},"vehicle_type_id":"4","last_reported":1751094594,"current_range_meters":16000,"station_id":"ce4bgv92rcd13ifvqcq0","pricing_plan_id":"cebpf4jnsgd1na2vs0mg"},{"bike_id":"e2f100fc-6a18-4e68-a1ba-9090ef1f425d","system_id":"levelo_inurba_marseille","lat":43.292822,"lon":5.401276,"is_reserved":false,"is_disabled":false,"rental_uris":{"android":"levelo://app?vid=e2f100fc-6a18-4e68-a1ba-9090ef1f425d","ios":"levelo://app?vid=e2f100fc-6a18-4e68-a1ba-9090ef1f425d"},"vehicle_type_id":"4","last_reported":1751094594,"current_range_meters":16000,"station_id":"ce4bh312rcd13ifvqdk0","pricing_plan_id":"cebpf4jnsgd1na2vs0mg"},{"bike_id":"61030299-1f72-4dca-90ef-439c63ad41b7","system_id":"levelo_inurba_marseille","lat":43.26033,"lon":5.37546,"is_reserved":false,"is_disabled":false,"rental_uris":{"android":"levelo://app?vid=61030299-1f72-4dca-90ef-439c63ad41b7","ios":"levelo://app?vid=61030299-1f72-4dca-90ef-439c63ad41b7"},"vehicle_type_id":"4","last_reported":1751094594,"current_range_meters":16000,"station_id":"ce4bhgh2rcd13ifvqfa0","pricing_plan_id":"cebpf4jnsgd1na2vs0mg"},{"bike_id":"f020d5f0-3e7b-4cc6-98ef-ba2443e01c66","system_id":"levelo_inurba_marseille","lat":43.27196,"lon":5.40989,"is_reserved":false,"is_disabled":false,"rental_uris":{"android":"levelo://app?vid=f020d5f0-3e7b-4cc6-98ef-ba2443e01c66","ios":"levelo://app?vid=f020d5f0-3e7b-4cc6-98ef-ba2443e01c66"},"vehicle_type_id":"4","last_reported":1751094594,"current_range_meters":16000,"station_id":"ce4bhl12rcd13ifvqgf0","pricing_plan_id":"cebpf4jnsgd1na2vs0mg"},{"bike_id":"41208d93-e9e9-456a-a145-7877b65d4855","system_id":"levelo_inurba_marseille","lat":43.28432,"lon":5.39185,"is_reserved":false,"is_disabled":false,"rental_uris":{"android":"levelo://app?vid=41208d93-e9e9-456a-a145-7877b65d4855","ios":"levelo://app?vid=41208d93-e9e9-456a-a145-7877b65d4855"},"vehicle_type_id":"4","last_reported":1751094594,"current_range_meters":16000,"station_id":"ce4bhoh2rcd13ifvqh5g","pricing_plan_id":"cebpf4jnsgd1na2vs0mg"},{"bike_id":"6af79a00-84aa-4908-a347-34425e08c383","system_id":"levelo_inurba_marseille","lat":43.30289,"lon":5.37597,"is_reserved":false,"is_disabled":false,"rental_uris":{"android":"levelo://app?vid=6af79a00-84aa-4908-a347-34425e08c383","ios":"levelo://app?vid=6af79a00-84aa-4908-a347-34425e08c383"},"vehicle_type_id":"4","last_reported":1751094594,"current_range_meters":16400,"station_id":"","pricing_plan_id":"cebpf4jnsgd1na2vs0mg"},{"bike_id":"0c803610-f6e9-41d4-936d-0b433fa62796","system_id":"levelo_inurba_marseille","lat":43.301819,"lon":5.378232,"is_reserved":false,"is_disabled":false,"rental_uris":{"android":"levelo://app?vid=0c803610-f6e9-41d4-936d-0b433fa62796","ios":"levelo://app?vid=0c803610-f6e9-41d4-936d-0b433fa62796"},"vehicle_type_id":"4","last_reported":1751094594,"current_range_meters":16400,"station_id":"","pricing_plan_id":"cebpf4jnsgd1na2vs0mg"},{"bike_id":"ceb59189-b9ca-4009-bdae-807360e65ad4","system_id":"levelo_inurba_marseille","lat":43.301642,"lon":5.38075,"is_reserved":false,"is_disabled":false,"rental_uris":{"android":"levelo://app?vid=ceb59189-b9ca-4009-bdae-807360e65ad4","ios":"levelo://app?vid=ceb59189-b9ca-4009-bdae-807360e65ad4"},"vehicle_type_id":"4","last_reported":1751094594,"current_range_meters":16400,"station_id":"ce4bgjp2rcd13ifvqbh0","pricing_plan_id":"cebpf4jnsgd1na2vs0mg"},{"bike_id":"0ca717a1-45d0-467a-befd-9d85a9b7f044","system_id":"levelo_inurba_marseille","lat":43.30302,"lon":5.40128,"is_reserved":false,"is_disabled":false,"rental_uris":{"android":"levelo://app?vid=0ca717a1-45d0-467a-befd-9d85a9b7f044","ios":"levelo://app?vid=0ca717a1-45d0-467a-befd-9d85a9b7f044"},"vehicle_type_id":"4","last_reported":1751094594,"current_range_meters":16400,"station_id":"ce4bgvh2rcd13ifvqcs0","pricing_plan_id":"cebpf4jnsgd1na2vs0mg"},{"bike_id":"fa413d50-59c3-4298-aaa7-da1fd6ba4dd7","system_id":"levelo_inurba_marseille","lat":43.27371,"lon":5.36265,"is_reserved":false,"is_disabled":false,"rental_uris":{"android":"levelo://app?vid=fa413d50-59c3-4298-aaa7-da1fd6ba4dd7","ios":"levelo://app?vid=fa413d50-59c3-4298-aaa7-da1fd6ba4dd7"},"vehicle_type_id":"4","last_reported":1751094594,"current_range_meters":16400,"station_id":"ce4bhbh2rcd13ifvqeo0","pricing_plan_id":"cebpf4jnsgd1na2vs0mg"},{"bike_id":"bc0333fd-1397-4952-b6c9-b389233d6324","system_id":"levelo_inurba_marseille","lat":43.25499,"lon":5.37646,"is_reserved":false,"is_disabled":false,"rental_uris":{"android":"levelo://app?vid=bc0333fd-1397-4952-b6c9-b389233d6324","ios":"levelo://app?vid=bc0333fd-1397-4952-b6c9-b389233d6324"},"vehicle_type_id":"4","last_reported":1751094594,"current_range_meters":16400,"station_id":"ce4bhh12rcd13ifvqff0","pricing_plan_id":"cebpf4jnsgd1na2vs0mg"},{"bike_id":"6bd9b448-0b38-4c33-b738-f1b5e8722b1e","system_id":"levelo_inurba_marseille","lat":43.27167,"lon":5.40983,"is_reserved":false,"is_disabled":false,"rental_uris":{"android":"levelo://app?vid=6bd9b448-0b38-4c33-b738-f1b5e8722b1e","ios":"levelo://app?vid=6bd9b448-0b38-4c33-b738-f1b5e8722b1e"},"vehicle_type_id":"4","last_reported":1751094594,"current_range_meters":16400,"station_id":"ce4bhl12rcd13ifvqgf0","pricing_plan_id":"cebpf4jnsgd1na2vs0mg"},{"bike_id":"b7b58613-cdc6-4750-8137-2d44544d5e13","system_id":"levelo_inurba_marseille","lat":43.31484,"lon":5.36933,"is_reserved":false,"is_disabled":false,"rental_uris":{"android":"levelo://app?vid=b7b58613-cdc6-4750-8137-2d44544d5e13","ios":"levelo://app?vid=b7b58613-cdc6-4750-8137-2d44544d5e13"},"vehicle_type_id":"4","last_reported":1751094594,"current_range_meters":16800,"station_id":"","pricing_plan_id":"cebpf4jnsgd1na2vs0mg"},{"bike_id":"4043f5ed-1c71-456d-9c90-de5b8866cdaf","system_id":"levelo_inurba_marseille","lat":43.22949,"lon":5.35386,"is_reserved":false,"is_disabled":false,"rental_uris":{"android":"levelo://app?vid=4043f5ed-1c71-456d-9c90-de5b8866cdaf","ios":"levelo://app?vid=4043f5ed-1c71-456d-9c90-de5b8866cdaf"},"vehicle_type_id":"4","last_reported":1751094594,"current_range_meters":16800,"station_id":"cpo3532slgdg3j2ikp40","pricing_plan_id":"cebpf4jnsgd1na2vs0mg"},{"bike_id":"ec1641df-6975-481a-9083-9175bcb48235","system_id":"levelo_inurba_marseille","lat":43.31498,"lon":5.37312,"is_reserved":false,"is_disabled":false,"rental_uris":{"android":"levelo://app?vid=ec1641df-6975-481a-9083-9175bcb48235","ios":"levelo://app?vid=ec1641df-6975-481a-9083-9175bcb48235"},"vehicle_type_id":"4","last_reported":1751094594,"current_range_meters":17200,"station_id":"ce4bgt12rcd13ifvqcd0","pricing_plan_id":"cebpf4jnsgd1na2vs0mg"},{"bike_id":"641e6289-6811-41fe-a848-4459481912e3","system_id":"levelo_inurba_marseille","lat":43.279071,"lon":5.39576,"is_reserved":false,"is_disabled":false,"rental_uris":{"android":"levelo://app?vid=641e6289-6811-41fe-a848-4459481912e3","ios":"levelo://app?vid=641e6289-6811-41fe-a848-4459481912e3"},"vehicle_type_id":"4","last_reported":1751094594,"current_range_meters":17200,"station_id":"ce4bhf92rcd13ifvqf40","pricing_plan_id":"cebpf4jnsgd1na2vs0mg"},{"bike_id":"f810be2a-3c00-446f-9ba1-1f3840ce349d","system_id":"levelo_inurba_marseille","lat":43.32117,"lon":5.36785,"is_reserved":false,"is_disabled":false,"rental_uris":{"android":"levelo://app?vid=f810be2a-3c00-446f-9ba1-1f3840ce349d","ios":"levelo://app?vid=f810be2a-3c00-446f-9ba1-1f3840ce349d"},"vehicle_type_id":"4","last_reported":1751094594,"current_range_meters":17200,"station_id":"ce4bhrh2rcd13ifvqhug","pricing_plan_id":"cebpf4jnsgd1na2vs0mg"},{"bike_id":"73eae19d-5cc5-48fe-810c-85fc7175c6a0","system_id":"levelo_inurba_marseille","lat":43.23051,"lon":5.35497,"is_reserved":false,"is_disabled":false,"rental_uris":{"android":"levelo://app?vid=73eae19d-5cc5-48fe-810c-85fc7175c6a0","ios":"levelo://app?vid=73eae19d-5cc5-48fe-810c-85fc7175c6a0"},"vehicle_type_id":"4","last_reported":1751094594,"current_range_meters":17200,"station_id":"cpo3342slgdg3j2ifvpg","pricing_plan_id":"cebpf4jnsgd1na2vs0mg"},{"bike_id":"a7d22bfe-3c80-4ee6-8768-ba11599ccd85","system_id":"levelo_inurba_marseille","lat":43.33769,"lon":5.37445,"is_reserved":false,"is_disabled":false,"rental_uris":{"android":"levelo://app?vid=a7d22bfe-3c80-4ee6-8768-ba11599ccd85","ios":"levelo://app?vid=a7d22bfe-3c80-4ee6-8768-ba11599ccd85"},"vehicle_type_id":"4","last_reported":1751094594,"current_range_meters":17600,"station_id":"","pricing_plan_id":"cebpf4jnsgd1na2vs0mg"},{"bike_id":"5c67b9f6-8e57-4d70-93a5-54d1c4abf312","system_id":"levelo_inurba_marseille","lat":43.28474,"lon":5.38426,"is_reserved":false,"is_disabled":false,"rental_uris":{"android":"levelo://app?vid=5c67b9f6-8e57-4d70-93a5-54d1c4abf312","ios":"levelo://app?vid=5c67b9f6-8e57-4d70-93a5-54d1c4abf312"},"vehicle_type_id":"4","last_reported":1751094594,"current_range_meters":17600,"station_id":"ce4bh512rcd13ifvqe3g","pricing_plan_id":"cebpf4jnsgd1na2vs0mg"},{"bike_id":"7de6199c-be75-4198-b587-0b9314aee21f","system_id":"levelo_inurba_marseille","lat":43.27913,"lon":5.39582,"is_reserved":false,"is_disabled":false,"rental_uris":{"android":"levelo://app?vid=7de6199c-be75-4198-b587-0b9314aee21f","ios":"levelo://app?vid=7de6199c-be75-4198-b587-0b9314aee21f"},"vehicle_type_id":"4","last_reported":1751094594,"current_range_meters":17600,"station_id":"ce4bhf92rcd13ifvqf40","pricing_plan_id":"cebpf4jnsgd1na2vs0mg"},{"bike_id":"d59f34fc-81ea-4d14-98c2-7bd385aecb77","system_id":"levelo_inurba_marseille","lat":43.25108,"lon":5.40352,"is_reserved":false,"is_disabled":false,"rental_uris":{"android":"levelo://app?vid=d59f34fc-81ea-4d14-98c2-7bd385aecb77","ios":"levelo://app?vid=d59f34fc-81ea-4d14-98c2-7bd385aecb77"},"vehicle_type_id":"4","last_reported":1751094594,"current_range_meters":17600,"station_id":"ce4bhlh2rcd13ifvqgig","pricing_plan_id":"cebpf4jnsgd1na2vs0mg"},{"bike_id":"2287b753-3344-403e-a9e0-526651a52461","system_id":"levelo_inurba_marseille","lat":43.24083,"lon":5.37771,"is_reserved":false,"is_disabled":false,"rental_uris":{"android":"levelo://app?vid=2287b753-3344-403e-a9e0-526651a52461","ios":"levelo://app?vid=2287b753-3344-403e-a9e0-526651a52461"},"vehicle_type_id":"4","last_reported":1751094594,"current_range_meters":17600,"station_id":"ce4bhnp2rcd13ifvqgvg","pricing_plan_id":"cebpf4jnsgd1na2vs0mg"},{"bike_id":"c0a2de0a-20e3-4e62-848e-f0dbd6b2e588","system_id":"levelo_inurba_marseille","lat":43.22494,"lon":5.34783,"is_reserved":false,"is_disabled":false,"rental_uris":{"android":"levelo://app?vid=c0a2de0a-20e3-4e62-848e-f0dbd6b2e588","ios":"levelo://app?vid=c0a2de0a-20e3-4e62-848e-f0dbd6b2e588"},"vehicle_type_id":"4","last_reported":1751094594,"current_range_meters":17600,"station_id":"st_cvj5dfep6f1abm77gieg","pricing_plan_id":"cebpf4jnsgd1na2vs0mg"},{"bike_id":"4f7da216-f811-4c57-9e64-cdee7467bddd","system_id":"levelo_inurba_marseille","lat":43.22501,"lon":5.3479,"is_reserved":false,"is_disabled":false,"rental_uris":{"android":"levelo://app?vid=4f7da216-f811-4c57-9e64-cdee7467bddd","ios":"levelo://app?vid=4f7da216-f811-4c57-9e64-cdee7467bddd"},"vehicle_type_id":"4","last_reported":1751094594,"current_range_meters":17600,"station_id":"st_cvj5dfep6f1abm77gieg","pricing_plan_id":"cebpf4jnsgd1na2vs0mg"},{"bike_id":"6f4919b0-d9c4-4c52-b108-ac1dd2e153c7","system_id":"levelo_inurba_marseille","lat":43.312816,"lon":5.368782,"is_reserved":false,"is_disabled":false,"rental_uris":{"android":"levelo://app?vid=6f4919b0-d9c4-4c52-b108-ac1dd2e153c7","ios":"levelo://app?vid=6f4919b0-d9c4-4c52-b108-ac1dd2e153c7"},"vehicle_type_id":"4","last_reported":1751094594,"current_range_meters":18000,"station_id":"","pricing_plan_id":"cebpf4jnsgd1na2vs0mg"},{"bike_id":"d308c658-b19c-49c0-8014-5506ff26f69a","system_id":"levelo_inurba_marseille","lat":43.23071,"lon":5.40494,"is_reserved":false,"is_disabled":false,"rental_uris":{"android":"levelo://app?vid=d308c658-b19c-49c0-8014-5506ff26f69a","ios":"levelo://app?vid=d308c658-b19c-49c0-8014-5506ff26f69a"},"vehicle_type_id":"4","last_reported":1751094594,"current_range_meters":18000,"station_id":"","pricing_plan_id":"cebpf4jnsgd1na2vs0mg"},{"bike_id":"f342fe44-5d74-40e3-a0fa-5214bcb4d08c","system_id":"levelo_inurba_marseille","lat":43.31723,"lon":5.40404,"is_reserved":false,"is_disabled":false,"rental_uris":{"android":"levelo://app?vid=f342fe44-5d74-40e3-a0fa-5214bcb4d08c","ios":"levelo://app?vid=f342fe44-5d74-40e3-a0fa-5214bcb4d08c"},"vehicle_type_id":"4","last_reported":1751094594,"current_range_meters":18000,"station_id":"ce4bh012rcd13ifvqd00","pricing_plan_id":"cebpf4jnsgd1na2vs0mg"},{"bike_id":"2319f758-8cc4-44be-a026-46a4638bdf6c","system_id":"levelo_inurba_marseille","lat":43.279144,"lon":5.395785,"is_reserved":false,"is_disabled":false,"rental_uris":{"android":"levelo://app?vid=2319f758-8cc4-44be-a026-46a4638bdf6c","ios":"levelo://app?vid=2319f758-8cc4-44be-a026-46a4638bdf6c"},"vehicle_type_id":"4","last_reported":1751094594,"current_range_meters":18000,"station_id":"ce4bhf92rcd13ifvqf40","pricing_plan_id":"cebpf4jnsgd1na2vs0mg"},{"bike_id":"80a563cd-2512-4b18-8644-9b4140646fdc","system_id":"levelo_inurba_marseille","lat":43.25732,"lon":5.41094,"is_reserved":false,"is_disabled":false,"rental_uris":{"android":"levelo://app?vid=80a563cd-2512-4b18-8644-9b4140646fdc","ios":"levelo://app?vid=80a563cd-2512-4b18-8644-9b4140646fdc"},"vehicle_type_id":"4","last_reported":1751094594,"current_range_meters":18000,"station_id":"ce4bhkp2rcd13ifvqgd0","pricing_plan_id":"cebpf4jnsgd1na2vs0mg"},{"bike_id":"b13877a6-4825-4d82-b46b-67fa8ad66c5d","system_id":"levelo_inurba_marseille","lat":43.212011,"lon":5.350697,"is_reserved":false,"is_disabled":false,"rental_uris":{"android":"levelo://app?vid=b13877a6-4825-4d82-b46b-67fa8ad66c5d","ios":"levelo://app?vid=b13877a6-4825-4d82-b46b-67fa8ad66c5d"},"vehicle_type_id":"4","last_reported":1751094594,"current_range_meters":18000,"station_id":"st_cvj6sg6p6f1abm77japg","pricing_plan_id":"cebpf4jnsgd1na2vs0mg"},{"bike_id":"735fb3ec-51d3-42a0-b0e0-35a6ef148211","system_id":"levelo_inurba_marseille","lat":43.31283,"lon":5.37317,"is_reserved":false,"is_disabled":false,"rental_uris":{"android":"levelo://app?vid=735fb3ec-51d3-42a0-b0e0-35a6ef148211","ios":"levelo://app?vid=735fb3ec-51d3-42a0-b0e0-35a6ef148211"},"vehicle_type_id":"4","last_reported":1751094594,"current_range_meters":18800,"station_id":"","pricing_plan_id":"cebpf4jnsgd1na2vs0mg"},{"bike_id":"fccf7ba2-eb54-4fe8-b125-d14a2f005d00","system_id":"levelo_inurba_marseille","lat":43.301385,"lon":5.398737,"is_reserved":false,"is_disabled":false,"rental_uris":{"android":"levelo://app?vid=fccf7ba2-eb54-4fe8-b125-d14a2f005d00","ios":"levelo://app?vid=fccf7ba2-eb54-4fe8-b125-d14a2f005d00"},"vehicle_type_id":"4","last_reported":1751094594,"current_range_meters":18800,"station_id":"ce4bh0h2rcd13ifvqd40","pricing_plan_id":"cebpf4jnsgd1na2vs0mg"},{"bike_id":"aff4423e-c2af-4b70-b9bd-2bdc17fafffc","system_id":"levelo_inurba_marseille","lat":43.24162,"lon":5.36383,"is_reserved":false,"is_disabled":false,"rental_uris":{"android":"levelo://app?vid=aff4423e-c2af-4b70-b9bd-2bdc17fafffc","ios":"levelo://app?vid=aff4423e-c2af-4b70-b9bd-2bdc17fafffc"},"vehicle_type_id":"4","last_reported":1751094594,"current_range_meters":18800,"station_id":"cpo36qri1sfpv3e86is0","pricing_plan_id":"cebpf4jnsgd1na2vs0mg"},{"bike_id":"8938ae4b-572d-47fc-b025-02b05af60188","system_id":"levelo_inurba_marseille","lat":43.22502,"lon":5.34776,"is_reserved":false,"is_disabled":false,"rental_uris":{"android":"levelo://app?vid=8938ae4b-572d-47fc-b025-02b05af60188","ios":"levelo://app?vid=8938ae4b-572d-47fc-b025-02b05af60188"},"vehicle_type_id":"4","last_reported":1751094594,"current_range_meters":18800,"station_id":"st_cvj5dfep6f1abm77gieg","pricing_plan_id":"cebpf4jnsgd1na2vs0mg"},{"bike_id":"00232df6-47e0-4159-9a64-03051f9ea3a1","system_id":"levelo_inurba_marseille","lat":43.28104,"lon":5.3986,"is_reserved":false,"is_disabled":false,"rental_uris":{"android":"levelo://app?vid=00232df6-47e0-4159-9a64-03051f9ea3a1","ios":"levelo://app?vid=00232df6-47e0-4159-9a64-03051f9ea3a1"},"vehicle_type_id":"4","last_reported":1751094594,"current_range_meters":19200,"station_id":"","pricing_plan_id":"cebpf4jnsgd1na2vs0mg"},{"bike_id":"c595d0e1-c778-4abe-9c79-a9dd74f54e27","system_id":"levelo_inurba_marseille","lat":43.2447,"lon":5.372255,"is_reserved":false,"is_disabled":false,"rental_uris":{"android":"levelo://app?vid=c595d0e1-c778-4abe-9c79-a9dd74f54e27","ios":"levelo://app?vid=c595d0e1-c778-4abe-9c79-a9dd74f54e27"},"vehicle_type_id":"4","last_reported":1751094594,"current_range_meters":19200,"station_id":"","pricing_plan_id":"cebpf4jnsgd1na2vs0mg"},{"bike_id":"e99a7da0-5f03-4f7b-8663-9dab3cc7803d","system_id":"levelo_inurba_marseille","lat":43.29002,"lon":5.400142,"is_reserved":false,"is_disabled":false,"rental_uris":{"android":"levelo://app?vid=e99a7da0-5f03-4f7b-8663-9dab3cc7803d","ios":"levelo://app?vid=e99a7da0-5f03-4f7b-8663-9dab3cc7803d"},"vehicle_type_id":"4","last_reported":1751094594,"current_range_meters":19200,"station_id":"","pricing_plan_id":"cebpf4jnsgd1na2vs0mg"},{"bike_id":"5adacf3e-c18b-47ae-a6f9-c34ff30d42e0","system_id":"levelo_inurba_marseille","lat":43.28588,"lon":5.39514,"is_reserved":false,"is_disabled":false,"rental_uris":{"android":"levelo://app?vid=5adacf3e-c18b-47ae-a6f9-c34ff30d42e0","ios":"levelo://app?vid=5adacf3e-c18b-47ae-a6f9-c34ff30d42e0"},"vehicle_type_id":"4","last_reported":1751094594,"current_range_meters":19200,"station_id":"ce4bh292rcd13ifvqdg0","pricing_plan_id":"cebpf4jnsgd1na2vs0mg"},{"bike_id":"26841ce1-9f33-4b0b-8175-ba87b9ec5260","system_id":"levelo_inurba_marseille","lat":43.279053,"lon":5.380102,"is_reserved":false,"is_disabled":false,"rental_uris":{"android":"levelo://app?vid=26841ce1-9f33-4b0b-8175-ba87b9ec5260","ios":"levelo://app?vid=26841ce1-9f33-4b0b-8175-ba87b9ec5260"},"vehicle_type_id":"4","last_reported":1751094594,"current_range_meters":19200,"station_id":"ce4bhf92rcd13ifvqf50","pricing_plan_id":"cebpf4jnsgd1na2vs0mg"},{"bike_id":"177b220f-baef-4961-906c-f151afba3caf","system_id":"levelo_inurba_marseille","lat":43.322858,"lon":5.382813,"is_reserved":false,"is_disabled":false,"rental_uris":{"android":"levelo://app?vid=177b220f-baef-4961-906c-f151afba3caf","ios":"levelo://app?vid=177b220f-baef-4961-906c-f151afba3caf"},"vehicle_type_id":"4","last_reported":1751094594,"current_range_meters":19200,"station_id":"ce4bhr12rcd13ifvqhqg","pricing_plan_id":"cebpf4jnsgd1na2vs0mg"},{"bike_id":"3a7e54b5-a2f5-42f3-a085-743ac5e93398","system_id":"levelo_inurba_marseille","lat":43.25204,"lon":5.42204,"is_reserved":false,"is_disabled":false,"rental_uris":{"android":"levelo://app?vid=3a7e54b5-a2f5-42f3-a085-743ac5e93398","ios":"levelo://app?vid=3a7e54b5-a2f5-42f3-a085-743ac5e93398"},"vehicle_type_id":"4","last_reported":1751094594,"current_range_meters":19600,"station_id":"","pricing_plan_id":"cebpf4jnsgd1na2vs0mg"},{"bike_id":"7757c5d7-8597-4da8-bc28-0c6a39bb89b9","system_id":"levelo_inurba_marseille","lat":43.32283,"lon":5.38283,"is_reserved":false,"is_disabled":false,"rental_uris":{"android":"levelo://app?vid=7757c5d7-8597-4da8-bc28-0c6a39bb89b9","ios":"levelo://app?vid=7757c5d7-8597-4da8-bc28-0c6a39bb89b9"},"vehicle_type_id":"4","last_reported":1751094594,"current_range_meters":19600,"station_id":"ce4bhr12rcd13ifvqhqg","pricing_plan_id":"cebpf4jnsgd1na2vs0mg"},{"bike_id":"dff51cff-b2ea-4706-b1a7-eadf00eb39bb","system_id":"levelo_inurba_marseille","lat":43.231939,"lon":5.355548,"is_reserved":false,"is_disabled":false,"rental_uris":{"android":"levelo://app?vid=dff51cff-b2ea-4706-b1a7-eadf00eb39bb","ios":"levelo://app?vid=dff51cff-b2ea-4706-b1a7-eadf00eb39bb"},"vehicle_type_id":"4","last_reported":1751094594,"current_range_meters":19600,"station_id":"ce4bhu92rcd13ifvqi70","pricing_plan_id":"cebpf4jnsgd1na2vs0mg"},{"bike_id":"1b891310-851b-46f1-8d49-bce486778f59","system_id":"levelo_inurba_marseille","lat":43.29358,"lon":5.37829,"is_reserved":false,"is_disabled":false,"rental_uris":{"android":"levelo://app?vid=1b891310-851b-46f1-8d49-bce486778f59","ios":"levelo://app?vid=1b891310-851b-46f1-8d49-bce486778f59"},"vehicle_type_id":"4","last_reported":1751094594,"current_range_meters":20000,"station_id":"ce4bgjh2rcd13ifvqbf0","pricing_plan_id":"cebpf4jnsgd1na2vs0mg"},{"bike_id":"96fea562-e80d-4e0e-96ac-15bc81f80d39","system_id":"levelo_inurba_marseille","lat":43.27968,"lon":5.38737,"is_reserved":false,"is_disabled":false,"rental_uris":{"android":"levelo://app?vid=96fea562-e80d-4e0e-96ac-15bc81f80d39","ios":"levelo://app?vid=96fea562-e80d-4e0e-96ac-15bc81f80d39"},"vehicle_type_id":"4","last_reported":1751094594,"current_range_meters":20000,"station_id":"ce4bhg12rcd13ifvqf80","pricing_plan_id":"cebpf4jnsgd1na2vs0mg"},{"bike_id":"251333b1-962e-40a5-89b1-1eb45858b910","system_id":"levelo_inurba_marseille","lat":43.25494,"lon":5.37648,"is_reserved":false,"is_disabled":false,"rental_uris":{"android":"levelo://app?vid=251333b1-962e-40a5-89b1-1eb45858b910","ios":"levelo://app?vid=251333b1-962e-40a5-89b1-1eb45858b910"},"vehicle_type_id":"4","last_reported":1751094594,"current_range_meters":20000,"station_id":"ce4bhh12rcd13ifvqff0","pricing_plan_id":"cebpf4jnsgd1na2vs0mg"},{"bike_id":"d561c7db-dc6a-4d57-bf25-60725a3382b2","system_id":"levelo_inurba_marseille","lat":43.24389,"lon":5.37063,"is_reserved":false,"is_disabled":false,"rental_uris":{"android":"levelo://app?vid=d561c7db-dc6a-4d57-bf25-60725a3382b2","ios":"levelo://app?vid=d561c7db-dc6a-4d57-bf25-60725a3382b2"},"vehicle_type_id":"4","last_reported":1751094594,"current_range_meters":20000,"station_id":"ce4bhhh2rcd13ifvqfk0","pricing_plan_id":"cebpf4jnsgd1na2vs0mg"},{"bike_id":"0a577a4f-8d5f-4039-b3fc-588f92ad3bcd","system_id":"levelo_inurba_marseille","lat":43.21203,"lon":5.35076,"is_reserved":false,"is_disabled":false,"rental_uris":{"android":"levelo://app?vid=0a577a4f-8d5f-4039-b3fc-588f92ad3bcd","ios":"levelo://app?vid=0a577a4f-8d5f-4039-b3fc-588f92ad3bcd"},"vehicle_type_id":"4","last_reported":1751094594,"current_range_meters":20000,"station_id":"st_cvj6sg6p6f1abm77japg","pricing_plan_id":"cebpf4jnsgd1na2vs0mg"},{"bike_id":"33b6f7f4-f5bc-478b-9c0f-e5c9434fc364","system_id":"levelo_inurba_marseille","lat":43.29307,"lon":5.37181,"is_reserved":false,"is_disabled":false,"rental_uris":{"android":"levelo://app?vid=33b6f7f4-f5bc-478b-9c0f-e5c9434fc364","ios":"levelo://app?vid=33b6f7f4-f5bc-478b-9c0f-e5c9434fc364"},"vehicle_type_id":"4","last_reported":1751094594,"current_range_meters":20400,"station_id":"ce4bgh92rcd13ifvqb40","pricing_plan_id":"cebpf4jnsgd1na2vs0mg"},{"bike_id":"ca9c81fe-835b-457c-81e9-b93b6bd3a119","system_id":"levelo_inurba_marseille","lat":43.279207,"lon":5.395793,"is_reserved":false,"is_disabled":false,"rental_uris":{"android":"levelo://app?vid=ca9c81fe-835b-457c-81e9-b93b6bd3a119","ios":"levelo://app?vid=ca9c81fe-835b-457c-81e9-b93b6bd3a119"},"vehicle_type_id":"4","last_reported":1751094594,"current_range_meters":20400,"station_id":"ce4bhf92rcd13ifvqf40","pricing_plan_id":"cebpf4jnsgd1na2vs0mg"},{"bike_id":"b72c5f75-1614-4bff-9df9-3beaa0088a4d","system_id":"levelo_inurba_marseille","lat":43.266814,"lon":5.382752,"is_reserved":false,"is_disabled":false,"rental_uris":{"android":"levelo://app?vid=b72c5f75-1614-4bff-9df9-3beaa0088a4d","ios":"levelo://app?vid=b72c5f75-1614-4bff-9df9-3beaa0088a4d"},"vehicle_type_id":"4","last_reported":1751094594,"current_range_meters":20400,"station_id":"ce4bhg92rcd13ifvqf90","pricing_plan_id":"cebpf4jnsgd1na2vs0mg"},{"bike_id":"39391c58-0ced-47c1-ad0c-ead1501fc7b8","system_id":"levelo_inurba_marseille","lat":43.21729,"lon":5.34605,"is_reserved":false,"is_disabled":false,"rental_uris":{"android":"levelo://app?vid=39391c58-0ced-47c1-ad0c-ead1501fc7b8","ios":"levelo://app?vid=39391c58-0ced-47c1-ad0c-ead1501fc7b8"},"vehicle_type_id":"4","last_reported":1751094594,"current_range_meters":20400,"station_id":"st_cvj6r9ubvosntc0bgbag","pricing_plan_id":"cebpf4jnsgd1na2vs0mg"},{"bike_id":"7bda6b61-95c2-4760-9b18-5f93255ec6e6","system_id":"levelo_inurba_marseille","lat":43.265571,"lon":5.372846,"is_reserved":false,"is_disabled":false,"rental_uris":{"android":"levelo://app?vid=7bda6b61-95c2-4760-9b18-5f93255ec6e6","ios":"levelo://app?vid=7bda6b61-95c2-4760-9b18-5f93255ec6e6"},"vehicle_type_id":"4","last_reported":1751094594,"current_range_meters":20800,"station_id":"ce4bhg12rcd13ifvqf70","pricing_plan_id":"cebpf4jnsgd1na2vs0mg"},{"bike_id":"c4be0e32-eeb3-4451-9277-1b7a74488010","system_id":"levelo_inurba_marseille","lat":43.25501,"lon":5.3765,"is_reserved":false,"is_disabled":false,"rental_uris":{"android":"levelo://app?vid=c4be0e32-eeb3-4451-9277-1b7a74488010","ios":"levelo://app?vid=c4be0e32-eeb3-4451-9277-1b7a74488010"},"vehicle_type_id":"4","last_reported":1751094594,"current_range_meters":20800,"station_id":"ce4bhh12rcd13ifvqff0","pricing_plan_id":"cebpf4jnsgd1na2vs0mg"},{"bike_id":"4514bc28-605d-467d-8e4c-5ab0c84028ca","system_id":"levelo_inurba_marseille","lat":43.2321,"lon":5.35545,"is_reserved":false,"is_disabled":false,"rental_uris":{"android":"levelo://app?vid=4514bc28-605d-467d-8e4c-5ab0c84028ca","ios":"levelo://app?vid=4514bc28-605d-467d-8e4c-5ab0c84028ca"},"vehicle_type_id":"4","last_reported":1751094594,"current_range_meters":20800,"station_id":"ce4bhu92rcd13ifvqi70","pricing_plan_id":"cebpf4jnsgd1na2vs0mg"},{"bike_id":"09cb3b7f-3ebf-4726-ab49-a55d4fd48b3c","system_id":"levelo_inurba_marseille","lat":43.28072,"lon":5.40766,"is_reserved":false,"is_disabled":false,"rental_uris":{"android":"levelo://app?vid=09cb3b7f-3ebf-4726-ab49-a55d4fd48b3c","ios":"levelo://app?vid=09cb3b7f-3ebf-4726-ab49-a55d4fd48b3c"},"vehicle_type_id":"4","last_reported":1751094594,"current_range_meters":21600,"station_id":"","pricing_plan_id":"cebpf4jnsgd1na2vs0mg"},{"bike_id":"a48552d5-2c58-43d6-95ef-14837cfa1b7a","system_id":"levelo_inurba_marseille","lat":43.30978,"lon":5.40491,"is_reserved":false,"is_disabled":false,"rental_uris":{"android":"levelo://app?vid=a48552d5-2c58-43d6-95ef-14837cfa1b7a","ios":"levelo://app?vid=a48552d5-2c58-43d6-95ef-14837cfa1b7a"},"vehicle_type_id":"4","last_reported":1751094594,"current_range_meters":21600,"station_id":"","pricing_plan_id":"cebpf4jnsgd1na2vs0mg"},{"bike_id":"44fb4cee-d067-41cd-96e3-e0cc6ac4f3ab","system_id":"levelo_inurba_marseille","lat":43.29573,"lon":5.37512,"is_reserved":false,"is_disabled":false,"rental_uris":{"android":"levelo://app?vid=44fb4cee-d067-41cd-96e3-e0cc6ac4f3ab","ios":"levelo://app?vid=44fb4cee-d067-41cd-96e3-e0cc6ac4f3ab"},"vehicle_type_id":"4","last_reported":1751094594,"current_range_meters":21600,"station_id":"ce4bgh92rcd13ifvqb50","pricing_plan_id":"cebpf4jnsgd1na2vs0mg"},{"bike_id":"85d497e5-abd7-47da-ae7d-903f65af8cd9","system_id":"levelo_inurba_marseille","lat":43.30593,"lon":5.3721,"is_reserved":false,"is_disabled":false,"rental_uris":{"android":"levelo://app?vid=85d497e5-abd7-47da-ae7d-903f65af8cd9","ios":"levelo://app?vid=85d497e5-abd7-47da-ae7d-903f65af8cd9"},"vehicle_type_id":"4","last_reported":1751094594,"current_range_meters":21600,"station_id":"ce4bgqh2rcd13ifvqc4g","pricing_plan_id":"cebpf4jnsgd1na2vs0mg"},{"bike_id":"bfeb0e78-a6d9-458c-950d-1ddd9697fb02","system_id":"levelo_inurba_marseille","lat":43.30524,"lon":5.36539,"is_reserved":false,"is_disabled":false,"rental_uris":{"android":"levelo://app?vid=bfeb0e78-a6d9-458c-950d-1ddd9697fb02","ios":"levelo://app?vid=bfeb0e78-a6d9-458c-950d-1ddd9697fb02"},"vehicle_type_id":"4","last_reported":1751094594,"current_range_meters":21600,"station_id":"ce4bgs12rcd13ifvqcag","pricing_plan_id":"cebpf4jnsgd1na2vs0mg"},{"bike_id":"e0519c41-c29a-46b8-9e9f-f9f70f6c2021","system_id":"levelo_inurba_marseille","lat":43.29234,"lon":5.40112,"is_reserved":false,"is_disabled":false,"rental_uris":{"android":"levelo://app?vid=e0519c41-c29a-46b8-9e9f-f9f70f6c2021","ios":"levelo://app?vid=e0519c41-c29a-46b8-9e9f-f9f70f6c2021"},"vehicle_type_id":"4","last_reported":1751094594,"current_range_meters":21600,"station_id":"ce4bh312rcd13ifvqdk0","pricing_plan_id":"cebpf4jnsgd1na2vs0mg"},{"bike_id":"938a3fd4-3ed6-48f4-b993-bfd037cb52d6","system_id":"levelo_inurba_marseille","lat":43.22513,"lon":5.34787,"is_reserved":false,"is_disabled":false,"rental_uris":{"android":"levelo://app?vid=938a3fd4-3ed6-48f4-b993-bfd037cb52d6","ios":"levelo://app?vid=938a3fd4-3ed6-48f4-b993-bfd037cb52d6"},"vehicle_type_id":"4","last_reported":1751094594,"current_range_meters":21600,"station_id":"st_cvj5dfep6f1abm77gieg","pricing_plan_id":"cebpf4jnsgd1na2vs0mg"},{"bike_id":"bf24b26e-7f51-4120-9a48-54c87edaa2f7","system_id":"levelo_inurba_marseille","lat":43.21222,"lon":5.35073,"is_reserved":false,"is_disabled":false,"rental_uris":{"android":"levelo://app?vid=bf24b26e-7f51-4120-9a48-54c87edaa2f7","ios":"levelo://app?vid=bf24b26e-7f51-4120-9a48-54c87edaa2f7"},"vehicle_type_id":"4","last_reported":1751094594,"current_range_meters":21600,"station_id":"st_cvj6sg6p6f1abm77japg","pricing_plan_id":"cebpf4jnsgd1na2vs0mg"},{"bike_id":"7f212f1e-9b22-4ad3-88bb-18d999719345","system_id":"levelo_inurba_marseille","lat":43.211949,"lon":5.350747,"is_reserved":false,"is_disabled":false,"rental_uris":{"android":"levelo://app?vid=7f212f1e-9b22-4ad3-88bb-18d999719345","ios":"levelo://app?vid=7f212f1e-9b22-4ad3-88bb-18d999719345"},"vehicle_type_id":"4","last_reported":1751094594,"current_range_meters":21600,"station_id":"st_cvj6sg6p6f1abm77japg","pricing_plan_id":"cebpf4jnsgd1na2vs0mg"},{"bike_id":"e9f96f5d-ba87-4878-85c7-83c44e027366","system_id":"levelo_inurba_marseille","lat":43.30586,"lon":5.37243,"is_reserved":false,"is_disabled":false,"rental_uris":{"android":"levelo://app?vid=e9f96f5d-ba87-4878-85c7-83c44e027366","ios":"levelo://app?vid=e9f96f5d-ba87-4878-85c7-83c44e027366"},"vehicle_type_id":"4","last_reported":1751094594,"current_range_meters":22000,"station_id":"ce4bgqh2rcd13ifvqc4g","pricing_plan_id":"cebpf4jnsgd1na2vs0mg"},{"bike_id":"752dd54d-214c-4af5-a6e0-26921b4a5a27","system_id":"levelo_inurba_marseille","lat":43.27215,"lon":5.39185,"is_reserved":false,"is_disabled":false,"rental_uris":{"android":"levelo://app?vid=752dd54d-214c-4af5-a6e0-26921b4a5a27","ios":"levelo://app?vid=752dd54d-214c-4af5-a6e0-26921b4a5a27"},"vehicle_type_id":"4","last_reported":1751094594,"current_range_meters":22000,"station_id":"ce4bhhp2rcd13ifvqfm0","pricing_plan_id":"cebpf4jnsgd1na2vs0mg"},{"bike_id":"a2cdaa3c-dc25-4cd3-ab6f-26ee402b0cf4","system_id":"levelo_inurba_marseille","lat":43.28055,"lon":5.3902,"is_reserved":false,"is_disabled":false,"rental_uris":{"android":"levelo://app?vid=a2cdaa3c-dc25-4cd3-ab6f-26ee402b0cf4","ios":"levelo://app?vid=a2cdaa3c-dc25-4cd3-ab6f-26ee402b0cf4"},"vehicle_type_id":"4","last_reported":1751094594,"current_range_meters":22400,"station_id":"","pricing_plan_id":"cebpf4jnsgd1na2vs0mg"},{"bike_id":"b3c530a9-5922-4327-8161-b30dfc7c7c2f","system_id":"levelo_inurba_marseille","lat":43.273137,"lon":5.39085,"is_reserved":false,"is_disabled":false,"rental_uris":{"android":"levelo://app?vid=b3c530a9-5922-4327-8161-b30dfc7c7c2f","ios":"levelo://app?vid=b3c530a9-5922-4327-8161-b30dfc7c7c2f"},"vehicle_type_id":"4","last_reported":1751094594,"current_range_meters":22400,"station_id":"ce4bhgp2rcd13ifvqfe0","pricing_plan_id":"cebpf4jnsgd1na2vs0mg"},{"bike_id":"525b007c-f7cc-4402-8822-0aab47b66e56","system_id":"levelo_inurba_marseille","lat":43.24196,"lon":5.39724,"is_reserved":false,"is_disabled":false,"rental_uris":{"android":"levelo://app?vid=525b007c-f7cc-4402-8822-0aab47b66e56","ios":"levelo://app?vid=525b007c-f7cc-4402-8822-0aab47b66e56"},"vehicle_type_id":"4","last_reported":1751094594,"current_range_meters":22400,"station_id":"ce4bhn12rcd13ifvqgpg","pricing_plan_id":"cebpf4jnsgd1na2vs0mg"},{"bike_id":"e7641e58-176f-485d-9342-129003cdc52b","system_id":"levelo_inurba_marseille","lat":43.32112,"lon":5.36781,"is_reserved":false,"is_disabled":false,"rental_uris":{"android":"levelo://app?vid=e7641e58-176f-485d-9342-129003cdc52b","ios":"levelo://app?vid=e7641e58-176f-485d-9342-129003cdc52b"},"vehicle_type_id":"4","last_reported":1751094594,"current_range_meters":22400,"station_id":"ce4bhrh2rcd13ifvqhug","pricing_plan_id":"cebpf4jnsgd1na2vs0mg"},{"bike_id":"20f4d175-b37b-4c11-84d5-d1ed4dca2a7d","system_id":"levelo_inurba_marseille","lat":43.30378,"lon":5.41886,"is_reserved":false,"is_disabled":false,"rental_uris":{"android":"levelo://app?vid=20f4d175-b37b-4c11-84d5-d1ed4dca2a7d","ios":"levelo://app?vid=20f4d175-b37b-4c11-84d5-d1ed4dca2a7d"},"vehicle_type_id":"4","last_reported":1751094594,"current_range_meters":22800,"station_id":"ce4bhop2rcd13ifvqh7g","pricing_plan_id":"cebpf4jnsgd1na2vs0mg"},{"bike_id":"ff359b06-e82b-4518-b602-f9c62162a27d","system_id":"levelo_inurba_marseille","lat":43.211919,"lon":5.350731,"is_reserved":false,"is_disabled":false,"rental_uris":{"android":"levelo://app?vid=ff359b06-e82b-4518-b602-f9c62162a27d","ios":"levelo://app?vid=ff359b06-e82b-4518-b602-f9c62162a27d"},"vehicle_type_id":"4","last_reported":1751094594,"current_range_meters":22800,"station_id":"st_cvj6sg6p6f1abm77japg","pricing_plan_id":"cebpf4jnsgd1na2vs0mg"},{"bike_id":"9b21541a-edfa-4c28-a626-87d8c52e11d9","system_id":"levelo_inurba_marseille","lat":43.31819,"lon":5.37437,"is_reserved":false,"is_disabled":false,"rental_uris":{"android":"levelo://app?vid=9b21541a-edfa-4c28-a626-87d8c52e11d9","ios":"levelo://app?vid=9b21541a-edfa-4c28-a626-87d8c52e11d9"},"vehicle_type_id":"4","last_reported":1751094594,"current_range_meters":23200,"station_id":"","pricing_plan_id":"cebpf4jnsgd1na2vs0mg"},{"bike_id":"f16e983f-0b05-45f1-a3a5-58df3a8450fd","system_id":"levelo_inurba_marseille","lat":43.305944,"lon":5.372168,"is_reserved":false,"is_disabled":false,"rental_uris":{"android":"levelo://app?vid=f16e983f-0b05-45f1-a3a5-58df3a8450fd","ios":"levelo://app?vid=f16e983f-0b05-45f1-a3a5-58df3a8450fd"},"vehicle_type_id":"4","last_reported":1751094594,"current_range_meters":24000,"station_id":"ce4bgqh2rcd13ifvqc4g","pricing_plan_id":"cebpf4jnsgd1na2vs0mg"},{"bike_id":"5d371c83-91ba-4626-b0b8-87a078805a8f","system_id":"levelo_inurba_marseille","lat":43.30659,"lon":5.40075,"is_reserved":false,"is_disabled":false,"rental_uris":{"android":"levelo://app?vid=5d371c83-91ba-4626-b0b8-87a078805a8f","ios":"levelo://app?vid=5d371c83-91ba-4626-b0b8-87a078805a8f"},"vehicle_type_id":"4","last_reported":1751094594,"current_range_meters":24000,"station_id":"ce4bh112rcd13ifvqda0","pricing_plan_id":"cebpf4jnsgd1na2vs0mg"},{"bike_id":"2247016c-bf83-4bae-ae15-33a8535e2292","system_id":"levelo_inurba_marseille","lat":43.28099,"lon":5.3785,"is_reserved":false,"is_disabled":false,"rental_uris":{"android":"levelo://app?vid=2247016c-bf83-4bae-ae15-33a8535e2292","ios":"levelo://app?vid=2247016c-bf83-4bae-ae15-33a8535e2292"},"vehicle_type_id":"4","last_reported":1751094594,"current_range_meters":24000,"station_id":"ce4bha12rcd13ifvqee0","pricing_plan_id":"cebpf4jnsgd1na2vs0mg"},{"bike_id":"75fbd02b-d4f4-40e2-8317-a8ab6fd47b54","system_id":"levelo_inurba_marseille","lat":43.27189,"lon":5.40995,"is_reserved":false,"is_disabled":false,"rental_uris":{"android":"levelo://app?vid=75fbd02b-d4f4-40e2-8317-a8ab6fd47b54","ios":"levelo://app?vid=75fbd02b-d4f4-40e2-8317-a8ab6fd47b54"},"vehicle_type_id":"4","last_reported":1751094594,"current_range_meters":24000,"station_id":"ce4bhl12rcd13ifvqgf0","pricing_plan_id":"cebpf4jnsgd1na2vs0mg"},{"bike_id":"8cef66de-4d92-4f07-a867-40d4ac8d07af","system_id":"levelo_inurba_marseille","lat":43.28161,"lon":5.42628,"is_reserved":false,"is_disabled":false,"rental_uris":{"android":"levelo://app?vid=8cef66de-4d92-4f07-a867-40d4ac8d07af","ios":"levelo://app?vid=8cef66de-4d92-4f07-a867-40d4ac8d07af"},"vehicle_type_id":"4","last_reported":1751094594,"current_range_meters":24000,"station_id":"ce4bhnh2rcd13ifvqgug","pricing_plan_id":"cebpf4jnsgd1na2vs0mg"},{"bike_id":"aed93264-ed50-458f-af3f-6116d6194882","system_id":"levelo_inurba_marseille","lat":43.33718,"lon":5.39188,"is_reserved":false,"is_disabled":false,"rental_uris":{"android":"levelo://app?vid=aed93264-ed50-458f-af3f-6116d6194882","ios":"levelo://app?vid=aed93264-ed50-458f-af3f-6116d6194882"},"vehicle_type_id":"4","last_reported":1751094594,"current_range_meters":24000,"station_id":"ce4bhr92rcd13ifvqhsg","pricing_plan_id":"cebpf4jnsgd1na2vs0mg"},{"bike_id":"01c9b150-e855-411d-929e-a0bc737e52c6","system_id":"levelo_inurba_marseille","lat":43.211922,"lon":5.350764,"is_reserved":false,"is_disabled":false,"rental_uris":{"android":"levelo://app?vid=01c9b150-e855-411d-929e-a0bc737e52c6","ios":"levelo://app?vid=01c9b150-e855-411d-929e-a0bc737e52c6"},"vehicle_type_id":"4","last_reported":1751094594,"current_range_meters":24000,"station_id":"st_cvj6sg6p6f1abm77japg","pricing_plan_id":"cebpf4jnsgd1na2vs0mg"},{"bike_id":"452e8211-4f44-45d0-814a-3e9e25b8c44e","system_id":"levelo_inurba_marseille","lat":43.212,"lon":5.35068,"is_reserved":false,"is_disabled":false,"rental_uris":{"android":"levelo://app?vid=452e8211-4f44-45d0-814a-3e9e25b8c44e","ios":"levelo://app?vid=452e8211-4f44-45d0-814a-3e9e25b8c44e"},"vehicle_type_id":"4","last_reported":1751094594,"current_range_meters":24000,"station_id":"st_cvj6sg6p6f1abm77japg","pricing_plan_id":"cebpf4jnsgd1na2vs0mg"},{"bike_id":"0afa18af-b465-47ed-ad93-4fcbc61f4e1d","system_id":"levelo_inurba_marseille","lat":43.29386,"lon":5.37836,"is_reserved":false,"is_disabled":false,"rental_uris":{"android":"levelo://app?vid=0afa18af-b465-47ed-ad93-4fcbc61f4e1d","ios":"levelo://app?vid=0afa18af-b465-47ed-ad93-4fcbc61f4e1d"},"vehicle_type_id":"4","last_reported":1751094594,"current_range_meters":24400,"station_id":"ce4bgjh2rcd13ifvqbf0","pricing_plan_id":"cebpf4jnsgd1na2vs0mg"},{"bike_id":"95a71a0d-dc25-499b-bc43-17b04312bdea","system_id":"levelo_inurba_marseille","lat":43.29788,"lon":5.37112,"is_reserved":false,"is_disabled":false,"rental_uris":{"android":"levelo://app?vid=95a71a0d-dc25-499b-bc43-17b04312bdea","ios":"levelo://app?vid=95a71a0d-dc25-499b-bc43-17b04312bdea"},"vehicle_type_id":"4","last_reported":1751094594,"current_range_meters":24400,"station_id":"ce4bgop2rcd13ifvqc1g","pricing_plan_id":"cebpf4jnsgd1na2vs0mg"},{"bike_id":"76111a5b-bbc0-4c0e-bd5a-c5df3067ba65","system_id":"levelo_inurba_marseille","lat":43.30311,"lon":5.36899,"is_reserved":false,"is_disabled":false,"rental_uris":{"android":"levelo://app?vid=76111a5b-bbc0-4c0e-bd5a-c5df3067ba65","ios":"levelo://app?vid=76111a5b-bbc0-4c0e-bd5a-c5df3067ba65"},"vehicle_type_id":"4","last_reported":1751094594,"current_range_meters":24400,"station_id":"ce4bgqh2rcd13ifvqc5g","pricing_plan_id":"cebpf4jnsgd1na2vs0mg"},{"bike_id":"37acbad3-dc47-43b0-9d9a-4c9faaa944b1","system_id":"levelo_inurba_marseille","lat":43.311198,"lon":5.377659,"is_reserved":false,"is_disabled":false,"rental_uris":{"android":"levelo://app?vid=37acbad3-dc47-43b0-9d9a-4c9faaa944b1","ios":"levelo://app?vid=37acbad3-dc47-43b0-9d9a-4c9faaa944b1"},"vehicle_type_id":"4","last_reported":1751094594,"current_range_meters":24400,"station_id":"ce4bgt92rcd13ifvqcg0","pricing_plan_id":"cebpf4jnsgd1na2vs0mg"},{"bike_id":"b9a2a062-badb-48f4-baac-39c7ba602ad6","system_id":"levelo_inurba_marseille","lat":43.31127,"lon":5.37775,"is_reserved":false,"is_disabled":false,"rental_uris":{"android":"levelo://app?vid=b9a2a062-badb-48f4-baac-39c7ba602ad6","ios":"levelo://app?vid=b9a2a062-badb-48f4-baac-39c7ba602ad6"},"vehicle_type_id":"4","last_reported":1751094594,"current_range_meters":24400,"station_id":"ce4bgt92rcd13ifvqcg0","pricing_plan_id":"cebpf4jnsgd1na2vs0mg"},{"bike_id":"50908e8d-8972-47a6-8760-e0f9ab632724","system_id":"levelo_inurba_marseille","lat":43.292799,"lon":5.401298,"is_reserved":false,"is_disabled":false,"rental_uris":{"android":"levelo://app?vid=50908e8d-8972-47a6-8760-e0f9ab632724","ios":"levelo://app?vid=50908e8d-8972-47a6-8760-e0f9ab632724"},"vehicle_type_id":"4","last_reported":1751094594,"current_range_meters":24400,"station_id":"ce4bh312rcd13ifvqdk0","pricing_plan_id":"cebpf4jnsgd1na2vs0mg"},{"bike_id":"64effe4a-0c9a-4b2c-984a-1bf97b5b695d","system_id":"levelo_inurba_marseille","lat":43.283672,"lon":5.386279,"is_reserved":false,"is_disabled":false,"rental_uris":{"android":"levelo://app?vid=64effe4a-0c9a-4b2c-984a-1bf97b5b695d","ios":"levelo://app?vid=64effe4a-0c9a-4b2c-984a-1bf97b5b695d"},"vehicle_type_id":"4","last_reported":1751094594,"current_range_meters":24400,"station_id":"ce4bhg12rcd13ifvqf80","pricing_plan_id":"cebpf4jnsgd1na2vs0mg"},{"bike_id":"c540a541-746b-4f8f-924b-16f4dab95c02","system_id":"levelo_inurba_marseille","lat":43.270579,"lon":5.402625,"is_reserved":false,"is_disabled":false,"rental_uris":{"android":"levelo://app?vid=c540a541-746b-4f8f-924b-16f4dab95c02","ios":"levelo://app?vid=c540a541-746b-4f8f-924b-16f4dab95c02"},"vehicle_type_id":"4","last_reported":1751094594,"current_range_meters":24400,"station_id":"ce4bhk92rcd13ifvqgc0","pricing_plan_id":"cebpf4jnsgd1na2vs0mg"},{"bike_id":"57d7d080-32a9-4c65-b3ac-f79d313f4ef3","system_id":"levelo_inurba_marseille","lat":43.245439,"lon":5.395256,"is_reserved":false,"is_disabled":false,"rental_uris":{"android":"levelo://app?vid=57d7d080-32a9-4c65-b3ac-f79d313f4ef3","ios":"levelo://app?vid=57d7d080-32a9-4c65-b3ac-f79d313f4ef3"},"vehicle_type_id":"4","last_reported":1751094594,"current_range_meters":24400,"station_id":"ce4bhlp2rcd13ifvqgjg","pricing_plan_id":"cebpf4jnsgd1na2vs0mg"},{"bike_id":"d192b54c-3cee-43bf-b9ba-ebe5381351f6","system_id":"levelo_inurba_marseille","lat":43.21744,"lon":5.34606,"is_reserved":false,"is_disabled":false,"rental_uris":{"android":"levelo://app?vid=d192b54c-3cee-43bf-b9ba-ebe5381351f6","ios":"levelo://app?vid=d192b54c-3cee-43bf-b9ba-ebe5381351f6"},"vehicle_type_id":"4","last_reported":1751094594,"current_range_meters":24400,"station_id":"st_cvj6r9ubvosntc0bgbag","pricing_plan_id":"cebpf4jnsgd1na2vs0mg"},{"bike_id":"ba926bfc-9632-4680-b0ed-32a040d6fb83","system_id":"levelo_inurba_marseille","lat":43.21186,"lon":5.35077,"is_reserved":false,"is_disabled":false,"rental_uris":{"android":"levelo://app?vid=ba926bfc-9632-4680-b0ed-32a040d6fb83","ios":"levelo://app?vid=ba926bfc-9632-4680-b0ed-32a040d6fb83"},"vehicle_type_id":"4","last_reported":1751094594,"current_range_meters":24400,"station_id":"st_cvj6sg6p6f1abm77japg","pricing_plan_id":"cebpf4jnsgd1na2vs0mg"},{"bike_id":"a8dc4115-b472-4281-8cc2-351dfe648ffd","system_id":"levelo_inurba_marseille","lat":43.30866,"lon":5.36801,"is_reserved":false,"is_disabled":false,"rental_uris":{"android":"levelo://app?vid=a8dc4115-b472-4281-8cc2-351dfe648ffd","ios":"levelo://app?vid=a8dc4115-b472-4281-8cc2-351dfe648ffd"},"vehicle_type_id":"4","last_reported":1751094594,"current_range_meters":24800,"station_id":"","pricing_plan_id":"cebpf4jnsgd1na2vs0mg"},{"bike_id":"3c2a992f-204a-4e64-9d2f-44fb2b11e63e","system_id":"levelo_inurba_marseille","lat":43.30798,"lon":5.38152,"is_reserved":false,"is_disabled":false,"rental_uris":{"android":"levelo://app?vid=3c2a992f-204a-4e64-9d2f-44fb2b11e63e","ios":"levelo://app?vid=3c2a992f-204a-4e64-9d2f-44fb2b11e63e"},"vehicle_type_id":"4","last_reported":1751094594,"current_range_meters":24800,"station_id":"ce4bgt12rcd13ifvqce0","pricing_plan_id":"cebpf4jnsgd1na2vs0mg"},{"bike_id":"ab0ebbb6-c6ff-44b4-8b63-9ae21852af23","system_id":"levelo_inurba_marseille","lat":43.316956,"lon":5.377366,"is_reserved":false,"is_disabled":false,"rental_uris":{"android":"levelo://app?vid=ab0ebbb6-c6ff-44b4-8b63-9ae21852af23","ios":"levelo://app?vid=ab0ebbb6-c6ff-44b4-8b63-9ae21852af23"},"vehicle_type_id":"4","last_reported":1751094594,"current_range_meters":24800,"station_id":"ce4bgth2rcd13ifvqch0","pricing_plan_id":"cebpf4jnsgd1na2vs0mg"},{"bike_id":"8786963e-1715-42d8-925d-73e756704f67","system_id":"levelo_inurba_marseille","lat":43.317042,"lon":5.404272,"is_reserved":false,"is_disabled":false,"rental_uris":{"android":"levelo://app?vid=8786963e-1715-42d8-925d-73e756704f67","ios":"levelo://app?vid=8786963e-1715-42d8-925d-73e756704f67"},"vehicle_type_id":"4","last_reported":1751094594,"current_range_meters":24800,"station_id":"ce4bh012rcd13ifvqd00","pricing_plan_id":"cebpf4jnsgd1na2vs0mg"},{"bike_id":"47526409-c30c-4861-8249-924be23e7b76","system_id":"levelo_inurba_marseille","lat":43.28106,"lon":5.37863,"is_reserved":false,"is_disabled":false,"rental_uris":{"android":"levelo://app?vid=47526409-c30c-4861-8249-924be23e7b76","ios":"levelo://app?vid=47526409-c30c-4861-8249-924be23e7b76"},"vehicle_type_id":"4","last_reported":1751094594,"current_range_meters":24800,"station_id":"ce4bha12rcd13ifvqee0","pricing_plan_id":"cebpf4jnsgd1na2vs0mg"},{"bike_id":"e8e633aa-6913-4f5a-9681-4be6e4fcda77","system_id":"levelo_inurba_marseille","lat":43.28268,"lon":5.35067,"is_reserved":false,"is_disabled":false,"rental_uris":{"android":"levelo://app?vid=e8e633aa-6913-4f5a-9681-4be6e4fcda77","ios":"levelo://app?vid=e8e633aa-6913-4f5a-9681-4be6e4fcda77"},"vehicle_type_id":"4","last_reported":1751094594,"current_range_meters":24800,"station_id":"ce4bhbp2rcd13ifvqerg","pricing_plan_id":"cebpf4jnsgd1na2vs0mg"},{"bike_id":"59bbd75f-f2ad-476c-a450-1d1312ce06f2","system_id":"levelo_inurba_marseille","lat":43.279158,"lon":5.395807,"is_reserved":false,"is_disabled":false,"rental_uris":{"android":"levelo://app?vid=59bbd75f-f2ad-476c-a450-1d1312ce06f2","ios":"levelo://app?vid=59bbd75f-f2ad-476c-a450-1d1312ce06f2"},"vehicle_type_id":"4","last_reported":1751094594,"current_range_meters":24800,"station_id":"ce4bhf92rcd13ifvqf40","pricing_plan_id":"cebpf4jnsgd1na2vs0mg"},{"bike_id":"f6c2e9a8-f04d-43c7-b48a-1bf2f7c70b74","system_id":"levelo_inurba_marseille","lat":43.27994,"lon":5.41665,"is_reserved":false,"is_disabled":false,"rental_uris":{"android":"levelo://app?vid=f6c2e9a8-f04d-43c7-b48a-1bf2f7c70b74","ios":"levelo://app?vid=f6c2e9a8-f04d-43c7-b48a-1bf2f7c70b74"},"vehicle_type_id":"4","last_reported":1751094594,"current_range_meters":24800,"station_id":"ce4bho12rcd13ifvqh1g","pricing_plan_id":"cebpf4jnsgd1na2vs0mg"},{"bike_id":"1f30e6ed-8504-4448-b3d0-3017ab371be8","system_id":"levelo_inurba_marseille","lat":43.29908,"lon":5.43669,"is_reserved":false,"is_disabled":false,"rental_uris":{"android":"levelo://app?vid=1f30e6ed-8504-4448-b3d0-3017ab371be8","ios":"levelo://app?vid=1f30e6ed-8504-4448-b3d0-3017ab371be8"},"vehicle_type_id":"4","last_reported":1751094594,"current_range_meters":24800,"station_id":"ce4bhpp2rcd13ifvqhfg","pricing_plan_id":"cebpf4jnsgd1na2vs0mg"},{"bike_id":"08d68cc4-7949-4a3d-b89d-5435ccb56748","system_id":"levelo_inurba_marseille","lat":43.3189,"lon":5.40738,"is_reserved":false,"is_disabled":false,"rental_uris":{"android":"levelo://app?vid=08d68cc4-7949-4a3d-b89d-5435ccb56748","ios":"levelo://app?vid=08d68cc4-7949-4a3d-b89d-5435ccb56748"},"vehicle_type_id":"4","last_reported":1751094594,"current_range_meters":24800,"station_id":"ce4bhq12rcd13ifvqhig","pricing_plan_id":"cebpf4jnsgd1na2vs0mg"},{"bike_id":"7ebfbd0d-da1b-4fd9-b31e-5aee029ee9ef","system_id":"levelo_inurba_marseille","lat":43.337192,"lon":5.391843,"is_reserved":false,"is_disabled":false,"rental_uris":{"android":"levelo://app?vid=7ebfbd0d-da1b-4fd9-b31e-5aee029ee9ef","ios":"levelo://app?vid=7ebfbd0d-da1b-4fd9-b31e-5aee029ee9ef"},"vehicle_type_id":"4","last_reported":1751094594,"current_range_meters":24800,"station_id":"ce4bhr92rcd13ifvqhsg","pricing_plan_id":"cebpf4jnsgd1na2vs0mg"},{"bike_id":"f4e7d81d-3478-47f5-bf14-b2f57b0fd249","system_id":"levelo_inurba_marseille","lat":43.21192,"lon":5.350784,"is_reserved":false,"is_disabled":false,"rental_uris":{"android":"levelo://app?vid=f4e7d81d-3478-47f5-bf14-b2f57b0fd249","ios":"levelo://app?vid=f4e7d81d-3478-47f5-bf14-b2f57b0fd249"},"vehicle_type_id":"4","last_reported":1751094594,"current_range_meters":24800,"station_id":"st_cvj6sg6p6f1abm77japg","pricing_plan_id":"cebpf4jnsgd1na2vs0mg"},{"bike_id":"82e3e61c-49df-491b-9fc4-ae2e83f844b6","system_id":"levelo_inurba_marseille","lat":43.24651,"lon":5.38928,"is_reserved":false,"is_disabled":false,"rental_uris":{"android":"levelo://app?vid=82e3e61c-49df-491b-9fc4-ae2e83f844b6","ios":"levelo://app?vid=82e3e61c-49df-491b-9fc4-ae2e83f844b6"},"vehicle_type_id":"4","last_reported":1751094594,"current_range_meters":25200,"station_id":"ce4bhg12rcd13ifvqf60","pricing_plan_id":"cebpf4jnsgd1na2vs0mg"},{"bike_id":"d6206614-941a-4cc2-8752-c1c7d6e08bb6","system_id":"levelo_inurba_marseille","lat":43.2844,"lon":5.39193,"is_reserved":false,"is_disabled":false,"rental_uris":{"android":"levelo://app?vid=d6206614-941a-4cc2-8752-c1c7d6e08bb6","ios":"levelo://app?vid=d6206614-941a-4cc2-8752-c1c7d6e08bb6"},"vehicle_type_id":"4","last_reported":1751094594,"current_range_meters":25200,"station_id":"ce4bhoh2rcd13ifvqh5g","pricing_plan_id":"cebpf4jnsgd1na2vs0mg"},{"bike_id":"6248a3ef-766e-45da-9351-45f0df09d787","system_id":"levelo_inurba_marseille","lat":43.337267,"lon":5.391892,"is_reserved":false,"is_disabled":false,"rental_uris":{"android":"levelo://app?vid=6248a3ef-766e-45da-9351-45f0df09d787","ios":"levelo://app?vid=6248a3ef-766e-45da-9351-45f0df09d787"},"vehicle_type_id":"4","last_reported":1751094594,"current_range_meters":25200,"station_id":"ce4bhr92rcd13ifvqhsg","pricing_plan_id":"cebpf4jnsgd1na2vs0mg"},{"bike_id":"8fc36912-d7a7-4c5e-bf3c-ae03694d6ba3","system_id":"levelo_inurba_marseille","lat":43.211936,"lon":5.350721,"is_reserved":false,"is_disabled":false,"rental_uris":{"android":"levelo://app?vid=8fc36912-d7a7-4c5e-bf3c-ae03694d6ba3","ios":"levelo://app?vid=8fc36912-d7a7-4c5e-bf3c-ae03694d6ba3"},"vehicle_type_id":"4","last_reported":1751094594,"current_range_meters":25200,"station_id":"st_cvj6sg6p6f1abm77japg","pricing_plan_id":"cebpf4jnsgd1na2vs0mg"},{"bike_id":"49f04369-d5bd-4a74-a2d7-b81460aaef5c","system_id":"levelo_inurba_marseille","lat":43.30158,"lon":5.38084,"is_reserved":false,"is_disabled":false,"rental_uris":{"android":"levelo://app?vid=49f04369-d5bd-4a74-a2d7-b81460aaef5c","ios":"levelo://app?vid=49f04369-d5bd-4a74-a2d7-b81460aaef5c"},"vehicle_type_id":"4","last_reported":1751094594,"current_range_meters":25600,"station_id":"ce4bgjp2rcd13ifvqbh0","pricing_plan_id":"cebpf4jnsgd1na2vs0mg"},{"bike_id":"ee9d32c9-57de-43e5-b2a3-20100be10352","system_id":"levelo_inurba_marseille","lat":43.311175,"lon":5.377706,"is_reserved":false,"is_disabled":false,"rental_uris":{"android":"levelo://app?vid=ee9d32c9-57de-43e5-b2a3-20100be10352","ios":"levelo://app?vid=ee9d32c9-57de-43e5-b2a3-20100be10352"},"vehicle_type_id":"4","last_reported":1751094594,"current_range_meters":25600,"station_id":"ce4bgt92rcd13ifvqcg0","pricing_plan_id":"cebpf4jnsgd1na2vs0mg"},{"bike_id":"e4e2df5e-404b-4263-9ff7-67cceb30621b","system_id":"levelo_inurba_marseille","lat":43.28271,"lon":5.35062,"is_reserved":false,"is_disabled":false,"rental_uris":{"android":"levelo://app?vid=e4e2df5e-404b-4263-9ff7-67cceb30621b","ios":"levelo://app?vid=e4e2df5e-404b-4263-9ff7-67cceb30621b"},"vehicle_type_id":"4","last_reported":1751094594,"current_range_meters":25600,"station_id":"ce4bhbp2rcd13ifvqerg","pricing_plan_id":"cebpf4jnsgd1na2vs0mg"},{"bike_id":"954e0f67-20e8-4dda-91e2-57ccae0f6606","system_id":"levelo_inurba_marseille","lat":43.24668,"lon":5.38927,"is_reserved":false,"is_disabled":false,"rental_uris":{"android":"levelo://app?vid=954e0f67-20e8-4dda-91e2-57ccae0f6606","ios":"levelo://app?vid=954e0f67-20e8-4dda-91e2-57ccae0f6606"},"vehicle_type_id":"4","last_reported":1751094594,"current_range_meters":25600,"station_id":"ce4bhg12rcd13ifvqf60","pricing_plan_id":"cebpf4jnsgd1na2vs0mg"},{"bike_id":"762ecaae-d785-43e0-a1ec-c6be63549125","system_id":"levelo_inurba_marseille","lat":43.25105,"lon":5.40325,"is_reserved":false,"is_disabled":false,"rental_uris":{"android":"levelo://app?vid=762ecaae-d785-43e0-a1ec-c6be63549125","ios":"levelo://app?vid=762ecaae-d785-43e0-a1ec-c6be63549125"},"vehicle_type_id":"4","last_reported":1751094594,"current_range_meters":25600,"station_id":"ce4bhlh2rcd13ifvqgig","pricing_plan_id":"cebpf4jnsgd1na2vs0mg"},{"bike_id":"9200c374-b95b-421f-af42-05f34596d715","system_id":"levelo_inurba_marseille","lat":43.32329,"lon":5.39025,"is_reserved":false,"is_disabled":false,"rental_uris":{"android":"levelo://app?vid=9200c374-b95b-421f-af42-05f34596d715","ios":"levelo://app?vid=9200c374-b95b-421f-af42-05f34596d715"},"vehicle_type_id":"4","last_reported":1751094594,"current_range_meters":25600,"station_id":"ce4bhqp2rcd13ifvqhog","pricing_plan_id":"cebpf4jnsgd1na2vs0mg"},{"bike_id":"7712491c-e18b-4b09-bb79-30880b357c07","system_id":"levelo_inurba_marseille","lat":43.21203,"lon":5.35075,"is_reserved":false,"is_disabled":false,"rental_uris":{"android":"levelo://app?vid=7712491c-e18b-4b09-bb79-30880b357c07","ios":"levelo://app?vid=7712491c-e18b-4b09-bb79-30880b357c07"},"vehicle_type_id":"4","last_reported":1751094594,"current_range_meters":25600,"station_id":"st_cvj6sg6p6f1abm77japg","pricing_plan_id":"cebpf4jnsgd1na2vs0mg"},{"bike_id":"394577f5-171f-4c40-82df-cbe6f8e74ded","system_id":"levelo_inurba_marseille","lat":43.27615,"lon":5.36118,"is_reserved":false,"is_disabled":false,"rental_uris":{"android":"levelo://app?vid=394577f5-171f-4c40-82df-cbe6f8e74ded","ios":"levelo://app?vid=394577f5-171f-4c40-82df-cbe6f8e74ded"},"vehicle_type_id":"4","last_reported":1751094594,"current_range_meters":26000,"station_id":"ce4bgj92rcd13ifvqbe0","pricing_plan_id":"cebpf4jnsgd1na2vs0mg"},{"bike_id":"c62d2f42-244e-489d-af67-fa5f9beab7a6","system_id":"levelo_inurba_marseille","lat":43.29866,"lon":5.39731,"is_reserved":false,"is_disabled":false,"rental_uris":{"android":"levelo://app?vid=c62d2f42-244e-489d-af67-fa5f9beab7a6","ios":"levelo://app?vid=c62d2f42-244e-489d-af67-fa5f9beab7a6"},"vehicle_type_id":"4","last_reported":1751094594,"current_range_meters":26000,"station_id":"ce4bh0h2rcd13ifvqd50","pricing_plan_id":"cebpf4jnsgd1na2vs0mg"},{"bike_id":"90a26753-d223-4ffe-a48a-61f624042855","system_id":"levelo_inurba_marseille","lat":43.281018,"lon":5.378576,"is_reserved":false,"is_disabled":false,"rental_uris":{"android":"levelo://app?vid=90a26753-d223-4ffe-a48a-61f624042855","ios":"levelo://app?vid=90a26753-d223-4ffe-a48a-61f624042855"},"vehicle_type_id":"4","last_reported":1751094594,"current_range_meters":26000,"station_id":"ce4bha12rcd13ifvqee0","pricing_plan_id":"cebpf4jnsgd1na2vs0mg"},{"bike_id":"3306c026-cd7d-4d8d-a6ba-ec6c4c0bfe19","system_id":"levelo_inurba_marseille","lat":43.25106,"lon":5.40329,"is_reserved":false,"is_disabled":false,"rental_uris":{"android":"levelo://app?vid=3306c026-cd7d-4d8d-a6ba-ec6c4c0bfe19","ios":"levelo://app?vid=3306c026-cd7d-4d8d-a6ba-ec6c4c0bfe19"},"vehicle_type_id":"4","last_reported":1751094594,"current_range_meters":26000,"station_id":"ce4bhlh2rcd13ifvqgig","pricing_plan_id":"cebpf4jnsgd1na2vs0mg"},{"bike_id":"c277aabd-7413-41fe-84b6-5c88e8f66597","system_id":"levelo_inurba_marseille","lat":43.257739,"lon":5.37378,"is_reserved":false,"is_disabled":false,"rental_uris":{"android":"levelo://app?vid=c277aabd-7413-41fe-84b6-5c88e8f66597","ios":"levelo://app?vid=c277aabd-7413-41fe-84b6-5c88e8f66597"},"vehicle_type_id":"4","last_reported":1751094594,"current_range_meters":26000,"station_id":"cpo3342slgdg3j2ifvpg","pricing_plan_id":"cebpf4jnsgd1na2vs0mg"},{"bike_id":"166849a1-68e6-411d-8f76-d1f290e5022b","system_id":"levelo_inurba_marseille","lat":43.24166,"lon":5.36398,"is_reserved":false,"is_disabled":false,"rental_uris":{"android":"levelo://app?vid=166849a1-68e6-411d-8f76-d1f290e5022b","ios":"levelo://app?vid=166849a1-68e6-411d-8f76-d1f290e5022b"},"vehicle_type_id":"4","last_reported":1751094594,"current_range_meters":26000,"station_id":"cpo36qri1sfpv3e86is0","pricing_plan_id":"cebpf4jnsgd1na2vs0mg"},{"bike_id":"f750c4e5-0004-49bc-9ccf-8fd10eddb245","system_id":"levelo_inurba_marseille","lat":43.29599,"lon":5.38106,"is_reserved":false,"is_disabled":false,"rental_uris":{"android":"levelo://app?vid=f750c4e5-0004-49bc-9ccf-8fd10eddb245","ios":"levelo://app?vid=f750c4e5-0004-49bc-9ccf-8fd10eddb245"},"vehicle_type_id":"4","last_reported":1751094594,"current_range_meters":26800,"station_id":"ce4bgl12rcd13ifvqbo0","pricing_plan_id":"cebpf4jnsgd1na2vs0mg"},{"bike_id":"40f654ce-047b-4107-b3ba-5fbdb8606208","system_id":"levelo_inurba_marseille","lat":43.31122,"lon":5.37765,"is_reserved":false,"is_disabled":false,"rental_uris":{"android":"levelo://app?vid=40f654ce-047b-4107-b3ba-5fbdb8606208","ios":"levelo://app?vid=40f654ce-047b-4107-b3ba-5fbdb8606208"},"vehicle_type_id":"4","last_reported":1751094594,"current_range_meters":26800,"station_id":"ce4bgt92rcd13ifvqcg0","pricing_plan_id":"cebpf4jnsgd1na2vs0mg"},{"bike_id":"2f1f9853-cf73-47ac-8592-f447ac8839ae","system_id":"levelo_inurba_marseille","lat":43.28928,"lon":5.38394,"is_reserved":false,"is_disabled":false,"rental_uris":{"android":"levelo://app?vid=2f1f9853-cf73-47ac-8592-f447ac8839ae","ios":"levelo://app?vid=2f1f9853-cf73-47ac-8592-f447ac8839ae"},"vehicle_type_id":"4","last_reported":1751094594,"current_range_meters":26800,"station_id":"ce4bh612rcd13ifvqe6g","pricing_plan_id":"cebpf4jnsgd1na2vs0mg"},{"bike_id":"35ee5dab-6bc5-40f3-8ff9-3363dd773204","system_id":"levelo_inurba_marseille","lat":43.27909,"lon":5.39583,"is_reserved":false,"is_disabled":false,"rental_uris":{"android":"levelo://app?vid=35ee5dab-6bc5-40f3-8ff9-3363dd773204","ios":"levelo://app?vid=35ee5dab-6bc5-40f3-8ff9-3363dd773204"},