{"last_updated":1739592625,"ttl":60,"version":"2.2","data":{"bikes":[{"bike_id":"19dd933c-fb71-44cd-9995-68f284739ca8","system_id":"levelo_inurba_marseille","lat":43.30605,"lon":5.3721,"is_reserved":false,"is_disabled":false,"rental_uris":{"android":"levelo://app?vid=19dd933c-fb71-44cd-9995-68f284739ca8","ios":"levelo://app?vid=19dd933c-fb71-44cd-9995-68f284739ca8"},"vehicle_type_id":"4","last_reported":1739592625,"current_range_meters":37600,"station_id":"ce4bgqh2rcd13ifvqc4g","pricing_plan_id":"cebpf4jnsgd1na2vs0mg"},{"bike_id":"8f8fcc2b-6a80-49a2-bcdc-2ba2085e83ae","system_id":"levelo_inurba_marseille","lat":43.31176,"lon":5.38706,"is_reserved":false,"is_disabled":false,"rental_uris":{"android":"levelo://app?vid=8f8fcc2b-6a80-49a2-bcdc-2ba2085e83ae","ios":"levelo://app?vid=8f8fcc2b-6a80-49a2-bcdc-2ba2085e83ae"},"vehicle_type_id":"4","last_reported":1739592625,"current_range_meters":38800,"station_id":"ce4bgv12rcd13ifvqcp0","pricing_plan_id":"cebpf4jnsgd1na2vs0mg"},{"bike_id":"96233cd2-5c24-4c4d-895e-87d7e7739436","system_id":"levelo_inurba_marseille","lat":43.31708,"lon":5.43703,"is_reserved":false,"is_disabled":false,"rental_uris":{"android":"levelo://app?vid=96233cd2-5c24-4c4d-895e-87d7e7739436","ios":"levelo://app?vid=96233cd2-5c24-4c4d-895e-87d7e7739436"},"vehicle_type_id":"4","last_reported":1739592625,"current_range_meters":12000,"station_id":"ce4bhp92rcd13ifvqhcg","pricing_plan_id":"cebpf4jnsgd1na2vs0mg"},{"bike_id":"ffcf2742-7296-4ef7-a267-d32b55d57a3e","system_id":"levelo_inurba_marseille","lat":43.311642,"lon":5.387205,"is_reserved":false,"is_disabled":false,"rental_uris":{"android":"levelo://app?vid=ffcf2742-7296-4ef7-a267-d32b55d57a3e","ios":"levelo://app?vid=ffcf2742-7296-4ef7-a267-d32b55d57a3e"},"vehicle_type_id":"4","last_reported":1739592625,"current_range_meters":32000,"station_id":"ce4bgv12rcd13ifvqcp0","pricing_plan_id":"cebpf4jnsgd1na2vs0mg"},{"bike_id":"719a875a-0651-4af4-9cdb-36248ea3b24a","system_id":"levelo_inurba_marseille","lat":43.2835,"lon":5.390016,"is_reserved":false,"is_disabled":false,"rental_uris":{"android":"levelo://app?vid=719a875a-0651-4af4-9cdb-36248ea3b24a","ios":"levelo://app?vid=719a875a-0651-4af4-9cdb-36248ea3b24a"},"vehicle_type_id":"4","last_reported":1739592625,"current_range_meters":12800,"station_id":"","pricing_plan_id":"cebpf4jnsgd1na2vs0mg"},{"bike_id":"647dc012-5826-4d55-83c6-5c1184d01b44","system_id":"levelo_inurba_marseille","lat":43.30807,"lon":5.38151,"is_reserved":false,"is_disabled":false,"rental_uris":{"android":"levelo://app?vid=647dc012-5826-4d55-83c6-5c1184d01b44","ios":"levelo://app?vid=647dc012-5826-4d55-83c6-5c1184d01b44"},"vehicle_type_id":"4","last_reported":1739592625,"current_range_meters":38000,"station_id":"ce4bgt12rcd13ifvqce0","pricing_plan_id":"cebpf4jnsgd1na2vs0mg"},{"bike_id":"492c92e4-cc2e-4095-843a-e98163a264fd","system_id":"levelo_inurba_marseille","lat":43.31308,"lon":5.396903,"is_reserved":false,"is_disabled":false,"rental_uris":{"android":"levelo://app?vid=492c92e4-cc2e-4095-843a-e98163a264fd","ios":"levelo://app?vid=492c92e4-cc2e-4095-843a-e98163a264fd"},"vehicle_type_id":"4","last_reported":1739592625,"current_range_meters":15200,"station_id":"ce4bgvp2rcd13ifvqcu0","pricing_plan_id":"cebpf4jnsgd1na2vs0mg"},{"bike_id":"aeeb603c-9e21-471f-a3b4-471a46d5c228","system_id":"levelo_inurba_marseille","lat":43.241633,"lon":5.364014,"is_reserved":false,"is_disabled":false,"rental_uris":{"android":"levelo://app?vid=aeeb603c-9e21-471f-a3b4-471a46d5c228","ios":"levelo://app?vid=aeeb603c-9e21-471f-a3b4-471a46d5c228"},"vehicle_type_id":"4","last_reported":1739592625,"current_range_meters":18000,"station_id":"cpo36qri1sfpv3e86is0","pricing_plan_id":"cebpf4jnsgd1na2vs0mg"},{"bike_id":"1d4165b9-e8af-42e7-8e88-54a0f84b4f26","system_id":"levelo_inurba_marseille","lat":43.23181,"lon":5.39976,"is_reserved":false,"is_disabled":false,"rental_uris":{"android":"levelo://app?vid=1d4165b9-e8af-42e7-8e88-54a0f84b4f26","ios":"levelo://app?vid=1d4165b9-e8af-42e7-8e88-54a0f84b4f26"},"vehicle_type_id":"4","last_reported":1739592625,"current_range_meters":27200,"station_id":"ce4bhn12rcd13ifvqgqg","pricing_plan_id":"cebpf4jnsgd1na2vs0mg"},{"bike_id":"c1e76274-801b-4893-b793-e635178d8b86","system_id":"levelo_inurba_marseille","lat":43.23962,"lon":5.36631,"is_reserved":false,"is_disabled":false,"rental_uris":{"android":"levelo://app?vid=c1e76274-801b-4893-b793-e635178d8b86","ios":"levelo://app?vid=c1e76274-801b-4893-b793-e635178d8b86"},"vehicle_type_id":"4","last_reported":1739592625,"current_range_meters":38800,"station_id":"ce4bhi12rcd13ifvqfp0","pricing_plan_id":"cebpf4jnsgd1na2vs0mg"},{"bike_id":"25f20696-caff-4628-8ebd-4f2ceb016775","system_id":"levelo_inurba_marseille","lat":43.30141,"lon":5.3878,"is_reserved":false,"is_disabled":true,"rental_uris":{"android":"levelo://app?vid=25f20696-caff-4628-8ebd-4f2ceb016775","ios":"levelo://app?vid=25f20696-caff-4628-8ebd-4f2ceb016775"},"vehicle_type_id":"4","last_reported":1739592625,"current_range_meters":26800,"station_id":"ce4bghh2rcd13ifvqb60","pricing_plan_id":"cebpf4jnsgd1na2vs0mg"},{"bike_id":"34298d90-deee-4d1b-b876-3acf6304437a","system_id":"levelo_inurba_marseille","lat":43.27923,"lon":5.39593,"is_reserved":false,"is_disabled":false,"rental_uris":{"android":"levelo://app?vid=34298d90-deee-4d1b-b876-3acf6304437a","ios":"levelo://app?vid=34298d90-deee-4d1b-b876-3acf6304437a"},"vehicle_type_id":"4","last_reported":1739592625,"current_range_meters":35600,"station_id":"ce4bhf92rcd13ifvqf40","pricing_plan_id":"cebpf4jnsgd1na2vs0mg"},{"bike_id":"6e2f7af5-aff0-4075-a390-577bcab4146b","system_id":"levelo_inurba_marseille","lat":43.30881,"lon":5.39631,"is_reserved":false,"is_disabled":false,"rental_uris":{"android":"levelo://app?vid=6e2f7af5-aff0-4075-a390-577bcab4146b","ios":"levelo://app?vid=6e2f7af5-aff0-4075-a390-577bcab4146b"},"vehicle_type_id":"4","last_reported":1739592625,"current_range_meters":32000,"station_id":"ce4bh012rcd13ifvqcv0","pricing_plan_id":"cebpf4jnsgd1na2vs0mg"},{"bike_id":"f6014903-cf53-49ed-8bb6-9c2c5f5a492d","system_id":"levelo_inurba_marseille","lat":43.25082,"lon":5.39519,"is_reserved":false,"is_disabled":false,"rental_uris":{"android":"levelo://app?vid=f6014903-cf53-49ed-8bb6-9c2c5f5a492d","ios":"levelo://app?vid=f6014903-cf53-49ed-8bb6-9c2c5f5a492d"},"vehicle_type_id":"4","last_reported":1739592625,"current_range_meters":16800,"station_id":"ce4bhm12rcd13ifvqgkg","pricing_plan_id":"cebpf4jnsgd1na2vs0mg"},{"bike_id":"c74f8124-73dc-4bd8-a98e-9fa42c510bc4","system_id":"levelo_inurba_marseille","lat":43.23188,"lon":5.39978,"is_reserved":false,"is_disabled":false,"rental_uris":{"android":"levelo://app?vid=c74f8124-73dc-4bd8-a98e-9fa42c510bc4","ios":"levelo://app?vid=c74f8124-73dc-4bd8-a98e-9fa42c510bc4"},"vehicle_type_id":"4","last_reported":1739592625,"current_range_meters":26800,"station_id":"ce4bhn12rcd13ifvqgqg","pricing_plan_id":"cebpf4jnsgd1na2vs0mg"},{"bike_id":"eace11fc-366d-49db-ab9f-2f957d528477","system_id":"levelo_inurba_marseille","lat":43.25523,"lon":5.37632,"is_reserved":false,"is_disabled":false,"rental_uris":{"android":"levelo://app?vid=eace11fc-366d-49db-ab9f-2f957d528477","ios":"levelo://app?vid=eace11fc-366d-49db-ab9f-2f957d528477"},"vehicle_type_id":"4","last_reported":1739592625,"current_range_meters":38400,"station_id":"ce4bhh12rcd13ifvqff0","pricing_plan_id":"cebpf4jnsgd1na2vs0mg"},{"bike_id":"b4e5370f-26e8-4cca-8f05-a70c7b16fd74","system_id":"levelo_inurba_marseille","lat":43.313637,"lon":5.384876,"is_reserved":false,"is_disabled":false,"rental_uris":{"android":"levelo://app?vid=b4e5370f-26e8-4cca-8f05-a70c7b16fd74","ios":"levelo://app?vid=b4e5370f-26e8-4cca-8f05-a70c7b16fd74"},"vehicle_type_id":"4","last_reported":1739592625,"current_range_meters":30800,"station_id":"ce4bgt92rcd13ifvqcf0","pricing_plan_id":"cebpf4jnsgd1na2vs0mg"},{"bike_id":"5d2484e8-d08f-4bba-ae77-36cb31e97e9b","system_id":"levelo_inurba_marseille","lat":43.295585,"lon":5.422926,"is_reserved":false,"is_disabled":false,"rental_uris":{"android":"levelo://app?vid=5d2484e8-d08f-4bba-ae77-36cb31e97e9b","ios":"levelo://app?vid=5d2484e8-d08f-4bba-ae77-36cb31e97e9b"},"vehicle_type_id":"4","last_reported":1739592625,"current_range_meters":38800,"station_id":"ce4bhph2rcd13ifvqhdg","pricing_plan_id":"cebpf4jnsgd1na2vs0mg"},{"bike_id":"6b42f4f1-2360-420a-81a5-fa8f868ac30d","system_id":"levelo_inurba_marseille","lat":43.271681,"lon":5.390269,"is_reserved":false,"is_disabled":false,"rental_uris":{"android":"levelo://app?vid=6b42f4f1-2360-420a-81a5-fa8f868ac30d","ios":"levelo://app?vid=6b42f4f1-2360-420a-81a5-fa8f868ac30d"},"vehicle_type_id":"4","last_reported":1739592625,"current_range_meters":35200,"station_id":"","pricing_plan_id":"cebpf4jnsgd1na2vs0mg"},{"bike_id":"c9f4711a-9527-4890-b3a2-60b757a2ca69","system_id":"levelo_inurba_marseille","lat":43.30195,"lon":5.36624,"is_reserved":false,"is_disabled":false,"rental_uris":{"android":"levelo://app?vid=c9f4711a-9527-4890-b3a2-60b757a2ca69","ios":"levelo://app?vid=c9f4711a-9527-4890-b3a2-60b757a2ca69"},"vehicle_type_id":"4","last_reported":1739592625,"current_range_meters":30800,"station_id":"ce4bgrh2rcd13ifvqc8g","pricing_plan_id":"cebpf4jnsgd1na2vs0mg"},{"bike_id":"e21d2e14-c5e2-4570-8b09-76ad61a62300","system_id":"levelo_inurba_marseille","lat":43.29791,"lon":5.37079,"is_reserved":false,"is_disabled":false,"rental_uris":{"android":"levelo://app?vid=e21d2e14-c5e2-4570-8b09-76ad61a62300","ios":"levelo://app?vid=e21d2e14-c5e2-4570-8b09-76ad61a62300"},"vehicle_type_id":"4","last_reported":1739592625,"current_range_meters":38800,"station_id":"ce4bgop2rcd13ifvqc1g","pricing_plan_id":"cebpf4jnsgd1na2vs0mg"},{"bike_id":"6ec6c686-c53d-4108-ad4c-4d96fea2b652","system_id":"levelo_inurba_marseille","lat":43.30666,"lon":5.40089,"is_reserved":false,"is_disabled":false,"rental_uris":{"android":"levelo://app?vid=6ec6c686-c53d-4108-ad4c-4d96fea2b652","ios":"levelo://app?vid=6ec6c686-c53d-4108-ad4c-4d96fea2b652"},"vehicle_type_id":"4","last_reported":1739592625,"current_range_meters":21600,"station_id":"ce4bh112rcd13ifvqda0","pricing_plan_id":"cebpf4jnsgd1na2vs0mg"},{"bike_id":"4374c5bd-03ee-4dfd-bc9c-a82047612d94","system_id":"levelo_inurba_marseille","lat":43.31994,"lon":5.38163,"is_reserved":false,"is_disabled":false,"rental_uris":{"android":"levelo://app?vid=4374c5bd-03ee-4dfd-bc9c-a82047612d94","ios":"levelo://app?vid=4374c5bd-03ee-4dfd-bc9c-a82047612d94"},"vehicle_type_id":"4","last_reported":1739592625,"current_range_meters":9600,"station_id":"ce4bhr12rcd13ifvqhpg","pricing_plan_id":"cebpf4jnsgd1na2vs0mg"},{"bike_id":"b34c6303-752a-46a1-93ad-ddbc991e20b6","system_id":"levelo_inurba_marseille","lat":43.23075,"lon":5.3549,"is_reserved":false,"is_disabled":false,"rental_uris":{"android":"levelo://app?vid=b34c6303-752a-46a1-93ad-ddbc991e20b6","ios":"levelo://app?vid=b34c6303-752a-46a1-93ad-ddbc991e20b6"},"vehicle_type_id":"4","last_reported":1739592625,"current_range_meters":38000,"station_id":"cpo3342slgdg3j2ifvpg","pricing_plan_id":"cebpf4jnsgd1na2vs0mg"},{"bike_id":"5557cf88-c9b4-477c-9a10-d8d0753e4d48","system_id":"levelo_inurba_marseille","lat":43.28008,"lon":5.39992,"is_reserved":false,"is_disabled":false,"rental_uris":{"android":"levelo://app?vid=5557cf88-c9b4-477c-9a10-d8d0753e4d48","ios":"levelo://app?vid=5557cf88-c9b4-477c-9a10-d8d0753e4d48"},"vehicle_type_id":"4","last_reported":1739592625,"current_range_meters":28400,"station_id":"ce4bho92rcd13ifvqh4g","pricing_plan_id":"cebpf4jnsgd1na2vs0mg"},{"bike_id":"78d173ae-b715-496b-84c7-0dad149a44f3","system_id":"levelo_inurba_marseille","lat":43.2924,"lon":5.40909,"is_reserved":false,"is_disabled":false,"rental_uris":{"android":"levelo://app?vid=78d173ae-b715-496b-84c7-0dad149a44f3","ios":"levelo://app?vid=78d173ae-b715-496b-84c7-0dad149a44f3"},"vehicle_type_id":"4","last_reported":1739592625,"current_range_meters":38800,"station_id":"ce4bh192rcd13ifvqdc0","pricing_plan_id":"cebpf4jnsgd1na2vs0mg"},{"bike_id":"22517571-8907-45bc-abb0-b0f4259e23bd","system_id":"levelo_inurba_marseille","lat":43.311151,"lon":5.377543,"is_reserved":false,"is_disabled":false,"rental_uris":{"android":"levelo://app?vid=22517571-8907-45bc-abb0-b0f4259e23bd","ios":"levelo://app?vid=22517571-8907-45bc-abb0-b0f4259e23bd"},"vehicle_type_id":"4","last_reported":1739592625,"current_range_meters":31200,"station_id":"ce4bgt92rcd13ifvqcg0","pricing_plan_id":"cebpf4jnsgd1na2vs0mg"},{"bike_id":"1300f95a-15ad-4299-a221-177495e93e42","system_id":"levelo_inurba_marseille","lat":43.32658,"lon":5.40982,"is_reserved":false,"is_disabled":false,"rental_uris":{"android":"levelo://app?vid=1300f95a-15ad-4299-a221-177495e93e42","ios":"levelo://app?vid=1300f95a-15ad-4299-a221-177495e93e42"},"vehicle_type_id":"4","last_reported":1739592625,"current_range_meters":24400,"station_id":"ce4bhpp2rcd13ifvqhgg","pricing_plan_id":"cebpf4jnsgd1na2vs0mg"},{"bike_id":"10755ee9-ff7b-4235-afae-2e0c4542077d","system_id":"levelo_inurba_marseille","lat":43.30786,"lon":5.37664,"is_reserved":false,"is_disabled":false,"rental_uris":{"android":"levelo://app?vid=10755ee9-ff7b-4235-afae-2e0c4542077d","ios":"levelo://app?vid=10755ee9-ff7b-4235-afae-2e0c4542077d"},"vehicle_type_id":"4","last_reported":1739592625,"current_range_meters":22400,"station_id":"ce4bgv92rcd13ifvqcq0","pricing_plan_id":"cebpf4jnsgd1na2vs0mg"},{"bike_id":"db0c59a5-e36c-460d-a199-b553cfb8a418","system_id":"levelo_inurba_marseille","lat":43.28373,"lon":5.43035,"is_reserved":false,"is_disabled":false,"rental_uris":{"android":"levelo://app?vid=db0c59a5-e36c-460d-a199-b553cfb8a418","ios":"levelo://app?vid=db0c59a5-e36c-460d-a199-b553cfb8a418"},"vehicle_type_id":"4","last_reported":1739592625,"current_range_meters":23200,"station_id":"","pricing_plan_id":"cebpf4jnsgd1na2vs0mg"},{"bike_id":"ab5a4876-a304-42c5-b5c2-54299646e2f8","system_id":"levelo_inurba_marseille","lat":43.30688,"lon":5.40508,"is_reserved":false,"is_disabled":false,"rental_uris":{"android":"levelo://app?vid=ab5a4876-a304-42c5-b5c2-54299646e2f8","ios":"levelo://app?vid=ab5a4876-a304-42c5-b5c2-54299646e2f8"},"vehicle_type_id":"4","last_reported":1739592625,"current_range_meters":17600,"station_id":"","pricing_plan_id":"cebpf4jnsgd1na2vs0mg"},{"bike_id":"13475279-2ac4-4a8e-ba61-f31e11838811","system_id":"levelo_inurba_marseille","lat":43.302514,"lon":5.40084,"is_reserved":false,"is_disabled":false,"rental_uris":{"android":"levelo://app?vid=13475279-2ac4-4a8e-ba61-f31e11838811","ios":"levelo://app?vid=13475279-2ac4-4a8e-ba61-f31e11838811"},"vehicle_type_id":"4","last_reported":1739592625,"current_range_meters":31200,"station_id":"ce4bgvh2rcd13ifvqcs0","pricing_plan_id":"cebpf4jnsgd1na2vs0mg"},{"bike_id":"7d8530f2-44ab-44c8-bb4a-721879476948","system_id":"levelo_inurba_marseille","lat":43.314898,"lon":5.373033,"is_reserved":false,"is_disabled":false,"rental_uris":{"android":"levelo://app?vid=7d8530f2-44ab-44c8-bb4a-721879476948","ios":"levelo://app?vid=7d8530f2-44ab-44c8-bb4a-721879476948"},"vehicle_type_id":"4","last_reported":1739592625,"current_range_meters":38400,"station_id":"ce4bgt12rcd13ifvqcd0","pricing_plan_id":"cebpf4jnsgd1na2vs0mg"},{"bike_id":"d430bbf5-dcb4-4006-8220-7af0587abbc5","system_id":"levelo_inurba_marseille","lat":43.25073,"lon":5.39514,"is_reserved":false,"is_disabled":false,"rental_uris":{"android":"levelo://app?vid=d430bbf5-dcb4-4006-8220-7af0587abbc5","ios":"levelo://app?vid=d430bbf5-dcb4-4006-8220-7af0587abbc5"},"vehicle_type_id":"4","last_reported":1739592625,"current_range_meters":38800,"station_id":"ce4bhm12rcd13ifvqgkg","pricing_plan_id":"cebpf4jnsgd1na2vs0mg"},{"bike_id":"2bc98702-1f60-476f-856f-79768c02d28f","system_id":"levelo_inurba_marseille","lat":43.29456,"lon":5.39747,"is_reserved":false,"is_disabled":false,"rental_uris":{"android":"levelo://app?vid=2bc98702-1f60-476f-856f-79768c02d28f","ios":"levelo://app?vid=2bc98702-1f60-476f-856f-79768c02d28f"},"vehicle_type_id":"4","last_reported":1739592625,"current_range_meters":37600,"station_id":"ce4bh3h2rcd13ifvqdo0","pricing_plan_id":"cebpf4jnsgd1na2vs0mg"},{"bike_id":"5ac1b3e9-6624-4bab-a598-45ab544a1b2f","system_id":"levelo_inurba_marseille","lat":43.26687,"lon":5.38327,"is_reserved":false,"is_disabled":false,"rental_uris":{"android":"levelo://app?vid=5ac1b3e9-6624-4bab-a598-45ab544a1b2f","ios":"levelo://app?vid=5ac1b3e9-6624-4bab-a598-45ab544a1b2f"},"vehicle_type_id":"4","last_reported":1739592625,"current_range_meters":6800,"station_id":"ce4bhg92rcd13ifvqf90","pricing_plan_id":"cebpf4jnsgd1na2vs0mg"},{"bike_id":"a2b8b535-68ab-48b4-8f05-9e1a3fd245cc","system_id":"levelo_inurba_marseille","lat":43.317552,"lon":5.390202,"is_reserved":false,"is_disabled":false,"rental_uris":{"android":"levelo://app?vid=a2b8b535-68ab-48b4-8f05-9e1a3fd245cc","ios":"levelo://app?vid=a2b8b535-68ab-48b4-8f05-9e1a3fd245cc"},"vehicle_type_id":"4","last_reported":1739592625,"current_range_meters":33600,"station_id":"ce4bhqp2rcd13ifvqhng","pricing_plan_id":"cebpf4jnsgd1na2vs0mg"},{"bike_id":"6efd9de7-fb29-4972-be54-1e784b49d1b0","system_id":"levelo_inurba_marseille","lat":43.24817,"lon":5.37459,"is_reserved":false,"is_disabled":false,"rental_uris":{"android":"levelo://app?vid=6efd9de7-fb29-4972-be54-1e784b49d1b0","ios":"levelo://app?vid=6efd9de7-fb29-4972-be54-1e784b49d1b0"},"vehicle_type_id":"4","last_reported":1739592625,"current_range_meters":35200,"station_id":"ce4bhgh2rcd13ifvqfb0","pricing_plan_id":"cebpf4jnsgd1na2vs0mg"},{"bike_id":"1f0657bb-7196-41de-84fc-c834bbf90b28","system_id":"levelo_inurba_marseille","lat":43.280746,"lon":5.39657,"is_reserved":false,"is_disabled":false,"rental_uris":{"android":"levelo://app?vid=1f0657bb-7196-41de-84fc-c834bbf90b28","ios":"levelo://app?vid=1f0657bb-7196-41de-84fc-c834bbf90b28"},"vehicle_type_id":"4","last_reported":1739592625,"current_range_meters":36800,"station_id":"ce4bho12rcd13ifvqh2g","pricing_plan_id":"cebpf4jnsgd1na2vs0mg"},{"bike_id":"f8d4e733-d950-4145-b2c9-b8c515a89a22","system_id":"levelo_inurba_marseille","lat":43.2985,"lon":5.36286,"is_reserved":false,"is_disabled":false,"rental_uris":{"android":"levelo://app?vid=f8d4e733-d950-4145-b2c9-b8c515a89a22","ios":"levelo://app?vid=f8d4e733-d950-4145-b2c9-b8c515a89a22"},"vehicle_type_id":"4","last_reported":1739592625,"current_range_meters":27600,"station_id":"ce4bgpp2rcd13ifvqc3g","pricing_plan_id":"cebpf4jnsgd1na2vs0mg"},{"bike_id":"cc52dec1-67b6-4c07-b07c-19c77250a425","system_id":"levelo_inurba_marseille","lat":43.31346,"lon":5.39658,"is_reserved":false,"is_disabled":false,"rental_uris":{"android":"levelo://app?vid=cc52dec1-67b6-4c07-b07c-19c77250a425","ios":"levelo://app?vid=cc52dec1-67b6-4c07-b07c-19c77250a425"},"vehicle_type_id":"4","last_reported":1739592625,"current_range_meters":38800,"station_id":"ce4bgvp2rcd13ifvqcu0","pricing_plan_id":"cebpf4jnsgd1na2vs0mg"},{"bike_id":"04826741-9203-41a1-85e6-32051bcfd227","system_id":"levelo_inurba_marseille","lat":43.24803,"lon":5.37452,"is_reserved":false,"is_disabled":false,"rental_uris":{"android":"levelo://app?vid=04826741-9203-41a1-85e6-32051bcfd227","ios":"levelo://app?vid=04826741-9203-41a1-85e6-32051bcfd227"},"vehicle_type_id":"4","last_reported":1739592625,"current_range_meters":2800,"station_id":"ce4bhgh2rcd13ifvqfb0","pricing_plan_id":"cebpf4jnsgd1na2vs0mg"},{"bike_id":"179c65d4-e637-43fd-ba13-7b8d408dfcda","system_id":"levelo_inurba_marseille","lat":43.2955,"lon":5.42275,"is_reserved":false,"is_disabled":false,"rental_uris":{"android":"levelo://app?vid=179c65d4-e637-43fd-ba13-7b8d408dfcda","ios":"levelo://app?vid=179c65d4-e637-43fd-ba13-7b8d408dfcda"},"vehicle_type_id":"4","last_reported":1739592625,"current_range_meters":19200,"station_id":"ce4bhph2rcd13ifvqhdg","pricing_plan_id":"cebpf4jnsgd1na2vs0mg"},{"bike_id":"d9d039e9-95b6-4e20-817d-1c241a2e3b8a","system_id":"levelo_inurba_marseille","lat":43.347189,"lon":5.373241,"is_reserved":false,"is_disabled":false,"rental_uris":{"android":"levelo://app?vid=d9d039e9-95b6-4e20-817d-1c241a2e3b8a","ios":"levelo://app?vid=d9d039e9-95b6-4e20-817d-1c241a2e3b8a"},"vehicle_type_id":"4","last_reported":1739592625,"current_range_meters":28000,"station_id":"","pricing_plan_id":"cebpf4jnsgd1na2vs0mg"},{"bike_id":"7a2aa0ae-fdf7-4793-9ccf-dca69e169d96","system_id":"levelo_inurba_marseille","lat":43.29257,"lon":5.40914,"is_reserved":false,"is_disabled":false,"rental_uris":{"android":"levelo://app?vid=7a2aa0ae-fdf7-4793-9ccf-dca69e169d96","ios":"levelo://app?vid=7a2aa0ae-fdf7-4793-9ccf-dca69e169d96"},"vehicle_type_id":"4","last_reported":1739592625,"current_range_meters":38800,"station_id":"ce4bh192rcd13ifvqdc0","pricing_plan_id":"cebpf4jnsgd1na2vs0mg"},{"bike_id":"97708c38-52e6-4f5f-9662-cb7bef18df90","system_id":"levelo_inurba_marseille","lat":43.30654,"lon":5.40092,"is_reserved":false,"is_disabled":false,"rental_uris":{"android":"levelo://app?vid=97708c38-52e6-4f5f-9662-cb7bef18df90","ios":"levelo://app?vid=97708c38-52e6-4f5f-9662-cb7bef18df90"},"vehicle_type_id":"4","last_reported":1739592625,"current_range_meters":33200,"station_id":"ce4bh112rcd13ifvqda0","pricing_plan_id":"cebpf4jnsgd1na2vs0mg"},{"bike_id":"e442d07b-cb2a-4a21-81d2-6ff93e19ee71","system_id":"levelo_inurba_marseille","lat":43.29522,"lon":5.39401,"is_reserved":false,"is_disabled":false,"rental_uris":{"android":"levelo://app?vid=e442d07b-cb2a-4a21-81d2-6ff93e19ee71","ios":"levelo://app?vid=e442d07b-cb2a-4a21-81d2-6ff93e19ee71"},"vehicle_type_id":"4","last_reported":1739592625,"current_range_meters":21600,"station_id":"ce4bh292rcd13ifvqdf0","pricing_plan_id":"cebpf4jnsgd1na2vs0mg"},{"bike_id":"ce50de91-d2b1-46f5-b3a9-a90deec7008f","system_id":"levelo_inurba_marseille","lat":43.2897,"lon":5.39627,"is_reserved":false,"is_disabled":true,"rental_uris":{"android":"levelo://app?vid=ce50de91-d2b1-46f5-b3a9-a90deec7008f","ios":"levelo://app?vid=ce50de91-d2b1-46f5-b3a9-a90deec7008f"},"vehicle_type_id":"4","last_reported":1739592625,"current_range_meters":17600,"station_id":"ce4bh3h2rcd13ifvqdn0","pricing_plan_id":"cebpf4jnsgd1na2vs0mg"},{"bike_id":"f92e748a-9f9b-4e54-8084-07e33515f3d5","system_id":"levelo_inurba_marseille","lat":43.27072,"lon":5.39325,"is_reserved":false,"is_disabled":true,"rental_uris":{"android":"levelo://app?vid=f92e748a-9f9b-4e54-8084-07e33515f3d5","ios":"levelo://app?vid=f92e748a-9f9b-4e54-8084-07e33515f3d5"},"vehicle_type_id":"4","last_reported":1739592625,"current_range_meters":0,"station_id":"","pricing_plan_id":"cebpf4jnsgd1na2vs0mg"},{"bike_id":"ce4127ed-14ba-47ba-8a90-81368fbd5bf4","system_id":"levelo_inurba_marseille","lat":43.309267,"lon":5.401392,"is_reserved":false,"is_disabled":false,"rental_uris":{"android":"levelo://app?vid=ce4127ed-14ba-47ba-8a90-81368fbd5bf4","ios":"levelo://app?vid=ce4127ed-14ba-47ba-8a90-81368fbd5bf4"},"vehicle_type_id":"4","last_reported":1739592625,"current_range_meters":31200,"station_id":"ce4bgvp2rcd13ifvqct0","pricing_plan_id":"cebpf4jnsgd1na2vs0mg"},{"bike_id":"704ec19d-e7c0-4858-a423-dcfa560220a5","system_id":"levelo_inurba_marseille","lat":43.23202,"lon":5.39956,"is_reserved":false,"is_disabled":false,"rental_uris":{"android":"levelo://app?vid=704ec19d-e7c0-4858-a423-dcfa560220a5","ios":"levelo://app?vid=704ec19d-e7c0-4858-a423-dcfa560220a5"},"vehicle_type_id":"4","last_reported":1739592625,"current_range_meters":30800,"station_id":"ce4bhn12rcd13ifvqgqg","pricing_plan_id":"cebpf4jnsgd1na2vs0mg"},{"bike_id":"2e0d4b9a-173f-48bf-aeee-cdbbe6dbe006","system_id":"levelo_inurba_marseille","lat":43.28456,"lon":5.35888,"is_reserved":false,"is_disabled":false,"rental_uris":{"android":"levelo://app?vid=2e0d4b9a-173f-48bf-aeee-cdbbe6dbe006","ios":"levelo://app?vid=2e0d4b9a-173f-48bf-aeee-cdbbe6dbe006"},"vehicle_type_id":"4","last_reported":1739592625,"current_range_meters":26000,"station_id":"ce4bhah2rcd13ifvqei0","pricing_plan_id":"cebpf4jnsgd1na2vs0mg"},{"bike_id":"f5740bba-e5c4-4dc5-b2ce-7702862e246d","system_id":"levelo_inurba_marseille","lat":43.28469,"lon":5.35874,"is_reserved":false,"is_disabled":false,"rental_uris":{"android":"levelo://app?vid=f5740bba-e5c4-4dc5-b2ce-7702862e246d","ios":"levelo://app?vid=f5740bba-e5c4-4dc5-b2ce-7702862e246d"},"vehicle_type_id":"4","last_reported":1739592625,"current_range_meters":20400,"station_id":"ce4bhah2rcd13ifvqei0","pricing_plan_id":"cebpf4jnsgd1na2vs0mg"},{"bike_id":"87ba58c2-e5ae-4e89-93b9-7d837886ab41","system_id":"levelo_inurba_marseille","lat":43.28407,"lon":5.37516,"is_reserved":false,"is_disabled":false,"rental_uris":{"android":"levelo://app?vid=87ba58c2-e5ae-4e89-93b9-7d837886ab41","ios":"levelo://app?vid=87ba58c2-e5ae-4e89-93b9-7d837886ab41"},"vehicle_type_id":"4","last_reported":1739592625,"current_range_meters":30800,"station_id":"ce4bh412rcd13ifvqds0","pricing_plan_id":"cebpf4jnsgd1na2vs0mg"},{"bike_id":"1083fbef-444c-4226-8dc5-ce1779211f00","system_id":"levelo_inurba_marseille","lat":43.306448,"lon":5.40065,"is_reserved":false,"is_disabled":false,"rental_uris":{"android":"levelo://app?vid=1083fbef-444c-4226-8dc5-ce1779211f00","ios":"levelo://app?vid=1083fbef-444c-4226-8dc5-ce1779211f00"},"vehicle_type_id":"4","last_reported":1739592625,"current_range_meters":32400,"station_id":"ce4bh112rcd13ifvqda0","pricing_plan_id":"cebpf4jnsgd1na2vs0mg"},{"bike_id":"9cf8e6d9-67b8-441b-8ab4-08ef8560d2b0","system_id":"levelo_inurba_marseille","lat":43.33514,"lon":5.35585,"is_reserved":false,"is_disabled":true,"rental_uris":{"android":"levelo://app?vid=9cf8e6d9-67b8-441b-8ab4-08ef8560d2b0","ios":"levelo://app?vid=9cf8e6d9-67b8-441b-8ab4-08ef8560d2b0"},"vehicle_type_id":"4","last_reported":1739592625,"current_range_meters":0,"station_id":"","pricing_plan_id":"cebpf4jnsgd1na2vs0mg"},{"bike_id":"e7bb209c-0cf3-4cc5-96f3-6b145e29d9ec","system_id":"levelo_inurba_marseille","lat":43.25571,"lon":5.38257,"is_reserved":false,"is_disabled":false,"rental_uris":{"android":"levelo://app?vid=e7bb209c-0cf3-4cc5-96f3-6b145e29d9ec","ios":"levelo://app?vid=e7bb209c-0cf3-4cc5-96f3-6b145e29d9ec"},"vehicle_type_id":"4","last_reported":1739592625,"current_range_meters":24400,"station_id":"ce4bhih2rcd13ifvqfs0","pricing_plan_id":"cebpf4jnsgd1na2vs0mg"},{"bike_id":"e8383a41-ab98-41de-8229-dcb769519e9e","system_id":"levelo_inurba_marseille","lat":43.279181,"lon":5.395855,"is_reserved":false,"is_disabled":false,"rental_uris":{"android":"levelo://app?vid=e8383a41-ab98-41de-8229-dcb769519e9e","ios":"levelo://app?vid=e8383a41-ab98-41de-8229-dcb769519e9e"},"vehicle_type_id":"4","last_reported":1739592625,"current_range_meters":16800,"station_id":"ce4bhf92rcd13ifvqf40","pricing_plan_id":"cebpf4jnsgd1na2vs0mg"},{"bike_id":"6279f888-1d4b-4ebb-b3f2-c7248902b00f","system_id":"levelo_inurba_marseille","lat":43.254916,"lon":5.376413,"is_reserved":false,"is_disabled":false,"rental_uris":{"android":"levelo://app?vid=6279f888-1d4b-4ebb-b3f2-c7248902b00f","ios":"levelo://app?vid=6279f888-1d4b-4ebb-b3f2-c7248902b00f"},"vehicle_type_id":"4","last_reported":1739592625,"current_range_meters":14000,"station_id":"ce4bhh12rcd13ifvqff0","pricing_plan_id":"cebpf4jnsgd1na2vs0mg"},{"bike_id":"f9bcb86f-a6a3-429a-aba1-be70725b70c3","system_id":"levelo_inurba_marseille","lat":43.30418,"lon":5.41288,"is_reserved":false,"is_disabled":false,"rental_uris":{"android":"levelo://app?vid=f9bcb86f-a6a3-429a-aba1-be70725b70c3","ios":"levelo://app?vid=f9bcb86f-a6a3-429a-aba1-be70725b70c3"},"vehicle_type_id":"4","last_reported":1739592625,"current_range_meters":38800,"station_id":"ce4bhop2rcd13ifvqh8g","pricing_plan_id":"cebpf4jnsgd1na2vs0mg"},{"bike_id":"811b63d6-9c3c-4b06-849e-3b400f65e795","system_id":"levelo_inurba_marseille","lat":43.24652,"lon":5.3889,"is_reserved":false,"is_disabled":false,"rental_uris":{"android":"levelo://app?vid=811b63d6-9c3c-4b06-849e-3b400f65e795","ios":"levelo://app?vid=811b63d6-9c3c-4b06-849e-3b400f65e795"},"vehicle_type_id":"4","last_reported":1739592625,"current_range_meters":12000,"station_id":"ce4bhg12rcd13ifvqf60","pricing_plan_id":"cebpf4jnsgd1na2vs0mg"},{"bike_id":"e8e0bf5e-e649-40fe-b843-877cd938ff9e","system_id":"levelo_inurba_marseille","lat":43.27487,"lon":5.42458,"is_reserved":false,"is_disabled":false,"rental_uris":{"android":"levelo://app?vid=e8e0bf5e-e649-40fe-b843-877cd938ff9e","ios":"levelo://app?vid=e8e0bf5e-e649-40fe-b843-877cd938ff9e"},"vehicle_type_id":"4","last_reported":1739592625,"current_range_meters":38800,"station_id":"ce4bhn92rcd13ifvqgrg","pricing_plan_id":"cebpf4jnsgd1na2vs0mg"},{"bike_id":"2a821924-9788-4a12-a4ea-c0b40c580ab5","system_id":"levelo_inurba_marseille","lat":43.30887,"lon":5.3963,"is_reserved":false,"is_disabled":false,"rental_uris":{"android":"levelo://app?vid=2a821924-9788-4a12-a4ea-c0b40c580ab5","ios":"levelo://app?vid=2a821924-9788-4a12-a4ea-c0b40c580ab5"},"vehicle_type_id":"4","last_reported":1739592625,"current_range_meters":16800,"station_id":"ce4bh012rcd13ifvqcv0","pricing_plan_id":"cebpf4jnsgd1na2vs0mg"},{"bike_id":"30c17d1c-05b7-4e08-99da-ed8ff80fd970","system_id":"levelo_inurba_marseille","lat":43.30953,"lon":5.39052,"is_reserved":false,"is_disabled":true,"rental_uris":{"android":"levelo://app?vid=30c17d1c-05b7-4e08-99da-ed8ff80fd970","ios":"levelo://app?vid=30c17d1c-05b7-4e08-99da-ed8ff80fd970"},"vehicle_type_id":"4","last_reported":1739592625,"current_range_meters":38400,"station_id":"ce4bgup2rcd13ifvqco0","pricing_plan_id":"cebpf4jnsgd1na2vs0mg"},{"bike_id":"86081e76-774c-4e24-8176-3b3c91d007e6","system_id":"levelo_inurba_marseille","lat":43.24067,"lon":5.37741,"is_reserved":false,"is_disabled":false,"rental_uris":{"android":"levelo://app?vid=86081e76-774c-4e24-8176-3b3c91d007e6","ios":"levelo://app?vid=86081e76-774c-4e24-8176-3b3c91d007e6"},"vehicle_type_id":"4","last_reported":1739592625,"current_range_meters":28800,"station_id":"ce4bhnp2rcd13ifvqgvg","pricing_plan_id":"cebpf4jnsgd1na2vs0mg"},{"bike_id":"51ab7186-5043-4bed-baca-73708608a302","system_id":"levelo_inurba_marseille","lat":43.29584,"lon":5.37026,"is_reserved":false,"is_disabled":true,"rental_uris":{"android":"levelo://app?vid=51ab7186-5043-4bed-baca-73708608a302","ios":"levelo://app?vid=51ab7186-5043-4bed-baca-73708608a302"},"vehicle_type_id":"4","last_reported":1739592625,"current_range_meters":0,"station_id":"","pricing_plan_id":"cebpf4jnsgd1na2vs0mg"},{"bike_id":"041e106f-de74-4090-82c4-56a6b38bc309","system_id":"levelo_inurba_marseille","lat":43.289301,"lon":5.366383,"is_reserved":false,"is_disabled":false,"rental_uris":{"android":"levelo://app?vid=041e106f-de74-4090-82c4-56a6b38bc309","ios":"levelo://app?vid=041e106f-de74-4090-82c4-56a6b38bc309"},"vehicle_type_id":"4","last_reported":1739592625,"current_range_meters":30400,"station_id":"ce4bhap2rcd13ifvqek0","pricing_plan_id":"cebpf4jnsgd1na2vs0mg"},{"bike_id":"b1891c46-c846-4717-bbd5-0865fb242fc9","system_id":"levelo_inurba_marseille","lat":43.28358,"lon":5.38105,"is_reserved":false,"is_disabled":false,"rental_uris":{"android":"levelo://app?vid=b1891c46-c846-4717-bbd5-0865fb242fc9","ios":"levelo://app?vid=b1891c46-c846-4717-bbd5-0865fb242fc9"},"vehicle_type_id":"4","last_reported":1739592625,"current_range_meters":38800,"station_id":"ce4bh412rcd13ifvqdr0","pricing_plan_id":"cebpf4jnsgd1na2vs0mg"},{"bike_id":"d3fc5f7e-9983-4343-a9af-f36df7d45f29","system_id":"levelo_inurba_marseille","lat":43.23196,"lon":5.39977,"is_reserved":false,"is_disabled":false,"rental_uris":{"android":"levelo://app?vid=d3fc5f7e-9983-4343-a9af-f36df7d45f29","ios":"levelo://app?vid=d3fc5f7e-9983-4343-a9af-f36df7d45f29"},"vehicle_type_id":"4","last_reported":1739592625,"current_range_meters":16400,"station_id":"ce4bhn12rcd13ifvqgqg","pricing_plan_id":"cebpf4jnsgd1na2vs0mg"},{"bike_id":"fba31fd9-7012-49b6-a783-f5ff41b0b47d","system_id":"levelo_inurba_marseille","lat":43.231854,"lon":5.39985,"is_reserved":false,"is_disabled":false,"rental_uris":{"android":"levelo://app?vid=fba31fd9-7012-49b6-a783-f5ff41b0b47d","ios":"levelo://app?vid=fba31fd9-7012-49b6-a783-f5ff41b0b47d"},"vehicle_type_id":"4","last_reported":1739592625,"current_range_meters":24400,"station_id":"ce4bhn12rcd13ifvqgqg","pricing_plan_id":"cebpf4jnsgd1na2vs0mg"},{"bike_id":"3726052c-435c-4e9a-97b4-6741247fd797","system_id":"levelo_inurba_marseille","lat":43.284186,"lon":5.349856,"is_reserved":false,"is_disabled":false,"rental_uris":{"android":"levelo://app?vid=3726052c-435c-4e9a-97b4-6741247fd797","ios":"levelo://app?vid=3726052c-435c-4e9a-97b4-6741247fd797"},"vehicle_type_id":"4","last_reported":1739592625,"current_range_meters":30000,"station_id":"ce4bhbh2rcd13ifvqepg","pricing_plan_id":"cebpf4jnsgd1na2vs0mg"},{"bike_id":"635450e7-7bbd-4225-8704-989f96e65061","system_id":"levelo_inurba_marseille","lat":43.27487,"lon":5.4244,"is_reserved":false,"is_disabled":false,"rental_uris":{"android":"levelo://app?vid=635450e7-7bbd-4225-8704-989f96e65061","ios":"levelo://app?vid=635450e7-7bbd-4225-8704-989f96e65061"},"vehicle_type_id":"4","last_reported":1739592625,"current_range_meters":38800,"station_id":"ce4bhn92rcd13ifvqgrg","pricing_plan_id":"cebpf4jnsgd1na2vs0mg"},{"bike_id":"6243740b-900c-49eb-ab60-bae0a6738da4","system_id":"levelo_inurba_marseille","lat":43.28458,"lon":5.35892,"is_reserved":false,"is_disabled":false,"rental_uris":{"android":"levelo://app?vid=6243740b-900c-49eb-ab60-bae0a6738da4","ios":"levelo://app?vid=6243740b-900c-49eb-ab60-bae0a6738da4"},"vehicle_type_id":"4","last_reported":1739592625,"current_range_meters":38800,"station_id":"ce4bhah2rcd13ifvqei0","pricing_plan_id":"cebpf4jnsgd1na2vs0mg"},{"bike_id":"5fbe50a8-885b-4657-b77c-df4181249707","system_id":"levelo_inurba_marseille","lat":43.300817,"lon":5.404923,"is_reserved":false,"is_disabled":false,"rental_uris":{"android":"levelo://app?vid=5fbe50a8-885b-4657-b77c-df4181249707","ios":"levelo://app?vid=5fbe50a8-885b-4657-b77c-df4181249707"},"vehicle_type_id":"4","last_reported":1739592625,"current_range_meters":35600,"station_id":"","pricing_plan_id":"cebpf4jnsgd1na2vs0mg"},{"bike_id":"c40e2cb9-b89c-4dbd-956b-535ef79f1d37","system_id":"levelo_inurba_marseille","lat":43.24813,"lon":5.3746,"is_reserved":false,"is_disabled":false,"rental_uris":{"android":"levelo://app?vid=c40e2cb9-b89c-4dbd-956b-535ef79f1d37","ios":"levelo://app?vid=c40e2cb9-b89c-4dbd-956b-535ef79f1d37"},"vehicle_type_id":"4","last_reported":1739592625,"current_range_meters":25200,"station_id":"ce4bhgh2rcd13ifvqfb0","pricing_plan_id":"cebpf4jnsgd1na2vs0mg"},{"bike_id":"272a495d-e659-4088-a277-553b74f17d59","system_id":"levelo_inurba_marseille","lat":43.287283,"lon":5.36086,"is_reserved":false,"is_disabled":false,"rental_uris":{"android":"levelo://app?vid=272a495d-e659-4088-a277-553b74f17d59","ios":"levelo://app?vid=272a495d-e659-4088-a277-553b74f17d59"},"vehicle_type_id":"4","last_reported":1739592625,"current_range_meters":24000,"station_id":"cki0cbj6b192h4jlfktg","pricing_plan_id":"cebpf4jnsgd1na2vs0mg"},{"bike_id":"6d14ffd0-8cb0-40f3-8b6f-5b79b4098bae","system_id":"levelo_inurba_marseille","lat":43.280931,"lon":5.37847,"is_reserved":false,"is_disabled":false,"rental_uris":{"android":"levelo://app?vid=6d14ffd0-8cb0-40f3-8b6f-5b79b4098bae","ios":"levelo://app?vid=6d14ffd0-8cb0-40f3-8b6f-5b79b4098bae"},"vehicle_type_id":"4","last_reported":1739592625,"current_range_meters":33600,"station_id":"ce4bha12rcd13ifvqee0","pricing_plan_id":"cebpf4jnsgd1na2vs0mg"},{"bike_id":"333946c8-1518-4495-85da-e9172c26eb3f","system_id":"levelo_inurba_marseille","lat":43.287,"lon":5.37386,"is_reserved":false,"is_disabled":false,"rental_uris":{"android":"levelo://app?vid=333946c8-1518-4495-85da-e9172c26eb3f","ios":"levelo://app?vid=333946c8-1518-4495-85da-e9172c26eb3f"},"vehicle_type_id":"4","last_reported":1739592625,"current_range_meters":38800,"station_id":"ce4bh3p2rcd13ifvqdq0","pricing_plan_id":"cebpf4jnsgd1na2vs0mg"},{"bike_id":"4afd05b5-41e1-4012-b907-304d88773920","system_id":"levelo_inurba_marseille","lat":43.239655,"lon":5.366331,"is_reserved":false,"is_disabled":true,"rental_uris":{"android":"levelo://app?vid=4afd05b5-41e1-4012-b907-304d88773920","ios":"levelo://app?vid=4afd05b5-41e1-4012-b907-304d88773920"},"vehicle_type_id":"4","last_reported":1739592625,"current_range_meters":2000,"station_id":"ce4bhi12rcd13ifvqfp0","pricing_plan_id":"cebpf4jnsgd1na2vs0mg"},{"bike_id":"0047d687-b365-4ab6-a370-fdffa5a8b8e6","system_id":"levelo_inurba_marseille","lat":43.30796,"lon":5.38154,"is_reserved":false,"is_disabled":false,"rental_uris":{"android":"levelo://app?vid=0047d687-b365-4ab6-a370-fdffa5a8b8e6","ios":"levelo://app?vid=0047d687-b365-4ab6-a370-fdffa5a8b8e6"},"vehicle_type_id":"4","last_reported":1739592625,"current_range_meters":4400,"station_id":"ce4bgt12rcd13ifvqce0","pricing_plan_id":"cebpf4jnsgd1na2vs0mg"},{"bike_id":"c8c0516c-62b0-4cbf-88f8-60819aff6581","system_id":"levelo_inurba_marseille","lat":43.25487,"lon":5.376557,"is_reserved":false,"is_disabled":true,"rental_uris":{"android":"levelo://app?vid=c8c0516c-62b0-4cbf-88f8-60819aff6581","ios":"levelo://app?vid=c8c0516c-62b0-4cbf-88f8-60819aff6581"},"vehicle_type_id":"4","last_reported":1739592625,"current_range_meters":14800,"station_id":"ce4bhh12rcd13ifvqff0","pricing_plan_id":"cebpf4jnsgd1na2vs0mg"},{"bike_id":"057a9c52-565b-427e-ab22-725f474e175e","system_id":"levelo_inurba_marseille","lat":43.308903,"lon":5.396323,"is_reserved":false,"is_disabled":false,"rental_uris":{"android":"levelo://app?vid=057a9c52-565b-427e-ab22-725f474e175e","ios":"levelo://app?vid=057a9c52-565b-427e-ab22-725f474e175e"},"vehicle_type_id":"4","last_reported":1739592625,"current_range_meters":18800,"station_id":"ce4bh012rcd13ifvqcv0","pricing_plan_id":"cebpf4jnsgd1na2vs0mg"},{"bike_id":"fb1d6738-83f4-4369-976a-8943f3cd6a76","system_id":"levelo_inurba_marseille","lat":43.29576,"lon":5.39962,"is_reserved":false,"is_disabled":false,"rental_uris":{"android":"levelo://app?vid=fb1d6738-83f4-4369-976a-8943f3cd6a76","ios":"levelo://app?vid=fb1d6738-83f4-4369-976a-8943f3cd6a76"},"vehicle_type_id":"4","last_reported":1739592625,"current_range_meters":18000,"station_id":"ce4bh312rcd13ifvqdj0","pricing_plan_id":"cebpf4jnsgd1na2vs0mg"},{"bike_id":"2e8fc403-db89-4ec8-942c-727343aeca53","system_id":"levelo_inurba_marseille","lat":43.28983,"lon":5.35587,"is_reserved":false,"is_disabled":false,"rental_uris":{"android":"levelo://app?vid=2e8fc403-db89-4ec8-942c-727343aeca53","ios":"levelo://app?vid=2e8fc403-db89-4ec8-942c-727343aeca53"},"vehicle_type_id":"4","last_reported":1739592625,"current_range_meters":38800,"station_id":"ce4bhb92rcd13ifvqen0","pricing_plan_id":"cebpf4jnsgd1na2vs0mg"},{"bike_id":"8c10e28e-5b4c-4154-8179-6f2ee2ae6eb5","system_id":"levelo_inurba_marseille","lat":43.262008,"lon":5.379206,"is_reserved":false,"is_disabled":false,"rental_uris":{"android":"levelo://app?vid=8c10e28e-5b4c-4154-8179-6f2ee2ae6eb5","ios":"levelo://app?vid=8c10e28e-5b4c-4154-8179-6f2ee2ae6eb5"},"vehicle_type_id":"4","last_reported":1739592625,"current_range_meters":38800,"station_id":"ce4bhjp2rcd13ifvqg90","pricing_plan_id":"cebpf4jnsgd1na2vs0mg"},{"bike_id":"a631f734-4aa1-4ec4-bfa7-ef8429122ef0","system_id":"levelo_inurba_marseille","lat":43.25733,"lon":5.41105,"is_reserved":false,"is_disabled":false,"rental_uris":{"android":"levelo://app?vid=a631f734-4aa1-4ec4-bfa7-ef8429122ef0","ios":"levelo://app?vid=a631f734-4aa1-4ec4-bfa7-ef8429122ef0"},"vehicle_type_id":"4","last_reported":1739592625,"current_range_meters":20400,"station_id":"ce4bhkp2rcd13ifvqgd0","pricing_plan_id":"cebpf4jnsgd1na2vs0mg"},{"bike_id":"89d8b51e-5064-4e84-9871-088b604e6647","system_id":"levelo_inurba_marseille","lat":43.25081,"lon":5.39518,"is_reserved":false,"is_disabled":false,"rental_uris":{"android":"levelo://app?vid=89d8b51e-5064-4e84-9871-088b604e6647","ios":"levelo://app?vid=89d8b51e-5064-4e84-9871-088b604e6647"},"vehicle_type_id":"4","last_reported":1739592625,"current_range_meters":8400,"station_id":"ce4bhm12rcd13ifvqgkg","pricing_plan_id":"cebpf4jnsgd1na2vs0mg"},{"bike_id":"a70729f0-bf50-486d-acf1-77ab278c9efb","system_id":"levelo_inurba_marseille","lat":43.27458,"lon":5.41034,"is_reserved":false,"is_disabled":false,"rental_uris":{"android":"levelo://app?vid=a70729f0-bf50-486d-acf1-77ab278c9efb","ios":"levelo://app?vid=a70729f0-bf50-486d-acf1-77ab278c9efb"},"vehicle_type_id":"4","last_reported":1739592625,"current_range_meters":14400,"station_id":"","pricing_plan_id":"cebpf4jnsgd1na2vs0mg"},{"bike_id":"f2294962-01ce-46fd-8a11-979901195d1d","system_id":"levelo_inurba_marseille","lat":43.246829,"lon":5.381647,"is_reserved":false,"is_disabled":false,"rental_uris":{"android":"levelo://app?vid=f2294962-01ce-46fd-8a11-979901195d1d","ios":"levelo://app?vid=f2294962-01ce-46fd-8a11-979901195d1d"},"vehicle_type_id":"4","last_reported":1739592625,"current_range_meters":38400,"station_id":"ce4bhih2rcd13ifvqfr0","pricing_plan_id":"cebpf4jnsgd1na2vs0mg"},{"bike_id":"838d55fb-dd91-42c0-bd0a-19319617ddba","system_id":"levelo_inurba_marseille","lat":43.28169,"lon":5.42637,"is_reserved":false,"is_disabled":false,"rental_uris":{"android":"levelo://app?vid=838d55fb-dd91-42c0-bd0a-19319617ddba","ios":"levelo://app?vid=838d55fb-dd91-42c0-bd0a-19319617ddba"},"vehicle_type_id":"4","last_reported":1739592625,"current_range_meters":38800,"station_id":"ce4bhnh2rcd13ifvqgug","pricing_plan_id":"cebpf4jnsgd1na2vs0mg"},{"bike_id":"07cce0e4-c34c-4c6c-b7f3-11be90ceb56c","system_id":"levelo_inurba_marseille","lat":43.302721,"lon":5.396386,"is_reserved":false,"is_disabled":false,"rental_uris":{"android":"levelo://app?vid=07cce0e4-c34c-4c6c-b7f3-11be90ceb56c","ios":"levelo://app?vid=07cce0e4-c34c-4c6c-b7f3-11be90ceb56c"},"vehicle_type_id":"4","last_reported":1739592625,"current_range_meters":12000,"station_id":"","pricing_plan_id":"cebpf4jnsgd1na2vs0mg"},{"bike_id":"498115ff-d163-4924-9cc6-afa312fea580","system_id":"levelo_inurba_marseille","lat":43.29286,"lon":5.40221,"is_reserved":false,"is_disabled":false,"rental_uris":{"android":"levelo://app?vid=498115ff-d163-4924-9cc6-afa312fea580","ios":"levelo://app?vid=498115ff-d163-4924-9cc6-afa312fea580"},"vehicle_type_id":"4","last_reported":1739592625,"current_range_meters":24000,"station_id":"ce4bh312rcd13ifvqdk0","pricing_plan_id":"cebpf4jnsgd1na2vs0mg"},{"bike_id":"349c30d9-4762-44b0-afbd-63f63400b3dd","system_id":"levelo_inurba_marseille","lat":43.28376,"lon":5.38632,"is_reserved":false,"is_disabled":false,"rental_uris":{"android":"levelo://app?vid=349c30d9-4762-44b0-afbd-63f63400b3dd","ios":"levelo://app?vid=349c30d9-4762-44b0-afbd-63f63400b3dd"},"vehicle_type_id":"4","last_reported":1739592625,"current_range_meters":35200,"station_id":"ce4bh492rcd13ifvqdvg","pricing_plan_id":"cebpf4jnsgd1na2vs0mg"},{"bike_id":"f95c598b-73a5-4793-bd58-d5ddde21f497","system_id":"levelo_inurba_marseille","lat":43.28614,"lon":5.35088,"is_reserved":false,"is_disabled":false,"rental_uris":{"android":"levelo://app?vid=f95c598b-73a5-4793-bd58-d5ddde21f497","ios":"levelo://app?vid=f95c598b-73a5-4793-bd58-d5ddde21f497"},"vehicle_type_id":"4","last_reported":1739592625,"current_range_meters":16400,"station_id":"ce4bhch2rcd13ifvqeug","pricing_plan_id":"cebpf4jnsgd1na2vs0mg"},{"bike_id":"258f2806-7b6c-4de8-8a7d-3a791724ae3d","system_id":"levelo_inurba_marseille","lat":43.27988,"lon":5.41657,"is_reserved":false,"is_disabled":false,"rental_uris":{"android":"levelo://app?vid=258f2806-7b6c-4de8-8a7d-3a791724ae3d","ios":"levelo://app?vid=258f2806-7b6c-4de8-8a7d-3a791724ae3d"},"vehicle_type_id":"4","last_reported":1739592625,"current_range_meters":38800,"station_id":"ce4bho12rcd13ifvqh1g","pricing_plan_id":"cebpf4jnsgd1na2vs0mg"},{"bike_id":"4e4d19c8-883b-41c8-9ef5-f232a80cd575","system_id":"levelo_inurba_marseille","lat":43.28921,"lon":5.3839,"is_reserved":false,"is_disabled":false,"rental_uris":{"android":"levelo://app?vid=4e4d19c8-883b-41c8-9ef5-f232a80cd575","ios":"levelo://app?vid=4e4d19c8-883b-41c8-9ef5-f232a80cd575"},"vehicle_type_id":"4","last_reported":1739592625,"current_range_meters":38800,"station_id":"ce4bh612rcd13ifvqe6g","pricing_plan_id":"cebpf4jnsgd1na2vs0mg"},{"bike_id":"78580374-70a8-4853-ac6b-e6acdbe16ef7","system_id":"levelo_inurba_marseille","lat":43.24798,"lon":5.3746,"is_reserved":false,"is_disabled":true,"rental_uris":{"android":"levelo://app?vid=78580374-70a8-4853-ac6b-e6acdbe16ef7","ios":"levelo://app?vid=78580374-70a8-4853-ac6b-e6acdbe16ef7"},"vehicle_type_id":"4","last_reported":1739592625,"current_range_meters":38000,"station_id":"ce4bhgh2rcd13ifvqfb0","pricing_plan_id":"cebpf4jnsgd1na2vs0mg"},{"bike_id":"db752bab-eca8-4e94-b02a-8ad1512b568d","system_id":"levelo_inurba_marseille","lat":43.28573,"lon":5.39487,"is_reserved":false,"is_disabled":false,"rental_uris":{"android":"levelo://app?vid=db752bab-eca8-4e94-b02a-8ad1512b568d","ios":"levelo://app?vid=db752bab-eca8-4e94-b02a-8ad1512b568d"},"vehicle_type_id":"4","last_reported":1739592625,"current_range_meters":38800,"station_id":"ce4bh292rcd13ifvqdg0","pricing_plan_id":"cebpf4jnsgd1na2vs0mg"},{"bike_id":"8d89262f-7bab-408f-b55c-fa5cc065d9cf","system_id":"levelo_inurba_marseille","lat":43.27836,"lon":5.392,"is_reserved":false,"is_disabled":false,"rental_uris":{"android":"levelo://app?vid=8d89262f-7bab-408f-b55c-fa5cc065d9cf","ios":"levelo://app?vid=8d89262f-7bab-408f-b55c-fa5cc065d9cf"},"vehicle_type_id":"4","last_reported":1739592625,"current_range_meters":38800,"station_id":"ce4bhjp2rcd13ifvqga0","pricing_plan_id":"cebpf4jnsgd1na2vs0mg"},{"bike_id":"b4b990af-4c00-4131-b8f7-f22698a17597","system_id":"levelo_inurba_marseille","lat":43.3023,"lon":5.40037,"is_reserved":false,"is_disabled":false,"rental_uris":{"android":"levelo://app?vid=b4b990af-4c00-4131-b8f7-f22698a17597","ios":"levelo://app?vid=b4b990af-4c00-4131-b8f7-f22698a17597"},"vehicle_type_id":"4","last_reported":1739592625,"current_range_meters":35600,"station_id":"ce4bgvh2rcd13ifvqcs0","pricing_plan_id":"cebpf4jnsgd1na2vs0mg"},{"bike_id":"c2a1a342-d679-4037-a27e-b2fb148f26d7","system_id":"levelo_inurba_marseille","lat":43.25591,"lon":5.3824,"is_reserved":false,"is_disabled":false,"rental_uris":{"android":"levelo://app?vid=c2a1a342-d679-4037-a27e-b2fb148f26d7","ios":"levelo://app?vid=c2a1a342-d679-4037-a27e-b2fb148f26d7"},"vehicle_type_id":"4","last_reported":1739592625,"current_range_meters":34000,"station_id":"ce4bhih2rcd13ifvqfs0","pricing_plan_id":"cebpf4jnsgd1na2vs0mg"},{"bike_id":"23849fcd-4bc4-44f6-8337-e9a9a16fe0e7","system_id":"levelo_inurba_marseille","lat":43.297423,"lon":5.479551,"is_reserved":false,"is_disabled":true,"rental_uris":{"android":"levelo://app?vid=23849fcd-4bc4-44f6-8337-e9a9a16fe0e7","ios":"levelo://app?vid=23849fcd-4bc4-44f6-8337-e9a9a16fe0e7"},"vehicle_type_id":"4","last_reported":1739592625,"current_range_meters":0,"station_id":"","pricing_plan_id":"cebpf4jnsgd1na2vs0mg"},{"bike_id":"fe413e03-56dd-476a-80ff-36fef019bea6","system_id":"levelo_inurba_marseille","lat":43.286635,"lon":5.363497,"is_reserved":false,"is_disabled":false,"rental_uris":{"android":"levelo://app?vid=fe413e03-56dd-476a-80ff-36fef019bea6","ios":"levelo://app?vid=fe413e03-56dd-476a-80ff-36fef019bea6"},"vehicle_type_id":"4","last_reported":1739592625,"current_range_meters":38800,"station_id":"ce4bhah2rcd13ifvqej0","pricing_plan_id":"cebpf4jnsgd1na2vs0mg"},{"bike_id":"39636760-e0f2-451a-8082-66e6f5a30cd1","system_id":"levelo_inurba_marseille","lat":43.2862,"lon":5.35104,"is_reserved":false,"is_disabled":false,"rental_uris":{"android":"levelo://app?vid=39636760-e0f2-451a-8082-66e6f5a30cd1","ios":"levelo://app?vid=39636760-e0f2-451a-8082-66e6f5a30cd1"},"vehicle_type_id":"4","last_reported":1739592625,"current_range_meters":35600,"station_id":"ce4bhch2rcd13ifvqeug","pricing_plan_id":"cebpf4jnsgd1na2vs0mg"},{"bike_id":"25a0020e-c454-4908-a019-edd94f18a655","system_id":"levelo_inurba_marseille","lat":43.31314,"lon":5.39708,"is_reserved":false,"is_disabled":false,"rental_uris":{"android":"levelo://app?vid=25a0020e-c454-4908-a019-edd94f18a655","ios":"levelo://app?vid=25a0020e-c454-4908-a019-edd94f18a655"},"vehicle_type_id":"4","last_reported":1739592625,"current_range_meters":28000,"station_id":"ce4bgvp2rcd13ifvqcu0","pricing_plan_id":"cebpf4jnsgd1na2vs0mg"},{"bike_id":"a2ece53b-2544-4fb6-88e7-11a8063bae1d","system_id":"levelo_inurba_marseille","lat":43.250816,"lon":5.395159,"is_reserved":false,"is_disabled":false,"rental_uris":{"android":"levelo://app?vid=a2ece53b-2544-4fb6-88e7-11a8063bae1d","ios":"levelo://app?vid=a2ece53b-2544-4fb6-88e7-11a8063bae1d"},"vehicle_type_id":"4","last_reported":1739592625,"current_range_meters":30400,"station_id":"ce4bhm12rcd13ifvqgkg","pricing_plan_id":"cebpf4jnsgd1na2vs0mg"},{"bike_id":"d1b7e7c3-d876-4585-aa93-a701646b8c19","system_id":"levelo_inurba_marseille","lat":43.2321,"lon":5.39978,"is_reserved":false,"is_disabled":false,"rental_uris":{"android":"levelo://app?vid=d1b7e7c3-d876-4585-aa93-a701646b8c19","ios":"levelo://app?vid=d1b7e7c3-d876-4585-aa93-a701646b8c19"},"vehicle_type_id":"4","last_reported":1739592625,"current_range_meters":30800,"station_id":"ce4bhn12rcd13ifvqgqg","pricing_plan_id":"cebpf4jnsgd1na2vs0mg"},{"bike_id":"dc4fc55f-0ea9-49a1-bb39-4722eda2c2cd","system_id":"levelo_inurba_marseille","lat":43.29915,"lon":5.37655,"is_reserved":false,"is_disabled":false,"rental_uris":{"android":"levelo://app?vid=dc4fc55f-0ea9-49a1-bb39-4722eda2c2cd","ios":"levelo://app?vid=dc4fc55f-0ea9-49a1-bb39-4722eda2c2cd"},"vehicle_type_id":"4","last_reported":1739592625,"current_range_meters":19200,"station_id":"","pricing_plan_id":"cebpf4jnsgd1na2vs0mg"},{"bike_id":"151b4b94-201a-42b7-9cd0-0a3bdd281af1","system_id":"levelo_inurba_marseille","lat":43.28417,"lon":5.34982,"is_reserved":false,"is_disabled":false,"rental_uris":{"android":"levelo://app?vid=151b4b94-201a-42b7-9cd0-0a3bdd281af1","ios":"levelo://app?vid=151b4b94-201a-42b7-9cd0-0a3bdd281af1"},"vehicle_type_id":"4","last_reported":1739592625,"current_range_meters":33600,"station_id":"ce4bhbh2rcd13ifvqepg","pricing_plan_id":"cebpf4jnsgd1na2vs0mg"},{"bike_id":"24584566-354f-40ca-814c-29b96ecb851c","system_id":"levelo_inurba_marseille","lat":43.28373,"lon":5.38631,"is_reserved":false,"is_disabled":false,"rental_uris":{"android":"levelo://app?vid=24584566-354f-40ca-814c-29b96ecb851c","ios":"levelo://app?vid=24584566-354f-40ca-814c-29b96ecb851c"},"vehicle_type_id":"4","last_reported":1739592625,"current_range_meters":34800,"station_id":"ce4bh492rcd13ifvqdvg","pricing_plan_id":"cebpf4jnsgd1na2vs0mg"},{"bike_id":"d2c98906-95e6-41f0-887e-addf55786d50","system_id":"levelo_inurba_marseille","lat":43.27943,"lon":5.41053,"is_reserved":false,"is_disabled":false,"rental_uris":{"android":"levelo://app?vid=d2c98906-95e6-41f0-887e-addf55786d50","ios":"levelo://app?vid=d2c98906-95e6-41f0-887e-addf55786d50"},"vehicle_type_id":"4","last_reported":1739592625,"current_range_meters":25600,"station_id":"ce4bhnp2rcd13ifvqh0g","pricing_plan_id":"cebpf4jnsgd1na2vs0mg"},{"bike_id":"1df6a403-cc4d-4ed7-bc36-42644815c07d","system_id":"levelo_inurba_marseille","lat":43.27828,"lon":5.39203,"is_reserved":false,"is_disabled":false,"rental_uris":{"android":"levelo://app?vid=1df6a403-cc4d-4ed7-bc36-42644815c07d","ios":"levelo://app?vid=1df6a403-cc4d-4ed7-bc36-42644815c07d"},"vehicle_type_id":"4","last_reported":1739592625,"current_range_meters":21600,"station_id":"ce4bhjp2rcd13ifvqga0","pricing_plan_id":"cebpf4jnsgd1na2vs0mg"},{"bike_id":"4ad51a02-f2dd-46e4-a406-ba69455ffee4","system_id":"levelo_inurba_marseille","lat":43.28034,"lon":5.40834,"is_reserved":false,"is_disabled":false,"rental_uris":{"android":"levelo://app?vid=4ad51a02-f2dd-46e4-a406-ba69455ffee4","ios":"levelo://app?vid=4ad51a02-f2dd-46e4-a406-ba69455ffee4"},"vehicle_type_id":"4","last_reported":1739592625,"current_range_meters":9600,"station_id":"","pricing_plan_id":"cebpf4jnsgd1na2vs0mg"},{"bike_id":"c4df4f16-0512-464a-a719-0bb1f3feadb0","system_id":"levelo_inurba_marseille","lat":43.3229,"lon":5.40666,"is_reserved":false,"is_disabled":false,"rental_uris":{"android":"levelo://app?vid=c4df4f16-0512-464a-a719-0bb1f3feadb0","ios":"levelo://app?vid=c4df4f16-0512-464a-a719-0bb1f3feadb0"},"vehicle_type_id":"4","last_reported":1739592625,"current_range_meters":22000,"station_id":"","pricing_plan_id":"cebpf4jnsgd1na2vs0mg"},{"bike_id":"4bbe5326-37a5-4de3-89cc-8f18f745514b","system_id":"levelo_inurba_marseille","lat":43.255,"lon":5.37655,"is_reserved":false,"is_disabled":false,"rental_uris":{"android":"levelo://app?vid=4bbe5326-37a5-4de3-89cc-8f18f745514b","ios":"levelo://app?vid=4bbe5326-37a5-4de3-89cc-8f18f745514b"},"vehicle_type_id":"4","last_reported":1739592625,"current_range_meters":26000,"station_id":"ce4bhh12rcd13ifvqff0","pricing_plan_id":"cebpf4jnsgd1na2vs0mg"},{"bike_id":"10e3c495-23d5-417b-b809-a44799fdbd36","system_id":"levelo_inurba_marseille","lat":43.28713,"lon":5.3998,"is_reserved":false,"is_disabled":false,"rental_uris":{"android":"levelo://app?vid=10e3c495-23d5-417b-b809-a44799fdbd36","ios":"levelo://app?vid=10e3c495-23d5-417b-b809-a44799fdbd36"},"vehicle_type_id":"4","last_reported":1739592625,"current_range_meters":14400,"station_id":"ce4bho92rcd13ifvqh3g","pricing_plan_id":"cebpf4jnsgd1na2vs0mg"},{"bike_id":"3d703ccc-83e7-4013-824a-7eb6ae314e4b","system_id":"levelo_inurba_marseille","lat":43.308829,"lon":5.396287,"is_reserved":false,"is_disabled":false,"rental_uris":{"android":"levelo://app?vid=3d703ccc-83e7-4013-824a-7eb6ae314e4b","ios":"levelo://app?vid=3d703ccc-83e7-4013-824a-7eb6ae314e4b"},"vehicle_type_id":"4","last_reported":1739592625,"current_range_meters":18000,"station_id":"ce4bh012rcd13ifvqcv0","pricing_plan_id":"cebpf4jnsgd1na2vs0mg"},{"bike_id":"03eba1d0-92c1-4e6e-a4d0-7c546f2439c0","system_id":"levelo_inurba_marseille","lat":43.337444,"lon":5.374475,"is_reserved":false,"is_disabled":true,"rental_uris":{"android":"levelo://app?vid=03eba1d0-92c1-4e6e-a4d0-7c546f2439c0","ios":"levelo://app?vid=03eba1d0-92c1-4e6e-a4d0-7c546f2439c0"},"vehicle_type_id":"4","last_reported":1739592625,"current_range_meters":0,"station_id":"","pricing_plan_id":"cebpf4jnsgd1na2vs0mg"},{"bike_id":"3ce9ce58-7c99-4dbb-a109-d0a36243ebfb","system_id":"levelo_inurba_marseille","lat":43.284434,"lon":5.391784,"is_reserved":false,"is_disabled":true,"rental_uris":{"android":"levelo://app?vid=3ce9ce58-7c99-4dbb-a109-d0a36243ebfb","ios":"levelo://app?vid=3ce9ce58-7c99-4dbb-a109-d0a36243ebfb"},"vehicle_type_id":"4","last_reported":1739592625,"current_range_meters":34000,"station_id":"ce4bhoh2rcd13ifvqh5g","pricing_plan_id":"cebpf4jnsgd1na2vs0mg"},{"bike_id":"37d274bc-7488-45e2-be26-b72715489ecd","system_id":"levelo_inurba_marseille","lat":43.2845,"lon":5.39185,"is_reserved":false,"is_disabled":true,"rental_uris":{"android":"levelo://app?vid=37d274bc-7488-45e2-be26-b72715489ecd","ios":"levelo://app?vid=37d274bc-7488-45e2-be26-b72715489ecd"},"vehicle_type_id":"4","last_reported":1739592625,"current_range_meters":38800,"station_id":"ce4bhoh2rcd13ifvqh5g","pricing_plan_id":"cebpf4jnsgd1na2vs0mg"},{"bike_id":"8208b9be-b2fb-4d4a-9708-6254e17f01c5","system_id":"levelo_inurba_marseille","lat":43.25474,"lon":5.37631,"is_reserved":false,"is_disabled":false,"rental_uris":{"android":"levelo://app?vid=8208b9be-b2fb-4d4a-9708-6254e17f01c5","ios":"levelo://app?vid=8208b9be-b2fb-4d4a-9708-6254e17f01c5"},"vehicle_type_id":"4","last_reported":1739592625,"current_range_meters":35600,"station_id":"ce4bhh12rcd13ifvqff0","pricing_plan_id":"cebpf4jnsgd1na2vs0mg"},{"bike_id":"3441c353-b491-45c0-96a9-12ca432004ac","system_id":"levelo_inurba_marseille","lat":43.30297,"lon":5.39196,"is_reserved":false,"is_disabled":false,"rental_uris":{"android":"levelo://app?vid=3441c353-b491-45c0-96a9-12ca432004ac","ios":"levelo://app?vid=3441c353-b491-45c0-96a9-12ca432004ac"},"vehicle_type_id":"4","last_reported":1739592625,"current_range_meters":38400,"station_id":"ce4bgkh2rcd13ifvqbk0","pricing_plan_id":"cebpf4jnsgd1na2vs0mg"},{"bike_id":"6731b96d-efef-4717-971c-9529035bf9eb","system_id":"levelo_inurba_marseille","lat":43.32271,"lon":5.38269,"is_reserved":false,"is_disabled":false,"rental_uris":{"android":"levelo://app?vid=6731b96d-efef-4717-971c-9529035bf9eb","ios":"levelo://app?vid=6731b96d-efef-4717-971c-9529035bf9eb"},"vehicle_type_id":"4","last_reported":1739592625,"current_range_meters":38000,"station_id":"ce4bhr12rcd13ifvqhqg","pricing_plan_id":"cebpf4jnsgd1na2vs0mg"},{"bike_id":"5016e875-414a-41bd-8f00-6a5845e39ba6","system_id":"levelo_inurba_marseille","lat":43.30801,"lon":5.43524,"is_reserved":false,"is_disabled":false,"rental_uris":{"android":"levelo://app?vid=5016e875-414a-41bd-8f00-6a5845e39ba6","ios":"levelo://app?vid=5016e875-414a-41bd-8f00-6a5845e39ba6"},"vehicle_type_id":"4","last_reported":1739592625,"current_range_meters":31200,"station_id":"ce4bhph2rcd13ifvqheg","pricing_plan_id":"cebpf4jnsgd1na2vs0mg"},{"bike_id":"37de05d3-3a98-4c3b-897c-2111f276da6e","system_id":"levelo_inurba_marseille","lat":43.274909,"lon":5.42464,"is_reserved":false,"is_disabled":false,"rental_uris":{"android":"levelo://app?vid=37de05d3-3a98-4c3b-897c-2111f276da6e","ios":"levelo://app?vid=37de05d3-3a98-4c3b-897c-2111f276da6e"},"vehicle_type_id":"4","last_reported":1739592625,"current_range_meters":38800,"station_id":"ce4bhn92rcd13ifvqgrg","pricing_plan_id":"cebpf4jnsgd1na2vs0mg"},{"bike_id":"683dd2bd-1e81-48dd-a1eb-4b7a7378e30c","system_id":"levelo_inurba_marseille","lat":43.243917,"lon":5.370635,"is_reserved":false,"is_disabled":false,"rental_uris":{"android":"levelo://app?vid=683dd2bd-1e81-48dd-a1eb-4b7a7378e30c","ios":"levelo://app?vid=683dd2bd-1e81-48dd-a1eb-4b7a7378e30c"},"vehicle_type_id":"4","last_reported":1739592625,"current_range_meters":16400,"station_id":"ce4bhhh2rcd13ifvqfk0","pricing_plan_id":"cebpf4jnsgd1na2vs0mg"},{"bike_id":"533f137a-d5b2-43fb-baac-5970f9b2f485","system_id":"levelo_inurba_marseille","lat":43.313214,"lon":5.39696,"is_reserved":false,"is_disabled":false,"rental_uris":{"android":"levelo://app?vid=533f137a-d5b2-43fb-baac-5970f9b2f485","ios":"levelo://app?vid=533f137a-d5b2-43fb-baac-5970f9b2f485"},"vehicle_type_id":"4","last_reported":1739592625,"current_range_meters":32800,"station_id":"ce4bgvp2rcd13ifvqcu0","pricing_plan_id":"cebpf4jnsgd1na2vs0mg"},{"bike_id":"59766873-baf5-4ee6-8740-61d6b1b267c8","system_id":"levelo_inurba_marseille","lat":43.31326,"lon":5.39695,"is_reserved":false,"is_disabled":false,"rental_uris":{"android":"levelo://app?vid=59766873-baf5-4ee6-8740-61d6b1b267c8","ios":"levelo://app?vid=59766873-baf5-4ee6-8740-61d6b1b267c8"},"vehicle_type_id":"4","last_reported":1739592625,"current_range_meters":25600,"station_id":"ce4bgvp2rcd13ifvqcu0","pricing_plan_id":"cebpf4jnsgd1na2vs0mg"},{"bike_id":"91decaf1-05e9-491d-81c0-de81ccaa0255","system_id":"levelo_inurba_marseille","lat":43.29802,"lon":5.39356,"is_reserved":false,"is_disabled":false,"rental_uris":{"android":"levelo://app?vid=91decaf1-05e9-491d-81c0-de81ccaa0255","ios":"levelo://app?vid=91decaf1-05e9-491d-81c0-de81ccaa0255"},"vehicle_type_id":"4","last_reported":1739592625,"current_range_meters":38800,"station_id":"chh1huq6cuj3fo74tm60","pricing_plan_id":"cebpf4jnsgd1na2vs0mg"},{"bike_id":"4b087907-7192-4276-99d8-c0bfb8a98ca3","system_id":"levelo_inurba_marseille","lat":43.231883,"lon":5.399882,"is_reserved":false,"is_disabled":false,"rental_uris":{"android":"levelo://app?vid=4b087907-7192-4276-99d8-c0bfb8a98ca3","ios":"levelo://app?vid=4b087907-7192-4276-99d8-c0bfb8a98ca3"},"vehicle_type_id":"4","last_reported":1739592625,"current_range_meters":33600,"station_id":"ce4bhn12rcd13ifvqgqg","pricing_plan_id":"cebpf4jnsgd1na2vs0mg"},{"bike_id":"7835558a-b893-41e9-ae25-07deb12ac2d8","system_id":"levelo_inurba_marseille","lat":43.28399,"lon":5.37508,"is_reserved":false,"is_disabled":false,"rental_uris":{"android":"levelo://app?vid=7835558a-b893-41e9-ae25-07deb12ac2d8","ios":"levelo://app?vid=7835558a-b893-41e9-ae25-07deb12ac2d8"},"vehicle_type_id":"4","last_reported":1739592625,"current_range_meters":32000,"station_id":"ce4bh412rcd13ifvqds0","pricing_plan_id":"cebpf4jnsgd1na2vs0mg"},{"bike_id":"f8ecfa2c-0790-4125-87fd-2ea00d77423e","system_id":"levelo_inurba_marseille","lat":43.27651,"lon":5.38881,"is_reserved":false,"is_disabled":false,"rental_uris":{"android":"levelo://app?vid=f8ecfa2c-0790-4125-87fd-2ea00d77423e","ios":"levelo://app?vid=f8ecfa2c-0790-4125-87fd-2ea00d77423e"},"vehicle_type_id":"4","last_reported":1739592625,"current_range_meters":35200,"station_id":"ce4bhi12rcd13ifvqfo0","pricing_plan_id":"cebpf4jnsgd1na2vs0mg"},{"bike_id":"bd1fbd17-5ecd-4c2a-9290-d1ffd1a70214","system_id":"levelo_inurba_marseille","lat":43.29556,"lon":5.42294,"is_reserved":false,"is_disabled":false,"rental_uris":{"android":"levelo://app?vid=bd1fbd17-5ecd-4c2a-9290-d1ffd1a70214","ios":"levelo://app?vid=bd1fbd17-5ecd-4c2a-9290-d1ffd1a70214"},"vehicle_type_id":"4","last_reported":1739592625,"current_range_meters":34800,"station_id":"ce4bhph2rcd13ifvqhdg","pricing_plan_id":"cebpf4jnsgd1na2vs0mg"},{"bike_id":"ac19deec-8ca4-428a-bd5d-65b9c5c06d0a","system_id":"levelo_inurba_marseille","lat":43.29469,"lon":5.3975,"is_reserved":false,"is_disabled":false,"rental_uris":{"android":"levelo://app?vid=ac19deec-8ca4-428a-bd5d-65b9c5c06d0a","ios":"levelo://app?vid=ac19deec-8ca4-428a-bd5d-65b9c5c06d0a"},"vehicle_type_id":"4","last_reported":1739592625,"current_range_meters":38000,"station_id":"ce4bh3h2rcd13ifvqdo0","pricing_plan_id":"cebpf4jnsgd1na2vs0mg"},{"bike_id":"2f708e4a-da4a-483d-a9f7-574fc8536a37","system_id":"levelo_inurba_marseille","lat":43.231529,"lon":5.437134,"is_reserved":false,"is_disabled":false,"rental_uris":{"android":"levelo://app?vid=2f708e4a-da4a-483d-a9f7-574fc8536a37","ios":"levelo://app?vid=2f708e4a-da4a-483d-a9f7-574fc8536a37"},"vehicle_type_id":"4","last_reported":1739592625,"current_range_meters":27200,"station_id":"ce4bhmp2rcd13ifvqgog","pricing_plan_id":"cebpf4jnsgd1na2vs0mg"},{"bike_id":"4b3b9205-9700-401d-9f2a-874c9dfaf0e2","system_id":"levelo_inurba_marseille","lat":43.31318,"lon":5.39708,"is_reserved":false,"is_disabled":false,"rental_uris":{"android":"levelo://app?vid=4b3b9205-9700-401d-9f2a-874c9dfaf0e2","ios":"levelo://app?vid=4b3b9205-9700-401d-9f2a-874c9dfaf0e2"},"vehicle_type_id":"4","last_reported":1739592625,"current_range_meters":30800,"station_id":"ce4bgvp2rcd13ifvqcu0","pricing_plan_id":"cebpf4jnsgd1na2vs0mg"},{"bike_id":"e77ad4a1-54e5-4b76-b1a8-0f66a8bf9676","system_id":"levelo_inurba_marseille","lat":43.28711,"lon":5.37372,"is_reserved":false,"is_disabled":false,"rental_uris":{"android":"levelo://app?vid=e77ad4a1-54e5-4b76-b1a8-0f66a8bf9676","ios":"levelo://app?vid=e77ad4a1-54e5-4b76-b1a8-0f66a8bf9676"},"vehicle_type_id":"4","last_reported":1739592625,"current_range_meters":38800,"station_id":"ce4bh3p2rcd13ifvqdq0","pricing_plan_id":"cebpf4jnsgd1na2vs0mg"},{"bike_id":"005efd61-2174-41b4-931c-5db89e3de53c","system_id":"levelo_inurba_marseille","lat":43.28415,"lon":5.37517,"is_reserved":false,"is_disabled":false,"rental_uris":{"android":"levelo://app?vid=005efd61-2174-41b4-931c-5db89e3de53c","ios":"levelo://app?vid=005efd61-2174-41b4-931c-5db89e3de53c"},"vehicle_type_id":"4","last_reported":1739592625,"current_range_meters":12400,"station_id":"ce4bh412rcd13ifvqds0","pricing_plan_id":"cebpf4jnsgd1na2vs0mg"},{"bike_id":"992a58a0-449d-4c14-b63b-1be95687b874","system_id":"levelo_inurba_marseille","lat":43.281023,"lon":5.396319,"is_reserved":false,"is_disabled":false,"rental_uris":{"android":"levelo://app?vid=992a58a0-449d-4c14-b63b-1be95687b874","ios":"levelo://app?vid=992a58a0-449d-4c14-b63b-1be95687b874"},"vehicle_type_id":"4","last_reported":1739592625,"current_range_meters":38000,"station_id":"ce4bho12rcd13ifvqh2g","pricing_plan_id":"cebpf4jnsgd1na2vs0mg"},{"bike_id":"14905efe-4e39-4ed8-9fbc-7eeb1b6317d4","system_id":"levelo_inurba_marseille","lat":43.24633,"lon":5.38915,"is_reserved":false,"is_disabled":false,"rental_uris":{"android":"levelo://app?vid=14905efe-4e39-4ed8-9fbc-7eeb1b6317d4","ios":"levelo://app?vid=14905efe-4e39-4ed8-9fbc-7eeb1b6317d4"},"vehicle_type_id":"4","last_reported":1739592625,"current_range_meters":25600,"station_id":"ce4bhg12rcd13ifvqf60","pricing_plan_id":"cebpf4jnsgd1na2vs0mg"},{"bike_id":"6201d0d2-4e32-46e9-8ee9-c046090124b0","system_id":"levelo_inurba_marseille","lat":43.287258,"lon":5.360806,"is_reserved":false,"is_disabled":false,"rental_uris":{"android":"levelo://app?vid=6201d0d2-4e32-46e9-8ee9-c046090124b0","ios":"levelo://app?vid=6201d0d2-4e32-46e9-8ee9-c046090124b0"},"vehicle_type_id":"4","last_reported":1739592625,"current_range_meters":38800,"station_id":"cki0cbj6b192h4jlfktg","pricing_plan_id":"cebpf4jnsgd1na2vs0mg"},{"bike_id":"beab0e3e-da6f-4a1a-9cad-13bb86faead7","system_id":"levelo_inurba_marseille","lat":43.29916,"lon":5.36522,"is_reserved":false,"is_disabled":false,"rental_uris":{"android":"levelo://app?vid=beab0e3e-da6f-4a1a-9cad-13bb86faead7","ios":"levelo://app?vid=beab0e3e-da6f-4a1a-9cad-13bb86faead7"},"vehicle_type_id":"4","last_reported":1739592625,"current_range_meters":27600,"station_id":"ce4bgm92rcd13ifvqbr0","pricing_plan_id":"cebpf4jnsgd1na2vs0mg"},{"bike_id":"35c71859-d749-4d30-961a-91d1c38d6948","system_id":"levelo_inurba_marseille","lat":43.25091,"lon":5.39498,"is_reserved":false,"is_disabled":false,"rental_uris":{"android":"levelo://app?vid=35c71859-d749-4d30-961a-91d1c38d6948","ios":"levelo://app?vid=35c71859-d749-4d30-961a-91d1c38d6948"},"vehicle_type_id":"4","last_reported":1739592625,"current_range_meters":7200,"station_id":"ce4bhm12rcd13ifvqgkg","pricing_plan_id":"cebpf4jnsgd1na2vs0mg"},{"bike_id":"5a3f0917-7f22-444c-abb9-189c888fbb43","system_id":"levelo_inurba_marseille","lat":43.311164,"lon":5.377575,"is_reserved":false,"is_disabled":false,"rental_uris":{"android":"levelo://app?vid=5a3f0917-7f22-444c-abb9-189c888fbb43","ios":"levelo://app?vid=5a3f0917-7f22-444c-abb9-189c888fbb43"},"vehicle_type_id":"4","last_reported":1739592625,"current_range_meters":28800,"station_id":"ce4bgt92rcd13ifvqcg0","pricing_plan_id":"cebpf4jnsgd1na2vs0mg"},{"bike_id":"33b50b3e-7cb9-4e21-ae29-b0305a6c4b18","system_id":"levelo_inurba_marseille","lat":43.32301,"lon":5.38286,"is_reserved":false,"is_disabled":false,"rental_uris":{"android":"levelo://app?vid=33b50b3e-7cb9-4e21-ae29-b0305a6c4b18","ios":"levelo://app?vid=33b50b3e-7cb9-4e21-ae29-b0305a6c4b18"},"vehicle_type_id":"4","last_reported":1739592625,"current_range_meters":20800,"station_id":"ce4bhr12rcd13ifvqhqg","pricing_plan_id":"cebpf4jnsgd1na2vs0mg"},{"bike_id":"e4b9f80e-c487-4b21-a9f2-cea27949e48e","system_id":"levelo_inurba_marseille","lat":43.31793,"lon":5.37374,"is_reserved":false,"is_disabled":true,"rental_uris":{"android":"levelo://app?vid=e4b9f80e-c487-4b21-a9f2-cea27949e48e","ios":"levelo://app?vid=e4b9f80e-c487-4b21-a9f2-cea27949e48e"},"vehicle_type_id":"4","last_reported":1739592625,"current_range_meters":0,"station_id":"","pricing_plan_id":"cebpf4jnsgd1na2vs0mg"},{"bike_id":"19ac7dcf-a07c-4e83-883b-89a8dcbd81d7","system_id":"levelo_inurba_marseille","lat":43.28708,"lon":5.39971,"is_reserved":false,"is_disabled":false,"rental_uris":{"android":"levelo://app?vid=19ac7dcf-a07c-4e83-883b-89a8dcbd81d7","ios":"levelo://app?vid=19ac7dcf-a07c-4e83-883b-89a8dcbd81d7"},"vehicle_type_id":"4","last_reported":1739592625,"current_range_meters":38800,"station_id":"ce4bho92rcd13ifvqh3g","pricing_plan_id":"cebpf4jnsgd1na2vs0mg"},{"bike_id":"312ffda6-57ec-493a-a409-1ceba4974ee9","system_id":"levelo_inurba_marseille","lat":43.311713,"lon":5.387113,"is_reserved":false,"is_disabled":false,"rental_uris":{"android":"levelo://app?vid=312ffda6-57ec-493a-a409-1ceba4974ee9","ios":"levelo://app?vid=312ffda6-57ec-493a-a409-1ceba4974ee9"},"vehicle_type_id":"4","last_reported":1739592625,"current_range_meters":30800,"station_id":"ce4bgv12rcd13ifvqcp0","pricing_plan_id":"cebpf4jnsgd1na2vs0mg"},{"bike_id":"7c250b8e-1ac6-4c71-8022-0dac0b00c713","system_id":"levelo_inurba_marseille","lat":43.310724,"lon":5.383416,"is_reserved":false,"is_disabled":false,"rental_uris":{"android":"levelo://app?vid=7c250b8e-1ac6-4c71-8022-0dac0b00c713","ios":"levelo://app?vid=7c250b8e-1ac6-4c71-8022-0dac0b00c713"},"vehicle_type_id":"4","last_reported":1739592625,"current_range_meters":37600,"station_id":"ce4bgv92rcd13ifvqcr0","pricing_plan_id":"cebpf4jnsgd1na2vs0mg"},{"bike_id":"14b1b08f-4458-49f9-89ff-4f2d0bf34264","system_id":"levelo_inurba_marseille","lat":43.290295,"lon":5.386552,"is_reserved":false,"is_disabled":false,"rental_uris":{"android":"levelo://app?vid=14b1b08f-4458-49f9-89ff-4f2d0bf34264","ios":"levelo://app?vid=14b1b08f-4458-49f9-89ff-4f2d0bf34264"},"vehicle_type_id":"4","last_reported":1739592625,"current_range_meters":27600,"station_id":"ce4bh4p2rcd13ifvqe0g","pricing_plan_id":"cebpf4jnsgd1na2vs0mg"},{"bike_id":"54953254-3310-4e0d-9c50-ab810a2284ac","system_id":"levelo_inurba_marseille","lat":43.320746,"lon":5.415424,"is_reserved":false,"is_disabled":false,"rental_uris":{"android":"levelo://app?vid=54953254-3310-4e0d-9c50-ab810a2284ac","ios":"levelo://app?vid=54953254-3310-4e0d-9c50-ab810a2284ac"},"vehicle_type_id":"4","last_reported":1739592625,"current_range_meters":38400,"station_id":"ce4bhq92rcd13ifvqhkg","pricing_plan_id":"cebpf4jnsgd1na2vs0mg"},{"bike_id":"a30a2e4b-bdf2-47be-8d36-867c9157f403","system_id":"levelo_inurba_marseille","lat":43.28612,"lon":5.35112,"is_reserved":false,"is_disabled":false,"rental_uris":{"android":"levelo://app?vid=a30a2e4b-bdf2-47be-8d36-867c9157f403","ios":"levelo://app?vid=a30a2e4b-bdf2-47be-8d36-867c9157f403"},"vehicle_type_id":"4","last_reported":1739592625,"current_range_meters":28400,"station_id":"ce4bhch2rcd13ifvqeug","pricing_plan_id":"cebpf4jnsgd1na2vs0mg"},{"bike_id":"e4d2c3d2-dee8-46c7-936e-eff6b8003875","system_id":"levelo_inurba_marseille","lat":43.279486,"lon":5.410478,"is_reserved":false,"is_disabled":false,"rental_uris":{"android":"levelo://app?vid=e4d2c3d2-dee8-46c7-936e-eff6b8003875","ios":"levelo://app?vid=e4d2c3d2-dee8-46c7-936e-eff6b8003875"},"vehicle_type_id":"4","last_reported":1739592625,"current_range_meters":32000,"station_id":"ce4bhnp2rcd13ifvqh0g","pricing_plan_id":"cebpf4jnsgd1na2vs0mg"},{"bike_id":"77f50df8-ca25-4b79-92ea-d528f76431b1","system_id":"levelo_inurba_marseille","lat":43.29234,"lon":5.43609,"is_reserved":false,"is_disabled":true,"rental_uris":{"android":"levelo://app?vid=77f50df8-ca25-4b79-92ea-d528f76431b1","ios":"levelo://app?vid=77f50df8-ca25-4b79-92ea-d528f76431b1"},"vehicle_type_id":"4","last_reported":1739592625,"current_range_meters":0,"station_id":"","pricing_plan_id":"cebpf4jnsgd1na2vs0mg"},{"bike_id":"ba6ee90b-9d94-4f43-8358-366faab5901e","system_id":"levelo_inurba_marseille","lat":43.28076,"lon":5.39665,"is_reserved":false,"is_disabled":false,"rental_uris":{"android":"levelo://app?vid=ba6ee90b-9d94-4f43-8358-366faab5901e","ios":"levelo://app?vid=ba6ee90b-9d94-4f43-8358-366faab5901e"},"vehicle_type_id":"4","last_reported":1739592625,"current_range_meters":36400,"station_id":"ce4bho12rcd13ifvqh2g","pricing_plan_id":"cebpf4jnsgd1na2vs0mg"},{"bike_id":"fe0f12a8-8d62-4d79-b629-bda6901e6297","system_id":"levelo_inurba_marseille","lat":43.26868,"lon":5.40326,"is_reserved":false,"is_disabled":true,"rental_uris":{"android":"levelo://app?vid=fe0f12a8-8d62-4d79-b629-bda6901e6297","ios":"levelo://app?vid=fe0f12a8-8d62-4d79-b629-bda6901e6297"},"vehicle_type_id":"4","last_reported":1739592625,"current_range_meters":33200,"station_id":"ce501612rcd8frsf0b60","pricing_plan_id":"cebpf4jnsgd1na2vs0mg"},{"bike_id":"469df817-c238-4d61-8781-dabb1a74fb52","system_id":"levelo_inurba_marseille","lat":43.3061,"lon":5.37233,"is_reserved":false,"is_disabled":false,"rental_uris":{"android":"levelo://app?vid=469df817-c238-4d61-8781-dabb1a74fb52","ios":"levelo://app?vid=469df817-c238-4d61-8781-dabb1a74fb52"},"vehicle_type_id":"4","last_reported":1739592625,"current_range_meters":34800,"station_id":"ce4bgqh2rcd13ifvqc4g","pricing_plan_id":"cebpf4jnsgd1na2vs0mg"},{"bike_id":"71b09600-92bf-4db2-a8a0-9901e3e52200","system_id":"levelo_inurba_marseille","lat":43.30016,"lon":5.37588,"is_reserved":false,"is_disabled":false,"rental_uris":{"android":"levelo://app?vid=71b09600-92bf-4db2-a8a0-9901e3e52200","ios":"levelo://app?vid=71b09600-92bf-4db2-a8a0-9901e3e52200"},"vehicle_type_id":"4","last_reported":1739592625,"current_range_meters":23200,"station_id":"ce4bgs92rcd13ifvqcc0","pricing_plan_id":"cebpf4jnsgd1na2vs0mg"},{"bike_id":"5429a055-5c17-4863-ac08-ee7234bc7af8","system_id":"levelo_inurba_marseille","lat":43.32274,"lon":5.3683,"is_reserved":false,"is_disabled":false,"rental_uris":{"android":"levelo://app?vid=5429a055-5c17-4863-ac08-ee7234bc7af8","ios":"levelo://app?vid=5429a055-5c17-4863-ac08-ee7234bc7af8"},"vehicle_type_id":"4","last_reported":1739592625,"current_range_meters":34800,"station_id":"","pricing_plan_id":"cebpf4jnsgd1na2vs0mg"},{"bike_id":"e8f6c017-1b35-4d56-94ed-ae2dffef586d","system_id":"levelo_inurba_marseille","lat":43.306,"lon":5.37237,"is_reserved":false,"is_disabled":false,"rental_uris":{"android":"levelo://app?vid=e8f6c017-1b35-4d56-94ed-ae2dffef586d","ios":"levelo://app?vid=e8f6c017-1b35-4d56-94ed-ae2dffef586d"},"vehicle_type_id":"4","last_reported":1739592625,"current_range_meters":38800,"station_id":"ce4bgqh2rcd13ifvqc4g","pricing_plan_id":"cebpf4jnsgd1na2vs0mg"},{"bike_id":"043c3f00-95e0-44f1-8f8f-49251bf9d051","system_id":"levelo_inurba_marseille","lat":43.24807,"lon":5.37439,"is_reserved":false,"is_disabled":false,"rental_uris":{"android":"levelo://app?vid=043c3f00-95e0-44f1-8f8f-49251bf9d051","ios":"levelo://app?vid=043c3f00-95e0-44f1-8f8f-49251bf9d051"},"vehicle_type_id":"4","last_reported":1739592625,"current_range_meters":38800,"station_id":"ce4bhgh2rcd13ifvqfb0","pricing_plan_id":"cebpf4jnsgd1na2vs0mg"},{"bike_id":"99bf1d95-622d-4147-80da-b1ea756aaa2e","system_id":"levelo_inurba_marseille","lat":43.229391,"lon":5.353703,"is_reserved":false,"is_disabled":false,"rental_uris":{"android":"levelo://app?vid=99bf1d95-622d-4147-80da-b1ea756aaa2e","ios":"levelo://app?vid=99bf1d95-622d-4147-80da-b1ea756aaa2e"},"vehicle_type_id":"4","last_reported":1739592625,"current_range_meters":7200,"station_id":"cpo3532slgdg3j2ikp40","pricing_plan_id":"cebpf4jnsgd1na2vs0mg"},{"bike_id":"ec8570bc-ba11-4f76-bc33-6a49744cc66f","system_id":"levelo_inurba_marseille","lat":43.28933,"lon":5.36628,"is_reserved":false,"is_disabled":false,"rental_uris":{"android":"levelo://app?vid=ec8570bc-ba11-4f76-bc33-6a49744cc66f","ios":"levelo://app?vid=ec8570bc-ba11-4f76-bc33-6a49744cc66f"},"vehicle_type_id":"4","last_reported":1739592625,"current_range_meters":39200,"station_id":"ce4bhap2rcd13ifvqek0","pricing_plan_id":"cebpf4jnsgd1na2vs0mg"},{"bike_id":"711a6eb2-05c7-4789-87c7-6cb301fd4d69","system_id":"levelo_inurba_marseille","lat":43.295313,"lon":5.385401,"is_reserved":false,"is_disabled":true,"rental_uris":{"android":"levelo://app?vid=711a6eb2-05c7-4789-87c7-6cb301fd4d69","ios":"levelo://app?vid=711a6eb2-05c7-4789-87c7-6cb301fd4d69"},"vehicle_type_id":"4","last_reported":1739592625,"current_range_meters":38800,"station_id":"ce4bgih2rcd13ifvqba0","pricing_plan_id":"cebpf4jnsgd1na2vs0mg"},{"bike_id":"a29676e7-55a1-49bc-919f-e8ddc6a62810","system_id":"levelo_inurba_marseille","lat":43.298523,"lon":5.362829,"is_reserved":false,"is_disabled":false,"rental_uris":{"android":"levelo://app?vid=a29676e7-55a1-49bc-919f-e8ddc6a62810","ios":"levelo://app?vid=a29676e7-55a1-49bc-919f-e8ddc6a62810"},"vehicle_type_id":"4","last_reported":1739592625,"current_range_meters":38800,"station_id":"ce4bgpp2rcd13ifvqc3g","pricing_plan_id":"cebpf4jnsgd1na2vs0mg"},{"bike_id":"bc8033eb-1ddd-44a0-a675-6f28159f11a9","system_id":"levelo_inurba_marseille","lat":43.30958,"lon":5.39059,"is_reserved":false,"is_disabled":false,"rental_uris":{"android":"levelo://app?vid=bc8033eb-1ddd-44a0-a675-6f28159f11a9","ios":"levelo://app?vid=bc8033eb-1ddd-44a0-a675-6f28159f11a9"},"vehicle_type_id":"4","last_reported":1739592625,"current_range_meters":27200,"station_id":"ce4bgup2rcd13ifvqco0","pricing_plan_id":"cebpf4jnsgd1na2vs0mg"},{"bike_id":"e171f5b3-3051-4cca-a8d4-ea41c1bf99e6","system_id":"levelo_inurba_marseille","lat":43.309547,"lon":5.390492,"is_reserved":false,"is_disabled":false,"rental_uris":{"android":"levelo://app?vid=e171f5b3-3051-4cca-a8d4-ea41c1bf99e6","ios":"levelo://app?vid=e171f5b3-3051-4cca-a8d4-ea41c1bf99e6"},"vehicle_type_id":"4","last_reported":1739592625,"current_range_meters":24800,"station_id":"ce4bgup2rcd13ifvqco0","pricing_plan_id":"cebpf4jnsgd1na2vs0mg"},{"bike_id":"981f0c84-c763-4744-ab7e-6d6374d30546","system_id":"levelo_inurba_marseille","lat":43.25499,"lon":5.37651,"is_reserved":false,"is_disabled":false,"rental_uris":{"android":"levelo://app?vid=981f0c84-c763-4744-ab7e-6d6374d30546","ios":"levelo://app?vid=981f0c84-c763-4744-ab7e-6d6374d30546"},"vehicle_type_id":"4","last_reported":1739592625,"current_range_meters":38800,"station_id":"ce4bhh12rcd13ifvqff0","pricing_plan_id":"cebpf4jnsgd1na2vs0mg"},{"bike_id":"cf32f974-176f-413e-ae8d-12ed37a9cd2b","system_id":"levelo_inurba_marseille","lat":43.28894,"lon":5.42859,"is_reserved":false,"is_disabled":false,"rental_uris":{"android":"levelo://app?vid=cf32f974-176f-413e-ae8d-12ed37a9cd2b","ios":"levelo://app?vid=cf32f974-176f-413e-ae8d-12ed37a9cd2b"},"vehicle_type_id":"4","last_reported":1739592625,"current_range_meters":10800,"station_id":"","pricing_plan_id":"cebpf4jnsgd1na2vs0mg"},{"bike_id":"c4c30d43-c99a-4375-b69e-29accecccae5","system_id":"levelo_inurba_marseille","lat":43.311791,"lon":5.387131,"is_reserved":false,"is_disabled":false,"rental_uris":{"android":"levelo://app?vid=c4c30d43-c99a-4375-b69e-29accecccae5","ios":"levelo://app?vid=c4c30d43-c99a-4375-b69e-29accecccae5"},"vehicle_type_id":"4","last_reported":1739592625,"current_range_meters":36800,"station_id":"ce4bgv12rcd13ifvqcp0","pricing_plan_id":"cebpf4jnsgd1na2vs0mg"},{"bike_id":"24c9fd7a-dfb5-4755-9c33-7fb2bb66a39c","system_id":"levelo_inurba_marseille","lat":43.312134,"lon":5.373864,"is_reserved":false,"is_disabled":false,"rental_uris":{"android":"levelo://app?vid=24c9fd7a-dfb5-4755-9c33-7fb2bb66a39c","ios":"levelo://app?vid=24c9fd7a-dfb5-4755-9c33-7fb2bb66a39c"},"vehicle_type_id":"4","last_reported":1739592625,"current_range_meters":6400,"station_id":"","pricing_plan_id":"cebpf4jnsgd1na2vs0mg"},{"bike_id":"e9a30c3e-6fb2-4962-82c7-9a735901f852","system_id":"levelo_inurba_marseille","lat":43.33599,"lon":5.40963,"is_reserved":false,"is_disabled":false,"rental_uris":{"android":"levelo://app?vid=e9a30c3e-6fb2-4962-82c7-9a735901f852","ios":"levelo://app?vid=e9a30c3e-6fb2-4962-82c7-9a735901f852"},"vehicle_type_id":"4","last_reported":1739592625,"current_range_meters":28400,"station_id":"","pricing_plan_id":"cebpf4jnsgd1na2vs0mg"},{"bike_id":"f3577e40-d3b4-4c9c-af82-d1b37865ee10","system_id":"levelo_inurba_marseille","lat":43.25583,"lon":5.38239,"is_reserved":false,"is_disabled":false,"rental_uris":{"android":"levelo://app?vid=f3577e40-d3b4-4c9c-af82-d1b37865ee10","ios":"levelo://app?vid=f3577e40-d3b4-4c9c-af82-d1b37865ee10"},"vehicle_type_id":"4","last_reported":1739592625,"current_range_meters":4400,"station_id":"ce4bhih2rcd13ifvqfs0","pricing_plan_id":"cebpf4jnsgd1na2vs0mg"},{"bike_id":"874dd984-fd21-4c8c-8287-96918232b6c4","system_id":"levelo_inurba_marseille","lat":43.28001,"lon":5.39992,"is_reserved":false,"is_disabled":true,"rental_uris":{"android":"levelo://app?vid=874dd984-fd21-4c8c-8287-96918232b6c4","ios":"levelo://app?vid=874dd984-fd21-4c8c-8287-96918232b6c4"},"vehicle_type_id":"4","last_reported":1739592625,"current_range_meters":8800,"station_id":"ce4bho92rcd13ifvqh4g","pricing_plan_id":"cebpf4jnsgd1na2vs0mg"},{"bike_id":"ab99bedb-37ca-40c8-8b61-3ea4d56ed0c7","system_id":"levelo_inurba_marseille","lat":43.27198,"lon":5.4098,"is_reserved":false,"is_disabled":false,"rental_uris":{"android":"levelo://app?vid=ab99bedb-37ca-40c8-8b61-3ea4d56ed0c7","ios":"levelo://app?vid=ab99bedb-37ca-40c8-8b61-3ea4d56ed0c7"},"vehicle_type_id":"4","last_reported":1739592625,"current_range_meters":4400,"station_id":"ce4bhl12rcd13ifvqgf0","pricing_plan_id":"cebpf4jnsgd1na2vs0mg"},{"bike_id":"53b5f8d9-591b-4722-8b93-d03568f78034","system_id":"levelo_inurba_marseille","lat":43.28456,"lon":5.358958,"is_reserved":false,"is_disabled":false,"rental_uris":{"android":"levelo://app?vid=53b5f8d9-591b-4722-8b93-d03568f78034","ios":"levelo://app?vid=53b5f8d9-591b-4722-8b93-d03568f78034"},"vehicle_type_id":"4","last_reported":1739592625,"current_range_meters":27200,"station_id":"ce4bhah2rcd13ifvqei0","pricing_plan_id":"cebpf4jnsgd1na2vs0mg"},{"bike_id":"3bc8b4ea-eacc-4ce1-b721-3d0204c64466","system_id":"levelo_inurba_marseille","lat":43.25826,"lon":5.39423,"is_reserved":false,"is_disabled":false,"rental_uris":{"android":"levelo://app?vid=3bc8b4ea-eacc-4ce1-b721-3d0204c64466","ios":"levelo://app?vid=3bc8b4ea-eacc-4ce1-b721-3d0204c64466"},"vehicle_type_id":"4","last_reported":1739592625,"current_range_meters":10000,"station_id":"ce4bhip2rcd13ifvqft0","pricing_plan_id":"cebpf4jnsgd1na2vs0mg"},{"bike_id":"fd0c6fb2-1379-477b-b0d9-f8d1fe29bc46","system_id":"levelo_inurba_marseille","lat":43.29263,"lon":5.40142,"is_reserved":false,"is_disabled":false,"rental_uris":{"android":"levelo://app?vid=fd0c6fb2-1379-477b-b0d9-f8d1fe29bc46","ios":"levelo://app?vid=fd0c6fb2-1379-477b-b0d9-f8d1fe29bc46"},"vehicle_type_id":"4","last_reported":1739592625,"current_range_meters":9200,"station_id":"ce4bh312rcd13ifvqdk0","pricing_plan_id":"cebpf4jnsgd1na2vs0mg"},{"bike_id":"4fc2ab45-7da1-498c-ace8-56cf0c9de688","system_id":"levelo_inurba_marseille","lat":43.3088,"lon":5.39639,"is_reserved":false,"is_disabled":false,"rental_uris":{"android":"levelo://app?vid=4fc2ab45-7da1-498c-ace8-56cf0c9de688","ios":"levelo://app?vid=4fc2ab45-7da1-498c-ace8-56cf0c9de688"},"vehicle_type_id":"4","last_reported":1739592625,"current_range_meters":26000,"station_id":"ce4bh012rcd13ifvqcv0","pricing_plan_id":"cebpf4jnsgd1na2vs0mg"},{"bike_id":"d32944a9-7b6a-481b-b5ae-b9087c505051","system_id":"levelo_inurba_marseille","lat":43.28681,"lon":5.38007,"is_reserved":false,"is_disabled":false,"rental_uris":{"android":"levelo://app?vid=d32944a9-7b6a-481b-b5ae-b9087c505051","ios":"levelo://app?vid=d32944a9-7b6a-481b-b5ae-b9087c505051"},"vehicle_type_id":"4","last_reported":1739592625,"current_range_meters":24800,"station_id":"","pricing_plan_id":"cebpf4jnsgd1na2vs0mg"},{"bike_id":"46f5d451-43bc-4724-ba4c-4c1a9fede2df","system_id":"levelo_inurba_marseille","lat":43.28403,"lon":5.37521,"is_reserved":false,"is_disabled":false,"rental_uris":{"android":"levelo://app?vid=46f5d451-43bc-4724-ba4c-4c1a9fede2df","ios":"levelo://app?vid=46f5d451-43bc-4724-ba4c-4c1a9fede2df"},"vehicle_type_id":"4","last_reported":1739592625,"current_range_meters":23200,"station_id":"ce4bh412rcd13ifvqds0","pricing_plan_id":"cebpf4jnsgd1na2vs0mg"},{"bike_id":"d5d2510e-3831-4865-8727-31c62951dadf","system_id":"levelo_inurba_marseille","lat":43.27061,"lon":5.40255,"is_reserved":false,"is_disabled":false,"rental_uris":{"android":"levelo://app?vid=d5d2510e-3831-4865-8727-31c62951dadf","ios":"levelo://app?vid=d5d2510e-3831-4865-8727-31c62951dadf"},"vehicle_type_id":"4","last_reported":1739592625,"current_range_meters":8000,"station_id":"ce4bhk92rcd13ifvqgc0","pricing_plan_id":"cebpf4jnsgd1na2vs0mg"},{"bike_id":"e5e5a17e-27a5-454b-904b-e271a7fe6a76","system_id":"levelo_inurba_marseille","lat":43.28076,"lon":5.39661,"is_reserved":false,"is_disabled":false,"rental_uris":{"android":"levelo://app?vid=e5e5a17e-27a5-454b-904b-e271a7fe6a76","ios":"levelo://app?vid=e5e5a17e-27a5-454b-904b-e271a7fe6a76"},"vehicle_type_id":"4","last_reported":1739592625,"current_range_meters":38800,"station_id":"ce4bho12rcd13ifvqh2g","pricing_plan_id":"cebpf4jnsgd1na2vs0mg"},{"bike_id":"6a07fbc6-689d-439e-bb14-c5d23f433509","system_id":"levelo_inurba_marseille","lat":43.30253,"lon":5.40067,"is_reserved":false,"is_disabled":false,"rental_uris":{"android":"levelo://app?vid=6a07fbc6-689d-439e-bb14-c5d23f433509","ios":"levelo://app?vid=6a07fbc6-689d-439e-bb14-c5d23f433509"},"vehicle_type_id":"4","last_reported":1739592625,"current_range_meters":38800,"station_id":"ce4bgvh2rcd13ifvqcs0","pricing_plan_id":"cebpf4jnsgd1na2vs0mg"},{"bike_id":"ddf1d674-41d6-443f-b0f1-1da7df267862","system_id":"levelo_inurba_marseille","lat":43.230559,"lon":5.355051,"is_reserved":false,"is_disabled":false,"rental_uris":{"android":"levelo://app?vid=ddf1d674-41d6-443f-b0f1-1da7df267862","ios":"levelo://app?vid=ddf1d674-41d6-443f-b0f1-1da7df267862"},"vehicle_type_id":"4","last_reported":1739592625,"current_range_meters":22800,"station_id":"cpo3342slgdg3j2ifvpg","pricing_plan_id":"cebpf4jnsgd1na2vs0mg"},{"bike_id":"3fc5ce51-de89-4804-9247-23a5cf69d575","system_id":"levelo_inurba_marseille","lat":43.26688,"lon":5.38263,"is_reserved":false,"is_disabled":false,"rental_uris":{"android":"levelo://app?vid=3fc5ce51-de89-4804-9247-23a5cf69d575","ios":"levelo://app?vid=3fc5ce51-de89-4804-9247-23a5cf69d575"},"vehicle_type_id":"4","last_reported":1739592625,"current_range_meters":38000,"station_id":"ce4bhg92rcd13ifvqf90","pricing_plan_id":"cebpf4jnsgd1na2vs0mg"},{"bike_id":"b856d450-49ef-4cc9-87fb-363f3f34bd9f","system_id":"levelo_inurba_marseille","lat":43.309346,"lon":5.401422,"is_reserved":false,"is_disabled":false,"rental_uris":{"android":"levelo://app?vid=b856d450-49ef-4cc9-87fb-363f3f34bd9f","ios":"levelo://app?vid=b856d450-49ef-4cc9-87fb-363f3f34bd9f"},"vehicle_type_id":"4","last_reported":1739592625,"current_range_meters":10800,"station_id":"ce4bgvp2rcd13ifvqct0","pricing_plan_id":"cebpf4jnsgd1na2vs0mg"},{"bike_id":"46f7dd7f-3698-4a4b-84b6-cdfa84e75594","system_id":"levelo_inurba_marseille","lat":43.2396,"lon":5.36636,"is_reserved":false,"is_disabled":false,"rental_uris":{"android":"levelo://app?vid=46f7dd7f-3698-4a4b-84b6-cdfa84e75594","ios":"levelo://app?vid=46f7dd7f-3698-4a4b-84b6-cdfa84e75594"},"vehicle_type_id":"4","last_reported":1739592625,"current_range_meters":28000,"station_id":"ce4bhi12rcd13ifvqfp0","pricing_plan_id":"cebpf4jnsgd1na2vs0mg"},{"bike_id":"78be6242-0c31-4932-9bea-7d041837b9fe","system_id":"levelo_inurba_marseille","lat":43.31311,"lon":5.39718,"is_reserved":false,"is_disabled":false,"rental_uris":{"android":"levelo://app?vid=78be6242-0c31-4932-9bea-7d041837b9fe","ios":"levelo://app?vid=78be6242-0c31-4932-9bea-7d041837b9fe"},"vehicle_type_id":"4","last_reported":1739592625,"current_range_meters":38800,"station_id":"ce4bgvp2rcd13ifvqcu0","pricing_plan_id":"cebpf4jnsgd1na2vs0mg"},{"bike_id":"19733989-cc41-4255-a650-071ebfdc8d0a","system_id":"levelo_inurba_marseille","lat":43.306402,"lon":5.400863,"is_reserved":false,"is_disabled":false,"rental_uris":{"android":"levelo://app?vid=19733989-cc41-4255-a650-071ebfdc8d0a","ios":"levelo://app?vid=19733989-cc41-4255-a650-071ebfdc8d0a"},"vehicle_type_id":"4","last_reported":1739592625,"current_range_meters":30000,"station_id":"ce4bh112rcd13ifvqda0","pricing_plan_id":"cebpf4jnsgd1na2vs0mg"},{"bike_id":"c9645a26-5874-480f-a11e-46d2257542e0","system_id":"levelo_inurba_marseille","lat":43.27542,"lon":5.38653,"is_reserved":false,"is_disabled":false,"rental_uris":{"android":"levelo://app?vid=c9645a26-5874-480f-a11e-46d2257542e0","ios":"levelo://app?vid=c9645a26-5874-480f-a11e-46d2257542e0"},"vehicle_type_id":"4","last_reported":1739592625,"current_range_meters":30800,"station_id":"","pricing_plan_id":"cebpf4jnsgd1na2vs0mg"},{"bike_id":"4450d397-c7c4-4c68-aed9-fa811598c082","system_id":"levelo_inurba_marseille","lat":43.32542,"lon":5.36505,"is_reserved":false,"is_disabled":false,"rental_uris":{"android":"levelo://app?vid=4450d397-c7c4-4c68-aed9-fa811598c082","ios":"levelo://app?vid=4450d397-c7c4-4c68-aed9-fa811598c082"},"vehicle_type_id":"4","last_reported":1739592625,"current_range_meters":27200,"station_id":"","pricing_plan_id":"cebpf4jnsgd1na2vs0mg"},{"bike_id":"aa31df00-ff02-4d7d-b963-97d93bff2189","system_id":"levelo_inurba_marseille","lat":43.303135,"lon":5.404326,"is_reserved":false,"is_disabled":false,"rental_uris":{"android":"levelo://app?vid=aa31df00-ff02-4d7d-b963-97d93bff2189","ios":"levelo://app?vid=aa31df00-ff02-4d7d-b963-97d93bff2189"},"vehicle_type_id":"4","last_reported":1739592625,"current_range_meters":13600,"station_id":"ce4bh012rcd13ifvqd10","pricing_plan_id":"cebpf4jnsgd1na2vs0mg"},{"bike_id":"28a16aee-71d6-4cb1-b35a-d4320a6bf584","system_id":"levelo_inurba_marseille","lat":43.323646,"lon":5.388859,"is_reserved":false,"is_disabled":false,"rental_uris":{"android":"levelo://app?vid=28a16aee-71d6-4cb1-b35a-d4320a6bf584","ios":"levelo://app?vid=28a16aee-71d6-4cb1-b35a-d4320a6bf584"},"vehicle_type_id":"4","last_reported":1739592625,"current_range_meters":19200,"station_id":"ce4bhqp2rcd13ifvqhog","pricing_plan_id":"cebpf4jnsgd1na2vs0mg"},{"bike_id":"59cb679e-245c-46b7-bc74-dfa7c14bb16c","system_id":"levelo_inurba_marseille","lat":43.28987,"lon":5.35605,"is_reserved":false,"is_disabled":true,"rental_uris":{"android":"levelo://app?vid=59cb679e-245c-46b7-bc74-dfa7c14bb16c","ios":"levelo://app?vid=59cb679e-245c-46b7-bc74-dfa7c14bb16c"},"vehicle_type_id":"4","last_reported":1739592625,"current_range_meters":38800,"station_id":"ce4bhb92rcd13ifvqen0","pricing_plan_id":"cebpf4jnsgd1na2vs0mg"},{"bike_id":"b73222be-7791-4a3a-aae7-711d11e504fc","system_id":"levelo_inurba_marseille","lat":43.27994,"lon":5.40012,"is_reserved":false,"is_disabled":false,"rental_uris":{"android":"levelo://app?vid=b73222be-7791-4a3a-aae7-711d11e504fc","ios":"levelo://app?vid=b73222be-7791-4a3a-aae7-711d11e504fc"},"vehicle_type_id":"4","last_reported":1739592625,"current_range_meters":37600,"station_id":"ce4bho92rcd13ifvqh4g","pricing_plan_id":"cebpf4jnsgd1na2vs0mg"},{"bike_id":"a8bc8483-ceef-456e-92ec-efcc9ae8cb95","system_id":"levelo_inurba_marseille","lat":43.27628,"lon":5.3612,"is_reserved":false,"is_disabled":false,"rental_uris":{"android":"levelo://app?vid=a8bc8483-ceef-456e-92ec-efcc9ae8cb95","ios":"levelo://app?vid=a8bc8483-ceef-456e-92ec-efcc9ae8cb95"},"vehicle_type_id":"4","last_reported":1739592625,"current_range_meters":38000,"station_id":"ce4bgj92rcd13ifvqbe0","pricing_plan_id":"cebpf4jnsgd1na2vs0mg"},{"bike_id":"4aaa0363-f313-42f1-83f9-2f2886c48346","system_id":"levelo_inurba_marseille","lat":43.31391,"lon":5.38791,"is_reserved":false,"is_disabled":true,"rental_uris":{"android":"levelo://app?vid=4aaa0363-f313-42f1-83f9-2f2886c48346","ios":"levelo://app?vid=4aaa0363-f313-42f1-83f9-2f2886c48346"},"vehicle_type_id":"4","last_reported":1739592625,"current_range_meters":0,"station_id":"","pricing_plan_id":"cebpf4jnsgd1na2vs0mg"},{"bike_id":"06017cae-3c94-4744-9f6a-4ad249a95c61","system_id":"levelo_inurba_marseille","lat":43.27946,"lon":5.41039,"is_reserved":false,"is_disabled":false,"rental_uris":{"android":"levelo://app?vid=06017cae-3c94-4744-9f6a-4ad249a95c61","ios":"levelo://app?vid=06017cae-3c94-4744-9f6a-4ad249a95c61"},"vehicle_type_id":"4","last_reported":1739592625,"current_range_meters":37600,"station_id":"ce4bhnp2rcd13ifvqh0g","pricing_plan_id":"cebpf4jnsgd1na2vs0mg"},{"bike_id":"34c7500b-27c2-4f36-83ee-9d994a6b7ebd","system_id":"levelo_inurba_marseille","lat":43.284,"lon":5.37507,"is_reserved":false,"is_disabled":false,"rental_uris":{"android":"levelo://app?vid=34c7500b-27c2-4f36-83ee-9d994a6b7ebd","ios":"levelo://app?vid=34c7500b-27c2-4f36-83ee-9d994a6b7ebd"},"vehicle_type_id":"4","last_reported":1739592625,"current_range_meters":19600,"station_id":"ce4bh412rcd13ifvqds0","pricing_plan_id":"cebpf4jnsgd1na2vs0mg"},{"bike_id":"b7675672-ea91-4212-a3c2-1e75ea117425","system_id":"levelo_inurba_marseille","lat":43.281557,"lon":5.426398,"is_reserved":false,"is_disabled":true,"rental_uris":{"android":"levelo://app?vid=b7675672-ea91-4212-a3c2-1e75ea117425","ios":"levelo://app?vid=b7675672-ea91-4212-a3c2-1e75ea117425"},"vehicle_type_id":"4","last_reported":1739592625,"current_range_meters":0,"station_id":"ce4bhnh2rcd13ifvqgug","pricing_plan_id":"cebpf4jnsgd1na2vs0mg"},{"bike_id":"ca61d0e9-378d-4484-bcf6-2e1ab7b5d84f","system_id":"levelo_inurba_marseille","lat":43.29852,"lon":5.36281,"is_reserved":false,"is_disabled":false,"rental_uris":{"android":"levelo://app?vid=ca61d0e9-378d-4484-bcf6-2e1ab7b5d84f","ios":"levelo://app?vid=ca61d0e9-378d-4484-bcf6-2e1ab7b5d84f"},"vehicle_type_id":"4","last_reported":1739592625,"current_range_meters":39200,"station_id":"ce4bgpp2rcd13ifvqc3g","pricing_plan_id":"cebpf4jnsgd1na2vs0mg"},{"bike_id":"8cd34743-59ad-4597-983e-df465622bf8b","system_id":"levelo_inurba_marseille","lat":43.286796,"lon":5.38664,"is_reserved":false,"is_disabled":false,"rental_uris":{"android":"levelo://app?vid=8cd34743-59ad-4597-983e-df465622bf8b","ios":"levelo://app?vid=8cd34743-59ad-4597-983e-df465622bf8b"},"vehicle_type_id":"4","last_reported":1739592625,"current_range_meters":38800,"station_id":"ce4bh492rcd13ifvqdug","pricing_plan_id":"cebpf4jnsgd1na2vs0mg"},{"bike_id":"52b58588-83e3-4c16-a4ff-e7d12cbe3574","system_id":"levelo_inurba_marseille","lat":43.28731,"lon":5.37903,"is_reserved":false,"is_disabled":false,"rental_uris":{"android":"levelo://app?vid=52b58588-83e3-4c16-a4ff-e7d12cbe3574","ios":"levelo://app?vid=52b58588-83e3-4c16-a4ff-e7d12cbe3574"},"vehicle_type_id":"4","last_reported":1739592625,"current_range_meters":38000,"station_id":"ce4bh9p2rcd13ifvqec0","pricing_plan_id":"cebpf4jnsgd1na2vs0mg"},{"bike_id":"a66e07c4-bacf-49eb-9df1-f44729c0788f","system_id":"levelo_inurba_marseille","lat":43.29577,"lon":5.40001,"is_reserved":false,"is_disabled":false,"rental_uris":{"android":"levelo://app?vid=a66e07c4-bacf-49eb-9df1-f44729c0788f","ios":"levelo://app?vid=a66e07c4-bacf-49eb-9df1-f44729c0788f"},"vehicle_type_id":"4","last_reported":1739592625,"current_range_meters":38800,"station_id":"ce4bh312rcd13ifvqdj0","pricing_plan_id":"cebpf4jnsgd1na2vs0mg"},{"bike_id":"94d1cf71-63c3-4d38-9d17-985126d482ee","system_id":"levelo_inurba_marseille","lat":43.29532,"lon":5.394,"is_reserved":false,"is_disabled":false,"rental_uris":{"android":"levelo://app?vid=94d1cf71-63c3-4d38-9d17-985126d482ee","ios":"levelo://app?vid=94d1cf71-63c3-4d38-9d17-985126d482ee"},"vehicle_type_id":"4","last_reported":1739592625,"current_range_meters":36800,"station_id":"ce4bh292rcd13ifvqdf0","pricing_plan_id":"cebpf4jnsgd1na2vs0mg"},{"bike_id":"4df18ca1-d2d5-4e4f-84ca-1aa5f2e07468","system_id":"levelo_inurba_marseille","lat":43.28001,"lon":5.40008,"is_reserved":false,"is_disabled":false,"rental_uris":{"android":"levelo://app?vid=4df18ca1-d2d5-4e4f-84ca-1aa5f2e07468","ios":"levelo://app?vid=4df18ca1-d2d5-4e4f-84ca-1aa5f2e07468"},"vehicle_type_id":"4","last_reported":1739592625,"current_range_meters":8000,"station_id":"ce4bho92rcd13ifvqh4g","pricing_plan_id":"cebpf4jnsgd1na2vs0mg"},{"bike_id":"62862006-05b4-4c32-b74d-3d73ca0f3a49","system_id":"levelo_inurba_marseille","lat":43.29493,"lon":5.36395,"is_reserved":false,"is_disabled":true,"rental_uris":{"android":"levelo://app?vid=62862006-05b4-4c32-b74d-3d73ca0f3a49","ios":"levelo://app?vid=62862006-05b4-4c32-b74d-3d73ca0f3a49"},"vehicle_type_id":"4","last_reported":1739592625,"current_range_meters":24000,"station_id":"","pricing_plan_id":"cebpf4jnsgd1na2vs0mg"},{"bike_id":"92d1ee13-e974-447f-aca6-7b5bff8f8b19","system_id":"levelo_inurba_marseille","lat":43.28072,"lon":5.39654,"is_reserved":false,"is_disabled":false,"rental_uris":{"android":"levelo://app?vid=92d1ee13-e974-447f-aca6-7b5bff8f8b19","ios":"levelo://app?vid=92d1ee13-e974-447f-aca6-7b5bff8f8b19"},"vehicle_type_id":"4","last_reported":1739592625,"current_range_meters":38800,"station_id":"ce4bho12rcd13ifvqh2g","pricing_plan_id":"cebpf4jnsgd1na2vs0mg"},{"bike_id":"55c71887-75ae-440f-aed8-5a0380896118","system_id":"levelo_inurba_marseille","lat":43.298501,"lon":5.362921,"is_reserved":false,"is_disabled":true,"rental_uris":{"android":"levelo://app?vid=55c71887-75ae-440f-aed8-5a0380896118","ios":"levelo://app?vid=55c71887-75ae-440f-aed8-5a0380896118"},"vehicle_type_id":"4","last_reported":1739592625,"current_range_meters":34000,"station_id":"ce4bgpp2rcd13ifvqc3g","pricing_plan_id":"cebpf4jnsgd1na2vs0mg"},{"bike_id":"bd17c149-7a64-442c-bad3-25faab1e1d15","system_id":"levelo_inurba_marseille","lat":43.303011,"lon":5.392013,"is_reserved":false,"is_disabled":true,"rental_uris":{"android":"levelo://app?vid=bd17c149-7a64-442c-bad3-25faab1e1d15","ios":"levelo://app?vid=bd17c149-7a64-442c-bad3-25faab1e1d15"},"vehicle_type_id":"4","last_reported":1739592625,"current_range_meters":36800,"station_id":"ce4bgkh2rcd13ifvqbk0","pricing_plan_id":"cebpf4jnsgd1na2vs0mg"},{"bike_id":"1210d2f2-1555-4580-a1e7-40adc34d7604","system_id":"levelo_inurba_marseille","lat":43.240714,"lon":5.377627,"is_reserved":false,"is_disabled":false,"rental_uris":{"android":"levelo://app?vid=1210d2f2-1555-4580-a1e7-40adc34d7604","ios":"levelo://app?vid=1210d2f2-1555-4580-a1e7-40adc34d7604"},"vehicle_type_id":"4","last_reported":1739592625,"current_range_meters":26000,"station_id":"ce4bhnp2rcd13ifvqgvg","pricing_plan_id":"cebpf4jnsgd1na2vs0mg"},{"bike_id":"5f431628-1b2d-4a9e-9493-29ef6605563f","system_id":"levelo_inurba_marseille","lat":43.29523,"lon":5.39034,"is_reserved":false,"is_disabled":true,"rental_uris":{"android":"levelo://app?vid=5f431628-1b2d-4a9e-9493-29ef6605563f","ios":"levelo://app?vid=5f431628-1b2d-4a9e-9493-29ef6605563f"},"vehicle_type_id":"4","last_reported":1739592625,"current_range_meters":38800,"station_id":"ce4bh3p2rcd13ifvqdp0","pricing_plan_id":"cebpf4jnsgd1na2vs0mg"},{"bike_id":"3760be46-9947-4266-a54f-ee253cc823c2","system_id":"levelo_inurba_marseille","lat":43.28697,"lon":5.37388,"is_reserved":false,"is_disabled":false,"rental_uris":{"android":"levelo://app?vid=3760be46-9947-4266-a54f-ee253cc823c2","ios":"levelo://app?vid=3760be46-9947-4266-a54f-ee253cc823c2"},"vehicle_type_id":"4","last_reported":1739592625,"current_range_meters":38800,"station_id":"ce4bh3p2rcd13ifvqdq0","pricing_plan_id":"cebpf4jnsgd1na2vs0mg"},{"bike_id":"dbfb7df1-d758-448c-9075-e7feb5f00d8e","system_id":"levelo_inurba_marseille","lat":43.240748,"lon":5.377534,"is_reserved":false,"is_disabled":false,"rental_uris":{"android":"levelo://app?vid=dbfb7df1-d758-448c-9075-e7feb5f00d8e","ios":"levelo://app?vid=dbfb7df1-d758-448c-9075-e7feb5f00d8e"},"vehicle_type_id":"4","last_reported":1739592625,"current_range_meters":19200,"station_id":"ce4bhnp2rcd13ifvqgvg","pricing_plan_id":"cebpf4jnsgd1na2vs0mg"},{"bike_id":"8267c286-9820-411a-a3b7-cb6a54ba45b4","system_id":"levelo_inurba_marseille","lat":43.289417,"lon":5.363881,"is_reserved":false,"is_disabled":false,"rental_uris":{"android":"levelo://app?vid=8267c286-9820-411a-a3b7-cb6a54ba45b4","ios":"levelo://app?vid=8267c286-9820-411a-a3b7-cb6a54ba45b4"},"vehicle_type_id":"4","last_reported":1739592625,"current_range_meters":38800,"station_id":"ce4bhc92rcd13ifvqetg","pricing_plan_id":"cebpf4jnsgd1na2vs0mg"},{"bike_id":"e031351b-efdb-4640-8255-b69e1640bbff","system_id":"levelo_inurba_marseille","lat":43.2416,"lon":5.36403,"is_reserved":false,"is_disabled":false,"rental_uris":{"android":"levelo://app?vid=e031351b-efdb-4640-8255-b69e1640bbff","ios":"levelo://app?vid=e031351b-efdb-4640-8255-b69e1640bbff"},"vehicle_type_id":"4","last_reported":1739592625,"current_range_meters":31200,"station_id":"cpo36qri1sfpv3e86is0","pricing_plan_id":"cebpf4jnsgd1na2vs0mg"},{"bike_id":"16c6e3a7-0ba7-48ae-b447-af0fa7ed752d","system_id":"levelo_inurba_marseille","lat":43.30788,"lon":5.38148,"is_reserved":false,"is_disabled":false,"rental_uris":{"android":"levelo://app?vid=16c6e3a7-0ba7-48ae-b447-af0fa7ed752d","ios":"levelo://app?vid=16c6e3a7-0ba7-48ae-b447-af0fa7ed752d"},"vehicle_type_id":"4","last_reported":1739592625,"current_range_meters":38800,"station_id":"ce4bgt12rcd13ifvqce0","pricing_plan_id":"cebpf4jnsgd1na2vs0mg"},{"bike_id":"435c4be5-0960-45fb-a94f-882917046b98","system_id":"levelo_inurba_marseille","lat":43.28078,"lon":5.39662,"is_reserved":false,"is_disabled":false,"rental_uris":{"android":"levelo://app?vid=435c4be5-0960-45fb-a94f-882917046b98","ios":"levelo://app?vid=435c4be5-0960-45fb-a94f-882917046b98"},"vehicle_type_id":"4","last_reported":1739592625,"current_range_meters":10800,"station_id":"ce4bho12rcd13ifvqh2g","pricing_plan_id":"cebpf4jnsgd1na2vs0mg"},{"bike_id":"b9f015dd-964f-42e6-b816-592b49d93bf3","system_id":"levelo_inurba_marseille","lat":43.24555,"lon":5.39531,"is_reserved":false,"is_disabled":false,"rental_uris":{"android":"levelo://app?vid=b9f015dd-964f-42e6-b816-592b49d93bf3","ios":"levelo://app?vid=b9f015dd-964f-42e6-b816-592b49d93bf3"},