{"last_updated":1719061791,"ttl":30,"version":"2.2","data":{"bikes":[{"bike_id":"75159ad7-7b1c-4cdd-8312-8b9d6cdc8de4","system_id":"levelo_inurba_marseille","lat":43.313391,"lon":5.36706,"is_reserved":false,"is_disabled":false,"rental_uris":{"android":"levelo://app?vid=75159ad7-7b1c-4cdd-8312-8b9d6cdc8de4","ios":"levelo://app?vid=75159ad7-7b1c-4cdd-8312-8b9d6cdc8de4"},"vehicle_type_id":"4","last_reported":1719061791,"current_range_meters":15600,"station_id":"ce4bgr92rcd13ifvqc6g","pricing_plan_id":"cebpf4jnsgd1na2vs0mg"},{"bike_id":"dd98eac2-8104-4081-a8ee-18a6457c82b5","system_id":"levelo_inurba_marseille","lat":43.31341,"lon":5.367098,"is_reserved":false,"is_disabled":false,"rental_uris":{"android":"levelo://app?vid=dd98eac2-8104-4081-a8ee-18a6457c82b5","ios":"levelo://app?vid=dd98eac2-8104-4081-a8ee-18a6457c82b5"},"vehicle_type_id":"4","last_reported":1719061791,"current_range_meters":31200,"station_id":"ce4bgr92rcd13ifvqc6g","pricing_plan_id":"cebpf4jnsgd1na2vs0mg"},{"bike_id":"267829fc-a2a2-4792-8e2f-3121183321f3","system_id":"levelo_inurba_marseille","lat":43.309076,"lon":5.368465,"is_reserved":false,"is_disabled":false,"rental_uris":{"android":"levelo://app?vid=267829fc-a2a2-4792-8e2f-3121183321f3","ios":"levelo://app?vid=267829fc-a2a2-4792-8e2f-3121183321f3"},"vehicle_type_id":"4","last_reported":1719061791,"current_range_meters":26400,"station_id":"ce4bgn92rcd13ifvqbvg","pricing_plan_id":"cebpf4jnsgd1na2vs0mg"},{"bike_id":"e9037409-6559-4849-9834-58b6e36ee517","system_id":"levelo_inurba_marseille","lat":43.309076,"lon":5.368465,"is_reserved":false,"is_disabled":false,"rental_uris":{"android":"levelo://app?vid=e9037409-6559-4849-9834-58b6e36ee517","ios":"levelo://app?vid=e9037409-6559-4849-9834-58b6e36ee517"},"vehicle_type_id":"4","last_reported":1719061791,"current_range_meters":23200,"station_id":"ce4bgn92rcd13ifvqbvg","pricing_plan_id":"cebpf4jnsgd1na2vs0mg"},{"bike_id":"24d509b5-ef37-465b-b8cc-6a71986a5c4f","system_id":"levelo_inurba_marseille","lat":43.30875,"lon":5.36807,"is_reserved":false,"is_disabled":false,"rental_uris":{"android":"levelo://app?vid=24d509b5-ef37-465b-b8cc-6a71986a5c4f","ios":"levelo://app?vid=24d509b5-ef37-465b-b8cc-6a71986a5c4f"},"vehicle_type_id":"4","last_reported":1719061791,"current_range_meters":21200,"station_id":"ce4bgn92rcd13ifvqbvg","pricing_plan_id":"cebpf4jnsgd1na2vs0mg"},{"bike_id":"4009bc8a-c463-45ab-841c-f34656cd15c1","system_id":"levelo_inurba_marseille","lat":43.314811,"lon":5.373103,"is_reserved":false,"is_disabled":false,"rental_uris":{"android":"levelo://app?vid=4009bc8a-c463-45ab-841c-f34656cd15c1","ios":"levelo://app?vid=4009bc8a-c463-45ab-841c-f34656cd15c1"},"vehicle_type_id":"4","last_reported":1719061791,"current_range_meters":12800,"station_id":"ce4bgt12rcd13ifvqcd0","pricing_plan_id":"cebpf4jnsgd1na2vs0mg"},{"bike_id":"e8c033d2-3ad8-415b-8194-090993168558","system_id":"levelo_inurba_marseille","lat":43.314811,"lon":5.373103,"is_reserved":false,"is_disabled":false,"rental_uris":{"android":"levelo://app?vid=e8c033d2-3ad8-415b-8194-090993168558","ios":"levelo://app?vid=e8c033d2-3ad8-415b-8194-090993168558"},"vehicle_type_id":"4","last_reported":1719061791,"current_range_meters":31200,"station_id":"ce4bgt12rcd13ifvqcd0","pricing_plan_id":"cebpf4jnsgd1na2vs0mg"},{"bike_id":"20f31c62-307b-4c16-93b6-6fcc5accd677","system_id":"levelo_inurba_marseille","lat":43.31458,"lon":5.373641,"is_reserved":false,"is_disabled":false,"rental_uris":{"android":"levelo://app?vid=20f31c62-307b-4c16-93b6-6fcc5accd677","ios":"levelo://app?vid=20f31c62-307b-4c16-93b6-6fcc5accd677"},"vehicle_type_id":"4","last_reported":1719061791,"current_range_meters":16000,"station_id":"","pricing_plan_id":"cebpf4jnsgd1na2vs0mg"},{"bike_id":"38344acd-fd83-474a-8b63-caaa599cea8f","system_id":"levelo_inurba_marseille","lat":43.309034,"lon":5.371783,"is_reserved":false,"is_disabled":false,"rental_uris":{"android":"levelo://app?vid=38344acd-fd83-474a-8b63-caaa599cea8f","ios":"levelo://app?vid=38344acd-fd83-474a-8b63-caaa599cea8f"},"vehicle_type_id":"4","last_reported":1719061791,"current_range_meters":22800,"station_id":"ce4bguh2rcd13ifvqckg","pricing_plan_id":"cebpf4jnsgd1na2vs0mg"},{"bike_id":"8cc75193-e8d0-4ec9-b80e-ec8bd83ebb27","system_id":"levelo_inurba_marseille","lat":43.309034,"lon":5.371783,"is_reserved":false,"is_disabled":false,"rental_uris":{"android":"levelo://app?vid=8cc75193-e8d0-4ec9-b80e-ec8bd83ebb27","ios":"levelo://app?vid=8cc75193-e8d0-4ec9-b80e-ec8bd83ebb27"},"vehicle_type_id":"4","last_reported":1719061791,"current_range_meters":17200,"station_id":"ce4bguh2rcd13ifvqckg","pricing_plan_id":"cebpf4jnsgd1na2vs0mg"},{"bike_id":"5ab8f24b-8bf8-4c2c-a72e-1e8f8650b315","system_id":"levelo_inurba_marseille","lat":43.30549,"lon":5.3656,"is_reserved":false,"is_disabled":false,"rental_uris":{"android":"levelo://app?vid=5ab8f24b-8bf8-4c2c-a72e-1e8f8650b315","ios":"levelo://app?vid=5ab8f24b-8bf8-4c2c-a72e-1e8f8650b315"},"vehicle_type_id":"4","last_reported":1719061791,"current_range_meters":16800,"station_id":"ce4bgs12rcd13ifvqcag","pricing_plan_id":"cebpf4jnsgd1na2vs0mg"},{"bike_id":"00c4c3cc-79d1-412c-8344-a27f2a0017fc","system_id":"levelo_inurba_marseille","lat":43.3054,"lon":5.36712,"is_reserved":false,"is_disabled":false,"rental_uris":{"android":"levelo://app?vid=00c4c3cc-79d1-412c-8344-a27f2a0017fc","ios":"levelo://app?vid=00c4c3cc-79d1-412c-8344-a27f2a0017fc"},"vehicle_type_id":"4","last_reported":1719061791,"current_range_meters":15600,"station_id":"ce4bgrp2rcd13ifvqc9g","pricing_plan_id":"cebpf4jnsgd1na2vs0mg"},{"bike_id":"88556b12-b726-418f-87c1-249b27a5de0f","system_id":"levelo_inurba_marseille","lat":43.305712,"lon":5.365641,"is_reserved":false,"is_disabled":false,"rental_uris":{"android":"levelo://app?vid=88556b12-b726-418f-87c1-249b27a5de0f","ios":"levelo://app?vid=88556b12-b726-418f-87c1-249b27a5de0f"},"vehicle_type_id":"4","last_reported":1719061791,"current_range_meters":7200,"station_id":"ce4bgs12rcd13ifvqcag","pricing_plan_id":"cebpf4jnsgd1na2vs0mg"},{"bike_id":"a43e7e1e-e283-47ba-bb74-77104a25b45c","system_id":"levelo_inurba_marseille","lat":43.30532,"lon":5.36661,"is_reserved":false,"is_disabled":false,"rental_uris":{"android":"levelo://app?vid=a43e7e1e-e283-47ba-bb74-77104a25b45c","ios":"levelo://app?vid=a43e7e1e-e283-47ba-bb74-77104a25b45c"},"vehicle_type_id":"4","last_reported":1719061791,"current_range_meters":22000,"station_id":"","pricing_plan_id":"cebpf4jnsgd1na2vs0mg"},{"bike_id":"3fc7690e-2661-4c99-ace7-7789fc78bfe9","system_id":"levelo_inurba_marseille","lat":43.305706,"lon":5.365654,"is_reserved":false,"is_disabled":false,"rental_uris":{"android":"levelo://app?vid=3fc7690e-2661-4c99-ace7-7789fc78bfe9","ios":"levelo://app?vid=3fc7690e-2661-4c99-ace7-7789fc78bfe9"},"vehicle_type_id":"4","last_reported":1719061791,"current_range_meters":13200,"station_id":"ce4bgs12rcd13ifvqcag","pricing_plan_id":"cebpf4jnsgd1na2vs0mg"},{"bike_id":"5b8007bb-0dd8-4352-b213-d088b8c4b4e0","system_id":"levelo_inurba_marseille","lat":43.315337,"lon":5.380403,"is_reserved":false,"is_disabled":false,"rental_uris":{"android":"levelo://app?vid=5b8007bb-0dd8-4352-b213-d088b8c4b4e0","ios":"levelo://app?vid=5b8007bb-0dd8-4352-b213-d088b8c4b4e0"},"vehicle_type_id":"4","last_reported":1719061791,"current_range_meters":9200,"station_id":"ce4bhsp2rcd13ifvqi50","pricing_plan_id":"cebpf4jnsgd1na2vs0mg"},{"bike_id":"1aa9382d-bd55-4aff-8971-b23615fccdae","system_id":"levelo_inurba_marseille","lat":43.311,"lon":5.38145,"is_reserved":false,"is_disabled":false,"rental_uris":{"android":"levelo://app?vid=1aa9382d-bd55-4aff-8971-b23615fccdae","ios":"levelo://app?vid=1aa9382d-bd55-4aff-8971-b23615fccdae"},"vehicle_type_id":"4","last_reported":1719061791,"current_range_meters":5600,"station_id":"","pricing_plan_id":"cebpf4jnsgd1na2vs0mg"},{"bike_id":"c8d74784-cfa3-4dc0-a55e-c53d6b6b7590","system_id":"levelo_inurba_marseille","lat":43.31328,"lon":5.38205,"is_reserved":false,"is_disabled":false,"rental_uris":{"android":"levelo://app?vid=c8d74784-cfa3-4dc0-a55e-c53d6b6b7590","ios":"levelo://app?vid=c8d74784-cfa3-4dc0-a55e-c53d6b6b7590"},"vehicle_type_id":"4","last_reported":1719061791,"current_range_meters":17200,"station_id":"","pricing_plan_id":"cebpf4jnsgd1na2vs0mg"},{"bike_id":"4db33a2f-f934-43f9-b068-cf59d45d93b3","system_id":"levelo_inurba_marseille","lat":43.308012,"lon":5.381511,"is_reserved":false,"is_disabled":false,"rental_uris":{"android":"levelo://app?vid=4db33a2f-f934-43f9-b068-cf59d45d93b3","ios":"levelo://app?vid=4db33a2f-f934-43f9-b068-cf59d45d93b3"},"vehicle_type_id":"4","last_reported":1719061791,"current_range_meters":14400,"station_id":"ce4bgt12rcd13ifvqce0","pricing_plan_id":"cebpf4jnsgd1na2vs0mg"},{"bike_id":"ed14ec74-1f1c-4cfd-8d26-59aa92fdca8a","system_id":"levelo_inurba_marseille","lat":43.301004,"lon":5.367342,"is_reserved":false,"is_disabled":false,"rental_uris":{"android":"levelo://app?vid=ed14ec74-1f1c-4cfd-8d26-59aa92fdca8a","ios":"levelo://app?vid=ed14ec74-1f1c-4cfd-8d26-59aa92fdca8a"},"vehicle_type_id":"4","last_reported":1719061791,"current_range_meters":26000,"station_id":"","pricing_plan_id":"cebpf4jnsgd1na2vs0mg"},{"bike_id":"f55df820-1d0f-4897-9dbb-1c98b8ff7df6","system_id":"levelo_inurba_marseille","lat":43.30468,"lon":5.37891,"is_reserved":false,"is_disabled":false,"rental_uris":{"android":"levelo://app?vid=f55df820-1d0f-4897-9dbb-1c98b8ff7df6","ios":"levelo://app?vid=f55df820-1d0f-4897-9dbb-1c98b8ff7df6"},"vehicle_type_id":"4","last_reported":1719061791,"current_range_meters":23600,"station_id":"ce4bgup2rcd13ifvqcn0","pricing_plan_id":"cebpf4jnsgd1na2vs0mg"},{"bike_id":"f0321397-5367-43b7-8b45-4c23913ae591","system_id":"levelo_inurba_marseille","lat":43.304606,"lon":5.379026,"is_reserved":false,"is_disabled":false,"rental_uris":{"android":"levelo://app?vid=f0321397-5367-43b7-8b45-4c23913ae591","ios":"levelo://app?vid=f0321397-5367-43b7-8b45-4c23913ae591"},"vehicle_type_id":"4","last_reported":1719061791,"current_range_meters":20800,"station_id":"ce4bgup2rcd13ifvqcn0","pricing_plan_id":"cebpf4jnsgd1na2vs0mg"},{"bike_id":"c9926bb2-78fe-467e-a77d-5ab0bc34b1e9","system_id":"levelo_inurba_marseille","lat":43.304606,"lon":5.379026,"is_reserved":false,"is_disabled":false,"rental_uris":{"android":"levelo://app?vid=c9926bb2-78fe-467e-a77d-5ab0bc34b1e9","ios":"levelo://app?vid=c9926bb2-78fe-467e-a77d-5ab0bc34b1e9"},"vehicle_type_id":"4","last_reported":1719061791,"current_range_meters":12400,"station_id":"ce4bgup2rcd13ifvqcn0","pricing_plan_id":"cebpf4jnsgd1na2vs0mg"},{"bike_id":"4bd63e8a-ff31-4d01-83a0-a6d361650d0a","system_id":"levelo_inurba_marseille","lat":43.310804,"lon":5.38359,"is_reserved":false,"is_disabled":false,"rental_uris":{"android":"levelo://app?vid=4bd63e8a-ff31-4d01-83a0-a6d361650d0a","ios":"levelo://app?vid=4bd63e8a-ff31-4d01-83a0-a6d361650d0a"},"vehicle_type_id":"4","last_reported":1719061791,"current_range_meters":6000,"station_id":"ce4bgv92rcd13ifvqcr0","pricing_plan_id":"cebpf4jnsgd1na2vs0mg"},{"bike_id":"3b1ef292-3ab4-4024-ac4d-0b89e4a30b43","system_id":"levelo_inurba_marseille","lat":43.30143,"lon":5.37413,"is_reserved":false,"is_disabled":false,"rental_uris":{"android":"levelo://app?vid=3b1ef292-3ab4-4024-ac4d-0b89e4a30b43","ios":"levelo://app?vid=3b1ef292-3ab4-4024-ac4d-0b89e4a30b43"},"vehicle_type_id":"4","last_reported":1719061791,"current_range_meters":19200,"station_id":"ce4bgs92rcd13ifvqcc0","pricing_plan_id":"cebpf4jnsgd1na2vs0mg"},{"bike_id":"09b5a9e1-5bc4-43cd-a471-f9fb40b01527","system_id":"levelo_inurba_marseille","lat":43.30143,"lon":5.37413,"is_reserved":false,"is_disabled":false,"rental_uris":{"android":"levelo://app?vid=09b5a9e1-5bc4-43cd-a471-f9fb40b01527","ios":"levelo://app?vid=09b5a9e1-5bc4-43cd-a471-f9fb40b01527"},"vehicle_type_id":"4","last_reported":1719061791,"current_range_meters":26400,"station_id":"ce4bgs92rcd13ifvqcc0","pricing_plan_id":"cebpf4jnsgd1na2vs0mg"},{"bike_id":"290ebb12-4fa5-493e-befd-fed435c9f2c1","system_id":"levelo_inurba_marseille","lat":43.31996,"lon":5.38154,"is_reserved":false,"is_disabled":false,"rental_uris":{"android":"levelo://app?vid=290ebb12-4fa5-493e-befd-fed435c9f2c1","ios":"levelo://app?vid=290ebb12-4fa5-493e-befd-fed435c9f2c1"},"vehicle_type_id":"4","last_reported":1719061791,"current_range_meters":0,"station_id":"ce4bhr12rcd13ifvqhpg","pricing_plan_id":"cebpf4jnsgd1na2vs0mg"},{"bike_id":"de4ef33a-c563-4c1f-ab2f-f7b312cfd440","system_id":"levelo_inurba_marseille","lat":43.319935,"lon":5.381699,"is_reserved":false,"is_disabled":false,"rental_uris":{"android":"levelo://app?vid=de4ef33a-c563-4c1f-ab2f-f7b312cfd440","ios":"levelo://app?vid=de4ef33a-c563-4c1f-ab2f-f7b312cfd440"},"vehicle_type_id":"4","last_reported":1719061791,"current_range_meters":4800,"station_id":"ce4bhr12rcd13ifvqhpg","pricing_plan_id":"cebpf4jnsgd1na2vs0mg"},{"bike_id":"a11ae732-eee5-4190-a232-09ba20d357c7","system_id":"levelo_inurba_marseille","lat":43.299222,"lon":5.365554,"is_reserved":false,"is_disabled":false,"rental_uris":{"android":"levelo://app?vid=a11ae732-eee5-4190-a232-09ba20d357c7","ios":"levelo://app?vid=a11ae732-eee5-4190-a232-09ba20d357c7"},"vehicle_type_id":"4","last_reported":1719061791,"current_range_meters":27600,"station_id":"ce4bgm92rcd13ifvqbr0","pricing_plan_id":"cebpf4jnsgd1na2vs0mg"},{"bike_id":"7206071d-ec0e-4e11-9543-c66272df0737","system_id":"levelo_inurba_marseille","lat":43.299222,"lon":5.365554,"is_reserved":false,"is_disabled":false,"rental_uris":{"android":"levelo://app?vid=7206071d-ec0e-4e11-9543-c66272df0737","ios":"levelo://app?vid=7206071d-ec0e-4e11-9543-c66272df0737"},"vehicle_type_id":"4","last_reported":1719061791,"current_range_meters":22400,"station_id":"ce4bgm92rcd13ifvqbr0","pricing_plan_id":"cebpf4jnsgd1na2vs0mg"},{"bike_id":"6bd1a044-52ca-4bb4-a5e4-a0a6306462e1","system_id":"levelo_inurba_marseille","lat":43.30038,"lon":5.37395,"is_reserved":false,"is_disabled":false,"rental_uris":{"android":"levelo://app?vid=6bd1a044-52ca-4bb4-a5e4-a0a6306462e1","ios":"levelo://app?vid=6bd1a044-52ca-4bb4-a5e4-a0a6306462e1"},"vehicle_type_id":"4","last_reported":1719061791,"current_range_meters":28000,"station_id":"ce4bgr92rcd13ifvqc7g","pricing_plan_id":"cebpf4jnsgd1na2vs0mg"},{"bike_id":"343a3aa2-aec8-471b-b6dc-247c0e3c4cb0","system_id":"levelo_inurba_marseille","lat":43.299243,"lon":5.374807,"is_reserved":false,"is_disabled":false,"rental_uris":{"android":"levelo://app?vid=343a3aa2-aec8-471b-b6dc-247c0e3c4cb0","ios":"levelo://app?vid=343a3aa2-aec8-471b-b6dc-247c0e3c4cb0"},"vehicle_type_id":"4","last_reported":1719061791,"current_range_meters":0,"station_id":"ce4bgjh2rcd13ifvqbg0","pricing_plan_id":"cebpf4jnsgd1na2vs0mg"},{"bike_id":"e2ee9056-0434-494c-90b6-21efd8e3b784","system_id":"levelo_inurba_marseille","lat":43.298433,"lon":5.362774,"is_reserved":false,"is_disabled":false,"rental_uris":{"android":"levelo://app?vid=e2ee9056-0434-494c-90b6-21efd8e3b784","ios":"levelo://app?vid=e2ee9056-0434-494c-90b6-21efd8e3b784"},"vehicle_type_id":"4","last_reported":1719061791,"current_range_meters":26400,"station_id":"ce4bgpp2rcd13ifvqc3g","pricing_plan_id":"cebpf4jnsgd1na2vs0mg"},{"bike_id":"34dd00bd-d5c5-4ecc-a578-40af81c31e3b","system_id":"levelo_inurba_marseille","lat":43.298433,"lon":5.362774,"is_reserved":false,"is_disabled":false,"rental_uris":{"android":"levelo://app?vid=34dd00bd-d5c5-4ecc-a578-40af81c31e3b","ios":"levelo://app?vid=34dd00bd-d5c5-4ecc-a578-40af81c31e3b"},"vehicle_type_id":"4","last_reported":1719061791,"current_range_meters":17200,"station_id":"ce4bgpp2rcd13ifvqc3g","pricing_plan_id":"cebpf4jnsgd1na2vs0mg"},{"bike_id":"6dec5122-5ef7-4da0-abc9-6f7b86c4c86a","system_id":"levelo_inurba_marseille","lat":43.299243,"lon":5.37481,"is_reserved":false,"is_disabled":false,"rental_uris":{"android":"levelo://app?vid=6dec5122-5ef7-4da0-abc9-6f7b86c4c86a","ios":"levelo://app?vid=6dec5122-5ef7-4da0-abc9-6f7b86c4c86a"},"vehicle_type_id":"4","last_reported":1719061791,"current_range_meters":0,"station_id":"ce4bgjh2rcd13ifvqbg0","pricing_plan_id":"cebpf4jnsgd1na2vs0mg"},{"bike_id":"782e8123-d5bc-42d4-9fdb-3fca13b2cfc6","system_id":"levelo_inurba_marseille","lat":43.311722,"lon":5.387247,"is_reserved":false,"is_disabled":false,"rental_uris":{"android":"levelo://app?vid=782e8123-d5bc-42d4-9fdb-3fca13b2cfc6","ios":"levelo://app?vid=782e8123-d5bc-42d4-9fdb-3fca13b2cfc6"},"vehicle_type_id":"4","last_reported":1719061791,"current_range_meters":4000,"station_id":"ce4bgv12rcd13ifvqcp0","pricing_plan_id":"cebpf4jnsgd1na2vs0mg"},{"bike_id":"9da2e0a9-fef6-47dd-8f1b-3723a0a180bb","system_id":"levelo_inurba_marseille","lat":43.311722,"lon":5.387247,"is_reserved":false,"is_disabled":false,"rental_uris":{"android":"levelo://app?vid=9da2e0a9-fef6-47dd-8f1b-3723a0a180bb","ios":"levelo://app?vid=9da2e0a9-fef6-47dd-8f1b-3723a0a180bb"},"vehicle_type_id":"4","last_reported":1719061791,"current_range_meters":26400,"station_id":"ce4bgv12rcd13ifvqcp0","pricing_plan_id":"cebpf4jnsgd1na2vs0mg"},{"bike_id":"045d12a1-aa85-4d81-b2aa-b1cf2278cb46","system_id":"levelo_inurba_marseille","lat":43.322872,"lon":5.382756,"is_reserved":false,"is_disabled":false,"rental_uris":{"android":"levelo://app?vid=045d12a1-aa85-4d81-b2aa-b1cf2278cb46","ios":"levelo://app?vid=045d12a1-aa85-4d81-b2aa-b1cf2278cb46"},"vehicle_type_id":"4","last_reported":1719061791,"current_range_meters":7200,"station_id":"ce4bhr12rcd13ifvqhqg","pricing_plan_id":"cebpf4jnsgd1na2vs0mg"},{"bike_id":"168b50c0-2abf-4082-a506-e387b3e830dd","system_id":"levelo_inurba_marseille","lat":43.322872,"lon":5.382756,"is_reserved":false,"is_disabled":false,"rental_uris":{"android":"levelo://app?vid=168b50c0-2abf-4082-a506-e387b3e830dd","ios":"levelo://app?vid=168b50c0-2abf-4082-a506-e387b3e830dd"},"vehicle_type_id":"4","last_reported":1719061791,"current_range_meters":28000,"station_id":"ce4bhr12rcd13ifvqhqg","pricing_plan_id":"cebpf4jnsgd1na2vs0mg"},{"bike_id":"2cac1d62-373b-4ced-a3d4-56b588f78802","system_id":"levelo_inurba_marseille","lat":43.297163,"lon":5.365866,"is_reserved":false,"is_disabled":false,"rental_uris":{"android":"levelo://app?vid=2cac1d62-373b-4ced-a3d4-56b588f78802","ios":"levelo://app?vid=2cac1d62-373b-4ced-a3d4-56b588f78802"},"vehicle_type_id":"4","last_reported":1719061791,"current_range_meters":18800,"station_id":"ce4bgn12rcd13ifvqbt0","pricing_plan_id":"cebpf4jnsgd1na2vs0mg"},{"bike_id":"78bcfac0-9b6b-44c6-b975-6ef050e5e5e9","system_id":"levelo_inurba_marseille","lat":43.31078,"lon":5.38901,"is_reserved":false,"is_disabled":false,"rental_uris":{"android":"levelo://app?vid=78bcfac0-9b6b-44c6-b975-6ef050e5e5e9","ios":"levelo://app?vid=78bcfac0-9b6b-44c6-b975-6ef050e5e5e9"},"vehicle_type_id":"4","last_reported":1719061791,"current_range_meters":0,"station_id":"","pricing_plan_id":"cebpf4jnsgd1na2vs0mg"},{"bike_id":"8405f5fe-6e6e-4e28-b3d6-fd37cf751384","system_id":"levelo_inurba_marseille","lat":43.296131,"lon":5.370791,"is_reserved":false,"is_disabled":false,"rental_uris":{"android":"levelo://app?vid=8405f5fe-6e6e-4e28-b3d6-fd37cf751384","ios":"levelo://app?vid=8405f5fe-6e6e-4e28-b3d6-fd37cf751384"},"vehicle_type_id":"4","last_reported":1719061791,"current_range_meters":6800,"station_id":"ce4bgnh2rcd13ifvqc0g","pricing_plan_id":"cebpf4jnsgd1na2vs0mg"},{"bike_id":"69373cd3-fe31-4a24-adb1-25da81da5e3a","system_id":"levelo_inurba_marseille","lat":43.29623,"lon":5.37148,"is_reserved":false,"is_disabled":false,"rental_uris":{"android":"levelo://app?vid=69373cd3-fe31-4a24-adb1-25da81da5e3a","ios":"levelo://app?vid=69373cd3-fe31-4a24-adb1-25da81da5e3a"},"vehicle_type_id":"4","last_reported":1719061791,"current_range_meters":16000,"station_id":"ce4bgnh2rcd13ifvqc0g","pricing_plan_id":"cebpf4jnsgd1na2vs0mg"},{"bike_id":"3cda2ccf-f0df-4663-9e76-0cd95aaafa43","system_id":"levelo_inurba_marseille","lat":43.29573,"lon":5.367355,"is_reserved":false,"is_disabled":false,"rental_uris":{"android":"levelo://app?vid=3cda2ccf-f0df-4663-9e76-0cd95aaafa43","ios":"levelo://app?vid=3cda2ccf-f0df-4663-9e76-0cd95aaafa43"},"vehicle_type_id":"4","last_reported":1719061791,"current_range_meters":800,"station_id":"ce4bgph2rcd13ifvqc2g","pricing_plan_id":"cebpf4jnsgd1na2vs0mg"},{"bike_id":"aefe2810-9ca7-4344-8da5-b5488dba576b","system_id":"levelo_inurba_marseille","lat":43.29573,"lon":5.367355,"is_reserved":false,"is_disabled":false,"rental_uris":{"android":"levelo://app?vid=aefe2810-9ca7-4344-8da5-b5488dba576b","ios":"levelo://app?vid=aefe2810-9ca7-4344-8da5-b5488dba576b"},"vehicle_type_id":"4","last_reported":1719061791,"current_range_meters":15600,"station_id":"ce4bgph2rcd13ifvqc2g","pricing_plan_id":"cebpf4jnsgd1na2vs0mg"},{"bike_id":"ff6a4627-5906-4c7f-936a-4202c0dc3828","system_id":"levelo_inurba_marseille","lat":43.296131,"lon":5.370773,"is_reserved":false,"is_disabled":false,"rental_uris":{"android":"levelo://app?vid=ff6a4627-5906-4c7f-936a-4202c0dc3828","ios":"levelo://app?vid=ff6a4627-5906-4c7f-936a-4202c0dc3828"},"vehicle_type_id":"4","last_reported":1719061791,"current_range_meters":8800,"station_id":"ce4bgnh2rcd13ifvqc0g","pricing_plan_id":"cebpf4jnsgd1na2vs0mg"},{"bike_id":"1f6bae21-38bb-4ff3-a01a-84bbd3d28111","system_id":"levelo_inurba_marseille","lat":43.323195,"lon":5.385203,"is_reserved":false,"is_disabled":false,"rental_uris":{"android":"levelo://app?vid=1f6bae21-38bb-4ff3-a01a-84bbd3d28111","ios":"levelo://app?vid=1f6bae21-38bb-4ff3-a01a-84bbd3d28111"},"vehicle_type_id":"4","last_reported":1719061791,"current_range_meters":4400,"station_id":"","pricing_plan_id":"cebpf4jnsgd1na2vs0mg"},{"bike_id":"6a5fd579-37a8-47f4-9be4-4a73995b32ba","system_id":"levelo_inurba_marseille","lat":43.296935,"lon":5.376544,"is_reserved":false,"is_disabled":false,"rental_uris":{"android":"levelo://app?vid=6a5fd579-37a8-47f4-9be4-4a73995b32ba","ios":"levelo://app?vid=6a5fd579-37a8-47f4-9be4-4a73995b32ba"},"vehicle_type_id":"4","last_reported":1719061791,"current_range_meters":26800,"station_id":"ce4bgkh2rcd13ifvqbl0","pricing_plan_id":"cebpf4jnsgd1na2vs0mg"},{"bike_id":"bd0eee3a-2525-45cc-8656-6b0a24e5baa0","system_id":"levelo_inurba_marseille","lat":43.296921,"lon":5.376579,"is_reserved":false,"is_disabled":false,"rental_uris":{"android":"levelo://app?vid=bd0eee3a-2525-45cc-8656-6b0a24e5baa0","ios":"levelo://app?vid=bd0eee3a-2525-45cc-8656-6b0a24e5baa0"},"vehicle_type_id":"4","last_reported":1719061791,"current_range_meters":18400,"station_id":"ce4bgkh2rcd13ifvqbl0","pricing_plan_id":"cebpf4jnsgd1na2vs0mg"},{"bike_id":"9e26a764-6977-433a-af88-c13ed91980ae","system_id":"levelo_inurba_marseille","lat":43.299028,"lon":5.381509,"is_reserved":false,"is_disabled":false,"rental_uris":{"android":"levelo://app?vid=9e26a764-6977-433a-af88-c13ed91980ae","ios":"levelo://app?vid=9e26a764-6977-433a-af88-c13ed91980ae"},"vehicle_type_id":"4","last_reported":1719061791,"current_range_meters":30800,"station_id":"ce4bgj12rcd13ifvqbc0","pricing_plan_id":"cebpf4jnsgd1na2vs0mg"},{"bike_id":"eec2b14f-126c-4885-b507-9ccc3427c750","system_id":"levelo_inurba_marseille","lat":43.299028,"lon":5.381509,"is_reserved":false,"is_disabled":false,"rental_uris":{"android":"levelo://app?vid=eec2b14f-126c-4885-b507-9ccc3427c750","ios":"levelo://app?vid=eec2b14f-126c-4885-b507-9ccc3427c750"},"vehicle_type_id":"4","last_reported":1719061791,"current_range_meters":8800,"station_id":"ce4bgj12rcd13ifvqbc0","pricing_plan_id":"cebpf4jnsgd1na2vs0mg"},{"bike_id":"c7d139b2-a37e-48b5-b3ec-54abcbe2a9e7","system_id":"levelo_inurba_marseille","lat":43.309589,"lon":5.390258,"is_reserved":false,"is_disabled":false,"rental_uris":{"android":"levelo://app?vid=c7d139b2-a37e-48b5-b3ec-54abcbe2a9e7","ios":"levelo://app?vid=c7d139b2-a37e-48b5-b3ec-54abcbe2a9e7"},"vehicle_type_id":"4","last_reported":1719061791,"current_range_meters":11200,"station_id":"ce4bgup2rcd13ifvqco0","pricing_plan_id":"cebpf4jnsgd1na2vs0mg"},{"bike_id":"42c59e49-594b-459b-ae39-504d5cf5bf98","system_id":"levelo_inurba_marseille","lat":43.317557,"lon":5.390173,"is_reserved":false,"is_disabled":false,"rental_uris":{"android":"levelo://app?vid=42c59e49-594b-459b-ae39-504d5cf5bf98","ios":"levelo://app?vid=42c59e49-594b-459b-ae39-504d5cf5bf98"},"vehicle_type_id":"4","last_reported":1719061791,"current_range_meters":16800,"station_id":"ce4bhqp2rcd13ifvqhng","pricing_plan_id":"cebpf4jnsgd1na2vs0mg"},{"bike_id":"ae2644ea-57ea-4bdd-b74b-3064c5346723","system_id":"levelo_inurba_marseille","lat":43.29816,"lon":5.38091,"is_reserved":false,"is_disabled":false,"rental_uris":{"android":"levelo://app?vid=ae2644ea-57ea-4bdd-b74b-3064c5346723","ios":"levelo://app?vid=ae2644ea-57ea-4bdd-b74b-3064c5346723"},"vehicle_type_id":"4","last_reported":1719061791,"current_range_meters":0,"station_id":"ce4bgip2rcd13ifvqbb0","pricing_plan_id":"cebpf4jnsgd1na2vs0mg"},{"bike_id":"5c699433-688a-482a-84b0-8c7a769318e3","system_id":"levelo_inurba_marseille","lat":43.295748,"lon":5.37522,"is_reserved":false,"is_disabled":false,"rental_uris":{"android":"levelo://app?vid=5c699433-688a-482a-84b0-8c7a769318e3","ios":"levelo://app?vid=5c699433-688a-482a-84b0-8c7a769318e3"},"vehicle_type_id":"4","last_reported":1719061791,"current_range_meters":0,"station_id":"ce4bgh92rcd13ifvqb50","pricing_plan_id":"cebpf4jnsgd1na2vs0mg"},{"bike_id":"fc27301a-8e11-4d82-93df-749315edcc8c","system_id":"levelo_inurba_marseille","lat":43.295748,"lon":5.37522,"is_reserved":false,"is_disabled":false,"rental_uris":{"android":"levelo://app?vid=fc27301a-8e11-4d82-93df-749315edcc8c","ios":"levelo://app?vid=fc27301a-8e11-4d82-93df-749315edcc8c"},"vehicle_type_id":"4","last_reported":1719061791,"current_range_meters":5200,"station_id":"ce4bgh92rcd13ifvqb50","pricing_plan_id":"cebpf4jnsgd1na2vs0mg"},{"bike_id":"06910b64-af49-4bba-b400-4b4c9333a700","system_id":"levelo_inurba_marseille","lat":43.295702,"lon":5.375266,"is_reserved":false,"is_disabled":false,"rental_uris":{"android":"levelo://app?vid=06910b64-af49-4bba-b400-4b4c9333a700","ios":"levelo://app?vid=06910b64-af49-4bba-b400-4b4c9333a700"},"vehicle_type_id":"4","last_reported":1719061791,"current_range_meters":0,"station_id":"ce4bgh92rcd13ifvqb50","pricing_plan_id":"cebpf4jnsgd1na2vs0mg"},{"bike_id":"908ba811-e358-4d32-9ddf-15d1e2acfd39","system_id":"levelo_inurba_marseille","lat":43.295748,"lon":5.37522,"is_reserved":false,"is_disabled":false,"rental_uris":{"android":"levelo://app?vid=908ba811-e358-4d32-9ddf-15d1e2acfd39","ios":"levelo://app?vid=908ba811-e358-4d32-9ddf-15d1e2acfd39"},"vehicle_type_id":"4","last_reported":1719061791,"current_range_meters":18400,"station_id":"ce4bgh92rcd13ifvqb50","pricing_plan_id":"cebpf4jnsgd1na2vs0mg"},{"bike_id":"60d49311-0f26-44c0-9e4d-de061d01b9a2","system_id":"levelo_inurba_marseille","lat":43.296277,"lon":5.377108,"is_reserved":false,"is_disabled":false,"rental_uris":{"android":"levelo://app?vid=60d49311-0f26-44c0-9e4d-de061d01b9a2","ios":"levelo://app?vid=60d49311-0f26-44c0-9e4d-de061d01b9a2"},"vehicle_type_id":"4","last_reported":1719061791,"current_range_meters":5200,"station_id":"ce4bgi92rcd13ifvqb90","pricing_plan_id":"cebpf4jnsgd1na2vs0mg"},{"bike_id":"6730f11b-4c9e-440b-9804-59ef8d25fac4","system_id":"levelo_inurba_marseille","lat":43.296263,"lon":5.377094,"is_reserved":false,"is_disabled":false,"rental_uris":{"android":"levelo://app?vid=6730f11b-4c9e-440b-9804-59ef8d25fac4","ios":"levelo://app?vid=6730f11b-4c9e-440b-9804-59ef8d25fac4"},"vehicle_type_id":"4","last_reported":1719061791,"current_range_meters":8800,"station_id":"ce4bgi92rcd13ifvqb90","pricing_plan_id":"cebpf4jnsgd1na2vs0mg"},{"bike_id":"d9eeeb39-8985-4e2c-aaab-22a10d9f09ef","system_id":"levelo_inurba_marseille","lat":43.296277,"lon":5.377108,"is_reserved":false,"is_disabled":false,"rental_uris":{"android":"levelo://app?vid=d9eeeb39-8985-4e2c-aaab-22a10d9f09ef","ios":"levelo://app?vid=d9eeeb39-8985-4e2c-aaab-22a10d9f09ef"},"vehicle_type_id":"4","last_reported":1719061791,"current_range_meters":23200,"station_id":"ce4bgi92rcd13ifvqb90","pricing_plan_id":"cebpf4jnsgd1na2vs0mg"},{"bike_id":"0cec30ce-2cf5-404e-894e-ff776795397e","system_id":"levelo_inurba_marseille","lat":43.295279,"lon":5.375048,"is_reserved":false,"is_disabled":false,"rental_uris":{"android":"levelo://app?vid=0cec30ce-2cf5-404e-894e-ff776795397e","ios":"levelo://app?vid=0cec30ce-2cf5-404e-894e-ff776795397e"},"vehicle_type_id":"4","last_reported":1719061791,"current_range_meters":12800,"station_id":"ce4bgkp2rcd13ifvqbmg","pricing_plan_id":"cebpf4jnsgd1na2vs0mg"},{"bike_id":"f89d73c9-aeb2-4a98-afff-2f1a0e13f3c6","system_id":"levelo_inurba_marseille","lat":43.32157,"lon":5.38926,"is_reserved":false,"is_disabled":false,"rental_uris":{"android":"levelo://app?vid=f89d73c9-aeb2-4a98-afff-2f1a0e13f3c6","ios":"levelo://app?vid=f89d73c9-aeb2-4a98-afff-2f1a0e13f3c6"},"vehicle_type_id":"4","last_reported":1719061791,"current_range_meters":9200,"station_id":"","pricing_plan_id":"cebpf4jnsgd1na2vs0mg"},{"bike_id":"894e3352-403d-4d4c-99c9-329fbc383fc8","system_id":"levelo_inurba_marseille","lat":43.32367,"lon":5.388836,"is_reserved":false,"is_disabled":false,"rental_uris":{"android":"levelo://app?vid=894e3352-403d-4d4c-99c9-329fbc383fc8","ios":"levelo://app?vid=894e3352-403d-4d4c-99c9-329fbc383fc8"},"vehicle_type_id":"4","last_reported":1719061791,"current_range_meters":0,"station_id":"ce4bhqp2rcd13ifvqhog","pricing_plan_id":"cebpf4jnsgd1na2vs0mg"},{"bike_id":"ff299016-b2a4-4687-a3f8-621c8029fed8","system_id":"levelo_inurba_marseille","lat":43.29602,"lon":5.381084,"is_reserved":false,"is_disabled":false,"rental_uris":{"android":"levelo://app?vid=ff299016-b2a4-4687-a3f8-621c8029fed8","ios":"levelo://app?vid=ff299016-b2a4-4687-a3f8-621c8029fed8"},"vehicle_type_id":"4","last_reported":1719061791,"current_range_meters":10800,"station_id":"ce4bgl12rcd13ifvqbo0","pricing_plan_id":"cebpf4jnsgd1na2vs0mg"},{"bike_id":"1f0ccf26-adba-4bc5-b71c-f53ff9639991","system_id":"levelo_inurba_marseille","lat":43.29314,"lon":5.371723,"is_reserved":false,"is_disabled":false,"rental_uris":{"android":"levelo://app?vid=1f0ccf26-adba-4bc5-b71c-f53ff9639991","ios":"levelo://app?vid=1f0ccf26-adba-4bc5-b71c-f53ff9639991"},"vehicle_type_id":"4","last_reported":1719061791,"current_range_meters":0,"station_id":"ce4bgh92rcd13ifvqb40","pricing_plan_id":"cebpf4jnsgd1na2vs0mg"},{"bike_id":"1230f07a-510f-4dd3-aed3-56347c2bda3a","system_id":"levelo_inurba_marseille","lat":43.292749,"lon":5.368398,"is_reserved":false,"is_disabled":false,"rental_uris":{"android":"levelo://app?vid=1230f07a-510f-4dd3-aed3-56347c2bda3a","ios":"levelo://app?vid=1230f07a-510f-4dd3-aed3-56347c2bda3a"},"vehicle_type_id":"4","last_reported":1719061791,"current_range_meters":8400,"station_id":"ce4bhbp2rcd13ifvqesg","pricing_plan_id":"cebpf4jnsgd1na2vs0mg"},{"bike_id":"8fb7629d-c011-4e4c-8c3f-7ed36eeb4d0f","system_id":"levelo_inurba_marseille","lat":43.292749,"lon":5.368402,"is_reserved":false,"is_disabled":false,"rental_uris":{"android":"levelo://app?vid=8fb7629d-c011-4e4c-8c3f-7ed36eeb4d0f","ios":"levelo://app?vid=8fb7629d-c011-4e4c-8c3f-7ed36eeb4d0f"},"vehicle_type_id":"4","last_reported":1719061791,"current_range_meters":22800,"station_id":"ce4bhbp2rcd13ifvqesg","pricing_plan_id":"cebpf4jnsgd1na2vs0mg"},{"bike_id":"99f67c09-a491-4063-9cc6-ec3315f551da","system_id":"levelo_inurba_marseille","lat":43.292749,"lon":5.368398,"is_reserved":false,"is_disabled":false,"rental_uris":{"android":"levelo://app?vid=99f67c09-a491-4063-9cc6-ec3315f551da","ios":"levelo://app?vid=99f67c09-a491-4063-9cc6-ec3315f551da"},"vehicle_type_id":"4","last_reported":1719061791,"current_range_meters":19200,"station_id":"ce4bhbp2rcd13ifvqesg","pricing_plan_id":"cebpf4jnsgd1na2vs0mg"},{"bike_id":"fa1abbfc-dee9-4855-ae69-e12c6de3af73","system_id":"levelo_inurba_marseille","lat":43.292749,"lon":5.368398,"is_reserved":false,"is_disabled":false,"rental_uris":{"android":"levelo://app?vid=fa1abbfc-dee9-4855-ae69-e12c6de3af73","ios":"levelo://app?vid=fa1abbfc-dee9-4855-ae69-e12c6de3af73"},"vehicle_type_id":"4","last_reported":1719061791,"current_range_meters":17200,"station_id":"ce4bhbp2rcd13ifvqesg","pricing_plan_id":"cebpf4jnsgd1na2vs0mg"},{"bike_id":"611068b1-8872-4ff7-b95c-36cfb4e18b52","system_id":"levelo_inurba_marseille","lat":43.292749,"lon":5.368398,"is_reserved":false,"is_disabled":false,"rental_uris":{"android":"levelo://app?vid=611068b1-8872-4ff7-b95c-36cfb4e18b52","ios":"levelo://app?vid=611068b1-8872-4ff7-b95c-36cfb4e18b52"},"vehicle_type_id":"4","last_reported":1719061791,"current_range_meters":0,"station_id":"ce4bhbp2rcd13ifvqesg","pricing_plan_id":"cebpf4jnsgd1na2vs0mg"},{"bike_id":"fbdde25c-818f-46cc-bb83-7a71516317d3","system_id":"levelo_inurba_marseille","lat":43.292311,"lon":5.360731,"is_reserved":false,"is_disabled":false,"rental_uris":{"android":"levelo://app?vid=fbdde25c-818f-46cc-bb83-7a71516317d3","ios":"levelo://app?vid=fbdde25c-818f-46cc-bb83-7a71516317d3"},"vehicle_type_id":"4","last_reported":1719061791,"current_range_meters":14800,"station_id":"ce4bhbh2rcd13ifvqeqg","pricing_plan_id":"cebpf4jnsgd1na2vs0mg"},{"bike_id":"00e8464a-486d-46fc-8f21-0e3e501ea6a1","system_id":"levelo_inurba_marseille","lat":43.2936,"lon":5.37835,"is_reserved":false,"is_disabled":false,"rental_uris":{"android":"levelo://app?vid=00e8464a-486d-46fc-8f21-0e3e501ea6a1","ios":"levelo://app?vid=00e8464a-486d-46fc-8f21-0e3e501ea6a1"},"vehicle_type_id":"4","last_reported":1719061791,"current_range_meters":20000,"station_id":"ce4bgjh2rcd13ifvqbf0","pricing_plan_id":"cebpf4jnsgd1na2vs0mg"},{"bike_id":"41235a0a-e78d-422d-8a15-afdd37ecac57","system_id":"levelo_inurba_marseille","lat":43.2936,"lon":5.37835,"is_reserved":false,"is_disabled":false,"rental_uris":{"android":"levelo://app?vid=41235a0a-e78d-422d-8a15-afdd37ecac57","ios":"levelo://app?vid=41235a0a-e78d-422d-8a15-afdd37ecac57"},"vehicle_type_id":"4","last_reported":1719061791,"current_range_meters":1600,"station_id":"ce4bgjh2rcd13ifvqbf0","pricing_plan_id":"cebpf4jnsgd1na2vs0mg"},{"bike_id":"5c165045-f90c-4d1d-b0cb-8b0e2dfd65aa","system_id":"levelo_inurba_marseille","lat":43.309038,"lon":5.396546,"is_reserved":false,"is_disabled":false,"rental_uris":{"android":"levelo://app?vid=5c165045-f90c-4d1d-b0cb-8b0e2dfd65aa","ios":"levelo://app?vid=5c165045-f90c-4d1d-b0cb-8b0e2dfd65aa"},"vehicle_type_id":"4","last_reported":1719061791,"current_range_meters":7200,"station_id":"ce4bh012rcd13ifvqcv0","pricing_plan_id":"cebpf4jnsgd1na2vs0mg"},{"bike_id":"495b9eb8-55f2-4c8a-8afd-68b9d283fb62","system_id":"levelo_inurba_marseille","lat":43.291994,"lon":5.357886,"is_reserved":false,"is_disabled":false,"rental_uris":{"android":"levelo://app?vid=495b9eb8-55f2-4c8a-8afd-68b9d283fb62","ios":"levelo://app?vid=495b9eb8-55f2-4c8a-8afd-68b9d283fb62"},"vehicle_type_id":"4","last_reported":1719061791,"current_range_meters":11600,"station_id":"ce4bhb12rcd13ifvqel0","pricing_plan_id":"cebpf4jnsgd1na2vs0mg"},{"bike_id":"8189236b-d536-4e5a-9426-e6ae975eb827","system_id":"levelo_inurba_marseille","lat":43.313291,"lon":5.396838,"is_reserved":false,"is_disabled":false,"rental_uris":{"android":"levelo://app?vid=8189236b-d536-4e5a-9426-e6ae975eb827","ios":"levelo://app?vid=8189236b-d536-4e5a-9426-e6ae975eb827"},"vehicle_type_id":"4","last_reported":1719061791,"current_range_meters":24400,"station_id":"ce4bgvp2rcd13ifvqcu0","pricing_plan_id":"cebpf4jnsgd1na2vs0mg"},{"bike_id":"4145a3c6-e137-450a-8fae-38b5bd6d8da2","system_id":"levelo_inurba_marseille","lat":43.309047,"lon":5.396551,"is_reserved":false,"is_disabled":false,"rental_uris":{"android":"levelo://app?vid=4145a3c6-e137-450a-8fae-38b5bd6d8da2","ios":"levelo://app?vid=4145a3c6-e137-450a-8fae-38b5bd6d8da2"},"vehicle_type_id":"4","last_reported":1719061791,"current_range_meters":14000,"station_id":"ce4bh012rcd13ifvqcv0","pricing_plan_id":"cebpf4jnsgd1na2vs0mg"},{"bike_id":"7b26f11d-3e38-4949-bd97-02eb774252ed","system_id":"levelo_inurba_marseille","lat":43.29529,"lon":5.385581,"is_reserved":false,"is_disabled":false,"rental_uris":{"android":"levelo://app?vid=7b26f11d-3e38-4949-bd97-02eb774252ed","ios":"levelo://app?vid=7b26f11d-3e38-4949-bd97-02eb774252ed"},"vehicle_type_id":"4","last_reported":1719061791,"current_range_meters":26800,"station_id":"ce4bgih2rcd13ifvqba0","pricing_plan_id":"cebpf4jnsgd1na2vs0mg"},{"bike_id":"ae4ba8c8-e3d3-46ed-96c3-de420314b68d","system_id":"levelo_inurba_marseille","lat":43.290779,"lon":5.371482,"is_reserved":false,"is_disabled":false,"rental_uris":{"android":"levelo://app?vid=ae4ba8c8-e3d3-46ed-96c3-de420314b68d","ios":"levelo://app?vid=ae4ba8c8-e3d3-46ed-96c3-de420314b68d"},"vehicle_type_id":"4","last_reported":1719061791,"current_range_meters":26400,"station_id":"ce4bh5p2rcd13ifvqe4g","pricing_plan_id":"cebpf4jnsgd1na2vs0mg"},{"bike_id":"cfa4ec4b-b544-406e-b69c-4f41b590d635","system_id":"levelo_inurba_marseille","lat":43.302008,"lon":5.394694,"is_reserved":false,"is_disabled":false,"rental_uris":{"android":"levelo://app?vid=cfa4ec4b-b544-406e-b69c-4f41b590d635","ios":"levelo://app?vid=cfa4ec4b-b544-406e-b69c-4f41b590d635"},"vehicle_type_id":"4","last_reported":1719061791,"current_range_meters":24000,"station_id":"ce4bh0p2rcd13ifvqd70","pricing_plan_id":"cebpf4jnsgd1na2vs0mg"},{"bike_id":"34f6dac5-2905-4151-88b7-99b6987e1d57","system_id":"levelo_inurba_marseille","lat":43.290631,"lon":5.359244,"is_reserved":false,"is_disabled":false,"rental_uris":{"android":"levelo://app?vid=34f6dac5-2905-4151-88b7-99b6987e1d57","ios":"levelo://app?vid=34f6dac5-2905-4151-88b7-99b6987e1d57"},"vehicle_type_id":"4","last_reported":1719061791,"current_range_meters":0,"station_id":"ce4bha92rcd13ifvqeg0","pricing_plan_id":"cebpf4jnsgd1na2vs0mg"},{"bike_id":"09e76588-430f-4c41-9ebc-84c5084cdfec","system_id":"levelo_inurba_marseille","lat":43.29043,"lon":5.37555,"is_reserved":false,"is_disabled":false,"rental_uris":{"android":"levelo://app?vid=09e76588-430f-4c41-9ebc-84c5084cdfec","ios":"levelo://app?vid=09e76588-430f-4c41-9ebc-84c5084cdfec"},"vehicle_type_id":"4","last_reported":1719061791,"current_range_meters":0,"station_id":"ce4bh692rcd13ifvqe90","pricing_plan_id":"cebpf4jnsgd1na2vs0mg"},{"bike_id":"81fe2065-63ab-4906-a19d-cac2afcb1428","system_id":"levelo_inurba_marseille","lat":43.28955,"lon":5.36643,"is_reserved":false,"is_disabled":false,"rental_uris":{"android":"levelo://app?vid=81fe2065-63ab-4906-a19d-cac2afcb1428","ios":"levelo://app?vid=81fe2065-63ab-4906-a19d-cac2afcb1428"},"vehicle_type_id":"4","last_reported":1719061791,"current_range_meters":3200,"station_id":"","pricing_plan_id":"cebpf4jnsgd1na2vs0mg"},{"bike_id":"d801fc21-bd96-469d-be8f-215f3fa1c6df","system_id":"levelo_inurba_marseille","lat":43.28952,"lon":5.36627,"is_reserved":false,"is_disabled":false,"rental_uris":{"android":"levelo://app?vid=d801fc21-bd96-469d-be8f-215f3fa1c6df","ios":"levelo://app?vid=d801fc21-bd96-469d-be8f-215f3fa1c6df"},"vehicle_type_id":"4","last_reported":1719061791,"current_range_meters":0,"station_id":"ce4bhap2rcd13ifvqek0","pricing_plan_id":"cebpf4jnsgd1na2vs0mg"},{"bike_id":"3f61c765-55c7-4e64-a3de-7eba855a0949","system_id":"levelo_inurba_marseille","lat":43.289184,"lon":5.366408,"is_reserved":false,"is_disabled":false,"rental_uris":{"android":"levelo://app?vid=3f61c765-55c7-4e64-a3de-7eba855a0949","ios":"levelo://app?vid=3f61c765-55c7-4e64-a3de-7eba855a0949"},"vehicle_type_id":"4","last_reported":1719061791,"current_range_meters":2400,"station_id":"ce4bhap2rcd13ifvqek0","pricing_plan_id":"cebpf4jnsgd1na2vs0mg"},{"bike_id":"20af0dd4-9e54-40d3-af2a-15816ff1ebb5","system_id":"levelo_inurba_marseille","lat":43.304274,"lon":5.397513,"is_reserved":false,"is_disabled":false,"rental_uris":{"android":"levelo://app?vid=20af0dd4-9e54-40d3-af2a-15816ff1ebb5","ios":"levelo://app?vid=20af0dd4-9e54-40d3-af2a-15816ff1ebb5"},"vehicle_type_id":"4","last_reported":1719061791,"current_range_meters":20400,"station_id":"ce4bh092rcd13ifvqd20","pricing_plan_id":"cebpf4jnsgd1na2vs0mg"},{"bike_id":"75796fe6-a887-46ed-a8c3-81bd57939fee","system_id":"levelo_inurba_marseille","lat":43.29041,"lon":5.37822,"is_reserved":false,"is_disabled":false,"rental_uris":{"android":"levelo://app?vid=75796fe6-a887-46ed-a8c3-81bd57939fee","ios":"levelo://app?vid=75796fe6-a887-46ed-a8c3-81bd57939fee"},"vehicle_type_id":"4","last_reported":1719061791,"current_range_meters":15600,"station_id":"","pricing_plan_id":"cebpf4jnsgd1na2vs0mg"},{"bike_id":"7248d513-2d36-4645-9196-b9e98efac9d1","system_id":"levelo_inurba_marseille","lat":43.292644,"lon":5.384257,"is_reserved":false,"is_disabled":false,"rental_uris":{"android":"levelo://app?vid=7248d513-2d36-4645-9196-b9e98efac9d1","ios":"levelo://app?vid=7248d513-2d36-4645-9196-b9e98efac9d1"},"vehicle_type_id":"4","last_reported":1719061791,"current_range_meters":8800,"station_id":"ce4bh692rcd13ifvqea0","pricing_plan_id":"cebpf4jnsgd1na2vs0mg"},{"bike_id":"5e436df0-e922-4b9c-a78c-5b0a174630bf","system_id":"levelo_inurba_marseille","lat":43.29097,"lon":5.38142,"is_reserved":false,"is_disabled":false,"rental_uris":{"android":"levelo://app?vid=5e436df0-e922-4b9c-a78c-5b0a174630bf","ios":"levelo://app?vid=5e436df0-e922-4b9c-a78c-5b0a174630bf"},"vehicle_type_id":"4","last_reported":1719061791,"current_range_meters":6400,"station_id":"ce4bh512rcd13ifvqe2g","pricing_plan_id":"cebpf4jnsgd1na2vs0mg"},{"bike_id":"69d61760-5581-4976-82bd-b290ec47c5d5","system_id":"levelo_inurba_marseille","lat":43.289741,"lon":5.378306,"is_reserved":false,"is_disabled":false,"rental_uris":{"android":"levelo://app?vid=69d61760-5581-4976-82bd-b290ec47c5d5","ios":"levelo://app?vid=69d61760-5581-4976-82bd-b290ec47c5d5"},"vehicle_type_id":"4","last_reported":1719061791,"current_range_meters":25200,"station_id":"ce4bh9p2rcd13ifvqed0","pricing_plan_id":"cebpf4jnsgd1na2vs0mg"},{"bike_id":"70d57a0a-caa7-44f1-8e26-9b33ebf89367","system_id":"levelo_inurba_marseille","lat":43.289743,"lon":5.378304,"is_reserved":false,"is_disabled":false,"rental_uris":{"android":"levelo://app?vid=70d57a0a-caa7-44f1-8e26-9b33ebf89367","ios":"levelo://app?vid=70d57a0a-caa7-44f1-8e26-9b33ebf89367"},"vehicle_type_id":"4","last_reported":1719061791,"current_range_meters":3600,"station_id":"ce4bh9p2rcd13ifvqed0","pricing_plan_id":"cebpf4jnsgd1na2vs0mg"},{"bike_id":"1fbed9b3-8a14-4d00-9eda-8cc42ac42943","system_id":"levelo_inurba_marseille","lat":43.289748,"lon":5.378153,"is_reserved":false,"is_disabled":false,"rental_uris":{"android":"levelo://app?vid=1fbed9b3-8a14-4d00-9eda-8cc42ac42943","ios":"levelo://app?vid=1fbed9b3-8a14-4d00-9eda-8cc42ac42943"},"vehicle_type_id":"4","last_reported":1719061791,"current_range_meters":24800,"station_id":"ce4bh9p2rcd13ifvqed0","pricing_plan_id":"cebpf4jnsgd1na2vs0mg"},{"bike_id":"d7a78b25-cc81-489e-8218-3b311005bdba","system_id":"levelo_inurba_marseille","lat":43.28979,"lon":5.37838,"is_reserved":false,"is_disabled":false,"rental_uris":{"android":"levelo://app?vid=d7a78b25-cc81-489e-8218-3b311005bdba","ios":"levelo://app?vid=d7a78b25-cc81-489e-8218-3b311005bdba"},"vehicle_type_id":"4","last_reported":1719061791,"current_range_meters":12400,"station_id":"ce4bh9p2rcd13ifvqed0","pricing_plan_id":"cebpf4jnsgd1na2vs0mg"},{"bike_id":"7808f775-83e0-4d9a-ada0-c73f34ac07a1","system_id":"levelo_inurba_marseille","lat":43.330442,"lon":5.389148,"is_reserved":false,"is_disabled":false,"rental_uris":{"android":"levelo://app?vid=7808f775-83e0-4d9a-ada0-c73f34ac07a1","ios":"levelo://app?vid=7808f775-83e0-4d9a-ada0-c73f34ac07a1"},"vehicle_type_id":"4","last_reported":1719061791,"current_range_meters":28800,"station_id":"ce4bhr92rcd13ifvqhrg","pricing_plan_id":"cebpf4jnsgd1na2vs0mg"},{"bike_id":"dd9865ef-af5d-4ba7-b83e-c25ce6cfbecc","system_id":"levelo_inurba_marseille","lat":43.289741,"lon":5.378306,"is_reserved":false,"is_disabled":false,"rental_uris":{"android":"levelo://app?vid=dd9865ef-af5d-4ba7-b83e-c25ce6cfbecc","ios":"levelo://app?vid=dd9865ef-af5d-4ba7-b83e-c25ce6cfbecc"},"vehicle_type_id":"4","last_reported":1719061791,"current_range_meters":26000,"station_id":"ce4bh9p2rcd13ifvqed0","pricing_plan_id":"cebpf4jnsgd1na2vs0mg"},{"bike_id":"12efe1cd-227b-4ee3-a4b0-0a0630665809","system_id":"levelo_inurba_marseille","lat":43.289741,"lon":5.378306,"is_reserved":false,"is_disabled":false,"rental_uris":{"android":"levelo://app?vid=12efe1cd-227b-4ee3-a4b0-0a0630665809","ios":"levelo://app?vid=12efe1cd-227b-4ee3-a4b0-0a0630665809"},"vehicle_type_id":"4","last_reported":1719061791,"current_range_meters":29200,"station_id":"ce4bh9p2rcd13ifvqed0","pricing_plan_id":"cebpf4jnsgd1na2vs0mg"},{"bike_id":"506734c6-8efe-424d-8a5d-9beada7d2683","system_id":"levelo_inurba_marseille","lat":43.289741,"lon":5.378306,"is_reserved":false,"is_disabled":false,"rental_uris":{"android":"levelo://app?vid=506734c6-8efe-424d-8a5d-9beada7d2683","ios":"levelo://app?vid=506734c6-8efe-424d-8a5d-9beada7d2683"},"vehicle_type_id":"4","last_reported":1719061791,"current_range_meters":14000,"station_id":"ce4bh9p2rcd13ifvqed0","pricing_plan_id":"cebpf4jnsgd1na2vs0mg"},{"bike_id":"72686b57-6572-47b6-9877-79d182005229","system_id":"levelo_inurba_marseille","lat":43.33022,"lon":5.39044,"is_reserved":false,"is_disabled":false,"rental_uris":{"android":"levelo://app?vid=72686b57-6572-47b6-9877-79d182005229","ios":"levelo://app?vid=72686b57-6572-47b6-9877-79d182005229"},"vehicle_type_id":"4","last_reported":1719061791,"current_range_meters":27200,"station_id":"ce4bhr92rcd13ifvqhrg","pricing_plan_id":"cebpf4jnsgd1na2vs0mg"},{"bike_id":"08a8f0ab-4a33-4ba5-92a7-ee984fe8db2c","system_id":"levelo_inurba_marseille","lat":43.289741,"lon":5.378306,"is_reserved":false,"is_disabled":false,"rental_uris":{"android":"levelo://app?vid=08a8f0ab-4a33-4ba5-92a7-ee984fe8db2c","ios":"levelo://app?vid=08a8f0ab-4a33-4ba5-92a7-ee984fe8db2c"},"vehicle_type_id":"4","last_reported":1719061791,"current_range_meters":28400,"station_id":"ce4bh9p2rcd13ifvqed0","pricing_plan_id":"cebpf4jnsgd1na2vs0mg"},{"bike_id":"46fe2b8d-858f-4d84-be9f-4fd79a1687f7","system_id":"levelo_inurba_marseille","lat":43.330442,"lon":5.389148,"is_reserved":false,"is_disabled":false,"rental_uris":{"android":"levelo://app?vid=46fe2b8d-858f-4d84-be9f-4fd79a1687f7","ios":"levelo://app?vid=46fe2b8d-858f-4d84-be9f-4fd79a1687f7"},"vehicle_type_id":"4","last_reported":1719061791,"current_range_meters":12000,"station_id":"ce4bhr92rcd13ifvqhrg","pricing_plan_id":"cebpf4jnsgd1na2vs0mg"},{"bike_id":"f67f48f8-b748-498f-aebb-19fc53ea6ab4","system_id":"levelo_inurba_marseille","lat":43.289741,"lon":5.378306,"is_reserved":false,"is_disabled":false,"rental_uris":{"android":"levelo://app?vid=f67f48f8-b748-498f-aebb-19fc53ea6ab4","ios":"levelo://app?vid=f67f48f8-b748-498f-aebb-19fc53ea6ab4"},"vehicle_type_id":"4","last_reported":1719061791,"current_range_meters":15200,"station_id":"ce4bh9p2rcd13ifvqed0","pricing_plan_id":"cebpf4jnsgd1na2vs0mg"},{"bike_id":"0f88aa00-6f85-4f08-908d-3be43e15cbfe","system_id":"levelo_inurba_marseille","lat":43.309371,"lon":5.401449,"is_reserved":false,"is_disabled":false,"rental_uris":{"android":"levelo://app?vid=0f88aa00-6f85-4f08-908d-3be43e15cbfe","ios":"levelo://app?vid=0f88aa00-6f85-4f08-908d-3be43e15cbfe"},"vehicle_type_id":"4","last_reported":1719061791,"current_range_meters":12400,"station_id":"ce4bgvp2rcd13ifvqct0","pricing_plan_id":"cebpf4jnsgd1na2vs0mg"},{"bike_id":"d02a1022-0d71-4bbd-b7aa-7e15c44eaf38","system_id":"levelo_inurba_marseille","lat":43.2901,"lon":5.381269,"is_reserved":false,"is_disabled":false,"rental_uris":{"android":"levelo://app?vid=d02a1022-0d71-4bbd-b7aa-7e15c44eaf38","ios":"levelo://app?vid=d02a1022-0d71-4bbd-b7aa-7e15c44eaf38"},"vehicle_type_id":"4","last_reported":1719061791,"current_range_meters":22400,"station_id":"ce4bh4p2rcd13ifvqe1g","pricing_plan_id":"cebpf4jnsgd1na2vs0mg"},{"bike_id":"13c6072f-23cb-4f84-ac90-715022f088bc","system_id":"levelo_inurba_marseille","lat":43.2901,"lon":5.381269,"is_reserved":false,"is_disabled":false,"rental_uris":{"android":"levelo://app?vid=13c6072f-23cb-4f84-ac90-715022f088bc","ios":"levelo://app?vid=13c6072f-23cb-4f84-ac90-715022f088bc"},"vehicle_type_id":"4","last_reported":1719061791,"current_range_meters":0,"station_id":"ce4bh4p2rcd13ifvqe1g","pricing_plan_id":"cebpf4jnsgd1na2vs0mg"},{"bike_id":"dbc8dd2b-ee72-4bee-a4bb-f4c5d3b703c9","system_id":"levelo_inurba_marseille","lat":43.312609,"lon":5.401662,"is_reserved":false,"is_disabled":false,"rental_uris":{"android":"levelo://app?vid=dbc8dd2b-ee72-4bee-a4bb-f4c5d3b703c9","ios":"levelo://app?vid=dbc8dd2b-ee72-4bee-a4bb-f4c5d3b703c9"},"vehicle_type_id":"4","last_reported":1719061791,"current_range_meters":26400,"station_id":"ce4bh092rcd13ifvqd30","pricing_plan_id":"cebpf4jnsgd1na2vs0mg"},{"bike_id":"05092e03-5cef-41c3-9575-df5db7507ebd","system_id":"levelo_inurba_marseille","lat":43.33739,"lon":5.37464,"is_reserved":false,"is_disabled":false,"rental_uris":{"android":"levelo://app?vid=05092e03-5cef-41c3-9575-df5db7507ebd","ios":"levelo://app?vid=05092e03-5cef-41c3-9575-df5db7507ebd"},"vehicle_type_id":"4","last_reported":1719061791,"current_range_meters":19600,"station_id":"","pricing_plan_id":"cebpf4jnsgd1na2vs0mg"},{"bike_id":"fa238065-7148-470b-ae38-597baac69832","system_id":"levelo_inurba_marseille","lat":43.309371,"lon":5.401449,"is_reserved":false,"is_disabled":false,"rental_uris":{"android":"levelo://app?vid=fa238065-7148-470b-ae38-597baac69832","ios":"levelo://app?vid=fa238065-7148-470b-ae38-597baac69832"},"vehicle_type_id":"4","last_reported":1719061791,"current_range_meters":24800,"station_id":"ce4bgvp2rcd13ifvqct0","pricing_plan_id":"cebpf4jnsgd1na2vs0mg"},{"bike_id":"d1b12044-4925-41fa-b8fd-83b06cde4efc","system_id":"levelo_inurba_marseille","lat":43.309371,"lon":5.401449,"is_reserved":false,"is_disabled":false,"rental_uris":{"android":"levelo://app?vid=d1b12044-4925-41fa-b8fd-83b06cde4efc","ios":"levelo://app?vid=d1b12044-4925-41fa-b8fd-83b06cde4efc"},"vehicle_type_id":"4","last_reported":1719061791,"current_range_meters":18000,"station_id":"ce4bgvp2rcd13ifvqct0","pricing_plan_id":"cebpf4jnsgd1na2vs0mg"},{"bike_id":"d7d27a1e-b5c4-43ba-b429-8b104575c7cc","system_id":"levelo_inurba_marseille","lat":43.309371,"lon":5.401449,"is_reserved":false,"is_disabled":false,"rental_uris":{"android":"levelo://app?vid=d7d27a1e-b5c4-43ba-b429-8b104575c7cc","ios":"levelo://app?vid=d7d27a1e-b5c4-43ba-b429-8b104575c7cc"},"vehicle_type_id":"4","last_reported":1719061791,"current_range_meters":4800,"station_id":"ce4bgvp2rcd13ifvqct0","pricing_plan_id":"cebpf4jnsgd1na2vs0mg"},{"bike_id":"c006b7c3-9831-4f48-95e0-a70f959fe128","system_id":"levelo_inurba_marseille","lat":43.30928,"lon":5.40142,"is_reserved":false,"is_disabled":false,"rental_uris":{"android":"levelo://app?vid=c006b7c3-9831-4f48-95e0-a70f959fe128","ios":"levelo://app?vid=c006b7c3-9831-4f48-95e0-a70f959fe128"},"vehicle_type_id":"4","last_reported":1719061791,"current_range_meters":21200,"station_id":"ce4bgvp2rcd13ifvqct0","pricing_plan_id":"cebpf4jnsgd1na2vs0mg"},{"bike_id":"f4c198d3-d594-4c94-957b-9e9925b2a066","system_id":"levelo_inurba_marseille","lat":43.309371,"lon":5.401449,"is_reserved":false,"is_disabled":false,"rental_uris":{"android":"levelo://app?vid=f4c198d3-d594-4c94-957b-9e9925b2a066","ios":"levelo://app?vid=f4c198d3-d594-4c94-957b-9e9925b2a066"},"vehicle_type_id":"4","last_reported":1719061791,"current_range_meters":31600,"station_id":"ce4bgvp2rcd13ifvqct0","pricing_plan_id":"cebpf4jnsgd1na2vs0mg"},{"bike_id":"05a2c094-efaf-4b00-b640-b2a41a68d94b","system_id":"levelo_inurba_marseille","lat":43.312609,"lon":5.401662,"is_reserved":false,"is_disabled":false,"rental_uris":{"android":"levelo://app?vid=05a2c094-efaf-4b00-b640-b2a41a68d94b","ios":"levelo://app?vid=05a2c094-efaf-4b00-b640-b2a41a68d94b"},"vehicle_type_id":"4","last_reported":1719061791,"current_range_meters":25600,"station_id":"ce4bh092rcd13ifvqd30","pricing_plan_id":"cebpf4jnsgd1na2vs0mg"},{"bike_id":"a00c218c-138a-4388-aca4-2952a6961815","system_id":"levelo_inurba_marseille","lat":43.33753,"lon":5.37478,"is_reserved":false,"is_disabled":false,"rental_uris":{"android":"levelo://app?vid=a00c218c-138a-4388-aca4-2952a6961815","ios":"levelo://app?vid=a00c218c-138a-4388-aca4-2952a6961815"},"vehicle_type_id":"4","last_reported":1719061791,"current_range_meters":29200,"station_id":"","pricing_plan_id":"cebpf4jnsgd1na2vs0mg"},{"bike_id":"0e11bbab-a5d9-4098-a6f1-624d89f27c59","system_id":"levelo_inurba_marseille","lat":43.337572,"lon":5.374546,"is_reserved":false,"is_disabled":false,"rental_uris":{"android":"levelo://app?vid=0e11bbab-a5d9-4098-a6f1-624d89f27c59","ios":"levelo://app?vid=0e11bbab-a5d9-4098-a6f1-624d89f27c59"},"vehicle_type_id":"4","last_reported":1719061791,"current_range_meters":24400,"station_id":"","pricing_plan_id":"cebpf4jnsgd1na2vs0mg"},{"bike_id":"db534928-e6a2-47cc-a852-558fe66ed50c","system_id":"levelo_inurba_marseille","lat":43.337583,"lon":5.374633,"is_reserved":false,"is_disabled":false,"rental_uris":{"android":"levelo://app?vid=db534928-e6a2-47cc-a852-558fe66ed50c","ios":"levelo://app?vid=db534928-e6a2-47cc-a852-558fe66ed50c"},"vehicle_type_id":"4","last_reported":1719061791,"current_range_meters":22800,"station_id":"","pricing_plan_id":"cebpf4jnsgd1na2vs0mg"},{"bike_id":"e7be790b-07e4-40f3-b60f-da683b157943","system_id":"levelo_inurba_marseille","lat":43.33033,"lon":5.39238,"is_reserved":false,"is_disabled":false,"rental_uris":{"android":"levelo://app?vid=e7be790b-07e4-40f3-b60f-da683b157943","ios":"levelo://app?vid=e7be790b-07e4-40f3-b60f-da683b157943"},"vehicle_type_id":"4","last_reported":1719061791,"current_range_meters":18800,"station_id":"","pricing_plan_id":"cebpf4jnsgd1na2vs0mg"},{"bike_id":"a77bf3f1-dc55-4e35-8fe0-6292cee970ef","system_id":"levelo_inurba_marseille","lat":43.33035,"lon":5.39239,"is_reserved":false,"is_disabled":false,"rental_uris":{"android":"levelo://app?vid=a77bf3f1-dc55-4e35-8fe0-6292cee970ef","ios":"levelo://app?vid=a77bf3f1-dc55-4e35-8fe0-6292cee970ef"},"vehicle_type_id":"4","last_reported":1719061791,"current_range_meters":21600,"station_id":"","pricing_plan_id":"cebpf4jnsgd1na2vs0mg"},{"bike_id":"1529575d-3c24-4053-9dc4-3fc753c20a3e","system_id":"levelo_inurba_marseille","lat":43.3304,"lon":5.39281,"is_reserved":false,"is_disabled":false,"rental_uris":{"android":"levelo://app?vid=1529575d-3c24-4053-9dc4-3fc753c20a3e","ios":"levelo://app?vid=1529575d-3c24-4053-9dc4-3fc753c20a3e"},"vehicle_type_id":"4","last_reported":1719061791,"current_range_meters":2000,"station_id":"","pricing_plan_id":"cebpf4jnsgd1na2vs0mg"},{"bike_id":"4b0e534b-da1b-4afb-98ec-6c4a5a3e105e","system_id":"levelo_inurba_marseille","lat":43.28727,"lon":5.36078,"is_reserved":false,"is_disabled":false,"rental_uris":{"android":"levelo://app?vid=4b0e534b-da1b-4afb-98ec-6c4a5a3e105e","ios":"levelo://app?vid=4b0e534b-da1b-4afb-98ec-6c4a5a3e105e"},"vehicle_type_id":"4","last_reported":1719061791,"current_range_meters":28000,"station_id":"cki0cbj6b192h4jlfktg","pricing_plan_id":"cebpf4jnsgd1na2vs0mg"},{"bike_id":"c9a6156c-afdd-4a63-b7c8-2dbaeb355175","system_id":"levelo_inurba_marseille","lat":43.286961,"lon":5.373785,"is_reserved":false,"is_disabled":false,"rental_uris":{"android":"levelo://app?vid=c9a6156c-afdd-4a63-b7c8-2dbaeb355175","ios":"levelo://app?vid=c9a6156c-afdd-4a63-b7c8-2dbaeb355175"},"vehicle_type_id":"4","last_reported":1719061791,"current_range_meters":5600,"station_id":"ce4bh3p2rcd13ifvqdq0","pricing_plan_id":"cebpf4jnsgd1na2vs0mg"},{"bike_id":"b6d9cbde-d66d-464b-ae49-f6a035ec969a","system_id":"levelo_inurba_marseille","lat":43.286591,"lon":5.363346,"is_reserved":false,"is_disabled":false,"rental_uris":{"android":"levelo://app?vid=b6d9cbde-d66d-464b-ae49-f6a035ec969a","ios":"levelo://app?vid=b6d9cbde-d66d-464b-ae49-f6a035ec969a"},"vehicle_type_id":"4","last_reported":1719061791,"current_range_meters":5600,"station_id":"ce4bhah2rcd13ifvqej0","pricing_plan_id":"cebpf4jnsgd1na2vs0mg"},{"bike_id":"48a4fb73-4f51-466b-8ff5-1754130ea5bd","system_id":"levelo_inurba_marseille","lat":43.298681,"lon":5.397225,"is_reserved":false,"is_disabled":false,"rental_uris":{"android":"levelo://app?vid=48a4fb73-4f51-466b-8ff5-1754130ea5bd","ios":"levelo://app?vid=48a4fb73-4f51-466b-8ff5-1754130ea5bd"},"vehicle_type_id":"4","last_reported":1719061791,"current_range_meters":400,"station_id":"ce4bh0h2rcd13ifvqd50","pricing_plan_id":"cebpf4jnsgd1na2vs0mg"},{"bike_id":"b21d81cd-8340-4e58-ab10-b6036ddde429","system_id":"levelo_inurba_marseille","lat":43.28704,"lon":5.3739,"is_reserved":false,"is_disabled":false,"rental_uris":{"android":"levelo://app?vid=b21d81cd-8340-4e58-ab10-b6036ddde429","ios":"levelo://app?vid=b21d81cd-8340-4e58-ab10-b6036ddde429"},"vehicle_type_id":"4","last_reported":1719061791,"current_range_meters":26800,"station_id":"ce4bh3p2rcd13ifvqdq0","pricing_plan_id":"cebpf4jnsgd1na2vs0mg"},{"bike_id":"63687dac-8ef4-4701-a16b-1c2e6e329507","system_id":"levelo_inurba_marseille","lat":43.295194,"lon":5.39397,"is_reserved":false,"is_disabled":false,"rental_uris":{"android":"levelo://app?vid=63687dac-8ef4-4701-a16b-1c2e6e329507","ios":"levelo://app?vid=63687dac-8ef4-4701-a16b-1c2e6e329507"},"vehicle_type_id":"4","last_reported":1719061791,"current_range_meters":18000,"station_id":"ce4bh292rcd13ifvqdf0","pricing_plan_id":"cebpf4jnsgd1na2vs0mg"},{"bike_id":"753205ca-8d09-45da-a82d-57f3dcd88566","system_id":"levelo_inurba_marseille","lat":43.289307,"lon":5.38406,"is_reserved":false,"is_disabled":false,"rental_uris":{"android":"levelo://app?vid=753205ca-8d09-45da-a82d-57f3dcd88566","ios":"levelo://app?vid=753205ca-8d09-45da-a82d-57f3dcd88566"},"vehicle_type_id":"4","last_reported":1719061791,"current_range_meters":19600,"station_id":"ce4bh612rcd13ifvqe6g","pricing_plan_id":"cebpf4jnsgd1na2vs0mg"},{"bike_id":"9c401ff1-6288-4975-a437-f9fd6be09f9a","system_id":"levelo_inurba_marseille","lat":43.289307,"lon":5.38406,"is_reserved":false,"is_disabled":false,"rental_uris":{"android":"levelo://app?vid=9c401ff1-6288-4975-a437-f9fd6be09f9a","ios":"levelo://app?vid=9c401ff1-6288-4975-a437-f9fd6be09f9a"},"vehicle_type_id":"4","last_reported":1719061791,"current_range_meters":16800,"station_id":"ce4bh612rcd13ifvqe6g","pricing_plan_id":"cebpf4jnsgd1na2vs0mg"},{"bike_id":"cc3c9669-c944-4c76-a598-af3ba4df7c20","system_id":"levelo_inurba_marseille","lat":43.290336,"lon":5.386425,"is_reserved":false,"is_disabled":false,"rental_uris":{"android":"levelo://app?vid=cc3c9669-c944-4c76-a598-af3ba4df7c20","ios":"levelo://app?vid=cc3c9669-c944-4c76-a598-af3ba4df7c20"},"vehicle_type_id":"4","last_reported":1719061791,"current_range_meters":3200,"station_id":"ce4bh4p2rcd13ifvqe0g","pricing_plan_id":"cebpf4jnsgd1na2vs0mg"},{"bike_id":"bf76d787-07fb-4753-a88e-7ef89be1e343","system_id":"levelo_inurba_marseille","lat":43.302759,"lon":5.400793,"is_reserved":false,"is_disabled":false,"rental_uris":{"android":"levelo://app?vid=bf76d787-07fb-4753-a88e-7ef89be1e343","ios":"levelo://app?vid=bf76d787-07fb-4753-a88e-7ef89be1e343"},"vehicle_type_id":"4","last_reported":1719061791,"current_range_meters":19600,"station_id":"ce4bgvh2rcd13ifvqcs0","pricing_plan_id":"cebpf4jnsgd1na2vs0mg"},{"bike_id":"b2778ad2-7d38-459e-b8c5-9ea0598712a9","system_id":"levelo_inurba_marseille","lat":43.289307,"lon":5.38406,"is_reserved":false,"is_disabled":false,"rental_uris":{"android":"levelo://app?vid=b2778ad2-7d38-459e-b8c5-9ea0598712a9","ios":"levelo://app?vid=b2778ad2-7d38-459e-b8c5-9ea0598712a9"},"vehicle_type_id":"4","last_reported":1719061791,"current_range_meters":27200,"station_id":"ce4bh612rcd13ifvqe6g","pricing_plan_id":"cebpf4jnsgd1na2vs0mg"},{"bike_id":"922f6d27-6a19-4cb1-a238-b47d10dfa404","system_id":"levelo_inurba_marseille","lat":43.286039,"lon":5.370681,"is_reserved":false,"is_disabled":false,"rental_uris":{"android":"levelo://app?vid=922f6d27-6a19-4cb1-a238-b47d10dfa404","ios":"levelo://app?vid=922f6d27-6a19-4cb1-a238-b47d10dfa404"},"vehicle_type_id":"4","last_reported":1719061791,"current_range_meters":18000,"station_id":"ce4bht12rcd13ifvqi60","pricing_plan_id":"cebpf4jnsgd1na2vs0mg"},{"bike_id":"a3071c01-f853-455f-b070-0f56cfea29ee","system_id":"levelo_inurba_marseille","lat":43.286039,"lon":5.370679,"is_reserved":false,"is_disabled":false,"rental_uris":{"android":"levelo://app?vid=a3071c01-f853-455f-b070-0f56cfea29ee","ios":"levelo://app?vid=a3071c01-f853-455f-b070-0f56cfea29ee"},"vehicle_type_id":"4","last_reported":1719061791,"current_range_meters":28400,"station_id":"ce4bht12rcd13ifvqi60","pricing_plan_id":"cebpf4jnsgd1na2vs0mg"},{"bike_id":"751801d1-9ae8-4900-8710-34864c101769","system_id":"levelo_inurba_marseille","lat":43.287185,"lon":5.379373,"is_reserved":false,"is_disabled":false,"rental_uris":{"android":"levelo://app?vid=751801d1-9ae8-4900-8710-34864c101769","ios":"levelo://app?vid=751801d1-9ae8-4900-8710-34864c101769"},"vehicle_type_id":"4","last_reported":1719061791,"current_range_meters":26800,"station_id":"ce4bh9p2rcd13ifvqec0","pricing_plan_id":"cebpf4jnsgd1na2vs0mg"},{"bike_id":"0e415e66-6248-4eb8-a570-f3c343b27f00","system_id":"levelo_inurba_marseille","lat":43.287184,"lon":5.37937,"is_reserved":false,"is_disabled":false,"rental_uris":{"android":"levelo://app?vid=0e415e66-6248-4eb8-a570-f3c343b27f00","ios":"levelo://app?vid=0e415e66-6248-4eb8-a570-f3c343b27f00"},"vehicle_type_id":"4","last_reported":1719061791,"current_range_meters":24400,"station_id":"ce4bh9p2rcd13ifvqec0","pricing_plan_id":"cebpf4jnsgd1na2vs0mg"},{"bike_id":"9fcc5896-290b-4760-9b52-046c8ecd9987","system_id":"levelo_inurba_marseille","lat":43.287184,"lon":5.37937,"is_reserved":false,"is_disabled":false,"rental_uris":{"android":"levelo://app?vid=9fcc5896-290b-4760-9b52-046c8ecd9987","ios":"levelo://app?vid=9fcc5896-290b-4760-9b52-046c8ecd9987"},"vehicle_type_id":"4","last_reported":1719061791,"current_range_meters":20800,"station_id":"ce4bh9p2rcd13ifvqec0","pricing_plan_id":"cebpf4jnsgd1na2vs0mg"},{"bike_id":"32890be1-fa42-4aff-9d93-43fac31162d3","system_id":"levelo_inurba_marseille","lat":43.287185,"lon":5.379373,"is_reserved":false,"is_disabled":false,"rental_uris":{"android":"levelo://app?vid=32890be1-fa42-4aff-9d93-43fac31162d3","ios":"levelo://app?vid=32890be1-fa42-4aff-9d93-43fac31162d3"},"vehicle_type_id":"4","last_reported":1719061791,"current_range_meters":14800,"station_id":"ce4bh9p2rcd13ifvqec0","pricing_plan_id":"cebpf4jnsgd1na2vs0mg"},{"bike_id":"fc204e8d-0a8c-4e3c-a1f5-374c41ddabd3","system_id":"levelo_inurba_marseille","lat":43.3169,"lon":5.40471,"is_reserved":false,"is_disabled":false,"rental_uris":{"android":"levelo://app?vid=fc204e8d-0a8c-4e3c-a1f5-374c41ddabd3","ios":"levelo://app?vid=fc204e8d-0a8c-4e3c-a1f5-374c41ddabd3"},"vehicle_type_id":"4","last_reported":1719061791,"current_range_meters":400,"station_id":"ce4bh012rcd13ifvqd00","pricing_plan_id":"cebpf4jnsgd1na2vs0mg"},{"bike_id":"19988991-f8b1-46fa-91d9-df39cb76cb2e","system_id":"levelo_inurba_marseille","lat":43.284538,"lon":5.358657,"is_reserved":false,"is_disabled":false,"rental_uris":{"android":"levelo://app?vid=19988991-f8b1-46fa-91d9-df39cb76cb2e","ios":"levelo://app?vid=19988991-f8b1-46fa-91d9-df39cb76cb2e"},"vehicle_type_id":"4","last_reported":1719061791,"current_range_meters":16000,"station_id":"ce4bhah2rcd13ifvqei0","pricing_plan_id":"cebpf4jnsgd1na2vs0mg"},{"bike_id":"576d956d-e05d-45d4-bce6-08603ec6d051","system_id":"levelo_inurba_marseille","lat":43.284534,"lon":5.358662,"is_reserved":false,"is_disabled":false,"rental_uris":{"android":"levelo://app?vid=576d956d-e05d-45d4-bce6-08603ec6d051","ios":"levelo://app?vid=576d956d-e05d-45d4-bce6-08603ec6d051"},"vehicle_type_id":"4","last_reported":1719061791,"current_range_meters":25200,"station_id":"ce4bhah2rcd13ifvqei0","pricing_plan_id":"cebpf4jnsgd1na2vs0mg"},{"bike_id":"6a26bdc1-44c7-4843-9184-f0157a40eb23","system_id":"levelo_inurba_marseille","lat":43.284538,"lon":5.358657,"is_reserved":false,"is_disabled":false,"rental_uris":{"android":"levelo://app?vid=6a26bdc1-44c7-4843-9184-f0157a40eb23","ios":"levelo://app?vid=6a26bdc1-44c7-4843-9184-f0157a40eb23"},"vehicle_type_id":"4","last_reported":1719061791,"current_range_meters":8000,"station_id":"ce4bhah2rcd13ifvqei0","pricing_plan_id":"cebpf4jnsgd1na2vs0mg"},{"bike_id":"4278c964-b558-429a-aad4-3e5e14689eae","system_id":"levelo_inurba_marseille","lat":43.285856,"lon":5.350771,"is_reserved":false,"is_disabled":false,"rental_uris":{"android":"levelo://app?vid=4278c964-b558-429a-aad4-3e5e14689eae","ios":"levelo://app?vid=4278c964-b558-429a-aad4-3e5e14689eae"},"vehicle_type_id":"4","last_reported":1719061791,"current_range_meters":24000,"station_id":"ce4bhch2rcd13ifvqeug","pricing_plan_id":"cebpf4jnsgd1na2vs0mg"},{"bike_id":"41908c4c-9bb1-472e-ac91-42d2d039b13e","system_id":"levelo_inurba_marseille","lat":43.285856,"lon":5.350771,"is_reserved":false,"is_disabled":false,"rental_uris":{"android":"levelo://app?vid=41908c4c-9bb1-472e-ac91-42d2d039b13e","ios":"levelo://app?vid=41908c4c-9bb1-472e-ac91-42d2d039b13e"},"vehicle_type_id":"4","last_reported":1719061791,"current_range_meters":26000,"station_id":"ce4bhch2rcd13ifvqeug","pricing_plan_id":"cebpf4jnsgd1na2vs0mg"},{"bike_id":"c3189352-324e-4166-bc3e-0861ef943e6a","system_id":"levelo_inurba_marseille","lat":43.285856,"lon":5.350771,"is_reserved":false,"is_disabled":false,"rental_uris":{"android":"levelo://app?vid=c3189352-324e-4166-bc3e-0861ef943e6a","ios":"levelo://app?vid=c3189352-324e-4166-bc3e-0861ef943e6a"},"vehicle_type_id":"4","last_reported":1719061791,"current_range_meters":31200,"station_id":"ce4bhch2rcd13ifvqeug","pricing_plan_id":"cebpf4jnsgd1na2vs0mg"},{"bike_id":"ba475ed1-bba9-4548-98eb-990e97e1d8d2","system_id":"levelo_inurba_marseille","lat":43.285856,"lon":5.350771,"is_reserved":false,"is_disabled":false,"rental_uris":{"android":"levelo://app?vid=ba475ed1-bba9-4548-98eb-990e97e1d8d2","ios":"levelo://app?vid=ba475ed1-bba9-4548-98eb-990e97e1d8d2"},"vehicle_type_id":"4","last_reported":1719061791,"current_range_meters":31200,"station_id":"ce4bhch2rcd13ifvqeug","pricing_plan_id":"cebpf4jnsgd1na2vs0mg"},{"bike_id":"827468de-2485-4c08-b3bd-159c883cd27e","system_id":"levelo_inurba_marseille","lat":43.285856,"lon":5.350771,"is_reserved":false,"is_disabled":false,"rental_uris":{"android":"levelo://app?vid=827468de-2485-4c08-b3bd-159c883cd27e","ios":"levelo://app?vid=827468de-2485-4c08-b3bd-159c883cd27e"},"vehicle_type_id":"4","last_reported":1719061791,"current_range_meters":12400,"station_id":"ce4bhch2rcd13ifvqeug","pricing_plan_id":"cebpf4jnsgd1na2vs0mg"},{"bike_id":"7b335911-cee6-4862-a933-4fa085fc91b1","system_id":"levelo_inurba_marseille","lat":43.285856,"lon":5.350771,"is_reserved":false,"is_disabled":false,"rental_uris":{"android":"levelo://app?vid=7b335911-cee6-4862-a933-4fa085fc91b1","ios":"levelo://app?vid=7b335911-cee6-4862-a933-4fa085fc91b1"},"vehicle_type_id":"4","last_reported":1719061791,"current_range_meters":12400,"station_id":"ce4bhch2rcd13ifvqeug","pricing_plan_id":"cebpf4jnsgd1na2vs0mg"},{"bike_id":"e0c376c2-f6cc-479d-9a38-86dd59f91a37","system_id":"levelo_inurba_marseille","lat":43.285856,"lon":5.350771,"is_reserved":false,"is_disabled":false,"rental_uris":{"android":"levelo://app?vid=e0c376c2-f6cc-479d-9a38-86dd59f91a37","ios":"levelo://app?vid=e0c376c2-f6cc-479d-9a38-86dd59f91a37"},"vehicle_type_id":"4","last_reported":1719061791,"current_range_meters":18800,"station_id":"ce4bhch2rcd13ifvqeug","pricing_plan_id":"cebpf4jnsgd1na2vs0mg"},{"bike_id":"362abefe-59ff-49d9-aaec-badb97b486db","system_id":"levelo_inurba_marseille","lat":43.28619,"lon":5.35101,"is_reserved":false,"is_disabled":false,"rental_uris":{"android":"levelo://app?vid=362abefe-59ff-49d9-aaec-badb97b486db","ios":"levelo://app?vid=362abefe-59ff-49d9-aaec-badb97b486db"},"vehicle_type_id":"4","last_reported":1719061791,"current_range_meters":23200,"station_id":"ce4bhch2rcd13ifvqeug","pricing_plan_id":"cebpf4jnsgd1na2vs0mg"},{"bike_id":"010c56d3-b2cc-4b45-a0b6-b71d09c4ab24","system_id":"levelo_inurba_marseille","lat":43.285856,"lon":5.350771,"is_reserved":false,"is_disabled":false,"rental_uris":{"android":"levelo://app?vid=010c56d3-b2cc-4b45-a0b6-b71d09c4ab24","ios":"levelo://app?vid=010c56d3-b2cc-4b45-a0b6-b71d09c4ab24"},"vehicle_type_id":"4","last_reported":1719061791,"current_range_meters":25600,"station_id":"ce4bhch2rcd13ifvqeug","pricing_plan_id":"cebpf4jnsgd1na2vs0mg"},{"bike_id":"6800d9f7-4a5b-4098-a4e4-94458935c1f1","system_id":"levelo_inurba_marseille","lat":43.285856,"lon":5.350771,"is_reserved":false,"is_disabled":false,"rental_uris":{"android":"levelo://app?vid=6800d9f7-4a5b-4098-a4e4-94458935c1f1","ios":"levelo://app?vid=6800d9f7-4a5b-4098-a4e4-94458935c1f1"},"vehicle_type_id":"4","last_reported":1719061791,"current_range_meters":31600,"station_id":"ce4bhch2rcd13ifvqeug","pricing_plan_id":"cebpf4jnsgd1na2vs0mg"},{"bike_id":"640095f8-9a53-47c7-8d65-ee0c5177d120","system_id":"levelo_inurba_marseille","lat":43.28617,"lon":5.35099,"is_reserved":false,"is_disabled":false,"rental_uris":{"android":"levelo://app?vid=640095f8-9a53-47c7-8d65-ee0c5177d120","ios":"levelo://app?vid=640095f8-9a53-47c7-8d65-ee0c5177d120"},"vehicle_type_id":"4","last_reported":1719061791,"current_range_meters":27600,"station_id":"ce4bhch2rcd13ifvqeug","pricing_plan_id":"cebpf4jnsgd1na2vs0mg"},{"bike_id":"71138d76-8d74-4964-8b32-5b5e49ec7d8a","system_id":"levelo_inurba_marseille","lat":43.28617,"lon":5.35095,"is_reserved":false,"is_disabled":false,"rental_uris":{"android":"levelo://app?vid=71138d76-8d74-4964-8b32-5b5e49ec7d8a","ios":"levelo://app?vid=71138d76-8d74-4964-8b32-5b5e49ec7d8a"},"vehicle_type_id":"4","last_reported":1719061791,"current_range_meters":20800,"station_id":"ce4bhch2rcd13ifvqeug","pricing_plan_id":"cebpf4jnsgd1na2vs0mg"},{"bike_id":"0ff6a91b-3492-40ea-9ec0-829f60e79fce","system_id":"levelo_inurba_marseille","lat":43.28617,"lon":5.35094,"is_reserved":false,"is_disabled":false,"rental_uris":{"android":"levelo://app?vid=0ff6a91b-3492-40ea-9ec0-829f60e79fce","ios":"levelo://app?vid=0ff6a91b-3492-40ea-9ec0-829f60e79fce"},"vehicle_type_id":"4","last_reported":1719061791,"current_range_meters":19600,"station_id":"ce4bhch2rcd13ifvqeug","pricing_plan_id":"cebpf4jnsgd1na2vs0mg"},{"bike_id":"5520ecf8-263e-489a-a0ac-0031491f54c2","system_id":"levelo_inurba_marseille","lat":43.28612,"lon":5.35101,"is_reserved":false,"is_disabled":false,"rental_uris":{"android":"levelo://app?vid=5520ecf8-263e-489a-a0ac-0031491f54c2","ios":"levelo://app?vid=5520ecf8-263e-489a-a0ac-0031491f54c2"},"vehicle_type_id":"4","last_reported":1719061791,"current_range_meters":20400,"station_id":"ce4bhch2rcd13ifvqeug","pricing_plan_id":"cebpf4jnsgd1na2vs0mg"},{"bike_id":"8226edc2-2561-474f-ae75-235665d106da","system_id":"levelo_inurba_marseille","lat":43.283998,"lon":5.375062,"is_reserved":false,"is_disabled":false,"rental_uris":{"android":"levelo://app?vid=8226edc2-2561-474f-ae75-235665d106da","ios":"levelo://app?vid=8226edc2-2561-474f-ae75-235665d106da"},"vehicle_type_id":"4","last_reported":1719061791,"current_range_meters":5200,"station_id":"ce4bh412rcd13ifvqds0","pricing_plan_id":"cebpf4jnsgd1na2vs0mg"},{"bike_id":"9f1fa5af-33b9-400d-909a-571556f199dd","system_id":"levelo_inurba_marseille","lat":43.283998,"lon":5.375062,"is_reserved":false,"is_disabled":false,"rental_uris":{"android":"levelo://app?vid=9f1fa5af-33b9-400d-909a-571556f199dd","ios":"levelo://app?vid=9f1fa5af-33b9-400d-909a-571556f199dd"},"vehicle_type_id":"4","last_reported":1719061791,"current_range_meters":11200,"station_id":"ce4bh412rcd13ifvqds0","pricing_plan_id":"cebpf4jnsgd1na2vs0mg"},{"bike_id":"ce5c7aec-5656-4d2a-b0a7-f2dafdb6a129","system_id":"levelo_inurba_marseille","lat":43.284534,"lon":5.358662,"is_reserved":false,"is_disabled":false,"rental_uris":{"android":"levelo://app?vid=ce5c7aec-5656-4d2a-b0a7-f2dafdb6a129","ios":"levelo://app?vid=ce5c7aec-5656-4d2a-b0a7-f2dafdb6a129"},"vehicle_type_id":"4","last_reported":1719061791,"current_range_meters":6400,"station_id":"ce4bhah2rcd13ifvqei0","pricing_plan_id":"cebpf4jnsgd1na2vs0mg"},{"bike_id":"c147c014-ba06-42a5-a058-6c93ee625f00","system_id":"levelo_inurba_marseille","lat":43.286595,"lon":5.386795,"is_reserved":false,"is_disabled":false,"rental_uris":{"android":"levelo://app?vid=c147c014-ba06-42a5-a058-6c93ee625f00","ios":"levelo://app?vid=c147c014-ba06-42a5-a058-6c93ee625f00"},"vehicle_type_id":"4","last_reported":1719061791,"current_range_meters":14400,"station_id":"ce4bh492rcd13ifvqdug","pricing_plan_id":"cebpf4jnsgd1na2vs0mg"},{"bike_id":"67047250-8321-4261-b8de-8c095a8ce691","system_id":"levelo_inurba_marseille","lat":43.28531,"lon":5.35026,"is_reserved":false,"is_disabled":false,"rental_uris":{"android":"levelo://app?vid=67047250-8321-4261-b8de-8c095a8ce691","ios":"levelo://app?vid=67047250-8321-4261-b8de-8c095a8ce691"},"vehicle_type_id":"4","last_reported":1719061791,"current_range_meters":20000,"station_id":"","pricing_plan_id":"cebpf4jnsgd1na2vs0mg"},{"bike_id":"a27cb097-39ff-437f-a867-15fa7978d13b","system_id":"levelo_inurba_marseille","lat":43.319179,"lon":5.407725,"is_reserved":false,"is_disabled":false,"rental_uris":{"android":"levelo://app?vid=a27cb097-39ff-437f-a867-15fa7978d13b","ios":"levelo://app?vid=a27cb097-39ff-437f-a867-15fa7978d13b"},"vehicle_type_id":"4","last_reported":1719061791,"current_range_meters":31200,"station_id":"ce4bhq12rcd13ifvqhig","pricing_plan_id":"cebpf4jnsgd1na2vs0mg"},{"bike_id":"00b33e56-fc24-4155-b283-1169a52b411f","system_id":"levelo_inurba_marseille","lat":43.28527,"lon":5.3503,"is_reserved":false,"is_disabled":false,"rental_uris":{"android":"levelo://app?vid=00b33e56-fc24-4155-b283-1169a52b411f","ios":"levelo://app?vid=00b33e56-fc24-4155-b283-1169a52b411f"},"vehicle_type_id":"4","last_reported":1719061791,"current_range_meters":20800,"station_id":"","pricing_plan_id":"cebpf4jnsgd1na2vs0mg"},{"bike_id":"b330a23e-dedf-4f81-8597-796082354e60","system_id":"levelo_inurba_marseille","lat":43.31888,"lon":5.40736,"is_reserved":false,"is_disabled":false,"rental_uris":{"android":"levelo://app?vid=b330a23e-dedf-4f81-8597-796082354e60","ios":"levelo://app?vid=b330a23e-dedf-4f81-8597-796082354e60"},"vehicle_type_id":"4","last_reported":1719061791,"current_range_meters":0,"station_id":"ce4bhq12rcd13ifvqhig","pricing_plan_id":"cebpf4jnsgd1na2vs0mg"},{"bike_id":"3720418d-da95-43ab-883e-5ec4534758a0","system_id":"levelo_inurba_marseille","lat":43.337168,"lon":5.391825,"is_reserved":false,"is_disabled":false,"rental_uris":{"android":"levelo://app?vid=3720418d-da95-43ab-883e-5ec4534758a0","ios":"levelo://app?vid=3720418d-da95-43ab-883e-5ec4534758a0"},"vehicle_type_id":"4","last_reported":1719061791,"current_range_meters":7200,"station_id":"ce4bhr92rcd13ifvqhsg","pricing_plan_id":"cebpf4jnsgd1na2vs0mg"},{"bike_id":"b3916497-59ca-4da9-b86b-678aff8f6f3a","system_id":"levelo_inurba_marseille","lat":43.33717,"lon":5.391857,"is_reserved":false,"is_disabled":false,"rental_uris":{"android":"levelo://app?vid=b3916497-59ca-4da9-b86b-678aff8f6f3a","ios":"levelo://app?vid=b3916497-59ca-4da9-b86b-678aff8f6f3a"},"vehicle_type_id":"4","last_reported":1719061791,"current_range_meters":26800,"station_id":"ce4bhr92rcd13ifvqhsg","pricing_plan_id":"cebpf4jnsgd1na2vs0mg"},{"bike_id":"beaff9a6-7225-49b6-a5a0-24ee2746a310","system_id":"levelo_inurba_marseille","lat":43.337168,"lon":5.391825,"is_reserved":false,"is_disabled":false,"rental_uris":{"android":"levelo://app?vid=beaff9a6-7225-49b6-a5a0-24ee2746a310","ios":"levelo://app?vid=beaff9a6-7225-49b6-a5a0-24ee2746a310"},"vehicle_type_id":"4","last_reported":1719061791,"current_range_meters":10000,"station_id":"ce4bhr92rcd13ifvqhsg","pricing_plan_id":"cebpf4jnsgd1na2vs0mg"},{"bike_id":"5500f12e-b909-4c25-98de-c1d58ae9bff2","system_id":"levelo_inurba_marseille","lat":43.33731,"lon":5.39183,"is_reserved":false,"is_disabled":false,"rental_uris":{"android":"levelo://app?vid=5500f12e-b909-4c25-98de-c1d58ae9bff2","ios":"levelo://app?vid=5500f12e-b909-4c25-98de-c1d58ae9bff2"},"vehicle_type_id":"4","last_reported":1719061791,"current_range_meters":0,"station_id":"ce4bhr92rcd13ifvqhsg","pricing_plan_id":"cebpf4jnsgd1na2vs0mg"},{"bike_id":"eb9accb7-7f6c-409e-9f6f-589f51b204be","system_id":"levelo_inurba_marseille","lat":43.323464,"lon":5.406297,"is_reserved":false,"is_disabled":false,"rental_uris":{"android":"levelo://app?vid=eb9accb7-7f6c-409e-9f6f-589f51b204be","ios":"levelo://app?vid=eb9accb7-7f6c-409e-9f6f-589f51b204be"},"vehicle_type_id":"4","last_reported":1719061791,"current_range_meters":23200,"station_id":"ce4bhq92rcd13ifvqhjg","pricing_plan_id":"cebpf4jnsgd1na2vs0mg"},{"bike_id":"d8b17d29-8b4b-4a6a-bada-b477a750ca64","system_id":"levelo_inurba_marseille","lat":43.33717,"lon":5.391857,"is_reserved":false,"is_disabled":false,"rental_uris":{"android":"levelo://app?vid=d8b17d29-8b4b-4a6a-bada-b477a750ca64","ios":"levelo://app?vid=d8b17d29-8b4b-4a6a-bada-b477a750ca64"},"vehicle_type_id":"4","last_reported":1719061791,"current_range_meters":15600,"station_id":"ce4bhr92rcd13ifvqhsg","pricing_plan_id":"cebpf4jnsgd1na2vs0mg"},{"bike_id":"404a665e-5106-49dc-9725-792a74c363b6","system_id":"levelo_inurba_marseille","lat":43.337168,"lon":5.391825,"is_reserved":false,"is_disabled":false,"rental_uris":{"android":"levelo://app?vid=404a665e-5106-49dc-9725-792a74c363b6","ios":"levelo://app?vid=404a665e-5106-49dc-9725-792a74c363b6"},"vehicle_type_id":"4","last_reported":1719061791,"current_range_meters":16800,"station_id":"ce4bhr92rcd13ifvqhsg","pricing_plan_id":"cebpf4jnsgd1na2vs0mg"},{"bike_id":"3456df17-d142-43b1-a1f0-c9b2b09f666b","system_id":"levelo_inurba_marseille","lat":43.297946,"lon":5.404063,"is_reserved":false,"is_disabled":false,"rental_uris":{"android":"levelo://app?vid=3456df17-d142-43b1-a1f0-c9b2b09f666b","ios":"levelo://app?vid=3456df17-d142-43b1-a1f0-c9b2b09f666b"},"vehicle_type_id":"4","last_reported":1719061791,"current_range_meters":11600,"station_id":"ce4bh112rcd13ifvqd90","pricing_plan_id":"cebpf4jnsgd1na2vs0mg"},{"bike_id":"322d0d3a-6429-4f9e-88de-d137a8574fcb","system_id":"levelo_inurba_marseille","lat":43.288501,"lon":5.393087,"is_reserved":false,"is_disabled":false,"rental_uris":{"android":"levelo://app?vid=322d0d3a-6429-4f9e-88de-d137a8574fcb","ios":"levelo://app?vid=322d0d3a-6429-4f9e-88de-d137a8574fcb"},"vehicle_type_id":"4","last_reported":1719061791,"current_range_meters":19600,"station_id":"ce4bh2p2rcd13ifvqdi0","pricing_plan_id":"cebpf4jnsgd1na2vs0mg"},{"bike_id":"ebd01647-4578-409a-83c8-fb943fbbef1f","system_id":"levelo_inurba_marseille","lat":43.284776,"lon":5.385603,"is_reserved":false,"is_disabled":false,"rental_uris":{"android":"levelo://app?vid=ebd01647-4578-409a-83c8-fb943fbbef1f","ios":"levelo://app?vid=ebd01647-4578-409a-83c8-fb943fbbef1f"},"vehicle_type_id":"4","last_reported":1719061791,"current_range_meters":0,"station_id":"ce4bh8p2rcd13ifvqeb0","pricing_plan_id":"cebpf4jnsgd1na2vs0mg"},{"bike_id":"55167b00-4258-4419-a2ab-d0a73c2a43fd","system_id":"levelo_inurba_marseille","lat":43.288497,"lon":5.393089,"is_reserved":false,"is_disabled":false,"rental_uris":{"android":"levelo://app?vid=55167b00-4258-4419-a2ab-d0a73c2a43fd","ios":"levelo://app?vid=55167b00-4258-4419-a2ab-d0a73c2a43fd"},"vehicle_type_id":"4","last_reported":1719061791,"current_range_meters":2800,"station_id":"ce4bh2p2rcd13ifvqdi0","pricing_plan_id":"cebpf4jnsgd1na2vs0mg"},{"bike_id":"37128c58-8291-42b2-9f89-6426a48f6ebf","system_id":"levelo_inurba_marseille","lat":43.28432,"lon":5.34986,"is_reserved":false,"is_disabled":false,"rental_uris":{"android":"levelo://app?vid=37128c58-8291-42b2-9f89-6426a48f6ebf","ios":"levelo://app?vid=37128c58-8291-42b2-9f89-6426a48f6ebf"},"vehicle_type_id":"4","last_reported":1719061791,"current_range_meters":5600,"station_id":"ce4bhbh2rcd13ifvqepg","pricing_plan_id":"cebpf4jnsgd1na2vs0mg"},{"bike_id":"b82c05ff-c9f1-44eb-b55a-b191abf53ddf","system_id":"levelo_inurba_marseille","lat":43.28429,"lon":5.34994,"is_reserved":false,"is_disabled":false,"rental_uris":{"android":"levelo://app?vid=b82c05ff-c9f1-44eb-b55a-b191abf53ddf","ios":"levelo://app?vid=b82c05ff-c9f1-44eb-b55a-b191abf53ddf"},"vehicle_type_id":"4","last_reported":1719061791,"current_range_meters":24000,"station_id":"ce4bhbh2rcd13ifvqepg","pricing_plan_id":"cebpf4jnsgd1na2vs0mg"},{"bike_id":"35609a37-a38a-4a91-9f91-96cd104e50ce","system_id":"levelo_inurba_marseille","lat":43.28457,"lon":5.38478,"is_reserved":false,"is_disabled":false,"rental_uris":{"android":"levelo://app?vid=35609a37-a38a-4a91-9f91-96cd104e50ce","ios":"levelo://app?vid=35609a37-a38a-4a91-9f91-96cd104e50ce"},"vehicle_type_id":"4","last_reported":1719061791,"current_range_meters":26800,"station_id":"","pricing_plan_id":"cebpf4jnsgd1na2vs0mg"},{"bike_id":"36da940f-fb48-4ec1-b0f7-67c753e300af","system_id":"levelo_inurba_marseille","lat":43.284219,"lon":5.3497,"is_reserved":false,"is_disabled":false,"rental_uris":{"android":"levelo://app?vid=36da940f-fb48-4ec1-b0f7-67c753e300af","ios":"levelo://app?vid=36da940f-fb48-4ec1-b0f7-67c753e300af"},"vehicle_type_id":"4","last_reported":1719061791,"current_range_meters":31200,"station_id":"ce4bhbh2rcd13ifvqepg","pricing_plan_id":"cebpf4jnsgd1na2vs0mg"},{"bike_id":"138582a4-5b51-405e-8998-6ddaf705d26e","system_id":"levelo_inurba_marseille","lat":43.284219,"lon":5.3497,"is_reserved":false,"is_disabled":false,"rental_uris":{"android":"levelo://app?vid=138582a4-5b51-405e-8998-6ddaf705d26e","ios":"levelo://app?vid=138582a4-5b51-405e-8998-6ddaf705d26e"},"vehicle_type_id":"4","last_reported":1719061791,"current_range_meters":10400,"station_id":"ce4bhbh2rcd13ifvqepg","pricing_plan_id":"cebpf4jnsgd1na2vs0mg"},{"bike_id":"61018472-8e78-4daf-9d49-84887d9c9a03","system_id":"levelo_inurba_marseille","lat":43.284217,"lon":5.349697,"is_reserved":false,"is_disabled":false,"rental_uris":{"android":"levelo://app?vid=61018472-8e78-4daf-9d49-84887d9c9a03","ios":"levelo://app?vid=61018472-8e78-4daf-9d49-84887d9c9a03"},"vehicle_type_id":"4","last_reported":1719061791,"current_range_meters":22800,"station_id":"ce4bhbh2rcd13ifvqepg","pricing_plan_id":"cebpf4jnsgd1na2vs0mg"},{"bike_id":"8c2e4777-1286-4e7d-bca1-673d1c9c4d97","system_id":"levelo_inurba_marseille","lat":43.28425,"lon":5.3499,"is_reserved":false,"is_disabled":false,"rental_uris":{"android":"levelo://app?vid=8c2e4777-1286-4e7d-bca1-673d1c9c4d97","ios":"levelo://app?vid=8c2e4777-1286-4e7d-bca1-673d1c9c4d97"},"vehicle_type_id":"4","last_reported":1719061791,"current_range_meters":16800,"station_id":"ce4bhbh2rcd13ifvqepg","pricing_plan_id":"cebpf4jnsgd1na2vs0mg"},{"bike_id":"efb081cb-25e3-40a3-b1de-3782a753cec9","system_id":"levelo_inurba_marseille","lat":43.28425,"lon":5.34987,"is_reserved":false,"is_disabled":false,"rental_uris":{"android":"levelo://app?vid=efb081cb-25e3-40a3-b1de-3782a753cec9","ios":"levelo://app?vid=efb081cb-25e3-40a3-b1de-3782a753cec9"},"vehicle_type_id":"4","last_reported":1719061791,"current_range_meters":14000,"station_id":"ce4bhbh2rcd13ifvqepg","pricing_plan_id":"cebpf4jnsgd1na2vs0mg"},{"bike_id":"9e729c20-c545-4727-853c-e27993e7ddc3","system_id":"levelo_inurba_marseille","lat":43.284217,"lon":5.349697,"is_reserved":false,"is_disabled":false,"rental_uris":{"android":"levelo://app?vid=9e729c20-c545-4727-853c-e27993e7ddc3","ios":"levelo://app?vid=9e729c20-c545-4727-853c-e27993e7ddc3"},"vehicle_type_id":"4","last_reported":1719061791,"current_range_meters":20400,"station_id":"ce4bhbh2rcd13ifvqepg","pricing_plan_id":"cebpf4jnsgd1na2vs0mg"},{"bike_id":"21087f0b-c76c-4ae6-8862-9b7e4119c534","system_id":"levelo_inurba_marseille","lat":43.284217,"lon":5.349697,"is_reserved":false,"is_disabled":false,"rental_uris":{"android":"levelo://app?vid=21087f0b-c76c-4ae6-8862-9b7e4119c534","ios":"levelo://app?vid=21087f0b-c76c-4ae6-8862-9b7e4119c534"},"vehicle_type_id":"4","last_reported":1719061791,"current_range_meters":31200,"station_id":"ce4bhbh2rcd13ifvqepg","pricing_plan_id":"cebpf4jnsgd1na2vs0mg"},{"bike_id":"fc6fe18f-327f-41b1-9f09-38873f734560","system_id":"levelo_inurba_marseille","lat":43.284217,"lon":5.349697,"is_reserved":false,"is_disabled":false,"rental_uris":{"android":"levelo://app?vid=fc6fe18f-327f-41b1-9f09-38873f734560","ios":"levelo://app?vid=fc6fe18f-327f-41b1-9f09-38873f734560"},"vehicle_type_id":"4","last_reported":1719061791,"current_range_meters":25600,"station_id":"ce4bhbh2rcd13ifvqepg","pricing_plan_id":"cebpf4jnsgd1na2vs0mg"},{"bike_id":"368ecf0d-825a-4169-a503-4c050e9f2f47","system_id":"levelo_inurba_marseille","lat":43.28427,"lon":5.34975,"is_reserved":false,"is_disabled":false,"rental_uris":{"android":"levelo://app?vid=368ecf0d-825a-4169-a503-4c050e9f2f47","ios":"levelo://app?vid=368ecf0d-825a-4169-a503-4c050e9f2f47"},"vehicle_type_id":"4","last_reported":1719061791,"current_range_meters":7600,"station_id":"ce4bhbh2rcd13ifvqepg","pricing_plan_id":"cebpf4jnsgd1na2vs0mg"},{"bike_id":"edabd08b-0878-4151-969b-869a0968a9ee","system_id":"levelo_inurba_marseille","lat":43.284214,"lon":5.349706,"is_reserved":false,"is_disabled":false,"rental_uris":{"android":"levelo://app?vid=edabd08b-0878-4151-969b-869a0968a9ee","ios":"levelo://app?vid=edabd08b-0878-4151-969b-869a0968a9ee"},"vehicle_type_id":"4","last_reported":1719061791,"current_range_meters":12800,"station_id":"ce4bhbh2rcd13ifvqepg","pricing_plan_id":"cebpf4jnsgd1na2vs0mg"},{"bike_id":"ba7fe97c-c1f2-4fc0-ae85-eb510d970a28","system_id":"levelo_inurba_marseille","lat":43.28423,"lon":5.34982,"is_reserved":false,"is_disabled":false,"rental_uris":{"android":"levelo://app?vid=ba7fe97c-c1f2-4fc0-ae85-eb510d970a28","ios":"levelo://app?vid=ba7fe97c-c1f2-4fc0-ae85-eb510d970a28"},"vehicle_type_id":"4","last_reported":1719061791,"current_range_meters":13600,"station_id":"ce4bhbh2rcd13ifvqepg","pricing_plan_id":"cebpf4jnsgd1na2vs0mg"},{"bike_id":"4bab2c7b-9020-40f9-a78b-ec964503fedb","system_id":"levelo_inurba_marseille","lat":43.28422,"lon":5.34983,"is_reserved":false,"is_disabled":false,"rental_uris":{"android":"levelo://app?vid=4bab2c7b-9020-40f9-a78b-ec964503fedb","ios":"levelo://app?vid=4bab2c7b-9020-40f9-a78b-ec964503fedb"},"vehicle_type_id":"4","last_reported":1719061791,"current_range_meters":28800,"station_id":"ce4bhbh2rcd13ifvqepg","pricing_plan_id":"cebpf4jnsgd1na2vs0mg"},{"bike_id":"c4863644-6fe6-4a0c-a50f-a261a340db86","system_id":"levelo_inurba_marseille","lat":43.284217,"lon":5.349697,"is_reserved":false,"is_disabled":false,"rental_uris":{"android":"levelo://app?vid=c4863644-6fe6-4a0c-a50f-a261a340db86","ios":"levelo://app?vid=c4863644-6fe6-4a0c-a50f-a261a340db86"},"vehicle_type_id":"4","last_reported":1719061791,"current_range_meters":6800,"station_id":"ce4bhbh2rcd13ifvqepg","pricing_plan_id":"cebpf4jnsgd1na2vs0mg"},{"bike_id":"765f0d88-f5da-4130-862a-e4b66ce61267","system_id":"levelo_inurba_marseille","lat":43.284217,"lon":5.349697,"is_reserved":false,"is_disabled":false,"rental_uris":{"android":"levelo://app?vid=765f0d88-f5da-4130-862a-e4b66ce61267","ios":"levelo://app?vid=765f0d88-f5da-4130-862a-e4b66ce61267"},"vehicle_type_id":"4","last_reported":1719061791,"current_range_meters":23600,"station_id":"ce4bhbh2rcd13ifvqepg","pricing_plan_id":"cebpf4jnsgd1na2vs0mg"},{"bike_id":"81266079-914c-4946-90c1-03f2ffd779f2","system_id":"levelo_inurba_marseille","lat":43.284217,"lon":5.349697,"is_reserved":false,"is_disabled":false,"rental_uris":{"android":"levelo://app?vid=81266079-914c-4946-90c1-03f2ffd779f2","ios":"levelo://app?vid=81266079-914c-4946-90c1-03f2ffd779f2"},"vehicle_type_id":"4","last_reported":1719061791,"current_range_meters":28000,"station_id":"ce4bhbh2rcd13ifvqepg","pricing_plan_id":"cebpf4jnsgd1na2vs0mg"},{"bike_id":"fba41aab-424b-417b-bf63-fc2cc05351de","system_id":"levelo_inurba_marseille","lat":43.284217,"lon":5.349697,"is_reserved":false,"is_disabled":false,"rental_uris":{"android":"levelo://app?vid=fba41aab-424b-417b-bf63-fc2cc05351de","ios":"levelo://app?vid=fba41aab-424b-417b-bf63-fc2cc05351de"},"vehicle_type_id":"4","last_reported":1719061791,"current_range_meters":17600,"station_id":"ce4bhbh2rcd13ifvqepg","pricing_plan_id":"cebpf4jnsgd1na2vs0mg"},{"bike_id":"b99f8962-9dcd-4854-9d88-27584e0f5681","system_id":"levelo_inurba_marseille","lat":43.284217,"lon":5.349697,"is_reserved":false,"is_disabled":false,"rental_uris":{"android":"levelo://app?vid=b99f8962-9dcd-4854-9d88-27584e0f5681","ios":"levelo://app?vid=b99f8962-9dcd-4854-9d88-27584e0f5681"},"vehicle_type_id":"4","last_reported":1719061791,"current_range_meters":10800,"station_id":"ce4bhbh2rcd13ifvqepg","pricing_plan_id":"cebpf4jnsgd1na2vs0mg"},{"bike_id":"7ec6bf83-aa5a-497f-b3b3-7774be85c1ad","system_id":"levelo_inurba_marseille","lat":43.28421,"lon":5.34977,"is_reserved":false,"is_disabled":false,"rental_uris":{"android":"levelo://app?vid=7ec6bf83-aa5a-497f-b3b3-7774be85c1ad","ios":"levelo://app?vid=7ec6bf83-aa5a-497f-b3b3-7774be85c1ad"},"vehicle_type_id":"4","last_reported":1719061791,"current_range_meters":800,"station_id":"ce4bhbh2rcd13ifvqepg","pricing_plan_id":"cebpf4jnsgd1na2vs0mg"},{"bike_id":"b1b5f420-5c34-49f4-8726-cb97338e9075","system_id":"levelo_inurba_marseille","lat":43.284216,"lon":5.349729,"is_reserved":false,"is_disabled":false,"rental_uris":{"android":"levelo://app?vid=b1b5f420-5c34-49f4-8726-cb97338e9075","ios":"levelo://app?vid=b1b5f420-5c34-49f4-8726-cb97338e9075"},"vehicle_type_id":"4","last_reported":1719061791,"current_range_meters":31200,"station_id":"ce4bhbh2rcd13ifvqepg","pricing_plan_id":"cebpf4jnsgd1na2vs0mg"},{"bike_id":"dc534a6e-d756-45d4-8437-0dfdc2e4476a","system_id":"levelo_inurba_marseille","lat":43.28418,"lon":5.34984,"is_reserved":false,"is_disabled":false,"rental_uris":{"android":"levelo://app?vid=dc534a6e-d756-45d4-8437-0dfdc2e4476a","ios":"levelo://app?vid=dc534a6e-d756-45d4-8437-0dfdc2e4476a"},"vehicle_type_id":"4","last_reported":1719061791,"current_range_meters":4400,"station_id":"ce4bhbh2rcd13ifvqepg","pricing_plan_id":"cebpf4jnsgd1na2vs0mg"},{"bike_id":"663cd0c4-98d5-4647-8445-cbf0e9fbe390","system_id":"levelo_inurba_marseille","lat":43.28414,"lon":5.34993,"is_reserved":false,"is_disabled":false,"rental_uris":{"android":"levelo://app?vid=663cd0c4-98d5-4647-8445-cbf0e9fbe390","ios":"levelo://app?vid=663cd0c4-98d5-4647-8445-cbf0e9fbe390"},"vehicle_type_id":"4","last_reported":1719061791,"current_range_meters":20800,"station_id":"ce4bhbh2rcd13ifvqepg","pricing_plan_id":"cebpf4jnsgd1na2vs0mg"},{"bike_id":"394d53cf-d023-4cdd-8c37-e40bf710ace7","system_id":"levelo_inurba_marseille","lat":43.28415,"lon":5.34988,"is_reserved":false,"is_disabled":false,"rental_uris":{"android":"levelo://app?vid=394d53cf-d023-4cdd-8c37-e40bf710ace7","ios":"levelo://app?vid=394d53cf-d023-4cdd-8c37-e40bf710ace7"},"vehicle_type_id":"4","last_reported":1719061791,"current_range_meters":31200,"station_id":"ce4bhbh2rcd13ifvqepg","pricing_plan_id":"cebpf4jnsgd1na2vs0mg"},{"bike_id":"8b684a05-64f8-4ce5-a6b2-678f089fd468","system_id":"levelo_inurba_marseille","lat":43.28413,"lon":5.34993,"is_reserved":false,"is_disabled":false,"rental_uris":{"android":"levelo://app?vid=8b684a05-64f8-4ce5-a6b2-678f089fd468","ios":"levelo://app?vid=8b684a05-64f8-4ce5-a6b2-678f089fd468"},"vehicle_type_id":"4","last_reported":1719061791,"current_range_meters":28400,"station_id":"ce4bhbh2rcd13ifvqepg","pricing_plan_id":"cebpf4jnsgd1na2vs0mg"},{"bike_id":"73e58f7c-0aab-4a97-b01c-b50c7846e419","system_id":"levelo_inurba_marseille","lat":43.284217,"lon":5.349697,"is_reserved":false,"is_disabled":false,"rental_uris":{"android":"levelo://app?vid=73e58f7c-0aab-4a97-b01c-b50c7846e419","ios":"levelo://app?vid=73e58f7c-0aab-4a97-b01c-b50c7846e419"},"vehicle_type_id":"4","last_reported":1719061791,"current_range_meters":27600,"station_id":"ce4bhbh2rcd13ifvqepg","pricing_plan_id":"cebpf4jnsgd1na2vs0mg"},{"bike_id":"c6d8a782-72b9-4afb-9d05-e2fa3e6d906c","system_id":"levelo_inurba_marseille","lat":43.28413,"lon":5.34988,"is_reserved":false,"is_disabled":false,"rental_uris":{"android":"levelo://app?vid=c6d8a782-72b9-4afb-9d05-e2fa3e6d906c","ios":"levelo://app?vid=c6d8a782-72b9-4afb-9d05-e2fa3e6d906c"},"vehicle_type_id":"4","last_reported":1719061791,"current_range_meters":24000,"station_id":"ce4bhbh2rcd13ifvqepg","pricing_plan_id":"cebpf4jnsgd1na2vs0mg"},{"bike_id":"618c8864-e515-41f6-8312-16cc450e15ba","system_id":"levelo_inurba_marseille","lat":43.284217,"lon":5.349697,"is_reserved":false,"is_disabled":false,"rental_uris":{"android":"levelo://app?vid=618c8864-e515-41f6-8312-16cc450e15ba","ios":"levelo://app?vid=618c8864-e515-41f6-8312-16cc450e15ba"},"vehicle_type_id":"4","last_reported":1719061791,"current_range_meters":19200,"station_id":"ce4bhbh2rcd13ifvqepg","pricing_plan_id":"cebpf4jnsgd1na2vs0mg"},{"bike_id":"4f6561ab-51a8-4c31-b394-e57f95da1b26","system_id":"levelo_inurba_marseille","lat":43.283904,"lon":5.349939,"is_reserved":false,"is_disabled":false,"rental_uris":{"android":"levelo://app?vid=4f6561ab-51a8-4c31-b394-e57f95da1b26","ios":"levelo://app?vid=4f6561ab-51a8-4c31-b394-e57f95da1b26"},"vehicle_type_id":"4","last_reported":1719061791,"current_range_meters":25600,"station_id":"ce4bhbh2rcd13ifvqepg","pricing_plan_id":"cebpf4jnsgd1na2vs0mg"},{"bike_id":"b7befda4-a882-4f47-addb-8166cd65a360","system_id":"levelo_inurba_marseille","lat":43.292724,"lon":5.401131,"is_reserved":false,"is_disabled":false,"rental_uris":{"android":"levelo://app?vid=b7befda4-a882-4f47-addb-8166cd65a360","ios":"levelo://app?vid=b7befda4-a882-4f47-addb-8166cd65a360"},"vehicle_type_id":"4","last_reported":1719061791,"current_range_meters":27200,"station_id":"ce4bh312rcd13ifvqdk0","pricing_plan_id":"cebpf4jnsgd1na2vs0mg"},{"bike_id":"ac2c15f7-79f8-46ef-abe7-1e73b450fe92","system_id":"levelo_inurba_marseille","lat":43.28289,"lon":5.35075,"is_reserved":false,"is_disabled":false,"rental_uris":{"android":"levelo://app?vid=ac2c15f7-79f8-46ef-abe7-1e73b450fe92","ios":"levelo://app?vid=ac2c15f7-79f8-46ef-abe7-1e73b450fe92"},"vehicle_type_id":"4","last_reported":1719061791,"current_range_meters":26000,"station_id":"ce4bhbp2rcd13ifvqerg","pricing_plan_id":"cebpf4jnsgd1na2vs0mg"},{"bike_id":"37cff0e5-3ee5-4b4b-ade4-c7bf9928c96c","system_id":"levelo_inurba_marseille","lat":43.28285,"lon":5.35075,"is_reserved":false,"is_disabled":false,"rental_uris":{"android":"levelo://app?vid=37cff0e5-3ee5-4b4b-ade4-c7bf9928c96c","ios":"levelo://app?vid=37cff0e5-3ee5-4b4b-ade4-c7bf9928c96c"},"vehicle_type_id":"4","last_reported":1719061791,"current_range_meters":17200,"station_id":"ce4bhbp2rcd13ifvqerg","pricing_plan_id":"cebpf4jnsgd1na2vs0mg"},{"bike_id":"96ee3292-65ea-4c87-87f9-a002e5b74882","system_id":"levelo_inurba_marseille","lat":43.2828,"lon":5.35088,"is_reserved":false,"is_disabled":false,"rental_uris":{"android":"levelo://app?vid=96ee3292-65ea-4c87-87f9-a002e5b74882","ios":"levelo://app?vid=96ee3292-65ea-4c87-87f9-a002e5b74882"},"vehicle_type_id":"4","last_reported":1719061791,"current_range_meters":4000,"station_id":"ce4bhbp2rcd13ifvqerg","pricing_plan_id":"cebpf4jnsgd1na2vs0mg"},{"bike_id":"8cfdf3e0-0f6c-44e8-b8ab-c88afac2dd9b","system_id":"levelo_inurba_marseille","lat":43.28283,"lon":5.35071,"is_reserved":false,"is_disabled":false,"rental_uris":{"android":"levelo://app?vid=8cfdf3e0-0f6c-44e8-b8ab-c88afac2dd9b","ios":"levelo://app?vid=8cfdf3e0-0f6c-44e8-b8ab-c88afac2dd9b"},"vehicle_type_id":"4","last_reported":1719061791,"current_range_meters":8800,"station_id":"ce4bhbp2rcd13ifvqerg","pricing_plan_id":"cebpf4jnsgd1na2vs0mg"},{"bike_id":"1351961f-49a6-4d5f-afa0-984f45d8f278","system_id":"levelo_inurba_marseille","lat":43.282754,"lon":5.350519,"is_reserved":false,"is_disabled":false,"rental_uris":{"android":"levelo://app?vid=1351961f-49a6-4d5f-afa0-984f45d8f278","ios":"levelo://app?vid=1351961f-49a6-4d5f-afa0-984f45d8f278"},"vehicle_type_id":"4","last_reported":1719061791,"current_range_meters":24000,"station_id":"ce4bhbp2rcd13ifvqerg","pricing_plan_id":"cebpf4jnsgd1na2vs0mg"},{"bike_id":"806a2a17-092f-4e1e-8afa-33e5a9d48cb6","system_id":"levelo_inurba_marseille","lat":43.282754,"lon":5.350519,"is_reserved":false,"is_disabled":false,"rental_uris":{"android":"levelo://app?vid=806a2a17-092f-4e1e-8afa-33e5a9d48cb6","ios":"levelo://app?vid=806a2a17-092f-4e1e-8afa-33e5a9d48cb6"},"vehicle_type_id":"4","last_reported":1719061791,"current_range_meters":16400,"station_id":"ce4bhbp2rcd13ifvqerg","pricing_plan_id":"cebpf4jnsgd1na2vs0mg"},{"bike_id":"e611f840-341c-4364-a829-b7b126d05338","system_id":"levelo_inurba_marseille","lat":43.282754,"lon":5.350519,"is_reserved":false,"is_disabled":false,"rental_uris":{"android":"levelo://app?vid=e611f840-341c-4364-a829-b7b126d05338","ios":"levelo://app?vid=e611f840-341c-4364-a829-b7b126d05338"},"vehicle_type_id":"4","last_reported":1719061791,"current_range_meters":25200,"station_id":"ce4bhbp2rcd13ifvqerg","pricing_plan_id":"cebpf4jnsgd1na2vs0mg"},{"bike_id":"669f2d8b-afe3-4b4f-9aa0-bbe20795e013","system_id":"levelo_inurba_marseille","lat":43.282754,"lon":5.350519,"is_reserved":false,"is_disabled":false,"rental_uris":{"android":"levelo://app?vid=669f2d8b-afe3-4b4f-9aa0-bbe20795e013","ios":"levelo://app?vid=669f2d8b-afe3-4b4f-9aa0-bbe20795e013"},"vehicle_type_id":"4","last_reported":1719061791,"current_range_meters":21200,"station_id":"ce4bhbp2rcd13ifvqerg","pricing_plan_id":"cebpf4jnsgd1na2vs0mg"},{"bike_id":"565c64d7-c739-4d42-84ab-ef8d2fc00602","system_id":"levelo_inurba_marseille","lat":43.282754,"lon":5.350519,"is_reserved":false,"is_disabled":false,"rental_uris":{"android":"levelo://app?vid=565c64d7-c739-4d42-84ab-ef8d2fc00602","ios":"levelo://app?vid=565c64d7-c739-4d42-84ab-ef8d2fc00602"},"vehicle_type_id":"4","last_reported":1719061791,"current_range_meters":3600,"station_id":"ce4bhbp2rcd13ifvqerg","pricing_plan_id":"cebpf4jnsgd1na2vs0mg"},{"bike_id":"eaff2020-fb3f-42ba-9787-7c3043df5415","system_id":"levelo_inurba_marseille","lat":43.28275,"lon":5.35059,"is_reserved":false,"is_disabled":false,"rental_uris":{"android":"levelo://app?vid=eaff2020-fb3f-42ba-9787-7c3043df5415","ios":"levelo://app?vid=eaff2020-fb3f-42ba-9787-7c3043df5415"},"vehicle_type_id":"4","last_reported":1719061791,"current_range_meters":24400,"station_id":"ce4bhbp2rcd13ifvqerg","pricing_plan_id":"cebpf4jnsgd1na2vs0mg"},{"bike_id":"b0ec6479-8711-4792-8b0b-ce66b132f043","system_id":"levelo_inurba_marseille","lat":43.282754,"lon":5.350519,"is_reserved":false,"is_disabled":false,"rental_uris":{"android":"levelo://app?vid=b0ec6479-8711-4792-8b0b-ce66b132f043","ios":"levelo://app?vid=b0ec6479-8711-4792-8b0b-ce66b132f043"},"vehicle_type_id":"4","last_reported":1719061791,"current_range_meters":14800,"station_id":"ce4bhbp2rcd13ifvqerg","pricing_plan_id":"cebpf4jnsgd1na2vs0mg"},{"bike_id":"107ad678-83a4-454e-b702-f2bfd348dd76","system_id":"levelo_inurba_marseille","lat":43.282754,"lon":5.350519,"is_reserved":false,"is_disabled":false,"rental_uris":{"android":"levelo://app?vid=107ad678-83a4-454e-b702-f2bfd348dd76","ios":"levelo://app?vid=107ad678-83a4-454e-b702-f2bfd348dd76"},"vehicle_type_id":"4","last_reported":1719061791,"current_range_meters":32000,"station_id":"ce4bhbp2rcd13ifvqerg","pricing_plan_id":"cebpf4jnsgd1na2vs0mg"},{"bike_id":"a1f06911-e0d0-45ad-94f5-268e663530db","system_id":"levelo_inurba_marseille","lat":43.282754,"lon":5.350519,"is_reserved":false,"is_disabled":false,"rental_uris":{"android":"levelo://app?vid=a1f06911-e0d0-45ad-94f5-268e663530db","ios":"levelo://app?vid=a1f06911-e0d0-45ad-94f5-268e663530db"},"vehicle_type_id":"4","last_reported":1719061791,"current_range_meters":24800,"station_id":"ce4bhbp2rcd13ifvqerg","pricing_plan_id":"cebpf4jnsgd1na2vs0mg"},{"bike_id":"3fcdb478-abe2-43e4-a48b-52676228512f","system_id":"levelo_inurba_marseille","lat":43.28273,"lon":5.35063,"is_reserved":false,"is_disabled":false,"rental_uris":{"android":"levelo://app?vid=3fcdb478-abe2-43e4-a48b-52676228512f","ios":"levelo://app?vid=3fcdb478-abe2-43e4-a48b-52676228512f"},"vehicle_type_id":"4","last_reported":1719061791,"current_range_meters":31200,"station_id":"ce4bhbp2rcd13ifvqerg","pricing_plan_id":"cebpf4jnsgd1na2vs0mg"},{"bike_id":"c3a0f2b8-e7ad-46dc-8636-20528a21bf20","system_id":"levelo_inurba_marseille","lat":43.28271,"lon":5.35068,"is_reserved":false,"is_disabled":false,"rental_uris":{"android":"levelo://app?vid=c3a0f2b8-e7ad-46dc-8636-20528a21bf20","ios":"levelo://app?vid=c3a0f2b8-e7ad-46dc-8636-20528a21bf20"},"vehicle_type_id":"4","last_reported":1719061791,"current_range_meters":31200,"station_id":"ce4bhbp2rcd13ifvqerg","pricing_plan_id":"cebpf4jnsgd1na2vs0mg"},