{"last_updated":1746788903,"ttl":60,"version":"2.2","data":{"bikes":[{"bike_id":"c70d4a6d-02ef-492a-bb8e-eec7a4433262","system_id":"levelo_inurba_marseille","lat":43.22501,"lon":5.34789,"is_reserved":false,"is_disabled":false,"rental_uris":{"android":"levelo://app?vid=c70d4a6d-02ef-492a-bb8e-eec7a4433262","ios":"levelo://app?vid=c70d4a6d-02ef-492a-bb8e-eec7a4433262"},"vehicle_type_id":"4","last_reported":1746788903,"current_range_meters":3200,"station_id":"st_cvj5dfep6f1abm77gieg","pricing_plan_id":"cebpf4jnsgd1na2vs0mg"},{"bike_id":"9df4a8f5-c267-4b37-abda-d596b42cf4ce","system_id":"levelo_inurba_marseille","lat":43.28409,"lon":5.37519,"is_reserved":false,"is_disabled":false,"rental_uris":{"android":"levelo://app?vid=9df4a8f5-c267-4b37-abda-d596b42cf4ce","ios":"levelo://app?vid=9df4a8f5-c267-4b37-abda-d596b42cf4ce"},"vehicle_type_id":"4","last_reported":1746788903,"current_range_meters":3600,"station_id":"ce4bh412rcd13ifvqds0","pricing_plan_id":"cebpf4jnsgd1na2vs0mg"},{"bike_id":"385bbf50-d7fd-4163-b817-8a3ff112814d","system_id":"levelo_inurba_marseille","lat":43.27176,"lon":5.41,"is_reserved":false,"is_disabled":false,"rental_uris":{"android":"levelo://app?vid=385bbf50-d7fd-4163-b817-8a3ff112814d","ios":"levelo://app?vid=385bbf50-d7fd-4163-b817-8a3ff112814d"},"vehicle_type_id":"4","last_reported":1746788903,"current_range_meters":3600,"station_id":"ce4bhl12rcd13ifvqgf0","pricing_plan_id":"cebpf4jnsgd1na2vs0mg"},{"bike_id":"140f038d-334a-4468-947c-8824c62e1809","system_id":"levelo_inurba_marseille","lat":43.2396,"lon":5.36627,"is_reserved":false,"is_disabled":false,"rental_uris":{"android":"levelo://app?vid=140f038d-334a-4468-947c-8824c62e1809","ios":"levelo://app?vid=140f038d-334a-4468-947c-8824c62e1809"},"vehicle_type_id":"4","last_reported":1746788903,"current_range_meters":4000,"station_id":"ce4bhi12rcd13ifvqfp0","pricing_plan_id":"cebpf4jnsgd1na2vs0mg"},{"bike_id":"db90afc0-096c-4c13-9b46-963199b64201","system_id":"levelo_inurba_marseille","lat":43.21759,"lon":5.34616,"is_reserved":false,"is_disabled":false,"rental_uris":{"android":"levelo://app?vid=db90afc0-096c-4c13-9b46-963199b64201","ios":"levelo://app?vid=db90afc0-096c-4c13-9b46-963199b64201"},"vehicle_type_id":"4","last_reported":1746788903,"current_range_meters":4000,"station_id":"st_cvj6r9ubvosntc0bgbag","pricing_plan_id":"cebpf4jnsgd1na2vs0mg"},{"bike_id":"e70a6cc7-17eb-4c4e-8e7c-f66b5cfc0fab","system_id":"levelo_inurba_marseille","lat":43.21187,"lon":5.35081,"is_reserved":false,"is_disabled":false,"rental_uris":{"android":"levelo://app?vid=e70a6cc7-17eb-4c4e-8e7c-f66b5cfc0fab","ios":"levelo://app?vid=e70a6cc7-17eb-4c4e-8e7c-f66b5cfc0fab"},"vehicle_type_id":"4","last_reported":1746788903,"current_range_meters":4800,"station_id":"st_cvj6sg6p6f1abm77japg","pricing_plan_id":"cebpf4jnsgd1na2vs0mg"},{"bike_id":"8be9b425-922a-41c5-9605-bcc6afb54718","system_id":"levelo_inurba_marseille","lat":43.29024,"lon":5.38128,"is_reserved":false,"is_disabled":false,"rental_uris":{"android":"levelo://app?vid=8be9b425-922a-41c5-9605-bcc6afb54718","ios":"levelo://app?vid=8be9b425-922a-41c5-9605-bcc6afb54718"},"vehicle_type_id":"4","last_reported":1746788903,"current_range_meters":4400,"station_id":"ce4bh4p2rcd13ifvqe1g","pricing_plan_id":"cebpf4jnsgd1na2vs0mg"},{"bike_id":"b15fe93b-1059-4d75-abd3-040e349ce402","system_id":"levelo_inurba_marseille","lat":43.3011,"lon":5.37019,"is_reserved":false,"is_disabled":false,"rental_uris":{"android":"levelo://app?vid=b15fe93b-1059-4d75-abd3-040e349ce402","ios":"levelo://app?vid=b15fe93b-1059-4d75-abd3-040e349ce402"},"vehicle_type_id":"4","last_reported":1746788903,"current_range_meters":6000,"station_id":"","pricing_plan_id":"cebpf4jnsgd1na2vs0mg"},{"bike_id":"3ffbdbcc-7993-4224-a457-998febbb238c","system_id":"levelo_inurba_marseille","lat":43.29786,"lon":5.38104,"is_reserved":false,"is_disabled":false,"rental_uris":{"android":"levelo://app?vid=3ffbdbcc-7993-4224-a457-998febbb238c","ios":"levelo://app?vid=3ffbdbcc-7993-4224-a457-998febbb238c"},"vehicle_type_id":"4","last_reported":1746788903,"current_range_meters":6400,"station_id":"ce4bgip2rcd13ifvqbb0","pricing_plan_id":"cebpf4jnsgd1na2vs0mg"},{"bike_id":"1f281ed5-8e05-43ba-b583-cf4e73bd4cb4","system_id":"levelo_inurba_marseille","lat":43.321256,"lon":5.36777,"is_reserved":false,"is_disabled":false,"rental_uris":{"android":"levelo://app?vid=1f281ed5-8e05-43ba-b583-cf4e73bd4cb4","ios":"levelo://app?vid=1f281ed5-8e05-43ba-b583-cf4e73bd4cb4"},"vehicle_type_id":"4","last_reported":1746788903,"current_range_meters":6400,"station_id":"ce4bhrh2rcd13ifvqhug","pricing_plan_id":"cebpf4jnsgd1na2vs0mg"},{"bike_id":"c43ed3ca-340d-43d7-8ad5-7e6b2386ac59","system_id":"levelo_inurba_marseille","lat":43.299003,"lon":5.436675,"is_reserved":false,"is_disabled":false,"rental_uris":{"android":"levelo://app?vid=c43ed3ca-340d-43d7-8ad5-7e6b2386ac59","ios":"levelo://app?vid=c43ed3ca-340d-43d7-8ad5-7e6b2386ac59"},"vehicle_type_id":"4","last_reported":1746788903,"current_range_meters":6400,"station_id":"ce4bhpp2rcd13ifvqhfg","pricing_plan_id":"cebpf4jnsgd1na2vs0mg"},{"bike_id":"03f953a8-8401-4354-9ac5-733ae4c7f687","system_id":"levelo_inurba_marseille","lat":43.265531,"lon":5.372853,"is_reserved":false,"is_disabled":false,"rental_uris":{"android":"levelo://app?vid=03f953a8-8401-4354-9ac5-733ae4c7f687","ios":"levelo://app?vid=03f953a8-8401-4354-9ac5-733ae4c7f687"},"vehicle_type_id":"4","last_reported":1746788903,"current_range_meters":6400,"station_id":"ce4bhg12rcd13ifvqf70","pricing_plan_id":"cebpf4jnsgd1na2vs0mg"},{"bike_id":"24a02016-a932-4bb5-b40e-e65338592af4","system_id":"levelo_inurba_marseille","lat":43.24994,"lon":5.38941,"is_reserved":false,"is_disabled":false,"rental_uris":{"android":"levelo://app?vid=24a02016-a932-4bb5-b40e-e65338592af4","ios":"levelo://app?vid=24a02016-a932-4bb5-b40e-e65338592af4"},"vehicle_type_id":"4","last_reported":1746788903,"current_range_meters":6800,"station_id":"ce4bhgp2rcd13ifvqfd0","pricing_plan_id":"cebpf4jnsgd1na2vs0mg"},{"bike_id":"35f36335-51c7-48bf-a321-437e1aea77da","system_id":"levelo_inurba_marseille","lat":43.32362,"lon":5.36735,"is_reserved":false,"is_disabled":false,"rental_uris":{"android":"levelo://app?vid=35f36335-51c7-48bf-a321-437e1aea77da","ios":"levelo://app?vid=35f36335-51c7-48bf-a321-437e1aea77da"},"vehicle_type_id":"4","last_reported":1746788903,"current_range_meters":7200,"station_id":"ce4bhsh2rcd13ifvqi2g","pricing_plan_id":"cebpf4jnsgd1na2vs0mg"},{"bike_id":"91bfe265-6851-4f85-a0a1-9dea18f7a925","system_id":"levelo_inurba_marseille","lat":43.29785,"lon":5.38112,"is_reserved":false,"is_disabled":false,"rental_uris":{"android":"levelo://app?vid=91bfe265-6851-4f85-a0a1-9dea18f7a925","ios":"levelo://app?vid=91bfe265-6851-4f85-a0a1-9dea18f7a925"},"vehicle_type_id":"4","last_reported":1746788903,"current_range_meters":8000,"station_id":"ce4bgip2rcd13ifvqbb0","pricing_plan_id":"cebpf4jnsgd1na2vs0mg"},{"bike_id":"169e2e43-75aa-4b57-99ba-b75f4679072b","system_id":"levelo_inurba_marseille","lat":43.29787,"lon":5.38104,"is_reserved":false,"is_disabled":false,"rental_uris":{"android":"levelo://app?vid=169e2e43-75aa-4b57-99ba-b75f4679072b","ios":"levelo://app?vid=169e2e43-75aa-4b57-99ba-b75f4679072b"},"vehicle_type_id":"4","last_reported":1746788903,"current_range_meters":8000,"station_id":"ce4bgip2rcd13ifvqbb0","pricing_plan_id":"cebpf4jnsgd1na2vs0mg"},{"bike_id":"df7b42c0-8853-415c-9485-f3ebb237f54a","system_id":"levelo_inurba_marseille","lat":43.26026,"lon":5.41758,"is_reserved":false,"is_disabled":false,"rental_uris":{"android":"levelo://app?vid=df7b42c0-8853-415c-9485-f3ebb237f54a","ios":"levelo://app?vid=df7b42c0-8853-415c-9485-f3ebb237f54a"},"vehicle_type_id":"4","last_reported":1746788903,"current_range_meters":8000,"station_id":"","pricing_plan_id":"cebpf4jnsgd1na2vs0mg"},{"bike_id":"fdcbc2b1-e0a3-4891-88ce-8fca190ebc9b","system_id":"levelo_inurba_marseille","lat":43.27812,"lon":5.40715,"is_reserved":false,"is_disabled":false,"rental_uris":{"android":"levelo://app?vid=fdcbc2b1-e0a3-4891-88ce-8fca190ebc9b","ios":"levelo://app?vid=fdcbc2b1-e0a3-4891-88ce-8fca190ebc9b"},"vehicle_type_id":"4","last_reported":1746788903,"current_range_meters":8000,"station_id":"ce4bhnh2rcd13ifvqgtg","pricing_plan_id":"cebpf4jnsgd1na2vs0mg"},{"bike_id":"3311c1f1-091b-4394-846c-138bab96fa5d","system_id":"levelo_inurba_marseille","lat":43.279058,"lon":5.380039,"is_reserved":false,"is_disabled":false,"rental_uris":{"android":"levelo://app?vid=3311c1f1-091b-4394-846c-138bab96fa5d","ios":"levelo://app?vid=3311c1f1-091b-4394-846c-138bab96fa5d"},"vehicle_type_id":"4","last_reported":1746788903,"current_range_meters":8400,"station_id":"ce4bhf92rcd13ifvqf50","pricing_plan_id":"cebpf4jnsgd1na2vs0mg"},{"bike_id":"9470095c-5f52-4854-843e-94ca44a4672e","system_id":"levelo_inurba_marseille","lat":43.25111,"lon":5.40326,"is_reserved":false,"is_disabled":false,"rental_uris":{"android":"levelo://app?vid=9470095c-5f52-4854-843e-94ca44a4672e","ios":"levelo://app?vid=9470095c-5f52-4854-843e-94ca44a4672e"},"vehicle_type_id":"4","last_reported":1746788903,"current_range_meters":8400,"station_id":"ce4bhlh2rcd13ifvqgig","pricing_plan_id":"cebpf4jnsgd1na2vs0mg"},{"bike_id":"809c8673-c032-46b9-aa07-62c38e26d44e","system_id":"levelo_inurba_marseille","lat":43.25066,"lon":5.38816,"is_reserved":false,"is_disabled":false,"rental_uris":{"android":"levelo://app?vid=809c8673-c032-46b9-aa07-62c38e26d44e","ios":"levelo://app?vid=809c8673-c032-46b9-aa07-62c38e26d44e"},"vehicle_type_id":"4","last_reported":1746788903,"current_range_meters":8800,"station_id":"","pricing_plan_id":"cebpf4jnsgd1na2vs0mg"},{"bike_id":"f673a50d-776a-4d4f-8bc2-0f75017ffb52","system_id":"levelo_inurba_marseille","lat":43.284499,"lon":5.358347,"is_reserved":false,"is_disabled":false,"rental_uris":{"android":"levelo://app?vid=f673a50d-776a-4d4f-8bc2-0f75017ffb52","ios":"levelo://app?vid=f673a50d-776a-4d4f-8bc2-0f75017ffb52"},"vehicle_type_id":"4","last_reported":1746788903,"current_range_meters":8800,"station_id":"ce4bhah2rcd13ifvqei0","pricing_plan_id":"cebpf4jnsgd1na2vs0mg"},{"bike_id":"6364acf0-a053-434c-9f03-c215031d27a0","system_id":"levelo_inurba_marseille","lat":43.21196,"lon":5.35074,"is_reserved":false,"is_disabled":false,"rental_uris":{"android":"levelo://app?vid=6364acf0-a053-434c-9f03-c215031d27a0","ios":"levelo://app?vid=6364acf0-a053-434c-9f03-c215031d27a0"},"vehicle_type_id":"4","last_reported":1746788903,"current_range_meters":8800,"station_id":"st_cvj6sg6p6f1abm77japg","pricing_plan_id":"cebpf4jnsgd1na2vs0mg"},{"bike_id":"4e1bf919-b5e2-4361-9733-c6920a9175e7","system_id":"levelo_inurba_marseille","lat":43.26936,"lon":5.38918,"is_reserved":false,"is_disabled":false,"rental_uris":{"android":"levelo://app?vid=4e1bf919-b5e2-4361-9733-c6920a9175e7","ios":"levelo://app?vid=4e1bf919-b5e2-4361-9733-c6920a9175e7"},"vehicle_type_id":"4","last_reported":1746788903,"current_range_meters":9200,"station_id":"ce4bhhh2rcd13ifvqfl0","pricing_plan_id":"cebpf4jnsgd1na2vs0mg"},{"bike_id":"a0bee350-3930-4830-9133-a0078c88a2ca","system_id":"levelo_inurba_marseille","lat":43.31488,"lon":5.37303,"is_reserved":false,"is_disabled":false,"rental_uris":{"android":"levelo://app?vid=a0bee350-3930-4830-9133-a0078c88a2ca","ios":"levelo://app?vid=a0bee350-3930-4830-9133-a0078c88a2ca"},"vehicle_type_id":"4","last_reported":1746788903,"current_range_meters":9200,"station_id":"ce4bgt12rcd13ifvqcd0","pricing_plan_id":"cebpf4jnsgd1na2vs0mg"},{"bike_id":"47bb6f34-9c89-4a6c-b2ec-6a2d3e007f08","system_id":"levelo_inurba_marseille","lat":43.25722,"lon":5.41111,"is_reserved":false,"is_disabled":false,"rental_uris":{"android":"levelo://app?vid=47bb6f34-9c89-4a6c-b2ec-6a2d3e007f08","ios":"levelo://app?vid=47bb6f34-9c89-4a6c-b2ec-6a2d3e007f08"},"vehicle_type_id":"4","last_reported":1746788903,"current_range_meters":9200,"station_id":"ce4bhkp2rcd13ifvqgd0","pricing_plan_id":"cebpf4jnsgd1na2vs0mg"},{"bike_id":"caf9033d-5f00-49c3-b1ee-1328b62008dc","system_id":"levelo_inurba_marseille","lat":43.33589,"lon":5.42827,"is_reserved":false,"is_disabled":false,"rental_uris":{"android":"levelo://app?vid=caf9033d-5f00-49c3-b1ee-1328b62008dc","ios":"levelo://app?vid=caf9033d-5f00-49c3-b1ee-1328b62008dc"},"vehicle_type_id":"4","last_reported":1746788903,"current_range_meters":9200,"station_id":"","pricing_plan_id":"cebpf4jnsgd1na2vs0mg"},{"bike_id":"294e5e93-618a-4492-9bac-02c9b5b12a80","system_id":"levelo_inurba_marseille","lat":43.32113,"lon":5.36787,"is_reserved":false,"is_disabled":true,"rental_uris":{"android":"levelo://app?vid=294e5e93-618a-4492-9bac-02c9b5b12a80","ios":"levelo://app?vid=294e5e93-618a-4492-9bac-02c9b5b12a80"},"vehicle_type_id":"4","last_reported":1746788903,"current_range_meters":9200,"station_id":"ce4bhrh2rcd13ifvqhug","pricing_plan_id":"cebpf4jnsgd1na2vs0mg"},{"bike_id":"e52bfd82-0d4c-4ec9-a63b-aa566ebda16e","system_id":"levelo_inurba_marseille","lat":43.31805,"lon":5.36825,"is_reserved":false,"is_disabled":false,"rental_uris":{"android":"levelo://app?vid=e52bfd82-0d4c-4ec9-a63b-aa566ebda16e","ios":"levelo://app?vid=e52bfd82-0d4c-4ec9-a63b-aa566ebda16e"},"vehicle_type_id":"4","last_reported":1746788903,"current_range_meters":9600,"station_id":"","pricing_plan_id":"cebpf4jnsgd1na2vs0mg"},{"bike_id":"812e31b7-42f9-4d63-b220-e99af5c192ed","system_id":"levelo_inurba_marseille","lat":43.31189,"lon":5.41604,"is_reserved":false,"is_disabled":false,"rental_uris":{"android":"levelo://app?vid=812e31b7-42f9-4d63-b220-e99af5c192ed","ios":"levelo://app?vid=812e31b7-42f9-4d63-b220-e99af5c192ed"},"vehicle_type_id":"4","last_reported":1746788903,"current_range_meters":9600,"station_id":"","pricing_plan_id":"cebpf4jnsgd1na2vs0mg"},{"bike_id":"a2309e80-b2ba-42c9-9c60-147f0babf9f9","system_id":"levelo_inurba_marseille","lat":43.30871,"lon":5.37056,"is_reserved":false,"is_disabled":false,"rental_uris":{"android":"levelo://app?vid=a2309e80-b2ba-42c9-9c60-147f0babf9f9","ios":"levelo://app?vid=a2309e80-b2ba-42c9-9c60-147f0babf9f9"},"vehicle_type_id":"4","last_reported":1746788903,"current_range_meters":10000,"station_id":"","pricing_plan_id":"cebpf4jnsgd1na2vs0mg"},{"bike_id":"caccb556-2ad0-45b8-84b8-819024dd44e6","system_id":"levelo_inurba_marseille","lat":43.297901,"lon":5.367884,"is_reserved":false,"is_disabled":false,"rental_uris":{"android":"levelo://app?vid=caccb556-2ad0-45b8-84b8-819024dd44e6","ios":"levelo://app?vid=caccb556-2ad0-45b8-84b8-819024dd44e6"},"vehicle_type_id":"4","last_reported":1746788903,"current_range_meters":10000,"station_id":"","pricing_plan_id":"cebpf4jnsgd1na2vs0mg"},{"bike_id":"91312870-d6c6-4946-b631-c8be8e8cee46","system_id":"levelo_inurba_marseille","lat":43.21751,"lon":5.346027,"is_reserved":false,"is_disabled":false,"rental_uris":{"android":"levelo://app?vid=91312870-d6c6-4946-b631-c8be8e8cee46","ios":"levelo://app?vid=91312870-d6c6-4946-b631-c8be8e8cee46"},"vehicle_type_id":"4","last_reported":1746788903,"current_range_meters":10000,"station_id":"st_cvj6r9ubvosntc0bgbag","pricing_plan_id":"cebpf4jnsgd1na2vs0mg"},{"bike_id":"c42d0137-01db-4e02-8a6e-f9af61ad1319","system_id":"levelo_inurba_marseille","lat":43.314533,"lon":5.373273,"is_reserved":false,"is_disabled":false,"rental_uris":{"android":"levelo://app?vid=c42d0137-01db-4e02-8a6e-f9af61ad1319","ios":"levelo://app?vid=c42d0137-01db-4e02-8a6e-f9af61ad1319"},"vehicle_type_id":"4","last_reported":1746788903,"current_range_meters":10800,"station_id":"ce4bgt12rcd13ifvqcd0","pricing_plan_id":"cebpf4jnsgd1na2vs0mg"},{"bike_id":"044478cb-8194-4092-b984-4fc9c042ef68","system_id":"levelo_inurba_marseille","lat":43.28705,"lon":5.46572,"is_reserved":false,"is_disabled":false,"rental_uris":{"android":"levelo://app?vid=044478cb-8194-4092-b984-4fc9c042ef68","ios":"levelo://app?vid=044478cb-8194-4092-b984-4fc9c042ef68"},"vehicle_type_id":"4","last_reported":1746788903,"current_range_meters":11200,"station_id":"","pricing_plan_id":"cebpf4jnsgd1na2vs0mg"},{"bike_id":"9962b8cb-c94d-4a94-804b-a946a3138815","system_id":"levelo_inurba_marseille","lat":43.313,"lon":5.37309,"is_reserved":false,"is_disabled":false,"rental_uris":{"android":"levelo://app?vid=9962b8cb-c94d-4a94-804b-a946a3138815","ios":"levelo://app?vid=9962b8cb-c94d-4a94-804b-a946a3138815"},"vehicle_type_id":"4","last_reported":1746788903,"current_range_meters":11200,"station_id":"","pricing_plan_id":"cebpf4jnsgd1na2vs0mg"},{"bike_id":"b0c54ead-2c9a-4d45-904a-5e1b9abf7338","system_id":"levelo_inurba_marseille","lat":43.27878,"lon":5.44081,"is_reserved":false,"is_disabled":false,"rental_uris":{"android":"levelo://app?vid=b0c54ead-2c9a-4d45-904a-5e1b9abf7338","ios":"levelo://app?vid=b0c54ead-2c9a-4d45-904a-5e1b9abf7338"},"vehicle_type_id":"4","last_reported":1746788903,"current_range_meters":11200,"station_id":"","pricing_plan_id":"cebpf4jnsgd1na2vs0mg"},{"bike_id":"cfb5f8ab-2814-4f4d-9d75-d10095b1f175","system_id":"levelo_inurba_marseille","lat":43.25934,"lon":5.40899,"is_reserved":false,"is_disabled":false,"rental_uris":{"android":"levelo://app?vid=cfb5f8ab-2814-4f4d-9d75-d10095b1f175","ios":"levelo://app?vid=cfb5f8ab-2814-4f4d-9d75-d10095b1f175"},"vehicle_type_id":"4","last_reported":1746788903,"current_range_meters":11200,"station_id":"ce4bhm92rcd13ifvqglg","pricing_plan_id":"cebpf4jnsgd1na2vs0mg"},{"bike_id":"6fa74ce8-f299-4d6e-bae1-741bd54af124","system_id":"levelo_inurba_marseille","lat":43.27053,"lon":5.42251,"is_reserved":false,"is_disabled":false,"rental_uris":{"android":"levelo://app?vid=6fa74ce8-f299-4d6e-bae1-741bd54af124","ios":"levelo://app?vid=6fa74ce8-f299-4d6e-bae1-741bd54af124"},"vehicle_type_id":"4","last_reported":1746788903,"current_range_meters":11600,"station_id":"ce4bhk92rcd13ifvqgb0","pricing_plan_id":"cebpf4jnsgd1na2vs0mg"},{"bike_id":"8f9f14f5-32c0-4abb-83fb-b1e302581157","system_id":"levelo_inurba_marseille","lat":43.25931,"lon":5.40903,"is_reserved":false,"is_disabled":false,"rental_uris":{"android":"levelo://app?vid=8f9f14f5-32c0-4abb-83fb-b1e302581157","ios":"levelo://app?vid=8f9f14f5-32c0-4abb-83fb-b1e302581157"},"vehicle_type_id":"4","last_reported":1746788903,"current_range_meters":12000,"station_id":"ce4bhm92rcd13ifvqglg","pricing_plan_id":"cebpf4jnsgd1na2vs0mg"},{"bike_id":"c164b27a-9ec4-4b7c-bb8a-ab2776f0cf31","system_id":"levelo_inurba_marseille","lat":43.24084,"lon":5.37752,"is_reserved":false,"is_disabled":false,"rental_uris":{"android":"levelo://app?vid=c164b27a-9ec4-4b7c-bb8a-ab2776f0cf31","ios":"levelo://app?vid=c164b27a-9ec4-4b7c-bb8a-ab2776f0cf31"},"vehicle_type_id":"4","last_reported":1746788903,"current_range_meters":12000,"station_id":"ce4bhnp2rcd13ifvqgvg","pricing_plan_id":"cebpf4jnsgd1na2vs0mg"},{"bike_id":"7edad3f5-9aa6-40ce-bc65-3cfa6d6b591e","system_id":"levelo_inurba_marseille","lat":43.25719,"lon":5.41111,"is_reserved":false,"is_disabled":false,"rental_uris":{"android":"levelo://app?vid=7edad3f5-9aa6-40ce-bc65-3cfa6d6b591e","ios":"levelo://app?vid=7edad3f5-9aa6-40ce-bc65-3cfa6d6b591e"},"vehicle_type_id":"4","last_reported":1746788903,"current_range_meters":12000,"station_id":"ce4bhkp2rcd13ifvqgd0","pricing_plan_id":"cebpf4jnsgd1na2vs0mg"},{"bike_id":"d50c8c57-2d1b-4c70-9ce6-e602d4219a2a","system_id":"levelo_inurba_marseille","lat":43.309125,"lon":5.36853,"is_reserved":false,"is_disabled":false,"rental_uris":{"android":"levelo://app?vid=d50c8c57-2d1b-4c70-9ce6-e602d4219a2a","ios":"levelo://app?vid=d50c8c57-2d1b-4c70-9ce6-e602d4219a2a"},"vehicle_type_id":"4","last_reported":1746788903,"current_range_meters":12000,"station_id":"ce4bgn92rcd13ifvqbvg","pricing_plan_id":"cebpf4jnsgd1na2vs0mg"},{"bike_id":"5f768cd4-bded-4c2d-b170-ee7c6454ab18","system_id":"levelo_inurba_marseille","lat":43.28078,"lon":5.39662,"is_reserved":false,"is_disabled":false,"rental_uris":{"android":"levelo://app?vid=5f768cd4-bded-4c2d-b170-ee7c6454ab18","ios":"levelo://app?vid=5f768cd4-bded-4c2d-b170-ee7c6454ab18"},"vehicle_type_id":"4","last_reported":1746788903,"current_range_meters":12000,"station_id":"ce4bho12rcd13ifvqh2g","pricing_plan_id":"cebpf4jnsgd1na2vs0mg"},{"bike_id":"60d7375a-1ab8-401f-a911-83f5378cf892","system_id":"levelo_inurba_marseille","lat":43.30536,"lon":5.36678,"is_reserved":false,"is_disabled":false,"rental_uris":{"android":"levelo://app?vid=60d7375a-1ab8-401f-a911-83f5378cf892","ios":"levelo://app?vid=60d7375a-1ab8-401f-a911-83f5378cf892"},"vehicle_type_id":"4","last_reported":1746788903,"current_range_meters":12400,"station_id":"ce4bgrp2rcd13ifvqc9g","pricing_plan_id":"cebpf4jnsgd1na2vs0mg"},{"bike_id":"a20a1240-7ac9-4476-9baa-68d9ee79a31b","system_id":"levelo_inurba_marseille","lat":43.325374,"lon":5.414595,"is_reserved":false,"is_disabled":false,"rental_uris":{"android":"levelo://app?vid=a20a1240-7ac9-4476-9baa-68d9ee79a31b","ios":"levelo://app?vid=a20a1240-7ac9-4476-9baa-68d9ee79a31b"},"vehicle_type_id":"4","last_reported":1746788903,"current_range_meters":12400,"station_id":"ce4bhq12rcd13ifvqhhg","pricing_plan_id":"cebpf4jnsgd1na2vs0mg"},{"bike_id":"526ac06a-cd77-4007-acca-7871d3084f3b","system_id":"levelo_inurba_marseille","lat":43.30552,"lon":5.36528,"is_reserved":false,"is_disabled":false,"rental_uris":{"android":"levelo://app?vid=526ac06a-cd77-4007-acca-7871d3084f3b","ios":"levelo://app?vid=526ac06a-cd77-4007-acca-7871d3084f3b"},"vehicle_type_id":"4","last_reported":1746788903,"current_range_meters":12400,"station_id":"ce4bgs12rcd13ifvqcag","pricing_plan_id":"cebpf4jnsgd1na2vs0mg"},{"bike_id":"8e31c718-56bd-4b96-8e4f-81ae2c5186e4","system_id":"levelo_inurba_marseille","lat":43.28353,"lon":5.3811,"is_reserved":false,"is_disabled":false,"rental_uris":{"android":"levelo://app?vid=8e31c718-56bd-4b96-8e4f-81ae2c5186e4","ios":"levelo://app?vid=8e31c718-56bd-4b96-8e4f-81ae2c5186e4"},"vehicle_type_id":"4","last_reported":1746788903,"current_range_meters":12400,"station_id":"ce4bh412rcd13ifvqdr0","pricing_plan_id":"cebpf4jnsgd1na2vs0mg"},{"bike_id":"fbe94755-9415-49a0-acf1-3c4f4d277232","system_id":"levelo_inurba_marseille","lat":43.27946,"lon":5.4105,"is_reserved":false,"is_disabled":false,"rental_uris":{"android":"levelo://app?vid=fbe94755-9415-49a0-acf1-3c4f4d277232","ios":"levelo://app?vid=fbe94755-9415-49a0-acf1-3c4f4d277232"},"vehicle_type_id":"4","last_reported":1746788903,"current_range_meters":12800,"station_id":"ce4bhnp2rcd13ifvqh0g","pricing_plan_id":"cebpf4jnsgd1na2vs0mg"},{"bike_id":"40f2becd-7a92-4f81-8771-9994e1145f12","system_id":"levelo_inurba_marseille","lat":43.28358,"lon":5.38141,"is_reserved":false,"is_disabled":false,"rental_uris":{"android":"levelo://app?vid=40f2becd-7a92-4f81-8771-9994e1145f12","ios":"levelo://app?vid=40f2becd-7a92-4f81-8771-9994e1145f12"},"vehicle_type_id":"4","last_reported":1746788903,"current_range_meters":13600,"station_id":"ce4bh412rcd13ifvqdr0","pricing_plan_id":"cebpf4jnsgd1na2vs0mg"},{"bike_id":"b5daf6e0-841f-403a-b1f4-6214f4ffa54c","system_id":"levelo_inurba_marseille","lat":43.27498,"lon":5.42451,"is_reserved":false,"is_disabled":false,"rental_uris":{"android":"levelo://app?vid=b5daf6e0-841f-403a-b1f4-6214f4ffa54c","ios":"levelo://app?vid=b5daf6e0-841f-403a-b1f4-6214f4ffa54c"},"vehicle_type_id":"4","last_reported":1746788903,"current_range_meters":12800,"station_id":"ce4bhn92rcd13ifvqgrg","pricing_plan_id":"cebpf4jnsgd1na2vs0mg"},{"bike_id":"94b1c6a7-a958-417d-853f-1e7583bcb7f5","system_id":"levelo_inurba_marseille","lat":43.32353,"lon":5.36773,"is_reserved":false,"is_disabled":false,"rental_uris":{"android":"levelo://app?vid=94b1c6a7-a958-417d-853f-1e7583bcb7f5","ios":"levelo://app?vid=94b1c6a7-a958-417d-853f-1e7583bcb7f5"},"vehicle_type_id":"4","last_reported":1746788903,"current_range_meters":13600,"station_id":"ce4bhsh2rcd13ifvqi2g","pricing_plan_id":"cebpf4jnsgd1na2vs0mg"},{"bike_id":"b34bc11f-7e67-420b-a536-12f07bff09c3","system_id":"levelo_inurba_marseille","lat":43.27055,"lon":5.40174,"is_reserved":false,"is_disabled":false,"rental_uris":{"android":"levelo://app?vid=b34bc11f-7e67-420b-a536-12f07bff09c3","ios":"levelo://app?vid=b34bc11f-7e67-420b-a536-12f07bff09c3"},"vehicle_type_id":"4","last_reported":1746788903,"current_range_meters":13600,"station_id":"","pricing_plan_id":"cebpf4jnsgd1na2vs0mg"},{"bike_id":"b5ddd1e4-e644-4753-80a4-3d1cc06ff4a5","system_id":"levelo_inurba_marseille","lat":43.31086,"lon":5.42432,"is_reserved":false,"is_disabled":false,"rental_uris":{"android":"levelo://app?vid=b5ddd1e4-e644-4753-80a4-3d1cc06ff4a5","ios":"levelo://app?vid=b5ddd1e4-e644-4753-80a4-3d1cc06ff4a5"},"vehicle_type_id":"4","last_reported":1746788903,"current_range_meters":13600,"station_id":"ce4bhp92rcd13ifvqhag","pricing_plan_id":"cebpf4jnsgd1na2vs0mg"},{"bike_id":"fac303b8-84e4-403d-8fa5-4a21687ffa66","system_id":"levelo_inurba_marseille","lat":43.27057,"lon":5.40267,"is_reserved":false,"is_disabled":false,"rental_uris":{"android":"levelo://app?vid=fac303b8-84e4-403d-8fa5-4a21687ffa66","ios":"levelo://app?vid=fac303b8-84e4-403d-8fa5-4a21687ffa66"},"vehicle_type_id":"4","last_reported":1746788903,"current_range_meters":14000,"station_id":"ce4bhk92rcd13ifvqgc0","pricing_plan_id":"cebpf4jnsgd1na2vs0mg"},{"bike_id":"3b3b6c6b-04c5-4525-bfa4-3c504963678a","system_id":"levelo_inurba_marseille","lat":43.26232,"lon":5.40464,"is_reserved":false,"is_disabled":false,"rental_uris":{"android":"levelo://app?vid=3b3b6c6b-04c5-4525-bfa4-3c504963678a","ios":"levelo://app?vid=3b3b6c6b-04c5-4525-bfa4-3c504963678a"},"vehicle_type_id":"4","last_reported":1746788903,"current_range_meters":14000,"station_id":"ce4bhmh2rcd13ifvqgmg","pricing_plan_id":"cebpf4jnsgd1na2vs0mg"},{"bike_id":"4fc2916e-fd8a-4057-add3-fd7205558b49","system_id":"levelo_inurba_marseille","lat":43.31459,"lon":5.39077,"is_reserved":false,"is_disabled":false,"rental_uris":{"android":"levelo://app?vid=4fc2916e-fd8a-4057-add3-fd7205558b49","ios":"levelo://app?vid=4fc2916e-fd8a-4057-add3-fd7205558b49"},"vehicle_type_id":"4","last_reported":1746788903,"current_range_meters":14000,"station_id":"","pricing_plan_id":"cebpf4jnsgd1na2vs0mg"},{"bike_id":"a69d9bef-cc20-4afb-a11e-8df2349133c5","system_id":"levelo_inurba_marseille","lat":43.30466,"lon":5.37914,"is_reserved":false,"is_disabled":false,"rental_uris":{"android":"levelo://app?vid=a69d9bef-cc20-4afb-a11e-8df2349133c5","ios":"levelo://app?vid=a69d9bef-cc20-4afb-a11e-8df2349133c5"},"vehicle_type_id":"4","last_reported":1746788903,"current_range_meters":14000,"station_id":"ce4bgup2rcd13ifvqcn0","pricing_plan_id":"cebpf4jnsgd1na2vs0mg"},{"bike_id":"9528ce1d-f7b5-4227-a9c8-7c66d33fa705","system_id":"levelo_inurba_marseille","lat":43.29631,"lon":5.3773,"is_reserved":false,"is_disabled":false,"rental_uris":{"android":"levelo://app?vid=9528ce1d-f7b5-4227-a9c8-7c66d33fa705","ios":"levelo://app?vid=9528ce1d-f7b5-4227-a9c8-7c66d33fa705"},"vehicle_type_id":"4","last_reported":1746788903,"current_range_meters":14400,"station_id":"ce4bgi92rcd13ifvqb90","pricing_plan_id":"cebpf4jnsgd1na2vs0mg"},{"bike_id":"e6282093-23fb-41a9-859d-c0d9ad966535","system_id":"levelo_inurba_marseille","lat":43.31545,"lon":5.3823,"is_reserved":false,"is_disabled":false,"rental_uris":{"android":"levelo://app?vid=e6282093-23fb-41a9-859d-c0d9ad966535","ios":"levelo://app?vid=e6282093-23fb-41a9-859d-c0d9ad966535"},"vehicle_type_id":"4","last_reported":1746788903,"current_range_meters":14400,"station_id":"","pricing_plan_id":"cebpf4jnsgd1na2vs0mg"},{"bike_id":"aa3581a6-3d38-412c-a587-352de681d350","system_id":"levelo_inurba_marseille","lat":43.31487,"lon":5.37333,"is_reserved":false,"is_disabled":false,"rental_uris":{"android":"levelo://app?vid=aa3581a6-3d38-412c-a587-352de681d350","ios":"levelo://app?vid=aa3581a6-3d38-412c-a587-352de681d350"},"vehicle_type_id":"4","last_reported":1746788903,"current_range_meters":14400,"station_id":"ce4bgt12rcd13ifvqcd0","pricing_plan_id":"cebpf4jnsgd1na2vs0mg"},{"bike_id":"44355d28-d86b-44dd-a795-f92231357464","system_id":"levelo_inurba_marseille","lat":43.259471,"lon":5.409011,"is_reserved":false,"is_disabled":false,"rental_uris":{"android":"levelo://app?vid=44355d28-d86b-44dd-a795-f92231357464","ios":"levelo://app?vid=44355d28-d86b-44dd-a795-f92231357464"},"vehicle_type_id":"4","last_reported":1746788903,"current_range_meters":14800,"station_id":"ce4bhm92rcd13ifvqglg","pricing_plan_id":"cebpf4jnsgd1na2vs0mg"},{"bike_id":"43ef8272-28f4-49f8-a7ec-bcc65c510b6d","system_id":"levelo_inurba_marseille","lat":43.29024,"lon":5.38643,"is_reserved":false,"is_disabled":false,"rental_uris":{"android":"levelo://app?vid=43ef8272-28f4-49f8-a7ec-bcc65c510b6d","ios":"levelo://app?vid=43ef8272-28f4-49f8-a7ec-bcc65c510b6d"},"vehicle_type_id":"4","last_reported":1746788903,"current_range_meters":14800,"station_id":"ce4bh4p2rcd13ifvqe0g","pricing_plan_id":"cebpf4jnsgd1na2vs0mg"},{"bike_id":"28af82d6-ba10-49b7-baf7-4b16802aa45e","system_id":"levelo_inurba_marseille","lat":43.31493,"lon":5.37306,"is_reserved":false,"is_disabled":false,"rental_uris":{"android":"levelo://app?vid=28af82d6-ba10-49b7-baf7-4b16802aa45e","ios":"levelo://app?vid=28af82d6-ba10-49b7-baf7-4b16802aa45e"},"vehicle_type_id":"4","last_reported":1746788903,"current_range_meters":14800,"station_id":"ce4bgt12rcd13ifvqcd0","pricing_plan_id":"cebpf4jnsgd1na2vs0mg"},{"bike_id":"9c4e4011-9a5d-4b8f-aafb-e9663a440e14","system_id":"levelo_inurba_marseille","lat":43.23965,"lon":5.36628,"is_reserved":false,"is_disabled":false,"rental_uris":{"android":"levelo://app?vid=9c4e4011-9a5d-4b8f-aafb-e9663a440e14","ios":"levelo://app?vid=9c4e4011-9a5d-4b8f-aafb-e9663a440e14"},"vehicle_type_id":"4","last_reported":1746788903,"current_range_meters":14800,"station_id":"ce4bhi12rcd13ifvqfp0","pricing_plan_id":"cebpf4jnsgd1na2vs0mg"},{"bike_id":"0cb542d0-661d-4a86-904d-249f6866850a","system_id":"levelo_inurba_marseille","lat":43.257158,"lon":5.411141,"is_reserved":false,"is_disabled":false,"rental_uris":{"android":"levelo://app?vid=0cb542d0-661d-4a86-904d-249f6866850a","ios":"levelo://app?vid=0cb542d0-661d-4a86-904d-249f6866850a"},"vehicle_type_id":"4","last_reported":1746788903,"current_range_meters":16000,"station_id":"ce4bhkp2rcd13ifvqgd0","pricing_plan_id":"cebpf4jnsgd1na2vs0mg"},{"bike_id":"f969b97c-1c1a-4079-a8d8-16efa103018e","system_id":"levelo_inurba_marseille","lat":43.25907,"lon":5.40926,"is_reserved":false,"is_disabled":false,"rental_uris":{"android":"levelo://app?vid=f969b97c-1c1a-4079-a8d8-16efa103018e","ios":"levelo://app?vid=f969b97c-1c1a-4079-a8d8-16efa103018e"},"vehicle_type_id":"4","last_reported":1746788903,"current_range_meters":16000,"station_id":"ce4bhm92rcd13ifvqglg","pricing_plan_id":"cebpf4jnsgd1na2vs0mg"},{"bike_id":"b3fe4406-0b44-47c3-8718-56ba25e34d52","system_id":"levelo_inurba_marseille","lat":43.33598,"lon":5.4103,"is_reserved":false,"is_disabled":false,"rental_uris":{"android":"levelo://app?vid=b3fe4406-0b44-47c3-8718-56ba25e34d52","ios":"levelo://app?vid=b3fe4406-0b44-47c3-8718-56ba25e34d52"},"vehicle_type_id":"4","last_reported":1746788903,"current_range_meters":16000,"station_id":"ce4bhqh2rcd13ifvqhmg","pricing_plan_id":"cebpf4jnsgd1na2vs0mg"},{"bike_id":"d5ae9987-3c36-4197-a244-adc74140878e","system_id":"levelo_inurba_marseille","lat":43.31379,"lon":5.3673,"is_reserved":false,"is_disabled":false,"rental_uris":{"android":"levelo://app?vid=d5ae9987-3c36-4197-a244-adc74140878e","ios":"levelo://app?vid=d5ae9987-3c36-4197-a244-adc74140878e"},"vehicle_type_id":"4","last_reported":1746788903,"current_range_meters":16800,"station_id":"ce4bgr92rcd13ifvqc6g","pricing_plan_id":"cebpf4jnsgd1na2vs0mg"},{"bike_id":"39005936-d671-4d0a-9547-d8fb0f8d498d","system_id":"levelo_inurba_marseille","lat":43.33609,"lon":5.41022,"is_reserved":false,"is_disabled":false,"rental_uris":{"android":"levelo://app?vid=39005936-d671-4d0a-9547-d8fb0f8d498d","ios":"levelo://app?vid=39005936-d671-4d0a-9547-d8fb0f8d498d"},"vehicle_type_id":"4","last_reported":1746788903,"current_range_meters":16800,"station_id":"ce4bhqh2rcd13ifvqhmg","pricing_plan_id":"cebpf4jnsgd1na2vs0mg"},{"bike_id":"7fc1829d-d006-4438-a4e0-ef73bf018d8d","system_id":"levelo_inurba_marseille","lat":43.27495,"lon":5.42453,"is_reserved":false,"is_disabled":false,"rental_uris":{"android":"levelo://app?vid=7fc1829d-d006-4438-a4e0-ef73bf018d8d","ios":"levelo://app?vid=7fc1829d-d006-4438-a4e0-ef73bf018d8d"},"vehicle_type_id":"4","last_reported":1746788903,"current_range_meters":16800,"station_id":"ce4bhn92rcd13ifvqgrg","pricing_plan_id":"cebpf4jnsgd1na2vs0mg"},{"bike_id":"bb04a7f6-d462-4150-a0c8-5ce2a976823d","system_id":"levelo_inurba_marseille","lat":43.2781,"lon":5.40717,"is_reserved":false,"is_disabled":false,"rental_uris":{"android":"levelo://app?vid=bb04a7f6-d462-4150-a0c8-5ce2a976823d","ios":"levelo://app?vid=bb04a7f6-d462-4150-a0c8-5ce2a976823d"},"vehicle_type_id":"4","last_reported":1746788903,"current_range_meters":16800,"station_id":"ce4bhnh2rcd13ifvqgtg","pricing_plan_id":"cebpf4jnsgd1na2vs0mg"},{"bike_id":"228878a1-ba10-4a9d-8bd6-a2d0e5e4d6b0","system_id":"levelo_inurba_marseille","lat":43.279083,"lon":5.380071,"is_reserved":false,"is_disabled":false,"rental_uris":{"android":"levelo://app?vid=228878a1-ba10-4a9d-8bd6-a2d0e5e4d6b0","ios":"levelo://app?vid=228878a1-ba10-4a9d-8bd6-a2d0e5e4d6b0"},"vehicle_type_id":"4","last_reported":1746788903,"current_range_meters":16800,"station_id":"","pricing_plan_id":"cebpf4jnsgd1na2vs0mg"},{"bike_id":"577b6fa1-01aa-4b90-beb1-386dce7ef354","system_id":"levelo_inurba_marseille","lat":43.25915,"lon":5.40895,"is_reserved":false,"is_disabled":false,"rental_uris":{"android":"levelo://app?vid=577b6fa1-01aa-4b90-beb1-386dce7ef354","ios":"levelo://app?vid=577b6fa1-01aa-4b90-beb1-386dce7ef354"},"vehicle_type_id":"4","last_reported":1746788903,"current_range_meters":16800,"station_id":"ce4bhm92rcd13ifvqglg","pricing_plan_id":"cebpf4jnsgd1na2vs0mg"},{"bike_id":"478eb01f-e5ac-417e-ade4-9cdcd27afbb8","system_id":"levelo_inurba_marseille","lat":43.29728,"lon":5.37062,"is_reserved":false,"is_disabled":false,"rental_uris":{"android":"levelo://app?vid=478eb01f-e5ac-417e-ade4-9cdcd27afbb8","ios":"levelo://app?vid=478eb01f-e5ac-417e-ade4-9cdcd27afbb8"},"vehicle_type_id":"4","last_reported":1746788903,"current_range_meters":16800,"station_id":"ce4bgop2rcd13ifvqc1g","pricing_plan_id":"cebpf4jnsgd1na2vs0mg"},{"bike_id":"17c53b35-a2f1-475d-b28d-2c3ab96850e4","system_id":"levelo_inurba_marseille","lat":43.25933,"lon":5.40905,"is_reserved":false,"is_disabled":false,"rental_uris":{"android":"levelo://app?vid=17c53b35-a2f1-475d-b28d-2c3ab96850e4","ios":"levelo://app?vid=17c53b35-a2f1-475d-b28d-2c3ab96850e4"},"vehicle_type_id":"4","last_reported":1746788903,"current_range_meters":16800,"station_id":"ce4bhm92rcd13ifvqglg","pricing_plan_id":"cebpf4jnsgd1na2vs0mg"},{"bike_id":"32c1c59d-8204-4848-9c30-8370a817daaa","system_id":"levelo_inurba_marseille","lat":43.28368,"lon":5.38637,"is_reserved":false,"is_disabled":false,"rental_uris":{"android":"levelo://app?vid=32c1c59d-8204-4848-9c30-8370a817daaa","ios":"levelo://app?vid=32c1c59d-8204-4848-9c30-8370a817daaa"},"vehicle_type_id":"4","last_reported":1746788903,"current_range_meters":16400,"station_id":"ce4bh492rcd13ifvqdvg","pricing_plan_id":"cebpf4jnsgd1na2vs0mg"},{"bike_id":"c055015c-41db-4c9a-9aed-301123088acb","system_id":"levelo_inurba_marseille","lat":43.29534,"lon":5.38543,"is_reserved":false,"is_disabled":false,"rental_uris":{"android":"levelo://app?vid=c055015c-41db-4c9a-9aed-301123088acb","ios":"levelo://app?vid=c055015c-41db-4c9a-9aed-301123088acb"},"vehicle_type_id":"4","last_reported":1746788903,"current_range_meters":17200,"station_id":"ce4bgih2rcd13ifvqba0","pricing_plan_id":"cebpf4jnsgd1na2vs0mg"},{"bike_id":"00c72e71-df78-463f-9c25-c9a6a89950e0","system_id":"levelo_inurba_marseille","lat":43.256232,"lon":5.382469,"is_reserved":false,"is_disabled":false,"rental_uris":{"android":"levelo://app?vid=00c72e71-df78-463f-9c25-c9a6a89950e0","ios":"levelo://app?vid=00c72e71-df78-463f-9c25-c9a6a89950e0"},"vehicle_type_id":"4","last_reported":1746788903,"current_range_meters":17200,"station_id":"ce4bhih2rcd13ifvqfs0","pricing_plan_id":"cebpf4jnsgd1na2vs0mg"},{"bike_id":"c45b8261-bf18-4ab6-9823-267fb2012212","system_id":"levelo_inurba_marseille","lat":43.2815,"lon":5.42653,"is_reserved":false,"is_disabled":false,"rental_uris":{"android":"levelo://app?vid=c45b8261-bf18-4ab6-9823-267fb2012212","ios":"levelo://app?vid=c45b8261-bf18-4ab6-9823-267fb2012212"},"vehicle_type_id":"4","last_reported":1746788903,"current_range_meters":17200,"station_id":"ce4bhnh2rcd13ifvqgug","pricing_plan_id":"cebpf4jnsgd1na2vs0mg"},{"bike_id":"0bdcdff3-8294-49b9-80e9-145bbc1ad711","system_id":"levelo_inurba_marseille","lat":43.32252,"lon":5.36769,"is_reserved":false,"is_disabled":false,"rental_uris":{"android":"levelo://app?vid=0bdcdff3-8294-49b9-80e9-145bbc1ad711","ios":"levelo://app?vid=0bdcdff3-8294-49b9-80e9-145bbc1ad711"},"vehicle_type_id":"4","last_reported":1746788903,"current_range_meters":17200,"station_id":"","pricing_plan_id":"cebpf4jnsgd1na2vs0mg"},{"bike_id":"b0da6fab-95f2-4e86-9466-276ed3e48d60","system_id":"levelo_inurba_marseille","lat":43.29038,"lon":5.39961,"is_reserved":false,"is_disabled":false,"rental_uris":{"android":"levelo://app?vid=b0da6fab-95f2-4e86-9466-276ed3e48d60","ios":"levelo://app?vid=b0da6fab-95f2-4e86-9466-276ed3e48d60"},"vehicle_type_id":"4","last_reported":1746788903,"current_range_meters":17200,"station_id":"ce4bh392rcd13ifvqdm0","pricing_plan_id":"cebpf4jnsgd1na2vs0mg"},{"bike_id":"18fc0d34-3175-4e98-afa4-91a308790560","system_id":"levelo_inurba_marseille","lat":43.266811,"lon":5.402758,"is_reserved":false,"is_disabled":true,"rental_uris":{"android":"levelo://app?vid=18fc0d34-3175-4e98-afa4-91a308790560","ios":"levelo://app?vid=18fc0d34-3175-4e98-afa4-91a308790560"},"vehicle_type_id":"4","last_reported":1746788903,"current_range_meters":17200,"station_id":"","pricing_plan_id":"cebpf4jnsgd1na2vs0mg"},{"bike_id":"0c605e03-7385-4ebc-b08b-59b623dd1468","system_id":"levelo_inurba_marseille","lat":43.302876,"lon":5.376951,"is_reserved":false,"is_disabled":false,"rental_uris":{"android":"levelo://app?vid=0c605e03-7385-4ebc-b08b-59b623dd1468","ios":"levelo://app?vid=0c605e03-7385-4ebc-b08b-59b623dd1468"},"vehicle_type_id":"4","last_reported":1746788903,"current_range_meters":17200,"station_id":"ce4bguh2rcd13ifvqcj0","pricing_plan_id":"cebpf4jnsgd1na2vs0mg"},{"bike_id":"4f4eb38e-d799-43cb-8d16-bbaa26cb40d5","system_id":"levelo_inurba_marseille","lat":43.33024,"lon":5.39046,"is_reserved":false,"is_disabled":false,"rental_uris":{"android":"levelo://app?vid=4f4eb38e-d799-43cb-8d16-bbaa26cb40d5","ios":"levelo://app?vid=4f4eb38e-d799-43cb-8d16-bbaa26cb40d5"},"vehicle_type_id":"4","last_reported":1746788903,"current_range_meters":17200,"station_id":"ce4bhr92rcd13ifvqhrg","pricing_plan_id":"cebpf4jnsgd1na2vs0mg"},{"bike_id":"853f7e14-6a93-46df-978e-81a3d7f36783","system_id":"levelo_inurba_marseille","lat":43.21738,"lon":5.34612,"is_reserved":false,"is_disabled":false,"rental_uris":{"android":"levelo://app?vid=853f7e14-6a93-46df-978e-81a3d7f36783","ios":"levelo://app?vid=853f7e14-6a93-46df-978e-81a3d7f36783"},"vehicle_type_id":"4","last_reported":1746788903,"current_range_meters":17600,"station_id":"st_cvj6r9ubvosntc0bgbag","pricing_plan_id":"cebpf4jnsgd1na2vs0mg"},{"bike_id":"4a1dbc69-58cd-42c9-af6c-85864ecb6115","system_id":"levelo_inurba_marseille","lat":43.30555,"lon":5.36701,"is_reserved":false,"is_disabled":false,"rental_uris":{"android":"levelo://app?vid=4a1dbc69-58cd-42c9-af6c-85864ecb6115","ios":"levelo://app?vid=4a1dbc69-58cd-42c9-af6c-85864ecb6115"},"vehicle_type_id":"4","last_reported":1746788903,"current_range_meters":17600,"station_id":"ce4bgrp2rcd13ifvqc9g","pricing_plan_id":"cebpf4jnsgd1na2vs0mg"},{"bike_id":"19fbfea0-3b16-459f-b5df-95ecc2acee0f","system_id":"levelo_inurba_marseille","lat":43.27068,"lon":5.40272,"is_reserved":false,"is_disabled":false,"rental_uris":{"android":"levelo://app?vid=19fbfea0-3b16-459f-b5df-95ecc2acee0f","ios":"levelo://app?vid=19fbfea0-3b16-459f-b5df-95ecc2acee0f"},"vehicle_type_id":"4","last_reported":1746788903,"current_range_meters":18000,"station_id":"ce4bhk92rcd13ifvqgc0","pricing_plan_id":"cebpf4jnsgd1na2vs0mg"},{"bike_id":"ed89e9b6-7bdf-4dd4-9e15-d4ca3a122ba3","system_id":"levelo_inurba_marseille","lat":43.33607,"lon":5.410313,"is_reserved":false,"is_disabled":false,"rental_uris":{"android":"levelo://app?vid=ed89e9b6-7bdf-4dd4-9e15-d4ca3a122ba3","ios":"levelo://app?vid=ed89e9b6-7bdf-4dd4-9e15-d4ca3a122ba3"},"vehicle_type_id":"4","last_reported":1746788903,"current_range_meters":18000,"station_id":"ce4bhqh2rcd13ifvqhmg","pricing_plan_id":"cebpf4jnsgd1na2vs0mg"},{"bike_id":"4ec5fcfd-5603-47e3-9af9-64067df5bf18","system_id":"levelo_inurba_marseille","lat":43.25723,"lon":5.41118,"is_reserved":false,"is_disabled":false,"rental_uris":{"android":"levelo://app?vid=4ec5fcfd-5603-47e3-9af9-64067df5bf18","ios":"levelo://app?vid=4ec5fcfd-5603-47e3-9af9-64067df5bf18"},"vehicle_type_id":"4","last_reported":1746788903,"current_range_meters":18000,"station_id":"ce4bhkp2rcd13ifvqgd0","pricing_plan_id":"cebpf4jnsgd1na2vs0mg"},{"bike_id":"db1d5f79-a0ff-42df-aeb5-73a9037e3c59","system_id":"levelo_inurba_marseille","lat":43.305479,"lon":5.365605,"is_reserved":false,"is_disabled":false,"rental_uris":{"android":"levelo://app?vid=db1d5f79-a0ff-42df-aeb5-73a9037e3c59","ios":"levelo://app?vid=db1d5f79-a0ff-42df-aeb5-73a9037e3c59"},"vehicle_type_id":"4","last_reported":1746788903,"current_range_meters":18000,"station_id":"ce4bgs12rcd13ifvqcag","pricing_plan_id":"cebpf4jnsgd1na2vs0mg"},{"bike_id":"46ee0c08-af0f-45e0-b30a-518a16d06a18","system_id":"levelo_inurba_marseille","lat":43.25104,"lon":5.40319,"is_reserved":false,"is_disabled":false,"rental_uris":{"android":"levelo://app?vid=46ee0c08-af0f-45e0-b30a-518a16d06a18","ios":"levelo://app?vid=46ee0c08-af0f-45e0-b30a-518a16d06a18"},"vehicle_type_id":"4","last_reported":1746788903,"current_range_meters":18000,"station_id":"ce4bhlh2rcd13ifvqgig","pricing_plan_id":"cebpf4jnsgd1na2vs0mg"},{"bike_id":"0a1a2cf6-8ec4-4374-a505-7537295ab120","system_id":"levelo_inurba_marseille","lat":43.33608,"lon":5.41031,"is_reserved":false,"is_disabled":false,"rental_uris":{"android":"levelo://app?vid=0a1a2cf6-8ec4-4374-a505-7537295ab120","ios":"levelo://app?vid=0a1a2cf6-8ec4-4374-a505-7537295ab120"},"vehicle_type_id":"4","last_reported":1746788903,"current_range_meters":18800,"station_id":"ce4bhqh2rcd13ifvqhmg","pricing_plan_id":"cebpf4jnsgd1na2vs0mg"},{"bike_id":"c65732d7-d6e4-4134-b90d-85c2276db215","system_id":"levelo_inurba_marseille","lat":43.25947,"lon":5.40912,"is_reserved":false,"is_disabled":false,"rental_uris":{"android":"levelo://app?vid=c65732d7-d6e4-4134-b90d-85c2276db215","ios":"levelo://app?vid=c65732d7-d6e4-4134-b90d-85c2276db215"},"vehicle_type_id":"4","last_reported":1746788903,"current_range_meters":18800,"station_id":"ce4bhm92rcd13ifvqglg","pricing_plan_id":"cebpf4jnsgd1na2vs0mg"},{"bike_id":"3e7c6aae-b2bc-4dc1-ae18-e8b01d55045f","system_id":"levelo_inurba_marseille","lat":43.24639,"lon":5.43637,"is_reserved":false,"is_disabled":false,"rental_uris":{"android":"levelo://app?vid=3e7c6aae-b2bc-4dc1-ae18-e8b01d55045f","ios":"levelo://app?vid=3e7c6aae-b2bc-4dc1-ae18-e8b01d55045f"},"vehicle_type_id":"4","last_reported":1746788903,"current_range_meters":18800,"station_id":"","pricing_plan_id":"cebpf4jnsgd1na2vs0mg"},{"bike_id":"881c097a-b180-44f5-9d6b-1f54f714978b","system_id":"levelo_inurba_marseille","lat":43.27067,"lon":5.42283,"is_reserved":false,"is_disabled":false,"rental_uris":{"android":"levelo://app?vid=881c097a-b180-44f5-9d6b-1f54f714978b","ios":"levelo://app?vid=881c097a-b180-44f5-9d6b-1f54f714978b"},"vehicle_type_id":"4","last_reported":1746788903,"current_range_meters":18800,"station_id":"ce4bhk92rcd13ifvqgb0","pricing_plan_id":"cebpf4jnsgd1na2vs0mg"},{"bike_id":"af93deaf-2a0f-444a-8eb6-a2f0b0ba36be","system_id":"levelo_inurba_marseille","lat":43.23152,"lon":5.43702,"is_reserved":false,"is_disabled":false,"rental_uris":{"android":"levelo://app?vid=af93deaf-2a0f-444a-8eb6-a2f0b0ba36be","ios":"levelo://app?vid=af93deaf-2a0f-444a-8eb6-a2f0b0ba36be"},"vehicle_type_id":"4","last_reported":1746788903,"current_range_meters":18800,"station_id":"ce4bhmp2rcd13ifvqgog","pricing_plan_id":"cebpf4jnsgd1na2vs0mg"},{"bike_id":"4c8caa11-5a57-4fda-8df4-e156787138c0","system_id":"levelo_inurba_marseille","lat":43.3095,"lon":5.39032,"is_reserved":false,"is_disabled":false,"rental_uris":{"android":"levelo://app?vid=4c8caa11-5a57-4fda-8df4-e156787138c0","ios":"levelo://app?vid=4c8caa11-5a57-4fda-8df4-e156787138c0"},"vehicle_type_id":"4","last_reported":1746788903,"current_range_meters":18800,"station_id":"ce4bgup2rcd13ifvqco0","pricing_plan_id":"cebpf4jnsgd1na2vs0mg"},{"bike_id":"2b695556-5fdc-4725-a789-9b7b81b7a3a6","system_id":"levelo_inurba_marseille","lat":43.32357,"lon":5.367424,"is_reserved":false,"is_disabled":false,"rental_uris":{"android":"levelo://app?vid=2b695556-5fdc-4725-a789-9b7b81b7a3a6","ios":"levelo://app?vid=2b695556-5fdc-4725-a789-9b7b81b7a3a6"},"vehicle_type_id":"4","last_reported":1746788903,"current_range_meters":19200,"station_id":"ce4bhsh2rcd13ifvqi2g","pricing_plan_id":"cebpf4jnsgd1na2vs0mg"},{"bike_id":"1fa8cd79-99a2-4f2e-9c0a-e3cbc5c3e36a","system_id":"levelo_inurba_marseille","lat":43.32354,"lon":5.3675,"is_reserved":false,"is_disabled":false,"rental_uris":{"android":"levelo://app?vid=1fa8cd79-99a2-4f2e-9c0a-e3cbc5c3e36a","ios":"levelo://app?vid=1fa8cd79-99a2-4f2e-9c0a-e3cbc5c3e36a"},"vehicle_type_id":"4","last_reported":1746788903,"current_range_meters":19200,"station_id":"ce4bhsh2rcd13ifvqi2g","pricing_plan_id":"cebpf4jnsgd1na2vs0mg"},{"bike_id":"3118e10d-a14f-46cf-afa7-8810445c05d4","system_id":"levelo_inurba_marseille","lat":43.27997,"lon":5.41669,"is_reserved":false,"is_disabled":false,"rental_uris":{"android":"levelo://app?vid=3118e10d-a14f-46cf-afa7-8810445c05d4","ios":"levelo://app?vid=3118e10d-a14f-46cf-afa7-8810445c05d4"},"vehicle_type_id":"4","last_reported":1746788903,"current_range_meters":19200,"station_id":"ce4bho12rcd13ifvqh1g","pricing_plan_id":"cebpf4jnsgd1na2vs0mg"},{"bike_id":"1eadcbea-578d-46fb-9c69-ef2f921c052d","system_id":"levelo_inurba_marseille","lat":43.29573,"lon":5.37511,"is_reserved":false,"is_disabled":false,"rental_uris":{"android":"levelo://app?vid=1eadcbea-578d-46fb-9c69-ef2f921c052d","ios":"levelo://app?vid=1eadcbea-578d-46fb-9c69-ef2f921c052d"},"vehicle_type_id":"4","last_reported":1746788903,"current_range_meters":19200,"station_id":"ce4bgh92rcd13ifvqb50","pricing_plan_id":"cebpf4jnsgd1na2vs0mg"},{"bike_id":"afbe0ddb-76f2-4f1a-b067-55d78f248d92","system_id":"levelo_inurba_marseille","lat":43.31177,"lon":5.38704,"is_reserved":false,"is_disabled":false,"rental_uris":{"android":"levelo://app?vid=afbe0ddb-76f2-4f1a-b067-55d78f248d92","ios":"levelo://app?vid=afbe0ddb-76f2-4f1a-b067-55d78f248d92"},"vehicle_type_id":"4","last_reported":1746788903,"current_range_meters":19200,"station_id":"ce4bgv12rcd13ifvqcp0","pricing_plan_id":"cebpf4jnsgd1na2vs0mg"},{"bike_id":"624d3175-4cd8-4d4d-9282-7c42dbfe62ca","system_id":"levelo_inurba_marseille","lat":43.27943,"lon":5.41029,"is_reserved":false,"is_disabled":false,"rental_uris":{"android":"levelo://app?vid=624d3175-4cd8-4d4d-9282-7c42dbfe62ca","ios":"levelo://app?vid=624d3175-4cd8-4d4d-9282-7c42dbfe62ca"},"vehicle_type_id":"4","last_reported":1746788903,"current_range_meters":19200,"station_id":"ce4bhnp2rcd13ifvqh0g","pricing_plan_id":"cebpf4jnsgd1na2vs0mg"},{"bike_id":"fc2577e7-1497-425b-9d4f-ab8d7dc843c6","system_id":"levelo_inurba_marseille","lat":43.33771,"lon":5.37485,"is_reserved":false,"is_disabled":false,"rental_uris":{"android":"levelo://app?vid=fc2577e7-1497-425b-9d4f-ab8d7dc843c6","ios":"levelo://app?vid=fc2577e7-1497-425b-9d4f-ab8d7dc843c6"},"vehicle_type_id":"4","last_reported":1746788903,"current_range_meters":19600,"station_id":"","pricing_plan_id":"cebpf4jnsgd1na2vs0mg"},{"bike_id":"fa1b1f66-7519-42e8-92aa-be43cf3d9e34","system_id":"levelo_inurba_marseille","lat":43.22513,"lon":5.34776,"is_reserved":false,"is_disabled":false,"rental_uris":{"android":"levelo://app?vid=fa1b1f66-7519-42e8-92aa-be43cf3d9e34","ios":"levelo://app?vid=fa1b1f66-7519-42e8-92aa-be43cf3d9e34"},"vehicle_type_id":"4","last_reported":1746788903,"current_range_meters":19600,"station_id":"st_cvj5dfep6f1abm77gieg","pricing_plan_id":"cebpf4jnsgd1na2vs0mg"},{"bike_id":"3f39d361-d2f5-4154-ba25-cd5454c2b70f","system_id":"levelo_inurba_marseille","lat":43.290297,"lon":5.386514,"is_reserved":false,"is_disabled":false,"rental_uris":{"android":"levelo://app?vid=3f39d361-d2f5-4154-ba25-cd5454c2b70f","ios":"levelo://app?vid=3f39d361-d2f5-4154-ba25-cd5454c2b70f"},"vehicle_type_id":"4","last_reported":1746788903,"current_range_meters":19600,"station_id":"ce4bh4p2rcd13ifvqe0g","pricing_plan_id":"cebpf4jnsgd1na2vs0mg"},{"bike_id":"fe152078-e2e8-400b-b6b4-72500a2d6a25","system_id":"levelo_inurba_marseille","lat":43.28468,"lon":5.35899,"is_reserved":false,"is_disabled":false,"rental_uris":{"android":"levelo://app?vid=fe152078-e2e8-400b-b6b4-72500a2d6a25","ios":"levelo://app?vid=fe152078-e2e8-400b-b6b4-72500a2d6a25"},"vehicle_type_id":"4","last_reported":1746788903,"current_range_meters":19600,"station_id":"ce4bhah2rcd13ifvqei0","pricing_plan_id":"cebpf4jnsgd1na2vs0mg"},{"bike_id":"c2a8b424-c13b-4ae6-809f-4b9a87fdfcc1","system_id":"levelo_inurba_marseille","lat":43.29904,"lon":5.38144,"is_reserved":false,"is_disabled":false,"rental_uris":{"android":"levelo://app?vid=c2a8b424-c13b-4ae6-809f-4b9a87fdfcc1","ios":"levelo://app?vid=c2a8b424-c13b-4ae6-809f-4b9a87fdfcc1"},"vehicle_type_id":"4","last_reported":1746788903,"current_range_meters":19600,"station_id":"ce4bgj12rcd13ifvqbc0","pricing_plan_id":"cebpf4jnsgd1na2vs0mg"},{"bike_id":"4f0f2116-7fef-4c20-974f-a89f2cbab7d1","system_id":"levelo_inurba_marseille","lat":43.29265,"lon":5.3844,"is_reserved":false,"is_disabled":false,"rental_uris":{"android":"levelo://app?vid=4f0f2116-7fef-4c20-974f-a89f2cbab7d1","ios":"levelo://app?vid=4f0f2116-7fef-4c20-974f-a89f2cbab7d1"},"vehicle_type_id":"4","last_reported":1746788903,"current_range_meters":19600,"station_id":"ce4bh692rcd13ifvqea0","pricing_plan_id":"cebpf4jnsgd1na2vs0mg"},{"bike_id":"edd60f3c-8f20-43fd-b8a1-002c70da4042","system_id":"levelo_inurba_marseille","lat":43.245453,"lon":5.39536,"is_reserved":false,"is_disabled":false,"rental_uris":{"android":"levelo://app?vid=edd60f3c-8f20-43fd-b8a1-002c70da4042","ios":"levelo://app?vid=edd60f3c-8f20-43fd-b8a1-002c70da4042"},"vehicle_type_id":"4","last_reported":1746788903,"current_range_meters":19600,"station_id":"ce4bhlp2rcd13ifvqgjg","pricing_plan_id":"cebpf4jnsgd1na2vs0mg"},{"bike_id":"fade68e4-b35c-4045-98bd-a3c960491e23","system_id":"levelo_inurba_marseille","lat":43.2315,"lon":5.43718,"is_reserved":false,"is_disabled":false,"rental_uris":{"android":"levelo://app?vid=fade68e4-b35c-4045-98bd-a3c960491e23","ios":"levelo://app?vid=fade68e4-b35c-4045-98bd-a3c960491e23"},"vehicle_type_id":"4","last_reported":1746788903,"current_range_meters":19600,"station_id":"ce4bhmp2rcd13ifvqgog","pricing_plan_id":"cebpf4jnsgd1na2vs0mg"},{"bike_id":"2ca36fce-243b-45a7-bd06-afbc232b5ae5","system_id":"levelo_inurba_marseille","lat":43.2173,"lon":5.34634,"is_reserved":false,"is_disabled":false,"rental_uris":{"android":"levelo://app?vid=2ca36fce-243b-45a7-bd06-afbc232b5ae5","ios":"levelo://app?vid=2ca36fce-243b-45a7-bd06-afbc232b5ae5"},"vehicle_type_id":"4","last_reported":1746788903,"current_range_meters":19600,"station_id":"st_cvj6r9ubvosntc0bgbag","pricing_plan_id":"cebpf4jnsgd1na2vs0mg"},{"bike_id":"a8472821-ac6c-4cb3-aea8-6d5dd2cc3a4c","system_id":"levelo_inurba_marseille","lat":43.30535,"lon":5.367164,"is_reserved":false,"is_disabled":false,"rental_uris":{"android":"levelo://app?vid=a8472821-ac6c-4cb3-aea8-6d5dd2cc3a4c","ios":"levelo://app?vid=a8472821-ac6c-4cb3-aea8-6d5dd2cc3a4c"},"vehicle_type_id":"4","last_reported":1746788903,"current_range_meters":19600,"station_id":"ce4bgrp2rcd13ifvqc9g","pricing_plan_id":"cebpf4jnsgd1na2vs0mg"},{"bike_id":"fb61e72b-b7e1-4e2f-b0c2-216d3c8e3124","system_id":"levelo_inurba_marseille","lat":43.2417,"lon":5.36392,"is_reserved":false,"is_disabled":false,"rental_uris":{"android":"levelo://app?vid=fb61e72b-b7e1-4e2f-b0c2-216d3c8e3124","ios":"levelo://app?vid=fb61e72b-b7e1-4e2f-b0c2-216d3c8e3124"},"vehicle_type_id":"4","last_reported":1746788903,"current_range_meters":19600,"station_id":"cpo36qri1sfpv3e86is0","pricing_plan_id":"cebpf4jnsgd1na2vs0mg"},{"bike_id":"545e5687-b7df-4883-81be-75a8925d5f91","system_id":"levelo_inurba_marseille","lat":43.337444,"lon":5.374475,"is_reserved":false,"is_disabled":false,"rental_uris":{"android":"levelo://app?vid=545e5687-b7df-4883-81be-75a8925d5f91","ios":"levelo://app?vid=545e5687-b7df-4883-81be-75a8925d5f91"},"vehicle_type_id":"4","last_reported":1746788903,"current_range_meters":19600,"station_id":"","pricing_plan_id":"cebpf4jnsgd1na2vs0mg"},{"bike_id":"5aff3eb5-177c-46b2-854b-e097bb7521f2","system_id":"levelo_inurba_marseille","lat":43.24163,"lon":5.363983,"is_reserved":false,"is_disabled":false,"rental_uris":{"android":"levelo://app?vid=5aff3eb5-177c-46b2-854b-e097bb7521f2","ios":"levelo://app?vid=5aff3eb5-177c-46b2-854b-e097bb7521f2"},"vehicle_type_id":"4","last_reported":1746788903,"current_range_meters":19600,"station_id":"cpo36qri1sfpv3e86is0","pricing_plan_id":"cebpf4jnsgd1na2vs0mg"},{"bike_id":"2a6f3158-bca2-4e5c-abb0-ec2f74602735","system_id":"levelo_inurba_marseille","lat":43.29524,"lon":5.39032,"is_reserved":false,"is_disabled":false,"rental_uris":{"android":"levelo://app?vid=2a6f3158-bca2-4e5c-abb0-ec2f74602735","ios":"levelo://app?vid=2a6f3158-bca2-4e5c-abb0-ec2f74602735"},"vehicle_type_id":"4","last_reported":1746788903,"current_range_meters":20000,"station_id":"ce4bh3p2rcd13ifvqdp0","pricing_plan_id":"cebpf4jnsgd1na2vs0mg"},{"bike_id":"0d9f27e1-4f1c-4325-93d2-99782f6fa2b7","system_id":"levelo_inurba_marseille","lat":43.27945,"lon":5.41047,"is_reserved":false,"is_disabled":false,"rental_uris":{"android":"levelo://app?vid=0d9f27e1-4f1c-4325-93d2-99782f6fa2b7","ios":"levelo://app?vid=0d9f27e1-4f1c-4325-93d2-99782f6fa2b7"},"vehicle_type_id":"4","last_reported":1746788903,"current_range_meters":20000,"station_id":"ce4bhnp2rcd13ifvqh0g","pricing_plan_id":"cebpf4jnsgd1na2vs0mg"},{"bike_id":"7dbf7670-d1d0-4a80-8ac5-74bfe0c01954","system_id":"levelo_inurba_marseille","lat":43.23762,"lon":5.36189,"is_reserved":false,"is_disabled":false,"rental_uris":{"android":"levelo://app?vid=7dbf7670-d1d0-4a80-8ac5-74bfe0c01954","ios":"levelo://app?vid=7dbf7670-d1d0-4a80-8ac5-74bfe0c01954"},"vehicle_type_id":"4","last_reported":1746788903,"current_range_meters":20000,"station_id":"","pricing_plan_id":"cebpf4jnsgd1na2vs0mg"},{"bike_id":"98c1dfcb-2f93-4952-8db5-c31a2712a269","system_id":"levelo_inurba_marseille","lat":43.308822,"lon":5.396418,"is_reserved":false,"is_disabled":false,"rental_uris":{"android":"levelo://app?vid=98c1dfcb-2f93-4952-8db5-c31a2712a269","ios":"levelo://app?vid=98c1dfcb-2f93-4952-8db5-c31a2712a269"},"vehicle_type_id":"4","last_reported":1746788903,"current_range_meters":20000,"station_id":"ce4bh012rcd13ifvqcv0","pricing_plan_id":"cebpf4jnsgd1na2vs0mg"},{"bike_id":"66d39f5f-1aac-423b-9ea7-bf9c1b0e5079","system_id":"levelo_inurba_marseille","lat":43.27509,"lon":5.4114,"is_reserved":false,"is_disabled":false,"rental_uris":{"android":"levelo://app?vid=66d39f5f-1aac-423b-9ea7-bf9c1b0e5079","ios":"levelo://app?vid=66d39f5f-1aac-423b-9ea7-bf9c1b0e5079"},"vehicle_type_id":"4","last_reported":1746788903,"current_range_meters":20000,"station_id":"","pricing_plan_id":"cebpf4jnsgd1na2vs0mg"},{"bike_id":"77f39ac5-cd05-444d-b4e2-53aef556c151","system_id":"levelo_inurba_marseille","lat":43.27825,"lon":5.40719,"is_reserved":false,"is_disabled":false,"rental_uris":{"android":"levelo://app?vid=77f39ac5-cd05-444d-b4e2-53aef556c151","ios":"levelo://app?vid=77f39ac5-cd05-444d-b4e2-53aef556c151"},"vehicle_type_id":"4","last_reported":1746788903,"current_range_meters":20000,"station_id":"ce4bhnh2rcd13ifvqgtg","pricing_plan_id":"cebpf4jnsgd1na2vs0mg"},{"bike_id":"42c48e98-22da-4a4d-809d-1e897c01758c","system_id":"levelo_inurba_marseille","lat":43.2623,"lon":5.40458,"is_reserved":false,"is_disabled":false,"rental_uris":{"android":"levelo://app?vid=42c48e98-22da-4a4d-809d-1e897c01758c","ios":"levelo://app?vid=42c48e98-22da-4a4d-809d-1e897c01758c"},"vehicle_type_id":"4","last_reported":1746788903,"current_range_meters":20000,"station_id":"ce4bhmh2rcd13ifvqgmg","pricing_plan_id":"cebpf4jnsgd1na2vs0mg"},{"bike_id":"9b84e65f-2424-4f8e-b51b-21355d123536","system_id":"levelo_inurba_marseille","lat":43.31505,"lon":5.37269,"is_reserved":false,"is_disabled":false,"rental_uris":{"android":"levelo://app?vid=9b84e65f-2424-4f8e-b51b-21355d123536","ios":"levelo://app?vid=9b84e65f-2424-4f8e-b51b-21355d123536"},"vehicle_type_id":"4","last_reported":1746788903,"current_range_meters":20400,"station_id":"ce4bgt12rcd13ifvqcd0","pricing_plan_id":"cebpf4jnsgd1na2vs0mg"},{"bike_id":"9345211c-b28d-4631-bd52-3554d42130c8","system_id":"levelo_inurba_marseille","lat":43.26254,"lon":5.37878,"is_reserved":false,"is_disabled":false,"rental_uris":{"android":"levelo://app?vid=9345211c-b28d-4631-bd52-3554d42130c8","ios":"levelo://app?vid=9345211c-b28d-4631-bd52-3554d42130c8"},"vehicle_type_id":"4","last_reported":1746788903,"current_range_meters":20400,"station_id":"ce4bhg92rcd13ifvqf90","pricing_plan_id":"cebpf4jnsgd1na2vs0mg"},{"bike_id":"92fd363a-2e65-453d-a6af-63563a8ea6b2","system_id":"levelo_inurba_marseille","lat":43.28664,"lon":5.38662,"is_reserved":false,"is_disabled":false,"rental_uris":{"android":"levelo://app?vid=92fd363a-2e65-453d-a6af-63563a8ea6b2","ios":"levelo://app?vid=92fd363a-2e65-453d-a6af-63563a8ea6b2"},"vehicle_type_id":"4","last_reported":1746788903,"current_range_meters":20800,"station_id":"ce4bh492rcd13ifvqdug","pricing_plan_id":"cebpf4jnsgd1na2vs0mg"},{"bike_id":"19aa3130-b984-4467-88e9-239aae15e43a","system_id":"levelo_inurba_marseille","lat":43.2439,"lon":5.37065,"is_reserved":false,"is_disabled":false,"rental_uris":{"android":"levelo://app?vid=19aa3130-b984-4467-88e9-239aae15e43a","ios":"levelo://app?vid=19aa3130-b984-4467-88e9-239aae15e43a"},"vehicle_type_id":"4","last_reported":1746788903,"current_range_meters":20400,"station_id":"ce4bhhh2rcd13ifvqfk0","pricing_plan_id":"cebpf4jnsgd1na2vs0mg"},{"bike_id":"c85831b1-994b-430f-b636-65b121b5b943","system_id":"levelo_inurba_marseille","lat":43.2841,"lon":5.37522,"is_reserved":false,"is_disabled":false,"rental_uris":{"android":"levelo://app?vid=c85831b1-994b-430f-b636-65b121b5b943","ios":"levelo://app?vid=c85831b1-994b-430f-b636-65b121b5b943"},"vehicle_type_id":"4","last_reported":1746788903,"current_range_meters":21600,"station_id":"ce4bh412rcd13ifvqds0","pricing_plan_id":"cebpf4jnsgd1na2vs0mg"},{"bike_id":"a1121b36-b5cd-4dda-96ef-13a3dfaa55e1","system_id":"levelo_inurba_marseille","lat":43.301401,"lon":5.387791,"is_reserved":false,"is_disabled":false,"rental_uris":{"android":"levelo://app?vid=a1121b36-b5cd-4dda-96ef-13a3dfaa55e1","ios":"levelo://app?vid=a1121b36-b5cd-4dda-96ef-13a3dfaa55e1"},"vehicle_type_id":"4","last_reported":1746788903,"current_range_meters":21600,"station_id":"","pricing_plan_id":"cebpf4jnsgd1na2vs0mg"},{"bike_id":"a7ad83d4-b109-4b29-aaf3-aaaf261d1a57","system_id":"levelo_inurba_marseille","lat":43.25923,"lon":5.40891,"is_reserved":false,"is_disabled":false,"rental_uris":{"android":"levelo://app?vid=a7ad83d4-b109-4b29-aaf3-aaaf261d1a57","ios":"levelo://app?vid=a7ad83d4-b109-4b29-aaf3-aaaf261d1a57"},"vehicle_type_id":"4","last_reported":1746788903,"current_range_meters":22000,"station_id":"ce4bhm92rcd13ifvqglg","pricing_plan_id":"cebpf4jnsgd1na2vs0mg"},{"bike_id":"779c42c3-ff94-4a7d-8e5a-305967ca40fa","system_id":"levelo_inurba_marseille","lat":43.25111,"lon":5.40328,"is_reserved":false,"is_disabled":false,"rental_uris":{"android":"levelo://app?vid=779c42c3-ff94-4a7d-8e5a-305967ca40fa","ios":"levelo://app?vid=779c42c3-ff94-4a7d-8e5a-305967ca40fa"},"vehicle_type_id":"4","last_reported":1746788903,"current_range_meters":22000,"station_id":"ce4bhlh2rcd13ifvqgig","pricing_plan_id":"cebpf4jnsgd1na2vs0mg"},{"bike_id":"2d6856ac-db8e-4729-a56c-d8940dfaff9b","system_id":"levelo_inurba_marseille","lat":43.259441,"lon":5.409032,"is_reserved":false,"is_disabled":false,"rental_uris":{"android":"levelo://app?vid=2d6856ac-db8e-4729-a56c-d8940dfaff9b","ios":"levelo://app?vid=2d6856ac-db8e-4729-a56c-d8940dfaff9b"},"vehicle_type_id":"4","last_reported":1746788903,"current_range_meters":22400,"station_id":"ce4bhm92rcd13ifvqglg","pricing_plan_id":"cebpf4jnsgd1na2vs0mg"},{"bike_id":"b29d91df-e2cb-4a9b-b982-cdf67db12468","system_id":"levelo_inurba_marseille","lat":43.21748,"lon":5.34609,"is_reserved":false,"is_disabled":false,"rental_uris":{"android":"levelo://app?vid=b29d91df-e2cb-4a9b-b982-cdf67db12468","ios":"levelo://app?vid=b29d91df-e2cb-4a9b-b982-cdf67db12468"},"vehicle_type_id":"4","last_reported":1746788903,"current_range_meters":22800,"station_id":"st_cvj6r9ubvosntc0bgbag","pricing_plan_id":"cebpf4jnsgd1na2vs0mg"},{"bike_id":"f9134a92-f742-4222-b344-2fd15155eba4","system_id":"levelo_inurba_marseille","lat":43.280398,"lon":5.369512,"is_reserved":false,"is_disabled":false,"rental_uris":{"android":"levelo://app?vid=f9134a92-f742-4222-b344-2fd15155eba4","ios":"levelo://app?vid=f9134a92-f742-4222-b344-2fd15155eba4"},"vehicle_type_id":"4","last_reported":1746788903,"current_range_meters":22800,"station_id":"ce4bha12rcd13ifvqef0","pricing_plan_id":"cebpf4jnsgd1na2vs0mg"},{"bike_id":"589be833-6fc8-4c7e-abe3-20b2a016c12e","system_id":"levelo_inurba_marseille","lat":43.21192,"lon":5.35074,"is_reserved":false,"is_disabled":false,"rental_uris":{"android":"levelo://app?vid=589be833-6fc8-4c7e-abe3-20b2a016c12e","ios":"levelo://app?vid=589be833-6fc8-4c7e-abe3-20b2a016c12e"},"vehicle_type_id":"4","last_reported":1746788903,"current_range_meters":22800,"station_id":"st_cvj6sg6p6f1abm77japg","pricing_plan_id":"cebpf4jnsgd1na2vs0mg"},{"bike_id":"7b1a1c0e-6c4d-4049-9697-985ea43a9f30","system_id":"levelo_inurba_marseille","lat":43.287,"lon":5.39991,"is_reserved":false,"is_disabled":false,"rental_uris":{"android":"levelo://app?vid=7b1a1c0e-6c4d-4049-9697-985ea43a9f30","ios":"levelo://app?vid=7b1a1c0e-6c4d-4049-9697-985ea43a9f30"},"vehicle_type_id":"4","last_reported":1746788903,"current_range_meters":22800,"station_id":"ce4bho92rcd13ifvqh3g","pricing_plan_id":"cebpf4jnsgd1na2vs0mg"},{"bike_id":"69250bc1-34ca-4e31-9a65-46cd802a7e0f","system_id":"levelo_inurba_marseille","lat":43.3236,"lon":5.36761,"is_reserved":false,"is_disabled":false,"rental_uris":{"android":"levelo://app?vid=69250bc1-34ca-4e31-9a65-46cd802a7e0f","ios":"levelo://app?vid=69250bc1-34ca-4e31-9a65-46cd802a7e0f"},"vehicle_type_id":"4","last_reported":1746788903,"current_range_meters":22800,"station_id":"ce4bhsh2rcd13ifvqi2g","pricing_plan_id":"cebpf4jnsgd1na2vs0mg"},{"bike_id":"3b8aa428-be44-4b7c-bc5b-5f40f1b3ad78","system_id":"levelo_inurba_marseille","lat":43.2592,"lon":5.40894,"is_reserved":false,"is_disabled":false,"rental_uris":{"android":"levelo://app?vid=3b8aa428-be44-4b7c-bc5b-5f40f1b3ad78","ios":"levelo://app?vid=3b8aa428-be44-4b7c-bc5b-5f40f1b3ad78"},"vehicle_type_id":"4","last_reported":1746788903,"current_range_meters":22800,"station_id":"ce4bhm92rcd13ifvqglg","pricing_plan_id":"cebpf4jnsgd1na2vs0mg"},{"bike_id":"737d6b9e-1201-43d3-ade4-1cdf6e01a511","system_id":"levelo_inurba_marseille","lat":43.21189,"lon":5.35078,"is_reserved":false,"is_disabled":false,"rental_uris":{"android":"levelo://app?vid=737d6b9e-1201-43d3-ade4-1cdf6e01a511","ios":"levelo://app?vid=737d6b9e-1201-43d3-ade4-1cdf6e01a511"},"vehicle_type_id":"4","last_reported":1746788903,"current_range_meters":22800,"station_id":"st_cvj6sg6p6f1abm77japg","pricing_plan_id":"cebpf4jnsgd1na2vs0mg"},{"bike_id":"e452c63a-c77f-4b5c-9712-2be0fc8111c4","system_id":"levelo_inurba_marseille","lat":43.32578,"lon":5.41441,"is_reserved":false,"is_disabled":false,"rental_uris":{"android":"levelo://app?vid=e452c63a-c77f-4b5c-9712-2be0fc8111c4","ios":"levelo://app?vid=e452c63a-c77f-4b5c-9712-2be0fc8111c4"},"vehicle_type_id":"4","last_reported":1746788903,"current_range_meters":22800,"station_id":"","pricing_plan_id":"cebpf4jnsgd1na2vs0mg"},{"bike_id":"7f26b5c9-fc01-4daf-94dd-4f64f2a168d1","system_id":"levelo_inurba_marseille","lat":43.29593,"lon":5.38091,"is_reserved":false,"is_disabled":false,"rental_uris":{"android":"levelo://app?vid=7f26b5c9-fc01-4daf-94dd-4f64f2a168d1","ios":"levelo://app?vid=7f26b5c9-fc01-4daf-94dd-4f64f2a168d1"},"vehicle_type_id":"4","last_reported":1746788903,"current_range_meters":22800,"station_id":"ce4bgl12rcd13ifvqbo0","pricing_plan_id":"cebpf4jnsgd1na2vs0mg"},{"bike_id":"11bac9a6-0e04-4c68-9615-f13539342864","system_id":"levelo_inurba_marseille","lat":43.21189,"lon":5.35075,"is_reserved":false,"is_disabled":false,"rental_uris":{"android":"levelo://app?vid=11bac9a6-0e04-4c68-9615-f13539342864","ios":"levelo://app?vid=11bac9a6-0e04-4c68-9615-f13539342864"},"vehicle_type_id":"4","last_reported":1746788903,"current_range_meters":23200,"station_id":"st_cvj6sg6p6f1abm77japg","pricing_plan_id":"cebpf4jnsgd1na2vs0mg"},{"bike_id":"52756607-7827-4f61-8695-3cabe7ff1d7c","system_id":"levelo_inurba_marseille","lat":43.24178,"lon":5.3973,"is_reserved":false,"is_disabled":false,"rental_uris":{"android":"levelo://app?vid=52756607-7827-4f61-8695-3cabe7ff1d7c","ios":"levelo://app?vid=52756607-7827-4f61-8695-3cabe7ff1d7c"},"vehicle_type_id":"4","last_reported":1746788903,"current_range_meters":23200,"station_id":"ce4bhn12rcd13ifvqgpg","pricing_plan_id":"cebpf4jnsgd1na2vs0mg"},{"bike_id":"ffbfd495-d076-4ec4-ac1f-e8531efd9abf","system_id":"levelo_inurba_marseille","lat":43.29525,"lon":5.39045,"is_reserved":false,"is_disabled":false,"rental_uris":{"android":"levelo://app?vid=ffbfd495-d076-4ec4-ac1f-e8531efd9abf","ios":"levelo://app?vid=ffbfd495-d076-4ec4-ac1f-e8531efd9abf"},"vehicle_type_id":"4","last_reported":1746788903,"current_range_meters":23200,"station_id":"ce4bh3p2rcd13ifvqdp0","pricing_plan_id":"cebpf4jnsgd1na2vs0mg"},{"bike_id":"229359d9-1c94-4966-917d-184906ea0e90","system_id":"levelo_inurba_marseille","lat":43.29581,"lon":5.37495,"is_reserved":false,"is_disabled":false,"rental_uris":{"android":"levelo://app?vid=229359d9-1c94-4966-917d-184906ea0e90","ios":"levelo://app?vid=229359d9-1c94-4966-917d-184906ea0e90"},"vehicle_type_id":"4","last_reported":1746788903,"current_range_meters":23200,"station_id":"ce4bgh92rcd13ifvqb50","pricing_plan_id":"cebpf4jnsgd1na2vs0mg"},{"bike_id":"a6a9af7e-5e96-4162-ba1f-aee5c59688c2","system_id":"levelo_inurba_marseille","lat":43.27816,"lon":5.40713,"is_reserved":false,"is_disabled":false,"rental_uris":{"android":"levelo://app?vid=a6a9af7e-5e96-4162-ba1f-aee5c59688c2","ios":"levelo://app?vid=a6a9af7e-5e96-4162-ba1f-aee5c59688c2"},"vehicle_type_id":"4","last_reported":1746788903,"current_range_meters":23200,"station_id":"ce4bhnh2rcd13ifvqgtg","pricing_plan_id":"cebpf4jnsgd1na2vs0mg"},{"bike_id":"d0b11ce3-9184-4b1e-a3ae-65945de8faa4","system_id":"levelo_inurba_marseille","lat":43.278073,"lon":5.407207,"is_reserved":false,"is_disabled":false,"rental_uris":{"android":"levelo://app?vid=d0b11ce3-9184-4b1e-a3ae-65945de8faa4","ios":"levelo://app?vid=d0b11ce3-9184-4b1e-a3ae-65945de8faa4"},"vehicle_type_id":"4","last_reported":1746788903,"current_range_meters":23200,"station_id":"ce4bhnh2rcd13ifvqgtg","pricing_plan_id":"cebpf4jnsgd1na2vs0mg"},{"bike_id":"7365be41-1046-4ddc-b6a7-e28a1ad56b2a","system_id":"levelo_inurba_marseille","lat":43.325478,"lon":5.414439,"is_reserved":false,"is_disabled":false,"rental_uris":{"android":"levelo://app?vid=7365be41-1046-4ddc-b6a7-e28a1ad56b2a","ios":"levelo://app?vid=7365be41-1046-4ddc-b6a7-e28a1ad56b2a"},"vehicle_type_id":"4","last_reported":1746788903,"current_range_meters":24000,"station_id":"ce4bhq12rcd13ifvqhhg","pricing_plan_id":"cebpf4jnsgd1na2vs0mg"},{"bike_id":"020b7142-3123-4bc9-884a-308b5142e38a","system_id":"levelo_inurba_marseille","lat":43.30042,"lon":5.38784,"is_reserved":false,"is_disabled":false,"rental_uris":{"android":"levelo://app?vid=020b7142-3123-4bc9-884a-308b5142e38a","ios":"levelo://app?vid=020b7142-3123-4bc9-884a-308b5142e38a"},"vehicle_type_id":"4","last_reported":1746788903,"current_range_meters":24000,"station_id":"","pricing_plan_id":"cebpf4jnsgd1na2vs0mg"},{"bike_id":"190c75ac-9b08-4763-a525-5d23196ba5b4","system_id":"levelo_inurba_marseille","lat":43.28619,"lon":5.35109,"is_reserved":false,"is_disabled":false,"rental_uris":{"android":"levelo://app?vid=190c75ac-9b08-4763-a525-5d23196ba5b4","ios":"levelo://app?vid=190c75ac-9b08-4763-a525-5d23196ba5b4"},"vehicle_type_id":"4","last_reported":1746788903,"current_range_meters":24000,"station_id":"ce4bhch2rcd13ifvqeug","pricing_plan_id":"cebpf4jnsgd1na2vs0mg"},{"bike_id":"a6dea811-f996-4595-81ec-efa22a05d318","system_id":"levelo_inurba_marseille","lat":43.31235,"lon":5.36863,"is_reserved":false,"is_disabled":false,"rental_uris":{"android":"levelo://app?vid=a6dea811-f996-4595-81ec-efa22a05d318","ios":"levelo://app?vid=a6dea811-f996-4595-81ec-efa22a05d318"},"vehicle_type_id":"4","last_reported":1746788903,"current_range_meters":24000,"station_id":"ce4bgl92rcd13ifvqbq0","pricing_plan_id":"cebpf4jnsgd1na2vs0mg"},{"bike_id":"87fa0919-3ab2-46fb-aaba-a66daab56c83","system_id":"levelo_inurba_marseille","lat":43.290159,"lon":5.381299,"is_reserved":false,"is_disabled":false,"rental_uris":{"android":"levelo://app?vid=87fa0919-3ab2-46fb-aaba-a66daab56c83","ios":"levelo://app?vid=87fa0919-3ab2-46fb-aaba-a66daab56c83"},"vehicle_type_id":"4","last_reported":1746788903,"current_range_meters":24000,"station_id":"","pricing_plan_id":"cebpf4jnsgd1na2vs0mg"},{"bike_id":"350a69ca-4132-4222-9d04-610afb72cbcb","system_id":"levelo_inurba_marseille","lat":43.25934,"lon":5.40911,"is_reserved":false,"is_disabled":false,"rental_uris":{"android":"levelo://app?vid=350a69ca-4132-4222-9d04-610afb72cbcb","ios":"levelo://app?vid=350a69ca-4132-4222-9d04-610afb72cbcb"},"vehicle_type_id":"4","last_reported":1746788903,"current_range_meters":24000,"station_id":"ce4bhm92rcd13ifvqglg","pricing_plan_id":"cebpf4jnsgd1na2vs0mg"},{"bike_id":"a44f1c8d-8bee-4574-8e76-63e499ade526","system_id":"levelo_inurba_marseille","lat":43.27213,"lon":5.39179,"is_reserved":false,"is_disabled":false,"rental_uris":{"android":"levelo://app?vid=a44f1c8d-8bee-4574-8e76-63e499ade526","ios":"levelo://app?vid=a44f1c8d-8bee-4574-8e76-63e499ade526"},"vehicle_type_id":"4","last_reported":1746788903,"current_range_meters":24000,"station_id":"ce4bhhp2rcd13ifvqfm0","pricing_plan_id":"cebpf4jnsgd1na2vs0mg"},{"bike_id":"46847ce3-24a2-4af0-80b2-7e78ef50263d","system_id":"levelo_inurba_marseille","lat":43.265641,"lon":5.372806,"is_reserved":false,"is_disabled":false,"rental_uris":{"android":"levelo://app?vid=46847ce3-24a2-4af0-80b2-7e78ef50263d","ios":"levelo://app?vid=46847ce3-24a2-4af0-80b2-7e78ef50263d"},"vehicle_type_id":"4","last_reported":1746788903,"current_range_meters":24000,"station_id":"ce4bhg12rcd13ifvqf70","pricing_plan_id":"cebpf4jnsgd1na2vs0mg"},{"bike_id":"eb9bc315-7d38-4ee1-a76a-8963033429c4","system_id":"levelo_inurba_marseille","lat":43.2465,"lon":5.38893,"is_reserved":false,"is_disabled":false,"rental_uris":{"android":"levelo://app?vid=eb9bc315-7d38-4ee1-a76a-8963033429c4","ios":"levelo://app?vid=eb9bc315-7d38-4ee1-a76a-8963033429c4"},"vehicle_type_id":"4","last_reported":1746788903,"current_range_meters":24400,"station_id":"ce4bhg12rcd13ifvqf60","pricing_plan_id":"cebpf4jnsgd1na2vs0mg"},{"bike_id":"c17dddfc-dc13-431b-adc0-50504f72b4b7","system_id":"levelo_inurba_marseille","lat":43.2558,"lon":5.38231,"is_reserved":false,"is_disabled":false,"rental_uris":{"android":"levelo://app?vid=c17dddfc-dc13-431b-adc0-50504f72b4b7","ios":"levelo://app?vid=c17dddfc-dc13-431b-adc0-50504f72b4b7"},"vehicle_type_id":"4","last_reported":1746788903,"current_range_meters":24400,"station_id":"ce4bhih2rcd13ifvqfs0","pricing_plan_id":"cebpf4jnsgd1na2vs0mg"},{"bike_id":"152aadb7-05ab-41de-8a93-0a2e89ca3081","system_id":"levelo_inurba_marseille","lat":43.259114,"lon":5.409014,"is_reserved":false,"is_disabled":false,"rental_uris":{"android":"levelo://app?vid=152aadb7-05ab-41de-8a93-0a2e89ca3081","ios":"levelo://app?vid=152aadb7-05ab-41de-8a93-0a2e89ca3081"},"vehicle_type_id":"4","last_reported":1746788903,"current_range_meters":24400,"station_id":"ce4bhm92rcd13ifvqglg","pricing_plan_id":"cebpf4jnsgd1na2vs0mg"},{"bike_id":"dc906f3c-482b-4c09-acff-041d31d3f5cb","system_id":"levelo_inurba_marseille","lat":43.295624,"lon":5.375343,"is_reserved":false,"is_disabled":true,"rental_uris":{"android":"levelo://app?vid=dc906f3c-482b-4c09-acff-041d31d3f5cb","ios":"levelo://app?vid=dc906f3c-482b-4c09-acff-041d31d3f5cb"},"vehicle_type_id":"4","last_reported":1746788903,"current_range_meters":24400,"station_id":"ce4bgup2rcd13ifvqcn0","pricing_plan_id":"cebpf4jnsgd1na2vs0mg"},{"bike_id":"d9b07188-eb01-43b3-b573-7414d52e757f","system_id":"levelo_inurba_marseille","lat":43.29899,"lon":5.43672,"is_reserved":false,"is_disabled":false,"rental_uris":{"android":"levelo://app?vid=d9b07188-eb01-43b3-b573-7414d52e757f","ios":"levelo://app?vid=d9b07188-eb01-43b3-b573-7414d52e757f"},"vehicle_type_id":"4","last_reported":1746788903,"current_range_meters":24400,"station_id":"ce4bhpp2rcd13ifvqhfg","pricing_plan_id":"cebpf4jnsgd1na2vs0mg"},{"bike_id":"18b577d5-2628-4839-97ae-31aca8a4ed44","system_id":"levelo_inurba_marseille","lat":43.29887,"lon":5.38149,"is_reserved":false,"is_disabled":false,"rental_uris":{"android":"levelo://app?vid=18b577d5-2628-4839-97ae-31aca8a4ed44","ios":"levelo://app?vid=18b577d5-2628-4839-97ae-31aca8a4ed44"},"vehicle_type_id":"4","last_reported":1746788903,"current_range_meters":24400,"station_id":"ce4bgj12rcd13ifvqbc0","pricing_plan_id":"cebpf4jnsgd1na2vs0mg"},{"bike_id":"4f42025e-6bb1-443c-8e73-d5fd0dd2cd54","system_id":"levelo_inurba_marseille","lat":43.27215,"lon":5.39135,"is_reserved":false,"is_disabled":false,"rental_uris":{"android":"levelo://app?vid=4f42025e-6bb1-443c-8e73-d5fd0dd2cd54","ios":"levelo://app?vid=4f42025e-6bb1-443c-8e73-d5fd0dd2cd54"},"vehicle_type_id":"4","last_reported":1746788903,"current_range_meters":24400,"station_id":"ce4bhh12rcd13ifvqfg0","pricing_plan_id":"cebpf4jnsgd1na2vs0mg"},{"bike_id":"1f6440e1-a115-4fd8-9cfc-63068474fc8c","system_id":"levelo_inurba_marseille","lat":43.29277,"lon":5.38437,"is_reserved":false,"is_disabled":false,"rental_uris":{"android":"levelo://app?vid=1f6440e1-a115-4fd8-9cfc-63068474fc8c","ios":"levelo://app?vid=1f6440e1-a115-4fd8-9cfc-63068474fc8c"},"vehicle_type_id":"4","last_reported":1746788903,"current_range_meters":24400,"station_id":"ce4bh692rcd13ifvqea0","pricing_plan_id":"cebpf4jnsgd1na2vs0mg"},{"bike_id":"9c6460ce-40eb-4741-802c-ba2d425ce5b3","system_id":"levelo_inurba_marseille","lat":43.27497,"lon":5.42455,"is_reserved":false,"is_disabled":false,"rental_uris":{"android":"levelo://app?vid=9c6460ce-40eb-4741-802c-ba2d425ce5b3","ios":"levelo://app?vid=9c6460ce-40eb-4741-802c-ba2d425ce5b3"},"vehicle_type_id":"4","last_reported":1746788903,"current_range_meters":24400,"station_id":"ce4bhn92rcd13ifvqgrg","pricing_plan_id":"cebpf4jnsgd1na2vs0mg"},{"bike_id":"f52c819d-ca4b-4640-b458-b877db1bf990","system_id":"levelo_inurba_marseille","lat":43.29885,"lon":5.41032,"is_reserved":false,"is_disabled":false,"rental_uris":{"android":"levelo://app?vid=f52c819d-ca4b-4640-b458-b877db1bf990","ios":"levelo://app?vid=f52c819d-ca4b-4640-b458-b877db1bf990"},"vehicle_type_id":"4","last_reported":1746788903,"current_range_meters":24800,"station_id":"","pricing_plan_id":"cebpf4jnsgd1na2vs0mg"},{"bike_id":"0a87dc8e-b629-4dd8-8467-13cefa25654a","system_id":"levelo_inurba_marseille","lat":43.32035,"lon":5.41569,"is_reserved":false,"is_disabled":false,"rental_uris":{"android":"levelo://app?vid=0a87dc8e-b629-4dd8-8467-13cefa25654a","ios":"levelo://app?vid=0a87dc8e-b629-4dd8-8467-13cefa25654a"},"vehicle_type_id":"4","last_reported":1746788903,"current_range_meters":24800,"station_id":"ce4bhq92rcd13ifvqhkg","pricing_plan_id":"cebpf4jnsgd1na2vs0mg"},{"bike_id":"e98e8165-fba5-4d00-91f3-e9cdc6b5297b","system_id":"levelo_inurba_marseille","lat":43.2573,"lon":5.41111,"is_reserved":false,"is_disabled":false,"rental_uris":{"android":"levelo://app?vid=e98e8165-fba5-4d00-91f3-e9cdc6b5297b","ios":"levelo://app?vid=e98e8165-fba5-4d00-91f3-e9cdc6b5297b"},"vehicle_type_id":"4","last_reported":1746788903,"current_range_meters":24800,"station_id":"ce4bhkp2rcd13ifvqgd0","pricing_plan_id":"cebpf4jnsgd1na2vs0mg"},{"bike_id":"f0943fa2-0a49-45fc-84c1-5bbf38e96efd","system_id":"levelo_inurba_marseille","lat":43.31302,"lon":5.36862,"is_reserved":false,"is_disabled":false,"rental_uris":{"android":"levelo://app?vid=f0943fa2-0a49-45fc-84c1-5bbf38e96efd","ios":"levelo://app?vid=f0943fa2-0a49-45fc-84c1-5bbf38e96efd"},"vehicle_type_id":"4","last_reported":1746788903,"current_range_meters":24800,"station_id":"","pricing_plan_id":"cebpf4jnsgd1na2vs0mg"},{"bike_id":"1cce756b-8bc6-4199-baa5-aa2f7782f7a2","system_id":"levelo_inurba_marseille","lat":43.29019,"lon":5.38124,"is_reserved":false,"is_disabled":false,"rental_uris":{"android":"levelo://app?vid=1cce756b-8bc6-4199-baa5-aa2f7782f7a2","ios":"levelo://app?vid=1cce756b-8bc6-4199-baa5-aa2f7782f7a2"},"vehicle_type_id":"4","last_reported":1746788903,"current_range_meters":24800,"station_id":"ce4bh4p2rcd13ifvqe1g","pricing_plan_id":"cebpf4jnsgd1na2vs0mg"},{"bike_id":"6dcb2703-11c7-4478-9166-c6250bca8f48","system_id":"levelo_inurba_marseille","lat":43.29619,"lon":5.37158,"is_reserved":false,"is_disabled":false,"rental_uris":{"android":"levelo://app?vid=6dcb2703-11c7-4478-9166-c6250bca8f48","ios":"levelo://app?vid=6dcb2703-11c7-4478-9166-c6250bca8f48"},"vehicle_type_id":"4","last_reported":1746788903,"current_range_meters":24800,"station_id":"ce4bgnh2rcd13ifvqc0g","pricing_plan_id":"cebpf4jnsgd1na2vs0mg"},{"bike_id":"f90efa86-510e-4cfd-a441-b6d4f082c854","system_id":"levelo_inurba_marseille","lat":43.268011,"lon":5.402819,"is_reserved":false,"is_disabled":false,"rental_uris":{"android":"levelo://app?vid=f90efa86-510e-4cfd-a441-b6d4f082c854","ios":"levelo://app?vid=f90efa86-510e-4cfd-a441-b6d4f082c854"},"vehicle_type_id":"4","last_reported":1746788903,"current_range_meters":24800,"station_id":"ce501612rcd8frsf0b60","pricing_plan_id":"cebpf4jnsgd1na2vs0mg"},{"bike_id":"a1c7f99b-e109-4041-a0b1-9de659bae018","system_id":"levelo_inurba_marseille","lat":43.30136,"lon":5.39842,"is_reserved":false,"is_disabled":false,"rental_uris":{"android":"levelo://app?vid=a1c7f99b-e109-4041-a0b1-9de659bae018","ios":"levelo://app?vid=a1c7f99b-e109-4041-a0b1-9de659bae018"},"vehicle_type_id":"4","last_reported":1746788903,"current_range_meters":25200,"station_id":"ce4bh0h2rcd13ifvqd40","pricing_plan_id":"cebpf4jnsgd1na2vs0mg"},{"bike_id":"830ca2f3-14a2-40d4-b14d-f14634d8ac66","system_id":"levelo_inurba_marseille","lat":43.31704,"lon":5.43694,"is_reserved":false,"is_disabled":false,"rental_uris":{"android":"levelo://app?vid=830ca2f3-14a2-40d4-b14d-f14634d8ac66","ios":"levelo://app?vid=830ca2f3-14a2-40d4-b14d-f14634d8ac66"},"vehicle_type_id":"4","last_reported":1746788903,"current_range_meters":25200,"station_id":"ce4bhp92rcd13ifvqhcg","pricing_plan_id":"cebpf4jnsgd1na2vs0mg"},{"bike_id":"1a256f0a-81af-4780-89ef-8e940a0861e3","system_id":"levelo_inurba_marseille","lat":43.29633,"lon":5.40602,"is_reserved":false,"is_disabled":false,"rental_uris":{"android":"levelo://app?vid=1a256f0a-81af-4780-89ef-8e940a0861e3","ios":"levelo://app?vid=1a256f0a-81af-4780-89ef-8e940a0861e3"},"vehicle_type_id":"4","last_reported":1746788903,"current_range_meters":24800,"station_id":"ce4bh0h2rcd13ifvqd60","pricing_plan_id":"cebpf4jnsgd1na2vs0mg"},{"bike_id":"7af65dfd-5893-47c6-a222-320ae5f370e7","system_id":"levelo_inurba_marseille","lat":43.241789,"lon":5.397341,"is_reserved":false,"is_disabled":false,"rental_uris":{"android":"levelo://app?vid=7af65dfd-5893-47c6-a222-320ae5f370e7","ios":"levelo://app?vid=7af65dfd-5893-47c6-a222-320ae5f370e7"},"vehicle_type_id":"4","last_reported":1746788903,"current_range_meters":25200,"station_id":"ce4bhn12rcd13ifvqgpg","pricing_plan_id":"cebpf4jnsgd1na2vs0mg"},{"bike_id":"033a496b-6656-4e59-9004-0ff2fef71a4d","system_id":"levelo_inurba_marseille","lat":43.29281,"lon":5.40142,"is_reserved":false,"is_disabled":false,"rental_uris":{"android":"levelo://app?vid=033a496b-6656-4e59-9004-0ff2fef71a4d","ios":"levelo://app?vid=033a496b-6656-4e59-9004-0ff2fef71a4d"},"vehicle_type_id":"4","last_reported":1746788903,"current_range_meters":25200,"station_id":"ce4bh312rcd13ifvqdk0","pricing_plan_id":"cebpf4jnsgd1na2vs0mg"},{"bike_id":"4fdcc305-6cc8-404f-b7e4-7823918962d4","system_id":"levelo_inurba_marseille","lat":43.3046,"lon":5.3792,"is_reserved":false,"is_disabled":false,"rental_uris":{"android":"levelo://app?vid=4fdcc305-6cc8-404f-b7e4-7823918962d4","ios":"levelo://app?vid=4fdcc305-6cc8-404f-b7e4-7823918962d4"},"vehicle_type_id":"4","last_reported":1746788903,"current_range_meters":25200,"station_id":"ce4bgup2rcd13ifvqcn0","pricing_plan_id":"cebpf4jnsgd1na2vs0mg"},{"bike_id":"0596071e-8f59-4bfd-aa67-6d4a752b2ff3","system_id":"levelo_inurba_marseille","lat":43.33598,"lon":5.41038,"is_reserved":false,"is_disabled":false,"rental_uris":{"android":"levelo://app?vid=0596071e-8f59-4bfd-aa67-6d4a752b2ff3","ios":"levelo://app?vid=0596071e-8f59-4bfd-aa67-6d4a752b2ff3"},"vehicle_type_id":"4","last_reported":1746788903,"current_range_meters":25200,"station_id":"ce4bhqh2rcd13ifvqhmg","pricing_plan_id":"cebpf4jnsgd1na2vs0mg"},{"bike_id":"be71b4ab-437d-4c8e-a0b8-addbaa791c5a","system_id":"levelo_inurba_marseille","lat":43.31165,"lon":5.3872,"is_reserved":false,"is_disabled":false,"rental_uris":{"android":"levelo://app?vid=be71b4ab-437d-4c8e-a0b8-addbaa791c5a","ios":"levelo://app?vid=be71b4ab-437d-4c8e-a0b8-addbaa791c5a"},"vehicle_type_id":"4","last_reported":1746788903,"current_range_meters":25600,"station_id":"ce4bgv12rcd13ifvqcp0","pricing_plan_id":"cebpf4jnsgd1na2vs0mg"},{"bike_id":"4dfbb5e2-d20a-471f-9b5c-11ae553d438e","system_id":"levelo_inurba_marseille","lat":43.2481,"lon":5.3746,"is_reserved":false,"is_disabled":false,"rental_uris":{"android":"levelo://app?vid=4dfbb5e2-d20a-471f-9b5c-11ae553d438e","ios":"levelo://app?vid=4dfbb5e2-d20a-471f-9b5c-11ae553d438e"},"vehicle_type_id":"4","last_reported":1746788903,"current_range_meters":25200,"station_id":"ce4bhgh2rcd13ifvqfb0","pricing_plan_id":"cebpf4jnsgd1na2vs0mg"},{"bike_id":"3b6be5b8-c1b9-47c8-9c05-5f2b5b3e1ab6","system_id":"levelo_inurba_marseille","lat":43.32657,"lon":5.40991,"is_reserved":false,"is_disabled":false,"rental_uris":{"android":"levelo://app?vid=3b6be5b8-c1b9-47c8-9c05-5f2b5b3e1ab6","ios":"levelo://app?vid=3b6be5b8-c1b9-47c8-9c05-5f2b5b3e1ab6"},"vehicle_type_id":"4","last_reported":1746788903,"current_range_meters":25200,"station_id":"ce4bhpp2rcd13ifvqhgg","pricing_plan_id":"cebpf4jnsgd1na2vs0mg"},{"bike_id":"68618caa-50bc-43f5-93b1-b8d3a9e2ef7f","system_id":"levelo_inurba_marseille","lat":43.2416,"lon":5.39705,"is_reserved":false,"is_disabled":false,"rental_uris":{"android":"levelo://app?vid=68618caa-50bc-43f5-93b1-b8d3a9e2ef7f","ios":"levelo://app?vid=68618caa-50bc-43f5-93b1-b8d3a9e2ef7f"},"vehicle_type_id":"4","last_reported":1746788903,"current_range_meters":26000,"station_id":"ce4bhn12rcd13ifvqgpg","pricing_plan_id":"cebpf4jnsgd1na2vs0mg"},{"bike_id":"e698b53d-2fca-4879-af67-256da47fcced","system_id":"levelo_inurba_marseille","lat":43.30011,"lon":5.37359,"is_reserved":false,"is_disabled":false,"rental_uris":{"android":"levelo://app?vid=e698b53d-2fca-4879-af67-256da47fcced","ios":"levelo://app?vid=e698b53d-2fca-4879-af67-256da47fcced"},"vehicle_type_id":"4","last_reported":1746788903,"current_range_meters":26000,"station_id":"","pricing_plan_id":"cebpf4jnsgd1na2vs0mg"},{"bike_id":"e0d885ad-2efd-4a87-a999-a8562480aec5","system_id":"levelo_inurba_marseille","lat":43.27948,"lon":5.41053,"is_reserved":false,"is_disabled":false,"rental_uris":{"android":"levelo://app?vid=e0d885ad-2efd-4a87-a999-a8562480aec5","ios":"levelo://app?vid=e0d885ad-2efd-4a87-a999-a8562480aec5"},"vehicle_type_id":"4","last_reported":1746788903,"current_range_meters":26000,"station_id":"ce4bhnp2rcd13ifvqh0g","pricing_plan_id":"cebpf4jnsgd1na2vs0mg"},{"bike_id":"48ed43fb-4ad0-4001-acee-f6ea4523cfc5","system_id":"levelo_inurba_marseille","lat":43.286027,"lon":5.477007,"is_reserved":false,"is_disabled":false,"rental_uris":{"android":"levelo://app?vid=48ed43fb-4ad0-4001-acee-f6ea4523cfc5","ios":"levelo://app?vid=48ed43fb-4ad0-4001-acee-f6ea4523cfc5"},"vehicle_type_id":"4","last_reported":1746788903,"current_range_meters":26800,"station_id":"","pricing_plan_id":"cebpf4jnsgd1na2vs0mg"},{"bike_id":"e82bedf9-93fa-4d8c-abab-50aba4b34b5a","system_id":"levelo_inurba_marseille","lat":43.30569,"lon":5.36676,"is_reserved":false,"is_disabled":false,"rental_uris":{"android":"levelo://app?vid=e82bedf9-93fa-4d8c-abab-50aba4b34b5a","ios":"levelo://app?vid=e82bedf9-93fa-4d8c-abab-50aba4b34b5a"},"vehicle_type_id":"4","last_reported":1746788903,"current_range_meters":26800,"station_id":"","pricing_plan_id":"cebpf4jnsgd1na2vs0mg"},{"bike_id":"17239759-3263-4a3b-92c4-4700bbbec4ed","system_id":"levelo_inurba_marseille","lat":43.32537,"lon":5.41463,"is_reserved":false,"is_disabled":false,"rental_uris":{"android":"levelo://app?vid=17239759-3263-4a3b-92c4-4700bbbec4ed","ios":"levelo://app?vid=17239759-3263-4a3b-92c4-4700bbbec4ed"},"vehicle_type_id":"4","last_reported":1746788903,"current_range_meters":26800,"station_id":"ce4bhq12rcd13ifvqhhg","pricing_plan_id":"cebpf4jnsgd1na2vs0mg"},{"bike_id":"17d04247-5bd2-4457-b4ce-76163cce39e3","system_id":"levelo_inurba_marseille","lat":43.25917,"lon":5.40888,"is_reserved":false,"is_disabled":false,"rental_uris":{"android":"levelo://app?vid=17d04247-5bd2-4457-b4ce-76163cce39e3","ios":"levelo://app?vid=17d04247-5bd2-4457-b4ce-76163cce39e3"},"vehicle_type_id":"4","last_reported":1746788903,"current_range_meters":26800,"station_id":"ce4bhm92rcd13ifvqglg","pricing_plan_id":"cebpf4jnsgd1na2vs0mg"},{"bike_id":"5e593dc1-5691-4959-8e2a-4afdef97bd52","system_id":"levelo_inurba_marseille","lat":43.32552,"lon":5.41463,"is_reserved":false,"is_disabled":false,"rental_uris":{"android":"levelo://app?vid=5e593dc1-5691-4959-8e2a-4afdef97bd52","ios":"levelo://app?vid=5e593dc1-5691-4959-8e2a-4afdef97bd52"},"vehicle_type_id":"4","last_reported":1746788903,"current_range_meters":26800,"station_id":"ce4bhq12rcd13ifvqhhg","pricing_plan_id":"cebpf4jnsgd1na2vs0mg"},{"bike_id":"1651826f-216f-4bc2-a22d-bf94480eb879","system_id":"levelo_inurba_marseille","lat":43.29786,"lon":5.38098,"is_reserved":false,"is_disabled":false,"rental_uris":{"android":"levelo://app?vid=1651826f-216f-4bc2-a22d-bf94480eb879","ios":"levelo://app?vid=1651826f-216f-4bc2-a22d-bf94480eb879"},"vehicle_type_id":"4","last_reported":1746788903,"current_range_meters":26800,"station_id":"ce4bgip2rcd13ifvqbb0","pricing_plan_id":"cebpf4jnsgd1na2vs0mg"},{"bike_id":"6056d7eb-beeb-429e-b45c-de5ff3df49f3","system_id":"levelo_inurba_marseille","lat":43.25926,"lon":5.40884,"is_reserved":false,"is_disabled":false,"rental_uris":{"android":"levelo://app?vid=6056d7eb-beeb-429e-b45c-de5ff3df49f3","ios":"levelo://app?vid=6056d7eb-beeb-429e-b45c-de5ff3df49f3"},"vehicle_type_id":"4","last_reported":1746788903,"current_range_meters":26800,"station_id":"ce4bhm92rcd13ifvqglg","pricing_plan_id":"cebpf4jnsgd1na2vs0mg"},{"bike_id":"59543004-bfd2-4768-ab16-97cb58734ee4","system_id":"levelo_inurba_marseille","lat":43.26681,"lon":5.38278,"is_reserved":false,"is_disabled":false,"rental_uris":{"android":"levelo://app?vid=59543004-bfd2-4768-ab16-97cb58734ee4","ios":"levelo://app?vid=59543004-bfd2-4768-ab16-97cb58734ee4"},"vehicle_type_id":"4","last_reported":1746788903,"current_range_meters":26800,"station_id":"ce4bhg92rcd13ifvqf90","pricing_plan_id":"cebpf4jnsgd1na2vs0mg"},{"bike_id":"7ac1c79f-c3a1-44d2-9a37-0be16ad2ba1d","system_id":"levelo_inurba_marseille","lat":43.21196,"lon":5.35067,"is_reserved":false,"is_disabled":false,"rental_uris":{"android":"levelo://app?vid=7ac1c79f-c3a1-44d2-9a37-0be16ad2ba1d","ios":"levelo://app?vid=7ac1c79f-c3a1-44d2-9a37-0be16ad2ba1d"},"vehicle_type_id":"4","last_reported":1746788903,"current_range_meters":26800,"station_id":"st_cvj6sg6p6f1abm77japg","pricing_plan_id":"cebpf4jnsgd1na2vs0mg"},{"bike_id":"0e41fcb8-71ca-4c2a-b077-fc73168cb983","system_id":"levelo_inurba_marseille","lat":43.30463,"lon":5.37907,"is_reserved":false,"is_disabled":false,"rental_uris":{"android":"levelo://app?vid=0e41fcb8-71ca-4c2a-b077-fc73168cb983","ios":"levelo://app?vid=0e41fcb8-71ca-4c2a-b077-fc73168cb983"},"vehicle_type_id":"4","last_reported":1746788903,"current_range_meters":27200,"station_id":"ce4bgup2rcd13ifvqcn0","pricing_plan_id":"cebpf4jnsgd1na2vs0mg"},{"bike_id":"cdaa69d0-a0e8-459a-8239-dce28653a1c7","system_id":"levelo_inurba_marseille","lat":43.27433,"lon":5.39412,"is_reserved":false,"is_disabled":false,"rental_uris":{"android":"levelo://app?vid=cdaa69d0-a0e8-459a-8239-dce28653a1c7","ios":"levelo://app?vid=cdaa69d0-a0e8-459a-8239-dce28653a1c7"},"vehicle_type_id":"4","last_reported":1746788903,"current_range_meters":27200,"station_id":"ce4bhdp2rcd13ifvqf20","pricing_plan_id":"cebpf4jnsgd1na2vs0mg"},{"bike_id":"1c304be6-2678-4c38-b6bf-47f06657d93b","system_id":"levelo_inurba_marseille","lat":43.313536,"lon":5.36711,"is_reserved":false,"is_disabled":false,"rental_uris":{"android":"levelo://app?vid=1c304be6-2678-4c38-b6bf-47f06657d93b","ios":"levelo://app?vid=1c304be6-2678-4c38-b6bf-47f06657d93b"},"vehicle_type_id":"4","last_reported":1746788903,"current_range_meters":27200,"station_id":"ce4bgr92rcd13ifvqc6g","pricing_plan_id":"cebpf4jnsgd1na2vs0mg"},{"bike_id":"808a1615-da42-4c46-a143-8a0a78cc1c41","system_id":"levelo_inurba_marseille","lat":43.24803,"lon":5.37455,"is_reserved":false,"is_disabled":false,"rental_uris":{"android":"levelo://app?vid=808a1615-da42-4c46-a143-8a0a78cc1c41","ios":"levelo://app?vid=808a1615-da42-4c46-a143-8a0a78cc1c41"},"vehicle_type_id":"4","last_reported":1746788903,"current_range_meters":27200,"station_id":"ce4bhgh2rcd13ifvqfb0","pricing_plan_id":"cebpf4jnsgd1na2vs0mg"},{"bike_id":"a1a49f6b-2323-4528-a08f-3a1c96cd3f81","system_id":"levelo_inurba_marseille","lat":43.30312,"lon":5.36918,"is_reserved":false,"is_disabled":true,"rental_uris":{"android":"levelo://app?vid=a1a49f6b-2323-4528-a08f-3a1c96cd3f81","ios":"levelo://app?vid=a1a49f6b-2323-4528-a08f-3a1c96cd3f81"},"vehicle_type_id":"4","last_reported":1746788903,"current_range_meters":27200,"station_id":"ce4bgqh2rcd13ifvqc5g","pricing_plan_id":"cebpf4jnsgd1na2vs0mg"},{"bike_id":"60c4e89d-b14b-4a37-b8a6-6ec602d9bf66","system_id":"levelo_inurba_marseille","lat":43.31385,"lon":5.36721,"is_reserved":false,"is_disabled":false,"rental_uris":{"android":"levelo://app?vid=60c4e89d-b14b-4a37-b8a6-6ec602d9bf66","ios":"levelo://app?vid=60c4e89d-b14b-4a37-b8a6-6ec602d9bf66"},"vehicle_type_id":"4","last_reported":1746788903,"current_range_meters":27200,"station_id":"","pricing_plan_id":"cebpf4jnsgd1na2vs0mg"},{"bike_id":"997c20db-3d5a-462b-af90-68293dd857e7","system_id":"levelo_inurba_marseille","lat":43.32038,"lon":5.41544,"is_reserved":false,"is_disabled":false,"rental_uris":{"android":"levelo://app?vid=997c20db-3d5a-462b-af90-68293dd857e7","ios":"levelo://app?vid=997c20db-3d5a-462b-af90-68293dd857e7"},"vehicle_type_id":"4","last_reported":1746788903,"current_range_meters":27200,"station_id":"ce4bhq92rcd13ifvqhkg","pricing_plan_id":"cebpf4jnsgd1na2vs0mg"},{"bike_id":"cc56f4d9-fbd5-43a1-ac88-6837f7b32651","system_id":"levelo_inurba_marseille","lat":43.31363,"lon":5.36729,"is_reserved":false,"is_disabled":false,"rental_uris":{"android":"levelo://app?vid=cc56f4d9-fbd5-43a1-ac88-6837f7b32651","ios":"levelo://app?vid=cc56f4d9-fbd5-43a1-ac88-6837f7b32651"},"vehicle_type_id":"4","last_reported":1746788903,"current_range_meters":27200,"station_id":"ce4bgr92rcd13ifvqc6g","pricing_plan_id":"cebpf4jnsgd1na2vs0mg"},{"bike_id":"466ea12a-7727-42bf-bfd1-5b1e1f744dba","system_id":"levelo_inurba_marseille","lat":43.27804,"lon":5.40747,"is_reserved":false,"is_disabled":false,"rental_uris":{"android":"levelo://app?vid=466ea12a-7727-42bf-bfd1-5b1e1f744dba","ios":"levelo://app?vid=466ea12a-7727-42bf-bfd1-5b1e1f744dba"},"vehicle_type_id":"4","last_reported":1746788903,"current_range_meters":27600,"station_id":"ce4bhnh2rcd13ifvqgtg","pricing_plan_id":"cebpf4jnsgd1na2vs0mg"},{"bike_id":"94d56be8-ac24-4613-b399-7f86350ab1e0","system_id":"levelo_inurba_marseille","lat":43.29847,"lon":5.36275,"is_reserved":false,"is_disabled":false,"rental_uris":{"android":"levelo://app?vid=94d56be8-ac24-4613-b399-7f86350ab1e0","ios":"levelo://app?vid=94d56be8-ac24-4613-b399-7f86350ab1e0"},"vehicle_type_id":"4","last_reported":1746788903,"current_range_meters":27600,"station_id":"ce4bgpp2rcd13ifvqc3g","pricing_plan_id":"cebpf4jnsgd1na2vs0mg"},{"bike_id":"81cea123-8c06-4048-b7c2-74c0099a5555","system_id":"levelo_inurba_marseille","lat":43.27492,"lon":5.42472,"is_reserved":false,"is_disabled":false,"rental_uris":{"android":"levelo://app?vid=81cea123-8c06-4048-b7c2-74c0099a5555","ios":"levelo://app?vid=81cea123-8c06-4048-b7c2-74c0099a5555"},"vehicle_type_id":"4","last_reported":1746788903,"current_range_meters":27600,"station_id":"ce4bhn92rcd13ifvqgrg","pricing_plan_id":"cebpf4jnsgd1na2vs0mg"},{"bike_id":"e9c9f5a3-5df4-438e-af2b-b1bc1a4581b2","system_id":"levelo_inurba_marseille","lat":43.3048,"lon":5.37904,"is_reserved":false,"is_disabled":false,"rental_uris":{"android":"levelo://app?vid=e9c9f5a3-5df4-438e-af2b-b1bc1a4581b2","ios":"levelo://app?vid=e9c9f5a3-5df4-438e-af2b-b1bc1a4581b2"},"vehicle_type_id":"4","last_reported":1746788903,"current_range_meters":27600,"station_id":"ce4bgup2rcd13ifvqcn0","pricing_plan_id":"cebpf4jnsgd1na2vs0mg"},{"bike_id":"f4323471-04aa-4bd3-a01f-b788eb705d29","system_id":"levelo_inurba_marseille","lat":43.24179,"lon":5.39729,"is_reserved":false,"is_disabled":false,"rental_uris":{"android":"levelo://app?vid=f4323471-04aa-4bd3-a01f-b788eb705d29","ios":"levelo://app?vid=f4323471-04aa-4bd3-a01f-b788eb705d29"},"vehicle_type_id":"4","last_reported":1746788903,"current_range_meters":27600,"station_id":"ce4bhn12rcd13ifvqgpg","pricing_plan_id":"cebpf4jnsgd1na2vs0mg"},{"bike_id":"c73223c7-8d5c-4357-b7a0-790e39d53e96","system_id":"levelo_inurba_marseille","lat":43.25504,"lon":5.37654,"is_reserved":false,"is_disabled":false,"rental_uris":{"android":"levelo://app?vid=c73223c7-8d5c-4357-b7a0-790e39d53e96","ios":"levelo://app?vid=c73223c7-8d5c-4357-b7a0-790e39d53e96"},"vehicle_type_id":"4","last_reported":1746788903,"current_range_meters":27600,"station_id":"ce4bhh12rcd13ifvqff0","pricing_plan_id":"cebpf4jnsgd1na2vs0mg"},{"bike_id":"31c7d928-f9cc-4cef-8b78-8abf95e6ddc4","system_id":"levelo_inurba_marseille","lat":43.31485,"lon":5.37295,"is_reserved":false,"is_disabled":false,"rental_uris":{"android":"levelo://app?vid=31c7d928-f9cc-4cef-8b78-8abf95e6ddc4","ios":"levelo://app?vid=31c7d928-f9cc-4cef-8b78-8abf95e6ddc4"},"vehicle_type_id":"4","last_reported":1746788903,"current_range_meters":27600,"station_id":"ce4bgt12rcd13ifvqcd0","pricing_plan_id":"cebpf4jnsgd1na2vs0mg"},{"bike_id":"d768317a-61c3-4226-b3dc-3ae62b67d6d2","system_id":"levelo_inurba_marseille","lat":43.2593,"lon":5.40908,"is_reserved":false,"is_disabled":false,"rental_uris":{"android":"levelo://app?vid=d768317a-61c3-4226-b3dc-3ae62b67d6d2","ios":"levelo://app?vid=d768317a-61c3-4226-b3dc-3ae62b67d6d2"},"vehicle_type_id":"4","last_reported":1746788903,"current_range_meters":27600,"station_id":"ce4bhm92rcd13ifvqglg","pricing_plan_id":"cebpf4jnsgd1na2vs0mg"},{"bike_id":"fc899732-cc68-4d34-a697-7862d08f0aec","system_id":"levelo_inurba_marseille","lat":43.33611,"lon":5.41007,"is_reserved":false,"is_disabled":false,"rental_uris":{"android":"levelo://app?vid=fc899732-cc68-4d34-a697-7862d08f0aec","ios":"levelo://app?vid=fc899732-cc68-4d34-a697-7862d08f0aec"},"vehicle_type_id":"4","last_reported":1746788903,"current_range_meters":28000,"station_id":"ce4bhqh2rcd13ifvqhmg","pricing_plan_id":"cebpf4jnsgd1na2vs0mg"},{"bike_id":"190f0913-c9d9-41fb-85a0-879e38ac9abf","system_id":"levelo_inurba_marseille","lat":43.30551,"lon":5.36518,"is_reserved":false,"is_disabled":false,"rental_uris":{"android":"levelo://app?vid=190f0913-c9d9-41fb-85a0-879e38ac9abf","ios":"levelo://app?vid=190f0913-c9d9-41fb-85a0-879e38ac9abf"},"vehicle_type_id":"4","last_reported":1746788903,"current_range_meters":28000,"station_id":"ce4bgs12rcd13ifvqcag","pricing_plan_id":"cebpf4jnsgd1na2vs0mg"},{"bike_id":"8584732b-2793-441b-8e4f-27b5f5d6d744","system_id":"levelo_inurba_marseille","lat":43.29517,"lon":5.39401,"is_reserved":false,"is_disabled":false,"rental_uris":{"android":"levelo://app?vid=8584732b-2793-441b-8e4f-27b5f5d6d744","ios":"levelo://app?vid=8584732b-2793-441b-8e4f-27b5f5d6d744"},"vehicle_type_id":"4","last_reported":1746788903,"current_range_meters":28000,"station_id":"ce4bh292rcd13ifvqdf0","pricing_plan_id":"cebpf4jnsgd1na2vs0mg"},{"bike_id":"036a5c38-6a60-44d4-ab5e-8ba351485796","system_id":"levelo_inurba_marseille","lat":43.30123,"lon":5.39854,"is_reserved":false,"is_disabled":false,"rental_uris":{"android":"levelo://app?vid=036a5c38-6a60-44d4-ab5e-8ba351485796","ios":"levelo://app?vid=036a5c38-6a60-44d4-ab5e-8ba351485796"},"vehicle_type_id":"4","last_reported":1746788903,"current_range_meters":28000,"station_id":"ce4bh0h2rcd13ifvqd40","pricing_plan_id":"cebpf4jnsgd1na2vs0mg"},{"bike_id":"696c13d0-7a94-42a8-b63f-d4955a18b2bc","system_id":"levelo_inurba_marseille","lat":43.26551,"lon":5.37313,"is_reserved":false,"is_disabled":false,"rental_uris":{"android":"levelo://app?vid=696c13d0-7a94-42a8-b63f-d4955a18b2bc","ios":"levelo://app?vid=696c13d0-7a94-42a8-b63f-d4955a18b2bc"},"vehicle_type_id":"4","last_reported":1746788903,"current_range_meters":28000,"station_id":"ce4bhg12rcd13ifvqf70","pricing_plan_id":"cebpf4jnsgd1na2vs0mg"},{"bike_id":"89c289cd-714f-4e54-8a16-e65f2a756e27","system_id":"levelo_inurba_marseille","lat":43.29535,"lon":5.39042,"is_reserved":false,"is_disabled":false,"rental_uris":{"android":"levelo://app?vid=89c289cd-714f-4e54-8a16-e65f2a756e27","ios":"levelo://app?vid=89c289cd-714f-4e54-8a16-e65f2a756e27"},"vehicle_type_id":"4","last_reported":1746788903,"current_range_meters":28000,"station_id":"ce4bh3p2rcd13ifvqdp0","pricing_plan_id":"cebpf4jnsgd1na2vs0mg"},{"bike_id":"775daada-0c96-487a-b642-8354c05a1c28","system_id":"levelo_inurba_marseille","lat":43.2842,"lon":5.34987,"is_reserved":false,"is_disabled":false,"rental_uris":{"android":"levelo://app?vid=775daada-0c96-487a-b642-8354c05a1c28","ios":"levelo://app?vid=775daada-0c96-487a-b642-8354c05a1c28"},"vehicle_type_id":"4","last_reported":1746788903,"current_range_meters":28000,"station_id":"ce4bhbh2rcd13ifvqepg","pricing_plan_id":"cebpf4jnsgd1na2vs0mg"},{"bike_id":"7cb098d0-c44c-48f2-91ba-c373124d4f0a","system_id":"levelo_inurba_marseille","lat":43.32351,"lon":5.36749,"is_reserved":false,"is_disabled":false,"rental_uris":{"android":"levelo://app?vid=7cb098d0-c44c-48f2-91ba-c373124d4f0a","ios":"levelo://app?vid=7cb098d0-c44c-48f2-91ba-c373124d4f0a"},"vehicle_type_id":"4","last_reported":1746788903,"current_range_meters":28000,"station_id":"ce4bhsh2rcd13ifvqi2g","pricing_plan_id":"cebpf4jnsgd1na2vs0mg"},{"bike_id":"a85e03b7-939c-45d6-baf7-468c2676dc1c","system_id":"levelo_inurba_marseille","lat":43.30552,"lon":5.36551,"is_reserved":false,"is_disabled":false,"rental_uris":{"android":"levelo://app?vid=a85e03b7-939c-45d6-baf7-468c2676dc1c","ios":"levelo://app?vid=a85e03b7-939c-45d6-baf7-468c2676dc1c"},"vehicle_type_id":"4","last_reported":1746788903,"current_range_meters":28000,"station_id":"ce4bgs12rcd13ifvqcag","pricing_plan_id":"cebpf4jnsgd1na2vs0mg"},{"bike_id":"fd1c3f24-b7b6-4746-a9a7-e9747ac0f48e","system_id":"levelo_inurba_marseille","lat":43.30886,"lon":5.3686,"is_reserved":false,"is_disabled":false,"rental_uris":{"android":"levelo://app?vid=fd1c3f24-b7b6-4746-a9a7-e9747ac0f48e","ios":"levelo://app?vid=fd1c3f24-b7b6-4746-a9a7-e9747ac0f48e"},"vehicle_type_id":"4","last_reported":1746788903,"current_range_meters":28000,"station_id":"ce4bgn92rcd13ifvqbvg","pricing_plan_id":"cebpf4jnsgd1na2vs0mg"},