{"last_updated":1704654342,"ttl":30,"version":"2.2","data":{"bikes":[{"bike_id":"b10b63da-8f6d-4693-9358-23d257fcef2d","system_id":"levelo_inurba_marseille","lat":43.31341,"lon":5.367098,"is_reserved":false,"is_disabled":false,"rental_uris":{"android":"levelo://app?vid=b10b63da-8f6d-4693-9358-23d257fcef2d","ios":"levelo://app?vid=b10b63da-8f6d-4693-9358-23d257fcef2d"},"vehicle_type_id":"4","last_reported":1704654342,"current_range_meters":20800,"station_id":"ce4bgr92rcd13ifvqc6g","pricing_plan_id":"free"},{"bike_id":"b8c40b33-ce06-453e-9bf8-9cd202338174","system_id":"levelo_inurba_marseille","lat":43.312239,"lon":5.368562,"is_reserved":false,"is_disabled":false,"rental_uris":{"android":"levelo://app?vid=b8c40b33-ce06-453e-9bf8-9cd202338174","ios":"levelo://app?vid=b8c40b33-ce06-453e-9bf8-9cd202338174"},"vehicle_type_id":"4","last_reported":1704654342,"current_range_meters":26000,"station_id":"ce4bgl92rcd13ifvqbq0","pricing_plan_id":"free"},{"bike_id":"2b807619-b543-42ee-a532-a090d86864d1","system_id":"levelo_inurba_marseille","lat":43.314811,"lon":5.373103,"is_reserved":false,"is_disabled":false,"rental_uris":{"android":"levelo://app?vid=2b807619-b543-42ee-a532-a090d86864d1","ios":"levelo://app?vid=2b807619-b543-42ee-a532-a090d86864d1"},"vehicle_type_id":"4","last_reported":1704654342,"current_range_meters":13600,"station_id":"ce4bgt12rcd13ifvqcd0","pricing_plan_id":"free"},{"bike_id":"cd054716-1c9b-40ae-a2b1-8ed9e4fc4cb4","system_id":"levelo_inurba_marseille","lat":43.314811,"lon":5.373104,"is_reserved":false,"is_disabled":false,"rental_uris":{"android":"levelo://app?vid=cd054716-1c9b-40ae-a2b1-8ed9e4fc4cb4","ios":"levelo://app?vid=cd054716-1c9b-40ae-a2b1-8ed9e4fc4cb4"},"vehicle_type_id":"4","last_reported":1704654342,"current_range_meters":23200,"station_id":"ce4bgt12rcd13ifvqcd0","pricing_plan_id":"free"},{"bike_id":"c6b78a06-e8cc-42a3-9fea-a222050bc5d6","system_id":"levelo_inurba_marseille","lat":43.314811,"lon":5.373103,"is_reserved":false,"is_disabled":false,"rental_uris":{"android":"levelo://app?vid=c6b78a06-e8cc-42a3-9fea-a222050bc5d6","ios":"levelo://app?vid=c6b78a06-e8cc-42a3-9fea-a222050bc5d6"},"vehicle_type_id":"4","last_reported":1704654342,"current_range_meters":28000,"station_id":"ce4bgt12rcd13ifvqcd0","pricing_plan_id":"free"},{"bike_id":"a18c9f18-dd23-4fa3-ae4c-750a813ec2dd","system_id":"levelo_inurba_marseille","lat":43.31701,"lon":5.37388,"is_reserved":false,"is_disabled":false,"rental_uris":{"android":"levelo://app?vid=a18c9f18-dd23-4fa3-ae4c-750a813ec2dd","ios":"levelo://app?vid=a18c9f18-dd23-4fa3-ae4c-750a813ec2dd"},"vehicle_type_id":"4","last_reported":1704654342,"current_range_meters":13600,"station_id":"","pricing_plan_id":"free"},{"bike_id":"825a94c0-0fa5-430b-97ab-e495bf484d63","system_id":"levelo_inurba_marseille","lat":43.305714,"lon":5.365633,"is_reserved":false,"is_disabled":false,"rental_uris":{"android":"levelo://app?vid=825a94c0-0fa5-430b-97ab-e495bf484d63","ios":"levelo://app?vid=825a94c0-0fa5-430b-97ab-e495bf484d63"},"vehicle_type_id":"4","last_reported":1704654342,"current_range_meters":28400,"station_id":"ce4bgs12rcd13ifvqcag","pricing_plan_id":"free"},{"bike_id":"3cfe45ac-1a04-4a5b-90be-2099c14485a2","system_id":"levelo_inurba_marseille","lat":43.305714,"lon":5.365633,"is_reserved":false,"is_disabled":false,"rental_uris":{"android":"levelo://app?vid=3cfe45ac-1a04-4a5b-90be-2099c14485a2","ios":"levelo://app?vid=3cfe45ac-1a04-4a5b-90be-2099c14485a2"},"vehicle_type_id":"4","last_reported":1704654342,"current_range_meters":8400,"station_id":"ce4bgs12rcd13ifvqcag","pricing_plan_id":"free"},{"bike_id":"926aed0a-2e15-452b-8f40-f95fcd505da8","system_id":"levelo_inurba_marseille","lat":43.305989,"lon":5.37225,"is_reserved":false,"is_disabled":false,"rental_uris":{"android":"levelo://app?vid=926aed0a-2e15-452b-8f40-f95fcd505da8","ios":"levelo://app?vid=926aed0a-2e15-452b-8f40-f95fcd505da8"},"vehicle_type_id":"4","last_reported":1704654342,"current_range_meters":20000,"station_id":"ce4bgqh2rcd13ifvqc4g","pricing_plan_id":"free"},{"bike_id":"b3884226-e240-462a-961c-7bf4e645d04a","system_id":"levelo_inurba_marseille","lat":43.305989,"lon":5.37225,"is_reserved":false,"is_disabled":false,"rental_uris":{"android":"levelo://app?vid=b3884226-e240-462a-961c-7bf4e645d04a","ios":"levelo://app?vid=b3884226-e240-462a-961c-7bf4e645d04a"},"vehicle_type_id":"4","last_reported":1704654342,"current_range_meters":31600,"station_id":"ce4bgqh2rcd13ifvqc4g","pricing_plan_id":"free"},{"bike_id":"b1f2a827-e24f-4839-9e25-709f9ffd496a","system_id":"levelo_inurba_marseille","lat":43.305989,"lon":5.37225,"is_reserved":false,"is_disabled":false,"rental_uris":{"android":"levelo://app?vid=b1f2a827-e24f-4839-9e25-709f9ffd496a","ios":"levelo://app?vid=b1f2a827-e24f-4839-9e25-709f9ffd496a"},"vehicle_type_id":"4","last_reported":1704654342,"current_range_meters":30400,"station_id":"ce4bgqh2rcd13ifvqc4g","pricing_plan_id":"free"},{"bike_id":"b90a90dd-8ade-4e70-8f8d-486b527052f8","system_id":"levelo_inurba_marseille","lat":43.305989,"lon":5.37225,"is_reserved":false,"is_disabled":false,"rental_uris":{"android":"levelo://app?vid=b90a90dd-8ade-4e70-8f8d-486b527052f8","ios":"levelo://app?vid=b90a90dd-8ade-4e70-8f8d-486b527052f8"},"vehicle_type_id":"4","last_reported":1704654342,"current_range_meters":31600,"station_id":"ce4bgqh2rcd13ifvqc4g","pricing_plan_id":"free"},{"bike_id":"c8ad30f4-5fe4-473a-a500-546af7004f58","system_id":"levelo_inurba_marseille","lat":43.305989,"lon":5.37225,"is_reserved":false,"is_disabled":false,"rental_uris":{"android":"levelo://app?vid=c8ad30f4-5fe4-473a-a500-546af7004f58","ios":"levelo://app?vid=c8ad30f4-5fe4-473a-a500-546af7004f58"},"vehicle_type_id":"4","last_reported":1704654342,"current_range_meters":6000,"station_id":"ce4bgqh2rcd13ifvqc4g","pricing_plan_id":"free"},{"bike_id":"e4db8820-0453-4dc8-bcac-a17e1df51c88","system_id":"levelo_inurba_marseille","lat":43.311131,"lon":5.377651,"is_reserved":false,"is_disabled":false,"rental_uris":{"android":"levelo://app?vid=e4db8820-0453-4dc8-bcac-a17e1df51c88","ios":"levelo://app?vid=e4db8820-0453-4dc8-bcac-a17e1df51c88"},"vehicle_type_id":"4","last_reported":1704654342,"current_range_meters":3600,"station_id":"ce4bgt92rcd13ifvqcg0","pricing_plan_id":"free"},{"bike_id":"01516db1-de27-4f47-84cf-4f701cc1d635","system_id":"levelo_inurba_marseille","lat":43.311125,"lon":5.377624,"is_reserved":false,"is_disabled":false,"rental_uris":{"android":"levelo://app?vid=01516db1-de27-4f47-84cf-4f701cc1d635","ios":"levelo://app?vid=01516db1-de27-4f47-84cf-4f701cc1d635"},"vehicle_type_id":"4","last_reported":1704654342,"current_range_meters":7200,"station_id":"ce4bgt92rcd13ifvqcg0","pricing_plan_id":"free"},{"bike_id":"5b4c787e-c640-42c3-a8e6-83b515251ae5","system_id":"levelo_inurba_marseille","lat":43.311125,"lon":5.377624,"is_reserved":false,"is_disabled":false,"rental_uris":{"android":"levelo://app?vid=5b4c787e-c640-42c3-a8e6-83b515251ae5","ios":"levelo://app?vid=5b4c787e-c640-42c3-a8e6-83b515251ae5"},"vehicle_type_id":"4","last_reported":1704654342,"current_range_meters":29600,"station_id":"ce4bgt92rcd13ifvqcg0","pricing_plan_id":"free"},{"bike_id":"6c98e08b-78bf-4e59-ace9-426537fcd7ae","system_id":"levelo_inurba_marseille","lat":43.311131,"lon":5.377651,"is_reserved":false,"is_disabled":false,"rental_uris":{"android":"levelo://app?vid=6c98e08b-78bf-4e59-ace9-426537fcd7ae","ios":"levelo://app?vid=6c98e08b-78bf-4e59-ace9-426537fcd7ae"},"vehicle_type_id":"4","last_reported":1704654342,"current_range_meters":18000,"station_id":"ce4bgt92rcd13ifvqcg0","pricing_plan_id":"free"},{"bike_id":"e9d62abe-72b8-4ea7-be6b-000966464cb3","system_id":"levelo_inurba_marseille","lat":43.307945,"lon":5.376487,"is_reserved":false,"is_disabled":false,"rental_uris":{"android":"levelo://app?vid=e9d62abe-72b8-4ea7-be6b-000966464cb3","ios":"levelo://app?vid=e9d62abe-72b8-4ea7-be6b-000966464cb3"},"vehicle_type_id":"4","last_reported":1704654342,"current_range_meters":27600,"station_id":"ce4bgv92rcd13ifvqcq0","pricing_plan_id":"free"},{"bike_id":"c27164bb-00c3-4aad-835a-842d6afb65c5","system_id":"levelo_inurba_marseille","lat":43.307945,"lon":5.376487,"is_reserved":false,"is_disabled":false,"rental_uris":{"android":"levelo://app?vid=c27164bb-00c3-4aad-835a-842d6afb65c5","ios":"levelo://app?vid=c27164bb-00c3-4aad-835a-842d6afb65c5"},"vehicle_type_id":"4","last_reported":1704654342,"current_range_meters":28000,"station_id":"ce4bgv92rcd13ifvqcq0","pricing_plan_id":"free"},{"bike_id":"cf5458b1-613d-421b-8b0d-fd426d88f992","system_id":"levelo_inurba_marseille","lat":43.307945,"lon":5.376487,"is_reserved":false,"is_disabled":false,"rental_uris":{"android":"levelo://app?vid=cf5458b1-613d-421b-8b0d-fd426d88f992","ios":"levelo://app?vid=cf5458b1-613d-421b-8b0d-fd426d88f992"},"vehicle_type_id":"4","last_reported":1704654342,"current_range_meters":22400,"station_id":"ce4bgv92rcd13ifvqcq0","pricing_plan_id":"free"},{"bike_id":"c4e90871-bb94-4085-82dc-ccbd997a22ca","system_id":"levelo_inurba_marseille","lat":43.315251,"lon":5.379072,"is_reserved":false,"is_disabled":false,"rental_uris":{"android":"levelo://app?vid=c4e90871-bb94-4085-82dc-ccbd997a22ca","ios":"levelo://app?vid=c4e90871-bb94-4085-82dc-ccbd997a22ca"},"vehicle_type_id":"4","last_reported":1704654342,"current_range_meters":4400,"station_id":"","pricing_plan_id":"free"},{"bike_id":"7959a8b6-d809-48c3-a2c2-571f7a9a114f","system_id":"levelo_inurba_marseille","lat":43.315314,"lon":5.380346,"is_reserved":false,"is_disabled":false,"rental_uris":{"android":"levelo://app?vid=7959a8b6-d809-48c3-a2c2-571f7a9a114f","ios":"levelo://app?vid=7959a8b6-d809-48c3-a2c2-571f7a9a114f"},"vehicle_type_id":"4","last_reported":1704654342,"current_range_meters":0,"station_id":"ce4bhsp2rcd13ifvqi50","pricing_plan_id":"free"},{"bike_id":"410d56b4-8422-4bc5-a962-9b4ea6b59eab","system_id":"levelo_inurba_marseille","lat":43.301939,"lon":5.366286,"is_reserved":false,"is_disabled":false,"rental_uris":{"android":"levelo://app?vid=410d56b4-8422-4bc5-a962-9b4ea6b59eab","ios":"levelo://app?vid=410d56b4-8422-4bc5-a962-9b4ea6b59eab"},"vehicle_type_id":"4","last_reported":1704654342,"current_range_meters":28800,"station_id":"ce4bgrh2rcd13ifvqc8g","pricing_plan_id":"free"},{"bike_id":"2c259b73-b9c4-411b-9715-616a4f947c75","system_id":"levelo_inurba_marseille","lat":43.301939,"lon":5.366286,"is_reserved":false,"is_disabled":false,"rental_uris":{"android":"levelo://app?vid=2c259b73-b9c4-411b-9715-616a4f947c75","ios":"levelo://app?vid=2c259b73-b9c4-411b-9715-616a4f947c75"},"vehicle_type_id":"4","last_reported":1704654342,"current_range_meters":22800,"station_id":"ce4bgrh2rcd13ifvqc8g","pricing_plan_id":"free"},{"bike_id":"65a55753-5e6c-4f1f-ac5b-2457213cafb3","system_id":"levelo_inurba_marseille","lat":43.30805,"lon":5.38155,"is_reserved":false,"is_disabled":false,"rental_uris":{"android":"levelo://app?vid=65a55753-5e6c-4f1f-ac5b-2457213cafb3","ios":"levelo://app?vid=65a55753-5e6c-4f1f-ac5b-2457213cafb3"},"vehicle_type_id":"4","last_reported":1704654342,"current_range_meters":0,"station_id":"ce4bgt12rcd13ifvqce0","pricing_plan_id":"free"},{"bike_id":"7016b837-46e9-4637-95cf-02e2c5743a4a","system_id":"levelo_inurba_marseille","lat":43.324771,"lon":5.36557,"is_reserved":false,"is_disabled":false,"rental_uris":{"android":"levelo://app?vid=7016b837-46e9-4637-95cf-02e2c5743a4a","ios":"levelo://app?vid=7016b837-46e9-4637-95cf-02e2c5743a4a"},"vehicle_type_id":"4","last_reported":1704654342,"current_range_meters":20400,"station_id":"ce4bhs12rcd13ifvqhvg","pricing_plan_id":"free"},{"bike_id":"9a5d20fc-5739-4188-aece-a966211e1333","system_id":"levelo_inurba_marseille","lat":43.324771,"lon":5.36557,"is_reserved":false,"is_disabled":false,"rental_uris":{"android":"levelo://app?vid=9a5d20fc-5739-4188-aece-a966211e1333","ios":"levelo://app?vid=9a5d20fc-5739-4188-aece-a966211e1333"},"vehicle_type_id":"4","last_reported":1704654342,"current_range_meters":14000,"station_id":"ce4bhs12rcd13ifvqhvg","pricing_plan_id":"free"},{"bike_id":"2aa100e7-2671-4c1b-a1f0-ab7832afcbad","system_id":"levelo_inurba_marseille","lat":43.324771,"lon":5.36557,"is_reserved":false,"is_disabled":false,"rental_uris":{"android":"levelo://app?vid=2aa100e7-2671-4c1b-a1f0-ab7832afcbad","ios":"levelo://app?vid=2aa100e7-2671-4c1b-a1f0-ab7832afcbad"},"vehicle_type_id":"4","last_reported":1704654342,"current_range_meters":24800,"station_id":"ce4bhs12rcd13ifvqhvg","pricing_plan_id":"free"},{"bike_id":"df2d1d2f-b592-479c-bf22-20329818d5fe","system_id":"levelo_inurba_marseille","lat":43.324771,"lon":5.36557,"is_reserved":false,"is_disabled":false,"rental_uris":{"android":"levelo://app?vid=df2d1d2f-b592-479c-bf22-20329818d5fe","ios":"levelo://app?vid=df2d1d2f-b592-479c-bf22-20329818d5fe"},"vehicle_type_id":"4","last_reported":1704654342,"current_range_meters":22800,"station_id":"ce4bhs12rcd13ifvqhvg","pricing_plan_id":"free"},{"bike_id":"e61fee9e-3d86-4b89-bcc3-4b1b5679e636","system_id":"levelo_inurba_marseille","lat":43.30282,"lon":5.37701,"is_reserved":false,"is_disabled":false,"rental_uris":{"android":"levelo://app?vid=e61fee9e-3d86-4b89-bcc3-4b1b5679e636","ios":"levelo://app?vid=e61fee9e-3d86-4b89-bcc3-4b1b5679e636"},"vehicle_type_id":"4","last_reported":1704654342,"current_range_meters":0,"station_id":"","pricing_plan_id":"free"},{"bike_id":"390a0dfa-725a-405e-955e-b3fed9fd48ac","system_id":"levelo_inurba_marseille","lat":43.3028,"lon":5.37703,"is_reserved":false,"is_disabled":false,"rental_uris":{"android":"levelo://app?vid=390a0dfa-725a-405e-955e-b3fed9fd48ac","ios":"levelo://app?vid=390a0dfa-725a-405e-955e-b3fed9fd48ac"},"vehicle_type_id":"4","last_reported":1704654342,"current_range_meters":400,"station_id":"","pricing_plan_id":"free"},{"bike_id":"3b895bb9-7233-4d46-99c9-62a50ed78e04","system_id":"levelo_inurba_marseille","lat":43.319935,"lon":5.381699,"is_reserved":false,"is_disabled":false,"rental_uris":{"android":"levelo://app?vid=3b895bb9-7233-4d46-99c9-62a50ed78e04","ios":"levelo://app?vid=3b895bb9-7233-4d46-99c9-62a50ed78e04"},"vehicle_type_id":"4","last_reported":1704654342,"current_range_meters":11600,"station_id":"ce4bhr12rcd13ifvqhpg","pricing_plan_id":"free"},{"bike_id":"b1b25950-ea0a-4d2a-8443-22e392518349","system_id":"levelo_inurba_marseille","lat":43.313571,"lon":5.384829,"is_reserved":false,"is_disabled":false,"rental_uris":{"android":"levelo://app?vid=b1b25950-ea0a-4d2a-8443-22e392518349","ios":"levelo://app?vid=b1b25950-ea0a-4d2a-8443-22e392518349"},"vehicle_type_id":"4","last_reported":1704654342,"current_range_meters":11600,"station_id":"ce4bgt92rcd13ifvqcf0","pricing_plan_id":"free"},{"bike_id":"f5f482e3-d57a-41b6-a02a-219602f18024","system_id":"levelo_inurba_marseille","lat":43.313571,"lon":5.384829,"is_reserved":false,"is_disabled":false,"rental_uris":{"android":"levelo://app?vid=f5f482e3-d57a-41b6-a02a-219602f18024","ios":"levelo://app?vid=f5f482e3-d57a-41b6-a02a-219602f18024"},"vehicle_type_id":"4","last_reported":1704654342,"current_range_meters":25600,"station_id":"ce4bgt92rcd13ifvqcf0","pricing_plan_id":"free"},{"bike_id":"3e0e29d7-a53a-4f4d-8ff3-903400df9725","system_id":"levelo_inurba_marseille","lat":43.313571,"lon":5.384829,"is_reserved":false,"is_disabled":false,"rental_uris":{"android":"levelo://app?vid=3e0e29d7-a53a-4f4d-8ff3-903400df9725","ios":"levelo://app?vid=3e0e29d7-a53a-4f4d-8ff3-903400df9725"},"vehicle_type_id":"4","last_reported":1704654342,"current_range_meters":30000,"station_id":"ce4bgt92rcd13ifvqcf0","pricing_plan_id":"free"},{"bike_id":"3931d105-ff65-4921-9e0c-31a0e33ea608","system_id":"levelo_inurba_marseille","lat":43.313571,"lon":5.384829,"is_reserved":false,"is_disabled":false,"rental_uris":{"android":"levelo://app?vid=3931d105-ff65-4921-9e0c-31a0e33ea608","ios":"levelo://app?vid=3931d105-ff65-4921-9e0c-31a0e33ea608"},"vehicle_type_id":"4","last_reported":1704654342,"current_range_meters":29200,"station_id":"ce4bgt92rcd13ifvqcf0","pricing_plan_id":"free"},{"bike_id":"17504bde-947a-4cd6-98b3-9a4c66aca99b","system_id":"levelo_inurba_marseille","lat":43.313827,"lon":5.385007,"is_reserved":false,"is_disabled":false,"rental_uris":{"android":"levelo://app?vid=17504bde-947a-4cd6-98b3-9a4c66aca99b","ios":"levelo://app?vid=17504bde-947a-4cd6-98b3-9a4c66aca99b"},"vehicle_type_id":"4","last_reported":1704654342,"current_range_meters":800,"station_id":"","pricing_plan_id":"free"},{"bike_id":"0eb32ac2-a88f-4300-b22f-71882fc48395","system_id":"levelo_inurba_marseille","lat":43.313571,"lon":5.384829,"is_reserved":false,"is_disabled":false,"rental_uris":{"android":"levelo://app?vid=0eb32ac2-a88f-4300-b22f-71882fc48395","ios":"levelo://app?vid=0eb32ac2-a88f-4300-b22f-71882fc48395"},"vehicle_type_id":"4","last_reported":1704654342,"current_range_meters":14800,"station_id":"ce4bgt92rcd13ifvqcf0","pricing_plan_id":"free"},{"bike_id":"1fd8a700-212b-4fe0-9bf7-6e06635b60b5","system_id":"levelo_inurba_marseille","lat":43.299209,"lon":5.365547,"is_reserved":false,"is_disabled":false,"rental_uris":{"android":"levelo://app?vid=1fd8a700-212b-4fe0-9bf7-6e06635b60b5","ios":"levelo://app?vid=1fd8a700-212b-4fe0-9bf7-6e06635b60b5"},"vehicle_type_id":"4","last_reported":1704654342,"current_range_meters":18000,"station_id":"ce4bgm92rcd13ifvqbr0","pricing_plan_id":"free"},{"bike_id":"4d990af0-82f6-4aec-8c1c-16be0bb41e6b","system_id":"levelo_inurba_marseille","lat":43.299724,"lon":5.371829,"is_reserved":false,"is_disabled":false,"rental_uris":{"android":"levelo://app?vid=4d990af0-82f6-4aec-8c1c-16be0bb41e6b","ios":"levelo://app?vid=4d990af0-82f6-4aec-8c1c-16be0bb41e6b"},"vehicle_type_id":"4","last_reported":1704654342,"current_range_meters":12000,"station_id":"ce4bgr92rcd13ifvqc7g","pricing_plan_id":"free"},{"bike_id":"68291452-7fe8-45d4-9754-ef7ae2e11394","system_id":"levelo_inurba_marseille","lat":43.299724,"lon":5.371829,"is_reserved":false,"is_disabled":false,"rental_uris":{"android":"levelo://app?vid=68291452-7fe8-45d4-9754-ef7ae2e11394","ios":"levelo://app?vid=68291452-7fe8-45d4-9754-ef7ae2e11394"},"vehicle_type_id":"4","last_reported":1704654342,"current_range_meters":19200,"station_id":"ce4bgr92rcd13ifvqc7g","pricing_plan_id":"free"},{"bike_id":"a197d4cf-d9d2-43e8-8ae0-1e0a987204ba","system_id":"levelo_inurba_marseille","lat":43.299724,"lon":5.371829,"is_reserved":false,"is_disabled":false,"rental_uris":{"android":"levelo://app?vid=a197d4cf-d9d2-43e8-8ae0-1e0a987204ba","ios":"levelo://app?vid=a197d4cf-d9d2-43e8-8ae0-1e0a987204ba"},"vehicle_type_id":"4","last_reported":1704654342,"current_range_meters":13200,"station_id":"ce4bgr92rcd13ifvqc7g","pricing_plan_id":"free"},{"bike_id":"c183a2c1-bf7f-4ad3-afab-0a90149426a8","system_id":"levelo_inurba_marseille","lat":43.299724,"lon":5.371829,"is_reserved":false,"is_disabled":false,"rental_uris":{"android":"levelo://app?vid=c183a2c1-bf7f-4ad3-afab-0a90149426a8","ios":"levelo://app?vid=c183a2c1-bf7f-4ad3-afab-0a90149426a8"},"vehicle_type_id":"4","last_reported":1704654342,"current_range_meters":18800,"station_id":"ce4bgr92rcd13ifvqc7g","pricing_plan_id":"free"},{"bike_id":"97bf5000-aae4-4158-ad17-50edc7d5b1e8","system_id":"levelo_inurba_marseille","lat":43.299724,"lon":5.371829,"is_reserved":false,"is_disabled":false,"rental_uris":{"android":"levelo://app?vid=97bf5000-aae4-4158-ad17-50edc7d5b1e8","ios":"levelo://app?vid=97bf5000-aae4-4158-ad17-50edc7d5b1e8"},"vehicle_type_id":"4","last_reported":1704654342,"current_range_meters":12800,"station_id":"ce4bgr92rcd13ifvqc7g","pricing_plan_id":"free"},{"bike_id":"b0685f63-a8c8-45cf-98b3-1f08f133f404","system_id":"levelo_inurba_marseille","lat":43.305364,"lon":5.384119,"is_reserved":false,"is_disabled":false,"rental_uris":{"android":"levelo://app?vid=b0685f63-a8c8-45cf-98b3-1f08f133f404","ios":"levelo://app?vid=b0685f63-a8c8-45cf-98b3-1f08f133f404"},"vehicle_type_id":"4","last_reported":1704654342,"current_range_meters":26400,"station_id":"ce4bgg92rcd13ifvqb30","pricing_plan_id":"free"},{"bike_id":"b22604ec-0c4b-41b4-a20e-38add68f7682","system_id":"levelo_inurba_marseille","lat":43.32565,"lon":5.374888,"is_reserved":false,"is_disabled":false,"rental_uris":{"android":"levelo://app?vid=b22604ec-0c4b-41b4-a20e-38add68f7682","ios":"levelo://app?vid=b22604ec-0c4b-41b4-a20e-38add68f7682"},"vehicle_type_id":"4","last_reported":1704654342,"current_range_meters":7600,"station_id":"","pricing_plan_id":"free"},{"bike_id":"90f624c9-e920-42f0-bdb2-c7157855cdc0","system_id":"levelo_inurba_marseille","lat":43.31154,"lon":5.38682,"is_reserved":false,"is_disabled":false,"rental_uris":{"android":"levelo://app?vid=90f624c9-e920-42f0-bdb2-c7157855cdc0","ios":"levelo://app?vid=90f624c9-e920-42f0-bdb2-c7157855cdc0"},"vehicle_type_id":"4","last_reported":1704654342,"current_range_meters":8000,"station_id":"ce4bgv12rcd13ifvqcp0","pricing_plan_id":"free"},{"bike_id":"122862d3-a48e-464b-a8a6-c7ad113c9be6","system_id":"levelo_inurba_marseille","lat":43.299243,"lon":5.37481,"is_reserved":false,"is_disabled":false,"rental_uris":{"android":"levelo://app?vid=122862d3-a48e-464b-a8a6-c7ad113c9be6","ios":"levelo://app?vid=122862d3-a48e-464b-a8a6-c7ad113c9be6"},"vehicle_type_id":"4","last_reported":1704654342,"current_range_meters":2400,"station_id":"ce4bgjh2rcd13ifvqbg0","pricing_plan_id":"free"},{"bike_id":"cc495013-a9b7-4492-a4e4-0f0aca4a9939","system_id":"levelo_inurba_marseille","lat":43.322872,"lon":5.382756,"is_reserved":false,"is_disabled":false,"rental_uris":{"android":"levelo://app?vid=cc495013-a9b7-4492-a4e4-0f0aca4a9939","ios":"levelo://app?vid=cc495013-a9b7-4492-a4e4-0f0aca4a9939"},"vehicle_type_id":"4","last_reported":1704654342,"current_range_meters":6400,"station_id":"ce4bhr12rcd13ifvqhqg","pricing_plan_id":"free"},{"bike_id":"297a7823-4b34-45b3-8282-c78d31cc9f05","system_id":"levelo_inurba_marseille","lat":43.322922,"lon":5.382693,"is_reserved":false,"is_disabled":false,"rental_uris":{"android":"levelo://app?vid=297a7823-4b34-45b3-8282-c78d31cc9f05","ios":"levelo://app?vid=297a7823-4b34-45b3-8282-c78d31cc9f05"},"vehicle_type_id":"4","last_reported":1704654342,"current_range_meters":28400,"station_id":"ce4bhr12rcd13ifvqhqg","pricing_plan_id":"free"},{"bike_id":"d0aaa14f-1070-4a80-a2f2-78508dd9f6bd","system_id":"levelo_inurba_marseille","lat":43.322872,"lon":5.382756,"is_reserved":false,"is_disabled":false,"rental_uris":{"android":"levelo://app?vid=d0aaa14f-1070-4a80-a2f2-78508dd9f6bd","ios":"levelo://app?vid=d0aaa14f-1070-4a80-a2f2-78508dd9f6bd"},"vehicle_type_id":"4","last_reported":1704654342,"current_range_meters":31600,"station_id":"ce4bhr12rcd13ifvqhqg","pricing_plan_id":"free"},{"bike_id":"09da622d-5ec6-4261-a95d-695d32c570ab","system_id":"levelo_inurba_marseille","lat":43.322877,"lon":5.382783,"is_reserved":false,"is_disabled":false,"rental_uris":{"android":"levelo://app?vid=09da622d-5ec6-4261-a95d-695d32c570ab","ios":"levelo://app?vid=09da622d-5ec6-4261-a95d-695d32c570ab"},"vehicle_type_id":"4","last_reported":1704654342,"current_range_meters":9600,"station_id":"ce4bhr12rcd13ifvqhqg","pricing_plan_id":"free"},{"bike_id":"5021f406-3153-4a9e-a450-00a19314acbe","system_id":"levelo_inurba_marseille","lat":43.32821,"lon":5.3668,"is_reserved":false,"is_disabled":false,"rental_uris":{"android":"levelo://app?vid=5021f406-3153-4a9e-a450-00a19314acbe","ios":"levelo://app?vid=5021f406-3153-4a9e-a450-00a19314acbe"},"vehicle_type_id":"4","last_reported":1704654342,"current_range_meters":30000,"station_id":"ce4bhs92rcd13ifvqi0g","pricing_plan_id":"free"},{"bike_id":"48de57f3-12a8-4253-90b5-aab66c42162c","system_id":"levelo_inurba_marseille","lat":43.328229,"lon":5.366847,"is_reserved":false,"is_disabled":false,"rental_uris":{"android":"levelo://app?vid=48de57f3-12a8-4253-90b5-aab66c42162c","ios":"levelo://app?vid=48de57f3-12a8-4253-90b5-aab66c42162c"},"vehicle_type_id":"4","last_reported":1704654342,"current_range_meters":16800,"station_id":"ce4bhs92rcd13ifvqi0g","pricing_plan_id":"free"},{"bike_id":"387c1dff-fb7e-4547-838e-1af3f69c4219","system_id":"levelo_inurba_marseille","lat":43.32823,"lon":5.36678,"is_reserved":false,"is_disabled":false,"rental_uris":{"android":"levelo://app?vid=387c1dff-fb7e-4547-838e-1af3f69c4219","ios":"levelo://app?vid=387c1dff-fb7e-4547-838e-1af3f69c4219"},"vehicle_type_id":"4","last_reported":1704654342,"current_range_meters":22000,"station_id":"ce4bhs92rcd13ifvqi0g","pricing_plan_id":"free"},{"bike_id":"c224ea64-7bb8-45be-8a3a-d137d9e17684","system_id":"levelo_inurba_marseille","lat":43.32824,"lon":5.36678,"is_reserved":false,"is_disabled":false,"rental_uris":{"android":"levelo://app?vid=c224ea64-7bb8-45be-8a3a-d137d9e17684","ios":"levelo://app?vid=c224ea64-7bb8-45be-8a3a-d137d9e17684"},"vehicle_type_id":"4","last_reported":1704654342,"current_range_meters":12800,"station_id":"ce4bhs92rcd13ifvqi0g","pricing_plan_id":"free"},{"bike_id":"ca02ca89-8dd5-4fc4-9a30-db37a36b7ff7","system_id":"levelo_inurba_marseille","lat":43.328244,"lon":5.366756,"is_reserved":false,"is_disabled":false,"rental_uris":{"android":"levelo://app?vid=ca02ca89-8dd5-4fc4-9a30-db37a36b7ff7","ios":"levelo://app?vid=ca02ca89-8dd5-4fc4-9a30-db37a36b7ff7"},"vehicle_type_id":"4","last_reported":1704654342,"current_range_meters":28000,"station_id":"ce4bhs92rcd13ifvqi0g","pricing_plan_id":"free"},{"bike_id":"66addf4b-70b7-4ac4-8e17-37956e9ecfbb","system_id":"levelo_inurba_marseille","lat":43.32825,"lon":5.36683,"is_reserved":false,"is_disabled":false,"rental_uris":{"android":"levelo://app?vid=66addf4b-70b7-4ac4-8e17-37956e9ecfbb","ios":"levelo://app?vid=66addf4b-70b7-4ac4-8e17-37956e9ecfbb"},"vehicle_type_id":"4","last_reported":1704654342,"current_range_meters":18400,"station_id":"ce4bhs92rcd13ifvqi0g","pricing_plan_id":"free"},{"bike_id":"72905f78-9c33-4138-8385-d331d9223abd","system_id":"levelo_inurba_marseille","lat":43.32825,"lon":5.36682,"is_reserved":false,"is_disabled":false,"rental_uris":{"android":"levelo://app?vid=72905f78-9c33-4138-8385-d331d9223abd","ios":"levelo://app?vid=72905f78-9c33-4138-8385-d331d9223abd"},"vehicle_type_id":"4","last_reported":1704654342,"current_range_meters":14000,"station_id":"ce4bhs92rcd13ifvqi0g","pricing_plan_id":"free"},{"bike_id":"8341e063-523f-4d25-880b-99eb6edf220f","system_id":"levelo_inurba_marseille","lat":43.328256,"lon":5.366746,"is_reserved":false,"is_disabled":false,"rental_uris":{"android":"levelo://app?vid=8341e063-523f-4d25-880b-99eb6edf220f","ios":"levelo://app?vid=8341e063-523f-4d25-880b-99eb6edf220f"},"vehicle_type_id":"4","last_reported":1704654342,"current_range_meters":14800,"station_id":"ce4bhs92rcd13ifvqi0g","pricing_plan_id":"free"},{"bike_id":"42895378-a21e-445b-8e89-325727904609","system_id":"levelo_inurba_marseille","lat":43.328371,"lon":5.366909,"is_reserved":false,"is_disabled":false,"rental_uris":{"android":"levelo://app?vid=42895378-a21e-445b-8e89-325727904609","ios":"levelo://app?vid=42895378-a21e-445b-8e89-325727904609"},"vehicle_type_id":"4","last_reported":1704654342,"current_range_meters":21200,"station_id":"ce4bhs92rcd13ifvqi0g","pricing_plan_id":"free"},{"bike_id":"a791cb05-0716-4f7c-bfab-5cd10f4022f6","system_id":"levelo_inurba_marseille","lat":43.328275,"lon":5.366792,"is_reserved":false,"is_disabled":false,"rental_uris":{"android":"levelo://app?vid=a791cb05-0716-4f7c-bfab-5cd10f4022f6","ios":"levelo://app?vid=a791cb05-0716-4f7c-bfab-5cd10f4022f6"},"vehicle_type_id":"4","last_reported":1704654342,"current_range_meters":16000,"station_id":"ce4bhs92rcd13ifvqi0g","pricing_plan_id":"free"},{"bike_id":"0725f2a6-de18-43ea-a245-f699ddc19b55","system_id":"levelo_inurba_marseille","lat":43.328371,"lon":5.366909,"is_reserved":false,"is_disabled":false,"rental_uris":{"android":"levelo://app?vid=0725f2a6-de18-43ea-a245-f699ddc19b55","ios":"levelo://app?vid=0725f2a6-de18-43ea-a245-f699ddc19b55"},"vehicle_type_id":"4","last_reported":1704654342,"current_range_meters":7200,"station_id":"ce4bhs92rcd13ifvqi0g","pricing_plan_id":"free"},{"bike_id":"7bdd941f-cf9a-4a9b-9dc5-a7a443cd77c7","system_id":"levelo_inurba_marseille","lat":43.32829,"lon":5.36685,"is_reserved":false,"is_disabled":false,"rental_uris":{"android":"levelo://app?vid=7bdd941f-cf9a-4a9b-9dc5-a7a443cd77c7","ios":"levelo://app?vid=7bdd941f-cf9a-4a9b-9dc5-a7a443cd77c7"},"vehicle_type_id":"4","last_reported":1704654342,"current_range_meters":20400,"station_id":"ce4bhs92rcd13ifvqi0g","pricing_plan_id":"free"},{"bike_id":"ee966a52-c4f3-4b5b-b8b2-c85b17eb5fb4","system_id":"levelo_inurba_marseille","lat":43.328371,"lon":5.366909,"is_reserved":false,"is_disabled":false,"rental_uris":{"android":"levelo://app?vid=ee966a52-c4f3-4b5b-b8b2-c85b17eb5fb4","ios":"levelo://app?vid=ee966a52-c4f3-4b5b-b8b2-c85b17eb5fb4"},"vehicle_type_id":"4","last_reported":1704654342,"current_range_meters":14800,"station_id":"ce4bhs92rcd13ifvqi0g","pricing_plan_id":"free"},{"bike_id":"064b14d2-f3e9-43be-a725-c95d6c66fd15","system_id":"levelo_inurba_marseille","lat":43.328371,"lon":5.366909,"is_reserved":false,"is_disabled":false,"rental_uris":{"android":"levelo://app?vid=064b14d2-f3e9-43be-a725-c95d6c66fd15","ios":"levelo://app?vid=064b14d2-f3e9-43be-a725-c95d6c66fd15"},"vehicle_type_id":"4","last_reported":1704654342,"current_range_meters":21600,"station_id":"ce4bhs92rcd13ifvqi0g","pricing_plan_id":"free"},{"bike_id":"43f47c35-ec23-411b-b2fa-7957e35eab11","system_id":"levelo_inurba_marseille","lat":43.328371,"lon":5.366909,"is_reserved":false,"is_disabled":false,"rental_uris":{"android":"levelo://app?vid=43f47c35-ec23-411b-b2fa-7957e35eab11","ios":"levelo://app?vid=43f47c35-ec23-411b-b2fa-7957e35eab11"},"vehicle_type_id":"4","last_reported":1704654342,"current_range_meters":9600,"station_id":"ce4bhs92rcd13ifvqi0g","pricing_plan_id":"free"},{"bike_id":"e22d5d66-2c33-444c-9a95-5d6517dd879c","system_id":"levelo_inurba_marseille","lat":43.328371,"lon":5.366909,"is_reserved":false,"is_disabled":false,"rental_uris":{"android":"levelo://app?vid=e22d5d66-2c33-444c-9a95-5d6517dd879c","ios":"levelo://app?vid=e22d5d66-2c33-444c-9a95-5d6517dd879c"},"vehicle_type_id":"4","last_reported":1704654342,"current_range_meters":4800,"station_id":"ce4bhs92rcd13ifvqi0g","pricing_plan_id":"free"},{"bike_id":"9383789e-2a1a-4049-a767-e1f78cbdfc52","system_id":"levelo_inurba_marseille","lat":43.328371,"lon":5.366909,"is_reserved":false,"is_disabled":false,"rental_uris":{"android":"levelo://app?vid=9383789e-2a1a-4049-a767-e1f78cbdfc52","ios":"levelo://app?vid=9383789e-2a1a-4049-a767-e1f78cbdfc52"},"vehicle_type_id":"4","last_reported":1704654342,"current_range_meters":17200,"station_id":"ce4bhs92rcd13ifvqi0g","pricing_plan_id":"free"},{"bike_id":"9301fa90-c6d5-46ea-a3c3-78da76247f50","system_id":"levelo_inurba_marseille","lat":43.297163,"lon":5.365866,"is_reserved":false,"is_disabled":false,"rental_uris":{"android":"levelo://app?vid=9301fa90-c6d5-46ea-a3c3-78da76247f50","ios":"levelo://app?vid=9301fa90-c6d5-46ea-a3c3-78da76247f50"},"vehicle_type_id":"4","last_reported":1704654342,"current_range_meters":20400,"station_id":"ce4bgn12rcd13ifvqbt0","pricing_plan_id":"free"},{"bike_id":"81e55073-d7d2-4074-ae81-cfb417cd49cb","system_id":"levelo_inurba_marseille","lat":43.2968,"lon":5.37291,"is_reserved":false,"is_disabled":false,"rental_uris":{"android":"levelo://app?vid=81e55073-d7d2-4074-ae81-cfb417cd49cb","ios":"levelo://app?vid=81e55073-d7d2-4074-ae81-cfb417cd49cb"},"vehicle_type_id":"4","last_reported":1704654342,"current_range_meters":22400,"station_id":"ce4bgk12rcd13ifvqbj0","pricing_plan_id":"free"},{"bike_id":"4c0df888-d215-489f-a603-865d60141c60","system_id":"levelo_inurba_marseille","lat":43.29598,"lon":5.36801,"is_reserved":false,"is_disabled":false,"rental_uris":{"android":"levelo://app?vid=4c0df888-d215-489f-a603-865d60141c60","ios":"levelo://app?vid=4c0df888-d215-489f-a603-865d60141c60"},"vehicle_type_id":"4","last_reported":1704654342,"current_range_meters":6400,"station_id":"ce4bgph2rcd13ifvqc2g","pricing_plan_id":"free"},{"bike_id":"b7413d6a-edd8-420c-9a03-945d7b1ff7d7","system_id":"levelo_inurba_marseille","lat":43.317557,"lon":5.390173,"is_reserved":false,"is_disabled":false,"rental_uris":{"android":"levelo://app?vid=b7413d6a-edd8-420c-9a03-945d7b1ff7d7","ios":"levelo://app?vid=b7413d6a-edd8-420c-9a03-945d7b1ff7d7"},"vehicle_type_id":"4","last_reported":1704654342,"current_range_meters":18800,"station_id":"ce4bhqp2rcd13ifvqhng","pricing_plan_id":"free"},{"bike_id":"53ca5172-cfdf-4293-9da1-a285e228bc20","system_id":"levelo_inurba_marseille","lat":43.317557,"lon":5.390173,"is_reserved":false,"is_disabled":false,"rental_uris":{"android":"levelo://app?vid=53ca5172-cfdf-4293-9da1-a285e228bc20","ios":"levelo://app?vid=53ca5172-cfdf-4293-9da1-a285e228bc20"},"vehicle_type_id":"4","last_reported":1704654342,"current_range_meters":8000,"station_id":"ce4bhqp2rcd13ifvqhng","pricing_plan_id":"free"},{"bike_id":"34f69dbf-8e5f-4125-8bb4-d00f66d37abf","system_id":"levelo_inurba_marseille","lat":43.317557,"lon":5.390173,"is_reserved":false,"is_disabled":false,"rental_uris":{"android":"levelo://app?vid=34f69dbf-8e5f-4125-8bb4-d00f66d37abf","ios":"levelo://app?vid=34f69dbf-8e5f-4125-8bb4-d00f66d37abf"},"vehicle_type_id":"4","last_reported":1704654342,"current_range_meters":22400,"station_id":"ce4bhqp2rcd13ifvqhng","pricing_plan_id":"free"},{"bike_id":"851f5fea-8323-496c-9ac7-fefca932e732","system_id":"levelo_inurba_marseille","lat":43.317557,"lon":5.390173,"is_reserved":false,"is_disabled":false,"rental_uris":{"android":"levelo://app?vid=851f5fea-8323-496c-9ac7-fefca932e732","ios":"levelo://app?vid=851f5fea-8323-496c-9ac7-fefca932e732"},"vehicle_type_id":"4","last_reported":1704654342,"current_range_meters":14400,"station_id":"ce4bhqp2rcd13ifvqhng","pricing_plan_id":"free"},{"bike_id":"38862af0-fa44-4c70-9b4a-0a115ec9e9c9","system_id":"levelo_inurba_marseille","lat":43.317557,"lon":5.390173,"is_reserved":false,"is_disabled":false,"rental_uris":{"android":"levelo://app?vid=38862af0-fa44-4c70-9b4a-0a115ec9e9c9","ios":"levelo://app?vid=38862af0-fa44-4c70-9b4a-0a115ec9e9c9"},"vehicle_type_id":"4","last_reported":1704654342,"current_range_meters":30800,"station_id":"ce4bhqp2rcd13ifvqhng","pricing_plan_id":"free"},{"bike_id":"39008112-81fb-4a1a-b09b-ec460c7415ff","system_id":"levelo_inurba_marseille","lat":43.298037,"lon":5.381066,"is_reserved":false,"is_disabled":false,"rental_uris":{"android":"levelo://app?vid=39008112-81fb-4a1a-b09b-ec460c7415ff","ios":"levelo://app?vid=39008112-81fb-4a1a-b09b-ec460c7415ff"},"vehicle_type_id":"4","last_reported":1704654342,"current_range_meters":18400,"station_id":"ce4bgip2rcd13ifvqbb0","pricing_plan_id":"free"},{"bike_id":"1bc8b5b8-7745-4110-9164-4b0ea676625b","system_id":"levelo_inurba_marseille","lat":43.295748,"lon":5.37522,"is_reserved":false,"is_disabled":false,"rental_uris":{"android":"levelo://app?vid=1bc8b5b8-7745-4110-9164-4b0ea676625b","ios":"levelo://app?vid=1bc8b5b8-7745-4110-9164-4b0ea676625b"},"vehicle_type_id":"4","last_reported":1704654342,"current_range_meters":22000,"station_id":"ce4bgh92rcd13ifvqb50","pricing_plan_id":"free"},{"bike_id":"ca4f6ccc-37b2-496e-acdb-734afc021218","system_id":"levelo_inurba_marseille","lat":43.29573,"lon":5.37507,"is_reserved":false,"is_disabled":false,"rental_uris":{"android":"levelo://app?vid=ca4f6ccc-37b2-496e-acdb-734afc021218","ios":"levelo://app?vid=ca4f6ccc-37b2-496e-acdb-734afc021218"},"vehicle_type_id":"4","last_reported":1704654342,"current_range_meters":11200,"station_id":"ce4bgh92rcd13ifvqb50","pricing_plan_id":"free"},{"bike_id":"79117bae-e987-4cb3-ba50-2c682e32788c","system_id":"levelo_inurba_marseille","lat":43.295748,"lon":5.37522,"is_reserved":false,"is_disabled":false,"rental_uris":{"android":"levelo://app?vid=79117bae-e987-4cb3-ba50-2c682e32788c","ios":"levelo://app?vid=79117bae-e987-4cb3-ba50-2c682e32788c"},"vehicle_type_id":"4","last_reported":1704654342,"current_range_meters":22800,"station_id":"ce4bgh92rcd13ifvqb50","pricing_plan_id":"free"},{"bike_id":"47ffebfb-1e6f-4b29-8788-7c561e72b439","system_id":"levelo_inurba_marseille","lat":43.304274,"lon":5.388873,"is_reserved":false,"is_disabled":false,"rental_uris":{"android":"levelo://app?vid=47ffebfb-1e6f-4b29-8788-7c561e72b439","ios":"levelo://app?vid=47ffebfb-1e6f-4b29-8788-7c561e72b439"},"vehicle_type_id":"4","last_reported":1704654342,"current_range_meters":10400,"station_id":"ce4bgk12rcd13ifvqbi0","pricing_plan_id":"free"},{"bike_id":"22dadaa9-4648-468d-bf77-101e9b73884d","system_id":"levelo_inurba_marseille","lat":43.295748,"lon":5.37522,"is_reserved":false,"is_disabled":false,"rental_uris":{"android":"levelo://app?vid=22dadaa9-4648-468d-bf77-101e9b73884d","ios":"levelo://app?vid=22dadaa9-4648-468d-bf77-101e9b73884d"},"vehicle_type_id":"4","last_reported":1704654342,"current_range_meters":19200,"station_id":"ce4bgh92rcd13ifvqb50","pricing_plan_id":"free"},{"bike_id":"2d5fb343-3b93-486a-9857-39fa276ea92e","system_id":"levelo_inurba_marseille","lat":43.304278,"lon":5.388868,"is_reserved":false,"is_disabled":false,"rental_uris":{"android":"levelo://app?vid=2d5fb343-3b93-486a-9857-39fa276ea92e","ios":"levelo://app?vid=2d5fb343-3b93-486a-9857-39fa276ea92e"},"vehicle_type_id":"4","last_reported":1704654342,"current_range_meters":23200,"station_id":"ce4bgk12rcd13ifvqbi0","pricing_plan_id":"free"},{"bike_id":"ab104a7f-91e1-4308-8c2a-d387d12f3dc9","system_id":"levelo_inurba_marseille","lat":43.304274,"lon":5.388873,"is_reserved":false,"is_disabled":false,"rental_uris":{"android":"levelo://app?vid=ab104a7f-91e1-4308-8c2a-d387d12f3dc9","ios":"levelo://app?vid=ab104a7f-91e1-4308-8c2a-d387d12f3dc9"},"vehicle_type_id":"4","last_reported":1704654342,"current_range_meters":9200,"station_id":"ce4bgk12rcd13ifvqbi0","pricing_plan_id":"free"},{"bike_id":"bc14ee0f-5238-461c-b259-9df06db8c82c","system_id":"levelo_inurba_marseille","lat":43.299717,"lon":5.384845,"is_reserved":false,"is_disabled":false,"rental_uris":{"android":"levelo://app?vid=bc14ee0f-5238-461c-b259-9df06db8c82c","ios":"levelo://app?vid=bc14ee0f-5238-461c-b259-9df06db8c82c"},"vehicle_type_id":"4","last_reported":1704654342,"current_range_meters":26000,"station_id":"ce4bgj92rcd13ifvqbd0","pricing_plan_id":"free"},{"bike_id":"204dea3f-87e7-4326-9f54-6cdab23e9e5a","system_id":"levelo_inurba_marseille","lat":43.32362,"lon":5.38875,"is_reserved":false,"is_disabled":false,"rental_uris":{"android":"levelo://app?vid=204dea3f-87e7-4326-9f54-6cdab23e9e5a","ios":"levelo://app?vid=204dea3f-87e7-4326-9f54-6cdab23e9e5a"},"vehicle_type_id":"4","last_reported":1704654342,"current_range_meters":30000,"station_id":"ce4bhqp2rcd13ifvqhog","pricing_plan_id":"free"},{"bike_id":"ab0e400d-a840-4b1c-85f0-5cc9c6427f2c","system_id":"levelo_inurba_marseille","lat":43.293259,"lon":5.371586,"is_reserved":false,"is_disabled":false,"rental_uris":{"android":"levelo://app?vid=ab0e400d-a840-4b1c-85f0-5cc9c6427f2c","ios":"levelo://app?vid=ab0e400d-a840-4b1c-85f0-5cc9c6427f2c"},"vehicle_type_id":"4","last_reported":1704654342,"current_range_meters":23200,"station_id":"ce4bgh92rcd13ifvqb40","pricing_plan_id":"free"},{"bike_id":"68e78e08-6fb9-4e6a-986d-68d68b2bf062","system_id":"levelo_inurba_marseille","lat":43.305994,"lon":5.393687,"is_reserved":false,"is_disabled":false,"rental_uris":{"android":"levelo://app?vid=68e78e08-6fb9-4e6a-986d-68d68b2bf062","ios":"levelo://app?vid=68e78e08-6fb9-4e6a-986d-68d68b2bf062"},"vehicle_type_id":"4","last_reported":1704654342,"current_range_meters":10800,"station_id":"ce4bh0p2rcd13ifvqd80","pricing_plan_id":"free"},{"bike_id":"625e9029-a5b3-4061-a426-9c7f5bdd45c2","system_id":"levelo_inurba_marseille","lat":43.305994,"lon":5.393687,"is_reserved":false,"is_disabled":false,"rental_uris":{"android":"levelo://app?vid=625e9029-a5b3-4061-a426-9c7f5bdd45c2","ios":"levelo://app?vid=625e9029-a5b3-4061-a426-9c7f5bdd45c2"},"vehicle_type_id":"4","last_reported":1704654342,"current_range_meters":26800,"station_id":"ce4bh0p2rcd13ifvqd80","pricing_plan_id":"free"},{"bike_id":"d734b4d7-8f84-4178-abf5-5906a0a282a6","system_id":"levelo_inurba_marseille","lat":43.305994,"lon":5.393687,"is_reserved":false,"is_disabled":false,"rental_uris":{"android":"levelo://app?vid=d734b4d7-8f84-4178-abf5-5906a0a282a6","ios":"levelo://app?vid=d734b4d7-8f84-4178-abf5-5906a0a282a6"},"vehicle_type_id":"4","last_reported":1704654342,"current_range_meters":18400,"station_id":"ce4bh0p2rcd13ifvqd80","pricing_plan_id":"free"},{"bike_id":"9e5d5c9c-b4c1-4be2-86f8-4b730a8fdc41","system_id":"levelo_inurba_marseille","lat":43.303002,"lon":5.392142,"is_reserved":false,"is_disabled":false,"rental_uris":{"android":"levelo://app?vid=9e5d5c9c-b4c1-4be2-86f8-4b730a8fdc41","ios":"levelo://app?vid=9e5d5c9c-b4c1-4be2-86f8-4b730a8fdc41"},"vehicle_type_id":"4","last_reported":1704654342,"current_range_meters":21200,"station_id":"ce4bgkh2rcd13ifvqbk0","pricing_plan_id":"free"},{"bike_id":"00201432-9b80-43da-90de-0d84ad7437da","system_id":"levelo_inurba_marseille","lat":43.292311,"lon":5.360731,"is_reserved":false,"is_disabled":false,"rental_uris":{"android":"levelo://app?vid=00201432-9b80-43da-90de-0d84ad7437da","ios":"levelo://app?vid=00201432-9b80-43da-90de-0d84ad7437da"},"vehicle_type_id":"4","last_reported":1704654342,"current_range_meters":0,"station_id":"ce4bhbh2rcd13ifvqeqg","pricing_plan_id":"free"},{"bike_id":"ec442a65-1a3d-4c92-b56b-1a0c85d2e5a7","system_id":"levelo_inurba_marseille","lat":43.300852,"lon":5.390859,"is_reserved":false,"is_disabled":false,"rental_uris":{"android":"levelo://app?vid=ec442a65-1a3d-4c92-b56b-1a0c85d2e5a7","ios":"levelo://app?vid=ec442a65-1a3d-4c92-b56b-1a0c85d2e5a7"},"vehicle_type_id":"4","last_reported":1704654342,"current_range_meters":23200,"station_id":"ce4bh192rcd13ifvqdb0","pricing_plan_id":"free"},{"bike_id":"847a226e-c1b4-4332-949b-493aba78b5c1","system_id":"levelo_inurba_marseille","lat":43.291994,"lon":5.357886,"is_reserved":false,"is_disabled":false,"rental_uris":{"android":"levelo://app?vid=847a226e-c1b4-4332-949b-493aba78b5c1","ios":"levelo://app?vid=847a226e-c1b4-4332-949b-493aba78b5c1"},"vehicle_type_id":"4","last_reported":1704654342,"current_range_meters":9600,"station_id":"ce4bhb12rcd13ifvqel0","pricing_plan_id":"free"},{"bike_id":"f3c2c559-3e53-4bb7-be68-fd2bc513ef22","system_id":"levelo_inurba_marseille","lat":43.313291,"lon":5.396838,"is_reserved":false,"is_disabled":false,"rental_uris":{"android":"levelo://app?vid=f3c2c559-3e53-4bb7-be68-fd2bc513ef22","ios":"levelo://app?vid=f3c2c559-3e53-4bb7-be68-fd2bc513ef22"},"vehicle_type_id":"4","last_reported":1704654342,"current_range_meters":0,"station_id":"ce4bgvp2rcd13ifvqcu0","pricing_plan_id":"free"},{"bike_id":"4697f0e8-7477-4b8b-ad79-fead01185cdd","system_id":"levelo_inurba_marseille","lat":43.313291,"lon":5.396838,"is_reserved":false,"is_disabled":false,"rental_uris":{"android":"levelo://app?vid=4697f0e8-7477-4b8b-ad79-fead01185cdd","ios":"levelo://app?vid=4697f0e8-7477-4b8b-ad79-fead01185cdd"},"vehicle_type_id":"4","last_reported":1704654342,"current_range_meters":4800,"station_id":"ce4bgvp2rcd13ifvqcu0","pricing_plan_id":"free"},{"bike_id":"381528b0-d19f-4289-b4ab-ca494aad36ce","system_id":"levelo_inurba_marseille","lat":43.309038,"lon":5.396546,"is_reserved":false,"is_disabled":false,"rental_uris":{"android":"levelo://app?vid=381528b0-d19f-4289-b4ab-ca494aad36ce","ios":"levelo://app?vid=381528b0-d19f-4289-b4ab-ca494aad36ce"},"vehicle_type_id":"4","last_reported":1704654342,"current_range_meters":20400,"station_id":"ce4bh012rcd13ifvqcv0","pricing_plan_id":"free"},{"bike_id":"40993f69-4891-428a-9c3e-744ffa26adee","system_id":"levelo_inurba_marseille","lat":43.29529,"lon":5.385581,"is_reserved":false,"is_disabled":false,"rental_uris":{"android":"levelo://app?vid=40993f69-4891-428a-9c3e-744ffa26adee","ios":"levelo://app?vid=40993f69-4891-428a-9c3e-744ffa26adee"},"vehicle_type_id":"4","last_reported":1704654342,"current_range_meters":12400,"station_id":"ce4bgih2rcd13ifvqba0","pricing_plan_id":"free"},{"bike_id":"c40e35cb-6a75-4ccf-8005-39caa1a6e7e7","system_id":"levelo_inurba_marseille","lat":43.29529,"lon":5.385581,"is_reserved":false,"is_disabled":false,"rental_uris":{"android":"levelo://app?vid=c40e35cb-6a75-4ccf-8005-39caa1a6e7e7","ios":"levelo://app?vid=c40e35cb-6a75-4ccf-8005-39caa1a6e7e7"},"vehicle_type_id":"4","last_reported":1704654342,"current_range_meters":11600,"station_id":"ce4bgih2rcd13ifvqba0","pricing_plan_id":"free"},{"bike_id":"4c0d9d62-bc0f-41a2-a475-c0cff025ac82","system_id":"levelo_inurba_marseille","lat":43.29529,"lon":5.385581,"is_reserved":false,"is_disabled":false,"rental_uris":{"android":"levelo://app?vid=4c0d9d62-bc0f-41a2-a475-c0cff025ac82","ios":"levelo://app?vid=4c0d9d62-bc0f-41a2-a475-c0cff025ac82"},"vehicle_type_id":"4","last_reported":1704654342,"current_range_meters":10400,"station_id":"ce4bgih2rcd13ifvqba0","pricing_plan_id":"free"},{"bike_id":"13891aaa-69b1-4f7b-89ca-818cd6913a95","system_id":"levelo_inurba_marseille","lat":43.30271,"lon":5.39414,"is_reserved":false,"is_disabled":false,"rental_uris":{"android":"levelo://app?vid=13891aaa-69b1-4f7b-89ca-818cd6913a95","ios":"levelo://app?vid=13891aaa-69b1-4f7b-89ca-818cd6913a95"},"vehicle_type_id":"4","last_reported":1704654342,"current_range_meters":3200,"station_id":"","pricing_plan_id":"free"},{"bike_id":"3162fa9f-b359-46ad-b41c-10a8899d336c","system_id":"levelo_inurba_marseille","lat":43.290779,"lon":5.371482,"is_reserved":false,"is_disabled":false,"rental_uris":{"android":"levelo://app?vid=3162fa9f-b359-46ad-b41c-10a8899d336c","ios":"levelo://app?vid=3162fa9f-b359-46ad-b41c-10a8899d336c"},"vehicle_type_id":"4","last_reported":1704654342,"current_range_meters":14400,"station_id":"ce4bh5p2rcd13ifvqe4g","pricing_plan_id":"free"},{"bike_id":"501e7205-9b47-4b26-b644-3d7de43ff536","system_id":"levelo_inurba_marseille","lat":43.289184,"lon":5.366408,"is_reserved":false,"is_disabled":false,"rental_uris":{"android":"levelo://app?vid=501e7205-9b47-4b26-b644-3d7de43ff536","ios":"levelo://app?vid=501e7205-9b47-4b26-b644-3d7de43ff536"},"vehicle_type_id":"4","last_reported":1704654342,"current_range_meters":18800,"station_id":"ce4bhap2rcd13ifvqek0","pricing_plan_id":"free"},{"bike_id":"82a330d6-39a8-4a42-b8ea-571a1ad303d8","system_id":"levelo_inurba_marseille","lat":43.289184,"lon":5.366408,"is_reserved":false,"is_disabled":false,"rental_uris":{"android":"levelo://app?vid=82a330d6-39a8-4a42-b8ea-571a1ad303d8","ios":"levelo://app?vid=82a330d6-39a8-4a42-b8ea-571a1ad303d8"},"vehicle_type_id":"4","last_reported":1704654342,"current_range_meters":3200,"station_id":"ce4bhap2rcd13ifvqek0","pricing_plan_id":"free"},{"bike_id":"6603c26e-e31c-4d4c-9fcb-6d9f3754d8cb","system_id":"levelo_inurba_marseille","lat":43.294162,"lon":5.386292,"is_reserved":false,"is_disabled":false,"rental_uris":{"android":"levelo://app?vid=6603c26e-e31c-4d4c-9fcb-6d9f3754d8cb","ios":"levelo://app?vid=6603c26e-e31c-4d4c-9fcb-6d9f3754d8cb"},"vehicle_type_id":"4","last_reported":1704654342,"current_range_meters":22400,"station_id":"ce4bh2h2rcd13ifvqdh0","pricing_plan_id":"free"},{"bike_id":"c985152f-c074-4d5a-9558-fed69ba0900d","system_id":"levelo_inurba_marseille","lat":43.289184,"lon":5.366408,"is_reserved":false,"is_disabled":false,"rental_uris":{"android":"levelo://app?vid=c985152f-c074-4d5a-9558-fed69ba0900d","ios":"levelo://app?vid=c985152f-c074-4d5a-9558-fed69ba0900d"},"vehicle_type_id":"4","last_reported":1704654342,"current_range_meters":1200,"station_id":"ce4bhap2rcd13ifvqek0","pricing_plan_id":"free"},{"bike_id":"ba748774-0d0e-4c65-b0f0-dc8a23151d23","system_id":"levelo_inurba_marseille","lat":43.292644,"lon":5.384257,"is_reserved":false,"is_disabled":false,"rental_uris":{"android":"levelo://app?vid=ba748774-0d0e-4c65-b0f0-dc8a23151d23","ios":"levelo://app?vid=ba748774-0d0e-4c65-b0f0-dc8a23151d23"},"vehicle_type_id":"4","last_reported":1704654342,"current_range_meters":0,"station_id":"ce4bh692rcd13ifvqea0","pricing_plan_id":"free"},{"bike_id":"d677f873-d212-48e1-ae33-29b31458c699","system_id":"levelo_inurba_marseille","lat":43.292642,"lon":5.384254,"is_reserved":false,"is_disabled":false,"rental_uris":{"android":"levelo://app?vid=d677f873-d212-48e1-ae33-29b31458c699","ios":"levelo://app?vid=d677f873-d212-48e1-ae33-29b31458c699"},"vehicle_type_id":"4","last_reported":1704654342,"current_range_meters":29200,"station_id":"ce4bh692rcd13ifvqea0","pricing_plan_id":"free"},{"bike_id":"894cd4be-d1bd-4230-a0b1-7379edba412e","system_id":"levelo_inurba_marseille","lat":43.292642,"lon":5.384254,"is_reserved":false,"is_disabled":false,"rental_uris":{"android":"levelo://app?vid=894cd4be-d1bd-4230-a0b1-7379edba412e","ios":"levelo://app?vid=894cd4be-d1bd-4230-a0b1-7379edba412e"},"vehicle_type_id":"4","last_reported":1704654342,"current_range_meters":18400,"station_id":"ce4bh692rcd13ifvqea0","pricing_plan_id":"free"},{"bike_id":"84f18844-d28d-4577-8724-ded23644d40e","system_id":"levelo_inurba_marseille","lat":43.292642,"lon":5.384254,"is_reserved":false,"is_disabled":false,"rental_uris":{"android":"levelo://app?vid=84f18844-d28d-4577-8724-ded23644d40e","ios":"levelo://app?vid=84f18844-d28d-4577-8724-ded23644d40e"},"vehicle_type_id":"4","last_reported":1704654342,"current_range_meters":24400,"station_id":"ce4bh692rcd13ifvqea0","pricing_plan_id":"free"},{"bike_id":"a5a76750-7373-4576-8b7b-bb5b8c7d8560","system_id":"levelo_inurba_marseille","lat":43.290103,"lon":5.356114,"is_reserved":false,"is_disabled":false,"rental_uris":{"android":"levelo://app?vid=a5a76750-7373-4576-8b7b-bb5b8c7d8560","ios":"levelo://app?vid=a5a76750-7373-4576-8b7b-bb5b8c7d8560"},"vehicle_type_id":"4","last_reported":1704654342,"current_range_meters":23600,"station_id":"ce4bhb92rcd13ifvqen0","pricing_plan_id":"free"},{"bike_id":"9161feb6-b42f-48c2-b9f9-1da6bdc498c2","system_id":"levelo_inurba_marseille","lat":43.2901,"lon":5.381269,"is_reserved":false,"is_disabled":false,"rental_uris":{"android":"levelo://app?vid=9161feb6-b42f-48c2-b9f9-1da6bdc498c2","ios":"levelo://app?vid=9161feb6-b42f-48c2-b9f9-1da6bdc498c2"},"vehicle_type_id":"4","last_reported":1704654342,"current_range_meters":16400,"station_id":"ce4bh4p2rcd13ifvqe1g","pricing_plan_id":"free"},{"bike_id":"f3b8aff6-1573-490f-9079-b945ad399353","system_id":"levelo_inurba_marseille","lat":43.289743,"lon":5.378304,"is_reserved":false,"is_disabled":false,"rental_uris":{"android":"levelo://app?vid=f3b8aff6-1573-490f-9079-b945ad399353","ios":"levelo://app?vid=f3b8aff6-1573-490f-9079-b945ad399353"},"vehicle_type_id":"4","last_reported":1704654342,"current_range_meters":15600,"station_id":"ce4bh9p2rcd13ifvqed0","pricing_plan_id":"free"},{"bike_id":"090deaf9-923f-473d-8cff-dad347e1ac5b","system_id":"levelo_inurba_marseille","lat":43.295169,"lon":5.390426,"is_reserved":false,"is_disabled":false,"rental_uris":{"android":"levelo://app?vid=090deaf9-923f-473d-8cff-dad347e1ac5b","ios":"levelo://app?vid=090deaf9-923f-473d-8cff-dad347e1ac5b"},"vehicle_type_id":"4","last_reported":1704654342,"current_range_meters":19200,"station_id":"ce4bh3p2rcd13ifvqdp0","pricing_plan_id":"free"},{"bike_id":"29877edf-f914-4818-a395-be7aee9e9d72","system_id":"levelo_inurba_marseille","lat":43.330442,"lon":5.389148,"is_reserved":false,"is_disabled":false,"rental_uris":{"android":"levelo://app?vid=29877edf-f914-4818-a395-be7aee9e9d72","ios":"levelo://app?vid=29877edf-f914-4818-a395-be7aee9e9d72"},"vehicle_type_id":"4","last_reported":1704654342,"current_range_meters":14000,"station_id":"ce4bhr92rcd13ifvqhrg","pricing_plan_id":"free"},{"bike_id":"604d70e1-4bfc-4c1a-ad50-5c45b428d61e","system_id":"levelo_inurba_marseille","lat":43.330442,"lon":5.389148,"is_reserved":false,"is_disabled":false,"rental_uris":{"android":"levelo://app?vid=604d70e1-4bfc-4c1a-ad50-5c45b428d61e","ios":"levelo://app?vid=604d70e1-4bfc-4c1a-ad50-5c45b428d61e"},"vehicle_type_id":"4","last_reported":1704654342,"current_range_meters":18000,"station_id":"ce4bhr92rcd13ifvqhrg","pricing_plan_id":"free"},{"bike_id":"8625464e-66d0-4621-bd34-1a2874fb7a19","system_id":"levelo_inurba_marseille","lat":43.330442,"lon":5.389148,"is_reserved":false,"is_disabled":false,"rental_uris":{"android":"levelo://app?vid=8625464e-66d0-4621-bd34-1a2874fb7a19","ios":"levelo://app?vid=8625464e-66d0-4621-bd34-1a2874fb7a19"},"vehicle_type_id":"4","last_reported":1704654342,"current_range_meters":30400,"station_id":"ce4bhr92rcd13ifvqhrg","pricing_plan_id":"free"},{"bike_id":"7c7a6206-545f-4749-ace7-a0c9f17d3062","system_id":"levelo_inurba_marseille","lat":43.330442,"lon":5.389148,"is_reserved":false,"is_disabled":false,"rental_uris":{"android":"levelo://app?vid=7c7a6206-545f-4749-ace7-a0c9f17d3062","ios":"levelo://app?vid=7c7a6206-545f-4749-ace7-a0c9f17d3062"},"vehicle_type_id":"4","last_reported":1704654342,"current_range_meters":12800,"station_id":"ce4bhr92rcd13ifvqhrg","pricing_plan_id":"free"},{"bike_id":"57a59c67-703f-4a83-aae5-f27109cb99b9","system_id":"levelo_inurba_marseille","lat":43.330442,"lon":5.389148,"is_reserved":false,"is_disabled":false,"rental_uris":{"android":"levelo://app?vid=57a59c67-703f-4a83-aae5-f27109cb99b9","ios":"levelo://app?vid=57a59c67-703f-4a83-aae5-f27109cb99b9"},"vehicle_type_id":"4","last_reported":1704654342,"current_range_meters":18400,"station_id":"ce4bhr92rcd13ifvqhrg","pricing_plan_id":"free"},{"bike_id":"7334be1a-4f00-45eb-94bb-1e469b95c433","system_id":"levelo_inurba_marseille","lat":43.295169,"lon":5.390426,"is_reserved":false,"is_disabled":false,"rental_uris":{"android":"levelo://app?vid=7334be1a-4f00-45eb-94bb-1e469b95c433","ios":"levelo://app?vid=7334be1a-4f00-45eb-94bb-1e469b95c433"},"vehicle_type_id":"4","last_reported":1704654342,"current_range_meters":16000,"station_id":"ce4bh3p2rcd13ifvqdp0","pricing_plan_id":"free"},{"bike_id":"a9c6a8ba-96f7-4039-b25a-8e4719369702","system_id":"levelo_inurba_marseille","lat":43.28856,"lon":5.358371,"is_reserved":false,"is_disabled":false,"rental_uris":{"android":"levelo://app?vid=a9c6a8ba-96f7-4039-b25a-8e4719369702","ios":"levelo://app?vid=a9c6a8ba-96f7-4039-b25a-8e4719369702"},"vehicle_type_id":"4","last_reported":1704654342,"current_range_meters":15200,"station_id":"ce4bhb12rcd13ifvqem0","pricing_plan_id":"free"},{"bike_id":"0076ad9a-038a-4802-b9a7-67a0e35d5ea6","system_id":"levelo_inurba_marseille","lat":43.28856,"lon":5.358371,"is_reserved":false,"is_disabled":false,"rental_uris":{"android":"levelo://app?vid=0076ad9a-038a-4802-b9a7-67a0e35d5ea6","ios":"levelo://app?vid=0076ad9a-038a-4802-b9a7-67a0e35d5ea6"},"vehicle_type_id":"4","last_reported":1704654342,"current_range_meters":28400,"station_id":"ce4bhb12rcd13ifvqem0","pricing_plan_id":"free"},{"bike_id":"a1a87bdc-0eae-4a7b-b02a-4453fcbd701b","system_id":"levelo_inurba_marseille","lat":43.28856,"lon":5.358371,"is_reserved":false,"is_disabled":false,"rental_uris":{"android":"levelo://app?vid=a1a87bdc-0eae-4a7b-b02a-4453fcbd701b","ios":"levelo://app?vid=a1a87bdc-0eae-4a7b-b02a-4453fcbd701b"},"vehicle_type_id":"4","last_reported":1704654342,"current_range_meters":19600,"station_id":"ce4bhb12rcd13ifvqem0","pricing_plan_id":"free"},{"bike_id":"231d3db0-7a1e-4ff6-8adc-4b558e8a5f59","system_id":"levelo_inurba_marseille","lat":43.28856,"lon":5.358371,"is_reserved":false,"is_disabled":false,"rental_uris":{"android":"levelo://app?vid=231d3db0-7a1e-4ff6-8adc-4b558e8a5f59","ios":"levelo://app?vid=231d3db0-7a1e-4ff6-8adc-4b558e8a5f59"},"vehicle_type_id":"4","last_reported":1704654342,"current_range_meters":30000,"station_id":"ce4bhb12rcd13ifvqem0","pricing_plan_id":"free"},{"bike_id":"51e49ad7-a5e2-44ba-aef5-cc1321cffcf6","system_id":"levelo_inurba_marseille","lat":43.28856,"lon":5.358371,"is_reserved":false,"is_disabled":false,"rental_uris":{"android":"levelo://app?vid=51e49ad7-a5e2-44ba-aef5-cc1321cffcf6","ios":"levelo://app?vid=51e49ad7-a5e2-44ba-aef5-cc1321cffcf6"},"vehicle_type_id":"4","last_reported":1704654342,"current_range_meters":22800,"station_id":"ce4bhb12rcd13ifvqem0","pricing_plan_id":"free"},{"bike_id":"159f7ec5-3d57-446d-b5ac-ca5a4823fee7","system_id":"levelo_inurba_marseille","lat":43.312609,"lon":5.401662,"is_reserved":false,"is_disabled":false,"rental_uris":{"android":"levelo://app?vid=159f7ec5-3d57-446d-b5ac-ca5a4823fee7","ios":"levelo://app?vid=159f7ec5-3d57-446d-b5ac-ca5a4823fee7"},"vehicle_type_id":"4","last_reported":1704654342,"current_range_meters":0,"station_id":"ce4bh092rcd13ifvqd30","pricing_plan_id":"free"},{"bike_id":"9d253311-278c-40b5-8ca8-7d22747ded83","system_id":"levelo_inurba_marseille","lat":43.309371,"lon":5.401449,"is_reserved":false,"is_disabled":false,"rental_uris":{"android":"levelo://app?vid=9d253311-278c-40b5-8ca8-7d22747ded83","ios":"levelo://app?vid=9d253311-278c-40b5-8ca8-7d22747ded83"},"vehicle_type_id":"4","last_reported":1704654342,"current_range_meters":0,"station_id":"ce4bgvp2rcd13ifvqct0","pricing_plan_id":"free"},{"bike_id":"50d47c90-b8e3-4b2d-a10a-229db521a7da","system_id":"levelo_inurba_marseille","lat":43.309371,"lon":5.401449,"is_reserved":false,"is_disabled":false,"rental_uris":{"android":"levelo://app?vid=50d47c90-b8e3-4b2d-a10a-229db521a7da","ios":"levelo://app?vid=50d47c90-b8e3-4b2d-a10a-229db521a7da"},"vehicle_type_id":"4","last_reported":1704654342,"current_range_meters":1600,"station_id":"ce4bgvp2rcd13ifvqct0","pricing_plan_id":"free"},{"bike_id":"5791b47d-c38d-489b-998a-b7c291fbe942","system_id":"levelo_inurba_marseille","lat":43.312609,"lon":5.401662,"is_reserved":false,"is_disabled":false,"rental_uris":{"android":"levelo://app?vid=5791b47d-c38d-489b-998a-b7c291fbe942","ios":"levelo://app?vid=5791b47d-c38d-489b-998a-b7c291fbe942"},"vehicle_type_id":"4","last_reported":1704654342,"current_range_meters":8000,"station_id":"ce4bh092rcd13ifvqd30","pricing_plan_id":"free"},{"bike_id":"f8a3da29-94f0-4552-9d34-9ba54a31b9f2","system_id":"levelo_inurba_marseille","lat":43.30643,"lon":5.400758,"is_reserved":false,"is_disabled":false,"rental_uris":{"android":"levelo://app?vid=f8a3da29-94f0-4552-9d34-9ba54a31b9f2","ios":"levelo://app?vid=f8a3da29-94f0-4552-9d34-9ba54a31b9f2"},"vehicle_type_id":"4","last_reported":1704654342,"current_range_meters":28400,"station_id":"ce4bh112rcd13ifvqda0","pricing_plan_id":"free"},{"bike_id":"677402c5-07bf-476d-8d67-2b30ef4a1c3d","system_id":"levelo_inurba_marseille","lat":43.306412,"lon":5.401035,"is_reserved":false,"is_disabled":false,"rental_uris":{"android":"levelo://app?vid=677402c5-07bf-476d-8d67-2b30ef4a1c3d","ios":"levelo://app?vid=677402c5-07bf-476d-8d67-2b30ef4a1c3d"},"vehicle_type_id":"4","last_reported":1704654342,"current_range_meters":20800,"station_id":"ce4bh112rcd13ifvqda0","pricing_plan_id":"free"},{"bike_id":"1bc3d37a-1760-4675-9326-081430932173","system_id":"levelo_inurba_marseille","lat":43.28727,"lon":5.36078,"is_reserved":false,"is_disabled":false,"rental_uris":{"android":"levelo://app?vid=1bc3d37a-1760-4675-9326-081430932173","ios":"levelo://app?vid=1bc3d37a-1760-4675-9326-081430932173"},"vehicle_type_id":"4","last_reported":1704654342,"current_range_meters":9200,"station_id":"cki0cbj6b192h4jlfktg","pricing_plan_id":"free"},{"bike_id":"78cbef46-88c0-4d52-8fd9-6801cf65847b","system_id":"levelo_inurba_marseille","lat":43.28727,"lon":5.36078,"is_reserved":false,"is_disabled":false,"rental_uris":{"android":"levelo://app?vid=78cbef46-88c0-4d52-8fd9-6801cf65847b","ios":"levelo://app?vid=78cbef46-88c0-4d52-8fd9-6801cf65847b"},"vehicle_type_id":"4","last_reported":1704654342,"current_range_meters":21600,"station_id":"cki0cbj6b192h4jlfktg","pricing_plan_id":"free"},{"bike_id":"94b3ddfa-090a-43a9-858e-5ccda96b1594","system_id":"levelo_inurba_marseille","lat":43.28727,"lon":5.36078,"is_reserved":false,"is_disabled":false,"rental_uris":{"android":"levelo://app?vid=94b3ddfa-090a-43a9-858e-5ccda96b1594","ios":"levelo://app?vid=94b3ddfa-090a-43a9-858e-5ccda96b1594"},"vehicle_type_id":"4","last_reported":1704654342,"current_range_meters":26400,"station_id":"cki0cbj6b192h4jlfktg","pricing_plan_id":"free"},{"bike_id":"c23a8040-7b01-4d2f-949d-bdbfb0e3e476","system_id":"levelo_inurba_marseille","lat":43.28727,"lon":5.36078,"is_reserved":false,"is_disabled":false,"rental_uris":{"android":"levelo://app?vid=c23a8040-7b01-4d2f-949d-bdbfb0e3e476","ios":"levelo://app?vid=c23a8040-7b01-4d2f-949d-bdbfb0e3e476"},"vehicle_type_id":"4","last_reported":1704654342,"current_range_meters":18000,"station_id":"cki0cbj6b192h4jlfktg","pricing_plan_id":"free"},{"bike_id":"d0d3f525-c414-4457-8e5e-8f0d21170b15","system_id":"levelo_inurba_marseille","lat":43.30467,"lon":5.40076,"is_reserved":false,"is_disabled":false,"rental_uris":{"android":"levelo://app?vid=d0d3f525-c414-4457-8e5e-8f0d21170b15","ios":"levelo://app?vid=d0d3f525-c414-4457-8e5e-8f0d21170b15"},"vehicle_type_id":"4","last_reported":1704654342,"current_range_meters":8800,"station_id":"","pricing_plan_id":"free"},{"bike_id":"76eca19a-eb7d-48ad-803f-1b31773e812b","system_id":"levelo_inurba_marseille","lat":43.286961,"lon":5.373785,"is_reserved":false,"is_disabled":false,"rental_uris":{"android":"levelo://app?vid=76eca19a-eb7d-48ad-803f-1b31773e812b","ios":"levelo://app?vid=76eca19a-eb7d-48ad-803f-1b31773e812b"},"vehicle_type_id":"4","last_reported":1704654342,"current_range_meters":30400,"station_id":"ce4bh3p2rcd13ifvqdq0","pricing_plan_id":"free"},{"bike_id":"761ea8e1-3e86-4c4e-99b3-291c4681667b","system_id":"levelo_inurba_marseille","lat":43.286961,"lon":5.373785,"is_reserved":false,"is_disabled":false,"rental_uris":{"android":"levelo://app?vid=761ea8e1-3e86-4c4e-99b3-291c4681667b","ios":"levelo://app?vid=761ea8e1-3e86-4c4e-99b3-291c4681667b"},"vehicle_type_id":"4","last_reported":1704654342,"current_range_meters":24000,"station_id":"ce4bh3p2rcd13ifvqdq0","pricing_plan_id":"free"},{"bike_id":"5eea2434-ff4c-4686-8209-e152da407707","system_id":"levelo_inurba_marseille","lat":43.292642,"lon":5.384254,"is_reserved":false,"is_disabled":false,"rental_uris":{"android":"levelo://app?vid=5eea2434-ff4c-4686-8209-e152da407707","ios":"levelo://app?vid=5eea2434-ff4c-4686-8209-e152da407707"},"vehicle_type_id":"4","last_reported":1704654342,"current_range_meters":0,"station_id":"ce4bh692rcd13ifvqea0","pricing_plan_id":"free"},{"bike_id":"4b1ec3c2-8904-48cf-aa4e-fc5643564b50","system_id":"levelo_inurba_marseille","lat":43.302759,"lon":5.400793,"is_reserved":false,"is_disabled":false,"rental_uris":{"android":"levelo://app?vid=4b1ec3c2-8904-48cf-aa4e-fc5643564b50","ios":"levelo://app?vid=4b1ec3c2-8904-48cf-aa4e-fc5643564b50"},"vehicle_type_id":"4","last_reported":1704654342,"current_range_meters":22800,"station_id":"ce4bgvh2rcd13ifvqcs0","pricing_plan_id":"free"},{"bike_id":"a8b7ee4a-5458-4906-8e0c-1240508f1d31","system_id":"levelo_inurba_marseille","lat":43.290336,"lon":5.386425,"is_reserved":false,"is_disabled":false,"rental_uris":{"android":"levelo://app?vid=a8b7ee4a-5458-4906-8e0c-1240508f1d31","ios":"levelo://app?vid=a8b7ee4a-5458-4906-8e0c-1240508f1d31"},"vehicle_type_id":"4","last_reported":1704654342,"current_range_meters":7600,"station_id":"ce4bh4p2rcd13ifvqe0g","pricing_plan_id":"free"},{"bike_id":"eca1a873-e03c-433d-a5b3-e1781ddd6ae4","system_id":"levelo_inurba_marseille","lat":43.290336,"lon":5.386425,"is_reserved":false,"is_disabled":false,"rental_uris":{"android":"levelo://app?vid=eca1a873-e03c-433d-a5b3-e1781ddd6ae4","ios":"levelo://app?vid=eca1a873-e03c-433d-a5b3-e1781ddd6ae4"},"vehicle_type_id":"4","last_reported":1704654342,"current_range_meters":17600,"station_id":"ce4bh4p2rcd13ifvqe0g","pricing_plan_id":"free"},{"bike_id":"775402d8-f928-4185-9051-ce1a1f1a96c0","system_id":"levelo_inurba_marseille","lat":43.286039,"lon":5.370679,"is_reserved":false,"is_disabled":false,"rental_uris":{"android":"levelo://app?vid=775402d8-f928-4185-9051-ce1a1f1a96c0","ios":"levelo://app?vid=775402d8-f928-4185-9051-ce1a1f1a96c0"},"vehicle_type_id":"4","last_reported":1704654342,"current_range_meters":25600,"station_id":"ce4bht12rcd13ifvqi60","pricing_plan_id":"free"},{"bike_id":"4ca48828-b76f-4b36-9df2-ad86be569508","system_id":"levelo_inurba_marseille","lat":43.286039,"lon":5.370679,"is_reserved":false,"is_disabled":false,"rental_uris":{"android":"levelo://app?vid=4ca48828-b76f-4b36-9df2-ad86be569508","ios":"levelo://app?vid=4ca48828-b76f-4b36-9df2-ad86be569508"},"vehicle_type_id":"4","last_reported":1704654342,"current_range_meters":31200,"station_id":"ce4bht12rcd13ifvqi60","pricing_plan_id":"free"},{"bike_id":"0f221119-267a-4f7d-a052-c67fe7ca31b8","system_id":"levelo_inurba_marseille","lat":43.286039,"lon":5.370681,"is_reserved":false,"is_disabled":false,"rental_uris":{"android":"levelo://app?vid=0f221119-267a-4f7d-a052-c67fe7ca31b8","ios":"levelo://app?vid=0f221119-267a-4f7d-a052-c67fe7ca31b8"},"vehicle_type_id":"4","last_reported":1704654342,"current_range_meters":18400,"station_id":"ce4bht12rcd13ifvqi60","pricing_plan_id":"free"},{"bike_id":"e9e8caca-0bcc-46f9-b82b-56fe2c67521b","system_id":"levelo_inurba_marseille","lat":43.286039,"lon":5.370681,"is_reserved":false,"is_disabled":false,"rental_uris":{"android":"levelo://app?vid=e9e8caca-0bcc-46f9-b82b-56fe2c67521b","ios":"levelo://app?vid=e9e8caca-0bcc-46f9-b82b-56fe2c67521b"},"vehicle_type_id":"4","last_reported":1704654342,"current_range_meters":12000,"station_id":"ce4bht12rcd13ifvqi60","pricing_plan_id":"free"},{"bike_id":"e2f18ac8-0d4c-4897-b2a8-f79ea9a258f8","system_id":"levelo_inurba_marseille","lat":43.287184,"lon":5.37937,"is_reserved":false,"is_disabled":false,"rental_uris":{"android":"levelo://app?vid=e2f18ac8-0d4c-4897-b2a8-f79ea9a258f8","ios":"levelo://app?vid=e2f18ac8-0d4c-4897-b2a8-f79ea9a258f8"},"vehicle_type_id":"4","last_reported":1704654342,"current_range_meters":8800,"station_id":"ce4bh9p2rcd13ifvqec0","pricing_plan_id":"free"},{"bike_id":"5fc538f1-4039-4e06-8f9a-6381ce3eb11c","system_id":"levelo_inurba_marseille","lat":43.316828,"lon":5.404723,"is_reserved":false,"is_disabled":false,"rental_uris":{"android":"levelo://app?vid=5fc538f1-4039-4e06-8f9a-6381ce3eb11c","ios":"levelo://app?vid=5fc538f1-4039-4e06-8f9a-6381ce3eb11c"},"vehicle_type_id":"4","last_reported":1704654342,"current_range_meters":9600,"station_id":"ce4bh012rcd13ifvqd00","pricing_plan_id":"free"},{"bike_id":"6eacd2a0-bb96-4527-a348-75c812ee9f3d","system_id":"levelo_inurba_marseille","lat":43.291994,"lon":5.392907,"is_reserved":false,"is_disabled":false,"rental_uris":{"android":"levelo://app?vid=6eacd2a0-bb96-4527-a348-75c812ee9f3d","ios":"levelo://app?vid=6eacd2a0-bb96-4527-a348-75c812ee9f3d"},"vehicle_type_id":"4","last_reported":1704654342,"current_range_meters":6000,"station_id":"ce4bh192rcd13ifvqdd0","pricing_plan_id":"free"},{"bike_id":"b17864a7-4900-4094-9c2a-fa761bdeac8e","system_id":"levelo_inurba_marseille","lat":43.291994,"lon":5.392907,"is_reserved":false,"is_disabled":false,"rental_uris":{"android":"levelo://app?vid=b17864a7-4900-4094-9c2a-fa761bdeac8e","ios":"levelo://app?vid=b17864a7-4900-4094-9c2a-fa761bdeac8e"},"vehicle_type_id":"4","last_reported":1704654342,"current_range_meters":22800,"station_id":"ce4bh192rcd13ifvqdd0","pricing_plan_id":"free"},{"bike_id":"15789396-3928-430d-9d93-4182c82332b9","system_id":"levelo_inurba_marseille","lat":43.284538,"lon":5.358657,"is_reserved":false,"is_disabled":false,"rental_uris":{"android":"levelo://app?vid=15789396-3928-430d-9d93-4182c82332b9","ios":"levelo://app?vid=15789396-3928-430d-9d93-4182c82332b9"},"vehicle_type_id":"4","last_reported":1704654342,"current_range_meters":14000,"station_id":"ce4bhah2rcd13ifvqei0","pricing_plan_id":"free"},{"bike_id":"36a1eac0-a778-473c-a36d-19e73c7406f9","system_id":"levelo_inurba_marseille","lat":43.28455,"lon":5.35885,"is_reserved":false,"is_disabled":false,"rental_uris":{"android":"levelo://app?vid=36a1eac0-a778-473c-a36d-19e73c7406f9","ios":"levelo://app?vid=36a1eac0-a778-473c-a36d-19e73c7406f9"},"vehicle_type_id":"4","last_reported":1704654342,"current_range_meters":17600,"station_id":"ce4bhah2rcd13ifvqei0","pricing_plan_id":"free"},{"bike_id":"df482328-99ef-4d64-8a6d-12366713620c","system_id":"levelo_inurba_marseille","lat":43.294314,"lon":5.397498,"is_reserved":false,"is_disabled":false,"rental_uris":{"android":"levelo://app?vid=df482328-99ef-4d64-8a6d-12366713620c","ios":"levelo://app?vid=df482328-99ef-4d64-8a6d-12366713620c"},"vehicle_type_id":"4","last_reported":1704654342,"current_range_meters":25600,"station_id":"ce4bh3h2rcd13ifvqdo0","pricing_plan_id":"free"},{"bike_id":"327c80cc-07cd-42ec-b8b8-396c0b81d9a9","system_id":"levelo_inurba_marseille","lat":43.284495,"lon":5.358873,"is_reserved":false,"is_disabled":false,"rental_uris":{"android":"levelo://app?vid=327c80cc-07cd-42ec-b8b8-396c0b81d9a9","ios":"levelo://app?vid=327c80cc-07cd-42ec-b8b8-396c0b81d9a9"},"vehicle_type_id":"4","last_reported":1704654342,"current_range_meters":28800,"station_id":"ce4bhah2rcd13ifvqei0","pricing_plan_id":"free"},{"bike_id":"b280b3b4-90c9-4c17-8c03-4aad1f89fcd9","system_id":"levelo_inurba_marseille","lat":43.294314,"lon":5.397498,"is_reserved":false,"is_disabled":false,"rental_uris":{"android":"levelo://app?vid=b280b3b4-90c9-4c17-8c03-4aad1f89fcd9","ios":"levelo://app?vid=b280b3b4-90c9-4c17-8c03-4aad1f89fcd9"},"vehicle_type_id":"4","last_reported":1704654342,"current_range_meters":12800,"station_id":"ce4bh3h2rcd13ifvqdo0","pricing_plan_id":"free"},{"bike_id":"154efb84-26fc-49e6-ada6-5bf0c44dd6f0","system_id":"levelo_inurba_marseille","lat":43.285856,"lon":5.350771,"is_reserved":false,"is_disabled":false,"rental_uris":{"android":"levelo://app?vid=154efb84-26fc-49e6-ada6-5bf0c44dd6f0","ios":"levelo://app?vid=154efb84-26fc-49e6-ada6-5bf0c44dd6f0"},"vehicle_type_id":"4","last_reported":1704654342,"current_range_meters":30000,"station_id":"ce4bhch2rcd13ifvqeug","pricing_plan_id":"free"},{"bike_id":"f33f3718-5e21-44c0-9543-4ce12d1faec9","system_id":"levelo_inurba_marseille","lat":43.285856,"lon":5.350771,"is_reserved":false,"is_disabled":false,"rental_uris":{"android":"levelo://app?vid=f33f3718-5e21-44c0-9543-4ce12d1faec9","ios":"levelo://app?vid=f33f3718-5e21-44c0-9543-4ce12d1faec9"},"vehicle_type_id":"4","last_reported":1704654342,"current_range_meters":27200,"station_id":"ce4bhch2rcd13ifvqeug","pricing_plan_id":"free"},{"bike_id":"77dcd9db-8541-482e-80ea-3465701dc93c","system_id":"levelo_inurba_marseille","lat":43.285856,"lon":5.350771,"is_reserved":false,"is_disabled":false,"rental_uris":{"android":"levelo://app?vid=77dcd9db-8541-482e-80ea-3465701dc93c","ios":"levelo://app?vid=77dcd9db-8541-482e-80ea-3465701dc93c"},"vehicle_type_id":"4","last_reported":1704654342,"current_range_meters":13600,"station_id":"ce4bhch2rcd13ifvqeug","pricing_plan_id":"free"},{"bike_id":"00b48936-7085-4cf8-b9f8-bfaeaa1c2437","system_id":"levelo_inurba_marseille","lat":43.285856,"lon":5.350771,"is_reserved":false,"is_disabled":false,"rental_uris":{"android":"levelo://app?vid=00b48936-7085-4cf8-b9f8-bfaeaa1c2437","ios":"levelo://app?vid=00b48936-7085-4cf8-b9f8-bfaeaa1c2437"},"vehicle_type_id":"4","last_reported":1704654342,"current_range_meters":17200,"station_id":"ce4bhch2rcd13ifvqeug","pricing_plan_id":"free"},{"bike_id":"e7d08906-0d87-4715-8ffa-bdb9be03abd3","system_id":"levelo_inurba_marseille","lat":43.285856,"lon":5.350771,"is_reserved":false,"is_disabled":false,"rental_uris":{"android":"levelo://app?vid=e7d08906-0d87-4715-8ffa-bdb9be03abd3","ios":"levelo://app?vid=e7d08906-0d87-4715-8ffa-bdb9be03abd3"},"vehicle_type_id":"4","last_reported":1704654342,"current_range_meters":16400,"station_id":"ce4bhch2rcd13ifvqeug","pricing_plan_id":"free"},{"bike_id":"43b3ea92-a636-409a-a2bf-2cfcdf83346d","system_id":"levelo_inurba_marseille","lat":43.285856,"lon":5.350771,"is_reserved":false,"is_disabled":false,"rental_uris":{"android":"levelo://app?vid=43b3ea92-a636-409a-a2bf-2cfcdf83346d","ios":"levelo://app?vid=43b3ea92-a636-409a-a2bf-2cfcdf83346d"},"vehicle_type_id":"4","last_reported":1704654342,"current_range_meters":23200,"station_id":"ce4bhch2rcd13ifvqeug","pricing_plan_id":"free"},{"bike_id":"5688a380-9bf4-41fc-824e-d906fd2a2179","system_id":"levelo_inurba_marseille","lat":43.285856,"lon":5.350771,"is_reserved":false,"is_disabled":false,"rental_uris":{"android":"levelo://app?vid=5688a380-9bf4-41fc-824e-d906fd2a2179","ios":"levelo://app?vid=5688a380-9bf4-41fc-824e-d906fd2a2179"},"vehicle_type_id":"4","last_reported":1704654342,"current_range_meters":11200,"station_id":"ce4bhch2rcd13ifvqeug","pricing_plan_id":"free"},{"bike_id":"7e545478-533c-4cff-816a-9cd5b9b3b5a2","system_id":"levelo_inurba_marseille","lat":43.285856,"lon":5.350771,"is_reserved":false,"is_disabled":false,"rental_uris":{"android":"levelo://app?vid=7e545478-533c-4cff-816a-9cd5b9b3b5a2","ios":"levelo://app?vid=7e545478-533c-4cff-816a-9cd5b9b3b5a2"},"vehicle_type_id":"4","last_reported":1704654342,"current_range_meters":28400,"station_id":"ce4bhch2rcd13ifvqeug","pricing_plan_id":"free"},{"bike_id":"8c6eeb45-c128-4b96-b66c-af4f71c249ba","system_id":"levelo_inurba_marseille","lat":43.285856,"lon":5.350771,"is_reserved":false,"is_disabled":false,"rental_uris":{"android":"levelo://app?vid=8c6eeb45-c128-4b96-b66c-af4f71c249ba","ios":"levelo://app?vid=8c6eeb45-c128-4b96-b66c-af4f71c249ba"},"vehicle_type_id":"4","last_reported":1704654342,"current_range_meters":15600,"station_id":"ce4bhch2rcd13ifvqeug","pricing_plan_id":"free"},{"bike_id":"24eba78a-c372-41c1-bed0-57b50127114e","system_id":"levelo_inurba_marseille","lat":43.285856,"lon":5.350771,"is_reserved":false,"is_disabled":false,"rental_uris":{"android":"levelo://app?vid=24eba78a-c372-41c1-bed0-57b50127114e","ios":"levelo://app?vid=24eba78a-c372-41c1-bed0-57b50127114e"},"vehicle_type_id":"4","last_reported":1704654342,"current_range_meters":19600,"station_id":"ce4bhch2rcd13ifvqeug","pricing_plan_id":"free"},{"bike_id":"ab696d19-e390-44ba-b572-f2505948ecd4","system_id":"levelo_inurba_marseille","lat":43.285856,"lon":5.350771,"is_reserved":false,"is_disabled":false,"rental_uris":{"android":"levelo://app?vid=ab696d19-e390-44ba-b572-f2505948ecd4","ios":"levelo://app?vid=ab696d19-e390-44ba-b572-f2505948ecd4"},"vehicle_type_id":"4","last_reported":1704654342,"current_range_meters":30000,"station_id":"ce4bhch2rcd13ifvqeug","pricing_plan_id":"free"},{"bike_id":"01e59b64-29e9-4e48-86ad-7a3b4b582e04","system_id":"levelo_inurba_marseille","lat":43.285856,"lon":5.350771,"is_reserved":false,"is_disabled":false,"rental_uris":{"android":"levelo://app?vid=01e59b64-29e9-4e48-86ad-7a3b4b582e04","ios":"levelo://app?vid=01e59b64-29e9-4e48-86ad-7a3b4b582e04"},"vehicle_type_id":"4","last_reported":1704654342,"current_range_meters":26400,"station_id":"ce4bhch2rcd13ifvqeug","pricing_plan_id":"free"},{"bike_id":"dffb7f5d-3b19-429d-ac37-bf521bd72a68","system_id":"levelo_inurba_marseille","lat":43.28611,"lon":5.35105,"is_reserved":false,"is_disabled":false,"rental_uris":{"android":"levelo://app?vid=dffb7f5d-3b19-429d-ac37-bf521bd72a68","ios":"levelo://app?vid=dffb7f5d-3b19-429d-ac37-bf521bd72a68"},"vehicle_type_id":"4","last_reported":1704654342,"current_range_meters":29600,"station_id":"ce4bhch2rcd13ifvqeug","pricing_plan_id":"free"},{"bike_id":"b0d9c37a-12b7-4fcf-b2cc-70034df7a04b","system_id":"levelo_inurba_marseille","lat":43.29827,"lon":5.4017,"is_reserved":false,"is_disabled":false,"rental_uris":{"android":"levelo://app?vid=b0d9c37a-12b7-4fcf-b2cc-70034df7a04b","ios":"levelo://app?vid=b0d9c37a-12b7-4fcf-b2cc-70034df7a04b"},"vehicle_type_id":"4","last_reported":1704654342,"current_range_meters":0,"station_id":"","pricing_plan_id":"free"},{"bike_id":"97d9d91d-22fb-41a3-80cd-081a59ed5abf","system_id":"levelo_inurba_marseille","lat":43.319179,"lon":5.407725,"is_reserved":false,"is_disabled":false,"rental_uris":{"android":"levelo://app?vid=97d9d91d-22fb-41a3-80cd-081a59ed5abf","ios":"levelo://app?vid=97d9d91d-22fb-41a3-80cd-081a59ed5abf"},"vehicle_type_id":"4","last_reported":1704654342,"current_range_meters":26400,"station_id":"ce4bhq12rcd13ifvqhig","pricing_plan_id":"free"},{"bike_id":"728c58ac-3ac6-447b-b406-5706c85ad82e","system_id":"levelo_inurba_marseille","lat":43.33717,"lon":5.391857,"is_reserved":false,"is_disabled":false,"rental_uris":{"android":"levelo://app?vid=728c58ac-3ac6-447b-b406-5706c85ad82e","ios":"levelo://app?vid=728c58ac-3ac6-447b-b406-5706c85ad82e"},"vehicle_type_id":"4","last_reported":1704654342,"current_range_meters":27200,"station_id":"ce4bhr92rcd13ifvqhsg","pricing_plan_id":"free"},{"bike_id":"54bec85a-3ad1-4ccc-9cab-e86a90c0ca6c","system_id":"levelo_inurba_marseille","lat":43.323464,"lon":5.406297,"is_reserved":false,"is_disabled":false,"rental_uris":{"android":"levelo://app?vid=54bec85a-3ad1-4ccc-9cab-e86a90c0ca6c","ios":"levelo://app?vid=54bec85a-3ad1-4ccc-9cab-e86a90c0ca6c"},"vehicle_type_id":"4","last_reported":1704654342,"current_range_meters":31600,"station_id":"ce4bhq92rcd13ifvqhjg","pricing_plan_id":"free"},{"bike_id":"9a026a9c-e1f2-43d3-8608-c6ab90da980a","system_id":"levelo_inurba_marseille","lat":43.323464,"lon":5.406297,"is_reserved":false,"is_disabled":false,"rental_uris":{"android":"levelo://app?vid=9a026a9c-e1f2-43d3-8608-c6ab90da980a","ios":"levelo://app?vid=9a026a9c-e1f2-43d3-8608-c6ab90da980a"},"vehicle_type_id":"4","last_reported":1704654342,"current_range_meters":8400,"station_id":"ce4bhq92rcd13ifvqhjg","pricing_plan_id":"free"},{"bike_id":"747b4a07-a8db-40b3-a2bf-387b48385f47","system_id":"levelo_inurba_marseille","lat":43.323464,"lon":5.406297,"is_reserved":false,"is_disabled":false,"rental_uris":{"android":"levelo://app?vid=747b4a07-a8db-40b3-a2bf-387b48385f47","ios":"levelo://app?vid=747b4a07-a8db-40b3-a2bf-387b48385f47"},"vehicle_type_id":"4","last_reported":1704654342,"current_range_meters":19600,"station_id":"ce4bhq92rcd13ifvqhjg","pricing_plan_id":"free"},{"bike_id":"4f2d6879-e71b-4c31-8419-1a3fbf59a310","system_id":"levelo_inurba_marseille","lat":43.323464,"lon":5.406297,"is_reserved":false,"is_disabled":false,"rental_uris":{"android":"levelo://app?vid=4f2d6879-e71b-4c31-8419-1a3fbf59a310","ios":"levelo://app?vid=4f2d6879-e71b-4c31-8419-1a3fbf59a310"},"vehicle_type_id":"4","last_reported":1704654342,"current_range_meters":14000,"station_id":"ce4bhq92rcd13ifvqhjg","pricing_plan_id":"free"},{"bike_id":"e6e5a06b-c87e-4f2a-8b34-1f7db27939fe","system_id":"levelo_inurba_marseille","lat":43.337168,"lon":5.391825,"is_reserved":false,"is_disabled":false,"rental_uris":{"android":"levelo://app?vid=e6e5a06b-c87e-4f2a-8b34-1f7db27939fe","ios":"levelo://app?vid=e6e5a06b-c87e-4f2a-8b34-1f7db27939fe"},"vehicle_type_id":"4","last_reported":1704654342,"current_range_meters":14800,"station_id":"ce4bhr92rcd13ifvqhsg","pricing_plan_id":"free"},{"bike_id":"c5c53e28-8581-4ac0-838c-89968ad8a117","system_id":"levelo_inurba_marseille","lat":43.284793,"lon":5.384119,"is_reserved":false,"is_disabled":false,"rental_uris":{"android":"levelo://app?vid=c5c53e28-8581-4ac0-838c-89968ad8a117","ios":"levelo://app?vid=c5c53e28-8581-4ac0-838c-89968ad8a117"},"vehicle_type_id":"4","last_reported":1704654342,"current_range_meters":5600,"station_id":"ce4bh512rcd13ifvqe3g","pricing_plan_id":"free"},{"bike_id":"68377f1e-74b1-4a57-9673-f3eb7846886d","system_id":"levelo_inurba_marseille","lat":43.297946,"lon":5.404063,"is_reserved":false,"is_disabled":false,"rental_uris":{"android":"levelo://app?vid=68377f1e-74b1-4a57-9673-f3eb7846886d","ios":"levelo://app?vid=68377f1e-74b1-4a57-9673-f3eb7846886d"},"vehicle_type_id":"4","last_reported":1704654342,"current_range_meters":26800,"station_id":"ce4bh112rcd13ifvqd90","pricing_plan_id":"free"},{"bike_id":"4714bef9-5f38-4c26-b888-7b40cc11f281","system_id":"levelo_inurba_marseille","lat":43.284264,"lon":5.349937,"is_reserved":false,"is_disabled":false,"rental_uris":{"android":"levelo://app?vid=4714bef9-5f38-4c26-b888-7b40cc11f281","ios":"levelo://app?vid=4714bef9-5f38-4c26-b888-7b40cc11f281"},"vehicle_type_id":"4","last_reported":1704654342,"current_range_meters":31200,"station_id":"ce4bhbh2rcd13ifvqepg","pricing_plan_id":"free"},{"bike_id":"74c757a3-57f5-43bc-9cbd-c0caf045d565","system_id":"levelo_inurba_marseille","lat":43.284219,"lon":5.3497,"is_reserved":false,"is_disabled":false,"rental_uris":{"android":"levelo://app?vid=74c757a3-57f5-43bc-9cbd-c0caf045d565","ios":"levelo://app?vid=74c757a3-57f5-43bc-9cbd-c0caf045d565"},"vehicle_type_id":"4","last_reported":1704654342,"current_range_meters":24400,"station_id":"ce4bhbh2rcd13ifvqepg","pricing_plan_id":"free"},{"bike_id":"6a1e180d-f929-4d8f-8941-3479abb7bbca","system_id":"levelo_inurba_marseille","lat":43.284269,"lon":5.349824,"is_reserved":false,"is_disabled":false,"rental_uris":{"android":"levelo://app?vid=6a1e180d-f929-4d8f-8941-3479abb7bbca","ios":"levelo://app?vid=6a1e180d-f929-4d8f-8941-3479abb7bbca"},"vehicle_type_id":"4","last_reported":1704654342,"current_range_meters":31200,"station_id":"ce4bhbh2rcd13ifvqepg","pricing_plan_id":"free"},{"bike_id":"9329076a-0d3e-4112-be77-66dd924dd8e2","system_id":"levelo_inurba_marseille","lat":43.284258,"lon":5.349853,"is_reserved":false,"is_disabled":false,"rental_uris":{"android":"levelo://app?vid=9329076a-0d3e-4112-be77-66dd924dd8e2","ios":"levelo://app?vid=9329076a-0d3e-4112-be77-66dd924dd8e2"},"vehicle_type_id":"4","last_reported":1704654342,"current_range_meters":28000,"station_id":"ce4bhbh2rcd13ifvqepg","pricing_plan_id":"free"},{"bike_id":"9117797d-3df0-46d0-9e5c-883fbec69ea3","system_id":"levelo_inurba_marseille","lat":43.28423,"lon":5.34987,"is_reserved":false,"is_disabled":false,"rental_uris":{"android":"levelo://app?vid=9117797d-3df0-46d0-9e5c-883fbec69ea3","ios":"levelo://app?vid=9117797d-3df0-46d0-9e5c-883fbec69ea3"},"vehicle_type_id":"4","last_reported":1704654342,"current_range_meters":31200,"station_id":"ce4bhbh2rcd13ifvqepg","pricing_plan_id":"free"},{"bike_id":"65081758-8d5a-417c-ae49-51c913bd9529","system_id":"levelo_inurba_marseille","lat":43.284217,"lon":5.349697,"is_reserved":false,"is_disabled":false,"rental_uris":{"android":"levelo://app?vid=65081758-8d5a-417c-ae49-51c913bd9529","ios":"levelo://app?vid=65081758-8d5a-417c-ae49-51c913bd9529"},"vehicle_type_id":"4","last_reported":1704654342,"current_range_meters":8000,"station_id":"ce4bhbh2rcd13ifvqepg","pricing_plan_id":"free"},{"bike_id":"1d71f74b-5ffc-4b5c-bfc2-6601c7d3ccde","system_id":"levelo_inurba_marseille","lat":43.283502,"lon":5.386471,"is_reserved":false,"is_disabled":false,"rental_uris":{"android":"levelo://app?vid=1d71f74b-5ffc-4b5c-bfc2-6601c7d3ccde","ios":"levelo://app?vid=1d71f74b-5ffc-4b5c-bfc2-6601c7d3ccde"},"vehicle_type_id":"4","last_reported":1704654342,"current_range_meters":800,"station_id":"ce4bh492rcd13ifvqdvg","pricing_plan_id":"free"},{"bike_id":"09194f40-338c-48e7-984a-f79a54720ed6","system_id":"levelo_inurba_marseille","lat":43.282744,"lon":5.350533,"is_reserved":false,"is_disabled":false,"rental_uris":{"android":"levelo://app?vid=09194f40-338c-48e7-984a-f79a54720ed6","ios":"levelo://app?vid=09194f40-338c-48e7-984a-f79a54720ed6"},"vehicle_type_id":"4","last_reported":1704654342,"current_range_meters":22000,"station_id":"ce4bhbp2rcd13ifvqerg","pricing_plan_id":"free"},{"bike_id":"6e440d5a-3eb6-4e95-a4ec-e38d70d33a34","system_id":"levelo_inurba_marseille","lat":43.282754,"lon":5.350519,"is_reserved":false,"is_disabled":false,"rental_uris":{"android":"levelo://app?vid=6e440d5a-3eb6-4e95-a4ec-e38d70d33a34","ios":"levelo://app?vid=6e440d5a-3eb6-4e95-a4ec-e38d70d33a34"},"vehicle_type_id":"4","last_reported":1704654342,"current_range_meters":29600,"station_id":"ce4bhbp2rcd13ifvqerg","pricing_plan_id":"free"},{"bike_id":"f56e6a0e-b0a7-4ad3-bb26-d89cb8eb764e","system_id":"levelo_inurba_marseille","lat":43.282744,"lon":5.350533,"is_reserved":false,"is_disabled":false,"rental_uris":{"android":"levelo://app?vid=f56e6a0e-b0a7-4ad3-bb26-d89cb8eb764e","ios":"levelo://app?vid=f56e6a0e-b0a7-4ad3-bb26-d89cb8eb764e"},"vehicle_type_id":"4","last_reported":1704654342,"current_range_meters":26000,"station_id":"ce4bhbp2rcd13ifvqerg","pricing_plan_id":"free"},{"bike_id":"75473e51-d1f8-4ab4-a7e0-9afb7e7c5eb0","system_id":"levelo_inurba_marseille","lat":43.292724,"lon":5.401131,"is_reserved":false,"is_disabled":false,"rental_uris":{"android":"levelo://app?vid=75473e51-d1f8-4ab4-a7e0-9afb7e7c5eb0","ios":"levelo://app?vid=75473e51-d1f8-4ab4-a7e0-9afb7e7c5eb0"},"vehicle_type_id":"4","last_reported":1704654342,"current_range_meters":8400,"station_id":"ce4bh312rcd13ifvqdk0","pricing_plan_id":"free"},{"bike_id":"a6390eb2-a31b-4be9-95cc-27b9d360d427","system_id":"levelo_inurba_marseille","lat":43.28361,"lon":5.38643,"is_reserved":false,"is_disabled":false,"rental_uris":{"android":"levelo://app?vid=a6390eb2-a31b-4be9-95cc-27b9d360d427","ios":"levelo://app?vid=a6390eb2-a31b-4be9-95cc-27b9d360d427"},"vehicle_type_id":"4","last_reported":1704654342,"current_range_meters":0,"station_id":"ce4bh492rcd13ifvqdvg","pricing_plan_id":"free"},{"bike_id":"fbdd793b-958a-4e83-ad82-5003993fead8","system_id":"levelo_inurba_marseille","lat":43.290412,"lon":5.399633,"is_reserved":false,"is_disabled":false,"rental_uris":{"android":"levelo://app?vid=fbdd793b-958a-4e83-ad82-5003993fead8","ios":"levelo://app?vid=fbdd793b-958a-4e83-ad82-5003993fead8"},"vehicle_type_id":"4","last_reported":1704654342,"current_range_meters":25600,"station_id":"ce4bh392rcd13ifvqdm0","pricing_plan_id":"free"},{"bike_id":"ada8abcc-ee78-473d-9816-8b0a268cb88e","system_id":"levelo_inurba_marseille","lat":43.290412,"lon":5.399633,"is_reserved":false,"is_disabled":false,"rental_uris":{"android":"levelo://app?vid=ada8abcc-ee78-473d-9816-8b0a268cb88e","ios":"levelo://app?vid=ada8abcc-ee78-473d-9816-8b0a268cb88e"},"vehicle_type_id":"4","last_reported":1704654342,"current_range_meters":19200,"station_id":"ce4bh392rcd13ifvqdm0","pricing_plan_id":"free"},{"bike_id":"c14ac830-cf17-4704-bf76-4f4813059a2d","system_id":"levelo_inurba_marseille","lat":43.281044,"lon":5.378308,"is_reserved":false,"is_disabled":false,"rental_uris":{"android":"levelo://app?vid=c14ac830-cf17-4704-bf76-4f4813059a2d","ios":"levelo://app?vid=c14ac830-cf17-4704-bf76-4f4813059a2d"},"vehicle_type_id":"4","last_reported":1704654342,"current_range_meters":28000,"station_id":"ce4bha12rcd13ifvqee0","pricing_plan_id":"free"},{"bike_id":"3dd35472-f938-43dd-a6a5-a58a084360ae","system_id":"levelo_inurba_marseille","lat":43.296263,"lon":5.40601,"is_reserved":false,"is_disabled":false,"rental_uris":{"android":"levelo://app?vid=3dd35472-f938-43dd-a6a5-a58a084360ae","ios":"levelo://app?vid=3dd35472-f938-43dd-a6a5-a58a084360ae"},"vehicle_type_id":"4","last_reported":1704654342,"current_range_meters":27200,"station_id":"ce4bh0h2rcd13ifvqd60","pricing_plan_id":"free"},{"bike_id":"56ec1b34-f0ea-4795-bc2e-a865c3c8660d","system_id":"levelo_inurba_marseille","lat":43.284462,"lon":5.392121,"is_reserved":false,"is_disabled":false,"rental_uris":{"android":"levelo://app?vid=56ec1b34-f0ea-4795-bc2e-a865c3c8660d","ios":"levelo://app?vid=56ec1b34-f0ea-4795-bc2e-a865c3c8660d"},"vehicle_type_id":"4","last_reported":1704654342,"current_range_meters":25600,"station_id":"ce4bhoh2rcd13ifvqh5g","pricing_plan_id":"free"},{"bike_id":"b71f329e-3e60-4679-95cd-8bd58aa7741c","system_id":"levelo_inurba_marseille","lat":43.284462,"lon":5.392121,"is_reserved":false,"is_disabled":false,"rental_uris":{"android":"levelo://app?vid=b71f329e-3e60-4679-95cd-8bd58aa7741c","ios":"levelo://app?vid=b71f329e-3e60-4679-95cd-8bd58aa7741c"},"vehicle_type_id":"4","last_reported":1704654342,"current_range_meters":21200,"station_id":"ce4bhoh2rcd13ifvqh5g","pricing_plan_id":"free"},{"bike_id":"51318296-8206-4c3a-bf8d-f49caa4d5cfa","system_id":"levelo_inurba_marseille","lat":43.285742,"lon":5.395004,"is_reserved":false,"is_disabled":false,"rental_uris":{"android":"levelo://app?vid=51318296-8206-4c3a-bf8d-f49caa4d5cfa","ios":"levelo://app?vid=51318296-8206-4c3a-bf8d-f49caa4d5cfa"},"vehicle_type_id":"4","last_reported":1704654342,"current_range_meters":23600,"station_id":"ce4bh292rcd13ifvqdg0","pricing_plan_id":"free"},{"bike_id":"bda88bd1-7ec6-4bcc-9b2a-2e7679347bed","system_id":"levelo_inurba_marseille","lat":43.28573,"lon":5.394992,"is_reserved":false,"is_disabled":false,"rental_uris":{"android":"levelo://app?vid=bda88bd1-7ec6-4bcc-9b2a-2e7679347bed","ios":"levelo://app?vid=bda88bd1-7ec6-4bcc-9b2a-2e7679347bed"},"vehicle_type_id":"4","last_reported":1704654342,"current_range_meters":6400,"station_id":"ce4bh292rcd13ifvqdg0","pricing_plan_id":"free"},{"bike_id":"3c20101a-5c5e-4d73-9bb0-309dd553784f","system_id":"levelo_inurba_marseille","lat":43.28573,"lon":5.394992,"is_reserved":false,"is_disabled":false,"rental_uris":{"android":"levelo://app?vid=3c20101a-5c5e-4d73-9bb0-309dd553784f","ios":"levelo://app?vid=3c20101a-5c5e-4d73-9bb0-309dd553784f"},"vehicle_type_id":"4","last_reported":1704654342,"current_range_meters":26800,"station_id":"ce4bh292rcd13ifvqdg0","pricing_plan_id":"free"},{"bike_id":"86cb403d-6696-4a42-a005-226f225aee3b","system_id":"levelo_inurba_marseille","lat":43.28573,"lon":5.394992,"is_reserved":false,"is_disabled":false,"rental_uris":{"android":"levelo://app?vid=86cb403d-6696-4a42-a005-226f225aee3b","ios":"levelo://app?vid=86cb403d-6696-4a42-a005-226f225aee3b"},"vehicle_type_id":"4","last_reported":1704654342,"current_range_meters":0,"station_id":"ce4bh292rcd13ifvqdg0","pricing_plan_id":"free"},{"bike_id":"a0d20dd8-a3b3-4fa3-a6e9-2896226abf35","system_id":"levelo_inurba_marseille","lat":43.3266,"lon":5.40987,"is_reserved":false,"is_disabled":false,"rental_uris":{"android":"levelo://app?vid=a0d20dd8-a3b3-4fa3-a6e9-2896226abf35","ios":"levelo://app?vid=a0d20dd8-a3b3-4fa3-a6e9-2896226abf35"},"vehicle_type_id":"4","last_reported":1704654342,"current_range_meters":6000,"station_id":"","pricing_plan_id":"free"},{"bike_id":"5a738bd9-dc0f-452a-9a31-4033b8244259","system_id":"levelo_inurba_marseille","lat":43.304188,"lon":5.412904,"is_reserved":false,"is_disabled":false,"rental_uris":{"android":"levelo://app?vid=5a738bd9-dc0f-452a-9a31-4033b8244259","ios":"levelo://app?vid=5a738bd9-dc0f-452a-9a31-4033b8244259"},"vehicle_type_id":"4","last_reported":1704654342,"current_range_meters":26800,"station_id":"ce4bhop2rcd13ifvqh8g","pricing_plan_id":"free"},{"bike_id":"4e530689-5864-4e15-ab37-3d64e24d84b8","system_id":"levelo_inurba_marseille","lat":43.287154,"lon":5.399979,"is_reserved":false,"is_disabled":false,"rental_uris":{"android":"levelo://app?vid=4e530689-5864-4e15-ab37-3d64e24d84b8","ios":"levelo://app?vid=4e530689-5864-4e15-ab37-3d64e24d84b8"},"vehicle_type_id":"4","last_reported":1704654342,"current_range_meters":23600,"station_id":"ce4bho92rcd13ifvqh3g","pricing_plan_id":"free"},{"bike_id":"3e69b136-6211-45a1-abfd-7b0e0a914c8e","system_id":"levelo_inurba_marseille","lat":43.320045,"lon":5.415048,"is_reserved":false,"is_disabled":false,"rental_uris":{"android":"levelo://app?vid=3e69b136-6211-45a1-abfd-7b0e0a914c8e","ios":"levelo://app?vid=3e69b136-6211-45a1-abfd-7b0e0a914c8e"},"vehicle_type_id":"4","last_reported":1704654342,"current_range_meters":26400,"station_id":"ce4bhq92rcd13ifvqhkg","pricing_plan_id":"free"},{"bike_id":"2dc8f3d0-5e90-43a1-9403-6b5e28fc116d","system_id":"levelo_inurba_marseille","lat":43.27618,"lon":5.361009,"is_reserved":false,"is_disabled":false,"rental_uris":{"android":"levelo://app?vid=2dc8f3d0-5e90-43a1-9403-6b5e28fc116d","ios":"levelo://app?vid=2dc8f3d0-5e90-43a1-9403-6b5e28fc116d"},"vehicle_type_id":"4","last_reported":1704654342,"current_range_meters":16000,"station_id":"ce4bgj92rcd13ifvqbe0","pricing_plan_id":"free"},{"bike_id":"523863fa-e6fa-4b14-8884-602c332d5c4d","system_id":"levelo_inurba_marseille","lat":43.27618,"lon":5.361009,"is_reserved":false,"is_disabled":false,"rental_uris":{"android":"levelo://app?vid=523863fa-e6fa-4b14-8884-602c332d5c4d","ios":"levelo://app?vid=523863fa-e6fa-4b14-8884-602c332d5c4d"},"vehicle_type_id":"4","last_reported":1704654342,"current_range_meters":29600,"station_id":"ce4bgj92rcd13ifvqbe0","pricing_plan_id":"free"},{"bike_id":"17322b9d-f7b4-4df3-8d2b-b8cefe8acb8d","system_id":"levelo_inurba_marseille","lat":43.27618,"lon":5.361009,"is_reserved":false,"is_disabled":false,"rental_uris":{"android":"levelo://app?vid=17322b9d-f7b4-4df3-8d2b-b8cefe8acb8d","ios":"levelo://app?vid=17322b9d-f7b4-4df3-8d2b-b8cefe8acb8d"},"vehicle_type_id":"4","last_reported":1704654342,"current_range_meters":12800,"station_id":"ce4bgj92rcd13ifvqbe0","pricing_plan_id":"free"},{"bike_id":"72a5756a-b282-4368-a100-de977146136c","system_id":"levelo_inurba_marseille","lat":43.276179,"lon":5.361009,"is_reserved":false,"is_disabled":false,"rental_uris":{"android":"levelo://app?vid=72a5756a-b282-4368-a100-de977146136c","ios":"levelo://app?vid=72a5756a-b282-4368-a100-de977146136c"},"vehicle_type_id":"4","last_reported":1704654342,"current_range_meters":30400,"station_id":"ce4bgj92rcd13ifvqbe0","pricing_plan_id":"free"},{"bike_id":"6839e748-dc98-4408-8bd8-32786d880019","system_id":"levelo_inurba_marseille","lat":43.280755,"lon":5.39657,"is_reserved":false,"is_disabled":false,"rental_uris":{"android":"levelo://app?vid=6839e748-dc98-4408-8bd8-32786d880019","ios":"levelo://app?vid=6839e748-dc98-4408-8bd8-32786d880019"},"vehicle_type_id":"4","last_reported":1704654342,"current_range_meters":13200,"station_id":"","pricing_plan_id":"free"},{"bike_id":"f048df00-4a27-4271-a2b8-a3075c65d656","system_id":"levelo_inurba_marseille","lat":43.303837,"lon":5.418724,"is_reserved":false,"is_disabled":false,"rental_uris":{"android":"levelo://app?vid=f048df00-4a27-4271-a2b8-a3075c65d656","ios":"levelo://app?vid=f048df00-4a27-4271-a2b8-a3075c65d656"},"vehicle_type_id":"4","last_reported":1704654342,"current_range_meters":25600,"station_id":"ce4bhop2rcd13ifvqh7g","pricing_plan_id":"free"},{"bike_id":"f489fdec-7d43-476f-958a-bb0738d115fe","system_id":"levelo_inurba_marseille","lat":43.303837,"lon":5.418724,"is_reserved":false,"is_disabled":false,"rental_uris":{"android":"levelo://app?vid=f489fdec-7d43-476f-958a-bb0738d115fe","ios":"levelo://app?vid=f489fdec-7d43-476f-958a-bb0738d115fe"},"vehicle_type_id":"4","last_reported":1704654342,"current_range_meters":19600,"station_id":"ce4bhop2rcd13ifvqh7g","pricing_plan_id":"free"},{"bike_id":"fba911de-24ed-44b3-9638-3159465196b8","system_id":"levelo_inurba_marseille","lat":43.303837,"lon":5.418724,"is_reserved":false,"is_disabled":false,"rental_uris":{"android":"levelo://app?vid=fba911de-24ed-44b3-9638-3159465196b8","ios":"levelo://app?vid=fba911de-24ed-44b3-9638-3159465196b8"},"vehicle_type_id":"4","last_reported":1704654342,"current_range_meters":31600,"station_id":"ce4bhop2rcd13ifvqh7g","pricing_plan_id":"free"},{"bike_id":"9d5095a4-b951-4636-9005-60267ecaf2d3","system_id":"levelo_inurba_marseille","lat":43.303837,"lon":5.418724,"is_reserved":false,"is_disabled":false,"rental_uris":{"android":"levelo://app?vid=9d5095a4-b951-4636-9005-60267ecaf2d3","ios":"levelo://app?vid=9d5095a4-b951-4636-9005-60267ecaf2d3"},"vehicle_type_id":"4","last_reported":1704654342,"current_range_meters":27600,"station_id":"ce4bhop2rcd13ifvqh7g","pricing_plan_id":"free"},{"bike_id":"3cbc9e14-d21a-4d68-a758-05237905dd7e","system_id":"levelo_inurba_marseille","lat":43.278399,"lon":5.392139,"is_reserved":false,"is_disabled":false,"rental_uris":{"android":"levelo://app?vid=3cbc9e14-d21a-4d68-a758-05237905dd7e","ios":"levelo://app?vid=3cbc9e14-d21a-4d68-a758-05237905dd7e"},"vehicle_type_id":"4","last_reported":1704654342,"current_range_meters":23600,"station_id":"ce4bhjp2rcd13ifvqga0","pricing_plan_id":"free"},{"bike_id":"9790b669-5315-4c5b-a304-dd8190dab293","system_id":"levelo_inurba_marseille","lat":43.278401,"lon":5.392152,"is_reserved":false,"is_disabled":false,"rental_uris":{"android":"levelo://app?vid=9790b669-5315-4c5b-a304-dd8190dab293","ios":"levelo://app?vid=9790b669-5315-4c5b-a304-dd8190dab293"},"vehicle_type_id":"4","last_reported":1704654342,"current_range_meters":18400,"station_id":"ce4bhjp2rcd13ifvqga0","pricing_plan_id":"free"},{"bike_id":"de58dada-5c08-4e63-b128-957bee24158b","system_id":"levelo_inurba_marseille","lat":43.273609,"lon":5.362708,"is_reserved":false,"is_disabled":false,"rental_uris":{"android":"levelo://app?vid=de58dada-5c08-4e63-b128-957bee24158b","ios":"levelo://app?vid=de58dada-5c08-4e63-b128-957bee24158b"},"vehicle_type_id":"4","last_reported":1704654342,"current_range_meters":27200,"station_id":"ce4bhbh2rcd13ifvqeo0","pricing_plan_id":"free"},{"bike_id":"594a030d-9f54-4fda-ad9e-bbb4a20b5f62","system_id":"levelo_inurba_marseille","lat":43.336148,"lon":5.410349,"is_reserved":false,"is_disabled":false,"rental_uris":{"android":"levelo://app?vid=594a030d-9f54-4fda-ad9e-bbb4a20b5f62","ios":"levelo://app?vid=594a030d-9f54-4fda-ad9e-bbb4a20b5f62"},"vehicle_type_id":"4","last_reported":1704654342,"current_range_meters":28800,"station_id":"ce4bhqh2rcd13ifvqhmg","pricing_plan_id":"free"},{"bike_id":"4c618744-5ff1-4637-a927-df1026aa46c0","system_id":"levelo_inurba_marseille","lat":43.275625,"lon":5.384392,"is_reserved":false,"is_disabled":false,"rental_uris":{"android":"levelo://app?vid=4c618744-5ff1-4637-a927-df1026aa46c0","ios":"levelo://app?vid=4c618744-5ff1-4637-a927-df1026aa46c0"},"vehicle_type_id":"4","last_reported":1704654342,"current_range_meters":20800,"station_id":"ce4bhh92rcd13ifvqfi0","pricing_plan_id":"free"},{"bike_id":"c9012e16-6fa9-427d-8487-71b55130658c","system_id":"levelo_inurba_marseille","lat":43.275625,"lon":5.384392,"is_reserved":false,"is_disabled":false,"rental_uris":{"android":"levelo://app?vid=c9012e16-6fa9-427d-8487-71b55130658c","ios":"levelo://app?vid=c9012e16-6fa9-427d-8487-71b55130658c"},"vehicle_type_id":"4","last_reported":1704654342,"current_range_meters":26400,"station_id":"ce4bhh92rcd13ifvqfi0","pricing_plan_id":"free"},{"bike_id":"04aeaa8f-b57b-4875-baf4-d44638bfcbc8","system_id":"levelo_inurba_marseille","lat":43.336134,"lon":5.410341,"is_reserved":false,"is_disabled":false,"rental_uris":{"android":"levelo://app?vid=04aeaa8f-b57b-4875-baf4-d44638bfcbc8","ios":"levelo://app?vid=04aeaa8f-b57b-4875-baf4-d44638bfcbc8"},"vehicle_type_id":"4","last_reported":1704654342,"current_range_meters":28400,"station_id":"ce4bhqh2rcd13ifvqhmg","pricing_plan_id":"free"},{"bike_id":"8b169a59-ac0e-4b99-ab71-d6ddd5786502","system_id":"levelo_inurba_marseille","lat":43.336134,"lon":5.410341,"is_reserved":false,"is_disabled":false,"rental_uris":{"android":"levelo://app?vid=8b169a59-ac0e-4b99-ab71-d6ddd5786502","ios":"levelo://app?vid=8b169a59-ac0e-4b99-ab71-d6ddd5786502"},"vehicle_type_id":"4","last_reported":1704654342,"current_range_meters":21200,"station_id":"ce4bhqh2rcd13ifvqhmg","pricing_plan_id":"free"},{"bike_id":"d91c3b50-981c-4c81-a683-25f543ca5b69","system_id":"levelo_inurba_marseille","lat":43.275625,"lon":5.384392,"is_reserved":false,"is_disabled":false,"rental_uris":{"android":"levelo://app?vid=d91c3b50-981c-4c81-a683-25f543ca5b69","ios":"levelo://app?vid=d91c3b50-981c-4c81-a683-25f543ca5b69"},"vehicle_type_id":"4","last_reported":1704654342,"current_range_meters":29600,"station_id":"ce4bhh92rcd13ifvqfi0","pricing_plan_id":"free"},{"bike_id":"b22b395b-f787-4ae9-92b0-679027e71350","system_id":"levelo_inurba_marseille","lat":43.279952,"lon":5.400085,"is_reserved":false,"is_disabled":false,"rental_uris":{"android":"levelo://app?vid=b22b395b-f787-4ae9-92b0-679027e71350","ios":"levelo://app?vid=b22b395b-f787-4ae9-92b0-679027e71350"},"vehicle_type_id":"4","last_reported":1704654342,"current_range_meters":9600,"station_id":"ce4bho92rcd13ifvqh4g","pricing_plan_id":"free"},{"bike_id":"b64097b7-cafd-40c8-9192-664316f67849","system_id":"levelo_inurba_marseille","lat":43.317121,"lon":5.423936,"is_reserved":false,"is_disabled":false,"rental_uris":{"android":"levelo://app?vid=b64097b7-cafd-40c8-9192-664316f67849","ios":"levelo://app?vid=b64097b7-cafd-40c8-9192-664316f67849"},"vehicle_type_id":"4","last_reported":1704654342,"current_range_meters":26800,"station_id":"ce4bhp92rcd13ifvqhbg","pricing_plan_id":"free"},{"bike_id":"4d4e406f-b1e6-4f20-884f-ad2fc27ab912","system_id":"levelo_inurba_marseille","lat":43.317121,"lon":5.423936,"is_reserved":false,"is_disabled":false,"rental_uris":{"android":"levelo://app?vid=4d4e406f-b1e6-4f20-884f-ad2fc27ab912","ios":"levelo://app?vid=4d4e406f-b1e6-4f20-884f-ad2fc27ab912"},"vehicle_type_id":"4","last_reported":1704654342,"current_range_meters":4400,"station_id":"ce4bhp92rcd13ifvqhbg","pricing_plan_id":"free"},