{"last_updated":1770828757,"ttl":60,"version":"2.2","data":{"bikes":[{"bike_id":"e227fe4a-89b1-4803-83da-7a01b48de28a","system_id":"levelo_inurba_marseille","lat":43.27811,"lon":5.40715,"is_reserved":false,"is_disabled":false,"rental_uris":{"android":"levelo://app?vid=e227fe4a-89b1-4803-83da-7a01b48de28a","ios":"levelo://app?vid=e227fe4a-89b1-4803-83da-7a01b48de28a"},"vehicle_type_id":"4","last_reported":1770828757,"current_range_meters":2800,"station_id":"ce4bhnh2rcd13ifvqgtg","pricing_plan_id":"cebpf4jnsgd1na2vs0mg"},{"bike_id":"ae4c45c9-b228-4b05-bd3c-e9917adca82a","system_id":"levelo_inurba_marseille","lat":43.29931,"lon":5.37408,"is_reserved":false,"is_disabled":false,"rental_uris":{"android":"levelo://app?vid=ae4c45c9-b228-4b05-bd3c-e9917adca82a","ios":"levelo://app?vid=ae4c45c9-b228-4b05-bd3c-e9917adca82a"},"vehicle_type_id":"4","last_reported":1770828757,"current_range_meters":2800,"station_id":"ce4bgjh2rcd13ifvqbg0","pricing_plan_id":"cebpf4jnsgd1na2vs0mg"},{"bike_id":"22d8d839-db4c-4efa-bd5d-d78efaca55ca","system_id":"levelo_inurba_marseille","lat":43.27048,"lon":5.38308,"is_reserved":false,"is_disabled":false,"rental_uris":{"android":"levelo://app?vid=22d8d839-db4c-4efa-bd5d-d78efaca55ca","ios":"levelo://app?vid=22d8d839-db4c-4efa-bd5d-d78efaca55ca"},"vehicle_type_id":"4","last_reported":1770828757,"current_range_meters":2800,"station_id":"st_d3n2fo6cfp8s73cte1j0","pricing_plan_id":"cebpf4jnsgd1na2vs0mg"},{"bike_id":"d84ccceb-947f-4c98-84f4-d8427853cf88","system_id":"levelo_inurba_marseille","lat":43.30407,"lon":5.41167,"is_reserved":false,"is_disabled":false,"rental_uris":{"android":"levelo://app?vid=d84ccceb-947f-4c98-84f4-d8427853cf88","ios":"levelo://app?vid=d84ccceb-947f-4c98-84f4-d8427853cf88"},"vehicle_type_id":"4","last_reported":1770828757,"current_range_meters":2800,"station_id":"","pricing_plan_id":"cebpf4jnsgd1na2vs0mg"},{"bike_id":"04a4cc8e-3be4-4e18-a6c7-3f4bb67f977c","system_id":"levelo_inurba_marseille","lat":43.2737,"lon":5.3626,"is_reserved":false,"is_disabled":false,"rental_uris":{"android":"levelo://app?vid=04a4cc8e-3be4-4e18-a6c7-3f4bb67f977c","ios":"levelo://app?vid=04a4cc8e-3be4-4e18-a6c7-3f4bb67f977c"},"vehicle_type_id":"4","last_reported":1770828757,"current_range_meters":3200,"station_id":"ce4bhbh2rcd13ifvqeo0","pricing_plan_id":"cebpf4jnsgd1na2vs0mg"},{"bike_id":"04a0344f-e5db-4902-84e9-0262bbe2b88c","system_id":"levelo_inurba_marseille","lat":43.28483,"lon":5.38413,"is_reserved":false,"is_disabled":false,"rental_uris":{"android":"levelo://app?vid=04a0344f-e5db-4902-84e9-0262bbe2b88c","ios":"levelo://app?vid=04a0344f-e5db-4902-84e9-0262bbe2b88c"},"vehicle_type_id":"4","last_reported":1770828757,"current_range_meters":3200,"station_id":"ce4bh512rcd13ifvqe3g","pricing_plan_id":"cebpf4jnsgd1na2vs0mg"},{"bike_id":"efd9d7ca-4b84-4ff5-876b-900e16175b1d","system_id":"levelo_inurba_marseille","lat":43.261964,"lon":5.374497,"is_reserved":false,"is_disabled":false,"rental_uris":{"android":"levelo://app?vid=efd9d7ca-4b84-4ff5-876b-900e16175b1d","ios":"levelo://app?vid=efd9d7ca-4b84-4ff5-876b-900e16175b1d"},"vehicle_type_id":"4","last_reported":1770828757,"current_range_meters":3200,"station_id":"ce4bhgp2rcd13ifvqfc0","pricing_plan_id":"cebpf4jnsgd1na2vs0mg"},{"bike_id":"e0450db0-c8b3-4403-bc43-ed5a007877b8","system_id":"levelo_inurba_marseille","lat":43.24628,"lon":5.43144,"is_reserved":false,"is_disabled":false,"rental_uris":{"android":"levelo://app?vid=e0450db0-c8b3-4403-bc43-ed5a007877b8","ios":"levelo://app?vid=e0450db0-c8b3-4403-bc43-ed5a007877b8"},"vehicle_type_id":"4","last_reported":1770828757,"current_range_meters":3200,"station_id":"st_d2m6c4gdas8pm72e190g","pricing_plan_id":"cebpf4jnsgd1na2vs0mg"},{"bike_id":"652029fd-7389-40d5-a0bd-e85f7aa43d7c","system_id":"levelo_inurba_marseille","lat":43.22562,"lon":5.41634,"is_reserved":false,"is_disabled":false,"rental_uris":{"android":"levelo://app?vid=652029fd-7389-40d5-a0bd-e85f7aa43d7c","ios":"levelo://app?vid=652029fd-7389-40d5-a0bd-e85f7aa43d7c"},"vehicle_type_id":"4","last_reported":1770828757,"current_range_meters":3200,"station_id":"st_d2o4gvlbi1j2169b742g","pricing_plan_id":"cebpf4jnsgd1na2vs0mg"},{"bike_id":"ee213b40-802c-442b-9390-5e22834db5df","system_id":"levelo_inurba_marseille","lat":43.24171,"lon":5.36388,"is_reserved":false,"is_disabled":false,"rental_uris":{"android":"levelo://app?vid=ee213b40-802c-442b-9390-5e22834db5df","ios":"levelo://app?vid=ee213b40-802c-442b-9390-5e22834db5df"},"vehicle_type_id":"4","last_reported":1770828757,"current_range_meters":3200,"station_id":"cpo36qri1sfpv3e86is0","pricing_plan_id":"cebpf4jnsgd1na2vs0mg"},{"bike_id":"475fae78-75f9-4675-8012-304224f10313","system_id":"levelo_inurba_marseille","lat":43.33555,"lon":5.37467,"is_reserved":false,"is_disabled":false,"rental_uris":{"android":"levelo://app?vid=475fae78-75f9-4675-8012-304224f10313","ios":"levelo://app?vid=475fae78-75f9-4675-8012-304224f10313"},"vehicle_type_id":"4","last_reported":1770828757,"current_range_meters":3200,"station_id":"st_d46tts09ee8s73dlu43g","pricing_plan_id":"cebpf4jnsgd1na2vs0mg"},{"bike_id":"87056c0a-278d-470f-af70-99a4eb084f35","system_id":"levelo_inurba_marseille","lat":43.246358,"lon":5.431377,"is_reserved":false,"is_disabled":false,"rental_uris":{"android":"levelo://app?vid=87056c0a-278d-470f-af70-99a4eb084f35","ios":"levelo://app?vid=87056c0a-278d-470f-af70-99a4eb084f35"},"vehicle_type_id":"4","last_reported":1770828757,"current_range_meters":3200,"station_id":"st_d2m6c4gdas8pm72e190g","pricing_plan_id":"cebpf4jnsgd1na2vs0mg"},{"bike_id":"9fd591d0-2348-4aee-a8e7-84023c5aa352","system_id":"levelo_inurba_marseille","lat":43.28433,"lon":5.37514,"is_reserved":false,"is_disabled":true,"rental_uris":{"android":"levelo://app?vid=9fd591d0-2348-4aee-a8e7-84023c5aa352","ios":"levelo://app?vid=9fd591d0-2348-4aee-a8e7-84023c5aa352"},"vehicle_type_id":"4","last_reported":1770828757,"current_range_meters":3200,"station_id":"ce4bh412rcd13ifvqds0","pricing_plan_id":"cebpf4jnsgd1na2vs0mg"},{"bike_id":"cd93a80a-1d37-47c8-8989-40ce8c14aa7d","system_id":"levelo_inurba_marseille","lat":43.29914,"lon":5.37474,"is_reserved":false,"is_disabled":false,"rental_uris":{"android":"levelo://app?vid=cd93a80a-1d37-47c8-8989-40ce8c14aa7d","ios":"levelo://app?vid=cd93a80a-1d37-47c8-8989-40ce8c14aa7d"},"vehicle_type_id":"4","last_reported":1770828757,"current_range_meters":3200,"station_id":"ce4bgjh2rcd13ifvqbg0","pricing_plan_id":"cebpf4jnsgd1na2vs0mg"},{"bike_id":"adcb036c-f213-4947-a530-122582ec3fed","system_id":"levelo_inurba_marseille","lat":43.27197,"lon":5.39175,"is_reserved":false,"is_disabled":false,"rental_uris":{"android":"levelo://app?vid=adcb036c-f213-4947-a530-122582ec3fed","ios":"levelo://app?vid=adcb036c-f213-4947-a530-122582ec3fed"},"vehicle_type_id":"4","last_reported":1770828757,"current_range_meters":3200,"station_id":"ce4bhhp2rcd13ifvqfm0","pricing_plan_id":"cebpf4jnsgd1na2vs0mg"},{"bike_id":"7080df34-f09d-47d5-be55-0d618d1ddb54","system_id":"levelo_inurba_marseille","lat":43.2757,"lon":5.38448,"is_reserved":false,"is_disabled":false,"rental_uris":{"android":"levelo://app?vid=7080df34-f09d-47d5-be55-0d618d1ddb54","ios":"levelo://app?vid=7080df34-f09d-47d5-be55-0d618d1ddb54"},"vehicle_type_id":"4","last_reported":1770828757,"current_range_meters":3200,"station_id":"ce4bhh92rcd13ifvqfi0","pricing_plan_id":"cebpf4jnsgd1na2vs0mg"},{"bike_id":"5c0ba1cc-16fe-4c6f-9c29-84231371fba5","system_id":"levelo_inurba_marseille","lat":43.243877,"lon":5.370503,"is_reserved":false,"is_disabled":false,"rental_uris":{"android":"levelo://app?vid=5c0ba1cc-16fe-4c6f-9c29-84231371fba5","ios":"levelo://app?vid=5c0ba1cc-16fe-4c6f-9c29-84231371fba5"},"vehicle_type_id":"4","last_reported":1770828757,"current_range_meters":3200,"station_id":"ce4bhhh2rcd13ifvqfk0","pricing_plan_id":"cebpf4jnsgd1na2vs0mg"},{"bike_id":"44d17b9a-a696-4502-89c1-4d2b9276205f","system_id":"levelo_inurba_marseille","lat":43.250186,"lon":5.389103,"is_reserved":false,"is_disabled":false,"rental_uris":{"android":"levelo://app?vid=44d17b9a-a696-4502-89c1-4d2b9276205f","ios":"levelo://app?vid=44d17b9a-a696-4502-89c1-4d2b9276205f"},"vehicle_type_id":"4","last_reported":1770828757,"current_range_meters":3200,"station_id":"ce4bhgp2rcd13ifvqfd0","pricing_plan_id":"cebpf4jnsgd1na2vs0mg"},{"bike_id":"f4adb420-d3d1-4cea-b108-e3cb68b57e79","system_id":"levelo_inurba_marseille","lat":43.30425,"lon":5.39745,"is_reserved":false,"is_disabled":false,"rental_uris":{"android":"levelo://app?vid=f4adb420-d3d1-4cea-b108-e3cb68b57e79","ios":"levelo://app?vid=f4adb420-d3d1-4cea-b108-e3cb68b57e79"},"vehicle_type_id":"4","last_reported":1770828757,"current_range_meters":3200,"station_id":"ce4bh092rcd13ifvqd20","pricing_plan_id":"cebpf4jnsgd1na2vs0mg"},{"bike_id":"14d25a98-2cdc-4061-8d65-cf9d94400c7c","system_id":"levelo_inurba_marseille","lat":43.25336,"lon":5.42166,"is_reserved":false,"is_disabled":false,"rental_uris":{"android":"levelo://app?vid=14d25a98-2cdc-4061-8d65-cf9d94400c7c","ios":"levelo://app?vid=14d25a98-2cdc-4061-8d65-cf9d94400c7c"},"vehicle_type_id":"4","last_reported":1770828757,"current_range_meters":3600,"station_id":"st_d2m65c5bi1j21697t3ng","pricing_plan_id":"cebpf4jnsgd1na2vs0mg"},{"bike_id":"7e3ab4cc-f1d0-40c5-93c0-f0b43c67658b","system_id":"levelo_inurba_marseille","lat":43.2533,"lon":5.42156,"is_reserved":false,"is_disabled":false,"rental_uris":{"android":"levelo://app?vid=7e3ab4cc-f1d0-40c5-93c0-f0b43c67658b","ios":"levelo://app?vid=7e3ab4cc-f1d0-40c5-93c0-f0b43c67658b"},"vehicle_type_id":"4","last_reported":1770828757,"current_range_meters":3600,"station_id":"st_d2m65c5bi1j21697t3ng","pricing_plan_id":"cebpf4jnsgd1na2vs0mg"},{"bike_id":"fe6f8294-65ba-45f1-a4f6-c1ee0f12ef18","system_id":"levelo_inurba_marseille","lat":43.22563,"lon":5.41628,"is_reserved":false,"is_disabled":false,"rental_uris":{"android":"levelo://app?vid=fe6f8294-65ba-45f1-a4f6-c1ee0f12ef18","ios":"levelo://app?vid=fe6f8294-65ba-45f1-a4f6-c1ee0f12ef18"},"vehicle_type_id":"4","last_reported":1770828757,"current_range_meters":3600,"station_id":"st_d2o4gvlbi1j2169b742g","pricing_plan_id":"cebpf4jnsgd1na2vs0mg"},{"bike_id":"7a764ea1-3db9-42d3-bcb4-96b88fa6fb42","system_id":"levelo_inurba_marseille","lat":43.28445,"lon":5.38784,"is_reserved":false,"is_disabled":false,"rental_uris":{"android":"levelo://app?vid=7a764ea1-3db9-42d3-bcb4-96b88fa6fb42","ios":"levelo://app?vid=7a764ea1-3db9-42d3-bcb4-96b88fa6fb42"},"vehicle_type_id":"4","last_reported":1770828757,"current_range_meters":3600,"station_id":"","pricing_plan_id":"cebpf4jnsgd1na2vs0mg"},{"bike_id":"5f7df976-2770-4b0d-bd16-1a5d3e4bd86a","system_id":"levelo_inurba_marseille","lat":43.26028,"lon":5.37552,"is_reserved":false,"is_disabled":false,"rental_uris":{"android":"levelo://app?vid=5f7df976-2770-4b0d-bd16-1a5d3e4bd86a","ios":"levelo://app?vid=5f7df976-2770-4b0d-bd16-1a5d3e4bd86a"},"vehicle_type_id":"4","last_reported":1770828757,"current_range_meters":3600,"station_id":"ce4bhgh2rcd13ifvqfa0","pricing_plan_id":"cebpf4jnsgd1na2vs0mg"},{"bike_id":"46b69bcd-f35a-433e-b9f1-16ab03d0ac0e","system_id":"levelo_inurba_marseille","lat":43.25861,"lon":5.39882,"is_reserved":false,"is_disabled":false,"rental_uris":{"android":"levelo://app?vid=46b69bcd-f35a-433e-b9f1-16ab03d0ac0e","ios":"levelo://app?vid=46b69bcd-f35a-433e-b9f1-16ab03d0ac0e"},"vehicle_type_id":"4","last_reported":1770828757,"current_range_meters":3600,"station_id":"ce4bhl92rcd13ifvqghg","pricing_plan_id":"cebpf4jnsgd1na2vs0mg"},{"bike_id":"b1429378-b93e-4184-b373-85f0415c9919","system_id":"levelo_inurba_marseille","lat":43.246316,"lon":5.431468,"is_reserved":false,"is_disabled":false,"rental_uris":{"android":"levelo://app?vid=b1429378-b93e-4184-b373-85f0415c9919","ios":"levelo://app?vid=b1429378-b93e-4184-b373-85f0415c9919"},"vehicle_type_id":"4","last_reported":1770828757,"current_range_meters":3600,"station_id":"st_d2m6c4gdas8pm72e190g","pricing_plan_id":"cebpf4jnsgd1na2vs0mg"},{"bike_id":"e1972e28-c5f7-4898-9f3a-cff0aa5fe0de","system_id":"levelo_inurba_marseille","lat":43.241796,"lon":5.39703,"is_reserved":false,"is_disabled":false,"rental_uris":{"android":"levelo://app?vid=e1972e28-c5f7-4898-9f3a-cff0aa5fe0de","ios":"levelo://app?vid=e1972e28-c5f7-4898-9f3a-cff0aa5fe0de"},"vehicle_type_id":"4","last_reported":1770828757,"current_range_meters":3600,"station_id":"ce4bhn12rcd13ifvqgpg","pricing_plan_id":"cebpf4jnsgd1na2vs0mg"},{"bike_id":"66819d62-80e4-4ab3-9d23-f1eca8581604","system_id":"levelo_inurba_marseille","lat":43.30205,"lon":5.39464,"is_reserved":false,"is_disabled":false,"rental_uris":{"android":"levelo://app?vid=66819d62-80e4-4ab3-9d23-f1eca8581604","ios":"levelo://app?vid=66819d62-80e4-4ab3-9d23-f1eca8581604"},"vehicle_type_id":"4","last_reported":1770828757,"current_range_meters":3600,"station_id":"ce4bh0p2rcd13ifvqd70","pricing_plan_id":"cebpf4jnsgd1na2vs0mg"},{"bike_id":"88b08bb5-15d1-4c46-844e-21b0e0c21d88","system_id":"levelo_inurba_marseille","lat":43.29571,"lon":5.37515,"is_reserved":false,"is_disabled":false,"rental_uris":{"android":"levelo://app?vid=88b08bb5-15d1-4c46-844e-21b0e0c21d88","ios":"levelo://app?vid=88b08bb5-15d1-4c46-844e-21b0e0c21d88"},"vehicle_type_id":"4","last_reported":1770828757,"current_range_meters":3600,"station_id":"ce4bgh92rcd13ifvqb50","pricing_plan_id":"cebpf4jnsgd1na2vs0mg"},{"bike_id":"c8b47f28-0a49-46d8-8b18-089cd26f952d","system_id":"levelo_inurba_marseille","lat":43.26571,"lon":5.39018,"is_reserved":false,"is_disabled":false,"rental_uris":{"android":"levelo://app?vid=c8b47f28-0a49-46d8-8b18-089cd26f952d","ios":"levelo://app?vid=c8b47f28-0a49-46d8-8b18-089cd26f952d"},"vehicle_type_id":"4","last_reported":1770828757,"current_range_meters":3600,"station_id":"ce4bhe12rcd13ifvqf30","pricing_plan_id":"cebpf4jnsgd1na2vs0mg"},{"bike_id":"eb694c86-1f8d-4868-a34d-0da24ecfed30","system_id":"levelo_inurba_marseille","lat":43.28673,"lon":5.38665,"is_reserved":false,"is_disabled":false,"rental_uris":{"android":"levelo://app?vid=eb694c86-1f8d-4868-a34d-0da24ecfed30","ios":"levelo://app?vid=eb694c86-1f8d-4868-a34d-0da24ecfed30"},"vehicle_type_id":"4","last_reported":1770828757,"current_range_meters":3600,"station_id":"ce4bh492rcd13ifvqdug","pricing_plan_id":"cebpf4jnsgd1na2vs0mg"},{"bike_id":"32b27b47-6c8b-49c6-8b48-fbeace627871","system_id":"levelo_inurba_marseille","lat":43.31227,"lon":5.36904,"is_reserved":false,"is_disabled":false,"rental_uris":{"android":"levelo://app?vid=32b27b47-6c8b-49c6-8b48-fbeace627871","ios":"levelo://app?vid=32b27b47-6c8b-49c6-8b48-fbeace627871"},"vehicle_type_id":"4","last_reported":1770828757,"current_range_meters":4000,"station_id":"ce4bgl92rcd13ifvqbq0","pricing_plan_id":"cebpf4jnsgd1na2vs0mg"},{"bike_id":"44c6aa93-1f46-4cbd-a298-6cd74e811e92","system_id":"levelo_inurba_marseille","lat":43.2175,"lon":5.34596,"is_reserved":false,"is_disabled":false,"rental_uris":{"android":"levelo://app?vid=44c6aa93-1f46-4cbd-a298-6cd74e811e92","ios":"levelo://app?vid=44c6aa93-1f46-4cbd-a298-6cd74e811e92"},"vehicle_type_id":"4","last_reported":1770828757,"current_range_meters":4000,"station_id":"","pricing_plan_id":"cebpf4jnsgd1na2vs0mg"},{"bike_id":"eb54f403-f5f5-4152-9cd4-d31f05df5ad8","system_id":"levelo_inurba_marseille","lat":43.2622,"lon":5.40453,"is_reserved":false,"is_disabled":false,"rental_uris":{"android":"levelo://app?vid=eb54f403-f5f5-4152-9cd4-d31f05df5ad8","ios":"levelo://app?vid=eb54f403-f5f5-4152-9cd4-d31f05df5ad8"},"vehicle_type_id":"4","last_reported":1770828757,"current_range_meters":4000,"station_id":"ce4bhmh2rcd13ifvqgmg","pricing_plan_id":"cebpf4jnsgd1na2vs0mg"},{"bike_id":"e627c39b-d6b7-4908-b941-837594434590","system_id":"levelo_inurba_marseille","lat":43.25338,"lon":5.42173,"is_reserved":false,"is_disabled":false,"rental_uris":{"android":"levelo://app?vid=e627c39b-d6b7-4908-b941-837594434590","ios":"levelo://app?vid=e627c39b-d6b7-4908-b941-837594434590"},"vehicle_type_id":"4","last_reported":1770828757,"current_range_meters":4000,"station_id":"st_d2m65c5bi1j21697t3ng","pricing_plan_id":"cebpf4jnsgd1na2vs0mg"},{"bike_id":"b0577ca1-afa8-48fa-be5c-f4673c1a2294","system_id":"levelo_inurba_marseille","lat":43.28007,"lon":5.41294,"is_reserved":false,"is_disabled":false,"rental_uris":{"android":"levelo://app?vid=b0577ca1-afa8-48fa-be5c-f4673c1a2294","ios":"levelo://app?vid=b0577ca1-afa8-48fa-be5c-f4673c1a2294"},"vehicle_type_id":"4","last_reported":1770828757,"current_range_meters":4000,"station_id":"","pricing_plan_id":"cebpf4jnsgd1na2vs0mg"},{"bike_id":"7cf4c229-b0ff-446c-9296-4d5cc4f00c1f","system_id":"levelo_inurba_marseille","lat":43.29528,"lon":5.39399,"is_reserved":false,"is_disabled":false,"rental_uris":{"android":"levelo://app?vid=7cf4c229-b0ff-446c-9296-4d5cc4f00c1f","ios":"levelo://app?vid=7cf4c229-b0ff-446c-9296-4d5cc4f00c1f"},"vehicle_type_id":"4","last_reported":1770828757,"current_range_meters":4000,"station_id":"ce4bh292rcd13ifvqdf0","pricing_plan_id":"cebpf4jnsgd1na2vs0mg"},{"bike_id":"f25e3af4-e39e-47d5-ba24-ba1c64c3b46d","system_id":"levelo_inurba_marseille","lat":43.23154,"lon":5.43738,"is_reserved":false,"is_disabled":false,"rental_uris":{"android":"levelo://app?vid=f25e3af4-e39e-47d5-ba24-ba1c64c3b46d","ios":"levelo://app?vid=f25e3af4-e39e-47d5-ba24-ba1c64c3b46d"},"vehicle_type_id":"4","last_reported":1770828757,"current_range_meters":4000,"station_id":"ce4bhmp2rcd13ifvqgog","pricing_plan_id":"cebpf4jnsgd1na2vs0mg"},{"bike_id":"f576a1ff-991f-4c84-8cdd-65bae9086ee1","system_id":"levelo_inurba_marseille","lat":43.30315,"lon":5.36911,"is_reserved":false,"is_disabled":false,"rental_uris":{"android":"levelo://app?vid=f576a1ff-991f-4c84-8cdd-65bae9086ee1","ios":"levelo://app?vid=f576a1ff-991f-4c84-8cdd-65bae9086ee1"},"vehicle_type_id":"4","last_reported":1770828757,"current_range_meters":4000,"station_id":"ce4bgqh2rcd13ifvqc5g","pricing_plan_id":"cebpf4jnsgd1na2vs0mg"},{"bike_id":"8fa39637-6863-4901-93d1-5e6048ff701a","system_id":"levelo_inurba_marseille","lat":43.295828,"lon":5.375184,"is_reserved":false,"is_disabled":false,"rental_uris":{"android":"levelo://app?vid=8fa39637-6863-4901-93d1-5e6048ff701a","ios":"levelo://app?vid=8fa39637-6863-4901-93d1-5e6048ff701a"},"vehicle_type_id":"4","last_reported":1770828757,"current_range_meters":4400,"station_id":"ce4bgh92rcd13ifvqb50","pricing_plan_id":"cebpf4jnsgd1na2vs0mg"},{"bike_id":"890f56d4-596e-400c-b85e-06636da41b20","system_id":"levelo_inurba_marseille","lat":43.250063,"lon":5.389253,"is_reserved":false,"is_disabled":false,"rental_uris":{"android":"levelo://app?vid=890f56d4-596e-400c-b85e-06636da41b20","ios":"levelo://app?vid=890f56d4-596e-400c-b85e-06636da41b20"},"vehicle_type_id":"4","last_reported":1770828757,"current_range_meters":4400,"station_id":"ce4bhgp2rcd13ifvqfd0","pricing_plan_id":"cebpf4jnsgd1na2vs0mg"},{"bike_id":"54bd52e6-912c-41e4-90a6-85e5c05a7d3d","system_id":"levelo_inurba_marseille","lat":43.22583,"lon":5.41616,"is_reserved":false,"is_disabled":false,"rental_uris":{"android":"levelo://app?vid=54bd52e6-912c-41e4-90a6-85e5c05a7d3d","ios":"levelo://app?vid=54bd52e6-912c-41e4-90a6-85e5c05a7d3d"},"vehicle_type_id":"4","last_reported":1770828757,"current_range_meters":4400,"station_id":"st_d2o4gvlbi1j2169b742g","pricing_plan_id":"cebpf4jnsgd1na2vs0mg"},{"bike_id":"d01f5ba5-555f-4fd5-bda1-8012d30858b6","system_id":"levelo_inurba_marseille","lat":43.28481,"lon":5.48383,"is_reserved":false,"is_disabled":false,"rental_uris":{"android":"levelo://app?vid=d01f5ba5-555f-4fd5-bda1-8012d30858b6","ios":"levelo://app?vid=d01f5ba5-555f-4fd5-bda1-8012d30858b6"},"vehicle_type_id":"4","last_reported":1770828757,"current_range_meters":4400,"station_id":"st_d3svhcjqgbts73a3dn0g","pricing_plan_id":"cebpf4jnsgd1na2vs0mg"},{"bike_id":"d1a208dc-b079-4f67-83b0-5bab6732b044","system_id":"levelo_inurba_marseille","lat":43.26201,"lon":5.37456,"is_reserved":false,"is_disabled":false,"rental_uris":{"android":"levelo://app?vid=d1a208dc-b079-4f67-83b0-5bab6732b044","ios":"levelo://app?vid=d1a208dc-b079-4f67-83b0-5bab6732b044"},"vehicle_type_id":"4","last_reported":1770828757,"current_range_meters":4400,"station_id":"ce4bhgp2rcd13ifvqfc0","pricing_plan_id":"cebpf4jnsgd1na2vs0mg"},{"bike_id":"d99d8fe4-b2b7-4ecd-b5db-4cee32291c21","system_id":"levelo_inurba_marseille","lat":43.239648,"lon":5.366319,"is_reserved":false,"is_disabled":false,"rental_uris":{"android":"levelo://app?vid=d99d8fe4-b2b7-4ecd-b5db-4cee32291c21","ios":"levelo://app?vid=d99d8fe4-b2b7-4ecd-b5db-4cee32291c21"},"vehicle_type_id":"4","last_reported":1770828757,"current_range_meters":4400,"station_id":"ce4bhi12rcd13ifvqfp0","pricing_plan_id":"cebpf4jnsgd1na2vs0mg"},{"bike_id":"04cec6c3-1264-43b5-87a6-d6b6d31130ce","system_id":"levelo_inurba_marseille","lat":43.30884,"lon":5.39658,"is_reserved":false,"is_disabled":false,"rental_uris":{"android":"levelo://app?vid=04cec6c3-1264-43b5-87a6-d6b6d31130ce","ios":"levelo://app?vid=04cec6c3-1264-43b5-87a6-d6b6d31130ce"},"vehicle_type_id":"4","last_reported":1770828757,"current_range_meters":4400,"station_id":"ce4bh012rcd13ifvqcv0","pricing_plan_id":"cebpf4jnsgd1na2vs0mg"},{"bike_id":"194a4d89-9bca-4357-8a80-8fe8b5885f31","system_id":"levelo_inurba_marseille","lat":43.304274,"lon":5.388818,"is_reserved":false,"is_disabled":false,"rental_uris":{"android":"levelo://app?vid=194a4d89-9bca-4357-8a80-8fe8b5885f31","ios":"levelo://app?vid=194a4d89-9bca-4357-8a80-8fe8b5885f31"},"vehicle_type_id":"4","last_reported":1770828757,"current_range_meters":4400,"station_id":"ce4bgk12rcd13ifvqbi0","pricing_plan_id":"cebpf4jnsgd1na2vs0mg"},{"bike_id":"d5807c9e-5ecc-4cb7-904e-14adb0f444e0","system_id":"levelo_inurba_marseille","lat":43.310684,"lon":5.38336,"is_reserved":false,"is_disabled":false,"rental_uris":{"android":"levelo://app?vid=d5807c9e-5ecc-4cb7-904e-14adb0f444e0","ios":"levelo://app?vid=d5807c9e-5ecc-4cb7-904e-14adb0f444e0"},"vehicle_type_id":"4","last_reported":1770828757,"current_range_meters":4400,"station_id":"ce4bgv92rcd13ifvqcr0","pricing_plan_id":"cebpf4jnsgd1na2vs0mg"},{"bike_id":"890d666c-9da6-4153-bd7e-60e53c0ee9bf","system_id":"levelo_inurba_marseille","lat":43.33769,"lon":5.37475,"is_reserved":false,"is_disabled":true,"rental_uris":{"android":"levelo://app?vid=890d666c-9da6-4153-bd7e-60e53c0ee9bf","ios":"levelo://app?vid=890d666c-9da6-4153-bd7e-60e53c0ee9bf"},"vehicle_type_id":"4","last_reported":1770828757,"current_range_meters":4800,"station_id":"","pricing_plan_id":"cebpf4jnsgd1na2vs0mg"},{"bike_id":"3cf4412f-4eab-4fb4-bd6a-b9dfe83e38cc","system_id":"levelo_inurba_marseille","lat":43.24176,"lon":5.39741,"is_reserved":false,"is_disabled":false,"rental_uris":{"android":"levelo://app?vid=3cf4412f-4eab-4fb4-bd6a-b9dfe83e38cc","ios":"levelo://app?vid=3cf4412f-4eab-4fb4-bd6a-b9dfe83e38cc"},"vehicle_type_id":"4","last_reported":1770828757,"current_range_meters":4800,"station_id":"ce4bhn12rcd13ifvqgpg","pricing_plan_id":"cebpf4jnsgd1na2vs0mg"},{"bike_id":"90ee3013-44b0-4686-907c-1846968ddd2c","system_id":"levelo_inurba_marseille","lat":43.26778,"lon":5.39405,"is_reserved":false,"is_disabled":false,"rental_uris":{"android":"levelo://app?vid=90ee3013-44b0-4686-907c-1846968ddd2c","ios":"levelo://app?vid=90ee3013-44b0-4686-907c-1846968ddd2c"},"vehicle_type_id":"4","last_reported":1770828757,"current_range_meters":4800,"station_id":"ce4bhh12rcd13ifvqfg0","pricing_plan_id":"cebpf4jnsgd1na2vs0mg"},{"bike_id":"6f6a04ad-dd00-4f4a-bdfd-a835cfa0cc11","system_id":"levelo_inurba_marseille","lat":43.27062,"lon":5.38295,"is_reserved":false,"is_disabled":false,"rental_uris":{"android":"levelo://app?vid=6f6a04ad-dd00-4f4a-bdfd-a835cfa0cc11","ios":"levelo://app?vid=6f6a04ad-dd00-4f4a-bdfd-a835cfa0cc11"},"vehicle_type_id":"4","last_reported":1770828757,"current_range_meters":5600,"station_id":"st_d3n2fo6cfp8s73cte1j0","pricing_plan_id":"cebpf4jnsgd1na2vs0mg"},{"bike_id":"e4393e86-b30a-45ea-b104-a7a8da4a078d","system_id":"levelo_inurba_marseille","lat":43.337444,"lon":5.374475,"is_reserved":false,"is_disabled":false,"rental_uris":{"android":"levelo://app?vid=e4393e86-b30a-45ea-b104-a7a8da4a078d","ios":"levelo://app?vid=e4393e86-b30a-45ea-b104-a7a8da4a078d"},"vehicle_type_id":"4","last_reported":1770828757,"current_range_meters":5600,"station_id":"","pricing_plan_id":"cebpf4jnsgd1na2vs0mg"},{"bike_id":"cb757f0d-9c7a-491d-bd37-8f151a926c0d","system_id":"levelo_inurba_marseille","lat":43.25582,"lon":5.38226,"is_reserved":false,"is_disabled":false,"rental_uris":{"android":"levelo://app?vid=cb757f0d-9c7a-491d-bd37-8f151a926c0d","ios":"levelo://app?vid=cb757f0d-9c7a-491d-bd37-8f151a926c0d"},"vehicle_type_id":"4","last_reported":1770828757,"current_range_meters":5600,"station_id":"ce4bhih2rcd13ifvqfs0","pricing_plan_id":"cebpf4jnsgd1na2vs0mg"},{"bike_id":"181777f8-f2e9-4556-8faf-fa3e8dce1295","system_id":"levelo_inurba_marseille","lat":43.2907,"lon":5.37987,"is_reserved":false,"is_disabled":false,"rental_uris":{"android":"levelo://app?vid=181777f8-f2e9-4556-8faf-fa3e8dce1295","ios":"levelo://app?vid=181777f8-f2e9-4556-8faf-fa3e8dce1295"},"vehicle_type_id":"4","last_reported":1770828757,"current_range_meters":5600,"station_id":"","pricing_plan_id":"cebpf4jnsgd1na2vs0mg"},{"bike_id":"7b5f5187-db22-4697-9d69-f1480c720e06","system_id":"levelo_inurba_marseille","lat":43.29703,"lon":5.37684,"is_reserved":false,"is_disabled":false,"rental_uris":{"android":"levelo://app?vid=7b5f5187-db22-4697-9d69-f1480c720e06","ios":"levelo://app?vid=7b5f5187-db22-4697-9d69-f1480c720e06"},"vehicle_type_id":"4","last_reported":1770828757,"current_range_meters":5600,"station_id":"ce4bgkh2rcd13ifvqbl0","pricing_plan_id":"cebpf4jnsgd1na2vs0mg"},{"bike_id":"8fd54c49-2a43-4c11-9493-aa4c3d91f774","system_id":"levelo_inurba_marseille","lat":43.29264,"lon":5.38428,"is_reserved":false,"is_disabled":false,"rental_uris":{"android":"levelo://app?vid=8fd54c49-2a43-4c11-9493-aa4c3d91f774","ios":"levelo://app?vid=8fd54c49-2a43-4c11-9493-aa4c3d91f774"},"vehicle_type_id":"4","last_reported":1770828757,"current_range_meters":5600,"station_id":"ce4bh692rcd13ifvqea0","pricing_plan_id":"cebpf4jnsgd1na2vs0mg"},{"bike_id":"42a0c368-d66d-4380-8564-5bb9b2681cca","system_id":"levelo_inurba_marseille","lat":43.304783,"lon":5.36554,"is_reserved":false,"is_disabled":false,"rental_uris":{"android":"levelo://app?vid=42a0c368-d66d-4380-8564-5bb9b2681cca","ios":"levelo://app?vid=42a0c368-d66d-4380-8564-5bb9b2681cca"},"vehicle_type_id":"4","last_reported":1770828757,"current_range_meters":5600,"station_id":"","pricing_plan_id":"cebpf4jnsgd1na2vs0mg"},{"bike_id":"2078f022-81f2-476d-9478-f1faba0023cf","system_id":"levelo_inurba_marseille","lat":43.29259,"lon":5.38443,"is_reserved":false,"is_disabled":false,"rental_uris":{"android":"levelo://app?vid=2078f022-81f2-476d-9478-f1faba0023cf","ios":"levelo://app?vid=2078f022-81f2-476d-9478-f1faba0023cf"},"vehicle_type_id":"4","last_reported":1770828757,"current_range_meters":5600,"station_id":"ce4bh692rcd13ifvqea0","pricing_plan_id":"cebpf4jnsgd1na2vs0mg"},{"bike_id":"1dcf3562-4dbd-4c4f-b48a-ff6e94dcbfdd","system_id":"levelo_inurba_marseille","lat":43.24655,"lon":5.38152,"is_reserved":false,"is_disabled":false,"rental_uris":{"android":"levelo://app?vid=1dcf3562-4dbd-4c4f-b48a-ff6e94dcbfdd","ios":"levelo://app?vid=1dcf3562-4dbd-4c4f-b48a-ff6e94dcbfdd"},"vehicle_type_id":"4","last_reported":1770828757,"current_range_meters":5600,"station_id":"ce4bhih2rcd13ifvqfr0","pricing_plan_id":"cebpf4jnsgd1na2vs0mg"},{"bike_id":"c4ef5bed-2c26-45ce-9600-06cb749f2528","system_id":"levelo_inurba_marseille","lat":43.26549,"lon":5.372898,"is_reserved":false,"is_disabled":false,"rental_uris":{"android":"levelo://app?vid=c4ef5bed-2c26-45ce-9600-06cb749f2528","ios":"levelo://app?vid=c4ef5bed-2c26-45ce-9600-06cb749f2528"},"vehicle_type_id":"4","last_reported":1770828757,"current_range_meters":6000,"station_id":"ce4bhg12rcd13ifvqf70","pricing_plan_id":"cebpf4jnsgd1na2vs0mg"},{"bike_id":"c446de76-8d27-409d-b131-ba8ea4d0e85a","system_id":"levelo_inurba_marseille","lat":43.28728,"lon":5.37942,"is_reserved":false,"is_disabled":false,"rental_uris":{"android":"levelo://app?vid=c446de76-8d27-409d-b131-ba8ea4d0e85a","ios":"levelo://app?vid=c446de76-8d27-409d-b131-ba8ea4d0e85a"},"vehicle_type_id":"4","last_reported":1770828757,"current_range_meters":6000,"station_id":"ce4bh9p2rcd13ifvqec0","pricing_plan_id":"cebpf4jnsgd1na2vs0mg"},{"bike_id":"195129a7-492c-4a00-92c9-6590be19f8d4","system_id":"levelo_inurba_marseille","lat":43.29447,"lon":5.43348,"is_reserved":false,"is_disabled":false,"rental_uris":{"android":"levelo://app?vid=195129a7-492c-4a00-92c9-6590be19f8d4","ios":"levelo://app?vid=195129a7-492c-4a00-92c9-6590be19f8d4"},"vehicle_type_id":"4","last_reported":1770828757,"current_range_meters":6000,"station_id":"","pricing_plan_id":"cebpf4jnsgd1na2vs0mg"},{"bike_id":"d3ff72dc-5551-4917-81f1-dd8f1a42992a","system_id":"levelo_inurba_marseille","lat":43.31351,"lon":5.36704,"is_reserved":false,"is_disabled":false,"rental_uris":{"android":"levelo://app?vid=d3ff72dc-5551-4917-81f1-dd8f1a42992a","ios":"levelo://app?vid=d3ff72dc-5551-4917-81f1-dd8f1a42992a"},"vehicle_type_id":"4","last_reported":1770828757,"current_range_meters":6000,"station_id":"ce4bgr92rcd13ifvqc6g","pricing_plan_id":"cebpf4jnsgd1na2vs0mg"},{"bike_id":"4659f5f2-43a6-4213-b84f-184d5dec64b3","system_id":"levelo_inurba_marseille","lat":43.33587,"lon":5.37389,"is_reserved":false,"is_disabled":false,"rental_uris":{"android":"levelo://app?vid=4659f5f2-43a6-4213-b84f-184d5dec64b3","ios":"levelo://app?vid=4659f5f2-43a6-4213-b84f-184d5dec64b3"},"vehicle_type_id":"4","last_reported":1770828757,"current_range_meters":6000,"station_id":"st_d46tts09ee8s73dlu43g","pricing_plan_id":"cebpf4jnsgd1na2vs0mg"},{"bike_id":"0791f832-532b-4a81-8501-1d24505211ed","system_id":"levelo_inurba_marseille","lat":43.29207,"lon":5.3578,"is_reserved":false,"is_disabled":false,"rental_uris":{"android":"levelo://app?vid=0791f832-532b-4a81-8501-1d24505211ed","ios":"levelo://app?vid=0791f832-532b-4a81-8501-1d24505211ed"},"vehicle_type_id":"4","last_reported":1770828757,"current_range_meters":6000,"station_id":"ce4bhb12rcd13ifvqel0","pricing_plan_id":"cebpf4jnsgd1na2vs0mg"},{"bike_id":"fdb51c8d-dba7-427a-aec9-d20de570c785","system_id":"levelo_inurba_marseille","lat":43.30456,"lon":5.38879,"is_reserved":false,"is_disabled":false,"rental_uris":{"android":"levelo://app?vid=fdb51c8d-dba7-427a-aec9-d20de570c785","ios":"levelo://app?vid=fdb51c8d-dba7-427a-aec9-d20de570c785"},"vehicle_type_id":"4","last_reported":1770828757,"current_range_meters":6000,"station_id":"ce4bgk12rcd13ifvqbi0","pricing_plan_id":"cebpf4jnsgd1na2vs0mg"},{"bike_id":"21e32d3c-1d55-45b0-8d96-31b162d4f81e","system_id":"levelo_inurba_marseille","lat":43.30866,"lon":5.3963,"is_reserved":false,"is_disabled":false,"rental_uris":{"android":"levelo://app?vid=21e32d3c-1d55-45b0-8d96-31b162d4f81e","ios":"levelo://app?vid=21e32d3c-1d55-45b0-8d96-31b162d4f81e"},"vehicle_type_id":"4","last_reported":1770828757,"current_range_meters":6000,"station_id":"ce4bh012rcd13ifvqcv0","pricing_plan_id":"cebpf4jnsgd1na2vs0mg"},{"bike_id":"c5905c63-82ea-4157-aaa6-22b59855d28f","system_id":"levelo_inurba_marseille","lat":43.231879,"lon":5.399837,"is_reserved":false,"is_disabled":false,"rental_uris":{"android":"levelo://app?vid=c5905c63-82ea-4157-aaa6-22b59855d28f","ios":"levelo://app?vid=c5905c63-82ea-4157-aaa6-22b59855d28f"},"vehicle_type_id":"4","last_reported":1770828757,"current_range_meters":6000,"station_id":"ce4bhn12rcd13ifvqgqg","pricing_plan_id":"cebpf4jnsgd1na2vs0mg"},{"bike_id":"c97a9300-53f1-43d2-b253-516f60c5e4b4","system_id":"levelo_inurba_marseille","lat":43.29785,"lon":5.39338,"is_reserved":false,"is_disabled":false,"rental_uris":{"android":"levelo://app?vid=c97a9300-53f1-43d2-b253-516f60c5e4b4","ios":"levelo://app?vid=c97a9300-53f1-43d2-b253-516f60c5e4b4"},"vehicle_type_id":"4","last_reported":1770828757,"current_range_meters":6000,"station_id":"chh1huq6cuj3fo74tm60","pricing_plan_id":"cebpf4jnsgd1na2vs0mg"},{"bike_id":"d3d14498-db34-4461-a9b4-6770ab63656f","system_id":"levelo_inurba_marseille","lat":43.30322,"lon":5.40422,"is_reserved":false,"is_disabled":false,"rental_uris":{"android":"levelo://app?vid=d3d14498-db34-4461-a9b4-6770ab63656f","ios":"levelo://app?vid=d3d14498-db34-4461-a9b4-6770ab63656f"},"vehicle_type_id":"4","last_reported":1770828757,"current_range_meters":6000,"station_id":"ce4bh012rcd13ifvqd10","pricing_plan_id":"cebpf4jnsgd1na2vs0mg"},{"bike_id":"32381e29-847b-4c14-b579-1c570fb04e6f","system_id":"levelo_inurba_marseille","lat":43.24386,"lon":5.3705,"is_reserved":false,"is_disabled":false,"rental_uris":{"android":"levelo://app?vid=32381e29-847b-4c14-b579-1c570fb04e6f","ios":"levelo://app?vid=32381e29-847b-4c14-b579-1c570fb04e6f"},"vehicle_type_id":"4","last_reported":1770828757,"current_range_meters":6000,"station_id":"ce4bhhh2rcd13ifvqfk0","pricing_plan_id":"cebpf4jnsgd1na2vs0mg"},{"bike_id":"cb746bf2-c6a8-4dab-a64d-02007d5a1877","system_id":"levelo_inurba_marseille","lat":43.24817,"lon":5.37443,"is_reserved":false,"is_disabled":false,"rental_uris":{"android":"levelo://app?vid=cb746bf2-c6a8-4dab-a64d-02007d5a1877","ios":"levelo://app?vid=cb746bf2-c6a8-4dab-a64d-02007d5a1877"},"vehicle_type_id":"4","last_reported":1770828757,"current_range_meters":6400,"station_id":"ce4bhgh2rcd13ifvqfb0","pricing_plan_id":"cebpf4jnsgd1na2vs0mg"},{"bike_id":"c6176d61-506f-4755-a0d6-6ccb9566f89a","system_id":"levelo_inurba_marseille","lat":43.25633,"lon":5.41176,"is_reserved":false,"is_disabled":false,"rental_uris":{"android":"levelo://app?vid=c6176d61-506f-4755-a0d6-6ccb9566f89a","ios":"levelo://app?vid=c6176d61-506f-4755-a0d6-6ccb9566f89a"},"vehicle_type_id":"4","last_reported":1770828757,"current_range_meters":6400,"station_id":"","pricing_plan_id":"cebpf4jnsgd1na2vs0mg"},{"bike_id":"bc58a61e-5dee-4f48-b37b-2d8085ac5b73","system_id":"levelo_inurba_marseille","lat":43.249572,"lon":5.405001,"is_reserved":false,"is_disabled":false,"rental_uris":{"android":"levelo://app?vid=bc58a61e-5dee-4f48-b37b-2d8085ac5b73","ios":"levelo://app?vid=bc58a61e-5dee-4f48-b37b-2d8085ac5b73"},"vehicle_type_id":"4","last_reported":1770828757,"current_range_meters":6400,"station_id":"st_d2ngiaodas8pm72gd1h0","pricing_plan_id":"cebpf4jnsgd1na2vs0mg"},{"bike_id":"1fed4add-aae6-45dc-a8f1-a0c848be9f5d","system_id":"levelo_inurba_marseille","lat":43.26219,"lon":5.37948,"is_reserved":false,"is_disabled":false,"rental_uris":{"android":"levelo://app?vid=1fed4add-aae6-45dc-a8f1-a0c848be9f5d","ios":"levelo://app?vid=1fed4add-aae6-45dc-a8f1-a0c848be9f5d"},"vehicle_type_id":"4","last_reported":1770828757,"current_range_meters":6400,"station_id":"ce4bhjp2rcd13ifvqg90","pricing_plan_id":"cebpf4jnsgd1na2vs0mg"},{"bike_id":"156d8054-12bc-48fd-9e6d-ad7b9e07d22f","system_id":"levelo_inurba_marseille","lat":43.29224,"lon":5.3605,"is_reserved":false,"is_disabled":false,"rental_uris":{"android":"levelo://app?vid=156d8054-12bc-48fd-9e6d-ad7b9e07d22f","ios":"levelo://app?vid=156d8054-12bc-48fd-9e6d-ad7b9e07d22f"},"vehicle_type_id":"4","last_reported":1770828757,"current_range_meters":6400,"station_id":"ce4bhbh2rcd13ifvqeqg","pricing_plan_id":"cebpf4jnsgd1na2vs0mg"},{"bike_id":"1c120683-67bc-428a-aa0f-bec572dfb863","system_id":"levelo_inurba_marseille","lat":43.25583,"lon":5.38213,"is_reserved":false,"is_disabled":false,"rental_uris":{"android":"levelo://app?vid=1c120683-67bc-428a-aa0f-bec572dfb863","ios":"levelo://app?vid=1c120683-67bc-428a-aa0f-bec572dfb863"},"vehicle_type_id":"4","last_reported":1770828757,"current_range_meters":6400,"station_id":"ce4bhih2rcd13ifvqfs0","pricing_plan_id":"cebpf4jnsgd1na2vs0mg"},{"bike_id":"1c5cf88e-bae0-4a7f-af92-27de33575267","system_id":"levelo_inurba_marseille","lat":43.25876,"lon":5.39891,"is_reserved":false,"is_disabled":false,"rental_uris":{"android":"levelo://app?vid=1c5cf88e-bae0-4a7f-af92-27de33575267","ios":"levelo://app?vid=1c5cf88e-bae0-4a7f-af92-27de33575267"},"vehicle_type_id":"4","last_reported":1770828757,"current_range_meters":6400,"station_id":"ce4bhl92rcd13ifvqghg","pricing_plan_id":"cebpf4jnsgd1na2vs0mg"},{"bike_id":"357cfa49-eb2e-4ad7-9e86-ec1c9fac2bf5","system_id":"levelo_inurba_marseille","lat":43.2463,"lon":5.43145,"is_reserved":false,"is_disabled":false,"rental_uris":{"android":"levelo://app?vid=357cfa49-eb2e-4ad7-9e86-ec1c9fac2bf5","ios":"levelo://app?vid=357cfa49-eb2e-4ad7-9e86-ec1c9fac2bf5"},"vehicle_type_id":"4","last_reported":1770828757,"current_range_meters":6400,"station_id":"st_d2m6c4gdas8pm72e190g","pricing_plan_id":"cebpf4jnsgd1na2vs0mg"},{"bike_id":"8a086d1d-5ee9-4602-bc53-25876ff7f196","system_id":"levelo_inurba_marseille","lat":43.31037,"lon":5.37169,"is_reserved":false,"is_disabled":false,"rental_uris":{"android":"levelo://app?vid=8a086d1d-5ee9-4602-bc53-25876ff7f196","ios":"levelo://app?vid=8a086d1d-5ee9-4602-bc53-25876ff7f196"},"vehicle_type_id":"4","last_reported":1770828757,"current_range_meters":6400,"station_id":"st_d4kl2rp97mjs73e7tdfg","pricing_plan_id":"cebpf4jnsgd1na2vs0mg"},{"bike_id":"bdde70ef-70ce-4d41-a03b-1cac73853d63","system_id":"levelo_inurba_marseille","lat":43.24165,"lon":5.36386,"is_reserved":false,"is_disabled":false,"rental_uris":{"android":"levelo://app?vid=bdde70ef-70ce-4d41-a03b-1cac73853d63","ios":"levelo://app?vid=bdde70ef-70ce-4d41-a03b-1cac73853d63"},"vehicle_type_id":"4","last_reported":1770828757,"current_range_meters":6400,"station_id":"cpo36qri1sfpv3e86is0","pricing_plan_id":"cebpf4jnsgd1na2vs0mg"},{"bike_id":"70fbccf0-1d8a-434a-b15f-78beac201af2","system_id":"levelo_inurba_marseille","lat":43.265657,"lon":5.39019,"is_reserved":false,"is_disabled":false,"rental_uris":{"android":"levelo://app?vid=70fbccf0-1d8a-434a-b15f-78beac201af2","ios":"levelo://app?vid=70fbccf0-1d8a-434a-b15f-78beac201af2"},"vehicle_type_id":"4","last_reported":1770828757,"current_range_meters":6400,"station_id":"ce4bhe12rcd13ifvqf30","pricing_plan_id":"cebpf4jnsgd1na2vs0mg"},{"bike_id":"9be2f6c4-1487-4e23-994c-6af63617e215","system_id":"levelo_inurba_marseille","lat":43.29242,"lon":5.3845,"is_reserved":false,"is_disabled":false,"rental_uris":{"android":"levelo://app?vid=9be2f6c4-1487-4e23-994c-6af63617e215","ios":"levelo://app?vid=9be2f6c4-1487-4e23-994c-6af63617e215"},"vehicle_type_id":"4","last_reported":1770828757,"current_range_meters":6400,"station_id":"ce4bh692rcd13ifvqea0","pricing_plan_id":"cebpf4jnsgd1na2vs0mg"},{"bike_id":"69cb53c0-4939-4da6-a53e-35e4cb2de7f7","system_id":"levelo_inurba_marseille","lat":43.2256,"lon":5.41625,"is_reserved":false,"is_disabled":false,"rental_uris":{"android":"levelo://app?vid=69cb53c0-4939-4da6-a53e-35e4cb2de7f7","ios":"levelo://app?vid=69cb53c0-4939-4da6-a53e-35e4cb2de7f7"},"vehicle_type_id":"4","last_reported":1770828757,"current_range_meters":6400,"station_id":"st_d2o4gvlbi1j2169b742g","pricing_plan_id":"cebpf4jnsgd1na2vs0mg"},{"bike_id":"5ed0f3ca-c4eb-409c-9eb1-a3eed1b5d0e0","system_id":"levelo_inurba_marseille","lat":43.30382,"lon":5.42466,"is_reserved":false,"is_disabled":false,"rental_uris":{"android":"levelo://app?vid=5ed0f3ca-c4eb-409c-9eb1-a3eed1b5d0e0","ios":"levelo://app?vid=5ed0f3ca-c4eb-409c-9eb1-a3eed1b5d0e0"},"vehicle_type_id":"4","last_reported":1770828757,"current_range_meters":6400,"station_id":"ce4bhoh2rcd13ifvqh6g","pricing_plan_id":"cebpf4jnsgd1na2vs0mg"},{"bike_id":"238249fa-46de-416c-b2d1-b229a6220ad5","system_id":"levelo_inurba_marseille","lat":43.265816,"lon":5.390223,"is_reserved":false,"is_disabled":false,"rental_uris":{"android":"levelo://app?vid=238249fa-46de-416c-b2d1-b229a6220ad5","ios":"levelo://app?vid=238249fa-46de-416c-b2d1-b229a6220ad5"},"vehicle_type_id":"4","last_reported":1770828757,"current_range_meters":6400,"station_id":"ce4bhe12rcd13ifvqf30","pricing_plan_id":"cebpf4jnsgd1na2vs0mg"},{"bike_id":"023c68c3-12c1-4ff4-918b-05c20980e6d7","system_id":"levelo_inurba_marseille","lat":43.27374,"lon":5.36258,"is_reserved":false,"is_disabled":false,"rental_uris":{"android":"levelo://app?vid=023c68c3-12c1-4ff4-918b-05c20980e6d7","ios":"levelo://app?vid=023c68c3-12c1-4ff4-918b-05c20980e6d7"},"vehicle_type_id":"4","last_reported":1770828757,"current_range_meters":6400,"station_id":"ce4bhbh2rcd13ifvqeo0","pricing_plan_id":"cebpf4jnsgd1na2vs0mg"},{"bike_id":"8375b2ff-11c5-4ec7-83cf-dbfe8abd03c4","system_id":"levelo_inurba_marseille","lat":43.29972,"lon":5.37165,"is_reserved":false,"is_disabled":false,"rental_uris":{"android":"levelo://app?vid=8375b2ff-11c5-4ec7-83cf-dbfe8abd03c4","ios":"levelo://app?vid=8375b2ff-11c5-4ec7-83cf-dbfe8abd03c4"},"vehicle_type_id":"4","last_reported":1770828757,"current_range_meters":6400,"station_id":"ce4bgr92rcd13ifvqc7g","pricing_plan_id":"cebpf4jnsgd1na2vs0mg"},{"bike_id":"3ec1396b-5876-4447-b2b0-1112dd0dfc4e","system_id":"levelo_inurba_marseille","lat":43.24552,"lon":5.39516,"is_reserved":false,"is_disabled":false,"rental_uris":{"android":"levelo://app?vid=3ec1396b-5876-4447-b2b0-1112dd0dfc4e","ios":"levelo://app?vid=3ec1396b-5876-4447-b2b0-1112dd0dfc4e"},"vehicle_type_id":"4","last_reported":1770828757,"current_range_meters":6400,"station_id":"ce4bhlp2rcd13ifvqgjg","pricing_plan_id":"cebpf4jnsgd1na2vs0mg"},{"bike_id":"a8033c18-bf59-458a-9eb0-147256918905","system_id":"levelo_inurba_marseille","lat":43.310454,"lon":5.371804,"is_reserved":false,"is_disabled":false,"rental_uris":{"android":"levelo://app?vid=a8033c18-bf59-458a-9eb0-147256918905","ios":"levelo://app?vid=a8033c18-bf59-458a-9eb0-147256918905"},"vehicle_type_id":"4","last_reported":1770828757,"current_range_meters":6800,"station_id":"st_d4kl2rp97mjs73e7tdfg","pricing_plan_id":"cebpf4jnsgd1na2vs0mg"},{"bike_id":"d6b9d7ff-4ec2-4ca9-ba28-5a5dad54cfd3","system_id":"levelo_inurba_marseille","lat":43.28481,"lon":5.48392,"is_reserved":false,"is_disabled":false,"rental_uris":{"android":"levelo://app?vid=d6b9d7ff-4ec2-4ca9-ba28-5a5dad54cfd3","ios":"levelo://app?vid=d6b9d7ff-4ec2-4ca9-ba28-5a5dad54cfd3"},"vehicle_type_id":"4","last_reported":1770828757,"current_range_meters":6800,"station_id":"","pricing_plan_id":"cebpf4jnsgd1na2vs0mg"},{"bike_id":"93b00136-09fe-4a17-8fb6-8d647dc37c64","system_id":"levelo_inurba_marseille","lat":43.262082,"lon":5.379252,"is_reserved":false,"is_disabled":false,"rental_uris":{"android":"levelo://app?vid=93b00136-09fe-4a17-8fb6-8d647dc37c64","ios":"levelo://app?vid=93b00136-09fe-4a17-8fb6-8d647dc37c64"},"vehicle_type_id":"4","last_reported":1770828757,"current_range_meters":6800,"station_id":"ce4bhjp2rcd13ifvqg90","pricing_plan_id":"cebpf4jnsgd1na2vs0mg"},{"bike_id":"e6191106-931c-4b85-a4d8-214c1c34ad15","system_id":"levelo_inurba_marseille","lat":43.30128,"lon":5.3986,"is_reserved":false,"is_disabled":false,"rental_uris":{"android":"levelo://app?vid=e6191106-931c-4b85-a4d8-214c1c34ad15","ios":"levelo://app?vid=e6191106-931c-4b85-a4d8-214c1c34ad15"},"vehicle_type_id":"4","last_reported":1770828757,"current_range_meters":6800,"station_id":"ce4bh0h2rcd13ifvqd40","pricing_plan_id":"cebpf4jnsgd1na2vs0mg"},{"bike_id":"23cfe840-32e2-4f0e-806f-0ad2c242f6ab","system_id":"levelo_inurba_marseille","lat":43.27571,"lon":5.38432,"is_reserved":false,"is_disabled":false,"rental_uris":{"android":"levelo://app?vid=23cfe840-32e2-4f0e-806f-0ad2c242f6ab","ios":"levelo://app?vid=23cfe840-32e2-4f0e-806f-0ad2c242f6ab"},"vehicle_type_id":"4","last_reported":1770828757,"current_range_meters":6800,"station_id":"ce4bhh92rcd13ifvqfi0","pricing_plan_id":"cebpf4jnsgd1na2vs0mg"},{"bike_id":"7aac2d4d-8f2c-4fb5-bb81-3c58f9dbd8a3","system_id":"levelo_inurba_marseille","lat":43.2951,"lon":5.3942,"is_reserved":false,"is_disabled":false,"rental_uris":{"android":"levelo://app?vid=7aac2d4d-8f2c-4fb5-bb81-3c58f9dbd8a3","ios":"levelo://app?vid=7aac2d4d-8f2c-4fb5-bb81-3c58f9dbd8a3"},"vehicle_type_id":"4","last_reported":1770828757,"current_range_meters":6800,"station_id":"ce4bh292rcd13ifvqdf0","pricing_plan_id":"cebpf4jnsgd1na2vs0mg"},{"bike_id":"45b95302-44dd-4fa1-9c21-f43f0a80fc76","system_id":"levelo_inurba_marseille","lat":43.3043,"lon":5.3889,"is_reserved":false,"is_disabled":false,"rental_uris":{"android":"levelo://app?vid=45b95302-44dd-4fa1-9c21-f43f0a80fc76","ios":"levelo://app?vid=45b95302-44dd-4fa1-9c21-f43f0a80fc76"},"vehicle_type_id":"4","last_reported":1770828757,"current_range_meters":6800,"station_id":"ce4bgk12rcd13ifvqbi0","pricing_plan_id":"cebpf4jnsgd1na2vs0mg"},{"bike_id":"ddfac594-697f-4f5f-9772-f85a6b0378d6","system_id":"levelo_inurba_marseille","lat":43.2318,"lon":5.3999,"is_reserved":false,"is_disabled":false,"rental_uris":{"android":"levelo://app?vid=ddfac594-697f-4f5f-9772-f85a6b0378d6","ios":"levelo://app?vid=ddfac594-697f-4f5f-9772-f85a6b0378d6"},"vehicle_type_id":"4","last_reported":1770828757,"current_range_meters":6800,"station_id":"ce4bhn12rcd13ifvqgqg","pricing_plan_id":"cebpf4jnsgd1na2vs0mg"},{"bike_id":"da92e917-9c02-4333-9f36-38492298b5df","system_id":"levelo_inurba_marseille","lat":43.29282,"lon":5.40116,"is_reserved":false,"is_disabled":false,"rental_uris":{"android":"levelo://app?vid=da92e917-9c02-4333-9f36-38492298b5df","ios":"levelo://app?vid=da92e917-9c02-4333-9f36-38492298b5df"},"vehicle_type_id":"4","last_reported":1770828757,"current_range_meters":6800,"station_id":"ce4bh312rcd13ifvqdk0","pricing_plan_id":"cebpf4jnsgd1na2vs0mg"},{"bike_id":"eb153995-5d33-4b1d-a5c0-ee8cc4302ea8","system_id":"levelo_inurba_marseille","lat":43.26584,"lon":5.390393,"is_reserved":false,"is_disabled":false,"rental_uris":{"android":"levelo://app?vid=eb153995-5d33-4b1d-a5c0-ee8cc4302ea8","ios":"levelo://app?vid=eb153995-5d33-4b1d-a5c0-ee8cc4302ea8"},"vehicle_type_id":"4","last_reported":1770828757,"current_range_meters":7200,"station_id":"ce4bhe12rcd13ifvqf30","pricing_plan_id":"cebpf4jnsgd1na2vs0mg"},{"bike_id":"fa15da7d-ab07-497d-92d6-453774c18a1e","system_id":"levelo_inurba_marseille","lat":43.29019,"lon":5.38122,"is_reserved":false,"is_disabled":false,"rental_uris":{"android":"levelo://app?vid=fa15da7d-ab07-497d-92d6-453774c18a1e","ios":"levelo://app?vid=fa15da7d-ab07-497d-92d6-453774c18a1e"},"vehicle_type_id":"4","last_reported":1770828757,"current_range_meters":7200,"station_id":"ce4bh4p2rcd13ifvqe1g","pricing_plan_id":"cebpf4jnsgd1na2vs0mg"},{"bike_id":"fe86c9ba-789d-48cb-b139-57215407552e","system_id":"levelo_inurba_marseille","lat":43.337589,"lon":5.374551,"is_reserved":false,"is_disabled":false,"rental_uris":{"android":"levelo://app?vid=fe86c9ba-789d-48cb-b139-57215407552e","ios":"levelo://app?vid=fe86c9ba-789d-48cb-b139-57215407552e"},"vehicle_type_id":"4","last_reported":1770828757,"current_range_meters":7200,"station_id":"","pricing_plan_id":"cebpf4jnsgd1na2vs0mg"},{"bike_id":"8284b70b-2232-434c-a2b5-49ae84b14073","system_id":"levelo_inurba_marseille","lat":43.30599,"lon":5.3722,"is_reserved":false,"is_disabled":false,"rental_uris":{"android":"levelo://app?vid=8284b70b-2232-434c-a2b5-49ae84b14073","ios":"levelo://app?vid=8284b70b-2232-434c-a2b5-49ae84b14073"},"vehicle_type_id":"4","last_reported":1770828757,"current_range_meters":7200,"station_id":"ce4bgqh2rcd13ifvqc4g","pricing_plan_id":"cebpf4jnsgd1na2vs0mg"},{"bike_id":"d4ca1552-174d-4ef7-a9fa-51001d780ed8","system_id":"levelo_inurba_marseille","lat":43.317234,"lon":5.437057,"is_reserved":false,"is_disabled":false,"rental_uris":{"android":"levelo://app?vid=d4ca1552-174d-4ef7-a9fa-51001d780ed8","ios":"levelo://app?vid=d4ca1552-174d-4ef7-a9fa-51001d780ed8"},"vehicle_type_id":"4","last_reported":1770828757,"current_range_meters":7200,"station_id":"ce4bhp92rcd13ifvqhcg","pricing_plan_id":"cebpf4jnsgd1na2vs0mg"},{"bike_id":"bc9228c3-c0dc-4f33-a9c5-938e66c1a12a","system_id":"levelo_inurba_marseille","lat":43.29524,"lon":5.38536,"is_reserved":false,"is_disabled":false,"rental_uris":{"android":"levelo://app?vid=bc9228c3-c0dc-4f33-a9c5-938e66c1a12a","ios":"levelo://app?vid=bc9228c3-c0dc-4f33-a9c5-938e66c1a12a"},"vehicle_type_id":"4","last_reported":1770828757,"current_range_meters":7200,"station_id":"ce4bgih2rcd13ifvqba0","pricing_plan_id":"cebpf4jnsgd1na2vs0mg"},{"bike_id":"8ff4a9fa-0d2e-4f7f-8193-e7a8dba5ca9a","system_id":"levelo_inurba_marseille","lat":43.253352,"lon":5.421614,"is_reserved":false,"is_disabled":false,"rental_uris":{"android":"levelo://app?vid=8ff4a9fa-0d2e-4f7f-8193-e7a8dba5ca9a","ios":"levelo://app?vid=8ff4a9fa-0d2e-4f7f-8193-e7a8dba5ca9a"},"vehicle_type_id":"4","last_reported":1770828757,"current_range_meters":7200,"station_id":"st_d2m65c5bi1j21697t3ng","pricing_plan_id":"cebpf4jnsgd1na2vs0mg"},{"bike_id":"ae861497-9a22-4231-afa9-8238d5c5713c","system_id":"levelo_inurba_marseille","lat":43.24167,"lon":5.363914,"is_reserved":false,"is_disabled":false,"rental_uris":{"android":"levelo://app?vid=ae861497-9a22-4231-afa9-8238d5c5713c","ios":"levelo://app?vid=ae861497-9a22-4231-afa9-8238d5c5713c"},"vehicle_type_id":"4","last_reported":1770828757,"current_range_meters":7200,"station_id":"cpo36qri1sfpv3e86is0","pricing_plan_id":"cebpf4jnsgd1na2vs0mg"},{"bike_id":"aadb3bd1-d352-46bc-a6dc-751e563babdf","system_id":"levelo_inurba_marseille","lat":43.24364,"lon":5.37041,"is_reserved":false,"is_disabled":false,"rental_uris":{"android":"levelo://app?vid=aadb3bd1-d352-46bc-a6dc-751e563babdf","ios":"levelo://app?vid=aadb3bd1-d352-46bc-a6dc-751e563babdf"},"vehicle_type_id":"4","last_reported":1770828757,"current_range_meters":7200,"station_id":"ce4bhhh2rcd13ifvqfk0","pricing_plan_id":"cebpf4jnsgd1na2vs0mg"},{"bike_id":"1471954e-949e-4221-97db-198cb054fb49","system_id":"levelo_inurba_marseille","lat":43.24949,"lon":5.40486,"is_reserved":false,"is_disabled":false,"rental_uris":{"android":"levelo://app?vid=1471954e-949e-4221-97db-198cb054fb49","ios":"levelo://app?vid=1471954e-949e-4221-97db-198cb054fb49"},"vehicle_type_id":"4","last_reported":1770828757,"current_range_meters":7200,"station_id":"st_d2ngiaodas8pm72gd1h0","pricing_plan_id":"cebpf4jnsgd1na2vs0mg"},{"bike_id":"7eeaccf5-8f2d-4b8e-b748-664a79b6f593","system_id":"levelo_inurba_marseille","lat":43.298043,"lon":5.38086,"is_reserved":false,"is_disabled":false,"rental_uris":{"android":"levelo://app?vid=7eeaccf5-8f2d-4b8e-b748-664a79b6f593","ios":"levelo://app?vid=7eeaccf5-8f2d-4b8e-b748-664a79b6f593"},"vehicle_type_id":"4","last_reported":1770828757,"current_range_meters":7200,"station_id":"ce4bgip2rcd13ifvqbb0","pricing_plan_id":"cebpf4jnsgd1na2vs0mg"},{"bike_id":"6efe5f0a-6c4f-403e-907f-5428484845d2","system_id":"levelo_inurba_marseille","lat":43.31698,"lon":5.40385,"is_reserved":false,"is_disabled":false,"rental_uris":{"android":"levelo://app?vid=6efe5f0a-6c4f-403e-907f-5428484845d2","ios":"levelo://app?vid=6efe5f0a-6c4f-403e-907f-5428484845d2"},"vehicle_type_id":"4","last_reported":1770828757,"current_range_meters":7200,"station_id":"","pricing_plan_id":"cebpf4jnsgd1na2vs0mg"},{"bike_id":"33352d89-c7bd-4d2f-8796-2f3b2fb0783e","system_id":"levelo_inurba_marseille","lat":43.281505,"lon":5.426903,"is_reserved":false,"is_disabled":false,"rental_uris":{"android":"levelo://app?vid=33352d89-c7bd-4d2f-8796-2f3b2fb0783e","ios":"levelo://app?vid=33352d89-c7bd-4d2f-8796-2f3b2fb0783e"},"vehicle_type_id":"4","last_reported":1770828757,"current_range_meters":7200,"station_id":"ce4bhnh2rcd13ifvqgug","pricing_plan_id":"cebpf4jnsgd1na2vs0mg"},{"bike_id":"1c8ad576-b604-4822-b51b-92bbf6fee65c","system_id":"levelo_inurba_marseille","lat":43.26567,"lon":5.39029,"is_reserved":false,"is_disabled":false,"rental_uris":{"android":"levelo://app?vid=1c8ad576-b604-4822-b51b-92bbf6fee65c","ios":"levelo://app?vid=1c8ad576-b604-4822-b51b-92bbf6fee65c"},"vehicle_type_id":"4","last_reported":1770828757,"current_range_meters":7200,"station_id":"ce4bhe12rcd13ifvqf30","pricing_plan_id":"cebpf4jnsgd1na2vs0mg"},{"bike_id":"ea1c6171-5afb-4c13-9162-abe8d2806df9","system_id":"levelo_inurba_marseille","lat":43.27057,"lon":5.3831,"is_reserved":false,"is_disabled":false,"rental_uris":{"android":"levelo://app?vid=ea1c6171-5afb-4c13-9162-abe8d2806df9","ios":"levelo://app?vid=ea1c6171-5afb-4c13-9162-abe8d2806df9"},"vehicle_type_id":"4","last_reported":1770828757,"current_range_meters":7200,"station_id":"st_d3n2fo6cfp8s73cte1j0","pricing_plan_id":"cebpf4jnsgd1na2vs0mg"},{"bike_id":"1c663ad5-2bf7-40c7-89de-f05950571829","system_id":"levelo_inurba_marseille","lat":43.24391,"lon":5.37054,"is_reserved":false,"is_disabled":false,"rental_uris":{"android":"levelo://app?vid=1c663ad5-2bf7-40c7-89de-f05950571829","ios":"levelo://app?vid=1c663ad5-2bf7-40c7-89de-f05950571829"},"vehicle_type_id":"4","last_reported":1770828757,"current_range_meters":7200,"station_id":"ce4bhhh2rcd13ifvqfk0","pricing_plan_id":"cebpf4jnsgd1na2vs0mg"},{"bike_id":"1a0d99f0-ee74-4956-bad4-992b0789ccc7","system_id":"levelo_inurba_marseille","lat":43.211926,"lon":5.350707,"is_reserved":false,"is_disabled":false,"rental_uris":{"android":"levelo://app?vid=1a0d99f0-ee74-4956-bad4-992b0789ccc7","ios":"levelo://app?vid=1a0d99f0-ee74-4956-bad4-992b0789ccc7"},"vehicle_type_id":"4","last_reported":1770828757,"current_range_meters":8000,"station_id":"st_cvj6sg6p6f1abm77japg","pricing_plan_id":"cebpf4jnsgd1na2vs0mg"},{"bike_id":"e44df137-3a9f-4865-a2d3-769a6f5bfc14","system_id":"levelo_inurba_marseille","lat":43.309115,"lon":5.368533,"is_reserved":false,"is_disabled":false,"rental_uris":{"android":"levelo://app?vid=e44df137-3a9f-4865-a2d3-769a6f5bfc14","ios":"levelo://app?vid=e44df137-3a9f-4865-a2d3-769a6f5bfc14"},"vehicle_type_id":"4","last_reported":1770828757,"current_range_meters":8000,"station_id":"","pricing_plan_id":"cebpf4jnsgd1na2vs0mg"},{"bike_id":"ab7260d3-0b60-4920-bd6e-553838fbba97","system_id":"levelo_inurba_marseille","lat":43.30471,"lon":5.40199,"is_reserved":false,"is_disabled":false,"rental_uris":{"android":"levelo://app?vid=ab7260d3-0b60-4920-bd6e-553838fbba97","ios":"levelo://app?vid=ab7260d3-0b60-4920-bd6e-553838fbba97"},"vehicle_type_id":"4","last_reported":1770828757,"current_range_meters":8000,"station_id":"","pricing_plan_id":"cebpf4jnsgd1na2vs0mg"},{"bike_id":"818f7e62-80e1-4580-b763-ddea918ede6b","system_id":"levelo_inurba_marseille","lat":43.2957,"lon":5.37526,"is_reserved":false,"is_disabled":false,"rental_uris":{"android":"levelo://app?vid=818f7e62-80e1-4580-b763-ddea918ede6b","ios":"levelo://app?vid=818f7e62-80e1-4580-b763-ddea918ede6b"},"vehicle_type_id":"4","last_reported":1770828757,"current_range_meters":8000,"station_id":"ce4bgh92rcd13ifvqb50","pricing_plan_id":"cebpf4jnsgd1na2vs0mg"},{"bike_id":"fdcca747-1f0c-4265-9d25-6a349973ec5d","system_id":"levelo_inurba_marseille","lat":43.331618,"lon":5.376946,"is_reserved":false,"is_disabled":false,"rental_uris":{"android":"levelo://app?vid=fdcca747-1f0c-4265-9d25-6a349973ec5d","ios":"levelo://app?vid=fdcca747-1f0c-4265-9d25-6a349973ec5d"},"vehicle_type_id":"4","last_reported":1770828757,"current_range_meters":8000,"station_id":"st_d46cu089ee8s73dldbu0","pricing_plan_id":"cebpf4jnsgd1na2vs0mg"},{"bike_id":"cc8657f3-cee0-4726-8427-1495a502b0dc","system_id":"levelo_inurba_marseille","lat":43.29777,"lon":5.42766,"is_reserved":false,"is_disabled":false,"rental_uris":{"android":"levelo://app?vid=cc8657f3-cee0-4726-8427-1495a502b0dc","ios":"levelo://app?vid=cc8657f3-cee0-4726-8427-1495a502b0dc"},"vehicle_type_id":"4","last_reported":1770828757,"current_range_meters":8000,"station_id":"st_d3md5207bmas73dh9klg","pricing_plan_id":"cebpf4jnsgd1na2vs0mg"},{"bike_id":"d373c67d-1dce-4200-b1fc-e555d3a72522","system_id":"levelo_inurba_marseille","lat":43.301301,"lon":5.374211,"is_reserved":false,"is_disabled":false,"rental_uris":{"android":"levelo://app?vid=d373c67d-1dce-4200-b1fc-e555d3a72522","ios":"levelo://app?vid=d373c67d-1dce-4200-b1fc-e555d3a72522"},"vehicle_type_id":"4","last_reported":1770828757,"current_range_meters":8000,"station_id":"ce4bgs92rcd13ifvqcc0","pricing_plan_id":"cebpf4jnsgd1na2vs0mg"},{"bike_id":"ac9a885a-fe7d-4871-905c-95e91acf3aa8","system_id":"levelo_inurba_marseille","lat":43.2257,"lon":5.4161,"is_reserved":false,"is_disabled":false,"rental_uris":{"android":"levelo://app?vid=ac9a885a-fe7d-4871-905c-95e91acf3aa8","ios":"levelo://app?vid=ac9a885a-fe7d-4871-905c-95e91acf3aa8"},"vehicle_type_id":"4","last_reported":1770828757,"current_range_meters":8000,"station_id":"st_d2o4gvlbi1j2169b742g","pricing_plan_id":"cebpf4jnsgd1na2vs0mg"},{"bike_id":"2a63844a-84ce-42ba-a570-71001293621e","system_id":"levelo_inurba_marseille","lat":43.30801,"lon":5.43542,"is_reserved":false,"is_disabled":false,"rental_uris":{"android":"levelo://app?vid=2a63844a-84ce-42ba-a570-71001293621e","ios":"levelo://app?vid=2a63844a-84ce-42ba-a570-71001293621e"},"vehicle_type_id":"4","last_reported":1770828757,"current_range_meters":8000,"station_id":"","pricing_plan_id":"cebpf4jnsgd1na2vs0mg"},{"bike_id":"80402ecf-b8d7-4b37-a51b-bc25571b17fe","system_id":"levelo_inurba_marseille","lat":43.26223,"lon":5.40453,"is_reserved":false,"is_disabled":true,"rental_uris":{"android":"levelo://app?vid=80402ecf-b8d7-4b37-a51b-bc25571b17fe","ios":"levelo://app?vid=80402ecf-b8d7-4b37-a51b-bc25571b17fe"},"vehicle_type_id":"4","last_reported":1770828757,"current_range_meters":8000,"station_id":"ce4bhmh2rcd13ifvqgmg","pricing_plan_id":"cebpf4jnsgd1na2vs0mg"},{"bike_id":"cc43a2a6-4df1-46ee-89a5-e5908a5338ed","system_id":"levelo_inurba_marseille","lat":43.2848,"lon":5.48388,"is_reserved":false,"is_disabled":false,"rental_uris":{"android":"levelo://app?vid=cc43a2a6-4df1-46ee-89a5-e5908a5338ed","ios":"levelo://app?vid=cc43a2a6-4df1-46ee-89a5-e5908a5338ed"},"vehicle_type_id":"4","last_reported":1770828757,"current_range_meters":8000,"station_id":"st_d3svhcjqgbts73a3dn0g","pricing_plan_id":"cebpf4jnsgd1na2vs0mg"},{"bike_id":"5c22b533-5492-411e-bf62-99b42d617d21","system_id":"levelo_inurba_marseille","lat":43.30736,"lon":5.37085,"is_reserved":false,"is_disabled":false,"rental_uris":{"android":"levelo://app?vid=5c22b533-5492-411e-bf62-99b42d617d21","ios":"levelo://app?vid=5c22b533-5492-411e-bf62-99b42d617d21"},"vehicle_type_id":"4","last_reported":1770828757,"current_range_meters":8000,"station_id":"","pricing_plan_id":"cebpf4jnsgd1na2vs0mg"},{"bike_id":"e5f6fbc0-79bf-4a02-84c6-e4620cc9aeec","system_id":"levelo_inurba_marseille","lat":43.29031,"lon":5.38667,"is_reserved":false,"is_disabled":false,"rental_uris":{"android":"levelo://app?vid=e5f6fbc0-79bf-4a02-84c6-e4620cc9aeec","ios":"levelo://app?vid=e5f6fbc0-79bf-4a02-84c6-e4620cc9aeec"},"vehicle_type_id":"4","last_reported":1770828757,"current_range_meters":8400,"station_id":"ce4bh4p2rcd13ifvqe0g","pricing_plan_id":"cebpf4jnsgd1na2vs0mg"},{"bike_id":"d1638ea7-5b1b-4ee4-be84-163e00ab235e","system_id":"levelo_inurba_marseille","lat":43.29245,"lon":5.40894,"is_reserved":false,"is_disabled":false,"rental_uris":{"android":"levelo://app?vid=d1638ea7-5b1b-4ee4-be84-163e00ab235e","ios":"levelo://app?vid=d1638ea7-5b1b-4ee4-be84-163e00ab235e"},"vehicle_type_id":"4","last_reported":1770828757,"current_range_meters":8400,"station_id":"ce4bh192rcd13ifvqdc0","pricing_plan_id":"cebpf4jnsgd1na2vs0mg"},{"bike_id":"834da72d-2e32-479e-bc3f-592da1e51209","system_id":"levelo_inurba_marseille","lat":43.272055,"lon":5.422415,"is_reserved":false,"is_disabled":false,"rental_uris":{"android":"levelo://app?vid=834da72d-2e32-479e-bc3f-592da1e51209","ios":"levelo://app?vid=834da72d-2e32-479e-bc3f-592da1e51209"},"vehicle_type_id":"4","last_reported":1770828757,"current_range_meters":8400,"station_id":"ce4bhk92rcd13ifvqgb0","pricing_plan_id":"cebpf4jnsgd1na2vs0mg"},{"bike_id":"9c4fa197-e784-47a1-9a3e-1e64aa186f14","system_id":"levelo_inurba_marseille","lat":43.25959,"lon":5.40892,"is_reserved":false,"is_disabled":false,"rental_uris":{"android":"levelo://app?vid=9c4fa197-e784-47a1-9a3e-1e64aa186f14","ios":"levelo://app?vid=9c4fa197-e784-47a1-9a3e-1e64aa186f14"},"vehicle_type_id":"4","last_reported":1770828757,"current_range_meters":8400,"station_id":"ce4bhm92rcd13ifvqglg","pricing_plan_id":"cebpf4jnsgd1na2vs0mg"},{"bike_id":"a2b474a3-a0d6-4f0d-a61f-548a19d4ada4","system_id":"levelo_inurba_marseille","lat":43.30435,"lon":5.38879,"is_reserved":false,"is_disabled":false,"rental_uris":{"android":"levelo://app?vid=a2b474a3-a0d6-4f0d-a61f-548a19d4ada4","ios":"levelo://app?vid=a2b474a3-a0d6-4f0d-a61f-548a19d4ada4"},"vehicle_type_id":"4","last_reported":1770828757,"current_range_meters":8400,"station_id":"ce4bgk12rcd13ifvqbi0","pricing_plan_id":"cebpf4jnsgd1na2vs0mg"},{"bike_id":"4878db2c-1746-4e84-a2dc-9ef31135b542","system_id":"levelo_inurba_marseille","lat":43.25873,"lon":5.39905,"is_reserved":false,"is_disabled":false,"rental_uris":{"android":"levelo://app?vid=4878db2c-1746-4e84-a2dc-9ef31135b542","ios":"levelo://app?vid=4878db2c-1746-4e84-a2dc-9ef31135b542"},"vehicle_type_id":"4","last_reported":1770828757,"current_range_meters":8400,"station_id":"ce4bhl92rcd13ifvqghg","pricing_plan_id":"cebpf4jnsgd1na2vs0mg"},{"bike_id":"d997c6b7-acb1-4efa-ae35-2d8c161e2e69","system_id":"levelo_inurba_marseille","lat":43.23187,"lon":5.35537,"is_reserved":false,"is_disabled":false,"rental_uris":{"android":"levelo://app?vid=d997c6b7-acb1-4efa-ae35-2d8c161e2e69","ios":"levelo://app?vid=d997c6b7-acb1-4efa-ae35-2d8c161e2e69"},"vehicle_type_id":"4","last_reported":1770828757,"current_range_meters":8400,"station_id":"ce4bhu92rcd13ifvqi70","pricing_plan_id":"cebpf4jnsgd1na2vs0mg"},{"bike_id":"1e4a7842-cd51-4881-b298-8b4cc321effe","system_id":"levelo_inurba_marseille","lat":43.24384,"lon":5.37068,"is_reserved":false,"is_disabled":false,"rental_uris":{"android":"levelo://app?vid=1e4a7842-cd51-4881-b298-8b4cc321effe","ios":"levelo://app?vid=1e4a7842-cd51-4881-b298-8b4cc321effe"},"vehicle_type_id":"4","last_reported":1770828757,"current_range_meters":8400,"station_id":"ce4bhhh2rcd13ifvqfk0","pricing_plan_id":"cebpf4jnsgd1na2vs0mg"},{"bike_id":"5fda65b6-7f98-4bf6-b2de-a2c95ed917cc","system_id":"levelo_inurba_marseille","lat":43.25448,"lon":5.38448,"is_reserved":false,"is_disabled":false,"rental_uris":{"android":"levelo://app?vid=5fda65b6-7f98-4bf6-b2de-a2c95ed917cc","ios":"levelo://app?vid=5fda65b6-7f98-4bf6-b2de-a2c95ed917cc"},"vehicle_type_id":"4","last_reported":1770828757,"current_range_meters":8400,"station_id":"","pricing_plan_id":"cebpf4jnsgd1na2vs0mg"},{"bike_id":"4669d1c1-dd67-40ce-ad2b-240b8e02370d","system_id":"levelo_inurba_marseille","lat":43.28151,"lon":5.42633,"is_reserved":false,"is_disabled":false,"rental_uris":{"android":"levelo://app?vid=4669d1c1-dd67-40ce-ad2b-240b8e02370d","ios":"levelo://app?vid=4669d1c1-dd67-40ce-ad2b-240b8e02370d"},"vehicle_type_id":"4","last_reported":1770828757,"current_range_meters":8400,"station_id":"ce4bhnh2rcd13ifvqgug","pricing_plan_id":"cebpf4jnsgd1na2vs0mg"},{"bike_id":"937ab96f-1605-4150-9968-100b6e472e21","system_id":"levelo_inurba_marseille","lat":43.28662,"lon":5.38667,"is_reserved":false,"is_disabled":false,"rental_uris":{"android":"levelo://app?vid=937ab96f-1605-4150-9968-100b6e472e21","ios":"levelo://app?vid=937ab96f-1605-4150-9968-100b6e472e21"},"vehicle_type_id":"4","last_reported":1770828757,"current_range_meters":8400,"station_id":"ce4bh492rcd13ifvqdug","pricing_plan_id":"cebpf4jnsgd1na2vs0mg"},{"bike_id":"c022001b-4259-453f-9edb-75d2d44c5c65","system_id":"levelo_inurba_marseille","lat":43.27205,"lon":5.39187,"is_reserved":false,"is_disabled":false,"rental_uris":{"android":"levelo://app?vid=c022001b-4259-453f-9edb-75d2d44c5c65","ios":"levelo://app?vid=c022001b-4259-453f-9edb-75d2d44c5c65"},"vehicle_type_id":"4","last_reported":1770828757,"current_range_meters":8400,"station_id":"ce4bhhp2rcd13ifvqfm0","pricing_plan_id":"cebpf4jnsgd1na2vs0mg"},{"bike_id":"1ef2e3fb-a11e-4cc4-96b5-ecbfbbb8d188","system_id":"levelo_inurba_marseille","lat":43.314908,"lon":5.373073,"is_reserved":false,"is_disabled":false,"rental_uris":{"android":"levelo://app?vid=1ef2e3fb-a11e-4cc4-96b5-ecbfbbb8d188","ios":"levelo://app?vid=1ef2e3fb-a11e-4cc4-96b5-ecbfbbb8d188"},"vehicle_type_id":"4","last_reported":1770828757,"current_range_meters":8400,"station_id":"ce4bgt12rcd13ifvqcd0","pricing_plan_id":"cebpf4jnsgd1na2vs0mg"},{"bike_id":"60144355-c5a2-4b27-9517-15dba4ba79a0","system_id":"levelo_inurba_marseille","lat":43.25587,"lon":5.38202,"is_reserved":false,"is_disabled":true,"rental_uris":{"android":"levelo://app?vid=60144355-c5a2-4b27-9517-15dba4ba79a0","ios":"levelo://app?vid=60144355-c5a2-4b27-9517-15dba4ba79a0"},"vehicle_type_id":"4","last_reported":1770828757,"current_range_meters":8400,"station_id":"ce4bhih2rcd13ifvqfs0","pricing_plan_id":"cebpf4jnsgd1na2vs0mg"},{"bike_id":"23b0e40a-159b-416b-a95a-ca43ad5a5c7f","system_id":"levelo_inurba_marseille","lat":43.30796,"lon":5.3813,"is_reserved":false,"is_disabled":false,"rental_uris":{"android":"levelo://app?vid=23b0e40a-159b-416b-a95a-ca43ad5a5c7f","ios":"levelo://app?vid=23b0e40a-159b-416b-a95a-ca43ad5a5c7f"},"vehicle_type_id":"4","last_reported":1770828757,"current_range_meters":8400,"station_id":"ce4bgt12rcd13ifvqce0","pricing_plan_id":"cebpf4jnsgd1na2vs0mg"},{"bike_id":"babdcd4a-655b-4e95-88f5-77a8529739da","system_id":"levelo_inurba_marseille","lat":43.22577,"lon":5.41621,"is_reserved":false,"is_disabled":false,"rental_uris":{"android":"levelo://app?vid=babdcd4a-655b-4e95-88f5-77a8529739da","ios":"levelo://app?vid=babdcd4a-655b-4e95-88f5-77a8529739da"},"vehicle_type_id":"4","last_reported":1770828757,"current_range_meters":8400,"station_id":"st_d2o4gvlbi1j2169b742g","pricing_plan_id":"cebpf4jnsgd1na2vs0mg"},{"bike_id":"15672496-3a78-4add-adb7-f2f914bf9a6b","system_id":"levelo_inurba_marseille","lat":43.2678,"lon":5.39412,"is_reserved":false,"is_disabled":false,"rental_uris":{"android":"levelo://app?vid=15672496-3a78-4add-adb7-f2f914bf9a6b","ios":"levelo://app?vid=15672496-3a78-4add-adb7-f2f914bf9a6b"},"vehicle_type_id":"4","last_reported":1770828757,"current_range_meters":8400,"station_id":"ce4bhh12rcd13ifvqfg0","pricing_plan_id":"cebpf4jnsgd1na2vs0mg"},{"bike_id":"ba0fa74d-ce5e-44fd-a5cc-ddcf7d064716","system_id":"levelo_inurba_marseille","lat":43.31755,"lon":5.39016,"is_reserved":false,"is_disabled":false,"rental_uris":{"android":"levelo://app?vid=ba0fa74d-ce5e-44fd-a5cc-ddcf7d064716","ios":"levelo://app?vid=ba0fa74d-ce5e-44fd-a5cc-ddcf7d064716"},"vehicle_type_id":"4","last_reported":1770828757,"current_range_meters":8400,"station_id":"ce4bhqp2rcd13ifvqhng","pricing_plan_id":"cebpf4jnsgd1na2vs0mg"},{"bike_id":"2f502656-fdcf-47f5-b80c-8234b8ae195d","system_id":"levelo_inurba_marseille","lat":43.292593,"lon":5.3845,"is_reserved":false,"is_disabled":false,"rental_uris":{"android":"levelo://app?vid=2f502656-fdcf-47f5-b80c-8234b8ae195d","ios":"levelo://app?vid=2f502656-fdcf-47f5-b80c-8234b8ae195d"},"vehicle_type_id":"4","last_reported":1770828757,"current_range_meters":8400,"station_id":"ce4bh692rcd13ifvqea0","pricing_plan_id":"cebpf4jnsgd1na2vs0mg"},{"bike_id":"fe85a283-164e-4135-8ab7-7e2210250f6e","system_id":"levelo_inurba_marseille","lat":43.260634,"lon":5.39386,"is_reserved":false,"is_disabled":false,"rental_uris":{"android":"levelo://app?vid=fe85a283-164e-4135-8ab7-7e2210250f6e","ios":"levelo://app?vid=fe85a283-164e-4135-8ab7-7e2210250f6e"},"vehicle_type_id":"4","last_reported":1770828757,"current_range_meters":8800,"station_id":"ce4bhh92rcd13ifvqfj0","pricing_plan_id":"cebpf4jnsgd1na2vs0mg"},{"bike_id":"c1d994da-b33c-4a64-a196-28f0ec7412ca","system_id":"levelo_inurba_marseille","lat":43.317146,"lon":5.436986,"is_reserved":false,"is_disabled":false,"rental_uris":{"android":"levelo://app?vid=c1d994da-b33c-4a64-a196-28f0ec7412ca","ios":"levelo://app?vid=c1d994da-b33c-4a64-a196-28f0ec7412ca"},"vehicle_type_id":"4","last_reported":1770828757,"current_range_meters":8800,"station_id":"ce4bhp92rcd13ifvqhcg","pricing_plan_id":"cebpf4jnsgd1na2vs0mg"},{"bike_id":"7fc97d41-93f4-4aca-8689-c280baa88c55","system_id":"levelo_inurba_marseille","lat":43.27918,"lon":5.3959,"is_reserved":false,"is_disabled":false,"rental_uris":{"android":"levelo://app?vid=7fc97d41-93f4-4aca-8689-c280baa88c55","ios":"levelo://app?vid=7fc97d41-93f4-4aca-8689-c280baa88c55"},"vehicle_type_id":"4","last_reported":1770828757,"current_range_meters":8800,"station_id":"ce4bhf92rcd13ifvqf40","pricing_plan_id":"cebpf4jnsgd1na2vs0mg"},{"bike_id":"abb916b3-74af-4c17-94d0-fe9eafd044ff","system_id":"levelo_inurba_marseille","lat":43.29595,"lon":5.37492,"is_reserved":false,"is_disabled":false,"rental_uris":{"android":"levelo://app?vid=abb916b3-74af-4c17-94d0-fe9eafd044ff","ios":"levelo://app?vid=abb916b3-74af-4c17-94d0-fe9eafd044ff"},"vehicle_type_id":"4","last_reported":1770828757,"current_range_meters":8800,"station_id":"ce4bgh92rcd13ifvqb50","pricing_plan_id":"cebpf4jnsgd1na2vs0mg"},{"bike_id":"9e3bc487-b0e5-43b2-98b8-caa6f87f206e","system_id":"levelo_inurba_marseille","lat":43.31722,"lon":5.37767,"is_reserved":false,"is_disabled":false,"rental_uris":{"android":"levelo://app?vid=9e3bc487-b0e5-43b2-98b8-caa6f87f206e","ios":"levelo://app?vid=9e3bc487-b0e5-43b2-98b8-caa6f87f206e"},"vehicle_type_id":"4","last_reported":1770828757,"current_range_meters":8800,"station_id":"ce4bgth2rcd13ifvqch0","pricing_plan_id":"cebpf4jnsgd1na2vs0mg"},{"bike_id":"d6ac2655-5d13-492c-96b2-0753705b3ccf","system_id":"levelo_inurba_marseille","lat":43.301446,"lon":5.374192,"is_reserved":false,"is_disabled":false,"rental_uris":{"android":"levelo://app?vid=d6ac2655-5d13-492c-96b2-0753705b3ccf","ios":"levelo://app?vid=d6ac2655-5d13-492c-96b2-0753705b3ccf"},"vehicle_type_id":"4","last_reported":1770828757,"current_range_meters":8800,"station_id":"ce4bgs92rcd13ifvqcc0","pricing_plan_id":"cebpf4jnsgd1na2vs0mg"},{"bike_id":"9b586055-3525-4e43-ae53-8d6c2fff45ed","system_id":"levelo_inurba_marseille","lat":43.24186,"lon":5.36394,"is_reserved":false,"is_disabled":false,"rental_uris":{"android":"levelo://app?vid=9b586055-3525-4e43-ae53-8d6c2fff45ed","ios":"levelo://app?vid=9b586055-3525-4e43-ae53-8d6c2fff45ed"},"vehicle_type_id":"4","last_reported":1770828757,"current_range_meters":8800,"station_id":"cpo36qri1sfpv3e86is0","pricing_plan_id":"cebpf4jnsgd1na2vs0mg"},{"bike_id":"6af64e8d-c1ed-42a1-8114-ee5a72327546","system_id":"levelo_inurba_marseille","lat":43.295058,"lon":5.374978,"is_reserved":false,"is_disabled":false,"rental_uris":{"android":"levelo://app?vid=6af64e8d-c1ed-42a1-8114-ee5a72327546","ios":"levelo://app?vid=6af64e8d-c1ed-42a1-8114-ee5a72327546"},"vehicle_type_id":"4","last_reported":1770828757,"current_range_meters":8800,"station_id":"ce4bgkp2rcd13ifvqbmg","pricing_plan_id":"cebpf4jnsgd1na2vs0mg"},{"bike_id":"93baa0ec-a0c4-4597-b8f7-88493043b210","system_id":"levelo_inurba_marseille","lat":43.29593,"lon":5.38095,"is_reserved":false,"is_disabled":false,"rental_uris":{"android":"levelo://app?vid=93baa0ec-a0c4-4597-b8f7-88493043b210","ios":"levelo://app?vid=93baa0ec-a0c4-4597-b8f7-88493043b210"},"vehicle_type_id":"4","last_reported":1770828757,"current_range_meters":8800,"station_id":"ce4bgl12rcd13ifvqbo0","pricing_plan_id":"cebpf4jnsgd1na2vs0mg"},{"bike_id":"7a2bf39a-c9c5-48a5-b92a-048902bad3dc","system_id":"levelo_inurba_marseille","lat":43.27064,"lon":5.42263,"is_reserved":false,"is_disabled":false,"rental_uris":{"android":"levelo://app?vid=7a2bf39a-c9c5-48a5-b92a-048902bad3dc","ios":"levelo://app?vid=7a2bf39a-c9c5-48a5-b92a-048902bad3dc"},"vehicle_type_id":"4","last_reported":1770828757,"current_range_meters":8800,"station_id":"ce4bhk92rcd13ifvqgb0","pricing_plan_id":"cebpf4jnsgd1na2vs0mg"},{"bike_id":"22be9a8d-b802-405f-9043-650c2d1b08cc","system_id":"levelo_inurba_marseille","lat":43.29257,"lon":5.38431,"is_reserved":false,"is_disabled":false,"rental_uris":{"android":"levelo://app?vid=22be9a8d-b802-405f-9043-650c2d1b08cc","ios":"levelo://app?vid=22be9a8d-b802-405f-9043-650c2d1b08cc"},"vehicle_type_id":"4","last_reported":1770828757,"current_range_meters":8800,"station_id":"ce4bh692rcd13ifvqea0","pricing_plan_id":"cebpf4jnsgd1na2vs0mg"},{"bike_id":"8b4b38ac-f6cb-48ed-90a4-30149ea67fd7","system_id":"levelo_inurba_marseille","lat":43.29114,"lon":5.39981,"is_reserved":false,"is_disabled":false,"rental_uris":{"android":"levelo://app?vid=8b4b38ac-f6cb-48ed-90a4-30149ea67fd7","ios":"levelo://app?vid=8b4b38ac-f6cb-48ed-90a4-30149ea67fd7"},"vehicle_type_id":"4","last_reported":1770828757,"current_range_meters":8800,"station_id":"","pricing_plan_id":"cebpf4jnsgd1na2vs0mg"},{"bike_id":"1aa7be06-2ed4-4c44-a9f4-272296410d90","system_id":"levelo_inurba_marseille","lat":43.28727,"lon":5.37941,"is_reserved":false,"is_disabled":false,"rental_uris":{"android":"levelo://app?vid=1aa7be06-2ed4-4c44-a9f4-272296410d90","ios":"levelo://app?vid=1aa7be06-2ed4-4c44-a9f4-272296410d90"},"vehicle_type_id":"4","last_reported":1770828757,"current_range_meters":8800,"station_id":"ce4bh9p2rcd13ifvqec0","pricing_plan_id":"cebpf4jnsgd1na2vs0mg"},{"bike_id":"57351653-d95b-427e-a910-65f6831a1a30","system_id":"levelo_inurba_marseille","lat":43.31276,"lon":5.377517,"is_reserved":false,"is_disabled":false,"rental_uris":{"android":"levelo://app?vid=57351653-d95b-427e-a910-65f6831a1a30","ios":"levelo://app?vid=57351653-d95b-427e-a910-65f6831a1a30"},"vehicle_type_id":"4","last_reported":1770828757,"current_range_meters":8800,"station_id":"","pricing_plan_id":"cebpf4jnsgd1na2vs0mg"},{"bike_id":"d4d2a98b-17ca-4577-a2c5-93181ed06231","system_id":"levelo_inurba_marseille","lat":43.26942,"lon":5.40245,"is_reserved":false,"is_disabled":false,"rental_uris":{"android":"levelo://app?vid=d4d2a98b-17ca-4577-a2c5-93181ed06231","ios":"levelo://app?vid=d4d2a98b-17ca-4577-a2c5-93181ed06231"},"vehicle_type_id":"4","last_reported":1770828757,"current_range_meters":9200,"station_id":"cjm6bp8fraef2m0cb0m0","pricing_plan_id":"cebpf4jnsgd1na2vs0mg"},{"bike_id":"8e298756-702e-457c-bb9c-74d840066687","system_id":"levelo_inurba_marseille","lat":43.29002,"lon":5.35598,"is_reserved":false,"is_disabled":false,"rental_uris":{"android":"levelo://app?vid=8e298756-702e-457c-bb9c-74d840066687","ios":"levelo://app?vid=8e298756-702e-457c-bb9c-74d840066687"},"vehicle_type_id":"4","last_reported":1770828757,"current_range_meters":9200,"station_id":"ce4bhb92rcd13ifvqen0","pricing_plan_id":"cebpf4jnsgd1na2vs0mg"},{"bike_id":"f80528f9-6bb1-4b22-a63c-5e57ad403fb2","system_id":"levelo_inurba_marseille","lat":43.246645,"lon":5.381552,"is_reserved":false,"is_disabled":false,"rental_uris":{"android":"levelo://app?vid=f80528f9-6bb1-4b22-a63c-5e57ad403fb2","ios":"levelo://app?vid=f80528f9-6bb1-4b22-a63c-5e57ad403fb2"},"vehicle_type_id":"4","last_reported":1770828757,"current_range_meters":9200,"station_id":"ce4bhih2rcd13ifvqfr0","pricing_plan_id":"cebpf4jnsgd1na2vs0mg"},{"bike_id":"661c1ad9-8e78-490b-aa77-0dd317a910f6","system_id":"levelo_inurba_marseille","lat":43.27201,"lon":5.39192,"is_reserved":false,"is_disabled":true,"rental_uris":{"android":"levelo://app?vid=661c1ad9-8e78-490b-aa77-0dd317a910f6","ios":"levelo://app?vid=661c1ad9-8e78-490b-aa77-0dd317a910f6"},"vehicle_type_id":"4","last_reported":1770828757,"current_range_meters":9200,"station_id":"ce4bhhp2rcd13ifvqfm0","pricing_plan_id":"cebpf4jnsgd1na2vs0mg"},{"bike_id":"d378ec50-834f-4dcf-a2ec-6c7d81b7ac2d","system_id":"levelo_inurba_marseille","lat":43.2998,"lon":5.38483,"is_reserved":false,"is_disabled":false,"rental_uris":{"android":"levelo://app?vid=d378ec50-834f-4dcf-a2ec-6c7d81b7ac2d","ios":"levelo://app?vid=d378ec50-834f-4dcf-a2ec-6c7d81b7ac2d"},"vehicle_type_id":"4","last_reported":1770828757,"current_range_meters":9200,"station_id":"ce4bgj92rcd13ifvqbd0","pricing_plan_id":"cebpf4jnsgd1na2vs0mg"},{"bike_id":"406b8143-680c-411e-8da6-8818c609b259","system_id":"levelo_inurba_marseille","lat":43.22932,"lon":5.35372,"is_reserved":false,"is_disabled":false,"rental_uris":{"android":"levelo://app?vid=406b8143-680c-411e-8da6-8818c609b259","ios":"levelo://app?vid=406b8143-680c-411e-8da6-8818c609b259"},"vehicle_type_id":"4","last_reported":1770828757,"current_range_meters":9200,"station_id":"cpo3532slgdg3j2ikp40","pricing_plan_id":"cebpf4jnsgd1na2vs0mg"},{"bike_id":"60fbe695-1590-4d4e-9f79-8ee300fe75b7","system_id":"levelo_inurba_marseille","lat":43.29314,"lon":5.37177,"is_reserved":false,"is_disabled":false,"rental_uris":{"android":"levelo://app?vid=60fbe695-1590-4d4e-9f79-8ee300fe75b7","ios":"levelo://app?vid=60fbe695-1590-4d4e-9f79-8ee300fe75b7"},"vehicle_type_id":"4","last_reported":1770828757,"current_range_meters":9200,"station_id":"ce4bgh92rcd13ifvqb40","pricing_plan_id":"cebpf4jnsgd1na2vs0mg"},{"bike_id":"8bc06c3d-9e42-4386-974b-fe6c24a34ad1","system_id":"levelo_inurba_marseille","lat":43.24181,"lon":5.39712,"is_reserved":false,"is_disabled":false,"rental_uris":{"android":"levelo://app?vid=8bc06c3d-9e42-4386-974b-fe6c24a34ad1","ios":"levelo://app?vid=8bc06c3d-9e42-4386-974b-fe6c24a34ad1"},"vehicle_type_id":"4","last_reported":1770828757,"current_range_meters":9200,"station_id":"ce4bhn12rcd13ifvqgpg","pricing_plan_id":"cebpf4jnsgd1na2vs0mg"},{"bike_id":"fe4ee05c-ad4b-4888-9cc1-3bef96c9edd8","system_id":"levelo_inurba_marseille","lat":43.24465,"lon":5.42529,"is_reserved":false,"is_disabled":false,"rental_uris":{"android":"levelo://app?vid=fe4ee05c-ad4b-4888-9cc1-3bef96c9edd8","ios":"levelo://app?vid=fe4ee05c-ad4b-4888-9cc1-3bef96c9edd8"},"vehicle_type_id":"4","last_reported":1770828757,"current_range_meters":9200,"station_id":"st_d4a3vfp97mjs738cd8kg","pricing_plan_id":"cebpf4jnsgd1na2vs0mg"},{"bike_id":"31a7a706-1ff4-486d-b0ea-aa0afb881a3f","system_id":"levelo_inurba_marseille","lat":43.31069,"lon":5.38492,"is_reserved":false,"is_disabled":false,"rental_uris":{"android":"levelo://app?vid=31a7a706-1ff4-486d-b0ea-aa0afb881a3f","ios":"levelo://app?vid=31a7a706-1ff4-486d-b0ea-aa0afb881a3f"},"vehicle_type_id":"4","last_reported":1770828757,"current_range_meters":9200,"station_id":"","pricing_plan_id":"cebpf4jnsgd1na2vs0mg"},{"bike_id":"48e51c2c-d55f-4098-8ec5-eb37bd86ae9a","system_id":"levelo_inurba_marseille","lat":43.284046,"lon":5.389406,"is_reserved":false,"is_disabled":false,"rental_uris":{"android":"levelo://app?vid=48e51c2c-d55f-4098-8ec5-eb37bd86ae9a","ios":"levelo://app?vid=48e51c2c-d55f-4098-8ec5-eb37bd86ae9a"},"vehicle_type_id":"4","last_reported":1770828757,"current_range_meters":9200,"station_id":"","pricing_plan_id":"cebpf4jnsgd1na2vs0mg"},{"bike_id":"c66db0ad-2c7f-4464-999e-e8465fece01c","system_id":"levelo_inurba_marseille","lat":43.26886,"lon":5.38929,"is_reserved":false,"is_disabled":false,"rental_uris":{"android":"levelo://app?vid=c66db0ad-2c7f-4464-999e-e8465fece01c","ios":"levelo://app?vid=c66db0ad-2c7f-4464-999e-e8465fece01c"},"vehicle_type_id":"4","last_reported":1770828757,"current_range_meters":9200,"station_id":"","pricing_plan_id":"cebpf4jnsgd1na2vs0mg"},{"bike_id":"5e4347fe-f533-4d97-bca0-6e402e5a5f2e","system_id":"levelo_inurba_marseille","lat":43.28859,"lon":5.3584,"is_reserved":false,"is_disabled":false,"rental_uris":{"android":"levelo://app?vid=5e4347fe-f533-4d97-bca0-6e402e5a5f2e","ios":"levelo://app?vid=5e4347fe-f533-4d97-bca0-6e402e5a5f2e"},"vehicle_type_id":"4","last_reported":1770828757,"current_range_meters":9200,"station_id":"ce4bhb12rcd13ifvqem0","pricing_plan_id":"cebpf4jnsgd1na2vs0mg"},{"bike_id":"9cc69006-ea52-4b81-9572-ad30fd871300","system_id":"levelo_inurba_marseille","lat":43.2928,"lon":5.36849,"is_reserved":false,"is_disabled":false,"rental_uris":{"android":"levelo://app?vid=9cc69006-ea52-4b81-9572-ad30fd871300","ios":"levelo://app?vid=9cc69006-ea52-4b81-9572-ad30fd871300"},"vehicle_type_id":"4","last_reported":1770828757,"current_range_meters":9200,"station_id":"ce4bhbp2rcd13ifvqesg","pricing_plan_id":"cebpf4jnsgd1na2vs0mg"},{"bike_id":"a444677b-f760-475f-b1cf-4e7fc39a990b","system_id":"levelo_inurba_marseille","lat":43.301383,"lon":5.374156,"is_reserved":false,"is_disabled":false,"rental_uris":{"android":"levelo://app?vid=a444677b-f760-475f-b1cf-4e7fc39a990b","ios":"levelo://app?vid=a444677b-f760-475f-b1cf-4e7fc39a990b"},"vehicle_type_id":"4","last_reported":1770828757,"current_range_meters":9200,"station_id":"ce4bgs92rcd13ifvqcc0","pricing_plan_id":"cebpf4jnsgd1na2vs0mg"},{"bike_id":"2cca75dc-5976-46c1-b086-5fa1f834d361","system_id":"levelo_inurba_marseille","lat":43.27338,"lon":5.39059,"is_reserved":false,"is_disabled":false,"rental_uris":{"android":"levelo://app?vid=2cca75dc-5976-46c1-b086-5fa1f834d361","ios":"levelo://app?vid=2cca75dc-5976-46c1-b086-5fa1f834d361"},"vehicle_type_id":"4","last_reported":1770828757,"current_range_meters":9200,"station_id":"ce4bhgp2rcd13ifvqfe0","pricing_plan_id":"cebpf4jnsgd1na2vs0mg"},{"bike_id":"ff1842e4-09b0-4bc8-b576-095e598b5eac","system_id":"levelo_inurba_marseille","lat":43.28707,"lon":5.38661,"is_reserved":false,"is_disabled":false,"rental_uris":{"android":"levelo://app?vid=ff1842e4-09b0-4bc8-b576-095e598b5eac","ios":"levelo://app?vid=ff1842e4-09b0-4bc8-b576-095e598b5eac"},"vehicle_type_id":"4","last_reported":1770828757,"current_range_meters":9600,"station_id":"ce4bh492rcd13ifvqdug","pricing_plan_id":"cebpf4jnsgd1na2vs0mg"},{"bike_id":"adedccca-d77d-4967-91ed-2661b5b510ba","system_id":"levelo_inurba_marseille","lat":43.22566,"lon":5.41619,"is_reserved":false,"is_disabled":false,"rental_uris":{"android":"levelo://app?vid=adedccca-d77d-4967-91ed-2661b5b510ba","ios":"levelo://app?vid=adedccca-d77d-4967-91ed-2661b5b510ba"},"vehicle_type_id":"4","last_reported":1770828757,"current_range_meters":9600,"station_id":"st_d2o4gvlbi1j2169b742g","pricing_plan_id":"cebpf4jnsgd1na2vs0mg"},{"bike_id":"5068638c-4d4f-48b9-94c9-8b2df037c592","system_id":"levelo_inurba_marseille","lat":43.31272,"lon":5.385085,"is_reserved":false,"is_disabled":false,"rental_uris":{"android":"levelo://app?vid=5068638c-4d4f-48b9-94c9-8b2df037c592","ios":"levelo://app?vid=5068638c-4d4f-48b9-94c9-8b2df037c592"},"vehicle_type_id":"4","last_reported":1770828757,"current_range_meters":9600,"station_id":"","pricing_plan_id":"cebpf4jnsgd1na2vs0mg"},{"bike_id":"000c82de-f460-431e-b45f-718e86635144","system_id":"levelo_inurba_marseille","lat":43.29864,"lon":5.39726,"is_reserved":false,"is_disabled":false,"rental_uris":{"android":"levelo://app?vid=000c82de-f460-431e-b45f-718e86635144","ios":"levelo://app?vid=000c82de-f460-431e-b45f-718e86635144"},"vehicle_type_id":"4","last_reported":1770828757,"current_range_meters":9600,"station_id":"ce4bh0h2rcd13ifvqd50","pricing_plan_id":"cebpf4jnsgd1na2vs0mg"},{"bike_id":"f8c2a03c-396c-4124-8d60-3ab09acdd809","system_id":"levelo_inurba_marseille","lat":43.24951,"lon":5.40487,"is_reserved":false,"is_disabled":false,"rental_uris":{"android":"levelo://app?vid=f8c2a03c-396c-4124-8d60-3ab09acdd809","ios":"levelo://app?vid=f8c2a03c-396c-4124-8d60-3ab09acdd809"},"vehicle_type_id":"4","last_reported":1770828757,"current_range_meters":9600,"station_id":"st_d2ngiaodas8pm72gd1h0","pricing_plan_id":"cebpf4jnsgd1na2vs0mg"},{"bike_id":"048b85e1-5a53-4c85-9711-e9625c85da14","system_id":"levelo_inurba_marseille","lat":43.296179,"lon":5.377155,"is_reserved":false,"is_disabled":false,"rental_uris":{"android":"levelo://app?vid=048b85e1-5a53-4c85-9711-e9625c85da14","ios":"levelo://app?vid=048b85e1-5a53-4c85-9711-e9625c85da14"},"vehicle_type_id":"4","last_reported":1770828757,"current_range_meters":9600,"station_id":"ce4bgi92rcd13ifvqb90","pricing_plan_id":"cebpf4jnsgd1na2vs0mg"},{"bike_id":"b3b1cfa9-06d9-4251-9ec7-9fecdb5ce4ba","system_id":"levelo_inurba_marseille","lat":43.31175,"lon":5.3905,"is_reserved":false,"is_disabled":false,"rental_uris":{"android":"levelo://app?vid=b3b1cfa9-06d9-4251-9ec7-9fecdb5ce4ba","ios":"levelo://app?vid=b3b1cfa9-06d9-4251-9ec7-9fecdb5ce4ba"},"vehicle_type_id":"4","last_reported":1770828757,"current_range_meters":9600,"station_id":"","pricing_plan_id":"cebpf4jnsgd1na2vs0mg"},{"bike_id":"cbdd0bdb-adaa-4d58-9692-6abec5f43f59","system_id":"levelo_inurba_marseille","lat":43.26053,"lon":5.39385,"is_reserved":false,"is_disabled":false,"rental_uris":{"android":"levelo://app?vid=cbdd0bdb-adaa-4d58-9692-6abec5f43f59","ios":"levelo://app?vid=cbdd0bdb-adaa-4d58-9692-6abec5f43f59"},"vehicle_type_id":"4","last_reported":1770828757,"current_range_meters":9600,"station_id":"ce4bhh92rcd13ifvqfj0","pricing_plan_id":"cebpf4jnsgd1na2vs0mg"},{"bike_id":"038fa6f0-b1bd-4a27-9676-87fb0f3362a5","system_id":"levelo_inurba_marseille","lat":43.29532,"lon":5.3855,"is_reserved":false,"is_disabled":false,"rental_uris":{"android":"levelo://app?vid=038fa6f0-b1bd-4a27-9676-87fb0f3362a5","ios":"levelo://app?vid=038fa6f0-b1bd-4a27-9676-87fb0f3362a5"},"vehicle_type_id":"4","last_reported":1770828757,"current_range_meters":9600,"station_id":"ce4bgih2rcd13ifvqba0","pricing_plan_id":"cebpf4jnsgd1na2vs0mg"},{"bike_id":"cb9be5fc-0f8f-4012-b222-62b158765b42","system_id":"levelo_inurba_marseille","lat":43.22935,"lon":5.353767,"is_reserved":false,"is_disabled":false,"rental_uris":{"android":"levelo://app?vid=cb9be5fc-0f8f-4012-b222-62b158765b42","ios":"levelo://app?vid=cb9be5fc-0f8f-4012-b222-62b158765b42"},"vehicle_type_id":"4","last_reported":1770828757,"current_range_meters":9600,"station_id":"cpo3532slgdg3j2ikp40","pricing_plan_id":"cebpf4jnsgd1na2vs0mg"},{"bike_id":"6d146b90-da11-4bbb-b527-7da7e2561db2","system_id":"levelo_inurba_marseille","lat":43.28479,"lon":5.48388,"is_reserved":false,"is_disabled":false,"rental_uris":{"android":"levelo://app?vid=6d146b90-da11-4bbb-b527-7da7e2561db2","ios":"levelo://app?vid=6d146b90-da11-4bbb-b527-7da7e2561db2"},"vehicle_type_id":"4","last_reported":1770828757,"current_range_meters":10000,"station_id":"st_d3svhcjqgbts73a3dn0g","pricing_plan_id":"cebpf4jnsgd1na2vs0mg"},{"bike_id":"97914c26-4c50-432a-8476-ffd5d8f9b649","system_id":"levelo_inurba_marseille","lat":43.295691,"lon":5.375094,"is_reserved":false,"is_disabled":false,"rental_uris":{"android":"levelo://app?vid=97914c26-4c50-432a-8476-ffd5d8f9b649","ios":"levelo://app?vid=97914c26-4c50-432a-8476-ffd5d8f9b649"},"vehicle_type_id":"4","last_reported":1770828757,"current_range_meters":10000,"station_id":"ce4bgh92rcd13ifvqb50","pricing_plan_id":"cebpf4jnsgd1na2vs0mg"},{"bike_id":"14f61e44-8496-49e1-8819-a0328677c7db","system_id":"levelo_inurba_marseille","lat":43.24969,"lon":5.40461,"is_reserved":false,"is_disabled":false,"rental_uris":{"android":"levelo://app?vid=14f61e44-8496-49e1-8819-a0328677c7db","ios":"levelo://app?vid=14f61e44-8496-49e1-8819-a0328677c7db"},"vehicle_type_id":"4","last_reported":1770828757,"current_range_meters":10000,"station_id":"st_d2ngiaodas8pm72gd1h0","pricing_plan_id":"cebpf4jnsgd1na2vs0mg"},{"bike_id":"8f3a9ea3-3d5f-4beb-8e6c-40222b0c90d4","system_id":"levelo_inurba_marseille","lat":43.28357,"lon":5.35326,"is_reserved":false,"is_disabled":false,"rental_uris":{"android":"levelo://app?vid=8f3a9ea3-3d5f-4beb-8e6c-40222b0c90d4","ios":"levelo://app?vid=8f3a9ea3-3d5f-4beb-8e6c-40222b0c90d4"},"vehicle_type_id":"4","last_reported":1770828757,"current_range_meters":10000,"station_id":"","pricing_plan_id":"cebpf4jnsgd1na2vs0mg"},{"bike_id":"a909f6ef-5881-491a-8666-b67aed7141ed","system_id":"levelo_inurba_marseille","lat":43.29616,"lon":5.37723,"is_reserved":false,"is_disabled":false,"rental_uris":{"android":"levelo://app?vid=a909f6ef-5881-491a-8666-b67aed7141ed","ios":"levelo://app?vid=a909f6ef-5881-491a-8666-b67aed7141ed"},"vehicle_type_id":"4","last_reported":1770828757,"current_range_meters":10000,"station_id":"ce4bgi92rcd13ifvqb90","pricing_plan_id":"cebpf4jnsgd1na2vs0mg"},{"bike_id":"d98f09ff-8b59-4519-baee-c61bc86adc1e","system_id":"levelo_inurba_marseille","lat":43.29465,"lon":5.43285,"is_reserved":false,"is_disabled":false,"rental_uris":{"android":"levelo://app?vid=d98f09ff-8b59-4519-baee-c61bc86adc1e","ios":"levelo://app?vid=d98f09ff-8b59-4519-baee-c61bc86adc1e"},"vehicle_type_id":"4","last_reported":1770828757,"current_range_meters":10000,"station_id":"st_d3j5ugp08ojc73fj9d10","pricing_plan_id":"cebpf4jnsgd1na2vs0mg"},{"bike_id":"2209ef8d-bd27-438f-86b3-f981234cb150","system_id":"levelo_inurba_marseille","lat":43.30971,"lon":5.36825,"is_reserved":false,"is_disabled":false,"rental_uris":{"android":"levelo://app?vid=2209ef8d-bd27-438f-86b3-f981234cb150","ios":"levelo://app?vid=2209ef8d-bd27-438f-86b3-f981234cb150"},"vehicle_type_id":"4","last_reported":1770828757,"current_range_meters":10000,"station_id":"","pricing_plan_id":"cebpf4jnsgd1na2vs0mg"},{"bike_id":"464590f7-013f-45c9-96ea-74fca7d439b2","system_id":"levelo_inurba_marseille","lat":43.305591,"lon":5.368788,"is_reserved":false,"is_disabled":false,"rental_uris":{"android":"levelo://app?vid=464590f7-013f-45c9-96ea-74fca7d439b2","ios":"levelo://app?vid=464590f7-013f-45c9-96ea-74fca7d439b2"},"vehicle_type_id":"4","last_reported":1770828757,"current_range_meters":10000,"station_id":"","pricing_plan_id":"cebpf4jnsgd1na2vs0mg"},{"bike_id":"a6a2abc2-13d8-4c9a-b978-8487fe9fcbf5","system_id":"levelo_inurba_marseille","lat":43.2585,"lon":5.39459,"is_reserved":false,"is_disabled":false,"rental_uris":{"android":"levelo://app?vid=a6a2abc2-13d8-4c9a-b978-8487fe9fcbf5","ios":"levelo://app?vid=a6a2abc2-13d8-4c9a-b978-8487fe9fcbf5"},"vehicle_type_id":"4","last_reported":1770828757,"current_range_meters":10000,"station_id":"ce4bhip2rcd13ifvqft0","pricing_plan_id":"cebpf4jnsgd1na2vs0mg"},{"bike_id":"f5dfc69a-605e-4870-9f15-288a758bb79e","system_id":"levelo_inurba_marseille","lat":43.297602,"lon":5.42778,"is_reserved":false,"is_disabled":false,"rental_uris":{"android":"levelo://app?vid=f5dfc69a-605e-4870-9f15-288a758bb79e","ios":"levelo://app?vid=f5dfc69a-605e-4870-9f15-288a758bb79e"},"vehicle_type_id":"4","last_reported":1770828757,"current_range_meters":10000,"station_id":"st_d3md5207bmas73dh9klg","pricing_plan_id":"cebpf4jnsgd1na2vs0mg"},{"bike_id":"98c6b091-60d8-421e-9dc2-7858baa3ae0d","system_id":"levelo_inurba_marseille","lat":43.29978,"lon":5.38475,"is_reserved":false,"is_disabled":false,"rental_uris":{"android":"levelo://app?vid=98c6b091-60d8-421e-9dc2-7858baa3ae0d","ios":"levelo://app?vid=98c6b091-60d8-421e-9dc2-7858baa3ae0d"},"vehicle_type_id":"4","last_reported":1770828757,"current_range_meters":10000,"station_id":"ce4bgj92rcd13ifvqbd0","pricing_plan_id":"cebpf4jnsgd1na2vs0mg"},{"bike_id":"5ecdca59-da81-4119-a256-c37296e94b7b","system_id":"levelo_inurba_marseille","lat":43.294959,"lon":5.432973,"is_reserved":false,"is_disabled":false,"rental_uris":{"android":"levelo://app?vid=5ecdca59-da81-4119-a256-c37296e94b7b","ios":"levelo://app?vid=5ecdca59-da81-4119-a256-c37296e94b7b"},"vehicle_type_id":"4","last_reported":1770828757,"current_range_meters":10000,"station_id":"st_d3j5ugp08ojc73fj9d10","pricing_plan_id":"cebpf4jnsgd1na2vs0mg"},{"bike_id":"e14d448d-49bb-4e12-8e00-cdd2d93b1b1a","system_id":"levelo_inurba_marseille","lat":43.30642,"lon":5.40096,"is_reserved":false,"is_disabled":false,"rental_uris":{"android":"levelo://app?vid=e14d448d-49bb-4e12-8e00-cdd2d93b1b1a","ios":"levelo://app?vid=e14d448d-49bb-4e12-8e00-cdd2d93b1b1a"},"vehicle_type_id":"4","last_reported":1770828757,"current_range_meters":10000,"station_id":"ce4bh112rcd13ifvqda0","pricing_plan_id":"cebpf4jnsgd1na2vs0mg"},{"bike_id":"24324037-d7ff-4592-9507-5162a0917c00","system_id":"levelo_inurba_marseille","lat":43.29594,"lon":5.38079,"is_reserved":false,"is_disabled":false,"rental_uris":{"android":"levelo://app?vid=24324037-d7ff-4592-9507-5162a0917c00","ios":"levelo://app?vid=24324037-d7ff-4592-9507-5162a0917c00"},"vehicle_type_id":"4","last_reported":1770828757,"current_range_meters":10000,"station_id":"ce4bgl12rcd13ifvqbo0","pricing_plan_id":"cebpf4jnsgd1na2vs0mg"},{"bike_id":"924e6b1e-5c94-4c62-b058-bb2958f8e114","system_id":"levelo_inurba_marseille","lat":43.29617,"lon":5.37709,"is_reserved":false,"is_disabled":false,"rental_uris":{"android":"levelo://app?vid=924e6b1e-5c94-4c62-b058-bb2958f8e114","ios":"levelo://app?vid=924e6b1e-5c94-4c62-b058-bb2958f8e114"},"vehicle_type_id":"4","last_reported":1770828757,"current_range_meters":10000,"station_id":"ce4bgi92rcd13ifvqb90","pricing_plan_id":"cebpf4jnsgd1na2vs0mg"},{"bike_id":"de6f0d5c-fad7-42b9-8b07-4ffe092d4067","system_id":"levelo_inurba_marseille","lat":43.29015,"lon":5.38122,"is_reserved":false,"is_disabled":false,"rental_uris":{"android":"levelo://app?vid=de6f0d5c-fad7-42b9-8b07-4ffe092d4067","ios":"levelo://app?vid=de6f0d5c-fad7-42b9-8b07-4ffe092d4067"},"vehicle_type_id":"4","last_reported":1770828757,"current_range_meters":10000,"station_id":"ce4bh4p2rcd13ifvqe1g","pricing_plan_id":"cebpf4jnsgd1na2vs0mg"},{"bike_id":"1666b265-643d-41e7-bcc3-6167a6d49f91","system_id":"levelo_inurba_marseille","lat":43.22542,"lon":5.34828,"is_reserved":false,"is_disabled":false,"rental_uris":{"android":"levelo://app?vid=1666b265-643d-41e7-bcc3-6167a6d49f91","ios":"levelo://app?vid=1666b265-643d-41e7-bcc3-6167a6d49f91"},"vehicle_type_id":"4","last_reported":1770828757,"current_range_meters":10800,"station_id":"","pricing_plan_id":"cebpf4jnsgd1na2vs0mg"},{"bike_id":"6200f329-1439-4b61-852c-303d0b0e133f","system_id":"levelo_inurba_marseille","lat":43.25577,"lon":5.38231,"is_reserved":false,"is_disabled":false,"rental_uris":{"android":"levelo://app?vid=6200f329-1439-4b61-852c-303d0b0e133f","ios":"levelo://app?vid=6200f329-1439-4b61-852c-303d0b0e133f"},"vehicle_type_id":"4","last_reported":1770828757,"current_range_meters":10800,"station_id":"ce4bhih2rcd13ifvqfs0","pricing_plan_id":"cebpf4jnsgd1na2vs0mg"},{"bike_id":"f9a47204-6891-476d-957f-ba89322ec136","system_id":"levelo_inurba_marseille","lat":43.30209,"lon":5.394755,"is_reserved":false,"is_disabled":false,"rental_uris":{"android":"levelo://app?vid=f9a47204-6891-476d-957f-ba89322ec136","ios":"levelo://app?vid=f9a47204-6891-476d-957f-ba89322ec136"},"vehicle_type_id":"4","last_reported":1770828757,"current_range_meters":10800,"station_id":"ce4bh0p2rcd13ifvqd70","pricing_plan_id":"cebpf4jnsgd1na2vs0mg"},{"bike_id":"5f6ae4c8-a7cd-4f3b-9adf-671bbd618c70","system_id":"levelo_inurba_marseille","lat":43.255758,"lon":5.382416,"is_reserved":false,"is_disabled":false,"rental_uris":{"android":"levelo://app?vid=5f6ae4c8-a7cd-4f3b-9adf-671bbd618c70","ios":"levelo://app?vid=5f6ae4c8-a7cd-4f3b-9adf-671bbd618c70"},"vehicle_type_id":"4","last_reported":1770828757,"current_range_meters":10800,"station_id":"ce4bhih2rcd13ifvqfs0","pricing_plan_id":"cebpf4jnsgd1na2vs0mg"},{"bike_id":"e42620f4-183e-485a-af88-c36a22e64d51","system_id":"levelo_inurba_marseille","lat":43.23234,"lon":5.39965,"is_reserved":false,"is_disabled":false,"rental_uris":{"android":"levelo://app?vid=e42620f4-183e-485a-af88-c36a22e64d51","ios":"levelo://app?vid=e42620f4-183e-485a-af88-c36a22e64d51"},"vehicle_type_id":"4","last_reported":1770828757,"current_range_meters":10800,"station_id":"","pricing_plan_id":"cebpf4jnsgd1na2vs0mg"},{"bike_id":"7f06f522-e28d-4714-9806-3aca925b3e65","system_id":"levelo_inurba_marseille","lat":43.27985,"lon":5.40031,"is_reserved":false,"is_disabled":false,"rental_uris":{"android":"levelo://app?vid=7f06f522-e28d-4714-9806-3aca925b3e65","ios":"levelo://app?vid=7f06f522-e28d-4714-9806-3aca925b3e65"},"vehicle_type_id":"4","last_reported":1770828757,"current_range_meters":10800,"station_id":"ce4bho92rcd13ifvqh4g","pricing_plan_id":"cebpf4jnsgd1na2vs0mg"},{"bike_id":"075f8382-41cb-4ce6-856b-d4a471c312d7","system_id":"levelo_inurba_marseille","lat":43.29781,"lon":5.39319,"is_reserved":false,"is_disabled":false,"rental_uris":{"android":"levelo://app?vid=075f8382-41cb-4ce6-856b-d4a471c312d7","ios":"levelo://app?vid=075f8382-41cb-4ce6-856b-d4a471c312d7"},"vehicle_type_id":"4","last_reported":1770828757,"current_range_meters":10800,"station_id":"chh1huq6cuj3fo74tm60","pricing_plan_id":"cebpf4jnsgd1na2vs0mg"},{"bike_id":"bb6faa0c-4182-45af-b174-e42f3eae8837","system_id":"levelo_inurba_marseille","lat":43.24656,"lon":5.38897,"is_reserved":false,"is_disabled":false,"rental_uris":{"android":"levelo://app?vid=bb6faa0c-4182-45af-b174-e42f3eae8837","ios":"levelo://app?vid=bb6faa0c-4182-45af-b174-e42f3eae8837"},"vehicle_type_id":"4","last_reported":1770828757,"current_range_meters":10800,"station_id":"ce4bhg12rcd13ifvqf60","pricing_plan_id":"cebpf4jnsgd1na2vs0mg"},{"bike_id":"39ae4df6-4f49-47cf-9236-8d7aa73e74b5","system_id":"levelo_inurba_marseille","lat":43.23165,"lon":5.43708,"is_reserved":false,"is_disabled":false,"rental_uris":{"android":"levelo://app?vid=39ae4df6-4f49-47cf-9236-8d7aa73e74b5","ios":"levelo://app?vid=39ae4df6-4f49-47cf-9236-8d7aa73e74b5"},"vehicle_type_id":"4","last_reported":1770828757,"current_range_meters":10800,"station_id":"ce4bhmp2rcd13ifvqgog","pricing_plan_id":"cebpf4jnsgd1na2vs0mg"},{"bike_id":"18c9be6e-5ee4-4039-a6bb-6662e7c0d312","system_id":"levelo_inurba_marseille","lat":43.295844,"lon":5.375334,"is_reserved":false,"is_disabled":false,"rental_uris":{"android":"levelo://app?vid=18c9be6e-5ee4-4039-a6bb-6662e7c0d312","ios":"levelo://app?vid=18c9be6e-5ee4-4039-a6bb-6662e7c0d312"},"vehicle_type_id":"4","last_reported":1770828757,"current_range_meters":10800,"station_id":"ce4bgh92rcd13ifvqb50","pricing_plan_id":"cebpf4jnsgd1na2vs0mg"},{"bike_id":"e9d4a166-c0a0-4ecf-b7d6-a74c0315a01c","system_id":"levelo_inurba_marseille","lat":43.30219,"lon":5.39476,"is_reserved":false,"is_disabled":false,"rental_uris":{"android":"levelo://app?vid=e9d4a166-c0a0-4ecf-b7d6-a74c0315a01c","ios":"levelo://app?vid=e9d4a166-c0a0-4ecf-b7d6-a74c0315a01c"},"vehicle_type_id":"4","last_reported":1770828757,"current_range_meters":10800,"station_id":"ce4bh0p2rcd13ifvqd70","pricing_plan_id":"cebpf4jnsgd1na2vs0mg"},{"bike_id":"820102d8-4bf3-43d0-bf33-9724fbbf610e","system_id":"levelo_inurba_marseille","lat":43.28169,"lon":5.42633,"is_reserved":false,"is_disabled":false,"rental_uris":{"android":"levelo://app?vid=820102d8-4bf3-43d0-bf33-9724fbbf610e","ios":"levelo://app?vid=820102d8-4bf3-43d0-bf33-9724fbbf610e"},"vehicle_type_id":"4","last_reported":1770828757,"current_range_meters":10800,"station_id":"ce4bhnh2rcd13ifvqgug","pricing_plan_id":"cebpf4jnsgd1na2vs0mg"},{"bike_id":"0bd0023f-da6b-4c9a-8898-a505f61d5f0d","system_id":"levelo_inurba_marseille","lat":43.258667,"lon":5.398945,"is_reserved":false,"is_disabled":false,"rental_uris":{"android":"levelo://app?vid=0bd0023f-da6b-4c9a-8898-a505f61d5f0d","ios":"levelo://app?vid=0bd0023f-da6b-4c9a-8898-a505f61d5f0d"},"vehicle_type_id":"4","last_reported":1770828757,"current_range_meters":10800,"station_id":"ce4bhl92rcd13ifvqghg","pricing_plan_id":"cebpf4jnsgd1na2vs0mg"},{"bike_id":"86e1d4c5-f0d5-4ac9-a3b4-b01be4b40ffe","system_id":"levelo_inurba_marseille","lat":43.265465,"lon":5.372958,"is_reserved":false,"is_disabled":false,"rental_uris":{"android":"levelo://app?vid=86e1d4c5-f0d5-4ac9-a3b4-b01be4b40ffe","ios":"levelo://app?vid=86e1d4c5-f0d5-4ac9-a3b4-b01be4b40ffe"},"vehicle_type_id":"4","last_reported":1770828757,"current_range_meters":10800,"station_id":"ce4bhg12rcd13ifvqf70","pricing_plan_id":"cebpf4jnsgd1na2vs0mg"},{"bike_id":"46795c32-d155-4823-a0f3-872b06d1e11d","system_id":"levelo_inurba_marseille","lat":43.21751,"lon":5.34597,"is_reserved":false,"is_disabled":false,"rental_uris":{"android":"levelo://app?vid=46795c32-d155-4823-a0f3-872b06d1e11d","ios":"levelo://app?vid=46795c32-d155-4823-a0f3-872b06d1e11d"},"vehicle_type_id":"4","last_reported":1770828757,"current_range_meters":10800,"station_id":"","pricing_plan_id":"cebpf4jnsgd1na2vs0mg"},{"bike_id":"02a0ba21-d308-465f-8d37-915e14af622e","system_id":"levelo_inurba_marseille","lat":43.2949,"lon":5.43288,"is_reserved":false,"is_disabled":false,"rental_uris":{"android":"levelo://app?vid=02a0ba21-d308-465f-8d37-915e14af622e","ios":"levelo://app?vid=02a0ba21-d308-465f-8d37-915e14af622e"},"vehicle_type_id":"4","last_reported":1770828757,"current_range_meters":10800,"station_id":"st_d3j5ugp08ojc73fj9d10","pricing_plan_id":"cebpf4jnsgd1na2vs0mg"},{"bike_id":"70e591b0-f2cc-4dab-99cf-08bb3c1008b4","system_id":"levelo_inurba_marseille","lat":43.27391,"lon":5.427,"is_reserved":false,"is_disabled":false,"rental_uris":{"android":"levelo://app?vid=70e591b0-f2cc-4dab-99cf-08bb3c1008b4","ios":"levelo://app?vid=70e591b0-f2cc-4dab-99cf-08bb3c1008b4"},"vehicle_type_id":"4","last_reported":1770828757,"current_range_meters":10800,"station_id":"","pricing_plan_id":"cebpf4jnsgd1na2vs0mg"},{"bike_id":"a86ac5db-c57d-4c36-bdde-2f19c9a16699","system_id":"levelo_inurba_marseille","lat":43.30537,"lon":5.36523,"is_reserved":false,"is_disabled":false,"rental_uris":{"android":"levelo://app?vid=a86ac5db-c57d-4c36-bdde-2f19c9a16699","ios":"levelo://app?vid=a86ac5db-c57d-4c36-bdde-2f19c9a16699"},"vehicle_type_id":"4","last_reported":1770828757,"current_range_meters":10800,"station_id":"ce4bgs12rcd13ifvqcag","pricing_plan_id":"cebpf4jnsgd1na2vs0mg"},