{"last_updated":1747599072,"ttl":60,"version":"2.2","data":{"bikes":[{"bike_id":"68a5d13f-26c9-4c3d-8613-89fb3d97d97b","system_id":"levelo_inurba_marseille","lat":43.2648,"lon":5.39562,"is_reserved":false,"is_disabled":false,"rental_uris":{"android":"levelo://app?vid=68a5d13f-26c9-4c3d-8613-89fb3d97d97b","ios":"levelo://app?vid=68a5d13f-26c9-4c3d-8613-89fb3d97d97b"},"vehicle_type_id":"4","last_reported":1747599073,"current_range_meters":2800,"station_id":"ce4bhi12rcd13ifvqfq0","pricing_plan_id":"cebpf4jnsgd1na2vs0mg"},{"bike_id":"3b843dca-d67a-4b0e-916b-710ebb36ec6d","system_id":"levelo_inurba_marseille","lat":43.32518,"lon":5.40137,"is_reserved":false,"is_disabled":false,"rental_uris":{"android":"levelo://app?vid=3b843dca-d67a-4b0e-916b-710ebb36ec6d","ios":"levelo://app?vid=3b843dca-d67a-4b0e-916b-710ebb36ec6d"},"vehicle_type_id":"4","last_reported":1747599073,"current_range_meters":2800,"station_id":"","pricing_plan_id":"cebpf4jnsgd1na2vs0mg"},{"bike_id":"70f1f2ca-adc9-43a2-9a83-560e63eddc37","system_id":"levelo_inurba_marseille","lat":43.28949,"lon":5.36379,"is_reserved":false,"is_disabled":true,"rental_uris":{"android":"levelo://app?vid=70f1f2ca-adc9-43a2-9a83-560e63eddc37","ios":"levelo://app?vid=70f1f2ca-adc9-43a2-9a83-560e63eddc37"},"vehicle_type_id":"4","last_reported":1747599073,"current_range_meters":2800,"station_id":"ce4bhc92rcd13ifvqetg","pricing_plan_id":"cebpf4jnsgd1na2vs0mg"},{"bike_id":"be98142e-ab99-4f68-b04a-ff2165061bb2","system_id":"levelo_inurba_marseille","lat":43.269509,"lon":5.386314,"is_reserved":false,"is_disabled":true,"rental_uris":{"android":"levelo://app?vid=be98142e-ab99-4f68-b04a-ff2165061bb2","ios":"levelo://app?vid=be98142e-ab99-4f68-b04a-ff2165061bb2"},"vehicle_type_id":"4","last_reported":1747599073,"current_range_meters":2800,"station_id":"ce4bhh92rcd13ifvqfh0","pricing_plan_id":"cebpf4jnsgd1na2vs0mg"},{"bike_id":"776e160d-f10a-421e-8420-e7ae6bfe24d5","system_id":"levelo_inurba_marseille","lat":43.29902,"lon":5.3831,"is_reserved":false,"is_disabled":false,"rental_uris":{"android":"levelo://app?vid=776e160d-f10a-421e-8420-e7ae6bfe24d5","ios":"levelo://app?vid=776e160d-f10a-421e-8420-e7ae6bfe24d5"},"vehicle_type_id":"4","last_reported":1747599073,"current_range_meters":3200,"station_id":"","pricing_plan_id":"cebpf4jnsgd1na2vs0mg"},{"bike_id":"164f210d-05d6-4c74-85f1-414474f5864b","system_id":"levelo_inurba_marseille","lat":43.28143,"lon":5.42652,"is_reserved":false,"is_disabled":false,"rental_uris":{"android":"levelo://app?vid=164f210d-05d6-4c74-85f1-414474f5864b","ios":"levelo://app?vid=164f210d-05d6-4c74-85f1-414474f5864b"},"vehicle_type_id":"4","last_reported":1747599073,"current_range_meters":3600,"station_id":"ce4bhnh2rcd13ifvqgug","pricing_plan_id":"cebpf4jnsgd1na2vs0mg"},{"bike_id":"aa1d8c1e-7594-4615-aa13-56fdebb973d7","system_id":"levelo_inurba_marseille","lat":43.26865,"lon":5.39157,"is_reserved":false,"is_disabled":false,"rental_uris":{"android":"levelo://app?vid=aa1d8c1e-7594-4615-aa13-56fdebb973d7","ios":"levelo://app?vid=aa1d8c1e-7594-4615-aa13-56fdebb973d7"},"vehicle_type_id":"4","last_reported":1747599073,"current_range_meters":3600,"station_id":"","pricing_plan_id":"cebpf4jnsgd1na2vs0mg"},{"bike_id":"34a50d07-14b8-4d27-9d94-c1996d01cc8d","system_id":"levelo_inurba_marseille","lat":43.27935,"lon":5.41051,"is_reserved":false,"is_disabled":false,"rental_uris":{"android":"levelo://app?vid=34a50d07-14b8-4d27-9d94-c1996d01cc8d","ios":"levelo://app?vid=34a50d07-14b8-4d27-9d94-c1996d01cc8d"},"vehicle_type_id":"4","last_reported":1747599073,"current_range_meters":4000,"station_id":"ce4bhnp2rcd13ifvqh0g","pricing_plan_id":"cebpf4jnsgd1na2vs0mg"},{"bike_id":"c1b9fa33-9c2d-40ce-9979-b53b7ae668ed","system_id":"levelo_inurba_marseille","lat":43.28152,"lon":5.42647,"is_reserved":false,"is_disabled":true,"rental_uris":{"android":"levelo://app?vid=c1b9fa33-9c2d-40ce-9979-b53b7ae668ed","ios":"levelo://app?vid=c1b9fa33-9c2d-40ce-9979-b53b7ae668ed"},"vehicle_type_id":"4","last_reported":1747599073,"current_range_meters":4000,"station_id":"ce4bhnh2rcd13ifvqgug","pricing_plan_id":"cebpf4jnsgd1na2vs0mg"},{"bike_id":"28f3c1c0-b600-41b2-9181-91e859abb47e","system_id":"levelo_inurba_marseille","lat":43.29886,"lon":5.38898,"is_reserved":false,"is_disabled":false,"rental_uris":{"android":"levelo://app?vid=28f3c1c0-b600-41b2-9181-91e859abb47e","ios":"levelo://app?vid=28f3c1c0-b600-41b2-9181-91e859abb47e"},"vehicle_type_id":"4","last_reported":1747599073,"current_range_meters":4400,"station_id":"ce4bh392rcd13ifvqdl0","pricing_plan_id":"cebpf4jnsgd1na2vs0mg"},{"bike_id":"0d2b9e6e-624c-46b7-83ca-e52fcd5f7aeb","system_id":"levelo_inurba_marseille","lat":43.25495,"lon":5.37646,"is_reserved":false,"is_disabled":false,"rental_uris":{"android":"levelo://app?vid=0d2b9e6e-624c-46b7-83ca-e52fcd5f7aeb","ios":"levelo://app?vid=0d2b9e6e-624c-46b7-83ca-e52fcd5f7aeb"},"vehicle_type_id":"4","last_reported":1747599073,"current_range_meters":4800,"station_id":"ce4bhh12rcd13ifvqff0","pricing_plan_id":"cebpf4jnsgd1na2vs0mg"},{"bike_id":"ad201fd8-43d4-4e13-b393-60400b28cd6f","system_id":"levelo_inurba_marseille","lat":43.24075,"lon":5.37749,"is_reserved":false,"is_disabled":false,"rental_uris":{"android":"levelo://app?vid=ad201fd8-43d4-4e13-b393-60400b28cd6f","ios":"levelo://app?vid=ad201fd8-43d4-4e13-b393-60400b28cd6f"},"vehicle_type_id":"4","last_reported":1747599073,"current_range_meters":4800,"station_id":"ce4bhnp2rcd13ifvqgvg","pricing_plan_id":"cebpf4jnsgd1na2vs0mg"},{"bike_id":"b05b1f64-0753-4df6-9d99-52c918cd47ad","system_id":"levelo_inurba_marseille","lat":43.29022,"lon":5.3999,"is_reserved":false,"is_disabled":true,"rental_uris":{"android":"levelo://app?vid=b05b1f64-0753-4df6-9d99-52c918cd47ad","ios":"levelo://app?vid=b05b1f64-0753-4df6-9d99-52c918cd47ad"},"vehicle_type_id":"4","last_reported":1747599073,"current_range_meters":4800,"station_id":"ce4bh392rcd13ifvqdm0","pricing_plan_id":"cebpf4jnsgd1na2vs0mg"},{"bike_id":"b1e588a8-6868-4632-aaf7-01c00ab698a5","system_id":"levelo_inurba_marseille","lat":43.27931,"lon":5.41037,"is_reserved":false,"is_disabled":false,"rental_uris":{"android":"levelo://app?vid=b1e588a8-6868-4632-aaf7-01c00ab698a5","ios":"levelo://app?vid=b1e588a8-6868-4632-aaf7-01c00ab698a5"},"vehicle_type_id":"4","last_reported":1747599073,"current_range_meters":4800,"station_id":"ce4bhnp2rcd13ifvqh0g","pricing_plan_id":"cebpf4jnsgd1na2vs0mg"},{"bike_id":"57964d86-1c22-483b-9848-8baae820599a","system_id":"levelo_inurba_marseille","lat":43.28978,"lon":5.37812,"is_reserved":false,"is_disabled":false,"rental_uris":{"android":"levelo://app?vid=57964d86-1c22-483b-9848-8baae820599a","ios":"levelo://app?vid=57964d86-1c22-483b-9848-8baae820599a"},"vehicle_type_id":"4","last_reported":1747599073,"current_range_meters":4800,"station_id":"ce4bh9p2rcd13ifvqed0","pricing_plan_id":"cebpf4jnsgd1na2vs0mg"},{"bike_id":"b8e6468b-87db-4ff6-8122-ef13bf5b7c8c","system_id":"levelo_inurba_marseille","lat":43.31379,"lon":5.37916,"is_reserved":false,"is_disabled":false,"rental_uris":{"android":"levelo://app?vid=b8e6468b-87db-4ff6-8122-ef13bf5b7c8c","ios":"levelo://app?vid=b8e6468b-87db-4ff6-8122-ef13bf5b7c8c"},"vehicle_type_id":"4","last_reported":1747599073,"current_range_meters":5600,"station_id":"","pricing_plan_id":"cebpf4jnsgd1na2vs0mg"},{"bike_id":"c6fef68a-993a-416e-9332-5080a87a45dd","system_id":"levelo_inurba_marseille","lat":43.26493,"lon":5.39546,"is_reserved":false,"is_disabled":false,"rental_uris":{"android":"levelo://app?vid=c6fef68a-993a-416e-9332-5080a87a45dd","ios":"levelo://app?vid=c6fef68a-993a-416e-9332-5080a87a45dd"},"vehicle_type_id":"4","last_reported":1747599073,"current_range_meters":5600,"station_id":"ce4bhi12rcd13ifvqfq0","pricing_plan_id":"cebpf4jnsgd1na2vs0mg"},{"bike_id":"447bcf14-faf5-46e2-b1a2-319c803b4ffa","system_id":"levelo_inurba_marseille","lat":43.25501,"lon":5.3766,"is_reserved":false,"is_disabled":false,"rental_uris":{"android":"levelo://app?vid=447bcf14-faf5-46e2-b1a2-319c803b4ffa","ios":"levelo://app?vid=447bcf14-faf5-46e2-b1a2-319c803b4ffa"},"vehicle_type_id":"4","last_reported":1747599073,"current_range_meters":5600,"station_id":"ce4bhh12rcd13ifvqff0","pricing_plan_id":"cebpf4jnsgd1na2vs0mg"},{"bike_id":"cbe3f29f-b6d1-4365-887e-ed52d8bb2d41","system_id":"levelo_inurba_marseille","lat":43.33715,"lon":5.39177,"is_reserved":false,"is_disabled":false,"rental_uris":{"android":"levelo://app?vid=cbe3f29f-b6d1-4365-887e-ed52d8bb2d41","ios":"levelo://app?vid=cbe3f29f-b6d1-4365-887e-ed52d8bb2d41"},"vehicle_type_id":"4","last_reported":1747599073,"current_range_meters":6000,"station_id":"ce4bhr92rcd13ifvqhsg","pricing_plan_id":"cebpf4jnsgd1na2vs0mg"},{"bike_id":"398a8fd1-747d-4b0d-84d1-22519fee4719","system_id":"levelo_inurba_marseille","lat":43.27378,"lon":5.3626,"is_reserved":false,"is_disabled":true,"rental_uris":{"android":"levelo://app?vid=398a8fd1-747d-4b0d-84d1-22519fee4719","ios":"levelo://app?vid=398a8fd1-747d-4b0d-84d1-22519fee4719"},"vehicle_type_id":"4","last_reported":1747599073,"current_range_meters":6000,"station_id":"ce4bhbh2rcd13ifvqeo0","pricing_plan_id":"cebpf4jnsgd1na2vs0mg"},{"bike_id":"c99e3425-aa03-474f-a492-40b1e9776c52","system_id":"levelo_inurba_marseille","lat":43.279167,"lon":5.395787,"is_reserved":false,"is_disabled":false,"rental_uris":{"android":"levelo://app?vid=c99e3425-aa03-474f-a492-40b1e9776c52","ios":"levelo://app?vid=c99e3425-aa03-474f-a492-40b1e9776c52"},"vehicle_type_id":"4","last_reported":1747599073,"current_range_meters":6000,"station_id":"ce4bhf92rcd13ifvqf40","pricing_plan_id":"cebpf4jnsgd1na2vs0mg"},{"bike_id":"1c03bd5a-9af5-4f8d-ac22-134ae538c3b5","system_id":"levelo_inurba_marseille","lat":43.23198,"lon":5.39972,"is_reserved":false,"is_disabled":false,"rental_uris":{"android":"levelo://app?vid=1c03bd5a-9af5-4f8d-ac22-134ae538c3b5","ios":"levelo://app?vid=1c03bd5a-9af5-4f8d-ac22-134ae538c3b5"},"vehicle_type_id":"4","last_reported":1747599073,"current_range_meters":6000,"station_id":"ce4bhn12rcd13ifvqgqg","pricing_plan_id":"cebpf4jnsgd1na2vs0mg"},{"bike_id":"1381bd49-568c-425f-bcfd-260613800bb1","system_id":"levelo_inurba_marseille","lat":43.2746,"lon":5.39447,"is_reserved":false,"is_disabled":false,"rental_uris":{"android":"levelo://app?vid=1381bd49-568c-425f-bcfd-260613800bb1","ios":"levelo://app?vid=1381bd49-568c-425f-bcfd-260613800bb1"},"vehicle_type_id":"4","last_reported":1747599073,"current_range_meters":6000,"station_id":"","pricing_plan_id":"cebpf4jnsgd1na2vs0mg"},{"bike_id":"cba2067c-a08b-479c-8b0b-7aae2b36b17b","system_id":"levelo_inurba_marseille","lat":43.24083,"lon":5.37747,"is_reserved":false,"is_disabled":false,"rental_uris":{"android":"levelo://app?vid=cba2067c-a08b-479c-8b0b-7aae2b36b17b","ios":"levelo://app?vid=cba2067c-a08b-479c-8b0b-7aae2b36b17b"},"vehicle_type_id":"4","last_reported":1747599073,"current_range_meters":6000,"station_id":"ce4bhnp2rcd13ifvqgvg","pricing_plan_id":"cebpf4jnsgd1na2vs0mg"},{"bike_id":"af2f3908-848e-4879-9c80-b3ddea1b7f0a","system_id":"levelo_inurba_marseille","lat":43.31198,"lon":5.38765,"is_reserved":false,"is_disabled":true,"rental_uris":{"android":"levelo://app?vid=af2f3908-848e-4879-9c80-b3ddea1b7f0a","ios":"levelo://app?vid=af2f3908-848e-4879-9c80-b3ddea1b7f0a"},"vehicle_type_id":"4","last_reported":1747599073,"current_range_meters":6000,"station_id":"ce4bgv12rcd13ifvqcp0","pricing_plan_id":"cebpf4jnsgd1na2vs0mg"},{"bike_id":"087544fe-9935-411a-8931-8d0ae770681e","system_id":"levelo_inurba_marseille","lat":43.28937,"lon":5.3664,"is_reserved":false,"is_disabled":false,"rental_uris":{"android":"levelo://app?vid=087544fe-9935-411a-8931-8d0ae770681e","ios":"levelo://app?vid=087544fe-9935-411a-8931-8d0ae770681e"},"vehicle_type_id":"4","last_reported":1747599073,"current_range_meters":6000,"station_id":"ce4bhap2rcd13ifvqek0","pricing_plan_id":"cebpf4jnsgd1na2vs0mg"},{"bike_id":"4cccdd02-b97d-4f67-99ae-ff6d685f3592","system_id":"levelo_inurba_marseille","lat":43.32359,"lon":5.36756,"is_reserved":false,"is_disabled":false,"rental_uris":{"android":"levelo://app?vid=4cccdd02-b97d-4f67-99ae-ff6d685f3592","ios":"levelo://app?vid=4cccdd02-b97d-4f67-99ae-ff6d685f3592"},"vehicle_type_id":"4","last_reported":1747599073,"current_range_meters":6400,"station_id":"ce4bhsh2rcd13ifvqi2g","pricing_plan_id":"cebpf4jnsgd1na2vs0mg"},{"bike_id":"c1732061-50e5-483a-b53c-db0e529d9ace","system_id":"levelo_inurba_marseille","lat":43.30265,"lon":5.40055,"is_reserved":false,"is_disabled":false,"rental_uris":{"android":"levelo://app?vid=c1732061-50e5-483a-b53c-db0e529d9ace","ios":"levelo://app?vid=c1732061-50e5-483a-b53c-db0e529d9ace"},"vehicle_type_id":"4","last_reported":1747599073,"current_range_meters":6400,"station_id":"ce4bgvh2rcd13ifvqcs0","pricing_plan_id":"cebpf4jnsgd1na2vs0mg"},{"bike_id":"6b849ac5-c25f-4393-bc5a-47493e693ba8","system_id":"levelo_inurba_marseille","lat":43.24158,"lon":5.36407,"is_reserved":false,"is_disabled":true,"rental_uris":{"android":"levelo://app?vid=6b849ac5-c25f-4393-bc5a-47493e693ba8","ios":"levelo://app?vid=6b849ac5-c25f-4393-bc5a-47493e693ba8"},"vehicle_type_id":"4","last_reported":1747599073,"current_range_meters":6400,"station_id":"cpo36qri1sfpv3e86is0","pricing_plan_id":"cebpf4jnsgd1na2vs0mg"},{"bike_id":"d2840165-1c23-431e-aa0b-16b735842f8a","system_id":"levelo_inurba_marseille","lat":43.28073,"lon":5.39649,"is_reserved":false,"is_disabled":false,"rental_uris":{"android":"levelo://app?vid=d2840165-1c23-431e-aa0b-16b735842f8a","ios":"levelo://app?vid=d2840165-1c23-431e-aa0b-16b735842f8a"},"vehicle_type_id":"4","last_reported":1747599073,"current_range_meters":6800,"station_id":"ce4bho12rcd13ifvqh2g","pricing_plan_id":"cebpf4jnsgd1na2vs0mg"},{"bike_id":"7a82397e-c258-4325-b836-1bc38b80aab5","system_id":"levelo_inurba_marseille","lat":43.24071,"lon":5.37755,"is_reserved":false,"is_disabled":false,"rental_uris":{"android":"levelo://app?vid=7a82397e-c258-4325-b836-1bc38b80aab5","ios":"levelo://app?vid=7a82397e-c258-4325-b836-1bc38b80aab5"},"vehicle_type_id":"4","last_reported":1747599073,"current_range_meters":6800,"station_id":"ce4bhnp2rcd13ifvqgvg","pricing_plan_id":"cebpf4jnsgd1na2vs0mg"},{"bike_id":"54510974-805e-44ca-aeed-f6f214315efd","system_id":"levelo_inurba_marseille","lat":43.270943,"lon":5.398717,"is_reserved":false,"is_disabled":false,"rental_uris":{"android":"levelo://app?vid=54510974-805e-44ca-aeed-f6f214315efd","ios":"levelo://app?vid=54510974-805e-44ca-aeed-f6f214315efd"},"vehicle_type_id":"4","last_reported":1747599073,"current_range_meters":6800,"station_id":"","pricing_plan_id":"cebpf4jnsgd1na2vs0mg"},{"bike_id":"bfe448fb-2f91-4bfc-9f87-682acde35158","system_id":"levelo_inurba_marseille","lat":43.26188,"lon":5.37447,"is_reserved":false,"is_disabled":true,"rental_uris":{"android":"levelo://app?vid=bfe448fb-2f91-4bfc-9f87-682acde35158","ios":"levelo://app?vid=bfe448fb-2f91-4bfc-9f87-682acde35158"},"vehicle_type_id":"4","last_reported":1747599073,"current_range_meters":6800,"station_id":"ce4bhgp2rcd13ifvqfc0","pricing_plan_id":"cebpf4jnsgd1na2vs0mg"},{"bike_id":"b934e6da-efb5-4ac5-a51a-eb50220f6e1b","system_id":"levelo_inurba_marseille","lat":43.269765,"lon":5.405881,"is_reserved":false,"is_disabled":true,"rental_uris":{"android":"levelo://app?vid=b934e6da-efb5-4ac5-a51a-eb50220f6e1b","ios":"levelo://app?vid=b934e6da-efb5-4ac5-a51a-eb50220f6e1b"},"vehicle_type_id":"4","last_reported":1747599073,"current_range_meters":7200,"station_id":"","pricing_plan_id":"cebpf4jnsgd1na2vs0mg"},{"bike_id":"c0db4030-ef30-480b-a735-af5435a471ed","system_id":"levelo_inurba_marseille","lat":43.27766,"lon":5.42665,"is_reserved":false,"is_disabled":false,"rental_uris":{"android":"levelo://app?vid=c0db4030-ef30-480b-a735-af5435a471ed","ios":"levelo://app?vid=c0db4030-ef30-480b-a735-af5435a471ed"},"vehicle_type_id":"4","last_reported":1747599073,"current_range_meters":7200,"station_id":"","pricing_plan_id":"cebpf4jnsgd1na2vs0mg"},{"bike_id":"e5c8a2b0-e20c-401e-819e-2833d3af4a7a","system_id":"levelo_inurba_marseille","lat":43.275117,"lon":5.424487,"is_reserved":false,"is_disabled":false,"rental_uris":{"android":"levelo://app?vid=e5c8a2b0-e20c-401e-819e-2833d3af4a7a","ios":"levelo://app?vid=e5c8a2b0-e20c-401e-819e-2833d3af4a7a"},"vehicle_type_id":"4","last_reported":1747599073,"current_range_meters":7200,"station_id":"ce4bhn92rcd13ifvqgrg","pricing_plan_id":"cebpf4jnsgd1na2vs0mg"},{"bike_id":"06fe1024-4e8e-41f8-b98c-014170736a33","system_id":"levelo_inurba_marseille","lat":43.30885,"lon":5.39659,"is_reserved":false,"is_disabled":false,"rental_uris":{"android":"levelo://app?vid=06fe1024-4e8e-41f8-b98c-014170736a33","ios":"levelo://app?vid=06fe1024-4e8e-41f8-b98c-014170736a33"},"vehicle_type_id":"4","last_reported":1747599073,"current_range_meters":7200,"station_id":"ce4bh012rcd13ifvqcv0","pricing_plan_id":"cebpf4jnsgd1na2vs0mg"},{"bike_id":"e36629fa-e903-4c4e-a768-9e2c98bf4eea","system_id":"levelo_inurba_marseille","lat":43.28164,"lon":5.426386,"is_reserved":false,"is_disabled":false,"rental_uris":{"android":"levelo://app?vid=e36629fa-e903-4c4e-a768-9e2c98bf4eea","ios":"levelo://app?vid=e36629fa-e903-4c4e-a768-9e2c98bf4eea"},"vehicle_type_id":"4","last_reported":1747599073,"current_range_meters":7200,"station_id":"ce4bhnh2rcd13ifvqgug","pricing_plan_id":"cebpf4jnsgd1na2vs0mg"},{"bike_id":"0fb02880-5c6e-4026-9e4a-07529c572b44","system_id":"levelo_inurba_marseille","lat":43.25496,"lon":5.37399,"is_reserved":false,"is_disabled":false,"rental_uris":{"android":"levelo://app?vid=0fb02880-5c6e-4026-9e4a-07529c572b44","ios":"levelo://app?vid=0fb02880-5c6e-4026-9e4a-07529c572b44"},"vehicle_type_id":"4","last_reported":1747599073,"current_range_meters":8000,"station_id":"","pricing_plan_id":"cebpf4jnsgd1na2vs0mg"},{"bike_id":"a647b3a9-9828-4299-94b9-cab174dd5ce9","system_id":"levelo_inurba_marseille","lat":43.2842,"lon":5.37513,"is_reserved":false,"is_disabled":false,"rental_uris":{"android":"levelo://app?vid=a647b3a9-9828-4299-94b9-cab174dd5ce9","ios":"levelo://app?vid=a647b3a9-9828-4299-94b9-cab174dd5ce9"},"vehicle_type_id":"4","last_reported":1747599073,"current_range_meters":8000,"station_id":"ce4bh412rcd13ifvqds0","pricing_plan_id":"cebpf4jnsgd1na2vs0mg"},{"bike_id":"9be12a09-efe5-495b-8ec3-e7e0d7473370","system_id":"levelo_inurba_marseille","lat":43.295978,"lon":5.38103,"is_reserved":false,"is_disabled":true,"rental_uris":{"android":"levelo://app?vid=9be12a09-efe5-495b-8ec3-e7e0d7473370","ios":"levelo://app?vid=9be12a09-efe5-495b-8ec3-e7e0d7473370"},"vehicle_type_id":"4","last_reported":1747599073,"current_range_meters":8000,"station_id":"ce4bgl12rcd13ifvqbo0","pricing_plan_id":"cebpf4jnsgd1na2vs0mg"},{"bike_id":"2104866f-c069-4201-ab61-371f588c2d14","system_id":"levelo_inurba_marseille","lat":43.292373,"lon":5.396551,"is_reserved":false,"is_disabled":false,"rental_uris":{"android":"levelo://app?vid=2104866f-c069-4201-ab61-371f588c2d14","ios":"levelo://app?vid=2104866f-c069-4201-ab61-371f588c2d14"},"vehicle_type_id":"4","last_reported":1747599073,"current_range_meters":7200,"station_id":"ce4bho92rcd13ifvqh3g","pricing_plan_id":"cebpf4jnsgd1na2vs0mg"},{"bike_id":"0c2b5650-b63e-432a-a802-72710d7a63b5","system_id":"levelo_inurba_marseille","lat":43.27918,"lon":5.39579,"is_reserved":false,"is_disabled":false,"rental_uris":{"android":"levelo://app?vid=0c2b5650-b63e-432a-a802-72710d7a63b5","ios":"levelo://app?vid=0c2b5650-b63e-432a-a802-72710d7a63b5"},"vehicle_type_id":"4","last_reported":1747599073,"current_range_meters":8000,"station_id":"ce4bhf92rcd13ifvqf40","pricing_plan_id":"cebpf4jnsgd1na2vs0mg"},{"bike_id":"cbccf890-fa17-48f1-b65e-58927d78a97a","system_id":"levelo_inurba_marseille","lat":43.29446,"lon":5.39747,"is_reserved":false,"is_disabled":false,"rental_uris":{"android":"levelo://app?vid=cbccf890-fa17-48f1-b65e-58927d78a97a","ios":"levelo://app?vid=cbccf890-fa17-48f1-b65e-58927d78a97a"},"vehicle_type_id":"4","last_reported":1747599073,"current_range_meters":8400,"station_id":"ce4bh3h2rcd13ifvqdo0","pricing_plan_id":"cebpf4jnsgd1na2vs0mg"},{"bike_id":"0942a4e0-09d2-4a94-9ccc-136b2604fc2e","system_id":"levelo_inurba_marseille","lat":43.2409,"lon":5.37752,"is_reserved":false,"is_disabled":false,"rental_uris":{"android":"levelo://app?vid=0942a4e0-09d2-4a94-9ccc-136b2604fc2e","ios":"levelo://app?vid=0942a4e0-09d2-4a94-9ccc-136b2604fc2e"},"vehicle_type_id":"4","last_reported":1747599073,"current_range_meters":8400,"station_id":"ce4bhnp2rcd13ifvqgvg","pricing_plan_id":"cebpf4jnsgd1na2vs0mg"},{"bike_id":"cf70bdc6-bf4b-4b90-a8eb-cbe9e3bc2cb0","system_id":"levelo_inurba_marseille","lat":43.28666,"lon":5.36344,"is_reserved":false,"is_disabled":false,"rental_uris":{"android":"levelo://app?vid=cf70bdc6-bf4b-4b90-a8eb-cbe9e3bc2cb0","ios":"levelo://app?vid=cf70bdc6-bf4b-4b90-a8eb-cbe9e3bc2cb0"},"vehicle_type_id":"4","last_reported":1747599073,"current_range_meters":8000,"station_id":"ce4bhah2rcd13ifvqej0","pricing_plan_id":"cebpf4jnsgd1na2vs0mg"},{"bike_id":"14603e41-b2dd-4757-a53c-2e366aa4f983","system_id":"levelo_inurba_marseille","lat":43.26998,"lon":5.428343,"is_reserved":false,"is_disabled":false,"rental_uris":{"android":"levelo://app?vid=14603e41-b2dd-4757-a53c-2e366aa4f983","ios":"levelo://app?vid=14603e41-b2dd-4757-a53c-2e366aa4f983"},"vehicle_type_id":"4","last_reported":1747599073,"current_range_meters":8400,"station_id":"","pricing_plan_id":"cebpf4jnsgd1na2vs0mg"},{"bike_id":"b1e6675a-64b4-4fbc-a190-c2fdd07f79bd","system_id":"levelo_inurba_marseille","lat":43.341443,"lon":5.408947,"is_reserved":false,"is_disabled":false,"rental_uris":{"android":"levelo://app?vid=b1e6675a-64b4-4fbc-a190-c2fdd07f79bd","ios":"levelo://app?vid=b1e6675a-64b4-4fbc-a190-c2fdd07f79bd"},"vehicle_type_id":"4","last_reported":1747599073,"current_range_meters":8800,"station_id":"ce4bhqh2rcd13ifvqhlg","pricing_plan_id":"cebpf4jnsgd1na2vs0mg"},{"bike_id":"2eab994d-a378-4391-894b-b62d11a34041","system_id":"levelo_inurba_marseille","lat":43.23155,"lon":5.43732,"is_reserved":false,"is_disabled":true,"rental_uris":{"android":"levelo://app?vid=2eab994d-a378-4391-894b-b62d11a34041","ios":"levelo://app?vid=2eab994d-a378-4391-894b-b62d11a34041"},"vehicle_type_id":"4","last_reported":1747599073,"current_range_meters":8800,"station_id":"ce4bhmp2rcd13ifvqgog","pricing_plan_id":"cebpf4jnsgd1na2vs0mg"},{"bike_id":"3dbf4202-6716-451d-aeb1-f268340013a7","system_id":"levelo_inurba_marseille","lat":43.31488,"lon":5.37293,"is_reserved":false,"is_disabled":true,"rental_uris":{"android":"levelo://app?vid=3dbf4202-6716-451d-aeb1-f268340013a7","ios":"levelo://app?vid=3dbf4202-6716-451d-aeb1-f268340013a7"},"vehicle_type_id":"4","last_reported":1747599073,"current_range_meters":8800,"station_id":"ce4bgt12rcd13ifvqcd0","pricing_plan_id":"cebpf4jnsgd1na2vs0mg"},{"bike_id":"ffc3ddf2-0082-4578-9e25-c91f5b4279bc","system_id":"levelo_inurba_marseille","lat":43.283097,"lon":5.41135,"is_reserved":false,"is_disabled":false,"rental_uris":{"android":"levelo://app?vid=ffc3ddf2-0082-4578-9e25-c91f5b4279bc","ios":"levelo://app?vid=ffc3ddf2-0082-4578-9e25-c91f5b4279bc"},"vehicle_type_id":"4","last_reported":1747599073,"current_range_meters":8800,"station_id":"","pricing_plan_id":"cebpf4jnsgd1na2vs0mg"},{"bike_id":"f60d54d7-a18a-4c4a-84f4-bfe11384b4dd","system_id":"levelo_inurba_marseille","lat":43.28576,"lon":5.39493,"is_reserved":false,"is_disabled":false,"rental_uris":{"android":"levelo://app?vid=f60d54d7-a18a-4c4a-84f4-bfe11384b4dd","ios":"levelo://app?vid=f60d54d7-a18a-4c4a-84f4-bfe11384b4dd"},"vehicle_type_id":"4","last_reported":1747599073,"current_range_meters":8800,"station_id":"ce4bh292rcd13ifvqdg0","pricing_plan_id":"cebpf4jnsgd1na2vs0mg"},{"bike_id":"caf4c81d-8b81-4d8d-a4f9-9d00bac7ad70","system_id":"levelo_inurba_marseille","lat":43.30785,"lon":5.4277,"is_reserved":false,"is_disabled":false,"rental_uris":{"android":"levelo://app?vid=caf4c81d-8b81-4d8d-a4f9-9d00bac7ad70","ios":"levelo://app?vid=caf4c81d-8b81-4d8d-a4f9-9d00bac7ad70"},"vehicle_type_id":"4","last_reported":1747599073,"current_range_meters":8800,"station_id":"","pricing_plan_id":"cebpf4jnsgd1na2vs0mg"},{"bike_id":"752fccba-7c8c-4704-a985-695310354a1c","system_id":"levelo_inurba_marseille","lat":43.313605,"lon":5.379628,"is_reserved":false,"is_disabled":false,"rental_uris":{"android":"levelo://app?vid=752fccba-7c8c-4704-a985-695310354a1c","ios":"levelo://app?vid=752fccba-7c8c-4704-a985-695310354a1c"},"vehicle_type_id":"4","last_reported":1747599073,"current_range_meters":8800,"station_id":"ce4bhsp2rcd13ifvqi50","pricing_plan_id":"cebpf4jnsgd1na2vs0mg"},{"bike_id":"18eb352e-5aca-4179-9c4e-60e00f0fcc11","system_id":"levelo_inurba_marseille","lat":43.301413,"lon":5.398513,"is_reserved":false,"is_disabled":false,"rental_uris":{"android":"levelo://app?vid=18eb352e-5aca-4179-9c4e-60e00f0fcc11","ios":"levelo://app?vid=18eb352e-5aca-4179-9c4e-60e00f0fcc11"},"vehicle_type_id":"4","last_reported":1747599073,"current_range_meters":8800,"station_id":"ce4bh0h2rcd13ifvqd40","pricing_plan_id":"cebpf4jnsgd1na2vs0mg"},{"bike_id":"7d080336-5a2d-419d-8d50-e49d93450255","system_id":"levelo_inurba_marseille","lat":43.2918,"lon":5.37152,"is_reserved":false,"is_disabled":true,"rental_uris":{"android":"levelo://app?vid=7d080336-5a2d-419d-8d50-e49d93450255","ios":"levelo://app?vid=7d080336-5a2d-419d-8d50-e49d93450255"},"vehicle_type_id":"4","last_reported":1747599073,"current_range_meters":9200,"station_id":"ce4bha92rcd13ifvqeh0","pricing_plan_id":"cebpf4jnsgd1na2vs0mg"},{"bike_id":"67f72f62-eb9d-4994-bbcf-c10b28dd838c","system_id":"levelo_inurba_marseille","lat":43.26602,"lon":5.3934,"is_reserved":false,"is_disabled":false,"rental_uris":{"android":"levelo://app?vid=67f72f62-eb9d-4994-bbcf-c10b28dd838c","ios":"levelo://app?vid=67f72f62-eb9d-4994-bbcf-c10b28dd838c"},"vehicle_type_id":"4","last_reported":1747599073,"current_range_meters":9200,"station_id":"","pricing_plan_id":"cebpf4jnsgd1na2vs0mg"},{"bike_id":"93ad84ba-f15b-47d0-85ec-92be04f05702","system_id":"levelo_inurba_marseille","lat":43.26684,"lon":5.38267,"is_reserved":false,"is_disabled":false,"rental_uris":{"android":"levelo://app?vid=93ad84ba-f15b-47d0-85ec-92be04f05702","ios":"levelo://app?vid=93ad84ba-f15b-47d0-85ec-92be04f05702"},"vehicle_type_id":"4","last_reported":1747599073,"current_range_meters":9200,"station_id":"ce4bhg92rcd13ifvqf90","pricing_plan_id":"cebpf4jnsgd1na2vs0mg"},{"bike_id":"88c266e6-7038-494f-b358-90ca603fb435","system_id":"levelo_inurba_marseille","lat":43.29601,"lon":5.37493,"is_reserved":false,"is_disabled":true,"rental_uris":{"android":"levelo://app?vid=88c266e6-7038-494f-b358-90ca603fb435","ios":"levelo://app?vid=88c266e6-7038-494f-b358-90ca603fb435"},"vehicle_type_id":"4","last_reported":1747599073,"current_range_meters":9200,"station_id":"ce4bgh92rcd13ifvqb50","pricing_plan_id":"cebpf4jnsgd1na2vs0mg"},{"bike_id":"ae42bd22-7398-496a-8ed0-0ecd72431249","system_id":"levelo_inurba_marseille","lat":43.26684,"lon":5.38274,"is_reserved":false,"is_disabled":false,"rental_uris":{"android":"levelo://app?vid=ae42bd22-7398-496a-8ed0-0ecd72431249","ios":"levelo://app?vid=ae42bd22-7398-496a-8ed0-0ecd72431249"},"vehicle_type_id":"4","last_reported":1747599073,"current_range_meters":8800,"station_id":"ce4bhg92rcd13ifvqf90","pricing_plan_id":"cebpf4jnsgd1na2vs0mg"},{"bike_id":"cbe97e30-cde6-4a83-8008-7bb9527bfeec","system_id":"levelo_inurba_marseille","lat":43.27937,"lon":5.41048,"is_reserved":false,"is_disabled":false,"rental_uris":{"android":"levelo://app?vid=cbe97e30-cde6-4a83-8008-7bb9527bfeec","ios":"levelo://app?vid=cbe97e30-cde6-4a83-8008-7bb9527bfeec"},"vehicle_type_id":"4","last_reported":1747599073,"current_range_meters":9200,"station_id":"ce4bhnp2rcd13ifvqh0g","pricing_plan_id":"cebpf4jnsgd1na2vs0mg"},{"bike_id":"43b47f55-f2d2-49ee-8f5f-b100c45adb99","system_id":"levelo_inurba_marseille","lat":43.30926,"lon":5.40144,"is_reserved":false,"is_disabled":false,"rental_uris":{"android":"levelo://app?vid=43b47f55-f2d2-49ee-8f5f-b100c45adb99","ios":"levelo://app?vid=43b47f55-f2d2-49ee-8f5f-b100c45adb99"},"vehicle_type_id":"4","last_reported":1747599073,"current_range_meters":9200,"station_id":"ce4bgvp2rcd13ifvqct0","pricing_plan_id":"cebpf4jnsgd1na2vs0mg"},{"bike_id":"6e1bd625-3ec1-43df-9657-36d71ae09f8d","system_id":"levelo_inurba_marseille","lat":43.33748,"lon":5.37479,"is_reserved":false,"is_disabled":false,"rental_uris":{"android":"levelo://app?vid=6e1bd625-3ec1-43df-9657-36d71ae09f8d","ios":"levelo://app?vid=6e1bd625-3ec1-43df-9657-36d71ae09f8d"},"vehicle_type_id":"4","last_reported":1747599073,"current_range_meters":9200,"station_id":"","pricing_plan_id":"cebpf4jnsgd1na2vs0mg"},{"bike_id":"a24fc048-16a2-43c0-9060-fe201f8cfd55","system_id":"levelo_inurba_marseille","lat":43.273221,"lon":5.39068,"is_reserved":false,"is_disabled":false,"rental_uris":{"android":"levelo://app?vid=a24fc048-16a2-43c0-9060-fe201f8cfd55","ios":"levelo://app?vid=a24fc048-16a2-43c0-9060-fe201f8cfd55"},"vehicle_type_id":"4","last_reported":1747599073,"current_range_meters":9600,"station_id":"","pricing_plan_id":"cebpf4jnsgd1na2vs0mg"},{"bike_id":"7f0ace03-7713-450f-9267-3795dd07890b","system_id":"levelo_inurba_marseille","lat":43.29265,"lon":5.38442,"is_reserved":false,"is_disabled":false,"rental_uris":{"android":"levelo://app?vid=7f0ace03-7713-450f-9267-3795dd07890b","ios":"levelo://app?vid=7f0ace03-7713-450f-9267-3795dd07890b"},"vehicle_type_id":"4","last_reported":1747599073,"current_range_meters":9600,"station_id":"ce4bh692rcd13ifvqea0","pricing_plan_id":"cebpf4jnsgd1na2vs0mg"},{"bike_id":"15fd0ebc-4b8f-419d-8317-fa7a57812ffe","system_id":"levelo_inurba_marseille","lat":43.2318,"lon":5.39992,"is_reserved":false,"is_disabled":false,"rental_uris":{"android":"levelo://app?vid=15fd0ebc-4b8f-419d-8317-fa7a57812ffe","ios":"levelo://app?vid=15fd0ebc-4b8f-419d-8317-fa7a57812ffe"},"vehicle_type_id":"4","last_reported":1747599073,"current_range_meters":9200,"station_id":"ce4bhn12rcd13ifvqgqg","pricing_plan_id":"cebpf4jnsgd1na2vs0mg"},{"bike_id":"ed115b2f-48db-4076-b706-1dc4fbdba899","system_id":"levelo_inurba_marseille","lat":43.24385,"lon":5.37059,"is_reserved":false,"is_disabled":false,"rental_uris":{"android":"levelo://app?vid=ed115b2f-48db-4076-b706-1dc4fbdba899","ios":"levelo://app?vid=ed115b2f-48db-4076-b706-1dc4fbdba899"},"vehicle_type_id":"4","last_reported":1747599073,"current_range_meters":9200,"station_id":"ce4bhhh2rcd13ifvqfk0","pricing_plan_id":"cebpf4jnsgd1na2vs0mg"},{"bike_id":"1b2f0e19-c9dc-4000-8367-67c619535c14","system_id":"levelo_inurba_marseille","lat":43.299508,"lon":5.365231,"is_reserved":false,"is_disabled":true,"rental_uris":{"android":"levelo://app?vid=1b2f0e19-c9dc-4000-8367-67c619535c14","ios":"levelo://app?vid=1b2f0e19-c9dc-4000-8367-67c619535c14"},"vehicle_type_id":"4","last_reported":1747599073,"current_range_meters":9600,"station_id":"ce4bgm92rcd13ifvqbr0","pricing_plan_id":"cebpf4jnsgd1na2vs0mg"},{"bike_id":"9b55a1e0-14da-4879-90dc-b321de5c8345","system_id":"levelo_inurba_marseille","lat":43.29773,"lon":5.38113,"is_reserved":false,"is_disabled":true,"rental_uris":{"android":"levelo://app?vid=9b55a1e0-14da-4879-90dc-b321de5c8345","ios":"levelo://app?vid=9b55a1e0-14da-4879-90dc-b321de5c8345"},"vehicle_type_id":"4","last_reported":1747599073,"current_range_meters":9600,"station_id":"ce4bgip2rcd13ifvqbb0","pricing_plan_id":"cebpf4jnsgd1na2vs0mg"},{"bike_id":"c608898e-58b6-42f7-903a-6008119c7a64","system_id":"levelo_inurba_marseille","lat":43.24073,"lon":5.3776,"is_reserved":false,"is_disabled":false,"rental_uris":{"android":"levelo://app?vid=c608898e-58b6-42f7-903a-6008119c7a64","ios":"levelo://app?vid=c608898e-58b6-42f7-903a-6008119c7a64"},"vehicle_type_id":"4","last_reported":1747599073,"current_range_meters":9600,"station_id":"ce4bhnp2rcd13ifvqgvg","pricing_plan_id":"cebpf4jnsgd1na2vs0mg"},{"bike_id":"b3d3c3ee-d31e-42f9-8725-23762e5459dc","system_id":"levelo_inurba_marseille","lat":43.316927,"lon":5.37771,"is_reserved":false,"is_disabled":false,"rental_uris":{"android":"levelo://app?vid=b3d3c3ee-d31e-42f9-8725-23762e5459dc","ios":"levelo://app?vid=b3d3c3ee-d31e-42f9-8725-23762e5459dc"},"vehicle_type_id":"4","last_reported":1747599073,"current_range_meters":10000,"station_id":"ce4bgth2rcd13ifvqch0","pricing_plan_id":"cebpf4jnsgd1na2vs0mg"},{"bike_id":"a1dbb4f0-633e-4736-8d12-49908eaa7cfe","system_id":"levelo_inurba_marseille","lat":43.29271,"lon":5.38439,"is_reserved":false,"is_disabled":false,"rental_uris":{"android":"levelo://app?vid=a1dbb4f0-633e-4736-8d12-49908eaa7cfe","ios":"levelo://app?vid=a1dbb4f0-633e-4736-8d12-49908eaa7cfe"},"vehicle_type_id":"4","last_reported":1747599073,"current_range_meters":10000,"station_id":"ce4bh692rcd13ifvqea0","pricing_plan_id":"cebpf4jnsgd1na2vs0mg"},{"bike_id":"1fe44e43-9b46-40b7-aee6-e614bd44228b","system_id":"levelo_inurba_marseille","lat":43.30944,"lon":5.39026,"is_reserved":false,"is_disabled":false,"rental_uris":{"android":"levelo://app?vid=1fe44e43-9b46-40b7-aee6-e614bd44228b","ios":"levelo://app?vid=1fe44e43-9b46-40b7-aee6-e614bd44228b"},"vehicle_type_id":"4","last_reported":1747599073,"current_range_meters":9600,"station_id":"ce4bgup2rcd13ifvqco0","pricing_plan_id":"cebpf4jnsgd1na2vs0mg"},{"bike_id":"452f057a-7b3d-49f4-87c4-28e634720532","system_id":"levelo_inurba_marseille","lat":43.28449,"lon":5.39173,"is_reserved":false,"is_disabled":false,"rental_uris":{"android":"levelo://app?vid=452f057a-7b3d-49f4-87c4-28e634720532","ios":"levelo://app?vid=452f057a-7b3d-49f4-87c4-28e634720532"},"vehicle_type_id":"4","last_reported":1747599073,"current_range_meters":10000,"station_id":"ce4bhoh2rcd13ifvqh5g","pricing_plan_id":"cebpf4jnsgd1na2vs0mg"},{"bike_id":"7859774c-88be-4352-bbcb-581dd64c005e","system_id":"levelo_inurba_marseille","lat":43.29957,"lon":5.41318,"is_reserved":false,"is_disabled":false,"rental_uris":{"android":"levelo://app?vid=7859774c-88be-4352-bbcb-581dd64c005e","ios":"levelo://app?vid=7859774c-88be-4352-bbcb-581dd64c005e"},"vehicle_type_id":"4","last_reported":1747599073,"current_range_meters":10000,"station_id":"ce4bhp12rcd13ifvqh9g","pricing_plan_id":"cebpf4jnsgd1na2vs0mg"},{"bike_id":"8c1358ab-eac1-4c80-9f48-a739214cfa6d","system_id":"levelo_inurba_marseille","lat":43.28153,"lon":5.42644,"is_reserved":false,"is_disabled":false,"rental_uris":{"android":"levelo://app?vid=8c1358ab-eac1-4c80-9f48-a739214cfa6d","ios":"levelo://app?vid=8c1358ab-eac1-4c80-9f48-a739214cfa6d"},"vehicle_type_id":"4","last_reported":1747599073,"current_range_meters":10000,"station_id":"ce4bhnh2rcd13ifvqgug","pricing_plan_id":"cebpf4jnsgd1na2vs0mg"},{"bike_id":"4745dd8b-a0b2-49db-b417-8a28eecc51d4","system_id":"levelo_inurba_marseille","lat":43.24342,"lon":5.37992,"is_reserved":false,"is_disabled":false,"rental_uris":{"android":"levelo://app?vid=4745dd8b-a0b2-49db-b417-8a28eecc51d4","ios":"levelo://app?vid=4745dd8b-a0b2-49db-b417-8a28eecc51d4"},"vehicle_type_id":"4","last_reported":1747599073,"current_range_meters":10000,"station_id":"","pricing_plan_id":"cebpf4jnsgd1na2vs0mg"},{"bike_id":"a7996f10-f0e8-4ebf-8881-ba9e3b71e97d","system_id":"levelo_inurba_marseille","lat":43.27949,"lon":5.38674,"is_reserved":false,"is_disabled":false,"rental_uris":{"android":"levelo://app?vid=a7996f10-f0e8-4ebf-8881-ba9e3b71e97d","ios":"levelo://app?vid=a7996f10-f0e8-4ebf-8881-ba9e3b71e97d"},"vehicle_type_id":"4","last_reported":1747599073,"current_range_meters":10000,"station_id":"ce4bhg12rcd13ifvqf80","pricing_plan_id":"cebpf4jnsgd1na2vs0mg"},{"bike_id":"6ee7001e-07ad-49d2-9902-4e2095457f59","system_id":"levelo_inurba_marseille","lat":43.27085,"lon":5.42281,"is_reserved":false,"is_disabled":true,"rental_uris":{"android":"levelo://app?vid=6ee7001e-07ad-49d2-9902-4e2095457f59","ios":"levelo://app?vid=6ee7001e-07ad-49d2-9902-4e2095457f59"},"vehicle_type_id":"4","last_reported":1747599073,"current_range_meters":10800,"station_id":"ce4bhk92rcd13ifvqgb0","pricing_plan_id":"cebpf4jnsgd1na2vs0mg"},{"bike_id":"40319703-f1f7-4a32-8739-35d6cc64aa7a","system_id":"levelo_inurba_marseille","lat":43.30801,"lon":5.38145,"is_reserved":false,"is_disabled":false,"rental_uris":{"android":"levelo://app?vid=40319703-f1f7-4a32-8739-35d6cc64aa7a","ios":"levelo://app?vid=40319703-f1f7-4a32-8739-35d6cc64aa7a"},"vehicle_type_id":"4","last_reported":1747599073,"current_range_meters":10800,"station_id":"ce4bgt12rcd13ifvqce0","pricing_plan_id":"cebpf4jnsgd1na2vs0mg"},{"bike_id":"0a73baff-ad33-462a-9570-d5958bd40c4c","system_id":"levelo_inurba_marseille","lat":43.28723,"lon":5.36091,"is_reserved":false,"is_disabled":false,"rental_uris":{"android":"levelo://app?vid=0a73baff-ad33-462a-9570-d5958bd40c4c","ios":"levelo://app?vid=0a73baff-ad33-462a-9570-d5958bd40c4c"},"vehicle_type_id":"4","last_reported":1747599073,"current_range_meters":10800,"station_id":"cki0cbj6b192h4jlfktg","pricing_plan_id":"cebpf4jnsgd1na2vs0mg"},{"bike_id":"75463357-e93f-40fe-bd3c-705c5c56d40d","system_id":"levelo_inurba_marseille","lat":43.30138,"lon":5.39863,"is_reserved":false,"is_disabled":false,"rental_uris":{"android":"levelo://app?vid=75463357-e93f-40fe-bd3c-705c5c56d40d","ios":"levelo://app?vid=75463357-e93f-40fe-bd3c-705c5c56d40d"},"vehicle_type_id":"4","last_reported":1747599073,"current_range_meters":10800,"station_id":"ce4bh0h2rcd13ifvqd40","pricing_plan_id":"cebpf4jnsgd1na2vs0mg"},{"bike_id":"3dced1d9-0c80-49d8-a25b-68d880296f3d","system_id":"levelo_inurba_marseille","lat":43.30433,"lon":5.39749,"is_reserved":false,"is_disabled":false,"rental_uris":{"android":"levelo://app?vid=3dced1d9-0c80-49d8-a25b-68d880296f3d","ios":"levelo://app?vid=3dced1d9-0c80-49d8-a25b-68d880296f3d"},"vehicle_type_id":"4","last_reported":1747599073,"current_range_meters":11200,"station_id":"ce4bh092rcd13ifvqd20","pricing_plan_id":"cebpf4jnsgd1na2vs0mg"},{"bike_id":"5d86bbef-94ca-4dcb-9edd-d128b7c97ecc","system_id":"levelo_inurba_marseille","lat":43.30889,"lon":5.39628,"is_reserved":false,"is_disabled":false,"rental_uris":{"android":"levelo://app?vid=5d86bbef-94ca-4dcb-9edd-d128b7c97ecc","ios":"levelo://app?vid=5d86bbef-94ca-4dcb-9edd-d128b7c97ecc"},"vehicle_type_id":"4","last_reported":1747599073,"current_range_meters":11200,"station_id":"ce4bh012rcd13ifvqcv0","pricing_plan_id":"cebpf4jnsgd1na2vs0mg"},{"bike_id":"b26a0dd7-cbdc-4ab7-8def-31c4b88b224a","system_id":"levelo_inurba_marseille","lat":43.312179,"lon":5.392475,"is_reserved":false,"is_disabled":false,"rental_uris":{"android":"levelo://app?vid=b26a0dd7-cbdc-4ab7-8def-31c4b88b224a","ios":"levelo://app?vid=b26a0dd7-cbdc-4ab7-8def-31c4b88b224a"},"vehicle_type_id":"4","last_reported":1747599073,"current_range_meters":11200,"station_id":"","pricing_plan_id":"cebpf4jnsgd1na2vs0mg"},{"bike_id":"51a33848-f0f0-40ec-b6c6-8948c992d932","system_id":"levelo_inurba_marseille","lat":43.250875,"lon":5.395053,"is_reserved":false,"is_disabled":false,"rental_uris":{"android":"levelo://app?vid=51a33848-f0f0-40ec-b6c6-8948c992d932","ios":"levelo://app?vid=51a33848-f0f0-40ec-b6c6-8948c992d932"},"vehicle_type_id":"4","last_reported":1747599073,"current_range_meters":11200,"station_id":"ce4bhm12rcd13ifvqgkg","pricing_plan_id":"cebpf4jnsgd1na2vs0mg"},{"bike_id":"06a71b34-ec8e-4baa-b270-bcd9b7209008","system_id":"levelo_inurba_marseille","lat":43.29035,"lon":5.38643,"is_reserved":false,"is_disabled":false,"rental_uris":{"android":"levelo://app?vid=06a71b34-ec8e-4baa-b270-bcd9b7209008","ios":"levelo://app?vid=06a71b34-ec8e-4baa-b270-bcd9b7209008"},"vehicle_type_id":"4","last_reported":1747599073,"current_range_meters":11600,"station_id":"ce4bh4p2rcd13ifvqe0g","pricing_plan_id":"cebpf4jnsgd1na2vs0mg"},{"bike_id":"8a7a75ee-b8f8-4af5-b0ed-d8dec76b4d69","system_id":"levelo_inurba_marseille","lat":43.2835,"lon":5.38113,"is_reserved":false,"is_disabled":false,"rental_uris":{"android":"levelo://app?vid=8a7a75ee-b8f8-4af5-b0ed-d8dec76b4d69","ios":"levelo://app?vid=8a7a75ee-b8f8-4af5-b0ed-d8dec76b4d69"},"vehicle_type_id":"4","last_reported":1747599073,"current_range_meters":11200,"station_id":"ce4bh412rcd13ifvqdr0","pricing_plan_id":"cebpf4jnsgd1na2vs0mg"},{"bike_id":"3fe4ee94-b4ae-4871-89c2-728f25947523","system_id":"levelo_inurba_marseille","lat":43.32367,"lon":5.38882,"is_reserved":false,"is_disabled":false,"rental_uris":{"android":"levelo://app?vid=3fe4ee94-b4ae-4871-89c2-728f25947523","ios":"levelo://app?vid=3fe4ee94-b4ae-4871-89c2-728f25947523"},"vehicle_type_id":"4","last_reported":1747599073,"current_range_meters":11200,"station_id":"ce4bhqp2rcd13ifvqhog","pricing_plan_id":"cebpf4jnsgd1na2vs0mg"},{"bike_id":"018dda92-33f7-4f9c-9997-940b853b8743","system_id":"levelo_inurba_marseille","lat":43.27425,"lon":5.39406,"is_reserved":false,"is_disabled":true,"rental_uris":{"android":"levelo://app?vid=018dda92-33f7-4f9c-9997-940b853b8743","ios":"levelo://app?vid=018dda92-33f7-4f9c-9997-940b853b8743"},"vehicle_type_id":"4","last_reported":1747599073,"current_range_meters":11600,"station_id":"ce4bhdp2rcd13ifvqf20","pricing_plan_id":"cebpf4jnsgd1na2vs0mg"},{"bike_id":"46dec40b-3ceb-44ec-a653-0f7a7d321be0","system_id":"levelo_inurba_marseille","lat":43.33722,"lon":5.39183,"is_reserved":false,"is_disabled":false,"rental_uris":{"android":"levelo://app?vid=46dec40b-3ceb-44ec-a653-0f7a7d321be0","ios":"levelo://app?vid=46dec40b-3ceb-44ec-a653-0f7a7d321be0"},"vehicle_type_id":"4","last_reported":1747599073,"current_range_meters":11200,"station_id":"ce4bhr92rcd13ifvqhsg","pricing_plan_id":"cebpf4jnsgd1na2vs0mg"},{"bike_id":"8aad5dc3-2d98-4ee0-bc2e-e34e847747cd","system_id":"levelo_inurba_marseille","lat":43.2991,"lon":5.37476,"is_reserved":false,"is_disabled":false,"rental_uris":{"android":"levelo://app?vid=8aad5dc3-2d98-4ee0-bc2e-e34e847747cd","ios":"levelo://app?vid=8aad5dc3-2d98-4ee0-bc2e-e34e847747cd"},"vehicle_type_id":"4","last_reported":1747599073,"current_range_meters":11600,"station_id":"ce4bgjh2rcd13ifvqbg0","pricing_plan_id":"cebpf4jnsgd1na2vs0mg"},{"bike_id":"1e755959-071e-4e32-88c3-22fabc9da577","system_id":"levelo_inurba_marseille","lat":43.30646,"lon":5.40079,"is_reserved":false,"is_disabled":false,"rental_uris":{"android":"levelo://app?vid=1e755959-071e-4e32-88c3-22fabc9da577","ios":"levelo://app?vid=1e755959-071e-4e32-88c3-22fabc9da577"},"vehicle_type_id":"4","last_reported":1747599073,"current_range_meters":11600,"station_id":"ce4bh112rcd13ifvqda0","pricing_plan_id":"cebpf4jnsgd1na2vs0mg"},{"bike_id":"c95edae8-90ce-4d52-a6a6-375c9efc7c36","system_id":"levelo_inurba_marseille","lat":43.3013,"lon":5.39844,"is_reserved":false,"is_disabled":false,"rental_uris":{"android":"levelo://app?vid=c95edae8-90ce-4d52-a6a6-375c9efc7c36","ios":"levelo://app?vid=c95edae8-90ce-4d52-a6a6-375c9efc7c36"},"vehicle_type_id":"4","last_reported":1747599073,"current_range_meters":12000,"station_id":"ce4bh0h2rcd13ifvqd40","pricing_plan_id":"cebpf4jnsgd1na2vs0mg"},{"bike_id":"d8da70fb-a079-460a-9e23-65ed45fe0088","system_id":"levelo_inurba_marseille","lat":43.255035,"lon":5.376441,"is_reserved":false,"is_disabled":true,"rental_uris":{"android":"levelo://app?vid=d8da70fb-a079-460a-9e23-65ed45fe0088","ios":"levelo://app?vid=d8da70fb-a079-460a-9e23-65ed45fe0088"},"vehicle_type_id":"4","last_reported":1747599073,"current_range_meters":12000,"station_id":"ce4bhh12rcd13ifvqff0","pricing_plan_id":"cebpf4jnsgd1na2vs0mg"},{"bike_id":"c33f6562-2e9a-4d7f-a016-4927115f29b8","system_id":"levelo_inurba_marseille","lat":43.2926,"lon":5.38437,"is_reserved":false,"is_disabled":false,"rental_uris":{"android":"levelo://app?vid=c33f6562-2e9a-4d7f-a016-4927115f29b8","ios":"levelo://app?vid=c33f6562-2e9a-4d7f-a016-4927115f29b8"},"vehicle_type_id":"4","last_reported":1747599073,"current_range_meters":12000,"station_id":"ce4bh692rcd13ifvqea0","pricing_plan_id":"cebpf4jnsgd1na2vs0mg"},{"bike_id":"e3b78554-4d24-4011-be37-94a8a7d4a2fb","system_id":"levelo_inurba_marseille","lat":43.26489,"lon":5.39543,"is_reserved":false,"is_disabled":true,"rental_uris":{"android":"levelo://app?vid=e3b78554-4d24-4011-be37-94a8a7d4a2fb","ios":"levelo://app?vid=e3b78554-4d24-4011-be37-94a8a7d4a2fb"},"vehicle_type_id":"4","last_reported":1747599073,"current_range_meters":12000,"station_id":"ce4bhi12rcd13ifvqfq0","pricing_plan_id":"cebpf4jnsgd1na2vs0mg"},{"bike_id":"51736835-8128-4840-b526-bf33d386a6e7","system_id":"levelo_inurba_marseille","lat":43.2993,"lon":5.43662,"is_reserved":false,"is_disabled":true,"rental_uris":{"android":"levelo://app?vid=51736835-8128-4840-b526-bf33d386a6e7","ios":"levelo://app?vid=51736835-8128-4840-b526-bf33d386a6e7"},"vehicle_type_id":"4","last_reported":1747599073,"current_range_meters":12000,"station_id":"ce4bhpp2rcd13ifvqhfg","pricing_plan_id":"cebpf4jnsgd1na2vs0mg"},{"bike_id":"205131f1-4e38-4057-b3e9-4a5e9fa356f2","system_id":"levelo_inurba_marseille","lat":43.290253,"lon":5.38151,"is_reserved":false,"is_disabled":false,"rental_uris":{"android":"levelo://app?vid=205131f1-4e38-4057-b3e9-4a5e9fa356f2","ios":"levelo://app?vid=205131f1-4e38-4057-b3e9-4a5e9fa356f2"},"vehicle_type_id":"4","last_reported":1747599073,"current_range_meters":11600,"station_id":"ce4bh4p2rcd13ifvqe1g","pricing_plan_id":"cebpf4jnsgd1na2vs0mg"},{"bike_id":"814e2930-a412-47af-849d-26da2abc07f6","system_id":"levelo_inurba_marseille","lat":43.27823,"lon":5.40692,"is_reserved":false,"is_disabled":true,"rental_uris":{"android":"levelo://app?vid=814e2930-a412-47af-849d-26da2abc07f6","ios":"levelo://app?vid=814e2930-a412-47af-849d-26da2abc07f6"},"vehicle_type_id":"4","last_reported":1747599073,"current_range_meters":12000,"station_id":"ce4bhnh2rcd13ifvqgtg","pricing_plan_id":"cebpf4jnsgd1na2vs0mg"},{"bike_id":"bfe2616a-ffe2-4507-a00a-544cad85d2ea","system_id":"levelo_inurba_marseille","lat":43.281995,"lon":5.390727,"is_reserved":false,"is_disabled":false,"rental_uris":{"android":"levelo://app?vid=bfe2616a-ffe2-4507-a00a-544cad85d2ea","ios":"levelo://app?vid=bfe2616a-ffe2-4507-a00a-544cad85d2ea"},"vehicle_type_id":"4","last_reported":1747599073,"current_range_meters":12400,"station_id":"","pricing_plan_id":"cebpf4jnsgd1na2vs0mg"},{"bike_id":"07672ecb-c631-450f-8bc9-47acc1780ab4","system_id":"levelo_inurba_marseille","lat":43.30884,"lon":5.39638,"is_reserved":false,"is_disabled":false,"rental_uris":{"android":"levelo://app?vid=07672ecb-c631-450f-8bc9-47acc1780ab4","ios":"levelo://app?vid=07672ecb-c631-450f-8bc9-47acc1780ab4"},"vehicle_type_id":"4","last_reported":1747599073,"current_range_meters":12400,"station_id":"ce4bh012rcd13ifvqcv0","pricing_plan_id":"cebpf4jnsgd1na2vs0mg"},{"bike_id":"fa922033-5240-4d00-8a04-7369d98a6dcb","system_id":"levelo_inurba_marseille","lat":43.25133,"lon":5.40324,"is_reserved":false,"is_disabled":false,"rental_uris":{"android":"levelo://app?vid=fa922033-5240-4d00-8a04-7369d98a6dcb","ios":"levelo://app?vid=fa922033-5240-4d00-8a04-7369d98a6dcb"},"vehicle_type_id":"4","last_reported":1747599073,"current_range_meters":12400,"station_id":"ce4bhlh2rcd13ifvqgig","pricing_plan_id":"cebpf4jnsgd1na2vs0mg"},{"bike_id":"a21be658-6471-4f0e-b683-26f598f6446e","system_id":"levelo_inurba_marseille","lat":43.29709,"lon":5.36614,"is_reserved":false,"is_disabled":false,"rental_uris":{"android":"levelo://app?vid=a21be658-6471-4f0e-b683-26f598f6446e","ios":"levelo://app?vid=a21be658-6471-4f0e-b683-26f598f6446e"},"vehicle_type_id":"4","last_reported":1747599073,"current_range_meters":12400,"station_id":"ce4bgn12rcd13ifvqbt0","pricing_plan_id":"cebpf4jnsgd1na2vs0mg"},{"bike_id":"12c4d802-2c6a-4c71-888e-000ffe312a3f","system_id":"levelo_inurba_marseille","lat":43.32308,"lon":5.36651,"is_reserved":false,"is_disabled":false,"rental_uris":{"android":"levelo://app?vid=12c4d802-2c6a-4c71-888e-000ffe312a3f","ios":"levelo://app?vid=12c4d802-2c6a-4c71-888e-000ffe312a3f"},"vehicle_type_id":"4","last_reported":1747599073,"current_range_meters":12400,"station_id":"","pricing_plan_id":"cebpf4jnsgd1na2vs0mg"},{"bike_id":"7c288e5f-bf2e-426c-9424-762c5f2a6c72","system_id":"levelo_inurba_marseille","lat":43.29286,"lon":5.40117,"is_reserved":false,"is_disabled":false,"rental_uris":{"android":"levelo://app?vid=7c288e5f-bf2e-426c-9424-762c5f2a6c72","ios":"levelo://app?vid=7c288e5f-bf2e-426c-9424-762c5f2a6c72"},"vehicle_type_id":"4","last_reported":1747599073,"current_range_meters":12400,"station_id":"ce4bh312rcd13ifvqdk0","pricing_plan_id":"cebpf4jnsgd1na2vs0mg"},{"bike_id":"c9098f0c-9735-4b11-b691-4a6b9418f24c","system_id":"levelo_inurba_marseille","lat":43.30645,"lon":5.40086,"is_reserved":false,"is_disabled":false,"rental_uris":{"android":"levelo://app?vid=c9098f0c-9735-4b11-b691-4a6b9418f24c","ios":"levelo://app?vid=c9098f0c-9735-4b11-b691-4a6b9418f24c"},"vehicle_type_id":"4","last_reported":1747599073,"current_range_meters":12400,"station_id":"ce4bh112rcd13ifvqda0","pricing_plan_id":"cebpf4jnsgd1na2vs0mg"},{"bike_id":"356b2829-3ca0-4f70-8f78-46e79da913e0","system_id":"levelo_inurba_marseille","lat":43.28149,"lon":5.426573,"is_reserved":false,"is_disabled":false,"rental_uris":{"android":"levelo://app?vid=356b2829-3ca0-4f70-8f78-46e79da913e0","ios":"levelo://app?vid=356b2829-3ca0-4f70-8f78-46e79da913e0"},"vehicle_type_id":"4","last_reported":1747599073,"current_range_meters":12800,"station_id":"ce4bhnh2rcd13ifvqgug","pricing_plan_id":"cebpf4jnsgd1na2vs0mg"},{"bike_id":"cc1ce612-4672-4f24-8dc8-ebc94a0d34b5","system_id":"levelo_inurba_marseille","lat":43.29042,"lon":5.38638,"is_reserved":false,"is_disabled":false,"rental_uris":{"android":"levelo://app?vid=cc1ce612-4672-4f24-8dc8-ebc94a0d34b5","ios":"levelo://app?vid=cc1ce612-4672-4f24-8dc8-ebc94a0d34b5"},"vehicle_type_id":"4","last_reported":1747599073,"current_range_meters":12800,"station_id":"ce4bh4p2rcd13ifvqe0g","pricing_plan_id":"cebpf4jnsgd1na2vs0mg"},{"bike_id":"a3ac0926-e50e-4bc0-8978-84a66b4fc5d3","system_id":"levelo_inurba_marseille","lat":43.29211,"lon":5.39307,"is_reserved":false,"is_disabled":false,"rental_uris":{"android":"levelo://app?vid=a3ac0926-e50e-4bc0-8978-84a66b4fc5d3","ios":"levelo://app?vid=a3ac0926-e50e-4bc0-8978-84a66b4fc5d3"},"vehicle_type_id":"4","last_reported":1747599073,"current_range_meters":12800,"station_id":"ce4bh192rcd13ifvqdd0","pricing_plan_id":"cebpf4jnsgd1na2vs0mg"},{"bike_id":"7c72cadf-1cd8-41cd-ab9e-1e801b8bba11","system_id":"levelo_inurba_marseille","lat":43.298853,"lon":5.389073,"is_reserved":false,"is_disabled":false,"rental_uris":{"android":"levelo://app?vid=7c72cadf-1cd8-41cd-ab9e-1e801b8bba11","ios":"levelo://app?vid=7c72cadf-1cd8-41cd-ab9e-1e801b8bba11"},"vehicle_type_id":"4","last_reported":1747599073,"current_range_meters":12800,"station_id":"ce4bh392rcd13ifvqdl0","pricing_plan_id":"cebpf4jnsgd1na2vs0mg"},{"bike_id":"2d43dba1-6ff7-4289-91c8-c617d5aac932","system_id":"levelo_inurba_marseille","lat":43.295663,"lon":5.375046,"is_reserved":false,"is_disabled":true,"rental_uris":{"android":"levelo://app?vid=2d43dba1-6ff7-4289-91c8-c617d5aac932","ios":"levelo://app?vid=2d43dba1-6ff7-4289-91c8-c617d5aac932"},"vehicle_type_id":"4","last_reported":1747599073,"current_range_meters":13600,"station_id":"ce4bgh92rcd13ifvqb50","pricing_plan_id":"cebpf4jnsgd1na2vs0mg"},{"bike_id":"5c1cfafc-efda-4c44-a512-0b0d7a09f432","system_id":"levelo_inurba_marseille","lat":43.27216,"lon":5.39183,"is_reserved":false,"is_disabled":true,"rental_uris":{"android":"levelo://app?vid=5c1cfafc-efda-4c44-a512-0b0d7a09f432","ios":"levelo://app?vid=5c1cfafc-efda-4c44-a512-0b0d7a09f432"},"vehicle_type_id":"4","last_reported":1747599073,"current_range_meters":13600,"station_id":"ce4bhhp2rcd13ifvqfm0","pricing_plan_id":"cebpf4jnsgd1na2vs0mg"},{"bike_id":"a85be539-0282-4f5c-add7-ff454bb1404c","system_id":"levelo_inurba_marseille","lat":43.2791,"lon":5.39574,"is_reserved":false,"is_disabled":false,"rental_uris":{"android":"levelo://app?vid=a85be539-0282-4f5c-add7-ff454bb1404c","ios":"levelo://app?vid=a85be539-0282-4f5c-add7-ff454bb1404c"},"vehicle_type_id":"4","last_reported":1747599073,"current_range_meters":13600,"station_id":"ce4bhf92rcd13ifvqf40","pricing_plan_id":"cebpf4jnsgd1na2vs0mg"},{"bike_id":"e472a7f3-1962-44a9-b366-ed0d4cb32e38","system_id":"levelo_inurba_marseille","lat":43.262563,"lon":5.404243,"is_reserved":false,"is_disabled":false,"rental_uris":{"android":"levelo://app?vid=e472a7f3-1962-44a9-b366-ed0d4cb32e38","ios":"levelo://app?vid=e472a7f3-1962-44a9-b366-ed0d4cb32e38"},"vehicle_type_id":"4","last_reported":1747599073,"current_range_meters":13600,"station_id":"ce4bhmh2rcd13ifvqgmg","pricing_plan_id":"cebpf4jnsgd1na2vs0mg"},{"bike_id":"2edac17f-64df-47b7-a848-7c42cf0f36e7","system_id":"levelo_inurba_marseille","lat":43.27863,"lon":5.40729,"is_reserved":false,"is_disabled":false,"rental_uris":{"android":"levelo://app?vid=2edac17f-64df-47b7-a848-7c42cf0f36e7","ios":"levelo://app?vid=2edac17f-64df-47b7-a848-7c42cf0f36e7"},"vehicle_type_id":"4","last_reported":1747599073,"current_range_meters":13600,"station_id":"ce4bhnh2rcd13ifvqgtg","pricing_plan_id":"cebpf4jnsgd1na2vs0mg"},{"bike_id":"c722f492-6af3-4aea-8b23-0c8ac327deb3","system_id":"levelo_inurba_marseille","lat":43.24075,"lon":5.37763,"is_reserved":false,"is_disabled":false,"rental_uris":{"android":"levelo://app?vid=c722f492-6af3-4aea-8b23-0c8ac327deb3","ios":"levelo://app?vid=c722f492-6af3-4aea-8b23-0c8ac327deb3"},"vehicle_type_id":"4","last_reported":1747599073,"current_range_meters":13600,"station_id":"ce4bhnp2rcd13ifvqgvg","pricing_plan_id":"cebpf4jnsgd1na2vs0mg"},{"bike_id":"b96a4e7c-0de7-41da-b086-8b5a8e70a687","system_id":"levelo_inurba_marseille","lat":43.27219,"lon":5.39208,"is_reserved":false,"is_disabled":true,"rental_uris":{"android":"levelo://app?vid=b96a4e7c-0de7-41da-b086-8b5a8e70a687","ios":"levelo://app?vid=b96a4e7c-0de7-41da-b086-8b5a8e70a687"},"vehicle_type_id":"4","last_reported":1747599073,"current_range_meters":13600,"station_id":"ce4bhhp2rcd13ifvqfm0","pricing_plan_id":"cebpf4jnsgd1na2vs0mg"},{"bike_id":"ae81c1d3-4845-47d7-bc5d-f136936b35f9","system_id":"levelo_inurba_marseille","lat":43.23185,"lon":5.3998,"is_reserved":false,"is_disabled":false,"rental_uris":{"android":"levelo://app?vid=ae81c1d3-4845-47d7-bc5d-f136936b35f9","ios":"levelo://app?vid=ae81c1d3-4845-47d7-bc5d-f136936b35f9"},"vehicle_type_id":"4","last_reported":1747599073,"current_range_meters":13600,"station_id":"ce4bhn12rcd13ifvqgqg","pricing_plan_id":"cebpf4jnsgd1na2vs0mg"},{"bike_id":"d60138cc-d1fe-426c-9536-5a41dbfe71a8","system_id":"levelo_inurba_marseille","lat":43.25737,"lon":5.41089,"is_reserved":false,"is_disabled":false,"rental_uris":{"android":"levelo://app?vid=d60138cc-d1fe-426c-9536-5a41dbfe71a8","ios":"levelo://app?vid=d60138cc-d1fe-426c-9536-5a41dbfe71a8"},"vehicle_type_id":"4","last_reported":1747599073,"current_range_meters":13600,"station_id":"ce4bhkp2rcd13ifvqgd0","pricing_plan_id":"cebpf4jnsgd1na2vs0mg"},{"bike_id":"7afdcb77-e7ae-4907-860a-f6e9dd2cb69f","system_id":"levelo_inurba_marseille","lat":43.26029,"lon":5.37548,"is_reserved":false,"is_disabled":false,"rental_uris":{"android":"levelo://app?vid=7afdcb77-e7ae-4907-860a-f6e9dd2cb69f","ios":"levelo://app?vid=7afdcb77-e7ae-4907-860a-f6e9dd2cb69f"},"vehicle_type_id":"4","last_reported":1747599073,"current_range_meters":13600,"station_id":"ce4bhgh2rcd13ifvqfa0","pricing_plan_id":"cebpf4jnsgd1na2vs0mg"},{"bike_id":"bf2b2bfb-9733-4bda-908d-03391ae976cc","system_id":"levelo_inurba_marseille","lat":43.31187,"lon":5.41612,"is_reserved":false,"is_disabled":false,"rental_uris":{"android":"levelo://app?vid=bf2b2bfb-9733-4bda-908d-03391ae976cc","ios":"levelo://app?vid=bf2b2bfb-9733-4bda-908d-03391ae976cc"},"vehicle_type_id":"4","last_reported":1747599073,"current_range_meters":13600,"station_id":"","pricing_plan_id":"cebpf4jnsgd1na2vs0mg"},{"bike_id":"a607d283-d290-485a-9155-50a949fba7e9","system_id":"levelo_inurba_marseille","lat":43.28711,"lon":5.39997,"is_reserved":false,"is_disabled":false,"rental_uris":{"android":"levelo://app?vid=a607d283-d290-485a-9155-50a949fba7e9","ios":"levelo://app?vid=a607d283-d290-485a-9155-50a949fba7e9"},"vehicle_type_id":"4","last_reported":1747599073,"current_range_meters":13600,"station_id":"ce4bho92rcd13ifvqh3g","pricing_plan_id":"cebpf4jnsgd1na2vs0mg"},{"bike_id":"19456222-7d38-48cf-a950-06daadd07927","system_id":"levelo_inurba_marseille","lat":43.25027,"lon":5.37542,"is_reserved":false,"is_disabled":false,"rental_uris":{"android":"levelo://app?vid=19456222-7d38-48cf-a950-06daadd07927","ios":"levelo://app?vid=19456222-7d38-48cf-a950-06daadd07927"},"vehicle_type_id":"4","last_reported":1747599073,"current_range_meters":14000,"station_id":"","pricing_plan_id":"cebpf4jnsgd1na2vs0mg"},{"bike_id":"cf81ba9f-4910-44ec-9b06-44209e8c04de","system_id":"levelo_inurba_marseille","lat":43.23659,"lon":5.36239,"is_reserved":false,"is_disabled":false,"rental_uris":{"android":"levelo://app?vid=cf81ba9f-4910-44ec-9b06-44209e8c04de","ios":"levelo://app?vid=cf81ba9f-4910-44ec-9b06-44209e8c04de"},"vehicle_type_id":"4","last_reported":1747599073,"current_range_meters":14000,"station_id":"","pricing_plan_id":"cebpf4jnsgd1na2vs0mg"},{"bike_id":"4b7c5fea-6b3e-41bc-9ccd-5bea79060561","system_id":"levelo_inurba_marseille","lat":43.31118,"lon":5.377583,"is_reserved":false,"is_disabled":false,"rental_uris":{"android":"levelo://app?vid=4b7c5fea-6b3e-41bc-9ccd-5bea79060561","ios":"levelo://app?vid=4b7c5fea-6b3e-41bc-9ccd-5bea79060561"},"vehicle_type_id":"4","last_reported":1747599073,"current_range_meters":14000,"station_id":"ce4bgt92rcd13ifvqcg0","pricing_plan_id":"cebpf4jnsgd1na2vs0mg"},{"bike_id":"30c1418d-975c-4203-b0d1-c7bc613e0afd","system_id":"levelo_inurba_marseille","lat":43.29266,"lon":5.38445,"is_reserved":false,"is_disabled":false,"rental_uris":{"android":"levelo://app?vid=30c1418d-975c-4203-b0d1-c7bc613e0afd","ios":"levelo://app?vid=30c1418d-975c-4203-b0d1-c7bc613e0afd"},"vehicle_type_id":"4","last_reported":1747599073,"current_range_meters":14000,"station_id":"ce4bh692rcd13ifvqea0","pricing_plan_id":"cebpf4jnsgd1na2vs0mg"},{"bike_id":"a675f4e5-fc13-43cf-92f6-6acfa57913c0","system_id":"levelo_inurba_marseille","lat":43.290226,"lon":5.381161,"is_reserved":false,"is_disabled":true,"rental_uris":{"android":"levelo://app?vid=a675f4e5-fc13-43cf-92f6-6acfa57913c0","ios":"levelo://app?vid=a675f4e5-fc13-43cf-92f6-6acfa57913c0"},"vehicle_type_id":"4","last_reported":1747599073,"current_range_meters":14000,"station_id":"ce4bh4p2rcd13ifvqe1g","pricing_plan_id":"cebpf4jnsgd1na2vs0mg"},{"bike_id":"7e85683c-0527-4a85-9ab8-35d06ff2f9ad","system_id":"levelo_inurba_marseille","lat":43.294167,"lon":5.386004,"is_reserved":false,"is_disabled":true,"rental_uris":{"android":"levelo://app?vid=7e85683c-0527-4a85-9ab8-35d06ff2f9ad","ios":"levelo://app?vid=7e85683c-0527-4a85-9ab8-35d06ff2f9ad"},"vehicle_type_id":"4","last_reported":1747599073,"current_range_meters":14000,"station_id":"ce4bh2h2rcd13ifvqdh0","pricing_plan_id":"cebpf4jnsgd1na2vs0mg"},{"bike_id":"18eac769-7908-4a1c-9659-161d1a44645e","system_id":"levelo_inurba_marseille","lat":43.29207,"lon":5.39307,"is_reserved":false,"is_disabled":false,"rental_uris":{"android":"levelo://app?vid=18eac769-7908-4a1c-9659-161d1a44645e","ios":"levelo://app?vid=18eac769-7908-4a1c-9659-161d1a44645e"},"vehicle_type_id":"4","last_reported":1747599073,"current_range_meters":14000,"station_id":"ce4bh192rcd13ifvqdd0","pricing_plan_id":"cebpf4jnsgd1na2vs0mg"},{"bike_id":"e8c092b6-ea1e-49b4-86f2-ae6140f06f6f","system_id":"levelo_inurba_marseille","lat":43.28931,"lon":5.38411,"is_reserved":false,"is_disabled":true,"rental_uris":{"android":"levelo://app?vid=e8c092b6-ea1e-49b4-86f2-ae6140f06f6f","ios":"levelo://app?vid=e8c092b6-ea1e-49b4-86f2-ae6140f06f6f"},"vehicle_type_id":"4","last_reported":1747599073,"current_range_meters":14000,"station_id":"ce4bh612rcd13ifvqe6g","pricing_plan_id":"cebpf4jnsgd1na2vs0mg"},{"bike_id":"ed34fad4-c48e-4c1a-b9b1-8eb1cd77d573","system_id":"levelo_inurba_marseille","lat":43.30957,"lon":5.38626,"is_reserved":false,"is_disabled":false,"rental_uris":{"android":"levelo://app?vid=ed34fad4-c48e-4c1a-b9b1-8eb1cd77d573","ios":"levelo://app?vid=ed34fad4-c48e-4c1a-b9b1-8eb1cd77d573"},"vehicle_type_id":"4","last_reported":1747599073,"current_range_meters":14000,"station_id":"ce4bgv12rcd13ifvqcp0","pricing_plan_id":"cebpf4jnsgd1na2vs0mg"},{"bike_id":"bcbdbd69-7be8-42f8-a855-a4358565de8f","system_id":"levelo_inurba_marseille","lat":43.2774,"lon":5.413913,"is_reserved":false,"is_disabled":false,"rental_uris":{"android":"levelo://app?vid=bcbdbd69-7be8-42f8-a855-a4358565de8f","ios":"levelo://app?vid=bcbdbd69-7be8-42f8-a855-a4358565de8f"},"vehicle_type_id":"4","last_reported":1747599073,"current_range_meters":14400,"station_id":"","pricing_plan_id":"cebpf4jnsgd1na2vs0mg"},{"bike_id":"3347e92f-19a6-4dc9-bf1f-d804d0835e42","system_id":"levelo_inurba_marseille","lat":43.21192,"lon":5.35074,"is_reserved":false,"is_disabled":false,"rental_uris":{"android":"levelo://app?vid=3347e92f-19a6-4dc9-bf1f-d804d0835e42","ios":"levelo://app?vid=3347e92f-19a6-4dc9-bf1f-d804d0835e42"},"vehicle_type_id":"4","last_reported":1747599073,"current_range_meters":14400,"station_id":"st_cvj6sg6p6f1abm77japg","pricing_plan_id":"cebpf4jnsgd1na2vs0mg"},{"bike_id":"86603db7-b462-4e72-8622-a2dee8bb2920","system_id":"levelo_inurba_marseille","lat":43.337444,"lon":5.374475,"is_reserved":false,"is_disabled":false,"rental_uris":{"android":"levelo://app?vid=86603db7-b462-4e72-8622-a2dee8bb2920","ios":"levelo://app?vid=86603db7-b462-4e72-8622-a2dee8bb2920"},"vehicle_type_id":"4","last_reported":1747599073,"current_range_meters":14400,"station_id":"","pricing_plan_id":"cebpf4jnsgd1na2vs0mg"},{"bike_id":"cd882363-6fba-44e4-8f5c-05592e9ce81a","system_id":"levelo_inurba_marseille","lat":43.26222,"lon":5.40451,"is_reserved":false,"is_disabled":false,"rental_uris":{"android":"levelo://app?vid=cd882363-6fba-44e4-8f5c-05592e9ce81a","ios":"levelo://app?vid=cd882363-6fba-44e4-8f5c-05592e9ce81a"},"vehicle_type_id":"4","last_reported":1747599073,"current_range_meters":14800,"station_id":"ce4bhmh2rcd13ifvqgmg","pricing_plan_id":"cebpf4jnsgd1na2vs0mg"},{"bike_id":"0cfae820-cdf5-4a99-8ff5-7860db81de27","system_id":"levelo_inurba_marseille","lat":43.29209,"lon":5.39317,"is_reserved":false,"is_disabled":false,"rental_uris":{"android":"levelo://app?vid=0cfae820-cdf5-4a99-8ff5-7860db81de27","ios":"levelo://app?vid=0cfae820-cdf5-4a99-8ff5-7860db81de27"},"vehicle_type_id":"4","last_reported":1747599073,"current_range_meters":14800,"station_id":"ce4bh192rcd13ifvqdd0","pricing_plan_id":"cebpf4jnsgd1na2vs0mg"},{"bike_id":"54d2470c-98eb-4d24-a7f6-2fa6dab0e8b6","system_id":"levelo_inurba_marseille","lat":43.29246,"lon":5.40904,"is_reserved":false,"is_disabled":false,"rental_uris":{"android":"levelo://app?vid=54d2470c-98eb-4d24-a7f6-2fa6dab0e8b6","ios":"levelo://app?vid=54d2470c-98eb-4d24-a7f6-2fa6dab0e8b6"},"vehicle_type_id":"4","last_reported":1747599073,"current_range_meters":14800,"station_id":"ce4bh192rcd13ifvqdc0","pricing_plan_id":"cebpf4jnsgd1na2vs0mg"},{"bike_id":"954f9a2f-3d92-4afe-8ccd-55ebda55dfe0","system_id":"levelo_inurba_marseille","lat":43.270756,"lon":5.422734,"is_reserved":false,"is_disabled":false,"rental_uris":{"android":"levelo://app?vid=954f9a2f-3d92-4afe-8ccd-55ebda55dfe0","ios":"levelo://app?vid=954f9a2f-3d92-4afe-8ccd-55ebda55dfe0"},"vehicle_type_id":"4","last_reported":1747599073,"current_range_meters":14800,"station_id":"ce4bhk92rcd13ifvqgb0","pricing_plan_id":"cebpf4jnsgd1na2vs0mg"},{"bike_id":"2fb949d1-294f-4b28-be4c-d73bb46cb255","system_id":"levelo_inurba_marseille","lat":43.275607,"lon":5.384143,"is_reserved":false,"is_disabled":false,"rental_uris":{"android":"levelo://app?vid=2fb949d1-294f-4b28-be4c-d73bb46cb255","ios":"levelo://app?vid=2fb949d1-294f-4b28-be4c-d73bb46cb255"},"vehicle_type_id":"4","last_reported":1747599073,"current_range_meters":14800,"station_id":"ce4bhh92rcd13ifvqfi0","pricing_plan_id":"cebpf4jnsgd1na2vs0mg"},{"bike_id":"9a1cc470-b951-44f4-a528-ce15185c0d9d","system_id":"levelo_inurba_marseille","lat":43.29267,"lon":5.38442,"is_reserved":false,"is_disabled":false,"rental_uris":{"android":"levelo://app?vid=9a1cc470-b951-44f4-a528-ce15185c0d9d","ios":"levelo://app?vid=9a1cc470-b951-44f4-a528-ce15185c0d9d"},"vehicle_type_id":"4","last_reported":1747599073,"current_range_meters":14800,"station_id":"ce4bh692rcd13ifvqea0","pricing_plan_id":"cebpf4jnsgd1na2vs0mg"},{"bike_id":"5be0039e-f728-4986-8b69-c2e4a3ab8042","system_id":"levelo_inurba_marseille","lat":43.33023,"lon":5.3904,"is_reserved":false,"is_disabled":false,"rental_uris":{"android":"levelo://app?vid=5be0039e-f728-4986-8b69-c2e4a3ab8042","ios":"levelo://app?vid=5be0039e-f728-4986-8b69-c2e4a3ab8042"},"vehicle_type_id":"4","last_reported":1747599073,"current_range_meters":14800,"station_id":"ce4bhr92rcd13ifvqhrg","pricing_plan_id":"cebpf4jnsgd1na2vs0mg"},{"bike_id":"67eb2d48-4a91-47f5-8520-695b8b16224f","system_id":"levelo_inurba_marseille","lat":43.30133,"lon":5.39848,"is_reserved":false,"is_disabled":false,"rental_uris":{"android":"levelo://app?vid=67eb2d48-4a91-47f5-8520-695b8b16224f","ios":"levelo://app?vid=67eb2d48-4a91-47f5-8520-695b8b16224f"},"vehicle_type_id":"4","last_reported":1747599073,"current_range_meters":14800,"station_id":"ce4bh0h2rcd13ifvqd40","pricing_plan_id":"cebpf4jnsgd1na2vs0mg"},{"bike_id":"e2483e33-e22f-4969-8812-f7cdcc75c59a","system_id":"levelo_inurba_marseille","lat":43.32362,"lon":5.36747,"is_reserved":false,"is_disabled":false,"rental_uris":{"android":"levelo://app?vid=e2483e33-e22f-4969-8812-f7cdcc75c59a","ios":"levelo://app?vid=e2483e33-e22f-4969-8812-f7cdcc75c59a"},"vehicle_type_id":"4","last_reported":1747599073,"current_range_meters":15200,"station_id":"ce4bhsh2rcd13ifvqi2g","pricing_plan_id":"cebpf4jnsgd1na2vs0mg"},{"bike_id":"f0a690f3-aaef-41ef-91ff-088837a16951","system_id":"levelo_inurba_marseille","lat":43.25719,"lon":5.41117,"is_reserved":false,"is_disabled":false,"rental_uris":{"android":"levelo://app?vid=f0a690f3-aaef-41ef-91ff-088837a16951","ios":"levelo://app?vid=f0a690f3-aaef-41ef-91ff-088837a16951"},"vehicle_type_id":"4","last_reported":1747599073,"current_range_meters":15200,"station_id":"ce4bhkp2rcd13ifvqgd0","pricing_plan_id":"cebpf4jnsgd1na2vs0mg"},{"bike_id":"5e99e98d-fccb-4c61-9187-e822e25bf6b5","system_id":"levelo_inurba_marseille","lat":43.33607,"lon":5.41033,"is_reserved":false,"is_disabled":false,"rental_uris":{"android":"levelo://app?vid=5e99e98d-fccb-4c61-9187-e822e25bf6b5","ios":"levelo://app?vid=5e99e98d-fccb-4c61-9187-e822e25bf6b5"},"vehicle_type_id":"4","last_reported":1747599073,"current_range_meters":14800,"station_id":"ce4bhqh2rcd13ifvqhmg","pricing_plan_id":"cebpf4jnsgd1na2vs0mg"},{"bike_id":"a0ef91e8-eab4-4e92-9764-f8b59bed148c","system_id":"levelo_inurba_marseille","lat":43.31338,"lon":5.38481,"is_reserved":false,"is_disabled":false,"rental_uris":{"android":"levelo://app?vid=a0ef91e8-eab4-4e92-9764-f8b59bed148c","ios":"levelo://app?vid=a0ef91e8-eab4-4e92-9764-f8b59bed148c"},"vehicle_type_id":"4","last_reported":1747599073,"current_range_meters":15200,"station_id":"ce4bgt92rcd13ifvqcf0","pricing_plan_id":"cebpf4jnsgd1na2vs0mg"},{"bike_id":"cbf22af3-6c8f-4023-8971-3961263cafe8","system_id":"levelo_inurba_marseille","lat":43.287,"lon":5.37396,"is_reserved":false,"is_disabled":true,"rental_uris":{"android":"levelo://app?vid=cbf22af3-6c8f-4023-8971-3961263cafe8","ios":"levelo://app?vid=cbf22af3-6c8f-4023-8971-3961263cafe8"},"vehicle_type_id":"4","last_reported":1747599073,"current_range_meters":15200,"station_id":"ce4bh3p2rcd13ifvqdq0","pricing_plan_id":"cebpf4jnsgd1na2vs0mg"},{"bike_id":"26ae3f71-446b-4d48-9715-d0cb78472fbf","system_id":"levelo_inurba_marseille","lat":43.31159,"lon":5.37015,"is_reserved":false,"is_disabled":false,"rental_uris":{"android":"levelo://app?vid=26ae3f71-446b-4d48-9715-d0cb78472fbf","ios":"levelo://app?vid=26ae3f71-446b-4d48-9715-d0cb78472fbf"},"vehicle_type_id":"4","last_reported":1747599073,"current_range_meters":15200,"station_id":"","pricing_plan_id":"cebpf4jnsgd1na2vs0mg"},{"bike_id":"83716387-b62a-46f5-aaba-b1b2f0e6a3a9","system_id":"levelo_inurba_marseille","lat":43.2756,"lon":5.38424,"is_reserved":false,"is_disabled":false,"rental_uris":{"android":"levelo://app?vid=83716387-b62a-46f5-aaba-b1b2f0e6a3a9","ios":"levelo://app?vid=83716387-b62a-46f5-aaba-b1b2f0e6a3a9"},"vehicle_type_id":"4","last_reported":1747599073,"current_range_meters":15200,"station_id":"ce4bhh92rcd13ifvqfi0","pricing_plan_id":"cebpf4jnsgd1na2vs0mg"},{"bike_id":"084b4175-becf-4644-941e-86c69e78d6e0","system_id":"levelo_inurba_marseille","lat":43.27959,"lon":5.41076,"is_reserved":false,"is_disabled":false,"rental_uris":{"android":"levelo://app?vid=084b4175-becf-4644-941e-86c69e78d6e0","ios":"levelo://app?vid=084b4175-becf-4644-941e-86c69e78d6e0"},"vehicle_type_id":"4","last_reported":1747599073,"current_range_meters":16000,"station_id":"ce4bhnp2rcd13ifvqh0g","pricing_plan_id":"cebpf4jnsgd1na2vs0mg"},{"bike_id":"43d95b57-3a1d-4bd4-b0f5-537a29764826","system_id":"levelo_inurba_marseille","lat":43.29256,"lon":5.40911,"is_reserved":false,"is_disabled":false,"rental_uris":{"android":"levelo://app?vid=43d95b57-3a1d-4bd4-b0f5-537a29764826","ios":"levelo://app?vid=43d95b57-3a1d-4bd4-b0f5-537a29764826"},"vehicle_type_id":"4","last_reported":1747599073,"current_range_meters":16000,"station_id":"ce4bh192rcd13ifvqdc0","pricing_plan_id":"cebpf4jnsgd1na2vs0mg"},{"bike_id":"da335120-c6d0-4242-98e2-5d1e7c4e70c1","system_id":"levelo_inurba_marseille","lat":43.31888,"lon":5.40738,"is_reserved":false,"is_disabled":false,"rental_uris":{"android":"levelo://app?vid=da335120-c6d0-4242-98e2-5d1e7c4e70c1","ios":"levelo://app?vid=da335120-c6d0-4242-98e2-5d1e7c4e70c1"},"vehicle_type_id":"4","last_reported":1747599073,"current_range_meters":16000,"station_id":"ce4bhq12rcd13ifvqhig","pricing_plan_id":"cebpf4jnsgd1na2vs0mg"},{"bike_id":"bbe3db07-51cb-41d8-9238-94b69c6dda0e","system_id":"levelo_inurba_marseille","lat":43.32766,"lon":5.38914,"is_reserved":false,"is_disabled":false,"rental_uris":{"android":"levelo://app?vid=bbe3db07-51cb-41d8-9238-94b69c6dda0e","ios":"levelo://app?vid=bbe3db07-51cb-41d8-9238-94b69c6dda0e"},"vehicle_type_id":"4","last_reported":1747599073,"current_range_meters":16000,"station_id":"","pricing_plan_id":"cebpf4jnsgd1na2vs0mg"},{"bike_id":"9d6a5ec6-26d5-4463-b666-10f7bf73e147","system_id":"levelo_inurba_marseille","lat":43.29889,"lon":5.389,"is_reserved":false,"is_disabled":false,"rental_uris":{"android":"levelo://app?vid=9d6a5ec6-26d5-4463-b666-10f7bf73e147","ios":"levelo://app?vid=9d6a5ec6-26d5-4463-b666-10f7bf73e147"},"vehicle_type_id":"4","last_reported":1747599073,"current_range_meters":16000,"station_id":"ce4bh392rcd13ifvqdl0","pricing_plan_id":"cebpf4jnsgd1na2vs0mg"},{"bike_id":"561458c5-42d8-4dd5-8325-d47d7ba61f12","system_id":"levelo_inurba_marseille","lat":43.27561,"lon":5.38413,"is_reserved":false,"is_disabled":false,"rental_uris":{"android":"levelo://app?vid=561458c5-42d8-4dd5-8325-d47d7ba61f12","ios":"levelo://app?vid=561458c5-42d8-4dd5-8325-d47d7ba61f12"},"vehicle_type_id":"4","last_reported":1747599073,"current_range_meters":16000,"station_id":"ce4bhh92rcd13ifvqfi0","pricing_plan_id":"cebpf4jnsgd1na2vs0mg"},{"bike_id":"1dcdcf4d-a775-45b7-ba77-12918f1606de","system_id":"levelo_inurba_marseille","lat":43.29098,"lon":5.38156,"is_reserved":false,"is_disabled":false,"rental_uris":{"android":"levelo://app?vid=1dcdcf4d-a775-45b7-ba77-12918f1606de","ios":"levelo://app?vid=1dcdcf4d-a775-45b7-ba77-12918f1606de"},"vehicle_type_id":"4","last_reported":1747599073,"current_range_meters":16000,"station_id":"ce4bh512rcd13ifvqe2g","pricing_plan_id":"cebpf4jnsgd1na2vs0mg"},{"bike_id":"95596f54-ff37-48dd-9f40-166da33becf3","system_id":"levelo_inurba_marseille","lat":43.29028,"lon":5.38645,"is_reserved":false,"is_disabled":false,"rental_uris":{"android":"levelo://app?vid=95596f54-ff37-48dd-9f40-166da33becf3","ios":"levelo://app?vid=95596f54-ff37-48dd-9f40-166da33becf3"},"vehicle_type_id":"4","last_reported":1747599073,"current_range_meters":16000,"station_id":"ce4bh4p2rcd13ifvqe0g","pricing_plan_id":"cebpf4jnsgd1na2vs0mg"},{"bike_id":"fba103a6-30ce-481c-a05a-9411e513bfcf","system_id":"levelo_inurba_marseille","lat":43.25933,"lon":5.40914,"is_reserved":false,"is_disabled":false,"rental_uris":{"android":"levelo://app?vid=fba103a6-30ce-481c-a05a-9411e513bfcf","ios":"levelo://app?vid=fba103a6-30ce-481c-a05a-9411e513bfcf"},"vehicle_type_id":"4","last_reported":1747599073,"current_range_meters":16000,"station_id":"ce4bhm92rcd13ifvqglg","pricing_plan_id":"cebpf4jnsgd1na2vs0mg"},{"bike_id":"f10c7f80-369b-498b-8d67-1d2ccccfe061","system_id":"levelo_inurba_marseille","lat":43.28765,"lon":5.37391,"is_reserved":false,"is_disabled":false,"rental_uris":{"android":"levelo://app?vid=f10c7f80-369b-498b-8d67-1d2ccccfe061","ios":"levelo://app?vid=f10c7f80-369b-498b-8d67-1d2ccccfe061"},"vehicle_type_id":"4","last_reported":1747599073,"current_range_meters":16000,"station_id":"ce4bh3p2rcd13ifvqdq0","pricing_plan_id":"cebpf4jnsgd1na2vs0mg"},{"bike_id":"9035525d-8db2-478d-8eca-49e4b86cd727","system_id":"levelo_inurba_marseille","lat":43.29895,"lon":5.43672,"is_reserved":false,"is_disabled":false,"rental_uris":{"android":"levelo://app?vid=9035525d-8db2-478d-8eca-49e4b86cd727","ios":"levelo://app?vid=9035525d-8db2-478d-8eca-49e4b86cd727"},"vehicle_type_id":"4","last_reported":1747599073,"current_range_meters":16400,"station_id":"ce4bhpp2rcd13ifvqhfg","pricing_plan_id":"cebpf4jnsgd1na2vs0mg"},{"bike_id":"41389e7c-6f3c-410d-88e7-f591b55a002a","system_id":"levelo_inurba_marseille","lat":43.240624,"lon":5.37763,"is_reserved":false,"is_disabled":false,"rental_uris":{"android":"levelo://app?vid=41389e7c-6f3c-410d-88e7-f591b55a002a","ios":"levelo://app?vid=41389e7c-6f3c-410d-88e7-f591b55a002a"},"vehicle_type_id":"4","last_reported":1747599073,"current_range_meters":16400,"station_id":"ce4bhnp2rcd13ifvqgvg","pricing_plan_id":"cebpf4jnsgd1na2vs0mg"},{"bike_id":"dc51b593-a5cd-4446-8449-f319ed28e729","system_id":"levelo_inurba_marseille","lat":43.310736,"lon":5.400942,"is_reserved":false,"is_disabled":false,"rental_uris":{"android":"levelo://app?vid=dc51b593-a5cd-4446-8449-f319ed28e729","ios":"levelo://app?vid=dc51b593-a5cd-4446-8449-f319ed28e729"},"vehicle_type_id":"4","last_reported":1747599073,"current_range_meters":16400,"station_id":"","pricing_plan_id":"cebpf4jnsgd1na2vs0mg"},{"bike_id":"d542e776-69f0-4cdf-b35b-7eef0177c38b","system_id":"levelo_inurba_marseille","lat":43.28727,"lon":5.36078,"is_reserved":false,"is_disabled":false,"rental_uris":{"android":"levelo://app?vid=d542e776-69f0-4cdf-b35b-7eef0177c38b","ios":"levelo://app?vid=d542e776-69f0-4cdf-b35b-7eef0177c38b"},"vehicle_type_id":"4","last_reported":1747599073,"current_range_meters":16400,"station_id":"cki0cbj6b192h4jlfktg","pricing_plan_id":"cebpf4jnsgd1na2vs0mg"},{"bike_id":"c7499386-dc2a-4a4c-830d-bea3ba4afc63","system_id":"levelo_inurba_marseille","lat":43.29774,"lon":5.38116,"is_reserved":false,"is_disabled":true,"rental_uris":{"android":"levelo://app?vid=c7499386-dc2a-4a4c-830d-bea3ba4afc63","ios":"levelo://app?vid=c7499386-dc2a-4a4c-830d-bea3ba4afc63"},"vehicle_type_id":"4","last_reported":1747599073,"current_range_meters":16400,"station_id":"ce4bgip2rcd13ifvqbb0","pricing_plan_id":"cebpf4jnsgd1na2vs0mg"},{"bike_id":"90bb7a19-74dd-4320-94b3-1629a4028834","system_id":"levelo_inurba_marseille","lat":43.21739,"lon":5.34606,"is_reserved":false,"is_disabled":true,"rental_uris":{"android":"levelo://app?vid=90bb7a19-74dd-4320-94b3-1629a4028834","ios":"levelo://app?vid=90bb7a19-74dd-4320-94b3-1629a4028834"},"vehicle_type_id":"4","last_reported":1747599073,"current_range_meters":16400,"station_id":"st_cvj6r9ubvosntc0bgbag","pricing_plan_id":"cebpf4jnsgd1na2vs0mg"},{"bike_id":"f441b4d6-d50a-454a-9ff3-28bb0eb62a62","system_id":"levelo_inurba_marseille","lat":43.27074,"lon":5.42276,"is_reserved":false,"is_disabled":false,"rental_uris":{"android":"levelo://app?vid=f441b4d6-d50a-454a-9ff3-28bb0eb62a62","ios":"levelo://app?vid=f441b4d6-d50a-454a-9ff3-28bb0eb62a62"},"vehicle_type_id":"4","last_reported":1747599073,"current_range_meters":16400,"station_id":"ce4bhk92rcd13ifvqgb0","pricing_plan_id":"cebpf4jnsgd1na2vs0mg"},{"bike_id":"62bd13ec-e5aa-4cd0-90ff-46c833daf45a","system_id":"levelo_inurba_marseille","lat":43.29266,"lon":5.38433,"is_reserved":false,"is_disabled":false,"rental_uris":{"android":"levelo://app?vid=62bd13ec-e5aa-4cd0-90ff-46c833daf45a","ios":"levelo://app?vid=62bd13ec-e5aa-4cd0-90ff-46c833daf45a"},"vehicle_type_id":"4","last_reported":1747599073,"current_range_meters":16800,"station_id":"ce4bh692rcd13ifvqea0","pricing_plan_id":"cebpf4jnsgd1na2vs0mg"},{"bike_id":"bffbaf88-357a-4e87-a68c-a9a27a6e01e6","system_id":"levelo_inurba_marseille","lat":43.26215,"lon":5.42113,"is_reserved":false,"is_disabled":false,"rental_uris":{"android":"levelo://app?vid=bffbaf88-357a-4e87-a68c-a9a27a6e01e6","ios":"levelo://app?vid=bffbaf88-357a-4e87-a68c-a9a27a6e01e6"},"vehicle_type_id":"4","last_reported":1747599073,"current_range_meters":16800,"station_id":"","pricing_plan_id":"cebpf4jnsgd1na2vs0mg"},{"bike_id":"d39cae16-34b5-4b82-8fc6-cac28c889070","system_id":"levelo_inurba_marseille","lat":43.29455,"lon":5.38674,"is_reserved":false,"is_disabled":true,"rental_uris":{"android":"levelo://app?vid=d39cae16-34b5-4b82-8fc6-cac28c889070","ios":"levelo://app?vid=d39cae16-34b5-4b82-8fc6-cac28c889070"},"vehicle_type_id":"4","last_reported":1747599073,"current_range_meters":16800,"station_id":"","pricing_plan_id":"cebpf4jnsgd1na2vs0mg"},{"bike_id":"477bf49d-04fb-48c6-9dfe-f96deb783f31","system_id":"levelo_inurba_marseille","lat":43.284816,"lon":5.385354,"is_reserved":false,"is_disabled":true,"rental_uris":{"android":"levelo://app?vid=477bf49d-04fb-48c6-9dfe-f96deb783f31","ios":"levelo://app?vid=477bf49d-04fb-48c6-9dfe-f96deb783f31"},"vehicle_type_id":"4","last_reported":1747599073,"current_range_meters":16800,"station_id":"ce4bh8p2rcd13ifvqeb0","pricing_plan_id":"cebpf4jnsgd1na2vs0mg"},{"bike_id":"4aac057f-f75c-417b-a8a9-5efec82775ef","system_id":"levelo_inurba_marseille","lat":43.26061,"lon":5.39385,"is_reserved":false,"is_disabled":false,"rental_uris":{"android":"levelo://app?vid=4aac057f-f75c-417b-a8a9-5efec82775ef","ios":"levelo://app?vid=4aac057f-f75c-417b-a8a9-5efec82775ef"},"vehicle_type_id":"4","last_reported":1747599073,"current_range_meters":16400,"station_id":"ce4bhh92rcd13ifvqfj0","pricing_plan_id":"cebpf4jnsgd1na2vs0mg"},{"bike_id":"06c5d935-141e-4a2a-8a1c-99c6c936abb9","system_id":"levelo_inurba_marseille","lat":43.30724,"lon":5.42437,"is_reserved":false,"is_disabled":false,"rental_uris":{"android":"levelo://app?vid=06c5d935-141e-4a2a-8a1c-99c6c936abb9","ios":"levelo://app?vid=06c5d935-141e-4a2a-8a1c-99c6c936abb9"},"vehicle_type_id":"4","last_reported":1747599073,"current_range_meters":16800,"station_id":"st_cvj6ca6bvosntc0bfgr0","pricing_plan_id":"cebpf4jnsgd1na2vs0mg"},{"bike_id":"e4400bca-9867-4cb5-80bc-3bdcdb584df2","system_id":"levelo_inurba_marseille","lat":43.28727,"lon":5.37944,"is_reserved":false,"is_disabled":false,"rental_uris":{"android":"levelo://app?vid=e4400bca-9867-4cb5-80bc-3bdcdb584df2","ios":"levelo://app?vid=e4400bca-9867-4cb5-80bc-3bdcdb584df2"},"vehicle_type_id":"4","last_reported":1747599073,"current_range_meters":16800,"station_id":"ce4bh9p2rcd13ifvqec0","pricing_plan_id":"cebpf4jnsgd1na2vs0mg"},{"bike_id":"93bb0e99-2bb8-4c61-90e7-ea7c7adfa993","system_id":"levelo_inurba_marseille","lat":43.29951,"lon":5.36516,"is_reserved":false,"is_disabled":true,"rental_uris":{"android":"levelo://app?vid=93bb0e99-2bb8-4c61-90e7-ea7c7adfa993","ios":"levelo://app?vid=93bb0e99-2bb8-4c61-90e7-ea7c7adfa993"},"vehicle_type_id":"4","last_reported":1747599073,"current_range_meters":17200,"station_id":"ce4bgm92rcd13ifvqbr0","pricing_plan_id":"cebpf4jnsgd1na2vs0mg"},{"bike_id":"87e2ffe7-e2ac-484b-b2b1-fc1a1439801c","system_id":"levelo_inurba_marseille","lat":43.29247,"lon":5.3843,"is_reserved":false,"is_disabled":true,"rental_uris":{"android":"levelo://app?vid=87e2ffe7-e2ac-484b-b2b1-fc1a1439801c","ios":"levelo://app?vid=87e2ffe7-e2ac-484b-b2b1-fc1a1439801c"},"vehicle_type_id":"4","last_reported":1747599073,"current_range_meters":17200,"station_id":"ce4bh692rcd13ifvqea0","pricing_plan_id":"cebpf4jnsgd1na2vs0mg"},{"bike_id":"2c5b0dad-3a5c-4908-8ce2-98d1673660b3","system_id":"levelo_inurba_marseille","lat":43.28699,"lon":5.374,"is_reserved":false,"is_disabled":false,"rental_uris":{"android":"levelo://app?vid=2c5b0dad-3a5c-4908-8ce2-98d1673660b3","ios":"levelo://app?vid=2c5b0dad-3a5c-4908-8ce2-98d1673660b3"},"vehicle_type_id":"4","last_reported":1747599073,"current_range_meters":17200,"station_id":"ce4bh3p2rcd13ifvqdq0","pricing_plan_id":"cebpf4jnsgd1na2vs0mg"},{"bike_id":"9a0dedcc-cf1d-4901-9687-aa9a21d8b402","system_id":"levelo_inurba_marseille","lat":43.26933,"lon":5.40262,"is_reserved":false,"is_disabled":false,"rental_uris":{"android":"levelo://app?vid=9a0dedcc-cf1d-4901-9687-aa9a21d8b402","ios":"levelo://app?vid=9a0dedcc-cf1d-4901-9687-aa9a21d8b402"},"vehicle_type_id":"4","last_reported":1747599073,"current_range_meters":17200,"station_id":"cjm6bp8fraef2m0cb0m0","pricing_plan_id":"cebpf4jnsgd1na2vs0mg"},{"bike_id":"2b8eaed0-7195-4117-9102-0192d6a0abef","system_id":"levelo_inurba_marseille","lat":43.30787,"lon":5.37629,"is_reserved":false,"is_disabled":false,"rental_uris":{"android":"levelo://app?vid=2b8eaed0-7195-4117-9102-0192d6a0abef","ios":"levelo://app?vid=2b8eaed0-7195-4117-9102-0192d6a0abef"},"vehicle_type_id":"4","last_reported":1747599073,"current_range_meters":17200,"station_id":"ce4bgv92rcd13ifvqcq0","pricing_plan_id":"cebpf4jnsgd1na2vs0mg"},{"bike_id":"fca86a55-22f2-4b7a-b972-9f8946fa6983","system_id":"levelo_inurba_marseille","lat":43.30317,"lon":5.39199,"is_reserved":false,"is_disabled":true,"rental_uris":{"android":"levelo://app?vid=fca86a55-22f2-4b7a-b972-9f8946fa6983","ios":"levelo://app?vid=fca86a55-22f2-4b7a-b972-9f8946fa6983"},"vehicle_type_id":"4","last_reported":1747599073,"current_range_meters":17200,"station_id":"ce4bgkh2rcd13ifvqbk0","pricing_plan_id":"cebpf4jnsgd1na2vs0mg"},{"bike_id":"bf96caf2-259d-4544-ba8b-a805d582ae5a","system_id":"levelo_inurba_marseille","lat":43.28586,"lon":5.39492,"is_reserved":false,"is_disabled":false,"rental_uris":{"android":"levelo://app?vid=bf96caf2-259d-4544-ba8b-a805d582ae5a","ios":"levelo://app?vid=bf96caf2-259d-4544-ba8b-a805d582ae5a"},"vehicle_type_id":"4","last_reported":1747599073,"current_range_meters":17200,"station_id":"ce4bh292rcd13ifvqdg0","pricing_plan_id":"cebpf4jnsgd1na2vs0mg"},{"bike_id":"af8e1367-13d7-4d32-ac06-5a6f22fd73f0","system_id":"levelo_inurba_marseille","lat":43.29273,"lon":5.38444,"is_reserved":false,"is_disabled":false,"rental_uris":{"android":"levelo://app?vid=af8e1367-13d7-4d32-ac06-5a6f22fd73f0","ios":"levelo://app?vid=af8e1367-13d7-4d32-ac06-5a6f22fd73f0"},"vehicle_type_id":"4","last_reported":1747599073,"current_range_meters":17200,"station_id":"ce4bh692rcd13ifvqea0","pricing_plan_id":"cebpf4jnsgd1na2vs0mg"},{"bike_id":"74779d32-87cf-4f23-b047-7955c944ddd2","system_id":"levelo_inurba_marseille","lat":43.29817,"lon":5.38108,"is_reserved":false,"is_disabled":true,"rental_uris":{"android":"levelo://app?vid=74779d32-87cf-4f23-b047-7955c944ddd2","ios":"levelo://app?vid=74779d32-87cf-4f23-b047-7955c944ddd2"},"vehicle_type_id":"4","last_reported":1747599073,"current_range_meters":17200,"station_id":"ce4bgip2rcd13ifvqbb0","pricing_plan_id":"cebpf4jnsgd1na2vs0mg"},{"bike_id":"f63c9346-f5de-4472-920c-b0cafb41a135","system_id":"levelo_inurba_marseille","lat":43.270565,"lon":5.402929,"is_reserved":false,"is_disabled":true,"rental_uris":{"android":"levelo://app?vid=f63c9346-f5de-4472-920c-b0cafb41a135","ios":"levelo://app?vid=f63c9346-f5de-4472-920c-b0cafb41a135"},"vehicle_type_id":"4","last_reported":1747599073,"current_range_meters":17200,"station_id":"ce4bhk92rcd13ifvqgc0","pricing_plan_id":"cebpf4jnsgd1na2vs0mg"},{"bike_id":"710241c1-46a3-4954-9e50-bd4b0b3c4335","system_id":"levelo_inurba_marseille","lat":43.313658,"lon":5.38486,"is_reserved":false,"is_disabled":true,"rental_uris":{"android":"levelo://app?vid=710241c1-46a3-4954-9e50-bd4b0b3c4335","ios":"levelo://app?vid=710241c1-46a3-4954-9e50-bd4b0b3c4335"},"vehicle_type_id":"4","last_reported":1747599073,"current_range_meters":17600,"station_id":"ce4bgt92rcd13ifvqcf0","pricing_plan_id":"cebpf4jnsgd1na2vs0mg"},{"bike_id":"76ee76b0-73b2-42fe-9bbc-bc09871affe4","system_id":"levelo_inurba_marseille","lat":43.284773,"lon":5.384413,"is_reserved":false,"is_disabled":true,"rental_uris":{"android":"levelo://app?vid=76ee76b0-73b2-42fe-9bbc-bc09871affe4","ios":"levelo://app?vid=76ee76b0-73b2-42fe-9bbc-bc09871affe4"},"vehicle_type_id":"4","last_reported":1747599073,"current_range_meters":17600,"station_id":"ce4bh512rcd13ifvqe3g","pricing_plan_id":"cebpf4jnsgd1na2vs0mg"},{"bike_id":"eddc3e2f-204e-47a6-9d8f-809f554335b4","system_id":"levelo_inurba_marseille","lat":43.240713,"lon":5.377681,"is_reserved":false,"is_disabled":false,"rental_uris":{"android":"levelo://app?vid=eddc3e2f-204e-47a6-9d8f-809f554335b4","ios":"levelo://app?vid=eddc3e2f-204e-47a6-9d8f-809f554335b4"},"vehicle_type_id":"4","last_reported":1747599073,"current_range_meters":17600,"station_id":"ce4bhnp2rcd13ifvqgvg","pricing_plan_id":"cebpf4jnsgd1na2vs0mg"},{"bike_id":"ab40d454-2496-4967-a2a5-fd9afd944516","system_id":"levelo_inurba_marseille","lat":43.28702,"lon":5.374,"is_reserved":false,"is_disabled":false,"rental_uris":{"android":"levelo://app?vid=ab40d454-2496-4967-a2a5-fd9afd944516","ios":"levelo://app?vid=ab40d454-2496-4967-a2a5-fd9afd944516"},"vehicle_type_id":"4","last_reported":1747599073,"current_range_meters":17600,"station_id":"ce4bh3p2rcd13ifvqdq0","pricing_plan_id":"cebpf4jnsgd1na2vs0mg"},{"bike_id":"f2eed074-8bc5-4e4a-8f39-3d2e03c2c9a6","system_id":"levelo_inurba_marseille","lat":43.27805,"lon":5.3923,"is_reserved":false,"is_disabled":false,"rental_uris":{"android":"levelo://app?vid=f2eed074-8bc5-4e4a-8f39-3d2e03c2c9a6","ios":"levelo://app?vid=f2eed074-8bc5-4e4a-8f39-3d2e03c2c9a6"},"vehicle_type_id":"4","last_reported":1747599073,"current_range_meters":18000,"station_id":"ce4bhjp2rcd13ifvqga0","pricing_plan_id":"cebpf4jnsgd1na2vs0mg"},{"bike_id":"4de70b03-7bef-438b-84a8-997ff861022b","system_id":"levelo_inurba_marseille","lat":43.30139,"lon":5.38786,"is_reserved":false,"is_disabled":false,"rental_uris":{"android":"levelo://app?vid=4de70b03-7bef-438b-84a8-997ff861022b","ios":"levelo://app?vid=4de70b03-7bef-438b-84a8-997ff861022b"},"vehicle_type_id":"4","last_reported":1747599073,"current_range_meters":17600,"station_id":"ce4bghh2rcd13ifvqb60","pricing_plan_id":"cebpf4jnsgd1na2vs0mg"},{"bike_id":"ce2aa915-0bc0-4f5d-a206-a5cb4a9158cc","system_id":"levelo_inurba_marseille","lat":43.29624,"lon":5.37713,"is_reserved":false,"is_disabled":false,"rental_uris":{"android":"levelo://app?vid=ce2aa915-0bc0-4f5d-a206-a5cb4a9158cc","ios":"levelo://app?vid=ce2aa915-0bc0-4f5d-a206-a5cb4a9158cc"},"vehicle_type_id":"4","last_reported":1747599073,"current_range_meters":18000,"station_id":"ce4bgi92rcd13ifvqb90","pricing_plan_id":"cebpf4jnsgd1na2vs0mg"},{"bike_id":"9da96ebe-4dcd-43e8-b6f1-4a48d64c9ec9","system_id":"levelo_inurba_marseille","lat":43.33605,"lon":5.41031,"is_reserved":false,"is_disabled":false,"rental_uris":{"android":"levelo://app?vid=9da96ebe-4dcd-43e8-b6f1-4a48d64c9ec9","ios":"levelo://app?vid=9da96ebe-4dcd-43e8-b6f1-4a48d64c9ec9"},"vehicle_type_id":"4","last_reported":1747599073,"current_range_meters":17600,"station_id":"ce4bhqh2rcd13ifvqhmg","pricing_plan_id":"cebpf4jnsgd1na2vs0mg"},{"bike_id":"0dd5a398-7e40-41df-aac5-306c30c452c5","system_id":"levelo_inurba_marseille","lat":43.28343,"lon":5.38106,"is_reserved":false,"is_disabled":false,"rental_uris":{"android":"levelo://app?vid=0dd5a398-7e40-41df-aac5-306c30c452c5","ios":"levelo://app?vid=0dd5a398-7e40-41df-aac5-306c30c452c5"},"vehicle_type_id":"4","last_reported":1747599073,"current_range_meters":18000,"station_id":"ce4bh412rcd13ifvqdr0","pricing_plan_id":"cebpf4jnsgd1na2vs0mg"},{"bike_id":"f8f5af9e-e2cc-4175-b36d-c5abf7e4a4a2","system_id":"levelo_inurba_marseille","lat":43.28846,"lon":5.39288,"is_reserved":false,"is_disabled":false,"rental_uris":{"android":"levelo://app?vid=f8f5af9e-e2cc-4175-b36d-c5abf7e4a4a2","ios":"levelo://app?vid=f8f5af9e-e2cc-4175-b36d-c5abf7e4a4a2"},"vehicle_type_id":"4","last_reported":1747599073,"current_range_meters":22800,"station_id":"ce4bh192rcd13ifvqdd0","pricing_plan_id":"cebpf4jnsgd1na2vs0mg"},{"bike_id":"e8162579-a5ad-485f-ad83-fec8a2ebe7e1","system_id":"levelo_inurba_marseille","lat":43.26826,"lon":5.39099,"is_reserved":false,"is_disabled":false,"rental_uris":{"android":"levelo://app?vid=e8162579-a5ad-485f-ad83-fec8a2ebe7e1","ios":"levelo://app?vid=e8162579-a5ad-485f-ad83-fec8a2ebe7e1"},"vehicle_type_id":"4","last_reported":1747599073,"current_range_meters":18800,"station_id":"","pricing_plan_id":"cebpf4jnsgd1na2vs0mg"},{"bike_id":"ac71543e-2315-467d-b3f1-dda663a487c4","system_id":"levelo_inurba_marseille","lat":43.23946,"lon":5.36649,"is_reserved":false,"is_disabled":false,"rental_uris":{"android":"levelo://app?vid=ac71543e-2315-467d-b3f1-dda663a487c4","ios":"levelo://app?vid=ac71543e-2315-467d-b3f1-dda663a487c4"},"vehicle_type_id":"4","last_reported":1747599073,"current_range_meters":18800,"station_id":"ce4bhi12rcd13ifvqfp0","pricing_plan_id":"cebpf4jnsgd1na2vs0mg"},{"bike_id":"b96ddc74-5958-4a21-953e-5132debe6842","system_id":"levelo_inurba_marseille","lat":43.29976,"lon":5.37174,"is_reserved":false,"is_disabled":false,"rental_uris":{"android":"levelo://app?vid=b96ddc74-5958-4a21-953e-5132debe6842","ios":"levelo://app?vid=b96ddc74-5958-4a21-953e-5132debe6842"},"vehicle_type_id":"4","last_reported":1747599073,"current_range_meters":18000,"station_id":"ce4bgr92rcd13ifvqc7g","pricing_plan_id":"cebpf4jnsgd1na2vs0mg"},{"bike_id":"d7d50958-d866-4779-b5e9-dd4312f50791","system_id":"levelo_inurba_marseille","lat":43.29029,"lon":5.38645,"is_reserved":false,"is_disabled":false,"rental_uris":{"android":"levelo://app?vid=d7d50958-d866-4779-b5e9-dd4312f50791","ios":"levelo://app?vid=d7d50958-d866-4779-b5e9-dd4312f50791"},"vehicle_type_id":"4","last_reported":1747599073,"current_range_meters":18800,"station_id":"ce4bh4p2rcd13ifvqe0g","pricing_plan_id":"cebpf4jnsgd1na2vs0mg"},{"bike_id":"f0a6b2de-c87c-40a7-9b32-a10b3fa9565a","system_id":"levelo_inurba_marseille","lat":43.30324,"lon":5.40437,"is_reserved":false,"is_disabled":false,"rental_uris":{"android":"levelo://app?vid=f0a6b2de-c87c-40a7-9b32-a10b3fa9565a","ios":"levelo://app?vid=f0a6b2de-c87c-40a7-9b32-a10b3fa9565a"},"vehicle_type_id":"4","last_reported":1747599073,"current_range_meters":18000,"station_id":"ce4bh012rcd13ifvqd10","pricing_plan_id":"cebpf4jnsgd1na2vs0mg"},{"bike_id":"2fc2c404-de05-4e6c-a659-714ba6398df1","system_id":"levelo_inurba_marseille","lat":43.33877,"lon":5.40513,"is_reserved":false,"is_disabled":false,"rental_uris":{"android":"levelo://app?vid=2fc2c404-de05-4e6c-a659-714ba6398df1","ios":"levelo://app?vid=2fc2c404-de05-4e6c-a659-714ba6398df1"},"vehicle_type_id":"4","last_reported":1747599073,"current_range_meters":18800,"station_id":"","pricing_plan_id":"cebpf4jnsgd1na2vs0mg"},{"bike_id":"d3db3c57-2ffb-4eb1-8fcb-20f319590f39","system_id":"levelo_inurba_marseille","lat":43.28857,"lon":5.39303,"is_reserved":false,"is_disabled":false,"rental_uris":{"android":"levelo://app?vid=d3db3c57-2ffb-4eb1-8fcb-20f319590f39","ios":"levelo://app?vid=d3db3c57-2ffb-4eb1-8fcb-20f319590f39"},"vehicle_type_id":"4","last_reported":1747599073,"current_range_meters":18800,"station_id":"ce4bh2p2rcd13ifvqdi0","pricing_plan_id":"cebpf4jnsgd1na2vs0mg"},{"bike_id":"4582e055-67fa-41ba-a2c6-1d89aedd7e83","system_id":"levelo_inurba_marseille","lat":43.28934,"lon":5.38374,"is_reserved":false,"is_disabled":false,"rental_uris":{"android":"levelo://app?vid=4582e055-67fa-41ba-a2c6-1d89aedd7e83","ios":"levelo://app?vid=4582e055-67fa-41ba-a2c6-1d89aedd7e83"},"vehicle_type_id":"4","last_reported":1747599073,"current_range_meters":18800,"station_id":"","pricing_plan_id":"cebpf4jnsgd1na2vs0mg"},{"bike_id":"50ffb605-90dd-4a75-ad47-03bffd5ee4e1","system_id":"levelo_inurba_marseille","lat":43.28706,"lon":5.37394,"is_reserved":false,"is_disabled":false,"rental_uris":{"android":"levelo://app?vid=50ffb605-90dd-4a75-ad47-03bffd5ee4e1","ios":"levelo://app?vid=50ffb605-90dd-4a75-ad47-03bffd5ee4e1"},"vehicle_type_id":"4","last_reported":1747599073,"current_range_meters":19200,"station_id":"ce4bh3p2rcd13ifvqdq0","pricing_plan_id":"cebpf4jnsgd1na2vs0mg"},{"bike_id":"a7f7c69f-8e30-4ab1-b0ad-53d7a45c0a15","system_id":"levelo_inurba_marseille","lat":43.243833,"lon":5.370699,"is_reserved":false,"is_disabled":true,"rental_uris":{"android":"levelo://app?vid=a7f7c69f-8e30-4ab1-b0ad-53d7a45c0a15","ios":"levelo://app?vid=a7f7c69f-8e30-4ab1-b0ad-53d7a45c0a15"},"vehicle_type_id":"4","last_reported":1747599073,"current_range_meters":19200,"station_id":"ce4bhhh2rcd13ifvqfk0","pricing_plan_id":"cebpf4jnsgd1na2vs0mg"},{"bike_id":"5b5b5308-5520-4034-b7ad-f4dfde106a04","system_id":"levelo_inurba_marseille","lat":43.28155,"lon":5.42639,"is_reserved":false,"is_disabled":false,"rental_uris":{"android":"levelo://app?vid=5b5b5308-5520-4034-b7ad-f4dfde106a04","ios":"levelo://app?vid=5b5b5308-5520-4034-b7ad-f4dfde106a04"},"vehicle_type_id":"4","last_reported":1747599073,"current_range_meters":19200,"station_id":"ce4bhnh2rcd13ifvqgug","pricing_plan_id":"cebpf4jnsgd1na2vs0mg"},{"bike_id":"0162ee7e-52a7-479d-91fd-dd08a70dfd39","system_id":"levelo_inurba_marseille","lat":43.291568,"lon":5.393206,"is_reserved":false,"is_disabled":false,"rental_uris":{"android":"levelo://app?vid=0162ee7e-52a7-479d-91fd-dd08a70dfd39","ios":"levelo://app?vid=0162ee7e-52a7-479d-91fd-dd08a70dfd39"},"vehicle_type_id":"4","last_reported":1747599073,"current_range_meters":19200,"station_id":"ce4bh192rcd13ifvqdd0","pricing_plan_id":"cebpf4jnsgd1na2vs0mg"},{"bike_id":"10079349-e9e5-403f-a822-e397aa6d3540","system_id":"levelo_inurba_marseille","lat":43.31537,"lon":5.38038,"is_reserved":false,"is_disabled":false,"rental_uris":{"android":"levelo://app?vid=10079349-e9e5-403f-a822-e397aa6d3540","ios":"levelo://app?vid=10079349-e9e5-403f-a822-e397aa6d3540"},"vehicle_type_id":"4","last_reported":1747599073,"current_range_meters":19200,"station_id":"ce4bhsp2rcd13ifvqi50","pricing_plan_id":"cebpf4jnsgd1na2vs0mg"},{"bike_id":"ec5696db-b3a4-4ace-9494-c5ae12f4361d","system_id":"levelo_inurba_marseille","lat":43.27451,"lon":5.36068,"is_reserved":false,"is_disabled":true,"rental_uris":{"android":"levelo://app?vid=ec5696db-b3a4-4ace-9494-c5ae12f4361d","ios":"levelo://app?vid=ec5696db-b3a4-4ace-9494-c5ae12f4361d"},"vehicle_type_id":"4","last_reported":1747599073,"current_range_meters":19200,"station_id":"","pricing_plan_id":"cebpf4jnsgd1na2vs0mg"},{"bike_id":"ea96c65d-10a8-45bf-84e5-22d610d42b6d","system_id":"levelo_inurba_marseille","lat":43.29731,"lon":5.36597,"is_reserved":false,"is_disabled":false,"rental_uris":{"android":"levelo://app?vid=ea96c65d-10a8-45bf-84e5-22d610d42b6d","ios":"levelo://app?vid=ea96c65d-10a8-45bf-84e5-22d610d42b6d"},"vehicle_type_id":"4","last_reported":1747599073,"current_range_meters":18800,"station_id":"ce4bgn12rcd13ifvqbt0","pricing_plan_id":"cebpf4jnsgd1na2vs0mg"},{"bike_id":"dff6d6b0-3112-4761-a848-c5f709967f74","system_id":"levelo_inurba_marseille","lat":43.25497,"lon":5.37649,"is_reserved":false,"is_disabled":false,"rental_uris":{"android":"levelo://app?vid=dff6d6b0-3112-4761-a848-c5f709967f74","ios":"levelo://app?vid=dff6d6b0-3112-4761-a848-c5f709967f74"},"vehicle_type_id":"4","last_reported":1747599073,"current_range_meters":19200,"station_id":"ce4bhh12rcd13ifvqff0","pricing_plan_id":"cebpf4jnsgd1na2vs0mg"},{"bike_id":"f198f61c-140a-45ab-9df5-fbdfbf1e2560","system_id":"levelo_inurba_marseille","lat":43.32005,"lon":5.38123,"is_reserved":false,"is_disabled":true,"rental_uris":{"android":"levelo://app?vid=f198f61c-140a-45ab-9df5-fbdfbf1e2560","ios":"levelo://app?vid=f198f61c-140a-45ab-9df5-fbdfbf1e2560"},"vehicle_type_id":"4","last_reported":1747599073,"current_range_meters":19200,"station_id":"ce4bhr12rcd13ifvqhpg","pricing_plan_id":"cebpf4jnsgd1na2vs0mg"},{"bike_id":"c0e7bb3b-0b3d-4552-b247-0bf6f42e70a1","system_id":"levelo_inurba_marseille","lat":43.28155,"lon":5.42647,"is_reserved":false,"is_disabled":false,"rental_uris":{"android":"levelo://app?vid=c0e7bb3b-0b3d-4552-b247-0bf6f42e70a1","ios":"levelo://app?vid=c0e7bb3b-0b3d-4552-b247-0bf6f42e70a1"},"vehicle_type_id":"4","last_reported":1747599073,"current_range_meters":19600,"station_id":"ce4bhnh2rcd13ifvqgug","pricing_plan_id":"cebpf4jnsgd1na2vs0mg"},{"bike_id":"2b1a9abb-b4fe-48ac-a33c-e26414700371","system_id":"levelo_inurba_marseille","lat":43.25107,"lon":5.40329,"is_reserved":false,"is_disabled":false,"rental_uris":{"android":"levelo://app?vid=2b1a9abb-b4fe-48ac-a33c-e26414700371","ios":"levelo://app?vid=2b1a9abb-b4fe-48ac-a33c-e26414700371"},"vehicle_type_id":"4","last_reported":1747599073,"current_range_meters":19600,"station_id":"ce4bhlh2rcd13ifvqgig","pricing_plan_id":"cebpf4jnsgd1na2vs0mg"},{"bike_id":"e047b05a-36e0-4e37-b294-3b5ddd602af4","system_id":"levelo_inurba_marseille","lat":43.285812,"lon":5.394946,"is_reserved":false,"is_disabled":false,"rental_uris":{"android":"levelo://app?vid=e047b05a-36e0-4e37-b294-3b5ddd602af4","ios":"levelo://app?vid=e047b05a-36e0-4e37-b294-3b5ddd602af4"},"vehicle_type_id":"4","last_reported":1747599073,"current_range_meters":19600,"station_id":"","pricing_plan_id":"cebpf4jnsgd1na2vs0mg"},{"bike_id":"2505aac7-e4ca-4735-996a-27b9fd8c0d69","system_id":"levelo_inurba_marseille","lat":43.28144,"lon":5.42629,"is_reserved":false,"is_disabled":false,"rental_uris":{"android":"levelo://app?vid=2505aac7-e4ca-4735-996a-27b9fd8c0d69","ios":"levelo://app?vid=2505aac7-e4ca-4735-996a-27b9fd8c0d69"},"vehicle_type_id":"4","last_reported":1747599073,"current_range_meters":20000,"station_id":"ce4bhnh2rcd13ifvqgug","pricing_plan_id":"cebpf4jnsgd1na2vs0mg"},{"bike_id":"192ae61e-5e2e-43d5-a32e-88cc0487ea7c","system_id":"levelo_inurba_marseille","lat":43.24651,"lon":5.38903,"is_reserved":false,"is_disabled":false,"rental_uris":{"android":"levelo://app?vid=192ae61e-5e2e-43d5-a32e-88cc0487ea7c","ios":"levelo://app?vid=192ae61e-5e2e-43d5-a32e-88cc0487ea7c"},"vehicle_type_id":"4","last_reported":1747599073,"current_range_meters":20000,"station_id":"ce4bhg12rcd13ifvqf60","pricing_plan_id":"cebpf4jnsgd1na2vs0mg"},{"bike_id":"dd028fd8-84fb-44e3-948c-935371aafeee","system_id":"levelo_inurba_marseille","lat":43.29571,"lon":5.39975,"is_reserved":false,"is_disabled":false,"rental_uris":{"android":"levelo://app?vid=dd028fd8-84fb-44e3-948c-935371aafeee","ios":"levelo://app?vid=dd028fd8-84fb-44e3-948c-935371aafeee"},"vehicle_type_id":"4","last_reported":1747599073,"current_range_meters":20000,"station_id":"ce4bh312rcd13ifvqdj0","pricing_plan_id":"cebpf4jnsgd1na2vs0mg"},{"bike_id":"fd1c3f25-69ae-4505-9e75-d47fc999dc80","system_id":"levelo_inurba_marseille","lat":43.2792,"lon":5.39579,"is_reserved":false,"is_disabled":false,"rental_uris":{"android":"levelo://app?vid=fd1c3f25-69ae-4505-9e75-d47fc999dc80","ios":"levelo://app?vid=fd1c3f25-69ae-4505-9e75-d47fc999dc80"},"vehicle_type_id":"4","last_reported":1747599073,"current_range_meters":20000,"station_id":"ce4bhf92rcd13ifvqf40","pricing_plan_id":"cebpf4jnsgd1na2vs0mg"},{"bike_id":"edf094be-8b64-463a-9cf8-c0023af83e21","system_id":"levelo_inurba_marseille","lat":43.29034,"lon":5.38649,"is_reserved":false,"is_disabled":false,"rental_uris":{"android":"levelo://app?vid=edf094be-8b64-463a-9cf8-c0023af83e21","ios":"levelo://app?vid=edf094be-8b64-463a-9cf8-c0023af83e21"},"vehicle_type_id":"4","last_reported":1747599073,"current_range_meters":20000,"station_id":"ce4bh4p2rcd13ifvqe0g","pricing_plan_id":"cebpf4jnsgd1na2vs0mg"},{"bike_id":"d7203eb9-c20c-4108-9b13-fc25631b27b9","system_id":"levelo_inurba_marseille","lat":43.31976,"lon":5.38729,"is_reserved":false,"is_disabled":false,"rental_uris":{"android":"levelo://app?vid=d7203eb9-c20c-4108-9b13-fc25631b27b9","ios":"levelo://app?vid=d7203eb9-c20c-4108-9b13-fc25631b27b9"},"vehicle_type_id":"4","last_reported":1747599073,"current_range_meters":20000,"station_id":"","pricing_plan_id":"cebpf4jnsgd1na2vs0mg"},