{"last_updated":1758431368,"ttl":60,"version":"2.2","data":{"bikes":[{"bike_id":"991a8aea-9381-41eb-8503-6bf66cbd3d27","system_id":"levelo_inurba_marseille","lat":43.28364,"lon":5.38609,"is_reserved":false,"is_disabled":false,"rental_uris":{"android":"levelo://app?vid=991a8aea-9381-41eb-8503-6bf66cbd3d27","ios":"levelo://app?vid=991a8aea-9381-41eb-8503-6bf66cbd3d27"},"vehicle_type_id":"4","last_reported":1758431368,"current_range_meters":2800,"station_id":"ce4bh492rcd13ifvqdvg","pricing_plan_id":"cebpf4jnsgd1na2vs0mg"},{"bike_id":"90010aba-f5e4-4e5d-8823-acd8e56ec713","system_id":"levelo_inurba_marseille","lat":43.31176,"lon":5.38676,"is_reserved":false,"is_disabled":false,"rental_uris":{"android":"levelo://app?vid=90010aba-f5e4-4e5d-8823-acd8e56ec713","ios":"levelo://app?vid=90010aba-f5e4-4e5d-8823-acd8e56ec713"},"vehicle_type_id":"4","last_reported":1758431368,"current_range_meters":2800,"station_id":"ce4bgv12rcd13ifvqcp0","pricing_plan_id":"cebpf4jnsgd1na2vs0mg"},{"bike_id":"dd54508b-cebc-429e-947d-94cace74c022","system_id":"levelo_inurba_marseille","lat":43.23962,"lon":5.36619,"is_reserved":false,"is_disabled":true,"rental_uris":{"android":"levelo://app?vid=dd54508b-cebc-429e-947d-94cace74c022","ios":"levelo://app?vid=dd54508b-cebc-429e-947d-94cace74c022"},"vehicle_type_id":"4","last_reported":1758431368,"current_range_meters":2800,"station_id":"ce4bhi12rcd13ifvqfp0","pricing_plan_id":"cebpf4jnsgd1na2vs0mg"},{"bike_id":"0b8ccb78-96e0-4052-ae10-9534ba20a6b0","system_id":"levelo_inurba_marseille","lat":43.243954,"lon":5.370549,"is_reserved":false,"is_disabled":false,"rental_uris":{"android":"levelo://app?vid=0b8ccb78-96e0-4052-ae10-9534ba20a6b0","ios":"levelo://app?vid=0b8ccb78-96e0-4052-ae10-9534ba20a6b0"},"vehicle_type_id":"4","last_reported":1758431368,"current_range_meters":2800,"station_id":"ce4bhhh2rcd13ifvqfk0","pricing_plan_id":"cebpf4jnsgd1na2vs0mg"},{"bike_id":"25f89e1a-3e84-4862-bca0-e5fb191b2d10","system_id":"levelo_inurba_marseille","lat":43.30204,"lon":5.36601,"is_reserved":false,"is_disabled":false,"rental_uris":{"android":"levelo://app?vid=25f89e1a-3e84-4862-bca0-e5fb191b2d10","ios":"levelo://app?vid=25f89e1a-3e84-4862-bca0-e5fb191b2d10"},"vehicle_type_id":"4","last_reported":1758431368,"current_range_meters":2800,"station_id":"ce4bgrh2rcd13ifvqc8g","pricing_plan_id":"cebpf4jnsgd1na2vs0mg"},{"bike_id":"1099a874-2b91-469f-bfc8-d090756c7664","system_id":"levelo_inurba_marseille","lat":43.25341,"lon":5.42228,"is_reserved":false,"is_disabled":false,"rental_uris":{"android":"levelo://app?vid=1099a874-2b91-469f-bfc8-d090756c7664","ios":"levelo://app?vid=1099a874-2b91-469f-bfc8-d090756c7664"},"vehicle_type_id":"4","last_reported":1758431368,"current_range_meters":3200,"station_id":"st_d2m65c5bi1j21697t3ng","pricing_plan_id":"cebpf4jnsgd1na2vs0mg"},{"bike_id":"7455ab18-939d-4b07-a4bf-5ce01d24b654","system_id":"levelo_inurba_marseille","lat":43.25204,"lon":5.424,"is_reserved":false,"is_disabled":false,"rental_uris":{"android":"levelo://app?vid=7455ab18-939d-4b07-a4bf-5ce01d24b654","ios":"levelo://app?vid=7455ab18-939d-4b07-a4bf-5ce01d24b654"},"vehicle_type_id":"4","last_reported":1758431368,"current_range_meters":3200,"station_id":"","pricing_plan_id":"cebpf4jnsgd1na2vs0mg"},{"bike_id":"cad97885-b582-49b2-8b83-0a6c3d079fc6","system_id":"levelo_inurba_marseille","lat":43.297018,"lon":5.365873,"is_reserved":false,"is_disabled":false,"rental_uris":{"android":"levelo://app?vid=cad97885-b582-49b2-8b83-0a6c3d079fc6","ios":"levelo://app?vid=cad97885-b582-49b2-8b83-0a6c3d079fc6"},"vehicle_type_id":"4","last_reported":1758431368,"current_range_meters":3200,"station_id":"ce4bgn12rcd13ifvqbt0","pricing_plan_id":"cebpf4jnsgd1na2vs0mg"},{"bike_id":"83639405-aad4-4d99-947d-60477a1b7245","system_id":"levelo_inurba_marseille","lat":43.29552,"lon":5.39973,"is_reserved":false,"is_disabled":false,"rental_uris":{"android":"levelo://app?vid=83639405-aad4-4d99-947d-60477a1b7245","ios":"levelo://app?vid=83639405-aad4-4d99-947d-60477a1b7245"},"vehicle_type_id":"4","last_reported":1758431368,"current_range_meters":3200,"station_id":"ce4bh312rcd13ifvqdj0","pricing_plan_id":"cebpf4jnsgd1na2vs0mg"},{"bike_id":"0a9f8014-5026-4f92-b1d0-fba025dab529","system_id":"levelo_inurba_marseille","lat":43.2619,"lon":5.40481,"is_reserved":false,"is_disabled":false,"rental_uris":{"android":"levelo://app?vid=0a9f8014-5026-4f92-b1d0-fba025dab529","ios":"levelo://app?vid=0a9f8014-5026-4f92-b1d0-fba025dab529"},"vehicle_type_id":"4","last_reported":1758431368,"current_range_meters":3200,"station_id":"ce4bhmh2rcd13ifvqgmg","pricing_plan_id":"cebpf4jnsgd1na2vs0mg"},{"bike_id":"4a42c3a7-350b-4a49-9c56-c4b3d7531c94","system_id":"levelo_inurba_marseille","lat":43.305533,"lon":5.366949,"is_reserved":false,"is_disabled":false,"rental_uris":{"android":"levelo://app?vid=4a42c3a7-350b-4a49-9c56-c4b3d7531c94","ios":"levelo://app?vid=4a42c3a7-350b-4a49-9c56-c4b3d7531c94"},"vehicle_type_id":"4","last_reported":1758431368,"current_range_meters":3200,"station_id":"ce4bgrp2rcd13ifvqc9g","pricing_plan_id":"cebpf4jnsgd1na2vs0mg"},{"bike_id":"a839ad44-e005-45b8-a739-b2e28337e6c7","system_id":"levelo_inurba_marseille","lat":43.29873,"lon":5.39733,"is_reserved":false,"is_disabled":true,"rental_uris":{"android":"levelo://app?vid=a839ad44-e005-45b8-a739-b2e28337e6c7","ios":"levelo://app?vid=a839ad44-e005-45b8-a739-b2e28337e6c7"},"vehicle_type_id":"4","last_reported":1758431368,"current_range_meters":3200,"station_id":"ce4bh0h2rcd13ifvqd50","pricing_plan_id":"cebpf4jnsgd1na2vs0mg"},{"bike_id":"b17e38f3-81f1-4cf4-9569-5360fb62d802","system_id":"levelo_inurba_marseille","lat":43.308049,"lon":5.381513,"is_reserved":false,"is_disabled":false,"rental_uris":{"android":"levelo://app?vid=b17e38f3-81f1-4cf4-9569-5360fb62d802","ios":"levelo://app?vid=b17e38f3-81f1-4cf4-9569-5360fb62d802"},"vehicle_type_id":"4","last_reported":1758431368,"current_range_meters":3600,"station_id":"ce4bgt12rcd13ifvqce0","pricing_plan_id":"cebpf4jnsgd1na2vs0mg"},{"bike_id":"aae94305-14de-4d77-aed3-cf696de9e3eb","system_id":"levelo_inurba_marseille","lat":43.30333,"lon":5.40438,"is_reserved":false,"is_disabled":false,"rental_uris":{"android":"levelo://app?vid=aae94305-14de-4d77-aed3-cf696de9e3eb","ios":"levelo://app?vid=aae94305-14de-4d77-aed3-cf696de9e3eb"},"vehicle_type_id":"4","last_reported":1758431368,"current_range_meters":3600,"station_id":"ce4bh012rcd13ifvqd10","pricing_plan_id":"cebpf4jnsgd1na2vs0mg"},{"bike_id":"c9f4b21b-ec2b-4175-aa80-1c0e52fd7e28","system_id":"levelo_inurba_marseille","lat":43.2842,"lon":5.49075,"is_reserved":false,"is_disabled":false,"rental_uris":{"android":"levelo://app?vid=c9f4b21b-ec2b-4175-aa80-1c0e52fd7e28","ios":"levelo://app?vid=c9f4b21b-ec2b-4175-aa80-1c0e52fd7e28"},"vehicle_type_id":"4","last_reported":1758431368,"current_range_meters":4000,"station_id":"","pricing_plan_id":"cebpf4jnsgd1na2vs0mg"},{"bike_id":"78a18b56-84dc-49f2-a9b1-5bbfde6eda3e","system_id":"levelo_inurba_marseille","lat":43.30068,"lon":5.38535,"is_reserved":false,"is_disabled":true,"rental_uris":{"android":"levelo://app?vid=78a18b56-84dc-49f2-a9b1-5bbfde6eda3e","ios":"levelo://app?vid=78a18b56-84dc-49f2-a9b1-5bbfde6eda3e"},"vehicle_type_id":"4","last_reported":1758431368,"current_range_meters":4400,"station_id":"","pricing_plan_id":"cebpf4jnsgd1na2vs0mg"},{"bike_id":"3be3cba1-9d15-44a5-8106-2e40a75ecd9c","system_id":"levelo_inurba_marseille","lat":43.30931,"lon":5.40148,"is_reserved":false,"is_disabled":false,"rental_uris":{"android":"levelo://app?vid=3be3cba1-9d15-44a5-8106-2e40a75ecd9c","ios":"levelo://app?vid=3be3cba1-9d15-44a5-8106-2e40a75ecd9c"},"vehicle_type_id":"4","last_reported":1758431368,"current_range_meters":4800,"station_id":"ce4bgvp2rcd13ifvqct0","pricing_plan_id":"cebpf4jnsgd1na2vs0mg"},{"bike_id":"bf56b3f9-1f58-4c43-a376-7d5880956ccb","system_id":"levelo_inurba_marseille","lat":43.28425,"lon":5.37503,"is_reserved":false,"is_disabled":false,"rental_uris":{"android":"levelo://app?vid=bf56b3f9-1f58-4c43-a376-7d5880956ccb","ios":"levelo://app?vid=bf56b3f9-1f58-4c43-a376-7d5880956ccb"},"vehicle_type_id":"4","last_reported":1758431368,"current_range_meters":4800,"station_id":"ce4bh412rcd13ifvqds0","pricing_plan_id":"cebpf4jnsgd1na2vs0mg"},{"bike_id":"adbbec83-b051-4e7f-a394-5fdc9b2b0234","system_id":"levelo_inurba_marseille","lat":43.321359,"lon":5.384403,"is_reserved":false,"is_disabled":false,"rental_uris":{"android":"levelo://app?vid=adbbec83-b051-4e7f-a394-5fdc9b2b0234","ios":"levelo://app?vid=adbbec83-b051-4e7f-a394-5fdc9b2b0234"},"vehicle_type_id":"4","last_reported":1758431368,"current_range_meters":4800,"station_id":"","pricing_plan_id":"cebpf4jnsgd1na2vs0mg"},{"bike_id":"434619cd-8bc4-4ade-bfc4-062879abd7cd","system_id":"levelo_inurba_marseille","lat":43.27987,"lon":5.41677,"is_reserved":false,"is_disabled":false,"rental_uris":{"android":"levelo://app?vid=434619cd-8bc4-4ade-bfc4-062879abd7cd","ios":"levelo://app?vid=434619cd-8bc4-4ade-bfc4-062879abd7cd"},"vehicle_type_id":"4","last_reported":1758431368,"current_range_meters":4800,"station_id":"ce4bho12rcd13ifvqh1g","pricing_plan_id":"cebpf4jnsgd1na2vs0mg"},{"bike_id":"7f14281a-20c7-49b7-8fcc-cd77742b3738","system_id":"levelo_inurba_marseille","lat":43.2837,"lon":5.3863,"is_reserved":false,"is_disabled":false,"rental_uris":{"android":"levelo://app?vid=7f14281a-20c7-49b7-8fcc-cd77742b3738","ios":"levelo://app?vid=7f14281a-20c7-49b7-8fcc-cd77742b3738"},"vehicle_type_id":"4","last_reported":1758431368,"current_range_meters":4800,"station_id":"ce4bh492rcd13ifvqdvg","pricing_plan_id":"cebpf4jnsgd1na2vs0mg"},{"bike_id":"3c9735e9-fd7e-4079-8199-725760347837","system_id":"levelo_inurba_marseille","lat":43.2121,"lon":5.35066,"is_reserved":false,"is_disabled":false,"rental_uris":{"android":"levelo://app?vid=3c9735e9-fd7e-4079-8199-725760347837","ios":"levelo://app?vid=3c9735e9-fd7e-4079-8199-725760347837"},"vehicle_type_id":"4","last_reported":1758431368,"current_range_meters":5600,"station_id":"st_cvj6sg6p6f1abm77japg","pricing_plan_id":"cebpf4jnsgd1na2vs0mg"},{"bike_id":"e1065c32-ac19-477b-812a-39f964d50769","system_id":"levelo_inurba_marseille","lat":43.23192,"lon":5.35571,"is_reserved":false,"is_disabled":true,"rental_uris":{"android":"levelo://app?vid=e1065c32-ac19-477b-812a-39f964d50769","ios":"levelo://app?vid=e1065c32-ac19-477b-812a-39f964d50769"},"vehicle_type_id":"4","last_reported":1758431368,"current_range_meters":5600,"station_id":"ce4bhu92rcd13ifvqi70","pricing_plan_id":"cebpf4jnsgd1na2vs0mg"},{"bike_id":"90e8324f-ab5a-4b51-81a5-e116e7955ae7","system_id":"levelo_inurba_marseille","lat":43.26562,"lon":5.37273,"is_reserved":false,"is_disabled":true,"rental_uris":{"android":"levelo://app?vid=90e8324f-ab5a-4b51-81a5-e116e7955ae7","ios":"levelo://app?vid=90e8324f-ab5a-4b51-81a5-e116e7955ae7"},"vehicle_type_id":"4","last_reported":1758431368,"current_range_meters":5600,"station_id":"ce4bhg12rcd13ifvqf70","pricing_plan_id":"cebpf4jnsgd1na2vs0mg"},{"bike_id":"b622cc97-8e59-4a52-bc38-a8f6ff1b7334","system_id":"levelo_inurba_marseille","lat":43.31477,"lon":5.37297,"is_reserved":false,"is_disabled":false,"rental_uris":{"android":"levelo://app?vid=b622cc97-8e59-4a52-bc38-a8f6ff1b7334","ios":"levelo://app?vid=b622cc97-8e59-4a52-bc38-a8f6ff1b7334"},"vehicle_type_id":"4","last_reported":1758431368,"current_range_meters":5600,"station_id":"ce4bgt12rcd13ifvqcd0","pricing_plan_id":"cebpf4jnsgd1na2vs0mg"},{"bike_id":"6dc49f8f-31b8-485c-b489-e3fd253e6676","system_id":"levelo_inurba_marseille","lat":43.32668,"lon":5.40994,"is_reserved":false,"is_disabled":true,"rental_uris":{"android":"levelo://app?vid=6dc49f8f-31b8-485c-b489-e3fd253e6676","ios":"levelo://app?vid=6dc49f8f-31b8-485c-b489-e3fd253e6676"},"vehicle_type_id":"4","last_reported":1758431368,"current_range_meters":5600,"station_id":"ce4bhpp2rcd13ifvqhgg","pricing_plan_id":"cebpf4jnsgd1na2vs0mg"},{"bike_id":"5bb42022-0e19-48bc-a5b4-218bb1d7482e","system_id":"levelo_inurba_marseille","lat":43.31277,"lon":5.37731,"is_reserved":false,"is_disabled":false,"rental_uris":{"android":"levelo://app?vid=5bb42022-0e19-48bc-a5b4-218bb1d7482e","ios":"levelo://app?vid=5bb42022-0e19-48bc-a5b4-218bb1d7482e"},"vehicle_type_id":"4","last_reported":1758431368,"current_range_meters":5600,"station_id":"","pricing_plan_id":"cebpf4jnsgd1na2vs0mg"},{"bike_id":"04ac4072-76af-404d-8a72-a8ffe8ae8fcc","system_id":"levelo_inurba_marseille","lat":43.325749,"lon":5.39197,"is_reserved":false,"is_disabled":true,"rental_uris":{"android":"levelo://app?vid=04ac4072-76af-404d-8a72-a8ffe8ae8fcc","ios":"levelo://app?vid=04ac4072-76af-404d-8a72-a8ffe8ae8fcc"},"vehicle_type_id":"4","last_reported":1758431368,"current_range_meters":5600,"station_id":"","pricing_plan_id":"cebpf4jnsgd1na2vs0mg"},{"bike_id":"807efb86-b38b-448a-b71f-87d476c83462","system_id":"levelo_inurba_marseille","lat":43.29301,"lon":5.37456,"is_reserved":false,"is_disabled":false,"rental_uris":{"android":"levelo://app?vid=807efb86-b38b-448a-b71f-87d476c83462","ios":"levelo://app?vid=807efb86-b38b-448a-b71f-87d476c83462"},"vehicle_type_id":"4","last_reported":1758431368,"current_range_meters":5600,"station_id":"ce4bgi12rcd13ifvqb70","pricing_plan_id":"cebpf4jnsgd1na2vs0mg"},{"bike_id":"0960e3dd-c358-4474-bd10-8223758e1f6b","system_id":"levelo_inurba_marseille","lat":43.296996,"lon":5.376855,"is_reserved":false,"is_disabled":false,"rental_uris":{"android":"levelo://app?vid=0960e3dd-c358-4474-bd10-8223758e1f6b","ios":"levelo://app?vid=0960e3dd-c358-4474-bd10-8223758e1f6b"},"vehicle_type_id":"4","last_reported":1758431368,"current_range_meters":5600,"station_id":"","pricing_plan_id":"cebpf4jnsgd1na2vs0mg"},{"bike_id":"fd60aa99-4df7-44c2-b88c-9bb4ede4c217","system_id":"levelo_inurba_marseille","lat":43.29041,"lon":5.39929,"is_reserved":false,"is_disabled":false,"rental_uris":{"android":"levelo://app?vid=fd60aa99-4df7-44c2-b88c-9bb4ede4c217","ios":"levelo://app?vid=fd60aa99-4df7-44c2-b88c-9bb4ede4c217"},"vehicle_type_id":"4","last_reported":1758431368,"current_range_meters":6000,"station_id":"ce4bh392rcd13ifvqdm0","pricing_plan_id":"cebpf4jnsgd1na2vs0mg"},{"bike_id":"1dbc6ff6-de1e-44f5-9332-c8820f81075d","system_id":"levelo_inurba_marseille","lat":43.21196,"lon":5.35076,"is_reserved":false,"is_disabled":true,"rental_uris":{"android":"levelo://app?vid=1dbc6ff6-de1e-44f5-9332-c8820f81075d","ios":"levelo://app?vid=1dbc6ff6-de1e-44f5-9332-c8820f81075d"},"vehicle_type_id":"4","last_reported":1758431368,"current_range_meters":6400,"station_id":"st_cvj6sg6p6f1abm77japg","pricing_plan_id":"cebpf4jnsgd1na2vs0mg"},{"bike_id":"28aa91f8-e4f0-4fce-8c77-5a4056b1b2d1","system_id":"levelo_inurba_marseille","lat":43.28617,"lon":5.35113,"is_reserved":false,"is_disabled":false,"rental_uris":{"android":"levelo://app?vid=28aa91f8-e4f0-4fce-8c77-5a4056b1b2d1","ios":"levelo://app?vid=28aa91f8-e4f0-4fce-8c77-5a4056b1b2d1"},"vehicle_type_id":"4","last_reported":1758431368,"current_range_meters":6400,"station_id":"ce4bhch2rcd13ifvqeug","pricing_plan_id":"cebpf4jnsgd1na2vs0mg"},{"bike_id":"c627b34a-8e81-4438-af3b-4fd0aab1c160","system_id":"levelo_inurba_marseille","lat":43.296662,"lon":5.360228,"is_reserved":false,"is_disabled":false,"rental_uris":{"android":"levelo://app?vid=c627b34a-8e81-4438-af3b-4fd0aab1c160","ios":"levelo://app?vid=c627b34a-8e81-4438-af3b-4fd0aab1c160"},"vehicle_type_id":"4","last_reported":1758431368,"current_range_meters":6400,"station_id":"","pricing_plan_id":"cebpf4jnsgd1na2vs0mg"},{"bike_id":"ab5b9659-77bc-417b-8f8b-7002662fbf28","system_id":"levelo_inurba_marseille","lat":43.29316,"lon":5.41174,"is_reserved":false,"is_disabled":false,"rental_uris":{"android":"levelo://app?vid=ab5b9659-77bc-417b-8f8b-7002662fbf28","ios":"levelo://app?vid=ab5b9659-77bc-417b-8f8b-7002662fbf28"},"vehicle_type_id":"4","last_reported":1758431368,"current_range_meters":6400,"station_id":"","pricing_plan_id":"cebpf4jnsgd1na2vs0mg"},{"bike_id":"71cb05d4-36fa-4ba6-824a-3eb73d21ff45","system_id":"levelo_inurba_marseille","lat":43.2958,"lon":5.375,"is_reserved":false,"is_disabled":false,"rental_uris":{"android":"levelo://app?vid=71cb05d4-36fa-4ba6-824a-3eb73d21ff45","ios":"levelo://app?vid=71cb05d4-36fa-4ba6-824a-3eb73d21ff45"},"vehicle_type_id":"4","last_reported":1758431368,"current_range_meters":6400,"station_id":"ce4bgh92rcd13ifvqb50","pricing_plan_id":"cebpf4jnsgd1na2vs0mg"},{"bike_id":"8333e2ea-e99a-4608-9635-e5eeab7c4c68","system_id":"levelo_inurba_marseille","lat":43.28206,"lon":5.39063,"is_reserved":false,"is_disabled":false,"rental_uris":{"android":"levelo://app?vid=8333e2ea-e99a-4608-9635-e5eeab7c4c68","ios":"levelo://app?vid=8333e2ea-e99a-4608-9635-e5eeab7c4c68"},"vehicle_type_id":"4","last_reported":1758431368,"current_range_meters":6800,"station_id":"ce4bhn92rcd13ifvqgsg","pricing_plan_id":"cebpf4jnsgd1na2vs0mg"},{"bike_id":"ab7a8fdd-ad48-4fd5-abfd-ecb2615d4d39","system_id":"levelo_inurba_marseille","lat":43.32347,"lon":5.40617,"is_reserved":false,"is_disabled":false,"rental_uris":{"android":"levelo://app?vid=ab7a8fdd-ad48-4fd5-abfd-ecb2615d4d39","ios":"levelo://app?vid=ab7a8fdd-ad48-4fd5-abfd-ecb2615d4d39"},"vehicle_type_id":"4","last_reported":1758431368,"current_range_meters":6800,"station_id":"ce4bhq92rcd13ifvqhjg","pricing_plan_id":"cebpf4jnsgd1na2vs0mg"},{"bike_id":"c99baabd-a659-4707-ba94-29a5a2cc472c","system_id":"levelo_inurba_marseille","lat":43.28672,"lon":5.40049,"is_reserved":false,"is_disabled":false,"rental_uris":{"android":"levelo://app?vid=c99baabd-a659-4707-ba94-29a5a2cc472c","ios":"levelo://app?vid=c99baabd-a659-4707-ba94-29a5a2cc472c"},"vehicle_type_id":"4","last_reported":1758431368,"current_range_meters":6800,"station_id":"","pricing_plan_id":"cebpf4jnsgd1na2vs0mg"},{"bike_id":"3082f593-a5a6-48f9-afa8-383813f7af0b","system_id":"levelo_inurba_marseille","lat":43.21739,"lon":5.34638,"is_reserved":false,"is_disabled":true,"rental_uris":{"android":"levelo://app?vid=3082f593-a5a6-48f9-afa8-383813f7af0b","ios":"levelo://app?vid=3082f593-a5a6-48f9-afa8-383813f7af0b"},"vehicle_type_id":"4","last_reported":1758431368,"current_range_meters":6800,"station_id":"st_cvj6r9ubvosntc0bgbag","pricing_plan_id":"cebpf4jnsgd1na2vs0mg"},{"bike_id":"53264fdb-d3ce-412c-9b54-11908fde133c","system_id":"levelo_inurba_marseille","lat":43.25857,"lon":5.39907,"is_reserved":false,"is_disabled":true,"rental_uris":{"android":"levelo://app?vid=53264fdb-d3ce-412c-9b54-11908fde133c","ios":"levelo://app?vid=53264fdb-d3ce-412c-9b54-11908fde133c"},"vehicle_type_id":"4","last_reported":1758431368,"current_range_meters":6800,"station_id":"ce4bhl92rcd13ifvqghg","pricing_plan_id":"cebpf4jnsgd1na2vs0mg"},{"bike_id":"378477c6-6aad-4766-98f5-567e84496f31","system_id":"levelo_inurba_marseille","lat":43.23192,"lon":5.39989,"is_reserved":false,"is_disabled":false,"rental_uris":{"android":"levelo://app?vid=378477c6-6aad-4766-98f5-567e84496f31","ios":"levelo://app?vid=378477c6-6aad-4766-98f5-567e84496f31"},"vehicle_type_id":"4","last_reported":1758431368,"current_range_meters":6800,"station_id":"ce4bhn12rcd13ifvqgqg","pricing_plan_id":"cebpf4jnsgd1na2vs0mg"},{"bike_id":"d36054be-e4ae-400b-adf2-e78b16267b2a","system_id":"levelo_inurba_marseille","lat":43.290029,"lon":5.3562,"is_reserved":false,"is_disabled":false,"rental_uris":{"android":"levelo://app?vid=d36054be-e4ae-400b-adf2-e78b16267b2a","ios":"levelo://app?vid=d36054be-e4ae-400b-adf2-e78b16267b2a"},"vehicle_type_id":"4","last_reported":1758431368,"current_range_meters":6800,"station_id":"ce4bhb92rcd13ifvqen0","pricing_plan_id":"cebpf4jnsgd1na2vs0mg"},{"bike_id":"5a622093-c168-421d-adb4-a2950d0099e6","system_id":"levelo_inurba_marseille","lat":43.28057,"lon":5.39599,"is_reserved":false,"is_disabled":false,"rental_uris":{"android":"levelo://app?vid=5a622093-c168-421d-adb4-a2950d0099e6","ios":"levelo://app?vid=5a622093-c168-421d-adb4-a2950d0099e6"},"vehicle_type_id":"4","last_reported":1758431368,"current_range_meters":7200,"station_id":"","pricing_plan_id":"cebpf4jnsgd1na2vs0mg"},{"bike_id":"7dd65b1b-fb7b-4087-9803-34d477de11ae","system_id":"levelo_inurba_marseille","lat":43.21185,"lon":5.35073,"is_reserved":false,"is_disabled":false,"rental_uris":{"android":"levelo://app?vid=7dd65b1b-fb7b-4087-9803-34d477de11ae","ios":"levelo://app?vid=7dd65b1b-fb7b-4087-9803-34d477de11ae"},"vehicle_type_id":"4","last_reported":1758431368,"current_range_meters":7200,"station_id":"st_cvj6sg6p6f1abm77japg","pricing_plan_id":"cebpf4jnsgd1na2vs0mg"},{"bike_id":"e24ee6a7-4f11-44fd-8298-cdaf24581d21","system_id":"levelo_inurba_marseille","lat":43.24074,"lon":5.37764,"is_reserved":false,"is_disabled":false,"rental_uris":{"android":"levelo://app?vid=e24ee6a7-4f11-44fd-8298-cdaf24581d21","ios":"levelo://app?vid=e24ee6a7-4f11-44fd-8298-cdaf24581d21"},"vehicle_type_id":"4","last_reported":1758431368,"current_range_meters":7200,"station_id":"ce4bhnp2rcd13ifvqgvg","pricing_plan_id":"cebpf4jnsgd1na2vs0mg"},{"bike_id":"89a0e984-5d12-440f-94ab-d1792cbc264d","system_id":"levelo_inurba_marseille","lat":43.26833,"lon":5.39419,"is_reserved":false,"is_disabled":false,"rental_uris":{"android":"levelo://app?vid=89a0e984-5d12-440f-94ab-d1792cbc264d","ios":"levelo://app?vid=89a0e984-5d12-440f-94ab-d1792cbc264d"},"vehicle_type_id":"4","last_reported":1758431368,"current_range_meters":7200,"station_id":"ce4bhh12rcd13ifvqfg0","pricing_plan_id":"cebpf4jnsgd1na2vs0mg"},{"bike_id":"53e573fc-04fc-42a7-b460-7431de9fb872","system_id":"levelo_inurba_marseille","lat":43.3093,"lon":5.40139,"is_reserved":false,"is_disabled":false,"rental_uris":{"android":"levelo://app?vid=53e573fc-04fc-42a7-b460-7431de9fb872","ios":"levelo://app?vid=53e573fc-04fc-42a7-b460-7431de9fb872"},"vehicle_type_id":"4","last_reported":1758431368,"current_range_meters":7200,"station_id":"ce4bgvp2rcd13ifvqct0","pricing_plan_id":"cebpf4jnsgd1na2vs0mg"},{"bike_id":"37e1f6b1-cf86-4107-9a0b-9e12910128e5","system_id":"levelo_inurba_marseille","lat":43.30206,"lon":5.36613,"is_reserved":false,"is_disabled":true,"rental_uris":{"android":"levelo://app?vid=37e1f6b1-cf86-4107-9a0b-9e12910128e5","ios":"levelo://app?vid=37e1f6b1-cf86-4107-9a0b-9e12910128e5"},"vehicle_type_id":"4","last_reported":1758431368,"current_range_meters":7200,"station_id":"ce4bgrh2rcd13ifvqc8g","pricing_plan_id":"cebpf4jnsgd1na2vs0mg"},{"bike_id":"fef4f526-738c-4bdf-9109-073dfefdd587","system_id":"levelo_inurba_marseille","lat":43.24224,"lon":5.37863,"is_reserved":false,"is_disabled":false,"rental_uris":{"android":"levelo://app?vid=fef4f526-738c-4bdf-9109-073dfefdd587","ios":"levelo://app?vid=fef4f526-738c-4bdf-9109-073dfefdd587"},"vehicle_type_id":"4","last_reported":1758431368,"current_range_meters":7200,"station_id":"ce4bhnp2rcd13ifvqgvg","pricing_plan_id":"cebpf4jnsgd1na2vs0mg"},{"bike_id":"12ed6c49-784d-4e90-9587-47eae4f126ab","system_id":"levelo_inurba_marseille","lat":43.21744,"lon":5.34625,"is_reserved":false,"is_disabled":true,"rental_uris":{"android":"levelo://app?vid=12ed6c49-784d-4e90-9587-47eae4f126ab","ios":"levelo://app?vid=12ed6c49-784d-4e90-9587-47eae4f126ab"},"vehicle_type_id":"4","last_reported":1758431368,"current_range_meters":7200,"station_id":"st_cvj6r9ubvosntc0bgbag","pricing_plan_id":"cebpf4jnsgd1na2vs0mg"},{"bike_id":"64b6c9e6-7a3a-445e-b13d-cca29081ab0d","system_id":"levelo_inurba_marseille","lat":43.30475,"lon":5.37908,"is_reserved":false,"is_disabled":false,"rental_uris":{"android":"levelo://app?vid=64b6c9e6-7a3a-445e-b13d-cca29081ab0d","ios":"levelo://app?vid=64b6c9e6-7a3a-445e-b13d-cca29081ab0d"},"vehicle_type_id":"4","last_reported":1758431368,"current_range_meters":6800,"station_id":"ce4bgup2rcd13ifvqcn0","pricing_plan_id":"cebpf4jnsgd1na2vs0mg"},{"bike_id":"fcb3f6af-c7d4-4ccc-be82-7f951e8865a2","system_id":"levelo_inurba_marseille","lat":43.212028,"lon":5.350634,"is_reserved":false,"is_disabled":false,"rental_uris":{"android":"levelo://app?vid=fcb3f6af-c7d4-4ccc-be82-7f951e8865a2","ios":"levelo://app?vid=fcb3f6af-c7d4-4ccc-be82-7f951e8865a2"},"vehicle_type_id":"4","last_reported":1758431368,"current_range_meters":8000,"station_id":"st_cvj6sg6p6f1abm77japg","pricing_plan_id":"cebpf4jnsgd1na2vs0mg"},{"bike_id":"58c6781c-1181-4ce1-b5d2-c279f083a5d9","system_id":"levelo_inurba_marseille","lat":43.30304,"lon":5.36905,"is_reserved":false,"is_disabled":false,"rental_uris":{"android":"levelo://app?vid=58c6781c-1181-4ce1-b5d2-c279f083a5d9","ios":"levelo://app?vid=58c6781c-1181-4ce1-b5d2-c279f083a5d9"},"vehicle_type_id":"4","last_reported":1758431368,"current_range_meters":8000,"station_id":"ce4bgqh2rcd13ifvqc5g","pricing_plan_id":"cebpf4jnsgd1na2vs0mg"},{"bike_id":"ea38ec81-77bc-49f3-ba7a-c423418faebe","system_id":"levelo_inurba_marseille","lat":43.28068,"lon":5.39652,"is_reserved":false,"is_disabled":false,"rental_uris":{"android":"levelo://app?vid=ea38ec81-77bc-49f3-ba7a-c423418faebe","ios":"levelo://app?vid=ea38ec81-77bc-49f3-ba7a-c423418faebe"},"vehicle_type_id":"4","last_reported":1758431368,"current_range_meters":8000,"station_id":"ce4bho12rcd13ifvqh2g","pricing_plan_id":"cebpf4jnsgd1na2vs0mg"},{"bike_id":"0064b370-873b-4c46-b3c5-971e521f7c7c","system_id":"levelo_inurba_marseille","lat":43.292906,"lon":5.374648,"is_reserved":false,"is_disabled":false,"rental_uris":{"android":"levelo://app?vid=0064b370-873b-4c46-b3c5-971e521f7c7c","ios":"levelo://app?vid=0064b370-873b-4c46-b3c5-971e521f7c7c"},"vehicle_type_id":"4","last_reported":1758431368,"current_range_meters":8000,"station_id":"","pricing_plan_id":"cebpf4jnsgd1na2vs0mg"},{"bike_id":"8ebe3b3d-5723-4fa2-84d0-2bf3a80529f4","system_id":"levelo_inurba_marseille","lat":43.305993,"lon":5.372219,"is_reserved":false,"is_disabled":false,"rental_uris":{"android":"levelo://app?vid=8ebe3b3d-5723-4fa2-84d0-2bf3a80529f4","ios":"levelo://app?vid=8ebe3b3d-5723-4fa2-84d0-2bf3a80529f4"},"vehicle_type_id":"4","last_reported":1758431368,"current_range_meters":8000,"station_id":"ce4bgqh2rcd13ifvqc4g","pricing_plan_id":"cebpf4jnsgd1na2vs0mg"},{"bike_id":"ce19734b-c251-4eaf-bf57-c69e821a93dd","system_id":"levelo_inurba_marseille","lat":43.28938,"lon":5.46551,"is_reserved":false,"is_disabled":false,"rental_uris":{"android":"levelo://app?vid=ce19734b-c251-4eaf-bf57-c69e821a93dd","ios":"levelo://app?vid=ce19734b-c251-4eaf-bf57-c69e821a93dd"},"vehicle_type_id":"4","last_reported":1758431368,"current_range_meters":8000,"station_id":"","pricing_plan_id":"cebpf4jnsgd1na2vs0mg"},{"bike_id":"e9727ed7-ce6b-4637-9a41-d3e7ac1c9b78","system_id":"levelo_inurba_marseille","lat":43.281028,"lon":5.37839,"is_reserved":false,"is_disabled":false,"rental_uris":{"android":"levelo://app?vid=e9727ed7-ce6b-4637-9a41-d3e7ac1c9b78","ios":"levelo://app?vid=e9727ed7-ce6b-4637-9a41-d3e7ac1c9b78"},"vehicle_type_id":"4","last_reported":1758431368,"current_range_meters":8000,"station_id":"ce4bha12rcd13ifvqee0","pricing_plan_id":"cebpf4jnsgd1na2vs0mg"},{"bike_id":"575f379b-682e-45a6-a90b-e2da032a9ae0","system_id":"levelo_inurba_marseille","lat":43.21183,"lon":5.35062,"is_reserved":false,"is_disabled":false,"rental_uris":{"android":"levelo://app?vid=575f379b-682e-45a6-a90b-e2da032a9ae0","ios":"levelo://app?vid=575f379b-682e-45a6-a90b-e2da032a9ae0"},"vehicle_type_id":"4","last_reported":1758431368,"current_range_meters":8000,"station_id":"st_cvj6sg6p6f1abm77japg","pricing_plan_id":"cebpf4jnsgd1na2vs0mg"},{"bike_id":"342a202f-6e17-4424-8e62-b7d34fe97f1b","system_id":"levelo_inurba_marseille","lat":43.28698,"lon":5.40014,"is_reserved":false,"is_disabled":false,"rental_uris":{"android":"levelo://app?vid=342a202f-6e17-4424-8e62-b7d34fe97f1b","ios":"levelo://app?vid=342a202f-6e17-4424-8e62-b7d34fe97f1b"},"vehicle_type_id":"4","last_reported":1758431368,"current_range_meters":8000,"station_id":"ce4bho92rcd13ifvqh3g","pricing_plan_id":"cebpf4jnsgd1na2vs0mg"},{"bike_id":"a0ce8ed9-70db-46be-8839-9a333663ae03","system_id":"levelo_inurba_marseille","lat":43.30293,"lon":5.39215,"is_reserved":false,"is_disabled":false,"rental_uris":{"android":"levelo://app?vid=a0ce8ed9-70db-46be-8839-9a333663ae03","ios":"levelo://app?vid=a0ce8ed9-70db-46be-8839-9a333663ae03"},"vehicle_type_id":"4","last_reported":1758431368,"current_range_meters":8400,"station_id":"ce4bgkh2rcd13ifvqbk0","pricing_plan_id":"cebpf4jnsgd1na2vs0mg"},{"bike_id":"fb995bc5-3894-4487-abcd-e5b9a8d3d3a0","system_id":"levelo_inurba_marseille","lat":43.242759,"lon":5.402643,"is_reserved":false,"is_disabled":false,"rental_uris":{"android":"levelo://app?vid=fb995bc5-3894-4487-abcd-e5b9a8d3d3a0","ios":"levelo://app?vid=fb995bc5-3894-4487-abcd-e5b9a8d3d3a0"},"vehicle_type_id":"4","last_reported":1758431368,"current_range_meters":8400,"station_id":"","pricing_plan_id":"cebpf4jnsgd1na2vs0mg"},{"bike_id":"5b84af94-a4d6-4b46-a63f-085ff5681f73","system_id":"levelo_inurba_marseille","lat":43.21181,"lon":5.35091,"is_reserved":false,"is_disabled":false,"rental_uris":{"android":"levelo://app?vid=5b84af94-a4d6-4b46-a63f-085ff5681f73","ios":"levelo://app?vid=5b84af94-a4d6-4b46-a63f-085ff5681f73"},"vehicle_type_id":"4","last_reported":1758431368,"current_range_meters":8400,"station_id":"st_cvj6sg6p6f1abm77japg","pricing_plan_id":"cebpf4jnsgd1na2vs0mg"},{"bike_id":"e6f59a7f-e88f-4d65-bed3-135ed8be6983","system_id":"levelo_inurba_marseille","lat":43.32551,"lon":5.39103,"is_reserved":false,"is_disabled":true,"rental_uris":{"android":"levelo://app?vid=e6f59a7f-e88f-4d65-bed3-135ed8be6983","ios":"levelo://app?vid=e6f59a7f-e88f-4d65-bed3-135ed8be6983"},"vehicle_type_id":"4","last_reported":1758431368,"current_range_meters":8400,"station_id":"","pricing_plan_id":"cebpf4jnsgd1na2vs0mg"},{"bike_id":"833f0207-c19f-49b7-8769-8fae176a6b55","system_id":"levelo_inurba_marseille","lat":43.30782,"lon":5.37638,"is_reserved":false,"is_disabled":false,"rental_uris":{"android":"levelo://app?vid=833f0207-c19f-49b7-8769-8fae176a6b55","ios":"levelo://app?vid=833f0207-c19f-49b7-8769-8fae176a6b55"},"vehicle_type_id":"4","last_reported":1758431368,"current_range_meters":8400,"station_id":"ce4bgv92rcd13ifvqcq0","pricing_plan_id":"cebpf4jnsgd1na2vs0mg"},{"bike_id":"617dca4b-4508-4d52-9e62-d583d919ac44","system_id":"levelo_inurba_marseille","lat":43.29746,"lon":5.37089,"is_reserved":false,"is_disabled":false,"rental_uris":{"android":"levelo://app?vid=617dca4b-4508-4d52-9e62-d583d919ac44","ios":"levelo://app?vid=617dca4b-4508-4d52-9e62-d583d919ac44"},"vehicle_type_id":"4","last_reported":1758431368,"current_range_meters":8400,"station_id":"ce4bgop2rcd13ifvqc1g","pricing_plan_id":"cebpf4jnsgd1na2vs0mg"},{"bike_id":"a3ca1237-9e7c-4297-9fbb-d2fe43018b09","system_id":"levelo_inurba_marseille","lat":43.28406,"lon":5.37511,"is_reserved":false,"is_disabled":false,"rental_uris":{"android":"levelo://app?vid=a3ca1237-9e7c-4297-9fbb-d2fe43018b09","ios":"levelo://app?vid=a3ca1237-9e7c-4297-9fbb-d2fe43018b09"},"vehicle_type_id":"4","last_reported":1758431368,"current_range_meters":8400,"station_id":"ce4bh412rcd13ifvqds0","pricing_plan_id":"cebpf4jnsgd1na2vs0mg"},{"bike_id":"41d41162-c451-4e5f-8bcf-1c9a70c5510c","system_id":"levelo_inurba_marseille","lat":43.296,"lon":5.37696,"is_reserved":false,"is_disabled":true,"rental_uris":{"android":"levelo://app?vid=41d41162-c451-4e5f-8bcf-1c9a70c5510c","ios":"levelo://app?vid=41d41162-c451-4e5f-8bcf-1c9a70c5510c"},"vehicle_type_id":"4","last_reported":1758431368,"current_range_meters":8800,"station_id":"ce4bgi92rcd13ifvqb90","pricing_plan_id":"cebpf4jnsgd1na2vs0mg"},{"bike_id":"0319c100-5c9c-49b7-9f2a-421506d58186","system_id":"levelo_inurba_marseille","lat":43.32908,"lon":5.39056,"is_reserved":false,"is_disabled":true,"rental_uris":{"android":"levelo://app?vid=0319c100-5c9c-49b7-9f2a-421506d58186","ios":"levelo://app?vid=0319c100-5c9c-49b7-9f2a-421506d58186"},"vehicle_type_id":"4","last_reported":1758431368,"current_range_meters":8800,"station_id":"","pricing_plan_id":"cebpf4jnsgd1na2vs0mg"},{"bike_id":"376b181f-3585-4dfc-8ebc-e70d6afd8fe2","system_id":"levelo_inurba_marseille","lat":43.2886,"lon":5.39307,"is_reserved":false,"is_disabled":false,"rental_uris":{"android":"levelo://app?vid=376b181f-3585-4dfc-8ebc-e70d6afd8fe2","ios":"levelo://app?vid=376b181f-3585-4dfc-8ebc-e70d6afd8fe2"},"vehicle_type_id":"4","last_reported":1758431368,"current_range_meters":8800,"station_id":"ce4bh2p2rcd13ifvqdi0","pricing_plan_id":"cebpf4jnsgd1na2vs0mg"},{"bike_id":"9a7c3514-913e-4aab-a1ab-c6b5b42e80b4","system_id":"levelo_inurba_marseille","lat":43.29893,"lon":5.39714,"is_reserved":false,"is_disabled":false,"rental_uris":{"android":"levelo://app?vid=9a7c3514-913e-4aab-a1ab-c6b5b42e80b4","ios":"levelo://app?vid=9a7c3514-913e-4aab-a1ab-c6b5b42e80b4"},"vehicle_type_id":"4","last_reported":1758431368,"current_range_meters":9200,"station_id":"ce4bh0h2rcd13ifvqd50","pricing_plan_id":"cebpf4jnsgd1na2vs0mg"},{"bike_id":"3116075e-fa9b-423b-beef-aeee538d6e30","system_id":"levelo_inurba_marseille","lat":43.21738,"lon":5.34637,"is_reserved":false,"is_disabled":true,"rental_uris":{"android":"levelo://app?vid=3116075e-fa9b-423b-beef-aeee538d6e30","ios":"levelo://app?vid=3116075e-fa9b-423b-beef-aeee538d6e30"},"vehicle_type_id":"4","last_reported":1758431368,"current_range_meters":9200,"station_id":"st_cvj6r9ubvosntc0bgbag","pricing_plan_id":"cebpf4jnsgd1na2vs0mg"},{"bike_id":"c4706891-6ce1-4440-91ff-a3ecf2ff007e","system_id":"levelo_inurba_marseille","lat":43.26374,"lon":5.40075,"is_reserved":false,"is_disabled":false,"rental_uris":{"android":"levelo://app?vid=c4706891-6ce1-4440-91ff-a3ecf2ff007e","ios":"levelo://app?vid=c4706891-6ce1-4440-91ff-a3ecf2ff007e"},"vehicle_type_id":"4","last_reported":1758431368,"current_range_meters":9200,"station_id":"","pricing_plan_id":"cebpf4jnsgd1na2vs0mg"},{"bike_id":"98e8af00-4b83-49fb-a286-0d2396c92bd0","system_id":"levelo_inurba_marseille","lat":43.30882,"lon":5.36875,"is_reserved":false,"is_disabled":true,"rental_uris":{"android":"levelo://app?vid=98e8af00-4b83-49fb-a286-0d2396c92bd0","ios":"levelo://app?vid=98e8af00-4b83-49fb-a286-0d2396c92bd0"},"vehicle_type_id":"4","last_reported":1758431368,"current_range_meters":9200,"station_id":"ce4bgn92rcd13ifvqbvg","pricing_plan_id":"cebpf4jnsgd1na2vs0mg"},{"bike_id":"83774ab6-916a-4512-bbb6-fffff61e684e","system_id":"levelo_inurba_marseille","lat":43.290438,"lon":5.399481,"is_reserved":false,"is_disabled":false,"rental_uris":{"android":"levelo://app?vid=83774ab6-916a-4512-bbb6-fffff61e684e","ios":"levelo://app?vid=83774ab6-916a-4512-bbb6-fffff61e684e"},"vehicle_type_id":"4","last_reported":1758431368,"current_range_meters":9200,"station_id":"ce4bh392rcd13ifvqdm0","pricing_plan_id":"cebpf4jnsgd1na2vs0mg"},{"bike_id":"9adec78f-4ce1-4961-83d4-96661034cd9c","system_id":"levelo_inurba_marseille","lat":43.2407,"lon":5.4136,"is_reserved":false,"is_disabled":false,"rental_uris":{"android":"levelo://app?vid=9adec78f-4ce1-4961-83d4-96661034cd9c","ios":"levelo://app?vid=9adec78f-4ce1-4961-83d4-96661034cd9c"},"vehicle_type_id":"4","last_reported":1758431368,"current_range_meters":9200,"station_id":"","pricing_plan_id":"cebpf4jnsgd1na2vs0mg"},{"bike_id":"eb5eb23f-fbc9-403b-b099-9188e93d8a95","system_id":"levelo_inurba_marseille","lat":43.27168,"lon":5.40987,"is_reserved":false,"is_disabled":false,"rental_uris":{"android":"levelo://app?vid=eb5eb23f-fbc9-403b-b099-9188e93d8a95","ios":"levelo://app?vid=eb5eb23f-fbc9-403b-b099-9188e93d8a95"},"vehicle_type_id":"4","last_reported":1758431368,"current_range_meters":9200,"station_id":"ce4bhl12rcd13ifvqgf0","pricing_plan_id":"cebpf4jnsgd1na2vs0mg"},{"bike_id":"576f2039-00ac-4f2c-a68d-0faa97f37880","system_id":"levelo_inurba_marseille","lat":43.33178,"lon":5.39262,"is_reserved":false,"is_disabled":true,"rental_uris":{"android":"levelo://app?vid=576f2039-00ac-4f2c-a68d-0faa97f37880","ios":"levelo://app?vid=576f2039-00ac-4f2c-a68d-0faa97f37880"},"vehicle_type_id":"4","last_reported":1758431368,"current_range_meters":9600,"station_id":"","pricing_plan_id":"cebpf4jnsgd1na2vs0mg"},{"bike_id":"2f4ba3c4-d560-4d54-af01-9eafbd4f5950","system_id":"levelo_inurba_marseille","lat":43.24398,"lon":5.37068,"is_reserved":false,"is_disabled":true,"rental_uris":{"android":"levelo://app?vid=2f4ba3c4-d560-4d54-af01-9eafbd4f5950","ios":"levelo://app?vid=2f4ba3c4-d560-4d54-af01-9eafbd4f5950"},"vehicle_type_id":"4","last_reported":1758431368,"current_range_meters":9600,"station_id":"ce4bhhh2rcd13ifvqfk0","pricing_plan_id":"cebpf4jnsgd1na2vs0mg"},{"bike_id":"b766d582-d4f0-4f9a-9867-0ae0b8177870","system_id":"levelo_inurba_marseille","lat":43.21187,"lon":5.35078,"is_reserved":false,"is_disabled":false,"rental_uris":{"android":"levelo://app?vid=b766d582-d4f0-4f9a-9867-0ae0b8177870","ios":"levelo://app?vid=b766d582-d4f0-4f9a-9867-0ae0b8177870"},"vehicle_type_id":"4","last_reported":1758431368,"current_range_meters":9600,"station_id":"st_cvj6sg6p6f1abm77japg","pricing_plan_id":"cebpf4jnsgd1na2vs0mg"},{"bike_id":"13fbb5f2-f4bf-4921-a175-8c4bb7c9ce3b","system_id":"levelo_inurba_marseille","lat":43.28603,"lon":5.35068,"is_reserved":false,"is_disabled":false,"rental_uris":{"android":"levelo://app?vid=13fbb5f2-f4bf-4921-a175-8c4bb7c9ce3b","ios":"levelo://app?vid=13fbb5f2-f4bf-4921-a175-8c4bb7c9ce3b"},"vehicle_type_id":"4","last_reported":1758431368,"current_range_meters":9600,"station_id":"ce4bhch2rcd13ifvqeug","pricing_plan_id":"cebpf4jnsgd1na2vs0mg"},{"bike_id":"0f7caa9f-1d1a-40d7-9b4a-2f8720e63681","system_id":"levelo_inurba_marseille","lat":43.30831,"lon":5.37515,"is_reserved":false,"is_disabled":false,"rental_uris":{"android":"levelo://app?vid=0f7caa9f-1d1a-40d7-9b4a-2f8720e63681","ios":"levelo://app?vid=0f7caa9f-1d1a-40d7-9b4a-2f8720e63681"},"vehicle_type_id":"4","last_reported":1758431368,"current_range_meters":10000,"station_id":"","pricing_plan_id":"cebpf4jnsgd1na2vs0mg"},{"bike_id":"2c3e6b97-cac2-42d0-a444-0058f0086241","system_id":"levelo_inurba_marseille","lat":43.217686,"lon":5.346052,"is_reserved":false,"is_disabled":false,"rental_uris":{"android":"levelo://app?vid=2c3e6b97-cac2-42d0-a444-0058f0086241","ios":"levelo://app?vid=2c3e6b97-cac2-42d0-a444-0058f0086241"},"vehicle_type_id":"4","last_reported":1758431368,"current_range_meters":10000,"station_id":"st_cvj6r9ubvosntc0bgbag","pricing_plan_id":"cebpf4jnsgd1na2vs0mg"},{"bike_id":"5193c79a-dd55-4a9d-b4d1-489e3d5d3c5b","system_id":"levelo_inurba_marseille","lat":43.315,"lon":5.37272,"is_reserved":false,"is_disabled":false,"rental_uris":{"android":"levelo://app?vid=5193c79a-dd55-4a9d-b4d1-489e3d5d3c5b","ios":"levelo://app?vid=5193c79a-dd55-4a9d-b4d1-489e3d5d3c5b"},"vehicle_type_id":"4","last_reported":1758431368,"current_range_meters":10000,"station_id":"ce4bgt12rcd13ifvqcd0","pricing_plan_id":"cebpf4jnsgd1na2vs0mg"},{"bike_id":"c156787f-90c4-4d6a-b052-c7580a636bb2","system_id":"levelo_inurba_marseille","lat":43.28691,"lon":5.40091,"is_reserved":false,"is_disabled":false,"rental_uris":{"android":"levelo://app?vid=c156787f-90c4-4d6a-b052-c7580a636bb2","ios":"levelo://app?vid=c156787f-90c4-4d6a-b052-c7580a636bb2"},"vehicle_type_id":"4","last_reported":1758431368,"current_range_meters":10000,"station_id":"","pricing_plan_id":"cebpf4jnsgd1na2vs0mg"},{"bike_id":"ae5ccd80-2896-4733-9148-6522e9bbfe0c","system_id":"levelo_inurba_marseille","lat":43.22557,"lon":5.41615,"is_reserved":false,"is_disabled":true,"rental_uris":{"android":"levelo://app?vid=ae5ccd80-2896-4733-9148-6522e9bbfe0c","ios":"levelo://app?vid=ae5ccd80-2896-4733-9148-6522e9bbfe0c"},"vehicle_type_id":"4","last_reported":1758431368,"current_range_meters":10000,"station_id":"st_d2o4gvlbi1j2169b742g","pricing_plan_id":"cebpf4jnsgd1na2vs0mg"},{"bike_id":"9637c146-59d7-436a-a4f3-e8022fe36949","system_id":"levelo_inurba_marseille","lat":43.21204,"lon":5.35073,"is_reserved":false,"is_disabled":false,"rental_uris":{"android":"levelo://app?vid=9637c146-59d7-436a-a4f3-e8022fe36949","ios":"levelo://app?vid=9637c146-59d7-436a-a4f3-e8022fe36949"},"vehicle_type_id":"4","last_reported":1758431368,"current_range_meters":10000,"station_id":"st_cvj6sg6p6f1abm77japg","pricing_plan_id":"cebpf4jnsgd1na2vs0mg"},{"bike_id":"be1d288a-4bd5-4641-8f1b-5e507a7feddc","system_id":"levelo_inurba_marseille","lat":43.2417,"lon":5.39723,"is_reserved":false,"is_disabled":false,"rental_uris":{"android":"levelo://app?vid=be1d288a-4bd5-4641-8f1b-5e507a7feddc","ios":"levelo://app?vid=be1d288a-4bd5-4641-8f1b-5e507a7feddc"},"vehicle_type_id":"4","last_reported":1758431368,"current_range_meters":10000,"station_id":"ce4bhn12rcd13ifvqgpg","pricing_plan_id":"cebpf4jnsgd1na2vs0mg"},{"bike_id":"facab4cd-9207-4e9f-ab62-f64f567a1437","system_id":"levelo_inurba_marseille","lat":43.30135,"lon":5.38781,"is_reserved":false,"is_disabled":true,"rental_uris":{"android":"levelo://app?vid=facab4cd-9207-4e9f-ab62-f64f567a1437","ios":"levelo://app?vid=facab4cd-9207-4e9f-ab62-f64f567a1437"},"vehicle_type_id":"4","last_reported":1758431368,"current_range_meters":10000,"station_id":"ce4bghh2rcd13ifvqb60","pricing_plan_id":"cebpf4jnsgd1na2vs0mg"},{"bike_id":"e0350e70-2592-4f30-a29f-913a6972d66c","system_id":"levelo_inurba_marseille","lat":43.26218,"lon":5.40459,"is_reserved":false,"is_disabled":false,"rental_uris":{"android":"levelo://app?vid=e0350e70-2592-4f30-a29f-913a6972d66c","ios":"levelo://app?vid=e0350e70-2592-4f30-a29f-913a6972d66c"},"vehicle_type_id":"4","last_reported":1758431368,"current_range_meters":10000,"station_id":"ce4bhmh2rcd13ifvqgmg","pricing_plan_id":"cebpf4jnsgd1na2vs0mg"},{"bike_id":"213f818a-2fc2-423a-8734-2921a1895f7c","system_id":"levelo_inurba_marseille","lat":43.21192,"lon":5.35066,"is_reserved":false,"is_disabled":false,"rental_uris":{"android":"levelo://app?vid=213f818a-2fc2-423a-8734-2921a1895f7c","ios":"levelo://app?vid=213f818a-2fc2-423a-8734-2921a1895f7c"},"vehicle_type_id":"4","last_reported":1758431368,"current_range_meters":10800,"station_id":"st_cvj6sg6p6f1abm77japg","pricing_plan_id":"cebpf4jnsgd1na2vs0mg"},{"bike_id":"1c2ec2b3-5fa4-4dad-b085-89cc349ccb29","system_id":"levelo_inurba_marseille","lat":43.31742,"lon":5.4241,"is_reserved":false,"is_disabled":false,"rental_uris":{"android":"levelo://app?vid=1c2ec2b3-5fa4-4dad-b085-89cc349ccb29","ios":"levelo://app?vid=1c2ec2b3-5fa4-4dad-b085-89cc349ccb29"},"vehicle_type_id":"4","last_reported":1758431368,"current_range_meters":10800,"station_id":"ce4bhp92rcd13ifvqhbg","pricing_plan_id":"cebpf4jnsgd1na2vs0mg"},{"bike_id":"37e51d46-edb7-4c38-9eba-29cdb1b1e477","system_id":"levelo_inurba_marseille","lat":43.26562,"lon":5.40325,"is_reserved":false,"is_disabled":false,"rental_uris":{"android":"levelo://app?vid=37e51d46-edb7-4c38-9eba-29cdb1b1e477","ios":"levelo://app?vid=37e51d46-edb7-4c38-9eba-29cdb1b1e477"},"vehicle_type_id":"4","last_reported":1758431368,"current_range_meters":10800,"station_id":"ce4bhmp2rcd13ifvqgng","pricing_plan_id":"cebpf4jnsgd1na2vs0mg"},{"bike_id":"1ec2c9ee-599c-41dd-952b-4550e21655ba","system_id":"levelo_inurba_marseille","lat":43.31519,"lon":5.37278,"is_reserved":false,"is_disabled":false,"rental_uris":{"android":"levelo://app?vid=1ec2c9ee-599c-41dd-952b-4550e21655ba","ios":"levelo://app?vid=1ec2c9ee-599c-41dd-952b-4550e21655ba"},"vehicle_type_id":"4","last_reported":1758431368,"current_range_meters":10800,"station_id":"ce4bgt12rcd13ifvqcd0","pricing_plan_id":"cebpf4jnsgd1na2vs0mg"},{"bike_id":"d701ffb6-d985-42e1-8545-ee350fa0185e","system_id":"levelo_inurba_marseille","lat":43.28609,"lon":5.37068,"is_reserved":false,"is_disabled":true,"rental_uris":{"android":"levelo://app?vid=d701ffb6-d985-42e1-8545-ee350fa0185e","ios":"levelo://app?vid=d701ffb6-d985-42e1-8545-ee350fa0185e"},"vehicle_type_id":"4","last_reported":1758431368,"current_range_meters":10800,"station_id":"ce4bht12rcd13ifvqi60","pricing_plan_id":"cebpf4jnsgd1na2vs0mg"},{"bike_id":"3a3a8f73-c430-45b4-918b-6e334cd58586","system_id":"levelo_inurba_marseille","lat":43.29869,"lon":5.39726,"is_reserved":false,"is_disabled":false,"rental_uris":{"android":"levelo://app?vid=3a3a8f73-c430-45b4-918b-6e334cd58586","ios":"levelo://app?vid=3a3a8f73-c430-45b4-918b-6e334cd58586"},"vehicle_type_id":"4","last_reported":1758431368,"current_range_meters":10800,"station_id":"ce4bh0h2rcd13ifvqd50","pricing_plan_id":"cebpf4jnsgd1na2vs0mg"},{"bike_id":"a33a7d2b-3a19-4e17-8886-71256af367d3","system_id":"levelo_inurba_marseille","lat":43.28149,"lon":5.42653,"is_reserved":false,"is_disabled":true,"rental_uris":{"android":"levelo://app?vid=a33a7d2b-3a19-4e17-8886-71256af367d3","ios":"levelo://app?vid=a33a7d2b-3a19-4e17-8886-71256af367d3"},"vehicle_type_id":"4","last_reported":1758431368,"current_range_meters":10800,"station_id":"ce4bhnh2rcd13ifvqgug","pricing_plan_id":"cebpf4jnsgd1na2vs0mg"},{"bike_id":"a973a66e-acee-4dfa-8c7b-9e61cb6f7fa3","system_id":"levelo_inurba_marseille","lat":43.29565,"lon":5.39979,"is_reserved":false,"is_disabled":false,"rental_uris":{"android":"levelo://app?vid=a973a66e-acee-4dfa-8c7b-9e61cb6f7fa3","ios":"levelo://app?vid=a973a66e-acee-4dfa-8c7b-9e61cb6f7fa3"},"vehicle_type_id":"4","last_reported":1758431368,"current_range_meters":10800,"station_id":"ce4bh312rcd13ifvqdj0","pricing_plan_id":"cebpf4jnsgd1na2vs0mg"},{"bike_id":"c1843d42-9f15-4235-8c7f-0c60147cb155","system_id":"levelo_inurba_marseille","lat":43.21207,"lon":5.35091,"is_reserved":false,"is_disabled":false,"rental_uris":{"android":"levelo://app?vid=c1843d42-9f15-4235-8c7f-0c60147cb155","ios":"levelo://app?vid=c1843d42-9f15-4235-8c7f-0c60147cb155"},"vehicle_type_id":"4","last_reported":1758431368,"current_range_meters":10800,"station_id":"st_cvj6sg6p6f1abm77japg","pricing_plan_id":"cebpf4jnsgd1na2vs0mg"},{"bike_id":"a15f5698-c550-45b7-beb0-b2e21445c271","system_id":"levelo_inurba_marseille","lat":43.28679,"lon":5.38663,"is_reserved":false,"is_disabled":false,"rental_uris":{"android":"levelo://app?vid=a15f5698-c550-45b7-beb0-b2e21445c271","ios":"levelo://app?vid=a15f5698-c550-45b7-beb0-b2e21445c271"},"vehicle_type_id":"4","last_reported":1758431368,"current_range_meters":10800,"station_id":"ce4bh492rcd13ifvqdug","pricing_plan_id":"cebpf4jnsgd1na2vs0mg"},{"bike_id":"b28536fb-1a1f-4c02-92d1-a68528fce61d","system_id":"levelo_inurba_marseille","lat":43.29333,"lon":5.37153,"is_reserved":false,"is_disabled":true,"rental_uris":{"android":"levelo://app?vid=b28536fb-1a1f-4c02-92d1-a68528fce61d","ios":"levelo://app?vid=b28536fb-1a1f-4c02-92d1-a68528fce61d"},"vehicle_type_id":"4","last_reported":1758431368,"current_range_meters":11200,"station_id":"ce4bgh92rcd13ifvqb40","pricing_plan_id":"cebpf4jnsgd1na2vs0mg"},{"bike_id":"223b7bd3-4e58-43fc-b261-f699c49e7071","system_id":"levelo_inurba_marseille","lat":43.29632,"lon":5.40597,"is_reserved":false,"is_disabled":false,"rental_uris":{"android":"levelo://app?vid=223b7bd3-4e58-43fc-b261-f699c49e7071","ios":"levelo://app?vid=223b7bd3-4e58-43fc-b261-f699c49e7071"},"vehicle_type_id":"4","last_reported":1758431368,"current_range_meters":11200,"station_id":"ce4bh0h2rcd13ifvqd60","pricing_plan_id":"cebpf4jnsgd1na2vs0mg"},{"bike_id":"97893650-9a0c-47e4-baee-ec60bbc1b06d","system_id":"levelo_inurba_marseille","lat":43.25719,"lon":5.41116,"is_reserved":false,"is_disabled":true,"rental_uris":{"android":"levelo://app?vid=97893650-9a0c-47e4-baee-ec60bbc1b06d","ios":"levelo://app?vid=97893650-9a0c-47e4-baee-ec60bbc1b06d"},"vehicle_type_id":"4","last_reported":1758431368,"current_range_meters":11200,"station_id":"ce4bhkp2rcd13ifvqgd0","pricing_plan_id":"cebpf4jnsgd1na2vs0mg"},{"bike_id":"04473c01-3817-413d-a70a-f93c9dab79e2","system_id":"levelo_inurba_marseille","lat":43.28238,"lon":5.39007,"is_reserved":false,"is_disabled":false,"rental_uris":{"android":"levelo://app?vid=04473c01-3817-413d-a70a-f93c9dab79e2","ios":"levelo://app?vid=04473c01-3817-413d-a70a-f93c9dab79e2"},"vehicle_type_id":"4","last_reported":1758431368,"current_range_meters":11200,"station_id":"ce4bhn92rcd13ifvqgsg","pricing_plan_id":"cebpf4jnsgd1na2vs0mg"},{"bike_id":"2d994890-72f9-4dad-9ba7-2968fede30e3","system_id":"levelo_inurba_marseille","lat":43.24169,"lon":5.36404,"is_reserved":false,"is_disabled":false,"rental_uris":{"android":"levelo://app?vid=2d994890-72f9-4dad-9ba7-2968fede30e3","ios":"levelo://app?vid=2d994890-72f9-4dad-9ba7-2968fede30e3"},"vehicle_type_id":"4","last_reported":1758431368,"current_range_meters":11200,"station_id":"cpo36qri1sfpv3e86is0","pricing_plan_id":"cebpf4jnsgd1na2vs0mg"},{"bike_id":"8e6747cf-b8c6-4cd7-bba9-81728939e96e","system_id":"levelo_inurba_marseille","lat":43.27815,"lon":5.40709,"is_reserved":false,"is_disabled":true,"rental_uris":{"android":"levelo://app?vid=8e6747cf-b8c6-4cd7-bba9-81728939e96e","ios":"levelo://app?vid=8e6747cf-b8c6-4cd7-bba9-81728939e96e"},"vehicle_type_id":"4","last_reported":1758431368,"current_range_meters":11200,"station_id":"ce4bhnh2rcd13ifvqgtg","pricing_plan_id":"cebpf4jnsgd1na2vs0mg"},{"bike_id":"55d1bc08-fd54-4a82-afc7-2adcaa7b1c4e","system_id":"levelo_inurba_marseille","lat":43.30034,"lon":5.37692,"is_reserved":false,"is_disabled":false,"rental_uris":{"android":"levelo://app?vid=55d1bc08-fd54-4a82-afc7-2adcaa7b1c4e","ios":"levelo://app?vid=55d1bc08-fd54-4a82-afc7-2adcaa7b1c4e"},"vehicle_type_id":"4","last_reported":1758431368,"current_range_meters":11200,"station_id":"","pricing_plan_id":"cebpf4jnsgd1na2vs0mg"},{"bike_id":"305f2d5a-b2ea-4e09-8dff-5e22ceeccfe3","system_id":"levelo_inurba_marseille","lat":43.2407,"lon":5.37786,"is_reserved":false,"is_disabled":false,"rental_uris":{"android":"levelo://app?vid=305f2d5a-b2ea-4e09-8dff-5e22ceeccfe3","ios":"levelo://app?vid=305f2d5a-b2ea-4e09-8dff-5e22ceeccfe3"},"vehicle_type_id":"4","last_reported":1758431368,"current_range_meters":11200,"station_id":"ce4bhnp2rcd13ifvqgvg","pricing_plan_id":"cebpf4jnsgd1na2vs0mg"},{"bike_id":"2d82061a-a240-43d1-93a6-ab71cf777b3c","system_id":"levelo_inurba_marseille","lat":43.21191,"lon":5.35069,"is_reserved":false,"is_disabled":false,"rental_uris":{"android":"levelo://app?vid=2d82061a-a240-43d1-93a6-ab71cf777b3c","ios":"levelo://app?vid=2d82061a-a240-43d1-93a6-ab71cf777b3c"},"vehicle_type_id":"4","last_reported":1758431368,"current_range_meters":11200,"station_id":"st_cvj6sg6p6f1abm77japg","pricing_plan_id":"cebpf4jnsgd1na2vs0mg"},{"bike_id":"438ead59-de14-4fa0-a61d-03a70a4122ae","system_id":"levelo_inurba_marseille","lat":43.972789,"lon":4.891371,"is_reserved":false,"is_disabled":true,"rental_uris":{"android":"levelo://app?vid=438ead59-de14-4fa0-a61d-03a70a4122ae","ios":"levelo://app?vid=438ead59-de14-4fa0-a61d-03a70a4122ae"},"vehicle_type_id":"4","last_reported":1758431368,"current_range_meters":11200,"station_id":"","pricing_plan_id":"cebpf4jnsgd1na2vs0mg"},{"bike_id":"534ff5b4-9e83-493b-9063-104ef0af4212","system_id":"levelo_inurba_marseille","lat":43.27996,"lon":5.41671,"is_reserved":false,"is_disabled":true,"rental_uris":{"android":"levelo://app?vid=534ff5b4-9e83-493b-9063-104ef0af4212","ios":"levelo://app?vid=534ff5b4-9e83-493b-9063-104ef0af4212"},"vehicle_type_id":"4","last_reported":1758431368,"current_range_meters":11200,"station_id":"ce4bho12rcd13ifvqh1g","pricing_plan_id":"cebpf4jnsgd1na2vs0mg"},{"bike_id":"2015c1f2-c286-408a-b930-50d865ce0bb9","system_id":"levelo_inurba_marseille","lat":43.2119,"lon":5.35095,"is_reserved":false,"is_disabled":false,"rental_uris":{"android":"levelo://app?vid=2015c1f2-c286-408a-b930-50d865ce0bb9","ios":"levelo://app?vid=2015c1f2-c286-408a-b930-50d865ce0bb9"},"vehicle_type_id":"4","last_reported":1758431368,"current_range_meters":11200,"station_id":"st_cvj6sg6p6f1abm77japg","pricing_plan_id":"cebpf4jnsgd1na2vs0mg"},{"bike_id":"77414249-1f78-4b2e-aa29-789893ea1742","system_id":"levelo_inurba_marseille","lat":43.28155,"lon":5.42631,"is_reserved":false,"is_disabled":true,"rental_uris":{"android":"levelo://app?vid=77414249-1f78-4b2e-aa29-789893ea1742","ios":"levelo://app?vid=77414249-1f78-4b2e-aa29-789893ea1742"},"vehicle_type_id":"4","last_reported":1758431368,"current_range_meters":11600,"station_id":"ce4bhnh2rcd13ifvqgug","pricing_plan_id":"cebpf4jnsgd1na2vs0mg"},{"bike_id":"0dc3e816-c8c6-41f8-8144-bb26d31dc560","system_id":"levelo_inurba_marseille","lat":43.303,"lon":5.39904,"is_reserved":false,"is_disabled":false,"rental_uris":{"android":"levelo://app?vid=0dc3e816-c8c6-41f8-8144-bb26d31dc560","ios":"levelo://app?vid=0dc3e816-c8c6-41f8-8144-bb26d31dc560"},"vehicle_type_id":"4","last_reported":1758431368,"current_range_meters":11600,"station_id":"","pricing_plan_id":"cebpf4jnsgd1na2vs0mg"},{"bike_id":"8f90c6e9-c2a0-414b-a280-ed01b517d1e8","system_id":"levelo_inurba_marseille","lat":43.21195,"lon":5.35062,"is_reserved":false,"is_disabled":false,"rental_uris":{"android":"levelo://app?vid=8f90c6e9-c2a0-414b-a280-ed01b517d1e8","ios":"levelo://app?vid=8f90c6e9-c2a0-414b-a280-ed01b517d1e8"},"vehicle_type_id":"4","last_reported":1758431368,"current_range_meters":11600,"station_id":"st_cvj6sg6p6f1abm77japg","pricing_plan_id":"cebpf4jnsgd1na2vs0mg"},{"bike_id":"220325f7-8c73-4c0b-b138-306885ad9ac7","system_id":"levelo_inurba_marseille","lat":43.30808,"lon":5.38157,"is_reserved":false,"is_disabled":false,"rental_uris":{"android":"levelo://app?vid=220325f7-8c73-4c0b-b138-306885ad9ac7","ios":"levelo://app?vid=220325f7-8c73-4c0b-b138-306885ad9ac7"},"vehicle_type_id":"4","last_reported":1758431368,"current_range_meters":11600,"station_id":"ce4bgt12rcd13ifvqce0","pricing_plan_id":"cebpf4jnsgd1na2vs0mg"},{"bike_id":"6d0ef348-fd86-4c26-9096-d229d04ea986","system_id":"levelo_inurba_marseille","lat":43.27895,"lon":5.405572,"is_reserved":false,"is_disabled":true,"rental_uris":{"android":"levelo://app?vid=6d0ef348-fd86-4c26-9096-d229d04ea986","ios":"levelo://app?vid=6d0ef348-fd86-4c26-9096-d229d04ea986"},"vehicle_type_id":"4","last_reported":1758431368,"current_range_meters":11600,"station_id":"","pricing_plan_id":"cebpf4jnsgd1na2vs0mg"},{"bike_id":"527cbfc9-ea8a-4822-bda0-e7e0d824b792","system_id":"levelo_inurba_marseille","lat":43.24669,"lon":5.38152,"is_reserved":false,"is_disabled":false,"rental_uris":{"android":"levelo://app?vid=527cbfc9-ea8a-4822-bda0-e7e0d824b792","ios":"levelo://app?vid=527cbfc9-ea8a-4822-bda0-e7e0d824b792"},"vehicle_type_id":"4","last_reported":1758431368,"current_range_meters":11600,"station_id":"ce4bhih2rcd13ifvqfr0","pricing_plan_id":"cebpf4jnsgd1na2vs0mg"},{"bike_id":"a1f04663-764f-4a74-8c51-b1424b81cd9f","system_id":"levelo_inurba_marseille","lat":43.27916,"lon":5.39585,"is_reserved":false,"is_disabled":false,"rental_uris":{"android":"levelo://app?vid=a1f04663-764f-4a74-8c51-b1424b81cd9f","ios":"levelo://app?vid=a1f04663-764f-4a74-8c51-b1424b81cd9f"},"vehicle_type_id":"4","last_reported":1758431368,"current_range_meters":11600,"station_id":"ce4bhf92rcd13ifvqf40","pricing_plan_id":"cebpf4jnsgd1na2vs0mg"},{"bike_id":"96ae9776-f373-4750-8939-6ad47e9c9436","system_id":"levelo_inurba_marseille","lat":43.28365,"lon":5.38604,"is_reserved":false,"is_disabled":false,"rental_uris":{"android":"levelo://app?vid=96ae9776-f373-4750-8939-6ad47e9c9436","ios":"levelo://app?vid=96ae9776-f373-4750-8939-6ad47e9c9436"},"vehicle_type_id":"4","last_reported":1758431368,"current_range_meters":11600,"station_id":"ce4bh492rcd13ifvqdvg","pricing_plan_id":"cebpf4jnsgd1na2vs0mg"},{"bike_id":"16dc04c4-527f-4ff4-a401-a389234e7dea","system_id":"levelo_inurba_marseille","lat":43.308121,"lon":5.381463,"is_reserved":false,"is_disabled":false,"rental_uris":{"android":"levelo://app?vid=16dc04c4-527f-4ff4-a401-a389234e7dea","ios":"levelo://app?vid=16dc04c4-527f-4ff4-a401-a389234e7dea"},"vehicle_type_id":"4","last_reported":1758431368,"current_range_meters":11600,"station_id":"ce4bgt12rcd13ifvqce0","pricing_plan_id":"cebpf4jnsgd1na2vs0mg"},{"bike_id":"f9f31484-a498-486d-bc4c-930411a04cda","system_id":"levelo_inurba_marseille","lat":43.307517,"lon":5.38251,"is_reserved":false,"is_disabled":false,"rental_uris":{"android":"levelo://app?vid=f9f31484-a498-486d-bc4c-930411a04cda","ios":"levelo://app?vid=f9f31484-a498-486d-bc4c-930411a04cda"},"vehicle_type_id":"4","last_reported":1758431368,"current_range_meters":11600,"station_id":"ce4bhnp2rcd13ifvqgvg","pricing_plan_id":"cebpf4jnsgd1na2vs0mg"},{"bike_id":"a07a513e-e5a9-4481-8592-d991379bc662","system_id":"levelo_inurba_marseille","lat":43.337536,"lon":5.374536,"is_reserved":false,"is_disabled":false,"rental_uris":{"android":"levelo://app?vid=a07a513e-e5a9-4481-8592-d991379bc662","ios":"levelo://app?vid=a07a513e-e5a9-4481-8592-d991379bc662"},"vehicle_type_id":"4","last_reported":1758431368,"current_range_meters":11600,"station_id":"","pricing_plan_id":"cebpf4jnsgd1na2vs0mg"},{"bike_id":"68adab37-f5ad-4072-b58a-fe6c68285ca6","system_id":"levelo_inurba_marseille","lat":43.30626,"lon":5.37642,"is_reserved":false,"is_disabled":false,"rental_uris":{"android":"levelo://app?vid=68adab37-f5ad-4072-b58a-fe6c68285ca6","ios":"levelo://app?vid=68adab37-f5ad-4072-b58a-fe6c68285ca6"},"vehicle_type_id":"4","last_reported":1758431368,"current_range_meters":12000,"station_id":"","pricing_plan_id":"cebpf4jnsgd1na2vs0mg"},{"bike_id":"5319fae8-be79-4d87-b5d0-b333eba32d6a","system_id":"levelo_inurba_marseille","lat":43.21181,"lon":5.35101,"is_reserved":false,"is_disabled":false,"rental_uris":{"android":"levelo://app?vid=5319fae8-be79-4d87-b5d0-b333eba32d6a","ios":"levelo://app?vid=5319fae8-be79-4d87-b5d0-b333eba32d6a"},"vehicle_type_id":"4","last_reported":1758431368,"current_range_meters":12000,"station_id":"st_cvj6sg6p6f1abm77japg","pricing_plan_id":"cebpf4jnsgd1na2vs0mg"},{"bike_id":"a2102b8c-b983-4410-9ad4-d6231edcc8e2","system_id":"levelo_inurba_marseille","lat":43.29635,"lon":5.40597,"is_reserved":false,"is_disabled":false,"rental_uris":{"android":"levelo://app?vid=a2102b8c-b983-4410-9ad4-d6231edcc8e2","ios":"levelo://app?vid=a2102b8c-b983-4410-9ad4-d6231edcc8e2"},"vehicle_type_id":"4","last_reported":1758431368,"current_range_meters":12000,"station_id":"ce4bh0h2rcd13ifvqd60","pricing_plan_id":"cebpf4jnsgd1na2vs0mg"},{"bike_id":"e86cce24-0f21-4e0d-a094-2ca607577906","system_id":"levelo_inurba_marseille","lat":43.30126,"lon":5.38771,"is_reserved":false,"is_disabled":true,"rental_uris":{"android":"levelo://app?vid=e86cce24-0f21-4e0d-a094-2ca607577906","ios":"levelo://app?vid=e86cce24-0f21-4e0d-a094-2ca607577906"},"vehicle_type_id":"4","last_reported":1758431368,"current_range_meters":12400,"station_id":"ce4bghh2rcd13ifvqb60","pricing_plan_id":"cebpf4jnsgd1na2vs0mg"},{"bike_id":"1ff39d7b-2539-46bc-b9f5-8104a0a2c0aa","system_id":"levelo_inurba_marseille","lat":43.30608,"lon":5.37225,"is_reserved":false,"is_disabled":false,"rental_uris":{"android":"levelo://app?vid=1ff39d7b-2539-46bc-b9f5-8104a0a2c0aa","ios":"levelo://app?vid=1ff39d7b-2539-46bc-b9f5-8104a0a2c0aa"},"vehicle_type_id":"4","last_reported":1758431368,"current_range_meters":12400,"station_id":"ce4bgqh2rcd13ifvqc4g","pricing_plan_id":"cebpf4jnsgd1na2vs0mg"},{"bike_id":"f6d09edb-46c8-43ac-bc24-11a7161d11b8","system_id":"levelo_inurba_marseille","lat":43.317568,"lon":5.390156,"is_reserved":false,"is_disabled":false,"rental_uris":{"android":"levelo://app?vid=f6d09edb-46c8-43ac-bc24-11a7161d11b8","ios":"levelo://app?vid=f6d09edb-46c8-43ac-bc24-11a7161d11b8"},"vehicle_type_id":"4","last_reported":1758431368,"current_range_meters":12400,"station_id":"ce4bhqp2rcd13ifvqhng","pricing_plan_id":"cebpf4jnsgd1na2vs0mg"},{"bike_id":"28e12325-1bac-4433-9100-6c834d569a46","system_id":"levelo_inurba_marseille","lat":43.3147,"lon":5.37292,"is_reserved":false,"is_disabled":false,"rental_uris":{"android":"levelo://app?vid=28e12325-1bac-4433-9100-6c834d569a46","ios":"levelo://app?vid=28e12325-1bac-4433-9100-6c834d569a46"},"vehicle_type_id":"4","last_reported":1758431368,"current_range_meters":12800,"station_id":"ce4bgt12rcd13ifvqcd0","pricing_plan_id":"cebpf4jnsgd1na2vs0mg"},{"bike_id":"b4f4777e-542d-405b-814e-dc691700f4b6","system_id":"levelo_inurba_marseille","lat":43.29565,"lon":5.3997,"is_reserved":false,"is_disabled":false,"rental_uris":{"android":"levelo://app?vid=b4f4777e-542d-405b-814e-dc691700f4b6","ios":"levelo://app?vid=b4f4777e-542d-405b-814e-dc691700f4b6"},"vehicle_type_id":"4","last_reported":1758431368,"current_range_meters":12800,"station_id":"ce4bh312rcd13ifvqdj0","pricing_plan_id":"cebpf4jnsgd1na2vs0mg"},{"bike_id":"ada27cd6-8d8a-4454-81a2-43ac20e843f1","system_id":"levelo_inurba_marseille","lat":43.29029,"lon":5.39968,"is_reserved":false,"is_disabled":false,"rental_uris":{"android":"levelo://app?vid=ada27cd6-8d8a-4454-81a2-43ac20e843f1","ios":"levelo://app?vid=ada27cd6-8d8a-4454-81a2-43ac20e843f1"},"vehicle_type_id":"4","last_reported":1758431368,"current_range_meters":13600,"station_id":"ce4bh392rcd13ifvqdm0","pricing_plan_id":"cebpf4jnsgd1na2vs0mg"},{"bike_id":"eaa4b818-5f73-43c6-b1a3-2bd219aca400","system_id":"levelo_inurba_marseille","lat":43.25375,"lon":5.42211,"is_reserved":false,"is_disabled":false,"rental_uris":{"android":"levelo://app?vid=eaa4b818-5f73-43c6-b1a3-2bd219aca400","ios":"levelo://app?vid=eaa4b818-5f73-43c6-b1a3-2bd219aca400"},"vehicle_type_id":"4","last_reported":1758431368,"current_range_meters":13600,"station_id":"st_d2m65c5bi1j21697t3ng","pricing_plan_id":"cebpf4jnsgd1na2vs0mg"},{"bike_id":"5d633773-c86d-4663-ae55-dfb6f9eda023","system_id":"levelo_inurba_marseille","lat":43.2593,"lon":5.40879,"is_reserved":false,"is_disabled":false,"rental_uris":{"android":"levelo://app?vid=5d633773-c86d-4663-ae55-dfb6f9eda023","ios":"levelo://app?vid=5d633773-c86d-4663-ae55-dfb6f9eda023"},"vehicle_type_id":"4","last_reported":1758431368,"current_range_meters":13600,"station_id":"","pricing_plan_id":"cebpf4jnsgd1na2vs0mg"},{"bike_id":"8ef3ec29-aa6e-4da6-a0b6-7b8011f6af66","system_id":"levelo_inurba_marseille","lat":43.305982,"lon":5.372151,"is_reserved":false,"is_disabled":false,"rental_uris":{"android":"levelo://app?vid=8ef3ec29-aa6e-4da6-a0b6-7b8011f6af66","ios":"levelo://app?vid=8ef3ec29-aa6e-4da6-a0b6-7b8011f6af66"},"vehicle_type_id":"4","last_reported":1758431368,"current_range_meters":12800,"station_id":"ce4bgqh2rcd13ifvqc4g","pricing_plan_id":"cebpf4jnsgd1na2vs0mg"},{"bike_id":"aa46e5a1-2489-435c-8222-50c8548ed8a2","system_id":"levelo_inurba_marseille","lat":43.29626,"lon":5.40593,"is_reserved":false,"is_disabled":false,"rental_uris":{"android":"levelo://app?vid=aa46e5a1-2489-435c-8222-50c8548ed8a2","ios":"levelo://app?vid=aa46e5a1-2489-435c-8222-50c8548ed8a2"},"vehicle_type_id":"4","last_reported":1758431368,"current_range_meters":13600,"station_id":"ce4bh0h2rcd13ifvqd60","pricing_plan_id":"cebpf4jnsgd1na2vs0mg"},{"bike_id":"a2cb9d12-1bc1-402c-a582-c559c163f0a9","system_id":"levelo_inurba_marseille","lat":43.29253,"lon":5.40896,"is_reserved":false,"is_disabled":false,"rental_uris":{"android":"levelo://app?vid=a2cb9d12-1bc1-402c-a582-c559c163f0a9","ios":"levelo://app?vid=a2cb9d12-1bc1-402c-a582-c559c163f0a9"},"vehicle_type_id":"4","last_reported":1758431368,"current_range_meters":13600,"station_id":"ce4bh192rcd13ifvqdc0","pricing_plan_id":"cebpf4jnsgd1na2vs0mg"},{"bike_id":"d801b961-8b0f-429d-9d3e-817010448aec","system_id":"levelo_inurba_marseille","lat":43.337632,"lon":5.374376,"is_reserved":false,"is_disabled":false,"rental_uris":{"android":"levelo://app?vid=d801b961-8b0f-429d-9d3e-817010448aec","ios":"levelo://app?vid=d801b961-8b0f-429d-9d3e-817010448aec"},"vehicle_type_id":"4","last_reported":1758431368,"current_range_meters":14000,"station_id":"","pricing_plan_id":"cebpf4jnsgd1na2vs0mg"},{"bike_id":"118b6d7e-3328-44e2-ae13-d04071b8c00f","system_id":"levelo_inurba_marseille","lat":43.21229,"lon":5.3508,"is_reserved":false,"is_disabled":false,"rental_uris":{"android":"levelo://app?vid=118b6d7e-3328-44e2-ae13-d04071b8c00f","ios":"levelo://app?vid=118b6d7e-3328-44e2-ae13-d04071b8c00f"},"vehicle_type_id":"4","last_reported":1758431368,"current_range_meters":14000,"station_id":"","pricing_plan_id":"cebpf4jnsgd1na2vs0mg"},{"bike_id":"a57b1326-853b-4a8b-afe8-49b1f5da3f6e","system_id":"levelo_inurba_marseille","lat":43.25936,"lon":5.40907,"is_reserved":false,"is_disabled":false,"rental_uris":{"android":"levelo://app?vid=a57b1326-853b-4a8b-afe8-49b1f5da3f6e","ios":"levelo://app?vid=a57b1326-853b-4a8b-afe8-49b1f5da3f6e"},"vehicle_type_id":"4","last_reported":1758431368,"current_range_meters":14000,"station_id":"ce4bhm92rcd13ifvqglg","pricing_plan_id":"cebpf4jnsgd1na2vs0mg"},{"bike_id":"ad3b9a79-2fea-4743-a6da-194a3004707a","system_id":"levelo_inurba_marseille","lat":43.29377,"lon":5.37872,"is_reserved":false,"is_disabled":true,"rental_uris":{"android":"levelo://app?vid=ad3b9a79-2fea-4743-a6da-194a3004707a","ios":"levelo://app?vid=ad3b9a79-2fea-4743-a6da-194a3004707a"},"vehicle_type_id":"4","last_reported":1758431368,"current_range_meters":14000,"station_id":"ce4bgjh2rcd13ifvqbf0","pricing_plan_id":"cebpf4jnsgd1na2vs0mg"},{"bike_id":"394bbc81-dc66-4519-a76d-fc81a65cacf7","system_id":"levelo_inurba_marseille","lat":43.212043,"lon":5.350516,"is_reserved":false,"is_disabled":false,"rental_uris":{"android":"levelo://app?vid=394bbc81-dc66-4519-a76d-fc81a65cacf7","ios":"levelo://app?vid=394bbc81-dc66-4519-a76d-fc81a65cacf7"},"vehicle_type_id":"4","last_reported":1758431368,"current_range_meters":14000,"station_id":"st_cvj6sg6p6f1abm77japg","pricing_plan_id":"cebpf4jnsgd1na2vs0mg"},{"bike_id":"7ce5fdda-700e-46b9-9bf0-f4b67d248c7b","system_id":"levelo_inurba_marseille","lat":43.28853,"lon":5.39317,"is_reserved":false,"is_disabled":false,"rental_uris":{"android":"levelo://app?vid=7ce5fdda-700e-46b9-9bf0-f4b67d248c7b","ios":"levelo://app?vid=7ce5fdda-700e-46b9-9bf0-f4b67d248c7b"},"vehicle_type_id":"4","last_reported":1758431368,"current_range_meters":14800,"station_id":"ce4bh2p2rcd13ifvqdi0","pricing_plan_id":"cebpf4jnsgd1na2vs0mg"},{"bike_id":"8aa5b788-3d94-452f-8a0e-8476ae6daeaa","system_id":"levelo_inurba_marseille","lat":43.29564,"lon":5.39987,"is_reserved":false,"is_disabled":false,"rental_uris":{"android":"levelo://app?vid=8aa5b788-3d94-452f-8a0e-8476ae6daeaa","ios":"levelo://app?vid=8aa5b788-3d94-452f-8a0e-8476ae6daeaa"},"vehicle_type_id":"4","last_reported":1758431368,"current_range_meters":14800,"station_id":"ce4bh312rcd13ifvqdj0","pricing_plan_id":"cebpf4jnsgd1na2vs0mg"},{"bike_id":"a5c5b295-b9cc-4e3e-beac-b7a58fa974a0","system_id":"levelo_inurba_marseille","lat":43.30797,"lon":5.38141,"is_reserved":false,"is_disabled":false,"rental_uris":{"android":"levelo://app?vid=a5c5b295-b9cc-4e3e-beac-b7a58fa974a0","ios":"levelo://app?vid=a5c5b295-b9cc-4e3e-beac-b7a58fa974a0"},"vehicle_type_id":"4","last_reported":1758431368,"current_range_meters":14800,"station_id":"ce4bgt12rcd13ifvqce0","pricing_plan_id":"cebpf4jnsgd1na2vs0mg"},{"bike_id":"52bbd47b-4667-4240-bad8-b00941193486","system_id":"levelo_inurba_marseille","lat":43.30309,"lon":5.40456,"is_reserved":false,"is_disabled":false,"rental_uris":{"android":"levelo://app?vid=52bbd47b-4667-4240-bad8-b00941193486","ios":"levelo://app?vid=52bbd47b-4667-4240-bad8-b00941193486"},"vehicle_type_id":"4","last_reported":1758431368,"current_range_meters":14800,"station_id":"ce4bh012rcd13ifvqd10","pricing_plan_id":"cebpf4jnsgd1na2vs0mg"},{"bike_id":"e86857f8-f405-4657-b145-ec58ed187087","system_id":"levelo_inurba_marseille","lat":43.31484,"lon":5.3881,"is_reserved":false,"is_disabled":false,"rental_uris":{"android":"levelo://app?vid=e86857f8-f405-4657-b145-ec58ed187087","ios":"levelo://app?vid=e86857f8-f405-4657-b145-ec58ed187087"},"vehicle_type_id":"4","last_reported":1758431368,"current_range_meters":14800,"station_id":"ce4bgt92rcd13ifvqcf0","pricing_plan_id":"cebpf4jnsgd1na2vs0mg"},{"bike_id":"aa202986-5333-440e-b56b-032d13dc556e","system_id":"levelo_inurba_marseille","lat":43.28853,"lon":5.39321,"is_reserved":false,"is_disabled":false,"rental_uris":{"android":"levelo://app?vid=aa202986-5333-440e-b56b-032d13dc556e","ios":"levelo://app?vid=aa202986-5333-440e-b56b-032d13dc556e"},"vehicle_type_id":"4","last_reported":1758431368,"current_range_meters":14800,"station_id":"ce4bh2p2rcd13ifvqdi0","pricing_plan_id":"cebpf4jnsgd1na2vs0mg"},{"bike_id":"14ab75aa-9981-4348-8134-6f7226aff1c1","system_id":"levelo_inurba_marseille","lat":43.31206,"lon":5.3874,"is_reserved":false,"is_disabled":false,"rental_uris":{"android":"levelo://app?vid=14ab75aa-9981-4348-8134-6f7226aff1c1","ios":"levelo://app?vid=14ab75aa-9981-4348-8134-6f7226aff1c1"},"vehicle_type_id":"4","last_reported":1758431368,"current_range_meters":14800,"station_id":"ce4bgv12rcd13ifvqcp0","pricing_plan_id":"cebpf4jnsgd1na2vs0mg"},{"bike_id":"363d99e5-837c-43c8-abcc-c80ef2e2786a","system_id":"levelo_inurba_marseille","lat":43.21198,"lon":5.35084,"is_reserved":false,"is_disabled":false,"rental_uris":{"android":"levelo://app?vid=363d99e5-837c-43c8-abcc-c80ef2e2786a","ios":"levelo://app?vid=363d99e5-837c-43c8-abcc-c80ef2e2786a"},"vehicle_type_id":"4","last_reported":1758431368,"current_range_meters":14800,"station_id":"st_cvj6sg6p6f1abm77japg","pricing_plan_id":"cebpf4jnsgd1na2vs0mg"},{"bike_id":"d2667e4e-8f97-413d-81b1-13a394c6285f","system_id":"levelo_inurba_marseille","lat":43.217514,"lon":5.345994,"is_reserved":false,"is_disabled":true,"rental_uris":{"android":"levelo://app?vid=d2667e4e-8f97-413d-81b1-13a394c6285f","ios":"levelo://app?vid=d2667e4e-8f97-413d-81b1-13a394c6285f"},"vehicle_type_id":"4","last_reported":1758431368,"current_range_meters":14800,"station_id":"st_cvj6r9ubvosntc0bgbag","pricing_plan_id":"cebpf4jnsgd1na2vs0mg"},{"bike_id":"76bbf107-7ec5-4826-b296-ab629ecd14ab","system_id":"levelo_inurba_marseille","lat":43.29837,"lon":5.42083,"is_reserved":false,"is_disabled":false,"rental_uris":{"android":"levelo://app?vid=76bbf107-7ec5-4826-b296-ab629ecd14ab","ios":"levelo://app?vid=76bbf107-7ec5-4826-b296-ab629ecd14ab"},"vehicle_type_id":"4","last_reported":1758431368,"current_range_meters":14800,"station_id":"","pricing_plan_id":"cebpf4jnsgd1na2vs0mg"},{"bike_id":"f92466e6-9f39-4aa1-b676-b17a1e81767e","system_id":"levelo_inurba_marseille","lat":43.30128,"lon":5.39834,"is_reserved":false,"is_disabled":false,"rental_uris":{"android":"levelo://app?vid=f92466e6-9f39-4aa1-b676-b17a1e81767e","ios":"levelo://app?vid=f92466e6-9f39-4aa1-b676-b17a1e81767e"},"vehicle_type_id":"4","last_reported":1758431368,"current_range_meters":15200,"station_id":"ce4bh0h2rcd13ifvqd40","pricing_plan_id":"cebpf4jnsgd1na2vs0mg"},{"bike_id":"c404da81-05f4-4869-b15d-0f570e55fff4","system_id":"levelo_inurba_marseille","lat":43.28707,"lon":5.39975,"is_reserved":false,"is_disabled":false,"rental_uris":{"android":"levelo://app?vid=c404da81-05f4-4869-b15d-0f570e55fff4","ios":"levelo://app?vid=c404da81-05f4-4869-b15d-0f570e55fff4"},"vehicle_type_id":"4","last_reported":1758431368,"current_range_meters":15200,"station_id":"ce4bho92rcd13ifvqh3g","pricing_plan_id":"cebpf4jnsgd1na2vs0mg"},{"bike_id":"5012c91b-a53c-4c5f-901c-26f9fc9d8566","system_id":"levelo_inurba_marseille","lat":43.31109,"lon":5.3778,"is_reserved":false,"is_disabled":false,"rental_uris":{"android":"levelo://app?vid=5012c91b-a53c-4c5f-901c-26f9fc9d8566","ios":"levelo://app?vid=5012c91b-a53c-4c5f-901c-26f9fc9d8566"},"vehicle_type_id":"4","last_reported":1758431368,"current_range_meters":16000,"station_id":"ce4bgt92rcd13ifvqcg0","pricing_plan_id":"cebpf4jnsgd1na2vs0mg"},{"bike_id":"aaf6f317-6d40-4cf9-abdb-2776478eaf09","system_id":"levelo_inurba_marseille","lat":43.27833,"lon":5.39217,"is_reserved":false,"is_disabled":false,"rental_uris":{"android":"levelo://app?vid=aaf6f317-6d40-4cf9-abdb-2776478eaf09","ios":"levelo://app?vid=aaf6f317-6d40-4cf9-abdb-2776478eaf09"},"vehicle_type_id":"4","last_reported":1758431368,"current_range_meters":16000,"station_id":"ce4bhjp2rcd13ifvqga0","pricing_plan_id":"cebpf4jnsgd1na2vs0mg"},{"bike_id":"15609c4e-f589-422c-9a62-c8d2d4eb92fd","system_id":"levelo_inurba_marseille","lat":43.32996,"lon":5.38105,"is_reserved":false,"is_disabled":false,"rental_uris":{"android":"levelo://app?vid=15609c4e-f589-422c-9a62-c8d2d4eb92fd","ios":"levelo://app?vid=15609c4e-f589-422c-9a62-c8d2d4eb92fd"},"vehicle_type_id":"4","last_reported":1758431368,"current_range_meters":16000,"station_id":"","pricing_plan_id":"cebpf4jnsgd1na2vs0mg"},{"bike_id":"a8e72e83-9768-4b0b-81f6-cec0c80a86eb","system_id":"levelo_inurba_marseille","lat":43.30771,"lon":5.37652,"is_reserved":false,"is_disabled":false,"rental_uris":{"android":"levelo://app?vid=a8e72e83-9768-4b0b-81f6-cec0c80a86eb","ios":"levelo://app?vid=a8e72e83-9768-4b0b-81f6-cec0c80a86eb"},"vehicle_type_id":"4","last_reported":1758431368,"current_range_meters":16000,"station_id":"ce4bgv92rcd13ifvqcq0","pricing_plan_id":"cebpf4jnsgd1na2vs0mg"},{"bike_id":"1be0e12d-c982-4197-8e20-7fc42fd9f189","system_id":"levelo_inurba_marseille","lat":43.31339,"lon":5.39691,"is_reserved":false,"is_disabled":false,"rental_uris":{"android":"levelo://app?vid=1be0e12d-c982-4197-8e20-7fc42fd9f189","ios":"levelo://app?vid=1be0e12d-c982-4197-8e20-7fc42fd9f189"},"vehicle_type_id":"4","last_reported":1758431368,"current_range_meters":16000,"station_id":"ce4bgvp2rcd13ifvqcu0","pricing_plan_id":"cebpf4jnsgd1na2vs0mg"},{"bike_id":"a6c138d2-1a19-4ae6-bb9c-5e1b0cdabccf","system_id":"levelo_inurba_marseille","lat":43.30424,"lon":5.39777,"is_reserved":false,"is_disabled":false,"rental_uris":{"android":"levelo://app?vid=a6c138d2-1a19-4ae6-bb9c-5e1b0cdabccf","ios":"levelo://app?vid=a6c138d2-1a19-4ae6-bb9c-5e1b0cdabccf"},"vehicle_type_id":"4","last_reported":1758431368,"current_range_meters":16000,"station_id":"ce4bh092rcd13ifvqd20","pricing_plan_id":"cebpf4jnsgd1na2vs0mg"},{"bike_id":"75cdae86-aa3c-46f9-92bf-f3662c1063cf","system_id":"levelo_inurba_marseille","lat":43.33737,"lon":5.39226,"is_reserved":false,"is_disabled":false,"rental_uris":{"android":"levelo://app?vid=75cdae86-aa3c-46f9-92bf-f3662c1063cf","ios":"levelo://app?vid=75cdae86-aa3c-46f9-92bf-f3662c1063cf"},"vehicle_type_id":"4","last_reported":1758431368,"current_range_meters":16000,"station_id":"ce4bhr92rcd13ifvqhsg","pricing_plan_id":"cebpf4jnsgd1na2vs0mg"},{"bike_id":"9176512c-2cc1-4df2-a8e0-6be514fbcdbf","system_id":"levelo_inurba_marseille","lat":43.33748,"lon":5.37465,"is_reserved":false,"is_disabled":false,"rental_uris":{"android":"levelo://app?vid=9176512c-2cc1-4df2-a8e0-6be514fbcdbf","ios":"levelo://app?vid=9176512c-2cc1-4df2-a8e0-6be514fbcdbf"},"vehicle_type_id":"4","last_reported":1758431368,"current_range_meters":16000,"station_id":"","pricing_plan_id":"cebpf4jnsgd1na2vs0mg"},{"bike_id":"8256c3c5-29e1-4d6d-816d-98492f1b2555","system_id":"levelo_inurba_marseille","lat":43.27507,"lon":5.42452,"is_reserved":false,"is_disabled":false,"rental_uris":{"android":"levelo://app?vid=8256c3c5-29e1-4d6d-816d-98492f1b2555","ios":"levelo://app?vid=8256c3c5-29e1-4d6d-816d-98492f1b2555"},"vehicle_type_id":"4","last_reported":1758431368,"current_range_meters":16000,"station_id":"ce4bhn92rcd13ifvqgrg","pricing_plan_id":"cebpf4jnsgd1na2vs0mg"},{"bike_id":"1f41fd1e-481b-4ece-9473-0c8205774c6a","system_id":"levelo_inurba_marseille","lat":43.3044,"lon":5.39476,"is_reserved":false,"is_disabled":false,"rental_uris":{"android":"levelo://app?vid=1f41fd1e-481b-4ece-9473-0c8205774c6a","ios":"levelo://app?vid=1f41fd1e-481b-4ece-9473-0c8205774c6a"},"vehicle_type_id":"4","last_reported":1758431368,"current_range_meters":16000,"station_id":"","pricing_plan_id":"cebpf4jnsgd1na2vs0mg"},{"bike_id":"d158c34c-ce51-43ba-9697-624f9e4e9d38","system_id":"levelo_inurba_marseille","lat":43.292507,"lon":5.409027,"is_reserved":false,"is_disabled":false,"rental_uris":{"android":"levelo://app?vid=d158c34c-ce51-43ba-9697-624f9e4e9d38","ios":"levelo://app?vid=d158c34c-ce51-43ba-9697-624f9e4e9d38"},"vehicle_type_id":"4","last_reported":1758431368,"current_range_meters":16000,"station_id":"ce4bh192rcd13ifvqdc0","pricing_plan_id":"cebpf4jnsgd1na2vs0mg"},{"bike_id":"055d3509-ce51-482c-9f3e-57073515c725","system_id":"levelo_inurba_marseille","lat":43.28711,"lon":5.37413,"is_reserved":false,"is_disabled":false,"rental_uris":{"android":"levelo://app?vid=055d3509-ce51-482c-9f3e-57073515c725","ios":"levelo://app?vid=055d3509-ce51-482c-9f3e-57073515c725"},"vehicle_type_id":"4","last_reported":1758431368,"current_range_meters":15200,"station_id":"ce4bh3p2rcd13ifvqdq0","pricing_plan_id":"cebpf4jnsgd1na2vs0mg"},{"bike_id":"a14e4aba-8ea8-4fd8-a01d-0001201db749","system_id":"levelo_inurba_marseille","lat":43.28704,"lon":5.39982,"is_reserved":false,"is_disabled":false,"rental_uris":{"android":"levelo://app?vid=a14e4aba-8ea8-4fd8-a01d-0001201db749","ios":"levelo://app?vid=a14e4aba-8ea8-4fd8-a01d-0001201db749"},"vehicle_type_id":"4","last_reported":1758431368,"current_range_meters":16400,"station_id":"ce4bho92rcd13ifvqh3g","pricing_plan_id":"cebpf4jnsgd1na2vs0mg"},{"bike_id":"f581ccb4-ae4a-44ef-9aee-8da2f62ff531","system_id":"levelo_inurba_marseille","lat":43.31244,"lon":5.36824,"is_reserved":false,"is_disabled":false,"rental_uris":{"android":"levelo://app?vid=f581ccb4-ae4a-44ef-9aee-8da2f62ff531","ios":"levelo://app?vid=f581ccb4-ae4a-44ef-9aee-8da2f62ff531"},"vehicle_type_id":"4","last_reported":1758431368,"current_range_meters":16400,"station_id":"ce4bgl92rcd13ifvqbq0","pricing_plan_id":"cebpf4jnsgd1na2vs0mg"},{"bike_id":"ee3ecfab-a09d-4197-a30a-758dc99165b1","system_id":"levelo_inurba_marseille","lat":43.27847,"lon":5.39214,"is_reserved":false,"is_disabled":false,"rental_uris":{"android":"levelo://app?vid=ee3ecfab-a09d-4197-a30a-758dc99165b1","ios":"levelo://app?vid=ee3ecfab-a09d-4197-a30a-758dc99165b1"},"vehicle_type_id":"4","last_reported":1758431368,"current_range_meters":16400,"station_id":"ce4bhjp2rcd13ifvqga0","pricing_plan_id":"cebpf4jnsgd1na2vs0mg"},{"bike_id":"162483fb-058a-43f7-a272-15e63e78b5bc","system_id":"levelo_inurba_marseille","lat":43.21751,"lon":5.34612,"is_reserved":false,"is_disabled":true,"rental_uris":{"android":"levelo://app?vid=162483fb-058a-43f7-a272-15e63e78b5bc","ios":"levelo://app?vid=162483fb-058a-43f7-a272-15e63e78b5bc"},"vehicle_type_id":"4","last_reported":1758431368,"current_range_meters":16400,"station_id":"st_cvj6r9ubvosntc0bgbag","pricing_plan_id":"cebpf4jnsgd1na2vs0mg"},{"bike_id":"2886243d-8a5e-43ea-8bdb-dbe441b96e58","system_id":"levelo_inurba_marseille","lat":43.27952,"lon":5.41034,"is_reserved":false,"is_disabled":false,"rental_uris":{"android":"levelo://app?vid=2886243d-8a5e-43ea-8bdb-dbe441b96e58","ios":"levelo://app?vid=2886243d-8a5e-43ea-8bdb-dbe441b96e58"},"vehicle_type_id":"4","last_reported":1758431368,"current_range_meters":16400,"station_id":"ce4bhnp2rcd13ifvqh0g","pricing_plan_id":"cebpf4jnsgd1na2vs0mg"},{"bike_id":"076eb004-0423-48e1-9c4f-16b25d40cced","system_id":"levelo_inurba_marseille","lat":43.32341,"lon":5.40615,"is_reserved":false,"is_disabled":false,"rental_uris":{"android":"levelo://app?vid=076eb004-0423-48e1-9c4f-16b25d40cced","ios":"levelo://app?vid=076eb004-0423-48e1-9c4f-16b25d40cced"},"vehicle_type_id":"4","last_reported":1758431368,"current_range_meters":16400,"station_id":"ce4bhq92rcd13ifvqhjg","pricing_plan_id":"cebpf4jnsgd1na2vs0mg"},{"bike_id":"a329363e-972b-428b-836e-51e3b2893c70","system_id":"levelo_inurba_marseille","lat":43.21199,"lon":5.35073,"is_reserved":false,"is_disabled":false,"rental_uris":{"android":"levelo://app?vid=a329363e-972b-428b-836e-51e3b2893c70","ios":"levelo://app?vid=a329363e-972b-428b-836e-51e3b2893c70"},"vehicle_type_id":"4","last_reported":1758431368,"current_range_meters":16400,"station_id":"st_cvj6sg6p6f1abm77japg","pricing_plan_id":"cebpf4jnsgd1na2vs0mg"},{"bike_id":"a8a56f6a-e200-4c08-a984-317cae1616a2","system_id":"levelo_inurba_marseille","lat":43.30325,"lon":5.40427,"is_reserved":false,"is_disabled":false,"rental_uris":{"android":"levelo://app?vid=a8a56f6a-e200-4c08-a984-317cae1616a2","ios":"levelo://app?vid=a8a56f6a-e200-4c08-a984-317cae1616a2"},"vehicle_type_id":"4","last_reported":1758431368,"current_range_meters":16400,"station_id":"ce4bh012rcd13ifvqd10","pricing_plan_id":"cebpf4jnsgd1na2vs0mg"},{"bike_id":"831c242d-c4b7-4153-bce5-fe29d0c2ebd6","system_id":"levelo_inurba_marseille","lat":43.30672,"lon":5.40091,"is_reserved":false,"is_disabled":false,"rental_uris":{"android":"levelo://app?vid=831c242d-c4b7-4153-bce5-fe29d0c2ebd6","ios":"levelo://app?vid=831c242d-c4b7-4153-bce5-fe29d0c2ebd6"},"vehicle_type_id":"4","last_reported":1758431368,"current_range_meters":16400,"station_id":"ce4bh112rcd13ifvqda0","pricing_plan_id":"cebpf4jnsgd1na2vs0mg"},{"bike_id":"176a31c4-a17c-44ec-bbf6-50f8985ee1fc","system_id":"levelo_inurba_marseille","lat":43.25331,"lon":5.42168,"is_reserved":false,"is_disabled":false,"rental_uris":{"android":"levelo://app?vid=176a31c4-a17c-44ec-bbf6-50f8985ee1fc","ios":"levelo://app?vid=176a31c4-a17c-44ec-bbf6-50f8985ee1fc"},"vehicle_type_id":"4","last_reported":1758431368,"current_range_meters":16800,"station_id":"st_d2m65c5bi1j21697t3ng","pricing_plan_id":"cebpf4jnsgd1na2vs0mg"},{"bike_id":"a4473019-692e-4bd9-9b08-db083daad564","system_id":"levelo_inurba_marseille","lat":43.31986,"lon":5.38132,"is_reserved":false,"is_disabled":false,"rental_uris":{"android":"levelo://app?vid=a4473019-692e-4bd9-9b08-db083daad564","ios":"levelo://app?vid=a4473019-692e-4bd9-9b08-db083daad564"},"vehicle_type_id":"4","last_reported":1758431368,"current_range_meters":16800,"station_id":"ce4bhr12rcd13ifvqhpg","pricing_plan_id":"cebpf4jnsgd1na2vs0mg"},{"bike_id":"a820aa72-ec6a-478c-b292-76ac26a055f7","system_id":"levelo_inurba_marseille","lat":43.323678,"lon":5.388836,"is_reserved":false,"is_disabled":false,"rental_uris":{"android":"levelo://app?vid=a820aa72-ec6a-478c-b292-76ac26a055f7","ios":"levelo://app?vid=a820aa72-ec6a-478c-b292-76ac26a055f7"},"vehicle_type_id":"4","last_reported":1758431368,"current_range_meters":16800,"station_id":"ce4bhqp2rcd13ifvqhog","pricing_plan_id":"cebpf4jnsgd1na2vs0mg"},{"bike_id":"d639fc5d-edb5-4e2c-8ef6-ca308fb6a725","system_id":"levelo_inurba_marseille","lat":43.231875,"lon":5.399872,"is_reserved":false,"is_disabled":false,"rental_uris":{"android":"levelo://app?vid=d639fc5d-edb5-4e2c-8ef6-ca308fb6a725","ios":"levelo://app?vid=d639fc5d-edb5-4e2c-8ef6-ca308fb6a725"},"vehicle_type_id":"4","last_reported":1758431368,"current_range_meters":16800,"station_id":"ce4bhn12rcd13ifvqgqg","pricing_plan_id":"cebpf4jnsgd1na2vs0mg"},{"bike_id":"6be3bd8b-eada-4f83-bfbf-82d34cec3c94","system_id":"levelo_inurba_marseille","lat":43.337724,"lon":5.374496,"is_reserved":false,"is_disabled":false,"rental_uris":{"android":"levelo://app?vid=6be3bd8b-eada-4f83-bfbf-82d34cec3c94","ios":"levelo://app?vid=6be3bd8b-eada-4f83-bfbf-82d34cec3c94"},"vehicle_type_id":"4","last_reported":1758431368,"current_range_meters":16800,"station_id":"","pricing_plan_id":"cebpf4jnsgd1na2vs0mg"},{"bike_id":"1d2ef528-53de-40c0-aba0-4ebcf137ecf0","system_id":"levelo_inurba_marseille","lat":43.292449,"lon":5.409057,"is_reserved":false,"is_disabled":false,"rental_uris":{"android":"levelo://app?vid=1d2ef528-53de-40c0-aba0-4ebcf137ecf0","ios":"levelo://app?vid=1d2ef528-53de-40c0-aba0-4ebcf137ecf0"},"vehicle_type_id":"4","last_reported":1758431368,"current_range_meters":16800,"station_id":"ce4bh192rcd13ifvqdc0","pricing_plan_id":"cebpf4jnsgd1na2vs0mg"},{"bike_id":"97e78d58-9da6-4d2e-a8a7-97799dd1fee2","system_id":"levelo_inurba_marseille","lat":43.29881,"lon":5.39728,"is_reserved":false,"is_disabled":false,"rental_uris":{"android":"levelo://app?vid=97e78d58-9da6-4d2e-a8a7-97799dd1fee2","ios":"levelo://app?vid=97e78d58-9da6-4d2e-a8a7-97799dd1fee2"},"vehicle_type_id":"4","last_reported":1758431368,"current_range_meters":16800,"station_id":"ce4bh0h2rcd13ifvqd50","pricing_plan_id":"cebpf4jnsgd1na2vs0mg"},{"bike_id":"f3805ac9-2ab6-41f8-b374-0887d951860e","system_id":"levelo_inurba_marseille","lat":43.21751,"lon":5.34605,"is_reserved":false,"is_disabled":true,"rental_uris":{"android":"levelo://app?vid=f3805ac9-2ab6-41f8-b374-0887d951860e","ios":"levelo://app?vid=f3805ac9-2ab6-41f8-b374-0887d951860e"},"vehicle_type_id":"4","last_reported":1758431368,"current_range_meters":16800,"station_id":"st_cvj6r9ubvosntc0bgbag","pricing_plan_id":"cebpf4jnsgd1na2vs0mg"},{"bike_id":"a2eb9fe6-3eb0-46ea-bd1a-b95aa06fc51c","system_id":"levelo_inurba_marseille","lat":43.28678,"lon":5.40002,"is_reserved":false,"is_disabled":false,"rental_uris":{"android":"levelo://app?vid=a2eb9fe6-3eb0-46ea-bd1a-b95aa06fc51c","ios":"levelo://app?vid=a2eb9fe6-3eb0-46ea-bd1a-b95aa06fc51c"},"vehicle_type_id":"4","last_reported":1758431368,"current_range_meters":16800,"station_id":"ce4bho92rcd13ifvqh3g","pricing_plan_id":"cebpf4jnsgd1na2vs0mg"},{"bike_id":"b6678485-35fb-46c4-8625-f1fe6882fa7e","system_id":"levelo_inurba_marseille","lat":43.262282,"lon":5.404444,"is_reserved":false,"is_disabled":false,"rental_uris":{"android":"levelo://app?vid=b6678485-35fb-46c4-8625-f1fe6882fa7e","ios":"levelo://app?vid=b6678485-35fb-46c4-8625-f1fe6882fa7e"},"vehicle_type_id":"4","last_reported":1758431368,"current_range_meters":16800,"station_id":"ce4bhmh2rcd13ifvqgmg","pricing_plan_id":"cebpf4jnsgd1na2vs0mg"},{"bike_id":"e4898203-324a-41da-9d5a-0e1d80fb1309","system_id":"levelo_inurba_marseille","lat":43.3171,"lon":5.40469,"is_reserved":false,"is_disabled":false,"rental_uris":{"android":"levelo://app?vid=e4898203-324a-41da-9d5a-0e1d80fb1309","ios":"levelo://app?vid=e4898203-324a-41da-9d5a-0e1d80fb1309"},"vehicle_type_id":"4","last_reported":1758431368,"current_range_meters":16800,"station_id":"ce4bh012rcd13ifvqd00","pricing_plan_id":"cebpf4jnsgd1na2vs0mg"},{"bike_id":"0c8a92f3-f5d4-48dc-bbf5-8177c0a48b95","system_id":"levelo_inurba_marseille","lat":43.29634,"lon":5.38175,"is_reserved":false,"is_disabled":false,"rental_uris":{"android":"levelo://app?vid=0c8a92f3-f5d4-48dc-bbf5-8177c0a48b95","ios":"levelo://app?vid=0c8a92f3-f5d4-48dc-bbf5-8177c0a48b95"},"vehicle_type_id":"4","last_reported":1758431368,"current_range_meters":17200,"station_id":"","pricing_plan_id":"cebpf4jnsgd1na2vs0mg"},{"bike_id":"a9cba043-e93d-4449-b080-8b3e9e227325","system_id":"levelo_inurba_marseille","lat":43.29648,"lon":5.40581,"is_reserved":false,"is_disabled":false,"rental_uris":{"android":"levelo://app?vid=a9cba043-e93d-4449-b080-8b3e9e227325","ios":"levelo://app?vid=a9cba043-e93d-4449-b080-8b3e9e227325"},"vehicle_type_id":"4","last_reported":1758431368,"current_range_meters":17200,"station_id":"ce4bh0h2rcd13ifvqd60","pricing_plan_id":"cebpf4jnsgd1na2vs0mg"},{"bike_id":"5ebe845e-76ac-44a8-953d-1cf431bffff4","system_id":"levelo_inurba_marseille","lat":43.315112,"lon":5.388072,"is_reserved":false,"is_disabled":false,"rental_uris":{"android":"levelo://app?vid=5ebe845e-76ac-44a8-953d-1cf431bffff4","ios":"levelo://app?vid=5ebe845e-76ac-44a8-953d-1cf431bffff4"},"vehicle_type_id":"4","last_reported":1758431368,"current_range_meters":17200,"station_id":"","pricing_plan_id":"cebpf4jnsgd1na2vs0mg"},{"bike_id":"14e0ecfc-848e-4179-ac98-8bf6c41189b5","system_id":"levelo_inurba_marseille","lat":43.30284,"lon":5.396613,"is_reserved":false,"is_disabled":false,"rental_uris":{"android":"levelo://app?vid=14e0ecfc-848e-4179-ac98-8bf6c41189b5","ios":"levelo://app?vid=14e0ecfc-848e-4179-ac98-8bf6c41189b5"},"vehicle_type_id":"4","last_reported":1758431368,"current_range_meters":17200,"station_id":"","pricing_plan_id":"cebpf4jnsgd1na2vs0mg"},{"bike_id":"b8ef90bb-057a-402b-9655-3a68d78bcddb","system_id":"levelo_inurba_marseille","lat":43.26226,"lon":5.40473,"is_reserved":false,"is_disabled":false,"rental_uris":{"android":"levelo://app?vid=b8ef90bb-057a-402b-9655-3a68d78bcddb","ios":"levelo://app?vid=b8ef90bb-057a-402b-9655-3a68d78bcddb"},"vehicle_type_id":"4","last_reported":1758431368,"current_range_meters":17200,"station_id":"ce4bhmh2rcd13ifvqgmg","pricing_plan_id":"cebpf4jnsgd1na2vs0mg"},{"bike_id":"a3a4206e-9698-40c4-99a7-c2a694b15382","system_id":"levelo_inurba_marseille","lat":43.25934,"lon":5.40937,"is_reserved":false,"is_disabled":false,"rental_uris":{"android":"levelo://app?vid=a3a4206e-9698-40c4-99a7-c2a694b15382","ios":"levelo://app?vid=a3a4206e-9698-40c4-99a7-c2a694b15382"},"vehicle_type_id":"4","last_reported":1758431368,"current_range_meters":17200,"station_id":"ce4bhm92rcd13ifvqglg","pricing_plan_id":"cebpf4jnsgd1na2vs0mg"},{"bike_id":"07bf7daf-7f0f-4cf7-90db-b9f0e0dfa16a","system_id":"levelo_inurba_marseille","lat":43.21167,"lon":5.35104,"is_reserved":false,"is_disabled":false,"rental_uris":{"android":"levelo://app?vid=07bf7daf-7f0f-4cf7-90db-b9f0e0dfa16a","ios":"levelo://app?vid=07bf7daf-7f0f-4cf7-90db-b9f0e0dfa16a"},"vehicle_type_id":"4","last_reported":1758431368,"current_range_meters":17200,"station_id":"st_cvj6sg6p6f1abm77japg","pricing_plan_id":"cebpf4jnsgd1na2vs0mg"},{"bike_id":"44e97c51-f2d5-43cd-aeaa-a901495d74a9","system_id":"levelo_inurba_marseille","lat":43.30898,"lon":5.39623,"is_reserved":false,"is_disabled":false,"rental_uris":{"android":"levelo://app?vid=44e97c51-f2d5-43cd-aeaa-a901495d74a9","ios":"levelo://app?vid=44e97c51-f2d5-43cd-aeaa-a901495d74a9"},"vehicle_type_id":"4","last_reported":1758431368,"current_range_meters":17200,"station_id":"ce4bh012rcd13ifvqcv0","pricing_plan_id":"cebpf4jnsgd1na2vs0mg"},{"bike_id":"1f5f1aea-0efa-4310-b0af-b5d79f6200fa","system_id":"levelo_inurba_marseille","lat":43.29523,"lon":5.42286,"is_reserved":false,"is_disabled":false,"rental_uris":{"android":"levelo://app?vid=1f5f1aea-0efa-4310-b0af-b5d79f6200fa","ios":"levelo://app?vid=1f5f1aea-0efa-4310-b0af-b5d79f6200fa"},"vehicle_type_id":"4","last_reported":1758431368,"current_range_meters":17200,"station_id":"ce4bhph2rcd13ifvqhdg","pricing_plan_id":"cebpf4jnsgd1na2vs0mg"},{"bike_id":"6fe025d9-a6f5-413f-a2cb-db271fd37025","system_id":"levelo_inurba_marseille","lat":43.30157,"lon":5.38111,"is_reserved":false,"is_disabled":false,"rental_uris":{"android":"levelo://app?vid=6fe025d9-a6f5-413f-a2cb-db271fd37025","ios":"levelo://app?vid=6fe025d9-a6f5-413f-a2cb-db271fd37025"},"vehicle_type_id":"4","last_reported":1758431368,"current_range_meters":17600,"station_id":"ce4bgjp2rcd13ifvqbh0","pricing_plan_id":"cebpf4jnsgd1na2vs0mg"},{"bike_id":"ab3ffc48-3b72-4766-9326-6b75f94718d3","system_id":"levelo_inurba_marseille","lat":43.289265,"lon":5.383933,"is_reserved":false,"is_disabled":true,"rental_uris":{"android":"levelo://app?vid=ab3ffc48-3b72-4766-9326-6b75f94718d3","ios":"levelo://app?vid=ab3ffc48-3b72-4766-9326-6b75f94718d3"},"vehicle_type_id":"4","last_reported":1758431368,"current_range_meters":17600,"station_id":"ce4bh612rcd13ifvqe6g","pricing_plan_id":"cebpf4jnsgd1na2vs0mg"},{"bike_id":"000f0199-edea-493a-b50a-d67fe1e6ea68","system_id":"levelo_inurba_marseille","lat":43.25725,"lon":5.41133,"is_reserved":false,"is_disabled":false,"rental_uris":{"android":"levelo://app?vid=000f0199-edea-493a-b50a-d67fe1e6ea68","ios":"levelo://app?vid=000f0199-edea-493a-b50a-d67fe1e6ea68"},"vehicle_type_id":"4","last_reported":1758431368,"current_range_meters":17600,"station_id":"ce4bhkp2rcd13ifvqgd0","pricing_plan_id":"cebpf4jnsgd1na2vs0mg"},{"bike_id":"fc4dbd92-2091-45f3-9efc-894ddd069d71","system_id":"levelo_inurba_marseille","lat":43.25105,"lon":5.39531,"is_reserved":false,"is_disabled":false,"rental_uris":{"android":"levelo://app?vid=fc4dbd92-2091-45f3-9efc-894ddd069d71","ios":"levelo://app?vid=fc4dbd92-2091-45f3-9efc-894ddd069d71"},"vehicle_type_id":"4","last_reported":1758431368,"current_range_meters":17600,"station_id":"ce4bhm12rcd13ifvqgkg","pricing_plan_id":"cebpf4jnsgd1na2vs0mg"},{"bike_id":"9d0d5036-6436-4593-af51-9bc50d947405","system_id":"levelo_inurba_marseille","lat":43.27897,"lon":5.3796,"is_reserved":false,"is_disabled":false,"rental_uris":{"android":"levelo://app?vid=9d0d5036-6436-4593-af51-9bc50d947405","ios":"levelo://app?vid=9d0d5036-6436-4593-af51-9bc50d947405"},"vehicle_type_id":"4","last_reported":1758431368,"current_range_meters":17600,"station_id":"ce4bhf92rcd13ifvqf50","pricing_plan_id":"cebpf4jnsgd1na2vs0mg"},{"bike_id":"2f2b076f-1de9-40bd-8146-e4ec88c17f88","system_id":"levelo_inurba_marseille","lat":43.27073,"lon":5.4027,"is_reserved":false,"is_disabled":false,"rental_uris":{"android":"levelo://app?vid=2f2b076f-1de9-40bd-8146-e4ec88c17f88","ios":"levelo://app?vid=2f2b076f-1de9-40bd-8146-e4ec88c17f88"},"vehicle_type_id":"4","last_reported":1758431368,"current_range_meters":17600,"station_id":"ce4bhk92rcd13ifvqgc0","pricing_plan_id":"cebpf4jnsgd1na2vs0mg"},{"bike_id":"1e0fd49c-ac4b-47b7-af02-10561a312938","system_id":"levelo_inurba_marseille","lat":43.21745,"lon":5.34607,"is_reserved":false,"is_disabled":true,"rental_uris":{"android":"levelo://app?vid=1e0fd49c-ac4b-47b7-af02-10561a312938","ios":"levelo://app?vid=1e0fd49c-ac4b-47b7-af02-10561a312938"},"vehicle_type_id":"4","last_reported":1758431368,"current_range_meters":18000,"station_id":"st_cvj6r9ubvosntc0bgbag","pricing_plan_id":"cebpf4jnsgd1na2vs0mg"},{"bike_id":"5a18f2a7-7825-4951-82b0-b7da03f0523b","system_id":"levelo_inurba_marseille","lat":43.27059,"lon":5.40266,"is_reserved":false,"is_disabled":false,"rental_uris":{"android":"levelo://app?vid=5a18f2a7-7825-4951-82b0-b7da03f0523b","ios":"levelo://app?vid=5a18f2a7-7825-4951-82b0-b7da03f0523b"},"vehicle_type_id":"4","last_reported":1758431368,"current_range_meters":18000,"station_id":"ce4bhk92rcd13ifvqgc0","pricing_plan_id":"cebpf4jnsgd1na2vs0mg"},{"bike_id":"3c0e89c2-e003-4a1f-89b7-ba9811bfbf54","system_id":"levelo_inurba_marseille","lat":43.30881,"lon":5.39636,"is_reserved":false,"is_disabled":false,"rental_uris":{"android":"levelo://app?vid=3c0e89c2-e003-4a1f-89b7-ba9811bfbf54","ios":"levelo://app?vid=3c0e89c2-e003-4a1f-89b7-ba9811bfbf54"},"vehicle_type_id":"4","last_reported":1758431368,"current_range_meters":18000,"station_id":"ce4bh012rcd13ifvqcv0","pricing_plan_id":"cebpf4jnsgd1na2vs0mg"},{"bike_id":"76aabfa6-feff-4f9e-98e3-80f3ed3d34bb","system_id":"levelo_inurba_marseille","lat":43.30242,"lon":5.40074,"is_reserved":false,"is_disabled":true,"rental_uris":{"android":"levelo://app?vid=76aabfa6-feff-4f9e-98e3-80f3ed3d34bb","ios":"levelo://app?vid=76aabfa6-feff-4f9e-98e3-80f3ed3d34bb"},"vehicle_type_id":"4","last_reported":1758431368,"current_range_meters":18000,"station_id":"ce4bgvh2rcd13ifvqcs0","pricing_plan_id":"cebpf4jnsgd1na2vs0mg"},{"bike_id":"4806da5a-67b2-4245-853a-7c8de74bc531","system_id":"levelo_inurba_marseille","lat":43.27072,"lon":5.4228,"is_reserved":false,"is_disabled":false,"rental_uris":{"android":"levelo://app?vid=4806da5a-67b2-4245-853a-7c8de74bc531","ios":"levelo://app?vid=4806da5a-67b2-4245-853a-7c8de74bc531"},"vehicle_type_id":"4","last_reported":1758431368,"current_range_meters":18000,"station_id":"ce4bhk92rcd13ifvqgb0","pricing_plan_id":"cebpf4jnsgd1na2vs0mg"},{"bike_id":"43d57fd4-047e-4ac8-97e5-ec9b96239472","system_id":"levelo_inurba_marseille","lat":43.33123,"lon":5.39726,"is_reserved":false,"is_disabled":false,"rental_uris":{"android":"levelo://app?vid=43d57fd4-047e-4ac8-97e5-ec9b96239472","ios":"levelo://app?vid=43d57fd4-047e-4ac8-97e5-ec9b96239472"},"vehicle_type_id":"4","last_reported":1758431368,"current_range_meters":18000,"station_id":"","pricing_plan_id":"cebpf4jnsgd1na2vs0mg"},{"bike_id":"99f2a0d1-a9bb-4a75-ad28-578d9b01c1fc","system_id":"levelo_inurba_marseille","lat":43.30118,"lon":5.38802,"is_reserved":false,"is_disabled":true,"rental_uris":{"android":"levelo://app?vid=99f2a0d1-a9bb-4a75-ad28-578d9b01c1fc","ios":"levelo://app?vid=99f2a0d1-a9bb-4a75-ad28-578d9b01c1fc"},"vehicle_type_id":"4","last_reported":1758431368,"current_range_meters":18800,"station_id":"ce4bghh2rcd13ifvqb60","pricing_plan_id":"cebpf4jnsgd1na2vs0mg"},{"bike_id":"da05eb96-257a-419d-b8c1-0ef92d280a60","system_id":"levelo_inurba_marseille","lat":43.29042,"lon":5.39916,"is_reserved":false,"is_disabled":false,"rental_uris":{"android":"levelo://app?vid=da05eb96-257a-419d-b8c1-0ef92d280a60","ios":"levelo://app?vid=da05eb96-257a-419d-b8c1-0ef92d280a60"},"vehicle_type_id":"4","last_reported":1758431368,"current_range_meters":18800,"station_id":"ce4bh392rcd13ifvqdm0","pricing_plan_id":"cebpf4jnsgd1na2vs0mg"},{"bike_id":"88cd3677-448a-42f0-a3ca-8278748590ad","system_id":"levelo_inurba_marseille","lat":43.24079,"lon":5.37767,"is_reserved":false,"is_disabled":false,"rental_uris":{"android":"levelo://app?vid=88cd3677-448a-42f0-a3ca-8278748590ad","ios":"levelo://app?vid=88cd3677-448a-42f0-a3ca-8278748590ad"},"vehicle_type_id":"4","last_reported":1758431368,"current_range_meters":18800,"station_id":"ce4bhnp2rcd13ifvqgvg","pricing_plan_id":"cebpf4jnsgd1na2vs0mg"},{"bike_id":"74f14d90-28b2-4e9d-b0d9-cba57e7c01d2","system_id":"levelo_inurba_marseille","lat":43.29572,"lon":5.39945,"is_reserved":false,"is_disabled":false,"rental_uris":{"android":"levelo://app?vid=74f14d90-28b2-4e9d-b0d9-cba57e7c01d2","ios":"levelo://app?vid=74f14d90-28b2-4e9d-b0d9-cba57e7c01d2"},"vehicle_type_id":"4","last_reported":1758431368,"current_range_meters":18800,"station_id":"ce4bh312rcd13ifvqdj0","pricing_plan_id":"cebpf4jnsgd1na2vs0mg"},{"bike_id":"4426a04d-ee40-424f-8601-8084b91d43fb","system_id":"levelo_inurba_marseille","lat":43.313219,"lon":5.396985,"is_reserved":false,"is_disabled":false,"rental_uris":{"android":"levelo://app?vid=4426a04d-ee40-424f-8601-8084b91d43fb","ios":"levelo://app?vid=4426a04d-ee40-424f-8601-8084b91d43fb"},"vehicle_type_id":"4","last_reported":1758431368,"current_range_meters":18800,"station_id":"ce4bgvp2rcd13ifvqcu0","pricing_plan_id":"cebpf4jnsgd1na2vs0mg"},{"bike_id":"774aad8e-881b-49a0-87f7-19650e623af8","system_id":"levelo_inurba_marseille","lat":43.30304,"lon":5.36903,"is_reserved":false,"is_disabled":false,"rental_uris":{"android":"levelo://app?vid=774aad8e-881b-49a0-87f7-19650e623af8","ios":"levelo://app?vid=774aad8e-881b-49a0-87f7-19650e623af8"},"vehicle_type_id":"4","last_reported":1758431368,"current_range_meters":18000,"station_id":"ce4bgqh2rcd13ifvqc5g","pricing_plan_id":"cebpf4jnsgd1na2vs0mg"},{"bike_id":"6e462536-3a01-4092-9490-0b0d7831c7b9","system_id":"levelo_inurba_marseille","lat":43.29559,"lon":5.39029,"is_reserved":false,"is_disabled":true,"rental_uris":{"android":"levelo://app?vid=6e462536-3a01-4092-9490-0b0d7831c7b9","ios":"levelo://app?vid=6e462536-3a01-4092-9490-0b0d7831c7b9"},"vehicle_type_id":"4","last_reported":1758431368,"current_range_meters":18800,"station_id":"ce4bh3p2rcd13ifvqdp0","pricing_plan_id":"cebpf4jnsgd1na2vs0mg"},{"bike_id":"c956948a-7730-4810-b3bd-49f4b42838ec","system_id":"levelo_inurba_marseille","lat":43.26227,"lon":5.40508,"is_reserved":false,"is_disabled":false,"rental_uris":{"android":"levelo://app?vid=c956948a-7730-4810-b3bd-49f4b42838ec","ios":"levelo://app?vid=c956948a-7730-4810-b3bd-49f4b42838ec"},"vehicle_type_id":"4","last_reported":1758431368,"current_range_meters":18800,"station_id":"","pricing_plan_id":"cebpf4jnsgd1na2vs0mg"},{"bike_id":"f75350f6-2aaf-4465-8419-182bb8d35cda","system_id":"levelo_inurba_marseille","lat":43.30888,"lon":5.39634,"is_reserved":false,"is_disabled":false,"rental_uris":{"android":"levelo://app?vid=f75350f6-2aaf-4465-8419-182bb8d35cda","ios":"levelo://app?vid=f75350f6-2aaf-4465-8419-182bb8d35cda"},"vehicle_type_id":"4","last_reported":1758431368,"current_range_meters":18800,"station_id":"ce4bh012rcd13ifvqcv0","pricing_plan_id":"cebpf4jnsgd1na2vs0mg"},{"bike_id":"4458ae60-615c-493d-85a6-ff9da04ecc4a","system_id":"levelo_inurba_marseille","lat":43.25112,"lon":5.40332,"is_reserved":false,"is_disabled":false,"rental_uris":{"android":"levelo://app?vid=4458ae60-615c-493d-85a6-ff9da04ecc4a","ios":"levelo://app?vid=4458ae60-615c-493d-85a6-ff9da04ecc4a"},"vehicle_type_id":"4","last_reported":1758431368,"current_range_meters":19200,"station_id":"ce4bhlh2rcd13ifvqgig","pricing_plan_id":"cebpf4jnsgd1na2vs0mg"},{"bike_id":"d1114a25-396a-458c-bb3a-06443865c163","system_id":"levelo_inurba_marseille","lat":43.29784,"lon":5.38137,"is_reserved":false,"is_disabled":true,"rental_uris":{"android":"levelo://app?vid=d1114a25-396a-458c-bb3a-06443865c163","ios":"levelo://app?vid=d1114a25-396a-458c-bb3a-06443865c163"},"vehicle_type_id":"4","last_reported":1758431368,"current_range_meters":19200,"station_id":"ce4bgip2rcd13ifvqbb0","pricing_plan_id":"cebpf4jnsgd1na2vs0mg"},{"bike_id":"a1dde300-b65d-48e0-b563-d69aa83ff6b3","system_id":"levelo_inurba_marseille","lat":43.25726,"lon":5.41104,"is_reserved":false,"is_disabled":false,"rental_uris":{"android":"levelo://app?vid=a1dde300-b65d-48e0-b563-d69aa83ff6b3","ios":"levelo://app?vid=a1dde300-b65d-48e0-b563-d69aa83ff6b3"},"vehicle_type_id":"4","last_reported":1758431368,"current_range_meters":19200,"station_id":"ce4bhkp2rcd13ifvqgd0","pricing_plan_id":"cebpf4jnsgd1na2vs0mg"},