{"last_updated":1733501549,"ttl":60,"version":"2.2","data":{"bikes":[{"bike_id":"c8756871-db35-4a3b-b691-d98d2619e332","system_id":"levelo_inurba_marseille","lat":43.23155,"lon":5.43721,"is_reserved":false,"is_disabled":true,"rental_uris":{"android":"levelo://app?vid=c8756871-db35-4a3b-b691-d98d2619e332","ios":"levelo://app?vid=c8756871-db35-4a3b-b691-d98d2619e332"},"vehicle_type_id":"4","last_reported":1733501549,"current_range_meters":0,"station_id":"ce4bhmp2rcd13ifvqgog","pricing_plan_id":"cebpf4jnsgd1na2vs0mg"},{"bike_id":"df479c2c-35ac-44ad-b9d6-81c89ed769ce","system_id":"levelo_inurba_marseille","lat":43.29699,"lon":5.37054,"is_reserved":false,"is_disabled":true,"rental_uris":{"android":"levelo://app?vid=df479c2c-35ac-44ad-b9d6-81c89ed769ce","ios":"levelo://app?vid=df479c2c-35ac-44ad-b9d6-81c89ed769ce"},"vehicle_type_id":"4","last_reported":1733501549,"current_range_meters":0,"station_id":"","pricing_plan_id":"cebpf4jnsgd1na2vs0mg"},{"bike_id":"8e029eaf-e104-4c5d-858d-6cd39de73d09","system_id":"levelo_inurba_marseille","lat":43.24154,"lon":5.36412,"is_reserved":false,"is_disabled":false,"rental_uris":{"android":"levelo://app?vid=8e029eaf-e104-4c5d-858d-6cd39de73d09","ios":"levelo://app?vid=8e029eaf-e104-4c5d-858d-6cd39de73d09"},"vehicle_type_id":"4","last_reported":1733501549,"current_range_meters":36000,"station_id":"cpo36qri1sfpv3e86is0","pricing_plan_id":"cebpf4jnsgd1na2vs0mg"},{"bike_id":"0cc0e2ac-45c0-4a41-8ba5-b613cc20f6f4","system_id":"levelo_inurba_marseille","lat":43.25086,"lon":5.39524,"is_reserved":false,"is_disabled":false,"rental_uris":{"android":"levelo://app?vid=0cc0e2ac-45c0-4a41-8ba5-b613cc20f6f4","ios":"levelo://app?vid=0cc0e2ac-45c0-4a41-8ba5-b613cc20f6f4"},"vehicle_type_id":"4","last_reported":1733501549,"current_range_meters":32400,"station_id":"ce4bhm12rcd13ifvqgkg","pricing_plan_id":"cebpf4jnsgd1na2vs0mg"},{"bike_id":"ec6f5889-22cf-443b-b3cc-a0a128e36bfa","system_id":"levelo_inurba_marseille","lat":43.30941,"lon":5.37174,"is_reserved":false,"is_disabled":false,"rental_uris":{"android":"levelo://app?vid=ec6f5889-22cf-443b-b3cc-a0a128e36bfa","ios":"levelo://app?vid=ec6f5889-22cf-443b-b3cc-a0a128e36bfa"},"vehicle_type_id":"4","last_reported":1733501549,"current_range_meters":14400,"station_id":"ce4bguh2rcd13ifvqckg","pricing_plan_id":"cebpf4jnsgd1na2vs0mg"},{"bike_id":"e7a52ffd-f6c2-4748-a7ae-04867f38e955","system_id":"levelo_inurba_marseille","lat":43.24802,"lon":5.37454,"is_reserved":false,"is_disabled":false,"rental_uris":{"android":"levelo://app?vid=e7a52ffd-f6c2-4748-a7ae-04867f38e955","ios":"levelo://app?vid=e7a52ffd-f6c2-4748-a7ae-04867f38e955"},"vehicle_type_id":"4","last_reported":1733501549,"current_range_meters":35600,"station_id":"ce4bhgh2rcd13ifvqfb0","pricing_plan_id":"cebpf4jnsgd1na2vs0mg"},{"bike_id":"17efd4f3-c744-41d0-9275-b2a498451374","system_id":"levelo_inurba_marseille","lat":43.31172,"lon":5.38715,"is_reserved":false,"is_disabled":true,"rental_uris":{"android":"levelo://app?vid=17efd4f3-c744-41d0-9275-b2a498451374","ios":"levelo://app?vid=17efd4f3-c744-41d0-9275-b2a498451374"},"vehicle_type_id":"4","last_reported":1733501549,"current_range_meters":0,"station_id":"ce4bgv12rcd13ifvqcp0","pricing_plan_id":"cebpf4jnsgd1na2vs0mg"},{"bike_id":"be407bbe-d1ce-48de-8db2-09114af9efd7","system_id":"levelo_inurba_marseille","lat":43.32362,"lon":5.36762,"is_reserved":false,"is_disabled":false,"rental_uris":{"android":"levelo://app?vid=be407bbe-d1ce-48de-8db2-09114af9efd7","ios":"levelo://app?vid=be407bbe-d1ce-48de-8db2-09114af9efd7"},"vehicle_type_id":"4","last_reported":1733501549,"current_range_meters":24000,"station_id":"ce4bhsh2rcd13ifvqi2g","pricing_plan_id":"cebpf4jnsgd1na2vs0mg"},{"bike_id":"176bcb20-37ef-4e76-9e81-969bc2a18727","system_id":"levelo_inurba_marseille","lat":43.28613,"lon":5.37059,"is_reserved":false,"is_disabled":false,"rental_uris":{"android":"levelo://app?vid=176bcb20-37ef-4e76-9e81-969bc2a18727","ios":"levelo://app?vid=176bcb20-37ef-4e76-9e81-969bc2a18727"},"vehicle_type_id":"4","last_reported":1733501549,"current_range_meters":11600,"station_id":"ce4bht12rcd13ifvqi60","pricing_plan_id":"cebpf4jnsgd1na2vs0mg"},{"bike_id":"5fd8fda4-5ceb-4e39-b9f4-ea27acda2ce7","system_id":"levelo_inurba_marseille","lat":43.27178,"lon":5.41004,"is_reserved":false,"is_disabled":true,"rental_uris":{"android":"levelo://app?vid=5fd8fda4-5ceb-4e39-b9f4-ea27acda2ce7","ios":"levelo://app?vid=5fd8fda4-5ceb-4e39-b9f4-ea27acda2ce7"},"vehicle_type_id":"4","last_reported":1733501549,"current_range_meters":26000,"station_id":"ce4bhl12rcd13ifvqgf0","pricing_plan_id":"cebpf4jnsgd1na2vs0mg"},{"bike_id":"53b2021f-2d76-4c3d-be13-d01d30021086","system_id":"levelo_inurba_marseille","lat":43.33733,"lon":5.39174,"is_reserved":false,"is_disabled":false,"rental_uris":{"android":"levelo://app?vid=53b2021f-2d76-4c3d-be13-d01d30021086","ios":"levelo://app?vid=53b2021f-2d76-4c3d-be13-d01d30021086"},"vehicle_type_id":"4","last_reported":1733501549,"current_range_meters":31200,"station_id":"ce4bhr92rcd13ifvqhsg","pricing_plan_id":"cebpf4jnsgd1na2vs0mg"},{"bike_id":"8bd642b2-0279-44c7-9ee2-fc3b57332c83","system_id":"levelo_inurba_marseille","lat":43.27455,"lon":5.40073,"is_reserved":false,"is_disabled":true,"rental_uris":{"android":"levelo://app?vid=8bd642b2-0279-44c7-9ee2-fc3b57332c83","ios":"levelo://app?vid=8bd642b2-0279-44c7-9ee2-fc3b57332c83"},"vehicle_type_id":"4","last_reported":1733501549,"current_range_meters":0,"station_id":"","pricing_plan_id":"cebpf4jnsgd1na2vs0mg"},{"bike_id":"c479d6be-2a1a-4437-af09-28fbc0d745f3","system_id":"levelo_inurba_marseille","lat":43.23198,"lon":5.35551,"is_reserved":false,"is_disabled":false,"rental_uris":{"android":"levelo://app?vid=c479d6be-2a1a-4437-af09-28fbc0d745f3","ios":"levelo://app?vid=c479d6be-2a1a-4437-af09-28fbc0d745f3"},"vehicle_type_id":"4","last_reported":1733501549,"current_range_meters":4800,"station_id":"ce4bhu92rcd13ifvqi70","pricing_plan_id":"cebpf4jnsgd1na2vs0mg"},{"bike_id":"1b9b5f1c-e281-4a88-8ae5-35f8f9b0bd1d","system_id":"levelo_inurba_marseille","lat":43.2316,"lon":5.43701,"is_reserved":false,"is_disabled":false,"rental_uris":{"android":"levelo://app?vid=1b9b5f1c-e281-4a88-8ae5-35f8f9b0bd1d","ios":"levelo://app?vid=1b9b5f1c-e281-4a88-8ae5-35f8f9b0bd1d"},"vehicle_type_id":"4","last_reported":1733501549,"current_range_meters":37600,"station_id":"ce4bhmp2rcd13ifvqgog","pricing_plan_id":"cebpf4jnsgd1na2vs0mg"},{"bike_id":"577bcbf3-ca9d-4a5c-a358-e040726cfcd6","system_id":"levelo_inurba_marseille","lat":43.27999,"lon":5.41668,"is_reserved":false,"is_disabled":true,"rental_uris":{"android":"levelo://app?vid=577bcbf3-ca9d-4a5c-a358-e040726cfcd6","ios":"levelo://app?vid=577bcbf3-ca9d-4a5c-a358-e040726cfcd6"},"vehicle_type_id":"4","last_reported":1733501549,"current_range_meters":0,"station_id":"ce4bho12rcd13ifvqh1g","pricing_plan_id":"cebpf4jnsgd1na2vs0mg"},{"bike_id":"997ca4c6-4b37-45b7-b4c8-d3246d03ecc3","system_id":"levelo_inurba_marseille","lat":43.2354,"lon":5.37984,"is_reserved":false,"is_disabled":true,"rental_uris":{"android":"levelo://app?vid=997ca4c6-4b37-45b7-b4c8-d3246d03ecc3","ios":"levelo://app?vid=997ca4c6-4b37-45b7-b4c8-d3246d03ecc3"},"vehicle_type_id":"4","last_reported":1733501549,"current_range_meters":0,"station_id":"","pricing_plan_id":"cebpf4jnsgd1na2vs0mg"},{"bike_id":"2d0d58fa-f7ae-4b13-8fef-b03f23c47e0a","system_id":"levelo_inurba_marseille","lat":43.30606,"lon":5.37227,"is_reserved":false,"is_disabled":false,"rental_uris":{"android":"levelo://app?vid=2d0d58fa-f7ae-4b13-8fef-b03f23c47e0a","ios":"levelo://app?vid=2d0d58fa-f7ae-4b13-8fef-b03f23c47e0a"},"vehicle_type_id":"4","last_reported":1733501549,"current_range_meters":22800,"station_id":"ce4bgqh2rcd13ifvqc4g","pricing_plan_id":"cebpf4jnsgd1na2vs0mg"},{"bike_id":"28b52837-d828-49e4-b4be-cfbac010c328","system_id":"levelo_inurba_marseille","lat":43.33731,"lon":5.3918,"is_reserved":false,"is_disabled":false,"rental_uris":{"android":"levelo://app?vid=28b52837-d828-49e4-b4be-cfbac010c328","ios":"levelo://app?vid=28b52837-d828-49e4-b4be-cfbac010c328"},"vehicle_type_id":"4","last_reported":1733501549,"current_range_meters":24400,"station_id":"ce4bhr92rcd13ifvqhsg","pricing_plan_id":"cebpf4jnsgd1na2vs0mg"},{"bike_id":"b3f478ac-3b05-4edf-bdbf-76399090f8e9","system_id":"levelo_inurba_marseille","lat":43.29994,"lon":5.37639,"is_reserved":false,"is_disabled":true,"rental_uris":{"android":"levelo://app?vid=b3f478ac-3b05-4edf-bdbf-76399090f8e9","ios":"levelo://app?vid=b3f478ac-3b05-4edf-bdbf-76399090f8e9"},"vehicle_type_id":"4","last_reported":1733501549,"current_range_meters":0,"station_id":"","pricing_plan_id":"cebpf4jnsgd1na2vs0mg"},{"bike_id":"fdc62a63-5355-4bd1-a06c-e6106eb23903","system_id":"levelo_inurba_marseille","lat":43.23964,"lon":5.36627,"is_reserved":false,"is_disabled":true,"rental_uris":{"android":"levelo://app?vid=fdc62a63-5355-4bd1-a06c-e6106eb23903","ios":"levelo://app?vid=fdc62a63-5355-4bd1-a06c-e6106eb23903"},"vehicle_type_id":"4","last_reported":1733501549,"current_range_meters":1600,"station_id":"ce4bhi12rcd13ifvqfp0","pricing_plan_id":"cebpf4jnsgd1na2vs0mg"},{"bike_id":"89ceac00-2c22-4cb1-b85d-583fccdb788b","system_id":"levelo_inurba_marseille","lat":43.32102,"lon":5.36787,"is_reserved":false,"is_disabled":false,"rental_uris":{"android":"levelo://app?vid=89ceac00-2c22-4cb1-b85d-583fccdb788b","ios":"levelo://app?vid=89ceac00-2c22-4cb1-b85d-583fccdb788b"},"vehicle_type_id":"4","last_reported":1733501549,"current_range_meters":22400,"station_id":"ce4bhrh2rcd13ifvqhug","pricing_plan_id":"cebpf4jnsgd1na2vs0mg"},{"bike_id":"a3e282f0-081a-4fe6-bbbf-7e4d98b4508d","system_id":"levelo_inurba_marseille","lat":43.25861,"lon":5.399,"is_reserved":false,"is_disabled":false,"rental_uris":{"android":"levelo://app?vid=a3e282f0-081a-4fe6-bbbf-7e4d98b4508d","ios":"levelo://app?vid=a3e282f0-081a-4fe6-bbbf-7e4d98b4508d"},"vehicle_type_id":"4","last_reported":1733501549,"current_range_meters":23200,"station_id":"ce4bhl92rcd13ifvqghg","pricing_plan_id":"cebpf4jnsgd1na2vs0mg"},{"bike_id":"65ea8a13-f7a8-486f-90be-0a6dbaf33713","system_id":"levelo_inurba_marseille","lat":43.31455,"lon":5.37595,"is_reserved":false,"is_disabled":false,"rental_uris":{"android":"levelo://app?vid=65ea8a13-f7a8-486f-90be-0a6dbaf33713","ios":"levelo://app?vid=65ea8a13-f7a8-486f-90be-0a6dbaf33713"},"vehicle_type_id":"4","last_reported":1733501549,"current_range_meters":3600,"station_id":"","pricing_plan_id":"cebpf4jnsgd1na2vs0mg"},{"bike_id":"2b4477ad-bf22-4a05-9744-e06ce9f2bd4f","system_id":"levelo_inurba_marseille","lat":43.31227,"lon":5.36839,"is_reserved":false,"is_disabled":false,"rental_uris":{"android":"levelo://app?vid=2b4477ad-bf22-4a05-9744-e06ce9f2bd4f","ios":"levelo://app?vid=2b4477ad-bf22-4a05-9744-e06ce9f2bd4f"},"vehicle_type_id":"4","last_reported":1733501549,"current_range_meters":20400,"station_id":"ce4bgl92rcd13ifvqbq0","pricing_plan_id":"cebpf4jnsgd1na2vs0mg"},{"bike_id":"0d76dbf6-5e40-455b-a0e6-70fb0b70c5f9","system_id":"levelo_inurba_marseille","lat":43.32365,"lon":5.38882,"is_reserved":false,"is_disabled":false,"rental_uris":{"android":"levelo://app?vid=0d76dbf6-5e40-455b-a0e6-70fb0b70c5f9","ios":"levelo://app?vid=0d76dbf6-5e40-455b-a0e6-70fb0b70c5f9"},"vehicle_type_id":"4","last_reported":1733501549,"current_range_meters":36400,"station_id":"ce4bhqp2rcd13ifvqhog","pricing_plan_id":"cebpf4jnsgd1na2vs0mg"},{"bike_id":"c24217d2-91e1-4004-a2a3-de7c1fd2464e","system_id":"levelo_inurba_marseille","lat":43.26688,"lon":5.38276,"is_reserved":false,"is_disabled":false,"rental_uris":{"android":"levelo://app?vid=c24217d2-91e1-4004-a2a3-de7c1fd2464e","ios":"levelo://app?vid=c24217d2-91e1-4004-a2a3-de7c1fd2464e"},"vehicle_type_id":"4","last_reported":1733501549,"current_range_meters":34000,"station_id":"ce4bhg92rcd13ifvqf90","pricing_plan_id":"cebpf4jnsgd1na2vs0mg"},{"bike_id":"2f3968e7-9336-4ee4-ba78-8e92c0a818cc","system_id":"levelo_inurba_marseille","lat":43.31322,"lon":5.36647,"is_reserved":false,"is_disabled":true,"rental_uris":{"android":"levelo://app?vid=2f3968e7-9336-4ee4-ba78-8e92c0a818cc","ios":"levelo://app?vid=2f3968e7-9336-4ee4-ba78-8e92c0a818cc"},"vehicle_type_id":"4","last_reported":1733501549,"current_range_meters":0,"station_id":"","pricing_plan_id":"cebpf4jnsgd1na2vs0mg"},{"bike_id":"15692fba-21f5-4648-b3a8-1775f5af3ab2","system_id":"levelo_inurba_marseille","lat":43.25089,"lon":5.39523,"is_reserved":false,"is_disabled":false,"rental_uris":{"android":"levelo://app?vid=15692fba-21f5-4648-b3a8-1775f5af3ab2","ios":"levelo://app?vid=15692fba-21f5-4648-b3a8-1775f5af3ab2"},"vehicle_type_id":"4","last_reported":1733501549,"current_range_meters":2800,"station_id":"ce4bhm12rcd13ifvqgkg","pricing_plan_id":"cebpf4jnsgd1na2vs0mg"},{"bike_id":"a4195ee0-472a-4f03-b955-5b202da4d03a","system_id":"levelo_inurba_marseille","lat":43.23185,"lon":5.39979,"is_reserved":false,"is_disabled":false,"rental_uris":{"android":"levelo://app?vid=a4195ee0-472a-4f03-b955-5b202da4d03a","ios":"levelo://app?vid=a4195ee0-472a-4f03-b955-5b202da4d03a"},"vehicle_type_id":"4","last_reported":1733501549,"current_range_meters":37600,"station_id":"ce4bhn12rcd13ifvqgqg","pricing_plan_id":"cebpf4jnsgd1na2vs0mg"},{"bike_id":"18c465ad-16a0-4d72-a337-11a15929aab8","system_id":"levelo_inurba_marseille","lat":43.239606,"lon":5.366203,"is_reserved":false,"is_disabled":false,"rental_uris":{"android":"levelo://app?vid=18c465ad-16a0-4d72-a337-11a15929aab8","ios":"levelo://app?vid=18c465ad-16a0-4d72-a337-11a15929aab8"},"vehicle_type_id":"4","last_reported":1733501549,"current_range_meters":9600,"station_id":"ce4bhi12rcd13ifvqfp0","pricing_plan_id":"cebpf4jnsgd1na2vs0mg"},{"bike_id":"f825a6e3-d202-4ddc-917b-5da49c4114c4","system_id":"levelo_inurba_marseille","lat":43.23192,"lon":5.35545,"is_reserved":false,"is_disabled":false,"rental_uris":{"android":"levelo://app?vid=f825a6e3-d202-4ddc-917b-5da49c4114c4","ios":"levelo://app?vid=f825a6e3-d202-4ddc-917b-5da49c4114c4"},"vehicle_type_id":"4","last_reported":1733501549,"current_range_meters":14400,"station_id":"ce4bhu92rcd13ifvqi70","pricing_plan_id":"cebpf4jnsgd1na2vs0mg"},{"bike_id":"1425627e-6340-4d9a-b112-c701c5f71ea7","system_id":"levelo_inurba_marseille","lat":43.31181,"lon":5.37766,"is_reserved":false,"is_disabled":false,"rental_uris":{"android":"levelo://app?vid=1425627e-6340-4d9a-b112-c701c5f71ea7","ios":"levelo://app?vid=1425627e-6340-4d9a-b112-c701c5f71ea7"},"vehicle_type_id":"4","last_reported":1733501549,"current_range_meters":26800,"station_id":"","pricing_plan_id":"cebpf4jnsgd1na2vs0mg"},{"bike_id":"0a64a1fd-9846-4d36-9a8f-03a53ffe2d88","system_id":"levelo_inurba_marseille","lat":43.3014,"lon":5.39885,"is_reserved":false,"is_disabled":true,"rental_uris":{"android":"levelo://app?vid=0a64a1fd-9846-4d36-9a8f-03a53ffe2d88","ios":"levelo://app?vid=0a64a1fd-9846-4d36-9a8f-03a53ffe2d88"},"vehicle_type_id":"4","last_reported":1733501549,"current_range_meters":1600,"station_id":"ce4bh0h2rcd13ifvqd40","pricing_plan_id":"cebpf4jnsgd1na2vs0mg"},{"bike_id":"f10c5e90-601b-4bd4-87e7-4cbb6a13a4fb","system_id":"levelo_inurba_marseille","lat":43.26124,"lon":5.39269,"is_reserved":false,"is_disabled":true,"rental_uris":{"android":"levelo://app?vid=f10c5e90-601b-4bd4-87e7-4cbb6a13a4fb","ios":"levelo://app?vid=f10c5e90-601b-4bd4-87e7-4cbb6a13a4fb"},"vehicle_type_id":"4","last_reported":1733501549,"current_range_meters":0,"station_id":"","pricing_plan_id":"cebpf4jnsgd1na2vs0mg"},{"bike_id":"8c4d45d2-9267-457d-b89f-898dc7d872b2","system_id":"levelo_inurba_marseille","lat":43.32158,"lon":5.38469,"is_reserved":false,"is_disabled":false,"rental_uris":{"android":"levelo://app?vid=8c4d45d2-9267-457d-b89f-898dc7d872b2","ios":"levelo://app?vid=8c4d45d2-9267-457d-b89f-898dc7d872b2"},"vehicle_type_id":"4","last_reported":1733501549,"current_range_meters":25600,"station_id":"","pricing_plan_id":"cebpf4jnsgd1na2vs0mg"},{"bike_id":"b02f522d-ffa6-449d-bb26-0f7061ae2b44","system_id":"levelo_inurba_marseille","lat":43.24546,"lon":5.39525,"is_reserved":false,"is_disabled":false,"rental_uris":{"android":"levelo://app?vid=b02f522d-ffa6-449d-bb26-0f7061ae2b44","ios":"levelo://app?vid=b02f522d-ffa6-449d-bb26-0f7061ae2b44"},"vehicle_type_id":"4","last_reported":1733501549,"current_range_meters":34800,"station_id":"ce4bhlp2rcd13ifvqgjg","pricing_plan_id":"cebpf4jnsgd1na2vs0mg"},{"bike_id":"1575e3dc-0402-4f17-84a7-fa10cdb150e1","system_id":"levelo_inurba_marseille","lat":43.27427,"lon":5.39419,"is_reserved":false,"is_disabled":false,"rental_uris":{"android":"levelo://app?vid=1575e3dc-0402-4f17-84a7-fa10cdb150e1","ios":"levelo://app?vid=1575e3dc-0402-4f17-84a7-fa10cdb150e1"},"vehicle_type_id":"4","last_reported":1733501549,"current_range_meters":17600,"station_id":"ce4bhdp2rcd13ifvqf20","pricing_plan_id":"cebpf4jnsgd1na2vs0mg"},{"bike_id":"18c64092-8ec5-4fb5-9424-ce779b594ab1","system_id":"levelo_inurba_marseille","lat":43.27945,"lon":5.41052,"is_reserved":false,"is_disabled":false,"rental_uris":{"android":"levelo://app?vid=18c64092-8ec5-4fb5-9424-ce779b594ab1","ios":"levelo://app?vid=18c64092-8ec5-4fb5-9424-ce779b594ab1"},"vehicle_type_id":"4","last_reported":1733501549,"current_range_meters":21600,"station_id":"ce4bhnp2rcd13ifvqh0g","pricing_plan_id":"cebpf4jnsgd1na2vs0mg"},{"bike_id":"8701139b-c9ad-44e4-ab13-5cc49a843881","system_id":"levelo_inurba_marseille","lat":43.28,"lon":5.40008,"is_reserved":false,"is_disabled":false,"rental_uris":{"android":"levelo://app?vid=8701139b-c9ad-44e4-ab13-5cc49a843881","ios":"levelo://app?vid=8701139b-c9ad-44e4-ab13-5cc49a843881"},"vehicle_type_id":"4","last_reported":1733501549,"current_range_meters":38800,"station_id":"ce4bho92rcd13ifvqh4g","pricing_plan_id":"cebpf4jnsgd1na2vs0mg"},{"bike_id":"82254e5c-62eb-426f-914d-5865250d0db7","system_id":"levelo_inurba_marseille","lat":43.29275,"lon":5.38441,"is_reserved":false,"is_disabled":false,"rental_uris":{"android":"levelo://app?vid=82254e5c-62eb-426f-914d-5865250d0db7","ios":"levelo://app?vid=82254e5c-62eb-426f-914d-5865250d0db7"},"vehicle_type_id":"4","last_reported":1733501549,"current_range_meters":26000,"station_id":"ce4bh692rcd13ifvqea0","pricing_plan_id":"cebpf4jnsgd1na2vs0mg"},{"bike_id":"cdfe6590-4984-4014-86c8-6dd70747c27a","system_id":"levelo_inurba_marseille","lat":43.29737,"lon":5.37434,"is_reserved":false,"is_disabled":true,"rental_uris":{"android":"levelo://app?vid=cdfe6590-4984-4014-86c8-6dd70747c27a","ios":"levelo://app?vid=cdfe6590-4984-4014-86c8-6dd70747c27a"},"vehicle_type_id":"4","last_reported":1733501549,"current_range_meters":0,"station_id":"","pricing_plan_id":"cebpf4jnsgd1na2vs0mg"},{"bike_id":"2a022814-f741-4adf-a235-83d4941bf5e2","system_id":"levelo_inurba_marseille","lat":43.28427,"lon":5.34987,"is_reserved":false,"is_disabled":false,"rental_uris":{"android":"levelo://app?vid=2a022814-f741-4adf-a235-83d4941bf5e2","ios":"levelo://app?vid=2a022814-f741-4adf-a235-83d4941bf5e2"},"vehicle_type_id":"4","last_reported":1733501549,"current_range_meters":24000,"station_id":"ce4bhbh2rcd13ifvqepg","pricing_plan_id":"cebpf4jnsgd1na2vs0mg"},{"bike_id":"b0485051-5f81-493f-a66c-941f3939ca95","system_id":"levelo_inurba_marseille","lat":43.29623,"lon":5.37709,"is_reserved":false,"is_disabled":true,"rental_uris":{"android":"levelo://app?vid=b0485051-5f81-493f-a66c-941f3939ca95","ios":"levelo://app?vid=b0485051-5f81-493f-a66c-941f3939ca95"},"vehicle_type_id":"4","last_reported":1733501549,"current_range_meters":800,"station_id":"ce4bgi92rcd13ifvqb90","pricing_plan_id":"cebpf4jnsgd1na2vs0mg"},{"bike_id":"384efc0b-9f58-43ef-a659-4581dd1f3800","system_id":"levelo_inurba_marseille","lat":43.25089,"lon":5.39522,"is_reserved":false,"is_disabled":false,"rental_uris":{"android":"levelo://app?vid=384efc0b-9f58-43ef-a659-4581dd1f3800","ios":"levelo://app?vid=384efc0b-9f58-43ef-a659-4581dd1f3800"},"vehicle_type_id":"4","last_reported":1733501549,"current_range_meters":39200,"station_id":"ce4bhm12rcd13ifvqgkg","pricing_plan_id":"cebpf4jnsgd1na2vs0mg"},{"bike_id":"e8736526-236c-4961-a970-dd7125004418","system_id":"levelo_inurba_marseille","lat":43.32368,"lon":5.38882,"is_reserved":false,"is_disabled":false,"rental_uris":{"android":"levelo://app?vid=e8736526-236c-4961-a970-dd7125004418","ios":"levelo://app?vid=e8736526-236c-4961-a970-dd7125004418"},"vehicle_type_id":"4","last_reported":1733501549,"current_range_meters":19600,"station_id":"ce4bhqp2rcd13ifvqhog","pricing_plan_id":"cebpf4jnsgd1na2vs0mg"},{"bike_id":"29ea787c-c067-46de-a936-6f4caa90b5ad","system_id":"levelo_inurba_marseille","lat":43.27211,"lon":5.39179,"is_reserved":false,"is_disabled":false,"rental_uris":{"android":"levelo://app?vid=29ea787c-c067-46de-a936-6f4caa90b5ad","ios":"levelo://app?vid=29ea787c-c067-46de-a936-6f4caa90b5ad"},"vehicle_type_id":"4","last_reported":1733501549,"current_range_meters":38800,"station_id":"ce4bhhp2rcd13ifvqfm0","pricing_plan_id":"cebpf4jnsgd1na2vs0mg"},{"bike_id":"987a5ab4-d60c-480c-94b6-7cab38975402","system_id":"levelo_inurba_marseille","lat":43.29748,"lon":5.37971,"is_reserved":false,"is_disabled":true,"rental_uris":{"android":"levelo://app?vid=987a5ab4-d60c-480c-94b6-7cab38975402","ios":"levelo://app?vid=987a5ab4-d60c-480c-94b6-7cab38975402"},"vehicle_type_id":"4","last_reported":1733501549,"current_range_meters":0,"station_id":"","pricing_plan_id":"cebpf4jnsgd1na2vs0mg"},{"bike_id":"2c4596ad-0ad9-4016-b92b-0093349de2b4","system_id":"levelo_inurba_marseille","lat":43.30755,"lon":5.38187,"is_reserved":false,"is_disabled":true,"rental_uris":{"android":"levelo://app?vid=2c4596ad-0ad9-4016-b92b-0093349de2b4","ios":"levelo://app?vid=2c4596ad-0ad9-4016-b92b-0093349de2b4"},"vehicle_type_id":"4","last_reported":1733501549,"current_range_meters":0,"station_id":"","pricing_plan_id":"cebpf4jnsgd1na2vs0mg"},{"bike_id":"25a33d2c-2601-4adf-8b03-9c7b44512e72","system_id":"levelo_inurba_marseille","lat":43.29565,"lon":5.37508,"is_reserved":false,"is_disabled":true,"rental_uris":{"android":"levelo://app?vid=25a33d2c-2601-4adf-8b03-9c7b44512e72","ios":"levelo://app?vid=25a33d2c-2601-4adf-8b03-9c7b44512e72"},"vehicle_type_id":"4","last_reported":1733501549,"current_range_meters":1200,"station_id":"ce4bgh92rcd13ifvqb50","pricing_plan_id":"cebpf4jnsgd1na2vs0mg"},{"bike_id":"8a696230-0cd8-4e37-adec-e0ada77baafb","system_id":"levelo_inurba_marseille","lat":43.29532,"lon":5.38552,"is_reserved":false,"is_disabled":true,"rental_uris":{"android":"levelo://app?vid=8a696230-0cd8-4e37-adec-e0ada77baafb","ios":"levelo://app?vid=8a696230-0cd8-4e37-adec-e0ada77baafb"},"vehicle_type_id":"4","last_reported":1733501549,"current_range_meters":0,"station_id":"ce4bgih2rcd13ifvqba0","pricing_plan_id":"cebpf4jnsgd1na2vs0mg"},{"bike_id":"b7ab8c01-033f-4395-8276-23c850ad3d02","system_id":"levelo_inurba_marseille","lat":43.30348,"lon":5.36626,"is_reserved":false,"is_disabled":true,"rental_uris":{"android":"levelo://app?vid=b7ab8c01-033f-4395-8276-23c850ad3d02","ios":"levelo://app?vid=b7ab8c01-033f-4395-8276-23c850ad3d02"},"vehicle_type_id":"4","last_reported":1733501549,"current_range_meters":0,"station_id":"","pricing_plan_id":"cebpf4jnsgd1na2vs0mg"},{"bike_id":"b52ab50a-7aa8-484c-81c7-fead67df921c","system_id":"levelo_inurba_marseille","lat":43.31123,"lon":5.37783,"is_reserved":false,"is_disabled":true,"rental_uris":{"android":"levelo://app?vid=b52ab50a-7aa8-484c-81c7-fead67df921c","ios":"levelo://app?vid=b52ab50a-7aa8-484c-81c7-fead67df921c"},"vehicle_type_id":"4","last_reported":1733501549,"current_range_meters":1600,"station_id":"ce4bgt92rcd13ifvqcg0","pricing_plan_id":"cebpf4jnsgd1na2vs0mg"},{"bike_id":"67227237-acca-42f7-a8c6-5d001592550f","system_id":"levelo_inurba_marseille","lat":43.25116,"lon":5.40316,"is_reserved":false,"is_disabled":false,"rental_uris":{"android":"levelo://app?vid=67227237-acca-42f7-a8c6-5d001592550f","ios":"levelo://app?vid=67227237-acca-42f7-a8c6-5d001592550f"},"vehicle_type_id":"4","last_reported":1733501549,"current_range_meters":36000,"station_id":"ce4bhlh2rcd13ifvqgig","pricing_plan_id":"cebpf4jnsgd1na2vs0mg"},{"bike_id":"aabdb257-8888-4229-a0a4-2fbdece78663","system_id":"levelo_inurba_marseille","lat":43.3248,"lon":5.36571,"is_reserved":false,"is_disabled":false,"rental_uris":{"android":"levelo://app?vid=aabdb257-8888-4229-a0a4-2fbdece78663","ios":"levelo://app?vid=aabdb257-8888-4229-a0a4-2fbdece78663"},"vehicle_type_id":"4","last_reported":1733501549,"current_range_meters":24800,"station_id":"ce4bhs12rcd13ifvqhvg","pricing_plan_id":"cebpf4jnsgd1na2vs0mg"},{"bike_id":"67462d53-cf57-4a46-a6f3-f483de637eb4","system_id":"levelo_inurba_marseille","lat":43.290447,"lon":5.377967,"is_reserved":false,"is_disabled":false,"rental_uris":{"android":"levelo://app?vid=67462d53-cf57-4a46-a6f3-f483de637eb4","ios":"levelo://app?vid=67462d53-cf57-4a46-a6f3-f483de637eb4"},"vehicle_type_id":"4","last_reported":1733501549,"current_range_meters":33200,"station_id":"","pricing_plan_id":"cebpf4jnsgd1na2vs0mg"},{"bike_id":"be613ee3-0440-429a-857b-148371ff3d07","system_id":"levelo_inurba_marseille","lat":43.2694,"lon":5.40253,"is_reserved":false,"is_disabled":false,"rental_uris":{"android":"levelo://app?vid=be613ee3-0440-429a-857b-148371ff3d07","ios":"levelo://app?vid=be613ee3-0440-429a-857b-148371ff3d07"},"vehicle_type_id":"4","last_reported":1733501549,"current_range_meters":24800,"station_id":"cjm6bp8fraef2m0cb0m0","pricing_plan_id":"cebpf4jnsgd1na2vs0mg"},{"bike_id":"11e86528-eb6b-4391-86a5-9b1822d069a4","system_id":"levelo_inurba_marseille","lat":43.278805,"lon":5.388003,"is_reserved":false,"is_disabled":true,"rental_uris":{"android":"levelo://app?vid=11e86528-eb6b-4391-86a5-9b1822d069a4","ios":"levelo://app?vid=11e86528-eb6b-4391-86a5-9b1822d069a4"},"vehicle_type_id":"4","last_reported":1733501549,"current_range_meters":4800,"station_id":"","pricing_plan_id":"cebpf4jnsgd1na2vs0mg"},{"bike_id":"6cc6805f-c0ca-4585-bdf1-b5a0339762b0","system_id":"levelo_inurba_marseille","lat":43.29027,"lon":5.42744,"is_reserved":false,"is_disabled":true,"rental_uris":{"android":"levelo://app?vid=6cc6805f-c0ca-4585-bdf1-b5a0339762b0","ios":"levelo://app?vid=6cc6805f-c0ca-4585-bdf1-b5a0339762b0"},"vehicle_type_id":"4","last_reported":1733501549,"current_range_meters":0,"station_id":"","pricing_plan_id":"cebpf4jnsgd1na2vs0mg"},{"bike_id":"d15688dc-7904-4994-a582-08bc5bee0700","system_id":"levelo_inurba_marseille","lat":43.25574,"lon":5.38237,"is_reserved":false,"is_disabled":false,"rental_uris":{"android":"levelo://app?vid=d15688dc-7904-4994-a582-08bc5bee0700","ios":"levelo://app?vid=d15688dc-7904-4994-a582-08bc5bee0700"},"vehicle_type_id":"4","last_reported":1733501549,"current_range_meters":20000,"station_id":"ce4bhih2rcd13ifvqfs0","pricing_plan_id":"cebpf4jnsgd1na2vs0mg"},{"bike_id":"4e6fc26f-c1d5-4d84-ac5b-7d384b8c30d5","system_id":"levelo_inurba_marseille","lat":43.3236,"lon":5.36761,"is_reserved":false,"is_disabled":false,"rental_uris":{"android":"levelo://app?vid=4e6fc26f-c1d5-4d84-ac5b-7d384b8c30d5","ios":"levelo://app?vid=4e6fc26f-c1d5-4d84-ac5b-7d384b8c30d5"},"vehicle_type_id":"4","last_reported":1733501549,"current_range_meters":38400,"station_id":"ce4bhsh2rcd13ifvqi2g","pricing_plan_id":"cebpf4jnsgd1na2vs0mg"},{"bike_id":"8d1c8b92-79bb-4181-b0d2-5e94db1a14d0","system_id":"levelo_inurba_marseille","lat":43.29972,"lon":5.3826,"is_reserved":false,"is_disabled":true,"rental_uris":{"android":"levelo://app?vid=8d1c8b92-79bb-4181-b0d2-5e94db1a14d0","ios":"levelo://app?vid=8d1c8b92-79bb-4181-b0d2-5e94db1a14d0"},"vehicle_type_id":"4","last_reported":1733501549,"current_range_meters":0,"station_id":"","pricing_plan_id":"cebpf4jnsgd1na2vs0mg"},{"bike_id":"f2941f45-98a1-4da0-a2cf-8e6928a3c6d6","system_id":"levelo_inurba_marseille","lat":43.2796,"lon":5.3875,"is_reserved":false,"is_disabled":false,"rental_uris":{"android":"levelo://app?vid=f2941f45-98a1-4da0-a2cf-8e6928a3c6d6","ios":"levelo://app?vid=f2941f45-98a1-4da0-a2cf-8e6928a3c6d6"},"vehicle_type_id":"4","last_reported":1733501549,"current_range_meters":16000,"station_id":"ce4bhg12rcd13ifvqf80","pricing_plan_id":"cebpf4jnsgd1na2vs0mg"},{"bike_id":"62090ecc-e1d0-4308-a9e8-6b36ef7c946b","system_id":"levelo_inurba_marseille","lat":43.31329,"lon":5.39692,"is_reserved":false,"is_disabled":false,"rental_uris":{"android":"levelo://app?vid=62090ecc-e1d0-4308-a9e8-6b36ef7c946b","ios":"levelo://app?vid=62090ecc-e1d0-4308-a9e8-6b36ef7c946b"},"vehicle_type_id":"4","last_reported":1733501549,"current_range_meters":8800,"station_id":"ce4bgvp2rcd13ifvqcu0","pricing_plan_id":"cebpf4jnsgd1na2vs0mg"},{"bike_id":"20a797b5-6a33-46fd-b7ec-9ed337c10ea6","system_id":"levelo_inurba_marseille","lat":43.29434,"lon":5.39749,"is_reserved":false,"is_disabled":false,"rental_uris":{"android":"levelo://app?vid=20a797b5-6a33-46fd-b7ec-9ed337c10ea6","ios":"levelo://app?vid=20a797b5-6a33-46fd-b7ec-9ed337c10ea6"},"vehicle_type_id":"4","last_reported":1733501549,"current_range_meters":33200,"station_id":"ce4bh3h2rcd13ifvqdo0","pricing_plan_id":"cebpf4jnsgd1na2vs0mg"},{"bike_id":"0b4a63d2-578b-41d8-9f6a-90b7f42bb8e8","system_id":"levelo_inurba_marseille","lat":43.29296,"lon":5.37452,"is_reserved":false,"is_disabled":true,"rental_uris":{"android":"levelo://app?vid=0b4a63d2-578b-41d8-9f6a-90b7f42bb8e8","ios":"levelo://app?vid=0b4a63d2-578b-41d8-9f6a-90b7f42bb8e8"},"vehicle_type_id":"4","last_reported":1733501549,"current_range_meters":37600,"station_id":"ce4bgi12rcd13ifvqb70","pricing_plan_id":"cebpf4jnsgd1na2vs0mg"},{"bike_id":"64e6968c-ae42-4122-b415-0f4e0538b2a2","system_id":"levelo_inurba_marseille","lat":43.30884,"lon":5.39633,"is_reserved":false,"is_disabled":false,"rental_uris":{"android":"levelo://app?vid=64e6968c-ae42-4122-b415-0f4e0538b2a2","ios":"levelo://app?vid=64e6968c-ae42-4122-b415-0f4e0538b2a2"},"vehicle_type_id":"4","last_reported":1733501549,"current_range_meters":10800,"station_id":"ce4bh012rcd13ifvqcv0","pricing_plan_id":"cebpf4jnsgd1na2vs0mg"},{"bike_id":"3a1cabfd-7ea0-40e5-ba2a-bc16f7acb1fa","system_id":"levelo_inurba_marseille","lat":43.34329,"lon":5.35818,"is_reserved":false,"is_disabled":true,"rental_uris":{"android":"levelo://app?vid=3a1cabfd-7ea0-40e5-ba2a-bc16f7acb1fa","ios":"levelo://app?vid=3a1cabfd-7ea0-40e5-ba2a-bc16f7acb1fa"},"vehicle_type_id":"4","last_reported":1733501549,"current_range_meters":19200,"station_id":"","pricing_plan_id":"cebpf4jnsgd1na2vs0mg"},{"bike_id":"484c4da0-df29-4728-ba65-e2ac5a072c13","system_id":"levelo_inurba_marseille","lat":43.31312,"lon":5.36953,"is_reserved":false,"is_disabled":true,"rental_uris":{"android":"levelo://app?vid=484c4da0-df29-4728-ba65-e2ac5a072c13","ios":"levelo://app?vid=484c4da0-df29-4728-ba65-e2ac5a072c13"},"vehicle_type_id":"4","last_reported":1733501549,"current_range_meters":0,"station_id":"","pricing_plan_id":"cebpf4jnsgd1na2vs0mg"},{"bike_id":"d1664eee-63a1-464b-a844-7dfb42454c93","system_id":"levelo_inurba_marseille","lat":43.28272,"lon":5.3506,"is_reserved":false,"is_disabled":true,"rental_uris":{"android":"levelo://app?vid=d1664eee-63a1-464b-a844-7dfb42454c93","ios":"levelo://app?vid=d1664eee-63a1-464b-a844-7dfb42454c93"},"vehicle_type_id":"4","last_reported":1733501549,"current_range_meters":400,"station_id":"ce4bhbp2rcd13ifvqerg","pricing_plan_id":"cebpf4jnsgd1na2vs0mg"},{"bike_id":"696be010-7103-476c-9485-985a94ba51c7","system_id":"levelo_inurba_marseille","lat":43.29711,"lon":5.36606,"is_reserved":false,"is_disabled":false,"rental_uris":{"android":"levelo://app?vid=696be010-7103-476c-9485-985a94ba51c7","ios":"levelo://app?vid=696be010-7103-476c-9485-985a94ba51c7"},"vehicle_type_id":"4","last_reported":1733501549,"current_range_meters":38800,"station_id":"ce4bgn12rcd13ifvqbt0","pricing_plan_id":"cebpf4jnsgd1na2vs0mg"},{"bike_id":"d27bb39a-24ce-47b9-82da-7650cb03f248","system_id":"levelo_inurba_marseille","lat":43.25003,"lon":5.38926,"is_reserved":false,"is_disabled":false,"rental_uris":{"android":"levelo://app?vid=d27bb39a-24ce-47b9-82da-7650cb03f248","ios":"levelo://app?vid=d27bb39a-24ce-47b9-82da-7650cb03f248"},"vehicle_type_id":"4","last_reported":1733501549,"current_range_meters":18000,"station_id":"ce4bhgp2rcd13ifvqfd0","pricing_plan_id":"cebpf4jnsgd1na2vs0mg"},{"bike_id":"10661102-6568-4de0-84f1-46d6f8c12dd2","system_id":"levelo_inurba_marseille","lat":43.31117,"lon":5.37774,"is_reserved":false,"is_disabled":false,"rental_uris":{"android":"levelo://app?vid=10661102-6568-4de0-84f1-46d6f8c12dd2","ios":"levelo://app?vid=10661102-6568-4de0-84f1-46d6f8c12dd2"},"vehicle_type_id":"4","last_reported":1733501549,"current_range_meters":19600,"station_id":"ce4bgt92rcd13ifvqcg0","pricing_plan_id":"cebpf4jnsgd1na2vs0mg"},{"bike_id":"cf315912-6fc6-4c2f-9885-dbef65eb8065","system_id":"levelo_inurba_marseille","lat":43.28807,"lon":5.38837,"is_reserved":false,"is_disabled":false,"rental_uris":{"android":"levelo://app?vid=cf315912-6fc6-4c2f-9885-dbef65eb8065","ios":"levelo://app?vid=cf315912-6fc6-4c2f-9885-dbef65eb8065"},"vehicle_type_id":"4","last_reported":1733501549,"current_range_meters":10000,"station_id":"","pricing_plan_id":"cebpf4jnsgd1na2vs0mg"},{"bike_id":"cce36afe-508e-48e4-8ef7-370069af1a3e","system_id":"levelo_inurba_marseille","lat":43.27431,"lon":5.39404,"is_reserved":false,"is_disabled":false,"rental_uris":{"android":"levelo://app?vid=cce36afe-508e-48e4-8ef7-370069af1a3e","ios":"levelo://app?vid=cce36afe-508e-48e4-8ef7-370069af1a3e"},"vehicle_type_id":"4","last_reported":1733501549,"current_range_meters":35600,"station_id":"ce4bhdp2rcd13ifvqf20","pricing_plan_id":"cebpf4jnsgd1na2vs0mg"},{"bike_id":"ebdc62de-0c2d-428a-b566-9af18f522767","system_id":"levelo_inurba_marseille","lat":43.26684,"lon":5.38271,"is_reserved":false,"is_disabled":false,"rental_uris":{"android":"levelo://app?vid=ebdc62de-0c2d-428a-b566-9af18f522767","ios":"levelo://app?vid=ebdc62de-0c2d-428a-b566-9af18f522767"},"vehicle_type_id":"4","last_reported":1733501549,"current_range_meters":30000,"station_id":"ce4bhg92rcd13ifvqf90","pricing_plan_id":"cebpf4jnsgd1na2vs0mg"},{"bike_id":"2ea27167-8b0d-4530-9575-4b8337dd2ba6","system_id":"levelo_inurba_marseille","lat":43.31285,"lon":5.40172,"is_reserved":false,"is_disabled":false,"rental_uris":{"android":"levelo://app?vid=2ea27167-8b0d-4530-9575-4b8337dd2ba6","ios":"levelo://app?vid=2ea27167-8b0d-4530-9575-4b8337dd2ba6"},"vehicle_type_id":"4","last_reported":1733501549,"current_range_meters":8000,"station_id":"ce4bh092rcd13ifvqd30","pricing_plan_id":"cebpf4jnsgd1na2vs0mg"},{"bike_id":"b42d912b-1944-4cc5-a4bf-92545c2f7d24","system_id":"levelo_inurba_marseille","lat":43.28619,"lon":5.35105,"is_reserved":false,"is_disabled":false,"rental_uris":{"android":"levelo://app?vid=b42d912b-1944-4cc5-a4bf-92545c2f7d24","ios":"levelo://app?vid=b42d912b-1944-4cc5-a4bf-92545c2f7d24"},"vehicle_type_id":"4","last_reported":1733501549,"current_range_meters":38400,"station_id":"ce4bhch2rcd13ifvqeug","pricing_plan_id":"cebpf4jnsgd1na2vs0mg"},{"bike_id":"9c77a68d-2e99-44e9-b903-950fb6644d35","system_id":"levelo_inurba_marseille","lat":43.25265,"lon":5.39465,"is_reserved":false,"is_disabled":true,"rental_uris":{"android":"levelo://app?vid=9c77a68d-2e99-44e9-b903-950fb6644d35","ios":"levelo://app?vid=9c77a68d-2e99-44e9-b903-950fb6644d35"},"vehicle_type_id":"4","last_reported":1733501549,"current_range_meters":0,"station_id":"","pricing_plan_id":"cebpf4jnsgd1na2vs0mg"},{"bike_id":"6b14f33b-b867-49f3-8143-679f3d12ccec","system_id":"levelo_inurba_marseille","lat":43.3127,"lon":5.40169,"is_reserved":false,"is_disabled":false,"rental_uris":{"android":"levelo://app?vid=6b14f33b-b867-49f3-8143-679f3d12ccec","ios":"levelo://app?vid=6b14f33b-b867-49f3-8143-679f3d12ccec"},"vehicle_type_id":"4","last_reported":1733501549,"current_range_meters":9600,"station_id":"ce4bh092rcd13ifvqd30","pricing_plan_id":"cebpf4jnsgd1na2vs0mg"},{"bike_id":"2ac36302-b49d-4620-9491-d8a75c56be07","system_id":"levelo_inurba_marseille","lat":43.31175,"lon":5.38711,"is_reserved":false,"is_disabled":true,"rental_uris":{"android":"levelo://app?vid=2ac36302-b49d-4620-9491-d8a75c56be07","ios":"levelo://app?vid=2ac36302-b49d-4620-9491-d8a75c56be07"},"vehicle_type_id":"4","last_reported":1733501549,"current_range_meters":0,"station_id":"ce4bgv12rcd13ifvqcp0","pricing_plan_id":"cebpf4jnsgd1na2vs0mg"},{"bike_id":"ae04e5a2-12f6-429b-a295-379f89884383","system_id":"levelo_inurba_marseille","lat":43.29602,"lon":5.38089,"is_reserved":false,"is_disabled":true,"rental_uris":{"android":"levelo://app?vid=ae04e5a2-12f6-429b-a295-379f89884383","ios":"levelo://app?vid=ae04e5a2-12f6-429b-a295-379f89884383"},"vehicle_type_id":"4","last_reported":1733501549,"current_range_meters":0,"station_id":"ce4bgl12rcd13ifvqbo0","pricing_plan_id":"cebpf4jnsgd1na2vs0mg"},{"bike_id":"45a99d3d-18c7-4943-8d60-ad1491c0fa82","system_id":"levelo_inurba_marseille","lat":43.2757,"lon":5.38424,"is_reserved":false,"is_disabled":true,"rental_uris":{"android":"levelo://app?vid=45a99d3d-18c7-4943-8d60-ad1491c0fa82","ios":"levelo://app?vid=45a99d3d-18c7-4943-8d60-ad1491c0fa82"},"vehicle_type_id":"4","last_reported":1733501549,"current_range_meters":38400,"station_id":"ce4bhh92rcd13ifvqfi0","pricing_plan_id":"cebpf4jnsgd1na2vs0mg"},{"bike_id":"2a76e2c4-f345-433e-ba85-e0577d027046","system_id":"levelo_inurba_marseille","lat":43.26552,"lon":5.37287,"is_reserved":false,"is_disabled":false,"rental_uris":{"android":"levelo://app?vid=2a76e2c4-f345-433e-ba85-e0577d027046","ios":"levelo://app?vid=2a76e2c4-f345-433e-ba85-e0577d027046"},"vehicle_type_id":"4","last_reported":1733501549,"current_range_meters":37600,"station_id":"ce4bhg12rcd13ifvqf70","pricing_plan_id":"cebpf4jnsgd1na2vs0mg"},{"bike_id":"83985555-c848-4b28-808f-8a7e7cf8519e","system_id":"levelo_inurba_marseille","lat":43.28115,"lon":5.43955,"is_reserved":false,"is_disabled":true,"rental_uris":{"android":"levelo://app?vid=83985555-c848-4b28-808f-8a7e7cf8519e","ios":"levelo://app?vid=83985555-c848-4b28-808f-8a7e7cf8519e"},"vehicle_type_id":"4","last_reported":1733501549,"current_range_meters":0,"station_id":"","pricing_plan_id":"cebpf4jnsgd1na2vs0mg"},{"bike_id":"84eddd35-4076-462c-b0e4-9c17c748aeff","system_id":"levelo_inurba_marseille","lat":43.33771,"lon":5.37491,"is_reserved":false,"is_disabled":false,"rental_uris":{"android":"levelo://app?vid=84eddd35-4076-462c-b0e4-9c17c748aeff","ios":"levelo://app?vid=84eddd35-4076-462c-b0e4-9c17c748aeff"},"vehicle_type_id":"4","last_reported":1733501549,"current_range_meters":22400,"station_id":"","pricing_plan_id":"cebpf4jnsgd1na2vs0mg"},{"bike_id":"f0d3a8b0-7f91-4a10-9d7c-db78ae274294","system_id":"levelo_inurba_marseille","lat":43.32029,"lon":5.37125,"is_reserved":false,"is_disabled":false,"rental_uris":{"android":"levelo://app?vid=f0d3a8b0-7f91-4a10-9d7c-db78ae274294","ios":"levelo://app?vid=f0d3a8b0-7f91-4a10-9d7c-db78ae274294"},"vehicle_type_id":"4","last_reported":1733501549,"current_range_meters":24400,"station_id":"","pricing_plan_id":"cebpf4jnsgd1na2vs0mg"},{"bike_id":"d4f01f1b-a673-4b12-9d3c-8bd61f84ec6f","system_id":"levelo_inurba_marseille","lat":43.31478,"lon":5.37303,"is_reserved":false,"is_disabled":false,"rental_uris":{"android":"levelo://app?vid=d4f01f1b-a673-4b12-9d3c-8bd61f84ec6f","ios":"levelo://app?vid=d4f01f1b-a673-4b12-9d3c-8bd61f84ec6f"},"vehicle_type_id":"4","last_reported":1733501549,"current_range_meters":14400,"station_id":"ce4bgt12rcd13ifvqcd0","pricing_plan_id":"cebpf4jnsgd1na2vs0mg"},{"bike_id":"0d2e72b1-6c30-4edf-81cd-122ea06d8443","system_id":"levelo_inurba_marseille","lat":43.28278,"lon":5.35068,"is_reserved":false,"is_disabled":false,"rental_uris":{"android":"levelo://app?vid=0d2e72b1-6c30-4edf-81cd-122ea06d8443","ios":"levelo://app?vid=0d2e72b1-6c30-4edf-81cd-122ea06d8443"},"vehicle_type_id":"4","last_reported":1733501549,"current_range_meters":4000,"station_id":"ce4bhbp2rcd13ifvqerg","pricing_plan_id":"cebpf4jnsgd1na2vs0mg"},{"bike_id":"6c2c8cab-1e52-4ed1-b318-ed95609de34b","system_id":"levelo_inurba_marseille","lat":43.30143,"lon":5.37416,"is_reserved":false,"is_disabled":false,"rental_uris":{"android":"levelo://app?vid=6c2c8cab-1e52-4ed1-b318-ed95609de34b","ios":"levelo://app?vid=6c2c8cab-1e52-4ed1-b318-ed95609de34b"},"vehicle_type_id":"4","last_reported":1733501549,"current_range_meters":6400,"station_id":"ce4bgs92rcd13ifvqcc0","pricing_plan_id":"cebpf4jnsgd1na2vs0mg"},{"bike_id":"f1f5f16a-ff1f-42e7-b1ff-3590402569d5","system_id":"levelo_inurba_marseille","lat":43.28856,"lon":5.35845,"is_reserved":false,"is_disabled":false,"rental_uris":{"android":"levelo://app?vid=f1f5f16a-ff1f-42e7-b1ff-3590402569d5","ios":"levelo://app?vid=f1f5f16a-ff1f-42e7-b1ff-3590402569d5"},"vehicle_type_id":"4","last_reported":1733501549,"current_range_meters":38800,"station_id":"ce4bhb12rcd13ifvqem0","pricing_plan_id":"cebpf4jnsgd1na2vs0mg"},{"bike_id":"a8264fb2-dad4-4c52-9230-cf80b47302d6","system_id":"levelo_inurba_marseille","lat":43.31994,"lon":5.38153,"is_reserved":false,"is_disabled":false,"rental_uris":{"android":"levelo://app?vid=a8264fb2-dad4-4c52-9230-cf80b47302d6","ios":"levelo://app?vid=a8264fb2-dad4-4c52-9230-cf80b47302d6"},"vehicle_type_id":"4","last_reported":1733501549,"current_range_meters":11600,"station_id":"ce4bhr12rcd13ifvqhpg","pricing_plan_id":"cebpf4jnsgd1na2vs0mg"},{"bike_id":"5edf82fa-e9d0-4d1f-98f1-37c98092771a","system_id":"levelo_inurba_marseille","lat":43.23196,"lon":5.3555,"is_reserved":false,"is_disabled":false,"rental_uris":{"android":"levelo://app?vid=5edf82fa-e9d0-4d1f-98f1-37c98092771a","ios":"levelo://app?vid=5edf82fa-e9d0-4d1f-98f1-37c98092771a"},"vehicle_type_id":"4","last_reported":1733501549,"current_range_meters":38800,"station_id":"ce4bhu92rcd13ifvqi70","pricing_plan_id":"cebpf4jnsgd1na2vs0mg"},{"bike_id":"870f1a45-5cd2-4b5d-a5c5-1df7eb02cf49","system_id":"levelo_inurba_marseille","lat":43.29931,"lon":5.36539,"is_reserved":false,"is_disabled":true,"rental_uris":{"android":"levelo://app?vid=870f1a45-5cd2-4b5d-a5c5-1df7eb02cf49","ios":"levelo://app?vid=870f1a45-5cd2-4b5d-a5c5-1df7eb02cf49"},"vehicle_type_id":"4","last_reported":1733501549,"current_range_meters":0,"station_id":"ce4bgm92rcd13ifvqbr0","pricing_plan_id":"cebpf4jnsgd1na2vs0mg"},{"bike_id":"5c27a1c0-fefa-4c09-893f-8aee30a8a434","system_id":"levelo_inurba_marseille","lat":43.31122,"lon":5.37757,"is_reserved":false,"is_disabled":false,"rental_uris":{"android":"levelo://app?vid=5c27a1c0-fefa-4c09-893f-8aee30a8a434","ios":"levelo://app?vid=5c27a1c0-fefa-4c09-893f-8aee30a8a434"},"vehicle_type_id":"4","last_reported":1733501549,"current_range_meters":16400,"station_id":"ce4bgt92rcd13ifvqcg0","pricing_plan_id":"cebpf4jnsgd1na2vs0mg"},{"bike_id":"0f223457-b72d-4422-8055-f7e7aed1a6ca","system_id":"levelo_inurba_marseille","lat":43.29781,"lon":5.39351,"is_reserved":false,"is_disabled":false,"rental_uris":{"android":"levelo://app?vid=0f223457-b72d-4422-8055-f7e7aed1a6ca","ios":"levelo://app?vid=0f223457-b72d-4422-8055-f7e7aed1a6ca"},"vehicle_type_id":"4","last_reported":1733501549,"current_range_meters":8400,"station_id":"chh1huq6cuj3fo74tm60","pricing_plan_id":"cebpf4jnsgd1na2vs0mg"},{"bike_id":"4ac95eb7-8096-4b9a-a455-eb0275d95b77","system_id":"levelo_inurba_marseille","lat":43.28929,"lon":5.3665,"is_reserved":false,"is_disabled":false,"rental_uris":{"android":"levelo://app?vid=4ac95eb7-8096-4b9a-a455-eb0275d95b77","ios":"levelo://app?vid=4ac95eb7-8096-4b9a-a455-eb0275d95b77"},"vehicle_type_id":"4","last_reported":1733501549,"current_range_meters":28000,"station_id":"ce4bhap2rcd13ifvqek0","pricing_plan_id":"cebpf4jnsgd1na2vs0mg"},{"bike_id":"94958222-797b-455b-a8ac-76935e054ef6","system_id":"levelo_inurba_marseille","lat":43.25816,"lon":5.39434,"is_reserved":false,"is_disabled":false,"rental_uris":{"android":"levelo://app?vid=94958222-797b-455b-a8ac-76935e054ef6","ios":"levelo://app?vid=94958222-797b-455b-a8ac-76935e054ef6"},"vehicle_type_id":"4","last_reported":1733501549,"current_range_meters":36800,"station_id":"ce4bhip2rcd13ifvqft0","pricing_plan_id":"cebpf4jnsgd1na2vs0mg"},{"bike_id":"2e73801d-3395-46c2-91c4-86882530a7f3","system_id":"levelo_inurba_marseille","lat":43.31246,"lon":5.38142,"is_reserved":false,"is_disabled":false,"rental_uris":{"android":"levelo://app?vid=2e73801d-3395-46c2-91c4-86882530a7f3","ios":"levelo://app?vid=2e73801d-3395-46c2-91c4-86882530a7f3"},"vehicle_type_id":"4","last_reported":1733501549,"current_range_meters":25200,"station_id":"","pricing_plan_id":"cebpf4jnsgd1na2vs0mg"},{"bike_id":"3ac118e6-721e-40e5-aa6f-e0ea2c89658e","system_id":"levelo_inurba_marseille","lat":43.29928,"lon":5.36542,"is_reserved":false,"is_disabled":false,"rental_uris":{"android":"levelo://app?vid=3ac118e6-721e-40e5-aa6f-e0ea2c89658e","ios":"levelo://app?vid=3ac118e6-721e-40e5-aa6f-e0ea2c89658e"},"vehicle_type_id":"4","last_reported":1733501549,"current_range_meters":31200,"station_id":"ce4bgm92rcd13ifvqbr0","pricing_plan_id":"cebpf4jnsgd1na2vs0mg"},{"bike_id":"9202c63e-372c-4469-a5c1-8e35757d1940","system_id":"levelo_inurba_marseille","lat":43.30053,"lon":5.38832,"is_reserved":false,"is_disabled":true,"rental_uris":{"android":"levelo://app?vid=9202c63e-372c-4469-a5c1-8e35757d1940","ios":"levelo://app?vid=9202c63e-372c-4469-a5c1-8e35757d1940"},"vehicle_type_id":"4","last_reported":1733501549,"current_range_meters":0,"station_id":"","pricing_plan_id":"cebpf4jnsgd1na2vs0mg"},{"bike_id":"eb896402-09db-467f-811b-5ef4e27cce2e","system_id":"levelo_inurba_marseille","lat":43.30659,"lon":5.37313,"is_reserved":false,"is_disabled":false,"rental_uris":{"android":"levelo://app?vid=eb896402-09db-467f-811b-5ef4e27cce2e","ios":"levelo://app?vid=eb896402-09db-467f-811b-5ef4e27cce2e"},"vehicle_type_id":"4","last_reported":1733501549,"current_range_meters":10000,"station_id":"","pricing_plan_id":"cebpf4jnsgd1na2vs0mg"},{"bike_id":"46acab1c-b930-43bf-8bcc-35f631109a13","system_id":"levelo_inurba_marseille","lat":43.26728,"lon":5.39448,"is_reserved":false,"is_disabled":true,"rental_uris":{"android":"levelo://app?vid=46acab1c-b930-43bf-8bcc-35f631109a13","ios":"levelo://app?vid=46acab1c-b930-43bf-8bcc-35f631109a13"},"vehicle_type_id":"4","last_reported":1733501549,"current_range_meters":800,"station_id":"","pricing_plan_id":"cebpf4jnsgd1na2vs0mg"},{"bike_id":"8f98faf2-dda0-4741-8f88-b5b103a878ed","system_id":"levelo_inurba_marseille","lat":43.30933,"lon":5.40138,"is_reserved":false,"is_disabled":false,"rental_uris":{"android":"levelo://app?vid=8f98faf2-dda0-4741-8f88-b5b103a878ed","ios":"levelo://app?vid=8f98faf2-dda0-4741-8f88-b5b103a878ed"},"vehicle_type_id":"4","last_reported":1733501549,"current_range_meters":8400,"station_id":"ce4bgvp2rcd13ifvqct0","pricing_plan_id":"cebpf4jnsgd1na2vs0mg"},{"bike_id":"0deb7b46-3bee-4382-87b1-3984fb62457f","system_id":"levelo_inurba_marseille","lat":43.28751,"lon":5.38914,"is_reserved":false,"is_disabled":true,"rental_uris":{"android":"levelo://app?vid=0deb7b46-3bee-4382-87b1-3984fb62457f","ios":"levelo://app?vid=0deb7b46-3bee-4382-87b1-3984fb62457f"},"vehicle_type_id":"4","last_reported":1733501549,"current_range_meters":30400,"station_id":"","pricing_plan_id":"cebpf4jnsgd1na2vs0mg"},{"bike_id":"cf3e6ea0-09ff-406c-b357-28a6a6117f94","system_id":"levelo_inurba_marseille","lat":43.22932,"lon":5.35378,"is_reserved":false,"is_disabled":false,"rental_uris":{"android":"levelo://app?vid=cf3e6ea0-09ff-406c-b357-28a6a6117f94","ios":"levelo://app?vid=cf3e6ea0-09ff-406c-b357-28a6a6117f94"},"vehicle_type_id":"4","last_reported":1733501549,"current_range_meters":38800,"station_id":"cpo3532slgdg3j2ikp40","pricing_plan_id":"cebpf4jnsgd1na2vs0mg"},{"bike_id":"11893e0a-2642-49ad-9fc6-ce219c5c3f40","system_id":"levelo_inurba_marseille","lat":43.25715,"lon":5.41109,"is_reserved":false,"is_disabled":false,"rental_uris":{"android":"levelo://app?vid=11893e0a-2642-49ad-9fc6-ce219c5c3f40","ios":"levelo://app?vid=11893e0a-2642-49ad-9fc6-ce219c5c3f40"},"vehicle_type_id":"4","last_reported":1733501549,"current_range_meters":22400,"station_id":"ce4bhkp2rcd13ifvqgd0","pricing_plan_id":"cebpf4jnsgd1na2vs0mg"},{"bike_id":"2cad02f9-2a30-4b13-94b4-5b432fb2d401","system_id":"levelo_inurba_marseille","lat":43.24391,"lon":5.37062,"is_reserved":false,"is_disabled":false,"rental_uris":{"android":"levelo://app?vid=2cad02f9-2a30-4b13-94b4-5b432fb2d401","ios":"levelo://app?vid=2cad02f9-2a30-4b13-94b4-5b432fb2d401"},"vehicle_type_id":"4","last_reported":1733501549,"current_range_meters":36800,"station_id":"ce4bhhh2rcd13ifvqfk0","pricing_plan_id":"cebpf4jnsgd1na2vs0mg"},{"bike_id":"719e509a-25e4-4b1b-9830-f708d85d7593","system_id":"levelo_inurba_marseille","lat":43.29404,"lon":5.37451,"is_reserved":false,"is_disabled":true,"rental_uris":{"android":"levelo://app?vid=719e509a-25e4-4b1b-9830-f708d85d7593","ios":"levelo://app?vid=719e509a-25e4-4b1b-9830-f708d85d7593"},"vehicle_type_id":"4","last_reported":1733501549,"current_range_meters":0,"station_id":"","pricing_plan_id":"cebpf4jnsgd1na2vs0mg"},{"bike_id":"9905698d-e730-41d0-8e32-1343ea2ef365","system_id":"levelo_inurba_marseille","lat":43.30794,"lon":5.43535,"is_reserved":false,"is_disabled":false,"rental_uris":{"android":"levelo://app?vid=9905698d-e730-41d0-8e32-1343ea2ef365","ios":"levelo://app?vid=9905698d-e730-41d0-8e32-1343ea2ef365"},"vehicle_type_id":"4","last_reported":1733501549,"current_range_meters":22000,"station_id":"ce4bhph2rcd13ifvqheg","pricing_plan_id":"cebpf4jnsgd1na2vs0mg"},{"bike_id":"98fb15c6-3042-448c-9915-09c3400555ea","system_id":"levelo_inurba_marseille","lat":43.28572,"lon":5.39496,"is_reserved":false,"is_disabled":false,"rental_uris":{"android":"levelo://app?vid=98fb15c6-3042-448c-9915-09c3400555ea","ios":"levelo://app?vid=98fb15c6-3042-448c-9915-09c3400555ea"},"vehicle_type_id":"4","last_reported":1733501549,"current_range_meters":26800,"station_id":"ce4bh292rcd13ifvqdg0","pricing_plan_id":"cebpf4jnsgd1na2vs0mg"},{"bike_id":"7a0a2714-105e-4622-8b3e-a7dd62dc6941","system_id":"levelo_inurba_marseille","lat":43.29266,"lon":5.384189,"is_reserved":false,"is_disabled":true,"rental_uris":{"android":"levelo://app?vid=7a0a2714-105e-4622-8b3e-a7dd62dc6941","ios":"levelo://app?vid=7a0a2714-105e-4622-8b3e-a7dd62dc6941"},"vehicle_type_id":"4","last_reported":1733501549,"current_range_meters":0,"station_id":"","pricing_plan_id":"cebpf4jnsgd1na2vs0mg"},{"bike_id":"26b052a5-c5b2-4c9c-8312-d105f7bf979e","system_id":"levelo_inurba_marseille","lat":43.27047,"lon":5.40269,"is_reserved":false,"is_disabled":false,"rental_uris":{"android":"levelo://app?vid=26b052a5-c5b2-4c9c-8312-d105f7bf979e","ios":"levelo://app?vid=26b052a5-c5b2-4c9c-8312-d105f7bf979e"},"vehicle_type_id":"4","last_reported":1733501549,"current_range_meters":26000,"station_id":"ce4bhk92rcd13ifvqgc0","pricing_plan_id":"cebpf4jnsgd1na2vs0mg"},{"bike_id":"2e741ac3-b20a-4ff6-bfaa-89f37b5897c9","system_id":"levelo_inurba_marseille","lat":43.29594,"lon":5.38104,"is_reserved":false,"is_disabled":false,"rental_uris":{"android":"levelo://app?vid=2e741ac3-b20a-4ff6-bfaa-89f37b5897c9","ios":"levelo://app?vid=2e741ac3-b20a-4ff6-bfaa-89f37b5897c9"},"vehicle_type_id":"4","last_reported":1733501549,"current_range_meters":36000,"station_id":"ce4bgl12rcd13ifvqbo0","pricing_plan_id":"cebpf4jnsgd1na2vs0mg"},{"bike_id":"6305c89b-37f3-4446-a24e-f92eafb70722","system_id":"levelo_inurba_marseille","lat":43.29228,"lon":5.36074,"is_reserved":false,"is_disabled":false,"rental_uris":{"android":"levelo://app?vid=6305c89b-37f3-4446-a24e-f92eafb70722","ios":"levelo://app?vid=6305c89b-37f3-4446-a24e-f92eafb70722"},"vehicle_type_id":"4","last_reported":1733501549,"current_range_meters":38800,"station_id":"ce4bhbh2rcd13ifvqeqg","pricing_plan_id":"cebpf4jnsgd1na2vs0mg"},{"bike_id":"6960dc3b-a306-40fc-9dcc-24767ac7a4ce","system_id":"levelo_inurba_marseille","lat":43.29245,"lon":5.40904,"is_reserved":false,"is_disabled":false,"rental_uris":{"android":"levelo://app?vid=6960dc3b-a306-40fc-9dcc-24767ac7a4ce","ios":"levelo://app?vid=6960dc3b-a306-40fc-9dcc-24767ac7a4ce"},"vehicle_type_id":"4","last_reported":1733501549,"current_range_meters":32800,"station_id":"ce4bh192rcd13ifvqdc0","pricing_plan_id":"cebpf4jnsgd1na2vs0mg"},{"bike_id":"7cab2b0e-b85d-461c-a6ff-00d3bd0ccb9d","system_id":"levelo_inurba_marseille","lat":43.29094,"lon":5.38146,"is_reserved":false,"is_disabled":true,"rental_uris":{"android":"levelo://app?vid=7cab2b0e-b85d-461c-a6ff-00d3bd0ccb9d","ios":"levelo://app?vid=7cab2b0e-b85d-461c-a6ff-00d3bd0ccb9d"},"vehicle_type_id":"4","last_reported":1733501549,"current_range_meters":0,"station_id":"ce4bh512rcd13ifvqe2g","pricing_plan_id":"cebpf4jnsgd1na2vs0mg"},{"bike_id":"fcb62435-bf2a-4b29-aa1d-0883c27a83a9","system_id":"levelo_inurba_marseille","lat":43.28418,"lon":5.34997,"is_reserved":false,"is_disabled":false,"rental_uris":{"android":"levelo://app?vid=fcb62435-bf2a-4b29-aa1d-0883c27a83a9","ios":"levelo://app?vid=fcb62435-bf2a-4b29-aa1d-0883c27a83a9"},"vehicle_type_id":"4","last_reported":1733501549,"current_range_meters":38800,"station_id":"ce4bhbh2rcd13ifvqepg","pricing_plan_id":"cebpf4jnsgd1na2vs0mg"},{"bike_id":"b01ba929-1580-401b-973d-e4a15d746d4a","system_id":"levelo_inurba_marseille","lat":43.22928,"lon":5.35377,"is_reserved":false,"is_disabled":false,"rental_uris":{"android":"levelo://app?vid=b01ba929-1580-401b-973d-e4a15d746d4a","ios":"levelo://app?vid=b01ba929-1580-401b-973d-e4a15d746d4a"},"vehicle_type_id":"4","last_reported":1733501549,"current_range_meters":8800,"station_id":"cpo3532slgdg3j2ikp40","pricing_plan_id":"cebpf4jnsgd1na2vs0mg"},{"bike_id":"8c1e28b4-904f-48d7-ba6d-d3b5b5d05922","system_id":"levelo_inurba_marseille","lat":43.29382,"lon":5.40115,"is_reserved":false,"is_disabled":true,"rental_uris":{"android":"levelo://app?vid=8c1e28b4-904f-48d7-ba6d-d3b5b5d05922","ios":"levelo://app?vid=8c1e28b4-904f-48d7-ba6d-d3b5b5d05922"},"vehicle_type_id":"4","last_reported":1733501549,"current_range_meters":0,"station_id":"","pricing_plan_id":"cebpf4jnsgd1na2vs0mg"},{"bike_id":"0a43f817-3d21-4907-aab1-172705ef3170","system_id":"levelo_inurba_marseille","lat":43.27814,"lon":5.40717,"is_reserved":false,"is_disabled":false,"rental_uris":{"android":"levelo://app?vid=0a43f817-3d21-4907-aab1-172705ef3170","ios":"levelo://app?vid=0a43f817-3d21-4907-aab1-172705ef3170"},"vehicle_type_id":"4","last_reported":1733501549,"current_range_meters":28400,"station_id":"ce4bhnh2rcd13ifvqgtg","pricing_plan_id":"cebpf4jnsgd1na2vs0mg"},{"bike_id":"7b9b3679-8df0-485d-a17a-ac62ea96167a","system_id":"levelo_inurba_marseille","lat":43.27942,"lon":5.38737,"is_reserved":false,"is_disabled":true,"rental_uris":{"android":"levelo://app?vid=7b9b3679-8df0-485d-a17a-ac62ea96167a","ios":"levelo://app?vid=7b9b3679-8df0-485d-a17a-ac62ea96167a"},"vehicle_type_id":"4","last_reported":1733501549,"current_range_meters":13600,"station_id":"ce4bhg12rcd13ifvqf80","pricing_plan_id":"cebpf4jnsgd1na2vs0mg"},{"bike_id":"023a1aff-0f79-4621-b167-0dd44fef9d94","system_id":"levelo_inurba_marseille","lat":43.29537,"lon":5.39389,"is_reserved":false,"is_disabled":false,"rental_uris":{"android":"levelo://app?vid=023a1aff-0f79-4621-b167-0dd44fef9d94","ios":"levelo://app?vid=023a1aff-0f79-4621-b167-0dd44fef9d94"},"vehicle_type_id":"4","last_reported":1733501549,"current_range_meters":28000,"station_id":"ce4bh292rcd13ifvqdf0","pricing_plan_id":"cebpf4jnsgd1na2vs0mg"},{"bike_id":"0739cb89-586c-4275-beff-81c62ae67a52","system_id":"levelo_inurba_marseille","lat":43.27815,"lon":5.40717,"is_reserved":false,"is_disabled":true,"rental_uris":{"android":"levelo://app?vid=0739cb89-586c-4275-beff-81c62ae67a52","ios":"levelo://app?vid=0739cb89-586c-4275-beff-81c62ae67a52"},"vehicle_type_id":"4","last_reported":1733501549,"current_range_meters":0,"station_id":"ce4bhnh2rcd13ifvqgtg","pricing_plan_id":"cebpf4jnsgd1na2vs0mg"},{"bike_id":"d80cb2e2-1e82-4f0e-b18f-ad929c497698","system_id":"levelo_inurba_marseille","lat":43.32672,"lon":5.39665,"is_reserved":false,"is_disabled":false,"rental_uris":{"android":"levelo://app?vid=d80cb2e2-1e82-4f0e-b18f-ad929c497698","ios":"levelo://app?vid=d80cb2e2-1e82-4f0e-b18f-ad929c497698"},"vehicle_type_id":"4","last_reported":1733501549,"current_range_meters":14400,"station_id":"","pricing_plan_id":"cebpf4jnsgd1na2vs0mg"},{"bike_id":"157f24cf-ff2f-4c38-98dc-c1fa10142ac1","system_id":"levelo_inurba_marseille","lat":43.27371,"lon":5.36251,"is_reserved":false,"is_disabled":false,"rental_uris":{"android":"levelo://app?vid=157f24cf-ff2f-4c38-98dc-c1fa10142ac1","ios":"levelo://app?vid=157f24cf-ff2f-4c38-98dc-c1fa10142ac1"},"vehicle_type_id":"4","last_reported":1733501549,"current_range_meters":38400,"station_id":"ce4bhbh2rcd13ifvqeo0","pricing_plan_id":"cebpf4jnsgd1na2vs0mg"},{"bike_id":"80c5d8eb-19da-410b-8b3d-9e8ed473a8cc","system_id":"levelo_inurba_marseille","lat":43.29875,"lon":5.39731,"is_reserved":false,"is_disabled":true,"rental_uris":{"android":"levelo://app?vid=80c5d8eb-19da-410b-8b3d-9e8ed473a8cc","ios":"levelo://app?vid=80c5d8eb-19da-410b-8b3d-9e8ed473a8cc"},"vehicle_type_id":"4","last_reported":1733501549,"current_range_meters":400,"station_id":"ce4bh0h2rcd13ifvqd50","pricing_plan_id":"cebpf4jnsgd1na2vs0mg"},{"bike_id":"a1d6c1d4-3f51-420e-8bbb-67ff02f9a3f1","system_id":"levelo_inurba_marseille","lat":43.29638,"lon":5.40597,"is_reserved":false,"is_disabled":false,"rental_uris":{"android":"levelo://app?vid=a1d6c1d4-3f51-420e-8bbb-67ff02f9a3f1","ios":"levelo://app?vid=a1d6c1d4-3f51-420e-8bbb-67ff02f9a3f1"},"vehicle_type_id":"4","last_reported":1733501549,"current_range_meters":37600,"station_id":"ce4bh0h2rcd13ifvqd60","pricing_plan_id":"cebpf4jnsgd1na2vs0mg"},{"bike_id":"8828360f-cf19-45e2-a9f2-5835ca51fbf4","system_id":"levelo_inurba_marseille","lat":43.27618,"lon":5.36108,"is_reserved":false,"is_disabled":false,"rental_uris":{"android":"levelo://app?vid=8828360f-cf19-45e2-a9f2-5835ca51fbf4","ios":"levelo://app?vid=8828360f-cf19-45e2-a9f2-5835ca51fbf4"},"vehicle_type_id":"4","last_reported":1733501549,"current_range_meters":38000,"station_id":"ce4bgj92rcd13ifvqbe0","pricing_plan_id":"cebpf4jnsgd1na2vs0mg"},{"bike_id":"6ad8fff5-6505-40fc-8922-2acdd3c82e7b","system_id":"levelo_inurba_marseille","lat":43.29785,"lon":5.38107,"is_reserved":false,"is_disabled":true,"rental_uris":{"android":"levelo://app?vid=6ad8fff5-6505-40fc-8922-2acdd3c82e7b","ios":"levelo://app?vid=6ad8fff5-6505-40fc-8922-2acdd3c82e7b"},"vehicle_type_id":"4","last_reported":1733501549,"current_range_meters":23200,"station_id":"ce4bgip2rcd13ifvqbb0","pricing_plan_id":"cebpf4jnsgd1na2vs0mg"},{"bike_id":"7f3e5379-4164-4786-9154-aacb13f149a3","system_id":"levelo_inurba_marseille","lat":43.28608,"lon":5.35101,"is_reserved":false,"is_disabled":false,"rental_uris":{"android":"levelo://app?vid=7f3e5379-4164-4786-9154-aacb13f149a3","ios":"levelo://app?vid=7f3e5379-4164-4786-9154-aacb13f149a3"},"vehicle_type_id":"4","last_reported":1733501549,"current_range_meters":38800,"station_id":"ce4bhch2rcd13ifvqeug","pricing_plan_id":"cebpf4jnsgd1na2vs0mg"},{"bike_id":"8eb0d0c6-cfaf-4968-8ce1-d4622a486dbb","system_id":"levelo_inurba_marseille","lat":43.3373,"lon":5.39187,"is_reserved":false,"is_disabled":false,"rental_uris":{"android":"levelo://app?vid=8eb0d0c6-cfaf-4968-8ce1-d4622a486dbb","ios":"levelo://app?vid=8eb0d0c6-cfaf-4968-8ce1-d4622a486dbb"},"vehicle_type_id":"4","last_reported":1733501549,"current_range_meters":38800,"station_id":"ce4bhr92rcd13ifvqhsg","pricing_plan_id":"cebpf4jnsgd1na2vs0mg"},{"bike_id":"925f6bf7-f8cd-4834-b02e-db9256d3d64e","system_id":"levelo_inurba_marseille","lat":43.30883,"lon":5.39656,"is_reserved":false,"is_disabled":false,"rental_uris":{"android":"levelo://app?vid=925f6bf7-f8cd-4834-b02e-db9256d3d64e","ios":"levelo://app?vid=925f6bf7-f8cd-4834-b02e-db9256d3d64e"},"vehicle_type_id":"4","last_reported":1733501549,"current_range_meters":36400,"station_id":"ce4bh012rcd13ifvqcv0","pricing_plan_id":"cebpf4jnsgd1na2vs0mg"},{"bike_id":"8ddada62-4afa-4384-95e7-49b22be9190a","system_id":"levelo_inurba_marseille","lat":43.2707,"lon":5.42279,"is_reserved":false,"is_disabled":true,"rental_uris":{"android":"levelo://app?vid=8ddada62-4afa-4384-95e7-49b22be9190a","ios":"levelo://app?vid=8ddada62-4afa-4384-95e7-49b22be9190a"},"vehicle_type_id":"4","last_reported":1733501549,"current_range_meters":0,"station_id":"ce4bhk92rcd13ifvqgb0","pricing_plan_id":"cebpf4jnsgd1na2vs0mg"},{"bike_id":"63ad67d0-6c19-4a7d-b62f-9c01f4189692","system_id":"levelo_inurba_marseille","lat":43.29534,"lon":5.38551,"is_reserved":false,"is_disabled":false,"rental_uris":{"android":"levelo://app?vid=63ad67d0-6c19-4a7d-b62f-9c01f4189692","ios":"levelo://app?vid=63ad67d0-6c19-4a7d-b62f-9c01f4189692"},"vehicle_type_id":"4","last_reported":1733501549,"current_range_meters":8400,"station_id":"ce4bgih2rcd13ifvqba0","pricing_plan_id":"cebpf4jnsgd1na2vs0mg"},{"bike_id":"0ada4ac8-82be-41ab-a4d6-04558624c236","system_id":"levelo_inurba_marseille","lat":43.3248,"lon":5.36566,"is_reserved":false,"is_disabled":false,"rental_uris":{"android":"levelo://app?vid=0ada4ac8-82be-41ab-a4d6-04558624c236","ios":"levelo://app?vid=0ada4ac8-82be-41ab-a4d6-04558624c236"},"vehicle_type_id":"4","last_reported":1733501549,"current_range_meters":11600,"station_id":"ce4bhs12rcd13ifvqhvg","pricing_plan_id":"cebpf4jnsgd1na2vs0mg"},{"bike_id":"7f07f1ef-4ece-43d4-9f4e-ab47112b9948","system_id":"levelo_inurba_marseille","lat":43.30212,"lon":5.39463,"is_reserved":false,"is_disabled":true,"rental_uris":{"android":"levelo://app?vid=7f07f1ef-4ece-43d4-9f4e-ab47112b9948","ios":"levelo://app?vid=7f07f1ef-4ece-43d4-9f4e-ab47112b9948"},"vehicle_type_id":"4","last_reported":1733501549,"current_range_meters":1600,"station_id":"ce4bh0p2rcd13ifvqd70","pricing_plan_id":"cebpf4jnsgd1na2vs0mg"},{"bike_id":"a4b9e425-64b8-4ce2-a5ab-5fcc5d1230a4","system_id":"levelo_inurba_marseille","lat":43.32103,"lon":5.36775,"is_reserved":false,"is_disabled":false,"rental_uris":{"android":"levelo://app?vid=a4b9e425-64b8-4ce2-a5ab-5fcc5d1230a4","ios":"levelo://app?vid=a4b9e425-64b8-4ce2-a5ab-5fcc5d1230a4"},"vehicle_type_id":"4","last_reported":1733501549,"current_range_meters":28800,"station_id":"ce4bhrh2rcd13ifvqhug","pricing_plan_id":"cebpf4jnsgd1na2vs0mg"},{"bike_id":"0dc5ea8f-76ff-445d-8e99-a170b4022104","system_id":"levelo_inurba_marseille","lat":43.24074,"lon":5.3776,"is_reserved":false,"is_disabled":false,"rental_uris":{"android":"levelo://app?vid=0dc5ea8f-76ff-445d-8e99-a170b4022104","ios":"levelo://app?vid=0dc5ea8f-76ff-445d-8e99-a170b4022104"},"vehicle_type_id":"4","last_reported":1733501549,"current_range_meters":37600,"station_id":"ce4bhnp2rcd13ifvqgvg","pricing_plan_id":"cebpf4jnsgd1na2vs0mg"},{"bike_id":"fd98eaa9-4d55-4e7b-aa90-0d14707466d9","system_id":"levelo_inurba_marseille","lat":43.337444,"lon":5.374475,"is_reserved":false,"is_disabled":true,"rental_uris":{"android":"levelo://app?vid=fd98eaa9-4d55-4e7b-aa90-0d14707466d9","ios":"levelo://app?vid=fd98eaa9-4d55-4e7b-aa90-0d14707466d9"},"vehicle_type_id":"4","last_reported":1733501549,"current_range_meters":0,"station_id":"","pricing_plan_id":"cebpf4jnsgd1na2vs0mg"},{"bike_id":"cce6f420-4439-4f23-b16c-85a1cc91ce44","system_id":"levelo_inurba_marseille","lat":43.26212,"lon":5.37442,"is_reserved":false,"is_disabled":false,"rental_uris":{"android":"levelo://app?vid=cce6f420-4439-4f23-b16c-85a1cc91ce44","ios":"levelo://app?vid=cce6f420-4439-4f23-b16c-85a1cc91ce44"},"vehicle_type_id":"4","last_reported":1733501549,"current_range_meters":38800,"station_id":"ce4bhgp2rcd13ifvqfc0","pricing_plan_id":"cebpf4jnsgd1na2vs0mg"},{"bike_id":"045741c8-5d2d-440d-b204-3b7a6132c8e6","system_id":"levelo_inurba_marseille","lat":43.27968,"lon":5.38728,"is_reserved":false,"is_disabled":false,"rental_uris":{"android":"levelo://app?vid=045741c8-5d2d-440d-b204-3b7a6132c8e6","ios":"levelo://app?vid=045741c8-5d2d-440d-b204-3b7a6132c8e6"},"vehicle_type_id":"4","last_reported":1733501549,"current_range_meters":38000,"station_id":"ce4bhg12rcd13ifvqf80","pricing_plan_id":"cebpf4jnsgd1na2vs0mg"},{"bike_id":"b1c4eb48-3657-4b66-b5ed-53507d84fe46","system_id":"levelo_inurba_marseille","lat":43.29794,"lon":5.39351,"is_reserved":false,"is_disabled":true,"rental_uris":{"android":"levelo://app?vid=b1c4eb48-3657-4b66-b5ed-53507d84fe46","ios":"levelo://app?vid=b1c4eb48-3657-4b66-b5ed-53507d84fe46"},"vehicle_type_id":"4","last_reported":1733501549,"current_range_meters":0,"station_id":"chh1huq6cuj3fo74tm60","pricing_plan_id":"cebpf4jnsgd1na2vs0mg"},{"bike_id":"b1122450-6d22-4de1-b375-212300025a3f","system_id":"levelo_inurba_marseille","lat":43.32662,"lon":5.40995,"is_reserved":false,"is_disabled":false,"rental_uris":{"android":"levelo://app?vid=b1122450-6d22-4de1-b375-212300025a3f","ios":"levelo://app?vid=b1122450-6d22-4de1-b375-212300025a3f"},"vehicle_type_id":"4","last_reported":1733501549,"current_range_meters":38800,"station_id":"ce4bhpp2rcd13ifvqhgg","pricing_plan_id":"cebpf4jnsgd1na2vs0mg"},{"bike_id":"90db9944-4075-422d-a364-7b8c45e71775","system_id":"levelo_inurba_marseille","lat":43.25866,"lon":5.39903,"is_reserved":false,"is_disabled":false,"rental_uris":{"android":"levelo://app?vid=90db9944-4075-422d-a364-7b8c45e71775","ios":"levelo://app?vid=90db9944-4075-422d-a364-7b8c45e71775"},"vehicle_type_id":"4","last_reported":1733501549,"current_range_meters":25600,"station_id":"ce4bhl92rcd13ifvqghg","pricing_plan_id":"cebpf4jnsgd1na2vs0mg"},{"bike_id":"c2d8a1c2-d166-4a36-b32f-beec95c93bd5","system_id":"levelo_inurba_marseille","lat":43.33756,"lon":5.37459,"is_reserved":false,"is_disabled":false,"rental_uris":{"android":"levelo://app?vid=c2d8a1c2-d166-4a36-b32f-beec95c93bd5","ios":"levelo://app?vid=c2d8a1c2-d166-4a36-b32f-beec95c93bd5"},"vehicle_type_id":"4","last_reported":1733501549,"current_range_meters":4000,"station_id":"","pricing_plan_id":"cebpf4jnsgd1na2vs0mg"},{"bike_id":"0761aa55-eadf-431b-8e15-419dd0058621","system_id":"levelo_inurba_marseille","lat":43.3059,"lon":5.39335,"is_reserved":false,"is_disabled":true,"rental_uris":{"android":"levelo://app?vid=0761aa55-eadf-431b-8e15-419dd0058621","ios":"levelo://app?vid=0761aa55-eadf-431b-8e15-419dd0058621"},"vehicle_type_id":"4","last_reported":1733501549,"current_range_meters":1200,"station_id":"ce4bh0p2rcd13ifvqd80","pricing_plan_id":"cebpf4jnsgd1na2vs0mg"},{"bike_id":"7a7888d2-4b0b-4186-8376-568c3b2ce15a","system_id":"levelo_inurba_marseille","lat":43.29411,"lon":5.386132,"is_reserved":false,"is_disabled":true,"rental_uris":{"android":"levelo://app?vid=7a7888d2-4b0b-4186-8376-568c3b2ce15a","ios":"levelo://app?vid=7a7888d2-4b0b-4186-8376-568c3b2ce15a"},"vehicle_type_id":"4","last_reported":1733501549,"current_range_meters":0,"station_id":"ce4bh2h2rcd13ifvqdh0","pricing_plan_id":"cebpf4jnsgd1na2vs0mg"},{"bike_id":"5976e944-e79a-451d-8f85-b143b67e5e11","system_id":"levelo_inurba_marseille","lat":43.25497,"lon":5.37663,"is_reserved":false,"is_disabled":true,"rental_uris":{"android":"levelo://app?vid=5976e944-e79a-451d-8f85-b143b67e5e11","ios":"levelo://app?vid=5976e944-e79a-451d-8f85-b143b67e5e11"},"vehicle_type_id":"4","last_reported":1733501549,"current_range_meters":0,"station_id":"ce4bhh12rcd13ifvqff0","pricing_plan_id":"cebpf4jnsgd1na2vs0mg"},{"bike_id":"bdabffaf-dc77-4f8a-85be-8b492fe929c7","system_id":"levelo_inurba_marseille","lat":43.29422,"lon":5.38623,"is_reserved":false,"is_disabled":false,"rental_uris":{"android":"levelo://app?vid=bdabffaf-dc77-4f8a-85be-8b492fe929c7","ios":"levelo://app?vid=bdabffaf-dc77-4f8a-85be-8b492fe929c7"},"vehicle_type_id":"4","last_reported":1733501549,"current_range_meters":24400,"station_id":"ce4bh2h2rcd13ifvqdh0","pricing_plan_id":"cebpf4jnsgd1na2vs0mg"},{"bike_id":"68d8139c-d8eb-4c98-91f2-af5440060389","system_id":"levelo_inurba_marseille","lat":43.27358,"lon":5.41009,"is_reserved":false,"is_disabled":false,"rental_uris":{"android":"levelo://app?vid=68d8139c-d8eb-4c98-91f2-af5440060389","ios":"levelo://app?vid=68d8139c-d8eb-4c98-91f2-af5440060389"},"vehicle_type_id":"4","last_reported":1733501549,"current_range_meters":8400,"station_id":"","pricing_plan_id":"cebpf4jnsgd1na2vs0mg"},{"bike_id":"37727576-2d28-4525-b065-40affdaee0f8","system_id":"levelo_inurba_marseille","lat":43.32367,"lon":5.38883,"is_reserved":false,"is_disabled":false,"rental_uris":{"android":"levelo://app?vid=37727576-2d28-4525-b065-40affdaee0f8","ios":"levelo://app?vid=37727576-2d28-4525-b065-40affdaee0f8"},"vehicle_type_id":"4","last_reported":1733501549,"current_range_meters":36000,"station_id":"ce4bhqp2rcd13ifvqhog","pricing_plan_id":"cebpf4jnsgd1na2vs0mg"},{"bike_id":"3a352b39-ea88-4938-aca7-0d30863305b9","system_id":"levelo_inurba_marseille","lat":43.30599,"lon":5.3722,"is_reserved":false,"is_disabled":false,"rental_uris":{"android":"levelo://app?vid=3a352b39-ea88-4938-aca7-0d30863305b9","ios":"levelo://app?vid=3a352b39-ea88-4938-aca7-0d30863305b9"},"vehicle_type_id":"4","last_reported":1733501549,"current_range_meters":16000,"station_id":"ce4bgqh2rcd13ifvqc4g","pricing_plan_id":"cebpf4jnsgd1na2vs0mg"},{"bike_id":"f5561434-0740-4a3c-abc2-013f37687b8d","system_id":"levelo_inurba_marseille","lat":43.2482,"lon":5.37454,"is_reserved":false,"is_disabled":true,"rental_uris":{"android":"levelo://app?vid=f5561434-0740-4a3c-abc2-013f37687b8d","ios":"levelo://app?vid=f5561434-0740-4a3c-abc2-013f37687b8d"},"vehicle_type_id":"4","last_reported":1733501549,"current_range_meters":38800,"station_id":"ce4bhgh2rcd13ifvqfb0","pricing_plan_id":"cebpf4jnsgd1na2vs0mg"},{"bike_id":"2fe3bdc9-02b2-44f2-9a63-3ed667f3d8e3","system_id":"levelo_inurba_marseille","lat":43.2846,"lon":5.35887,"is_reserved":false,"is_disabled":false,"rental_uris":{"android":"levelo://app?vid=2fe3bdc9-02b2-44f2-9a63-3ed667f3d8e3","ios":"levelo://app?vid=2fe3bdc9-02b2-44f2-9a63-3ed667f3d8e3"},"vehicle_type_id":"4","last_reported":1733501549,"current_range_meters":28000,"station_id":"ce4bhah2rcd13ifvqei0","pricing_plan_id":"cebpf4jnsgd1na2vs0mg"},{"bike_id":"2e25e5ac-189e-491e-a8a8-90c3dd347a2d","system_id":"levelo_inurba_marseille","lat":43.31312,"lon":5.36729,"is_reserved":false,"is_disabled":false,"rental_uris":{"android":"levelo://app?vid=2e25e5ac-189e-491e-a8a8-90c3dd347a2d","ios":"levelo://app?vid=2e25e5ac-189e-491e-a8a8-90c3dd347a2d"},"vehicle_type_id":"4","last_reported":1733501549,"current_range_meters":38800,"station_id":"ce4bgr92rcd13ifvqc6g","pricing_plan_id":"cebpf4jnsgd1na2vs0mg"},{"bike_id":"b595df41-4d6a-482b-bf80-775ae69da9e0","system_id":"levelo_inurba_marseille","lat":43.29006,"lon":5.35615,"is_reserved":false,"is_disabled":false,"rental_uris":{"android":"levelo://app?vid=b595df41-4d6a-482b-bf80-775ae69da9e0","ios":"levelo://app?vid=b595df41-4d6a-482b-bf80-775ae69da9e0"},"vehicle_type_id":"4","last_reported":1733501549,"current_range_meters":36800,"station_id":"ce4bhb92rcd13ifvqen0","pricing_plan_id":"cebpf4jnsgd1na2vs0mg"},{"bike_id":"bc759f2e-64b0-486f-aefa-02322dc6d21b","system_id":"levelo_inurba_marseille","lat":43.25116,"lon":5.4032,"is_reserved":false,"is_disabled":false,"rental_uris":{"android":"levelo://app?vid=bc759f2e-64b0-486f-aefa-02322dc6d21b","ios":"levelo://app?vid=bc759f2e-64b0-486f-aefa-02322dc6d21b"},"vehicle_type_id":"4","last_reported":1733501549,"current_range_meters":36000,"station_id":"ce4bhlh2rcd13ifvqgig","pricing_plan_id":"cebpf4jnsgd1na2vs0mg"},{"bike_id":"287c941f-020d-498f-be41-0a21f5d548d9","system_id":"levelo_inurba_marseille","lat":43.28004,"lon":5.40006,"is_reserved":false,"is_disabled":false,"rental_uris":{"android":"levelo://app?vid=287c941f-020d-498f-be41-0a21f5d548d9","ios":"levelo://app?vid=287c941f-020d-498f-be41-0a21f5d548d9"},"vehicle_type_id":"4","last_reported":1733501549,"current_range_meters":19200,"station_id":"ce4bho92rcd13ifvqh4g","pricing_plan_id":"cebpf4jnsgd1na2vs0mg"},{"bike_id":"06fa5d7c-3b9b-4c5d-a878-9f9d07eac2da","system_id":"levelo_inurba_marseille","lat":43.27947,"lon":5.41061,"is_reserved":false,"is_disabled":false,"rental_uris":{"android":"levelo://app?vid=06fa5d7c-3b9b-4c5d-a878-9f9d07eac2da","ios":"levelo://app?vid=06fa5d7c-3b9b-4c5d-a878-9f9d07eac2da"},"vehicle_type_id":"4","last_reported":1733501549,"current_range_meters":32000,"station_id":"ce4bhnp2rcd13ifvqh0g","pricing_plan_id":"cebpf4jnsgd1na2vs0mg"},{"bike_id":"28121aa3-7c19-4b1b-a44a-d17aed6b8d94","system_id":"levelo_inurba_marseille","lat":43.337444,"lon":5.374475,"is_reserved":false,"is_disabled":false,"rental_uris":{"android":"levelo://app?vid=28121aa3-7c19-4b1b-a44a-d17aed6b8d94","ios":"levelo://app?vid=28121aa3-7c19-4b1b-a44a-d17aed6b8d94"},"vehicle_type_id":"4","last_reported":1733501549,"current_range_meters":32800,"station_id":"","pricing_plan_id":"cebpf4jnsgd1na2vs0mg"},{"bike_id":"62dddee1-1100-4d8c-839c-64951e09afde","system_id":"levelo_inurba_marseille","lat":43.25256,"lon":5.40526,"is_reserved":false,"is_disabled":true,"rental_uris":{"android":"levelo://app?vid=62dddee1-1100-4d8c-839c-64951e09afde","ios":"levelo://app?vid=62dddee1-1100-4d8c-839c-64951e09afde"},"vehicle_type_id":"4","last_reported":1733501549,"current_range_meters":22000,"station_id":"","pricing_plan_id":"cebpf4jnsgd1na2vs0mg"},{"bike_id":"b57ac3ac-1cb9-4a0e-9880-d76a5f5fa301","system_id":"levelo_inurba_marseille","lat":43.26209,"lon":5.37926,"is_reserved":false,"is_disabled":true,"rental_uris":{"android":"levelo://app?vid=b57ac3ac-1cb9-4a0e-9880-d76a5f5fa301","ios":"levelo://app?vid=b57ac3ac-1cb9-4a0e-9880-d76a5f5fa301"},"vehicle_type_id":"4","last_reported":1733501549,"current_range_meters":0,"station_id":"ce4bhjp2rcd13ifvqg90","pricing_plan_id":"cebpf4jnsgd1na2vs0mg"},{"bike_id":"f3f8a736-97f0-478a-bf1d-83917568f7df","system_id":"levelo_inurba_marseille","lat":43.30537,"lon":5.36512,"is_reserved":false,"is_disabled":true,"rental_uris":{"android":"levelo://app?vid=f3f8a736-97f0-478a-bf1d-83917568f7df","ios":"levelo://app?vid=f3f8a736-97f0-478a-bf1d-83917568f7df"},"vehicle_type_id":"4","last_reported":1733501549,"current_range_meters":38800,"station_id":"ce4bgs12rcd13ifvqcag","pricing_plan_id":"cebpf4jnsgd1na2vs0mg"},{"bike_id":"b5d4186f-955d-4d53-92dd-c1d25a1046bb","system_id":"levelo_inurba_marseille","lat":43.31999,"lon":5.38165,"is_reserved":false,"is_disabled":false,"rental_uris":{"android":"levelo://app?vid=b5d4186f-955d-4d53-92dd-c1d25a1046bb","ios":"levelo://app?vid=b5d4186f-955d-4d53-92dd-c1d25a1046bb"},"vehicle_type_id":"4","last_reported":1733501549,"current_range_meters":7200,"station_id":"ce4bhr12rcd13ifvqhpg","pricing_plan_id":"cebpf4jnsgd1na2vs0mg"},{"bike_id":"080fcb1c-52b8-42d7-b477-4dbab7fa601d","system_id":"levelo_inurba_marseille","lat":43.33021,"lon":5.39041,"is_reserved":false,"is_disabled":false,"rental_uris":{"android":"levelo://app?vid=080fcb1c-52b8-42d7-b477-4dbab7fa601d","ios":"levelo://app?vid=080fcb1c-52b8-42d7-b477-4dbab7fa601d"},"vehicle_type_id":"4","last_reported":1733501549,"current_range_meters":33600,"station_id":"ce4bhr92rcd13ifvqhrg","pricing_plan_id":"cebpf4jnsgd1na2vs0mg"},{"bike_id":"21c61b3f-2ae1-41ed-96e8-21fc1b01a387","system_id":"levelo_inurba_marseille","lat":43.300886,"lon":5.372555,"is_reserved":false,"is_disabled":false,"rental_uris":{"android":"levelo://app?vid=21c61b3f-2ae1-41ed-96e8-21fc1b01a387","ios":"levelo://app?vid=21c61b3f-2ae1-41ed-96e8-21fc1b01a387"},"vehicle_type_id":"4","last_reported":1733501549,"current_range_meters":9600,"station_id":"","pricing_plan_id":"cebpf4jnsgd1na2vs0mg"},{"bike_id":"9d601b44-18de-420f-afc6-2cb5de397159","system_id":"levelo_inurba_marseille","lat":43.30605,"lon":5.37242,"is_reserved":false,"is_disabled":false,"rental_uris":{"android":"levelo://app?vid=9d601b44-18de-420f-afc6-2cb5de397159","ios":"levelo://app?vid=9d601b44-18de-420f-afc6-2cb5de397159"},"vehicle_type_id":"4","last_reported":1733501549,"current_range_meters":15200,"station_id":"ce4bgqh2rcd13ifvqc4g","pricing_plan_id":"cebpf4jnsgd1na2vs0mg"},{"bike_id":"3a9149f3-357c-4d0a-859b-18382ef024a5","system_id":"levelo_inurba_marseille","lat":43.32114,"lon":5.36764,"is_reserved":false,"is_disabled":false,"rental_uris":{"android":"levelo://app?vid=3a9149f3-357c-4d0a-859b-18382ef024a5","ios":"levelo://app?vid=3a9149f3-357c-4d0a-859b-18382ef024a5"},"vehicle_type_id":"4","last_reported":1733501549,"current_range_meters":17600,"station_id":"ce4bhrh2rcd13ifvqhug","pricing_plan_id":"cebpf4jnsgd1na2vs0mg"},{"bike_id":"b201af47-41c4-422e-b97c-b04b8971c166","system_id":"levelo_inurba_marseille","lat":43.31121,"lon":5.37758,"is_reserved":false,"is_disabled":true,"rental_uris":{"android":"levelo://app?vid=b201af47-41c4-422e-b97c-b04b8971c166","ios":"levelo://app?vid=b201af47-41c4-422e-b97c-b04b8971c166"},"vehicle_type_id":"4","last_reported":1733501549,"current_range_meters":0,"station_id":"ce4bgt92rcd13ifvqcg0","pricing_plan_id":"cebpf4jnsgd1na2vs0mg"},{"bike_id":"868a434e-7c11-4b20-84c6-7ecdbf24c83b","system_id":"levelo_inurba_marseille","lat":43.33022,"lon":5.39037,"is_reserved":false,"is_disabled":false,"rental_uris":{"android":"levelo://app?vid=868a434e-7c11-4b20-84c6-7ecdbf24c83b","ios":"levelo://app?vid=868a434e-7c11-4b20-84c6-7ecdbf24c83b"},"vehicle_type_id":"4","last_reported":1733501549,"current_range_meters":27200,"station_id":"ce4bhr92rcd13ifvqhrg","pricing_plan_id":"cebpf4jnsgd1na2vs0mg"},{"bike_id":"a90edf1f-a50f-4556-8541-4eafae33c950","system_id":"levelo_inurba_marseille","lat":43.30301,"lon":5.36868,"is_reserved":false,"is_disabled":false,"rental_uris":{"android":"levelo://app?vid=a90edf1f-a50f-4556-8541-4eafae33c950","ios":"levelo://app?vid=a90edf1f-a50f-4556-8541-4eafae33c950"},"vehicle_type_id":"4","last_reported":1733501549,"current_range_meters":32800,"station_id":"ce4bgqh2rcd13ifvqc5g","pricing_plan_id":"cebpf4jnsgd1na2vs0mg"},{"bike_id":"98df377c-5b46-4a4e-a80e-95ded7d1b7b9","system_id":"levelo_inurba_marseille","lat":43.29008,"lon":5.3862,"is_reserved":false,"is_disabled":true,"rental_uris":{"android":"levelo://app?vid=98df377c-5b46-4a4e-a80e-95ded7d1b7b9","ios":"levelo://app?vid=98df377c-5b46-4a4e-a80e-95ded7d1b7b9"},"vehicle_type_id":"4","last_reported":1733501549,"current_range_meters":23200,"station_id":"ce4bh4p2rcd13ifvqe0g","pricing_plan_id":"cebpf4jnsgd1na2vs0mg"},{"bike_id":"6c0188ce-85bf-4949-8478-25f429529633","system_id":"levelo_inurba_marseille","lat":43.27374,"lon":5.36253,"is_reserved":false,"is_disabled":false,"rental_uris":{"android":"levelo://app?vid=6c0188ce-85bf-4949-8478-25f429529633","ios":"levelo://app?vid=6c0188ce-85bf-4949-8478-25f429529633"},"vehicle_type_id":"4","last_reported":1733501549,"current_range_meters":37600,"station_id":"ce4bhbh2rcd13ifvqeo0","pricing_plan_id":"cebpf4jnsgd1na2vs0mg"},{"bike_id":"da6a7a1d-e653-4950-af8c-8137b06f7d40","system_id":"levelo_inurba_marseille","lat":43.3004,"lon":5.37551,"is_reserved":false,"is_disabled":true,"rental_uris":{"android":"levelo://app?vid=da6a7a1d-e653-4950-af8c-8137b06f7d40","ios":"levelo://app?vid=da6a7a1d-e653-4950-af8c-8137b06f7d40"},"vehicle_type_id":"4","last_reported":1733501549,"current_range_meters":0,"station_id":"","pricing_plan_id":"cebpf4jnsgd1na2vs0mg"},{"bike_id":"f7252cae-ba4c-4699-a0b4-4edea22fdb53","system_id":"levelo_inurba_marseille","lat":43.26204,"lon":5.37927,"is_reserved":false,"is_disabled":false,"rental_uris":{"android":"levelo://app?vid=f7252cae-ba4c-4699-a0b4-4edea22fdb53","ios":"levelo://app?vid=f7252cae-ba4c-4699-a0b4-4edea22fdb53"},"vehicle_type_id":"4","last_reported":1733501549,"current_range_meters":17200,"station_id":"ce4bhjp2rcd13ifvqg90","pricing_plan_id":"cebpf4jnsgd1na2vs0mg"},{"bike_id":"82f7a1b4-3f20-4260-8fd7-0be10b1f03a2","system_id":"levelo_inurba_marseille","lat":43.27951,"lon":5.41044,"is_reserved":false,"is_disabled":false,"rental_uris":{"android":"levelo://app?vid=82f7a1b4-3f20-4260-8fd7-0be10b1f03a2","ios":"levelo://app?vid=82f7a1b4-3f20-4260-8fd7-0be10b1f03a2"},"vehicle_type_id":"4","last_reported":1733501549,"current_range_meters":12400,"station_id":"ce4bhnp2rcd13ifvqh0g","pricing_plan_id":"cebpf4jnsgd1na2vs0mg"},{"bike_id":"8a32ddbe-52d9-4967-85f9-f560e896d218","system_id":"levelo_inurba_marseille","lat":43.29939,"lon":5.36543,"is_reserved":false,"is_disabled":false,"rental_uris":{"android":"levelo://app?vid=8a32ddbe-52d9-4967-85f9-f560e896d218","ios":"levelo://app?vid=8a32ddbe-52d9-4967-85f9-f560e896d218"},"vehicle_type_id":"4","last_reported":1733501549,"current_range_meters":7200,"station_id":"ce4bgm92rcd13ifvqbr0","pricing_plan_id":"cebpf4jnsgd1na2vs0mg"},{"bike_id":"3d0ac773-4a09-47c7-8b4f-cdd68fc5ce86","system_id":"levelo_inurba_marseille","lat":43.32364,"lon":5.38885,"is_reserved":false,"is_disabled":false,"rental_uris":{"android":"levelo://app?vid=3d0ac773-4a09-47c7-8b4f-cdd68fc5ce86","ios":"levelo://app?vid=3d0ac773-4a09-47c7-8b4f-cdd68fc5ce86"},"vehicle_type_id":"4","last_reported":1733501549,"current_range_meters":38800,"station_id":"ce4bhqp2rcd13ifvqhog","pricing_plan_id":"cebpf4jnsgd1na2vs0mg"},{"bike_id":"ab127a12-d0da-43a8-947f-d961cec8fd0b","system_id":"levelo_inurba_marseille","lat":43.26808,"lon":5.40271,"is_reserved":false,"is_disabled":false,"rental_uris":{"android":"levelo://app?vid=ab127a12-d0da-43a8-947f-d961cec8fd0b","ios":"levelo://app?vid=ab127a12-d0da-43a8-947f-d961cec8fd0b"},"vehicle_type_id":"4","last_reported":1733501549,"current_range_meters":10000,"station_id":"ce501612rcd8frsf0b60","pricing_plan_id":"cebpf4jnsgd1na2vs0mg"},{"bike_id":"d409d846-374b-4e70-b177-db10a8f6776a","system_id":"levelo_inurba_marseille","lat":43.2971,"lon":5.36612,"is_reserved":false,"is_disabled":true,"rental_uris":{"android":"levelo://app?vid=d409d846-374b-4e70-b177-db10a8f6776a","ios":"levelo://app?vid=d409d846-374b-4e70-b177-db10a8f6776a"},"vehicle_type_id":"4","last_reported":1733501549,"current_range_meters":0,"station_id":"ce4bgn12rcd13ifvqbt0","pricing_plan_id":"cebpf4jnsgd1na2vs0mg"},{"bike_id":"b983f700-39e1-418f-84a3-1c3c95a84b96","system_id":"levelo_inurba_marseille","lat":43.337752,"lon":5.375048,"is_reserved":false,"is_disabled":false,"rental_uris":{"android":"levelo://app?vid=b983f700-39e1-418f-84a3-1c3c95a84b96","ios":"levelo://app?vid=b983f700-39e1-418f-84a3-1c3c95a84b96"},"vehicle_type_id":"4","last_reported":1733501549,"current_range_meters":36400,"station_id":"","pricing_plan_id":"cebpf4jnsgd1na2vs0mg"},{"bike_id":"30de221a-4ae9-44c8-af60-f5843b67f535","system_id":"levelo_inurba_marseille","lat":43.337444,"lon":5.374475,"is_reserved":false,"is_disabled":false,"rental_uris":{"android":"levelo://app?vid=30de221a-4ae9-44c8-af60-f5843b67f535","ios":"levelo://app?vid=30de221a-4ae9-44c8-af60-f5843b67f535"},"vehicle_type_id":"4","last_reported":1733501549,"current_range_meters":33200,"station_id":"","pricing_plan_id":"cebpf4jnsgd1na2vs0mg"},{"bike_id":"3c0dbda7-2eab-4375-a2c0-e397bdb398b0","system_id":"levelo_inurba_marseille","lat":43.28416,"lon":5.34993,"is_reserved":false,"is_disabled":false,"rental_uris":{"android":"levelo://app?vid=3c0dbda7-2eab-4375-a2c0-e397bdb398b0","ios":"levelo://app?vid=3c0dbda7-2eab-4375-a2c0-e397bdb398b0"},"vehicle_type_id":"4","last_reported":1733501549,"current_range_meters":30000,"station_id":"ce4bhbh2rcd13ifvqepg","pricing_plan_id":"cebpf4jnsgd1na2vs0mg"},{"bike_id":"fa09424d-2e33-45bc-9a52-ecdb78af6ec7","system_id":"levelo_inurba_marseille","lat":43.26691,"lon":5.38277,"is_reserved":false,"is_disabled":false,"rental_uris":{"android":"levelo://app?vid=fa09424d-2e33-45bc-9a52-ecdb78af6ec7","ios":"levelo://app?vid=fa09424d-2e33-45bc-9a52-ecdb78af6ec7"},"vehicle_type_id":"4","last_reported":1733501549,"current_range_meters":38000,"station_id":"ce4bhg92rcd13ifvqf90","pricing_plan_id":"cebpf4jnsgd1na2vs0mg"},{"bike_id":"0926a58f-f7f1-456e-826c-66fceeca260f","system_id":"levelo_inurba_marseille","lat":43.29901,"lon":5.43658,"is_reserved":false,"is_disabled":false,"rental_uris":{"android":"levelo://app?vid=0926a58f-f7f1-456e-826c-66fceeca260f","ios":"levelo://app?vid=0926a58f-f7f1-456e-826c-66fceeca260f"},"vehicle_type_id":"4","last_reported":1733501549,"current_range_meters":14800,"station_id":"ce4bhpp2rcd13ifvqhfg","pricing_plan_id":"cebpf4jnsgd1na2vs0mg"},{"bike_id":"7a688541-8817-41cb-bdc9-326a83531004","system_id":"levelo_inurba_marseille","lat":43.28724,"lon":5.39993,"is_reserved":false,"is_disabled":true,"rental_uris":{"android":"levelo://app?vid=7a688541-8817-41cb-bdc9-326a83531004","ios":"levelo://app?vid=7a688541-8817-41cb-bdc9-326a83531004"},"vehicle_type_id":"4","last_reported":1733501549,"current_range_meters":1200,"station_id":"ce4bho92rcd13ifvqh3g","pricing_plan_id":"cebpf4jnsgd1na2vs0mg"},{"bike_id":"7714ce30-465c-426d-9621-0f0245a19ff8","system_id":"levelo_inurba_marseille","lat":43.27179,"lon":5.41,"is_reserved":false,"is_disabled":false,"rental_uris":{"android":"levelo://app?vid=7714ce30-465c-426d-9621-0f0245a19ff8","ios":"levelo://app?vid=7714ce30-465c-426d-9621-0f0245a19ff8"},"vehicle_type_id":"4","last_reported":1733501549,"current_range_meters":20800,"station_id":"ce4bhl12rcd13ifvqgf0","pricing_plan_id":"cebpf4jnsgd1na2vs0mg"},{"bike_id":"2e38f9e4-f6de-4fae-9004-b11bb52a4773","system_id":"levelo_inurba_marseille","lat":43.27069,"lon":5.40259,"is_reserved":false,"is_disabled":true,"rental_uris":{"android":"levelo://app?vid=2e38f9e4-f6de-4fae-9004-b11bb52a4773","ios":"levelo://app?vid=2e38f9e4-f6de-4fae-9004-b11bb52a4773"},"vehicle_type_id":"4","last_reported":1733501549,"current_range_meters":0,"station_id":"ce4bhk92rcd13ifvqgc0","pricing_plan_id":"cebpf4jnsgd1na2vs0mg"},{"bike_id":"b72243d5-edca-4170-b2b3-c6f71b8dc4e8","system_id":"levelo_inurba_marseille","lat":43.29741,"lon":5.37679,"is_reserved":false,"is_disabled":false,"rental_uris":{"android":"levelo://app?vid=b72243d5-edca-4170-b2b3-c6f71b8dc4e8","ios":"levelo://app?vid=b72243d5-edca-4170-b2b3-c6f71b8dc4e8"},"vehicle_type_id":"4","last_reported":1733501549,"current_range_meters":7200,"station_id":"ce4bgkh2rcd13ifvqbl0","pricing_plan_id":"cebpf4jnsgd1na2vs0mg"},{"bike_id":"55708d44-3f0b-49db-b92a-aa39fe6e84ea","system_id":"levelo_inurba_marseille","lat":43.27686,"lon":5.41858,"is_reserved":false,"is_disabled":true,"rental_uris":{"android":"levelo://app?vid=55708d44-3f0b-49db-b92a-aa39fe6e84ea","ios":"levelo://app?vid=55708d44-3f0b-49db-b92a-aa39fe6e84ea"},"vehicle_type_id":"4","last_reported":1733501549,"current_range_meters":38800,"station_id":"","pricing_plan_id":"cebpf4jnsgd1na2vs0mg"},{"bike_id":"22cf2aea-9d3d-49f7-ac2a-7509b139ab5f","system_id":"levelo_inurba_marseille","lat":43.2953,"lon":5.39043,"is_reserved":false,"is_disabled":false,"rental_uris":{"android":"levelo://app?vid=22cf2aea-9d3d-49f7-ac2a-7509b139ab5f","ios":"levelo://app?vid=22cf2aea-9d3d-49f7-ac2a-7509b139ab5f"},"vehicle_type_id":"4","last_reported":1733501549,"current_range_meters":9600,"station_id":"ce4bh3p2rcd13ifvqdp0","pricing_plan_id":"cebpf4jnsgd1na2vs0mg"},{"bike_id":"5efa639b-8eb4-47aa-b99d-5928fe3809eb","system_id":"levelo_inurba_marseille","lat":43.24546,"lon":5.39541,"is_reserved":false,"is_disabled":false,"rental_uris":{"android":"levelo://app?vid=5efa639b-8eb4-47aa-b99d-5928fe3809eb","ios":"levelo://app?vid=5efa639b-8eb4-47aa-b99d-5928fe3809eb"},"vehicle_type_id":"4","last_reported":1733501549,"current_range_meters":38800,"station_id":"ce4bhlp2rcd13ifvqgjg","pricing_plan_id":"cebpf4jnsgd1na2vs0mg"},{"bike_id":"a109625e-31d0-4e5b-a556-b20a711db647","system_id":"levelo_inurba_marseille","lat":43.26066,"lon":5.39399,"is_reserved":false,"is_disabled":false,"rental_uris":{"android":"levelo://app?vid=a109625e-31d0-4e5b-a556-b20a711db647","ios":"levelo://app?vid=a109625e-31d0-4e5b-a556-b20a711db647"},"vehicle_type_id":"4","last_reported":1733501549,"current_range_meters":36800,"station_id":"ce4bhh92rcd13ifvqfj0","pricing_plan_id":"cebpf4jnsgd1na2vs0mg"},{"bike_id":"3fd59e5e-9f11-4d46-a4f9-1dd209fdd447","system_id":"levelo_inurba_marseille","lat":43.30636,"lon":5.40095,"is_reserved":false,"is_disabled":false,"rental_uris":{"android":"levelo://app?vid=3fd59e5e-9f11-4d46-a4f9-1dd209fdd447","ios":"levelo://app?vid=3fd59e5e-9f11-4d46-a4f9-1dd209fdd447"},"vehicle_type_id":"4","last_reported":1733501549,"current_range_meters":24000,"station_id":"ce4bh112rcd13ifvqda0","pricing_plan_id":"cebpf4jnsgd1na2vs0mg"},{"bike_id":"070a4ab6-b3cb-485e-9b9b-988e874fbc1a","system_id":"levelo_inurba_marseille","lat":43.32485,"lon":5.36565,"is_reserved":false,"is_disabled":false,"rental_uris":{"android":"levelo://app?vid=070a4ab6-b3cb-485e-9b9b-988e874fbc1a","ios":"levelo://app?vid=070a4ab6-b3cb-485e-9b9b-988e874fbc1a"},"vehicle_type_id":"4","last_reported":1733501549,"current_range_meters":36400,"station_id":"ce4bhs12rcd13ifvqhvg","pricing_plan_id":"cebpf4jnsgd1na2vs0mg"},{"bike_id":"d7fd8304-9263-4705-84e6-8552e65103a2","system_id":"levelo_inurba_marseille","lat":43.23955,"lon":5.36632,"is_reserved":false,"is_disabled":false,"rental_uris":{"android":"levelo://app?vid=d7fd8304-9263-4705-84e6-8552e65103a2","ios":"levelo://app?vid=d7fd8304-9263-4705-84e6-8552e65103a2"},"vehicle_type_id":"4","last_reported":1733501549,"current_range_meters":27200,"station_id":"ce4bhi12rcd13ifvqfp0","pricing_plan_id":"cebpf4jnsgd1na2vs0mg"},{"bike_id":"7cefc4a2-f9e9-4f38-8349-c06fec1dcd83","system_id":"levelo_inurba_marseille","lat":43.31325,"lon":5.39699,"is_reserved":false,"is_disabled":false,"rental_uris":{"android":"levelo://app?vid=7cefc4a2-f9e9-4f38-8349-c06fec1dcd83","ios":"levelo://app?vid=7cefc4a2-f9e9-4f38-8349-c06fec1dcd83"},"vehicle_type_id":"4","last_reported":1733501549,"current_range_meters":6400,"station_id":"ce4bgvp2rcd13ifvqcu0","pricing_plan_id":"cebpf4jnsgd1na2vs0mg"},{"bike_id":"cd384d2f-f473-47bd-ae4a-9b7324d12b10","system_id":"levelo_inurba_marseille","lat":43.31061,"lon":5.39726,"is_reserved":false,"is_disabled":false,"rental_uris":{"android":"levelo://app?vid=cd384d2f-f473-47bd-ae4a-9b7324d12b10","ios":"levelo://app?vid=cd384d2f-f473-47bd-ae4a-9b7324d12b10"},"vehicle_type_id":"4","last_reported":1733501549,"current_range_meters":35600,"station_id":"","pricing_plan_id":"cebpf4jnsgd1na2vs0mg"},{"bike_id":"58a0a174-70ea-46a8-8322-142651ed997e","system_id":"levelo_inurba_marseille","lat":43.3054,"lon":5.36533,"is_reserved":false,"is_disabled":false,"rental_uris":{"android":"levelo://app?vid=58a0a174-70ea-46a8-8322-142651ed997e","ios":"levelo://app?vid=58a0a174-70ea-46a8-8322-142651ed997e"},"vehicle_type_id":"4","last_reported":1733501549,"current_range_meters":34800,"station_id":"ce4bgs12rcd13ifvqcag","pricing_plan_id":"cebpf4jnsgd1na2vs0mg"},{"bike_id":"be8cd377-bf58-414c-876c-45495911bc5b","system_id":"levelo_inurba_marseille","lat":43.28709,"lon":5.41074,"is_reserved":false,"is_disabled":true,"rental_uris":{"android":"levelo://app?vid=be8cd377-bf58-414c-876c-45495911bc5b","ios":"levelo://app?vid=be8cd377-bf58-414c-876c-45495911bc5b"},"vehicle_type_id":"4","last_reported":1733501549,"current_range_meters":0,"station_id":"","pricing_plan_id":"cebpf4jnsgd1na2vs0mg"},{"bike_id":"ed412722-dc75-429e-9db7-c2abf262b573","system_id":"levelo_inurba_marseille","lat":43.29265,"lon":5.40913,"is_reserved":false,"is_disabled":false,"rental_uris":{"android":"levelo://app?vid=ed412722-dc75-429e-9db7-c2abf262b573","ios":"levelo://app?vid=ed412722-dc75-429e-9db7-c2abf262b573"},"vehicle_type_id":"4","last_reported":1733501549,"current_range_meters":38800,"station_id":"ce4bh192rcd13ifvqdc0","pricing_plan_id":"cebpf4jnsgd1na2vs0mg"},{"bike_id":"29bbbc31-f533-48f6-8d1e-643590144581","system_id":"levelo_inurba_marseille","lat":43.26192,"lon":5.37448,"is_reserved":false,"is_disabled":false,"rental_uris":{"android":"levelo://app?vid=29bbbc31-f533-48f6-8d1e-643590144581","ios":"levelo://app?vid=29bbbc31-f533-48f6-8d1e-643590144581"},"vehicle_type_id":"4","last_reported":1733501549,"current_range_meters":38800,"station_id":"ce4bhgp2rcd13ifvqfc0","pricing_plan_id":"cebpf4jnsgd1na2vs0mg"},{"bike_id":"65bdb63e-9b21-4023-a1b3-2036e8130a91","system_id":"levelo_inurba_marseille","lat":43.24391,"lon":5.37066,"is_reserved":false,"is_disabled":true,"rental_uris":{"android":"levelo://app?vid=65bdb63e-9b21-4023-a1b3-2036e8130a91","ios":"levelo://app?vid=65bdb63e-9b21-4023-a1b3-2036e8130a91"},"vehicle_type_id":"4","last_reported":1733501549,"current_range_meters":0,"station_id":"ce4bhhh2rcd13ifvqfk0","pricing_plan_id":"cebpf4jnsgd1na2vs0mg"},{"bike_id":"0770995c-964d-42cb-80de-55f4fd5ee79a","system_id":"levelo_inurba_marseille","lat":43.337444,"lon":5.374475,"is_reserved":false,"is_disabled":false,"rental_uris":{"android":"levelo://app?vid=0770995c-964d-42cb-80de-55f4fd5ee79a","ios":"levelo://app?vid=0770995c-964d-42cb-80de-55f4fd5ee79a"},"vehicle_type_id":"4","last_reported":1733501549,"current_range_meters":18000,"station_id":"","pricing_plan_id":"cebpf4jnsgd1na2vs0mg"},{"bike_id":"20e9db8d-d68b-4418-94af-d9d63f8c2b96","system_id":"levelo_inurba_marseille","lat":43.337444,"lon":5.374475,"is_reserved":false,"is_disabled":true,"rental_uris":{"android":"levelo://app?vid=20e9db8d-d68b-4418-94af-d9d63f8c2b96","ios":"levelo://app?vid=20e9db8d-d68b-4418-94af-d9d63f8c2b96"},"vehicle_type_id":"4","last_reported":1733501549,"current_range_meters":0,"station_id":"","pricing_plan_id":"cebpf4jnsgd1na2vs0mg"},{"bike_id":"f2cac181-00ca-4f10-b5d7-0f462450abde","system_id":"levelo_inurba_marseille","lat":43.23971,"lon":5.36619,"is_reserved":false,"is_disabled":false,"rental_uris":{"android":"levelo://app?vid=f2cac181-00ca-4f10-b5d7-0f462450abde","ios":"levelo://app?vid=f2cac181-00ca-4f10-b5d7-0f462450abde"},"vehicle_type_id":"4","last_reported":1733501549,"current_range_meters":29600,"station_id":"ce4bhi12rcd13ifvqfp0","pricing_plan_id":"cebpf4jnsgd1na2vs0mg"},{"bike_id":"0e847549-639a-4fc9-8547-3a4fd1219be4","system_id":"levelo_inurba_marseille","lat":43.26378,"lon":5.40451,"is_reserved":false,"is_disabled":true,"rental_uris":{"android":"levelo://app?vid=0e847549-639a-4fc9-8547-3a4fd1219be4","ios":"levelo://app?vid=0e847549-639a-4fc9-8547-3a4fd1219be4"},"vehicle_type_id":"4","last_reported":1733501549,"current_range_meters":0,"station_id":"","pricing_plan_id":"cebpf4jnsgd1na2vs0mg"},{"bike_id":"ab74d258-8d56-4ed9-9cb7-57ae1639ee73","system_id":"levelo_inurba_marseille","lat":43.26312,"lon":5.40146,"is_reserved":false,"is_disabled":true,"rental_uris":{"android":"levelo://app?vid=ab74d258-8d56-4ed9-9cb7-57ae1639ee73","ios":"levelo://app?vid=ab74d258-8d56-4ed9-9cb7-57ae1639ee73"},"vehicle_type_id":"4","last_reported":1733501549,"current_range_meters":0,"station_id":"","pricing_plan_id":"cebpf4jnsgd1na2vs0mg"},{"bike_id":"0277c2d2-95b6-4983-bfea-df2c7f79aa2f","system_id":"levelo_inurba_marseille","lat":43.26559,"lon":5.39012,"is_reserved":false,"is_disabled":true,"rental_uris":{"android":"levelo://app?vid=0277c2d2-95b6-4983-bfea-df2c7f79aa2f","ios":"levelo://app?vid=0277c2d2-95b6-4983-bfea-df2c7f79aa2f"},"vehicle_type_id":"4","last_reported":1733501549,"current_range_meters":0,"station_id":"ce4bhe12rcd13ifvqf30","pricing_plan_id":"cebpf4jnsgd1na2vs0mg"},{"bike_id":"23943f4d-43e0-42c2-9e39-3b2b957ad13d","system_id":"levelo_inurba_marseille","lat":43.31887,"lon":5.40744,"is_reserved":false,"is_disabled":false,"rental_uris":{"android":"levelo://app?vid=23943f4d-43e0-42c2-9e39-3b2b957ad13d","ios":"levelo://app?vid=23943f4d-43e0-42c2-9e39-3b2b957ad13d"},"vehicle_type_id":"4","last_reported":1733501549,"current_range_meters":30000,"station_id":"ce4bhq12rcd13ifvqhig","pricing_plan_id":"cebpf4jnsgd1na2vs0mg"},{"bike_id":"2191b353-491e-4d04-a2af-366fc6c7d2b6","system_id":"levelo_inurba_marseille","lat":43.30908,"lon":5.37301,"is_reserved":false,"is_disabled":false,"rental_uris":{"android":"levelo://app?vid=2191b353-491e-4d04-a2af-366fc6c7d2b6","ios":"levelo://app?vid=2191b353-491e-4d04-a2af-366fc6c7d2b6"},"vehicle_type_id":"4","last_reported":1733501549,"current_range_meters":8000,"station_id":"","pricing_plan_id":"cebpf4jnsgd1na2vs0mg"},{"bike_id":"57fc5ce0-10be-43cc-a910-4c04e242c5cc","system_id":"levelo_inurba_marseille","lat":43.30537,"lon":5.36545,"is_reserved":false,"is_disabled":false,"rental_uris":{"android":"levelo://app?vid=57fc5ce0-10be-43cc-a910-4c04e242c5cc","ios":"levelo://app?vid=57fc5ce0-10be-43cc-a910-4c04e242c5cc"},"vehicle_type_id":"4","last_reported":1733501549,"current_range_meters":4000,"station_id":"ce4bgs12rcd13ifvqcag","pricing_plan_id":"cebpf4jnsgd1na2vs0mg"},{"bike_id":"21159a8e-1d6b-42f9-b5d3-0abd9189d4de","system_id":"levelo_inurba_marseille","lat":43.27445,"lon":5.39395,"is_reserved":false,"is_disabled":false,"rental_uris":{"android":"levelo://app?vid=21159a8e-1d6b-42f9-b5d3-0abd9189d4de","ios":"levelo://app?vid=21159a8e-1d6b-42f9-b5d3-0abd9189d4de"},"vehicle_type_id":"4","last_reported":1733501549,"current_range_meters":17600,"station_id":"ce4bhdp2rcd13ifvqf20","pricing_plan_id":"cebpf4jnsgd1na2vs0mg"},{"bike_id":"f6f6210d-5e07-46dd-93e4-3e102dd7cb0e","system_id":"levelo_inurba_marseille","lat":43.293878,"lon":5.388964,"is_reserved":false,"is_disabled":true,"rental_uris":{"android":"levelo://app?vid=f6f6210d-5e07-46dd-93e4-3e102dd7cb0e","ios":"levelo://app?vid=f6f6210d-5e07-46dd-93e4-3e102dd7cb0e"},"vehicle_type_id":"4","last_reported":1733501549,"current_range_meters":400,"station_id":"","pricing_plan_id":"cebpf4jnsgd1na2vs0mg"},{"bike_id":"0ffddc5c-3db2-4fcf-a433-be82d38bca0d","system_id":"levelo_inurba_marseille","lat":43.22932,"lon":5.35377,"is_reserved":false,"is_disabled":false,"rental_uris":{"android":"levelo://app?vid=0ffddc5c-3db2-4fcf-a433-be82d38bca0d","ios":"levelo://app?vid=0ffddc5c-3db2-4fcf-a433-be82d38bca0d"},"vehicle_type_id":"4","last_reported":1733501549,"current_range_meters":24000,"station_id":"cpo3532slgdg3j2ikp40","pricing_plan_id":"cebpf4jnsgd1na2vs0mg"},{"bike_id":"2503b094-c9d4-4984-9c7c-ac52a05d0ac5","system_id":"levelo_inurba_marseille","lat":43.31707,"lon":5.37755,"is_reserved":false,"is_disabled":false,"rental_uris":{"android":"levelo://app?vid=2503b094-c9d4-4984-9c7c-ac52a05d0ac5","ios":"levelo://app?vid=2503b094-c9d4-4984-9c7c-ac52a05d0ac5"},"vehicle_type_id":"4","last_reported":1733501549,"current_range_meters":38800,"station_id":"ce4bgth2rcd13ifvqch0","pricing_plan_id":"cebpf4jnsgd1na2vs0mg"},{"bike_id":"e552d834-8f89-4c4a-808b-d33094317c52","system_id":"levelo_inurba_marseille","lat":43.31227,"lon":5.36885,"is_reserved":false,"is_disabled":false,"rental_uris":{"android":"levelo://app?vid=e552d834-8f89-4c4a-808b-d33094317c52","ios":"levelo://app?vid=e552d834-8f89-4c4a-808b-d33094317c52"},"vehicle_type_id":"4","last_reported":1733501549,"current_range_meters":38000,"station_id":"ce4bgl92rcd13ifvqbq0","pricing_plan_id":"cebpf4jnsgd1na2vs0mg"},{"bike_id":"a09e97e4-faf0-4792-9899-754428760639","system_id":"levelo_inurba_marseille","lat":43.30575,"lon":5.36539,"is_reserved":false,"is_disabled":false,"rental_uris":{"android":"levelo://app?vid=a09e97e4-faf0-4792-9899-754428760639","ios":"levelo://app?vid=a09e97e4-faf0-4792-9899-754428760639"},"vehicle_type_id":"4","last_reported":1733501549,"current_range_meters":30000,"station_id":"ce4bgs12rcd13ifvqcag","pricing_plan_id":"cebpf4jnsgd1na2vs0mg"},{"bike_id":"8c004c3a-745c-4e1e-863a-c33b6fb50be5","system_id":"levelo_inurba_marseille","lat":43.29785,"lon":5.39345,"is_reserved":false,"is_disabled":false,"rental_uris":{"android":"levelo://app?vid=8c004c3a-745c-4e1e-863a-c33b6fb50be5","ios":"levelo://app?vid=8c004c3a-745c-4e1e-863a-c33b6fb50be5"},"vehicle_type_id":"4","last_reported":1733501549,"current_range_meters":38800,"station_id":"chh1huq6cuj3fo74tm60","pricing_plan_id":"cebpf4jnsgd1na2vs0mg"},{"bike_id":"e83827fe-28e2-4e70-98d3-9cfee0b88bcc","system_id":"levelo_inurba_marseille","lat":43.30677,"lon":5.37549,"is_reserved":false,"is_disabled":false,"rental_uris":{"android":"levelo://app?vid=e83827fe-28e2-4e70-98d3-9cfee0b88bcc","ios":"levelo://app?vid=e83827fe-28e2-4e70-98d3-9cfee0b88bcc"},"vehicle_type_id":"4","last_reported":1733501549,"current_range_meters":37600,"station_id":"ce4bgv92rcd13ifvqcq0","pricing_plan_id":"cebpf4jnsgd1na2vs0mg"},{"bike_id":"91c7a817-bb27-4029-8cd1-1495d95c15fb","system_id":"levelo_inurba_marseille","lat":43.24547,"lon":5.39524,"is_reserved":false,"is_disabled":false,"rental_uris":{"android":"levelo://app?vid=91c7a817-bb27-4029-8cd1-1495d95c15fb","ios":"levelo://app?vid=91c7a817-bb27-4029-8cd1-1495d95c15fb"},"vehicle_type_id":"4","last_reported":1733501549,"current_range_meters":34800,"station_id":"ce4bhlp2rcd13ifvqgjg","pricing_plan_id":"cebpf4jnsgd1na2vs0mg"},