{"last_updated":1743516584,"ttl":60,"version":"2.2","data":{"bikes":[{"bike_id":"10fe737d-f3e0-4abe-a473-0af7bcb01e2d","system_id":"levelo_inurba_marseille","lat":43.229347,"lon":5.353783,"is_reserved":false,"is_disabled":false,"rental_uris":{"android":"levelo://app?vid=10fe737d-f3e0-4abe-a473-0af7bcb01e2d","ios":"levelo://app?vid=10fe737d-f3e0-4abe-a473-0af7bcb01e2d"},"vehicle_type_id":"4","last_reported":1743516584,"current_range_meters":2800,"station_id":"cpo3532slgdg3j2ikp40","pricing_plan_id":"cebpf4jnsgd1na2vs0mg"},{"bike_id":"f04ec9b7-f9a4-4060-9d74-c5841dc71fb3","system_id":"levelo_inurba_marseille","lat":43.26491,"lon":5.39584,"is_reserved":false,"is_disabled":false,"rental_uris":{"android":"levelo://app?vid=f04ec9b7-f9a4-4060-9d74-c5841dc71fb3","ios":"levelo://app?vid=f04ec9b7-f9a4-4060-9d74-c5841dc71fb3"},"vehicle_type_id":"4","last_reported":1743516584,"current_range_meters":2800,"station_id":"ce4bhi12rcd13ifvqfq0","pricing_plan_id":"cebpf4jnsgd1na2vs0mg"},{"bike_id":"d9b58f45-6646-4cc9-9afd-42df4b736a3d","system_id":"levelo_inurba_marseille","lat":43.28465,"lon":5.35885,"is_reserved":false,"is_disabled":false,"rental_uris":{"android":"levelo://app?vid=d9b58f45-6646-4cc9-9afd-42df4b736a3d","ios":"levelo://app?vid=d9b58f45-6646-4cc9-9afd-42df4b736a3d"},"vehicle_type_id":"4","last_reported":1743516584,"current_range_meters":2800,"station_id":"ce4bhah2rcd13ifvqei0","pricing_plan_id":"cebpf4jnsgd1na2vs0mg"},{"bike_id":"82802138-a268-4fee-bd89-d518e61ed738","system_id":"levelo_inurba_marseille","lat":43.26569,"lon":5.390324,"is_reserved":false,"is_disabled":false,"rental_uris":{"android":"levelo://app?vid=82802138-a268-4fee-bd89-d518e61ed738","ios":"levelo://app?vid=82802138-a268-4fee-bd89-d518e61ed738"},"vehicle_type_id":"4","last_reported":1743516584,"current_range_meters":3200,"station_id":"ce4bhe12rcd13ifvqf30","pricing_plan_id":"cebpf4jnsgd1na2vs0mg"},{"bike_id":"2e34ae38-c726-4d1d-a118-d4a61bbfd978","system_id":"levelo_inurba_marseille","lat":43.25743,"lon":5.39967,"is_reserved":false,"is_disabled":false,"rental_uris":{"android":"levelo://app?vid=2e34ae38-c726-4d1d-a118-d4a61bbfd978","ios":"levelo://app?vid=2e34ae38-c726-4d1d-a118-d4a61bbfd978"},"vehicle_type_id":"4","last_reported":1743516584,"current_range_meters":3200,"station_id":"ce4bhlh2rcd13ifvqgig","pricing_plan_id":"cebpf4jnsgd1na2vs0mg"},{"bike_id":"a5631acb-2fad-46db-9981-6ac310ef16c4","system_id":"levelo_inurba_marseille","lat":43.29035,"lon":5.39966,"is_reserved":false,"is_disabled":false,"rental_uris":{"android":"levelo://app?vid=a5631acb-2fad-46db-9981-6ac310ef16c4","ios":"levelo://app?vid=a5631acb-2fad-46db-9981-6ac310ef16c4"},"vehicle_type_id":"4","last_reported":1743516584,"current_range_meters":3200,"station_id":"ce4bh392rcd13ifvqdm0","pricing_plan_id":"cebpf4jnsgd1na2vs0mg"},{"bike_id":"1b46db70-e39c-4ab1-ba90-b97fb73c7c13","system_id":"levelo_inurba_marseille","lat":43.27372,"lon":5.36257,"is_reserved":false,"is_disabled":false,"rental_uris":{"android":"levelo://app?vid=1b46db70-e39c-4ab1-ba90-b97fb73c7c13","ios":"levelo://app?vid=1b46db70-e39c-4ab1-ba90-b97fb73c7c13"},"vehicle_type_id":"4","last_reported":1743516584,"current_range_meters":3200,"station_id":"ce4bhbh2rcd13ifvqeo0","pricing_plan_id":"cebpf4jnsgd1na2vs0mg"},{"bike_id":"43ecd409-2b28-499b-a08b-482d9d9c7c33","system_id":"levelo_inurba_marseille","lat":43.22931,"lon":5.35375,"is_reserved":false,"is_disabled":false,"rental_uris":{"android":"levelo://app?vid=43ecd409-2b28-499b-a08b-482d9d9c7c33","ios":"levelo://app?vid=43ecd409-2b28-499b-a08b-482d9d9c7c33"},"vehicle_type_id":"4","last_reported":1743516584,"current_range_meters":3200,"station_id":"cpo3532slgdg3j2ikp40","pricing_plan_id":"cebpf4jnsgd1na2vs0mg"},{"bike_id":"844ee07a-5212-48f0-8f51-8ee7bc4bd706","system_id":"levelo_inurba_marseille","lat":43.28035,"lon":5.36945,"is_reserved":false,"is_disabled":false,"rental_uris":{"android":"levelo://app?vid=844ee07a-5212-48f0-8f51-8ee7bc4bd706","ios":"levelo://app?vid=844ee07a-5212-48f0-8f51-8ee7bc4bd706"},"vehicle_type_id":"4","last_reported":1743516584,"current_range_meters":3200,"station_id":"ce4bha12rcd13ifvqef0","pricing_plan_id":"cebpf4jnsgd1na2vs0mg"},{"bike_id":"b59dd26a-1e25-4bc6-82f1-1c301105ede5","system_id":"levelo_inurba_marseille","lat":43.29633,"lon":5.40596,"is_reserved":false,"is_disabled":false,"rental_uris":{"android":"levelo://app?vid=b59dd26a-1e25-4bc6-82f1-1c301105ede5","ios":"levelo://app?vid=b59dd26a-1e25-4bc6-82f1-1c301105ede5"},"vehicle_type_id":"4","last_reported":1743516584,"current_range_meters":3200,"station_id":"ce4bh0h2rcd13ifvqd60","pricing_plan_id":"cebpf4jnsgd1na2vs0mg"},{"bike_id":"11dfcecc-6d4d-4389-a0aa-1bf4621cbdf9","system_id":"levelo_inurba_marseille","lat":43.29964,"lon":5.38503,"is_reserved":false,"is_disabled":false,"rental_uris":{"android":"levelo://app?vid=11dfcecc-6d4d-4389-a0aa-1bf4621cbdf9","ios":"levelo://app?vid=11dfcecc-6d4d-4389-a0aa-1bf4621cbdf9"},"vehicle_type_id":"4","last_reported":1743516584,"current_range_meters":3200,"station_id":"ce4bgj92rcd13ifvqbd0","pricing_plan_id":"cebpf4jnsgd1na2vs0mg"},{"bike_id":"c69f0a25-945e-49db-8775-5f78739f8376","system_id":"levelo_inurba_marseille","lat":43.255827,"lon":5.382292,"is_reserved":false,"is_disabled":false,"rental_uris":{"android":"levelo://app?vid=c69f0a25-945e-49db-8775-5f78739f8376","ios":"levelo://app?vid=c69f0a25-945e-49db-8775-5f78739f8376"},"vehicle_type_id":"4","last_reported":1743516584,"current_range_meters":3200,"station_id":"ce4bhih2rcd13ifvqfs0","pricing_plan_id":"cebpf4jnsgd1na2vs0mg"},{"bike_id":"b3ef0551-ca5b-41a2-8109-602275f6e370","system_id":"levelo_inurba_marseille","lat":43.28436,"lon":5.37521,"is_reserved":false,"is_disabled":false,"rental_uris":{"android":"levelo://app?vid=b3ef0551-ca5b-41a2-8109-602275f6e370","ios":"levelo://app?vid=b3ef0551-ca5b-41a2-8109-602275f6e370"},"vehicle_type_id":"4","last_reported":1743516584,"current_range_meters":3200,"station_id":"ce4bh412rcd13ifvqds0","pricing_plan_id":"cebpf4jnsgd1na2vs0mg"},{"bike_id":"4644cefd-c3fa-441e-9df3-f30d29e70c6a","system_id":"levelo_inurba_marseille","lat":43.30147,"lon":5.37403,"is_reserved":false,"is_disabled":false,"rental_uris":{"android":"levelo://app?vid=4644cefd-c3fa-441e-9df3-f30d29e70c6a","ios":"levelo://app?vid=4644cefd-c3fa-441e-9df3-f30d29e70c6a"},"vehicle_type_id":"4","last_reported":1743516584,"current_range_meters":3200,"station_id":"ce4bgs92rcd13ifvqcc0","pricing_plan_id":"cebpf4jnsgd1na2vs0mg"},{"bike_id":"330b5351-6d84-4604-bcc1-e04d25148677","system_id":"levelo_inurba_marseille","lat":43.296172,"lon":5.365177,"is_reserved":false,"is_disabled":false,"rental_uris":{"android":"levelo://app?vid=330b5351-6d84-4604-bcc1-e04d25148677","ios":"levelo://app?vid=330b5351-6d84-4604-bcc1-e04d25148677"},"vehicle_type_id":"4","last_reported":1743516584,"current_range_meters":3200,"station_id":"","pricing_plan_id":"cebpf4jnsgd1na2vs0mg"},{"bike_id":"2bf31f9f-c5c0-434c-ab3b-b017d7dc966d","system_id":"levelo_inurba_marseille","lat":43.23056,"lon":5.35497,"is_reserved":false,"is_disabled":false,"rental_uris":{"android":"levelo://app?vid=2bf31f9f-c5c0-434c-ab3b-b017d7dc966d","ios":"levelo://app?vid=2bf31f9f-c5c0-434c-ab3b-b017d7dc966d"},"vehicle_type_id":"4","last_reported":1743516584,"current_range_meters":3600,"station_id":"cpo3342slgdg3j2ifvpg","pricing_plan_id":"cebpf4jnsgd1na2vs0mg"},{"bike_id":"d47ca5ac-a3e2-4cd1-82a3-e960af7da6da","system_id":"levelo_inurba_marseille","lat":43.272143,"lon":5.391699,"is_reserved":false,"is_disabled":false,"rental_uris":{"android":"levelo://app?vid=d47ca5ac-a3e2-4cd1-82a3-e960af7da6da","ios":"levelo://app?vid=d47ca5ac-a3e2-4cd1-82a3-e960af7da6da"},"vehicle_type_id":"4","last_reported":1743516584,"current_range_meters":3600,"station_id":"ce4bhh12rcd13ifvqff0","pricing_plan_id":"cebpf4jnsgd1na2vs0mg"},{"bike_id":"3de64772-5566-4b84-a6bc-2a4c5d7cdee9","system_id":"levelo_inurba_marseille","lat":43.27674,"lon":5.38875,"is_reserved":false,"is_disabled":false,"rental_uris":{"android":"levelo://app?vid=3de64772-5566-4b84-a6bc-2a4c5d7cdee9","ios":"levelo://app?vid=3de64772-5566-4b84-a6bc-2a4c5d7cdee9"},"vehicle_type_id":"4","last_reported":1743516584,"current_range_meters":3600,"station_id":"ce4bhi12rcd13ifvqfo0","pricing_plan_id":"cebpf4jnsgd1na2vs0mg"},{"bike_id":"9ac68c74-fe2a-4893-a930-20845c70a53d","system_id":"levelo_inurba_marseille","lat":43.2942,"lon":5.38615,"is_reserved":false,"is_disabled":false,"rental_uris":{"android":"levelo://app?vid=9ac68c74-fe2a-4893-a930-20845c70a53d","ios":"levelo://app?vid=9ac68c74-fe2a-4893-a930-20845c70a53d"},"vehicle_type_id":"4","last_reported":1743516584,"current_range_meters":400,"station_id":"ce4bh2h2rcd13ifvqdh0","pricing_plan_id":"cebpf4jnsgd1na2vs0mg"},{"bike_id":"ea26cff1-876d-4050-af3f-349fed32531f","system_id":"levelo_inurba_marseille","lat":43.23152,"lon":5.43714,"is_reserved":false,"is_disabled":false,"rental_uris":{"android":"levelo://app?vid=ea26cff1-876d-4050-af3f-349fed32531f","ios":"levelo://app?vid=ea26cff1-876d-4050-af3f-349fed32531f"},"vehicle_type_id":"4","last_reported":1743516584,"current_range_meters":4000,"station_id":"ce4bhmp2rcd13ifvqgog","pricing_plan_id":"cebpf4jnsgd1na2vs0mg"},{"bike_id":"dd2597f4-45c1-4124-9abe-507b28ca78c4","system_id":"levelo_inurba_marseille","lat":43.28711,"lon":5.37936,"is_reserved":false,"is_disabled":false,"rental_uris":{"android":"levelo://app?vid=dd2597f4-45c1-4124-9abe-507b28ca78c4","ios":"levelo://app?vid=dd2597f4-45c1-4124-9abe-507b28ca78c4"},"vehicle_type_id":"4","last_reported":1743516584,"current_range_meters":4400,"station_id":"ce4bh9p2rcd13ifvqec0","pricing_plan_id":"cebpf4jnsgd1na2vs0mg"},{"bike_id":"6d51de0c-eca3-4f55-b378-b6714f0950cd","system_id":"levelo_inurba_marseille","lat":43.29802,"lon":5.40401,"is_reserved":false,"is_disabled":false,"rental_uris":{"android":"levelo://app?vid=6d51de0c-eca3-4f55-b378-b6714f0950cd","ios":"levelo://app?vid=6d51de0c-eca3-4f55-b378-b6714f0950cd"},"vehicle_type_id":"4","last_reported":1743516584,"current_range_meters":4400,"station_id":"ce4bh112rcd13ifvqd90","pricing_plan_id":"cebpf4jnsgd1na2vs0mg"},{"bike_id":"47b43033-a952-479b-b484-efd5be25d669","system_id":"levelo_inurba_marseille","lat":43.30086,"lon":5.39088,"is_reserved":false,"is_disabled":false,"rental_uris":{"android":"levelo://app?vid=47b43033-a952-479b-b484-efd5be25d669","ios":"levelo://app?vid=47b43033-a952-479b-b484-efd5be25d669"},"vehicle_type_id":"4","last_reported":1743516584,"current_range_meters":4400,"station_id":"ce4bh192rcd13ifvqdb0","pricing_plan_id":"cebpf4jnsgd1na2vs0mg"},{"bike_id":"672c16eb-39d7-4469-aff9-c110e8ba7c8e","system_id":"levelo_inurba_marseille","lat":43.312251,"lon":5.36869,"is_reserved":false,"is_disabled":false,"rental_uris":{"android":"levelo://app?vid=672c16eb-39d7-4469-aff9-c110e8ba7c8e","ios":"levelo://app?vid=672c16eb-39d7-4469-aff9-c110e8ba7c8e"},"vehicle_type_id":"4","last_reported":1743516584,"current_range_meters":4400,"station_id":"ce4bgl92rcd13ifvqbq0","pricing_plan_id":"cebpf4jnsgd1na2vs0mg"},{"bike_id":"4bab05bf-4523-4cd7-ab4a-98493acd864e","system_id":"levelo_inurba_marseille","lat":43.30305,"lon":5.39226,"is_reserved":false,"is_disabled":false,"rental_uris":{"android":"levelo://app?vid=4bab05bf-4523-4cd7-ab4a-98493acd864e","ios":"levelo://app?vid=4bab05bf-4523-4cd7-ab4a-98493acd864e"},"vehicle_type_id":"4","last_reported":1743516584,"current_range_meters":4800,"station_id":"ce4bgkh2rcd13ifvqbk0","pricing_plan_id":"cebpf4jnsgd1na2vs0mg"},{"bike_id":"af3cfe8c-ba88-488e-950b-915dc1379ac0","system_id":"levelo_inurba_marseille","lat":43.27376,"lon":5.36258,"is_reserved":false,"is_disabled":false,"rental_uris":{"android":"levelo://app?vid=af3cfe8c-ba88-488e-950b-915dc1379ac0","ios":"levelo://app?vid=af3cfe8c-ba88-488e-950b-915dc1379ac0"},"vehicle_type_id":"4","last_reported":1743516584,"current_range_meters":4800,"station_id":"ce4bhbh2rcd13ifvqeo0","pricing_plan_id":"cebpf4jnsgd1na2vs0mg"},{"bike_id":"41ff5b0f-ec87-4fbf-9715-08f8fa07a1ad","system_id":"levelo_inurba_marseille","lat":43.27612,"lon":5.36116,"is_reserved":false,"is_disabled":false,"rental_uris":{"android":"levelo://app?vid=41ff5b0f-ec87-4fbf-9715-08f8fa07a1ad","ios":"levelo://app?vid=41ff5b0f-ec87-4fbf-9715-08f8fa07a1ad"},"vehicle_type_id":"4","last_reported":1743516584,"current_range_meters":4800,"station_id":"ce4bgj92rcd13ifvqbe0","pricing_plan_id":"cebpf4jnsgd1na2vs0mg"},{"bike_id":"5d06d544-ae1c-4dfa-b63d-5f4340fa2e83","system_id":"levelo_inurba_marseille","lat":43.27927,"lon":5.39598,"is_reserved":false,"is_disabled":false,"rental_uris":{"android":"levelo://app?vid=5d06d544-ae1c-4dfa-b63d-5f4340fa2e83","ios":"levelo://app?vid=5d06d544-ae1c-4dfa-b63d-5f4340fa2e83"},"vehicle_type_id":"4","last_reported":1743516584,"current_range_meters":4800,"station_id":"ce4bhf92rcd13ifvqf40","pricing_plan_id":"cebpf4jnsgd1na2vs0mg"},{"bike_id":"9b286029-f14c-4c4d-b985-5140434c4c17","system_id":"levelo_inurba_marseille","lat":43.25725,"lon":5.41114,"is_reserved":false,"is_disabled":false,"rental_uris":{"android":"levelo://app?vid=9b286029-f14c-4c4d-b985-5140434c4c17","ios":"levelo://app?vid=9b286029-f14c-4c4d-b985-5140434c4c17"},"vehicle_type_id":"4","last_reported":1743516584,"current_range_meters":8000,"station_id":"ce4bhkp2rcd13ifvqgd0","pricing_plan_id":"cebpf4jnsgd1na2vs0mg"},{"bike_id":"8523e0a0-8798-4da4-8251-2e67d0327e9c","system_id":"levelo_inurba_marseille","lat":43.26065,"lon":5.39408,"is_reserved":false,"is_disabled":false,"rental_uris":{"android":"levelo://app?vid=8523e0a0-8798-4da4-8251-2e67d0327e9c","ios":"levelo://app?vid=8523e0a0-8798-4da4-8251-2e67d0327e9c"},"vehicle_type_id":"4","last_reported":1743516584,"current_range_meters":5600,"station_id":"ce4bhh92rcd13ifvqfj0","pricing_plan_id":"cebpf4jnsgd1na2vs0mg"},{"bike_id":"f50dd1be-9ee4-480d-920f-0721f0997798","system_id":"levelo_inurba_marseille","lat":43.23216,"lon":5.3996,"is_reserved":false,"is_disabled":false,"rental_uris":{"android":"levelo://app?vid=f50dd1be-9ee4-480d-920f-0721f0997798","ios":"levelo://app?vid=f50dd1be-9ee4-480d-920f-0721f0997798"},"vehicle_type_id":"4","last_reported":1743516584,"current_range_meters":5600,"station_id":"","pricing_plan_id":"cebpf4jnsgd1na2vs0mg"},{"bike_id":"627317a6-7c8e-4b84-9108-64b8834011ec","system_id":"levelo_inurba_marseille","lat":43.23159,"lon":5.43705,"is_reserved":false,"is_disabled":false,"rental_uris":{"android":"levelo://app?vid=627317a6-7c8e-4b84-9108-64b8834011ec","ios":"levelo://app?vid=627317a6-7c8e-4b84-9108-64b8834011ec"},"vehicle_type_id":"4","last_reported":1743516584,"current_range_meters":5600,"station_id":"ce4bhmp2rcd13ifvqgog","pricing_plan_id":"cebpf4jnsgd1na2vs0mg"},{"bike_id":"99341cbd-16ea-460c-b54d-19adebf85173","system_id":"levelo_inurba_marseille","lat":43.27188,"lon":5.36258,"is_reserved":false,"is_disabled":false,"rental_uris":{"android":"levelo://app?vid=99341cbd-16ea-460c-b54d-19adebf85173","ios":"levelo://app?vid=99341cbd-16ea-460c-b54d-19adebf85173"},"vehicle_type_id":"4","last_reported":1743516584,"current_range_meters":6000,"station_id":"","pricing_plan_id":"cebpf4jnsgd1na2vs0mg"},{"bike_id":"3b4be68f-11c0-4bdb-a616-aca23ad8fd5c","system_id":"levelo_inurba_marseille","lat":43.29082,"lon":5.3717,"is_reserved":false,"is_disabled":false,"rental_uris":{"android":"levelo://app?vid=3b4be68f-11c0-4bdb-a616-aca23ad8fd5c","ios":"levelo://app?vid=3b4be68f-11c0-4bdb-a616-aca23ad8fd5c"},"vehicle_type_id":"4","last_reported":1743516584,"current_range_meters":6000,"station_id":"ce4bh5p2rcd13ifvqe4g","pricing_plan_id":"cebpf4jnsgd1na2vs0mg"},{"bike_id":"170680b9-0f36-4764-a2b3-3eaf28459ef0","system_id":"levelo_inurba_marseille","lat":43.29005,"lon":5.35615,"is_reserved":false,"is_disabled":false,"rental_uris":{"android":"levelo://app?vid=170680b9-0f36-4764-a2b3-3eaf28459ef0","ios":"levelo://app?vid=170680b9-0f36-4764-a2b3-3eaf28459ef0"},"vehicle_type_id":"4","last_reported":1743516584,"current_range_meters":6000,"station_id":"ce4bhb92rcd13ifvqen0","pricing_plan_id":"cebpf4jnsgd1na2vs0mg"},{"bike_id":"ac7a7017-c5f3-4a9c-828e-c8d50dd085f8","system_id":"levelo_inurba_marseille","lat":43.230649,"lon":5.354917,"is_reserved":false,"is_disabled":false,"rental_uris":{"android":"levelo://app?vid=ac7a7017-c5f3-4a9c-828e-c8d50dd085f8","ios":"levelo://app?vid=ac7a7017-c5f3-4a9c-828e-c8d50dd085f8"},"vehicle_type_id":"4","last_reported":1743516584,"current_range_meters":6000,"station_id":"cpo3342slgdg3j2ifvpg","pricing_plan_id":"cebpf4jnsgd1na2vs0mg"},{"bike_id":"791f8b6d-c7b8-43a3-af53-554de4edbd8b","system_id":"levelo_inurba_marseille","lat":43.27015,"lon":5.40293,"is_reserved":false,"is_disabled":false,"rental_uris":{"android":"levelo://app?vid=791f8b6d-c7b8-43a3-af53-554de4edbd8b","ios":"levelo://app?vid=791f8b6d-c7b8-43a3-af53-554de4edbd8b"},"vehicle_type_id":"4","last_reported":1743516584,"current_range_meters":6400,"station_id":"","pricing_plan_id":"cebpf4jnsgd1na2vs0mg"},{"bike_id":"121010d1-d0ea-475b-97a6-f9054736109c","system_id":"levelo_inurba_marseille","lat":43.23199,"lon":5.39967,"is_reserved":false,"is_disabled":false,"rental_uris":{"android":"levelo://app?vid=121010d1-d0ea-475b-97a6-f9054736109c","ios":"levelo://app?vid=121010d1-d0ea-475b-97a6-f9054736109c"},"vehicle_type_id":"4","last_reported":1743516584,"current_range_meters":6400,"station_id":"ce4bhn12rcd13ifvqgqg","pricing_plan_id":"cebpf4jnsgd1na2vs0mg"},{"bike_id":"0c40db3f-32b6-4ea9-9b45-f4c085819df2","system_id":"levelo_inurba_marseille","lat":43.28334,"lon":5.3888,"is_reserved":false,"is_disabled":false,"rental_uris":{"android":"levelo://app?vid=0c40db3f-32b6-4ea9-9b45-f4c085819df2","ios":"levelo://app?vid=0c40db3f-32b6-4ea9-9b45-f4c085819df2"},"vehicle_type_id":"4","last_reported":1743516584,"current_range_meters":6400,"station_id":"","pricing_plan_id":"cebpf4jnsgd1na2vs0mg"},{"bike_id":"393dd19e-f310-4433-a4ca-ee71c98ef03a","system_id":"levelo_inurba_marseille","lat":43.25597,"lon":5.3824,"is_reserved":false,"is_disabled":false,"rental_uris":{"android":"levelo://app?vid=393dd19e-f310-4433-a4ca-ee71c98ef03a","ios":"levelo://app?vid=393dd19e-f310-4433-a4ca-ee71c98ef03a"},"vehicle_type_id":"4","last_reported":1743516584,"current_range_meters":6400,"station_id":"ce4bhih2rcd13ifvqfs0","pricing_plan_id":"cebpf4jnsgd1na2vs0mg"},{"bike_id":"7436ac52-c75b-4673-adea-3d64503cb4e7","system_id":"levelo_inurba_marseille","lat":43.251194,"lon":5.403317,"is_reserved":false,"is_disabled":false,"rental_uris":{"android":"levelo://app?vid=7436ac52-c75b-4673-adea-3d64503cb4e7","ios":"levelo://app?vid=7436ac52-c75b-4673-adea-3d64503cb4e7"},"vehicle_type_id":"4","last_reported":1743516584,"current_range_meters":6400,"station_id":"ce4bhlh2rcd13ifvqgig","pricing_plan_id":"cebpf4jnsgd1na2vs0mg"},{"bike_id":"4f6db61e-8293-4a0d-bb9c-f9aae02e4996","system_id":"levelo_inurba_marseille","lat":43.25083,"lon":5.39504,"is_reserved":false,"is_disabled":false,"rental_uris":{"android":"levelo://app?vid=4f6db61e-8293-4a0d-bb9c-f9aae02e4996","ios":"levelo://app?vid=4f6db61e-8293-4a0d-bb9c-f9aae02e4996"},"vehicle_type_id":"4","last_reported":1743516584,"current_range_meters":6400,"station_id":"ce4bhm12rcd13ifvqgkg","pricing_plan_id":"cebpf4jnsgd1na2vs0mg"},{"bike_id":"f82db977-53bf-4bc0-bcf9-eae2407f8dc8","system_id":"levelo_inurba_marseille","lat":43.30243,"lon":5.40052,"is_reserved":false,"is_disabled":false,"rental_uris":{"android":"levelo://app?vid=f82db977-53bf-4bc0-bcf9-eae2407f8dc8","ios":"levelo://app?vid=f82db977-53bf-4bc0-bcf9-eae2407f8dc8"},"vehicle_type_id":"4","last_reported":1743516584,"current_range_meters":6400,"station_id":"ce4bgvh2rcd13ifvqcs0","pricing_plan_id":"cebpf4jnsgd1na2vs0mg"},{"bike_id":"90ac4de5-b91e-4b18-89ee-8f9fe75284e5","system_id":"levelo_inurba_marseille","lat":43.2917,"lon":5.37161,"is_reserved":false,"is_disabled":false,"rental_uris":{"android":"levelo://app?vid=90ac4de5-b91e-4b18-89ee-8f9fe75284e5","ios":"levelo://app?vid=90ac4de5-b91e-4b18-89ee-8f9fe75284e5"},"vehicle_type_id":"4","last_reported":1743516584,"current_range_meters":6400,"station_id":"ce4bha92rcd13ifvqeh0","pricing_plan_id":"cebpf4jnsgd1na2vs0mg"},{"bike_id":"0dc1fce0-04ea-48e8-933e-6e04b9ce367a","system_id":"levelo_inurba_marseille","lat":43.30921,"lon":5.38148,"is_reserved":false,"is_disabled":false,"rental_uris":{"android":"levelo://app?vid=0dc1fce0-04ea-48e8-933e-6e04b9ce367a","ios":"levelo://app?vid=0dc1fce0-04ea-48e8-933e-6e04b9ce367a"},"vehicle_type_id":"4","last_reported":1743516584,"current_range_meters":6400,"station_id":"","pricing_plan_id":"cebpf4jnsgd1na2vs0mg"},{"bike_id":"7ac3ba55-7452-4043-b806-d1f2f53d0a82","system_id":"levelo_inurba_marseille","lat":43.34148,"lon":5.40897,"is_reserved":false,"is_disabled":false,"rental_uris":{"android":"levelo://app?vid=7ac3ba55-7452-4043-b806-d1f2f53d0a82","ios":"levelo://app?vid=7ac3ba55-7452-4043-b806-d1f2f53d0a82"},"vehicle_type_id":"4","last_reported":1743516584,"current_range_meters":6800,"station_id":"ce4bhqh2rcd13ifvqhlg","pricing_plan_id":"cebpf4jnsgd1na2vs0mg"},{"bike_id":"9a8d9987-a8ad-412d-8f4d-a69badaf8bdd","system_id":"levelo_inurba_marseille","lat":43.30555,"lon":5.36549,"is_reserved":false,"is_disabled":false,"rental_uris":{"android":"levelo://app?vid=9a8d9987-a8ad-412d-8f4d-a69badaf8bdd","ios":"levelo://app?vid=9a8d9987-a8ad-412d-8f4d-a69badaf8bdd"},"vehicle_type_id":"4","last_reported":1743516584,"current_range_meters":6800,"station_id":"ce4bgs12rcd13ifvqcag","pricing_plan_id":"cebpf4jnsgd1na2vs0mg"},{"bike_id":"73af87fd-fbda-4378-9b6f-f1555ce1492b","system_id":"levelo_inurba_marseille","lat":43.3013,"lon":5.37424,"is_reserved":false,"is_disabled":false,"rental_uris":{"android":"levelo://app?vid=73af87fd-fbda-4378-9b6f-f1555ce1492b","ios":"levelo://app?vid=73af87fd-fbda-4378-9b6f-f1555ce1492b"},"vehicle_type_id":"4","last_reported":1743516584,"current_range_meters":6800,"station_id":"ce4bgs92rcd13ifvqcc0","pricing_plan_id":"cebpf4jnsgd1na2vs0mg"},{"bike_id":"2e8d8654-23f7-434b-a09e-ae1e8d2abb71","system_id":"levelo_inurba_marseille","lat":43.25087,"lon":5.39526,"is_reserved":false,"is_disabled":false,"rental_uris":{"android":"levelo://app?vid=2e8d8654-23f7-434b-a09e-ae1e8d2abb71","ios":"levelo://app?vid=2e8d8654-23f7-434b-a09e-ae1e8d2abb71"},"vehicle_type_id":"4","last_reported":1743516584,"current_range_meters":6800,"station_id":"ce4bhm12rcd13ifvqgkg","pricing_plan_id":"cebpf4jnsgd1na2vs0mg"},{"bike_id":"fe5bff63-32fa-4389-adfd-9259e51f52ac","system_id":"levelo_inurba_marseille","lat":43.265598,"lon":5.390061,"is_reserved":false,"is_disabled":false,"rental_uris":{"android":"levelo://app?vid=fe5bff63-32fa-4389-adfd-9259e51f52ac","ios":"levelo://app?vid=fe5bff63-32fa-4389-adfd-9259e51f52ac"},"vehicle_type_id":"4","last_reported":1743516584,"current_range_meters":6800,"station_id":"ce4bhe12rcd13ifvqf30","pricing_plan_id":"cebpf4jnsgd1na2vs0mg"},{"bike_id":"7b0fac7f-9394-4f2b-a36a-8f9096607a53","system_id":"levelo_inurba_marseille","lat":43.29544,"lon":5.42324,"is_reserved":false,"is_disabled":false,"rental_uris":{"android":"levelo://app?vid=7b0fac7f-9394-4f2b-a36a-8f9096607a53","ios":"levelo://app?vid=7b0fac7f-9394-4f2b-a36a-8f9096607a53"},"vehicle_type_id":"4","last_reported":1743516584,"current_range_meters":7200,"station_id":"ce4bhph2rcd13ifvqhdg","pricing_plan_id":"cebpf4jnsgd1na2vs0mg"},{"bike_id":"f0901cb6-cf85-45b4-ae81-7ebcb4bbe265","system_id":"levelo_inurba_marseille","lat":43.29633,"lon":5.40608,"is_reserved":false,"is_disabled":false,"rental_uris":{"android":"levelo://app?vid=f0901cb6-cf85-45b4-ae81-7ebcb4bbe265","ios":"levelo://app?vid=f0901cb6-cf85-45b4-ae81-7ebcb4bbe265"},"vehicle_type_id":"4","last_reported":1743516584,"current_range_meters":7200,"station_id":"ce4bh0h2rcd13ifvqd60","pricing_plan_id":"cebpf4jnsgd1na2vs0mg"},{"bike_id":"23a2997f-acca-44d1-a72c-cccdd94a796c","system_id":"levelo_inurba_marseille","lat":43.30933,"lon":5.40146,"is_reserved":false,"is_disabled":true,"rental_uris":{"android":"levelo://app?vid=23a2997f-acca-44d1-a72c-cccdd94a796c","ios":"levelo://app?vid=23a2997f-acca-44d1-a72c-cccdd94a796c"},"vehicle_type_id":"4","last_reported":1743516584,"current_range_meters":7200,"station_id":"ce4bgvp2rcd13ifvqct0","pricing_plan_id":"cebpf4jnsgd1na2vs0mg"},{"bike_id":"8563eb44-01d9-4815-888d-a853688357b8","system_id":"levelo_inurba_marseille","lat":43.29602,"lon":5.38099,"is_reserved":false,"is_disabled":false,"rental_uris":{"android":"levelo://app?vid=8563eb44-01d9-4815-888d-a853688357b8","ios":"levelo://app?vid=8563eb44-01d9-4815-888d-a853688357b8"},"vehicle_type_id":"4","last_reported":1743516584,"current_range_meters":7200,"station_id":"ce4bgl12rcd13ifvqbo0","pricing_plan_id":"cebpf4jnsgd1na2vs0mg"},{"bike_id":"10f17c69-deb9-4eb0-897a-2941fa40ac57","system_id":"levelo_inurba_marseille","lat":43.295524,"lon":5.42285,"is_reserved":false,"is_disabled":false,"rental_uris":{"android":"levelo://app?vid=10f17c69-deb9-4eb0-897a-2941fa40ac57","ios":"levelo://app?vid=10f17c69-deb9-4eb0-897a-2941fa40ac57"},"vehicle_type_id":"4","last_reported":1743516584,"current_range_meters":7200,"station_id":"ce4bhph2rcd13ifvqhdg","pricing_plan_id":"cebpf4jnsgd1na2vs0mg"},{"bike_id":"2b077733-2833-4ac8-b113-78ce737dcbd9","system_id":"levelo_inurba_marseille","lat":43.28006,"lon":5.40013,"is_reserved":false,"is_disabled":false,"rental_uris":{"android":"levelo://app?vid=2b077733-2833-4ac8-b113-78ce737dcbd9","ios":"levelo://app?vid=2b077733-2833-4ac8-b113-78ce737dcbd9"},"vehicle_type_id":"4","last_reported":1743516584,"current_range_meters":7200,"station_id":"ce4bho92rcd13ifvqh4g","pricing_plan_id":"cebpf4jnsgd1na2vs0mg"},{"bike_id":"9fe82b34-07f1-48c7-89ae-67be96f6509f","system_id":"levelo_inurba_marseille","lat":43.26204,"lon":5.37931,"is_reserved":false,"is_disabled":false,"rental_uris":{"android":"levelo://app?vid=9fe82b34-07f1-48c7-89ae-67be96f6509f","ios":"levelo://app?vid=9fe82b34-07f1-48c7-89ae-67be96f6509f"},"vehicle_type_id":"4","last_reported":1743516584,"current_range_meters":7200,"station_id":"ce4bhjp2rcd13ifvqg90","pricing_plan_id":"cebpf4jnsgd1na2vs0mg"},{"bike_id":"f8b39bb6-655c-447f-b436-d09b3f72971d","system_id":"levelo_inurba_marseille","lat":43.28416,"lon":5.37517,"is_reserved":false,"is_disabled":false,"rental_uris":{"android":"levelo://app?vid=f8b39bb6-655c-447f-b436-d09b3f72971d","ios":"levelo://app?vid=f8b39bb6-655c-447f-b436-d09b3f72971d"},"vehicle_type_id":"4","last_reported":1743516584,"current_range_meters":7200,"station_id":"ce4bh412rcd13ifvqds0","pricing_plan_id":"cebpf4jnsgd1na2vs0mg"},{"bike_id":"8f74907c-2e34-4cfd-90b7-02f45e6b8f00","system_id":"levelo_inurba_marseille","lat":43.27497,"lon":5.42452,"is_reserved":false,"is_disabled":false,"rental_uris":{"android":"levelo://app?vid=8f74907c-2e34-4cfd-90b7-02f45e6b8f00","ios":"levelo://app?vid=8f74907c-2e34-4cfd-90b7-02f45e6b8f00"},"vehicle_type_id":"4","last_reported":1743516584,"current_range_meters":7200,"station_id":"ce4bhn92rcd13ifvqgrg","pricing_plan_id":"cebpf4jnsgd1na2vs0mg"},{"bike_id":"e0c838b6-37f5-4b4f-bb89-487a0ae7ca4a","system_id":"levelo_inurba_marseille","lat":43.30734,"lon":5.4244,"is_reserved":false,"is_disabled":false,"rental_uris":{"android":"levelo://app?vid=e0c838b6-37f5-4b4f-bb89-487a0ae7ca4a","ios":"levelo://app?vid=e0c838b6-37f5-4b4f-bb89-487a0ae7ca4a"},"vehicle_type_id":"4","last_reported":1743516584,"current_range_meters":7200,"station_id":"st_cvj6ca6bvosntc0bfgr0","pricing_plan_id":"cebpf4jnsgd1na2vs0mg"},{"bike_id":"40a66e01-b594-43cc-80a6-bf33d148d0f5","system_id":"levelo_inurba_marseille","lat":43.25121,"lon":5.4032,"is_reserved":false,"is_disabled":false,"rental_uris":{"android":"levelo://app?vid=40a66e01-b594-43cc-80a6-bf33d148d0f5","ios":"levelo://app?vid=40a66e01-b594-43cc-80a6-bf33d148d0f5"},"vehicle_type_id":"4","last_reported":1743516584,"current_range_meters":8000,"station_id":"ce4bhlh2rcd13ifvqgig","pricing_plan_id":"cebpf4jnsgd1na2vs0mg"},{"bike_id":"129d7002-cc69-4a26-8830-e800889f8e95","system_id":"levelo_inurba_marseille","lat":43.29973,"lon":5.38492,"is_reserved":false,"is_disabled":false,"rental_uris":{"android":"levelo://app?vid=129d7002-cc69-4a26-8830-e800889f8e95","ios":"levelo://app?vid=129d7002-cc69-4a26-8830-e800889f8e95"},"vehicle_type_id":"4","last_reported":1743516584,"current_range_meters":7200,"station_id":"ce4bgj92rcd13ifvqbd0","pricing_plan_id":"cebpf4jnsgd1na2vs0mg"},{"bike_id":"3d5279c8-bd1d-4653-a2cc-95d8cc98d103","system_id":"levelo_inurba_marseille","lat":43.30554,"lon":5.36555,"is_reserved":false,"is_disabled":false,"rental_uris":{"android":"levelo://app?vid=3d5279c8-bd1d-4653-a2cc-95d8cc98d103","ios":"levelo://app?vid=3d5279c8-bd1d-4653-a2cc-95d8cc98d103"},"vehicle_type_id":"4","last_reported":1743516584,"current_range_meters":8000,"station_id":"ce4bgs12rcd13ifvqcag","pricing_plan_id":"cebpf4jnsgd1na2vs0mg"},{"bike_id":"1bd3e1d7-6a09-4428-91e7-91b4281d75ea","system_id":"levelo_inurba_marseille","lat":43.28974,"lon":5.37836,"is_reserved":false,"is_disabled":false,"rental_uris":{"android":"levelo://app?vid=1bd3e1d7-6a09-4428-91e7-91b4281d75ea","ios":"levelo://app?vid=1bd3e1d7-6a09-4428-91e7-91b4281d75ea"},"vehicle_type_id":"4","last_reported":1743516584,"current_range_meters":8000,"station_id":"ce4bh9p2rcd13ifvqed0","pricing_plan_id":"cebpf4jnsgd1na2vs0mg"},{"bike_id":"01d7a2f0-f36d-40d1-9cb3-c594b121854e","system_id":"levelo_inurba_marseille","lat":43.29966,"lon":5.38498,"is_reserved":false,"is_disabled":false,"rental_uris":{"android":"levelo://app?vid=01d7a2f0-f36d-40d1-9cb3-c594b121854e","ios":"levelo://app?vid=01d7a2f0-f36d-40d1-9cb3-c594b121854e"},"vehicle_type_id":"4","last_reported":1743516584,"current_range_meters":8000,"station_id":"ce4bgj92rcd13ifvqbd0","pricing_plan_id":"cebpf4jnsgd1na2vs0mg"},{"bike_id":"1f89f913-69ce-45e8-b9a3-bbab0dd5ff5b","system_id":"levelo_inurba_marseille","lat":43.32576,"lon":5.41444,"is_reserved":false,"is_disabled":false,"rental_uris":{"android":"levelo://app?vid=1f89f913-69ce-45e8-b9a3-bbab0dd5ff5b","ios":"levelo://app?vid=1f89f913-69ce-45e8-b9a3-bbab0dd5ff5b"},"vehicle_type_id":"4","last_reported":1743516584,"current_range_meters":8000,"station_id":"","pricing_plan_id":"cebpf4jnsgd1na2vs0mg"},{"bike_id":"91bd192b-b47b-4696-abd2-b029456fbf31","system_id":"levelo_inurba_marseille","lat":43.265748,"lon":5.390054,"is_reserved":false,"is_disabled":false,"rental_uris":{"android":"levelo://app?vid=91bd192b-b47b-4696-abd2-b029456fbf31","ios":"levelo://app?vid=91bd192b-b47b-4696-abd2-b029456fbf31"},"vehicle_type_id":"4","last_reported":1743516584,"current_range_meters":8000,"station_id":"","pricing_plan_id":"cebpf4jnsgd1na2vs0mg"},{"bike_id":"6f08a519-5eba-4d37-af1e-f520542be29f","system_id":"levelo_inurba_marseille","lat":43.27066,"lon":5.42272,"is_reserved":false,"is_disabled":false,"rental_uris":{"android":"levelo://app?vid=6f08a519-5eba-4d37-af1e-f520542be29f","ios":"levelo://app?vid=6f08a519-5eba-4d37-af1e-f520542be29f"},"vehicle_type_id":"4","last_reported":1743516584,"current_range_meters":8000,"station_id":"ce4bhk92rcd13ifvqgb0","pricing_plan_id":"cebpf4jnsgd1na2vs0mg"},{"bike_id":"7ac4619a-9d93-4ea7-a11d-6876e072dbe4","system_id":"levelo_inurba_marseille","lat":43.30547,"lon":5.36716,"is_reserved":false,"is_disabled":false,"rental_uris":{"android":"levelo://app?vid=7ac4619a-9d93-4ea7-a11d-6876e072dbe4","ios":"levelo://app?vid=7ac4619a-9d93-4ea7-a11d-6876e072dbe4"},"vehicle_type_id":"4","last_reported":1743516584,"current_range_meters":8000,"station_id":"ce4bgrp2rcd13ifvqc9g","pricing_plan_id":"cebpf4jnsgd1na2vs0mg"},{"bike_id":"9e414957-74dc-4194-88c9-1ed380a0f974","system_id":"levelo_inurba_marseille","lat":43.24656,"lon":5.38899,"is_reserved":false,"is_disabled":false,"rental_uris":{"android":"levelo://app?vid=9e414957-74dc-4194-88c9-1ed380a0f974","ios":"levelo://app?vid=9e414957-74dc-4194-88c9-1ed380a0f974"},"vehicle_type_id":"4","last_reported":1743516584,"current_range_meters":8000,"station_id":"ce4bhg12rcd13ifvqf60","pricing_plan_id":"cebpf4jnsgd1na2vs0mg"},{"bike_id":"69cc8cbb-6f12-4a92-ab4a-f1f9108d9acf","system_id":"levelo_inurba_marseille","lat":43.28463,"lon":5.35899,"is_reserved":false,"is_disabled":false,"rental_uris":{"android":"levelo://app?vid=69cc8cbb-6f12-4a92-ab4a-f1f9108d9acf","ios":"levelo://app?vid=69cc8cbb-6f12-4a92-ab4a-f1f9108d9acf"},"vehicle_type_id":"4","last_reported":1743516584,"current_range_meters":8400,"station_id":"ce4bhah2rcd13ifvqei0","pricing_plan_id":"cebpf4jnsgd1na2vs0mg"},{"bike_id":"2443b0a1-1090-4dd3-b3de-0c7d0a23a8c7","system_id":"levelo_inurba_marseille","lat":43.28002,"lon":5.40025,"is_reserved":false,"is_disabled":false,"rental_uris":{"android":"levelo://app?vid=2443b0a1-1090-4dd3-b3de-0c7d0a23a8c7","ios":"levelo://app?vid=2443b0a1-1090-4dd3-b3de-0c7d0a23a8c7"},"vehicle_type_id":"4","last_reported":1743516584,"current_range_meters":8400,"station_id":"ce4bho92rcd13ifvqh4g","pricing_plan_id":"cebpf4jnsgd1na2vs0mg"},{"bike_id":"2f04edae-9512-46d3-b068-1782d17c6e53","system_id":"levelo_inurba_marseille","lat":43.243877,"lon":5.370592,"is_reserved":false,"is_disabled":false,"rental_uris":{"android":"levelo://app?vid=2f04edae-9512-46d3-b068-1782d17c6e53","ios":"levelo://app?vid=2f04edae-9512-46d3-b068-1782d17c6e53"},"vehicle_type_id":"4","last_reported":1743516584,"current_range_meters":8400,"station_id":"ce4bhhh2rcd13ifvqfk0","pricing_plan_id":"cebpf4jnsgd1na2vs0mg"},{"bike_id":"5cf72d8e-62ed-4ac5-95d9-b7673a1c7d35","system_id":"levelo_inurba_marseille","lat":43.30427,"lon":5.39751,"is_reserved":false,"is_disabled":false,"rental_uris":{"android":"levelo://app?vid=5cf72d8e-62ed-4ac5-95d9-b7673a1c7d35","ios":"levelo://app?vid=5cf72d8e-62ed-4ac5-95d9-b7673a1c7d35"},"vehicle_type_id":"4","last_reported":1743516584,"current_range_meters":8400,"station_id":"ce4bh092rcd13ifvqd20","pricing_plan_id":"cebpf4jnsgd1na2vs0mg"},{"bike_id":"d23407e8-1049-41d8-ab62-e6eb1e45ae24","system_id":"levelo_inurba_marseille","lat":43.28704,"lon":5.37389,"is_reserved":false,"is_disabled":false,"rental_uris":{"android":"levelo://app?vid=d23407e8-1049-41d8-ab62-e6eb1e45ae24","ios":"levelo://app?vid=d23407e8-1049-41d8-ab62-e6eb1e45ae24"},"vehicle_type_id":"4","last_reported":1743516584,"current_range_meters":8400,"station_id":"ce4bh3p2rcd13ifvqdq0","pricing_plan_id":"cebpf4jnsgd1na2vs0mg"},{"bike_id":"544bb1a6-cb72-4e6c-9d20-009f5e6685aa","system_id":"levelo_inurba_marseille","lat":43.3055,"lon":5.36539,"is_reserved":false,"is_disabled":false,"rental_uris":{"android":"levelo://app?vid=544bb1a6-cb72-4e6c-9d20-009f5e6685aa","ios":"levelo://app?vid=544bb1a6-cb72-4e6c-9d20-009f5e6685aa"},"vehicle_type_id":"4","last_reported":1743516584,"current_range_meters":8800,"station_id":"ce4bgs12rcd13ifvqcag","pricing_plan_id":"cebpf4jnsgd1na2vs0mg"},{"bike_id":"d1b65818-f3d6-4f90-b553-8c93bf31c340","system_id":"levelo_inurba_marseille","lat":43.29537,"lon":5.39398,"is_reserved":false,"is_disabled":false,"rental_uris":{"android":"levelo://app?vid=d1b65818-f3d6-4f90-b553-8c93bf31c340","ios":"levelo://app?vid=d1b65818-f3d6-4f90-b553-8c93bf31c340"},"vehicle_type_id":"4","last_reported":1743516584,"current_range_meters":8800,"station_id":"ce4bh292rcd13ifvqdf0","pricing_plan_id":"cebpf4jnsgd1na2vs0mg"},{"bike_id":"2286499e-afb3-42f0-be29-239621d5e7b7","system_id":"levelo_inurba_marseille","lat":43.2417,"lon":5.39709,"is_reserved":false,"is_disabled":false,"rental_uris":{"android":"levelo://app?vid=2286499e-afb3-42f0-be29-239621d5e7b7","ios":"levelo://app?vid=2286499e-afb3-42f0-be29-239621d5e7b7"},"vehicle_type_id":"4","last_reported":1743516584,"current_range_meters":8800,"station_id":"ce4bhn12rcd13ifvqgpg","pricing_plan_id":"cebpf4jnsgd1na2vs0mg"},{"bike_id":"414ca20e-ea06-4329-b5cb-312915cc9a15","system_id":"levelo_inurba_marseille","lat":43.29714,"lon":5.37685,"is_reserved":false,"is_disabled":false,"rental_uris":{"android":"levelo://app?vid=414ca20e-ea06-4329-b5cb-312915cc9a15","ios":"levelo://app?vid=414ca20e-ea06-4329-b5cb-312915cc9a15"},"vehicle_type_id":"4","last_reported":1743516584,"current_range_meters":8800,"station_id":"ce4bgkh2rcd13ifvqbl0","pricing_plan_id":"cebpf4jnsgd1na2vs0mg"},{"bike_id":"33b8dd29-56e2-488c-9bb6-7f788906afe5","system_id":"levelo_inurba_marseille","lat":43.30773,"lon":5.37235,"is_reserved":false,"is_disabled":false,"rental_uris":{"android":"levelo://app?vid=33b8dd29-56e2-488c-9bb6-7f788906afe5","ios":"levelo://app?vid=33b8dd29-56e2-488c-9bb6-7f788906afe5"},"vehicle_type_id":"4","last_reported":1743516584,"current_range_meters":8800,"station_id":"","pricing_plan_id":"cebpf4jnsgd1na2vs0mg"},{"bike_id":"a6db1337-7636-4483-8174-da9acb366bee","system_id":"levelo_inurba_marseille","lat":43.29523,"lon":5.3905,"is_reserved":false,"is_disabled":false,"rental_uris":{"android":"levelo://app?vid=a6db1337-7636-4483-8174-da9acb366bee","ios":"levelo://app?vid=a6db1337-7636-4483-8174-da9acb366bee"},"vehicle_type_id":"4","last_reported":1743516584,"current_range_meters":8800,"station_id":"ce4bh3p2rcd13ifvqdp0","pricing_plan_id":"cebpf4jnsgd1na2vs0mg"},{"bike_id":"11fb0821-8afa-433a-9d88-19545526da74","system_id":"levelo_inurba_marseille","lat":43.27906,"lon":5.37988,"is_reserved":false,"is_disabled":true,"rental_uris":{"android":"levelo://app?vid=11fb0821-8afa-433a-9d88-19545526da74","ios":"levelo://app?vid=11fb0821-8afa-433a-9d88-19545526da74"},"vehicle_type_id":"4","last_reported":1743516584,"current_range_meters":8800,"station_id":"ce4bhf92rcd13ifvqf50","pricing_plan_id":"cebpf4jnsgd1na2vs0mg"},{"bike_id":"58748b6d-4c3d-4ce8-9acf-5fbeb5bad12a","system_id":"levelo_inurba_marseille","lat":43.30924,"lon":5.36878,"is_reserved":false,"is_disabled":false,"rental_uris":{"android":"levelo://app?vid=58748b6d-4c3d-4ce8-9acf-5fbeb5bad12a","ios":"levelo://app?vid=58748b6d-4c3d-4ce8-9acf-5fbeb5bad12a"},"vehicle_type_id":"4","last_reported":1743516584,"current_range_meters":8800,"station_id":"ce4bgn92rcd13ifvqbvg","pricing_plan_id":"cebpf4jnsgd1na2vs0mg"},{"bike_id":"9c9586d4-89b2-477a-a299-450f69c2c7b0","system_id":"levelo_inurba_marseille","lat":43.28163,"lon":5.42646,"is_reserved":false,"is_disabled":false,"rental_uris":{"android":"levelo://app?vid=9c9586d4-89b2-477a-a299-450f69c2c7b0","ios":"levelo://app?vid=9c9586d4-89b2-477a-a299-450f69c2c7b0"},"vehicle_type_id":"4","last_reported":1743516584,"current_range_meters":8800,"station_id":"ce4bhnh2rcd13ifvqgug","pricing_plan_id":"cebpf4jnsgd1na2vs0mg"},{"bike_id":"1f933231-7ab0-42f9-90e0-fc362574a046","system_id":"levelo_inurba_marseille","lat":43.23151,"lon":5.43724,"is_reserved":false,"is_disabled":false,"rental_uris":{"android":"levelo://app?vid=1f933231-7ab0-42f9-90e0-fc362574a046","ios":"levelo://app?vid=1f933231-7ab0-42f9-90e0-fc362574a046"},"vehicle_type_id":"4","last_reported":1743516584,"current_range_meters":8800,"station_id":"ce4bhmp2rcd13ifvqgog","pricing_plan_id":"cebpf4jnsgd1na2vs0mg"},{"bike_id":"131953cc-98dc-4b83-8dba-ebeea1f8c38f","system_id":"levelo_inurba_marseille","lat":43.26557,"lon":5.39037,"is_reserved":false,"is_disabled":false,"rental_uris":{"android":"levelo://app?vid=131953cc-98dc-4b83-8dba-ebeea1f8c38f","ios":"levelo://app?vid=131953cc-98dc-4b83-8dba-ebeea1f8c38f"},"vehicle_type_id":"4","last_reported":1743516584,"current_range_meters":9200,"station_id":"ce4bhe12rcd13ifvqf30","pricing_plan_id":"cebpf4jnsgd1na2vs0mg"},{"bike_id":"8811e978-6a5d-4df4-bb51-d490b4fd5c20","system_id":"levelo_inurba_marseille","lat":43.295837,"lon":5.37514,"is_reserved":false,"is_disabled":false,"rental_uris":{"android":"levelo://app?vid=8811e978-6a5d-4df4-bb51-d490b4fd5c20","ios":"levelo://app?vid=8811e978-6a5d-4df4-bb51-d490b4fd5c20"},"vehicle_type_id":"4","last_reported":1743516584,"current_range_meters":9200,"station_id":"ce4bgn12rcd13ifvqbt0","pricing_plan_id":"cebpf4jnsgd1na2vs0mg"},{"bike_id":"c74f5e10-dc5c-425a-a8b6-e5da0602cb9e","system_id":"levelo_inurba_marseille","lat":43.32118,"lon":5.3677,"is_reserved":false,"is_disabled":false,"rental_uris":{"android":"levelo://app?vid=c74f5e10-dc5c-425a-a8b6-e5da0602cb9e","ios":"levelo://app?vid=c74f5e10-dc5c-425a-a8b6-e5da0602cb9e"},"vehicle_type_id":"4","last_reported":1743516584,"current_range_meters":9200,"station_id":"ce4bhrh2rcd13ifvqhug","pricing_plan_id":"cebpf4jnsgd1na2vs0mg"},{"bike_id":"63725668-0481-4d06-944c-5f9df798c4b4","system_id":"levelo_inurba_marseille","lat":43.23146,"lon":5.43735,"is_reserved":false,"is_disabled":false,"rental_uris":{"android":"levelo://app?vid=63725668-0481-4d06-944c-5f9df798c4b4","ios":"levelo://app?vid=63725668-0481-4d06-944c-5f9df798c4b4"},"vehicle_type_id":"4","last_reported":1743516584,"current_range_meters":9200,"station_id":"ce4bhmp2rcd13ifvqgog","pricing_plan_id":"cebpf4jnsgd1na2vs0mg"},{"bike_id":"7f2de64c-6675-450e-a8c4-31e0a07dfaa5","system_id":"levelo_inurba_marseille","lat":43.29572,"lon":5.37505,"is_reserved":false,"is_disabled":false,"rental_uris":{"android":"levelo://app?vid=7f2de64c-6675-450e-a8c4-31e0a07dfaa5","ios":"levelo://app?vid=7f2de64c-6675-450e-a8c4-31e0a07dfaa5"},"vehicle_type_id":"4","last_reported":1743516584,"current_range_meters":9200,"station_id":"ce4bgh92rcd13ifvqb50","pricing_plan_id":"cebpf4jnsgd1na2vs0mg"},{"bike_id":"c3a03241-19bb-4d97-b3f7-0fe821a7a6a0","system_id":"levelo_inurba_marseille","lat":43.2439,"lon":5.3706,"is_reserved":false,"is_disabled":false,"rental_uris":{"android":"levelo://app?vid=c3a03241-19bb-4d97-b3f7-0fe821a7a6a0","ios":"levelo://app?vid=c3a03241-19bb-4d97-b3f7-0fe821a7a6a0"},"vehicle_type_id":"4","last_reported":1743516584,"current_range_meters":9200,"station_id":"ce4bhhh2rcd13ifvqfk0","pricing_plan_id":"cebpf4jnsgd1na2vs0mg"},{"bike_id":"a65c60d0-9838-4fce-ab82-173f64a7b595","system_id":"levelo_inurba_marseille","lat":43.241841,"lon":5.397211,"is_reserved":false,"is_disabled":false,"rental_uris":{"android":"levelo://app?vid=a65c60d0-9838-4fce-ab82-173f64a7b595","ios":"levelo://app?vid=a65c60d0-9838-4fce-ab82-173f64a7b595"},"vehicle_type_id":"4","last_reported":1743516584,"current_range_meters":9600,"station_id":"ce4bhn12rcd13ifvqgpg","pricing_plan_id":"cebpf4jnsgd1na2vs0mg"},{"bike_id":"4ad73676-975d-4eb4-8ab0-34916f3a4594","system_id":"levelo_inurba_marseille","lat":43.30646,"lon":5.37124,"is_reserved":false,"is_disabled":false,"rental_uris":{"android":"levelo://app?vid=4ad73676-975d-4eb4-8ab0-34916f3a4594","ios":"levelo://app?vid=4ad73676-975d-4eb4-8ab0-34916f3a4594"},"vehicle_type_id":"4","last_reported":1743516584,"current_range_meters":9600,"station_id":"","pricing_plan_id":"cebpf4jnsgd1na2vs0mg"},{"bike_id":"68bea909-8086-449c-af65-1a0e966b4273","system_id":"levelo_inurba_marseille","lat":43.28106,"lon":5.37839,"is_reserved":false,"is_disabled":false,"rental_uris":{"android":"levelo://app?vid=68bea909-8086-449c-af65-1a0e966b4273","ios":"levelo://app?vid=68bea909-8086-449c-af65-1a0e966b4273"},"vehicle_type_id":"4","last_reported":1743516584,"current_range_meters":9600,"station_id":"ce4bha12rcd13ifvqee0","pricing_plan_id":"cebpf4jnsgd1na2vs0mg"},{"bike_id":"c86f3dd7-4af6-4e32-832d-8c711682ef46","system_id":"levelo_inurba_marseille","lat":43.25924,"lon":5.408763,"is_reserved":false,"is_disabled":false,"rental_uris":{"android":"levelo://app?vid=c86f3dd7-4af6-4e32-832d-8c711682ef46","ios":"levelo://app?vid=c86f3dd7-4af6-4e32-832d-8c711682ef46"},"vehicle_type_id":"4","last_reported":1743516584,"current_range_meters":9600,"station_id":"ce4bhm92rcd13ifvqglg","pricing_plan_id":"cebpf4jnsgd1na2vs0mg"},{"bike_id":"8f62799a-bf43-4458-b69c-0ed173e8a565","system_id":"levelo_inurba_marseille","lat":43.29934,"lon":5.36534,"is_reserved":false,"is_disabled":false,"rental_uris":{"android":"levelo://app?vid=8f62799a-bf43-4458-b69c-0ed173e8a565","ios":"levelo://app?vid=8f62799a-bf43-4458-b69c-0ed173e8a565"},"vehicle_type_id":"4","last_reported":1743516584,"current_range_meters":9600,"station_id":"ce4bgm92rcd13ifvqbr0","pricing_plan_id":"cebpf4jnsgd1na2vs0mg"},{"bike_id":"98cf19ab-bede-4725-bf6f-b60047bf4926","system_id":"levelo_inurba_marseille","lat":43.30087,"lon":5.3908,"is_reserved":false,"is_disabled":false,"rental_uris":{"android":"levelo://app?vid=98cf19ab-bede-4725-bf6f-b60047bf4926","ios":"levelo://app?vid=98cf19ab-bede-4725-bf6f-b60047bf4926"},"vehicle_type_id":"4","last_reported":1743516584,"current_range_meters":9600,"station_id":"ce4bh192rcd13ifvqdb0","pricing_plan_id":"cebpf4jnsgd1na2vs0mg"},{"bike_id":"92a96564-2b78-4fc0-8756-3b3352f7cad0","system_id":"levelo_inurba_marseille","lat":43.30521,"lon":5.36521,"is_reserved":false,"is_disabled":false,"rental_uris":{"android":"levelo://app?vid=92a96564-2b78-4fc0-8756-3b3352f7cad0","ios":"levelo://app?vid=92a96564-2b78-4fc0-8756-3b3352f7cad0"},"vehicle_type_id":"4","last_reported":1743516584,"current_range_meters":10000,"station_id":"","pricing_plan_id":"cebpf4jnsgd1na2vs0mg"},{"bike_id":"15e9743b-4bb9-4aae-b886-466e3918f8cf","system_id":"levelo_inurba_marseille","lat":43.26575,"lon":5.39035,"is_reserved":false,"is_disabled":false,"rental_uris":{"android":"levelo://app?vid=15e9743b-4bb9-4aae-b886-466e3918f8cf","ios":"levelo://app?vid=15e9743b-4bb9-4aae-b886-466e3918f8cf"},"vehicle_type_id":"4","last_reported":1743516584,"current_range_meters":10000,"station_id":"ce4bhe12rcd13ifvqf30","pricing_plan_id":"cebpf4jnsgd1na2vs0mg"},{"bike_id":"a495ab47-72d1-4f9e-8b95-72d772792f33","system_id":"levelo_inurba_marseille","lat":43.30433,"lon":5.36857,"is_reserved":false,"is_disabled":false,"rental_uris":{"android":"levelo://app?vid=a495ab47-72d1-4f9e-8b95-72d772792f33","ios":"levelo://app?vid=a495ab47-72d1-4f9e-8b95-72d772792f33"},"vehicle_type_id":"4","last_reported":1743516584,"current_range_meters":10000,"station_id":"","pricing_plan_id":"cebpf4jnsgd1na2vs0mg"},{"bike_id":"b5776194-8c19-404a-ae94-0365d0646d68","system_id":"levelo_inurba_marseille","lat":43.255855,"lon":5.382397,"is_reserved":false,"is_disabled":false,"rental_uris":{"android":"levelo://app?vid=b5776194-8c19-404a-ae94-0365d0646d68","ios":"levelo://app?vid=b5776194-8c19-404a-ae94-0365d0646d68"},"vehicle_type_id":"4","last_reported":1743516584,"current_range_meters":9600,"station_id":"ce4bhih2rcd13ifvqfs0","pricing_plan_id":"cebpf4jnsgd1na2vs0mg"},{"bike_id":"2c567be4-626d-4614-8796-6c92d09d2fa1","system_id":"levelo_inurba_marseille","lat":43.29525,"lon":5.37449,"is_reserved":false,"is_disabled":false,"rental_uris":{"android":"levelo://app?vid=2c567be4-626d-4614-8796-6c92d09d2fa1","ios":"levelo://app?vid=2c567be4-626d-4614-8796-6c92d09d2fa1"},"vehicle_type_id":"4","last_reported":1743516584,"current_range_meters":10800,"station_id":"ce4bgkp2rcd13ifvqbmg","pricing_plan_id":"cebpf4jnsgd1na2vs0mg"},{"bike_id":"811401ef-37ec-458a-9a87-b012b281f062","system_id":"levelo_inurba_marseille","lat":43.28471,"lon":5.39161,"is_reserved":false,"is_disabled":false,"rental_uris":{"android":"levelo://app?vid=811401ef-37ec-458a-9a87-b012b281f062","ios":"levelo://app?vid=811401ef-37ec-458a-9a87-b012b281f062"},"vehicle_type_id":"4","last_reported":1743516584,"current_range_meters":10800,"station_id":"ce4bhoh2rcd13ifvqh5g","pricing_plan_id":"cebpf4jnsgd1na2vs0mg"},{"bike_id":"0033090a-8982-4b60-8eda-d926f2d0df49","system_id":"levelo_inurba_marseille","lat":43.3108,"lon":5.38354,"is_reserved":false,"is_disabled":false,"rental_uris":{"android":"levelo://app?vid=0033090a-8982-4b60-8eda-d926f2d0df49","ios":"levelo://app?vid=0033090a-8982-4b60-8eda-d926f2d0df49"},"vehicle_type_id":"4","last_reported":1743516584,"current_range_meters":10800,"station_id":"ce4bgv92rcd13ifvqcr0","pricing_plan_id":"cebpf4jnsgd1na2vs0mg"},{"bike_id":"29594642-adf7-46f1-9b6b-2ca681ac51d2","system_id":"levelo_inurba_marseille","lat":43.3019,"lon":5.36628,"is_reserved":false,"is_disabled":false,"rental_uris":{"android":"levelo://app?vid=29594642-adf7-46f1-9b6b-2ca681ac51d2","ios":"levelo://app?vid=29594642-adf7-46f1-9b6b-2ca681ac51d2"},"vehicle_type_id":"4","last_reported":1743516584,"current_range_meters":10800,"station_id":"ce4bgrh2rcd13ifvqc8g","pricing_plan_id":"cebpf4jnsgd1na2vs0mg"},{"bike_id":"62e8203b-9b02-41c2-94fa-4620551506ee","system_id":"levelo_inurba_marseille","lat":43.2871,"lon":5.37933,"is_reserved":false,"is_disabled":false,"rental_uris":{"android":"levelo://app?vid=62e8203b-9b02-41c2-94fa-4620551506ee","ios":"levelo://app?vid=62e8203b-9b02-41c2-94fa-4620551506ee"},"vehicle_type_id":"4","last_reported":1743516584,"current_range_meters":10800,"station_id":"ce4bh9p2rcd13ifvqec0","pricing_plan_id":"cebpf4jnsgd1na2vs0mg"},{"bike_id":"e6928b84-bc47-4de0-8a23-14baa6be129c","system_id":"levelo_inurba_marseille","lat":43.301378,"lon":5.398723,"is_reserved":false,"is_disabled":true,"rental_uris":{"android":"levelo://app?vid=e6928b84-bc47-4de0-8a23-14baa6be129c","ios":"levelo://app?vid=e6928b84-bc47-4de0-8a23-14baa6be129c"},"vehicle_type_id":"4","last_reported":1743516584,"current_range_meters":10800,"station_id":"ce4bh0h2rcd13ifvqd40","pricing_plan_id":"cebpf4jnsgd1na2vs0mg"},{"bike_id":"e299215f-7118-4339-97b1-9efdceb67ddd","system_id":"levelo_inurba_marseille","lat":43.27611,"lon":5.36123,"is_reserved":false,"is_disabled":false,"rental_uris":{"android":"levelo://app?vid=e299215f-7118-4339-97b1-9efdceb67ddd","ios":"levelo://app?vid=e299215f-7118-4339-97b1-9efdceb67ddd"},"vehicle_type_id":"4","last_reported":1743516584,"current_range_meters":10800,"station_id":"ce4bgj92rcd13ifvqbe0","pricing_plan_id":"cebpf4jnsgd1na2vs0mg"},{"bike_id":"e47bc61d-df2d-41b3-b26b-dd94e6e5e301","system_id":"levelo_inurba_marseille","lat":43.26244,"lon":5.42133,"is_reserved":false,"is_disabled":false,"rental_uris":{"android":"levelo://app?vid=e47bc61d-df2d-41b3-b26b-dd94e6e5e301","ios":"levelo://app?vid=e47bc61d-df2d-41b3-b26b-dd94e6e5e301"},"vehicle_type_id":"4","last_reported":1743516584,"current_range_meters":10800,"station_id":"","pricing_plan_id":"cebpf4jnsgd1na2vs0mg"},{"bike_id":"dbda49f3-ab55-4781-a1d3-04e05ef034cc","system_id":"levelo_inurba_marseille","lat":43.30782,"lon":5.3764,"is_reserved":false,"is_disabled":false,"rental_uris":{"android":"levelo://app?vid=dbda49f3-ab55-4781-a1d3-04e05ef034cc","ios":"levelo://app?vid=dbda49f3-ab55-4781-a1d3-04e05ef034cc"},"vehicle_type_id":"4","last_reported":1743516584,"current_range_meters":10000,"station_id":"ce4bgv92rcd13ifvqcq0","pricing_plan_id":"cebpf4jnsgd1na2vs0mg"},{"bike_id":"ab52962f-bc93-4ddd-be76-164eb31c1a2f","system_id":"levelo_inurba_marseille","lat":43.25018,"lon":5.3892,"is_reserved":false,"is_disabled":false,"rental_uris":{"android":"levelo://app?vid=ab52962f-bc93-4ddd-be76-164eb31c1a2f","ios":"levelo://app?vid=ab52962f-bc93-4ddd-be76-164eb31c1a2f"},"vehicle_type_id":"4","last_reported":1743516584,"current_range_meters":10800,"station_id":"ce4bhgp2rcd13ifvqfd0","pricing_plan_id":"cebpf4jnsgd1na2vs0mg"},{"bike_id":"93a428f6-6bad-4a02-8565-b91a2bee43a8","system_id":"levelo_inurba_marseille","lat":43.28411,"lon":5.37521,"is_reserved":false,"is_disabled":false,"rental_uris":{"android":"levelo://app?vid=93a428f6-6bad-4a02-8565-b91a2bee43a8","ios":"levelo://app?vid=93a428f6-6bad-4a02-8565-b91a2bee43a8"},"vehicle_type_id":"4","last_reported":1743516584,"current_range_meters":10800,"station_id":"ce4bh412rcd13ifvqds0","pricing_plan_id":"cebpf4jnsgd1na2vs0mg"},{"bike_id":"39237ecc-8eb5-419e-85a9-ac982e0940ce","system_id":"levelo_inurba_marseille","lat":43.30882,"lon":5.3964,"is_reserved":false,"is_disabled":false,"rental_uris":{"android":"levelo://app?vid=39237ecc-8eb5-419e-85a9-ac982e0940ce","ios":"levelo://app?vid=39237ecc-8eb5-419e-85a9-ac982e0940ce"},"vehicle_type_id":"4","last_reported":1743516584,"current_range_meters":10800,"station_id":"ce4bh012rcd13ifvqcv0","pricing_plan_id":"cebpf4jnsgd1na2vs0mg"},{"bike_id":"f0cbec6f-8509-4665-a858-3a2272d4f5d7","system_id":"levelo_inurba_marseille","lat":43.3134,"lon":5.36719,"is_reserved":false,"is_disabled":false,"rental_uris":{"android":"levelo://app?vid=f0cbec6f-8509-4665-a858-3a2272d4f5d7","ios":"levelo://app?vid=f0cbec6f-8509-4665-a858-3a2272d4f5d7"},"vehicle_type_id":"4","last_reported":1743516584,"current_range_meters":13600,"station_id":"ce4bgr92rcd13ifvqc6g","pricing_plan_id":"cebpf4jnsgd1na2vs0mg"},{"bike_id":"4fba1b1a-0b11-41e4-987f-d3f4b9680861","system_id":"levelo_inurba_marseille","lat":43.28945,"lon":5.36392,"is_reserved":false,"is_disabled":false,"rental_uris":{"android":"levelo://app?vid=4fba1b1a-0b11-41e4-987f-d3f4b9680861","ios":"levelo://app?vid=4fba1b1a-0b11-41e4-987f-d3f4b9680861"},"vehicle_type_id":"4","last_reported":1743516584,"current_range_meters":11200,"station_id":"ce4bhc92rcd13ifvqetg","pricing_plan_id":"cebpf4jnsgd1na2vs0mg"},{"bike_id":"7a4ed9ef-dcc2-45bd-9732-703edc33b2fd","system_id":"levelo_inurba_marseille","lat":43.29419,"lon":5.38623,"is_reserved":false,"is_disabled":false,"rental_uris":{"android":"levelo://app?vid=7a4ed9ef-dcc2-45bd-9732-703edc33b2fd","ios":"levelo://app?vid=7a4ed9ef-dcc2-45bd-9732-703edc33b2fd"},"vehicle_type_id":"4","last_reported":1743516584,"current_range_meters":11200,"station_id":"ce4bh2h2rcd13ifvqdh0","pricing_plan_id":"cebpf4jnsgd1na2vs0mg"},{"bike_id":"45475272-c32c-4c26-ace2-8962b57944a1","system_id":"levelo_inurba_marseille","lat":43.27941,"lon":5.39601,"is_reserved":false,"is_disabled":false,"rental_uris":{"android":"levelo://app?vid=45475272-c32c-4c26-ace2-8962b57944a1","ios":"levelo://app?vid=45475272-c32c-4c26-ace2-8962b57944a1"},"vehicle_type_id":"4","last_reported":1743516584,"current_range_meters":11200,"station_id":"ce4bhf92rcd13ifvqf40","pricing_plan_id":"cebpf4jnsgd1na2vs0mg"},{"bike_id":"1b63ccb2-1298-4d96-b7f3-6ad6cace00e9","system_id":"levelo_inurba_marseille","lat":43.2611,"lon":5.40019,"is_reserved":false,"is_disabled":false,"rental_uris":{"android":"levelo://app?vid=1b63ccb2-1298-4d96-b7f3-6ad6cace00e9","ios":"levelo://app?vid=1b63ccb2-1298-4d96-b7f3-6ad6cace00e9"},"vehicle_type_id":"4","last_reported":1743516584,"current_range_meters":11200,"station_id":"","pricing_plan_id":"cebpf4jnsgd1na2vs0mg"},{"bike_id":"ced8a229-be7d-473e-abbe-15df2df6c620","system_id":"levelo_inurba_marseille","lat":43.29096,"lon":5.38109,"is_reserved":false,"is_disabled":false,"rental_uris":{"android":"levelo://app?vid=ced8a229-be7d-473e-abbe-15df2df6c620","ios":"levelo://app?vid=ced8a229-be7d-473e-abbe-15df2df6c620"},"vehicle_type_id":"4","last_reported":1743516584,"current_range_meters":11200,"station_id":"ce4bh512rcd13ifvqe2g","pricing_plan_id":"cebpf4jnsgd1na2vs0mg"},{"bike_id":"27773214-4312-4127-aa54-e74cba3d6d07","system_id":"levelo_inurba_marseille","lat":43.27796,"lon":5.40729,"is_reserved":false,"is_disabled":false,"rental_uris":{"android":"levelo://app?vid=27773214-4312-4127-aa54-e74cba3d6d07","ios":"levelo://app?vid=27773214-4312-4127-aa54-e74cba3d6d07"},"vehicle_type_id":"4","last_reported":1743516584,"current_range_meters":11200,"station_id":"ce4bhnh2rcd13ifvqgtg","pricing_plan_id":"cebpf4jnsgd1na2vs0mg"},{"bike_id":"398ca055-084d-42d0-8ca9-ed591e77e956","system_id":"levelo_inurba_marseille","lat":43.231543,"lon":5.437112,"is_reserved":false,"is_disabled":false,"rental_uris":{"android":"levelo://app?vid=398ca055-084d-42d0-8ca9-ed591e77e956","ios":"levelo://app?vid=398ca055-084d-42d0-8ca9-ed591e77e956"},"vehicle_type_id":"4","last_reported":1743516584,"current_range_meters":11200,"station_id":"ce4bhmp2rcd13ifvqgog","pricing_plan_id":"cebpf4jnsgd1na2vs0mg"},{"bike_id":"e468d950-0276-473b-88cd-f2d260a57941","system_id":"levelo_inurba_marseille","lat":43.32663,"lon":5.40998,"is_reserved":false,"is_disabled":false,"rental_uris":{"android":"levelo://app?vid=e468d950-0276-473b-88cd-f2d260a57941","ios":"levelo://app?vid=e468d950-0276-473b-88cd-f2d260a57941"},"vehicle_type_id":"4","last_reported":1743516584,"current_range_meters":11200,"station_id":"ce4bhpp2rcd13ifvqhgg","pricing_plan_id":"cebpf4jnsgd1na2vs0mg"},{"bike_id":"0db7c547-3653-4639-aae4-66279dddf8f8","system_id":"levelo_inurba_marseille","lat":43.29314,"lon":5.37169,"is_reserved":false,"is_disabled":false,"rental_uris":{"android":"levelo://app?vid=0db7c547-3653-4639-aae4-66279dddf8f8","ios":"levelo://app?vid=0db7c547-3653-4639-aae4-66279dddf8f8"},"vehicle_type_id":"4","last_reported":1743516584,"current_range_meters":11200,"station_id":"ce4bgh92rcd13ifvqb40","pricing_plan_id":"cebpf4jnsgd1na2vs0mg"},{"bike_id":"f2dfd2a0-5846-4c43-9aae-f5b5157fea3b","system_id":"levelo_inurba_marseille","lat":43.28622,"lon":5.35109,"is_reserved":false,"is_disabled":false,"rental_uris":{"android":"levelo://app?vid=f2dfd2a0-5846-4c43-9aae-f5b5157fea3b","ios":"levelo://app?vid=f2dfd2a0-5846-4c43-9aae-f5b5157fea3b"},"vehicle_type_id":"4","last_reported":1743516584,"current_range_meters":11200,"station_id":"ce4bhch2rcd13ifvqeug","pricing_plan_id":"cebpf4jnsgd1na2vs0mg"},{"bike_id":"66a6759f-f104-404f-ba35-7dd5d87e6d0b","system_id":"levelo_inurba_marseille","lat":43.3015,"lon":5.3767,"is_reserved":false,"is_disabled":false,"rental_uris":{"android":"levelo://app?vid=66a6759f-f104-404f-ba35-7dd5d87e6d0b","ios":"levelo://app?vid=66a6759f-f104-404f-ba35-7dd5d87e6d0b"},"vehicle_type_id":"4","last_reported":1743516584,"current_range_meters":11200,"station_id":"","pricing_plan_id":"cebpf4jnsgd1na2vs0mg"},{"bike_id":"ac70a8b1-8ada-4b1d-b2cf-4fe610cb6097","system_id":"levelo_inurba_marseille","lat":43.29423,"lon":5.38625,"is_reserved":false,"is_disabled":false,"rental_uris":{"android":"levelo://app?vid=ac70a8b1-8ada-4b1d-b2cf-4fe610cb6097","ios":"levelo://app?vid=ac70a8b1-8ada-4b1d-b2cf-4fe610cb6097"},"vehicle_type_id":"4","last_reported":1743516584,"current_range_meters":11600,"station_id":"ce4bh2h2rcd13ifvqdh0","pricing_plan_id":"cebpf4jnsgd1na2vs0mg"},{"bike_id":"bba1b8cd-f2fc-41bb-8318-28717b6a2a3c","system_id":"levelo_inurba_marseille","lat":43.32366,"lon":5.38884,"is_reserved":false,"is_disabled":false,"rental_uris":{"android":"levelo://app?vid=bba1b8cd-f2fc-41bb-8318-28717b6a2a3c","ios":"levelo://app?vid=bba1b8cd-f2fc-41bb-8318-28717b6a2a3c"},"vehicle_type_id":"4","last_reported":1743516584,"current_range_meters":11600,"station_id":"ce4bhqp2rcd13ifvqhog","pricing_plan_id":"cebpf4jnsgd1na2vs0mg"},{"bike_id":"f9556671-f8e9-4ef6-b997-21a30e85c7b2","system_id":"levelo_inurba_marseille","lat":43.231532,"lon":5.43724,"is_reserved":false,"is_disabled":false,"rental_uris":{"android":"levelo://app?vid=f9556671-f8e9-4ef6-b997-21a30e85c7b2","ios":"levelo://app?vid=f9556671-f8e9-4ef6-b997-21a30e85c7b2"},"vehicle_type_id":"4","last_reported":1743516584,"current_range_meters":11600,"station_id":"ce4bhmp2rcd13ifvqgog","pricing_plan_id":"cebpf4jnsgd1na2vs0mg"},{"bike_id":"b2242a78-1a46-4f78-a052-02e3dba2d6e2","system_id":"levelo_inurba_marseille","lat":43.25576,"lon":5.38238,"is_reserved":false,"is_disabled":false,"rental_uris":{"android":"levelo://app?vid=b2242a78-1a46-4f78-a052-02e3dba2d6e2","ios":"levelo://app?vid=b2242a78-1a46-4f78-a052-02e3dba2d6e2"},"vehicle_type_id":"4","last_reported":1743516584,"current_range_meters":11600,"station_id":"ce4bhih2rcd13ifvqfs0","pricing_plan_id":"cebpf4jnsgd1na2vs0mg"},{"bike_id":"16dd592e-7732-47c3-a664-305413913b8b","system_id":"levelo_inurba_marseille","lat":43.28449,"lon":5.35896,"is_reserved":false,"is_disabled":false,"rental_uris":{"android":"levelo://app?vid=16dd592e-7732-47c3-a664-305413913b8b","ios":"levelo://app?vid=16dd592e-7732-47c3-a664-305413913b8b"},"vehicle_type_id":"4","last_reported":1743516584,"current_range_meters":11600,"station_id":"ce4bhah2rcd13ifvqei0","pricing_plan_id":"cebpf4jnsgd1na2vs0mg"},{"bike_id":"b18d61be-1314-4787-bdc3-677619cdb9f9","system_id":"levelo_inurba_marseille","lat":43.299351,"lon":5.370417,"is_reserved":false,"is_disabled":false,"rental_uris":{"android":"levelo://app?vid=b18d61be-1314-4787-bdc3-677619cdb9f9","ios":"levelo://app?vid=b18d61be-1314-4787-bdc3-677619cdb9f9"},"vehicle_type_id":"4","last_reported":1743516584,"current_range_meters":11600,"station_id":"","pricing_plan_id":"cebpf4jnsgd1na2vs0mg"},{"bike_id":"65d8ad0c-738d-4022-8a5d-f2fcdea3ef10","system_id":"levelo_inurba_marseille","lat":43.30792,"lon":5.38173,"is_reserved":false,"is_disabled":false,"rental_uris":{"android":"levelo://app?vid=65d8ad0c-738d-4022-8a5d-f2fcdea3ef10","ios":"levelo://app?vid=65d8ad0c-738d-4022-8a5d-f2fcdea3ef10"},"vehicle_type_id":"4","last_reported":1743516584,"current_range_meters":11200,"station_id":"ce4bgt12rcd13ifvqce0","pricing_plan_id":"cebpf4jnsgd1na2vs0mg"},{"bike_id":"d4a0d068-eaeb-4183-b126-444ca87156db","system_id":"levelo_inurba_marseille","lat":43.3053,"lon":5.36498,"is_reserved":false,"is_disabled":false,"rental_uris":{"android":"levelo://app?vid=d4a0d068-eaeb-4183-b126-444ca87156db","ios":"levelo://app?vid=d4a0d068-eaeb-4183-b126-444ca87156db"},"vehicle_type_id":"4","last_reported":1743516584,"current_range_meters":11600,"station_id":"ce4bgs12rcd13ifvqcag","pricing_plan_id":"cebpf4jnsgd1na2vs0mg"},{"bike_id":"d1ebd274-c698-4613-862d-70f5ca431618","system_id":"levelo_inurba_marseille","lat":43.28439,"lon":5.39205,"is_reserved":false,"is_disabled":false,"rental_uris":{"android":"levelo://app?vid=d1ebd274-c698-4613-862d-70f5ca431618","ios":"levelo://app?vid=d1ebd274-c698-4613-862d-70f5ca431618"},"vehicle_type_id":"4","last_reported":1743516584,"current_range_meters":12000,"station_id":"ce4bhoh2rcd13ifvqh5g","pricing_plan_id":"cebpf4jnsgd1na2vs0mg"},{"bike_id":"34ead93f-0548-429e-a369-3703fc242f80","system_id":"levelo_inurba_marseille","lat":43.25587,"lon":5.38244,"is_reserved":false,"is_disabled":false,"rental_uris":{"android":"levelo://app?vid=34ead93f-0548-429e-a369-3703fc242f80","ios":"levelo://app?vid=34ead93f-0548-429e-a369-3703fc242f80"},"vehicle_type_id":"4","last_reported":1743516584,"current_range_meters":12000,"station_id":"ce4bhih2rcd13ifvqfs0","pricing_plan_id":"cebpf4jnsgd1na2vs0mg"},{"bike_id":"40235f4f-a046-43bd-bf98-3bdae6f53504","system_id":"levelo_inurba_marseille","lat":43.28731,"lon":5.36071,"is_reserved":false,"is_disabled":false,"rental_uris":{"android":"levelo://app?vid=40235f4f-a046-43bd-bf98-3bdae6f53504","ios":"levelo://app?vid=40235f4f-a046-43bd-bf98-3bdae6f53504"},"vehicle_type_id":"4","last_reported":1743516584,"current_range_meters":12000,"station_id":"cki0cbj6b192h4jlfktg","pricing_plan_id":"cebpf4jnsgd1na2vs0mg"},{"bike_id":"c7c91e33-8619-4fe2-929c-34acde8fb48f","system_id":"levelo_inurba_marseille","lat":43.2792,"lon":5.39577,"is_reserved":false,"is_disabled":false,"rental_uris":{"android":"levelo://app?vid=c7c91e33-8619-4fe2-929c-34acde8fb48f","ios":"levelo://app?vid=c7c91e33-8619-4fe2-929c-34acde8fb48f"},"vehicle_type_id":"4","last_reported":1743516584,"current_range_meters":12000,"station_id":"ce4bhf92rcd13ifvqf40","pricing_plan_id":"cebpf4jnsgd1na2vs0mg"},{"bike_id":"7d24f7f3-5a91-46ae-971d-a7a715309919","system_id":"levelo_inurba_marseille","lat":43.23192,"lon":5.39991,"is_reserved":false,"is_disabled":false,"rental_uris":{"android":"levelo://app?vid=7d24f7f3-5a91-46ae-971d-a7a715309919","ios":"levelo://app?vid=7d24f7f3-5a91-46ae-971d-a7a715309919"},"vehicle_type_id":"4","last_reported":1743516584,"current_range_meters":12000,"station_id":"ce4bhn12rcd13ifvqgqg","pricing_plan_id":"cebpf4jnsgd1na2vs0mg"},{"bike_id":"3ba6ccff-1eda-46d4-acbd-01dbdd65bb76","system_id":"levelo_inurba_marseille","lat":43.29887,"lon":5.43648,"is_reserved":false,"is_disabled":false,"rental_uris":{"android":"levelo://app?vid=3ba6ccff-1eda-46d4-acbd-01dbdd65bb76","ios":"levelo://app?vid=3ba6ccff-1eda-46d4-acbd-01dbdd65bb76"},"vehicle_type_id":"4","last_reported":1743516584,"current_range_meters":12000,"station_id":"ce4bhpp2rcd13ifvqhfg","pricing_plan_id":"cebpf4jnsgd1na2vs0mg"},{"bike_id":"278a506b-3b1b-4d97-bb5e-5869d9c38046","system_id":"levelo_inurba_marseille","lat":43.3177,"lon":5.39011,"is_reserved":false,"is_disabled":false,"rental_uris":{"android":"levelo://app?vid=278a506b-3b1b-4d97-bb5e-5869d9c38046","ios":"levelo://app?vid=278a506b-3b1b-4d97-bb5e-5869d9c38046"},"vehicle_type_id":"4","last_reported":1743516584,"current_range_meters":12400,"station_id":"ce4bhqp2rcd13ifvqhng","pricing_plan_id":"cebpf4jnsgd1na2vs0mg"},{"bike_id":"c3742909-8ac1-45e8-bbc0-0a14494abaa8","system_id":"levelo_inurba_marseille","lat":43.246417,"lon":5.388899,"is_reserved":false,"is_disabled":false,"rental_uris":{"android":"levelo://app?vid=c3742909-8ac1-45e8-bbc0-0a14494abaa8","ios":"levelo://app?vid=c3742909-8ac1-45e8-bbc0-0a14494abaa8"},"vehicle_type_id":"4","last_reported":1743516584,"current_range_meters":12400,"station_id":"ce4bhg12rcd13ifvqf60","pricing_plan_id":"cebpf4jnsgd1na2vs0mg"},{"bike_id":"4220d26d-272d-4b23-9cec-a79c1d919b49","system_id":"levelo_inurba_marseille","lat":43.30596,"lon":5.37107,"is_reserved":false,"is_disabled":false,"rental_uris":{"android":"levelo://app?vid=4220d26d-272d-4b23-9cec-a79c1d919b49","ios":"levelo://app?vid=4220d26d-272d-4b23-9cec-a79c1d919b49"},"vehicle_type_id":"4","last_reported":1743516584,"current_range_meters":12400,"station_id":"","pricing_plan_id":"cebpf4jnsgd1na2vs0mg"},{"bike_id":"8f053676-2937-43a8-a9c8-da04fcc249ea","system_id":"levelo_inurba_marseille","lat":43.291,"lon":5.38136,"is_reserved":false,"is_disabled":false,"rental_uris":{"android":"levelo://app?vid=8f053676-2937-43a8-a9c8-da04fcc249ea","ios":"levelo://app?vid=8f053676-2937-43a8-a9c8-da04fcc249ea"},"vehicle_type_id":"4","last_reported":1743516584,"current_range_meters":12400,"station_id":"ce4bh512rcd13ifvqe2g","pricing_plan_id":"cebpf4jnsgd1na2vs0mg"},{"bike_id":"fe7ebadc-533d-4ae8-b62c-c766fb9d8182","system_id":"levelo_inurba_marseille","lat":43.231607,"lon":5.437029,"is_reserved":false,"is_disabled":false,"rental_uris":{"android":"levelo://app?vid=fe7ebadc-533d-4ae8-b62c-c766fb9d8182","ios":"levelo://app?vid=fe7ebadc-533d-4ae8-b62c-c766fb9d8182"},"vehicle_type_id":"4","last_reported":1743516584,"current_range_meters":12400,"station_id":"ce4bhi12rcd13ifvqfq0","pricing_plan_id":"cebpf4jnsgd1na2vs0mg"},{"bike_id":"86354ae6-2ad3-4c03-a340-c661e15634b2","system_id":"levelo_inurba_marseille","lat":43.301374,"lon":5.3742,"is_reserved":false,"is_disabled":false,"rental_uris":{"android":"levelo://app?vid=86354ae6-2ad3-4c03-a340-c661e15634b2","ios":"levelo://app?vid=86354ae6-2ad3-4c03-a340-c661e15634b2"},"vehicle_type_id":"4","last_reported":1743516584,"current_range_meters":12800,"station_id":"ce4bgs92rcd13ifvqcc0","pricing_plan_id":"cebpf4jnsgd1na2vs0mg"},{"bike_id":"4473773a-b619-4921-89fe-3cc56b373aea","system_id":"levelo_inurba_marseille","lat":43.28372,"lon":5.38629,"is_reserved":false,"is_disabled":false,"rental_uris":{"android":"levelo://app?vid=4473773a-b619-4921-89fe-3cc56b373aea","ios":"levelo://app?vid=4473773a-b619-4921-89fe-3cc56b373aea"},"vehicle_type_id":"4","last_reported":1743516584,"current_range_meters":12800,"station_id":"ce4bh492rcd13ifvqdvg","pricing_plan_id":"cebpf4jnsgd1na2vs0mg"},{"bike_id":"4c56fffc-ae3a-45ce-87a3-f2bc307be108","system_id":"levelo_inurba_marseille","lat":43.30885,"lon":5.36848,"is_reserved":false,"is_disabled":false,"rental_uris":{"android":"levelo://app?vid=4c56fffc-ae3a-45ce-87a3-f2bc307be108","ios":"levelo://app?vid=4c56fffc-ae3a-45ce-87a3-f2bc307be108"},"vehicle_type_id":"4","last_reported":1743516584,"current_range_meters":12800,"station_id":"ce4bgn92rcd13ifvqbvg","pricing_plan_id":"cebpf4jnsgd1na2vs0mg"},{"bike_id":"a0da4baf-c909-49d9-bd7b-5a273546fb7f","system_id":"levelo_inurba_marseille","lat":43.29266,"lon":5.37626,"is_reserved":false,"is_disabled":false,"rental_uris":{"android":"levelo://app?vid=a0da4baf-c909-49d9-bd7b-5a273546fb7f","ios":"levelo://app?vid=a0da4baf-c909-49d9-bd7b-5a273546fb7f"},"vehicle_type_id":"4","last_reported":1743516584,"current_range_meters":12800,"station_id":"ce4bgi12rcd13ifvqb80","pricing_plan_id":"cebpf4jnsgd1na2vs0mg"},{"bike_id":"5e70e169-7ab1-42e7-a024-e58cfd19a61b","system_id":"levelo_inurba_marseille","lat":43.25005,"lon":5.38925,"is_reserved":false,"is_disabled":false,"rental_uris":{"android":"levelo://app?vid=5e70e169-7ab1-42e7-a024-e58cfd19a61b","ios":"levelo://app?vid=5e70e169-7ab1-42e7-a024-e58cfd19a61b"},"vehicle_type_id":"4","last_reported":1743516584,"current_range_meters":12800,"station_id":"ce4bhgp2rcd13ifvqfd0","pricing_plan_id":"cebpf4jnsgd1na2vs0mg"},{"bike_id":"a9392c32-b8e3-41f9-ae3c-96f82eb8a90f","system_id":"levelo_inurba_marseille","lat":43.230582,"lon":5.354902,"is_reserved":false,"is_disabled":false,"rental_uris":{"android":"levelo://app?vid=a9392c32-b8e3-41f9-ae3c-96f82eb8a90f","ios":"levelo://app?vid=a9392c32-b8e3-41f9-ae3c-96f82eb8a90f"},"vehicle_type_id":"4","last_reported":1743516584,"current_range_meters":13600,"station_id":"cpo3342slgdg3j2ifvpg","pricing_plan_id":"cebpf4jnsgd1na2vs0mg"},{"bike_id":"6e6a66e5-58ca-4db1-9695-b46ed5c28827","system_id":"levelo_inurba_marseille","lat":43.31788,"lon":5.36801,"is_reserved":false,"is_disabled":false,"rental_uris":{"android":"levelo://app?vid=6e6a66e5-58ca-4db1-9695-b46ed5c28827","ios":"levelo://app?vid=6e6a66e5-58ca-4db1-9695-b46ed5c28827"},"vehicle_type_id":"4","last_reported":1743516584,"current_range_meters":13600,"station_id":"","pricing_plan_id":"cebpf4jnsgd1na2vs0mg"},{"bike_id":"71583079-eaec-4d35-a698-ada540432920","system_id":"levelo_inurba_marseille","lat":43.28462,"lon":5.35902,"is_reserved":false,"is_disabled":false,"rental_uris":{"android":"levelo://app?vid=71583079-eaec-4d35-a698-ada540432920","ios":"levelo://app?vid=71583079-eaec-4d35-a698-ada540432920"},"vehicle_type_id":"4","last_reported":1743516584,"current_range_meters":13600,"station_id":"ce4bhah2rcd13ifvqei0","pricing_plan_id":"cebpf4jnsgd1na2vs0mg"},{"bike_id":"6b8d5371-b5ab-4832-8c8e-12234f9dff78","system_id":"levelo_inurba_marseille","lat":43.31751,"lon":5.39022,"is_reserved":false,"is_disabled":false,"rental_uris":{"android":"levelo://app?vid=6b8d5371-b5ab-4832-8c8e-12234f9dff78","ios":"levelo://app?vid=6b8d5371-b5ab-4832-8c8e-12234f9dff78"},"vehicle_type_id":"4","last_reported":1743516584,"current_range_meters":13600,"station_id":"ce4bhqp2rcd13ifvqhng","pricing_plan_id":"cebpf4jnsgd1na2vs0mg"},{"bike_id":"4c564b34-6817-415a-8489-26db1ea03ff9","system_id":"levelo_inurba_marseille","lat":43.23146,"lon":5.43713,"is_reserved":false,"is_disabled":false,"rental_uris":{"android":"levelo://app?vid=4c564b34-6817-415a-8489-26db1ea03ff9","ios":"levelo://app?vid=4c564b34-6817-415a-8489-26db1ea03ff9"},"vehicle_type_id":"4","last_reported":1743516584,"current_range_meters":13600,"station_id":"ce4bhmp2rcd13ifvqgog","pricing_plan_id":"cebpf4jnsgd1na2vs0mg"},{"bike_id":"0afa3927-b8ca-41ad-8583-b7347fa61b46","system_id":"levelo_inurba_marseille","lat":43.26202,"lon":5.37928,"is_reserved":false,"is_disabled":false,"rental_uris":{"android":"levelo://app?vid=0afa3927-b8ca-41ad-8583-b7347fa61b46","ios":"levelo://app?vid=0afa3927-b8ca-41ad-8583-b7347fa61b46"},"vehicle_type_id":"4","last_reported":1743516584,"current_range_meters":14000,"station_id":"ce4bhjp2rcd13ifvqg90","pricing_plan_id":"cebpf4jnsgd1na2vs0mg"},{"bike_id":"f616f89a-6b5f-47f2-be4a-c1252268f5f4","system_id":"levelo_inurba_marseille","lat":43.29427,"lon":5.38613,"is_reserved":false,"is_disabled":true,"rental_uris":{"android":"levelo://app?vid=f616f89a-6b5f-47f2-be4a-c1252268f5f4","ios":"levelo://app?vid=f616f89a-6b5f-47f2-be4a-c1252268f5f4"},"vehicle_type_id":"4","last_reported":1743516584,"current_range_meters":14000,"station_id":"ce4bh2h2rcd13ifvqdh0","pricing_plan_id":"cebpf4jnsgd1na2vs0mg"},{"bike_id":"bad8b686-d4b1-4fd1-a906-eeff21f737a2","system_id":"levelo_inurba_marseille","lat":43.24176,"lon":5.39717,"is_reserved":false,"is_disabled":false,"rental_uris":{"android":"levelo://app?vid=bad8b686-d4b1-4fd1-a906-eeff21f737a2","ios":"levelo://app?vid=bad8b686-d4b1-4fd1-a906-eeff21f737a2"},"vehicle_type_id":"4","last_reported":1743516584,"current_range_meters":14000,"station_id":"ce4bhn12rcd13ifvqgpg","pricing_plan_id":"cebpf4jnsgd1na2vs0mg"},{"bike_id":"bb962793-1631-49d8-a62d-89c39352b24b","system_id":"levelo_inurba_marseille","lat":43.30549,"lon":5.36716,"is_reserved":false,"is_disabled":false,"rental_uris":{"android":"levelo://app?vid=bb962793-1631-49d8-a62d-89c39352b24b","ios":"levelo://app?vid=bb962793-1631-49d8-a62d-89c39352b24b"},"vehicle_type_id":"4","last_reported":1743516584,"current_range_meters":14000,"station_id":"ce4bgrp2rcd13ifvqc9g","pricing_plan_id":"cebpf4jnsgd1na2vs0mg"},{"bike_id":"68238a7a-d5ab-4a62-ba78-2a41519b0f9f","system_id":"levelo_inurba_marseille","lat":43.24548,"lon":5.39527,"is_reserved":false,"is_disabled":false,"rental_uris":{"android":"levelo://app?vid=68238a7a-d5ab-4a62-ba78-2a41519b0f9f","ios":"levelo://app?vid=68238a7a-d5ab-4a62-ba78-2a41519b0f9f"},"vehicle_type_id":"4","last_reported":1743516584,"current_range_meters":7200,"station_id":"ce4bhlp2rcd13ifvqgjg","pricing_plan_id":"cebpf4jnsgd1na2vs0mg"},{"bike_id":"159b1a57-d33a-4c4e-9de5-425002d00e96","system_id":"levelo_inurba_marseille","lat":43.25916,"lon":5.408825,"is_reserved":false,"is_disabled":false,"rental_uris":{"android":"levelo://app?vid=159b1a57-d33a-4c4e-9de5-425002d00e96","ios":"levelo://app?vid=159b1a57-d33a-4c4e-9de5-425002d00e96"},"vehicle_type_id":"4","last_reported":1743516584,"current_range_meters":14000,"station_id":"ce4bhm92rcd13ifvqglg","pricing_plan_id":"cebpf4jnsgd1na2vs0mg"},{"bike_id":"9004e4b8-1367-43f3-bece-d66bb92fccf7","system_id":"levelo_inurba_marseille","lat":43.2721,"lon":5.39187,"is_reserved":false,"is_disabled":false,"rental_uris":{"android":"levelo://app?vid=9004e4b8-1367-43f3-bece-d66bb92fccf7","ios":"levelo://app?vid=9004e4b8-1367-43f3-bece-d66bb92fccf7"},"vehicle_type_id":"4","last_reported":1743516584,"current_range_meters":14000,"station_id":"ce4bhhp2rcd13ifvqfm0","pricing_plan_id":"cebpf4jnsgd1na2vs0mg"},{"bike_id":"bf98cb9c-37fd-42e9-9af0-61b24e7e4022","system_id":"levelo_inurba_marseille","lat":43.290936,"lon":5.38145,"is_reserved":false,"is_disabled":false,"rental_uris":{"android":"levelo://app?vid=bf98cb9c-37fd-42e9-9af0-61b24e7e4022","ios":"levelo://app?vid=bf98cb9c-37fd-42e9-9af0-61b24e7e4022"},"vehicle_type_id":"4","last_reported":1743516584,"current_range_meters":14400,"station_id":"ce4bh512rcd13ifvqe2g","pricing_plan_id":"cebpf4jnsgd1na2vs0mg"},{"bike_id":"6545e48a-4bf5-4339-a01e-fb5c225a83af","system_id":"levelo_inurba_marseille","lat":43.30134,"lon":5.3741,"is_reserved":false,"is_disabled":false,"rental_uris":{"android":"levelo://app?vid=6545e48a-4bf5-4339-a01e-fb5c225a83af","ios":"levelo://app?vid=6545e48a-4bf5-4339-a01e-fb5c225a83af"},"vehicle_type_id":"4","last_reported":1743516584,"current_range_meters":14400,"station_id":"ce4bgs92rcd13ifvqcc0","pricing_plan_id":"cebpf4jnsgd1na2vs0mg"},{"bike_id":"bf5acb91-a53a-4d92-8625-24b7e012fff0","system_id":"levelo_inurba_marseille","lat":43.27569,"lon":5.38416,"is_reserved":false,"is_disabled":false,"rental_uris":{"android":"levelo://app?vid=bf5acb91-a53a-4d92-8625-24b7e012fff0","ios":"levelo://app?vid=bf5acb91-a53a-4d92-8625-24b7e012fff0"},"vehicle_type_id":"4","last_reported":1743516584,"current_range_meters":14400,"station_id":"ce4bhh92rcd13ifvqfi0","pricing_plan_id":"cebpf4jnsgd1na2vs0mg"},{"bike_id":"8b33a11b-9d12-452b-a68c-a2a2fb2a68c1","system_id":"levelo_inurba_marseille","lat":43.28344,"lon":5.38099,"is_reserved":false,"is_disabled":false,"rental_uris":{"android":"levelo://app?vid=8b33a11b-9d12-452b-a68c-a2a2fb2a68c1","ios":"levelo://app?vid=8b33a11b-9d12-452b-a68c-a2a2fb2a68c1"},"vehicle_type_id":"4","last_reported":1743516584,"current_range_meters":14400,"station_id":"ce4bh412rcd13ifvqdr0","pricing_plan_id":"cebpf4jnsgd1na2vs0mg"},{"bike_id":"025b5dd4-3c51-4573-b622-a8341c4be991","system_id":"levelo_inurba_marseille","lat":43.274965,"lon":5.424545,"is_reserved":false,"is_disabled":false,"rental_uris":{"android":"levelo://app?vid=025b5dd4-3c51-4573-b622-a8341c4be991","ios":"levelo://app?vid=025b5dd4-3c51-4573-b622-a8341c4be991"},"vehicle_type_id":"4","last_reported":1743516584,"current_range_meters":14400,"station_id":"ce4bhn92rcd13ifvqgrg","pricing_plan_id":"cebpf4jnsgd1na2vs0mg"},{"bike_id":"d662608d-504d-43ae-8d4a-6ba237d6c000","system_id":"levelo_inurba_marseille","lat":43.31078,"lon":5.40094,"is_reserved":false,"is_disabled":false,"rental_uris":{"android":"levelo://app?vid=d662608d-504d-43ae-8d4a-6ba237d6c000","ios":"levelo://app?vid=d662608d-504d-43ae-8d4a-6ba237d6c000"},"vehicle_type_id":"4","last_reported":1743516584,"current_range_meters":14400,"station_id":"","pricing_plan_id":"cebpf4jnsgd1na2vs0mg"},{"bike_id":"17011927-5eb5-4a38-a132-35a6858ea1fb","system_id":"levelo_inurba_marseille","lat":43.30298,"lon":5.39216,"is_reserved":false,"is_disabled":true,"rental_uris":{"android":"levelo://app?vid=17011927-5eb5-4a38-a132-35a6858ea1fb","ios":"levelo://app?vid=17011927-5eb5-4a38-a132-35a6858ea1fb"},"vehicle_type_id":"4","last_reported":1743516584,"current_range_meters":14400,"station_id":"ce4bgkh2rcd13ifvqbk0","pricing_plan_id":"cebpf4jnsgd1na2vs0mg"},{"bike_id":"e148934c-60e8-46e5-b3d5-443de7cd90ec","system_id":"levelo_inurba_marseille","lat":43.28938,"lon":5.39632,"is_reserved":false,"is_disabled":false,"rental_uris":{"android":"levelo://app?vid=e148934c-60e8-46e5-b3d5-443de7cd90ec","ios":"levelo://app?vid=e148934c-60e8-46e5-b3d5-443de7cd90ec"},"vehicle_type_id":"4","last_reported":1743516584,"current_range_meters":14800,"station_id":"ce4bh3h2rcd13ifvqdn0","pricing_plan_id":"cebpf4jnsgd1na2vs0mg"},{"bike_id":"564e3f4e-e559-42d2-927f-42e2a5675775","system_id":"levelo_inurba_marseille","lat":43.30546,"lon":5.36683,"is_reserved":false,"is_disabled":false,"rental_uris":{"android":"levelo://app?vid=564e3f4e-e559-42d2-927f-42e2a5675775","ios":"levelo://app?vid=564e3f4e-e559-42d2-927f-42e2a5675775"},"vehicle_type_id":"4","last_reported":1743516584,"current_range_meters":14800,"station_id":"ce4bgrp2rcd13ifvqc9g","pricing_plan_id":"cebpf4jnsgd1na2vs0mg"},{"bike_id":"dd3db03f-0f43-4986-9ec8-2a76818fb28c","system_id":"levelo_inurba_marseille","lat":43.23196,"lon":5.35557,"is_reserved":false,"is_disabled":false,"rental_uris":{"android":"levelo://app?vid=dd3db03f-0f43-4986-9ec8-2a76818fb28c","ios":"levelo://app?vid=dd3db03f-0f43-4986-9ec8-2a76818fb28c"},"vehicle_type_id":"4","last_reported":1743516584,"current_range_meters":14800,"station_id":"ce4bhu92rcd13ifvqi70","pricing_plan_id":"cebpf4jnsgd1na2vs0mg"},{"bike_id":"0f83eb43-fd07-43dd-990b-948afb1e706b","system_id":"levelo_inurba_marseille","lat":43.28481,"lon":5.385631,"is_reserved":false,"is_disabled":false,"rental_uris":{"android":"levelo://app?vid=0f83eb43-fd07-43dd-990b-948afb1e706b","ios":"levelo://app?vid=0f83eb43-fd07-43dd-990b-948afb1e706b"},"vehicle_type_id":"4","last_reported":1743516584,"current_range_meters":14800,"station_id":"ce4bh8p2rcd13ifvqeb0","pricing_plan_id":"cebpf4jnsgd1na2vs0mg"},{"bike_id":"9662d1d0-c8f9-4e8a-9e6c-a0c1575bddc7","system_id":"levelo_inurba_marseille","lat":43.3055,"lon":5.36703,"is_reserved":false,"is_disabled":false,"rental_uris":{"android":"levelo://app?vid=9662d1d0-c8f9-4e8a-9e6c-a0c1575bddc7","ios":"levelo://app?vid=9662d1d0-c8f9-4e8a-9e6c-a0c1575bddc7"},"vehicle_type_id":"4","last_reported":1743516584,"current_range_meters":14800,"station_id":"ce4bgrp2rcd13ifvqc9g","pricing_plan_id":"cebpf4jnsgd1na2vs0mg"},{"bike_id":"223a4859-0829-4916-b498-78cbfdf9e217","system_id":"levelo_inurba_marseille","lat":43.28465,"lon":5.384106,"is_reserved":false,"is_disabled":false,"rental_uris":{"android":"levelo://app?vid=223a4859-0829-4916-b498-78cbfdf9e217","ios":"levelo://app?vid=223a4859-0829-4916-b498-78cbfdf9e217"},"vehicle_type_id":"4","last_reported":1743516584,"current_range_meters":14800,"station_id":"ce4bh512rcd13ifvqe3g","pricing_plan_id":"cebpf4jnsgd1na2vs0mg"},{"bike_id":"d8461f5a-c13f-4640-a7cf-50b098eed3f5","system_id":"levelo_inurba_marseille","lat":43.31084,"lon":5.42433,"is_reserved":false,"is_disabled":false,"rental_uris":{"android":"levelo://app?vid=d8461f5a-c13f-4640-a7cf-50b098eed3f5","ios":"levelo://app?vid=d8461f5a-c13f-4640-a7cf-50b098eed3f5"},"vehicle_type_id":"4","last_reported":1743516584,"current_range_meters":15200,"station_id":"ce4bhp92rcd13ifvqhag","pricing_plan_id":"cebpf4jnsgd1na2vs0mg"},{"bike_id":"b80ee275-2592-4659-b2e9-175feb839700","system_id":"levelo_inurba_marseille","lat":43.231982,"lon":5.355422,"is_reserved":false,"is_disabled":false,"rental_uris":{"android":"levelo://app?vid=b80ee275-2592-4659-b2e9-175feb839700","ios":"levelo://app?vid=b80ee275-2592-4659-b2e9-175feb839700"},"vehicle_type_id":"4","last_reported":1743516584,"current_range_meters":15200,"station_id":"ce4bhu92rcd13ifvqi70","pricing_plan_id":"cebpf4jnsgd1na2vs0mg"},{"bike_id":"d88ef7fc-58cf-4473-8716-ffc9d9fdb054","system_id":"levelo_inurba_marseille","lat":43.2418,"lon":5.39733,"is_reserved":false,"is_disabled":false,"rental_uris":{"android":"levelo://app?vid=d88ef7fc-58cf-4473-8716-ffc9d9fdb054","ios":"levelo://app?vid=d88ef7fc-58cf-4473-8716-ffc9d9fdb054"},"vehicle_type_id":"4","last_reported":1743516584,"current_range_meters":15200,"station_id":"ce4bhn12rcd13ifvqgpg","pricing_plan_id":"cebpf4jnsgd1na2vs0mg"},{"bike_id":"f45fd1e9-a530-42ad-8dae-1e99d029139c","system_id":"levelo_inurba_marseille","lat":43.32662,"lon":5.40996,"is_reserved":false,"is_disabled":false,"rental_uris":{"android":"levelo://app?vid=f45fd1e9-a530-42ad-8dae-1e99d029139c","ios":"levelo://app?vid=f45fd1e9-a530-42ad-8dae-1e99d029139c"},"vehicle_type_id":"4","last_reported":1743516584,"current_range_meters":15200,"station_id":"ce4bhpp2rcd13ifvqhgg","pricing_plan_id":"cebpf4jnsgd1na2vs0mg"},{"bike_id":"34c29b49-6064-4384-b5b7-4b4ec4964a44","system_id":"levelo_inurba_marseille","lat":43.24178,"lon":5.39734,"is_reserved":false,"is_disabled":false,"rental_uris":{"android":"levelo://app?vid=34c29b49-6064-4384-b5b7-4b4ec4964a44","ios":"levelo://app?vid=34c29b49-6064-4384-b5b7-4b4ec4964a44"},"vehicle_type_id":"4","last_reported":1743516584,"current_range_meters":15200,"station_id":"ce4bhn12rcd13ifvqgpg","pricing_plan_id":"cebpf4jnsgd1na2vs0mg"},{"bike_id":"40940775-1927-47a3-98c3-c01f7714ecd5","system_id":"levelo_inurba_marseille","lat":43.29111,"lon":5.38132,"is_reserved":false,"is_disabled":false,"rental_uris":{"android":"levelo://app?vid=40940775-1927-47a3-98c3-c01f7714ecd5","ios":"levelo://app?vid=40940775-1927-47a3-98c3-c01f7714ecd5"},"vehicle_type_id":"4","last_reported":1743516584,"current_range_meters":15200,"station_id":"ce4bh512rcd13ifvqe2g","pricing_plan_id":"cebpf4jnsgd1na2vs0mg"},{"bike_id":"52eed171-d991-442d-9aed-a52bb936dd5e","system_id":"levelo_inurba_marseille","lat":43.26691,"lon":5.38261,"is_reserved":false,"is_disabled":false,"rental_uris":{"android":"levelo://app?vid=52eed171-d991-442d-9aed-a52bb936dd5e","ios":"levelo://app?vid=52eed171-d991-442d-9aed-a52bb936dd5e"},"vehicle_type_id":"4","last_reported":1743516584,"current_range_meters":15200,"station_id":"ce4bhg92rcd13ifvqf90","pricing_plan_id":"cebpf4jnsgd1na2vs0mg"},{"bike_id":"a8c8cd83-5532-4131-94b1-afef1bb02516","system_id":"levelo_inurba_marseille","lat":43.257362,"lon":5.411081,"is_reserved":false,"is_disabled":false,"rental_uris":{"android":"levelo://app?vid=a8c8cd83-5532-4131-94b1-afef1bb02516","ios":"levelo://app?vid=a8c8cd83-5532-4131-94b1-afef1bb02516"},"vehicle_type_id":"4","last_reported":1743516584,"current_range_meters":16000,"station_id":"ce4bhkp2rcd13ifvqgd0","pricing_plan_id":"cebpf4jnsgd1na2vs0mg"},{"bike_id":"f243ee3c-9b98-451a-9f48-7ec3e30e2cbf","system_id":"levelo_inurba_marseille","lat":43.27926,"lon":5.39612,"is_reserved":false,"is_disabled":false,"rental_uris":{"android":"levelo://app?vid=f243ee3c-9b98-451a-9f48-7ec3e30e2cbf","ios":"levelo://app?vid=f243ee3c-9b98-451a-9f48-7ec3e30e2cbf"},"vehicle_type_id":"4","last_reported":1743516584,"current_range_meters":16000,"station_id":"ce4bhf92rcd13ifvqf40","pricing_plan_id":"cebpf4jnsgd1na2vs0mg"},{"bike_id":"6383fe4e-2f86-45df-b7a6-816a0ace423f","system_id":"levelo_inurba_marseille","lat":43.30153,"lon":5.38087,"is_reserved":false,"is_disabled":false,"rental_uris":{"android":"levelo://app?vid=6383fe4e-2f86-45df-b7a6-816a0ace423f","ios":"levelo://app?vid=6383fe4e-2f86-45df-b7a6-816a0ace423f"},"vehicle_type_id":"4","last_reported":1743516584,"current_range_meters":16000,"station_id":"ce4bgjp2rcd13ifvqbh0","pricing_plan_id":"cebpf4jnsgd1na2vs0mg"},{"bike_id":"76fb9f2d-d597-4c2d-b638-0872d54f6570","system_id":"levelo_inurba_marseille","lat":43.24662,"lon":5.38165,"is_reserved":false,"is_disabled":false,"rental_uris":{"android":"levelo://app?vid=76fb9f2d-d597-4c2d-b638-0872d54f6570","ios":"levelo://app?vid=76fb9f2d-d597-4c2d-b638-0872d54f6570"},"vehicle_type_id":"4","last_reported":1743516584,"current_range_meters":16000,"station_id":"ce4bhih2rcd13ifvqfr0","pricing_plan_id":"cebpf4jnsgd1na2vs0mg"},{"bike_id":"dfc1efd9-fe5a-40fc-8841-a9aa650c7681","system_id":"levelo_inurba_marseille","lat":43.28971,"lon":5.37838,"is_reserved":false,"is_disabled":false,"rental_uris":{"android":"levelo://app?vid=dfc1efd9-fe5a-40fc-8841-a9aa650c7681","ios":"levelo://app?vid=dfc1efd9-fe5a-40fc-8841-a9aa650c7681"},"vehicle_type_id":"4","last_reported":1743516584,"current_range_meters":16000,"station_id":"ce4bh9p2rcd13ifvqed0","pricing_plan_id":"cebpf4jnsgd1na2vs0mg"},{"bike_id":"dd8eb8ef-4e76-4e50-a068-19aab2791b35","system_id":"levelo_inurba_marseille","lat":43.305427,"lon":5.365281,"is_reserved":false,"is_disabled":false,"rental_uris":{"android":"levelo://app?vid=dd8eb8ef-4e76-4e50-a068-19aab2791b35","ios":"levelo://app?vid=dd8eb8ef-4e76-4e50-a068-19aab2791b35"},"vehicle_type_id":"4","last_reported":1743516584,"current_range_meters":16000,"station_id":"ce4bgs12rcd13ifvqcag","pricing_plan_id":"cebpf4jnsgd1na2vs0mg"},{"bike_id":"21816de5-8afb-4386-b93e-3f94c8bf03c1","system_id":"levelo_inurba_marseille","lat":43.26555,"lon":5.37305,"is_reserved":false,"is_disabled":false,"rental_uris":{"android":"levelo://app?vid=21816de5-8afb-4386-b93e-3f94c8bf03c1","ios":"levelo://app?vid=21816de5-8afb-4386-b93e-3f94c8bf03c1"},"vehicle_type_id":"4","last_reported":1743516584,"current_range_meters":16000,"station_id":"ce4bhg12rcd13ifvqf70","pricing_plan_id":"cebpf4jnsgd1na2vs0mg"},{"bike_id":"f55695a6-b65f-4a30-99ab-94b2bfa63268","system_id":"levelo_inurba_marseille","lat":43.23202,"lon":5.3554,"is_reserved":false,"is_disabled":false,"rental_uris":{"android":"levelo://app?vid=f55695a6-b65f-4a30-99ab-94b2bfa63268","ios":"levelo://app?vid=f55695a6-b65f-4a30-99ab-94b2bfa63268"},"vehicle_type_id":"4","last_reported":1743516584,"current_range_meters":16000,"station_id":"ce4bhu92rcd13ifvqi70","pricing_plan_id":"cebpf4jnsgd1na2vs0mg"},{"bike_id":"e40bd89a-e164-46de-a63c-3e3c4f648a68","system_id":"levelo_inurba_marseille","lat":43.309572,"lon":5.390379,"is_reserved":false,"is_disabled":false,"rental_uris":{"android":"levelo://app?vid=e40bd89a-e164-46de-a63c-3e3c4f648a68","ios":"levelo://app?vid=e40bd89a-e164-46de-a63c-3e3c4f648a68"},"vehicle_type_id":"4","last_reported":1743516584,"current_range_meters":16000,"station_id":"ce4bgup2rcd13ifvqco0","pricing_plan_id":"cebpf4jnsgd1na2vs0mg"},{"bike_id":"375bc032-dd85-4375-87d3-de431e915aa6","system_id":"levelo_inurba_marseille","lat":43.29613,"lon":5.3772,"is_reserved":false,"is_disabled":false,"rental_uris":{"android":"levelo://app?vid=375bc032-dd85-4375-87d3-de431e915aa6","ios":"levelo://app?vid=375bc032-dd85-4375-87d3-de431e915aa6"},"vehicle_type_id":"4","last_reported":1743516584,"current_range_meters":16000,"station_id":"ce4bgi92rcd13ifvqb90","pricing_plan_id":"cebpf4jnsgd1na2vs0mg"},{"bike_id":"64d267a9-f77f-46f7-9279-a4d553f59527","system_id":"levelo_inurba_marseille","lat":43.2862,"lon":5.35108,"is_reserved":false,"is_disabled":false,"rental_uris":{"android":"levelo://app?vid=64d267a9-f77f-46f7-9279-a4d553f59527","ios":"levelo://app?vid=64d267a9-f77f-46f7-9279-a4d553f59527"},"vehicle_type_id":"4","last_reported":1743516584,"current_range_meters":16000,"station_id":"ce4bhch2rcd13ifvqeug","pricing_plan_id":"cebpf4jnsgd1na2vs0mg"},{"bike_id":"d0d036cb-ec0f-40bb-ba13-ea15b7342aee","system_id":"levelo_inurba_marseille","lat":43.27209,"lon":5.39187,"is_reserved":false,"is_disabled":false,"rental_uris":{"android":"levelo://app?vid=d0d036cb-ec0f-40bb-ba13-ea15b7342aee","ios":"levelo://app?vid=d0d036cb-ec0f-40bb-ba13-ea15b7342aee"},"vehicle_type_id":"4","last_reported":1743516584,"current_range_meters":16000,"station_id":"ce4bhhp2rcd13ifvqfm0","pricing_plan_id":"cebpf4jnsgd1na2vs0mg"},{"bike_id":"0ed80ee8-56b7-4580-8a94-56be39e58fa3","system_id":"levelo_inurba_marseille","lat":43.25578,"lon":5.38237,"is_reserved":false,"is_disabled":false,"rental_uris":{"android":"levelo://app?vid=0ed80ee8-56b7-4580-8a94-56be39e58fa3","ios":"levelo://app?vid=0ed80ee8-56b7-4580-8a94-56be39e58fa3"},"vehicle_type_id":"4","last_reported":1743516584,"current_range_meters":16000,"station_id":"ce4bhih2rcd13ifvqfs0","pricing_plan_id":"cebpf4jnsgd1na2vs0mg"},{"bike_id":"75dae32f-059a-4b5b-a5e8-963c6eda2f66","system_id":"levelo_inurba_marseille","lat":43.27521,"lon":5.4105,"is_reserved":false,"is_disabled":false,"rental_uris":{"android":"levelo://app?vid=75dae32f-059a-4b5b-a5e8-963c6eda2f66","ios":"levelo://app?vid=75dae32f-059a-4b5b-a5e8-963c6eda2f66"},"vehicle_type_id":"4","last_reported":1743516584,"current_range_meters":16000,"station_id":"","pricing_plan_id":"cebpf4jnsgd1na2vs0mg"},{"bike_id":"90fd082a-f13a-4318-a41b-4cf9893bf463","system_id":"levelo_inurba_marseille","lat":43.30541,"lon":5.36529,"is_reserved":false,"is_disabled":false,"rental_uris":{"android":"levelo://app?vid=90fd082a-f13a-4318-a41b-4cf9893bf463","ios":"levelo://app?vid=90fd082a-f13a-4318-a41b-4cf9893bf463"},"vehicle_type_id":"4","last_reported":1743516584,"current_range_meters":16400,"station_id":"ce4bgs12rcd13ifvqcag","pricing_plan_id":"cebpf4jnsgd1na2vs0mg"},{"bike_id":"55a15ed2-85e7-42dc-bfb5-ae94c87d1307","system_id":"levelo_inurba_marseille","lat":43.30249,"lon":5.40071,"is_reserved":false,"is_disabled":false,"rental_uris":{"android":"levelo://app?vid=55a15ed2-85e7-42dc-bfb5-ae94c87d1307","ios":"levelo://app?vid=55a15ed2-85e7-42dc-bfb5-ae94c87d1307"},"vehicle_type_id":"4","last_reported":1743516584,"current_range_meters":16400,"station_id":"ce4bgvh2rcd13ifvqcs0","pricing_plan_id":"cebpf4jnsgd1na2vs0mg"},{"bike_id":"efd8a7d0-f260-48f2-a96d-f5f6ab1ce17d","system_id":"levelo_inurba_marseille","lat":43.2871,"lon":5.37929,"is_reserved":false,"is_disabled":false,"rental_uris":{"android":"levelo://app?vid=efd8a7d0-f260-48f2-a96d-f5f6ab1ce17d","ios":"levelo://app?vid=efd8a7d0-f260-48f2-a96d-f5f6ab1ce17d"},"vehicle_type_id":"4","last_reported":1743516584,"current_range_meters":16400,"station_id":"ce4bh9p2rcd13ifvqec0","pricing_plan_id":"cebpf4jnsgd1na2vs0mg"},{"bike_id":"048526f8-409c-4881-a29c-121d4afcd420","system_id":"levelo_inurba_marseille","lat":43.29869,"lon":5.39731,"is_reserved":false,"is_disabled":false,"rental_uris":{"android":"levelo://app?vid=048526f8-409c-4881-a29c-121d4afcd420","ios":"levelo://app?vid=048526f8-409c-4881-a29c-121d4afcd420"},"vehicle_type_id":"4","last_reported":1743516584,"current_range_meters":16400,"station_id":"ce4bh0h2rcd13ifvqd50","pricing_plan_id":"cebpf4jnsgd1na2vs0mg"},{"bike_id":"c76b601d-d944-4d77-bccb-9ea34cbb4e56","system_id":"levelo_inurba_marseille","lat":43.2732,"lon":5.39078,"is_reserved":false,"is_disabled":false,"rental_uris":{"android":"levelo://app?vid=c76b601d-d944-4d77-bccb-9ea34cbb4e56","ios":"levelo://app?vid=c76b601d-d944-4d77-bccb-9ea34cbb4e56"},"vehicle_type_id":"4","last_reported":1743516584,"current_range_meters":16400,"station_id":"ce4bhgp2rcd13ifvqfe0","pricing_plan_id":"cebpf4jnsgd1na2vs0mg"},{"bike_id":"7b869cea-1d61-42d2-b04b-29df5bd7497f","system_id":"levelo_inurba_marseille","lat":43.32108,"lon":5.36769,"is_reserved":false,"is_disabled":false,"rental_uris":{"android":"levelo://app?vid=7b869cea-1d61-42d2-b04b-29df5bd7497f","ios":"levelo://app?vid=7b869cea-1d61-42d2-b04b-29df5bd7497f"},"vehicle_type_id":"4","last_reported":1743516584,"current_range_meters":16400,"station_id":"ce4bhrh2rcd13ifvqhug","pricing_plan_id":"cebpf4jnsgd1na2vs0mg"},{"bike_id":"414b1618-8907-418c-9232-e3993fbc4299","system_id":"levelo_inurba_marseille","lat":43.31993,"lon":5.38142,"is_reserved":false,"is_disabled":false,"rental_uris":{"android":"levelo://app?vid=414b1618-8907-418c-9232-e3993fbc4299","ios":"levelo://app?vid=414b1618-8907-418c-9232-e3993fbc4299"},"vehicle_type_id":"4","last_reported":1743516584,"current_range_meters":16400,"station_id":"ce4bhr12rcd13ifvqhpg","pricing_plan_id":"cebpf4jnsgd1na2vs0mg"},{"bike_id":"7be06644-e888-41f2-9c08-173a9a3965bc","system_id":"levelo_inurba_marseille","lat":43.23187,"lon":5.3998,"is_reserved":false,"is_disabled":false,"rental_uris":{"android":"levelo://app?vid=7be06644-e888-41f2-9c08-173a9a3965bc","ios":"levelo://app?vid=7be06644-e888-41f2-9c08-173a9a3965bc"},"vehicle_type_id":"4","last_reported":1743516584,"current_range_meters":16400,"station_id":"ce4bhn12rcd13ifvqgqg","pricing_plan_id":"cebpf4jnsgd1na2vs0mg"},{"bike_id":"20e37ee5-4144-46f6-ae82-ff86e3144909","system_id":"levelo_inurba_marseille","lat":43.30576,"lon":5.36704,"is_reserved":false,"is_disabled":false,"rental_uris":{"android":"levelo://app?vid=20e37ee5-4144-46f6-ae82-ff86e3144909","ios":"levelo://app?vid=20e37ee5-4144-46f6-ae82-ff86e3144909"},"vehicle_type_id":"4","last_reported":1743516584,"current_range_meters":16400,"station_id":"","pricing_plan_id":"cebpf4jnsgd1na2vs0mg"},{"bike_id":"a680fcef-3560-458d-9c46-af5039ad5317","system_id":"levelo_inurba_marseille","lat":43.26559,"lon":5.37287,"is_reserved":false,"is_disabled":false,"rental_uris":{"android":"levelo://app?vid=a680fcef-3560-458d-9c46-af5039ad5317","ios":"levelo://app?vid=a680fcef-3560-458d-9c46-af5039ad5317"},"vehicle_type_id":"4","last_reported":1743516584,"current_range_meters":16400,"station_id":"ce4bhg12rcd13ifvqf70","pricing_plan_id":"cebpf4jnsgd1na2vs0mg"},{"bike_id":"e3f0aa91-7166-4405-ab1d-e99c878c69a2","system_id":"levelo_inurba_marseille","lat":43.26557,"lon":5.373075,"is_reserved":false,"is_disabled":false,"rental_uris":{"android":"levelo://app?vid=e3f0aa91-7166-4405-ab1d-e99c878c69a2","ios":"levelo://app?vid=e3f0aa91-7166-4405-ab1d-e99c878c69a2"},"vehicle_type_id":"4","last_reported":1743516584,"current_range_meters":16400,"station_id":"ce4bhg12rcd13ifvqf70","pricing_plan_id":"cebpf4jnsgd1na2vs0mg"},{"bike_id":"4de37f6d-0727-4e2a-9f9a-df36d159d896","system_id":"levelo_inurba_marseille","lat":43.27674,"lon":5.38874,"is_reserved":false,"is_disabled":false,"rental_uris":{"android":"levelo://app?vid=4de37f6d-0727-4e2a-9f9a-df36d159d896","ios":"levelo://app?vid=4de37f6d-0727-4e2a-9f9a-df36d159d896"},"vehicle_type_id":"4","last_reported":1743516584,"current_range_meters":16400,"station_id":"ce4bhi12rcd13ifvqfo0","pricing_plan_id":"cebpf4jnsgd1na2vs0mg"},{"bike_id":"b4bba836-d0cb-4a7b-9e21-d5772d5a293a","system_id":"levelo_inurba_marseille","lat":43.31349,"lon":5.39714,"is_reserved":false,"is_disabled":false,"rental_uris":{"android":"levelo://app?vid=b4bba836-d0cb-4a7b-9e21-d5772d5a293a","ios":"levelo://app?vid=b4bba836-d0cb-4a7b-9e21-d5772d5a293a"},"vehicle_type_id":"4","last_reported":1743516584,"current_range_meters":16400,"station_id":"ce4bgvp2rcd13ifvqcu0","pricing_plan_id":"cebpf4jnsgd1na2vs0mg"},{"bike_id":"1dc7e494-0ce2-4d01-9509-d12eb75aa4a8","system_id":"levelo_inurba_marseille","lat":43.25493,"lon":5.37647,"is_reserved":false,"is_disabled":false,"rental_uris":{"android":"levelo://app?vid=1dc7e494-0ce2-4d01-9509-d12eb75aa4a8","ios":"levelo://app?vid=1dc7e494-0ce2-4d01-9509-d12eb75aa4a8"},"vehicle_type_id":"4","last_reported":1743516584,"current_range_meters":16400,"station_id":"ce4bhh12rcd13ifvqff0","pricing_plan_id":"cebpf4jnsgd1na2vs0mg"},{"bike_id":"65385d19-ee16-43a9-b862-32e3f371a694","system_id":"levelo_inurba_marseille","lat":43.29903,"lon":5.39709,"is_reserved":false,"is_disabled":false,"rental_uris":{"android":"levelo://app?vid=65385d19-ee16-43a9-b862-32e3f371a694","ios":"levelo://app?vid=65385d19-ee16-43a9-b862-32e3f371a694"},"vehicle_type_id":"4","last_reported":1743516584,"current_range_meters":16800,"station_id":"ce4bh0h2rcd13ifvqd50","pricing_plan_id":"cebpf4jnsgd1na2vs0mg"},{"bike_id":"e45d2123-aa43-45f5-aabe-f8664cbd6d9b","system_id":"levelo_inurba_marseille","lat":43.29256,"lon":5.37617,"is_reserved":false,"is_disabled":false,"rental_uris":{"android":"levelo://app?vid=e45d2123-aa43-45f5-aabe-f8664cbd6d9b","ios":"levelo://app?vid=e45d2123-aa43-45f5-aabe-f8664cbd6d9b"},"vehicle_type_id":"4","last_reported":1743516584,"current_range_meters":16800,"station_id":"ce4bgi12rcd13ifvqb80","pricing_plan_id":"cebpf4jnsgd1na2vs0mg"},{"bike_id":"5cfa82fd-7152-484f-8c15-ef4f44d24f84","system_id":"levelo_inurba_marseille","lat":43.28482,"lon":5.384085,"is_reserved":false,"is_disabled":false,"rental_uris":{"android":"levelo://app?vid=5cfa82fd-7152-484f-8c15-ef4f44d24f84","ios":"levelo://app?vid=5cfa82fd-7152-484f-8c15-ef4f44d24f84"},"vehicle_type_id":"4","last_reported":1743516584,"current_range_meters":16800,"station_id":"ce4bh512rcd13ifvqe3g","pricing_plan_id":"cebpf4jnsgd1na2vs0mg"},{"bike_id":"d157a8ac-f1ea-480a-a1ee-9ac00962bb01","system_id":"levelo_inurba_marseille","lat":43.295498,"lon":5.422906,"is_reserved":false,"is_disabled":false,"rental_uris":{"android":"levelo://app?vid=d157a8ac-f1ea-480a-a1ee-9ac00962bb01","ios":"levelo://app?vid=d157a8ac-f1ea-480a-a1ee-9ac00962bb01"},"vehicle_type_id":"4","last_reported":1743516584,"current_range_meters":16800,"station_id":"ce4bhph2rcd13ifvqhdg","pricing_plan_id":"cebpf4jnsgd1na2vs0mg"},{"bike_id":"ee8045b8-79f0-437a-8208-2821d28fa36d","system_id":"levelo_inurba_marseille","lat":43.28618,"lon":5.35102,"is_reserved":false,"is_disabled":false,"rental_uris":{"android":"levelo://app?vid=ee8045b8-79f0-437a-8208-2821d28fa36d","ios":"levelo://app?vid=ee8045b8-79f0-437a-8208-2821d28fa36d"},"vehicle_type_id":"4","last_reported":1743516584,"current_range_meters":16800,"station_id":"ce4bhch2rcd13ifvqeug","pricing_plan_id":"cebpf4jnsgd1na2vs0mg"},{"bike_id":"e0cf57cc-ac8a-437b-8c62-e6292c30f108","system_id":"levelo_inurba_marseille","lat":43.30958,"lon":5.39039,"is_reserved":false,"is_disabled":false,"rental_uris":{"android":"levelo://app?vid=e0cf57cc-ac8a-437b-8c62-e6292c30f108","ios":"levelo://app?vid=e0cf57cc-ac8a-437b-8c62-e6292c30f108"},"vehicle_type_id":"4","last_reported":1743516584,"current_range_meters":16800,"station_id":"ce4bgup2rcd13ifvqco0","pricing_plan_id":"cebpf4jnsgd1na2vs0mg"},{"bike_id":"58e9fc8e-b96b-4289-9f0c-1d5e00bd85b5","system_id":"levelo_inurba_marseille","lat":43.2841,"lon":5.34982,"is_reserved":false,"is_disabled":false,"rental_uris":{"android":"levelo://app?vid=58e9fc8e-b96b-4289-9f0c-1d5e00bd85b5","ios":"levelo://app?vid=58e9fc8e-b96b-4289-9f0c-1d5e00bd85b5"},"vehicle_type_id":"4","last_reported":1743516584,"current_range_meters":16800,"station_id":"ce4bhbh2rcd13ifvqepg","pricing_plan_id":"cebpf4jnsgd1na2vs0mg"},{"bike_id":"c994ed7a-0c6e-470f-96ef-99514d1e54f4","system_id":"levelo_inurba_marseille","lat":43.26049,"lon":5.39392,"is_reserved":false,"is_disabled":false,"rental_uris":{"android":"levelo://app?vid=c994ed7a-0c6e-470f-96ef-99514d1e54f4","ios":"levelo://app?vid=c994ed7a-0c6e-470f-96ef-99514d1e54f4"},"vehicle_type_id":"4","last_reported":1743516584,"current_range_meters":16800,"station_id":"ce4bhh92rcd13ifvqfj0","pricing_plan_id":"cebpf4jnsgd1na2vs0mg"},{"bike_id":"7408871e-c525-4dcf-9189-15a12bf2355d","system_id":"levelo_inurba_marseille","lat":43.26556,"lon":5.37295,"is_reserved":false,"is_disabled":false,"rental_uris":{"android":"levelo://app?vid=7408871e-c525-4dcf-9189-15a12bf2355d","ios":"levelo://app?vid=7408871e-c525-4dcf-9189-15a12bf2355d"},"vehicle_type_id":"4","last_reported":1743516584,"current_range_meters":16800,"station_id":"ce4bhg12rcd13ifvqf70","pricing_plan_id":"cebpf4jnsgd1na2vs0mg"},{"bike_id":"3971171d-ab38-45f7-b58d-e20b65949186","system_id":"levelo_inurba_marseille","lat":43.26941,"lon":5.40264,"is_reserved":false,"is_disabled":false,"rental_uris":{"android":"levelo://app?vid=3971171d-ab38-45f7-b58d-e20b65949186","ios":"levelo://app?vid=3971171d-ab38-45f7-b58d-e20b65949186"},"vehicle_type_id":"4","last_reported":1743516584,"current_range_meters":17200,"station_id":"cjm6bp8fraef2m0cb0m0","pricing_plan_id":"cebpf4jnsgd1na2vs0mg"},{"bike_id":"3eb82948-f003-4f17-8d20-1a8714e2fd0b","system_id":"levelo_inurba_marseille","lat":43.3096,"lon":5.39051,"is_reserved":false,"is_disabled":false,"rental_uris":{"android":"levelo://app?vid=3eb82948-f003-4f17-8d20-1a8714e2fd0b","ios":"levelo://app?vid=3eb82948-f003-4f17-8d20-1a8714e2fd0b"},