{"last_updated":1729858619,"ttl":60,"version":"2.2","data":{"bikes":[{"bike_id":"9b60abcf-dadc-429b-aaee-12502c8bfa82","system_id":"levelo_inurba_marseille","lat":43.29044,"lon":5.35909,"is_reserved":false,"is_disabled":false,"rental_uris":{"android":"levelo://app?vid=9b60abcf-dadc-429b-aaee-12502c8bfa82","ios":"levelo://app?vid=9b60abcf-dadc-429b-aaee-12502c8bfa82"},"vehicle_type_id":"4","last_reported":1729858620,"current_range_meters":17600,"station_id":"ce4bha92rcd13ifvqeg0","pricing_plan_id":"cebpf4jnsgd1na2vs0mg"},{"bike_id":"f0e60227-485c-4325-a605-4b3e5abc339d","system_id":"levelo_inurba_marseille","lat":43.31234,"lon":5.36853,"is_reserved":false,"is_disabled":false,"rental_uris":{"android":"levelo://app?vid=f0e60227-485c-4325-a605-4b3e5abc339d","ios":"levelo://app?vid=f0e60227-485c-4325-a605-4b3e5abc339d"},"vehicle_type_id":"4","last_reported":1729858620,"current_range_meters":40000,"station_id":"ce4bgl92rcd13ifvqbq0","pricing_plan_id":"cebpf4jnsgd1na2vs0mg"},{"bike_id":"239e19e4-f8e5-4a92-acd7-9e18d1319767","system_id":"levelo_inurba_marseille","lat":43.30332,"lon":5.4043,"is_reserved":false,"is_disabled":false,"rental_uris":{"android":"levelo://app?vid=239e19e4-f8e5-4a92-acd7-9e18d1319767","ios":"levelo://app?vid=239e19e4-f8e5-4a92-acd7-9e18d1319767"},"vehicle_type_id":"4","last_reported":1729858620,"current_range_meters":9200,"station_id":"ce4bh012rcd13ifvqd10","pricing_plan_id":"cebpf4jnsgd1na2vs0mg"},{"bike_id":"9d088842-4fdf-46e6-83f0-c5696afb12b9","system_id":"levelo_inurba_marseille","lat":43.28268,"lon":5.35056,"is_reserved":false,"is_disabled":false,"rental_uris":{"android":"levelo://app?vid=9d088842-4fdf-46e6-83f0-c5696afb12b9","ios":"levelo://app?vid=9d088842-4fdf-46e6-83f0-c5696afb12b9"},"vehicle_type_id":"4","last_reported":1729858620,"current_range_meters":33600,"station_id":"ce4bhbp2rcd13ifvqerg","pricing_plan_id":"cebpf4jnsgd1na2vs0mg"},{"bike_id":"aa5e3347-a3a0-410a-b549-b42c6b45bab9","system_id":"levelo_inurba_marseille","lat":43.30142,"lon":5.3878,"is_reserved":false,"is_disabled":false,"rental_uris":{"android":"levelo://app?vid=aa5e3347-a3a0-410a-b549-b42c6b45bab9","ios":"levelo://app?vid=aa5e3347-a3a0-410a-b549-b42c6b45bab9"},"vehicle_type_id":"4","last_reported":1729858620,"current_range_meters":20000,"station_id":"ce4bghh2rcd13ifvqb60","pricing_plan_id":"cebpf4jnsgd1na2vs0mg"},{"bike_id":"65ea6052-c3bf-48e1-87bf-af9b6259ddfa","system_id":"levelo_inurba_marseille","lat":43.28415,"lon":5.349795,"is_reserved":false,"is_disabled":false,"rental_uris":{"android":"levelo://app?vid=65ea6052-c3bf-48e1-87bf-af9b6259ddfa","ios":"levelo://app?vid=65ea6052-c3bf-48e1-87bf-af9b6259ddfa"},"vehicle_type_id":"4","last_reported":1729858620,"current_range_meters":17600,"station_id":"ce4bhbh2rcd13ifvqepg","pricing_plan_id":"cebpf4jnsgd1na2vs0mg"},{"bike_id":"0305f07b-3d86-40ef-b6b1-15fef9ab5479","system_id":"levelo_inurba_marseille","lat":43.23965,"lon":5.36624,"is_reserved":false,"is_disabled":false,"rental_uris":{"android":"levelo://app?vid=0305f07b-3d86-40ef-b6b1-15fef9ab5479","ios":"levelo://app?vid=0305f07b-3d86-40ef-b6b1-15fef9ab5479"},"vehicle_type_id":"4","last_reported":1729858620,"current_range_meters":35200,"station_id":"ce4bhi12rcd13ifvqfp0","pricing_plan_id":"cebpf4jnsgd1na2vs0mg"},{"bike_id":"65846a0d-9c45-4a2c-b681-0230636f0681","system_id":"levelo_inurba_marseille","lat":43.29379,"lon":5.37852,"is_reserved":false,"is_disabled":false,"rental_uris":{"android":"levelo://app?vid=65846a0d-9c45-4a2c-b681-0230636f0681","ios":"levelo://app?vid=65846a0d-9c45-4a2c-b681-0230636f0681"},"vehicle_type_id":"4","last_reported":1729858620,"current_range_meters":38800,"station_id":"ce4bgjh2rcd13ifvqbf0","pricing_plan_id":"cebpf4jnsgd1na2vs0mg"},{"bike_id":"feca8f40-eb98-46bf-a901-e263abafde33","system_id":"levelo_inurba_marseille","lat":43.29278,"lon":5.40113,"is_reserved":false,"is_disabled":false,"rental_uris":{"android":"levelo://app?vid=feca8f40-eb98-46bf-a901-e263abafde33","ios":"levelo://app?vid=feca8f40-eb98-46bf-a901-e263abafde33"},"vehicle_type_id":"4","last_reported":1729858620,"current_range_meters":25600,"station_id":"ce4bh312rcd13ifvqdk0","pricing_plan_id":"cebpf4jnsgd1na2vs0mg"},{"bike_id":"17cc3263-8d87-4e65-91ba-1ec1f501875b","system_id":"levelo_inurba_marseille","lat":43.29846,"lon":5.36276,"is_reserved":false,"is_disabled":false,"rental_uris":{"android":"levelo://app?vid=17cc3263-8d87-4e65-91ba-1ec1f501875b","ios":"levelo://app?vid=17cc3263-8d87-4e65-91ba-1ec1f501875b"},"vehicle_type_id":"4","last_reported":1729858620,"current_range_meters":38000,"station_id":"ce4bgpp2rcd13ifvqc3g","pricing_plan_id":"cebpf4jnsgd1na2vs0mg"},{"bike_id":"f9a36537-8363-46ec-894a-307725a4dc75","system_id":"levelo_inurba_marseille","lat":43.29025,"lon":5.3998,"is_reserved":false,"is_disabled":false,"rental_uris":{"android":"levelo://app?vid=f9a36537-8363-46ec-894a-307725a4dc75","ios":"levelo://app?vid=f9a36537-8363-46ec-894a-307725a4dc75"},"vehicle_type_id":"4","last_reported":1729858620,"current_range_meters":7200,"station_id":"ce4bh392rcd13ifvqdm0","pricing_plan_id":"cebpf4jnsgd1na2vs0mg"},{"bike_id":"b8195c9f-ea46-4ede-9b47-26969d8a0c13","system_id":"levelo_inurba_marseille","lat":43.29845,"lon":5.36273,"is_reserved":false,"is_disabled":false,"rental_uris":{"android":"levelo://app?vid=b8195c9f-ea46-4ede-9b47-26969d8a0c13","ios":"levelo://app?vid=b8195c9f-ea46-4ede-9b47-26969d8a0c13"},"vehicle_type_id":"4","last_reported":1729858620,"current_range_meters":36000,"station_id":"ce4bgpp2rcd13ifvqc3g","pricing_plan_id":"cebpf4jnsgd1na2vs0mg"},{"bike_id":"40c8cf35-3638-4463-aa8f-845988a57bfa","system_id":"levelo_inurba_marseille","lat":43.30467,"lon":5.37904,"is_reserved":false,"is_disabled":false,"rental_uris":{"android":"levelo://app?vid=40c8cf35-3638-4463-aa8f-845988a57bfa","ios":"levelo://app?vid=40c8cf35-3638-4463-aa8f-845988a57bfa"},"vehicle_type_id":"4","last_reported":1729858620,"current_range_meters":36000,"station_id":"ce4bgup2rcd13ifvqcn0","pricing_plan_id":"cebpf4jnsgd1na2vs0mg"},{"bike_id":"606a0a9f-39b1-4893-a64f-c13dd2ae381e","system_id":"levelo_inurba_marseille","lat":43.31231,"lon":5.36864,"is_reserved":false,"is_disabled":false,"rental_uris":{"android":"levelo://app?vid=606a0a9f-39b1-4893-a64f-c13dd2ae381e","ios":"levelo://app?vid=606a0a9f-39b1-4893-a64f-c13dd2ae381e"},"vehicle_type_id":"4","last_reported":1729858620,"current_range_meters":28000,"station_id":"ce4bgl92rcd13ifvqbq0","pricing_plan_id":"cebpf4jnsgd1na2vs0mg"},{"bike_id":"26b9e837-5b91-41a1-ad8f-50c0e2155aef","system_id":"levelo_inurba_marseille","lat":43.29581,"lon":5.36745,"is_reserved":false,"is_disabled":false,"rental_uris":{"android":"levelo://app?vid=26b9e837-5b91-41a1-ad8f-50c0e2155aef","ios":"levelo://app?vid=26b9e837-5b91-41a1-ad8f-50c0e2155aef"},"vehicle_type_id":"4","last_reported":1729858620,"current_range_meters":32000,"station_id":"ce4bgph2rcd13ifvqc2g","pricing_plan_id":"cebpf4jnsgd1na2vs0mg"},{"bike_id":"5958c5aa-9945-435a-8c98-79d92b4e92b3","system_id":"levelo_inurba_marseille","lat":43.31489,"lon":5.37305,"is_reserved":false,"is_disabled":false,"rental_uris":{"android":"levelo://app?vid=5958c5aa-9945-435a-8c98-79d92b4e92b3","ios":"levelo://app?vid=5958c5aa-9945-435a-8c98-79d92b4e92b3"},"vehicle_type_id":"4","last_reported":1729858620,"current_range_meters":32000,"station_id":"ce4bgt12rcd13ifvqcd0","pricing_plan_id":"cebpf4jnsgd1na2vs0mg"},{"bike_id":"a2a2bae5-e757-4a39-9e85-c87b9b95dc06","system_id":"levelo_inurba_marseille","lat":43.304642,"lon":5.379121,"is_reserved":false,"is_disabled":false,"rental_uris":{"android":"levelo://app?vid=a2a2bae5-e757-4a39-9e85-c87b9b95dc06","ios":"levelo://app?vid=a2a2bae5-e757-4a39-9e85-c87b9b95dc06"},"vehicle_type_id":"4","last_reported":1729858620,"current_range_meters":16400,"station_id":"ce4bgup2rcd13ifvqcn0","pricing_plan_id":"cebpf4jnsgd1na2vs0mg"},{"bike_id":"83b93c0d-fd1e-413e-9772-9048be31d163","system_id":"levelo_inurba_marseille","lat":43.31699,"lon":5.37769,"is_reserved":false,"is_disabled":false,"rental_uris":{"android":"levelo://app?vid=83b93c0d-fd1e-413e-9772-9048be31d163","ios":"levelo://app?vid=83b93c0d-fd1e-413e-9772-9048be31d163"},"vehicle_type_id":"4","last_reported":1729858620,"current_range_meters":38000,"station_id":"ce4bgth2rcd13ifvqch0","pricing_plan_id":"cebpf4jnsgd1na2vs0mg"},{"bike_id":"30f0c75b-8719-4079-9047-f2af157dccb1","system_id":"levelo_inurba_marseille","lat":43.304642,"lon":5.379149,"is_reserved":false,"is_disabled":false,"rental_uris":{"android":"levelo://app?vid=30f0c75b-8719-4079-9047-f2af157dccb1","ios":"levelo://app?vid=30f0c75b-8719-4079-9047-f2af157dccb1"},"vehicle_type_id":"4","last_reported":1729858620,"current_range_meters":38400,"station_id":"ce4bgup2rcd13ifvqcn0","pricing_plan_id":"cebpf4jnsgd1na2vs0mg"},{"bike_id":"784dd773-f509-4455-843a-8e8b8177e5e1","system_id":"levelo_inurba_marseille","lat":43.31708,"lon":5.37773,"is_reserved":false,"is_disabled":false,"rental_uris":{"android":"levelo://app?vid=784dd773-f509-4455-843a-8e8b8177e5e1","ios":"levelo://app?vid=784dd773-f509-4455-843a-8e8b8177e5e1"},"vehicle_type_id":"4","last_reported":1729858620,"current_range_meters":38800,"station_id":"ce4bgth2rcd13ifvqch0","pricing_plan_id":"cebpf4jnsgd1na2vs0mg"},{"bike_id":"02789b5b-949a-46f7-9f95-54a76c663e60","system_id":"levelo_inurba_marseille","lat":43.30955,"lon":5.39035,"is_reserved":false,"is_disabled":false,"rental_uris":{"android":"levelo://app?vid=02789b5b-949a-46f7-9f95-54a76c663e60","ios":"levelo://app?vid=02789b5b-949a-46f7-9f95-54a76c663e60"},"vehicle_type_id":"4","last_reported":1729858620,"current_range_meters":37600,"station_id":"ce4bgup2rcd13ifvqco0","pricing_plan_id":"cebpf4jnsgd1na2vs0mg"},{"bike_id":"8e8bace1-fa1f-4198-bafc-ecf9f2d8260c","system_id":"levelo_inurba_marseille","lat":43.27614,"lon":5.36102,"is_reserved":false,"is_disabled":false,"rental_uris":{"android":"levelo://app?vid=8e8bace1-fa1f-4198-bafc-ecf9f2d8260c","ios":"levelo://app?vid=8e8bace1-fa1f-4198-bafc-ecf9f2d8260c"},"vehicle_type_id":"4","last_reported":1729858620,"current_range_meters":21600,"station_id":"ce4bgj92rcd13ifvqbe0","pricing_plan_id":"cebpf4jnsgd1na2vs0mg"},{"bike_id":"477a05e3-ff20-4d77-9014-d23eaf544f51","system_id":"levelo_inurba_marseille","lat":43.30525,"lon":5.36531,"is_reserved":false,"is_disabled":false,"rental_uris":{"android":"levelo://app?vid=477a05e3-ff20-4d77-9014-d23eaf544f51","ios":"levelo://app?vid=477a05e3-ff20-4d77-9014-d23eaf544f51"},"vehicle_type_id":"4","last_reported":1729858620,"current_range_meters":39200,"station_id":"ce4bgs12rcd13ifvqcag","pricing_plan_id":"cebpf4jnsgd1na2vs0mg"},{"bike_id":"4d560569-a164-411b-ae2a-c884e3d1bdb4","system_id":"levelo_inurba_marseille","lat":43.31489,"lon":5.37307,"is_reserved":false,"is_disabled":false,"rental_uris":{"android":"levelo://app?vid=4d560569-a164-411b-ae2a-c884e3d1bdb4","ios":"levelo://app?vid=4d560569-a164-411b-ae2a-c884e3d1bdb4"},"vehicle_type_id":"4","last_reported":1729858620,"current_range_meters":22800,"station_id":"ce4bgt12rcd13ifvqcd0","pricing_plan_id":"cebpf4jnsgd1na2vs0mg"},{"bike_id":"b5280a4e-5993-4f8e-83ef-b79f0bc022bd","system_id":"levelo_inurba_marseille","lat":43.24651,"lon":5.38889,"is_reserved":false,"is_disabled":false,"rental_uris":{"android":"levelo://app?vid=b5280a4e-5993-4f8e-83ef-b79f0bc022bd","ios":"levelo://app?vid=b5280a4e-5993-4f8e-83ef-b79f0bc022bd"},"vehicle_type_id":"4","last_reported":1729858620,"current_range_meters":8400,"station_id":"ce4bhg12rcd13ifvqf60","pricing_plan_id":"cebpf4jnsgd1na2vs0mg"},{"bike_id":"bdd8ff7c-fd85-48f5-ba32-460bcd604075","system_id":"levelo_inurba_marseille","lat":43.29227,"lon":5.36072,"is_reserved":false,"is_disabled":false,"rental_uris":{"android":"levelo://app?vid=bdd8ff7c-fd85-48f5-ba32-460bcd604075","ios":"levelo://app?vid=bdd8ff7c-fd85-48f5-ba32-460bcd604075"},"vehicle_type_id":"4","last_reported":1729858620,"current_range_meters":24400,"station_id":"ce4bhbh2rcd13ifvqeqg","pricing_plan_id":"cebpf4jnsgd1na2vs0mg"},{"bike_id":"7969dd37-faf1-43ba-9922-f50db8b11586","system_id":"levelo_inurba_marseille","lat":43.32468,"lon":5.36603,"is_reserved":false,"is_disabled":false,"rental_uris":{"android":"levelo://app?vid=7969dd37-faf1-43ba-9922-f50db8b11586","ios":"levelo://app?vid=7969dd37-faf1-43ba-9922-f50db8b11586"},"vehicle_type_id":"4","last_reported":1729858620,"current_range_meters":22000,"station_id":"ce4bhs12rcd13ifvqhvg","pricing_plan_id":"cebpf4jnsgd1na2vs0mg"},{"bike_id":"4cfb26b1-4b77-472c-9f50-064d7ce96b5e","system_id":"levelo_inurba_marseille","lat":43.32661,"lon":5.40985,"is_reserved":false,"is_disabled":false,"rental_uris":{"android":"levelo://app?vid=4cfb26b1-4b77-472c-9f50-064d7ce96b5e","ios":"levelo://app?vid=4cfb26b1-4b77-472c-9f50-064d7ce96b5e"},"vehicle_type_id":"4","last_reported":1729858620,"current_range_meters":36800,"station_id":"ce4bhpp2rcd13ifvqhgg","pricing_plan_id":"cebpf4jnsgd1na2vs0mg"},{"bike_id":"cf11510f-f39d-433d-83c1-ae4986b81d96","system_id":"levelo_inurba_marseille","lat":43.31361,"lon":5.367,"is_reserved":false,"is_disabled":false,"rental_uris":{"android":"levelo://app?vid=cf11510f-f39d-433d-83c1-ae4986b81d96","ios":"levelo://app?vid=cf11510f-f39d-433d-83c1-ae4986b81d96"},"vehicle_type_id":"4","last_reported":1729858620,"current_range_meters":34800,"station_id":"ce4bgr92rcd13ifvqc6g","pricing_plan_id":"cebpf4jnsgd1na2vs0mg"},{"bike_id":"30b1aa64-06bd-457e-9cde-85b0bb8f8166","system_id":"levelo_inurba_marseille","lat":43.31356,"lon":5.38479,"is_reserved":false,"is_disabled":false,"rental_uris":{"android":"levelo://app?vid=30b1aa64-06bd-457e-9cde-85b0bb8f8166","ios":"levelo://app?vid=30b1aa64-06bd-457e-9cde-85b0bb8f8166"},"vehicle_type_id":"4","last_reported":1729858620,"current_range_meters":38400,"station_id":"ce4bgt92rcd13ifvqcf0","pricing_plan_id":"cebpf4jnsgd1na2vs0mg"},{"bike_id":"97ce6431-cdfe-4c86-8575-534875aed7f5","system_id":"levelo_inurba_marseille","lat":43.3053,"lon":5.36659,"is_reserved":false,"is_disabled":false,"rental_uris":{"android":"levelo://app?vid=97ce6431-cdfe-4c86-8575-534875aed7f5","ios":"levelo://app?vid=97ce6431-cdfe-4c86-8575-534875aed7f5"},"vehicle_type_id":"4","last_reported":1729858620,"current_range_meters":2800,"station_id":"","pricing_plan_id":"cebpf4jnsgd1na2vs0mg"},{"bike_id":"469327dc-f747-44c1-aa88-c9822d4dc0ef","system_id":"levelo_inurba_marseille","lat":43.29804,"lon":5.40408,"is_reserved":false,"is_disabled":false,"rental_uris":{"android":"levelo://app?vid=469327dc-f747-44c1-aa88-c9822d4dc0ef","ios":"levelo://app?vid=469327dc-f747-44c1-aa88-c9822d4dc0ef"},"vehicle_type_id":"4","last_reported":1729858620,"current_range_meters":17200,"station_id":"ce4bh112rcd13ifvqd90","pricing_plan_id":"cebpf4jnsgd1na2vs0mg"},{"bike_id":"cbc9d2ee-c740-4b1a-96a2-f51c977a89aa","system_id":"levelo_inurba_marseille","lat":43.317395,"lon":5.38997,"is_reserved":false,"is_disabled":false,"rental_uris":{"android":"levelo://app?vid=cbc9d2ee-c740-4b1a-96a2-f51c977a89aa","ios":"levelo://app?vid=cbc9d2ee-c740-4b1a-96a2-f51c977a89aa"},"vehicle_type_id":"4","last_reported":1729858620,"current_range_meters":28800,"station_id":"ce4bhqp2rcd13ifvqhng","pricing_plan_id":"cebpf4jnsgd1na2vs0mg"},{"bike_id":"a4ea2f4c-f1fc-4d04-b618-d41c65458892","system_id":"levelo_inurba_marseille","lat":43.26496,"lon":5.3954,"is_reserved":false,"is_disabled":false,"rental_uris":{"android":"levelo://app?vid=a4ea2f4c-f1fc-4d04-b618-d41c65458892","ios":"levelo://app?vid=a4ea2f4c-f1fc-4d04-b618-d41c65458892"},"vehicle_type_id":"4","last_reported":1729858620,"current_range_meters":28400,"station_id":"ce4bhi12rcd13ifvqfq0","pricing_plan_id":"cebpf4jnsgd1na2vs0mg"},{"bike_id":"28e8f1ff-9675-4734-ad66-a283faac58d2","system_id":"levelo_inurba_marseille","lat":43.22923,"lon":5.35371,"is_reserved":false,"is_disabled":false,"rental_uris":{"android":"levelo://app?vid=28e8f1ff-9675-4734-ad66-a283faac58d2","ios":"levelo://app?vid=28e8f1ff-9675-4734-ad66-a283faac58d2"},"vehicle_type_id":"4","last_reported":1729858620,"current_range_meters":38400,"station_id":"cpo3532slgdg3j2ikp40","pricing_plan_id":"cebpf4jnsgd1na2vs0mg"},{"bike_id":"5861e0c6-45d8-420f-96b4-076eb4ea4be9","system_id":"levelo_inurba_marseille","lat":43.24075,"lon":5.37755,"is_reserved":false,"is_disabled":false,"rental_uris":{"android":"levelo://app?vid=5861e0c6-45d8-420f-96b4-076eb4ea4be9","ios":"levelo://app?vid=5861e0c6-45d8-420f-96b4-076eb4ea4be9"},"vehicle_type_id":"4","last_reported":1729858620,"current_range_meters":36800,"station_id":"ce4bhnp2rcd13ifvqgvg","pricing_plan_id":"cebpf4jnsgd1na2vs0mg"},{"bike_id":"ab8a2d24-7bb7-4dd4-b261-bb0c7cc06631","system_id":"levelo_inurba_marseille","lat":43.22932,"lon":5.35371,"is_reserved":false,"is_disabled":false,"rental_uris":{"android":"levelo://app?vid=ab8a2d24-7bb7-4dd4-b261-bb0c7cc06631","ios":"levelo://app?vid=ab8a2d24-7bb7-4dd4-b261-bb0c7cc06631"},"vehicle_type_id":"4","last_reported":1729858620,"current_range_meters":36400,"station_id":"cpo3532slgdg3j2ikp40","pricing_plan_id":"cebpf4jnsgd1na2vs0mg"},{"bike_id":"5ee65101-0b97-4309-ad06-884a243d9e69","system_id":"levelo_inurba_marseille","lat":43.34143,"lon":5.40909,"is_reserved":false,"is_disabled":false,"rental_uris":{"android":"levelo://app?vid=5ee65101-0b97-4309-ad06-884a243d9e69","ios":"levelo://app?vid=5ee65101-0b97-4309-ad06-884a243d9e69"},"vehicle_type_id":"4","last_reported":1729858620,"current_range_meters":27600,"station_id":"ce4bhqh2rcd13ifvqhlg","pricing_plan_id":"cebpf4jnsgd1na2vs0mg"},{"bike_id":"8f580eb4-6487-4ccf-9cd2-11a09bcf8bd3","system_id":"levelo_inurba_marseille","lat":43.30469,"lon":5.37916,"is_reserved":false,"is_disabled":false,"rental_uris":{"android":"levelo://app?vid=8f580eb4-6487-4ccf-9cd2-11a09bcf8bd3","ios":"levelo://app?vid=8f580eb4-6487-4ccf-9cd2-11a09bcf8bd3"},"vehicle_type_id":"4","last_reported":1729858620,"current_range_meters":39200,"station_id":"ce4bgup2rcd13ifvqcn0","pricing_plan_id":"cebpf4jnsgd1na2vs0mg"},{"bike_id":"875e81d5-e576-40b7-8820-2b630aedab05","system_id":"levelo_inurba_marseille","lat":43.29581,"lon":5.36743,"is_reserved":false,"is_disabled":false,"rental_uris":{"android":"levelo://app?vid=875e81d5-e576-40b7-8820-2b630aedab05","ios":"levelo://app?vid=875e81d5-e576-40b7-8820-2b630aedab05"},"vehicle_type_id":"4","last_reported":1729858620,"current_range_meters":13600,"station_id":"ce4bgph2rcd13ifvqc2g","pricing_plan_id":"cebpf4jnsgd1na2vs0mg"},{"bike_id":"e5eeb50e-9f83-43d8-ab0b-32e0fa650e40","system_id":"levelo_inurba_marseille","lat":43.28154,"lon":5.42648,"is_reserved":false,"is_disabled":false,"rental_uris":{"android":"levelo://app?vid=e5eeb50e-9f83-43d8-ab0b-32e0fa650e40","ios":"levelo://app?vid=e5eeb50e-9f83-43d8-ab0b-32e0fa650e40"},"vehicle_type_id":"4","last_reported":1729858620,"current_range_meters":9600,"station_id":"ce4bhnh2rcd13ifvqgug","pricing_plan_id":"cebpf4jnsgd1na2vs0mg"},{"bike_id":"8486fe9d-9ef0-4e60-ba73-6eb6a17c52a8","system_id":"levelo_inurba_marseille","lat":43.315677,"lon":5.405627,"is_reserved":false,"is_disabled":false,"rental_uris":{"android":"levelo://app?vid=8486fe9d-9ef0-4e60-ba73-6eb6a17c52a8","ios":"levelo://app?vid=8486fe9d-9ef0-4e60-ba73-6eb6a17c52a8"},"vehicle_type_id":"4","last_reported":1729858620,"current_range_meters":9200,"station_id":"","pricing_plan_id":"cebpf4jnsgd1na2vs0mg"},{"bike_id":"172208e9-70cd-4b52-b8b5-db9312e32f6a","system_id":"levelo_inurba_marseille","lat":43.2454,"lon":5.39511,"is_reserved":false,"is_disabled":false,"rental_uris":{"android":"levelo://app?vid=172208e9-70cd-4b52-b8b5-db9312e32f6a","ios":"levelo://app?vid=172208e9-70cd-4b52-b8b5-db9312e32f6a"},"vehicle_type_id":"4","last_reported":1729858620,"current_range_meters":25600,"station_id":"ce4bhlp2rcd13ifvqgjg","pricing_plan_id":"cebpf4jnsgd1na2vs0mg"},{"bike_id":"ec0d691e-b85d-4e3a-aa9a-5105477bf0fc","system_id":"levelo_inurba_marseille","lat":43.29203,"lon":5.35801,"is_reserved":false,"is_disabled":false,"rental_uris":{"android":"levelo://app?vid=ec0d691e-b85d-4e3a-aa9a-5105477bf0fc","ios":"levelo://app?vid=ec0d691e-b85d-4e3a-aa9a-5105477bf0fc"},"vehicle_type_id":"4","last_reported":1729858620,"current_range_meters":25200,"station_id":"ce4bhb12rcd13ifvqel0","pricing_plan_id":"cebpf4jnsgd1na2vs0mg"},{"bike_id":"7517e89f-2b43-4876-9e8c-f51b26980e09","system_id":"levelo_inurba_marseille","lat":43.24806,"lon":5.37455,"is_reserved":false,"is_disabled":false,"rental_uris":{"android":"levelo://app?vid=7517e89f-2b43-4876-9e8c-f51b26980e09","ios":"levelo://app?vid=7517e89f-2b43-4876-9e8c-f51b26980e09"},"vehicle_type_id":"4","last_reported":1729858620,"current_range_meters":24800,"station_id":"ce4bhgh2rcd13ifvqfb0","pricing_plan_id":"cebpf4jnsgd1na2vs0mg"},{"bike_id":"e3ee5f84-4d74-4ce5-9540-764d9f311735","system_id":"levelo_inurba_marseille","lat":43.3028,"lon":5.37691,"is_reserved":false,"is_disabled":false,"rental_uris":{"android":"levelo://app?vid=e3ee5f84-4d74-4ce5-9540-764d9f311735","ios":"levelo://app?vid=e3ee5f84-4d74-4ce5-9540-764d9f311735"},"vehicle_type_id":"4","last_reported":1729858620,"current_range_meters":28000,"station_id":"ce4bguh2rcd13ifvqcj0","pricing_plan_id":"cebpf4jnsgd1na2vs0mg"},{"bike_id":"55f31542-79d5-4876-8508-e9985cb2a203","system_id":"levelo_inurba_marseille","lat":43.28418,"lon":5.34978,"is_reserved":false,"is_disabled":false,"rental_uris":{"android":"levelo://app?vid=55f31542-79d5-4876-8508-e9985cb2a203","ios":"levelo://app?vid=55f31542-79d5-4876-8508-e9985cb2a203"},"vehicle_type_id":"4","last_reported":1729858620,"current_range_meters":36400,"station_id":"ce4bhbh2rcd13ifvqepg","pricing_plan_id":"cebpf4jnsgd1na2vs0mg"},{"bike_id":"7358815d-142f-4de1-8326-6a597cbea61d","system_id":"levelo_inurba_marseille","lat":43.294139,"lon":5.386251,"is_reserved":false,"is_disabled":false,"rental_uris":{"android":"levelo://app?vid=7358815d-142f-4de1-8326-6a597cbea61d","ios":"levelo://app?vid=7358815d-142f-4de1-8326-6a597cbea61d"},"vehicle_type_id":"4","last_reported":1729858620,"current_range_meters":26000,"station_id":"ce4bh292rcd13ifvqdf0","pricing_plan_id":"cebpf4jnsgd1na2vs0mg"},{"bike_id":"ac4218f7-5110-4ddd-82de-fc437d7219d6","system_id":"levelo_inurba_marseille","lat":43.27205,"lon":5.391833,"is_reserved":false,"is_disabled":false,"rental_uris":{"android":"levelo://app?vid=ac4218f7-5110-4ddd-82de-fc437d7219d6","ios":"levelo://app?vid=ac4218f7-5110-4ddd-82de-fc437d7219d6"},"vehicle_type_id":"4","last_reported":1729858620,"current_range_meters":16000,"station_id":"ce4bhhp2rcd13ifvqfm0","pricing_plan_id":"cebpf4jnsgd1na2vs0mg"},{"bike_id":"9da826b5-bdb7-4c0f-b5b5-73ef43a7ae28","system_id":"levelo_inurba_marseille","lat":43.29843,"lon":5.36268,"is_reserved":false,"is_disabled":false,"rental_uris":{"android":"levelo://app?vid=9da826b5-bdb7-4c0f-b5b5-73ef43a7ae28","ios":"levelo://app?vid=9da826b5-bdb7-4c0f-b5b5-73ef43a7ae28"},"vehicle_type_id":"4","last_reported":1729858620,"current_range_meters":30000,"station_id":"ce4bgpp2rcd13ifvqc3g","pricing_plan_id":"cebpf4jnsgd1na2vs0mg"},{"bike_id":"1fe7a754-88e8-464c-a31c-86bf41ad4349","system_id":"levelo_inurba_marseille","lat":43.302795,"lon":5.37704,"is_reserved":false,"is_disabled":false,"rental_uris":{"android":"levelo://app?vid=1fe7a754-88e8-464c-a31c-86bf41ad4349","ios":"levelo://app?vid=1fe7a754-88e8-464c-a31c-86bf41ad4349"},"vehicle_type_id":"4","last_reported":1729858620,"current_range_meters":22800,"station_id":"ce4bguh2rcd13ifvqcj0","pricing_plan_id":"cebpf4jnsgd1na2vs0mg"},{"bike_id":"2f11c33a-2d96-4a66-8697-04fd04c433f4","system_id":"levelo_inurba_marseille","lat":43.30145,"lon":5.37415,"is_reserved":false,"is_disabled":false,"rental_uris":{"android":"levelo://app?vid=2f11c33a-2d96-4a66-8697-04fd04c433f4","ios":"levelo://app?vid=2f11c33a-2d96-4a66-8697-04fd04c433f4"},"vehicle_type_id":"4","last_reported":1729858620,"current_range_meters":38400,"station_id":"ce4bgs92rcd13ifvqcc0","pricing_plan_id":"cebpf4jnsgd1na2vs0mg"},{"bike_id":"ee20a5ff-3106-41b3-9c22-db71b8b46965","system_id":"levelo_inurba_marseille","lat":43.26568,"lon":5.39003,"is_reserved":false,"is_disabled":false,"rental_uris":{"android":"levelo://app?vid=ee20a5ff-3106-41b3-9c22-db71b8b46965","ios":"levelo://app?vid=ee20a5ff-3106-41b3-9c22-db71b8b46965"},"vehicle_type_id":"4","last_reported":1729858620,"current_range_meters":6800,"station_id":"ce4bhe12rcd13ifvqf30","pricing_plan_id":"cebpf4jnsgd1na2vs0mg"},{"bike_id":"716b360f-9353-40b4-ad62-c3b53b661c12","system_id":"levelo_inurba_marseille","lat":43.30543,"lon":5.36691,"is_reserved":false,"is_disabled":false,"rental_uris":{"android":"levelo://app?vid=716b360f-9353-40b4-ad62-c3b53b661c12","ios":"levelo://app?vid=716b360f-9353-40b4-ad62-c3b53b661c12"},"vehicle_type_id":"4","last_reported":1729858620,"current_range_meters":39200,"station_id":"ce4bgrp2rcd13ifvqc9g","pricing_plan_id":"cebpf4jnsgd1na2vs0mg"},{"bike_id":"6499a974-ee8c-4f43-bd80-5e44b8f4afd6","system_id":"levelo_inurba_marseille","lat":43.29864,"lon":5.39727,"is_reserved":false,"is_disabled":false,"rental_uris":{"android":"levelo://app?vid=6499a974-ee8c-4f43-bd80-5e44b8f4afd6","ios":"levelo://app?vid=6499a974-ee8c-4f43-bd80-5e44b8f4afd6"},"vehicle_type_id":"4","last_reported":1729858620,"current_range_meters":37600,"station_id":"ce4bh0h2rcd13ifvqd50","pricing_plan_id":"cebpf4jnsgd1na2vs0mg"},{"bike_id":"baac1178-6264-4714-be4f-30295c956493","system_id":"levelo_inurba_marseille","lat":43.30957,"lon":5.39036,"is_reserved":false,"is_disabled":false,"rental_uris":{"android":"levelo://app?vid=baac1178-6264-4714-be4f-30295c956493","ios":"levelo://app?vid=baac1178-6264-4714-be4f-30295c956493"},"vehicle_type_id":"4","last_reported":1729858620,"current_range_meters":39200,"station_id":"ce4bgup2rcd13ifvqco0","pricing_plan_id":"cebpf4jnsgd1na2vs0mg"},{"bike_id":"d3bbf7db-dbd7-4c37-82f1-086f96c4acff","system_id":"levelo_inurba_marseille","lat":43.30911,"lon":5.36855,"is_reserved":false,"is_disabled":false,"rental_uris":{"android":"levelo://app?vid=d3bbf7db-dbd7-4c37-82f1-086f96c4acff","ios":"levelo://app?vid=d3bbf7db-dbd7-4c37-82f1-086f96c4acff"},"vehicle_type_id":"4","last_reported":1729858620,"current_range_meters":30800,"station_id":"ce4bgn92rcd13ifvqbvg","pricing_plan_id":"cebpf4jnsgd1na2vs0mg"},{"bike_id":"7a9bebfb-3ca8-461f-9edc-3e4de00c7841","system_id":"levelo_inurba_marseille","lat":43.25581,"lon":5.38234,"is_reserved":false,"is_disabled":false,"rental_uris":{"android":"levelo://app?vid=7a9bebfb-3ca8-461f-9edc-3e4de00c7841","ios":"levelo://app?vid=7a9bebfb-3ca8-461f-9edc-3e4de00c7841"},"vehicle_type_id":"4","last_reported":1729858620,"current_range_meters":38400,"station_id":"ce4bhih2rcd13ifvqfs0","pricing_plan_id":"cebpf4jnsgd1na2vs0mg"},{"bike_id":"5197b22a-f45b-4c54-a770-b6956908d64e","system_id":"levelo_inurba_marseille","lat":43.29003,"lon":5.35611,"is_reserved":false,"is_disabled":false,"rental_uris":{"android":"levelo://app?vid=5197b22a-f45b-4c54-a770-b6956908d64e","ios":"levelo://app?vid=5197b22a-f45b-4c54-a770-b6956908d64e"},"vehicle_type_id":"4","last_reported":1729858620,"current_range_meters":39200,"station_id":"ce4bhb92rcd13ifvqen0","pricing_plan_id":"cebpf4jnsgd1na2vs0mg"},{"bike_id":"05dcc379-2855-4fde-bf73-f780ccab8354","system_id":"levelo_inurba_marseille","lat":43.31118,"lon":5.37765,"is_reserved":false,"is_disabled":false,"rental_uris":{"android":"levelo://app?vid=05dcc379-2855-4fde-bf73-f780ccab8354","ios":"levelo://app?vid=05dcc379-2855-4fde-bf73-f780ccab8354"},"vehicle_type_id":"4","last_reported":1729858620,"current_range_meters":27600,"station_id":"ce4bgt92rcd13ifvqcg0","pricing_plan_id":"cebpf4jnsgd1na2vs0mg"},{"bike_id":"4afc2054-b6ef-4a9f-86bf-cbb97b558592","system_id":"levelo_inurba_marseille","lat":43.28851,"lon":5.39322,"is_reserved":false,"is_disabled":false,"rental_uris":{"android":"levelo://app?vid=4afc2054-b6ef-4a9f-86bf-cbb97b558592","ios":"levelo://app?vid=4afc2054-b6ef-4a9f-86bf-cbb97b558592"},"vehicle_type_id":"4","last_reported":1729858620,"current_range_meters":27600,"station_id":"ce4bh2p2rcd13ifvqdi0","pricing_plan_id":"cebpf4jnsgd1na2vs0mg"},{"bike_id":"be8fbca4-3dcd-4e0e-96d2-8c570f59713c","system_id":"levelo_inurba_marseille","lat":43.32481,"lon":5.36579,"is_reserved":false,"is_disabled":false,"rental_uris":{"android":"levelo://app?vid=be8fbca4-3dcd-4e0e-96d2-8c570f59713c","ios":"levelo://app?vid=be8fbca4-3dcd-4e0e-96d2-8c570f59713c"},"vehicle_type_id":"4","last_reported":1729858620,"current_range_meters":18800,"station_id":"ce4bhs12rcd13ifvqhvg","pricing_plan_id":"cebpf4jnsgd1na2vs0mg"},{"bike_id":"c0a4c997-c15f-4b81-b921-3256891f9d8f","system_id":"levelo_inurba_marseille","lat":43.28108,"lon":5.37826,"is_reserved":false,"is_disabled":false,"rental_uris":{"android":"levelo://app?vid=c0a4c997-c15f-4b81-b921-3256891f9d8f","ios":"levelo://app?vid=c0a4c997-c15f-4b81-b921-3256891f9d8f"},"vehicle_type_id":"4","last_reported":1729858620,"current_range_meters":14000,"station_id":"ce4bha12rcd13ifvqee0","pricing_plan_id":"cebpf4jnsgd1na2vs0mg"},{"bike_id":"2c83906e-34b2-4de1-a842-6d257980343c","system_id":"levelo_inurba_marseille","lat":43.32361,"lon":5.38882,"is_reserved":false,"is_disabled":false,"rental_uris":{"android":"levelo://app?vid=2c83906e-34b2-4de1-a842-6d257980343c","ios":"levelo://app?vid=2c83906e-34b2-4de1-a842-6d257980343c"},"vehicle_type_id":"4","last_reported":1729858620,"current_range_meters":12800,"station_id":"ce4bhqp2rcd13ifvqhog","pricing_plan_id":"cebpf4jnsgd1na2vs0mg"},{"bike_id":"1241c601-2ba9-475f-9703-567a6c6c9d3a","system_id":"levelo_inurba_marseille","lat":43.30126,"lon":5.39855,"is_reserved":false,"is_disabled":false,"rental_uris":{"android":"levelo://app?vid=1241c601-2ba9-475f-9703-567a6c6c9d3a","ios":"levelo://app?vid=1241c601-2ba9-475f-9703-567a6c6c9d3a"},"vehicle_type_id":"4","last_reported":1729858620,"current_range_meters":28800,"station_id":"ce4bh0h2rcd13ifvqd40","pricing_plan_id":"cebpf4jnsgd1na2vs0mg"},{"bike_id":"cf28c0ba-748d-4e8a-b8af-61e44f800fb1","system_id":"levelo_inurba_marseille","lat":43.2439,"lon":5.37065,"is_reserved":false,"is_disabled":false,"rental_uris":{"android":"levelo://app?vid=cf28c0ba-748d-4e8a-b8af-61e44f800fb1","ios":"levelo://app?vid=cf28c0ba-748d-4e8a-b8af-61e44f800fb1"},"vehicle_type_id":"4","last_reported":1729858620,"current_range_meters":4000,"station_id":"ce4bhhh2rcd13ifvqfk0","pricing_plan_id":"cebpf4jnsgd1na2vs0mg"},{"bike_id":"f7b4d0c9-574c-48a5-bef0-c48639e0abed","system_id":"levelo_inurba_marseille","lat":43.279007,"lon":5.38005,"is_reserved":false,"is_disabled":false,"rental_uris":{"android":"levelo://app?vid=f7b4d0c9-574c-48a5-bef0-c48639e0abed","ios":"levelo://app?vid=f7b4d0c9-574c-48a5-bef0-c48639e0abed"},"vehicle_type_id":"4","last_reported":1729858620,"current_range_meters":18800,"station_id":"ce4bhf92rcd13ifvqf50","pricing_plan_id":"cebpf4jnsgd1na2vs0mg"},{"bike_id":"1b5932a9-ba1e-4a22-aadb-c639f03cfffd","system_id":"levelo_inurba_marseille","lat":43.258688,"lon":5.398983,"is_reserved":false,"is_disabled":false,"rental_uris":{"android":"levelo://app?vid=1b5932a9-ba1e-4a22-aadb-c639f03cfffd","ios":"levelo://app?vid=1b5932a9-ba1e-4a22-aadb-c639f03cfffd"},"vehicle_type_id":"4","last_reported":1729858620,"current_range_meters":12400,"station_id":"ce4bhl92rcd13ifvqghg","pricing_plan_id":"cebpf4jnsgd1na2vs0mg"},{"bike_id":"3f565f9f-19fc-4c96-b1cd-bb03fe7b1ae2","system_id":"levelo_inurba_marseille","lat":43.29525,"lon":5.39392,"is_reserved":false,"is_disabled":false,"rental_uris":{"android":"levelo://app?vid=3f565f9f-19fc-4c96-b1cd-bb03fe7b1ae2","ios":"levelo://app?vid=3f565f9f-19fc-4c96-b1cd-bb03fe7b1ae2"},"vehicle_type_id":"4","last_reported":1729858620,"current_range_meters":17600,"station_id":"ce4bh292rcd13ifvqdf0","pricing_plan_id":"cebpf4jnsgd1na2vs0mg"},{"bike_id":"ae043680-b11e-48d5-8cac-e52273f4cfa5","system_id":"levelo_inurba_marseille","lat":43.26569,"lon":5.39009,"is_reserved":false,"is_disabled":false,"rental_uris":{"android":"levelo://app?vid=ae043680-b11e-48d5-8cac-e52273f4cfa5","ios":"levelo://app?vid=ae043680-b11e-48d5-8cac-e52273f4cfa5"},"vehicle_type_id":"4","last_reported":1729858620,"current_range_meters":22000,"station_id":"ce4bhe12rcd13ifvqf30","pricing_plan_id":"cebpf4jnsgd1na2vs0mg"},{"bike_id":"6f9da69e-c80a-49b0-83e7-588296c1045f","system_id":"levelo_inurba_marseille","lat":43.24996,"lon":5.38927,"is_reserved":false,"is_disabled":false,"rental_uris":{"android":"levelo://app?vid=6f9da69e-c80a-49b0-83e7-588296c1045f","ios":"levelo://app?vid=6f9da69e-c80a-49b0-83e7-588296c1045f"},"vehicle_type_id":"4","last_reported":1729858620,"current_range_meters":23200,"station_id":"ce4bhgp2rcd13ifvqfd0","pricing_plan_id":"cebpf4jnsgd1na2vs0mg"},{"bike_id":"8742d4b7-d012-499d-83f8-0bf03ac895e4","system_id":"levelo_inurba_marseille","lat":43.30287,"lon":5.3769,"is_reserved":false,"is_disabled":false,"rental_uris":{"android":"levelo://app?vid=8742d4b7-d012-499d-83f8-0bf03ac895e4","ios":"levelo://app?vid=8742d4b7-d012-499d-83f8-0bf03ac895e4"},"vehicle_type_id":"4","last_reported":1729858620,"current_range_meters":28000,"station_id":"ce4bguh2rcd13ifvqcj0","pricing_plan_id":"cebpf4jnsgd1na2vs0mg"},{"bike_id":"eda20d13-c206-4b88-85e8-a17922f9a47f","system_id":"levelo_inurba_marseille","lat":43.30143,"lon":5.37414,"is_reserved":false,"is_disabled":false,"rental_uris":{"android":"levelo://app?vid=eda20d13-c206-4b88-85e8-a17922f9a47f","ios":"levelo://app?vid=eda20d13-c206-4b88-85e8-a17922f9a47f"},"vehicle_type_id":"4","last_reported":1729858620,"current_range_meters":18000,"station_id":"ce4bgs92rcd13ifvqcc0","pricing_plan_id":"cebpf4jnsgd1na2vs0mg"},{"bike_id":"ec517bc8-aab9-4441-9a5a-13b6295f2e39","system_id":"levelo_inurba_marseille","lat":43.22933,"lon":5.35376,"is_reserved":false,"is_disabled":false,"rental_uris":{"android":"levelo://app?vid=ec517bc8-aab9-4441-9a5a-13b6295f2e39","ios":"levelo://app?vid=ec517bc8-aab9-4441-9a5a-13b6295f2e39"},"vehicle_type_id":"4","last_reported":1729858620,"current_range_meters":20400,"station_id":"cpo3532slgdg3j2ikp40","pricing_plan_id":"cebpf4jnsgd1na2vs0mg"},{"bike_id":"d95500fb-2f36-4b62-be38-9e13d96fb812","system_id":"levelo_inurba_marseille","lat":43.26799,"lon":5.40259,"is_reserved":false,"is_disabled":false,"rental_uris":{"android":"levelo://app?vid=d95500fb-2f36-4b62-be38-9e13d96fb812","ios":"levelo://app?vid=d95500fb-2f36-4b62-be38-9e13d96fb812"},"vehicle_type_id":"4","last_reported":1729858620,"current_range_meters":25200,"station_id":"ce501612rcd8frsf0b60","pricing_plan_id":"cebpf4jnsgd1na2vs0mg"},{"bike_id":"dd10176f-5107-4539-871f-f296367437e1","system_id":"levelo_inurba_marseille","lat":43.29219,"lon":5.36057,"is_reserved":false,"is_disabled":false,"rental_uris":{"android":"levelo://app?vid=dd10176f-5107-4539-871f-f296367437e1","ios":"levelo://app?vid=dd10176f-5107-4539-871f-f296367437e1"},"vehicle_type_id":"4","last_reported":1729858620,"current_range_meters":38400,"station_id":"ce4bhbh2rcd13ifvqeqg","pricing_plan_id":"cebpf4jnsgd1na2vs0mg"},{"bike_id":"0fcc2193-66aa-4a69-8e31-368e3fe4058c","system_id":"levelo_inurba_marseille","lat":43.27564,"lon":5.3841,"is_reserved":false,"is_disabled":false,"rental_uris":{"android":"levelo://app?vid=0fcc2193-66aa-4a69-8e31-368e3fe4058c","ios":"levelo://app?vid=0fcc2193-66aa-4a69-8e31-368e3fe4058c"},"vehicle_type_id":"4","last_reported":1729858620,"current_range_meters":17200,"station_id":"ce4bhh92rcd13ifvqfi0","pricing_plan_id":"cebpf4jnsgd1na2vs0mg"},{"bike_id":"f0b863c8-76f9-4f06-a6ca-be71cfa200a0","system_id":"levelo_inurba_marseille","lat":43.2925,"lon":5.40902,"is_reserved":false,"is_disabled":false,"rental_uris":{"android":"levelo://app?vid=f0b863c8-76f9-4f06-a6ca-be71cfa200a0","ios":"levelo://app?vid=f0b863c8-76f9-4f06-a6ca-be71cfa200a0"},"vehicle_type_id":"4","last_reported":1729858620,"current_range_meters":38800,"station_id":"ce4bh192rcd13ifvqdc0","pricing_plan_id":"cebpf4jnsgd1na2vs0mg"},{"bike_id":"6cb0d09c-4434-41fe-bab7-3f2ab7b0ac84","system_id":"levelo_inurba_marseille","lat":43.23055,"lon":5.35495,"is_reserved":false,"is_disabled":false,"rental_uris":{"android":"levelo://app?vid=6cb0d09c-4434-41fe-bab7-3f2ab7b0ac84","ios":"levelo://app?vid=6cb0d09c-4434-41fe-bab7-3f2ab7b0ac84"},"vehicle_type_id":"4","last_reported":1729858620,"current_range_meters":22000,"station_id":"cpo3342slgdg3j2ifvpg","pricing_plan_id":"cebpf4jnsgd1na2vs0mg"},{"bike_id":"b85af3b3-7a60-4c70-a2e1-012a71c6422b","system_id":"levelo_inurba_marseille","lat":43.25927,"lon":5.40906,"is_reserved":false,"is_disabled":false,"rental_uris":{"android":"levelo://app?vid=b85af3b3-7a60-4c70-a2e1-012a71c6422b","ios":"levelo://app?vid=b85af3b3-7a60-4c70-a2e1-012a71c6422b"},"vehicle_type_id":"4","last_reported":1729858620,"current_range_meters":12400,"station_id":"ce4bhm92rcd13ifvqglg","pricing_plan_id":"cebpf4jnsgd1na2vs0mg"},{"bike_id":"5c69d8d7-bae0-4d5b-9b69-7b827cf3df05","system_id":"levelo_inurba_marseille","lat":43.30887,"lon":5.39649,"is_reserved":false,"is_disabled":false,"rental_uris":{"android":"levelo://app?vid=5c69d8d7-bae0-4d5b-9b69-7b827cf3df05","ios":"levelo://app?vid=5c69d8d7-bae0-4d5b-9b69-7b827cf3df05"},"vehicle_type_id":"4","last_reported":1729858620,"current_range_meters":26000,"station_id":"ce4bh012rcd13ifvqcv0","pricing_plan_id":"cebpf4jnsgd1na2vs0mg"},{"bike_id":"34925e5a-67d1-4fb9-9bcf-192ac037f519","system_id":"levelo_inurba_marseille","lat":43.30326,"lon":5.40432,"is_reserved":false,"is_disabled":false,"rental_uris":{"android":"levelo://app?vid=34925e5a-67d1-4fb9-9bcf-192ac037f519","ios":"levelo://app?vid=34925e5a-67d1-4fb9-9bcf-192ac037f519"},"vehicle_type_id":"4","last_reported":1729858620,"current_range_meters":24400,"station_id":"ce4bh012rcd13ifvqd10","pricing_plan_id":"cebpf4jnsgd1na2vs0mg"},{"bike_id":"661e62a9-af33-4796-bf88-bdb0e3140103","system_id":"levelo_inurba_marseille","lat":43.2885,"lon":5.35866,"is_reserved":false,"is_disabled":false,"rental_uris":{"android":"levelo://app?vid=661e62a9-af33-4796-bf88-bdb0e3140103","ios":"levelo://app?vid=661e62a9-af33-4796-bf88-bdb0e3140103"},"vehicle_type_id":"4","last_reported":1729858620,"current_range_meters":38800,"station_id":"ce4bhb12rcd13ifvqem0","pricing_plan_id":"cebpf4jnsgd1na2vs0mg"},{"bike_id":"e71f7a4d-9d78-4816-9ba2-d7164ce5d966","system_id":"levelo_inurba_marseille","lat":43.29849,"lon":5.36283,"is_reserved":false,"is_disabled":false,"rental_uris":{"android":"levelo://app?vid=e71f7a4d-9d78-4816-9ba2-d7164ce5d966","ios":"levelo://app?vid=e71f7a4d-9d78-4816-9ba2-d7164ce5d966"},"vehicle_type_id":"4","last_reported":1729858620,"current_range_meters":19200,"station_id":"ce4bgpp2rcd13ifvqc3g","pricing_plan_id":"cebpf4jnsgd1na2vs0mg"},{"bike_id":"7bbb0767-0b4b-4ac4-9ec7-c765b3e54cba","system_id":"levelo_inurba_marseille","lat":43.30548,"lon":5.36533,"is_reserved":false,"is_disabled":false,"rental_uris":{"android":"levelo://app?vid=7bbb0767-0b4b-4ac4-9ec7-c765b3e54cba","ios":"levelo://app?vid=7bbb0767-0b4b-4ac4-9ec7-c765b3e54cba"},"vehicle_type_id":"4","last_reported":1729858620,"current_range_meters":31200,"station_id":"ce4bgs12rcd13ifvqcag","pricing_plan_id":"cebpf4jnsgd1na2vs0mg"},{"bike_id":"8a429d77-fbbc-4f8e-b9f4-529fead4bc64","system_id":"levelo_inurba_marseille","lat":43.2695,"lon":5.38631,"is_reserved":false,"is_disabled":false,"rental_uris":{"android":"levelo://app?vid=8a429d77-fbbc-4f8e-b9f4-529fead4bc64","ios":"levelo://app?vid=8a429d77-fbbc-4f8e-b9f4-529fead4bc64"},"vehicle_type_id":"4","last_reported":1729858620,"current_range_meters":39200,"station_id":"ce4bhh92rcd13ifvqfh0","pricing_plan_id":"cebpf4jnsgd1na2vs0mg"},{"bike_id":"f082fa24-964b-4afc-8d8e-65b1719eafd7","system_id":"levelo_inurba_marseille","lat":43.24389,"lon":5.37053,"is_reserved":false,"is_disabled":false,"rental_uris":{"android":"levelo://app?vid=f082fa24-964b-4afc-8d8e-65b1719eafd7","ios":"levelo://app?vid=f082fa24-964b-4afc-8d8e-65b1719eafd7"},"vehicle_type_id":"4","last_reported":1729858620,"current_range_meters":40000,"station_id":"ce4bhhh2rcd13ifvqfk0","pricing_plan_id":"cebpf4jnsgd1na2vs0mg"},{"bike_id":"c1ea39de-7901-495d-8dcc-cdc4e5c0a1a3","system_id":"levelo_inurba_marseille","lat":43.29529,"lon":5.38533,"is_reserved":false,"is_disabled":false,"rental_uris":{"android":"levelo://app?vid=c1ea39de-7901-495d-8dcc-cdc4e5c0a1a3","ios":"levelo://app?vid=c1ea39de-7901-495d-8dcc-cdc4e5c0a1a3"},"vehicle_type_id":"4","last_reported":1729858620,"current_range_meters":30000,"station_id":"ce4bgih2rcd13ifvqba0","pricing_plan_id":"cebpf4jnsgd1na2vs0mg"},{"bike_id":"d3e60edd-ce94-4f81-ba05-2a3c36f21447","system_id":"levelo_inurba_marseille","lat":43.31141,"lon":5.42374,"is_reserved":false,"is_disabled":false,"rental_uris":{"android":"levelo://app?vid=d3e60edd-ce94-4f81-ba05-2a3c36f21447","ios":"levelo://app?vid=d3e60edd-ce94-4f81-ba05-2a3c36f21447"},"vehicle_type_id":"4","last_reported":1729858620,"current_range_meters":16800,"station_id":"ce4bhp92rcd13ifvqhbg","pricing_plan_id":"cebpf4jnsgd1na2vs0mg"},{"bike_id":"1c042e26-d403-4e49-a5ba-cf6b2520e302","system_id":"levelo_inurba_marseille","lat":43.26798,"lon":5.39419,"is_reserved":false,"is_disabled":false,"rental_uris":{"android":"levelo://app?vid=1c042e26-d403-4e49-a5ba-cf6b2520e302","ios":"levelo://app?vid=1c042e26-d403-4e49-a5ba-cf6b2520e302"},"vehicle_type_id":"4","last_reported":1729858620,"current_range_meters":35600,"station_id":"ce4bhh12rcd13ifvqfg0","pricing_plan_id":"cebpf4jnsgd1na2vs0mg"},{"bike_id":"7ebc9bdb-d16d-4077-bbd0-ac0bc6127ef4","system_id":"levelo_inurba_marseille","lat":43.30542,"lon":5.36698,"is_reserved":false,"is_disabled":false,"rental_uris":{"android":"levelo://app?vid=7ebc9bdb-d16d-4077-bbd0-ac0bc6127ef4","ios":"levelo://app?vid=7ebc9bdb-d16d-4077-bbd0-ac0bc6127ef4"},"vehicle_type_id":"4","last_reported":1729858620,"current_range_meters":17600,"station_id":"ce4bgrp2rcd13ifvqc9g","pricing_plan_id":"cebpf4jnsgd1na2vs0mg"},{"bike_id":"43b20a75-49b3-45ab-b19b-f5aa302cde8d","system_id":"levelo_inurba_marseille","lat":43.24804,"lon":5.3745,"is_reserved":false,"is_disabled":false,"rental_uris":{"android":"levelo://app?vid=43b20a75-49b3-45ab-b19b-f5aa302cde8d","ios":"levelo://app?vid=43b20a75-49b3-45ab-b19b-f5aa302cde8d"},"vehicle_type_id":"4","last_reported":1729858620,"current_range_meters":16400,"station_id":"ce4bhgh2rcd13ifvqfb0","pricing_plan_id":"cebpf4jnsgd1na2vs0mg"},{"bike_id":"7ca2732a-8343-4695-9bfd-cf79f7164472","system_id":"levelo_inurba_marseille","lat":43.32106,"lon":5.36773,"is_reserved":false,"is_disabled":false,"rental_uris":{"android":"levelo://app?vid=7ca2732a-8343-4695-9bfd-cf79f7164472","ios":"levelo://app?vid=7ca2732a-8343-4695-9bfd-cf79f7164472"},"vehicle_type_id":"4","last_reported":1729858620,"current_range_meters":14400,"station_id":"ce4bhrh2rcd13ifvqhug","pricing_plan_id":"cebpf4jnsgd1na2vs0mg"},{"bike_id":"ac39f19d-0b73-476b-9810-f110570377a5","system_id":"levelo_inurba_marseille","lat":43.26739,"lon":5.38941,"is_reserved":false,"is_disabled":false,"rental_uris":{"android":"levelo://app?vid=ac39f19d-0b73-476b-9810-f110570377a5","ios":"levelo://app?vid=ac39f19d-0b73-476b-9810-f110570377a5"},"vehicle_type_id":"4","last_reported":1729858620,"current_range_meters":4000,"station_id":"","pricing_plan_id":"cebpf4jnsgd1na2vs0mg"},{"bike_id":"18295cba-459b-4864-bdc6-9405fe3604b3","system_id":"levelo_inurba_marseille","lat":43.32472,"lon":5.36554,"is_reserved":false,"is_disabled":false,"rental_uris":{"android":"levelo://app?vid=18295cba-459b-4864-bdc6-9405fe3604b3","ios":"levelo://app?vid=18295cba-459b-4864-bdc6-9405fe3604b3"},"vehicle_type_id":"4","last_reported":1729858620,"current_range_meters":30000,"station_id":"ce4bhs12rcd13ifvqhvg","pricing_plan_id":"cebpf4jnsgd1na2vs0mg"},{"bike_id":"99ddea5b-5cd9-4b87-9290-1beed3353792","system_id":"levelo_inurba_marseille","lat":43.2439,"lon":5.37054,"is_reserved":false,"is_disabled":false,"rental_uris":{"android":"levelo://app?vid=99ddea5b-5cd9-4b87-9290-1beed3353792","ios":"levelo://app?vid=99ddea5b-5cd9-4b87-9290-1beed3353792"},"vehicle_type_id":"4","last_reported":1729858620,"current_range_meters":39200,"station_id":"ce4bhhh2rcd13ifvqfk0","pricing_plan_id":"cebpf4jnsgd1na2vs0mg"},{"bike_id":"e702d4cf-e134-4cb6-8867-404038646c77","system_id":"levelo_inurba_marseille","lat":43.30613,"lon":5.37213,"is_reserved":false,"is_disabled":false,"rental_uris":{"android":"levelo://app?vid=e702d4cf-e134-4cb6-8867-404038646c77","ios":"levelo://app?vid=e702d4cf-e134-4cb6-8867-404038646c77"},"vehicle_type_id":"4","last_reported":1729858620,"current_range_meters":14800,"station_id":"ce4bgqh2rcd13ifvqc4g","pricing_plan_id":"cebpf4jnsgd1na2vs0mg"},{"bike_id":"8a329639-cb15-44d9-ae9e-92767ac55b0e","system_id":"levelo_inurba_marseille","lat":43.288574,"lon":5.393248,"is_reserved":false,"is_disabled":false,"rental_uris":{"android":"levelo://app?vid=8a329639-cb15-44d9-ae9e-92767ac55b0e","ios":"levelo://app?vid=8a329639-cb15-44d9-ae9e-92767ac55b0e"},"vehicle_type_id":"4","last_reported":1729858620,"current_range_meters":2800,"station_id":"ce4bh2p2rcd13ifvqdi0","pricing_plan_id":"cebpf4jnsgd1na2vs0mg"},{"bike_id":"e81e04f0-56ca-446b-bd2b-2422b9beac07","system_id":"levelo_inurba_marseille","lat":43.28998,"lon":5.35603,"is_reserved":false,"is_disabled":false,"rental_uris":{"android":"levelo://app?vid=e81e04f0-56ca-446b-bd2b-2422b9beac07","ios":"levelo://app?vid=e81e04f0-56ca-446b-bd2b-2422b9beac07"},"vehicle_type_id":"4","last_reported":1729858620,"current_range_meters":39200,"station_id":"ce4bhb92rcd13ifvqen0","pricing_plan_id":"cebpf4jnsgd1na2vs0mg"},{"bike_id":"d38f62e7-1f37-4371-b691-c538fdb76ee1","system_id":"levelo_inurba_marseille","lat":43.30879,"lon":5.3719,"is_reserved":false,"is_disabled":false,"rental_uris":{"android":"levelo://app?vid=d38f62e7-1f37-4371-b691-c538fdb76ee1","ios":"levelo://app?vid=d38f62e7-1f37-4371-b691-c538fdb76ee1"},"vehicle_type_id":"4","last_reported":1729858620,"current_range_meters":16800,"station_id":"ce4bguh2rcd13ifvqckg","pricing_plan_id":"cebpf4jnsgd1na2vs0mg"},{"bike_id":"efdd3aa0-e144-46ca-b8b0-257cd2be71e6","system_id":"levelo_inurba_marseille","lat":43.2558,"lon":5.38228,"is_reserved":false,"is_disabled":false,"rental_uris":{"android":"levelo://app?vid=efdd3aa0-e144-46ca-b8b0-257cd2be71e6","ios":"levelo://app?vid=efdd3aa0-e144-46ca-b8b0-257cd2be71e6"},"vehicle_type_id":"4","last_reported":1729858620,"current_range_meters":38800,"station_id":"ce4bhih2rcd13ifvqfs0","pricing_plan_id":"cebpf4jnsgd1na2vs0mg"},{"bike_id":"76e1d6c9-49d5-4857-8678-317f5f8fa616","system_id":"levelo_inurba_marseille","lat":43.27376,"lon":5.36254,"is_reserved":false,"is_disabled":false,"rental_uris":{"android":"levelo://app?vid=76e1d6c9-49d5-4857-8678-317f5f8fa616","ios":"levelo://app?vid=76e1d6c9-49d5-4857-8678-317f5f8fa616"},"vehicle_type_id":"4","last_reported":1729858620,"current_range_meters":4000,"station_id":"ce4bhbh2rcd13ifvqeo0","pricing_plan_id":"cebpf4jnsgd1na2vs0mg"},{"bike_id":"ff13667d-1611-4c04-a6d8-e4447e9da9e2","system_id":"levelo_inurba_marseille","lat":43.283173,"lon":5.398671,"is_reserved":false,"is_disabled":false,"rental_uris":{"android":"levelo://app?vid=ff13667d-1611-4c04-a6d8-e4447e9da9e2","ios":"levelo://app?vid=ff13667d-1611-4c04-a6d8-e4447e9da9e2"},"vehicle_type_id":"4","last_reported":1729858620,"current_range_meters":26000,"station_id":"ce4bhl92rcd13ifvqghg","pricing_plan_id":"cebpf4jnsgd1na2vs0mg"},{"bike_id":"a42b0bdd-1f10-437f-813e-02df169ed0a9","system_id":"levelo_inurba_marseille","lat":43.22935,"lon":5.35374,"is_reserved":false,"is_disabled":false,"rental_uris":{"android":"levelo://app?vid=a42b0bdd-1f10-437f-813e-02df169ed0a9","ios":"levelo://app?vid=a42b0bdd-1f10-437f-813e-02df169ed0a9"},"vehicle_type_id":"4","last_reported":1729858620,"current_range_meters":27600,"station_id":"cpo3532slgdg3j2ikp40","pricing_plan_id":"cebpf4jnsgd1na2vs0mg"},{"bike_id":"d727a7dd-1715-40ee-b534-867def154325","system_id":"levelo_inurba_marseille","lat":43.30328,"lon":5.40426,"is_reserved":false,"is_disabled":false,"rental_uris":{"android":"levelo://app?vid=d727a7dd-1715-40ee-b534-867def154325","ios":"levelo://app?vid=d727a7dd-1715-40ee-b534-867def154325"},"vehicle_type_id":"4","last_reported":1729858620,"current_range_meters":16000,"station_id":"ce4bh012rcd13ifvqd10","pricing_plan_id":"cebpf4jnsgd1na2vs0mg"},{"bike_id":"b2a05d95-c058-43f9-bf69-f76e49523c27","system_id":"levelo_inurba_marseille","lat":43.337444,"lon":5.374475,"is_reserved":false,"is_disabled":false,"rental_uris":{"android":"levelo://app?vid=b2a05d95-c058-43f9-bf69-f76e49523c27","ios":"levelo://app?vid=b2a05d95-c058-43f9-bf69-f76e49523c27"},"vehicle_type_id":"4","last_reported":1729858620,"current_range_meters":38800,"station_id":"","pricing_plan_id":"cebpf4jnsgd1na2vs0mg"},{"bike_id":"888abbe0-042c-4d18-b5c5-d8de3df58644","system_id":"levelo_inurba_marseille","lat":43.28265,"lon":5.3506,"is_reserved":false,"is_disabled":false,"rental_uris":{"android":"levelo://app?vid=888abbe0-042c-4d18-b5c5-d8de3df58644","ios":"levelo://app?vid=888abbe0-042c-4d18-b5c5-d8de3df58644"},"vehicle_type_id":"4","last_reported":1729858620,"current_range_meters":19200,"station_id":"ce4bhbp2rcd13ifvqerg","pricing_plan_id":"cebpf4jnsgd1na2vs0mg"},{"bike_id":"ea49dcab-794a-4bda-8247-77371dad772a","system_id":"levelo_inurba_marseille","lat":43.30963,"lon":5.3904,"is_reserved":false,"is_disabled":false,"rental_uris":{"android":"levelo://app?vid=ea49dcab-794a-4bda-8247-77371dad772a","ios":"levelo://app?vid=ea49dcab-794a-4bda-8247-77371dad772a"},"vehicle_type_id":"4","last_reported":1729858620,"current_range_meters":38000,"station_id":"ce4bgup2rcd13ifvqco0","pricing_plan_id":"cebpf4jnsgd1na2vs0mg"},{"bike_id":"01573caf-98df-47ce-9de6-c749e0f998c9","system_id":"levelo_inurba_marseille","lat":43.29035,"lon":5.39963,"is_reserved":false,"is_disabled":false,"rental_uris":{"android":"levelo://app?vid=01573caf-98df-47ce-9de6-c749e0f998c9","ios":"levelo://app?vid=01573caf-98df-47ce-9de6-c749e0f998c9"},"vehicle_type_id":"4","last_reported":1729858620,"current_range_meters":25200,"station_id":"ce4bh392rcd13ifvqdm0","pricing_plan_id":"cebpf4jnsgd1na2vs0mg"},{"bike_id":"f9ec36ed-f1e8-4d39-a330-d53d339322cc","system_id":"levelo_inurba_marseille","lat":43.249441,"lon":5.397352,"is_reserved":false,"is_disabled":false,"rental_uris":{"android":"levelo://app?vid=f9ec36ed-f1e8-4d39-a330-d53d339322cc","ios":"levelo://app?vid=f9ec36ed-f1e8-4d39-a330-d53d339322cc"},"vehicle_type_id":"4","last_reported":1729858620,"current_range_meters":17200,"station_id":"","pricing_plan_id":"cebpf4jnsgd1na2vs0mg"},{"bike_id":"a7a0f619-6527-44dd-a24b-52138bc3745a","system_id":"levelo_inurba_marseille","lat":43.23186,"lon":5.40019,"is_reserved":false,"is_disabled":false,"rental_uris":{"android":"levelo://app?vid=a7a0f619-6527-44dd-a24b-52138bc3745a","ios":"levelo://app?vid=a7a0f619-6527-44dd-a24b-52138bc3745a"},"vehicle_type_id":"4","last_reported":1729858620,"current_range_meters":16400,"station_id":"ce4bhn12rcd13ifvqgqg","pricing_plan_id":"cebpf4jnsgd1na2vs0mg"},{"bike_id":"be0a03d4-ad00-47ab-90f6-f92dfdf095d0","system_id":"levelo_inurba_marseille","lat":43.3015,"lon":5.37421,"is_reserved":false,"is_disabled":false,"rental_uris":{"android":"levelo://app?vid=be0a03d4-ad00-47ab-90f6-f92dfdf095d0","ios":"levelo://app?vid=be0a03d4-ad00-47ab-90f6-f92dfdf095d0"},"vehicle_type_id":"4","last_reported":1729858620,"current_range_meters":16800,"station_id":"ce4bgs92rcd13ifvqcc0","pricing_plan_id":"cebpf4jnsgd1na2vs0mg"},{"bike_id":"21b771f5-e12c-4d5b-be50-280d4e6da9bd","system_id":"levelo_inurba_marseille","lat":43.26684,"lon":5.38267,"is_reserved":false,"is_disabled":false,"rental_uris":{"android":"levelo://app?vid=21b771f5-e12c-4d5b-be50-280d4e6da9bd","ios":"levelo://app?vid=21b771f5-e12c-4d5b-be50-280d4e6da9bd"},"vehicle_type_id":"4","last_reported":1729858620,"current_range_meters":24800,"station_id":"ce4bhg92rcd13ifvqf90","pricing_plan_id":"cebpf4jnsgd1na2vs0mg"},{"bike_id":"d0d3eb9d-abdf-4883-9985-c18d8e89aebd","system_id":"levelo_inurba_marseille","lat":43.27621,"lon":5.36107,"is_reserved":false,"is_disabled":false,"rental_uris":{"android":"levelo://app?vid=d0d3eb9d-abdf-4883-9985-c18d8e89aebd","ios":"levelo://app?vid=d0d3eb9d-abdf-4883-9985-c18d8e89aebd"},"vehicle_type_id":"4","last_reported":1729858620,"current_range_meters":38000,"station_id":"ce4bgj92rcd13ifvqbe0","pricing_plan_id":"cebpf4jnsgd1na2vs0mg"},{"bike_id":"357054c3-00f3-44b3-960f-25031a13333e","system_id":"levelo_inurba_marseille","lat":43.29603,"lon":5.38092,"is_reserved":false,"is_disabled":false,"rental_uris":{"android":"levelo://app?vid=357054c3-00f3-44b3-960f-25031a13333e","ios":"levelo://app?vid=357054c3-00f3-44b3-960f-25031a13333e"},"vehicle_type_id":"4","last_reported":1729858620,"current_range_meters":24000,"station_id":"ce4bgl12rcd13ifvqbo0","pricing_plan_id":"cebpf4jnsgd1na2vs0mg"},{"bike_id":"9547fe9f-7da9-478b-9033-f446ea71bb69","system_id":"levelo_inurba_marseille","lat":43.31076,"lon":5.42437,"is_reserved":false,"is_disabled":false,"rental_uris":{"android":"levelo://app?vid=9547fe9f-7da9-478b-9033-f446ea71bb69","ios":"levelo://app?vid=9547fe9f-7da9-478b-9033-f446ea71bb69"},"vehicle_type_id":"4","last_reported":1729858620,"current_range_meters":36800,"station_id":"ce4bhp92rcd13ifvqhag","pricing_plan_id":"cebpf4jnsgd1na2vs0mg"},{"bike_id":"bb49900c-ddbd-4f35-b6eb-db266b9c8bcc","system_id":"levelo_inurba_marseille","lat":43.2927,"lon":5.36846,"is_reserved":false,"is_disabled":false,"rental_uris":{"android":"levelo://app?vid=bb49900c-ddbd-4f35-b6eb-db266b9c8bcc","ios":"levelo://app?vid=bb49900c-ddbd-4f35-b6eb-db266b9c8bcc"},"vehicle_type_id":"4","last_reported":1729858620,"current_range_meters":18800,"station_id":"ce4bhbp2rcd13ifvqesg","pricing_plan_id":"cebpf4jnsgd1na2vs0mg"},{"bike_id":"cbc8ef28-f0dd-46bc-a374-bf126ae54cf2","system_id":"levelo_inurba_marseille","lat":43.28365,"lon":5.39994,"is_reserved":false,"is_disabled":false,"rental_uris":{"android":"levelo://app?vid=cbc8ef28-f0dd-46bc-a374-bf126ae54cf2","ios":"levelo://app?vid=cbc8ef28-f0dd-46bc-a374-bf126ae54cf2"},"vehicle_type_id":"4","last_reported":1729858620,"current_range_meters":28400,"station_id":"","pricing_plan_id":"cebpf4jnsgd1na2vs0mg"},{"bike_id":"aa2296b3-9e48-4eb8-8736-02ee29db4f53","system_id":"levelo_inurba_marseille","lat":43.30283,"lon":5.37691,"is_reserved":false,"is_disabled":false,"rental_uris":{"android":"levelo://app?vid=aa2296b3-9e48-4eb8-8736-02ee29db4f53","ios":"levelo://app?vid=aa2296b3-9e48-4eb8-8736-02ee29db4f53"},"vehicle_type_id":"4","last_reported":1729858620,"current_range_meters":39200,"station_id":"ce4bguh2rcd13ifvqcj0","pricing_plan_id":"cebpf4jnsgd1na2vs0mg"},{"bike_id":"efe0b02e-9dcd-4192-8f41-25a0bf494636","system_id":"levelo_inurba_marseille","lat":43.32477,"lon":5.36547,"is_reserved":false,"is_disabled":false,"rental_uris":{"android":"levelo://app?vid=efe0b02e-9dcd-4192-8f41-25a0bf494636","ios":"levelo://app?vid=efe0b02e-9dcd-4192-8f41-25a0bf494636"},"vehicle_type_id":"4","last_reported":1729858620,"current_range_meters":38800,"station_id":"ce4bhs12rcd13ifvqhvg","pricing_plan_id":"cebpf4jnsgd1na2vs0mg"},{"bike_id":"a6372292-563d-4771-a01d-bf6771d8264b","system_id":"levelo_inurba_marseille","lat":43.29845,"lon":5.36276,"is_reserved":false,"is_disabled":false,"rental_uris":{"android":"levelo://app?vid=a6372292-563d-4771-a01d-bf6771d8264b","ios":"levelo://app?vid=a6372292-563d-4771-a01d-bf6771d8264b"},"vehicle_type_id":"4","last_reported":1729858620,"current_range_meters":13600,"station_id":"ce4bgpp2rcd13ifvqc3g","pricing_plan_id":"cebpf4jnsgd1na2vs0mg"},{"bike_id":"212337c5-c27c-4ce8-a37e-735a2e6c27ae","system_id":"levelo_inurba_marseille","lat":43.31693,"lon":5.37768,"is_reserved":false,"is_disabled":false,"rental_uris":{"android":"levelo://app?vid=212337c5-c27c-4ce8-a37e-735a2e6c27ae","ios":"levelo://app?vid=212337c5-c27c-4ce8-a37e-735a2e6c27ae"},"vehicle_type_id":"4","last_reported":1729858620,"current_range_meters":38800,"station_id":"ce4bgth2rcd13ifvqch0","pricing_plan_id":"cebpf4jnsgd1na2vs0mg"},{"bike_id":"5e15711f-0923-4d3b-a05b-82d2c8958897","system_id":"levelo_inurba_marseille","lat":43.28103,"lon":5.37838,"is_reserved":false,"is_disabled":false,"rental_uris":{"android":"levelo://app?vid=5e15711f-0923-4d3b-a05b-82d2c8958897","ios":"levelo://app?vid=5e15711f-0923-4d3b-a05b-82d2c8958897"},"vehicle_type_id":"4","last_reported":1729858620,"current_range_meters":37600,"station_id":"ce4bha12rcd13ifvqee0","pricing_plan_id":"cebpf4jnsgd1na2vs0mg"},{"bike_id":"6a42efe1-6862-438c-9041-187a76c16409","system_id":"levelo_inurba_marseille","lat":43.30469,"lon":5.37904,"is_reserved":false,"is_disabled":false,"rental_uris":{"android":"levelo://app?vid=6a42efe1-6862-438c-9041-187a76c16409","ios":"levelo://app?vid=6a42efe1-6862-438c-9041-187a76c16409"},"vehicle_type_id":"4","last_reported":1729858620,"current_range_meters":38000,"station_id":"ce4bgup2rcd13ifvqcn0","pricing_plan_id":"cebpf4jnsgd1na2vs0mg"},{"bike_id":"1f0467ef-6ac3-46b5-9649-2cf6aaae2198","system_id":"levelo_inurba_marseille","lat":43.2909,"lon":5.38117,"is_reserved":false,"is_disabled":false,"rental_uris":{"android":"levelo://app?vid=1f0467ef-6ac3-46b5-9649-2cf6aaae2198","ios":"levelo://app?vid=1f0467ef-6ac3-46b5-9649-2cf6aaae2198"},"vehicle_type_id":"4","last_reported":1729858620,"current_range_meters":21600,"station_id":"ce4bh512rcd13ifvqe2g","pricing_plan_id":"cebpf4jnsgd1na2vs0mg"},{"bike_id":"9b78858f-83e5-4064-a94f-c1e095cc513e","system_id":"levelo_inurba_marseille","lat":43.27499,"lon":5.42448,"is_reserved":false,"is_disabled":false,"rental_uris":{"android":"levelo://app?vid=9b78858f-83e5-4064-a94f-c1e095cc513e","ios":"levelo://app?vid=9b78858f-83e5-4064-a94f-c1e095cc513e"},"vehicle_type_id":"4","last_reported":1729858620,"current_range_meters":6800,"station_id":"ce4bhn92rcd13ifvqgrg","pricing_plan_id":"cebpf4jnsgd1na2vs0mg"},{"bike_id":"48e380db-a09a-4558-9a32-ca03edf9c6fe","system_id":"levelo_inurba_marseille","lat":43.29898,"lon":5.43667,"is_reserved":false,"is_disabled":false,"rental_uris":{"android":"levelo://app?vid=48e380db-a09a-4558-9a32-ca03edf9c6fe","ios":"levelo://app?vid=48e380db-a09a-4558-9a32-ca03edf9c6fe"},"vehicle_type_id":"4","last_reported":1729858620,"current_range_meters":16000,"station_id":"ce4bhpp2rcd13ifvqhfg","pricing_plan_id":"cebpf4jnsgd1na2vs0mg"},{"bike_id":"82e5b345-77a3-4984-9ea4-c98235e5c41c","system_id":"levelo_inurba_marseille","lat":43.31693,"lon":5.3775,"is_reserved":false,"is_disabled":false,"rental_uris":{"android":"levelo://app?vid=82e5b345-77a3-4984-9ea4-c98235e5c41c","ios":"levelo://app?vid=82e5b345-77a3-4984-9ea4-c98235e5c41c"},"vehicle_type_id":"4","last_reported":1729858620,"current_range_meters":17200,"station_id":"ce4bgth2rcd13ifvqch0","pricing_plan_id":"cebpf4jnsgd1na2vs0mg"},{"bike_id":"000c9eb4-0f10-4dc6-84b2-7829018c9128","system_id":"levelo_inurba_marseille","lat":43.29196,"lon":5.35805,"is_reserved":false,"is_disabled":false,"rental_uris":{"android":"levelo://app?vid=000c9eb4-0f10-4dc6-84b2-7829018c9128","ios":"levelo://app?vid=000c9eb4-0f10-4dc6-84b2-7829018c9128"},"vehicle_type_id":"4","last_reported":1729858620,"current_range_meters":40000,"station_id":"ce4bhb12rcd13ifvqel0","pricing_plan_id":"cebpf4jnsgd1na2vs0mg"},{"bike_id":"27f07749-69c9-4079-9dec-2b38276cccb0","system_id":"levelo_inurba_marseille","lat":43.2315,"lon":5.43709,"is_reserved":false,"is_disabled":false,"rental_uris":{"android":"levelo://app?vid=27f07749-69c9-4079-9dec-2b38276cccb0","ios":"levelo://app?vid=27f07749-69c9-4079-9dec-2b38276cccb0"},"vehicle_type_id":"4","last_reported":1729858620,"current_range_meters":39200,"station_id":"ce4bhmp2rcd13ifvqgog","pricing_plan_id":"cebpf4jnsgd1na2vs0mg"},{"bike_id":"7691659f-eea1-4b4d-8db5-2728fcde3a23","system_id":"levelo_inurba_marseille","lat":43.29386,"lon":5.37528,"is_reserved":false,"is_disabled":false,"rental_uris":{"android":"levelo://app?vid=7691659f-eea1-4b4d-8db5-2728fcde3a23","ios":"levelo://app?vid=7691659f-eea1-4b4d-8db5-2728fcde3a23"},"vehicle_type_id":"4","last_reported":1729858620,"current_range_meters":26000,"station_id":"ce4bhr12rcd13ifvqhqg","pricing_plan_id":"cebpf4jnsgd1na2vs0mg"},{"bike_id":"6e382b4c-da74-42bf-b0fb-edf99b9182c7","system_id":"levelo_inurba_marseille","lat":43.30531,"lon":5.36526,"is_reserved":false,"is_disabled":false,"rental_uris":{"android":"levelo://app?vid=6e382b4c-da74-42bf-b0fb-edf99b9182c7","ios":"levelo://app?vid=6e382b4c-da74-42bf-b0fb-edf99b9182c7"},"vehicle_type_id":"4","last_reported":1729858620,"current_range_meters":40000,"station_id":"ce4bgs12rcd13ifvqcag","pricing_plan_id":"cebpf4jnsgd1na2vs0mg"},{"bike_id":"fa650b98-cfba-4121-8202-2f0b466bb32e","system_id":"levelo_inurba_marseille","lat":43.29799,"lon":5.38086,"is_reserved":false,"is_disabled":false,"rental_uris":{"android":"levelo://app?vid=fa650b98-cfba-4121-8202-2f0b466bb32e","ios":"levelo://app?vid=fa650b98-cfba-4121-8202-2f0b466bb32e"},"vehicle_type_id":"4","last_reported":1729858620,"current_range_meters":12800,"station_id":"ce4bgip2rcd13ifvqbb0","pricing_plan_id":"cebpf4jnsgd1na2vs0mg"},{"bike_id":"0fe77b0f-5131-4557-b571-bab2bbf01500","system_id":"levelo_inurba_marseille","lat":43.29799,"lon":5.38091,"is_reserved":false,"is_disabled":false,"rental_uris":{"android":"levelo://app?vid=0fe77b0f-5131-4557-b571-bab2bbf01500","ios":"levelo://app?vid=0fe77b0f-5131-4557-b571-bab2bbf01500"},"vehicle_type_id":"4","last_reported":1729858620,"current_range_meters":39200,"station_id":"ce4bgip2rcd13ifvqbb0","pricing_plan_id":"cebpf4jnsgd1na2vs0mg"},{"bike_id":"19ef132f-0a4a-48cf-8e01-c74d639e28ab","system_id":"levelo_inurba_marseille","lat":43.24079,"lon":5.37757,"is_reserved":false,"is_disabled":false,"rental_uris":{"android":"levelo://app?vid=19ef132f-0a4a-48cf-8e01-c74d639e28ab","ios":"levelo://app?vid=19ef132f-0a4a-48cf-8e01-c74d639e28ab"},"vehicle_type_id":"4","last_reported":1729858620,"current_range_meters":18000,"station_id":"ce4bhnp2rcd13ifvqgvg","pricing_plan_id":"cebpf4jnsgd1na2vs0mg"},{"bike_id":"2d00eb2b-c89a-4a28-921c-a8273c64fbe8","system_id":"levelo_inurba_marseille","lat":43.27619,"lon":5.36104,"is_reserved":false,"is_disabled":false,"rental_uris":{"android":"levelo://app?vid=2d00eb2b-c89a-4a28-921c-a8273c64fbe8","ios":"levelo://app?vid=2d00eb2b-c89a-4a28-921c-a8273c64fbe8"},"vehicle_type_id":"4","last_reported":1729858620,"current_range_meters":38800,"station_id":"ce4bgj92rcd13ifvqbe0","pricing_plan_id":"cebpf4jnsgd1na2vs0mg"},{"bike_id":"e7e8502d-d3f5-4040-8053-fa5ed75a5924","system_id":"levelo_inurba_marseille","lat":43.28263,"lon":5.35053,"is_reserved":false,"is_disabled":false,"rental_uris":{"android":"levelo://app?vid=e7e8502d-d3f5-4040-8053-fa5ed75a5924","ios":"levelo://app?vid=e7e8502d-d3f5-4040-8053-fa5ed75a5924"},"vehicle_type_id":"4","last_reported":1729858620,"current_range_meters":27600,"station_id":"ce4bhbp2rcd13ifvqerg","pricing_plan_id":"cebpf4jnsgd1na2vs0mg"},{"bike_id":"18cd883a-f1cd-4f34-98dc-7580d7e4256d","system_id":"levelo_inurba_marseille","lat":43.24639,"lon":5.38917,"is_reserved":false,"is_disabled":false,"rental_uris":{"android":"levelo://app?vid=18cd883a-f1cd-4f34-98dc-7580d7e4256d","ios":"levelo://app?vid=18cd883a-f1cd-4f34-98dc-7580d7e4256d"},"vehicle_type_id":"4","last_reported":1729858620,"current_range_meters":16400,"station_id":"ce4bhg12rcd13ifvqf60","pricing_plan_id":"cebpf4jnsgd1na2vs0mg"},{"bike_id":"dfba7274-2e83-4491-be66-b660b1868e53","system_id":"levelo_inurba_marseille","lat":43.29567,"lon":5.37507,"is_reserved":false,"is_disabled":false,"rental_uris":{"android":"levelo://app?vid=dfba7274-2e83-4491-be66-b660b1868e53","ios":"levelo://app?vid=dfba7274-2e83-4491-be66-b660b1868e53"},"vehicle_type_id":"4","last_reported":1729858620,"current_range_meters":7200,"station_id":"ce4bh492rcd13ifvqdvg","pricing_plan_id":"cebpf4jnsgd1na2vs0mg"},{"bike_id":"b2abab08-9a8a-41c3-9da9-725fbf5fc847","system_id":"levelo_inurba_marseille","lat":43.25001,"lon":5.38935,"is_reserved":false,"is_disabled":false,"rental_uris":{"android":"levelo://app?vid=b2abab08-9a8a-41c3-9da9-725fbf5fc847","ios":"levelo://app?vid=b2abab08-9a8a-41c3-9da9-725fbf5fc847"},"vehicle_type_id":"4","last_reported":1729858620,"current_range_meters":34800,"station_id":"ce4bhgp2rcd13ifvqfd0","pricing_plan_id":"cebpf4jnsgd1na2vs0mg"},{"bike_id":"44451477-c040-4b62-962f-6cb067a8510d","system_id":"levelo_inurba_marseille","lat":43.292,"lon":5.3933,"is_reserved":false,"is_disabled":false,"rental_uris":{"android":"levelo://app?vid=44451477-c040-4b62-962f-6cb067a8510d","ios":"levelo://app?vid=44451477-c040-4b62-962f-6cb067a8510d"},"vehicle_type_id":"4","last_reported":1729858620,"current_range_meters":19200,"station_id":"ce4bh192rcd13ifvqdd0","pricing_plan_id":"cebpf4jnsgd1na2vs0mg"},{"bike_id":"bef0f98e-928e-4943-83ce-7b60f0d730d7","system_id":"levelo_inurba_marseille","lat":43.22925,"lon":5.35378,"is_reserved":false,"is_disabled":false,"rental_uris":{"android":"levelo://app?vid=bef0f98e-928e-4943-83ce-7b60f0d730d7","ios":"levelo://app?vid=bef0f98e-928e-4943-83ce-7b60f0d730d7"},"vehicle_type_id":"4","last_reported":1729858620,"current_range_meters":37600,"station_id":"cpo3532slgdg3j2ikp40","pricing_plan_id":"cebpf4jnsgd1na2vs0mg"},{"bike_id":"66f020ae-5526-4ad0-8af9-6a968240ac52","system_id":"levelo_inurba_marseille","lat":43.32482,"lon":5.36577,"is_reserved":false,"is_disabled":false,"rental_uris":{"android":"levelo://app?vid=66f020ae-5526-4ad0-8af9-6a968240ac52","ios":"levelo://app?vid=66f020ae-5526-4ad0-8af9-6a968240ac52"},"vehicle_type_id":"4","last_reported":1729858620,"current_range_meters":37600,"station_id":"ce4bhs12rcd13ifvqhvg","pricing_plan_id":"cebpf4jnsgd1na2vs0mg"},{"bike_id":"9775e69d-4162-4587-945d-ee15049c6693","system_id":"levelo_inurba_marseille","lat":43.29581,"lon":5.36744,"is_reserved":false,"is_disabled":false,"rental_uris":{"android":"levelo://app?vid=9775e69d-4162-4587-945d-ee15049c6693","ios":"levelo://app?vid=9775e69d-4162-4587-945d-ee15049c6693"},"vehicle_type_id":"4","last_reported":1729858620,"current_range_meters":16000,"station_id":"ce4bgph2rcd13ifvqc2g","pricing_plan_id":"cebpf4jnsgd1na2vs0mg"},{"bike_id":"61f8f08a-c8a9-46a4-8a3e-30f9921aa73a","system_id":"levelo_inurba_marseille","lat":43.30148,"lon":5.37423,"is_reserved":false,"is_disabled":false,"rental_uris":{"android":"levelo://app?vid=61f8f08a-c8a9-46a4-8a3e-30f9921aa73a","ios":"levelo://app?vid=61f8f08a-c8a9-46a4-8a3e-30f9921aa73a"},"vehicle_type_id":"4","last_reported":1729858620,"current_range_meters":36800,"station_id":"ce4bgs92rcd13ifvqcc0","pricing_plan_id":"cebpf4jnsgd1na2vs0mg"},{"bike_id":"09dc4124-7fb5-4ba7-a1f0-258ed57ce86b","system_id":"levelo_inurba_marseille","lat":43.22928,"lon":5.35374,"is_reserved":false,"is_disabled":false,"rental_uris":{"android":"levelo://app?vid=09dc4124-7fb5-4ba7-a1f0-258ed57ce86b","ios":"levelo://app?vid=09dc4124-7fb5-4ba7-a1f0-258ed57ce86b"},"vehicle_type_id":"4","last_reported":1729858620,"current_range_meters":38400,"station_id":"cpo3532slgdg3j2ikp40","pricing_plan_id":"cebpf4jnsgd1na2vs0mg"},{"bike_id":"53df6662-8d4a-4d14-9149-8b942eda6a44","system_id":"levelo_inurba_marseille","lat":43.29284,"lon":5.40116,"is_reserved":false,"is_disabled":false,"rental_uris":{"android":"levelo://app?vid=53df6662-8d4a-4d14-9149-8b942eda6a44","ios":"levelo://app?vid=53df6662-8d4a-4d14-9149-8b942eda6a44"},"vehicle_type_id":"4","last_reported":1729858620,"current_range_meters":4000,"station_id":"ce4bh312rcd13ifvqdk0","pricing_plan_id":"cebpf4jnsgd1na2vs0mg"},{"bike_id":"42872a10-b6d5-45d3-adb2-f56a9298591a","system_id":"levelo_inurba_marseille","lat":43.29628,"lon":5.40602,"is_reserved":false,"is_disabled":false,"rental_uris":{"android":"levelo://app?vid=42872a10-b6d5-45d3-adb2-f56a9298591a","ios":"levelo://app?vid=42872a10-b6d5-45d3-adb2-f56a9298591a"},"vehicle_type_id":"4","last_reported":1729858620,"current_range_meters":38400,"station_id":"ce4bh0h2rcd13ifvqd60","pricing_plan_id":"cebpf4jnsgd1na2vs0mg"},{"bike_id":"13c462a5-12a8-4c5d-a729-32bf4dc319a6","system_id":"levelo_inurba_marseille","lat":43.31902,"lon":5.42268,"is_reserved":false,"is_disabled":false,"rental_uris":{"android":"levelo://app?vid=13c462a5-12a8-4c5d-a729-32bf4dc319a6","ios":"levelo://app?vid=13c462a5-12a8-4c5d-a729-32bf4dc319a6"},"vehicle_type_id":"4","last_reported":1729858620,"current_range_meters":26800,"station_id":"","pricing_plan_id":"cebpf4jnsgd1na2vs0mg"},{"bike_id":"8729192f-6ce2-478c-a84f-2b35a839e53d","system_id":"levelo_inurba_marseille","lat":43.29572,"lon":5.39977,"is_reserved":false,"is_disabled":false,"rental_uris":{"android":"levelo://app?vid=8729192f-6ce2-478c-a84f-2b35a839e53d","ios":"levelo://app?vid=8729192f-6ce2-478c-a84f-2b35a839e53d"},"vehicle_type_id":"4","last_reported":1729858620,"current_range_meters":20000,"station_id":"ce4bh312rcd13ifvqdj0","pricing_plan_id":"cebpf4jnsgd1na2vs0mg"},{"bike_id":"0db95616-cfbb-42e0-b0bc-85613567bc38","system_id":"levelo_inurba_marseille","lat":43.29532,"lon":5.38538,"is_reserved":false,"is_disabled":false,"rental_uris":{"android":"levelo://app?vid=0db95616-cfbb-42e0-b0bc-85613567bc38","ios":"levelo://app?vid=0db95616-cfbb-42e0-b0bc-85613567bc38"},"vehicle_type_id":"4","last_reported":1729858620,"current_range_meters":8800,"station_id":"ce4bgih2rcd13ifvqba0","pricing_plan_id":"cebpf4jnsgd1na2vs0mg"},{"bike_id":"7ed2a6fd-de0b-4f8b-b564-948f5bec40c6","system_id":"levelo_inurba_marseille","lat":43.23149,"lon":5.4372,"is_reserved":false,"is_disabled":false,"rental_uris":{"android":"levelo://app?vid=7ed2a6fd-de0b-4f8b-b564-948f5bec40c6","ios":"levelo://app?vid=7ed2a6fd-de0b-4f8b-b564-948f5bec40c6"},"vehicle_type_id":"4","last_reported":1729858620,"current_range_meters":17600,"station_id":"ce4bhmp2rcd13ifvqgog","pricing_plan_id":"cebpf4jnsgd1na2vs0mg"},{"bike_id":"f347d2d3-8e62-42af-b56b-5696da48a0b0","system_id":"levelo_inurba_marseille","lat":43.26031,"lon":5.37549,"is_reserved":false,"is_disabled":false,"rental_uris":{"android":"levelo://app?vid=f347d2d3-8e62-42af-b56b-5696da48a0b0","ios":"levelo://app?vid=f347d2d3-8e62-42af-b56b-5696da48a0b0"},"vehicle_type_id":"4","last_reported":1729858620,"current_range_meters":39200,"station_id":"ce4bhgh2rcd13ifvqfa0","pricing_plan_id":"cebpf4jnsgd1na2vs0mg"},{"bike_id":"d51e70e3-e500-4ad8-afdb-77e572148b3c","system_id":"levelo_inurba_marseille","lat":43.302805,"lon":5.376995,"is_reserved":false,"is_disabled":false,"rental_uris":{"android":"levelo://app?vid=d51e70e3-e500-4ad8-afdb-77e572148b3c","ios":"levelo://app?vid=d51e70e3-e500-4ad8-afdb-77e572148b3c"},"vehicle_type_id":"4","last_reported":1729858620,"current_range_meters":38000,"station_id":"ce4bguh2rcd13ifvqcj0","pricing_plan_id":"cebpf4jnsgd1na2vs0mg"},{"bike_id":"6d8e14cf-69c5-4286-9e57-9d9ca6e791d2","system_id":"levelo_inurba_marseille","lat":43.28465,"lon":5.35877,"is_reserved":false,"is_disabled":false,"rental_uris":{"android":"levelo://app?vid=6d8e14cf-69c5-4286-9e57-9d9ca6e791d2","ios":"levelo://app?vid=6d8e14cf-69c5-4286-9e57-9d9ca6e791d2"},"vehicle_type_id":"4","last_reported":1729858620,"current_range_meters":20000,"station_id":"ce4bhah2rcd13ifvqei0","pricing_plan_id":"cebpf4jnsgd1na2vs0mg"},{"bike_id":"d76b1a8d-69b4-4166-a252-ebfa20a2962c","system_id":"levelo_inurba_marseille","lat":43.32049,"lon":5.41547,"is_reserved":false,"is_disabled":false,"rental_uris":{"android":"levelo://app?vid=d76b1a8d-69b4-4166-a252-ebfa20a2962c","ios":"levelo://app?vid=d76b1a8d-69b4-4166-a252-ebfa20a2962c"},"vehicle_type_id":"4","last_reported":1729858620,"current_range_meters":24400,"station_id":"ce4bhq92rcd13ifvqhkg","pricing_plan_id":"cebpf4jnsgd1na2vs0mg"},{"bike_id":"56c6f9f5-fdcb-4236-a945-56b86ab994b2","system_id":"levelo_inurba_marseille","lat":43.29226,"lon":5.3608,"is_reserved":false,"is_disabled":false,"rental_uris":{"android":"levelo://app?vid=56c6f9f5-fdcb-4236-a945-56b86ab994b2","ios":"levelo://app?vid=56c6f9f5-fdcb-4236-a945-56b86ab994b2"},"vehicle_type_id":"4","last_reported":1729858620,"current_range_meters":24400,"station_id":"ce4bhbh2rcd13ifvqeqg","pricing_plan_id":"cebpf4jnsgd1na2vs0mg"},{"bike_id":"ab2480f8-aa60-4622-9e24-4c0c047b28a8","system_id":"levelo_inurba_marseille","lat":43.28261,"lon":5.42391,"is_reserved":false,"is_disabled":false,"rental_uris":{"android":"levelo://app?vid=ab2480f8-aa60-4622-9e24-4c0c047b28a8","ios":"levelo://app?vid=ab2480f8-aa60-4622-9e24-4c0c047b28a8"},"vehicle_type_id":"4","last_reported":1729858620,"current_range_meters":32800,"station_id":"ce4bhnh2rcd13ifvqgug","pricing_plan_id":"cebpf4jnsgd1na2vs0mg"},{"bike_id":"6ae5c146-3499-40d3-86c2-6885fd8ebd2d","system_id":"levelo_inurba_marseille","lat":43.29588,"lon":5.36733,"is_reserved":false,"is_disabled":false,"rental_uris":{"android":"levelo://app?vid=6ae5c146-3499-40d3-86c2-6885fd8ebd2d","ios":"levelo://app?vid=6ae5c146-3499-40d3-86c2-6885fd8ebd2d"},"vehicle_type_id":"4","last_reported":1729858620,"current_range_meters":38000,"station_id":"ce4bgph2rcd13ifvqc2g","pricing_plan_id":"cebpf4jnsgd1na2vs0mg"},{"bike_id":"bc64e5b4-b5f4-43c5-9bda-c4f00061d985","system_id":"levelo_inurba_marseille","lat":43.296058,"lon":5.38098,"is_reserved":false,"is_disabled":false,"rental_uris":{"android":"levelo://app?vid=bc64e5b4-b5f4-43c5-9bda-c4f00061d985","ios":"levelo://app?vid=bc64e5b4-b5f4-43c5-9bda-c4f00061d985"},"vehicle_type_id":"4","last_reported":1729858620,"current_range_meters":28800,"station_id":"ce4bhbh2rcd13ifvqepg","pricing_plan_id":"cebpf4jnsgd1na2vs0mg"},{"bike_id":"05b896ae-ddd6-4150-888f-6096f4d9d149","system_id":"levelo_inurba_marseille","lat":43.30483,"lon":5.37891,"is_reserved":false,"is_disabled":false,"rental_uris":{"android":"levelo://app?vid=05b896ae-ddd6-4150-888f-6096f4d9d149","ios":"levelo://app?vid=05b896ae-ddd6-4150-888f-6096f4d9d149"},"vehicle_type_id":"4","last_reported":1729858620,"current_range_meters":38800,"station_id":"ce4bgup2rcd13ifvqcn0","pricing_plan_id":"cebpf4jnsgd1na2vs0mg"},{"bike_id":"5c508d58-c7e8-445d-b95a-039393f56362","system_id":"levelo_inurba_marseille","lat":43.281,"lon":5.37829,"is_reserved":false,"is_disabled":false,"rental_uris":{"android":"levelo://app?vid=5c508d58-c7e8-445d-b95a-039393f56362","ios":"levelo://app?vid=5c508d58-c7e8-445d-b95a-039393f56362"},"vehicle_type_id":"4","last_reported":1729858620,"current_range_meters":9600,"station_id":"ce4bha12rcd13ifvqee0","pricing_plan_id":"cebpf4jnsgd1na2vs0mg"},{"bike_id":"845e1b95-4e1f-4f0b-93b0-d4c186b9d1bb","system_id":"levelo_inurba_marseille","lat":43.254547,"lon":5.381865,"is_reserved":false,"is_disabled":false,"rental_uris":{"android":"levelo://app?vid=845e1b95-4e1f-4f0b-93b0-d4c186b9d1bb","ios":"levelo://app?vid=845e1b95-4e1f-4f0b-93b0-d4c186b9d1bb"},"vehicle_type_id":"4","last_reported":1729858620,"current_range_meters":6000,"station_id":"","pricing_plan_id":"cebpf4jnsgd1na2vs0mg"},{"bike_id":"02d94f87-5473-415a-9118-ad564aaa8514","system_id":"levelo_inurba_marseille","lat":43.31228,"lon":5.36832,"is_reserved":false,"is_disabled":false,"rental_uris":{"android":"levelo://app?vid=02d94f87-5473-415a-9118-ad564aaa8514","ios":"levelo://app?vid=02d94f87-5473-415a-9118-ad564aaa8514"},"vehicle_type_id":"4","last_reported":1729858620,"current_range_meters":16000,"station_id":"ce4bgl92rcd13ifvqbq0","pricing_plan_id":"cebpf4jnsgd1na2vs0mg"},{"bike_id":"f66216bc-5d00-4dff-a0ea-939dd794a436","system_id":"levelo_inurba_marseille","lat":43.29294,"lon":5.374697,"is_reserved":false,"is_disabled":false,"rental_uris":{"android":"levelo://app?vid=f66216bc-5d00-4dff-a0ea-939dd794a436","ios":"levelo://app?vid=f66216bc-5d00-4dff-a0ea-939dd794a436"},"vehicle_type_id":"4","last_reported":1729858620,"current_range_meters":27200,"station_id":"ce4bgi12rcd13ifvqb70","pricing_plan_id":"cebpf4jnsgd1na2vs0mg"},{"bike_id":"6945c7f9-6d31-4e59-87a6-a51dcf202bdb","system_id":"levelo_inurba_marseille","lat":43.26028,"lon":5.37548,"is_reserved":false,"is_disabled":false,"rental_uris":{"android":"levelo://app?vid=6945c7f9-6d31-4e59-87a6-a51dcf202bdb","ios":"levelo://app?vid=6945c7f9-6d31-4e59-87a6-a51dcf202bdb"},"vehicle_type_id":"4","last_reported":1729858620,"current_range_meters":38800,"station_id":"ce4bhgh2rcd13ifvqfa0","pricing_plan_id":"cebpf4jnsgd1na2vs0mg"},{"bike_id":"4c8918a0-6c94-4967-a75c-7cd61c894d6d","system_id":"levelo_inurba_marseille","lat":43.284757,"lon":5.384165,"is_reserved":false,"is_disabled":false,"rental_uris":{"android":"levelo://app?vid=4c8918a0-6c94-4967-a75c-7cd61c894d6d","ios":"levelo://app?vid=4c8918a0-6c94-4967-a75c-7cd61c894d6d"},"vehicle_type_id":"4","last_reported":1729858620,"current_range_meters":24800,"station_id":"ce4bh512rcd13ifvqe3g","pricing_plan_id":"cebpf4jnsgd1na2vs0mg"},{"bike_id":"7af3a3a5-fabd-4d6b-9153-fd004445036e","system_id":"levelo_inurba_marseille","lat":43.33022,"lon":5.39033,"is_reserved":false,"is_disabled":false,"rental_uris":{"android":"levelo://app?vid=7af3a3a5-fabd-4d6b-9153-fd004445036e","ios":"levelo://app?vid=7af3a3a5-fabd-4d6b-9153-fd004445036e"},"vehicle_type_id":"4","last_reported":1729858620,"current_range_meters":33200,"station_id":"ce4bhr92rcd13ifvqhrg","pricing_plan_id":"cebpf4jnsgd1na2vs0mg"},{"bike_id":"73daff09-5b08-4d9b-87c8-0c196131bccf","system_id":"levelo_inurba_marseille","lat":43.30958,"lon":5.39035,"is_reserved":false,"is_disabled":false,"rental_uris":{"android":"levelo://app?vid=73daff09-5b08-4d9b-87c8-0c196131bccf","ios":"levelo://app?vid=73daff09-5b08-4d9b-87c8-0c196131bccf"},"vehicle_type_id":"4","last_reported":1729858620,"current_range_meters":16400,"station_id":"ce4bgup2rcd13ifvqco0","pricing_plan_id":"cebpf4jnsgd1na2vs0mg"},{"bike_id":"a6a6ef86-8c33-4902-878f-314732a16384","system_id":"levelo_inurba_marseille","lat":43.28463,"lon":5.35881,"is_reserved":false,"is_disabled":false,"rental_uris":{"android":"levelo://app?vid=a6a6ef86-8c33-4902-878f-314732a16384","ios":"levelo://app?vid=a6a6ef86-8c33-4902-878f-314732a16384"},"vehicle_type_id":"4","last_reported":1729858620,"current_range_meters":16000,"station_id":"ce4bhah2rcd13ifvqei0","pricing_plan_id":"cebpf4jnsgd1na2vs0mg"},{"bike_id":"efc7295f-fcba-4f79-845a-724d846571ad","system_id":"levelo_inurba_marseille","lat":43.30537,"lon":5.36543,"is_reserved":false,"is_disabled":false,"rental_uris":{"android":"levelo://app?vid=efc7295f-fcba-4f79-845a-724d846571ad","ios":"levelo://app?vid=efc7295f-fcba-4f79-845a-724d846571ad"},"vehicle_type_id":"4","last_reported":1729858620,"current_range_meters":8400,"station_id":"ce4bgs12rcd13ifvqcag","pricing_plan_id":"cebpf4jnsgd1na2vs0mg"},{"bike_id":"bd995abb-12e7-47a6-b0b9-e1f25439576a","system_id":"levelo_inurba_marseille","lat":43.25007,"lon":5.38927,"is_reserved":false,"is_disabled":false,"rental_uris":{"android":"levelo://app?vid=bd995abb-12e7-47a6-b0b9-e1f25439576a","ios":"levelo://app?vid=bd995abb-12e7-47a6-b0b9-e1f25439576a"},"vehicle_type_id":"4","last_reported":1729858620,"current_range_meters":39200,"station_id":"ce4bhgp2rcd13ifvqfd0","pricing_plan_id":"cebpf4jnsgd1na2vs0mg"},{"bike_id":"94683425-7064-4cd9-870f-3dcd50c4b3b3","system_id":"levelo_inurba_marseille","lat":43.32284,"lon":5.38259,"is_reserved":false,"is_disabled":false,"rental_uris":{"android":"levelo://app?vid=94683425-7064-4cd9-870f-3dcd50c4b3b3","ios":"levelo://app?vid=94683425-7064-4cd9-870f-3dcd50c4b3b3"},"vehicle_type_id":"4","last_reported":1729858620,"current_range_meters":30800,"station_id":"ce4bhr12rcd13ifvqhqg","pricing_plan_id":"cebpf4jnsgd1na2vs0mg"},{"bike_id":"43e0342e-7c69-4ef3-9959-2e5c770bab9f","system_id":"levelo_inurba_marseille","lat":43.22929,"lon":5.35375,"is_reserved":false,"is_disabled":false,"rental_uris":{"android":"levelo://app?vid=43e0342e-7c69-4ef3-9959-2e5c770bab9f","ios":"levelo://app?vid=43e0342e-7c69-4ef3-9959-2e5c770bab9f"},"vehicle_type_id":"4","last_reported":1729858620,"current_range_meters":19200,"station_id":"cpo3532slgdg3j2ikp40","pricing_plan_id":"cebpf4jnsgd1na2vs0mg"},{"bike_id":"30506dd3-5dff-4893-9985-60fd5a91a751","system_id":"levelo_inurba_marseille","lat":43.29578,"lon":5.36733,"is_reserved":false,"is_disabled":false,"rental_uris":{"android":"levelo://app?vid=30506dd3-5dff-4893-9985-60fd5a91a751","ios":"levelo://app?vid=30506dd3-5dff-4893-9985-60fd5a91a751"},"vehicle_type_id":"4","last_reported":1729858620,"current_range_meters":22800,"station_id":"ce4bgph2rcd13ifvqc2g","pricing_plan_id":"cebpf4jnsgd1na2vs0mg"},{"bike_id":"bcdd9255-183a-47f6-be21-33b54c39540e","system_id":"levelo_inurba_marseille","lat":43.29192,"lon":5.35809,"is_reserved":false,"is_disabled":false,"rental_uris":{"android":"levelo://app?vid=bcdd9255-183a-47f6-be21-33b54c39540e","ios":"levelo://app?vid=bcdd9255-183a-47f6-be21-33b54c39540e"},"vehicle_type_id":"4","last_reported":1729858620,"current_range_meters":26800,"station_id":"ce4bhb12rcd13ifvqel0","pricing_plan_id":"cebpf4jnsgd1na2vs0mg"},{"bike_id":"85801202-09cd-441a-8be0-f24118ce4d28","system_id":"levelo_inurba_marseille","lat":43.31398,"lon":5.40274,"is_reserved":false,"is_disabled":false,"rental_uris":{"android":"levelo://app?vid=85801202-09cd-441a-8be0-f24118ce4d28","ios":"levelo://app?vid=85801202-09cd-441a-8be0-f24118ce4d28"},"vehicle_type_id":"4","last_reported":1729858620,"current_range_meters":27600,"station_id":"ce4bhq12rcd13ifvqhig","pricing_plan_id":"cebpf4jnsgd1na2vs0mg"},{"bike_id":"69c50a7a-8960-41bd-bcf6-67af981ebe82","system_id":"levelo_inurba_marseille","lat":43.28859,"lon":5.35856,"is_reserved":false,"is_disabled":false,"rental_uris":{"android":"levelo://app?vid=69c50a7a-8960-41bd-bcf6-67af981ebe82","ios":"levelo://app?vid=69c50a7a-8960-41bd-bcf6-67af981ebe82"},"vehicle_type_id":"4","last_reported":1729858620,"current_range_meters":37600,"station_id":"ce4bhb12rcd13ifvqem0","pricing_plan_id":"cebpf4jnsgd1na2vs0mg"},{"bike_id":"828fe52e-1917-45a4-bccc-4d59bf498682","system_id":"levelo_inurba_marseille","lat":43.29226,"lon":5.36069,"is_reserved":false,"is_disabled":false,"rental_uris":{"android":"levelo://app?vid=828fe52e-1917-45a4-bccc-4d59bf498682","ios":"levelo://app?vid=828fe52e-1917-45a4-bccc-4d59bf498682"},"vehicle_type_id":"4","last_reported":1729858620,"current_range_meters":36800,"station_id":"ce4bhbh2rcd13ifvqeqg","pricing_plan_id":"cebpf4jnsgd1na2vs0mg"},{"bike_id":"365a5e76-e012-4983-b8a9-1a07480bde83","system_id":"levelo_inurba_marseille","lat":43.23188,"lon":5.35536,"is_reserved":false,"is_disabled":false,"rental_uris":{"android":"levelo://app?vid=365a5e76-e012-4983-b8a9-1a07480bde83","ios":"levelo://app?vid=365a5e76-e012-4983-b8a9-1a07480bde83"},"vehicle_type_id":"4","last_reported":1729858620,"current_range_meters":39200,"station_id":"ce4bhu92rcd13ifvqi70","pricing_plan_id":"cebpf4jnsgd1na2vs0mg"},{"bike_id":"176c2bd2-7d0c-4278-833a-48f82a51f6ca","system_id":"levelo_inurba_marseille","lat":43.26193,"lon":5.37922,"is_reserved":false,"is_disabled":false,"rental_uris":{"android":"levelo://app?vid=176c2bd2-7d0c-4278-833a-48f82a51f6ca","ios":"levelo://app?vid=176c2bd2-7d0c-4278-833a-48f82a51f6ca"},"vehicle_type_id":"4","last_reported":1729858620,"current_range_meters":38800,"station_id":"ce4bhjp2rcd13ifvqg90","pricing_plan_id":"cebpf4jnsgd1na2vs0mg"},{"bike_id":"41f153c9-6e2f-4115-a2bf-ece305a88b3a","system_id":"levelo_inurba_marseille","lat":43.2307,"lon":5.35489,"is_reserved":false,"is_disabled":false,"rental_uris":{"android":"levelo://app?vid=41f153c9-6e2f-4115-a2bf-ece305a88b3a","ios":"levelo://app?vid=41f153c9-6e2f-4115-a2bf-ece305a88b3a"},"vehicle_type_id":"4","last_reported":1729858620,"current_range_meters":30800,"station_id":"cpo3342slgdg3j2ifvpg","pricing_plan_id":"cebpf4jnsgd1na2vs0mg"},{"bike_id":"3fa6d13b-194f-4ed3-bed8-d307f46e617d","system_id":"levelo_inurba_marseille","lat":43.28463,"lon":5.35883,"is_reserved":false,"is_disabled":false,"rental_uris":{"android":"levelo://app?vid=3fa6d13b-194f-4ed3-bed8-d307f46e617d","ios":"levelo://app?vid=3fa6d13b-194f-4ed3-bed8-d307f46e617d"},"vehicle_type_id":"4","last_reported":1729858620,"current_range_meters":39200,"station_id":"ce4bhah2rcd13ifvqei0","pricing_plan_id":"cebpf4jnsgd1na2vs0mg"},{"bike_id":"f4317670-b565-49a8-84b0-02a246eeec6d","system_id":"levelo_inurba_marseille","lat":43.29097,"lon":5.38143,"is_reserved":false,"is_disabled":false,"rental_uris":{"android":"levelo://app?vid=f4317670-b565-49a8-84b0-02a246eeec6d","ios":"levelo://app?vid=f4317670-b565-49a8-84b0-02a246eeec6d"},"vehicle_type_id":"4","last_reported":1729858620,"current_range_meters":34000,"station_id":"ce4bh512rcd13ifvqe2g","pricing_plan_id":"cebpf4jnsgd1na2vs0mg"},{"bike_id":"ffaf6d1c-64f9-4c62-bbf1-b08f3ad9a305","system_id":"levelo_inurba_marseille","lat":43.33748,"lon":5.37454,"is_reserved":false,"is_disabled":false,"rental_uris":{"android":"levelo://app?vid=ffaf6d1c-64f9-4c62-bbf1-b08f3ad9a305","ios":"levelo://app?vid=ffaf6d1c-64f9-4c62-bbf1-b08f3ad9a305"},"vehicle_type_id":"4","last_reported":1729858620,"current_range_meters":14000,"station_id":"","pricing_plan_id":"cebpf4jnsgd1na2vs0mg"},{"bike_id":"e6171976-7aa2-413d-9512-83e78d533fdc","system_id":"levelo_inurba_marseille","lat":43.25498,"lon":5.3765,"is_reserved":false,"is_disabled":false,"rental_uris":{"android":"levelo://app?vid=e6171976-7aa2-413d-9512-83e78d533fdc","ios":"levelo://app?vid=e6171976-7aa2-413d-9512-83e78d533fdc"},"vehicle_type_id":"4","last_reported":1729858620,"current_range_meters":6800,"station_id":"ce4bhh12rcd13ifvqff0","pricing_plan_id":"cebpf4jnsgd1na2vs0mg"},{"bike_id":"45d055d8-70e6-4165-a5ae-f57dd0ab9057","system_id":"levelo_inurba_marseille","lat":43.27564,"lon":5.38409,"is_reserved":false,"is_disabled":false,"rental_uris":{"android":"levelo://app?vid=45d055d8-70e6-4165-a5ae-f57dd0ab9057","ios":"levelo://app?vid=45d055d8-70e6-4165-a5ae-f57dd0ab9057"},"vehicle_type_id":"4","last_reported":1729858620,"current_range_meters":16800,"station_id":"ce4bhh92rcd13ifvqfi0","pricing_plan_id":"cebpf4jnsgd1na2vs0mg"},{"bike_id":"8ae6d857-a2c9-4e4b-ab31-e3af4cdd8d29","system_id":"levelo_inurba_marseille","lat":43.337444,"lon":5.374475,"is_reserved":false,"is_disabled":false,"rental_uris":{"android":"levelo://app?vid=8ae6d857-a2c9-4e4b-ab31-e3af4cdd8d29","ios":"levelo://app?vid=8ae6d857-a2c9-4e4b-ab31-e3af4cdd8d29"},"vehicle_type_id":"4","last_reported":1729858620,"current_range_meters":32800,"station_id":"ce4bgup2rcd13ifvqcn0","pricing_plan_id":"cebpf4jnsgd1na2vs0mg"},{"bike_id":"6b9d9cda-a8d6-488d-bc9e-fc735b248633","system_id":"levelo_inurba_marseille","lat":43.249748,"lon":5.389397,"is_reserved":false,"is_disabled":false,"rental_uris":{"android":"levelo://app?vid=6b9d9cda-a8d6-488d-bc9e-fc735b248633","ios":"levelo://app?vid=6b9d9cda-a8d6-488d-bc9e-fc735b248633"},"vehicle_type_id":"4","last_reported":1729858620,"current_range_meters":15200,"station_id":"ce4bhgp2rcd13ifvqfd0","pricing_plan_id":"cebpf4jnsgd1na2vs0mg"},{"bike_id":"3d342341-a5c0-4e4b-ae76-810f95f6fa34","system_id":"levelo_inurba_marseille","lat":43.29265,"lon":5.40906,"is_reserved":false,"is_disabled":false,"rental_uris":{"android":"levelo://app?vid=3d342341-a5c0-4e4b-ae76-810f95f6fa34","ios":"levelo://app?vid=3d342341-a5c0-4e4b-ae76-810f95f6fa34"},"vehicle_type_id":"4","last_reported":1729858620,"current_range_meters":21600,"station_id":"ce4bh192rcd13ifvqdc0","pricing_plan_id":"cebpf4jnsgd1na2vs0mg"},{"bike_id":"8b334494-4658-40b8-9961-1bec772036f2","system_id":"levelo_inurba_marseille","lat":43.29844,"lon":5.36265,"is_reserved":false,"is_disabled":false,"rental_uris":{"android":"levelo://app?vid=8b334494-4658-40b8-9961-1bec772036f2","ios":"levelo://app?vid=8b334494-4658-40b8-9961-1bec772036f2"},"vehicle_type_id":"4","last_reported":1729858620,"current_range_meters":39200,"station_id":"ce4bgpp2rcd13ifvqc3g","pricing_plan_id":"cebpf4jnsgd1na2vs0mg"},{"bike_id":"d33206cc-08ca-4272-b2ae-186cd8d57f10","system_id":"levelo_inurba_marseille","lat":43.25127,"lon":5.40325,"is_reserved":false,"is_disabled":false,"rental_uris":{"android":"levelo://app?vid=d33206cc-08ca-4272-b2ae-186cd8d57f10","ios":"levelo://app?vid=d33206cc-08ca-4272-b2ae-186cd8d57f10"},"vehicle_type_id":"4","last_reported":1729858620,"current_range_meters":14000,"station_id":"ce4bhlh2rcd13ifvqgig","pricing_plan_id":"cebpf4jnsgd1na2vs0mg"},{"bike_id":"281ce786-e3cc-4b1b-9f93-ac7c60368ab4","system_id":"levelo_inurba_marseille","lat":43.26031,"lon":5.375438,"is_reserved":false,"is_disabled":false,"rental_uris":{"android":"levelo://app?vid=281ce786-e3cc-4b1b-9f93-ac7c60368ab4","ios":"levelo://app?vid=281ce786-e3cc-4b1b-9f93-ac7c60368ab4"},"vehicle_type_id":"4","last_reported":1729858620,"current_range_meters":26800,"station_id":"ce4bhgh2rcd13ifvqfa0","pricing_plan_id":"cebpf4jnsgd1na2vs0mg"},{"bike_id":"3d842674-b26d-4bd1-8c29-6b56ea1a1f40","system_id":"levelo_inurba_marseille","lat":43.24999,"lon":5.38941,"is_reserved":false,"is_disabled":false,"rental_uris":{"android":"levelo://app?vid=3d842674-b26d-4bd1-8c29-6b56ea1a1f40","ios":"levelo://app?vid=3d842674-b26d-4bd1-8c29-6b56ea1a1f40"},"vehicle_type_id":"4","last_reported":1729858620,"current_range_meters":24800,"station_id":"ce4bhgp2rcd13ifvqfd0","pricing_plan_id":"cebpf4jnsgd1na2vs0mg"},{"bike_id":"4edd932e-9306-425f-b341-6a63750e98d7","system_id":"levelo_inurba_marseille","lat":43.29835,"lon":5.36264,"is_reserved":false,"is_disabled":false,"rental_uris":{"android":"levelo://app?vid=4edd932e-9306-425f-b341-6a63750e98d7","ios":"levelo://app?vid=4edd932e-9306-425f-b341-6a63750e98d7"},"vehicle_type_id":"4","last_reported":1729858620,"current_range_meters":35600,"station_id":"ce4bgpp2rcd13ifvqc3g","pricing_plan_id":"cebpf4jnsgd1na2vs0mg"},{"bike_id":"ce990d37-ca91-4ee6-b87b-16cba875f195","system_id":"levelo_inurba_marseille","lat":43.28853,"lon":5.3931,"is_reserved":false,"is_disabled":false,"rental_uris":{"android":"levelo://app?vid=ce990d37-ca91-4ee6-b87b-16cba875f195","ios":"levelo://app?vid=ce990d37-ca91-4ee6-b87b-16cba875f195"},"vehicle_type_id":"4","last_reported":1729858620,"current_range_meters":30800,"station_id":"ce4bh2p2rcd13ifvqdi0","pricing_plan_id":"cebpf4jnsgd1na2vs0mg"},{"bike_id":"b8c9ac1e-bdf8-4af3-8039-13c51d6bb64d","system_id":"levelo_inurba_marseille","lat":43.30527,"lon":5.36687,"is_reserved":false,"is_disabled":false,"rental_uris":{"android":"levelo://app?vid=b8c9ac1e-bdf8-4af3-8039-13c51d6bb64d","ios":"levelo://app?vid=b8c9ac1e-bdf8-4af3-8039-13c51d6bb64d"},"vehicle_type_id":"4","last_reported":1729858620,"current_range_meters":40000,"station_id":"ce4bgrp2rcd13ifvqc9g","pricing_plan_id":"cebpf4jnsgd1na2vs0mg"},{"bike_id":"64b170f8-2500-48ef-96a3-25f7c0707542","system_id":"levelo_inurba_marseille","lat":43.337444,"lon":5.374475,"is_reserved":false,"is_disabled":false,"rental_uris":{"android":"levelo://app?vid=64b170f8-2500-48ef-96a3-25f7c0707542","ios":"levelo://app?vid=64b170f8-2500-48ef-96a3-25f7c0707542"},"vehicle_type_id":"4","last_reported":1729858620,"current_range_meters":2800,"station_id":"","pricing_plan_id":"cebpf4jnsgd1na2vs0mg"},{"bike_id":"89f5781e-f020-44c4-9544-3d5b1aa72850","system_id":"levelo_inurba_marseille","lat":43.23189,"lon":5.35554,"is_reserved":false,"is_disabled":false,"rental_uris":{"android":"levelo://app?vid=89f5781e-f020-44c4-9544-3d5b1aa72850","ios":"levelo://app?vid=89f5781e-f020-44c4-9544-3d5b1aa72850"},"vehicle_type_id":"4","last_reported":1729858620,"current_range_meters":4000,"station_id":"ce4bhu92rcd13ifvqi70","pricing_plan_id":"cebpf4jnsgd1na2vs0mg"},{"bike_id":"5baa90d9-0d65-4dc9-ad3a-4c669bf8a750","system_id":"levelo_inurba_marseille","lat":43.28218,"lon":5.40504,"is_reserved":false,"is_disabled":false,"rental_uris":{"android":"levelo://app?vid=5baa90d9-0d65-4dc9-ad3a-4c669bf8a750","ios":"levelo://app?vid=5baa90d9-0d65-4dc9-ad3a-4c669bf8a750"},"vehicle_type_id":"4","last_reported":1729858620,"current_range_meters":28400,"station_id":"","pricing_plan_id":"cebpf4jnsgd1na2vs0mg"},{"bike_id":"00db6db4-3e33-46df-a4d8-0c8b145af454","system_id":"levelo_inurba_marseille","lat":43.33024,"lon":5.3904,"is_reserved":false,"is_disabled":false,"rental_uris":{"android":"levelo://app?vid=00db6db4-3e33-46df-a4d8-0c8b145af454","ios":"levelo://app?vid=00db6db4-3e33-46df-a4d8-0c8b145af454"},"vehicle_type_id":"4","last_reported":1729858620,"current_range_meters":16400,"station_id":"ce4bhr92rcd13ifvqhrg","pricing_plan_id":"cebpf4jnsgd1na2vs0mg"},{"bike_id":"b99b575d-4d37-4b15-aa91-c46fc6d99078","system_id":"levelo_inurba_marseille","lat":43.293334,"lon":5.405297,"is_reserved":false,"is_disabled":false,"rental_uris":{"android":"levelo://app?vid=b99b575d-4d37-4b15-aa91-c46fc6d99078","ios":"levelo://app?vid=b99b575d-4d37-4b15-aa91-c46fc6d99078"},"vehicle_type_id":"4","last_reported":1729858620,"current_range_meters":28000,"station_id":"ce4bgrh2rcd13ifvqc8g","pricing_plan_id":"cebpf4jnsgd1na2vs0mg"},{"bike_id":"0d8fe734-2662-47a5-a5e2-db2a5c8e764e","system_id":"levelo_inurba_marseille","lat":43.25492,"lon":5.37644,"is_reserved":false,"is_disabled":false,"rental_uris":{"android":"levelo://app?vid=0d8fe734-2662-47a5-a5e2-db2a5c8e764e","ios":"levelo://app?vid=0d8fe734-2662-47a5-a5e2-db2a5c8e764e"},"vehicle_type_id":"4","last_reported":1729858620,"current_range_meters":36000,"station_id":"ce4bhh12rcd13ifvqff0","pricing_plan_id":"cebpf4jnsgd1na2vs0mg"},{"bike_id":"4ca8ad0a-be09-4f84-b34a-80128b20764b","system_id":"levelo_inurba_marseille","lat":43.30278,"lon":5.377,"is_reserved":false,"is_disabled":false,"rental_uris":{"android":"levelo://app?vid=4ca8ad0a-be09-4f84-b34a-80128b20764b","ios":"levelo://app?vid=4ca8ad0a-be09-4f84-b34a-80128b20764b"},"vehicle_type_id":"4","last_reported":1729858620,"current_range_meters":31200,"station_id":"ce4bguh2rcd13ifvqcj0","pricing_plan_id":"cebpf4jnsgd1na2vs0mg"},{"bike_id":"32479306-bd65-4eb8-aadf-597a0bdc7cb5","system_id":"levelo_inurba_marseille","lat":43.28582,"lon":5.39485,"is_reserved":false,"is_disabled":false,"rental_uris":{"android":"levelo://app?vid=32479306-bd65-4eb8-aadf-597a0bdc7cb5","ios":"levelo://app?vid=32479306-bd65-4eb8-aadf-597a0bdc7cb5"},"vehicle_type_id":"4","last_reported":1729858620,"current_range_meters":38800,"station_id":"ce4bh292rcd13ifvqdg0","pricing_plan_id":"cebpf4jnsgd1na2vs0mg"},{"bike_id":"ca928718-b5c2-450b-9e80-df82ee84e83f","system_id":"levelo_inurba_marseille","lat":43.30217,"lon":5.39452,"is_reserved":false,"is_disabled":false,"rental_uris":{"android":"levelo://app?vid=ca928718-b5c2-450b-9e80-df82ee84e83f","ios":"levelo://app?vid=ca928718-b5c2-450b-9e80-df82ee84e83f"},"vehicle_type_id":"4","last_reported":1729858620,"current_range_meters":19200,"station_id":"ce4bh0p2rcd13ifvqd70","pricing_plan_id":"cebpf4jnsgd1na2vs0mg"},{"bike_id":"a3df6c14-6dcb-4f5b-b0c2-2d7b96910f69","system_id":"levelo_inurba_marseille","lat":43.29712,"lon":5.37693,"is_reserved":false,"is_disabled":false,"rental_uris":{"android":"levelo://app?vid=a3df6c14-6dcb-4f5b-b0c2-2d7b96910f69","ios":"levelo://app?vid=a3df6c14-6dcb-4f5b-b0c2-2d7b96910f69"},"vehicle_type_id":"4","last_reported":1729858620,"current_range_meters":12400,"station_id":"ce4bgkh2rcd13ifvqbl0","pricing_plan_id":"cebpf4jnsgd1na2vs0mg"},{"bike_id":"b37a0ae1-907f-412d-8e1a-06a9de441401","system_id":"levelo_inurba_marseille","lat":43.25079,"lon":5.3951,"is_reserved":false,"is_disabled":false,"rental_uris":{"android":"levelo://app?vid=b37a0ae1-907f-412d-8e1a-06a9de441401","ios":"levelo://app?vid=b37a0ae1-907f-412d-8e1a-06a9de441401"},"vehicle_type_id":"4","last_reported":1729858620,"current_range_meters":39200,"station_id":"ce4bhm12rcd13ifvqgkg","pricing_plan_id":"cebpf4jnsgd1na2vs0mg"},{"bike_id":"9a48ddcc-12c2-4ea7-9b57-ae882ce0af24","system_id":"levelo_inurba_marseille","lat":43.30469,"lon":5.37921,"is_reserved":false,"is_disabled":false,"rental_uris":{"android":"levelo://app?vid=9a48ddcc-12c2-4ea7-9b57-ae882ce0af24","ios":"levelo://app?vid=9a48ddcc-12c2-4ea7-9b57-ae882ce0af24"},"vehicle_type_id":"4","last_reported":1729858620,"current_range_meters":38800,"station_id":"ce4bgup2rcd13ifvqcn0","pricing_plan_id":"cebpf4jnsgd1na2vs0mg"},{"bike_id":"1a2ef90f-9170-44db-81d5-20b12ebbe911","system_id":"levelo_inurba_marseille","lat":43.30321,"lon":5.40441,"is_reserved":false,"is_disabled":false,"rental_uris":{"android":"levelo://app?vid=1a2ef90f-9170-44db-81d5-20b12ebbe911","ios":"levelo://app?vid=1a2ef90f-9170-44db-81d5-20b12ebbe911"},"vehicle_type_id":"4","last_reported":1729858620,"current_range_meters":28400,"station_id":"ce4bh012rcd13ifvqd10","pricing_plan_id":"cebpf4jnsgd1na2vs0mg"},{"bike_id":"351e9c5c-0a22-404a-a015-303eb54d5e2d","system_id":"levelo_inurba_marseille","lat":43.28415,"lon":5.34975,"is_reserved":false,"is_disabled":false,"rental_uris":{"android":"levelo://app?vid=351e9c5c-0a22-404a-a015-303eb54d5e2d","ios":"levelo://app?vid=351e9c5c-0a22-404a-a015-303eb54d5e2d"},"vehicle_type_id":"4","last_reported":1729858620,"current_range_meters":12400,"station_id":"ce4bhbh2rcd13ifvqepg","pricing_plan_id":"cebpf4jnsgd1na2vs0mg"},{"bike_id":"04e1c48f-b4d0-48ca-8b24-cbabc990a674","system_id":"levelo_inurba_marseille","lat":43.31358,"lon":5.36729,"is_reserved":false,"is_disabled":false,"rental_uris":{"android":"levelo://app?vid=04e1c48f-b4d0-48ca-8b24-cbabc990a674","ios":"levelo://app?vid=04e1c48f-b4d0-48ca-8b24-cbabc990a674"},"vehicle_type_id":"4","last_reported":1729858620,"current_range_meters":32000,"station_id":"ce4bgr92rcd13ifvqc6g","pricing_plan_id":"cebpf4jnsgd1na2vs0mg"},{"bike_id":"700592bb-f7f4-4b51-94ae-c49dfe01b534","system_id":"levelo_inurba_marseille","lat":43.23153,"lon":5.43713,"is_reserved":false,"is_disabled":false,"rental_uris":{"android":"levelo://app?vid=700592bb-f7f4-4b51-94ae-c49dfe01b534","ios":"levelo://app?vid=700592bb-f7f4-4b51-94ae-c49dfe01b534"},"vehicle_type_id":"4","last_reported":1729858620,"current_range_meters":21600,"station_id":"ce4bhmp2rcd13ifvqgog","pricing_plan_id":"cebpf4jnsgd1na2vs0mg"},{"bike_id":"b572c2fe-c0cd-4090-a335-7c900807e261","system_id":"levelo_inurba_marseille","lat":43.29281,"lon":5.40112,"is_reserved":false,"is_disabled":false,"rental_uris":{"android":"levelo://app?vid=b572c2fe-c0cd-4090-a335-7c900807e261","ios":"levelo://app?vid=b572c2fe-c0cd-4090-a335-7c900807e261"},"vehicle_type_id":"4","last_reported":1729858620,"current_range_meters":28400,"station_id":"ce4bh312rcd13ifvqdk0","pricing_plan_id":"cebpf4jnsgd1na2vs0mg"},{"bike_id":"fb068e4d-606b-4017-b956-63c31a417522","system_id":"levelo_inurba_marseille","lat":43.31488,"lon":5.37312,"is_reserved":false,"is_disabled":false,"rental_uris":{"android":"levelo://app?vid=fb068e4d-606b-4017-b956-63c31a417522","ios":"levelo://app?vid=fb068e4d-606b-4017-b956-63c31a417522"},"vehicle_type_id":"4","last_reported":1729858620,"current_range_meters":3600,"station_id":"ce4bgt12rcd13ifvqcd0","pricing_plan_id":"cebpf4jnsgd1na2vs0mg"},{"bike_id":"66b50a86-83ee-425d-b133-111723e3ef3b","system_id":"levelo_inurba_marseille","lat":43.30356,"lon":5.41878,"is_reserved":false,"is_disabled":false,"rental_uris":{"android":"levelo://app?vid=66b50a86-83ee-425d-b133-111723e3ef3b","ios":"levelo://app?vid=66b50a86-83ee-425d-b133-111723e3ef3b"},"vehicle_type_id":"4","last_reported":1729858620,"current_range_meters":6800,"station_id":"ce4bhop2rcd13ifvqh7g","pricing_plan_id":"cebpf4jnsgd1na2vs0mg"},{"bike_id":"30d12afc-5a03-4c9d-9101-3ad9e789c612","system_id":"levelo_inurba_marseille","lat":43.28701,"lon":5.39988,"is_reserved":false,"is_disabled":false,"rental_uris":{"android":"levelo://app?vid=30d12afc-5a03-4c9d-9101-3ad9e789c612","ios":"levelo://app?vid=30d12afc-5a03-4c9d-9101-3ad9e789c612"},"vehicle_type_id":"4","last_reported":1729858620,"current_range_meters":25200,"station_id":"ce4bho92rcd13ifvqh3g","pricing_plan_id":"cebpf4jnsgd1na2vs0mg"},{"bike_id":"692a8c38-fcf9-49f6-b7eb-d0a3b098f1f1","system_id":"levelo_inurba_marseille","lat":43.29896,"lon":5.43669,"is_reserved":false,"is_disabled":false,"rental_uris":{"android":"levelo://app?vid=692a8c38-fcf9-49f6-b7eb-d0a3b098f1f1","ios":"levelo://app?vid=692a8c38-fcf9-49f6-b7eb-d0a3b098f1f1"},"vehicle_type_id":"4","last_reported":1729858620,"current_range_meters":30800,"station_id":"ce4bhpp2rcd13ifvqhfg","pricing_plan_id":"cebpf4jnsgd1na2vs0mg"},{"bike_id":"02c53b2b-9d2e-4ec2-a0c7-cb04de7a1cc2","system_id":"levelo_inurba_marseille","lat":43.29229,"lon":5.36069,"is_reserved":false,"is_disabled":false,"rental_uris":{"android":"levelo://app?vid=02c53b2b-9d2e-4ec2-a0c7-cb04de7a1cc2","ios":"levelo://app?vid=02c53b2b-9d2e-4ec2-a0c7-cb04de7a1cc2"},"vehicle_type_id":"4","last_reported":1729858620,"current_range_meters":38800,"station_id":"ce4bhbh2rcd13ifvqeqg","pricing_plan_id":"cebpf4jnsgd1na2vs0mg"},