{"last_updated":1784349453,"ttl":60,"version":"2.2","data":{"bikes":[{"bike_id":"ba0c28b1-8732-48e2-8079-f25b2b3fbc3c","system_id":"levelo_inurba_marseille","lat":43.337444,"lon":5.374475,"is_reserved":false,"is_disabled":false,"rental_uris":{"android":"levelo://app?vid=ba0c28b1-8732-48e2-8079-f25b2b3fbc3c","ios":"levelo://app?vid=ba0c28b1-8732-48e2-8079-f25b2b3fbc3c"},"vehicle_type_id":"4","last_reported":1784349454,"current_range_meters":0,"station_id":"","pricing_plan_id":"cebpf4jnsgd1na2vs0mg"},{"bike_id":"efef664a-3e3f-4e2f-8b55-eb16bec52017","system_id":"levelo_inurba_marseille","lat":43.30641,"lon":5.40073,"is_reserved":false,"is_disabled":false,"rental_uris":{"android":"levelo://app?vid=efef664a-3e3f-4e2f-8b55-eb16bec52017","ios":"levelo://app?vid=efef664a-3e3f-4e2f-8b55-eb16bec52017"},"vehicle_type_id":"4","last_reported":1784349454,"current_range_meters":18000,"station_id":"ce4bh112rcd13ifvqda0","pricing_plan_id":"cebpf4jnsgd1na2vs0mg"},{"bike_id":"c62ed0c4-2fba-415d-9057-da602a9b970c","system_id":"levelo_inurba_marseille","lat":43.29598,"lon":5.39997,"is_reserved":false,"is_disabled":false,"rental_uris":{"android":"levelo://app?vid=c62ed0c4-2fba-415d-9057-da602a9b970c","ios":"levelo://app?vid=c62ed0c4-2fba-415d-9057-da602a9b970c"},"vehicle_type_id":"4","last_reported":1784349454,"current_range_meters":37600,"station_id":"ce4bh312rcd13ifvqdj0","pricing_plan_id":"cebpf4jnsgd1na2vs0mg"},{"bike_id":"63dc20ac-90f4-4eae-ac6c-d24ae13a7929","system_id":"levelo_inurba_marseille","lat":43.25347,"lon":5.42172,"is_reserved":false,"is_disabled":false,"rental_uris":{"android":"levelo://app?vid=63dc20ac-90f4-4eae-ac6c-d24ae13a7929","ios":"levelo://app?vid=63dc20ac-90f4-4eae-ac6c-d24ae13a7929"},"vehicle_type_id":"4","last_reported":1784349454,"current_range_meters":33600,"station_id":"st_d2m65c5bi1j21697t3ng","pricing_plan_id":"cebpf4jnsgd1na2vs0mg"},{"bike_id":"6e6f6dae-936f-41d5-baca-6df8291a6b4a","system_id":"levelo_inurba_marseille","lat":43.293,"lon":5.40144,"is_reserved":false,"is_disabled":false,"rental_uris":{"android":"levelo://app?vid=6e6f6dae-936f-41d5-baca-6df8291a6b4a","ios":"levelo://app?vid=6e6f6dae-936f-41d5-baca-6df8291a6b4a"},"vehicle_type_id":"4","last_reported":1784349454,"current_range_meters":18800,"station_id":"ce4bh312rcd13ifvqdk0","pricing_plan_id":"cebpf4jnsgd1na2vs0mg"},{"bike_id":"461ec2a0-5ecb-44dd-a00a-2f87a383a45f","system_id":"levelo_inurba_marseille","lat":43.28269,"lon":5.35075,"is_reserved":false,"is_disabled":false,"rental_uris":{"android":"levelo://app?vid=461ec2a0-5ecb-44dd-a00a-2f87a383a45f","ios":"levelo://app?vid=461ec2a0-5ecb-44dd-a00a-2f87a383a45f"},"vehicle_type_id":"4","last_reported":1784349454,"current_range_meters":27200,"station_id":"ce4bhbp2rcd13ifvqerg","pricing_plan_id":"cebpf4jnsgd1na2vs0mg"},{"bike_id":"d4dea894-a74f-4070-91dd-5e049ae365c9","system_id":"levelo_inurba_marseille","lat":43.2866,"lon":5.36351,"is_reserved":false,"is_disabled":false,"rental_uris":{"android":"levelo://app?vid=d4dea894-a74f-4070-91dd-5e049ae365c9","ios":"levelo://app?vid=d4dea894-a74f-4070-91dd-5e049ae365c9"},"vehicle_type_id":"4","last_reported":1784349454,"current_range_meters":39200,"station_id":"ce4bhah2rcd13ifvqej0","pricing_plan_id":"cebpf4jnsgd1na2vs0mg"},{"bike_id":"d6b84fe8-a0ac-4c70-8762-47d8d1fd181f","system_id":"levelo_inurba_marseille","lat":43.27964,"lon":5.38739,"is_reserved":false,"is_disabled":false,"rental_uris":{"android":"levelo://app?vid=d6b84fe8-a0ac-4c70-8762-47d8d1fd181f","ios":"levelo://app?vid=d6b84fe8-a0ac-4c70-8762-47d8d1fd181f"},"vehicle_type_id":"4","last_reported":1784349454,"current_range_meters":39200,"station_id":"ce4bhg12rcd13ifvqf80","pricing_plan_id":"cebpf4jnsgd1na2vs0mg"},{"bike_id":"79221f55-ca54-4c98-a332-b523982818b5","system_id":"levelo_inurba_marseille","lat":43.31496,"lon":5.37297,"is_reserved":false,"is_disabled":false,"rental_uris":{"android":"levelo://app?vid=79221f55-ca54-4c98-a332-b523982818b5","ios":"levelo://app?vid=79221f55-ca54-4c98-a332-b523982818b5"},"vehicle_type_id":"4","last_reported":1784349454,"current_range_meters":39200,"station_id":"ce4bgt12rcd13ifvqcd0","pricing_plan_id":"cebpf4jnsgd1na2vs0mg"},{"bike_id":"70966810-cf69-4aec-842d-13ff88a398b0","system_id":"levelo_inurba_marseille","lat":43.28046,"lon":5.36956,"is_reserved":false,"is_disabled":false,"rental_uris":{"android":"levelo://app?vid=70966810-cf69-4aec-842d-13ff88a398b0","ios":"levelo://app?vid=70966810-cf69-4aec-842d-13ff88a398b0"},"vehicle_type_id":"4","last_reported":1784349454,"current_range_meters":35600,"station_id":"ce4bha12rcd13ifvqef0","pricing_plan_id":"cebpf4jnsgd1na2vs0mg"},{"bike_id":"cf45e58b-00e0-4c01-958d-a4fb4d704806","system_id":"levelo_inurba_marseille","lat":43.28367,"lon":5.38075,"is_reserved":false,"is_disabled":false,"rental_uris":{"android":"levelo://app?vid=cf45e58b-00e0-4c01-958d-a4fb4d704806","ios":"levelo://app?vid=cf45e58b-00e0-4c01-958d-a4fb4d704806"},"vehicle_type_id":"4","last_reported":1784349454,"current_range_meters":30800,"station_id":"ce4bh412rcd13ifvqdr0","pricing_plan_id":"cebpf4jnsgd1na2vs0mg"},{"bike_id":"db8bd5d3-bb99-4688-8de3-0b156a227ffe","system_id":"levelo_inurba_marseille","lat":43.29927,"lon":5.3748,"is_reserved":false,"is_disabled":true,"rental_uris":{"android":"levelo://app?vid=db8bd5d3-bb99-4688-8de3-0b156a227ffe","ios":"levelo://app?vid=db8bd5d3-bb99-4688-8de3-0b156a227ffe"},"vehicle_type_id":"4","last_reported":1784349454,"current_range_meters":9200,"station_id":"ce4bgjh2rcd13ifvqbg0","pricing_plan_id":"cebpf4jnsgd1na2vs0mg"},{"bike_id":"167c900c-c418-421c-b43c-fb7ece17fc95","system_id":"levelo_inurba_marseille","lat":43.24749,"lon":5.41763,"is_reserved":false,"is_disabled":false,"rental_uris":{"android":"levelo://app?vid=167c900c-c418-421c-b43c-fb7ece17fc95","ios":"levelo://app?vid=167c900c-c418-421c-b43c-fb7ece17fc95"},"vehicle_type_id":"4","last_reported":1784349454,"current_range_meters":7200,"station_id":"","pricing_plan_id":"cebpf4jnsgd1na2vs0mg"},{"bike_id":"9da5cadf-cdd1-429b-9b5e-9173177dfcc4","system_id":"levelo_inurba_marseille","lat":43.24419,"lon":5.3703,"is_reserved":false,"is_disabled":false,"rental_uris":{"android":"levelo://app?vid=9da5cadf-cdd1-429b-9b5e-9173177dfcc4","ios":"levelo://app?vid=9da5cadf-cdd1-429b-9b5e-9173177dfcc4"},"vehicle_type_id":"4","last_reported":1784349454,"current_range_meters":11600,"station_id":"ce4bhhh2rcd13ifvqfk0","pricing_plan_id":"cebpf4jnsgd1na2vs0mg"},{"bike_id":"daa3318c-8b07-4010-81be-5dece21d34d5","system_id":"levelo_inurba_marseille","lat":43.29052,"lon":5.3591,"is_reserved":false,"is_disabled":false,"rental_uris":{"android":"levelo://app?vid=daa3318c-8b07-4010-81be-5dece21d34d5","ios":"levelo://app?vid=daa3318c-8b07-4010-81be-5dece21d34d5"},"vehicle_type_id":"4","last_reported":1784349454,"current_range_meters":39200,"station_id":"ce4bha92rcd13ifvqeg0","pricing_plan_id":"cebpf4jnsgd1na2vs0mg"},{"bike_id":"e71494cd-d4a8-436a-a5c6-260a2924500e","system_id":"levelo_inurba_marseille","lat":43.2623,"lon":5.38779,"is_reserved":false,"is_disabled":true,"rental_uris":{"android":"levelo://app?vid=e71494cd-d4a8-436a-a5c6-260a2924500e","ios":"levelo://app?vid=e71494cd-d4a8-436a-a5c6-260a2924500e"},"vehicle_type_id":"4","last_reported":1784349454,"current_range_meters":28800,"station_id":"st_d8gjfg747rts73coq3b0","pricing_plan_id":"cebpf4jnsgd1na2vs0mg"},{"bike_id":"4dd83e35-73dd-44b8-9d3c-9c21e3418d4e","system_id":"levelo_inurba_marseille","lat":43.27488,"lon":5.42555,"is_reserved":false,"is_disabled":false,"rental_uris":{"android":"levelo://app?vid=4dd83e35-73dd-44b8-9d3c-9c21e3418d4e","ios":"levelo://app?vid=4dd83e35-73dd-44b8-9d3c-9c21e3418d4e"},"vehicle_type_id":"4","last_reported":1784349454,"current_range_meters":13600,"station_id":"st_d8t4bh7nbrqs73arha60","pricing_plan_id":"cebpf4jnsgd1na2vs0mg"},{"bike_id":"0bae1387-dbc4-4fe8-af80-0faa0716d47d","system_id":"levelo_inurba_marseille","lat":43.23953,"lon":5.36641,"is_reserved":false,"is_disabled":false,"rental_uris":{"android":"levelo://app?vid=0bae1387-dbc4-4fe8-af80-0faa0716d47d","ios":"levelo://app?vid=0bae1387-dbc4-4fe8-af80-0faa0716d47d"},"vehicle_type_id":"4","last_reported":1784349454,"current_range_meters":32000,"station_id":"ce4bhi12rcd13ifvqfp0","pricing_plan_id":"cebpf4jnsgd1na2vs0mg"},{"bike_id":"6666b766-2ccd-467a-ad53-5ec31fb4dec4","system_id":"levelo_inurba_marseille","lat":43.24788,"lon":5.37449,"is_reserved":false,"is_disabled":false,"rental_uris":{"android":"levelo://app?vid=6666b766-2ccd-467a-ad53-5ec31fb4dec4","ios":"levelo://app?vid=6666b766-2ccd-467a-ad53-5ec31fb4dec4"},"vehicle_type_id":"4","last_reported":1784349454,"current_range_meters":36800,"station_id":"ce4bhgh2rcd13ifvqfb0","pricing_plan_id":"cebpf4jnsgd1na2vs0mg"},{"bike_id":"1d6ce009-68f6-4ed3-8c3f-d060a2ee7623","system_id":"levelo_inurba_marseille","lat":43.25107,"lon":5.39479,"is_reserved":false,"is_disabled":false,"rental_uris":{"android":"levelo://app?vid=1d6ce009-68f6-4ed3-8c3f-d060a2ee7623","ios":"levelo://app?vid=1d6ce009-68f6-4ed3-8c3f-d060a2ee7623"},"vehicle_type_id":"4","last_reported":1784349454,"current_range_meters":12000,"station_id":"ce4bhm12rcd13ifvqgkg","pricing_plan_id":"cebpf4jnsgd1na2vs0mg"},{"bike_id":"46306a0d-9235-46a7-be48-833c7f44f8a2","system_id":"levelo_inurba_marseille","lat":43.29493,"lon":5.43304,"is_reserved":false,"is_disabled":false,"rental_uris":{"android":"levelo://app?vid=46306a0d-9235-46a7-be48-833c7f44f8a2","ios":"levelo://app?vid=46306a0d-9235-46a7-be48-833c7f44f8a2"},"vehicle_type_id":"4","last_reported":1784349454,"current_range_meters":32400,"station_id":"st_d3j5ugp08ojc73fj9d10","pricing_plan_id":"cebpf4jnsgd1na2vs0mg"},{"bike_id":"daf11da9-09e4-45d4-814b-e16971bc59a4","system_id":"levelo_inurba_marseille","lat":43.27958,"lon":5.38705,"is_reserved":false,"is_disabled":true,"rental_uris":{"android":"levelo://app?vid=daf11da9-09e4-45d4-814b-e16971bc59a4","ios":"levelo://app?vid=daf11da9-09e4-45d4-814b-e16971bc59a4"},"vehicle_type_id":"4","last_reported":1784349454,"current_range_meters":22400,"station_id":"ce4bhg12rcd13ifvqf80","pricing_plan_id":"cebpf4jnsgd1na2vs0mg"},{"bike_id":"d7da764c-850d-4748-a1c2-68e3cab24b17","system_id":"levelo_inurba_marseille","lat":43.26241,"lon":5.38787,"is_reserved":false,"is_disabled":false,"rental_uris":{"android":"levelo://app?vid=d7da764c-850d-4748-a1c2-68e3cab24b17","ios":"levelo://app?vid=d7da764c-850d-4748-a1c2-68e3cab24b17"},"vehicle_type_id":"4","last_reported":1784349454,"current_range_meters":39200,"station_id":"st_d8gjfg747rts73coq3b0","pricing_plan_id":"cebpf4jnsgd1na2vs0mg"},{"bike_id":"7749f166-f6a5-47b1-833f-d5215a656422","system_id":"levelo_inurba_marseille","lat":43.27808,"lon":5.40686,"is_reserved":false,"is_disabled":false,"rental_uris":{"android":"levelo://app?vid=7749f166-f6a5-47b1-833f-d5215a656422","ios":"levelo://app?vid=7749f166-f6a5-47b1-833f-d5215a656422"},"vehicle_type_id":"4","last_reported":1784349454,"current_range_meters":39200,"station_id":"ce4bhnh2rcd13ifvqgtg","pricing_plan_id":"cebpf4jnsgd1na2vs0mg"},{"bike_id":"acc1f62a-bcba-48db-87e6-f9904a68c9cf","system_id":"levelo_inurba_marseille","lat":43.29742,"lon":5.37666,"is_reserved":false,"is_disabled":true,"rental_uris":{"android":"levelo://app?vid=acc1f62a-bcba-48db-87e6-f9904a68c9cf","ios":"levelo://app?vid=acc1f62a-bcba-48db-87e6-f9904a68c9cf"},"vehicle_type_id":"4","last_reported":1784349454,"current_range_meters":3200,"station_id":"ce4bgkh2rcd13ifvqbl0","pricing_plan_id":"cebpf4jnsgd1na2vs0mg"},{"bike_id":"9c70f083-60db-491c-9e88-a1e2273cbb5d","system_id":"levelo_inurba_marseille","lat":43.27848,"lon":5.39203,"is_reserved":false,"is_disabled":false,"rental_uris":{"android":"levelo://app?vid=9c70f083-60db-491c-9e88-a1e2273cbb5d","ios":"levelo://app?vid=9c70f083-60db-491c-9e88-a1e2273cbb5d"},"vehicle_type_id":"4","last_reported":1784349454,"current_range_meters":39200,"station_id":"ce4bhjp2rcd13ifvqga0","pricing_plan_id":"cebpf4jnsgd1na2vs0mg"},{"bike_id":"01b9e393-fe7c-4ccf-b1c9-86c1db046e79","system_id":"levelo_inurba_marseille","lat":43.28709,"lon":5.39995,"is_reserved":false,"is_disabled":false,"rental_uris":{"android":"levelo://app?vid=01b9e393-fe7c-4ccf-b1c9-86c1db046e79","ios":"levelo://app?vid=01b9e393-fe7c-4ccf-b1c9-86c1db046e79"},"vehicle_type_id":"4","last_reported":1784349454,"current_range_meters":16400,"station_id":"ce4bho92rcd13ifvqh3g","pricing_plan_id":"cebpf4jnsgd1na2vs0mg"},{"bike_id":"2e713f5f-0d30-4049-b21c-bfce54a23bd5","system_id":"levelo_inurba_marseille","lat":43.23904,"lon":5.3745,"is_reserved":false,"is_disabled":true,"rental_uris":{"android":"levelo://app?vid=2e713f5f-0d30-4049-b21c-bfce54a23bd5","ios":"levelo://app?vid=2e713f5f-0d30-4049-b21c-bfce54a23bd5"},"vehicle_type_id":"4","last_reported":1784349454,"current_range_meters":32000,"station_id":"st_d6sm7csbq4hs73f8fpjg","pricing_plan_id":"cebpf4jnsgd1na2vs0mg"},{"bike_id":"c180bc57-12f5-435a-8219-0c0ef26aa8c0","system_id":"levelo_inurba_marseille","lat":43.22556,"lon":5.34807,"is_reserved":false,"is_disabled":false,"rental_uris":{"android":"levelo://app?vid=c180bc57-12f5-435a-8219-0c0ef26aa8c0","ios":"levelo://app?vid=c180bc57-12f5-435a-8219-0c0ef26aa8c0"},"vehicle_type_id":"4","last_reported":1784349454,"current_range_meters":37600,"station_id":"st_cvj5dfep6f1abm77gieg","pricing_plan_id":"cebpf4jnsgd1na2vs0mg"},{"bike_id":"32c95016-82d3-4943-8193-1a98c4bf18c7","system_id":"levelo_inurba_marseille","lat":43.28089,"lon":5.35654,"is_reserved":false,"is_disabled":false,"rental_uris":{"android":"levelo://app?vid=32c95016-82d3-4943-8193-1a98c4bf18c7","ios":"levelo://app?vid=32c95016-82d3-4943-8193-1a98c4bf18c7"},"vehicle_type_id":"4","last_reported":1784349454,"current_range_meters":10000,"station_id":"","pricing_plan_id":"cebpf4jnsgd1na2vs0mg"},{"bike_id":"1a305c6a-520f-4fbc-8ce8-a3f8e3bd6a3b","system_id":"levelo_inurba_marseille","lat":43.27993,"lon":5.38743,"is_reserved":false,"is_disabled":false,"rental_uris":{"android":"levelo://app?vid=1a305c6a-520f-4fbc-8ce8-a3f8e3bd6a3b","ios":"levelo://app?vid=1a305c6a-520f-4fbc-8ce8-a3f8e3bd6a3b"},"vehicle_type_id":"4","last_reported":1784349454,"current_range_meters":37600,"station_id":"ce4bhg12rcd13ifvqf80","pricing_plan_id":"cebpf4jnsgd1na2vs0mg"},{"bike_id":"a6a33a18-41c6-45de-a2d0-436ba5fa8320","system_id":"levelo_inurba_marseille","lat":43.27958,"lon":5.38741,"is_reserved":false,"is_disabled":false,"rental_uris":{"android":"levelo://app?vid=a6a33a18-41c6-45de-a2d0-436ba5fa8320","ios":"levelo://app?vid=a6a33a18-41c6-45de-a2d0-436ba5fa8320"},"vehicle_type_id":"4","last_reported":1784349454,"current_range_meters":38800,"station_id":"ce4bhg12rcd13ifvqf80","pricing_plan_id":"cebpf4jnsgd1na2vs0mg"},{"bike_id":"bcdef79a-1b02-4e7c-aae0-85033ba15054","system_id":"levelo_inurba_marseille","lat":43.30241,"lon":5.40057,"is_reserved":false,"is_disabled":false,"rental_uris":{"android":"levelo://app?vid=bcdef79a-1b02-4e7c-aae0-85033ba15054","ios":"levelo://app?vid=bcdef79a-1b02-4e7c-aae0-85033ba15054"},"vehicle_type_id":"4","last_reported":1784349454,"current_range_meters":30000,"station_id":"ce4bgvh2rcd13ifvqcs0","pricing_plan_id":"cebpf4jnsgd1na2vs0mg"},{"bike_id":"4e7d4a01-0659-4cc1-8dc4-4a9c1b0cec89","system_id":"levelo_inurba_marseille","lat":43.27995,"lon":5.40036,"is_reserved":false,"is_disabled":false,"rental_uris":{"android":"levelo://app?vid=4e7d4a01-0659-4cc1-8dc4-4a9c1b0cec89","ios":"levelo://app?vid=4e7d4a01-0659-4cc1-8dc4-4a9c1b0cec89"},"vehicle_type_id":"4","last_reported":1784349454,"current_range_meters":39200,"station_id":"ce4bho92rcd13ifvqh4g","pricing_plan_id":"cebpf4jnsgd1na2vs0mg"},{"bike_id":"ef6880d0-6944-4f6a-8f40-6662368b8f75","system_id":"levelo_inurba_marseille","lat":43.31471,"lon":5.45412,"is_reserved":false,"is_disabled":false,"rental_uris":{"android":"levelo://app?vid=ef6880d0-6944-4f6a-8f40-6662368b8f75","ios":"levelo://app?vid=ef6880d0-6944-4f6a-8f40-6662368b8f75"},"vehicle_type_id":"4","last_reported":1784349454,"current_range_meters":11600,"station_id":"","pricing_plan_id":"cebpf4jnsgd1na2vs0mg"},{"bike_id":"63d47bdf-c746-416d-b2e1-82e4e09fa9c9","system_id":"levelo_inurba_marseille","lat":43.25347,"lon":5.42135,"is_reserved":false,"is_disabled":false,"rental_uris":{"android":"levelo://app?vid=63d47bdf-c746-416d-b2e1-82e4e09fa9c9","ios":"levelo://app?vid=63d47bdf-c746-416d-b2e1-82e4e09fa9c9"},"vehicle_type_id":"4","last_reported":1784349454,"current_range_meters":25200,"station_id":"st_d2m65c5bi1j21697t3ng","pricing_plan_id":"cebpf4jnsgd1na2vs0mg"},{"bike_id":"ac73781c-7964-453a-82c7-5e417be13435","system_id":"levelo_inurba_marseille","lat":43.28602,"lon":5.37075,"is_reserved":false,"is_disabled":false,"rental_uris":{"android":"levelo://app?vid=ac73781c-7964-453a-82c7-5e417be13435","ios":"levelo://app?vid=ac73781c-7964-453a-82c7-5e417be13435"},"vehicle_type_id":"4","last_reported":1784349454,"current_range_meters":36000,"station_id":"ce4bht12rcd13ifvqi60","pricing_plan_id":"cebpf4jnsgd1na2vs0mg"},{"bike_id":"e9e1d0ef-c013-492b-ab45-1d052b731d3d","system_id":"levelo_inurba_marseille","lat":43.23804,"lon":5.36607,"is_reserved":false,"is_disabled":false,"rental_uris":{"android":"levelo://app?vid=e9e1d0ef-c013-492b-ab45-1d052b731d3d","ios":"levelo://app?vid=e9e1d0ef-c013-492b-ab45-1d052b731d3d"},"vehicle_type_id":"4","last_reported":1784349454,"current_range_meters":38800,"station_id":"st_d3nk18o9ro0c73en2l3g","pricing_plan_id":"cebpf4jnsgd1na2vs0mg"},{"bike_id":"02ec5527-811f-4987-8a26-4a51ee0e92c6","system_id":"levelo_inurba_marseille","lat":43.301507,"lon":5.38077,"is_reserved":false,"is_disabled":false,"rental_uris":{"android":"levelo://app?vid=02ec5527-811f-4987-8a26-4a51ee0e92c6","ios":"levelo://app?vid=02ec5527-811f-4987-8a26-4a51ee0e92c6"},"vehicle_type_id":"4","last_reported":1784349454,"current_range_meters":10000,"station_id":"ce4bgjp2rcd13ifvqbh0","pricing_plan_id":"cebpf4jnsgd1na2vs0mg"},{"bike_id":"69aa3890-8355-4668-9d7c-2b996f0dde78","system_id":"levelo_inurba_marseille","lat":43.29756,"lon":5.42785,"is_reserved":false,"is_disabled":false,"rental_uris":{"android":"levelo://app?vid=69aa3890-8355-4668-9d7c-2b996f0dde78","ios":"levelo://app?vid=69aa3890-8355-4668-9d7c-2b996f0dde78"},"vehicle_type_id":"4","last_reported":1784349454,"current_range_meters":2800,"station_id":"st_d3md5207bmas73dh9klg","pricing_plan_id":"cebpf4jnsgd1na2vs0mg"},{"bike_id":"d183c213-4177-4bf2-b9e0-24872be8a9c8","system_id":"levelo_inurba_marseille","lat":43.28503,"lon":5.48377,"is_reserved":false,"is_disabled":false,"rental_uris":{"android":"levelo://app?vid=d183c213-4177-4bf2-b9e0-24872be8a9c8","ios":"levelo://app?vid=d183c213-4177-4bf2-b9e0-24872be8a9c8"},"vehicle_type_id":"4","last_reported":1784349454,"current_range_meters":18000,"station_id":"st_d3svhcjqgbts73a3dn0g","pricing_plan_id":"cebpf4jnsgd1na2vs0mg"},{"bike_id":"ff49f5ca-dd49-4883-aa18-a1855018e138","system_id":"levelo_inurba_marseille","lat":43.30884,"lon":5.39637,"is_reserved":false,"is_disabled":false,"rental_uris":{"android":"levelo://app?vid=ff49f5ca-dd49-4883-aa18-a1855018e138","ios":"levelo://app?vid=ff49f5ca-dd49-4883-aa18-a1855018e138"},"vehicle_type_id":"4","last_reported":1784349454,"current_range_meters":35600,"station_id":"ce4bh012rcd13ifvqcv0","pricing_plan_id":"cebpf4jnsgd1na2vs0mg"},{"bike_id":"e8176082-6d6c-4349-84e8-099f4a0a9b31","system_id":"levelo_inurba_marseille","lat":43.29254,"lon":5.384,"is_reserved":false,"is_disabled":false,"rental_uris":{"android":"levelo://app?vid=e8176082-6d6c-4349-84e8-099f4a0a9b31","ios":"levelo://app?vid=e8176082-6d6c-4349-84e8-099f4a0a9b31"},"vehicle_type_id":"4","last_reported":1784349454,"current_range_meters":28800,"station_id":"ce4bh692rcd13ifvqea0","pricing_plan_id":"cebpf4jnsgd1na2vs0mg"},{"bike_id":"930a26e6-38b4-4fff-a16a-2d1b93308d5b","system_id":"levelo_inurba_marseille","lat":43.28721,"lon":5.37404,"is_reserved":false,"is_disabled":true,"rental_uris":{"android":"levelo://app?vid=930a26e6-38b4-4fff-a16a-2d1b93308d5b","ios":"levelo://app?vid=930a26e6-38b4-4fff-a16a-2d1b93308d5b"},"vehicle_type_id":"4","last_reported":1784349454,"current_range_meters":3600,"station_id":"ce4bh3p2rcd13ifvqdq0","pricing_plan_id":"cebpf4jnsgd1na2vs0mg"},{"bike_id":"9798fee3-5e19-4d5f-abeb-ce60d9f79025","system_id":"levelo_inurba_marseille","lat":43.28978,"lon":5.37859,"is_reserved":false,"is_disabled":false,"rental_uris":{"android":"levelo://app?vid=9798fee3-5e19-4d5f-abeb-ce60d9f79025","ios":"levelo://app?vid=9798fee3-5e19-4d5f-abeb-ce60d9f79025"},"vehicle_type_id":"4","last_reported":1784349454,"current_range_meters":23200,"station_id":"ce4bh9p2rcd13ifvqed0","pricing_plan_id":"cebpf4jnsgd1na2vs0mg"},{"bike_id":"33c93853-c387-446c-80ca-e55ee8c2e4e2","system_id":"levelo_inurba_marseille","lat":43.29043,"lon":5.37572,"is_reserved":false,"is_disabled":false,"rental_uris":{"android":"levelo://app?vid=33c93853-c387-446c-80ca-e55ee8c2e4e2","ios":"levelo://app?vid=33c93853-c387-446c-80ca-e55ee8c2e4e2"},"vehicle_type_id":"4","last_reported":1784349454,"current_range_meters":36800,"station_id":"ce4bh692rcd13ifvqe90","pricing_plan_id":"cebpf4jnsgd1na2vs0mg"},{"bike_id":"4849c2cf-5a7e-4515-8372-9646e129376e","system_id":"levelo_inurba_marseille","lat":43.24088,"lon":5.37766,"is_reserved":false,"is_disabled":false,"rental_uris":{"android":"levelo://app?vid=4849c2cf-5a7e-4515-8372-9646e129376e","ios":"levelo://app?vid=4849c2cf-5a7e-4515-8372-9646e129376e"},"vehicle_type_id":"4","last_reported":1784349454,"current_range_meters":38800,"station_id":"ce4bhnp2rcd13ifvqgvg","pricing_plan_id":"cebpf4jnsgd1na2vs0mg"},{"bike_id":"a13233b2-12f3-4b1a-aa9c-27aabe882961","system_id":"levelo_inurba_marseille","lat":43.28484,"lon":5.35885,"is_reserved":false,"is_disabled":false,"rental_uris":{"android":"levelo://app?vid=a13233b2-12f3-4b1a-aa9c-27aabe882961","ios":"levelo://app?vid=a13233b2-12f3-4b1a-aa9c-27aabe882961"},"vehicle_type_id":"4","last_reported":1784349454,"current_range_meters":38400,"station_id":"ce4bhah2rcd13ifvqei0","pricing_plan_id":"cebpf4jnsgd1na2vs0mg"},{"bike_id":"e0c7065e-7f74-4b06-ae7b-f933c635df87","system_id":"levelo_inurba_marseille","lat":43.29557,"lon":5.42282,"is_reserved":false,"is_disabled":false,"rental_uris":{"android":"levelo://app?vid=e0c7065e-7f74-4b06-ae7b-f933c635df87","ios":"levelo://app?vid=e0c7065e-7f74-4b06-ae7b-f933c635df87"},"vehicle_type_id":"4","last_reported":1784349454,"current_range_meters":39200,"station_id":"ce4bhph2rcd13ifvqhdg","pricing_plan_id":"cebpf4jnsgd1na2vs0mg"},{"bike_id":"3d9d15ce-5804-4209-b92a-723f598d0341","system_id":"levelo_inurba_marseille","lat":43.21198,"lon":5.35064,"is_reserved":false,"is_disabled":false,"rental_uris":{"android":"levelo://app?vid=3d9d15ce-5804-4209-b92a-723f598d0341","ios":"levelo://app?vid=3d9d15ce-5804-4209-b92a-723f598d0341"},"vehicle_type_id":"4","last_reported":1784349454,"current_range_meters":39200,"station_id":"st_cvj6sg6p6f1abm77japg","pricing_plan_id":"cebpf4jnsgd1na2vs0mg"},{"bike_id":"ff6c8340-fd25-4964-85ef-b09e1173c088","system_id":"levelo_inurba_marseille","lat":43.28487,"lon":5.38435,"is_reserved":false,"is_disabled":false,"rental_uris":{"android":"levelo://app?vid=ff6c8340-fd25-4964-85ef-b09e1173c088","ios":"levelo://app?vid=ff6c8340-fd25-4964-85ef-b09e1173c088"},"vehicle_type_id":"4","last_reported":1784349454,"current_range_meters":35600,"station_id":"ce4bh512rcd13ifvqe3g","pricing_plan_id":"cebpf4jnsgd1na2vs0mg"},{"bike_id":"700689bb-703b-455a-a751-9c1e7f35a526","system_id":"levelo_inurba_marseille","lat":43.31043,"lon":5.39395,"is_reserved":false,"is_disabled":false,"rental_uris":{"android":"levelo://app?vid=700689bb-703b-455a-a751-9c1e7f35a526","ios":"levelo://app?vid=700689bb-703b-455a-a751-9c1e7f35a526"},"vehicle_type_id":"4","last_reported":1784349454,"current_range_meters":11600,"station_id":"","pricing_plan_id":"cebpf4jnsgd1na2vs0mg"},{"bike_id":"4858966e-65cc-4353-9260-621d503158ad","system_id":"levelo_inurba_marseille","lat":43.2919,"lon":5.39324,"is_reserved":false,"is_disabled":false,"rental_uris":{"android":"levelo://app?vid=4858966e-65cc-4353-9260-621d503158ad","ios":"levelo://app?vid=4858966e-65cc-4353-9260-621d503158ad"},"vehicle_type_id":"4","last_reported":1784349454,"current_range_meters":34800,"station_id":"ce4bh192rcd13ifvqdd0","pricing_plan_id":"cebpf4jnsgd1na2vs0mg"},{"bike_id":"e1bb6861-ee59-438c-aa2a-2a553b2d6f43","system_id":"levelo_inurba_marseille","lat":43.27188,"lon":5.40998,"is_reserved":false,"is_disabled":true,"rental_uris":{"android":"levelo://app?vid=e1bb6861-ee59-438c-aa2a-2a553b2d6f43","ios":"levelo://app?vid=e1bb6861-ee59-438c-aa2a-2a553b2d6f43"},"vehicle_type_id":"4","last_reported":1784349454,"current_range_meters":32400,"station_id":"ce4bhl12rcd13ifvqgf0","pricing_plan_id":"cebpf4jnsgd1na2vs0mg"},{"bike_id":"c2e7fe27-d2b0-440e-b62d-ead50feed951","system_id":"levelo_inurba_marseille","lat":43.29489,"lon":5.43311,"is_reserved":false,"is_disabled":false,"rental_uris":{"android":"levelo://app?vid=c2e7fe27-d2b0-440e-b62d-ead50feed951","ios":"levelo://app?vid=c2e7fe27-d2b0-440e-b62d-ead50feed951"},"vehicle_type_id":"4","last_reported":1784349454,"current_range_meters":8800,"station_id":"st_d3j5ugp08ojc73fj9d10","pricing_plan_id":"cebpf4jnsgd1na2vs0mg"},{"bike_id":"cd8636bf-4678-4336-a11c-b12b2f9a64d1","system_id":"levelo_inurba_marseille","lat":43.24469,"lon":5.42567,"is_reserved":false,"is_disabled":false,"rental_uris":{"android":"levelo://app?vid=cd8636bf-4678-4336-a11c-b12b2f9a64d1","ios":"levelo://app?vid=cd8636bf-4678-4336-a11c-b12b2f9a64d1"},"vehicle_type_id":"4","last_reported":1784349454,"current_range_meters":39200,"station_id":"st_d4a3vfp97mjs738cd8kg","pricing_plan_id":"cebpf4jnsgd1na2vs0mg"},{"bike_id":"99babde9-3915-452c-b14b-d4cd123ce9a3","system_id":"levelo_inurba_marseille","lat":43.26934,"lon":5.40271,"is_reserved":false,"is_disabled":false,"rental_uris":{"android":"levelo://app?vid=99babde9-3915-452c-b14b-d4cd123ce9a3","ios":"levelo://app?vid=99babde9-3915-452c-b14b-d4cd123ce9a3"},"vehicle_type_id":"4","last_reported":1784349454,"current_range_meters":10000,"station_id":"cjm6bp8fraef2m0cb0m0","pricing_plan_id":"cebpf4jnsgd1na2vs0mg"},{"bike_id":"26903853-6c6b-4224-9597-854e3941bf2a","system_id":"levelo_inurba_marseille","lat":43.2796,"lon":5.38686,"is_reserved":false,"is_disabled":false,"rental_uris":{"android":"levelo://app?vid=26903853-6c6b-4224-9597-854e3941bf2a","ios":"levelo://app?vid=26903853-6c6b-4224-9597-854e3941bf2a"},"vehicle_type_id":"4","last_reported":1784349454,"current_range_meters":12400,"station_id":"ce4bhg12rcd13ifvqf80","pricing_plan_id":"cebpf4jnsgd1na2vs0mg"},{"bike_id":"2623e023-e953-40ac-8068-15d2169ca99d","system_id":"levelo_inurba_marseille","lat":43.28698,"lon":5.46688,"is_reserved":false,"is_disabled":false,"rental_uris":{"android":"levelo://app?vid=2623e023-e953-40ac-8068-15d2169ca99d","ios":"levelo://app?vid=2623e023-e953-40ac-8068-15d2169ca99d"},"vehicle_type_id":"4","last_reported":1784349454,"current_range_meters":39200,"station_id":"st_d6tc3vkotcvc738tfjhg","pricing_plan_id":"cebpf4jnsgd1na2vs0mg"},{"bike_id":"56fb38db-f462-43c2-a4b5-d85da9158486","system_id":"levelo_inurba_marseille","lat":43.26238,"lon":5.38768,"is_reserved":false,"is_disabled":false,"rental_uris":{"android":"levelo://app?vid=56fb38db-f462-43c2-a4b5-d85da9158486","ios":"levelo://app?vid=56fb38db-f462-43c2-a4b5-d85da9158486"},"vehicle_type_id":"4","last_reported":1784349454,"current_range_meters":39200,"station_id":"st_d8gjfg747rts73coq3b0","pricing_plan_id":"cebpf4jnsgd1na2vs0mg"},{"bike_id":"9d27f3aa-b353-4a7a-a0fa-132f296bb47c","system_id":"levelo_inurba_marseille","lat":43.21747,"lon":5.34612,"is_reserved":false,"is_disabled":false,"rental_uris":{"android":"levelo://app?vid=9d27f3aa-b353-4a7a-a0fa-132f296bb47c","ios":"levelo://app?vid=9d27f3aa-b353-4a7a-a0fa-132f296bb47c"},"vehicle_type_id":"4","last_reported":1784349454,"current_range_meters":6400,"station_id":"st_cvj6r9ubvosntc0bgbag","pricing_plan_id":"cebpf4jnsgd1na2vs0mg"},{"bike_id":"a936b31a-a63c-40f2-ab57-c88b1e1badff","system_id":"levelo_inurba_marseille","lat":43.28372,"lon":5.38674,"is_reserved":false,"is_disabled":false,"rental_uris":{"android":"levelo://app?vid=a936b31a-a63c-40f2-ab57-c88b1e1badff","ios":"levelo://app?vid=a936b31a-a63c-40f2-ab57-c88b1e1badff"},"vehicle_type_id":"4","last_reported":1784349454,"current_range_meters":24400,"station_id":"ce4bh492rcd13ifvqdvg","pricing_plan_id":"cebpf4jnsgd1na2vs0mg"},{"bike_id":"2f7cbaa2-22fa-465d-9d49-121484368dc9","system_id":"levelo_inurba_marseille","lat":43.27692,"lon":5.38902,"is_reserved":false,"is_disabled":false,"rental_uris":{"android":"levelo://app?vid=2f7cbaa2-22fa-465d-9d49-121484368dc9","ios":"levelo://app?vid=2f7cbaa2-22fa-465d-9d49-121484368dc9"},"vehicle_type_id":"4","last_reported":1784349454,"current_range_meters":20400,"station_id":"ce4bhi12rcd13ifvqfo0","pricing_plan_id":"cebpf4jnsgd1na2vs0mg"},{"bike_id":"1186a198-3294-48ea-a0f4-7064e53e0e29","system_id":"levelo_inurba_marseille","lat":43.29889,"lon":5.39737,"is_reserved":false,"is_disabled":false,"rental_uris":{"android":"levelo://app?vid=1186a198-3294-48ea-a0f4-7064e53e0e29","ios":"levelo://app?vid=1186a198-3294-48ea-a0f4-7064e53e0e29"},"vehicle_type_id":"4","last_reported":1784349454,"current_range_meters":4800,"station_id":"ce4bh0h2rcd13ifvqd50","pricing_plan_id":"cebpf4jnsgd1na2vs0mg"},{"bike_id":"32cb894b-65f4-4071-8af2-293f66e5e4a8","system_id":"levelo_inurba_marseille","lat":43.26212,"lon":5.37928,"is_reserved":false,"is_disabled":false,"rental_uris":{"android":"levelo://app?vid=32cb894b-65f4-4071-8af2-293f66e5e4a8","ios":"levelo://app?vid=32cb894b-65f4-4071-8af2-293f66e5e4a8"},"vehicle_type_id":"4","last_reported":1784349454,"current_range_meters":34000,"station_id":"ce4bhjp2rcd13ifvqg90","pricing_plan_id":"cebpf4jnsgd1na2vs0mg"},{"bike_id":"863d0357-9100-4091-8be6-61d932e4e898","system_id":"levelo_inurba_marseille","lat":43.33756,"lon":5.37458,"is_reserved":false,"is_disabled":false,"rental_uris":{"android":"levelo://app?vid=863d0357-9100-4091-8be6-61d932e4e898","ios":"levelo://app?vid=863d0357-9100-4091-8be6-61d932e4e898"},"vehicle_type_id":"4","last_reported":1784349454,"current_range_meters":38400,"station_id":"","pricing_plan_id":"cebpf4jnsgd1na2vs0mg"},{"bike_id":"0d249168-c1b9-4fc1-a9ca-ee81dcabf286","system_id":"levelo_inurba_marseille","lat":43.30828,"lon":5.40427,"is_reserved":false,"is_disabled":false,"rental_uris":{"android":"levelo://app?vid=0d249168-c1b9-4fc1-a9ca-ee81dcabf286","ios":"levelo://app?vid=0d249168-c1b9-4fc1-a9ca-ee81dcabf286"},"vehicle_type_id":"4","last_reported":1784349454,"current_range_meters":12800,"station_id":"","pricing_plan_id":"cebpf4jnsgd1na2vs0mg"},{"bike_id":"df39a490-5fdd-4f35-b2e7-0d9b59defb05","system_id":"levelo_inurba_marseille","lat":43.24683,"lon":5.38157,"is_reserved":false,"is_disabled":false,"rental_uris":{"android":"levelo://app?vid=df39a490-5fdd-4f35-b2e7-0d9b59defb05","ios":"levelo://app?vid=df39a490-5fdd-4f35-b2e7-0d9b59defb05"},"vehicle_type_id":"4","last_reported":1784349454,"current_range_meters":32000,"station_id":"ce4bhih2rcd13ifvqfr0","pricing_plan_id":"cebpf4jnsgd1na2vs0mg"},{"bike_id":"be76f960-53f4-4da7-8513-1856cb2dedb4","system_id":"levelo_inurba_marseille","lat":43.29557,"lon":5.40053,"is_reserved":false,"is_disabled":false,"rental_uris":{"android":"levelo://app?vid=be76f960-53f4-4da7-8513-1856cb2dedb4","ios":"levelo://app?vid=be76f960-53f4-4da7-8513-1856cb2dedb4"},"vehicle_type_id":"4","last_reported":1784349454,"current_range_meters":39200,"station_id":"","pricing_plan_id":"cebpf4jnsgd1na2vs0mg"},{"bike_id":"81618b52-d3f7-4a72-b5e9-08cf6daea0dd","system_id":"levelo_inurba_marseille","lat":43.28153,"lon":5.42642,"is_reserved":false,"is_disabled":false,"rental_uris":{"android":"levelo://app?vid=81618b52-d3f7-4a72-b5e9-08cf6daea0dd","ios":"levelo://app?vid=81618b52-d3f7-4a72-b5e9-08cf6daea0dd"},"vehicle_type_id":"4","last_reported":1784349454,"current_range_meters":29600,"station_id":"ce4bhnh2rcd13ifvqgug","pricing_plan_id":"cebpf4jnsgd1na2vs0mg"},{"bike_id":"2b835e9d-8b5f-4d01-bcda-0d0bd35b4da2","system_id":"levelo_inurba_marseille","lat":43.29262,"lon":5.40146,"is_reserved":false,"is_disabled":false,"rental_uris":{"android":"levelo://app?vid=2b835e9d-8b5f-4d01-bcda-0d0bd35b4da2","ios":"levelo://app?vid=2b835e9d-8b5f-4d01-bcda-0d0bd35b4da2"},"vehicle_type_id":"4","last_reported":1784349454,"current_range_meters":18800,"station_id":"ce4bh312rcd13ifvqdk0","pricing_plan_id":"cebpf4jnsgd1na2vs0mg"},{"bike_id":"8ba7f2d6-52d3-4c56-b19a-19a142e62779","system_id":"levelo_inurba_marseille","lat":43.24052,"lon":5.37729,"is_reserved":false,"is_disabled":false,"rental_uris":{"android":"levelo://app?vid=8ba7f2d6-52d3-4c56-b19a-19a142e62779","ios":"levelo://app?vid=8ba7f2d6-52d3-4c56-b19a-19a142e62779"},"vehicle_type_id":"4","last_reported":1784349454,"current_range_meters":14000,"station_id":"ce4bhnp2rcd13ifvqgvg","pricing_plan_id":"cebpf4jnsgd1na2vs0mg"},{"bike_id":"83430c1a-b44e-4fb6-9f9c-fdb69c2d228c","system_id":"levelo_inurba_marseille","lat":43.26056,"lon":5.39382,"is_reserved":false,"is_disabled":false,"rental_uris":{"android":"levelo://app?vid=83430c1a-b44e-4fb6-9f9c-fdb69c2d228c","ios":"levelo://app?vid=83430c1a-b44e-4fb6-9f9c-fdb69c2d228c"},"vehicle_type_id":"4","last_reported":1784349454,"current_range_meters":38800,"station_id":"ce4bhh92rcd13ifvqfj0","pricing_plan_id":"cebpf4jnsgd1na2vs0mg"},{"bike_id":"66afdf81-3bfc-4f74-a2b5-978630e17649","system_id":"levelo_inurba_marseille","lat":43.27916,"lon":5.37272,"is_reserved":false,"is_disabled":false,"rental_uris":{"android":"levelo://app?vid=66afdf81-3bfc-4f74-a2b5-978630e17649","ios":"levelo://app?vid=66afdf81-3bfc-4f74-a2b5-978630e17649"},"vehicle_type_id":"4","last_reported":1784349454,"current_range_meters":28800,"station_id":"","pricing_plan_id":"cebpf4jnsgd1na2vs0mg"},{"bike_id":"05df0229-c51c-4a3e-8744-e2a78625ad7d","system_id":"levelo_inurba_marseille","lat":43.31636,"lon":5.38405,"is_reserved":false,"is_disabled":false,"rental_uris":{"android":"levelo://app?vid=05df0229-c51c-4a3e-8744-e2a78625ad7d","ios":"levelo://app?vid=05df0229-c51c-4a3e-8744-e2a78625ad7d"},"vehicle_type_id":"4","last_reported":1784349454,"current_range_meters":23200,"station_id":"","pricing_plan_id":"cebpf4jnsgd1na2vs0mg"},{"bike_id":"5a44f8da-244e-4b4d-84d5-1cd07fac4647","system_id":"levelo_inurba_marseille","lat":43.30895,"lon":5.37194,"is_reserved":false,"is_disabled":false,"rental_uris":{"android":"levelo://app?vid=5a44f8da-244e-4b4d-84d5-1cd07fac4647","ios":"levelo://app?vid=5a44f8da-244e-4b4d-84d5-1cd07fac4647"},"vehicle_type_id":"4","last_reported":1784349454,"current_range_meters":40000,"station_id":"ce4bguh2rcd13ifvqckg","pricing_plan_id":"cebpf4jnsgd1na2vs0mg"},{"bike_id":"2dcf62d7-a484-465f-a5c9-17d5d26ae256","system_id":"levelo_inurba_marseille","lat":43.30787,"lon":5.3815,"is_reserved":false,"is_disabled":false,"rental_uris":{"android":"levelo://app?vid=2dcf62d7-a484-465f-a5c9-17d5d26ae256","ios":"levelo://app?vid=2dcf62d7-a484-465f-a5c9-17d5d26ae256"},"vehicle_type_id":"4","last_reported":1784349454,"current_range_meters":20400,"station_id":"ce4bgt12rcd13ifvqce0","pricing_plan_id":"cebpf4jnsgd1na2vs0mg"},{"bike_id":"44d3a8d6-3284-432a-8031-eb6a62573e80","system_id":"levelo_inurba_marseille","lat":43.30535,"lon":5.4006,"is_reserved":false,"is_disabled":false,"rental_uris":{"android":"levelo://app?vid=44d3a8d6-3284-432a-8031-eb6a62573e80","ios":"levelo://app?vid=44d3a8d6-3284-432a-8031-eb6a62573e80"},"vehicle_type_id":"4","last_reported":1784349454,"current_range_meters":32000,"station_id":"","pricing_plan_id":"cebpf4jnsgd1na2vs0mg"},{"bike_id":"e9700518-bfab-4e19-9c8e-e3cb6414cf72","system_id":"levelo_inurba_marseille","lat":43.29185,"lon":5.35794,"is_reserved":false,"is_disabled":true,"rental_uris":{"android":"levelo://app?vid=e9700518-bfab-4e19-9c8e-e3cb6414cf72","ios":"levelo://app?vid=e9700518-bfab-4e19-9c8e-e3cb6414cf72"},"vehicle_type_id":"4","last_reported":1784349454,"current_range_meters":9200,"station_id":"ce4bhb12rcd13ifvqel0","pricing_plan_id":"cebpf4jnsgd1na2vs0mg"},{"bike_id":"6e2fa25e-c4e4-473c-b5d3-3e0f51dcc142","system_id":"levelo_inurba_marseille","lat":43.29791,"lon":5.38087,"is_reserved":false,"is_disabled":true,"rental_uris":{"android":"levelo://app?vid=6e2fa25e-c4e4-473c-b5d3-3e0f51dcc142","ios":"levelo://app?vid=6e2fa25e-c4e4-473c-b5d3-3e0f51dcc142"},"vehicle_type_id":"4","last_reported":1784349454,"current_range_meters":33200,"station_id":"ce4bgip2rcd13ifvqbb0","pricing_plan_id":"cebpf4jnsgd1na2vs0mg"},{"bike_id":"b9055f31-ad28-4687-997a-9699fb03186d","system_id":"levelo_inurba_marseille","lat":43.28701,"lon":5.37395,"is_reserved":false,"is_disabled":false,"rental_uris":{"android":"levelo://app?vid=b9055f31-ad28-4687-997a-9699fb03186d","ios":"levelo://app?vid=b9055f31-ad28-4687-997a-9699fb03186d"},"vehicle_type_id":"4","last_reported":1784349454,"current_range_meters":24800,"station_id":"ce4bh3p2rcd13ifvqdq0","pricing_plan_id":"cebpf4jnsgd1na2vs0mg"},{"bike_id":"40133888-0505-4ab7-bf98-89cc8c9f1fbd","system_id":"levelo_inurba_marseille","lat":43.31246,"lon":5.38094,"is_reserved":false,"is_disabled":false,"rental_uris":{"android":"levelo://app?vid=40133888-0505-4ab7-bf98-89cc8c9f1fbd","ios":"levelo://app?vid=40133888-0505-4ab7-bf98-89cc8c9f1fbd"},"vehicle_type_id":"4","last_reported":1784349454,"current_range_meters":19600,"station_id":"","pricing_plan_id":"cebpf4jnsgd1na2vs0mg"},{"bike_id":"3e1781fc-1d5a-4fce-a80c-40c77c139415","system_id":"levelo_inurba_marseille","lat":43.2903,"lon":5.40032,"is_reserved":false,"is_disabled":false,"rental_uris":{"android":"levelo://app?vid=3e1781fc-1d5a-4fce-a80c-40c77c139415","ios":"levelo://app?vid=3e1781fc-1d5a-4fce-a80c-40c77c139415"},"vehicle_type_id":"4","last_reported":1784349454,"current_range_meters":4000,"station_id":"","pricing_plan_id":"cebpf4jnsgd1na2vs0mg"},{"bike_id":"a68ca05e-a5aa-4476-91a1-f1a26d9bd9dd","system_id":"levelo_inurba_marseille","lat":43.2885,"lon":5.3933,"is_reserved":false,"is_disabled":false,"rental_uris":{"android":"levelo://app?vid=a68ca05e-a5aa-4476-91a1-f1a26d9bd9dd","ios":"levelo://app?vid=a68ca05e-a5aa-4476-91a1-f1a26d9bd9dd"},"vehicle_type_id":"4","last_reported":1784349454,"current_range_meters":38800,"station_id":"ce4bh2p2rcd13ifvqdi0","pricing_plan_id":"cebpf4jnsgd1na2vs0mg"},{"bike_id":"a81292ae-78ed-490e-b729-e711a9e5dcc6","system_id":"levelo_inurba_marseille","lat":43.30207,"lon":5.39463,"is_reserved":false,"is_disabled":false,"rental_uris":{"android":"levelo://app?vid=a81292ae-78ed-490e-b729-e711a9e5dcc6","ios":"levelo://app?vid=a81292ae-78ed-490e-b729-e711a9e5dcc6"},"vehicle_type_id":"4","last_reported":1784349454,"current_range_meters":35600,"station_id":"ce4bh0p2rcd13ifvqd70","pricing_plan_id":"cebpf4jnsgd1na2vs0mg"},{"bike_id":"952c2dc6-e0b0-4307-9362-67e9489287e5","system_id":"levelo_inurba_marseille","lat":43.30648,"lon":5.40081,"is_reserved":false,"is_disabled":false,"rental_uris":{"android":"levelo://app?vid=952c2dc6-e0b0-4307-9362-67e9489287e5","ios":"levelo://app?vid=952c2dc6-e0b0-4307-9362-67e9489287e5"},"vehicle_type_id":"4","last_reported":1784349454,"current_range_meters":28400,"station_id":"ce4bh112rcd13ifvqda0","pricing_plan_id":"cebpf4jnsgd1na2vs0mg"},{"bike_id":"7e62a1e7-e43e-4c6d-97fe-eb42228edf6d","system_id":"levelo_inurba_marseille","lat":43.26539,"lon":5.394,"is_reserved":false,"is_disabled":false,"rental_uris":{"android":"levelo://app?vid=7e62a1e7-e43e-4c6d-97fe-eb42228edf6d","ios":"levelo://app?vid=7e62a1e7-e43e-4c6d-97fe-eb42228edf6d"},"vehicle_type_id":"4","last_reported":1784349454,"current_range_meters":10000,"station_id":"","pricing_plan_id":"cebpf4jnsgd1na2vs0mg"},{"bike_id":"e49b4c02-985d-4408-adff-c2d8f7ee3ac1","system_id":"levelo_inurba_marseille","lat":43.28411,"lon":5.37562,"is_reserved":false,"is_disabled":false,"rental_uris":{"android":"levelo://app?vid=e49b4c02-985d-4408-adff-c2d8f7ee3ac1","ios":"levelo://app?vid=e49b4c02-985d-4408-adff-c2d8f7ee3ac1"},"vehicle_type_id":"4","last_reported":1784349454,"current_range_meters":38000,"station_id":"ce4bh412rcd13ifvqds0","pricing_plan_id":"cebpf4jnsgd1na2vs0mg"},{"bike_id":"aa5c5382-860a-48d5-b563-b02ff751d1fd","system_id":"levelo_inurba_marseille","lat":43.26762,"lon":5.39472,"is_reserved":false,"is_disabled":false,"rental_uris":{"android":"levelo://app?vid=aa5c5382-860a-48d5-b563-b02ff751d1fd","ios":"levelo://app?vid=aa5c5382-860a-48d5-b563-b02ff751d1fd"},"vehicle_type_id":"4","last_reported":1784349454,"current_range_meters":38800,"station_id":"ce4bhh12rcd13ifvqfg0","pricing_plan_id":"cebpf4jnsgd1na2vs0mg"},{"bike_id":"527633c5-d392-43fd-b9b0-1c912033f447","system_id":"levelo_inurba_marseille","lat":43.30426,"lon":5.39737,"is_reserved":false,"is_disabled":false,"rental_uris":{"android":"levelo://app?vid=527633c5-d392-43fd-b9b0-1c912033f447","ios":"levelo://app?vid=527633c5-d392-43fd-b9b0-1c912033f447"},"vehicle_type_id":"4","last_reported":1784349454,"current_range_meters":33600,"station_id":"ce4bh092rcd13ifvqd20","pricing_plan_id":"cebpf4jnsgd1na2vs0mg"},{"bike_id":"e66afdcb-3787-4fbb-95bd-c9f6eb01dbd4","system_id":"levelo_inurba_marseille","lat":43.29167,"lon":5.38045,"is_reserved":false,"is_disabled":false,"rental_uris":{"android":"levelo://app?vid=e66afdcb-3787-4fbb-95bd-c9f6eb01dbd4","ios":"levelo://app?vid=e66afdcb-3787-4fbb-95bd-c9f6eb01dbd4"},"vehicle_type_id":"4","last_reported":1784349454,"current_range_meters":32400,"station_id":"","pricing_plan_id":"cebpf4jnsgd1na2vs0mg"},{"bike_id":"5e969128-8503-49d0-beff-4ee6d8acc396","system_id":"levelo_inurba_marseille","lat":43.31707,"lon":5.40476,"is_reserved":false,"is_disabled":false,"rental_uris":{"android":"levelo://app?vid=5e969128-8503-49d0-beff-4ee6d8acc396","ios":"levelo://app?vid=5e969128-8503-49d0-beff-4ee6d8acc396"},"vehicle_type_id":"4","last_reported":1784349454,"current_range_meters":24400,"station_id":"ce4bh012rcd13ifvqd00","pricing_plan_id":"cebpf4jnsgd1na2vs0mg"},{"bike_id":"66779298-f4bc-45ad-a083-d99b3db623a8","system_id":"levelo_inurba_marseille","lat":43.28732,"lon":5.3609,"is_reserved":false,"is_disabled":true,"rental_uris":{"android":"levelo://app?vid=66779298-f4bc-45ad-a083-d99b3db623a8","ios":"levelo://app?vid=66779298-f4bc-45ad-a083-d99b3db623a8"},"vehicle_type_id":"4","last_reported":1784349454,"current_range_meters":2000,"station_id":"cki0cbj6b192h4jlfktg","pricing_plan_id":"cebpf4jnsgd1na2vs0mg"},{"bike_id":"81587832-75ed-49cd-91c3-f57f9b8cec45","system_id":"levelo_inurba_marseille","lat":43.29032,"lon":5.35891,"is_reserved":false,"is_disabled":true,"rental_uris":{"android":"levelo://app?vid=81587832-75ed-49cd-91c3-f57f9b8cec45","ios":"levelo://app?vid=81587832-75ed-49cd-91c3-f57f9b8cec45"},"vehicle_type_id":"4","last_reported":1784349454,"current_range_meters":8800,"station_id":"ce4bha92rcd13ifvqeg0","pricing_plan_id":"cebpf4jnsgd1na2vs0mg"},{"bike_id":"227b996d-6ddd-4d0e-bbe8-1943daa82833","system_id":"levelo_inurba_marseille","lat":43.30114,"lon":5.39906,"is_reserved":false,"is_disabled":false,"rental_uris":{"android":"levelo://app?vid=227b996d-6ddd-4d0e-bbe8-1943daa82833","ios":"levelo://app?vid=227b996d-6ddd-4d0e-bbe8-1943daa82833"},"vehicle_type_id":"4","last_reported":1784349454,"current_range_meters":18800,"station_id":"ce4bh0h2rcd13ifvqd40","pricing_plan_id":"cebpf4jnsgd1na2vs0mg"},{"bike_id":"e289c78e-8977-4852-a938-804812e00355","system_id":"levelo_inurba_marseille","lat":43.28959,"lon":5.38408,"is_reserved":false,"is_disabled":false,"rental_uris":{"android":"levelo://app?vid=e289c78e-8977-4852-a938-804812e00355","ios":"levelo://app?vid=e289c78e-8977-4852-a938-804812e00355"},"vehicle_type_id":"4","last_reported":1784349454,"current_range_meters":39200,"station_id":"ce4bh612rcd13ifvqe6g","pricing_plan_id":"cebpf4jnsgd1na2vs0mg"},{"bike_id":"9bf98e17-a381-41de-875c-61a7b7a9de43","system_id":"levelo_inurba_marseille","lat":43.23376,"lon":5.41226,"is_reserved":false,"is_disabled":false,"rental_uris":{"android":"levelo://app?vid=9bf98e17-a381-41de-875c-61a7b7a9de43","ios":"levelo://app?vid=9bf98e17-a381-41de-875c-61a7b7a9de43"},"vehicle_type_id":"4","last_reported":1784349454,"current_range_meters":40000,"station_id":"st_d75pvndhf9lc73cqq3eg","pricing_plan_id":"cebpf4jnsgd1na2vs0mg"},{"bike_id":"257aed01-85b4-45a5-a75d-05fda36e24a0","system_id":"levelo_inurba_marseille","lat":43.24663,"lon":5.38144,"is_reserved":false,"is_disabled":false,"rental_uris":{"android":"levelo://app?vid=257aed01-85b4-45a5-a75d-05fda36e24a0","ios":"levelo://app?vid=257aed01-85b4-45a5-a75d-05fda36e24a0"},"vehicle_type_id":"4","last_reported":1784349454,"current_range_meters":8400,"station_id":"ce4bhih2rcd13ifvqfr0","pricing_plan_id":"cebpf4jnsgd1na2vs0mg"},{"bike_id":"f0c21d03-0f05-4825-a5e5-690cf8127b49","system_id":"levelo_inurba_marseille","lat":43.31222,"lon":5.3685,"is_reserved":false,"is_disabled":false,"rental_uris":{"android":"levelo://app?vid=f0c21d03-0f05-4825-a5e5-690cf8127b49","ios":"levelo://app?vid=f0c21d03-0f05-4825-a5e5-690cf8127b49"},"vehicle_type_id":"4","last_reported":1784349454,"current_range_meters":24400,"station_id":"ce4bgl92rcd13ifvqbq0","pricing_plan_id":"cebpf4jnsgd1na2vs0mg"},{"bike_id":"5dc61c06-bebd-4da3-baac-3c58ca456e4c","system_id":"levelo_inurba_marseille","lat":43.25716,"lon":5.41108,"is_reserved":false,"is_disabled":false,"rental_uris":{"android":"levelo://app?vid=5dc61c06-bebd-4da3-baac-3c58ca456e4c","ios":"levelo://app?vid=5dc61c06-bebd-4da3-baac-3c58ca456e4c"},"vehicle_type_id":"4","last_reported":1784349454,"current_range_meters":12000,"station_id":"ce4bhkp2rcd13ifvqgd0","pricing_plan_id":"cebpf4jnsgd1na2vs0mg"},{"bike_id":"e363b584-92a2-4c61-adfd-371a2577000d","system_id":"levelo_inurba_marseille","lat":43.29882,"lon":5.43635,"is_reserved":false,"is_disabled":false,"rental_uris":{"android":"levelo://app?vid=e363b584-92a2-4c61-adfd-371a2577000d","ios":"levelo://app?vid=e363b584-92a2-4c61-adfd-371a2577000d"},"vehicle_type_id":"4","last_reported":1784349454,"current_range_meters":40000,"station_id":"ce4bhpp2rcd13ifvqhfg","pricing_plan_id":"cebpf4jnsgd1na2vs0mg"},{"bike_id":"06c8057b-fe44-4576-9188-4ed641cdff79","system_id":"levelo_inurba_marseille","lat":43.24661,"lon":5.38156,"is_reserved":false,"is_disabled":false,"rental_uris":{"android":"levelo://app?vid=06c8057b-fe44-4576-9188-4ed641cdff79","ios":"levelo://app?vid=06c8057b-fe44-4576-9188-4ed641cdff79"},"vehicle_type_id":"4","last_reported":1784349454,"current_range_meters":28400,"station_id":"ce4bhih2rcd13ifvqfr0","pricing_plan_id":"cebpf4jnsgd1na2vs0mg"},{"bike_id":"1738dc9c-1133-48f6-bf1e-5749d0da4495","system_id":"levelo_inurba_marseille","lat":43.29243,"lon":5.3621,"is_reserved":false,"is_disabled":false,"rental_uris":{"android":"levelo://app?vid=1738dc9c-1133-48f6-bf1e-5749d0da4495","ios":"levelo://app?vid=1738dc9c-1133-48f6-bf1e-5749d0da4495"},"vehicle_type_id":"4","last_reported":1784349454,"current_range_meters":28800,"station_id":"","pricing_plan_id":"cebpf4jnsgd1na2vs0mg"},{"bike_id":"794b5a6c-758b-4682-b74a-ce7d0ca679c3","system_id":"levelo_inurba_marseille","lat":43.2999,"lon":5.41313,"is_reserved":false,"is_disabled":false,"rental_uris":{"android":"levelo://app?vid=794b5a6c-758b-4682-b74a-ce7d0ca679c3","ios":"levelo://app?vid=794b5a6c-758b-4682-b74a-ce7d0ca679c3"},"vehicle_type_id":"4","last_reported":1784349454,"current_range_meters":38800,"station_id":"ce4bhp12rcd13ifvqh9g","pricing_plan_id":"cebpf4jnsgd1na2vs0mg"},{"bike_id":"3abbcb03-9296-4d70-8b60-68d2439298e3","system_id":"levelo_inurba_marseille","lat":43.30129,"lon":5.39888,"is_reserved":false,"is_disabled":false,"rental_uris":{"android":"levelo://app?vid=3abbcb03-9296-4d70-8b60-68d2439298e3","ios":"levelo://app?vid=3abbcb03-9296-4d70-8b60-68d2439298e3"},"vehicle_type_id":"4","last_reported":1784349454,"current_range_meters":40000,"station_id":"ce4bh0h2rcd13ifvqd40","pricing_plan_id":"cebpf4jnsgd1na2vs0mg"},{"bike_id":"7ff8118f-6c81-4cdf-8a1d-4753d954065d","system_id":"levelo_inurba_marseille","lat":43.29624,"lon":5.37953,"is_reserved":false,"is_disabled":false,"rental_uris":{"android":"levelo://app?vid=7ff8118f-6c81-4cdf-8a1d-4753d954065d","ios":"levelo://app?vid=7ff8118f-6c81-4cdf-8a1d-4753d954065d"},"vehicle_type_id":"4","last_reported":1784349454,"current_range_meters":8400,"station_id":"","pricing_plan_id":"cebpf4jnsgd1na2vs0mg"},{"bike_id":"b0c3e183-a3fb-4539-8821-732464e2dbfc","system_id":"levelo_inurba_marseille","lat":43.30784,"lon":5.3767,"is_reserved":false,"is_disabled":false,"rental_uris":{"android":"levelo://app?vid=b0c3e183-a3fb-4539-8821-732464e2dbfc","ios":"levelo://app?vid=b0c3e183-a3fb-4539-8821-732464e2dbfc"},"vehicle_type_id":"4","last_reported":1784349454,"current_range_meters":12800,"station_id":"ce4bgv92rcd13ifvqcq0","pricing_plan_id":"cebpf4jnsgd1na2vs0mg"},{"bike_id":"0efa47ee-d0bf-416e-82f3-4055cb3fadd2","system_id":"levelo_inurba_marseille","lat":43.24813,"lon":5.37435,"is_reserved":false,"is_disabled":false,"rental_uris":{"android":"levelo://app?vid=0efa47ee-d0bf-416e-82f3-4055cb3fadd2","ios":"levelo://app?vid=0efa47ee-d0bf-416e-82f3-4055cb3fadd2"},"vehicle_type_id":"4","last_reported":1784349454,"current_range_meters":4000,"station_id":"ce4bhgh2rcd13ifvqfb0","pricing_plan_id":"cebpf4jnsgd1na2vs0mg"},{"bike_id":"8a3fed15-d082-411f-94a4-58cde816b455","system_id":"levelo_inurba_marseille","lat":43.337444,"lon":5.374475,"is_reserved":false,"is_disabled":false,"rental_uris":{"android":"levelo://app?vid=8a3fed15-d082-411f-94a4-58cde816b455","ios":"levelo://app?vid=8a3fed15-d082-411f-94a4-58cde816b455"},"vehicle_type_id":"4","last_reported":1784349454,"current_range_meters":39200,"station_id":"","pricing_plan_id":"cebpf4jnsgd1na2vs0mg"},{"bike_id":"1ab98144-debf-436d-9602-672c3837f1da","system_id":"levelo_inurba_marseille","lat":43.28865,"lon":5.39299,"is_reserved":false,"is_disabled":false,"rental_uris":{"android":"levelo://app?vid=1ab98144-debf-436d-9602-672c3837f1da","ios":"levelo://app?vid=1ab98144-debf-436d-9602-672c3837f1da"},"vehicle_type_id":"4","last_reported":1784349454,"current_range_meters":38800,"station_id":"ce4bh2p2rcd13ifvqdi0","pricing_plan_id":"cebpf4jnsgd1na2vs0mg"},{"bike_id":"25a94663-ca29-4aea-b736-903685dbeed5","system_id":"levelo_inurba_marseille","lat":43.23949,"lon":5.36633,"is_reserved":false,"is_disabled":true,"rental_uris":{"android":"levelo://app?vid=25a94663-ca29-4aea-b736-903685dbeed5","ios":"levelo://app?vid=25a94663-ca29-4aea-b736-903685dbeed5"},"vehicle_type_id":"4","last_reported":1784349454,"current_range_meters":39200,"station_id":"ce4bhi12rcd13ifvqfp0","pricing_plan_id":"cebpf4jnsgd1na2vs0mg"},{"bike_id":"c7c7135d-74a6-4d91-a6ec-ce1bff85e445","system_id":"levelo_inurba_marseille","lat":43.2848,"lon":5.38574,"is_reserved":false,"is_disabled":false,"rental_uris":{"android":"levelo://app?vid=c7c7135d-74a6-4d91-a6ec-ce1bff85e445","ios":"levelo://app?vid=c7c7135d-74a6-4d91-a6ec-ce1bff85e445"},"vehicle_type_id":"4","last_reported":1784349454,"current_range_meters":14000,"station_id":"ce4bh8p2rcd13ifvqeb0","pricing_plan_id":"cebpf4jnsgd1na2vs0mg"},{"bike_id":"09ac6197-8499-4886-a08e-57f703ae3e3f","system_id":"levelo_inurba_marseille","lat":43.30876,"lon":5.39632,"is_reserved":false,"is_disabled":false,"rental_uris":{"android":"levelo://app?vid=09ac6197-8499-4886-a08e-57f703ae3e3f","ios":"levelo://app?vid=09ac6197-8499-4886-a08e-57f703ae3e3f"},"vehicle_type_id":"4","last_reported":1784349454,"current_range_meters":32800,"station_id":"ce4bh012rcd13ifvqcv0","pricing_plan_id":"cebpf4jnsgd1na2vs0mg"},{"bike_id":"1de5753c-f77d-4a34-b134-58bee8bc010c","system_id":"levelo_inurba_marseille","lat":43.26543,"lon":5.37309,"is_reserved":false,"is_disabled":true,"rental_uris":{"android":"levelo://app?vid=1de5753c-f77d-4a34-b134-58bee8bc010c","ios":"levelo://app?vid=1de5753c-f77d-4a34-b134-58bee8bc010c"},"vehicle_type_id":"4","last_reported":1784349454,"current_range_meters":22800,"station_id":"ce4bhg12rcd13ifvqf70","pricing_plan_id":"cebpf4jnsgd1na2vs0mg"},{"bike_id":"773f610a-7857-44af-b169-5c22acd0a00f","system_id":"levelo_inurba_marseille","lat":43.31483,"lon":5.37284,"is_reserved":false,"is_disabled":false,"rental_uris":{"android":"levelo://app?vid=773f610a-7857-44af-b169-5c22acd0a00f","ios":"levelo://app?vid=773f610a-7857-44af-b169-5c22acd0a00f"},"vehicle_type_id":"4","last_reported":1784349454,"current_range_meters":38400,"station_id":"ce4bgt12rcd13ifvqcd0","pricing_plan_id":"cebpf4jnsgd1na2vs0mg"},{"bike_id":"d53fb603-8605-4878-bdd5-2b7354009258","system_id":"levelo_inurba_marseille","lat":43.29619,"lon":5.40572,"is_reserved":false,"is_disabled":false,"rental_uris":{"android":"levelo://app?vid=d53fb603-8605-4878-bdd5-2b7354009258","ios":"levelo://app?vid=d53fb603-8605-4878-bdd5-2b7354009258"},"vehicle_type_id":"4","last_reported":1784349454,"current_range_meters":39200,"station_id":"ce4bh0h2rcd13ifvqd60","pricing_plan_id":"cebpf4jnsgd1na2vs0mg"},{"bike_id":"0c5b4992-7bf0-4355-9c11-177fff0f32b7","system_id":"levelo_inurba_marseille","lat":43.29569,"lon":5.39979,"is_reserved":false,"is_disabled":true,"rental_uris":{"android":"levelo://app?vid=0c5b4992-7bf0-4355-9c11-177fff0f32b7","ios":"levelo://app?vid=0c5b4992-7bf0-4355-9c11-177fff0f32b7"},"vehicle_type_id":"4","last_reported":1784349454,"current_range_meters":2800,"station_id":"ce4bh312rcd13ifvqdj0","pricing_plan_id":"cebpf4jnsgd1na2vs0mg"},{"bike_id":"087e0614-3f65-49d4-b43a-7249cb239c70","system_id":"levelo_inurba_marseille","lat":43.27063,"lon":5.40258,"is_reserved":false,"is_disabled":false,"rental_uris":{"android":"levelo://app?vid=087e0614-3f65-49d4-b43a-7249cb239c70","ios":"levelo://app?vid=087e0614-3f65-49d4-b43a-7249cb239c70"},"vehicle_type_id":"4","last_reported":1784349454,"current_range_meters":38000,"station_id":"ce4bhk92rcd13ifvqgc0","pricing_plan_id":"cebpf4jnsgd1na2vs0mg"},{"bike_id":"70b4266b-6f2a-4bb7-934f-a2a2bf37b44f","system_id":"levelo_inurba_marseille","lat":43.25113,"lon":5.40329,"is_reserved":false,"is_disabled":true,"rental_uris":{"android":"levelo://app?vid=70b4266b-6f2a-4bb7-934f-a2a2bf37b44f","ios":"levelo://app?vid=70b4266b-6f2a-4bb7-934f-a2a2bf37b44f"},"vehicle_type_id":"4","last_reported":1784349454,"current_range_meters":38400,"station_id":"ce4bhlh2rcd13ifvqgig","pricing_plan_id":"cebpf4jnsgd1na2vs0mg"},{"bike_id":"4edc4148-d9b7-4b9d-9714-ef6d71a21c97","system_id":"levelo_inurba_marseille","lat":43.32307,"lon":5.38287,"is_reserved":false,"is_disabled":false,"rental_uris":{"android":"levelo://app?vid=4edc4148-d9b7-4b9d-9714-ef6d71a21c97","ios":"levelo://app?vid=4edc4148-d9b7-4b9d-9714-ef6d71a21c97"},"vehicle_type_id":"4","last_reported":1784349454,"current_range_meters":38000,"station_id":"ce4bhr12rcd13ifvqhqg","pricing_plan_id":"cebpf4jnsgd1na2vs0mg"},{"bike_id":"e525cef6-0f6f-4494-a34f-19cd95851ea7","system_id":"levelo_inurba_marseille","lat":43.28481,"lon":5.35878,"is_reserved":false,"is_disabled":false,"rental_uris":{"android":"levelo://app?vid=e525cef6-0f6f-4494-a34f-19cd95851ea7","ios":"levelo://app?vid=e525cef6-0f6f-4494-a34f-19cd95851ea7"},"vehicle_type_id":"4","last_reported":1784349454,"current_range_meters":28400,"station_id":"ce4bhah2rcd13ifvqei0","pricing_plan_id":"cebpf4jnsgd1na2vs0mg"},{"bike_id":"d4cb4ad1-aafc-48f0-91c9-7a15ffc1a23b","system_id":"levelo_inurba_marseille","lat":43.28452,"lon":5.35827,"is_reserved":false,"is_disabled":false,"rental_uris":{"android":"levelo://app?vid=d4cb4ad1-aafc-48f0-91c9-7a15ffc1a23b","ios":"levelo://app?vid=d4cb4ad1-aafc-48f0-91c9-7a15ffc1a23b"},"vehicle_type_id":"4","last_reported":1784349454,"current_range_meters":40000,"station_id":"ce4bhah2rcd13ifvqei0","pricing_plan_id":"cebpf4jnsgd1na2vs0mg"},{"bike_id":"d7282232-c975-4a88-8978-14c4ed2ea27c","system_id":"levelo_inurba_marseille","lat":43.26964,"lon":5.38629,"is_reserved":false,"is_disabled":false,"rental_uris":{"android":"levelo://app?vid=d7282232-c975-4a88-8978-14c4ed2ea27c","ios":"levelo://app?vid=d7282232-c975-4a88-8978-14c4ed2ea27c"},"vehicle_type_id":"4","last_reported":1784349454,"current_range_meters":39200,"station_id":"ce4bhh92rcd13ifvqfh0","pricing_plan_id":"cebpf4jnsgd1na2vs0mg"},{"bike_id":"0f6ff1da-c9e3-42e7-a8d3-8280d1c0addc","system_id":"levelo_inurba_marseille","lat":43.33748,"lon":5.3742,"is_reserved":false,"is_disabled":false,"rental_uris":{"android":"levelo://app?vid=0f6ff1da-c9e3-42e7-a8d3-8280d1c0addc","ios":"levelo://app?vid=0f6ff1da-c9e3-42e7-a8d3-8280d1c0addc"},"vehicle_type_id":"4","last_reported":1784349454,"current_range_meters":32000,"station_id":"","pricing_plan_id":"cebpf4jnsgd1na2vs0mg"},{"bike_id":"1e628dec-3141-48e0-b510-1c285ab03f4c","system_id":"levelo_inurba_marseille","lat":43.26385,"lon":5.41069,"is_reserved":false,"is_disabled":true,"rental_uris":{"android":"levelo://app?vid=1e628dec-3141-48e0-b510-1c285ab03f4c","ios":"levelo://app?vid=1e628dec-3141-48e0-b510-1c285ab03f4c"},"vehicle_type_id":"4","last_reported":1784349454,"current_range_meters":39200,"station_id":"st_d4e5ca6na9uc73bfl5fg","pricing_plan_id":"cebpf4jnsgd1na2vs0mg"},{"bike_id":"8337f5b4-2806-4bc0-9f71-af183adb5db8","system_id":"levelo_inurba_marseille","lat":43.23809,"lon":5.43508,"is_reserved":false,"is_disabled":false,"rental_uris":{"android":"levelo://app?vid=8337f5b4-2806-4bc0-9f71-af183adb5db8","ios":"levelo://app?vid=8337f5b4-2806-4bc0-9f71-af183adb5db8"},"vehicle_type_id":"4","last_reported":1784349454,"current_range_meters":10000,"station_id":"","pricing_plan_id":"cebpf4jnsgd1na2vs0mg"},{"bike_id":"1d97b98d-7b1a-4d20-9542-c79ab1eb85b4","system_id":"levelo_inurba_marseille","lat":43.3187,"lon":5.36823,"is_reserved":false,"is_disabled":false,"rental_uris":{"android":"levelo://app?vid=1d97b98d-7b1a-4d20-9542-c79ab1eb85b4","ios":"levelo://app?vid=1d97b98d-7b1a-4d20-9542-c79ab1eb85b4"},"vehicle_type_id":"4","last_reported":1784349454,"current_range_meters":14400,"station_id":"st_d6o2h0d0559c73evc1b0","pricing_plan_id":"cebpf4jnsgd1na2vs0mg"},{"bike_id":"13f71fcf-eab8-41b9-bdea-3ff43dfadfab","system_id":"levelo_inurba_marseille","lat":43.26562,"lon":5.39002,"is_reserved":false,"is_disabled":false,"rental_uris":{"android":"levelo://app?vid=13f71fcf-eab8-41b9-bdea-3ff43dfadfab","ios":"levelo://app?vid=13f71fcf-eab8-41b9-bdea-3ff43dfadfab"},"vehicle_type_id":"4","last_reported":1784349454,"current_range_meters":36800,"station_id":"ce4bhe12rcd13ifvqf30","pricing_plan_id":"cebpf4jnsgd1na2vs0mg"},{"bike_id":"8234e4ba-c0cc-45bb-8dac-83745f25b6f7","system_id":"levelo_inurba_marseille","lat":43.3252,"lon":5.36604,"is_reserved":false,"is_disabled":false,"rental_uris":{"android":"levelo://app?vid=8234e4ba-c0cc-45bb-8dac-83745f25b6f7","ios":"levelo://app?vid=8234e4ba-c0cc-45bb-8dac-83745f25b6f7"},"vehicle_type_id":"4","last_reported":1784349454,"current_range_meters":26800,"station_id":"ce4bhs12rcd13ifvqhvg","pricing_plan_id":"cebpf4jnsgd1na2vs0mg"},{"bike_id":"ee06a958-7f2b-4eb7-a6b1-2d3112db17a0","system_id":"levelo_inurba_marseille","lat":43.30887,"lon":5.37204,"is_reserved":false,"is_disabled":false,"rental_uris":{"android":"levelo://app?vid=ee06a958-7f2b-4eb7-a6b1-2d3112db17a0","ios":"levelo://app?vid=ee06a958-7f2b-4eb7-a6b1-2d3112db17a0"},"vehicle_type_id":"4","last_reported":1784349454,"current_range_meters":20800,"station_id":"ce4bguh2rcd13ifvqckg","pricing_plan_id":"cebpf4jnsgd1na2vs0mg"},{"bike_id":"e1a284f9-5e4e-407c-a907-36602c41246a","system_id":"levelo_inurba_marseille","lat":43.2415,"lon":5.39694,"is_reserved":false,"is_disabled":false,"rental_uris":{"android":"levelo://app?vid=e1a284f9-5e4e-407c-a907-36602c41246a","ios":"levelo://app?vid=e1a284f9-5e4e-407c-a907-36602c41246a"},"vehicle_type_id":"4","last_reported":1784349454,"current_range_meters":39200,"station_id":"ce4bhn12rcd13ifvqgpg","pricing_plan_id":"cebpf4jnsgd1na2vs0mg"},{"bike_id":"57861aa2-3770-4cb0-9ca6-87fa36583c4f","system_id":"levelo_inurba_marseille","lat":43.3137,"lon":5.38497,"is_reserved":false,"is_disabled":false,"rental_uris":{"android":"levelo://app?vid=57861aa2-3770-4cb0-9ca6-87fa36583c4f","ios":"levelo://app?vid=57861aa2-3770-4cb0-9ca6-87fa36583c4f"},"vehicle_type_id":"4","last_reported":1784349454,"current_range_meters":39200,"station_id":"ce4bgt92rcd13ifvqcf0","pricing_plan_id":"cebpf4jnsgd1na2vs0mg"},{"bike_id":"69016a62-c536-469c-9e95-1e8faaa206a3","system_id":"levelo_inurba_marseille","lat":43.30228,"lon":5.40059,"is_reserved":false,"is_disabled":false,"rental_uris":{"android":"levelo://app?vid=69016a62-c536-469c-9e95-1e8faaa206a3","ios":"levelo://app?vid=69016a62-c536-469c-9e95-1e8faaa206a3"},"vehicle_type_id":"4","last_reported":1784349454,"current_range_meters":39200,"station_id":"","pricing_plan_id":"cebpf4jnsgd1na2vs0mg"},{"bike_id":"c7cbda4e-c1c1-42ec-9a35-e48c50022595","system_id":"levelo_inurba_marseille","lat":43.29713,"lon":5.36624,"is_reserved":false,"is_disabled":false,"rental_uris":{"android":"levelo://app?vid=c7cbda4e-c1c1-42ec-9a35-e48c50022595","ios":"levelo://app?vid=c7cbda4e-c1c1-42ec-9a35-e48c50022595"},"vehicle_type_id":"4","last_reported":1784349454,"current_range_meters":8400,"station_id":"ce4bgn12rcd13ifvqbt0","pricing_plan_id":"cebpf4jnsgd1na2vs0mg"},{"bike_id":"ace1fb78-24f2-4832-89e6-e0f633ce12f4","system_id":"levelo_inurba_marseille","lat":43.29046,"lon":5.35921,"is_reserved":false,"is_disabled":false,"rental_uris":{"android":"levelo://app?vid=ace1fb78-24f2-4832-89e6-e0f633ce12f4","ios":"levelo://app?vid=ace1fb78-24f2-4832-89e6-e0f633ce12f4"},"vehicle_type_id":"4","last_reported":1784349454,"current_range_meters":24800,"station_id":"ce4bha92rcd13ifvqeg0","pricing_plan_id":"cebpf4jnsgd1na2vs0mg"},{"bike_id":"942148f9-90f2-4171-8f05-98ba0ca85bcb","system_id":"levelo_inurba_marseille","lat":43.28474,"lon":5.48402,"is_reserved":false,"is_disabled":true,"rental_uris":{"android":"levelo://app?vid=942148f9-90f2-4171-8f05-98ba0ca85bcb","ios":"levelo://app?vid=942148f9-90f2-4171-8f05-98ba0ca85bcb"},"vehicle_type_id":"4","last_reported":1784349454,"current_range_meters":6800,"station_id":"st_d3svhcjqgbts73a3dn0g","pricing_plan_id":"cebpf4jnsgd1na2vs0mg"},{"bike_id":"6a31666b-84d8-4f00-bcbe-35507b0b11ba","system_id":"levelo_inurba_marseille","lat":43.28474,"lon":5.35863,"is_reserved":false,"is_disabled":false,"rental_uris":{"android":"levelo://app?vid=6a31666b-84d8-4f00-bcbe-35507b0b11ba","ios":"levelo://app?vid=6a31666b-84d8-4f00-bcbe-35507b0b11ba"},"vehicle_type_id":"4","last_reported":1784349454,"current_range_meters":40000,"station_id":"ce4bhah2rcd13ifvqei0","pricing_plan_id":"cebpf4jnsgd1na2vs0mg"},{"bike_id":"b2b194ed-86a5-4dc8-b828-5b80e1681197","system_id":"levelo_inurba_marseille","lat":43.28553,"lon":5.44109,"is_reserved":false,"is_disabled":false,"rental_uris":{"android":"levelo://app?vid=b2b194ed-86a5-4dc8-b828-5b80e1681197","ios":"levelo://app?vid=b2b194ed-86a5-4dc8-b828-5b80e1681197"},"vehicle_type_id":"4","last_reported":1784349454,"current_range_meters":39200,"station_id":"st_d3j3df2ikq2c7380ej80","pricing_plan_id":"cebpf4jnsgd1na2vs0mg"},{"bike_id":"2a93def1-9840-4751-b465-b53bb0ce6123","system_id":"levelo_inurba_marseille","lat":43.2255,"lon":5.41629,"is_reserved":false,"is_disabled":false,"rental_uris":{"android":"levelo://app?vid=2a93def1-9840-4751-b465-b53bb0ce6123","ios":"levelo://app?vid=2a93def1-9840-4751-b465-b53bb0ce6123"},"vehicle_type_id":"4","last_reported":1784349454,"current_range_meters":12800,"station_id":"st_d2o4gvlbi1j2169b742g","pricing_plan_id":"cebpf4jnsgd1na2vs0mg"},{"bike_id":"ead720da-3ae4-4a63-8d79-391b6dc32cc8","system_id":"levelo_inurba_marseille","lat":43.33605,"lon":5.41029,"is_reserved":false,"is_disabled":false,"rental_uris":{"android":"levelo://app?vid=ead720da-3ae4-4a63-8d79-391b6dc32cc8","ios":"levelo://app?vid=ead720da-3ae4-4a63-8d79-391b6dc32cc8"},"vehicle_type_id":"4","last_reported":1784349454,"current_range_meters":40000,"station_id":"ce4bhqh2rcd13ifvqhmg","pricing_plan_id":"cebpf4jnsgd1na2vs0mg"},{"bike_id":"d2b08bfe-8d05-4397-91e9-fe938a2b845f","system_id":"levelo_inurba_marseille","lat":43.27493,"lon":5.42448,"is_reserved":false,"is_disabled":false,"rental_uris":{"android":"levelo://app?vid=d2b08bfe-8d05-4397-91e9-fe938a2b845f","ios":"levelo://app?vid=d2b08bfe-8d05-4397-91e9-fe938a2b845f"},"vehicle_type_id":"4","last_reported":1784349454,"current_range_meters":32800,"station_id":"ce4bhn92rcd13ifvqgrg","pricing_plan_id":"cebpf4jnsgd1na2vs0mg"},{"bike_id":"23b107ce-b6cc-45b7-bbb8-6fc6a6cbc260","system_id":"levelo_inurba_marseille","lat":43.31756,"lon":5.39021,"is_reserved":false,"is_disabled":false,"rental_uris":{"android":"levelo://app?vid=23b107ce-b6cc-45b7-bbb8-6fc6a6cbc260","ios":"levelo://app?vid=23b107ce-b6cc-45b7-bbb8-6fc6a6cbc260"},"vehicle_type_id":"4","last_reported":1784349454,"current_range_meters":17600,"station_id":"ce4bhqp2rcd13ifvqhng","pricing_plan_id":"cebpf4jnsgd1na2vs0mg"},{"bike_id":"5be576c0-12f2-4627-9ff4-c71edb7d5081","system_id":"levelo_inurba_marseille","lat":43.30434,"lon":5.38873,"is_reserved":false,"is_disabled":false,"rental_uris":{"android":"levelo://app?vid=5be576c0-12f2-4627-9ff4-c71edb7d5081","ios":"levelo://app?vid=5be576c0-12f2-4627-9ff4-c71edb7d5081"},"vehicle_type_id":"4","last_reported":1784349454,"current_range_meters":38400,"station_id":"ce4bgk12rcd13ifvqbi0","pricing_plan_id":"cebpf4jnsgd1na2vs0mg"},{"bike_id":"83741070-3a1f-46c3-b431-07eff2814aa4","system_id":"levelo_inurba_marseille","lat":43.27455,"lon":5.36115,"is_reserved":false,"is_disabled":true,"rental_uris":{"android":"levelo://app?vid=83741070-3a1f-46c3-b431-07eff2814aa4","ios":"levelo://app?vid=83741070-3a1f-46c3-b431-07eff2814aa4"},"vehicle_type_id":"4","last_reported":1784349454,"current_range_meters":0,"station_id":"","pricing_plan_id":"cebpf4jnsgd1na2vs0mg"},{"bike_id":"e97d923d-d560-461e-94e7-6b746b3d8d92","system_id":"levelo_inurba_marseille","lat":43.31992,"lon":5.36807,"is_reserved":false,"is_disabled":false,"rental_uris":{"android":"levelo://app?vid=e97d923d-d560-461e-94e7-6b746b3d8d92","ios":"levelo://app?vid=e97d923d-d560-461e-94e7-6b746b3d8d92"},"vehicle_type_id":"4","last_reported":1784349454,"current_range_meters":27200,"station_id":"","pricing_plan_id":"cebpf4jnsgd1na2vs0mg"},{"bike_id":"57e66879-ae87-4e73-a222-7592970b5d9a","system_id":"levelo_inurba_marseille","lat":43.28715,"lon":5.37405,"is_reserved":false,"is_disabled":false,"rental_uris":{"android":"levelo://app?vid=57e66879-ae87-4e73-a222-7592970b5d9a","ios":"levelo://app?vid=57e66879-ae87-4e73-a222-7592970b5d9a"},"vehicle_type_id":"4","last_reported":1784349454,"current_range_meters":39200,"station_id":"ce4bh3p2rcd13ifvqdq0","pricing_plan_id":"cebpf4jnsgd1na2vs0mg"},{"bike_id":"8aa2ff03-89a8-4a52-9d2f-bdf54e7ee2f8","system_id":"levelo_inurba_marseille","lat":43.26945,"lon":5.38631,"is_reserved":false,"is_disabled":false,"rental_uris":{"android":"levelo://app?vid=8aa2ff03-89a8-4a52-9d2f-bdf54e7ee2f8","ios":"levelo://app?vid=8aa2ff03-89a8-4a52-9d2f-bdf54e7ee2f8"},"vehicle_type_id":"4","last_reported":1784349454,"current_range_meters":37600,"station_id":"ce4bhh92rcd13ifvqfh0","pricing_plan_id":"cebpf4jnsgd1na2vs0mg"},{"bike_id":"48837646-8c52-45de-9e76-9ec9cdd47775","system_id":"levelo_inurba_marseille","lat":43.28782,"lon":5.38545,"is_reserved":false,"is_disabled":false,"rental_uris":{"android":"levelo://app?vid=48837646-8c52-45de-9e76-9ec9cdd47775","ios":"levelo://app?vid=48837646-8c52-45de-9e76-9ec9cdd47775"},"vehicle_type_id":"4","last_reported":1784349454,"current_range_meters":11600,"station_id":"","pricing_plan_id":"cebpf4jnsgd1na2vs0mg"},{"bike_id":"7c0c2360-c27c-40b2-9d76-fd5e9bdea05a","system_id":"levelo_inurba_marseille","lat":43.31979,"lon":5.3814,"is_reserved":false,"is_disabled":false,"rental_uris":{"android":"levelo://app?vid=7c0c2360-c27c-40b2-9d76-fd5e9bdea05a","ios":"levelo://app?vid=7c0c2360-c27c-40b2-9d76-fd5e9bdea05a"},"vehicle_type_id":"4","last_reported":1784349454,"current_range_meters":28800,"station_id":"ce4bhr12rcd13ifvqhpg","pricing_plan_id":"cebpf4jnsgd1na2vs0mg"},{"bike_id":"9ded3aaf-3123-4885-b287-bf61b9d86866","system_id":"levelo_inurba_marseille","lat":43.21746,"lon":5.34602,"is_reserved":false,"is_disabled":false,"rental_uris":{"android":"levelo://app?vid=9ded3aaf-3123-4885-b287-bf61b9d86866","ios":"levelo://app?vid=9ded3aaf-3123-4885-b287-bf61b9d86866"},"vehicle_type_id":"4","last_reported":1784349454,"current_range_meters":9200,"station_id":"st_cvj6r9ubvosntc0bgbag","pricing_plan_id":"cebpf4jnsgd1na2vs0mg"},{"bike_id":"4d4f8116-b78d-45df-894b-0d08a3cd82b5","system_id":"levelo_inurba_marseille","lat":43.30715,"lon":5.38416,"is_reserved":false,"is_disabled":false,"rental_uris":{"android":"levelo://app?vid=4d4f8116-b78d-45df-894b-0d08a3cd82b5","ios":"levelo://app?vid=4d4f8116-b78d-45df-894b-0d08a3cd82b5"},"vehicle_type_id":"4","last_reported":1784349454,"current_range_meters":6400,"station_id":"","pricing_plan_id":"cebpf4jnsgd1na2vs0mg"},{"bike_id":"57889d2e-37dd-4f8f-b3ab-1bc0a62b2215","system_id":"levelo_inurba_marseille","lat":43.30494,"lon":5.37898,"is_reserved":false,"is_disabled":true,"rental_uris":{"android":"levelo://app?vid=57889d2e-37dd-4f8f-b3ab-1bc0a62b2215","ios":"levelo://app?vid=57889d2e-37dd-4f8f-b3ab-1bc0a62b2215"},"vehicle_type_id":"4","last_reported":1784349454,"current_range_meters":24800,"station_id":"ce4bgup2rcd13ifvqcn0","pricing_plan_id":"cebpf4jnsgd1na2vs0mg"},{"bike_id":"c6b62028-2fba-481c-a2b5-507778ec7c93","system_id":"levelo_inurba_marseille","lat":43.3153,"lon":5.41357,"is_reserved":false,"is_disabled":true,"rental_uris":{"android":"levelo://app?vid=c6b62028-2fba-481c-a2b5-507778ec7c93","ios":"levelo://app?vid=c6b62028-2fba-481c-a2b5-507778ec7c93"},"vehicle_type_id":"4","last_reported":1784349454,"current_range_meters":0,"station_id":"","pricing_plan_id":"cebpf4jnsgd1na2vs0mg"},{"bike_id":"91e58290-8000-4cfb-94ca-57c2725f91ff","system_id":"levelo_inurba_marseille","lat":43.28448,"lon":5.38438,"is_reserved":false,"is_disabled":false,"rental_uris":{"android":"levelo://app?vid=91e58290-8000-4cfb-94ca-57c2725f91ff","ios":"levelo://app?vid=91e58290-8000-4cfb-94ca-57c2725f91ff"},"vehicle_type_id":"4","last_reported":1784349454,"current_range_meters":9200,"station_id":"ce4bh512rcd13ifvqe3g","pricing_plan_id":"cebpf4jnsgd1na2vs0mg"},{"bike_id":"f5d60082-14d9-4563-89ae-263807d37ce3","system_id":"levelo_inurba_marseille","lat":43.28558,"lon":5.44092,"is_reserved":false,"is_disabled":false,"rental_uris":{"android":"levelo://app?vid=f5d60082-14d9-4563-89ae-263807d37ce3","ios":"levelo://app?vid=f5d60082-14d9-4563-89ae-263807d37ce3"},"vehicle_type_id":"4","last_reported":1784349454,"current_range_meters":30000,"station_id":"st_d3j3df2ikq2c7380ej80","pricing_plan_id":"cebpf4jnsgd1na2vs0mg"},{"bike_id":"a0f7ba23-3a61-4689-a933-cfd194f396f0","system_id":"levelo_inurba_marseille","lat":43.3094,"lon":5.40165,"is_reserved":false,"is_disabled":false,"rental_uris":{"android":"levelo://app?vid=a0f7ba23-3a61-4689-a933-cfd194f396f0","ios":"levelo://app?vid=a0f7ba23-3a61-4689-a933-cfd194f396f0"},"vehicle_type_id":"4","last_reported":1784349454,"current_range_meters":34000,"station_id":"ce4bgvp2rcd13ifvqct0","pricing_plan_id":"cebpf4jnsgd1na2vs0mg"},{"bike_id":"b64426df-a3f7-424e-923a-a5218fc5bce4","system_id":"levelo_inurba_marseille","lat":43.27709,"lon":5.38922,"is_reserved":false,"is_disabled":true,"rental_uris":{"android":"levelo://app?vid=b64426df-a3f7-424e-923a-a5218fc5bce4","ios":"levelo://app?vid=b64426df-a3f7-424e-923a-a5218fc5bce4"},"vehicle_type_id":"4","last_reported":1784349454,"current_range_meters":28800,"station_id":"ce4bhi12rcd13ifvqfo0","pricing_plan_id":"cebpf4jnsgd1na2vs0mg"},{"bike_id":"2116d610-7fe3-46de-8648-da9bac1d13d6","system_id":"levelo_inurba_marseille","lat":43.287,"lon":5.37393,"is_reserved":false,"is_disabled":true,"rental_uris":{"android":"levelo://app?vid=2116d610-7fe3-46de-8648-da9bac1d13d6","ios":"levelo://app?vid=2116d610-7fe3-46de-8648-da9bac1d13d6"},"vehicle_type_id":"4","last_reported":1784349454,"current_range_meters":19600,"station_id":"ce4bh3p2rcd13ifvqdq0","pricing_plan_id":"cebpf4jnsgd1na2vs0mg"},{"bike_id":"3d4aa178-44db-467e-a1bd-4fcdf991f22c","system_id":"levelo_inurba_marseille","lat":43.31694,"lon":5.43734,"is_reserved":false,"is_disabled":false,"rental_uris":{"android":"levelo://app?vid=3d4aa178-44db-467e-a1bd-4fcdf991f22c","ios":"levelo://app?vid=3d4aa178-44db-467e-a1bd-4fcdf991f22c"},"vehicle_type_id":"4","last_reported":1784349454,"current_range_meters":38800,"station_id":"ce4bhp92rcd13ifvqhcg","pricing_plan_id":"cebpf4jnsgd1na2vs0mg"},{"bike_id":"78b472ae-7ca1-438d-a65f-f93d06645001","system_id":"levelo_inurba_marseille","lat":43.29225,"lon":5.36068,"is_reserved":false,"is_disabled":true,"rental_uris":{"android":"levelo://app?vid=78b472ae-7ca1-438d-a65f-f93d06645001","ios":"levelo://app?vid=78b472ae-7ca1-438d-a65f-f93d06645001"},"vehicle_type_id":"4","last_reported":1784349454,"current_range_meters":4400,"station_id":"","pricing_plan_id":"cebpf4jnsgd1na2vs0mg"},{"bike_id":"ca52e966-ac9e-40a0-82ac-f59d5f4eee7e","system_id":"levelo_inurba_marseille","lat":43.28421,"lon":5.37528,"is_reserved":false,"is_disabled":false,"rental_uris":{"android":"levelo://app?vid=ca52e966-ac9e-40a0-82ac-f59d5f4eee7e","ios":"levelo://app?vid=ca52e966-ac9e-40a0-82ac-f59d5f4eee7e"},"vehicle_type_id":"4","last_reported":1784349454,"current_range_meters":22800,"station_id":"ce4bh412rcd13ifvqds0","pricing_plan_id":"cebpf4jnsgd1na2vs0mg"},{"bike_id":"a940cd1b-c772-427c-a2f6-e24cd92248c6","system_id":"levelo_inurba_marseille","lat":43.25861,"lon":5.39903,"is_reserved":false,"is_disabled":false,"rental_uris":{"android":"levelo://app?vid=a940cd1b-c772-427c-a2f6-e24cd92248c6","ios":"levelo://app?vid=a940cd1b-c772-427c-a2f6-e24cd92248c6"},"vehicle_type_id":"4","last_reported":1784349454,"current_range_meters":19600,"station_id":"ce4bhl92rcd13ifvqghg","pricing_plan_id":"cebpf4jnsgd1na2vs0mg"},{"bike_id":"32b1379d-911f-475c-b919-791d4161df90","system_id":"levelo_inurba_marseille","lat":43.30536,"lon":5.38418,"is_reserved":false,"is_disabled":false,"rental_uris":{"android":"levelo://app?vid=32b1379d-911f-475c-b919-791d4161df90","ios":"levelo://app?vid=32b1379d-911f-475c-b919-791d4161df90"},"vehicle_type_id":"4","last_reported":1784349454,"current_range_meters":37600,"station_id":"ce4bgg92rcd13ifvqb30","pricing_plan_id":"cebpf4jnsgd1na2vs0mg"},{"bike_id":"871dd8a5-9839-454b-857f-e2dd4859231c","system_id":"levelo_inurba_marseille","lat":43.28707,"lon":5.37969,"is_reserved":false,"is_disabled":false,"rental_uris":{"android":"levelo://app?vid=871dd8a5-9839-454b-857f-e2dd4859231c","ios":"levelo://app?vid=871dd8a5-9839-454b-857f-e2dd4859231c"},"vehicle_type_id":"4","last_reported":1784349454,"current_range_meters":35200,"station_id":"ce4bh9p2rcd13ifvqec0","pricing_plan_id":"cebpf4jnsgd1na2vs0mg"},{"bike_id":"348caf77-82d6-4562-a72e-c7becae0b0ae","system_id":"levelo_inurba_marseille","lat":43.230549,"lon":5.354901,"is_reserved":false,"is_disabled":false,"rental_uris":{"android":"levelo://app?vid=348caf77-82d6-4562-a72e-c7becae0b0ae","ios":"levelo://app?vid=348caf77-82d6-4562-a72e-c7becae0b0ae"},"vehicle_type_id":"4","last_reported":1784349454,"current_range_meters":39200,"station_id":"cpo3342slgdg3j2ifvpg","pricing_plan_id":"cebpf4jnsgd1na2vs0mg"},{"bike_id":"88b3333d-68df-42df-8ef7-a9a4f08abce5","system_id":"levelo_inurba_marseille","lat":43.22927,"lon":5.41508,"is_reserved":false,"is_disabled":false,"rental_uris":{"android":"levelo://app?vid=88b3333d-68df-42df-8ef7-a9a4f08abce5","ios":"levelo://app?vid=88b3333d-68df-42df-8ef7-a9a4f08abce5"},"vehicle_type_id":"4","last_reported":1784349454,"current_range_meters":24000,"station_id":"","pricing_plan_id":"cebpf4jnsgd1na2vs0mg"},{"bike_id":"ff1dfdf8-4853-4ebc-a853-182bfbf0bac6","system_id":"levelo_inurba_marseille","lat":43.28467,"lon":5.35903,"is_reserved":false,"is_disabled":false,"rental_uris":{"android":"levelo://app?vid=ff1dfdf8-4853-4ebc-a853-182bfbf0bac6","ios":"levelo://app?vid=ff1dfdf8-4853-4ebc-a853-182bfbf0bac6"},"vehicle_type_id":"4","last_reported":1784349454,"current_range_meters":38800,"station_id":"ce4bhah2rcd13ifvqei0","pricing_plan_id":"cebpf4jnsgd1na2vs0mg"},{"bike_id":"aa54bc3c-a348-411d-8859-a23ede83b57a","system_id":"levelo_inurba_marseille","lat":43.30163,"lon":5.374,"is_reserved":false,"is_disabled":false,"rental_uris":{"android":"levelo://app?vid=aa54bc3c-a348-411d-8859-a23ede83b57a","ios":"levelo://app?vid=aa54bc3c-a348-411d-8859-a23ede83b57a"},"vehicle_type_id":"4","last_reported":1784349454,"current_range_meters":24800,"station_id":"ce4bgs92rcd13ifvqcc0","pricing_plan_id":"cebpf4jnsgd1na2vs0mg"},{"bike_id":"cbf57bb6-373a-442c-9860-92cf9215a1bb","system_id":"levelo_inurba_marseille","lat":43.30593,"lon":5.36539,"is_reserved":false,"is_disabled":true,"rental_uris":{"android":"levelo://app?vid=cbf57bb6-373a-442c-9860-92cf9215a1bb","ios":"levelo://app?vid=cbf57bb6-373a-442c-9860-92cf9215a1bb"},"vehicle_type_id":"4","last_reported":1784349454,"current_range_meters":26000,"station_id":"ce4bgs12rcd13ifvqcag","pricing_plan_id":"cebpf4jnsgd1na2vs0mg"},{"bike_id":"7224ff01-5594-4f70-889c-6758a258754d","system_id":"levelo_inurba_marseille","lat":43.26208,"lon":5.37446,"is_reserved":false,"is_disabled":false,"rental_uris":{"android":"levelo://app?vid=7224ff01-5594-4f70-889c-6758a258754d","ios":"levelo://app?vid=7224ff01-5594-4f70-889c-6758a258754d"},"vehicle_type_id":"4","last_reported":1784349454,"current_range_meters":39200,"station_id":"ce4bhgp2rcd13ifvqfc0","pricing_plan_id":"cebpf4jnsgd1na2vs0mg"},{"bike_id":"3de8f078-6a49-4f0f-99a0-77b803ad28e0","system_id":"levelo_inurba_marseille","lat":43.29853,"lon":5.36293,"is_reserved":false,"is_disabled":true,"rental_uris":{"android":"levelo://app?vid=3de8f078-6a49-4f0f-99a0-77b803ad28e0","ios":"levelo://app?vid=3de8f078-6a49-4f0f-99a0-77b803ad28e0"},"vehicle_type_id":"4","last_reported":1784349454,"current_range_meters":16800,"station_id":"ce4bgpp2rcd13ifvqc3g","pricing_plan_id":"cebpf4jnsgd1na2vs0mg"},{"bike_id":"d9632fc5-4f25-4268-8d79-87fd6d52e7c0","system_id":"levelo_inurba_marseille","lat":43.24813,"lon":5.37462,"is_reserved":false,"is_disabled":false,"rental_uris":{"android":"levelo://app?vid=d9632fc5-4f25-4268-8d79-87fd6d52e7c0","ios":"levelo://app?vid=d9632fc5-4f25-4268-8d79-87fd6d52e7c0"},"vehicle_type_id":"4","last_reported":1784349454,"current_range_meters":22000,"station_id":"ce4bhgh2rcd13ifvqfb0","pricing_plan_id":"cebpf4jnsgd1na2vs0mg"},{"bike_id":"682c7a82-60fc-4408-9496-b6add30f9456","system_id":"levelo_inurba_marseille","lat":43.28079,"lon":5.39667,"is_reserved":false,"is_disabled":false,"rental_uris":{"android":"levelo://app?vid=682c7a82-60fc-4408-9496-b6add30f9456","ios":"levelo://app?vid=682c7a82-60fc-4408-9496-b6add30f9456"},"vehicle_type_id":"4","last_reported":1784349454,"current_range_meters":12400,"station_id":"ce4bho12rcd13ifvqh2g","pricing_plan_id":"cebpf4jnsgd1na2vs0mg"},{"bike_id":"e8b2132e-2e2f-4678-bd27-ce3f9f11f158","system_id":"levelo_inurba_marseille","lat":43.30488,"lon":5.37891,"is_reserved":false,"is_disabled":true,"rental_uris":{"android":"levelo://app?vid=e8b2132e-2e2f-4678-bd27-ce3f9f11f158","ios":"levelo://app?vid=e8b2132e-2e2f-4678-bd27-ce3f9f11f158"},"vehicle_type_id":"4","last_reported":1784349454,"current_range_meters":16800,"station_id":"ce4bgup2rcd13ifvqcn0","pricing_plan_id":"cebpf4jnsgd1na2vs0mg"},{"bike_id":"17f00b12-f8d0-413a-b992-98dadbd11261","system_id":"levelo_inurba_marseille","lat":43.25033,"lon":5.38931,"is_reserved":false,"is_disabled":false,"rental_uris":{"android":"levelo://app?vid=17f00b12-f8d0-413a-b992-98dadbd11261","ios":"levelo://app?vid=17f00b12-f8d0-413a-b992-98dadbd11261"},"vehicle_type_id":"4","last_reported":1784349454,"current_range_meters":32800,"station_id":"ce4bhgp2rcd13ifvqfd0","pricing_plan_id":"cebpf4jnsgd1na2vs0mg"},{"bike_id":"73eaae7c-888a-42ae-9eb9-6872c7b5a889","system_id":"levelo_inurba_marseille","lat":43.30585,"lon":5.37229,"is_reserved":false,"is_disabled":false,"rental_uris":{"android":"levelo://app?vid=73eaae7c-888a-42ae-9eb9-6872c7b5a889","ios":"levelo://app?vid=73eaae7c-888a-42ae-9eb9-6872c7b5a889"},"vehicle_type_id":"4","last_reported":1784349454,"current_range_meters":38000,"station_id":"ce4bgqh2rcd13ifvqc4g","pricing_plan_id":"cebpf4jnsgd1na2vs0mg"},{"bike_id":"8d48da37-823a-4b4b-a734-56600a9ec054","system_id":"levelo_inurba_marseille","lat":43.30152,"lon":5.39896,"is_reserved":false,"is_disabled":false,"rental_uris":{"android":"levelo://app?vid=8d48da37-823a-4b4b-a734-56600a9ec054","ios":"levelo://app?vid=8d48da37-823a-4b4b-a734-56600a9ec054"},"vehicle_type_id":"4","last_reported":1784349454,"current_range_meters":38000,"station_id":"ce4bh0h2rcd13ifvqd40","pricing_plan_id":"cebpf4jnsgd1na2vs0mg"},{"bike_id":"4f54c651-15d1-492f-8d09-70f1f809ad4f","system_id":"levelo_inurba_marseille","lat":43.27521,"lon":5.42569,"is_reserved":false,"is_disabled":false,"rental_uris":{"android":"levelo://app?vid=4f54c651-15d1-492f-8d09-70f1f809ad4f","ios":"levelo://app?vid=4f54c651-15d1-492f-8d09-70f1f809ad4f"},"vehicle_type_id":"4","last_reported":1784349454,"current_range_meters":30800,"station_id":"st_d8t4bh7nbrqs73arha60","pricing_plan_id":"cebpf4jnsgd1na2vs0mg"},{"bike_id":"d5a4ff25-31d4-4152-b052-19f3b36bea80","system_id":"levelo_inurba_marseille","lat":43.24674,"lon":5.38171,"is_reserved":false,"is_disabled":false,"rental_uris":{"android":"levelo://app?vid=d5a4ff25-31d4-4152-b052-19f3b36bea80","ios":"levelo://app?vid=d5a4ff25-31d4-4152-b052-19f3b36bea80"},"vehicle_type_id":"4","last_reported":1784349454,"current_range_meters":4400,"station_id":"ce4bhih2rcd13ifvqfr0","pricing_plan_id":"cebpf4jnsgd1na2vs0mg"},{"bike_id":"7471413d-860d-4cb4-b21c-48f167b975ff","system_id":"levelo_inurba_marseille","lat":43.26941,"lon":5.38928,"is_reserved":false,"is_disabled":false,"rental_uris":{"android":"levelo://app?vid=7471413d-860d-4cb4-b21c-48f167b975ff","ios":"levelo://app?vid=7471413d-860d-4cb4-b21c-48f167b975ff"},"vehicle_type_id":"4","last_reported":1784349454,"current_range_meters":39200,"station_id":"ce4bhhh2rcd13ifvqfl0","pricing_plan_id":"cebpf4jnsgd1na2vs0mg"},{"bike_id":"341efd1a-c88f-46da-b723-1652a8c857ec","system_id":"levelo_inurba_marseille","lat":43.28852,"lon":5.39327,"is_reserved":false,"is_disabled":false,"rental_uris":{"android":"levelo://app?vid=341efd1a-c88f-46da-b723-1652a8c857ec","ios":"levelo://app?vid=341efd1a-c88f-46da-b723-1652a8c857ec"},"vehicle_type_id":"4","last_reported":1784349454,"current_range_meters":32400,"station_id":"ce4bh2p2rcd13ifvqdi0","pricing_plan_id":"cebpf4jnsgd1na2vs0mg"},{"bike_id":"467c84a0-a931-4fe2-b367-4f9cccd228e4","system_id":"levelo_inurba_marseille","lat":43.31053,"lon":5.37181,"is_reserved":false,"is_disabled":false,"rental_uris":{"android":"levelo://app?vid=467c84a0-a931-4fe2-b367-4f9cccd228e4","ios":"levelo://app?vid=467c84a0-a931-4fe2-b367-4f9cccd228e4"},"vehicle_type_id":"4","last_reported":1784349454,"current_range_meters":10800,"station_id":"st_d4kl2rp97mjs73e7tdfg","pricing_plan_id":"cebpf4jnsgd1na2vs0mg"},{"bike_id":"8f802f89-20fc-4026-a935-70bba7dee582","system_id":"levelo_inurba_marseille","lat":43.27915,"lon":5.37998,"is_reserved":false,"is_disabled":false,"rental_uris":{"android":"levelo://app?vid=8f802f89-20fc-4026-a935-70bba7dee582","ios":"levelo://app?vid=8f802f89-20fc-4026-a935-70bba7dee582"},"vehicle_type_id":"4","last_reported":1784349454,"current_range_meters":37600,"station_id":"ce4bhf92rcd13ifvqf50","pricing_plan_id":"cebpf4jnsgd1na2vs0mg"},{"bike_id":"e35b3037-ccf2-48a7-b6f2-14a77143bba4","system_id":"levelo_inurba_marseille","lat":43.32348,"lon":5.36752,"is_reserved":false,"is_disabled":false,"rental_uris":{"android":"levelo://app?vid=e35b3037-ccf2-48a7-b6f2-14a77143bba4","ios":"levelo://app?vid=e35b3037-ccf2-48a7-b6f2-14a77143bba4"},"vehicle_type_id":"4","last_reported":1784349454,"current_range_meters":32000,"station_id":"ce4bhsh2rcd13ifvqi2g","pricing_plan_id":"cebpf4jnsgd1na2vs0mg"},{"bike_id":"0cc9064c-9e67-4dd7-b11e-84260d626c23","system_id":"levelo_inurba_marseille","lat":43.29891,"lon":5.38129,"is_reserved":false,"is_disabled":true,"rental_uris":{"android":"levelo://app?vid=0cc9064c-9e67-4dd7-b11e-84260d626c23","ios":"levelo://app?vid=0cc9064c-9e67-4dd7-b11e-84260d626c23"},"vehicle_type_id":"4","last_reported":1784349454,"current_range_meters":28800,"station_id":"ce4bgj12rcd13ifvqbc0","pricing_plan_id":"cebpf4jnsgd1na2vs0mg"},{"bike_id":"27e47b1c-c6c8-4c7a-9057-a30a031a40ae","system_id":"levelo_inurba_marseille","lat":43.2846,"lon":5.35035,"is_reserved":false,"is_disabled":true,"rental_uris":{"android":"levelo://app?vid=27e47b1c-c6c8-4c7a-9057-a30a031a40ae","ios":"levelo://app?vid=27e47b1c-c6c8-4c7a-9057-a30a031a40ae"},"vehicle_type_id":"4","last_reported":1784349454,"current_range_meters":29600,"station_id":"","pricing_plan_id":"cebpf4jnsgd1na2vs0mg"},{"bike_id":"f26adf20-1d58-4645-be81-07495dcc86d4","system_id":"levelo_inurba_marseille","lat":43.30929,"lon":5.4015,"is_reserved":false,"is_disabled":false,"rental_uris":{"android":"levelo://app?vid=f26adf20-1d58-4645-be81-07495dcc86d4","ios":"levelo://app?vid=f26adf20-1d58-4645-be81-07495dcc86d4"},"vehicle_type_id":"4","last_reported":1784349454,"current_range_meters":38800,"station_id":"ce4bgvp2rcd13ifvqct0","pricing_plan_id":"cebpf4jnsgd1na2vs0mg"},{"bike_id":"66dbf5da-844a-4b59-b35d-2f9fd62b6cf6","system_id":"levelo_inurba_marseille","lat":43.29028,"lon":5.39962,"is_reserved":false,"is_disabled":false,"rental_uris":{"android":"levelo://app?vid=66dbf5da-844a-4b59-b35d-2f9fd62b6cf6","ios":"levelo://app?vid=66dbf5da-844a-4b59-b35d-2f9fd62b6cf6"},"vehicle_type_id":"4","last_reported":1784349454,"current_range_meters":8400,"station_id":"ce4bh392rcd13ifvqdm0","pricing_plan_id":"cebpf4jnsgd1na2vs0mg"},{"bike_id":"f23925bf-ec71-444f-9b1c-6a79e8650d38","system_id":"levelo_inurba_marseille","lat":43.29654,"lon":5.37947,"is_reserved":false,"is_disabled":true,"rental_uris":{"android":"levelo://app?vid=f23925bf-ec71-444f-9b1c-6a79e8650d38","ios":"levelo://app?vid=f23925bf-ec71-444f-9b1c-6a79e8650d38"},"vehicle_type_id":"4","last_reported":1784349454,"current_range_meters":0,"station_id":"","pricing_plan_id":"cebpf4jnsgd1na2vs0mg"},{"bike_id":"8d7dd1b7-7ac4-46c7-ab66-c0ffbc764835","system_id":"levelo_inurba_marseille","lat":43.28454,"lon":5.38409,"is_reserved":false,"is_disabled":false,"rental_uris":{"android":"levelo://app?vid=8d7dd1b7-7ac4-46c7-ab66-c0ffbc764835","ios":"levelo://app?vid=8d7dd1b7-7ac4-46c7-ab66-c0ffbc764835"},"vehicle_type_id":"4","last_reported":1784349454,"current_range_meters":38800,"station_id":"ce4bh512rcd13ifvqe3g","pricing_plan_id":"cebpf4jnsgd1na2vs0mg"},{"bike_id":"038ba6ad-ae94-43c5-ba94-74aa13820c26","system_id":"levelo_inurba_marseille","lat":43.29627,"lon":5.40638,"is_reserved":false,"is_disabled":false,"rental_uris":{"android":"levelo://app?vid=038ba6ad-ae94-43c5-ba94-74aa13820c26","ios":"levelo://app?vid=038ba6ad-ae94-43c5-ba94-74aa13820c26"},"vehicle_type_id":"4","last_reported":1784349454,"current_range_meters":38000,"station_id":"ce4bh0h2rcd13ifvqd60","pricing_plan_id":"cebpf4jnsgd1na2vs0mg"},{"bike_id":"c09cd70c-1a3e-40c2-9bb7-9530cdff9eee","system_id":"levelo_inurba_marseille","lat":43.27317,"lon":5.391,"is_reserved":false,"is_disabled":false,"rental_uris":{"android":"levelo://app?vid=c09cd70c-1a3e-40c2-9bb7-9530cdff9eee","ios":"levelo://app?vid=c09cd70c-1a3e-40c2-9bb7-9530cdff9eee"},"vehicle_type_id":"4","last_reported":1784349454,"current_range_meters":34000,"station_id":"ce4bhgp2rcd13ifvqfe0","pricing_plan_id":"cebpf4jnsgd1na2vs0mg"},{"bike_id":"202f9ad0-42a8-41b4-9ba7-c7ec0280e620","system_id":"levelo_inurba_marseille","lat":43.23192,"lon":5.3555,"is_reserved":false,"is_disabled":false,"rental_uris":{"android":"levelo://app?vid=202f9ad0-42a8-41b4-9ba7-c7ec0280e620","ios":"levelo://app?vid=202f9ad0-42a8-41b4-9ba7-c7ec0280e620"},"vehicle_type_id":"4","last_reported":1784349454,"current_range_meters":36800,"station_id":"ce4bhu92rcd13ifvqi70","pricing_plan_id":"cebpf4jnsgd1na2vs0mg"},{"bike_id":"2018fd7c-5576-4b9a-8ae4-66bc8431aaf4","system_id":"levelo_inurba_marseille","lat":43.29194,"lon":5.39338,"is_reserved":false,"is_disabled":false,"rental_uris":{"android":"levelo://app?vid=2018fd7c-5576-4b9a-8ae4-66bc8431aaf4","ios":"levelo://app?vid=2018fd7c-5576-4b9a-8ae4-66bc8431aaf4"},"vehicle_type_id":"4","last_reported":1784349454,"current_range_meters":36400,"station_id":"ce4bh192rcd13ifvqdd0","pricing_plan_id":"cebpf4jnsgd1na2vs0mg"},{"bike_id":"94f28e20-a900-4560-96e3-aa893265d589","system_id":"levelo_inurba_marseille","lat":43.291,"lon":5.39683,"is_reserved":false,"is_disabled":false,"rental_uris":{"android":"levelo://app?vid=94f28e20-a900-4560-96e3-aa893265d589","ios":"levelo://app?vid=94f28e20-a900-4560-96e3-aa893265d589"},"vehicle_type_id":"4","last_reported":1784349454,"current_range_meters":38000,"station_id":"","pricing_plan_id":"cebpf4jnsgd1na2vs0mg"},{"bike_id":"f3955824-bc9b-40e3-bb4b-91c4e41aa833","system_id":"levelo_inurba_marseille","lat":43.30138,"lon":5.37383,"is_reserved":false,"is_disabled":true,"rental_uris":{"android":"levelo://app?vid=f3955824-bc9b-40e3-bb4b-91c4e41aa833","ios":"levelo://app?vid=f3955824-bc9b-40e3-bb4b-91c4e41aa833"},"vehicle_type_id":"4","last_reported":1784349454,"current_range_meters":12800,"station_id":"ce4bgs92rcd13ifvqcc0","pricing_plan_id":"cebpf4jnsgd1na2vs0mg"},{"bike_id":"cdd49471-5c7c-45b8-bf03-7bd4b75e9ef8","system_id":"levelo_inurba_marseille","lat":43.28487,"lon":5.38554,"is_reserved":false,"is_disabled":false,"rental_uris":{"android":"levelo://app?vid=cdd49471-5c7c-45b8-bf03-7bd4b75e9ef8","ios":"levelo://app?vid=cdd49471-5c7c-45b8-bf03-7bd4b75e9ef8"},"vehicle_type_id":"4","last_reported":1784349454,"current_range_meters":35200,"station_id":"ce4bh8p2rcd13ifvqeb0","pricing_plan_id":"cebpf4jnsgd1na2vs0mg"},{"bike_id":"2fd3fd2a-5afd-41dc-a0e5-4abd957555d4","system_id":"levelo_inurba_marseille","lat":43.26706,"lon":5.38273,"is_reserved":false,"is_disabled":false,"rental_uris":{"android":"levelo://app?vid=2fd3fd2a-5afd-41dc-a0e5-4abd957555d4","ios":"levelo://app?vid=2fd3fd2a-5afd-41dc-a0e5-4abd957555d4"},"vehicle_type_id":"4","last_reported":1784349454,"current_range_meters":17600,"station_id":"ce4bhg92rcd13ifvqf90","pricing_plan_id":"cebpf4jnsgd1na2vs0mg"},{"bike_id":"8b6331b3-2914-4282-8a4c-45cca24291f2","system_id":"levelo_inurba_marseille","lat":43.30919,"lon":5.40134,"is_reserved":false,"is_disabled":false,"rental_uris":{"android":"levelo://app?vid=8b6331b3-2914-4282-8a4c-45cca24291f2","ios":"levelo://app?vid=8b6331b3-2914-4282-8a4c-45cca24291f2"},"vehicle_type_id":"4","last_reported":1784349454,"current_range_meters":26800,"station_id":"ce4bgvp2rcd13ifvqct0","pricing_plan_id":"cebpf4jnsgd1na2vs0mg"},{"bike_id":"e342b9f1-a6f4-474a-88a4-70e56cc058cc","system_id":"levelo_inurba_marseille","lat":43.31889,"lon":5.36817,"is_reserved":false,"is_disabled":false,"rental_uris":{"android":"levelo://app?vid=e342b9f1-a6f4-474a-88a4-70e56cc058cc","ios":"levelo://app?vid=e342b9f1-a6f4-474a-88a4-70e56cc058cc"},"vehicle_type_id":"4","last_reported":1784349454,"current_range_meters":39200,"station_id":"st_d6o2h0d0559c73evc1b0","pricing_plan_id":"cebpf4jnsgd1na2vs0mg"},{"bike_id":"a287babe-2875-4e47-a1fc-a71e0666296b","system_id":"levelo_inurba_marseille","lat":43.260263,"lon":5.375491,"is_reserved":false,"is_disabled":false,"rental_uris":{"android":"levelo://app?vid=a287babe-2875-4e47-a1fc-a71e0666296b","ios":"levelo://app?vid=a287babe-2875-4e47-a1fc-a71e0666296b"},"vehicle_type_id":"4","last_reported":1784349454,"current_range_meters":27200,"station_id":"ce4bh392rcd13ifvqdm0","pricing_plan_id":"cebpf4jnsgd1na2vs0mg"},{"bike_id":"655c67cd-9224-4fb1-87bb-8a0a431976ea","system_id":"levelo_inurba_marseille","lat":43.28709,"lon":5.39981,"is_reserved":false,"is_disabled":false,"rental_uris":{"android":"levelo://app?vid=655c67cd-9224-4fb1-87bb-8a0a431976ea","ios":"levelo://app?vid=655c67cd-9224-4fb1-87bb-8a0a431976ea"},"vehicle_type_id":"4","last_reported":1784349454,"current_range_meters":26800,"station_id":"ce4bho92rcd13ifvqh3g","pricing_plan_id":"cebpf4jnsgd1na2vs0mg"},{"bike_id":"0d3e100f-48fe-47e1-bef7-0a1dcfcc4955","system_id":"levelo_inurba_marseille","lat":43.33712,"lon":5.39198,"is_reserved":false,"is_disabled":false,"rental_uris":{"android":"levelo://app?vid=0d3e100f-48fe-47e1-bef7-0a1dcfcc4955","ios":"levelo://app?vid=0d3e100f-48fe-47e1-bef7-0a1dcfcc4955"},"vehicle_type_id":"4","last_reported":1784349454,"current_range_meters":39200,"station_id":"ce4bhr92rcd13ifvqhsg","pricing_plan_id":"cebpf4jnsgd1na2vs0mg"},{"bike_id":"f994dddc-9194-4b4c-a02e-45b8c9c31ce1","system_id":"levelo_inurba_marseille","lat":43.29591,"lon":5.37104,"is_reserved":false,"is_disabled":false,"rental_uris":{"android":"levelo://app?vid=f994dddc-9194-4b4c-a02e-45b8c9c31ce1","ios":"levelo://app?vid=f994dddc-9194-4b4c-a02e-45b8c9c31ce1"},"vehicle_type_id":"4","last_reported":1784349454,"current_range_meters":26800,"station_id":"","pricing_plan_id":"cebpf4jnsgd1na2vs0mg"},{"bike_id":"ddbfbc6e-9ea5-4164-b0a2-7cc31ec7c025","system_id":"levelo_inurba_marseille","lat":43.32098,"lon":5.36776,"is_reserved":false,"is_disabled":false,"rental_uris":{"android":"levelo://app?vid=ddbfbc6e-9ea5-4164-b0a2-7cc31ec7c025","ios":"levelo://app?vid=ddbfbc6e-9ea5-4164-b0a2-7cc31ec7c025"},"vehicle_type_id":"4","last_reported":1784349454,"current_range_meters":16800,"station_id":"ce4bhrh2rcd13ifvqhug","pricing_plan_id":"cebpf4jnsgd1na2vs0mg"},{"bike_id":"8ed2e4fb-a45b-441a-9b5c-0fc1bfce1ef6","system_id":"levelo_inurba_marseille","lat":43.3093,"lon":5.40157,"is_reserved":false,"is_disabled":false,"rental_uris":{"android":"levelo://app?vid=8ed2e4fb-a45b-441a-9b5c-0fc1bfce1ef6","ios":"levelo://app?vid=8ed2e4fb-a45b-441a-9b5c-0fc1bfce1ef6"},"vehicle_type_id":"4","last_reported":1784349454,"current_range_meters":10000,"station_id":"ce4bgvp2rcd13ifvqct0","pricing_plan_id":"cebpf4jnsgd1na2vs0mg"},{"bike_id":"51840369-5c7d-48ad-8871-b2c5c823b735","system_id":"levelo_inurba_marseille","lat":43.29565,"lon":5.39978,"is_reserved":false,"is_disabled":false,"rental_uris":{"android":"levelo://app?vid=51840369-5c7d-48ad-8871-b2c5c823b735","ios":"levelo://app?vid=51840369-5c7d-48ad-8871-b2c5c823b735"},"vehicle_type_id":"4","last_reported":1784349454,"current_range_meters":35600,"station_id":"ce4bh312rcd13ifvqdj0","pricing_plan_id":"cebpf4jnsgd1na2vs0mg"},{"bike_id":"92b62e92-a3b5-4d5e-aa5b-d9dc426c7871","system_id":"levelo_inurba_marseille","lat":43.3111,"lon":5.38629,"is_reserved":false,"is_disabled":true,"rental_uris":{"android":"levelo://app?vid=92b62e92-a3b5-4d5e-aa5b-d9dc426c7871","ios":"levelo://app?vid=92b62e92-a3b5-4d5e-aa5b-d9dc426c7871"},"vehicle_type_id":"4","last_reported":1784349454,"current_range_meters":0,"station_id":"","pricing_plan_id":"cebpf4jnsgd1na2vs0mg"},{"bike_id":"82023b68-46df-41b5-9d8b-ec4c67021220","system_id":"levelo_inurba_marseille","lat":43.30236,"lon":5.40048,"is_reserved":false,"is_disabled":true,"rental_uris":{"android":"levelo://app?vid=82023b68-46df-41b5-9d8b-ec4c67021220","ios":"levelo://app?vid=82023b68-46df-41b5-9d8b-ec4c67021220"},"vehicle_type_id":"4","last_reported":1784349454,"current_range_meters":33200,"station_id":"ce4bgvh2rcd13ifvqcs0","pricing_plan_id":"cebpf4jnsgd1na2vs0mg"},{"bike_id":"40b890d3-4ad7-4f75-bd5d-f9ffcd081dea","system_id":"levelo_inurba_marseille","lat":43.29903,"lon":5.3974,"is_reserved":false,"is_disabled":false,"rental_uris":{"android":"levelo://app?vid=40b890d3-4ad7-4f75-bd5d-f9ffcd081dea","ios":"levelo://app?vid=40b890d3-4ad7-4f75-bd5d-f9ffcd081dea"},"vehicle_type_id":"4","last_reported":1784349454,"current_range_meters":35600,"station_id":"ce4bh0h2rcd13ifvqd50","pricing_plan_id":"cebpf4jnsgd1na2vs0mg"},{"bike_id":"9add7d9b-214a-40dc-a324-5a0e81d35b67","system_id":"levelo_inurba_marseille","lat":43.26566,"lon":5.40323,"is_reserved":false,"is_disabled":true,"rental_uris":{"android":"levelo://app?vid=9add7d9b-214a-40dc-a324-5a0e81d35b67","ios":"levelo://app?vid=9add7d9b-214a-40dc-a324-5a0e81d35b67"},"vehicle_type_id":"4","last_reported":1784349454,"current_range_meters":15200,"station_id":"ce4bhmp2rcd13ifvqgng","pricing_plan_id":"cebpf4jnsgd1na2vs0mg"},{"bike_id":"9a4c1917-12d5-4fd0-beb9-9df30b58299b","system_id":"levelo_inurba_marseille","lat":43.23199,"lon":5.35542,"is_reserved":false,"is_disabled":false,"rental_uris":{"android":"levelo://app?vid=9a4c1917-12d5-4fd0-beb9-9df30b58299b","ios":"levelo://app?vid=9a4c1917-12d5-4fd0-beb9-9df30b58299b"},"vehicle_type_id":"4","last_reported":1784349454,"current_range_meters":39200,"station_id":"ce4bhu92rcd13ifvqi70","pricing_plan_id":"cebpf4jnsgd1na2vs0mg"},{"bike_id":"91f0e4ce-79d8-4655-828a-63e54a2d5488","system_id":"levelo_inurba_marseille","lat":43.24797,"lon":5.37464,"is_reserved":false,"is_disabled":false,"rental_uris":{"android":"levelo://app?vid=91f0e4ce-79d8-4655-828a-63e54a2d5488","ios":"levelo://app?vid=91f0e4ce-79d8-4655-828a-63e54a2d5488"},"vehicle_type_id":"4","last_reported":1784349454,"current_range_meters":6800,"station_id":"ce4bhgh2rcd13ifvqfb0","pricing_plan_id":"cebpf4jnsgd1na2vs0mg"},{"bike_id":"df95ea22-493c-4c02-a660-abef0b02c4a6","system_id":"levelo_inurba_marseille","lat":43.29981,"lon":5.38516,"is_reserved":false,"is_disabled":false,"rental_uris":{"android":"levelo://app?vid=df95ea22-493c-4c02-a660-abef0b02c4a6","ios":"levelo://app?vid=df95ea22-493c-4c02-a660-abef0b02c4a6"},"vehicle_type_id":"4","last_reported":1784349454,"current_range_meters":13600,"station_id":"ce4bgj92rcd13ifvqbd0","pricing_plan_id":"cebpf4jnsgd1na2vs0mg"},{"bike_id":"08e37548-b939-4c95-ad3e-38d80489c90b","system_id":"levelo_inurba_marseille","lat":43.2166,"lon":5.34356,"is_reserved":false,"is_disabled":false,"rental_uris":{"android":"levelo://app?vid=08e37548-b939-4c95-ad3e-38d80489c90b","ios":"levelo://app?vid=08e37548-b939-4c95-ad3e-38d80489c90b"},"vehicle_type_id":"4","last_reported":1784349454,"current_range_meters":4800,"station_id":"","pricing_plan_id":"cebpf4jnsgd1na2vs0mg"},{"bike_id":"621af7f6-5d65-46d5-a30a-07f2c46a9214","system_id":"levelo_inurba_marseille","lat":43.29609,"lon":5.3773,"is_reserved":false,"is_disabled":false,"rental_uris":{"android":"levelo://app?vid=621af7f6-5d65-46d5-a30a-07f2c46a9214","ios":"levelo://app?vid=621af7f6-5d65-46d5-a30a-07f2c46a9214"},"vehicle_type_id":"4","last_reported":1784349454,"current_range_meters":38400,"station_id":"ce4bgi92rcd13ifvqb90","pricing_plan_id":"cebpf4jnsgd1na2vs0mg"},{"bike_id":"98bce0f5-25e4-4db3-b698-d3dcf6d7b213","system_id":"levelo_inurba_marseille","lat":43.24807,"lon":5.3743,"is_reserved":false,"is_disabled":false,"rental_uris":{"android":"levelo://app?vid=98bce0f5-25e4-4db3-b698-d3dcf6d7b213","ios":"levelo://app?vid=98bce0f5-25e4-4db3-b698-d3dcf6d7b213"},"vehicle_type_id":"4","last_reported":1784349454,"current_range_meters":27200,"station_id":"ce4bhgh2rcd13ifvqfb0","pricing_plan_id":"cebpf4jnsgd1na2vs0mg"},{"bike_id":"55df9da5-b8dd-4dc8-b3a1-119b3bc492ed","system_id":"levelo_inurba_marseille","lat":43.269287,"lon":5.389251,"is_reserved":false,"is_disabled":false,"rental_uris":{"android":"levelo://app?vid=55df9da5-b8dd-4dc8-b3a1-119b3bc492ed","ios":"levelo://app?vid=55df9da5-b8dd-4dc8-b3a1-119b3bc492ed"},"vehicle_type_id":"4","last_reported":1784349454,"current_range_meters":26800,"station_id":"ce4bhhh2rcd13ifvqfl0","pricing_plan_id":"cebpf4jnsgd1na2vs0mg"},{"bike_id":"55849822-decc-4368-94f8-64bf7493b33c","system_id":"levelo_inurba_marseille","lat":43.2903,"lon":5.38149,"is_reserved":false,"is_disabled":false,"rental_uris":{"android":"levelo://app?vid=55849822-decc-4368-94f8-64bf7493b33c","ios":"levelo://app?vid=55849822-decc-4368-94f8-64bf7493b33c"},"vehicle_type_id":"4","last_reported":1784349454,"current_range_meters":39200,"station_id":"ce4bh4p2rcd13ifvqe1g","pricing_plan_id":"cebpf4jnsgd1na2vs0mg"},{"bike_id":"5d6e5baf-9df3-4a28-8e39-fe987d8b2df7","system_id":"levelo_inurba_marseille","lat":43.26956,"lon":5.38624,"is_reserved":false,"is_disabled":false,"rental_uris":{"android":"levelo://app?vid=5d6e5baf-9df3-4a28-8e39-fe987d8b2df7","ios":"levelo://app?vid=5d6e5baf-9df3-4a28-8e39-fe987d8b2df7"},"vehicle_type_id":"4","last_reported":1784349454,"current_range_meters":17600,"station_id":"ce4bhh92rcd13ifvqfh0","pricing_plan_id":"cebpf4jnsgd1na2vs0mg"},