{"last_updated":1683403564,"ttl":30,"version":"2.2","data":{"bikes":[{"bike_id":"71a3dbcc-c74d-4bae-9fea-667d6a8a562a","system_id":"levelo_inurba_marseille","lat":43.312239,"lon":5.368562,"is_reserved":false,"is_disabled":false,"rental_uris":{"android":"levelo://app?vid=71a3dbcc-c74d-4bae-9fea-667d6a8a562a","ios":"levelo://app?vid=71a3dbcc-c74d-4bae-9fea-667d6a8a562a"},"vehicle_type_id":"4","last_reported":1683403564,"current_range_meters":24400,"station_id":"ce4bgl92rcd13ifvqbq0","pricing_plan_id":"free"},{"bike_id":"e897e996-0009-4717-806b-eee0b9e43e56","system_id":"levelo_inurba_marseille","lat":43.312239,"lon":5.368562,"is_reserved":false,"is_disabled":false,"rental_uris":{"android":"levelo://app?vid=e897e996-0009-4717-806b-eee0b9e43e56","ios":"levelo://app?vid=e897e996-0009-4717-806b-eee0b9e43e56"},"vehicle_type_id":"4","last_reported":1683403564,"current_range_meters":6400,"station_id":"ce4bgl92rcd13ifvqbq0","pricing_plan_id":"free"},{"bike_id":"17cf358b-fd9d-48ff-b472-fd772803b377","system_id":"levelo_inurba_marseille","lat":43.312239,"lon":5.368562,"is_reserved":false,"is_disabled":false,"rental_uris":{"android":"levelo://app?vid=17cf358b-fd9d-48ff-b472-fd772803b377","ios":"levelo://app?vid=17cf358b-fd9d-48ff-b472-fd772803b377"},"vehicle_type_id":"4","last_reported":1683403564,"current_range_meters":5600,"station_id":"ce4bgl92rcd13ifvqbq0","pricing_plan_id":"free"},{"bike_id":"7f91af93-875b-43a6-8e39-c43573e763a6","system_id":"levelo_inurba_marseille","lat":43.312239,"lon":5.368562,"is_reserved":false,"is_disabled":false,"rental_uris":{"android":"levelo://app?vid=7f91af93-875b-43a6-8e39-c43573e763a6","ios":"levelo://app?vid=7f91af93-875b-43a6-8e39-c43573e763a6"},"vehicle_type_id":"4","last_reported":1683403564,"current_range_meters":8800,"station_id":"ce4bgl92rcd13ifvqbq0","pricing_plan_id":"free"},{"bike_id":"e1ff7e92-7524-42e4-8e6f-bcacb953ed7d","system_id":"levelo_inurba_marseille","lat":43.309076,"lon":5.368465,"is_reserved":false,"is_disabled":false,"rental_uris":{"android":"levelo://app?vid=e1ff7e92-7524-42e4-8e6f-bcacb953ed7d","ios":"levelo://app?vid=e1ff7e92-7524-42e4-8e6f-bcacb953ed7d"},"vehicle_type_id":"4","last_reported":1683403564,"current_range_meters":2400,"station_id":"ce4bgn92rcd13ifvqbvg","pricing_plan_id":"free"},{"bike_id":"bfbadf53-5575-4ada-a8fc-11e19d1d4aa6","system_id":"levelo_inurba_marseille","lat":43.314811,"lon":5.373103,"is_reserved":false,"is_disabled":false,"rental_uris":{"android":"levelo://app?vid=bfbadf53-5575-4ada-a8fc-11e19d1d4aa6","ios":"levelo://app?vid=bfbadf53-5575-4ada-a8fc-11e19d1d4aa6"},"vehicle_type_id":"4","last_reported":1683403564,"current_range_meters":20000,"station_id":"ce4bgt12rcd13ifvqcd0","pricing_plan_id":"free"},{"bike_id":"48cf4165-f34a-4e7d-b586-be5a4e78045c","system_id":"levelo_inurba_marseille","lat":43.314811,"lon":5.373104,"is_reserved":false,"is_disabled":false,"rental_uris":{"android":"levelo://app?vid=48cf4165-f34a-4e7d-b586-be5a4e78045c","ios":"levelo://app?vid=48cf4165-f34a-4e7d-b586-be5a4e78045c"},"vehicle_type_id":"4","last_reported":1683403564,"current_range_meters":24000,"station_id":"ce4bgt12rcd13ifvqcd0","pricing_plan_id":"free"},{"bike_id":"e2fcb704-ada2-4412-9b0c-e997cf5b6de8","system_id":"levelo_inurba_marseille","lat":43.308614,"lon":5.372098,"is_reserved":false,"is_disabled":false,"rental_uris":{"android":"levelo://app?vid=e2fcb704-ada2-4412-9b0c-e997cf5b6de8","ios":"levelo://app?vid=e2fcb704-ada2-4412-9b0c-e997cf5b6de8"},"vehicle_type_id":"4","last_reported":1683403564,"current_range_meters":8000,"station_id":"ce4bguh2rcd13ifvqckg","pricing_plan_id":"free"},{"bike_id":"3f47ddb7-dcbd-4250-a9e0-0145d40cf4fc","system_id":"levelo_inurba_marseille","lat":43.308614,"lon":5.372098,"is_reserved":false,"is_disabled":false,"rental_uris":{"android":"levelo://app?vid=3f47ddb7-dcbd-4250-a9e0-0145d40cf4fc","ios":"levelo://app?vid=3f47ddb7-dcbd-4250-a9e0-0145d40cf4fc"},"vehicle_type_id":"4","last_reported":1683403564,"current_range_meters":10000,"station_id":"ce4bguh2rcd13ifvqckg","pricing_plan_id":"free"},{"bike_id":"9d2f9dd7-c5fb-4082-8777-fed2c55006a7","system_id":"levelo_inurba_marseille","lat":43.308614,"lon":5.372098,"is_reserved":false,"is_disabled":false,"rental_uris":{"android":"levelo://app?vid=9d2f9dd7-c5fb-4082-8777-fed2c55006a7","ios":"levelo://app?vid=9d2f9dd7-c5fb-4082-8777-fed2c55006a7"},"vehicle_type_id":"4","last_reported":1683403564,"current_range_meters":400,"station_id":"ce4bguh2rcd13ifvqckg","pricing_plan_id":"free"},{"bike_id":"87e7f469-73d8-4147-b978-780999276f88","system_id":"levelo_inurba_marseille","lat":43.308614,"lon":5.372098,"is_reserved":false,"is_disabled":false,"rental_uris":{"android":"levelo://app?vid=87e7f469-73d8-4147-b978-780999276f88","ios":"levelo://app?vid=87e7f469-73d8-4147-b978-780999276f88"},"vehicle_type_id":"4","last_reported":1683403564,"current_range_meters":29600,"station_id":"ce4bguh2rcd13ifvqckg","pricing_plan_id":"free"},{"bike_id":"8eb86c4d-e0c7-4281-8428-6b158ae722ba","system_id":"levelo_inurba_marseille","lat":43.31927,"lon":5.36752,"is_reserved":false,"is_disabled":false,"rental_uris":{"android":"levelo://app?vid=8eb86c4d-e0c7-4281-8428-6b158ae722ba","ios":"levelo://app?vid=8eb86c4d-e0c7-4281-8428-6b158ae722ba"},"vehicle_type_id":"4","last_reported":1683403564,"current_range_meters":13600,"station_id":"","pricing_plan_id":"free"},{"bike_id":"caea2489-5a5d-4f00-8e78-8c319f8ed68e","system_id":"levelo_inurba_marseille","lat":43.3057,"lon":5.36553,"is_reserved":false,"is_disabled":false,"rental_uris":{"android":"levelo://app?vid=caea2489-5a5d-4f00-8e78-8c319f8ed68e","ios":"levelo://app?vid=caea2489-5a5d-4f00-8e78-8c319f8ed68e"},"vehicle_type_id":"4","last_reported":1683403564,"current_range_meters":5200,"station_id":"","pricing_plan_id":"free"},{"bike_id":"8b715b67-a2db-4d42-ab33-05415e5cf4a0","system_id":"levelo_inurba_marseille","lat":43.305706,"lon":5.365654,"is_reserved":false,"is_disabled":false,"rental_uris":{"android":"levelo://app?vid=8b715b67-a2db-4d42-ab33-05415e5cf4a0","ios":"levelo://app?vid=8b715b67-a2db-4d42-ab33-05415e5cf4a0"},"vehicle_type_id":"4","last_reported":1683403564,"current_range_meters":2800,"station_id":"ce4bgs12rcd13ifvqcag","pricing_plan_id":"free"},{"bike_id":"d9dfff46-d0d2-4881-9aa8-5914793ea0ba","system_id":"levelo_inurba_marseille","lat":43.30545,"lon":5.36717,"is_reserved":false,"is_disabled":false,"rental_uris":{"android":"levelo://app?vid=d9dfff46-d0d2-4881-9aa8-5914793ea0ba","ios":"levelo://app?vid=d9dfff46-d0d2-4881-9aa8-5914793ea0ba"},"vehicle_type_id":"4","last_reported":1683403564,"current_range_meters":14000,"station_id":"ce4bgrp2rcd13ifvqc9g","pricing_plan_id":"free"},{"bike_id":"d70450ed-7f88-4446-881f-818cf3159ec3","system_id":"levelo_inurba_marseille","lat":43.305706,"lon":5.365654,"is_reserved":false,"is_disabled":false,"rental_uris":{"android":"levelo://app?vid=d70450ed-7f88-4446-881f-818cf3159ec3","ios":"levelo://app?vid=d70450ed-7f88-4446-881f-818cf3159ec3"},"vehicle_type_id":"4","last_reported":1683403564,"current_range_meters":0,"station_id":"ce4bgs12rcd13ifvqcag","pricing_plan_id":"free"},{"bike_id":"6314d6fb-ed80-40e3-9b39-31d4d31e9c5c","system_id":"levelo_inurba_marseille","lat":43.305706,"lon":5.365654,"is_reserved":false,"is_disabled":false,"rental_uris":{"android":"levelo://app?vid=6314d6fb-ed80-40e3-9b39-31d4d31e9c5c","ios":"levelo://app?vid=6314d6fb-ed80-40e3-9b39-31d4d31e9c5c"},"vehicle_type_id":"4","last_reported":1683403564,"current_range_meters":2400,"station_id":"ce4bgs12rcd13ifvqcag","pricing_plan_id":"free"},{"bike_id":"692d6c67-f71a-4d21-b15f-e5cb89228b9d","system_id":"levelo_inurba_marseille","lat":43.30543,"lon":5.36711,"is_reserved":false,"is_disabled":false,"rental_uris":{"android":"levelo://app?vid=692d6c67-f71a-4d21-b15f-e5cb89228b9d","ios":"levelo://app?vid=692d6c67-f71a-4d21-b15f-e5cb89228b9d"},"vehicle_type_id":"4","last_reported":1683403564,"current_range_meters":12800,"station_id":"ce4bgrp2rcd13ifvqc9g","pricing_plan_id":"free"},{"bike_id":"9f28b69f-0a12-46b7-a5b0-d52b07509996","system_id":"levelo_inurba_marseille","lat":43.305706,"lon":5.365654,"is_reserved":false,"is_disabled":false,"rental_uris":{"android":"levelo://app?vid=9f28b69f-0a12-46b7-a5b0-d52b07509996","ios":"levelo://app?vid=9f28b69f-0a12-46b7-a5b0-d52b07509996"},"vehicle_type_id":"4","last_reported":1683403564,"current_range_meters":2400,"station_id":"ce4bgs12rcd13ifvqcag","pricing_plan_id":"free"},{"bike_id":"345f3533-31ca-456c-9e65-14687ec66f75","system_id":"levelo_inurba_marseille","lat":43.305706,"lon":5.365654,"is_reserved":false,"is_disabled":false,"rental_uris":{"android":"levelo://app?vid=345f3533-31ca-456c-9e65-14687ec66f75","ios":"levelo://app?vid=345f3533-31ca-456c-9e65-14687ec66f75"},"vehicle_type_id":"4","last_reported":1683403564,"current_range_meters":8400,"station_id":"ce4bgs12rcd13ifvqcag","pricing_plan_id":"free"},{"bike_id":"9eaa0251-dce6-4da8-9bec-faabd323f8c1","system_id":"levelo_inurba_marseille","lat":43.305706,"lon":5.365654,"is_reserved":false,"is_disabled":false,"rental_uris":{"android":"levelo://app?vid=9eaa0251-dce6-4da8-9bec-faabd323f8c1","ios":"levelo://app?vid=9eaa0251-dce6-4da8-9bec-faabd323f8c1"},"vehicle_type_id":"4","last_reported":1683403564,"current_range_meters":27200,"station_id":"ce4bgs12rcd13ifvqcag","pricing_plan_id":"free"},{"bike_id":"dc32f0cd-d0da-41cb-8639-1eb1b786e349","system_id":"levelo_inurba_marseille","lat":43.305989,"lon":5.37225,"is_reserved":false,"is_disabled":false,"rental_uris":{"android":"levelo://app?vid=dc32f0cd-d0da-41cb-8639-1eb1b786e349","ios":"levelo://app?vid=dc32f0cd-d0da-41cb-8639-1eb1b786e349"},"vehicle_type_id":"4","last_reported":1683403564,"current_range_meters":18800,"station_id":"ce4bgqh2rcd13ifvqc4g","pricing_plan_id":"free"},{"bike_id":"aee53de9-b201-475e-bd14-a477eac2299a","system_id":"levelo_inurba_marseille","lat":43.305989,"lon":5.37225,"is_reserved":false,"is_disabled":false,"rental_uris":{"android":"levelo://app?vid=aee53de9-b201-475e-bd14-a477eac2299a","ios":"levelo://app?vid=aee53de9-b201-475e-bd14-a477eac2299a"},"vehicle_type_id":"4","last_reported":1683403564,"current_range_meters":17200,"station_id":"ce4bgqh2rcd13ifvqc4g","pricing_plan_id":"free"},{"bike_id":"b4def735-0aed-479d-b8b5-fbf571399417","system_id":"levelo_inurba_marseille","lat":43.311131,"lon":5.377651,"is_reserved":false,"is_disabled":false,"rental_uris":{"android":"levelo://app?vid=b4def735-0aed-479d-b8b5-fbf571399417","ios":"levelo://app?vid=b4def735-0aed-479d-b8b5-fbf571399417"},"vehicle_type_id":"4","last_reported":1683403564,"current_range_meters":16000,"station_id":"ce4bgt92rcd13ifvqcg0","pricing_plan_id":"free"},{"bike_id":"0fcc3bc2-6ba4-4650-bf96-4cf18964f223","system_id":"levelo_inurba_marseille","lat":43.317075,"lon":5.377367,"is_reserved":false,"is_disabled":false,"rental_uris":{"android":"levelo://app?vid=0fcc3bc2-6ba4-4650-bf96-4cf18964f223","ios":"levelo://app?vid=0fcc3bc2-6ba4-4650-bf96-4cf18964f223"},"vehicle_type_id":"4","last_reported":1683403564,"current_range_meters":29600,"station_id":"ce4bgth2rcd13ifvqch0","pricing_plan_id":"free"},{"bike_id":"cca32320-f1b3-4e7a-8edb-fbe3a3aa1905","system_id":"levelo_inurba_marseille","lat":43.30334,"lon":5.36551,"is_reserved":false,"is_disabled":false,"rental_uris":{"android":"levelo://app?vid=cca32320-f1b3-4e7a-8edb-fbe3a3aa1905","ios":"levelo://app?vid=cca32320-f1b3-4e7a-8edb-fbe3a3aa1905"},"vehicle_type_id":"4","last_reported":1683403564,"current_range_meters":400,"station_id":"","pricing_plan_id":"free"},{"bike_id":"de2c45e7-0d3d-4fa1-989d-a597c1fb9a82","system_id":"levelo_inurba_marseille","lat":43.303046,"lon":5.368981,"is_reserved":false,"is_disabled":false,"rental_uris":{"android":"levelo://app?vid=de2c45e7-0d3d-4fa1-989d-a597c1fb9a82","ios":"levelo://app?vid=de2c45e7-0d3d-4fa1-989d-a597c1fb9a82"},"vehicle_type_id":"4","last_reported":1683403564,"current_range_meters":400,"station_id":"ce4bgqh2rcd13ifvqc5g","pricing_plan_id":"free"},{"bike_id":"5a1ebad7-4fa1-40e7-91f8-f01754aa2117","system_id":"levelo_inurba_marseille","lat":43.30316,"lon":5.36456,"is_reserved":false,"is_disabled":false,"rental_uris":{"android":"levelo://app?vid=5a1ebad7-4fa1-40e7-91f8-f01754aa2117","ios":"levelo://app?vid=5a1ebad7-4fa1-40e7-91f8-f01754aa2117"},"vehicle_type_id":"4","last_reported":1683403564,"current_range_meters":5600,"station_id":"","pricing_plan_id":"free"},{"bike_id":"ecee568f-9f9f-41ac-ba3f-6ae8152af57a","system_id":"levelo_inurba_marseille","lat":43.30304,"lon":5.368987,"is_reserved":false,"is_disabled":false,"rental_uris":{"android":"levelo://app?vid=ecee568f-9f9f-41ac-ba3f-6ae8152af57a","ios":"levelo://app?vid=ecee568f-9f9f-41ac-ba3f-6ae8152af57a"},"vehicle_type_id":"4","last_reported":1683403564,"current_range_meters":7600,"station_id":"ce4bgqh2rcd13ifvqc5g","pricing_plan_id":"free"},{"bike_id":"ffde66f5-0ebf-4d4e-ade4-878f81c182e5","system_id":"levelo_inurba_marseille","lat":43.30304,"lon":5.368987,"is_reserved":false,"is_disabled":false,"rental_uris":{"android":"levelo://app?vid=ffde66f5-0ebf-4d4e-ade4-878f81c182e5","ios":"levelo://app?vid=ffde66f5-0ebf-4d4e-ade4-878f81c182e5"},"vehicle_type_id":"4","last_reported":1683403564,"current_range_meters":3600,"station_id":"ce4bgqh2rcd13ifvqc5g","pricing_plan_id":"free"},{"bike_id":"ea8e38c2-2df9-4921-a36f-89d8cb30e24d","system_id":"levelo_inurba_marseille","lat":43.303046,"lon":5.368981,"is_reserved":false,"is_disabled":false,"rental_uris":{"android":"levelo://app?vid=ea8e38c2-2df9-4921-a36f-89d8cb30e24d","ios":"levelo://app?vid=ea8e38c2-2df9-4921-a36f-89d8cb30e24d"},"vehicle_type_id":"4","last_reported":1683403564,"current_range_meters":4400,"station_id":"ce4bgqh2rcd13ifvqc5g","pricing_plan_id":"free"},{"bike_id":"e4b9184e-3b43-4fce-bccb-5a98a0c601b0","system_id":"levelo_inurba_marseille","lat":43.301939,"lon":5.366286,"is_reserved":false,"is_disabled":false,"rental_uris":{"android":"levelo://app?vid=e4b9184e-3b43-4fce-bccb-5a98a0c601b0","ios":"levelo://app?vid=e4b9184e-3b43-4fce-bccb-5a98a0c601b0"},"vehicle_type_id":"4","last_reported":1683403564,"current_range_meters":14400,"station_id":"ce4bgrh2rcd13ifvqc8g","pricing_plan_id":"free"},{"bike_id":"f9d4a628-88ac-453e-9d35-8dc6d0abd2ee","system_id":"levelo_inurba_marseille","lat":43.308012,"lon":5.381511,"is_reserved":false,"is_disabled":false,"rental_uris":{"android":"levelo://app?vid=f9d4a628-88ac-453e-9d35-8dc6d0abd2ee","ios":"levelo://app?vid=f9d4a628-88ac-453e-9d35-8dc6d0abd2ee"},"vehicle_type_id":"4","last_reported":1683403564,"current_range_meters":6400,"station_id":"ce4bgt12rcd13ifvqce0","pricing_plan_id":"free"},{"bike_id":"91d24416-2b9e-4c8a-96dc-6c07014c8ce9","system_id":"levelo_inurba_marseille","lat":43.304606,"lon":5.379026,"is_reserved":false,"is_disabled":false,"rental_uris":{"android":"levelo://app?vid=91d24416-2b9e-4c8a-96dc-6c07014c8ce9","ios":"levelo://app?vid=91d24416-2b9e-4c8a-96dc-6c07014c8ce9"},"vehicle_type_id":"4","last_reported":1683403564,"current_range_meters":5600,"station_id":"ce4bgup2rcd13ifvqcn0","pricing_plan_id":"free"},{"bike_id":"92193100-4b86-450e-8cbb-1acf69bb142c","system_id":"levelo_inurba_marseille","lat":43.304606,"lon":5.379026,"is_reserved":false,"is_disabled":false,"rental_uris":{"android":"levelo://app?vid=92193100-4b86-450e-8cbb-1acf69bb142c","ios":"levelo://app?vid=92193100-4b86-450e-8cbb-1acf69bb142c"},"vehicle_type_id":"4","last_reported":1683403564,"current_range_meters":9200,"station_id":"ce4bgup2rcd13ifvqcn0","pricing_plan_id":"free"},{"bike_id":"346d4387-f97d-436e-9f00-7c898711409e","system_id":"levelo_inurba_marseille","lat":43.304606,"lon":5.379026,"is_reserved":false,"is_disabled":false,"rental_uris":{"android":"levelo://app?vid=346d4387-f97d-436e-9f00-7c898711409e","ios":"levelo://app?vid=346d4387-f97d-436e-9f00-7c898711409e"},"vehicle_type_id":"4","last_reported":1683403564,"current_range_meters":0,"station_id":"ce4bgup2rcd13ifvqcn0","pricing_plan_id":"free"},{"bike_id":"d7dac01d-ad36-44be-8bd5-4cb9e468dec6","system_id":"levelo_inurba_marseille","lat":43.30143,"lon":5.37413,"is_reserved":false,"is_disabled":false,"rental_uris":{"android":"levelo://app?vid=d7dac01d-ad36-44be-8bd5-4cb9e468dec6","ios":"levelo://app?vid=d7dac01d-ad36-44be-8bd5-4cb9e468dec6"},"vehicle_type_id":"4","last_reported":1683403564,"current_range_meters":8400,"station_id":"ce4bgs92rcd13ifvqcc0","pricing_plan_id":"free"},{"bike_id":"c2945627-43e9-4f8d-b5cd-4868f18472fa","system_id":"levelo_inurba_marseille","lat":43.299222,"lon":5.365554,"is_reserved":false,"is_disabled":false,"rental_uris":{"android":"levelo://app?vid=c2945627-43e9-4f8d-b5cd-4868f18472fa","ios":"levelo://app?vid=c2945627-43e9-4f8d-b5cd-4868f18472fa"},"vehicle_type_id":"4","last_reported":1683403564,"current_range_meters":2000,"station_id":"ce4bgm92rcd13ifvqbr0","pricing_plan_id":"free"},{"bike_id":"aba50e0b-5c25-48f4-bd6d-440f8726f1f3","system_id":"levelo_inurba_marseille","lat":43.3029,"lon":5.38183,"is_reserved":false,"is_disabled":false,"rental_uris":{"android":"levelo://app?vid=aba50e0b-5c25-48f4-bd6d-440f8726f1f3","ios":"levelo://app?vid=aba50e0b-5c25-48f4-bd6d-440f8726f1f3"},"vehicle_type_id":"4","last_reported":1683403564,"current_range_meters":6400,"station_id":"","pricing_plan_id":"free"},{"bike_id":"ee23a5e6-55ec-4d77-a76c-70f812e09101","system_id":"levelo_inurba_marseille","lat":43.30018,"lon":5.3774,"is_reserved":false,"is_disabled":false,"rental_uris":{"android":"levelo://app?vid=ee23a5e6-55ec-4d77-a76c-70f812e09101","ios":"levelo://app?vid=ee23a5e6-55ec-4d77-a76c-70f812e09101"},"vehicle_type_id":"4","last_reported":1683403564,"current_range_meters":18800,"station_id":"","pricing_plan_id":"free"},{"bike_id":"fde2d51b-bca9-4bd9-888c-f5478e778443","system_id":"levelo_inurba_marseille","lat":43.311722,"lon":5.387247,"is_reserved":false,"is_disabled":false,"rental_uris":{"android":"levelo://app?vid=fde2d51b-bca9-4bd9-888c-f5478e778443","ios":"levelo://app?vid=fde2d51b-bca9-4bd9-888c-f5478e778443"},"vehicle_type_id":"4","last_reported":1683403564,"current_range_meters":25600,"station_id":"ce4bgv12rcd13ifvqcp0","pricing_plan_id":"free"},{"bike_id":"0a3e5018-42cc-4b44-9ea5-5b1a1f4c2e73","system_id":"levelo_inurba_marseille","lat":43.311722,"lon":5.387247,"is_reserved":false,"is_disabled":false,"rental_uris":{"android":"levelo://app?vid=0a3e5018-42cc-4b44-9ea5-5b1a1f4c2e73","ios":"levelo://app?vid=0a3e5018-42cc-4b44-9ea5-5b1a1f4c2e73"},"vehicle_type_id":"4","last_reported":1683403564,"current_range_meters":31200,"station_id":"ce4bgv12rcd13ifvqcp0","pricing_plan_id":"free"},{"bike_id":"8c068111-e8b2-43d6-a16b-3a2446497765","system_id":"levelo_inurba_marseille","lat":43.311722,"lon":5.387247,"is_reserved":false,"is_disabled":false,"rental_uris":{"android":"levelo://app?vid=8c068111-e8b2-43d6-a16b-3a2446497765","ios":"levelo://app?vid=8c068111-e8b2-43d6-a16b-3a2446497765"},"vehicle_type_id":"4","last_reported":1683403564,"current_range_meters":6400,"station_id":"ce4bgv12rcd13ifvqcp0","pricing_plan_id":"free"},{"bike_id":"55413a9d-70fd-4ed3-a836-14ec7f2a0b70","system_id":"levelo_inurba_marseille","lat":43.311722,"lon":5.387247,"is_reserved":false,"is_disabled":false,"rental_uris":{"android":"levelo://app?vid=55413a9d-70fd-4ed3-a836-14ec7f2a0b70","ios":"levelo://app?vid=55413a9d-70fd-4ed3-a836-14ec7f2a0b70"},"vehicle_type_id":"4","last_reported":1683403564,"current_range_meters":27200,"station_id":"ce4bgv12rcd13ifvqcp0","pricing_plan_id":"free"},{"bike_id":"3b90d079-5e9b-4e96-959c-50f4a067e20c","system_id":"levelo_inurba_marseille","lat":43.311722,"lon":5.387247,"is_reserved":false,"is_disabled":false,"rental_uris":{"android":"levelo://app?vid=3b90d079-5e9b-4e96-959c-50f4a067e20c","ios":"levelo://app?vid=3b90d079-5e9b-4e96-959c-50f4a067e20c"},"vehicle_type_id":"4","last_reported":1683403564,"current_range_meters":6800,"station_id":"ce4bgv12rcd13ifvqcp0","pricing_plan_id":"free"},{"bike_id":"fa495c37-f7d4-465f-a146-0169143d7693","system_id":"levelo_inurba_marseille","lat":43.328371,"lon":5.366912,"is_reserved":false,"is_disabled":false,"rental_uris":{"android":"levelo://app?vid=fa495c37-f7d4-465f-a146-0169143d7693","ios":"levelo://app?vid=fa495c37-f7d4-465f-a146-0169143d7693"},"vehicle_type_id":"4","last_reported":1683403564,"current_range_meters":13200,"station_id":"ce4bhs92rcd13ifvqi0g","pricing_plan_id":"free"},{"bike_id":"cb03d0a7-8198-46ba-b8e4-07d3539f0078","system_id":"levelo_inurba_marseille","lat":43.328371,"lon":5.366912,"is_reserved":false,"is_disabled":false,"rental_uris":{"android":"levelo://app?vid=cb03d0a7-8198-46ba-b8e4-07d3539f0078","ios":"levelo://app?vid=cb03d0a7-8198-46ba-b8e4-07d3539f0078"},"vehicle_type_id":"4","last_reported":1683403564,"current_range_meters":17600,"station_id":"ce4bhs92rcd13ifvqi0g","pricing_plan_id":"free"},{"bike_id":"05c44ec8-9bf2-419a-aafa-32210ead3afe","system_id":"levelo_inurba_marseille","lat":43.32833,"lon":5.36684,"is_reserved":false,"is_disabled":false,"rental_uris":{"android":"levelo://app?vid=05c44ec8-9bf2-419a-aafa-32210ead3afe","ios":"levelo://app?vid=05c44ec8-9bf2-419a-aafa-32210ead3afe"},"vehicle_type_id":"4","last_reported":1683403564,"current_range_meters":29200,"station_id":"ce4bhs92rcd13ifvqi0g","pricing_plan_id":"free"},{"bike_id":"f7058cbd-13d6-4363-8a29-3f09f8ac5d4d","system_id":"levelo_inurba_marseille","lat":43.32833,"lon":5.3668,"is_reserved":false,"is_disabled":false,"rental_uris":{"android":"levelo://app?vid=f7058cbd-13d6-4363-8a29-3f09f8ac5d4d","ios":"levelo://app?vid=f7058cbd-13d6-4363-8a29-3f09f8ac5d4d"},"vehicle_type_id":"4","last_reported":1683403564,"current_range_meters":2000,"station_id":"ce4bhs92rcd13ifvqi0g","pricing_plan_id":"free"},{"bike_id":"58a4b5a9-3b99-4d17-87b0-5d38697b3565","system_id":"levelo_inurba_marseille","lat":43.32833,"lon":5.36677,"is_reserved":false,"is_disabled":false,"rental_uris":{"android":"levelo://app?vid=58a4b5a9-3b99-4d17-87b0-5d38697b3565","ios":"levelo://app?vid=58a4b5a9-3b99-4d17-87b0-5d38697b3565"},"vehicle_type_id":"4","last_reported":1683403564,"current_range_meters":14000,"station_id":"ce4bhs92rcd13ifvqi0g","pricing_plan_id":"free"},{"bike_id":"73868a82-6310-47a2-b64f-e84244206b53","system_id":"levelo_inurba_marseille","lat":43.32834,"lon":5.36693,"is_reserved":false,"is_disabled":false,"rental_uris":{"android":"levelo://app?vid=73868a82-6310-47a2-b64f-e84244206b53","ios":"levelo://app?vid=73868a82-6310-47a2-b64f-e84244206b53"},"vehicle_type_id":"4","last_reported":1683403564,"current_range_meters":6800,"station_id":"ce4bhs92rcd13ifvqi0g","pricing_plan_id":"free"},{"bike_id":"a530905d-c529-4875-b459-f28e3a7844a4","system_id":"levelo_inurba_marseille","lat":43.32834,"lon":5.36681,"is_reserved":false,"is_disabled":false,"rental_uris":{"android":"levelo://app?vid=a530905d-c529-4875-b459-f28e3a7844a4","ios":"levelo://app?vid=a530905d-c529-4875-b459-f28e3a7844a4"},"vehicle_type_id":"4","last_reported":1683403564,"current_range_meters":18800,"station_id":"ce4bhs92rcd13ifvqi0g","pricing_plan_id":"free"},{"bike_id":"aafcc005-5e38-4c52-a10d-6d0f89f0012b","system_id":"levelo_inurba_marseille","lat":43.302008,"lon":5.394694,"is_reserved":false,"is_disabled":false,"rental_uris":{"android":"levelo://app?vid=aafcc005-5e38-4c52-a10d-6d0f89f0012b","ios":"levelo://app?vid=aafcc005-5e38-4c52-a10d-6d0f89f0012b"},"vehicle_type_id":"4","last_reported":1683403564,"current_range_meters":3600,"station_id":"ce4bh0p2rcd13ifvqd70","pricing_plan_id":"free"},{"bike_id":"4c502f33-25f5-42ee-93c7-fb41302c0f88","system_id":"levelo_inurba_marseille","lat":43.29619,"lon":5.37153,"is_reserved":false,"is_disabled":false,"rental_uris":{"android":"levelo://app?vid=4c502f33-25f5-42ee-93c7-fb41302c0f88","ios":"levelo://app?vid=4c502f33-25f5-42ee-93c7-fb41302c0f88"},"vehicle_type_id":"4","last_reported":1683403564,"current_range_meters":15200,"station_id":"","pricing_plan_id":"free"},{"bike_id":"7683de4c-be6e-42eb-8ad4-e18fd4770f16","system_id":"levelo_inurba_marseille","lat":43.29619,"lon":5.37158,"is_reserved":false,"is_disabled":false,"rental_uris":{"android":"levelo://app?vid=7683de4c-be6e-42eb-8ad4-e18fd4770f16","ios":"levelo://app?vid=7683de4c-be6e-42eb-8ad4-e18fd4770f16"},"vehicle_type_id":"4","last_reported":1683403564,"current_range_meters":0,"station_id":"","pricing_plan_id":"free"},{"bike_id":"60a40d55-1933-4992-8b78-e91bb8990eea","system_id":"levelo_inurba_marseille","lat":43.29581,"lon":5.36741,"is_reserved":false,"is_disabled":false,"rental_uris":{"android":"levelo://app?vid=60a40d55-1933-4992-8b78-e91bb8990eea","ios":"levelo://app?vid=60a40d55-1933-4992-8b78-e91bb8990eea"},"vehicle_type_id":"4","last_reported":1683403564,"current_range_meters":0,"station_id":"ce4bgph2rcd13ifvqc2g","pricing_plan_id":"free"},{"bike_id":"bac21cc3-5eb1-4b10-ac25-2cffe6a18048","system_id":"levelo_inurba_marseille","lat":43.309589,"lon":5.390258,"is_reserved":false,"is_disabled":false,"rental_uris":{"android":"levelo://app?vid=bac21cc3-5eb1-4b10-ac25-2cffe6a18048","ios":"levelo://app?vid=bac21cc3-5eb1-4b10-ac25-2cffe6a18048"},"vehicle_type_id":"4","last_reported":1683403564,"current_range_meters":6000,"station_id":"ce4bgup2rcd13ifvqco0","pricing_plan_id":"free"},{"bike_id":"6ee78b2e-ceae-4d6d-9854-179328b36d1b","system_id":"levelo_inurba_marseille","lat":43.309589,"lon":5.390258,"is_reserved":false,"is_disabled":false,"rental_uris":{"android":"levelo://app?vid=6ee78b2e-ceae-4d6d-9854-179328b36d1b","ios":"levelo://app?vid=6ee78b2e-ceae-4d6d-9854-179328b36d1b"},"vehicle_type_id":"4","last_reported":1683403564,"current_range_meters":0,"station_id":"ce4bgup2rcd13ifvqco0","pricing_plan_id":"free"},{"bike_id":"5f556b7c-b9bb-4db8-a158-1ced3c1ea202","system_id":"levelo_inurba_marseille","lat":43.309589,"lon":5.390258,"is_reserved":false,"is_disabled":false,"rental_uris":{"android":"levelo://app?vid=5f556b7c-b9bb-4db8-a158-1ced3c1ea202","ios":"levelo://app?vid=5f556b7c-b9bb-4db8-a158-1ced3c1ea202"},"vehicle_type_id":"4","last_reported":1683403564,"current_range_meters":7200,"station_id":"ce4bgup2rcd13ifvqco0","pricing_plan_id":"free"},{"bike_id":"e2fc5a62-0634-4cb5-889e-1520208a3300","system_id":"levelo_inurba_marseille","lat":43.30951,"lon":5.39047,"is_reserved":false,"is_disabled":false,"rental_uris":{"android":"levelo://app?vid=e2fc5a62-0634-4cb5-889e-1520208a3300","ios":"levelo://app?vid=e2fc5a62-0634-4cb5-889e-1520208a3300"},"vehicle_type_id":"4","last_reported":1683403564,"current_range_meters":1600,"station_id":"ce4bgup2rcd13ifvqco0","pricing_plan_id":"free"},{"bike_id":"ac599044-4e20-4727-98e0-505c77ca91e0","system_id":"levelo_inurba_marseille","lat":43.317557,"lon":5.390173,"is_reserved":false,"is_disabled":false,"rental_uris":{"android":"levelo://app?vid=ac599044-4e20-4727-98e0-505c77ca91e0","ios":"levelo://app?vid=ac599044-4e20-4727-98e0-505c77ca91e0"},"vehicle_type_id":"4","last_reported":1683403564,"current_range_meters":7600,"station_id":"ce4bhqp2rcd13ifvqhng","pricing_plan_id":"free"},{"bike_id":"e07bf578-a7b1-4fdf-b6ca-2df5788b2781","system_id":"levelo_inurba_marseille","lat":43.317557,"lon":5.390173,"is_reserved":false,"is_disabled":false,"rental_uris":{"android":"levelo://app?vid=e07bf578-a7b1-4fdf-b6ca-2df5788b2781","ios":"levelo://app?vid=e07bf578-a7b1-4fdf-b6ca-2df5788b2781"},"vehicle_type_id":"4","last_reported":1683403564,"current_range_meters":16000,"station_id":"ce4bhqp2rcd13ifvqhng","pricing_plan_id":"free"},{"bike_id":"5e26388f-afcc-4ebc-9b1c-d20adac7f39a","system_id":"levelo_inurba_marseille","lat":43.31757,"lon":5.39022,"is_reserved":false,"is_disabled":false,"rental_uris":{"android":"levelo://app?vid=5e26388f-afcc-4ebc-9b1c-d20adac7f39a","ios":"levelo://app?vid=5e26388f-afcc-4ebc-9b1c-d20adac7f39a"},"vehicle_type_id":"4","last_reported":1683403564,"current_range_meters":20000,"station_id":"ce4bhqp2rcd13ifvqhng","pricing_plan_id":"free"},{"bike_id":"165cf4ec-ee3c-4a5c-929b-636fc1f79c2d","system_id":"levelo_inurba_marseille","lat":43.31756,"lon":5.39029,"is_reserved":false,"is_disabled":false,"rental_uris":{"android":"levelo://app?vid=165cf4ec-ee3c-4a5c-929b-636fc1f79c2d","ios":"levelo://app?vid=165cf4ec-ee3c-4a5c-929b-636fc1f79c2d"},"vehicle_type_id":"4","last_reported":1683403564,"current_range_meters":18000,"station_id":"ce4bhqp2rcd13ifvqhng","pricing_plan_id":"free"},{"bike_id":"6b53433e-89fc-4138-90d9-87250efd3a68","system_id":"levelo_inurba_marseille","lat":43.29583,"lon":5.37513,"is_reserved":false,"is_disabled":false,"rental_uris":{"android":"levelo://app?vid=6b53433e-89fc-4138-90d9-87250efd3a68","ios":"levelo://app?vid=6b53433e-89fc-4138-90d9-87250efd3a68"},"vehicle_type_id":"4","last_reported":1683403564,"current_range_meters":0,"station_id":"ce4bgh92rcd13ifvqb50","pricing_plan_id":"free"},{"bike_id":"be8e6c10-11c0-4222-87d1-828bc4efb992","system_id":"levelo_inurba_marseille","lat":43.298037,"lon":5.381066,"is_reserved":false,"is_disabled":false,"rental_uris":{"android":"levelo://app?vid=be8e6c10-11c0-4222-87d1-828bc4efb992","ios":"levelo://app?vid=be8e6c10-11c0-4222-87d1-828bc4efb992"},"vehicle_type_id":"4","last_reported":1683403564,"current_range_meters":3600,"station_id":"ce4bgip2rcd13ifvqbb0","pricing_plan_id":"free"},{"bike_id":"927be844-a5de-4796-8065-f717ef145e9e","system_id":"levelo_inurba_marseille","lat":43.295748,"lon":5.37522,"is_reserved":false,"is_disabled":false,"rental_uris":{"android":"levelo://app?vid=927be844-a5de-4796-8065-f717ef145e9e","ios":"levelo://app?vid=927be844-a5de-4796-8065-f717ef145e9e"},"vehicle_type_id":"4","last_reported":1683403564,"current_range_meters":14400,"station_id":"ce4bgh92rcd13ifvqb50","pricing_plan_id":"free"},{"bike_id":"10b74a67-e45c-461d-855c-7a1be5333a3d","system_id":"levelo_inurba_marseille","lat":43.29576,"lon":5.37512,"is_reserved":false,"is_disabled":false,"rental_uris":{"android":"levelo://app?vid=10b74a67-e45c-461d-855c-7a1be5333a3d","ios":"levelo://app?vid=10b74a67-e45c-461d-855c-7a1be5333a3d"},"vehicle_type_id":"4","last_reported":1683403564,"current_range_meters":400,"station_id":"ce4bgh92rcd13ifvqb50","pricing_plan_id":"free"},{"bike_id":"85758d93-2a91-46ab-9cd2-9a64381e5e2d","system_id":"levelo_inurba_marseille","lat":43.298037,"lon":5.381066,"is_reserved":false,"is_disabled":false,"rental_uris":{"android":"levelo://app?vid=85758d93-2a91-46ab-9cd2-9a64381e5e2d","ios":"levelo://app?vid=85758d93-2a91-46ab-9cd2-9a64381e5e2d"},"vehicle_type_id":"4","last_reported":1683403564,"current_range_meters":0,"station_id":"ce4bgip2rcd13ifvqbb0","pricing_plan_id":"free"},{"bike_id":"4c718371-c66c-4534-81f1-235054258194","system_id":"levelo_inurba_marseille","lat":43.298037,"lon":5.381066,"is_reserved":false,"is_disabled":false,"rental_uris":{"android":"levelo://app?vid=4c718371-c66c-4534-81f1-235054258194","ios":"levelo://app?vid=4c718371-c66c-4534-81f1-235054258194"},"vehicle_type_id":"4","last_reported":1683403564,"current_range_meters":4000,"station_id":"ce4bgip2rcd13ifvqbb0","pricing_plan_id":"free"},{"bike_id":"98a99e66-8ec5-4cf9-84ca-ff29466b931f","system_id":"levelo_inurba_marseille","lat":43.296277,"lon":5.377108,"is_reserved":false,"is_disabled":false,"rental_uris":{"android":"levelo://app?vid=98a99e66-8ec5-4cf9-84ca-ff29466b931f","ios":"levelo://app?vid=98a99e66-8ec5-4cf9-84ca-ff29466b931f"},"vehicle_type_id":"4","last_reported":1683403564,"current_range_meters":28400,"station_id":"ce4bgi92rcd13ifvqb90","pricing_plan_id":"free"},{"bike_id":"18a5b877-0409-40dd-8ce2-e7fbb04a77d7","system_id":"levelo_inurba_marseille","lat":43.296277,"lon":5.377108,"is_reserved":false,"is_disabled":false,"rental_uris":{"android":"levelo://app?vid=18a5b877-0409-40dd-8ce2-e7fbb04a77d7","ios":"levelo://app?vid=18a5b877-0409-40dd-8ce2-e7fbb04a77d7"},"vehicle_type_id":"4","last_reported":1683403564,"current_range_meters":1200,"station_id":"ce4bgi92rcd13ifvqb90","pricing_plan_id":"free"},{"bike_id":"36434f39-5132-435c-b9ea-09d325f4dc50","system_id":"levelo_inurba_marseille","lat":43.296277,"lon":5.377108,"is_reserved":false,"is_disabled":false,"rental_uris":{"android":"levelo://app?vid=36434f39-5132-435c-b9ea-09d325f4dc50","ios":"levelo://app?vid=36434f39-5132-435c-b9ea-09d325f4dc50"},"vehicle_type_id":"4","last_reported":1683403564,"current_range_meters":2000,"station_id":"ce4bgi92rcd13ifvqb90","pricing_plan_id":"free"},{"bike_id":"bacc16dc-e676-4ed9-b8f4-b58df2f3c151","system_id":"levelo_inurba_marseille","lat":43.296277,"lon":5.377108,"is_reserved":false,"is_disabled":false,"rental_uris":{"android":"levelo://app?vid=bacc16dc-e676-4ed9-b8f4-b58df2f3c151","ios":"levelo://app?vid=bacc16dc-e676-4ed9-b8f4-b58df2f3c151"},"vehicle_type_id":"4","last_reported":1683403564,"current_range_meters":12800,"station_id":"ce4bgi92rcd13ifvqb90","pricing_plan_id":"free"},{"bike_id":"6eb4bec2-9c64-474d-86df-ac15528c29a5","system_id":"levelo_inurba_marseille","lat":43.296263,"lon":5.377094,"is_reserved":false,"is_disabled":false,"rental_uris":{"android":"levelo://app?vid=6eb4bec2-9c64-474d-86df-ac15528c29a5","ios":"levelo://app?vid=6eb4bec2-9c64-474d-86df-ac15528c29a5"},"vehicle_type_id":"4","last_reported":1683403564,"current_range_meters":14800,"station_id":"ce4bgi92rcd13ifvqb90","pricing_plan_id":"free"},{"bike_id":"1f4afd07-be7a-474e-9451-b3e65ec9a7e2","system_id":"levelo_inurba_marseille","lat":43.296263,"lon":5.377094,"is_reserved":false,"is_disabled":false,"rental_uris":{"android":"levelo://app?vid=1f4afd07-be7a-474e-9451-b3e65ec9a7e2","ios":"levelo://app?vid=1f4afd07-be7a-474e-9451-b3e65ec9a7e2"},"vehicle_type_id":"4","last_reported":1683403564,"current_range_meters":3600,"station_id":"ce4bgi92rcd13ifvqb90","pricing_plan_id":"free"},{"bike_id":"176a76ab-43dc-4f17-8f56-6ad6fcc57468","system_id":"levelo_inurba_marseille","lat":43.296277,"lon":5.377108,"is_reserved":false,"is_disabled":false,"rental_uris":{"android":"levelo://app?vid=176a76ab-43dc-4f17-8f56-6ad6fcc57468","ios":"levelo://app?vid=176a76ab-43dc-4f17-8f56-6ad6fcc57468"},"vehicle_type_id":"4","last_reported":1683403564,"current_range_meters":13600,"station_id":"ce4bgi92rcd13ifvqb90","pricing_plan_id":"free"},{"bike_id":"b5e8be84-2ea9-4eb4-ba30-7ccbdcbe0371","system_id":"levelo_inurba_marseille","lat":43.296277,"lon":5.377108,"is_reserved":false,"is_disabled":false,"rental_uris":{"android":"levelo://app?vid=b5e8be84-2ea9-4eb4-ba30-7ccbdcbe0371","ios":"levelo://app?vid=b5e8be84-2ea9-4eb4-ba30-7ccbdcbe0371"},"vehicle_type_id":"4","last_reported":1683403564,"current_range_meters":6400,"station_id":"ce4bgi92rcd13ifvqb90","pricing_plan_id":"free"},{"bike_id":"bd795db9-a4f7-43c0-baec-b420e9487c06","system_id":"levelo_inurba_marseille","lat":43.295279,"lon":5.375048,"is_reserved":false,"is_disabled":false,"rental_uris":{"android":"levelo://app?vid=bd795db9-a4f7-43c0-baec-b420e9487c06","ios":"levelo://app?vid=bd795db9-a4f7-43c0-baec-b420e9487c06"},"vehicle_type_id":"4","last_reported":1683403564,"current_range_meters":21200,"station_id":"ce4bgkp2rcd13ifvqbmg","pricing_plan_id":"free"},{"bike_id":"d5eeb467-7f15-48d3-8684-17f1d6421b61","system_id":"levelo_inurba_marseille","lat":43.29529,"lon":5.37487,"is_reserved":false,"is_disabled":false,"rental_uris":{"android":"levelo://app?vid=d5eeb467-7f15-48d3-8684-17f1d6421b61","ios":"levelo://app?vid=d5eeb467-7f15-48d3-8684-17f1d6421b61"},"vehicle_type_id":"4","last_reported":1683403564,"current_range_meters":6400,"station_id":"","pricing_plan_id":"free"},{"bike_id":"3cc1dbf5-7b98-4bf1-8404-613089aced07","system_id":"levelo_inurba_marseille","lat":43.295279,"lon":5.375048,"is_reserved":false,"is_disabled":false,"rental_uris":{"android":"levelo://app?vid=3cc1dbf5-7b98-4bf1-8404-613089aced07","ios":"levelo://app?vid=3cc1dbf5-7b98-4bf1-8404-613089aced07"},"vehicle_type_id":"4","last_reported":1683403564,"current_range_meters":4000,"station_id":"ce4bgkp2rcd13ifvqbmg","pricing_plan_id":"free"},{"bike_id":"5f28f020-411b-4f2a-9e37-465804b5a35e","system_id":"levelo_inurba_marseille","lat":43.299717,"lon":5.384845,"is_reserved":false,"is_disabled":false,"rental_uris":{"android":"levelo://app?vid=5f28f020-411b-4f2a-9e37-465804b5a35e","ios":"levelo://app?vid=5f28f020-411b-4f2a-9e37-465804b5a35e"},"vehicle_type_id":"4","last_reported":1683403564,"current_range_meters":800,"station_id":"ce4bgj92rcd13ifvqbd0","pricing_plan_id":"free"},{"bike_id":"f0dcfd84-4222-444a-b26d-9f99a892695b","system_id":"levelo_inurba_marseille","lat":43.31452,"lon":5.39271,"is_reserved":false,"is_disabled":false,"rental_uris":{"android":"levelo://app?vid=f0dcfd84-4222-444a-b26d-9f99a892695b","ios":"levelo://app?vid=f0dcfd84-4222-444a-b26d-9f99a892695b"},"vehicle_type_id":"4","last_reported":1683403564,"current_range_meters":6000,"station_id":"","pricing_plan_id":"free"},{"bike_id":"12d4aa64-f696-4759-857b-bd32787507d5","system_id":"levelo_inurba_marseille","lat":43.29602,"lon":5.381084,"is_reserved":false,"is_disabled":false,"rental_uris":{"android":"levelo://app?vid=12d4aa64-f696-4759-857b-bd32787507d5","ios":"levelo://app?vid=12d4aa64-f696-4759-857b-bd32787507d5"},"vehicle_type_id":"4","last_reported":1683403564,"current_range_meters":3600,"station_id":"ce4bgl12rcd13ifvqbo0","pricing_plan_id":"free"},{"bike_id":"9d4ea58b-c73a-4f9e-9791-a8450a90feda","system_id":"levelo_inurba_marseille","lat":43.29602,"lon":5.381084,"is_reserved":false,"is_disabled":false,"rental_uris":{"android":"levelo://app?vid=9d4ea58b-c73a-4f9e-9791-a8450a90feda","ios":"levelo://app?vid=9d4ea58b-c73a-4f9e-9791-a8450a90feda"},"vehicle_type_id":"4","last_reported":1683403564,"current_range_meters":9200,"station_id":"ce4bgl12rcd13ifvqbo0","pricing_plan_id":"free"},{"bike_id":"24d5aaa0-c991-453a-87d5-bd48b4426146","system_id":"levelo_inurba_marseille","lat":43.29308,"lon":5.3718,"is_reserved":false,"is_disabled":false,"rental_uris":{"android":"levelo://app?vid=24d5aaa0-c991-453a-87d5-bd48b4426146","ios":"levelo://app?vid=24d5aaa0-c991-453a-87d5-bd48b4426146"},"vehicle_type_id":"4","last_reported":1683403564,"current_range_meters":1200,"station_id":"ce4bgh92rcd13ifvqb40","pricing_plan_id":"free"},{"bike_id":"b36925ea-5874-4142-b1d6-6cf9461492f3","system_id":"levelo_inurba_marseille","lat":43.292749,"lon":5.368402,"is_reserved":false,"is_disabled":false,"rental_uris":{"android":"levelo://app?vid=b36925ea-5874-4142-b1d6-6cf9461492f3","ios":"levelo://app?vid=b36925ea-5874-4142-b1d6-6cf9461492f3"},"vehicle_type_id":"4","last_reported":1683403564,"current_range_meters":2400,"station_id":"ce4bhbp2rcd13ifvqesg","pricing_plan_id":"free"},{"bike_id":"70138f92-afce-4e26-bc58-7c3287c3d55a","system_id":"levelo_inurba_marseille","lat":43.305994,"lon":5.393687,"is_reserved":false,"is_disabled":false,"rental_uris":{"android":"levelo://app?vid=70138f92-afce-4e26-bc58-7c3287c3d55a","ios":"levelo://app?vid=70138f92-afce-4e26-bc58-7c3287c3d55a"},"vehicle_type_id":"4","last_reported":1683403564,"current_range_meters":1600,"station_id":"ce4bh0p2rcd13ifvqd80","pricing_plan_id":"free"},{"bike_id":"37892996-31b3-4c99-8201-d82a83786522","system_id":"levelo_inurba_marseille","lat":43.305994,"lon":5.393687,"is_reserved":false,"is_disabled":false,"rental_uris":{"android":"levelo://app?vid=37892996-31b3-4c99-8201-d82a83786522","ios":"levelo://app?vid=37892996-31b3-4c99-8201-d82a83786522"},"vehicle_type_id":"4","last_reported":1683403564,"current_range_meters":16000,"station_id":"ce4bh0p2rcd13ifvqd80","pricing_plan_id":"free"},{"bike_id":"fc29bb47-7eec-402f-a028-c11edcf38b18","system_id":"levelo_inurba_marseille","lat":43.302992,"lon":5.392136,"is_reserved":false,"is_disabled":false,"rental_uris":{"android":"levelo://app?vid=fc29bb47-7eec-402f-a028-c11edcf38b18","ios":"levelo://app?vid=fc29bb47-7eec-402f-a028-c11edcf38b18"},"vehicle_type_id":"4","last_reported":1683403564,"current_range_meters":2000,"station_id":"ce4bgkh2rcd13ifvqbk0","pricing_plan_id":"free"},{"bike_id":"0f70ab32-2a2f-4078-bf52-d6441c7e202d","system_id":"levelo_inurba_marseille","lat":43.29227,"lon":5.36226,"is_reserved":false,"is_disabled":false,"rental_uris":{"android":"levelo://app?vid=0f70ab32-2a2f-4078-bf52-d6441c7e202d","ios":"levelo://app?vid=0f70ab32-2a2f-4078-bf52-d6441c7e202d"},"vehicle_type_id":"4","last_reported":1683403564,"current_range_meters":17600,"station_id":"","pricing_plan_id":"free"},{"bike_id":"72cfc66f-644b-491e-855e-29db6f79ba85","system_id":"levelo_inurba_marseille","lat":43.302992,"lon":5.392136,"is_reserved":false,"is_disabled":false,"rental_uris":{"android":"levelo://app?vid=72cfc66f-644b-491e-855e-29db6f79ba85","ios":"levelo://app?vid=72cfc66f-644b-491e-855e-29db6f79ba85"},"vehicle_type_id":"4","last_reported":1683403564,"current_range_meters":1200,"station_id":"ce4bgkh2rcd13ifvqbk0","pricing_plan_id":"free"},{"bike_id":"d8dcef71-f16b-4aee-a008-1a7779d5a04e","system_id":"levelo_inurba_marseille","lat":43.2936,"lon":5.37835,"is_reserved":false,"is_disabled":false,"rental_uris":{"android":"levelo://app?vid=d8dcef71-f16b-4aee-a008-1a7779d5a04e","ios":"levelo://app?vid=d8dcef71-f16b-4aee-a008-1a7779d5a04e"},"vehicle_type_id":"4","last_reported":1683403564,"current_range_meters":30400,"station_id":"ce4bgjh2rcd13ifvqbf0","pricing_plan_id":"free"},{"bike_id":"d6823fc1-2df1-4443-be20-59a32d58bde0","system_id":"levelo_inurba_marseille","lat":43.30085,"lon":5.390856,"is_reserved":false,"is_disabled":false,"rental_uris":{"android":"levelo://app?vid=d6823fc1-2df1-4443-be20-59a32d58bde0","ios":"levelo://app?vid=d6823fc1-2df1-4443-be20-59a32d58bde0"},"vehicle_type_id":"4","last_reported":1683403564,"current_range_meters":10800,"station_id":"ce4bh192rcd13ifvqdb0","pricing_plan_id":"free"},{"bike_id":"259cd88f-d6c4-4763-b1e2-c7638dc28358","system_id":"levelo_inurba_marseille","lat":43.291675,"lon":5.371583,"is_reserved":false,"is_disabled":false,"rental_uris":{"android":"levelo://app?vid=259cd88f-d6c4-4763-b1e2-c7638dc28358","ios":"levelo://app?vid=259cd88f-d6c4-4763-b1e2-c7638dc28358"},"vehicle_type_id":"4","last_reported":1683403564,"current_range_meters":23200,"station_id":"ce4bha92rcd13ifvqeh0","pricing_plan_id":"free"},{"bike_id":"bbc1e2a1-b8db-4d08-81fb-7b192539cadc","system_id":"levelo_inurba_marseille","lat":43.291675,"lon":5.371583,"is_reserved":false,"is_disabled":false,"rental_uris":{"android":"levelo://app?vid=bbc1e2a1-b8db-4d08-81fb-7b192539cadc","ios":"levelo://app?vid=bbc1e2a1-b8db-4d08-81fb-7b192539cadc"},"vehicle_type_id":"4","last_reported":1683403564,"current_range_meters":4400,"station_id":"ce4bha92rcd13ifvqeh0","pricing_plan_id":"free"},{"bike_id":"b6581670-60fd-4728-a61c-6eeb13048c5b","system_id":"levelo_inurba_marseille","lat":43.291675,"lon":5.371583,"is_reserved":false,"is_disabled":false,"rental_uris":{"android":"levelo://app?vid=b6581670-60fd-4728-a61c-6eeb13048c5b","ios":"levelo://app?vid=b6581670-60fd-4728-a61c-6eeb13048c5b"},"vehicle_type_id":"4","last_reported":1683403564,"current_range_meters":16800,"station_id":"ce4bha92rcd13ifvqeh0","pricing_plan_id":"free"},{"bike_id":"b5d3df38-5c98-4a46-b885-00e7ae18be2c","system_id":"levelo_inurba_marseille","lat":43.29529,"lon":5.385581,"is_reserved":false,"is_disabled":false,"rental_uris":{"android":"levelo://app?vid=b5d3df38-5c98-4a46-b885-00e7ae18be2c","ios":"levelo://app?vid=b5d3df38-5c98-4a46-b885-00e7ae18be2c"},"vehicle_type_id":"4","last_reported":1683403564,"current_range_meters":6000,"station_id":"ce4bgih2rcd13ifvqba0","pricing_plan_id":"free"},{"bike_id":"116977e1-4cc2-464d-bfa7-5567a4713b5e","system_id":"levelo_inurba_marseille","lat":43.29529,"lon":5.385581,"is_reserved":false,"is_disabled":false,"rental_uris":{"android":"levelo://app?vid=116977e1-4cc2-464d-bfa7-5567a4713b5e","ios":"levelo://app?vid=116977e1-4cc2-464d-bfa7-5567a4713b5e"},"vehicle_type_id":"4","last_reported":1683403564,"current_range_meters":8400,"station_id":"ce4bgih2rcd13ifvqba0","pricing_plan_id":"free"},{"bike_id":"1c05c1dc-bf1e-4c92-95ce-780cd8a65de8","system_id":"levelo_inurba_marseille","lat":43.29529,"lon":5.385581,"is_reserved":false,"is_disabled":false,"rental_uris":{"android":"levelo://app?vid=1c05c1dc-bf1e-4c92-95ce-780cd8a65de8","ios":"levelo://app?vid=1c05c1dc-bf1e-4c92-95ce-780cd8a65de8"},"vehicle_type_id":"4","last_reported":1683403564,"current_range_meters":28400,"station_id":"ce4bgih2rcd13ifvqba0","pricing_plan_id":"free"},{"bike_id":"5907034e-878f-4406-b9bf-5e3b5ca3cf6c","system_id":"levelo_inurba_marseille","lat":43.29529,"lon":5.385581,"is_reserved":false,"is_disabled":false,"rental_uris":{"android":"levelo://app?vid=5907034e-878f-4406-b9bf-5e3b5ca3cf6c","ios":"levelo://app?vid=5907034e-878f-4406-b9bf-5e3b5ca3cf6c"},"vehicle_type_id":"4","last_reported":1683403564,"current_range_meters":4800,"station_id":"ce4bgih2rcd13ifvqba0","pricing_plan_id":"free"},{"bike_id":"a5b6235d-d56a-46ef-97f5-f3cfe80d4290","system_id":"levelo_inurba_marseille","lat":43.29529,"lon":5.385581,"is_reserved":false,"is_disabled":false,"rental_uris":{"android":"levelo://app?vid=a5b6235d-d56a-46ef-97f5-f3cfe80d4290","ios":"levelo://app?vid=a5b6235d-d56a-46ef-97f5-f3cfe80d4290"},"vehicle_type_id":"4","last_reported":1683403564,"current_range_meters":4400,"station_id":"ce4bgih2rcd13ifvqba0","pricing_plan_id":"free"},{"bike_id":"78515159-c835-408a-97b8-1f1af80d0159","system_id":"levelo_inurba_marseille","lat":43.29532,"lon":5.38536,"is_reserved":false,"is_disabled":false,"rental_uris":{"android":"levelo://app?vid=78515159-c835-408a-97b8-1f1af80d0159","ios":"levelo://app?vid=78515159-c835-408a-97b8-1f1af80d0159"},"vehicle_type_id":"4","last_reported":1683403564,"current_range_meters":16000,"station_id":"ce4bgih2rcd13ifvqba0","pricing_plan_id":"free"},{"bike_id":"09e3bf20-d785-427c-bee8-3e0800566ab4","system_id":"levelo_inurba_marseille","lat":43.29534,"lon":5.3854,"is_reserved":false,"is_disabled":false,"rental_uris":{"android":"levelo://app?vid=09e3bf20-d785-427c-bee8-3e0800566ab4","ios":"levelo://app?vid=09e3bf20-d785-427c-bee8-3e0800566ab4"},"vehicle_type_id":"4","last_reported":1683403564,"current_range_meters":0,"station_id":"ce4bgih2rcd13ifvqba0","pricing_plan_id":"free"},{"bike_id":"008b3725-a728-48ac-9978-f43a114e642c","system_id":"levelo_inurba_marseille","lat":43.29536,"lon":5.38544,"is_reserved":false,"is_disabled":false,"rental_uris":{"android":"levelo://app?vid=008b3725-a728-48ac-9978-f43a114e642c","ios":"levelo://app?vid=008b3725-a728-48ac-9978-f43a114e642c"},"vehicle_type_id":"4","last_reported":1683403564,"current_range_meters":1600,"station_id":"ce4bgih2rcd13ifvqba0","pricing_plan_id":"free"},{"bike_id":"e0c97254-bc37-47d3-8c82-862f39543f5c","system_id":"levelo_inurba_marseille","lat":43.29529,"lon":5.385581,"is_reserved":false,"is_disabled":false,"rental_uris":{"android":"levelo://app?vid=e0c97254-bc37-47d3-8c82-862f39543f5c","ios":"levelo://app?vid=e0c97254-bc37-47d3-8c82-862f39543f5c"},"vehicle_type_id":"4","last_reported":1683403564,"current_range_meters":0,"station_id":"ce4bgih2rcd13ifvqba0","pricing_plan_id":"free"},{"bike_id":"69b0b0d2-9307-4bc4-ac45-419dccc4a939","system_id":"levelo_inurba_marseille","lat":43.29529,"lon":5.385581,"is_reserved":false,"is_disabled":false,"rental_uris":{"android":"levelo://app?vid=69b0b0d2-9307-4bc4-ac45-419dccc4a939","ios":"levelo://app?vid=69b0b0d2-9307-4bc4-ac45-419dccc4a939"},"vehicle_type_id":"4","last_reported":1683403564,"current_range_meters":0,"station_id":"ce4bgih2rcd13ifvqba0","pricing_plan_id":"free"},{"bike_id":"575e192e-e5b4-44cc-9477-4364b428db13","system_id":"levelo_inurba_marseille","lat":43.29529,"lon":5.385581,"is_reserved":false,"is_disabled":false,"rental_uris":{"android":"levelo://app?vid=575e192e-e5b4-44cc-9477-4364b428db13","ios":"levelo://app?vid=575e192e-e5b4-44cc-9477-4364b428db13"},"vehicle_type_id":"4","last_reported":1683403564,"current_range_meters":2400,"station_id":"ce4bgih2rcd13ifvqba0","pricing_plan_id":"free"},{"bike_id":"6e765cd5-95f2-49ea-8e6c-a4d92a8736d6","system_id":"levelo_inurba_marseille","lat":43.29529,"lon":5.385581,"is_reserved":false,"is_disabled":false,"rental_uris":{"android":"levelo://app?vid=6e765cd5-95f2-49ea-8e6c-a4d92a8736d6","ios":"levelo://app?vid=6e765cd5-95f2-49ea-8e6c-a4d92a8736d6"},"vehicle_type_id":"4","last_reported":1683403564,"current_range_meters":12800,"station_id":"ce4bgih2rcd13ifvqba0","pricing_plan_id":"free"},{"bike_id":"7f364cb8-7315-4325-ba55-5381d64e831c","system_id":"levelo_inurba_marseille","lat":43.29528,"lon":5.38538,"is_reserved":false,"is_disabled":false,"rental_uris":{"android":"levelo://app?vid=7f364cb8-7315-4325-ba55-5381d64e831c","ios":"levelo://app?vid=7f364cb8-7315-4325-ba55-5381d64e831c"},"vehicle_type_id":"4","last_reported":1683403564,"current_range_meters":6400,"station_id":"ce4bgih2rcd13ifvqba0","pricing_plan_id":"free"},{"bike_id":"3a9bc3e7-1f94-4b8a-a211-3b4a0a30dc63","system_id":"levelo_inurba_marseille","lat":43.29529,"lon":5.385581,"is_reserved":false,"is_disabled":false,"rental_uris":{"android":"levelo://app?vid=3a9bc3e7-1f94-4b8a-a211-3b4a0a30dc63","ios":"levelo://app?vid=3a9bc3e7-1f94-4b8a-a211-3b4a0a30dc63"},"vehicle_type_id":"4","last_reported":1683403564,"current_range_meters":5200,"station_id":"ce4bgih2rcd13ifvqba0","pricing_plan_id":"free"},{"bike_id":"3c563982-d172-4322-bc93-ee7f99937e72","system_id":"levelo_inurba_marseille","lat":43.29529,"lon":5.385581,"is_reserved":false,"is_disabled":false,"rental_uris":{"android":"levelo://app?vid=3c563982-d172-4322-bc93-ee7f99937e72","ios":"levelo://app?vid=3c563982-d172-4322-bc93-ee7f99937e72"},"vehicle_type_id":"4","last_reported":1683403564,"current_range_meters":6000,"station_id":"ce4bgih2rcd13ifvqba0","pricing_plan_id":"free"},{"bike_id":"6d33557b-b9d6-4a42-80ab-24b1992c44fb","system_id":"levelo_inurba_marseille","lat":43.31137,"lon":5.39768,"is_reserved":false,"is_disabled":false,"rental_uris":{"android":"levelo://app?vid=6d33557b-b9d6-4a42-80ab-24b1992c44fb","ios":"levelo://app?vid=6d33557b-b9d6-4a42-80ab-24b1992c44fb"},"vehicle_type_id":"4","last_reported":1683403564,"current_range_meters":0,"station_id":"","pricing_plan_id":"free"},{"bike_id":"73cd05f9-9793-4ed7-9d92-96752bbdcbe4","system_id":"levelo_inurba_marseille","lat":43.290327,"lon":5.375711,"is_reserved":false,"is_disabled":false,"rental_uris":{"android":"levelo://app?vid=73cd05f9-9793-4ed7-9d92-96752bbdcbe4","ios":"levelo://app?vid=73cd05f9-9793-4ed7-9d92-96752bbdcbe4"},"vehicle_type_id":"4","last_reported":1683403564,"current_range_meters":17600,"station_id":"ce4bh692rcd13ifvqe90","pricing_plan_id":"free"},{"bike_id":"a8a11438-8098-4ecf-b75c-e2febab6603e","system_id":"levelo_inurba_marseille","lat":43.290327,"lon":5.375711,"is_reserved":false,"is_disabled":false,"rental_uris":{"android":"levelo://app?vid=a8a11438-8098-4ecf-b75c-e2febab6603e","ios":"levelo://app?vid=a8a11438-8098-4ecf-b75c-e2febab6603e"},"vehicle_type_id":"4","last_reported":1683403564,"current_range_meters":800,"station_id":"ce4bh692rcd13ifvqe90","pricing_plan_id":"free"},{"bike_id":"3ca876ab-5dcd-4a94-8bb5-b4e15854d0cb","system_id":"levelo_inurba_marseille","lat":43.29422,"lon":5.38613,"is_reserved":false,"is_disabled":false,"rental_uris":{"android":"levelo://app?vid=3ca876ab-5dcd-4a94-8bb5-b4e15854d0cb","ios":"levelo://app?vid=3ca876ab-5dcd-4a94-8bb5-b4e15854d0cb"},"vehicle_type_id":"4","last_reported":1683403564,"current_range_meters":0,"station_id":"ce4bh2h2rcd13ifvqdh0","pricing_plan_id":"free"},{"bike_id":"db11392d-5882-4fb4-8673-7f33954a768d","system_id":"levelo_inurba_marseille","lat":43.29423,"lon":5.38618,"is_reserved":false,"is_disabled":false,"rental_uris":{"android":"levelo://app?vid=db11392d-5882-4fb4-8673-7f33954a768d","ios":"levelo://app?vid=db11392d-5882-4fb4-8673-7f33954a768d"},"vehicle_type_id":"4","last_reported":1683403564,"current_range_meters":0,"station_id":"ce4bh2h2rcd13ifvqdh0","pricing_plan_id":"free"},{"bike_id":"feed5bae-c54c-4855-8dcd-3b0888dfb2a1","system_id":"levelo_inurba_marseille","lat":43.29421,"lon":5.38615,"is_reserved":false,"is_disabled":false,"rental_uris":{"android":"levelo://app?vid=feed5bae-c54c-4855-8dcd-3b0888dfb2a1","ios":"levelo://app?vid=feed5bae-c54c-4855-8dcd-3b0888dfb2a1"},"vehicle_type_id":"4","last_reported":1683403564,"current_range_meters":6400,"station_id":"ce4bh2h2rcd13ifvqdh0","pricing_plan_id":"free"},{"bike_id":"46f1c6e3-8dab-458b-8e75-5e2df2064758","system_id":"levelo_inurba_marseille","lat":43.2942,"lon":5.38616,"is_reserved":false,"is_disabled":false,"rental_uris":{"android":"levelo://app?vid=46f1c6e3-8dab-458b-8e75-5e2df2064758","ios":"levelo://app?vid=46f1c6e3-8dab-458b-8e75-5e2df2064758"},"vehicle_type_id":"4","last_reported":1683403564,"current_range_meters":3600,"station_id":"ce4bh2h2rcd13ifvqdh0","pricing_plan_id":"free"},{"bike_id":"ef44dd42-a578-4ac5-b292-54e8b9a671b4","system_id":"levelo_inurba_marseille","lat":43.294162,"lon":5.386292,"is_reserved":false,"is_disabled":false,"rental_uris":{"android":"levelo://app?vid=ef44dd42-a578-4ac5-b292-54e8b9a671b4","ios":"levelo://app?vid=ef44dd42-a578-4ac5-b292-54e8b9a671b4"},"vehicle_type_id":"4","last_reported":1683403564,"current_range_meters":28400,"station_id":"ce4bh2h2rcd13ifvqdh0","pricing_plan_id":"free"},{"bike_id":"317f4b40-7adc-4773-afc9-5dc00570c7d8","system_id":"levelo_inurba_marseille","lat":43.29421,"lon":5.38621,"is_reserved":false,"is_disabled":false,"rental_uris":{"android":"levelo://app?vid=317f4b40-7adc-4773-afc9-5dc00570c7d8","ios":"levelo://app?vid=317f4b40-7adc-4773-afc9-5dc00570c7d8"},"vehicle_type_id":"4","last_reported":1683403564,"current_range_meters":4800,"station_id":"ce4bh2h2rcd13ifvqdh0","pricing_plan_id":"free"},{"bike_id":"c2425bcf-5d2f-4782-b0a7-83e2ed04e3d5","system_id":"levelo_inurba_marseille","lat":43.294153,"lon":5.386305,"is_reserved":false,"is_disabled":false,"rental_uris":{"android":"levelo://app?vid=c2425bcf-5d2f-4782-b0a7-83e2ed04e3d5","ios":"levelo://app?vid=c2425bcf-5d2f-4782-b0a7-83e2ed04e3d5"},"vehicle_type_id":"4","last_reported":1683403564,"current_range_meters":15200,"station_id":"ce4bh2h2rcd13ifvqdh0","pricing_plan_id":"free"},{"bike_id":"5a7f893e-e39e-4739-a662-12221174c249","system_id":"levelo_inurba_marseille","lat":43.29418,"lon":5.38617,"is_reserved":false,"is_disabled":false,"rental_uris":{"android":"levelo://app?vid=5a7f893e-e39e-4739-a662-12221174c249","ios":"levelo://app?vid=5a7f893e-e39e-4739-a662-12221174c249"},"vehicle_type_id":"4","last_reported":1683403564,"current_range_meters":0,"station_id":"ce4bh2h2rcd13ifvqdh0","pricing_plan_id":"free"},{"bike_id":"733e54f4-d9d9-4958-8353-905e44748b18","system_id":"levelo_inurba_marseille","lat":43.29422,"lon":5.38628,"is_reserved":false,"is_disabled":false,"rental_uris":{"android":"levelo://app?vid=733e54f4-d9d9-4958-8353-905e44748b18","ios":"levelo://app?vid=733e54f4-d9d9-4958-8353-905e44748b18"},"vehicle_type_id":"4","last_reported":1683403564,"current_range_meters":18800,"station_id":"ce4bh2h2rcd13ifvqdh0","pricing_plan_id":"free"},{"bike_id":"13efc024-0177-49d1-812b-4908185cb61d","system_id":"levelo_inurba_marseille","lat":43.29417,"lon":5.3862,"is_reserved":false,"is_disabled":false,"rental_uris":{"android":"levelo://app?vid=13efc024-0177-49d1-812b-4908185cb61d","ios":"levelo://app?vid=13efc024-0177-49d1-812b-4908185cb61d"},"vehicle_type_id":"4","last_reported":1683403564,"current_range_meters":14400,"station_id":"ce4bh2h2rcd13ifvqdh0","pricing_plan_id":"free"},{"bike_id":"1b77f571-326a-4ac9-9022-57aab9aa1d56","system_id":"levelo_inurba_marseille","lat":43.29419,"lon":5.38624,"is_reserved":false,"is_disabled":false,"rental_uris":{"android":"levelo://app?vid=1b77f571-326a-4ac9-9022-57aab9aa1d56","ios":"levelo://app?vid=1b77f571-326a-4ac9-9022-57aab9aa1d56"},"vehicle_type_id":"4","last_reported":1683403564,"current_range_meters":20800,"station_id":"ce4bh2h2rcd13ifvqdh0","pricing_plan_id":"free"},{"bike_id":"2824e1e3-c6b8-464f-b671-051081553418","system_id":"levelo_inurba_marseille","lat":43.29416,"lon":5.3862,"is_reserved":false,"is_disabled":false,"rental_uris":{"android":"levelo://app?vid=2824e1e3-c6b8-464f-b671-051081553418","ios":"levelo://app?vid=2824e1e3-c6b8-464f-b671-051081553418"},"vehicle_type_id":"4","last_reported":1683403564,"current_range_meters":1200,"station_id":"ce4bh2h2rcd13ifvqdh0","pricing_plan_id":"free"},{"bike_id":"32b1e1bc-2107-4339-8956-6c53508b5970","system_id":"levelo_inurba_marseille","lat":43.29419,"lon":5.38626,"is_reserved":false,"is_disabled":false,"rental_uris":{"android":"levelo://app?vid=32b1e1bc-2107-4339-8956-6c53508b5970","ios":"levelo://app?vid=32b1e1bc-2107-4339-8956-6c53508b5970"},"vehicle_type_id":"4","last_reported":1683403564,"current_range_meters":1200,"station_id":"ce4bh2h2rcd13ifvqdh0","pricing_plan_id":"free"},{"bike_id":"48517bd2-2d01-4256-9f5c-9fa3829bf31b","system_id":"levelo_inurba_marseille","lat":43.29034,"lon":5.37566,"is_reserved":false,"is_disabled":false,"rental_uris":{"android":"levelo://app?vid=48517bd2-2d01-4256-9f5c-9fa3829bf31b","ios":"levelo://app?vid=48517bd2-2d01-4256-9f5c-9fa3829bf31b"},"vehicle_type_id":"4","last_reported":1683403564,"current_range_meters":26800,"station_id":"ce4bh692rcd13ifvqe90","pricing_plan_id":"free"},{"bike_id":"8817ceb1-758f-4f45-be3d-c46b2ec717ad","system_id":"levelo_inurba_marseille","lat":43.29424,"lon":5.38636,"is_reserved":false,"is_disabled":false,"rental_uris":{"android":"levelo://app?vid=8817ceb1-758f-4f45-be3d-c46b2ec717ad","ios":"levelo://app?vid=8817ceb1-758f-4f45-be3d-c46b2ec717ad"},"vehicle_type_id":"4","last_reported":1683403564,"current_range_meters":1200,"station_id":"ce4bh2h2rcd13ifvqdh0","pricing_plan_id":"free"},{"bike_id":"288e3947-b2b3-4b98-bc88-8b620b741d28","system_id":"levelo_inurba_marseille","lat":43.290327,"lon":5.375711,"is_reserved":false,"is_disabled":false,"rental_uris":{"android":"levelo://app?vid=288e3947-b2b3-4b98-bc88-8b620b741d28","ios":"levelo://app?vid=288e3947-b2b3-4b98-bc88-8b620b741d28"},"vehicle_type_id":"4","last_reported":1683403564,"current_range_meters":1200,"station_id":"ce4bh692rcd13ifvqe90","pricing_plan_id":"free"},{"bike_id":"19cfaea9-f92e-4320-9fea-0587d7f46ee3","system_id":"levelo_inurba_marseille","lat":43.29415,"lon":5.38621,"is_reserved":false,"is_disabled":false,"rental_uris":{"android":"levelo://app?vid=19cfaea9-f92e-4320-9fea-0587d7f46ee3","ios":"levelo://app?vid=19cfaea9-f92e-4320-9fea-0587d7f46ee3"},"vehicle_type_id":"4","last_reported":1683403564,"current_range_meters":24000,"station_id":"ce4bh2h2rcd13ifvqdh0","pricing_plan_id":"free"},{"bike_id":"b3270820-1a46-4160-88a7-c8d68c0419cb","system_id":"levelo_inurba_marseille","lat":43.29414,"lon":5.3862,"is_reserved":false,"is_disabled":false,"rental_uris":{"android":"levelo://app?vid=b3270820-1a46-4160-88a7-c8d68c0419cb","ios":"levelo://app?vid=b3270820-1a46-4160-88a7-c8d68c0419cb"},"vehicle_type_id":"4","last_reported":1683403564,"current_range_meters":24000,"station_id":"ce4bh2h2rcd13ifvqdh0","pricing_plan_id":"free"},{"bike_id":"a6e998c0-63f5-4bdb-bdc1-10ade0105695","system_id":"levelo_inurba_marseille","lat":43.29416,"lon":5.38624,"is_reserved":false,"is_disabled":false,"rental_uris":{"android":"levelo://app?vid=a6e998c0-63f5-4bdb-bdc1-10ade0105695","ios":"levelo://app?vid=a6e998c0-63f5-4bdb-bdc1-10ade0105695"},"vehicle_type_id":"4","last_reported":1683403564,"current_range_meters":13200,"station_id":"ce4bh2h2rcd13ifvqdh0","pricing_plan_id":"free"},{"bike_id":"19a261d0-f826-4f51-a828-d9c859d29c5c","system_id":"levelo_inurba_marseille","lat":43.29417,"lon":5.38627,"is_reserved":false,"is_disabled":false,"rental_uris":{"android":"levelo://app?vid=19a261d0-f826-4f51-a828-d9c859d29c5c","ios":"levelo://app?vid=19a261d0-f826-4f51-a828-d9c859d29c5c"},"vehicle_type_id":"4","last_reported":1683403564,"current_range_meters":9200,"station_id":"ce4bh2h2rcd13ifvqdh0","pricing_plan_id":"free"},{"bike_id":"33cd5af3-6ec6-4da9-8b4a-16149a891e67","system_id":"levelo_inurba_marseille","lat":43.29417,"lon":5.38627,"is_reserved":false,"is_disabled":false,"rental_uris":{"android":"levelo://app?vid=33cd5af3-6ec6-4da9-8b4a-16149a891e67","ios":"levelo://app?vid=33cd5af3-6ec6-4da9-8b4a-16149a891e67"},"vehicle_type_id":"4","last_reported":1683403564,"current_range_meters":400,"station_id":"ce4bh2h2rcd13ifvqdh0","pricing_plan_id":"free"},{"bike_id":"6db00cb9-f056-4471-8a3d-4974ea399faa","system_id":"levelo_inurba_marseille","lat":43.29414,"lon":5.38623,"is_reserved":false,"is_disabled":false,"rental_uris":{"android":"levelo://app?vid=6db00cb9-f056-4471-8a3d-4974ea399faa","ios":"levelo://app?vid=6db00cb9-f056-4471-8a3d-4974ea399faa"},"vehicle_type_id":"4","last_reported":1683403564,"current_range_meters":4000,"station_id":"ce4bh2h2rcd13ifvqdh0","pricing_plan_id":"free"},{"bike_id":"70ab6317-1112-459f-bae5-4ce5dd249213","system_id":"levelo_inurba_marseille","lat":43.29418,"lon":5.38631,"is_reserved":false,"is_disabled":false,"rental_uris":{"android":"levelo://app?vid=70ab6317-1112-459f-bae5-4ce5dd249213","ios":"levelo://app?vid=70ab6317-1112-459f-bae5-4ce5dd249213"},"vehicle_type_id":"4","last_reported":1683403564,"current_range_meters":26800,"station_id":"ce4bh2h2rcd13ifvqdh0","pricing_plan_id":"free"},{"bike_id":"68d49cbd-4d26-4782-adcb-d6cfbd2bdc1b","system_id":"levelo_inurba_marseille","lat":43.29417,"lon":5.38631,"is_reserved":false,"is_disabled":false,"rental_uris":{"android":"levelo://app?vid=68d49cbd-4d26-4782-adcb-d6cfbd2bdc1b","ios":"levelo://app?vid=68d49cbd-4d26-4782-adcb-d6cfbd2bdc1b"},"vehicle_type_id":"4","last_reported":1683403564,"current_range_meters":20400,"station_id":"ce4bh2h2rcd13ifvqdh0","pricing_plan_id":"free"},{"bike_id":"cc22d7a4-5a51-43ff-9d56-16859a1337c7","system_id":"levelo_inurba_marseille","lat":43.29413,"lon":5.38624,"is_reserved":false,"is_disabled":false,"rental_uris":{"android":"levelo://app?vid=cc22d7a4-5a51-43ff-9d56-16859a1337c7","ios":"levelo://app?vid=cc22d7a4-5a51-43ff-9d56-16859a1337c7"},"vehicle_type_id":"4","last_reported":1683403564,"current_range_meters":10400,"station_id":"ce4bh2h2rcd13ifvqdh0","pricing_plan_id":"free"},{"bike_id":"58624c96-08f8-4e2d-808b-12c58379c6f1","system_id":"levelo_inurba_marseille","lat":43.29413,"lon":5.38626,"is_reserved":false,"is_disabled":false,"rental_uris":{"android":"levelo://app?vid=58624c96-08f8-4e2d-808b-12c58379c6f1","ios":"levelo://app?vid=58624c96-08f8-4e2d-808b-12c58379c6f1"},"vehicle_type_id":"4","last_reported":1683403564,"current_range_meters":9200,"station_id":"ce4bh2h2rcd13ifvqdh0","pricing_plan_id":"free"},{"bike_id":"4ffe3ce2-a307-4d3b-8031-e1c699c048a2","system_id":"levelo_inurba_marseille","lat":43.289468,"lon":5.363719,"is_reserved":false,"is_disabled":false,"rental_uris":{"android":"levelo://app?vid=4ffe3ce2-a307-4d3b-8031-e1c699c048a2","ios":"levelo://app?vid=4ffe3ce2-a307-4d3b-8031-e1c699c048a2"},"vehicle_type_id":"4","last_reported":1683403564,"current_range_meters":2000,"station_id":"ce4bhc92rcd13ifvqetg","pricing_plan_id":"free"},{"bike_id":"c4976fe0-2c33-44ec-8895-7d6fb0add35a","system_id":"levelo_inurba_marseille","lat":43.29268,"lon":5.38432,"is_reserved":false,"is_disabled":false,"rental_uris":{"android":"levelo://app?vid=c4976fe0-2c33-44ec-8895-7d6fb0add35a","ios":"levelo://app?vid=c4976fe0-2c33-44ec-8895-7d6fb0add35a"},"vehicle_type_id":"4","last_reported":1683403564,"current_range_meters":12800,"station_id":"ce4bh692rcd13ifvqea0","pricing_plan_id":"free"},{"bike_id":"8ffb9840-54e9-4c82-9093-4c211a2731cb","system_id":"levelo_inurba_marseille","lat":43.292644,"lon":5.384257,"is_reserved":false,"is_disabled":false,"rental_uris":{"android":"levelo://app?vid=8ffb9840-54e9-4c82-9093-4c211a2731cb","ios":"levelo://app?vid=8ffb9840-54e9-4c82-9093-4c211a2731cb"},"vehicle_type_id":"4","last_reported":1683403564,"current_range_meters":29200,"station_id":"ce4bh692rcd13ifvqea0","pricing_plan_id":"free"},{"bike_id":"5a5a2825-1a9a-406d-bd94-cbf308d14af9","system_id":"levelo_inurba_marseille","lat":43.29267,"lon":5.38435,"is_reserved":false,"is_disabled":false,"rental_uris":{"android":"levelo://app?vid=5a5a2825-1a9a-406d-bd94-cbf308d14af9","ios":"levelo://app?vid=5a5a2825-1a9a-406d-bd94-cbf308d14af9"},"vehicle_type_id":"4","last_reported":1683403564,"current_range_meters":0,"station_id":"ce4bh692rcd13ifvqea0","pricing_plan_id":"free"},{"bike_id":"0fa3a4d3-0fa2-404c-a00e-b7f86a5a0f69","system_id":"levelo_inurba_marseille","lat":43.29263,"lon":5.38427,"is_reserved":false,"is_disabled":false,"rental_uris":{"android":"levelo://app?vid=0fa3a4d3-0fa2-404c-a00e-b7f86a5a0f69","ios":"levelo://app?vid=0fa3a4d3-0fa2-404c-a00e-b7f86a5a0f69"},"vehicle_type_id":"4","last_reported":1683403564,"current_range_meters":9600,"station_id":"ce4bh692rcd13ifvqea0","pricing_plan_id":"free"},{"bike_id":"01a398aa-0346-4b29-941a-1d956e8bae52","system_id":"levelo_inurba_marseille","lat":43.29269,"lon":5.38444,"is_reserved":false,"is_disabled":false,"rental_uris":{"android":"levelo://app?vid=01a398aa-0346-4b29-941a-1d956e8bae52","ios":"levelo://app?vid=01a398aa-0346-4b29-941a-1d956e8bae52"},"vehicle_type_id":"4","last_reported":1683403564,"current_range_meters":16400,"station_id":"ce4bh692rcd13ifvqea0","pricing_plan_id":"free"},{"bike_id":"f6eab041-6a6e-42ec-88e5-48e54cd0bec6","system_id":"levelo_inurba_marseille","lat":43.29263,"lon":5.38434,"is_reserved":false,"is_disabled":false,"rental_uris":{"android":"levelo://app?vid=f6eab041-6a6e-42ec-88e5-48e54cd0bec6","ios":"levelo://app?vid=f6eab041-6a6e-42ec-88e5-48e54cd0bec6"},"vehicle_type_id":"4","last_reported":1683403564,"current_range_meters":23600,"station_id":"ce4bh692rcd13ifvqea0","pricing_plan_id":"free"},{"bike_id":"6b61bc55-cc66-4a16-85f7-7b1358e61929","system_id":"levelo_inurba_marseille","lat":43.292644,"lon":5.384257,"is_reserved":false,"is_disabled":false,"rental_uris":{"android":"levelo://app?vid=6b61bc55-cc66-4a16-85f7-7b1358e61929","ios":"levelo://app?vid=6b61bc55-cc66-4a16-85f7-7b1358e61929"},"vehicle_type_id":"4","last_reported":1683403564,"current_range_meters":800,"station_id":"ce4bh692rcd13ifvqea0","pricing_plan_id":"free"},{"bike_id":"f8f7ad2e-ef3e-4596-8f6f-d40cac446dbb","system_id":"levelo_inurba_marseille","lat":43.29268,"lon":5.38446,"is_reserved":false,"is_disabled":false,"rental_uris":{"android":"levelo://app?vid=f8f7ad2e-ef3e-4596-8f6f-d40cac446dbb","ios":"levelo://app?vid=f8f7ad2e-ef3e-4596-8f6f-d40cac446dbb"},"vehicle_type_id":"4","last_reported":1683403564,"current_range_meters":1200,"station_id":"ce4bh692rcd13ifvqea0","pricing_plan_id":"free"},{"bike_id":"bd7b23aa-85f2-4f16-af8b-6f5bcdcc809e","system_id":"levelo_inurba_marseille","lat":43.292644,"lon":5.384257,"is_reserved":false,"is_disabled":false,"rental_uris":{"android":"levelo://app?vid=bd7b23aa-85f2-4f16-af8b-6f5bcdcc809e","ios":"levelo://app?vid=bd7b23aa-85f2-4f16-af8b-6f5bcdcc809e"},"vehicle_type_id":"4","last_reported":1683403564,"current_range_meters":5200,"station_id":"ce4bh692rcd13ifvqea0","pricing_plan_id":"free"},{"bike_id":"a358c864-c588-423b-9b4d-7edbca8f81a2","system_id":"levelo_inurba_marseille","lat":43.2926,"lon":5.38431,"is_reserved":false,"is_disabled":false,"rental_uris":{"android":"levelo://app?vid=a358c864-c588-423b-9b4d-7edbca8f81a2","ios":"levelo://app?vid=a358c864-c588-423b-9b4d-7edbca8f81a2"},"vehicle_type_id":"4","last_reported":1683403564,"current_range_meters":25200,"station_id":"ce4bh692rcd13ifvqea0","pricing_plan_id":"free"},{"bike_id":"2bcc12d5-1118-4349-a3dc-dde3ca2c107b","system_id":"levelo_inurba_marseille","lat":43.292644,"lon":5.384257,"is_reserved":false,"is_disabled":false,"rental_uris":{"android":"levelo://app?vid=2bcc12d5-1118-4349-a3dc-dde3ca2c107b","ios":"levelo://app?vid=2bcc12d5-1118-4349-a3dc-dde3ca2c107b"},"vehicle_type_id":"4","last_reported":1683403564,"current_range_meters":24800,"station_id":"ce4bh692rcd13ifvqea0","pricing_plan_id":"free"},{"bike_id":"07028913-90fc-4aa5-ba9d-f09ad98199e3","system_id":"levelo_inurba_marseille","lat":43.29262,"lon":5.38438,"is_reserved":false,"is_disabled":false,"rental_uris":{"android":"levelo://app?vid=07028913-90fc-4aa5-ba9d-f09ad98199e3","ios":"levelo://app?vid=07028913-90fc-4aa5-ba9d-f09ad98199e3"},"vehicle_type_id":"4","last_reported":1683403564,"current_range_meters":11200,"station_id":"ce4bh692rcd13ifvqea0","pricing_plan_id":"free"},{"bike_id":"7518ccbd-bfcb-4304-870a-d7125d5de9ea","system_id":"levelo_inurba_marseille","lat":43.292644,"lon":5.384257,"is_reserved":false,"is_disabled":false,"rental_uris":{"android":"levelo://app?vid=7518ccbd-bfcb-4304-870a-d7125d5de9ea","ios":"levelo://app?vid=7518ccbd-bfcb-4304-870a-d7125d5de9ea"},"vehicle_type_id":"4","last_reported":1683403564,"current_range_meters":31200,"station_id":"ce4bh692rcd13ifvqea0","pricing_plan_id":"free"},{"bike_id":"00596f3f-44a9-462d-894d-2d6b6c66d28d","system_id":"levelo_inurba_marseille","lat":43.292644,"lon":5.384257,"is_reserved":false,"is_disabled":false,"rental_uris":{"android":"levelo://app?vid=00596f3f-44a9-462d-894d-2d6b6c66d28d","ios":"levelo://app?vid=00596f3f-44a9-462d-894d-2d6b6c66d28d"},"vehicle_type_id":"4","last_reported":1683403564,"current_range_meters":31200,"station_id":"ce4bh692rcd13ifvqea0","pricing_plan_id":"free"},{"bike_id":"b66f304a-5f8d-4240-8d58-f6400773ac95","system_id":"levelo_inurba_marseille","lat":43.29262,"lon":5.38441,"is_reserved":false,"is_disabled":false,"rental_uris":{"android":"levelo://app?vid=b66f304a-5f8d-4240-8d58-f6400773ac95","ios":"levelo://app?vid=b66f304a-5f8d-4240-8d58-f6400773ac95"},"vehicle_type_id":"4","last_reported":1683403564,"current_range_meters":11600,"station_id":"ce4bh692rcd13ifvqea0","pricing_plan_id":"free"},{"bike_id":"0f218eff-8f9e-455d-b052-3aec78335582","system_id":"levelo_inurba_marseille","lat":43.29263,"lon":5.38444,"is_reserved":false,"is_disabled":false,"rental_uris":{"android":"levelo://app?vid=0f218eff-8f9e-455d-b052-3aec78335582","ios":"levelo://app?vid=0f218eff-8f9e-455d-b052-3aec78335582"},"vehicle_type_id":"4","last_reported":1683403564,"current_range_meters":3600,"station_id":"ce4bh692rcd13ifvqea0","pricing_plan_id":"free"},{"bike_id":"e943a6f7-e8e6-473f-bd7a-b66bb2fcb2e2","system_id":"levelo_inurba_marseille","lat":43.29262,"lon":5.38442,"is_reserved":false,"is_disabled":false,"rental_uris":{"android":"levelo://app?vid=e943a6f7-e8e6-473f-bd7a-b66bb2fcb2e2","ios":"levelo://app?vid=e943a6f7-e8e6-473f-bd7a-b66bb2fcb2e2"},"vehicle_type_id":"4","last_reported":1683403564,"current_range_meters":10000,"station_id":"ce4bh692rcd13ifvqea0","pricing_plan_id":"free"},{"bike_id":"90cc782d-be20-41fa-9baa-2dfb851cd186","system_id":"levelo_inurba_marseille","lat":43.30275,"lon":5.39663,"is_reserved":false,"is_disabled":false,"rental_uris":{"android":"levelo://app?vid=90cc782d-be20-41fa-9baa-2dfb851cd186","ios":"levelo://app?vid=90cc782d-be20-41fa-9baa-2dfb851cd186"},"vehicle_type_id":"4","last_reported":1683403564,"current_range_meters":8400,"station_id":"","pricing_plan_id":"free"},{"bike_id":"db269131-28db-495c-9106-3a8679a74e04","system_id":"levelo_inurba_marseille","lat":43.29262,"lon":5.38443,"is_reserved":false,"is_disabled":false,"rental_uris":{"android":"levelo://app?vid=db269131-28db-495c-9106-3a8679a74e04","ios":"levelo://app?vid=db269131-28db-495c-9106-3a8679a74e04"},"vehicle_type_id":"4","last_reported":1683403564,"current_range_meters":2000,"station_id":"ce4bh692rcd13ifvqea0","pricing_plan_id":"free"},{"bike_id":"f5b142e0-2c7e-493c-b25a-399ad5aa9721","system_id":"levelo_inurba_marseille","lat":43.292644,"lon":5.384257,"is_reserved":false,"is_disabled":false,"rental_uris":{"android":"levelo://app?vid=f5b142e0-2c7e-493c-b25a-399ad5aa9721","ios":"levelo://app?vid=f5b142e0-2c7e-493c-b25a-399ad5aa9721"},"vehicle_type_id":"4","last_reported":1683403564,"current_range_meters":1600,"station_id":"ce4bh692rcd13ifvqea0","pricing_plan_id":"free"},{"bike_id":"031401c8-fb0a-4f9e-a7ca-dd7f62195c60","system_id":"levelo_inurba_marseille","lat":43.29259,"lon":5.38437,"is_reserved":false,"is_disabled":false,"rental_uris":{"android":"levelo://app?vid=031401c8-fb0a-4f9e-a7ca-dd7f62195c60","ios":"levelo://app?vid=031401c8-fb0a-4f9e-a7ca-dd7f62195c60"},"vehicle_type_id":"4","last_reported":1683403564,"current_range_meters":9600,"station_id":"ce4bh692rcd13ifvqea0","pricing_plan_id":"free"},{"bike_id":"9df29763-3f82-407b-98bc-0b94194080e2","system_id":"levelo_inurba_marseille","lat":43.29264,"lon":5.38448,"is_reserved":false,"is_disabled":false,"rental_uris":{"android":"levelo://app?vid=9df29763-3f82-407b-98bc-0b94194080e2","ios":"levelo://app?vid=9df29763-3f82-407b-98bc-0b94194080e2"},"vehicle_type_id":"4","last_reported":1683403564,"current_range_meters":8400,"station_id":"ce4bh692rcd13ifvqea0","pricing_plan_id":"free"},{"bike_id":"ef8817cc-2635-4cde-92bc-00720a63daaf","system_id":"levelo_inurba_marseille","lat":43.29262,"lon":5.38444,"is_reserved":false,"is_disabled":false,"rental_uris":{"android":"levelo://app?vid=ef8817cc-2635-4cde-92bc-00720a63daaf","ios":"levelo://app?vid=ef8817cc-2635-4cde-92bc-00720a63daaf"},"vehicle_type_id":"4","last_reported":1683403564,"current_range_meters":24400,"station_id":"ce4bh692rcd13ifvqea0","pricing_plan_id":"free"},{"bike_id":"e287cea6-b7b4-49f2-ba5a-9b1ef48bc977","system_id":"levelo_inurba_marseille","lat":43.2926,"lon":5.38441,"is_reserved":false,"is_disabled":false,"rental_uris":{"android":"levelo://app?vid=e287cea6-b7b4-49f2-ba5a-9b1ef48bc977","ios":"levelo://app?vid=e287cea6-b7b4-49f2-ba5a-9b1ef48bc977"},"vehicle_type_id":"4","last_reported":1683403564,"current_range_meters":14000,"station_id":"ce4bh692rcd13ifvqea0","pricing_plan_id":"free"},{"bike_id":"5812ff5e-349e-4a3d-b365-b93a214d8bd2","system_id":"levelo_inurba_marseille","lat":43.29262,"lon":5.38446,"is_reserved":false,"is_disabled":false,"rental_uris":{"android":"levelo://app?vid=5812ff5e-349e-4a3d-b365-b93a214d8bd2","ios":"levelo://app?vid=5812ff5e-349e-4a3d-b365-b93a214d8bd2"},"vehicle_type_id":"4","last_reported":1683403564,"current_range_meters":5200,"station_id":"ce4bh692rcd13ifvqea0","pricing_plan_id":"free"},{"bike_id":"8a1df503-959a-4c2c-8457-c574bc25f424","system_id":"levelo_inurba_marseille","lat":43.29261,"lon":5.38444,"is_reserved":false,"is_disabled":false,"rental_uris":{"android":"levelo://app?vid=8a1df503-959a-4c2c-8457-c574bc25f424","ios":"levelo://app?vid=8a1df503-959a-4c2c-8457-c574bc25f424"},"vehicle_type_id":"4","last_reported":1683403564,"current_range_meters":22000,"station_id":"ce4bh692rcd13ifvqea0","pricing_plan_id":"free"},{"bike_id":"2cbc5c60-0741-413e-8fe4-6b48e62bf9c4","system_id":"levelo_inurba_marseille","lat":43.29264,"lon":5.38451,"is_reserved":false,"is_disabled":false,"rental_uris":{"android":"levelo://app?vid=2cbc5c60-0741-413e-8fe4-6b48e62bf9c4","ios":"levelo://app?vid=2cbc5c60-0741-413e-8fe4-6b48e62bf9c4"},"vehicle_type_id":"4","last_reported":1683403564,"current_range_meters":17600,"station_id":"ce4bh692rcd13ifvqea0","pricing_plan_id":"free"},{"bike_id":"08fa38a0-ba25-409c-9fa9-bd428ae3975d","system_id":"levelo_inurba_marseille","lat":43.29262,"lon":5.38447,"is_reserved":false,"is_disabled":false,"rental_uris":{"android":"levelo://app?vid=08fa38a0-ba25-409c-9fa9-bd428ae3975d","ios":"levelo://app?vid=08fa38a0-ba25-409c-9fa9-bd428ae3975d"},"vehicle_type_id":"4","last_reported":1683403564,"current_range_meters":22400,"station_id":"ce4bh692rcd13ifvqea0","pricing_plan_id":"free"},{"bike_id":"9ce2ac8f-acae-47b5-9d2b-73bb71c67ed2","system_id":"levelo_inurba_marseille","lat":43.29261,"lon":5.38448,"is_reserved":false,"is_disabled":false,"rental_uris":{"android":"levelo://app?vid=9ce2ac8f-acae-47b5-9d2b-73bb71c67ed2","ios":"levelo://app?vid=9ce2ac8f-acae-47b5-9d2b-73bb71c67ed2"},"vehicle_type_id":"4","last_reported":1683403564,"current_range_meters":17200,"station_id":"ce4bh692rcd13ifvqea0","pricing_plan_id":"free"},{"bike_id":"78db225c-55b4-4fb9-b02f-11eca70ab4c1","system_id":"levelo_inurba_marseille","lat":43.29257,"lon":5.38444,"is_reserved":false,"is_disabled":false,"rental_uris":{"android":"levelo://app?vid=78db225c-55b4-4fb9-b02f-11eca70ab4c1","ios":"levelo://app?vid=78db225c-55b4-4fb9-b02f-11eca70ab4c1"},"vehicle_type_id":"4","last_reported":1683403564,"current_range_meters":1200,"station_id":"ce4bh692rcd13ifvqea0","pricing_plan_id":"free"},{"bike_id":"b8617b70-7e12-49cd-ae63-da2c4d4d73dd","system_id":"levelo_inurba_marseille","lat":43.29255,"lon":5.3844,"is_reserved":false,"is_disabled":false,"rental_uris":{"android":"levelo://app?vid=b8617b70-7e12-49cd-ae63-da2c4d4d73dd","ios":"levelo://app?vid=b8617b70-7e12-49cd-ae63-da2c4d4d73dd"},"vehicle_type_id":"4","last_reported":1683403564,"current_range_meters":17200,"station_id":"ce4bh692rcd13ifvqea0","pricing_plan_id":"free"},{"bike_id":"c7d204ce-6619-491c-8812-dc4b0a6a663b","system_id":"levelo_inurba_marseille","lat":43.33041,"lon":5.38917,"is_reserved":false,"is_disabled":false,"rental_uris":{"android":"levelo://app?vid=c7d204ce-6619-491c-8812-dc4b0a6a663b","ios":"levelo://app?vid=c7d204ce-6619-491c-8812-dc4b0a6a663b"},"vehicle_type_id":"4","last_reported":1683403564,"current_range_meters":27600,"station_id":"ce4bhr92rcd13ifvqhrg","pricing_plan_id":"free"},{"bike_id":"10a8eeb7-4f93-4e8d-81bd-f27d3d4ef515","system_id":"levelo_inurba_marseille","lat":43.33041,"lon":5.38918,"is_reserved":false,"is_disabled":false,"rental_uris":{"android":"levelo://app?vid=10a8eeb7-4f93-4e8d-81bd-f27d3d4ef515","ios":"levelo://app?vid=10a8eeb7-4f93-4e8d-81bd-f27d3d4ef515"},"vehicle_type_id":"4","last_reported":1683403564,"current_range_meters":24800,"station_id":"ce4bhr92rcd13ifvqhrg","pricing_plan_id":"free"},{"bike_id":"d6233f8b-531d-433b-b8e9-589e3920c098","system_id":"levelo_inurba_marseille","lat":43.33044,"lon":5.38915,"is_reserved":false,"is_disabled":false,"rental_uris":{"android":"levelo://app?vid=d6233f8b-531d-433b-b8e9-589e3920c098","ios":"levelo://app?vid=d6233f8b-531d-433b-b8e9-589e3920c098"},"vehicle_type_id":"4","last_reported":1683403564,"current_range_meters":20400,"station_id":"ce4bhr92rcd13ifvqhrg","pricing_plan_id":"free"},{"bike_id":"da86836b-d020-456b-ad95-a73c452d8db8","system_id":"levelo_inurba_marseille","lat":43.33041,"lon":5.3892,"is_reserved":false,"is_disabled":false,"rental_uris":{"android":"levelo://app?vid=da86836b-d020-456b-ad95-a73c452d8db8","ios":"levelo://app?vid=da86836b-d020-456b-ad95-a73c452d8db8"},"vehicle_type_id":"4","last_reported":1683403564,"current_range_meters":24000,"station_id":"ce4bhr92rcd13ifvqhrg","pricing_plan_id":"free"},{"bike_id":"d364d2ad-2c66-4587-a79b-ee0314a1a93f","system_id":"levelo_inurba_marseille","lat":43.33043,"lon":5.3892,"is_reserved":false,"is_disabled":false,"rental_uris":{"android":"levelo://app?vid=d364d2ad-2c66-4587-a79b-ee0314a1a93f","ios":"levelo://app?vid=d364d2ad-2c66-4587-a79b-ee0314a1a93f"},"vehicle_type_id":"4","last_reported":1683403564,"current_range_meters":16000,"station_id":"ce4bhr92rcd13ifvqhrg","pricing_plan_id":"free"},{"bike_id":"a89bfe1e-5ebe-4549-b37d-0ce05431e6a7","system_id":"levelo_inurba_marseille","lat":43.33047,"lon":5.38914,"is_reserved":false,"is_disabled":false,"rental_uris":{"android":"levelo://app?vid=a89bfe1e-5ebe-4549-b37d-0ce05431e6a7","ios":"levelo://app?vid=a89bfe1e-5ebe-4549-b37d-0ce05431e6a7"},"vehicle_type_id":"4","last_reported":1683403564,"current_range_meters":3600,"station_id":"ce4bhr92rcd13ifvqhrg","pricing_plan_id":"free"},{"bike_id":"4da2ea4c-0587-4161-8586-452f9bca890c","system_id":"levelo_inurba_marseille","lat":43.33045,"lon":5.38918,"is_reserved":false,"is_disabled":false,"rental_uris":{"android":"levelo://app?vid=4da2ea4c-0587-4161-8586-452f9bca890c","ios":"levelo://app?vid=4da2ea4c-0587-4161-8586-452f9bca890c"},"vehicle_type_id":"4","last_reported":1683403564,"current_range_meters":18800,"station_id":"ce4bhr92rcd13ifvqhrg","pricing_plan_id":"free"},{"bike_id":"7c5f40d0-fbd9-4c76-bb42-238ce9a43ee9","system_id":"levelo_inurba_marseille","lat":43.33047,"lon":5.38915,"is_reserved":false,"is_disabled":false,"rental_uris":{"android":"levelo://app?vid=7c5f40d0-fbd9-4c76-bb42-238ce9a43ee9","ios":"levelo://app?vid=7c5f40d0-fbd9-4c76-bb42-238ce9a43ee9"},"vehicle_type_id":"4","last_reported":1683403564,"current_range_meters":5600,"station_id":"ce4bhr92rcd13ifvqhrg","pricing_plan_id":"free"},{"bike_id":"fe8d863b-eaf3-4fac-9bf6-10fdde4a5bf4","system_id":"levelo_inurba_marseille","lat":43.33044,"lon":5.38921,"is_reserved":false,"is_disabled":false,"rental_uris":{"android":"levelo://app?vid=fe8d863b-eaf3-4fac-9bf6-10fdde4a5bf4","ios":"levelo://app?vid=fe8d863b-eaf3-4fac-9bf6-10fdde4a5bf4"},"vehicle_type_id":"4","last_reported":1683403564,"current_range_meters":0,"station_id":"ce4bhr92rcd13ifvqhrg","pricing_plan_id":"free"},{"bike_id":"2a4c9986-79e6-473a-9088-a22214a8de69","system_id":"levelo_inurba_marseille","lat":43.33046,"lon":5.38918,"is_reserved":false,"is_disabled":false,"rental_uris":{"android":"levelo://app?vid=2a4c9986-79e6-473a-9088-a22214a8de69","ios":"levelo://app?vid=2a4c9986-79e6-473a-9088-a22214a8de69"},"vehicle_type_id":"4","last_reported":1683403564,"current_range_meters":15200,"station_id":"ce4bhr92rcd13ifvqhrg","pricing_plan_id":"free"},{"bike_id":"9993b21d-b92b-455d-bc97-303e3372131d","system_id":"levelo_inurba_marseille","lat":43.33045,"lon":5.3892,"is_reserved":false,"is_disabled":false,"rental_uris":{"android":"levelo://app?vid=9993b21d-b92b-455d-bc97-303e3372131d","ios":"levelo://app?vid=9993b21d-b92b-455d-bc97-303e3372131d"},"vehicle_type_id":"4","last_reported":1683403564,"current_range_meters":26000,"station_id":"ce4bhr92rcd13ifvqhrg","pricing_plan_id":"free"},{"bike_id":"276fe03b-4431-4a2c-b1e5-88809bc1c6ad","system_id":"levelo_inurba_marseille","lat":43.33045,"lon":5.38921,"is_reserved":false,"is_disabled":false,"rental_uris":{"android":"levelo://app?vid=276fe03b-4431-4a2c-b1e5-88809bc1c6ad","ios":"levelo://app?vid=276fe03b-4431-4a2c-b1e5-88809bc1c6ad"},"vehicle_type_id":"4","last_reported":1683403564,"current_range_meters":8800,"station_id":"ce4bhr92rcd13ifvqhrg","pricing_plan_id":"free"},{"bike_id":"8d9e3b32-0d5b-4f30-b006-27d419fc95c1","system_id":"levelo_inurba_marseille","lat":43.33044,"lon":5.38923,"is_reserved":false,"is_disabled":false,"rental_uris":{"android":"levelo://app?vid=8d9e3b32-0d5b-4f30-b006-27d419fc95c1","ios":"levelo://app?vid=8d9e3b32-0d5b-4f30-b006-27d419fc95c1"},"vehicle_type_id":"4","last_reported":1683403564,"current_range_meters":17200,"station_id":"ce4bhr92rcd13ifvqhrg","pricing_plan_id":"free"},{"bike_id":"496fc879-c6a2-4335-9eab-2fdd6a6f8bf1","system_id":"levelo_inurba_marseille","lat":43.33045,"lon":5.38926,"is_reserved":false,"is_disabled":false,"rental_uris":{"android":"levelo://app?vid=496fc879-c6a2-4335-9eab-2fdd6a6f8bf1","ios":"levelo://app?vid=496fc879-c6a2-4335-9eab-2fdd6a6f8bf1"},"vehicle_type_id":"4","last_reported":1683403564,"current_range_meters":15600,"station_id":"ce4bhr92rcd13ifvqhrg","pricing_plan_id":"free"},{"bike_id":"c6d8bc85-5d48-4175-a0b2-78b2152265a7","system_id":"levelo_inurba_marseille","lat":43.33052,"lon":5.38916,"is_reserved":false,"is_disabled":false,"rental_uris":{"android":"levelo://app?vid=c6d8bc85-5d48-4175-a0b2-78b2152265a7","ios":"levelo://app?vid=c6d8bc85-5d48-4175-a0b2-78b2152265a7"},"vehicle_type_id":"4","last_reported":1683403564,"current_range_meters":2800,"station_id":"ce4bhr92rcd13ifvqhrg","pricing_plan_id":"free"},{"bike_id":"8cd5e1e4-e937-439c-bf8a-43fbaac45a10","system_id":"levelo_inurba_marseille","lat":43.33043,"lon":5.3893,"is_reserved":false,"is_disabled":false,"rental_uris":{"android":"levelo://app?vid=8cd5e1e4-e937-439c-bf8a-43fbaac45a10","ios":"levelo://app?vid=8cd5e1e4-e937-439c-bf8a-43fbaac45a10"},"vehicle_type_id":"4","last_reported":1683403564,"current_range_meters":22400,"station_id":"ce4bhr92rcd13ifvqhrg","pricing_plan_id":"free"},{"bike_id":"61c8feab-85ef-491d-99f9-a7b3cd7da74d","system_id":"levelo_inurba_marseille","lat":43.291038,"lon":5.381595,"is_reserved":false,"is_disabled":false,"rental_uris":{"android":"levelo://app?vid=61c8feab-85ef-491d-99f9-a7b3cd7da74d","ios":"levelo://app?vid=61c8feab-85ef-491d-99f9-a7b3cd7da74d"},"vehicle_type_id":"4","last_reported":1683403564,"current_range_meters":13600,"station_id":"ce4bh512rcd13ifvqe2g","pricing_plan_id":"free"},{"bike_id":"5f1a8f16-c9e1-4b38-bbf4-f03af9177f1d","system_id":"levelo_inurba_marseille","lat":43.289743,"lon":5.378304,"is_reserved":false,"is_disabled":false,"rental_uris":{"android":"levelo://app?vid=5f1a8f16-c9e1-4b38-bbf4-f03af9177f1d","ios":"levelo://app?vid=5f1a8f16-c9e1-4b38-bbf4-f03af9177f1d"},"vehicle_type_id":"4","last_reported":1683403564,"current_range_meters":0,"station_id":"ce4bh9p2rcd13ifvqed0","pricing_plan_id":"free"},{"bike_id":"7e62201f-8884-4eba-88dc-70c362ca43a4","system_id":"levelo_inurba_marseille","lat":43.295169,"lon":5.390426,"is_reserved":false,"is_disabled":false,"rental_uris":{"android":"levelo://app?vid=7e62201f-8884-4eba-88dc-70c362ca43a4","ios":"levelo://app?vid=7e62201f-8884-4eba-88dc-70c362ca43a4"},"vehicle_type_id":"4","last_reported":1683403564,"current_range_meters":8400,"station_id":"ce4bh3p2rcd13ifvqdp0","pricing_plan_id":"free"},{"bike_id":"674b3a9f-82a3-4e3e-8df6-d61f218fad0f","system_id":"levelo_inurba_marseille","lat":43.30222,"lon":5.39744,"is_reserved":false,"is_disabled":false,"rental_uris":{"android":"levelo://app?vid=674b3a9f-82a3-4e3e-8df6-d61f218fad0f","ios":"levelo://app?vid=674b3a9f-82a3-4e3e-8df6-d61f218fad0f"},"vehicle_type_id":"4","last_reported":1683403564,"current_range_meters":8400,"station_id":"ce4bgkh2rcd13ifvqbk0","pricing_plan_id":"free"},{"bike_id":"f43d6350-d9c4-478e-b3d2-1d3bbcd2f713","system_id":"levelo_inurba_marseille","lat":43.290094,"lon":5.381264,"is_reserved":false,"is_disabled":false,"rental_uris":{"android":"levelo://app?vid=f43d6350-d9c4-478e-b3d2-1d3bbcd2f713","ios":"levelo://app?vid=f43d6350-d9c4-478e-b3d2-1d3bbcd2f713"},"vehicle_type_id":"4","last_reported":1683403564,"current_range_meters":2400,"station_id":"ce4bh4p2rcd13ifvqe1g","pricing_plan_id":"free"},{"bike_id":"698fd097-8312-45e9-898a-2ed1e870c9dc","system_id":"levelo_inurba_marseille","lat":43.29023,"lon":5.38143,"is_reserved":false,"is_disabled":false,"rental_uris":{"android":"levelo://app?vid=698fd097-8312-45e9-898a-2ed1e870c9dc","ios":"levelo://app?vid=698fd097-8312-45e9-898a-2ed1e870c9dc"},"vehicle_type_id":"4","last_reported":1683403564,"current_range_meters":0,"station_id":"ce4bh4p2rcd13ifvqe1g","pricing_plan_id":"free"},{"bike_id":"20083ae5-f09f-4d10-9758-3cdd331d6a45","system_id":"levelo_inurba_marseille","lat":43.33735,"lon":5.37454,"is_reserved":false,"is_disabled":false,"rental_uris":{"android":"levelo://app?vid=20083ae5-f09f-4d10-9758-3cdd331d6a45","ios":"levelo://app?vid=20083ae5-f09f-4d10-9758-3cdd331d6a45"},"vehicle_type_id":"4","last_reported":1683403564,"current_range_meters":14400,"station_id":"","pricing_plan_id":"free"},{"bike_id":"34320fce-24bb-4291-be42-2c361aed67f0","system_id":"levelo_inurba_marseille","lat":43.33746,"lon":5.37444,"is_reserved":false,"is_disabled":false,"rental_uris":{"android":"levelo://app?vid=34320fce-24bb-4291-be42-2c361aed67f0","ios":"levelo://app?vid=34320fce-24bb-4291-be42-2c361aed67f0"},"vehicle_type_id":"4","last_reported":1683403564,"current_range_meters":22800,"station_id":"","pricing_plan_id":"free"},{"bike_id":"d1338cde-b3d1-46b1-8800-7a50c92c327c","system_id":"levelo_inurba_marseille","lat":43.3375,"lon":5.3743,"is_reserved":false,"is_disabled":false,"rental_uris":{"android":"levelo://app?vid=d1338cde-b3d1-46b1-8800-7a50c92c327c","ios":"levelo://app?vid=d1338cde-b3d1-46b1-8800-7a50c92c327c"},"vehicle_type_id":"4","last_reported":1683403564,"current_range_meters":26000,"station_id":"","pricing_plan_id":"free"},{"bike_id":"ab7b8dc5-9722-47e7-8a78-100d1a674f6d","system_id":"levelo_inurba_marseille","lat":43.33753,"lon":5.37469,"is_reserved":false,"is_disabled":false,"rental_uris":{"android":"levelo://app?vid=ab7b8dc5-9722-47e7-8a78-100d1a674f6d","ios":"levelo://app?vid=ab7b8dc5-9722-47e7-8a78-100d1a674f6d"},"vehicle_type_id":"4","last_reported":1683403564,"current_range_meters":6400,"station_id":"","pricing_plan_id":"free"},{"bike_id":"cc5900b6-b927-49fc-82db-4d13a3d02316","system_id":"levelo_inurba_marseille","lat":43.33752,"lon":5.37486,"is_reserved":false,"is_disabled":false,"rental_uris":{"android":"levelo://app?vid=cc5900b6-b927-49fc-82db-4d13a3d02316","ios":"levelo://app?vid=cc5900b6-b927-49fc-82db-4d13a3d02316"},"vehicle_type_id":"4","last_reported":1683403564,"current_range_meters":25200,"station_id":"","pricing_plan_id":"free"},{"bike_id":"c452a78d-8a25-4dac-a034-b406e8dd2a51","system_id":"levelo_inurba_marseille","lat":43.28785,"lon":5.35946,"is_reserved":false,"is_disabled":false,"rental_uris":{"android":"levelo://app?vid=c452a78d-8a25-4dac-a034-b406e8dd2a51","ios":"levelo://app?vid=c452a78d-8a25-4dac-a034-b406e8dd2a51"},"vehicle_type_id":"4","last_reported":1683403564,"current_range_meters":3600,"station_id":"","pricing_plan_id":"free"},{"bike_id":"db84b57a-c242-4d31-93f3-e9f12005c4b3","system_id":"levelo_inurba_marseille","lat":43.33762,"lon":5.37494,"is_reserved":false,"is_disabled":false,"rental_uris":{"android":"levelo://app?vid=db84b57a-c242-4d31-93f3-e9f12005c4b3","ios":"levelo://app?vid=db84b57a-c242-4d31-93f3-e9f12005c4b3"},"vehicle_type_id":"4","last_reported":1683403564,"current_range_meters":26000,"station_id":"","pricing_plan_id":"free"},{"bike_id":"b7d8c7c1-59f8-41a2-949e-19f944e5e20b","system_id":"levelo_inurba_marseille","lat":43.298681,"lon":5.397225,"is_reserved":false,"is_disabled":false,"rental_uris":{"android":"levelo://app?vid=b7d8c7c1-59f8-41a2-949e-19f944e5e20b","ios":"levelo://app?vid=b7d8c7c1-59f8-41a2-949e-19f944e5e20b"},"vehicle_type_id":"4","last_reported":1683403564,"current_range_meters":16400,"station_id":"ce4bh0h2rcd13ifvqd50","pricing_plan_id":"free"},{"bike_id":"1ebe7cc8-2a3d-448b-b3d5-4fad0bcf045c","system_id":"levelo_inurba_marseille","lat":43.29874,"lon":5.39729,"is_reserved":false,"is_disabled":false,"rental_uris":{"android":"levelo://app?vid=1ebe7cc8-2a3d-448b-b3d5-4fad0bcf045c","ios":"levelo://app?vid=1ebe7cc8-2a3d-448b-b3d5-4fad0bcf045c"},"vehicle_type_id":"4","last_reported":1683403564,"current_range_meters":6400,"station_id":"ce4bh0h2rcd13ifvqd50","pricing_plan_id":"free"},{"bike_id":"b8b39e02-be40-471a-9daf-6df4ffc78ef5","system_id":"levelo_inurba_marseille","lat":43.295196,"lon":5.39397,"is_reserved":false,"is_disabled":false,"rental_uris":{"android":"levelo://app?vid=b8b39e02-be40-471a-9daf-6df4ffc78ef5","ios":"levelo://app?vid=b8b39e02-be40-471a-9daf-6df4ffc78ef5"},"vehicle_type_id":"4","last_reported":1683403564,"current_range_meters":26400,"station_id":"ce4bh292rcd13ifvqdf0","pricing_plan_id":"free"},{"bike_id":"67477ed5-4aa9-47d7-869c-3ffec17aa362","system_id":"levelo_inurba_marseille","lat":43.295196,"lon":5.39397,"is_reserved":false,"is_disabled":false,"rental_uris":{"android":"levelo://app?vid=67477ed5-4aa9-47d7-869c-3ffec17aa362","ios":"levelo://app?vid=67477ed5-4aa9-47d7-869c-3ffec17aa362"},"vehicle_type_id":"4","last_reported":1683403564,"current_range_meters":22800,"station_id":"ce4bh292rcd13ifvqdf0","pricing_plan_id":"free"},{"bike_id":"1646c2af-9af1-4563-8db2-8a5cdffc8702","system_id":"levelo_inurba_marseille","lat":43.298681,"lon":5.397225,"is_reserved":false,"is_disabled":false,"rental_uris":{"android":"levelo://app?vid=1646c2af-9af1-4563-8db2-8a5cdffc8702","ios":"levelo://app?vid=1646c2af-9af1-4563-8db2-8a5cdffc8702"},"vehicle_type_id":"4","last_reported":1683403564,"current_range_meters":8400,"station_id":"ce4bh0h2rcd13ifvqd50","pricing_plan_id":"free"},{"bike_id":"d9ba26b8-9743-4868-89c0-1910fb29e306","system_id":"levelo_inurba_marseille","lat":43.29526,"lon":5.39393,"is_reserved":false,"is_disabled":false,"rental_uris":{"android":"levelo://app?vid=d9ba26b8-9743-4868-89c0-1910fb29e306","ios":"levelo://app?vid=d9ba26b8-9743-4868-89c0-1910fb29e306"},"vehicle_type_id":"4","last_reported":1683403564,"current_range_meters":16800,"station_id":"ce4bh292rcd13ifvqdf0","pricing_plan_id":"free"},{"bike_id":"31c09b77-6971-4dc3-9725-29c0d80af837","system_id":"levelo_inurba_marseille","lat":43.295196,"lon":5.39397,"is_reserved":false,"is_disabled":false,"rental_uris":{"android":"levelo://app?vid=31c09b77-6971-4dc3-9725-29c0d80af837","ios":"levelo://app?vid=31c09b77-6971-4dc3-9725-29c0d80af837"},"vehicle_type_id":"4","last_reported":1683403564,"current_range_meters":0,"station_id":"ce4bh292rcd13ifvqdf0","pricing_plan_id":"free"},{"bike_id":"98f40e42-4514-40cd-8e6a-455435e092f3","system_id":"levelo_inurba_marseille","lat":43.295196,"lon":5.39397,"is_reserved":false,"is_disabled":false,"rental_uris":{"android":"levelo://app?vid=98f40e42-4514-40cd-8e6a-455435e092f3","ios":"levelo://app?vid=98f40e42-4514-40cd-8e6a-455435e092f3"},"vehicle_type_id":"4","last_reported":1683403564,"current_range_meters":4400,"station_id":"ce4bh292rcd13ifvqdf0","pricing_plan_id":"free"},{"bike_id":"17ad068b-4c7e-40c4-bf43-850d51c808ab","system_id":"levelo_inurba_marseille","lat":43.290345,"lon":5.38646,"is_reserved":false,"is_disabled":false,"rental_uris":{"android":"levelo://app?vid=17ad068b-4c7e-40c4-bf43-850d51c808ab","ios":"levelo://app?vid=17ad068b-4c7e-40c4-bf43-850d51c808ab"},"vehicle_type_id":"4","last_reported":1683403564,"current_range_meters":2800,"station_id":"ce4bh4p2rcd13ifvqe0g","pricing_plan_id":"free"},{"bike_id":"9fbf225f-8e17-4b68-be38-0cb31a34270a","system_id":"levelo_inurba_marseille","lat":43.302759,"lon":5.400793,"is_reserved":false,"is_disabled":false,"rental_uris":{"android":"levelo://app?vid=9fbf225f-8e17-4b68-be38-0cb31a34270a","ios":"levelo://app?vid=9fbf225f-8e17-4b68-be38-0cb31a34270a"},"vehicle_type_id":"4","last_reported":1683403564,"current_range_meters":2800,"station_id":"ce4bgvh2rcd13ifvqcs0","pricing_plan_id":"free"},{"bike_id":"128f89c1-0b7b-4a2e-8bd8-17d31413ff2d","system_id":"levelo_inurba_marseille","lat":43.290345,"lon":5.38646,"is_reserved":false,"is_disabled":false,"rental_uris":{"android":"levelo://app?vid=128f89c1-0b7b-4a2e-8bd8-17d31413ff2d","ios":"levelo://app?vid=128f89c1-0b7b-4a2e-8bd8-17d31413ff2d"},"vehicle_type_id":"4","last_reported":1683403564,"current_range_meters":11600,"station_id":"ce4bh4p2rcd13ifvqe0g","pricing_plan_id":"free"},{"bike_id":"88b643d3-7bcc-4281-849d-88b2a37fec75","system_id":"levelo_inurba_marseille","lat":43.290336,"lon":5.386425,"is_reserved":false,"is_disabled":false,"rental_uris":{"android":"levelo://app?vid=88b643d3-7bcc-4281-849d-88b2a37fec75","ios":"levelo://app?vid=88b643d3-7bcc-4281-849d-88b2a37fec75"},"vehicle_type_id":"4","last_reported":1683403564,"current_range_meters":23200,"station_id":"ce4bh4p2rcd13ifvqe0g","pricing_plan_id":"free"},{"bike_id":"19799e8b-a408-4c7d-855d-70c41ad628c9","system_id":"levelo_inurba_marseille","lat":43.302759,"lon":5.400793,"is_reserved":false,"is_disabled":false,"rental_uris":{"android":"levelo://app?vid=19799e8b-a408-4c7d-855d-70c41ad628c9","ios":"levelo://app?vid=19799e8b-a408-4c7d-855d-70c41ad628c9"},"vehicle_type_id":"4","last_reported":1683403564,"current_range_meters":12000,"station_id":"ce4bgvh2rcd13ifvqcs0","pricing_plan_id":"free"},{"bike_id":"2441c883-a568-43af-a6b1-9768a492ef33","system_id":"levelo_inurba_marseille","lat":43.286039,"lon":5.370679,"is_reserved":false,"is_disabled":false,"rental_uris":{"android":"levelo://app?vid=2441c883-a568-43af-a6b1-9768a492ef33","ios":"levelo://app?vid=2441c883-a568-43af-a6b1-9768a492ef33"},"vehicle_type_id":"4","last_reported":1683403564,"current_range_meters":20000,"station_id":"ce4bht12rcd13ifvqi60","pricing_plan_id":"free"},{"bike_id":"e7b79340-b67e-4b94-99ad-9bcd36f07927","system_id":"levelo_inurba_marseille","lat":43.286039,"lon":5.370679,"is_reserved":false,"is_disabled":false,"rental_uris":{"android":"levelo://app?vid=e7b79340-b67e-4b94-99ad-9bcd36f07927","ios":"levelo://app?vid=e7b79340-b67e-4b94-99ad-9bcd36f07927"},"vehicle_type_id":"4","last_reported":1683403564,"current_range_meters":5600,"station_id":"ce4bht12rcd13ifvqi60","pricing_plan_id":"free"},{"bike_id":"bdf67162-fa2a-4e32-a12a-412b663c98cb","system_id":"levelo_inurba_marseille","lat":43.287184,"lon":5.37937,"is_reserved":false,"is_disabled":false,"rental_uris":{"android":"levelo://app?vid=bdf67162-fa2a-4e32-a12a-412b663c98cb","ios":"levelo://app?vid=bdf67162-fa2a-4e32-a12a-412b663c98cb"},"vehicle_type_id":"4","last_reported":1683403564,"current_range_meters":28800,"station_id":"ce4bh9p2rcd13ifvqec0","pricing_plan_id":"free"},{"bike_id":"b75d8dfc-a8d6-42c2-b777-dcff3af69a9b","system_id":"levelo_inurba_marseille","lat":43.287184,"lon":5.37937,"is_reserved":false,"is_disabled":false,"rental_uris":{"android":"levelo://app?vid=b75d8dfc-a8d6-42c2-b777-dcff3af69a9b","ios":"levelo://app?vid=b75d8dfc-a8d6-42c2-b777-dcff3af69a9b"},"vehicle_type_id":"4","last_reported":1683403564,"current_range_meters":14000,"station_id":"ce4bh9p2rcd13ifvqec0","pricing_plan_id":"free"},{"bike_id":"dc18f4d0-47db-494a-a9fe-b15711cd7d29","system_id":"levelo_inurba_marseille","lat":43.316517,"lon":5.404375,"is_reserved":false,"is_disabled":false,"rental_uris":{"android":"levelo://app?vid=dc18f4d0-47db-494a-a9fe-b15711cd7d29","ios":"levelo://app?vid=dc18f4d0-47db-494a-a9fe-b15711cd7d29"},"vehicle_type_id":"4","last_reported":1683403564,"current_range_meters":0,"station_id":"ce4bh012rcd13ifvqd00","pricing_plan_id":"free"},{"bike_id":"f01b5720-cf2e-4703-909d-799d56576f52","system_id":"levelo_inurba_marseille","lat":43.316517,"lon":5.404375,"is_reserved":false,"is_disabled":false,"rental_uris":{"android":"levelo://app?vid=f01b5720-cf2e-4703-909d-799d56576f52","ios":"levelo://app?vid=f01b5720-cf2e-4703-909d-799d56576f52"},"vehicle_type_id":"4","last_reported":1683403564,"current_range_meters":800,"station_id":"ce4bh012rcd13ifvqd00","pricing_plan_id":"free"},{"bike_id":"27865f6e-c046-4416-9233-48156b6bae2c","system_id":"levelo_inurba_marseille","lat":43.33482,"lon":5.38984,"is_reserved":false,"is_disabled":false,"rental_uris":{"android":"levelo://app?vid=27865f6e-c046-4416-9233-48156b6bae2c","ios":"levelo://app?vid=27865f6e-c046-4416-9233-48156b6bae2c"},"vehicle_type_id":"4","last_reported":1683403564,"current_range_meters":28400,"station_id":"","pricing_plan_id":"free"},{"bike_id":"966d33ff-d074-4b51-aa24-eb3916cdc4e0","system_id":"levelo_inurba_marseille","lat":43.291994,"lon":5.392907,"is_reserved":false,"is_disabled":false,"rental_uris":{"android":"levelo://app?vid=966d33ff-d074-4b51-aa24-eb3916cdc4e0","ios":"levelo://app?vid=966d33ff-d074-4b51-aa24-eb3916cdc4e0"},"vehicle_type_id":"4","last_reported":1683403564,"current_range_meters":15200,"station_id":"ce4bh192rcd13ifvqdd0","pricing_plan_id":"free"},{"bike_id":"bf28d484-617f-4a64-9a56-3baa97c06401","system_id":"levelo_inurba_marseille","lat":43.284534,"lon":5.358662,"is_reserved":false,"is_disabled":false,"rental_uris":{"android":"levelo://app?vid=bf28d484-617f-4a64-9a56-3baa97c06401","ios":"levelo://app?vid=bf28d484-617f-4a64-9a56-3baa97c06401"},"vehicle_type_id":"4","last_reported":1683403564,"current_range_meters":23600,"station_id":"ce4bhah2rcd13ifvqei0","pricing_plan_id":"free"},{"bike_id":"adb10e5d-7dc2-4cb6-8935-2ba81c5c38aa","system_id":"levelo_inurba_marseille","lat":43.286595,"lon":5.386795,"is_reserved":false,"is_disabled":false,"rental_uris":{"android":"levelo://app?vid=adb10e5d-7dc2-4cb6-8935-2ba81c5c38aa","ios":"levelo://app?vid=adb10e5d-7dc2-4cb6-8935-2ba81c5c38aa"},"vehicle_type_id":"4","last_reported":1683403564,"current_range_meters":2000,"station_id":"ce4bh492rcd13ifvqdug","pricing_plan_id":"free"},{"bike_id":"88c45ff6-81cf-400d-bd58-9dabf3ee6abe","system_id":"levelo_inurba_marseille","lat":43.286595,"lon":5.386795,"is_reserved":false,"is_disabled":false,"rental_uris":{"android":"levelo://app?vid=88c45ff6-81cf-400d-bd58-9dabf3ee6abe","ios":"levelo://app?vid=88c45ff6-81cf-400d-bd58-9dabf3ee6abe"},"vehicle_type_id":"4","last_reported":1683403564,"current_range_meters":2000,"station_id":"ce4bh492rcd13ifvqdug","pricing_plan_id":"free"},{"bike_id":"7e9ba6b5-669a-4d6a-b8a4-075543511af0","system_id":"levelo_inurba_marseille","lat":43.286595,"lon":5.386795,"is_reserved":false,"is_disabled":false,"rental_uris":{"android":"levelo://app?vid=7e9ba6b5-669a-4d6a-b8a4-075543511af0","ios":"levelo://app?vid=7e9ba6b5-669a-4d6a-b8a4-075543511af0"},"vehicle_type_id":"4","last_reported":1683403564,"current_range_meters":17600,"station_id":"ce4bh492rcd13ifvqdug","pricing_plan_id":"free"},