{"last_updated":1742458401,"ttl":60,"version":"2.2","data":{"bikes":[{"bike_id":"c3092b8b-dfdf-43c7-9f67-f0d4fb663060","system_id":"levelo_inurba_marseille","lat":43.24669,"lon":5.38162,"is_reserved":false,"is_disabled":false,"rental_uris":{"android":"levelo://app?vid=c3092b8b-dfdf-43c7-9f67-f0d4fb663060","ios":"levelo://app?vid=c3092b8b-dfdf-43c7-9f67-f0d4fb663060"},"vehicle_type_id":"4","last_reported":1742458402,"current_range_meters":2800,"station_id":"ce4bhih2rcd13ifvqfr0","pricing_plan_id":"cebpf4jnsgd1na2vs0mg"},{"bike_id":"41ccd72c-504a-4b33-907d-e3b6bd114bcb","system_id":"levelo_inurba_marseille","lat":43.23211,"lon":5.35556,"is_reserved":false,"is_disabled":false,"rental_uris":{"android":"levelo://app?vid=41ccd72c-504a-4b33-907d-e3b6bd114bcb","ios":"levelo://app?vid=41ccd72c-504a-4b33-907d-e3b6bd114bcb"},"vehicle_type_id":"4","last_reported":1742458402,"current_range_meters":2800,"station_id":"ce4bhu92rcd13ifvqi70","pricing_plan_id":"cebpf4jnsgd1na2vs0mg"},{"bike_id":"07a84210-640a-4451-abeb-0f9d302f1d58","system_id":"levelo_inurba_marseille","lat":43.26563,"lon":5.39027,"is_reserved":false,"is_disabled":true,"rental_uris":{"android":"levelo://app?vid=07a84210-640a-4451-abeb-0f9d302f1d58","ios":"levelo://app?vid=07a84210-640a-4451-abeb-0f9d302f1d58"},"vehicle_type_id":"4","last_reported":1742458402,"current_range_meters":2800,"station_id":"ce4bhe12rcd13ifvqf30","pricing_plan_id":"cebpf4jnsgd1na2vs0mg"},{"bike_id":"6b3cfac7-74e4-4bc4-bebe-e4f415ce5543","system_id":"levelo_inurba_marseille","lat":43.28164,"lon":5.42659,"is_reserved":false,"is_disabled":false,"rental_uris":{"android":"levelo://app?vid=6b3cfac7-74e4-4bc4-bebe-e4f415ce5543","ios":"levelo://app?vid=6b3cfac7-74e4-4bc4-bebe-e4f415ce5543"},"vehicle_type_id":"4","last_reported":1742458402,"current_range_meters":2800,"station_id":"ce4bhnh2rcd13ifvqgug","pricing_plan_id":"cebpf4jnsgd1na2vs0mg"},{"bike_id":"14fa8109-552c-4d82-93da-ea513344e514","system_id":"levelo_inurba_marseille","lat":43.30947,"lon":5.390303,"is_reserved":false,"is_disabled":false,"rental_uris":{"android":"levelo://app?vid=14fa8109-552c-4d82-93da-ea513344e514","ios":"levelo://app?vid=14fa8109-552c-4d82-93da-ea513344e514"},"vehicle_type_id":"4","last_reported":1742458402,"current_range_meters":2800,"station_id":"ce4bgup2rcd13ifvqco0","pricing_plan_id":"cebpf4jnsgd1na2vs0mg"},{"bike_id":"6ae6f76c-6a01-4d75-9d3f-dfa610803a78","system_id":"levelo_inurba_marseille","lat":43.230678,"lon":5.354906,"is_reserved":false,"is_disabled":false,"rental_uris":{"android":"levelo://app?vid=6ae6f76c-6a01-4d75-9d3f-dfa610803a78","ios":"levelo://app?vid=6ae6f76c-6a01-4d75-9d3f-dfa610803a78"},"vehicle_type_id":"4","last_reported":1742458402,"current_range_meters":3200,"station_id":"cpo3342slgdg3j2ifvpg","pricing_plan_id":"cebpf4jnsgd1na2vs0mg"},{"bike_id":"58e7cdac-0e7e-479c-b27c-6cfb35b99aeb","system_id":"levelo_inurba_marseille","lat":43.29972,"lon":5.37186,"is_reserved":false,"is_disabled":false,"rental_uris":{"android":"levelo://app?vid=58e7cdac-0e7e-479c-b27c-6cfb35b99aeb","ios":"levelo://app?vid=58e7cdac-0e7e-479c-b27c-6cfb35b99aeb"},"vehicle_type_id":"4","last_reported":1742458402,"current_range_meters":3200,"station_id":"ce4bgr92rcd13ifvqc7g","pricing_plan_id":"cebpf4jnsgd1na2vs0mg"},{"bike_id":"a28abf16-b269-4dd6-8a6b-7405838384a7","system_id":"levelo_inurba_marseille","lat":43.32483,"lon":5.36573,"is_reserved":false,"is_disabled":false,"rental_uris":{"android":"levelo://app?vid=a28abf16-b269-4dd6-8a6b-7405838384a7","ios":"levelo://app?vid=a28abf16-b269-4dd6-8a6b-7405838384a7"},"vehicle_type_id":"4","last_reported":1742458402,"current_range_meters":3200,"station_id":"ce4bhs12rcd13ifvqhvg","pricing_plan_id":"cebpf4jnsgd1na2vs0mg"},{"bike_id":"e8a08f3f-edc7-4f5c-9ddf-00d491c18255","system_id":"levelo_inurba_marseille","lat":43.28478,"lon":5.38429,"is_reserved":false,"is_disabled":false,"rental_uris":{"android":"levelo://app?vid=e8a08f3f-edc7-4f5c-9ddf-00d491c18255","ios":"levelo://app?vid=e8a08f3f-edc7-4f5c-9ddf-00d491c18255"},"vehicle_type_id":"4","last_reported":1742458402,"current_range_meters":3200,"station_id":"ce4bh512rcd13ifvqe3g","pricing_plan_id":"cebpf4jnsgd1na2vs0mg"},{"bike_id":"e5d70aec-b4ea-4ec7-aabf-b6a121e76f45","system_id":"levelo_inurba_marseille","lat":43.24082,"lon":5.37754,"is_reserved":false,"is_disabled":false,"rental_uris":{"android":"levelo://app?vid=e5d70aec-b4ea-4ec7-aabf-b6a121e76f45","ios":"levelo://app?vid=e5d70aec-b4ea-4ec7-aabf-b6a121e76f45"},"vehicle_type_id":"4","last_reported":1742458402,"current_range_meters":3200,"station_id":"ce4bhnp2rcd13ifvqgvg","pricing_plan_id":"cebpf4jnsgd1na2vs0mg"},{"bike_id":"01766aec-9231-48bd-811a-531e00458c95","system_id":"levelo_inurba_marseille","lat":43.28861,"lon":5.39299,"is_reserved":false,"is_disabled":false,"rental_uris":{"android":"levelo://app?vid=01766aec-9231-48bd-811a-531e00458c95","ios":"levelo://app?vid=01766aec-9231-48bd-811a-531e00458c95"},"vehicle_type_id":"4","last_reported":1742458402,"current_range_meters":0,"station_id":"ce4bh2p2rcd13ifvqdi0","pricing_plan_id":"cebpf4jnsgd1na2vs0mg"},{"bike_id":"836e8d55-a30d-4fc4-98f2-d3a793e0ee1a","system_id":"levelo_inurba_marseille","lat":43.24667,"lon":5.38164,"is_reserved":false,"is_disabled":false,"rental_uris":{"android":"levelo://app?vid=836e8d55-a30d-4fc4-98f2-d3a793e0ee1a","ios":"levelo://app?vid=836e8d55-a30d-4fc4-98f2-d3a793e0ee1a"},"vehicle_type_id":"4","last_reported":1742458402,"current_range_meters":3600,"station_id":"ce4bhih2rcd13ifvqfr0","pricing_plan_id":"cebpf4jnsgd1na2vs0mg"},{"bike_id":"f3d67af5-1546-4371-a1af-fe87999808e4","system_id":"levelo_inurba_marseille","lat":43.30177,"lon":5.38085,"is_reserved":false,"is_disabled":false,"rental_uris":{"android":"levelo://app?vid=f3d67af5-1546-4371-a1af-fe87999808e4","ios":"levelo://app?vid=f3d67af5-1546-4371-a1af-fe87999808e4"},"vehicle_type_id":"4","last_reported":1742458402,"current_range_meters":3600,"station_id":"ce4bgjp2rcd13ifvqbh0","pricing_plan_id":"cebpf4jnsgd1na2vs0mg"},{"bike_id":"ca1c0a28-8faf-435f-9d8b-370c3a07ff34","system_id":"levelo_inurba_marseille","lat":43.24162,"lon":5.36391,"is_reserved":false,"is_disabled":false,"rental_uris":{"android":"levelo://app?vid=ca1c0a28-8faf-435f-9d8b-370c3a07ff34","ios":"levelo://app?vid=ca1c0a28-8faf-435f-9d8b-370c3a07ff34"},"vehicle_type_id":"4","last_reported":1742458402,"current_range_meters":3600,"station_id":"cpo36qri1sfpv3e86is0","pricing_plan_id":"cebpf4jnsgd1na2vs0mg"},{"bike_id":"b17d3b6c-1a26-4643-8a0f-2a989bae5bd7","system_id":"levelo_inurba_marseille","lat":43.27322,"lon":5.39075,"is_reserved":false,"is_disabled":false,"rental_uris":{"android":"levelo://app?vid=b17d3b6c-1a26-4643-8a0f-2a989bae5bd7","ios":"levelo://app?vid=b17d3b6c-1a26-4643-8a0f-2a989bae5bd7"},"vehicle_type_id":"4","last_reported":1742458402,"current_range_meters":3600,"station_id":"ce4bhgp2rcd13ifvqfe0","pricing_plan_id":"cebpf4jnsgd1na2vs0mg"},{"bike_id":"00e95644-cb1b-42f4-9b08-81441ae6f7cf","system_id":"levelo_inurba_marseille","lat":43.24002,"lon":5.37748,"is_reserved":false,"is_disabled":false,"rental_uris":{"android":"levelo://app?vid=00e95644-cb1b-42f4-9b08-81441ae6f7cf","ios":"levelo://app?vid=00e95644-cb1b-42f4-9b08-81441ae6f7cf"},"vehicle_type_id":"4","last_reported":1742458402,"current_range_meters":3600,"station_id":"","pricing_plan_id":"cebpf4jnsgd1na2vs0mg"},{"bike_id":"3e6841f1-f4bb-4f69-baa2-69520e861a8e","system_id":"levelo_inurba_marseille","lat":43.30154,"lon":5.38078,"is_reserved":false,"is_disabled":false,"rental_uris":{"android":"levelo://app?vid=3e6841f1-f4bb-4f69-baa2-69520e861a8e","ios":"levelo://app?vid=3e6841f1-f4bb-4f69-baa2-69520e861a8e"},"vehicle_type_id":"4","last_reported":1742458402,"current_range_meters":3600,"station_id":"ce4bgjp2rcd13ifvqbh0","pricing_plan_id":"cebpf4jnsgd1na2vs0mg"},{"bike_id":"8d83e8cb-bc34-4c17-ad29-fbe2d4a7c5e7","system_id":"levelo_inurba_marseille","lat":43.27958,"lon":5.38704,"is_reserved":false,"is_disabled":false,"rental_uris":{"android":"levelo://app?vid=8d83e8cb-bc34-4c17-ad29-fbe2d4a7c5e7","ios":"levelo://app?vid=8d83e8cb-bc34-4c17-ad29-fbe2d4a7c5e7"},"vehicle_type_id":"4","last_reported":1742458402,"current_range_meters":3600,"station_id":"ce4bhg12rcd13ifvqf80","pricing_plan_id":"cebpf4jnsgd1na2vs0mg"},{"bike_id":"6c1383c4-ce25-49bd-9e8f-5404db35746c","system_id":"levelo_inurba_marseille","lat":43.2366,"lon":5.39174,"is_reserved":false,"is_disabled":false,"rental_uris":{"android":"levelo://app?vid=6c1383c4-ce25-49bd-9e8f-5404db35746c","ios":"levelo://app?vid=6c1383c4-ce25-49bd-9e8f-5404db35746c"},"vehicle_type_id":"4","last_reported":1742458402,"current_range_meters":3600,"station_id":"","pricing_plan_id":"cebpf4jnsgd1na2vs0mg"},{"bike_id":"e4d4c5a5-f987-4ebd-bba8-57ae42a19909","system_id":"levelo_inurba_marseille","lat":43.24071,"lon":5.37765,"is_reserved":false,"is_disabled":false,"rental_uris":{"android":"levelo://app?vid=e4d4c5a5-f987-4ebd-bba8-57ae42a19909","ios":"levelo://app?vid=e4d4c5a5-f987-4ebd-bba8-57ae42a19909"},"vehicle_type_id":"4","last_reported":1742458402,"current_range_meters":4000,"station_id":"ce4bhnp2rcd13ifvqgvg","pricing_plan_id":"cebpf4jnsgd1na2vs0mg"},{"bike_id":"40fbb690-8709-45dc-8da4-efb5e6b7344a","system_id":"levelo_inurba_marseille","lat":43.24071,"lon":5.37759,"is_reserved":false,"is_disabled":false,"rental_uris":{"android":"levelo://app?vid=40fbb690-8709-45dc-8da4-efb5e6b7344a","ios":"levelo://app?vid=40fbb690-8709-45dc-8da4-efb5e6b7344a"},"vehicle_type_id":"4","last_reported":1742458402,"current_range_meters":4000,"station_id":"ce4bhnp2rcd13ifvqgvg","pricing_plan_id":"cebpf4jnsgd1na2vs0mg"},{"bike_id":"c56d9a7c-1ef4-4311-9f05-80064b972ed4","system_id":"levelo_inurba_marseille","lat":43.24049,"lon":5.37739,"is_reserved":false,"is_disabled":false,"rental_uris":{"android":"levelo://app?vid=c56d9a7c-1ef4-4311-9f05-80064b972ed4","ios":"levelo://app?vid=c56d9a7c-1ef4-4311-9f05-80064b972ed4"},"vehicle_type_id":"4","last_reported":1742458402,"current_range_meters":4000,"station_id":"ce4bhnp2rcd13ifvqgvg","pricing_plan_id":"cebpf4jnsgd1na2vs0mg"},{"bike_id":"a342afa1-fe1b-4de5-8f98-f3f81167fac6","system_id":"levelo_inurba_marseille","lat":43.22933,"lon":5.35374,"is_reserved":false,"is_disabled":false,"rental_uris":{"android":"levelo://app?vid=a342afa1-fe1b-4de5-8f98-f3f81167fac6","ios":"levelo://app?vid=a342afa1-fe1b-4de5-8f98-f3f81167fac6"},"vehicle_type_id":"4","last_reported":1742458402,"current_range_meters":4400,"station_id":"cpo3532slgdg3j2ikp40","pricing_plan_id":"cebpf4jnsgd1na2vs0mg"},{"bike_id":"03e164de-839d-4705-a700-baf2232bf8f1","system_id":"levelo_inurba_marseille","lat":43.29166,"lon":5.37169,"is_reserved":false,"is_disabled":false,"rental_uris":{"android":"levelo://app?vid=03e164de-839d-4705-a700-baf2232bf8f1","ios":"levelo://app?vid=03e164de-839d-4705-a700-baf2232bf8f1"},"vehicle_type_id":"4","last_reported":1742458402,"current_range_meters":4400,"station_id":"ce4bha92rcd13ifvqeh0","pricing_plan_id":"cebpf4jnsgd1na2vs0mg"},{"bike_id":"9798e390-5cd0-418c-9b2c-4c39fdf23d0e","system_id":"levelo_inurba_marseille","lat":43.23151,"lon":5.43724,"is_reserved":false,"is_disabled":false,"rental_uris":{"android":"levelo://app?vid=9798e390-5cd0-418c-9b2c-4c39fdf23d0e","ios":"levelo://app?vid=9798e390-5cd0-418c-9b2c-4c39fdf23d0e"},"vehicle_type_id":"4","last_reported":1742458402,"current_range_meters":4400,"station_id":"ce4bhmp2rcd13ifvqgog","pricing_plan_id":"cebpf4jnsgd1na2vs0mg"},{"bike_id":"b304cfaf-f73e-4ea5-b668-c6d24be647cf","system_id":"levelo_inurba_marseille","lat":43.30299,"lon":5.36908,"is_reserved":false,"is_disabled":false,"rental_uris":{"android":"levelo://app?vid=b304cfaf-f73e-4ea5-b668-c6d24be647cf","ios":"levelo://app?vid=b304cfaf-f73e-4ea5-b668-c6d24be647cf"},"vehicle_type_id":"4","last_reported":1742458402,"current_range_meters":4400,"station_id":"ce4bgqh2rcd13ifvqc5g","pricing_plan_id":"cebpf4jnsgd1na2vs0mg"},{"bike_id":"4156866b-a0ed-4dcf-b9d2-e7765ca102e2","system_id":"levelo_inurba_marseille","lat":43.30565,"lon":5.36721,"is_reserved":false,"is_disabled":true,"rental_uris":{"android":"levelo://app?vid=4156866b-a0ed-4dcf-b9d2-e7765ca102e2","ios":"levelo://app?vid=4156866b-a0ed-4dcf-b9d2-e7765ca102e2"},"vehicle_type_id":"4","last_reported":1742458402,"current_range_meters":4400,"station_id":"ce4bgrp2rcd13ifvqc9g","pricing_plan_id":"cebpf4jnsgd1na2vs0mg"},{"bike_id":"3f9188fc-d87f-441a-b707-4abe503a6548","system_id":"levelo_inurba_marseille","lat":43.2849,"lon":5.38588,"is_reserved":false,"is_disabled":false,"rental_uris":{"android":"levelo://app?vid=3f9188fc-d87f-441a-b707-4abe503a6548","ios":"levelo://app?vid=3f9188fc-d87f-441a-b707-4abe503a6548"},"vehicle_type_id":"4","last_reported":1742458402,"current_range_meters":4400,"station_id":"ce4bh8p2rcd13ifvqeb0","pricing_plan_id":"cebpf4jnsgd1na2vs0mg"},{"bike_id":"af8e45f7-e08d-4c03-b5c1-ece349732921","system_id":"levelo_inurba_marseille","lat":43.29579,"lon":5.36738,"is_reserved":false,"is_disabled":false,"rental_uris":{"android":"levelo://app?vid=af8e45f7-e08d-4c03-b5c1-ece349732921","ios":"levelo://app?vid=af8e45f7-e08d-4c03-b5c1-ece349732921"},"vehicle_type_id":"4","last_reported":1742458402,"current_range_meters":5600,"station_id":"ce4bgph2rcd13ifvqc2g","pricing_plan_id":"cebpf4jnsgd1na2vs0mg"},{"bike_id":"5fe6090f-4f59-44d1-9967-8d0ce0b340ad","system_id":"levelo_inurba_marseille","lat":43.31274,"lon":5.40174,"is_reserved":false,"is_disabled":false,"rental_uris":{"android":"levelo://app?vid=5fe6090f-4f59-44d1-9967-8d0ce0b340ad","ios":"levelo://app?vid=5fe6090f-4f59-44d1-9967-8d0ce0b340ad"},"vehicle_type_id":"4","last_reported":1742458402,"current_range_meters":4800,"station_id":"ce4bh092rcd13ifvqd30","pricing_plan_id":"cebpf4jnsgd1na2vs0mg"},{"bike_id":"954df0c8-72ec-4c36-8557-e1c581ac7f59","system_id":"levelo_inurba_marseille","lat":43.3057,"lon":5.36557,"is_reserved":false,"is_disabled":false,"rental_uris":{"android":"levelo://app?vid=954df0c8-72ec-4c36-8557-e1c581ac7f59","ios":"levelo://app?vid=954df0c8-72ec-4c36-8557-e1c581ac7f59"},"vehicle_type_id":"4","last_reported":1742458402,"current_range_meters":4800,"station_id":"ce4bgs12rcd13ifvqcag","pricing_plan_id":"cebpf4jnsgd1na2vs0mg"},{"bike_id":"d4c5f16c-3ad8-4af9-84a7-9186962e9fcb","system_id":"levelo_inurba_marseille","lat":43.292633,"lon":5.384308,"is_reserved":false,"is_disabled":false,"rental_uris":{"android":"levelo://app?vid=d4c5f16c-3ad8-4af9-84a7-9186962e9fcb","ios":"levelo://app?vid=d4c5f16c-3ad8-4af9-84a7-9186962e9fcb"},"vehicle_type_id":"4","last_reported":1742458402,"current_range_meters":4400,"station_id":"ce4bh112rcd13ifvqda0","pricing_plan_id":"cebpf4jnsgd1na2vs0mg"},{"bike_id":"5d9a5c56-3c94-493e-94e8-7e36c78d2d4e","system_id":"levelo_inurba_marseille","lat":43.299087,"lon":5.374774,"is_reserved":false,"is_disabled":false,"rental_uris":{"android":"levelo://app?vid=5d9a5c56-3c94-493e-94e8-7e36c78d2d4e","ios":"levelo://app?vid=5d9a5c56-3c94-493e-94e8-7e36c78d2d4e"},"vehicle_type_id":"4","last_reported":1742458402,"current_range_meters":4800,"station_id":"ce4bgip2rcd13ifvqbb0","pricing_plan_id":"cebpf4jnsgd1na2vs0mg"},{"bike_id":"11c5b5c4-7e0d-4f6d-8bab-07eec89ea109","system_id":"levelo_inurba_marseille","lat":43.296247,"lon":5.371612,"is_reserved":false,"is_disabled":false,"rental_uris":{"android":"levelo://app?vid=11c5b5c4-7e0d-4f6d-8bab-07eec89ea109","ios":"levelo://app?vid=11c5b5c4-7e0d-4f6d-8bab-07eec89ea109"},"vehicle_type_id":"4","last_reported":1742458402,"current_range_meters":4400,"station_id":"ce4bgpp2rcd13ifvqc3g","pricing_plan_id":"cebpf4jnsgd1na2vs0mg"},{"bike_id":"64178195-aeae-4d03-9e36-44f74ab3f3ad","system_id":"levelo_inurba_marseille","lat":43.23153,"lon":5.43707,"is_reserved":false,"is_disabled":false,"rental_uris":{"android":"levelo://app?vid=64178195-aeae-4d03-9e36-44f74ab3f3ad","ios":"levelo://app?vid=64178195-aeae-4d03-9e36-44f74ab3f3ad"},"vehicle_type_id":"4","last_reported":1742458402,"current_range_meters":4800,"station_id":"ce4bhmp2rcd13ifvqgog","pricing_plan_id":"cebpf4jnsgd1na2vs0mg"},{"bike_id":"69732f8b-e7e0-4bbd-982f-824ebf5efdef","system_id":"levelo_inurba_marseille","lat":43.23184,"lon":5.39997,"is_reserved":false,"is_disabled":false,"rental_uris":{"android":"levelo://app?vid=69732f8b-e7e0-4bbd-982f-824ebf5efdef","ios":"levelo://app?vid=69732f8b-e7e0-4bbd-982f-824ebf5efdef"},"vehicle_type_id":"4","last_reported":1742458402,"current_range_meters":4800,"station_id":"ce4bhn12rcd13ifvqgqg","pricing_plan_id":"cebpf4jnsgd1na2vs0mg"},{"bike_id":"e7dd37e6-876a-4162-b8de-b9bdc38f367d","system_id":"levelo_inurba_marseille","lat":43.25718,"lon":5.41108,"is_reserved":false,"is_disabled":false,"rental_uris":{"android":"levelo://app?vid=e7dd37e6-876a-4162-b8de-b9bdc38f367d","ios":"levelo://app?vid=e7dd37e6-876a-4162-b8de-b9bdc38f367d"},"vehicle_type_id":"4","last_reported":1742458402,"current_range_meters":5600,"station_id":"ce4bhkp2rcd13ifvqgd0","pricing_plan_id":"cebpf4jnsgd1na2vs0mg"},{"bike_id":"d3aee935-e07d-4388-bbdb-0f36c5d2addd","system_id":"levelo_inurba_marseille","lat":43.28683,"lon":5.37404,"is_reserved":false,"is_disabled":false,"rental_uris":{"android":"levelo://app?vid=d3aee935-e07d-4388-bbdb-0f36c5d2addd","ios":"levelo://app?vid=d3aee935-e07d-4388-bbdb-0f36c5d2addd"},"vehicle_type_id":"4","last_reported":1742458402,"current_range_meters":5600,"station_id":"ce4bh3p2rcd13ifvqdq0","pricing_plan_id":"cebpf4jnsgd1na2vs0mg"},{"bike_id":"3dff8f56-426f-415d-99df-023e60e3f083","system_id":"levelo_inurba_marseille","lat":43.29035,"lon":5.39968,"is_reserved":false,"is_disabled":false,"rental_uris":{"android":"levelo://app?vid=3dff8f56-426f-415d-99df-023e60e3f083","ios":"levelo://app?vid=3dff8f56-426f-415d-99df-023e60e3f083"},"vehicle_type_id":"4","last_reported":1742458402,"current_range_meters":5600,"station_id":"ce4bh392rcd13ifvqdm0","pricing_plan_id":"cebpf4jnsgd1na2vs0mg"},{"bike_id":"ed32af05-a93a-40af-b3e3-3171404acc80","system_id":"levelo_inurba_marseille","lat":43.27373,"lon":5.36253,"is_reserved":false,"is_disabled":false,"rental_uris":{"android":"levelo://app?vid=ed32af05-a93a-40af-b3e3-3171404acc80","ios":"levelo://app?vid=ed32af05-a93a-40af-b3e3-3171404acc80"},"vehicle_type_id":"4","last_reported":1742458402,"current_range_meters":5600,"station_id":"ce4bhbh2rcd13ifvqeo0","pricing_plan_id":"cebpf4jnsgd1na2vs0mg"},{"bike_id":"656e3a46-4ef1-410c-9276-50c1bd4ea72c","system_id":"levelo_inurba_marseille","lat":43.30217,"lon":5.39458,"is_reserved":false,"is_disabled":false,"rental_uris":{"android":"levelo://app?vid=656e3a46-4ef1-410c-9276-50c1bd4ea72c","ios":"levelo://app?vid=656e3a46-4ef1-410c-9276-50c1bd4ea72c"},"vehicle_type_id":"4","last_reported":1742458402,"current_range_meters":5600,"station_id":"ce4bh0p2rcd13ifvqd70","pricing_plan_id":"cebpf4jnsgd1na2vs0mg"},{"bike_id":"f8e532d6-e317-445d-91cb-19a6e01b4151","system_id":"levelo_inurba_marseille","lat":43.25924,"lon":5.40915,"is_reserved":false,"is_disabled":false,"rental_uris":{"android":"levelo://app?vid=f8e532d6-e317-445d-91cb-19a6e01b4151","ios":"levelo://app?vid=f8e532d6-e317-445d-91cb-19a6e01b4151"},"vehicle_type_id":"4","last_reported":1742458402,"current_range_meters":5600,"station_id":"ce4bhm92rcd13ifvqglg","pricing_plan_id":"cebpf4jnsgd1na2vs0mg"},{"bike_id":"d4c7a2f2-9f06-4b11-8e06-f914a2ac78d3","system_id":"levelo_inurba_marseille","lat":43.26686,"lon":5.38273,"is_reserved":false,"is_disabled":false,"rental_uris":{"android":"levelo://app?vid=d4c7a2f2-9f06-4b11-8e06-f914a2ac78d3","ios":"levelo://app?vid=d4c7a2f2-9f06-4b11-8e06-f914a2ac78d3"},"vehicle_type_id":"4","last_reported":1742458402,"current_range_meters":5600,"station_id":"ce4bhg92rcd13ifvqf90","pricing_plan_id":"cebpf4jnsgd1na2vs0mg"},{"bike_id":"741cfc88-f62a-4ad1-94c2-ca22f4ff27f1","system_id":"levelo_inurba_marseille","lat":43.26555,"lon":5.37286,"is_reserved":false,"is_disabled":true,"rental_uris":{"android":"levelo://app?vid=741cfc88-f62a-4ad1-94c2-ca22f4ff27f1","ios":"levelo://app?vid=741cfc88-f62a-4ad1-94c2-ca22f4ff27f1"},"vehicle_type_id":"4","last_reported":1742458402,"current_range_meters":6000,"station_id":"ce4bhg12rcd13ifvqf70","pricing_plan_id":"cebpf4jnsgd1na2vs0mg"},{"bike_id":"e058d62f-eca5-479d-8763-aa54c5a3c753","system_id":"levelo_inurba_marseille","lat":43.29636,"lon":5.40599,"is_reserved":false,"is_disabled":false,"rental_uris":{"android":"levelo://app?vid=e058d62f-eca5-479d-8763-aa54c5a3c753","ios":"levelo://app?vid=e058d62f-eca5-479d-8763-aa54c5a3c753"},"vehicle_type_id":"4","last_reported":1742458402,"current_range_meters":5600,"station_id":"ce4bh0h2rcd13ifvqd60","pricing_plan_id":"cebpf4jnsgd1na2vs0mg"},{"bike_id":"4e0a029e-d1b7-445c-8044-a51b6ffb8f2e","system_id":"levelo_inurba_marseille","lat":43.31374,"lon":5.36775,"is_reserved":false,"is_disabled":false,"rental_uris":{"android":"levelo://app?vid=4e0a029e-d1b7-445c-8044-a51b6ffb8f2e","ios":"levelo://app?vid=4e0a029e-d1b7-445c-8044-a51b6ffb8f2e"},"vehicle_type_id":"4","last_reported":1742458402,"current_range_meters":6000,"station_id":"","pricing_plan_id":"cebpf4jnsgd1na2vs0mg"},{"bike_id":"3c0f86bf-2134-4462-a7ab-79aaede557c9","system_id":"levelo_inurba_marseille","lat":43.31717,"lon":5.43708,"is_reserved":false,"is_disabled":false,"rental_uris":{"android":"levelo://app?vid=3c0f86bf-2134-4462-a7ab-79aaede557c9","ios":"levelo://app?vid=3c0f86bf-2134-4462-a7ab-79aaede557c9"},"vehicle_type_id":"4","last_reported":1742458402,"current_range_meters":6000,"station_id":"ce4bhp92rcd13ifvqhcg","pricing_plan_id":"cebpf4jnsgd1na2vs0mg"},{"bike_id":"d2152949-5a9a-4505-9d97-96602185dfdb","system_id":"levelo_inurba_marseille","lat":43.29059,"lon":5.39963,"is_reserved":false,"is_disabled":false,"rental_uris":{"android":"levelo://app?vid=d2152949-5a9a-4505-9d97-96602185dfdb","ios":"levelo://app?vid=d2152949-5a9a-4505-9d97-96602185dfdb"},"vehicle_type_id":"4","last_reported":1742458402,"current_range_meters":6000,"station_id":"ce4bh392rcd13ifvqdm0","pricing_plan_id":"cebpf4jnsgd1na2vs0mg"},{"bike_id":"070214dd-bc0f-4ffb-99bb-9d2b05e523d4","system_id":"levelo_inurba_marseille","lat":43.25574,"lon":5.3822,"is_reserved":false,"is_disabled":false,"rental_uris":{"android":"levelo://app?vid=070214dd-bc0f-4ffb-99bb-9d2b05e523d4","ios":"levelo://app?vid=070214dd-bc0f-4ffb-99bb-9d2b05e523d4"},"vehicle_type_id":"4","last_reported":1742458402,"current_range_meters":6000,"station_id":"ce4bhih2rcd13ifvqfs0","pricing_plan_id":"cebpf4jnsgd1na2vs0mg"},{"bike_id":"cd3f6418-d471-43bd-a8af-c4289f0429a3","system_id":"levelo_inurba_marseille","lat":43.24179,"lon":5.39731,"is_reserved":false,"is_disabled":false,"rental_uris":{"android":"levelo://app?vid=cd3f6418-d471-43bd-a8af-c4289f0429a3","ios":"levelo://app?vid=cd3f6418-d471-43bd-a8af-c4289f0429a3"},"vehicle_type_id":"4","last_reported":1742458402,"current_range_meters":6400,"station_id":"ce4bhn12rcd13ifvqgpg","pricing_plan_id":"cebpf4jnsgd1na2vs0mg"},{"bike_id":"1fe8cbb2-e61f-4748-8f3f-eff906305549","system_id":"levelo_inurba_marseille","lat":43.230612,"lon":5.355026,"is_reserved":false,"is_disabled":false,"rental_uris":{"android":"levelo://app?vid=1fe8cbb2-e61f-4748-8f3f-eff906305549","ios":"levelo://app?vid=1fe8cbb2-e61f-4748-8f3f-eff906305549"},"vehicle_type_id":"4","last_reported":1742458402,"current_range_meters":6400,"station_id":"cpo3342slgdg3j2ifvpg","pricing_plan_id":"cebpf4jnsgd1na2vs0mg"},{"bike_id":"04a5010c-3030-4932-9e58-68e5fad4a3a6","system_id":"levelo_inurba_marseille","lat":43.2749,"lon":5.42456,"is_reserved":false,"is_disabled":false,"rental_uris":{"android":"levelo://app?vid=04a5010c-3030-4932-9e58-68e5fad4a3a6","ios":"levelo://app?vid=04a5010c-3030-4932-9e58-68e5fad4a3a6"},"vehicle_type_id":"4","last_reported":1742458402,"current_range_meters":6400,"station_id":"ce4bhn92rcd13ifvqgrg","pricing_plan_id":"cebpf4jnsgd1na2vs0mg"},{"bike_id":"478ecfc4-5241-4dbc-9c90-9e831269f219","system_id":"levelo_inurba_marseille","lat":43.29022,"lon":5.38652,"is_reserved":false,"is_disabled":false,"rental_uris":{"android":"levelo://app?vid=478ecfc4-5241-4dbc-9c90-9e831269f219","ios":"levelo://app?vid=478ecfc4-5241-4dbc-9c90-9e831269f219"},"vehicle_type_id":"4","last_reported":1742458402,"current_range_meters":6400,"station_id":"ce4bh4p2rcd13ifvqe0g","pricing_plan_id":"cebpf4jnsgd1na2vs0mg"},{"bike_id":"bc99fc62-720b-4159-be6e-be2b5d7115d5","system_id":"levelo_inurba_marseille","lat":43.24153,"lon":5.39714,"is_reserved":false,"is_disabled":false,"rental_uris":{"android":"levelo://app?vid=bc99fc62-720b-4159-be6e-be2b5d7115d5","ios":"levelo://app?vid=bc99fc62-720b-4159-be6e-be2b5d7115d5"},"vehicle_type_id":"4","last_reported":1742458402,"current_range_meters":6400,"station_id":"ce4bhn12rcd13ifvqgpg","pricing_plan_id":"cebpf4jnsgd1na2vs0mg"},{"bike_id":"f900da6c-7e5c-4ec1-bb80-501e71312a52","system_id":"levelo_inurba_marseille","lat":43.27387,"lon":5.3626,"is_reserved":false,"is_disabled":false,"rental_uris":{"android":"levelo://app?vid=f900da6c-7e5c-4ec1-bb80-501e71312a52","ios":"levelo://app?vid=f900da6c-7e5c-4ec1-bb80-501e71312a52"},"vehicle_type_id":"4","last_reported":1742458402,"current_range_meters":6400,"station_id":"ce4bhbh2rcd13ifvqeo0","pricing_plan_id":"cebpf4jnsgd1na2vs0mg"},{"bike_id":"196c2bf6-079f-401b-a462-c07a17202257","system_id":"levelo_inurba_marseille","lat":43.29715,"lon":5.36619,"is_reserved":false,"is_disabled":false,"rental_uris":{"android":"levelo://app?vid=196c2bf6-079f-401b-a462-c07a17202257","ios":"levelo://app?vid=196c2bf6-079f-401b-a462-c07a17202257"},"vehicle_type_id":"4","last_reported":1742458402,"current_range_meters":6400,"station_id":"ce4bgn12rcd13ifvqbt0","pricing_plan_id":"cebpf4jnsgd1na2vs0mg"},{"bike_id":"9b1ab9d1-6497-43c1-8958-d421383bc8b1","system_id":"levelo_inurba_marseille","lat":43.24074,"lon":5.37767,"is_reserved":false,"is_disabled":false,"rental_uris":{"android":"levelo://app?vid=9b1ab9d1-6497-43c1-8958-d421383bc8b1","ios":"levelo://app?vid=9b1ab9d1-6497-43c1-8958-d421383bc8b1"},"vehicle_type_id":"4","last_reported":1742458402,"current_range_meters":6400,"station_id":"ce4bhnp2rcd13ifvqgvg","pricing_plan_id":"cebpf4jnsgd1na2vs0mg"},{"bike_id":"0d95e6a4-60fa-4989-a414-058ecea80aee","system_id":"levelo_inurba_marseille","lat":43.30542,"lon":5.36555,"is_reserved":false,"is_disabled":false,"rental_uris":{"android":"levelo://app?vid=0d95e6a4-60fa-4989-a414-058ecea80aee","ios":"levelo://app?vid=0d95e6a4-60fa-4989-a414-058ecea80aee"},"vehicle_type_id":"4","last_reported":1742458402,"current_range_meters":6800,"station_id":"ce4bgs12rcd13ifvqcag","pricing_plan_id":"cebpf4jnsgd1na2vs0mg"},{"bike_id":"8b1a365a-37cb-4797-86b9-9c57a4993a8f","system_id":"levelo_inurba_marseille","lat":43.30162,"lon":5.38103,"is_reserved":false,"is_disabled":false,"rental_uris":{"android":"levelo://app?vid=8b1a365a-37cb-4797-86b9-9c57a4993a8f","ios":"levelo://app?vid=8b1a365a-37cb-4797-86b9-9c57a4993a8f"},"vehicle_type_id":"4","last_reported":1742458402,"current_range_meters":6800,"station_id":"ce4bgjp2rcd13ifvqbh0","pricing_plan_id":"cebpf4jnsgd1na2vs0mg"},{"bike_id":"02b1ff97-0fdf-47f8-b702-e3ad749c6ee6","system_id":"levelo_inurba_marseille","lat":43.28998,"lon":5.38143,"is_reserved":false,"is_disabled":false,"rental_uris":{"android":"levelo://app?vid=02b1ff97-0fdf-47f8-b702-e3ad749c6ee6","ios":"levelo://app?vid=02b1ff97-0fdf-47f8-b702-e3ad749c6ee6"},"vehicle_type_id":"4","last_reported":1742458402,"current_range_meters":6800,"station_id":"ce4bh4p2rcd13ifvqe1g","pricing_plan_id":"cebpf4jnsgd1na2vs0mg"},{"bike_id":"5da21120-765c-493a-addc-469da6f3f383","system_id":"levelo_inurba_marseille","lat":43.3084,"lon":5.37523,"is_reserved":false,"is_disabled":false,"rental_uris":{"android":"levelo://app?vid=5da21120-765c-493a-addc-469da6f3f383","ios":"levelo://app?vid=5da21120-765c-493a-addc-469da6f3f383"},"vehicle_type_id":"4","last_reported":1742458402,"current_range_meters":6800,"station_id":"","pricing_plan_id":"cebpf4jnsgd1na2vs0mg"},{"bike_id":"287397f1-301a-46cd-a566-760697ced275","system_id":"levelo_inurba_marseille","lat":43.28169,"lon":5.42692,"is_reserved":false,"is_disabled":false,"rental_uris":{"android":"levelo://app?vid=287397f1-301a-46cd-a566-760697ced275","ios":"levelo://app?vid=287397f1-301a-46cd-a566-760697ced275"},"vehicle_type_id":"4","last_reported":1742458402,"current_range_meters":6800,"station_id":"ce4bhnh2rcd13ifvqgug","pricing_plan_id":"cebpf4jnsgd1na2vs0mg"},{"bike_id":"2325f5b6-ca51-4972-a198-1502dbbb7f0c","system_id":"levelo_inurba_marseille","lat":43.24083,"lon":5.37761,"is_reserved":false,"is_disabled":false,"rental_uris":{"android":"levelo://app?vid=2325f5b6-ca51-4972-a198-1502dbbb7f0c","ios":"levelo://app?vid=2325f5b6-ca51-4972-a198-1502dbbb7f0c"},"vehicle_type_id":"4","last_reported":1742458402,"current_range_meters":6800,"station_id":"ce4bhnp2rcd13ifvqgvg","pricing_plan_id":"cebpf4jnsgd1na2vs0mg"},{"bike_id":"23c0f03b-31ec-42c8-bca5-73a075052a35","system_id":"levelo_inurba_marseille","lat":43.30544,"lon":5.36726,"is_reserved":false,"is_disabled":false,"rental_uris":{"android":"levelo://app?vid=23c0f03b-31ec-42c8-bca5-73a075052a35","ios":"levelo://app?vid=23c0f03b-31ec-42c8-bca5-73a075052a35"},"vehicle_type_id":"4","last_reported":1742458402,"current_range_meters":6400,"station_id":"ce4bgrp2rcd13ifvqc9g","pricing_plan_id":"cebpf4jnsgd1na2vs0mg"},{"bike_id":"14abe29d-ba8d-4a32-a91e-06a8633a136b","system_id":"levelo_inurba_marseille","lat":43.30954,"lon":5.39032,"is_reserved":false,"is_disabled":false,"rental_uris":{"android":"levelo://app?vid=14abe29d-ba8d-4a32-a91e-06a8633a136b","ios":"levelo://app?vid=14abe29d-ba8d-4a32-a91e-06a8633a136b"},"vehicle_type_id":"4","last_reported":1742458402,"current_range_meters":6800,"station_id":"ce4bgup2rcd13ifvqco0","pricing_plan_id":"cebpf4jnsgd1na2vs0mg"},{"bike_id":"fc94016c-a96e-4e31-a1af-76de7ecf2e10","system_id":"levelo_inurba_marseille","lat":43.30897,"lon":5.36853,"is_reserved":false,"is_disabled":false,"rental_uris":{"android":"levelo://app?vid=fc94016c-a96e-4e31-a1af-76de7ecf2e10","ios":"levelo://app?vid=fc94016c-a96e-4e31-a1af-76de7ecf2e10"},"vehicle_type_id":"4","last_reported":1742458402,"current_range_meters":6800,"station_id":"ce4bgn92rcd13ifvqbvg","pricing_plan_id":"cebpf4jnsgd1na2vs0mg"},{"bike_id":"0f635bde-4e1c-4f1b-b735-23eeb41e0e5e","system_id":"levelo_inurba_marseille","lat":43.23961,"lon":5.36624,"is_reserved":false,"is_disabled":false,"rental_uris":{"android":"levelo://app?vid=0f635bde-4e1c-4f1b-b735-23eeb41e0e5e","ios":"levelo://app?vid=0f635bde-4e1c-4f1b-b735-23eeb41e0e5e"},"vehicle_type_id":"4","last_reported":1742458402,"current_range_meters":6800,"station_id":"ce4bhi12rcd13ifvqfp0","pricing_plan_id":"cebpf4jnsgd1na2vs0mg"},{"bike_id":"69e2981b-cf61-41df-a4de-8adb4108b43d","system_id":"levelo_inurba_marseille","lat":43.3136,"lon":5.36715,"is_reserved":false,"is_disabled":false,"rental_uris":{"android":"levelo://app?vid=69e2981b-cf61-41df-a4de-8adb4108b43d","ios":"levelo://app?vid=69e2981b-cf61-41df-a4de-8adb4108b43d"},"vehicle_type_id":"4","last_reported":1742458402,"current_range_meters":6800,"station_id":"ce4bgr92rcd13ifvqc6g","pricing_plan_id":"cebpf4jnsgd1na2vs0mg"},{"bike_id":"f73ea29f-f283-48fd-b3f6-955c325c870d","system_id":"levelo_inurba_marseille","lat":43.25931,"lon":5.40909,"is_reserved":false,"is_disabled":false,"rental_uris":{"android":"levelo://app?vid=f73ea29f-f283-48fd-b3f6-955c325c870d","ios":"levelo://app?vid=f73ea29f-f283-48fd-b3f6-955c325c870d"},"vehicle_type_id":"4","last_reported":1742458402,"current_range_meters":6800,"station_id":"ce4bhm92rcd13ifvqglg","pricing_plan_id":"cebpf4jnsgd1na2vs0mg"},{"bike_id":"dfcc8bbb-6cc0-487f-9f53-6c4f09735ec3","system_id":"levelo_inurba_marseille","lat":43.27497,"lon":5.42477,"is_reserved":false,"is_disabled":true,"rental_uris":{"android":"levelo://app?vid=dfcc8bbb-6cc0-487f-9f53-6c4f09735ec3","ios":"levelo://app?vid=dfcc8bbb-6cc0-487f-9f53-6c4f09735ec3"},"vehicle_type_id":"4","last_reported":1742458402,"current_range_meters":6800,"station_id":"ce4bhn92rcd13ifvqgrg","pricing_plan_id":"cebpf4jnsgd1na2vs0mg"},{"bike_id":"227ea19f-289e-4a92-895e-218ec5d5c552","system_id":"levelo_inurba_marseille","lat":43.2751,"lon":5.4244,"is_reserved":false,"is_disabled":false,"rental_uris":{"android":"levelo://app?vid=227ea19f-289e-4a92-895e-218ec5d5c552","ios":"levelo://app?vid=227ea19f-289e-4a92-895e-218ec5d5c552"},"vehicle_type_id":"4","last_reported":1742458402,"current_range_meters":6800,"station_id":"ce4bhn92rcd13ifvqgrg","pricing_plan_id":"cebpf4jnsgd1na2vs0mg"},{"bike_id":"5d62495c-1a5a-4f19-b9bb-6f00a3cd19e9","system_id":"levelo_inurba_marseille","lat":43.25724,"lon":5.41116,"is_reserved":false,"is_disabled":false,"rental_uris":{"android":"levelo://app?vid=5d62495c-1a5a-4f19-b9bb-6f00a3cd19e9","ios":"levelo://app?vid=5d62495c-1a5a-4f19-b9bb-6f00a3cd19e9"},"vehicle_type_id":"4","last_reported":1742458402,"current_range_meters":6800,"station_id":"ce4bhkp2rcd13ifvqgd0","pricing_plan_id":"cebpf4jnsgd1na2vs0mg"},{"bike_id":"ebd45e7b-1c45-4b94-a31a-e5fdc9535d41","system_id":"levelo_inurba_marseille","lat":43.23973,"lon":5.36631,"is_reserved":false,"is_disabled":false,"rental_uris":{"android":"levelo://app?vid=ebd45e7b-1c45-4b94-a31a-e5fdc9535d41","ios":"levelo://app?vid=ebd45e7b-1c45-4b94-a31a-e5fdc9535d41"},"vehicle_type_id":"4","last_reported":1742458402,"current_range_meters":7200,"station_id":"ce4bhi12rcd13ifvqfp0","pricing_plan_id":"cebpf4jnsgd1na2vs0mg"},{"bike_id":"034cbda5-a269-406e-ac7d-9962861bb824","system_id":"levelo_inurba_marseille","lat":43.31784,"lon":5.38978,"is_reserved":false,"is_disabled":false,"rental_uris":{"android":"levelo://app?vid=034cbda5-a269-406e-ac7d-9962861bb824","ios":"levelo://app?vid=034cbda5-a269-406e-ac7d-9962861bb824"},"vehicle_type_id":"4","last_reported":1742458402,"current_range_meters":7200,"station_id":"ce4bhqp2rcd13ifvqhng","pricing_plan_id":"cebpf4jnsgd1na2vs0mg"},{"bike_id":"3058eb37-35b9-4277-898b-f9025638e045","system_id":"levelo_inurba_marseille","lat":43.259321,"lon":5.409035,"is_reserved":false,"is_disabled":false,"rental_uris":{"android":"levelo://app?vid=3058eb37-35b9-4277-898b-f9025638e045","ios":"levelo://app?vid=3058eb37-35b9-4277-898b-f9025638e045"},"vehicle_type_id":"4","last_reported":1742458402,"current_range_meters":7200,"station_id":"ce4bhm92rcd13ifvqglg","pricing_plan_id":"cebpf4jnsgd1na2vs0mg"},{"bike_id":"0f0379d0-9e31-4d59-aa71-1b8fef29c39c","system_id":"levelo_inurba_marseille","lat":43.25728,"lon":5.4111,"is_reserved":false,"is_disabled":false,"rental_uris":{"android":"levelo://app?vid=0f0379d0-9e31-4d59-aa71-1b8fef29c39c","ios":"levelo://app?vid=0f0379d0-9e31-4d59-aa71-1b8fef29c39c"},"vehicle_type_id":"4","last_reported":1742458402,"current_range_meters":7200,"station_id":"ce4bhkp2rcd13ifvqgd0","pricing_plan_id":"cebpf4jnsgd1na2vs0mg"},{"bike_id":"af7f4db5-1255-4e94-b6bc-090734af38d8","system_id":"levelo_inurba_marseille","lat":43.30903,"lon":5.37197,"is_reserved":false,"is_disabled":false,"rental_uris":{"android":"levelo://app?vid=af7f4db5-1255-4e94-b6bc-090734af38d8","ios":"levelo://app?vid=af7f4db5-1255-4e94-b6bc-090734af38d8"},"vehicle_type_id":"4","last_reported":1742458402,"current_range_meters":7200,"station_id":"ce4bguh2rcd13ifvqckg","pricing_plan_id":"cebpf4jnsgd1na2vs0mg"},{"bike_id":"d45aa902-4bcb-471b-8a0f-8cdc3416ec8c","system_id":"levelo_inurba_marseille","lat":43.27628,"lon":5.36118,"is_reserved":false,"is_disabled":false,"rental_uris":{"android":"levelo://app?vid=d45aa902-4bcb-471b-8a0f-8cdc3416ec8c","ios":"levelo://app?vid=d45aa902-4bcb-471b-8a0f-8cdc3416ec8c"},"vehicle_type_id":"4","last_reported":1742458402,"current_range_meters":7200,"station_id":"ce4bgj92rcd13ifvqbe0","pricing_plan_id":"cebpf4jnsgd1na2vs0mg"},{"bike_id":"3455258b-4135-46b9-9a26-10bf95160e40","system_id":"levelo_inurba_marseille","lat":43.2319,"lon":5.35552,"is_reserved":false,"is_disabled":false,"rental_uris":{"android":"levelo://app?vid=3455258b-4135-46b9-9a26-10bf95160e40","ios":"levelo://app?vid=3455258b-4135-46b9-9a26-10bf95160e40"},"vehicle_type_id":"4","last_reported":1742458402,"current_range_meters":7200,"station_id":"ce4bhu92rcd13ifvqi70","pricing_plan_id":"cebpf4jnsgd1na2vs0mg"},{"bike_id":"31d84bc4-fc2d-4b3e-ba31-22035b51965c","system_id":"levelo_inurba_marseille","lat":43.26683,"lon":5.3827,"is_reserved":false,"is_disabled":false,"rental_uris":{"android":"levelo://app?vid=31d84bc4-fc2d-4b3e-ba31-22035b51965c","ios":"levelo://app?vid=31d84bc4-fc2d-4b3e-ba31-22035b51965c"},"vehicle_type_id":"4","last_reported":1742458402,"current_range_meters":7200,"station_id":"ce4bhg92rcd13ifvqf90","pricing_plan_id":"cebpf4jnsgd1na2vs0mg"},{"bike_id":"86369963-ae14-43a2-a00c-692cf61710c1","system_id":"levelo_inurba_marseille","lat":43.30193,"lon":5.38119,"is_reserved":false,"is_disabled":false,"rental_uris":{"android":"levelo://app?vid=86369963-ae14-43a2-a00c-692cf61710c1","ios":"levelo://app?vid=86369963-ae14-43a2-a00c-692cf61710c1"},"vehicle_type_id":"4","last_reported":1742458402,"current_range_meters":7200,"station_id":"","pricing_plan_id":"cebpf4jnsgd1na2vs0mg"},{"bike_id":"ff2e113c-48f4-4926-83e4-f03bf0925c08","system_id":"levelo_inurba_marseille","lat":43.24726,"lon":5.41187,"is_reserved":false,"is_disabled":false,"rental_uris":{"android":"levelo://app?vid=ff2e113c-48f4-4926-83e4-f03bf0925c08","ios":"levelo://app?vid=ff2e113c-48f4-4926-83e4-f03bf0925c08"},"vehicle_type_id":"4","last_reported":1742458402,"current_range_meters":7200,"station_id":"","pricing_plan_id":"cebpf4jnsgd1na2vs0mg"},{"bike_id":"b7dae8c6-4df9-4358-986d-1b701ce2d942","system_id":"levelo_inurba_marseille","lat":43.290283,"lon":5.375624,"is_reserved":false,"is_disabled":false,"rental_uris":{"android":"levelo://app?vid=b7dae8c6-4df9-4358-986d-1b701ce2d942","ios":"levelo://app?vid=b7dae8c6-4df9-4358-986d-1b701ce2d942"},"vehicle_type_id":"4","last_reported":1742458402,"current_range_meters":7200,"station_id":"ce4bgjp2rcd13ifvqbh0","pricing_plan_id":"cebpf4jnsgd1na2vs0mg"},{"bike_id":"21b171b5-6533-4457-a9ad-50e105b3f2c4","system_id":"levelo_inurba_marseille","lat":43.29916,"lon":5.37487,"is_reserved":false,"is_disabled":false,"rental_uris":{"android":"levelo://app?vid=21b171b5-6533-4457-a9ad-50e105b3f2c4","ios":"levelo://app?vid=21b171b5-6533-4457-a9ad-50e105b3f2c4"},"vehicle_type_id":"4","last_reported":1742458402,"current_range_meters":7200,"station_id":"ce4bgjh2rcd13ifvqbg0","pricing_plan_id":"cebpf4jnsgd1na2vs0mg"},{"bike_id":"21a94eaa-add7-466b-9fdc-3f674594f151","system_id":"levelo_inurba_marseille","lat":43.33601,"lon":5.41035,"is_reserved":false,"is_disabled":false,"rental_uris":{"android":"levelo://app?vid=21a94eaa-add7-466b-9fdc-3f674594f151","ios":"levelo://app?vid=21a94eaa-add7-466b-9fdc-3f674594f151"},"vehicle_type_id":"4","last_reported":1742458402,"current_range_meters":7200,"station_id":"ce4bhqh2rcd13ifvqhmg","pricing_plan_id":"cebpf4jnsgd1na2vs0mg"},{"bike_id":"516a14f2-e527-4a6d-99db-d5ad118faf7c","system_id":"levelo_inurba_marseille","lat":43.2591,"lon":5.4085,"is_reserved":false,"is_disabled":false,"rental_uris":{"android":"levelo://app?vid=516a14f2-e527-4a6d-99db-d5ad118faf7c","ios":"levelo://app?vid=516a14f2-e527-4a6d-99db-d5ad118faf7c"},"vehicle_type_id":"4","last_reported":1742458402,"current_range_meters":7200,"station_id":"ce4bhm92rcd13ifvqglg","pricing_plan_id":"cebpf4jnsgd1na2vs0mg"},{"bike_id":"e84d5d9a-c3c5-400c-aec9-48bb7c912e7e","system_id":"levelo_inurba_marseille","lat":43.30945,"lon":5.39034,"is_reserved":false,"is_disabled":false,"rental_uris":{"android":"levelo://app?vid=e84d5d9a-c3c5-400c-aec9-48bb7c912e7e","ios":"levelo://app?vid=e84d5d9a-c3c5-400c-aec9-48bb7c912e7e"},"vehicle_type_id":"4","last_reported":1742458402,"current_range_meters":7200,"station_id":"ce4bgup2rcd13ifvqco0","pricing_plan_id":"cebpf4jnsgd1na2vs0mg"},{"bike_id":"71f2cd9d-ef15-44a1-a9cf-33002d842832","system_id":"levelo_inurba_marseille","lat":43.24687,"lon":5.38176,"is_reserved":false,"is_disabled":false,"rental_uris":{"android":"levelo://app?vid=71f2cd9d-ef15-44a1-a9cf-33002d842832","ios":"levelo://app?vid=71f2cd9d-ef15-44a1-a9cf-33002d842832"},"vehicle_type_id":"4","last_reported":1742458402,"current_range_meters":8000,"station_id":"ce4bhih2rcd13ifvqfr0","pricing_plan_id":"cebpf4jnsgd1na2vs0mg"},{"bike_id":"e7bb4557-d434-451b-84d1-a42817f4ff25","system_id":"levelo_inurba_marseille","lat":43.30919,"lon":5.3685,"is_reserved":false,"is_disabled":false,"rental_uris":{"android":"levelo://app?vid=e7bb4557-d434-451b-84d1-a42817f4ff25","ios":"levelo://app?vid=e7bb4557-d434-451b-84d1-a42817f4ff25"},"vehicle_type_id":"4","last_reported":1742458402,"current_range_meters":8000,"station_id":"ce4bgn92rcd13ifvqbvg","pricing_plan_id":"cebpf4jnsgd1na2vs0mg"},{"bike_id":"3da64548-8b6a-42d6-898f-dc427d7ab309","system_id":"levelo_inurba_marseille","lat":43.27912,"lon":5.41052,"is_reserved":false,"is_disabled":false,"rental_uris":{"android":"levelo://app?vid=3da64548-8b6a-42d6-898f-dc427d7ab309","ios":"levelo://app?vid=3da64548-8b6a-42d6-898f-dc427d7ab309"},"vehicle_type_id":"4","last_reported":1742458402,"current_range_meters":8000,"station_id":"ce4bhnp2rcd13ifvqh0g","pricing_plan_id":"cebpf4jnsgd1na2vs0mg"},{"bike_id":"ca4f38ad-a911-4729-9bf0-9cd10d233cd4","system_id":"levelo_inurba_marseille","lat":43.3054,"lon":5.3655,"is_reserved":false,"is_disabled":false,"rental_uris":{"android":"levelo://app?vid=ca4f38ad-a911-4729-9bf0-9cd10d233cd4","ios":"levelo://app?vid=ca4f38ad-a911-4729-9bf0-9cd10d233cd4"},"vehicle_type_id":"4","last_reported":1742458402,"current_range_meters":8000,"station_id":"ce4bgs12rcd13ifvqcag","pricing_plan_id":"cebpf4jnsgd1na2vs0mg"},{"bike_id":"ba3fc48f-21a9-4ec2-94cb-0af2d411fb94","system_id":"levelo_inurba_marseille","lat":43.30535,"lon":5.36544,"is_reserved":false,"is_disabled":false,"rental_uris":{"android":"levelo://app?vid=ba3fc48f-21a9-4ec2-94cb-0af2d411fb94","ios":"levelo://app?vid=ba3fc48f-21a9-4ec2-94cb-0af2d411fb94"},"vehicle_type_id":"4","last_reported":1742458402,"current_range_meters":8000,"station_id":"ce4bgs12rcd13ifvqcag","pricing_plan_id":"cebpf4jnsgd1na2vs0mg"},{"bike_id":"1b1634d0-ee72-47c1-b96a-9ed0e8bcc77e","system_id":"levelo_inurba_marseille","lat":43.26746,"lon":5.3773,"is_reserved":false,"is_disabled":false,"rental_uris":{"android":"levelo://app?vid=1b1634d0-ee72-47c1-b96a-9ed0e8bcc77e","ios":"levelo://app?vid=1b1634d0-ee72-47c1-b96a-9ed0e8bcc77e"},"vehicle_type_id":"4","last_reported":1742458402,"current_range_meters":8000,"station_id":"","pricing_plan_id":"cebpf4jnsgd1na2vs0mg"},{"bike_id":"1fea0b3c-94ab-41af-b18e-d9bbaa7dda49","system_id":"levelo_inurba_marseille","lat":43.31711,"lon":5.43701,"is_reserved":false,"is_disabled":false,"rental_uris":{"android":"levelo://app?vid=1fea0b3c-94ab-41af-b18e-d9bbaa7dda49","ios":"levelo://app?vid=1fea0b3c-94ab-41af-b18e-d9bbaa7dda49"},"vehicle_type_id":"4","last_reported":1742458402,"current_range_meters":8000,"station_id":"ce4bhp92rcd13ifvqhcg","pricing_plan_id":"cebpf4jnsgd1na2vs0mg"},{"bike_id":"963a17fa-4222-4f93-b414-09c4cce8d25a","system_id":"levelo_inurba_marseille","lat":43.28435,"lon":5.38516,"is_reserved":false,"is_disabled":false,"rental_uris":{"android":"levelo://app?vid=963a17fa-4222-4f93-b414-09c4cce8d25a","ios":"levelo://app?vid=963a17fa-4222-4f93-b414-09c4cce8d25a"},"vehicle_type_id":"4","last_reported":1742458402,"current_range_meters":8000,"station_id":"","pricing_plan_id":"cebpf4jnsgd1na2vs0mg"},{"bike_id":"0a036192-d13b-4f07-8611-5ad9f4f3f6ab","system_id":"levelo_inurba_marseille","lat":43.32998,"lon":5.39213,"is_reserved":false,"is_disabled":false,"rental_uris":{"android":"levelo://app?vid=0a036192-d13b-4f07-8611-5ad9f4f3f6ab","ios":"levelo://app?vid=0a036192-d13b-4f07-8611-5ad9f4f3f6ab"},"vehicle_type_id":"4","last_reported":1742458402,"current_range_meters":8000,"station_id":"","pricing_plan_id":"cebpf4jnsgd1na2vs0mg"},{"bike_id":"58e33d66-73b1-42e5-adf0-ae2ed48c5043","system_id":"levelo_inurba_marseille","lat":43.32477,"lon":5.36571,"is_reserved":false,"is_disabled":false,"rental_uris":{"android":"levelo://app?vid=58e33d66-73b1-42e5-adf0-ae2ed48c5043","ios":"levelo://app?vid=58e33d66-73b1-42e5-adf0-ae2ed48c5043"},"vehicle_type_id":"4","last_reported":1742458402,"current_range_meters":8400,"station_id":"ce4bhs12rcd13ifvqhvg","pricing_plan_id":"cebpf4jnsgd1na2vs0mg"},{"bike_id":"a3175949-f9d6-40da-9481-3578df78d3a4","system_id":"levelo_inurba_marseille","lat":43.24992,"lon":5.38925,"is_reserved":false,"is_disabled":false,"rental_uris":{"android":"levelo://app?vid=a3175949-f9d6-40da-9481-3578df78d3a4","ios":"levelo://app?vid=a3175949-f9d6-40da-9481-3578df78d3a4"},"vehicle_type_id":"4","last_reported":1742458402,"current_range_meters":8400,"station_id":"ce4bhgp2rcd13ifvqfd0","pricing_plan_id":"cebpf4jnsgd1na2vs0mg"},{"bike_id":"1855c6a7-89b8-41cd-b762-db3e7a666ab8","system_id":"levelo_inurba_marseille","lat":43.31986,"lon":5.3817,"is_reserved":false,"is_disabled":false,"rental_uris":{"android":"levelo://app?vid=1855c6a7-89b8-41cd-b762-db3e7a666ab8","ios":"levelo://app?vid=1855c6a7-89b8-41cd-b762-db3e7a666ab8"},"vehicle_type_id":"4","last_reported":1742458402,"current_range_meters":8400,"station_id":"ce4bhr12rcd13ifvqhpg","pricing_plan_id":"cebpf4jnsgd1na2vs0mg"},{"bike_id":"69d88bfe-3a0f-46d9-b238-bb3444d7d275","system_id":"levelo_inurba_marseille","lat":43.27617,"lon":5.361,"is_reserved":false,"is_disabled":false,"rental_uris":{"android":"levelo://app?vid=69d88bfe-3a0f-46d9-b238-bb3444d7d275","ios":"levelo://app?vid=69d88bfe-3a0f-46d9-b238-bb3444d7d275"},"vehicle_type_id":"4","last_reported":1742458402,"current_range_meters":8000,"station_id":"ce4bgj92rcd13ifvqbe0","pricing_plan_id":"cebpf4jnsgd1na2vs0mg"},{"bike_id":"b79ac5de-c2b1-4477-b6f7-f1ff2a92b2bb","system_id":"levelo_inurba_marseille","lat":43.25934,"lon":5.40897,"is_reserved":false,"is_disabled":false,"rental_uris":{"android":"levelo://app?vid=b79ac5de-c2b1-4477-b6f7-f1ff2a92b2bb","ios":"levelo://app?vid=b79ac5de-c2b1-4477-b6f7-f1ff2a92b2bb"},"vehicle_type_id":"4","last_reported":1742458402,"current_range_meters":8400,"station_id":"ce4bhm92rcd13ifvqglg","pricing_plan_id":"cebpf4jnsgd1na2vs0mg"},{"bike_id":"8c8cac5b-9b2e-4809-a2ad-d9b69931ec22","system_id":"levelo_inurba_marseille","lat":43.30392,"lon":5.42512,"is_reserved":false,"is_disabled":false,"rental_uris":{"android":"levelo://app?vid=8c8cac5b-9b2e-4809-a2ad-d9b69931ec22","ios":"levelo://app?vid=8c8cac5b-9b2e-4809-a2ad-d9b69931ec22"},"vehicle_type_id":"4","last_reported":1742458402,"current_range_meters":8400,"station_id":"ce4bhoh2rcd13ifvqh6g","pricing_plan_id":"cebpf4jnsgd1na2vs0mg"},{"bike_id":"bfd67b10-fd7c-4b25-bc6e-0830b23c1f4b","system_id":"levelo_inurba_marseille","lat":43.25828,"lon":5.39434,"is_reserved":false,"is_disabled":false,"rental_uris":{"android":"levelo://app?vid=bfd67b10-fd7c-4b25-bc6e-0830b23c1f4b","ios":"levelo://app?vid=bfd67b10-fd7c-4b25-bc6e-0830b23c1f4b"},"vehicle_type_id":"4","last_reported":1742458402,"current_range_meters":8400,"station_id":"ce4bhip2rcd13ifvqft0","pricing_plan_id":"cebpf4jnsgd1na2vs0mg"},{"bike_id":"268cb14c-d7c6-4105-910d-1b918ec33301","system_id":"levelo_inurba_marseille","lat":43.2937,"lon":5.37858,"is_reserved":false,"is_disabled":false,"rental_uris":{"android":"levelo://app?vid=268cb14c-d7c6-4105-910d-1b918ec33301","ios":"levelo://app?vid=268cb14c-d7c6-4105-910d-1b918ec33301"},"vehicle_type_id":"4","last_reported":1742458402,"current_range_meters":8400,"station_id":"ce4bgjh2rcd13ifvqbf0","pricing_plan_id":"cebpf4jnsgd1na2vs0mg"},{"bike_id":"fa1662a9-4eda-49e6-92dc-fad2cd424f84","system_id":"levelo_inurba_marseille","lat":43.24169,"lon":5.36394,"is_reserved":false,"is_disabled":false,"rental_uris":{"android":"levelo://app?vid=fa1662a9-4eda-49e6-92dc-fad2cd424f84","ios":"levelo://app?vid=fa1662a9-4eda-49e6-92dc-fad2cd424f84"},"vehicle_type_id":"4","last_reported":1742458402,"current_range_meters":8400,"station_id":"cpo36qri1sfpv3e86is0","pricing_plan_id":"cebpf4jnsgd1na2vs0mg"},{"bike_id":"389859fd-e8e1-4858-9fab-a653df36e80a","system_id":"levelo_inurba_marseille","lat":43.31187,"lon":5.38709,"is_reserved":false,"is_disabled":false,"rental_uris":{"android":"levelo://app?vid=389859fd-e8e1-4858-9fab-a653df36e80a","ios":"levelo://app?vid=389859fd-e8e1-4858-9fab-a653df36e80a"},"vehicle_type_id":"4","last_reported":1742458402,"current_range_meters":8000,"station_id":"ce4bgv12rcd13ifvqcp0","pricing_plan_id":"cebpf4jnsgd1na2vs0mg"},{"bike_id":"02f43b01-3b74-45fa-a40e-2df823c84cda","system_id":"levelo_inurba_marseille","lat":43.24171,"lon":5.39754,"is_reserved":false,"is_disabled":false,"rental_uris":{"android":"levelo://app?vid=02f43b01-3b74-45fa-a40e-2df823c84cda","ios":"levelo://app?vid=02f43b01-3b74-45fa-a40e-2df823c84cda"},"vehicle_type_id":"4","last_reported":1742458402,"current_range_meters":8400,"station_id":"ce4bhn12rcd13ifvqgpg","pricing_plan_id":"cebpf4jnsgd1na2vs0mg"},{"bike_id":"bfc71d0e-e8ac-4d8d-b97a-04d933547114","system_id":"levelo_inurba_marseille","lat":43.30952,"lon":5.39033,"is_reserved":false,"is_disabled":false,"rental_uris":{"android":"levelo://app?vid=bfc71d0e-e8ac-4d8d-b97a-04d933547114","ios":"levelo://app?vid=bfc71d0e-e8ac-4d8d-b97a-04d933547114"},"vehicle_type_id":"4","last_reported":1742458402,"current_range_meters":8400,"station_id":"ce4bgup2rcd13ifvqco0","pricing_plan_id":"cebpf4jnsgd1na2vs0mg"},{"bike_id":"f1fcaa64-8777-41b7-8701-8233132e1bca","system_id":"levelo_inurba_marseille","lat":43.27944,"lon":5.41036,"is_reserved":false,"is_disabled":false,"rental_uris":{"android":"levelo://app?vid=f1fcaa64-8777-41b7-8701-8233132e1bca","ios":"levelo://app?vid=f1fcaa64-8777-41b7-8701-8233132e1bca"},"vehicle_type_id":"4","last_reported":1742458402,"current_range_meters":8400,"station_id":"ce4bhnp2rcd13ifvqh0g","pricing_plan_id":"cebpf4jnsgd1na2vs0mg"},{"bike_id":"9d26c008-8ec1-4269-9cd2-f45774f03ccb","system_id":"levelo_inurba_marseille","lat":43.27948,"lon":5.37938,"is_reserved":false,"is_disabled":false,"rental_uris":{"android":"levelo://app?vid=9d26c008-8ec1-4269-9cd2-f45774f03ccb","ios":"levelo://app?vid=9d26c008-8ec1-4269-9cd2-f45774f03ccb"},"vehicle_type_id":"4","last_reported":1742458402,"current_range_meters":8400,"station_id":"","pricing_plan_id":"cebpf4jnsgd1na2vs0mg"},{"bike_id":"6dd04b5b-fc1b-4d57-9a07-548d8e0b0c60","system_id":"levelo_inurba_marseille","lat":43.28993,"lon":5.37829,"is_reserved":false,"is_disabled":false,"rental_uris":{"android":"levelo://app?vid=6dd04b5b-fc1b-4d57-9a07-548d8e0b0c60","ios":"levelo://app?vid=6dd04b5b-fc1b-4d57-9a07-548d8e0b0c60"},"vehicle_type_id":"4","last_reported":1742458402,"current_range_meters":8000,"station_id":"ce4bh9p2rcd13ifvqed0","pricing_plan_id":"cebpf4jnsgd1na2vs0mg"},{"bike_id":"6eb98e18-92f8-411c-92c0-82d5569fb85c","system_id":"levelo_inurba_marseille","lat":43.32361,"lon":5.36762,"is_reserved":false,"is_disabled":false,"rental_uris":{"android":"levelo://app?vid=6eb98e18-92f8-411c-92c0-82d5569fb85c","ios":"levelo://app?vid=6eb98e18-92f8-411c-92c0-82d5569fb85c"},"vehicle_type_id":"4","last_reported":1742458402,"current_range_meters":8800,"station_id":"ce4bhsh2rcd13ifvqi2g","pricing_plan_id":"cebpf4jnsgd1na2vs0mg"},{"bike_id":"6880d901-873f-4af3-a1be-e1217fc3dad4","system_id":"levelo_inurba_marseille","lat":43.32545,"lon":5.41452,"is_reserved":false,"is_disabled":false,"rental_uris":{"android":"levelo://app?vid=6880d901-873f-4af3-a1be-e1217fc3dad4","ios":"levelo://app?vid=6880d901-873f-4af3-a1be-e1217fc3dad4"},"vehicle_type_id":"4","last_reported":1742458402,"current_range_meters":8800,"station_id":"ce4bhq12rcd13ifvqhhg","pricing_plan_id":"cebpf4jnsgd1na2vs0mg"},{"bike_id":"a8b8dae1-87ef-4f8a-a2c8-fe9fd9bf0f77","system_id":"levelo_inurba_marseille","lat":43.23526,"lon":5.37768,"is_reserved":false,"is_disabled":false,"rental_uris":{"android":"levelo://app?vid=a8b8dae1-87ef-4f8a-a2c8-fe9fd9bf0f77","ios":"levelo://app?vid=a8b8dae1-87ef-4f8a-a2c8-fe9fd9bf0f77"},"vehicle_type_id":"4","last_reported":1742458402,"current_range_meters":8800,"station_id":"","pricing_plan_id":"cebpf4jnsgd1na2vs0mg"},{"bike_id":"069ed527-ac76-415b-bf9e-c0f3833ee065","system_id":"levelo_inurba_marseille","lat":43.30896,"lon":5.372,"is_reserved":false,"is_disabled":false,"rental_uris":{"android":"levelo://app?vid=069ed527-ac76-415b-bf9e-c0f3833ee065","ios":"levelo://app?vid=069ed527-ac76-415b-bf9e-c0f3833ee065"},"vehicle_type_id":"4","last_reported":1742458402,"current_range_meters":8800,"station_id":"ce4bguh2rcd13ifvqckg","pricing_plan_id":"cebpf4jnsgd1na2vs0mg"},{"bike_id":"447501e5-187a-4602-94d5-a210c774a3da","system_id":"levelo_inurba_marseille","lat":43.33609,"lon":5.41033,"is_reserved":false,"is_disabled":false,"rental_uris":{"android":"levelo://app?vid=447501e5-187a-4602-94d5-a210c774a3da","ios":"levelo://app?vid=447501e5-187a-4602-94d5-a210c774a3da"},"vehicle_type_id":"4","last_reported":1742458402,"current_range_meters":8800,"station_id":"ce4bhqh2rcd13ifvqhmg","pricing_plan_id":"cebpf4jnsgd1na2vs0mg"},{"bike_id":"843a64d0-8f40-4e88-aedb-6282ad35a26a","system_id":"levelo_inurba_marseille","lat":43.2894,"lon":5.36395,"is_reserved":false,"is_disabled":false,"rental_uris":{"android":"levelo://app?vid=843a64d0-8f40-4e88-aedb-6282ad35a26a","ios":"levelo://app?vid=843a64d0-8f40-4e88-aedb-6282ad35a26a"},"vehicle_type_id":"4","last_reported":1742458402,"current_range_meters":6800,"station_id":"ce4bhc92rcd13ifvqetg","pricing_plan_id":"cebpf4jnsgd1na2vs0mg"},{"bike_id":"ee0f687c-08bb-4e36-98a2-e3de6b954481","system_id":"levelo_inurba_marseille","lat":43.241766,"lon":5.397348,"is_reserved":false,"is_disabled":false,"rental_uris":{"android":"levelo://app?vid=ee0f687c-08bb-4e36-98a2-e3de6b954481","ios":"levelo://app?vid=ee0f687c-08bb-4e36-98a2-e3de6b954481"},"vehicle_type_id":"4","last_reported":1742458402,"current_range_meters":8800,"station_id":"ce4bhn12rcd13ifvqgpg","pricing_plan_id":"cebpf4jnsgd1na2vs0mg"},{"bike_id":"b147f521-5b77-46f7-9b2e-03b6ac24a798","system_id":"levelo_inurba_marseille","lat":43.30886,"lon":5.36855,"is_reserved":false,"is_disabled":false,"rental_uris":{"android":"levelo://app?vid=b147f521-5b77-46f7-9b2e-03b6ac24a798","ios":"levelo://app?vid=b147f521-5b77-46f7-9b2e-03b6ac24a798"},"vehicle_type_id":"4","last_reported":1742458402,"current_range_meters":8800,"station_id":"ce4bgn92rcd13ifvqbvg","pricing_plan_id":"cebpf4jnsgd1na2vs0mg"},{"bike_id":"5fa7a2fd-c053-48df-a50e-4fca680bff65","system_id":"levelo_inurba_marseille","lat":43.309,"lon":5.36844,"is_reserved":false,"is_disabled":false,"rental_uris":{"android":"levelo://app?vid=5fa7a2fd-c053-48df-a50e-4fca680bff65","ios":"levelo://app?vid=5fa7a2fd-c053-48df-a50e-4fca680bff65"},"vehicle_type_id":"4","last_reported":1742458402,"current_range_meters":8800,"station_id":"ce4bgn92rcd13ifvqbvg","pricing_plan_id":"cebpf4jnsgd1na2vs0mg"},{"bike_id":"21f76b1c-3e48-46d0-8358-24d15865eef3","system_id":"levelo_inurba_marseille","lat":43.30908,"lon":5.36847,"is_reserved":false,"is_disabled":false,"rental_uris":{"android":"levelo://app?vid=21f76b1c-3e48-46d0-8358-24d15865eef3","ios":"levelo://app?vid=21f76b1c-3e48-46d0-8358-24d15865eef3"},"vehicle_type_id":"4","last_reported":1742458402,"current_range_meters":8800,"station_id":"ce4bgn92rcd13ifvqbvg","pricing_plan_id":"cebpf4jnsgd1na2vs0mg"},{"bike_id":"ee38f103-349e-443d-a1a3-839079be3628","system_id":"levelo_inurba_marseille","lat":43.29162,"lon":5.37156,"is_reserved":false,"is_disabled":false,"rental_uris":{"android":"levelo://app?vid=ee38f103-349e-443d-a1a3-839079be3628","ios":"levelo://app?vid=ee38f103-349e-443d-a1a3-839079be3628"},"vehicle_type_id":"4","last_reported":1742458402,"current_range_meters":8400,"station_id":"ce4bha92rcd13ifvqeh0","pricing_plan_id":"cebpf4jnsgd1na2vs0mg"},{"bike_id":"dab5b599-564f-470d-b857-a9674d507c49","system_id":"levelo_inurba_marseille","lat":43.25938,"lon":5.40903,"is_reserved":false,"is_disabled":false,"rental_uris":{"android":"levelo://app?vid=dab5b599-564f-470d-b857-a9674d507c49","ios":"levelo://app?vid=dab5b599-564f-470d-b857-a9674d507c49"},"vehicle_type_id":"4","last_reported":1742458402,"current_range_meters":9200,"station_id":"ce4bhm92rcd13ifvqglg","pricing_plan_id":"cebpf4jnsgd1na2vs0mg"},{"bike_id":"e88b70bd-069b-4562-80f8-76128176147d","system_id":"levelo_inurba_marseille","lat":43.29556,"lon":5.37526,"is_reserved":false,"is_disabled":false,"rental_uris":{"android":"levelo://app?vid=e88b70bd-069b-4562-80f8-76128176147d","ios":"levelo://app?vid=e88b70bd-069b-4562-80f8-76128176147d"},"vehicle_type_id":"4","last_reported":1742458402,"current_range_meters":9200,"station_id":"ce4bgh92rcd13ifvqb50","pricing_plan_id":"cebpf4jnsgd1na2vs0mg"},{"bike_id":"7936cb0c-b67b-41cf-9d4f-25e8687eda2e","system_id":"levelo_inurba_marseille","lat":43.28427,"lon":5.35004,"is_reserved":false,"is_disabled":false,"rental_uris":{"android":"levelo://app?vid=7936cb0c-b67b-41cf-9d4f-25e8687eda2e","ios":"levelo://app?vid=7936cb0c-b67b-41cf-9d4f-25e8687eda2e"},"vehicle_type_id":"4","last_reported":1742458402,"current_range_meters":9200,"station_id":"ce4bhbh2rcd13ifvqepg","pricing_plan_id":"cebpf4jnsgd1na2vs0mg"},{"bike_id":"f4c4bf6d-48a4-4198-942b-eda89b945e41","system_id":"levelo_inurba_marseille","lat":43.273643,"lon":5.362433,"is_reserved":false,"is_disabled":false,"rental_uris":{"android":"levelo://app?vid=f4c4bf6d-48a4-4198-942b-eda89b945e41","ios":"levelo://app?vid=f4c4bf6d-48a4-4198-942b-eda89b945e41"},"vehicle_type_id":"4","last_reported":1742458402,"current_range_meters":9200,"station_id":"ce4bhbh2rcd13ifvqeo0","pricing_plan_id":"cebpf4jnsgd1na2vs0mg"},{"bike_id":"e6c8473b-6f16-40c7-9d09-903e0bcd4e87","system_id":"levelo_inurba_marseille","lat":43.32575,"lon":5.41949,"is_reserved":false,"is_disabled":false,"rental_uris":{"android":"levelo://app?vid=e6c8473b-6f16-40c7-9d09-903e0bcd4e87","ios":"levelo://app?vid=e6c8473b-6f16-40c7-9d09-903e0bcd4e87"},"vehicle_type_id":"4","last_reported":1742458402,"current_range_meters":9200,"station_id":"","pricing_plan_id":"cebpf4jnsgd1na2vs0mg"},{"bike_id":"86eccc93-4fd8-4ef6-aed2-86921ac3f9c9","system_id":"levelo_inurba_marseille","lat":43.26675,"lon":5.3827,"is_reserved":false,"is_disabled":false,"rental_uris":{"android":"levelo://app?vid=86eccc93-4fd8-4ef6-aed2-86921ac3f9c9","ios":"levelo://app?vid=86eccc93-4fd8-4ef6-aed2-86921ac3f9c9"},"vehicle_type_id":"4","last_reported":1742458402,"current_range_meters":9200,"station_id":"ce4bhg92rcd13ifvqf90","pricing_plan_id":"cebpf4jnsgd1na2vs0mg"},{"bike_id":"6370e802-1ce7-46b3-ab38-c299ec041499","system_id":"levelo_inurba_marseille","lat":43.26681,"lon":5.38274,"is_reserved":false,"is_disabled":false,"rental_uris":{"android":"levelo://app?vid=6370e802-1ce7-46b3-ab38-c299ec041499","ios":"levelo://app?vid=6370e802-1ce7-46b3-ab38-c299ec041499"},"vehicle_type_id":"4","last_reported":1742458402,"current_range_meters":9200,"station_id":"ce4bhg92rcd13ifvqf90","pricing_plan_id":"cebpf4jnsgd1na2vs0mg"},{"bike_id":"cf4bd2ff-a55e-47e7-bd83-ebe621ff5a86","system_id":"levelo_inurba_marseille","lat":43.30882,"lon":5.37179,"is_reserved":false,"is_disabled":false,"rental_uris":{"android":"levelo://app?vid=cf4bd2ff-a55e-47e7-bd83-ebe621ff5a86","ios":"levelo://app?vid=cf4bd2ff-a55e-47e7-bd83-ebe621ff5a86"},"vehicle_type_id":"4","last_reported":1742458402,"current_range_meters":9200,"station_id":"ce4bguh2rcd13ifvqckg","pricing_plan_id":"cebpf4jnsgd1na2vs0mg"},{"bike_id":"d121b8cd-15d3-4a6c-915a-70c5531a2aff","system_id":"levelo_inurba_marseille","lat":43.295676,"lon":5.367036,"is_reserved":false,"is_disabled":false,"rental_uris":{"android":"levelo://app?vid=d121b8cd-15d3-4a6c-915a-70c5531a2aff","ios":"levelo://app?vid=d121b8cd-15d3-4a6c-915a-70c5531a2aff"},"vehicle_type_id":"4","last_reported":1742458402,"current_range_meters":9200,"station_id":"ce4bgh92rcd13ifvqb40","pricing_plan_id":"cebpf4jnsgd1na2vs0mg"},{"bike_id":"b9fc66b4-4f24-41e5-9777-aaaf498231a8","system_id":"levelo_inurba_marseille","lat":43.27974,"lon":5.38738,"is_reserved":false,"is_disabled":false,"rental_uris":{"android":"levelo://app?vid=b9fc66b4-4f24-41e5-9777-aaaf498231a8","ios":"levelo://app?vid=b9fc66b4-4f24-41e5-9777-aaaf498231a8"},"vehicle_type_id":"4","last_reported":1742458402,"current_range_meters":9200,"station_id":"ce4bhg12rcd13ifvqf80","pricing_plan_id":"cebpf4jnsgd1na2vs0mg"},{"bike_id":"7c23dcb0-31a4-457d-8cd5-05a913c017d4","system_id":"levelo_inurba_marseille","lat":43.33041,"lon":5.39022,"is_reserved":false,"is_disabled":false,"rental_uris":{"android":"levelo://app?vid=7c23dcb0-31a4-457d-8cd5-05a913c017d4","ios":"levelo://app?vid=7c23dcb0-31a4-457d-8cd5-05a913c017d4"},"vehicle_type_id":"4","last_reported":1742458402,"current_range_meters":9200,"station_id":"ce4bhr92rcd13ifvqhrg","pricing_plan_id":"cebpf4jnsgd1na2vs0mg"},{"bike_id":"c6c8dd2d-5b6e-4c3a-8293-f6b60960b982","system_id":"levelo_inurba_marseille","lat":43.30881,"lon":5.37432,"is_reserved":false,"is_disabled":false,"rental_uris":{"android":"levelo://app?vid=c6c8dd2d-5b6e-4c3a-8293-f6b60960b982","ios":"levelo://app?vid=c6c8dd2d-5b6e-4c3a-8293-f6b60960b982"},"vehicle_type_id":"4","last_reported":1742458402,"current_range_meters":9200,"station_id":"","pricing_plan_id":"cebpf4jnsgd1na2vs0mg"},{"bike_id":"176d2e0b-da43-4b98-b92e-b45d4ab12b2f","system_id":"levelo_inurba_marseille","lat":43.30213,"lon":5.38465,"is_reserved":false,"is_disabled":false,"rental_uris":{"android":"levelo://app?vid=176d2e0b-da43-4b98-b92e-b45d4ab12b2f","ios":"levelo://app?vid=176d2e0b-da43-4b98-b92e-b45d4ab12b2f"},"vehicle_type_id":"4","last_reported":1742458402,"current_range_meters":9200,"station_id":"","pricing_plan_id":"cebpf4jnsgd1na2vs0mg"},{"bike_id":"471b8c1a-1a85-4080-b533-fb41f3dbfd81","system_id":"levelo_inurba_marseille","lat":43.23185,"lon":5.3555,"is_reserved":false,"is_disabled":false,"rental_uris":{"android":"levelo://app?vid=471b8c1a-1a85-4080-b533-fb41f3dbfd81","ios":"levelo://app?vid=471b8c1a-1a85-4080-b533-fb41f3dbfd81"},"vehicle_type_id":"4","last_reported":1742458402,"current_range_meters":9600,"station_id":"ce4bhu92rcd13ifvqi70","pricing_plan_id":"cebpf4jnsgd1na2vs0mg"},{"bike_id":"1390c5c0-e846-4b60-9436-06c52fefc91f","system_id":"levelo_inurba_marseille","lat":43.27324,"lon":5.39079,"is_reserved":false,"is_disabled":false,"rental_uris":{"android":"levelo://app?vid=1390c5c0-e846-4b60-9436-06c52fefc91f","ios":"levelo://app?vid=1390c5c0-e846-4b60-9436-06c52fefc91f"},"vehicle_type_id":"4","last_reported":1742458402,"current_range_meters":9600,"station_id":"ce4bhgp2rcd13ifvqfe0","pricing_plan_id":"cebpf4jnsgd1na2vs0mg"},{"bike_id":"1f17d341-c5c7-4b09-abe5-88fb0a205532","system_id":"levelo_inurba_marseille","lat":43.2668,"lon":5.38269,"is_reserved":false,"is_disabled":false,"rental_uris":{"android":"levelo://app?vid=1f17d341-c5c7-4b09-abe5-88fb0a205532","ios":"levelo://app?vid=1f17d341-c5c7-4b09-abe5-88fb0a205532"},"vehicle_type_id":"4","last_reported":1742458402,"current_range_meters":9600,"station_id":"ce4bhg92rcd13ifvqf90","pricing_plan_id":"cebpf4jnsgd1na2vs0mg"},{"bike_id":"d6978de6-e822-4f8d-8b75-2f163921c423","system_id":"levelo_inurba_marseille","lat":43.30245,"lon":5.40076,"is_reserved":false,"is_disabled":false,"rental_uris":{"android":"levelo://app?vid=d6978de6-e822-4f8d-8b75-2f163921c423","ios":"levelo://app?vid=d6978de6-e822-4f8d-8b75-2f163921c423"},"vehicle_type_id":"4","last_reported":1742458402,"current_range_meters":9600,"station_id":"ce4bgvh2rcd13ifvqcs0","pricing_plan_id":"cebpf4jnsgd1na2vs0mg"},{"bike_id":"671210b1-9e8f-4893-953f-985ab8b97e34","system_id":"levelo_inurba_marseille","lat":43.321154,"lon":5.367599,"is_reserved":false,"is_disabled":false,"rental_uris":{"android":"levelo://app?vid=671210b1-9e8f-4893-953f-985ab8b97e34","ios":"levelo://app?vid=671210b1-9e8f-4893-953f-985ab8b97e34"},"vehicle_type_id":"4","last_reported":1742458402,"current_range_meters":9600,"station_id":"ce4bhrh2rcd13ifvqhug","pricing_plan_id":"cebpf4jnsgd1na2vs0mg"},{"bike_id":"3f6bcd5f-3d16-44d4-a6e8-aea0a60a26fd","system_id":"levelo_inurba_marseille","lat":43.28941,"lon":5.36643,"is_reserved":false,"is_disabled":false,"rental_uris":{"android":"levelo://app?vid=3f6bcd5f-3d16-44d4-a6e8-aea0a60a26fd","ios":"levelo://app?vid=3f6bcd5f-3d16-44d4-a6e8-aea0a60a26fd"},"vehicle_type_id":"4","last_reported":1742458402,"current_range_meters":9600,"station_id":"ce4bhap2rcd13ifvqek0","pricing_plan_id":"cebpf4jnsgd1na2vs0mg"},{"bike_id":"94ffa62a-c0a8-48b0-83e4-7237e17e0e07","system_id":"levelo_inurba_marseille","lat":43.279519,"lon":5.410534,"is_reserved":false,"is_disabled":false,"rental_uris":{"android":"levelo://app?vid=94ffa62a-c0a8-48b0-83e4-7237e17e0e07","ios":"levelo://app?vid=94ffa62a-c0a8-48b0-83e4-7237e17e0e07"},"vehicle_type_id":"4","last_reported":1742458402,"current_range_meters":9600,"station_id":"ce4bhnp2rcd13ifvqh0g","pricing_plan_id":"cebpf4jnsgd1na2vs0mg"},{"bike_id":"675f2282-de7c-4fe7-8ec0-6b43c4fd9e18","system_id":"levelo_inurba_marseille","lat":43.2731,"lon":5.39077,"is_reserved":false,"is_disabled":false,"rental_uris":{"android":"levelo://app?vid=675f2282-de7c-4fe7-8ec0-6b43c4fd9e18","ios":"levelo://app?vid=675f2282-de7c-4fe7-8ec0-6b43c4fd9e18"},"vehicle_type_id":"4","last_reported":1742458402,"current_range_meters":9600,"station_id":"ce4bhgp2rcd13ifvqfe0","pricing_plan_id":"cebpf4jnsgd1na2vs0mg"},{"bike_id":"1983241e-dcf4-412a-b965-b9e661a9d6d5","system_id":"levelo_inurba_marseille","lat":43.29799,"lon":5.40175,"is_reserved":false,"is_disabled":false,"rental_uris":{"android":"levelo://app?vid=1983241e-dcf4-412a-b965-b9e661a9d6d5","ios":"levelo://app?vid=1983241e-dcf4-412a-b965-b9e661a9d6d5"},"vehicle_type_id":"4","last_reported":1742458402,"current_range_meters":9600,"station_id":"","pricing_plan_id":"cebpf4jnsgd1na2vs0mg"},{"bike_id":"6c7e51d2-e2f9-4032-b4ac-95afc513e72e","system_id":"levelo_inurba_marseille","lat":43.27374,"lon":5.36261,"is_reserved":false,"is_disabled":false,"rental_uris":{"android":"levelo://app?vid=6c7e51d2-e2f9-4032-b4ac-95afc513e72e","ios":"levelo://app?vid=6c7e51d2-e2f9-4032-b4ac-95afc513e72e"},"vehicle_type_id":"4","last_reported":1742458402,"current_range_meters":10000,"station_id":"ce4bhbh2rcd13ifvqeo0","pricing_plan_id":"cebpf4jnsgd1na2vs0mg"},{"bike_id":"11bd8d6d-27dc-4740-9c7d-3b5375e8c83b","system_id":"levelo_inurba_marseille","lat":43.31645,"lon":5.39601,"is_reserved":false,"is_disabled":false,"rental_uris":{"android":"levelo://app?vid=11bd8d6d-27dc-4740-9c7d-3b5375e8c83b","ios":"levelo://app?vid=11bd8d6d-27dc-4740-9c7d-3b5375e8c83b"},"vehicle_type_id":"4","last_reported":1742458402,"current_range_meters":10000,"station_id":"","pricing_plan_id":"cebpf4jnsgd1na2vs0mg"},{"bike_id":"cb6062cd-3cfa-4917-b79b-5707b99e3c03","system_id":"levelo_inurba_marseille","lat":43.321185,"lon":5.367534,"is_reserved":false,"is_disabled":false,"rental_uris":{"android":"levelo://app?vid=cb6062cd-3cfa-4917-b79b-5707b99e3c03","ios":"levelo://app?vid=cb6062cd-3cfa-4917-b79b-5707b99e3c03"},"vehicle_type_id":"4","last_reported":1742458402,"current_range_meters":10000,"station_id":"ce4bho92rcd13ifvqh3g","pricing_plan_id":"cebpf4jnsgd1na2vs0mg"},{"bike_id":"f9b545e0-d8e8-4984-b3d5-04717e8d7e35","system_id":"levelo_inurba_marseille","lat":43.27498,"lon":5.42484,"is_reserved":false,"is_disabled":true,"rental_uris":{"android":"levelo://app?vid=f9b545e0-d8e8-4984-b3d5-04717e8d7e35","ios":"levelo://app?vid=f9b545e0-d8e8-4984-b3d5-04717e8d7e35"},"vehicle_type_id":"4","last_reported":1742458402,"current_range_meters":10000,"station_id":"ce4bhn92rcd13ifvqgrg","pricing_plan_id":"cebpf4jnsgd1na2vs0mg"},{"bike_id":"0af285be-0294-4c23-9728-cedd0c1ca6b2","system_id":"levelo_inurba_marseille","lat":43.23168,"lon":5.40015,"is_reserved":false,"is_disabled":false,"rental_uris":{"android":"levelo://app?vid=0af285be-0294-4c23-9728-cedd0c1ca6b2","ios":"levelo://app?vid=0af285be-0294-4c23-9728-cedd0c1ca6b2"},"vehicle_type_id":"4","last_reported":1742458402,"current_range_meters":10000,"station_id":"ce4bhn12rcd13ifvqgqg","pricing_plan_id":"cebpf4jnsgd1na2vs0mg"},{"bike_id":"0fbcfb89-710d-4143-bd5f-833cc40667bc","system_id":"levelo_inurba_marseille","lat":43.30471,"lon":5.37918,"is_reserved":false,"is_disabled":false,"rental_uris":{"android":"levelo://app?vid=0fbcfb89-710d-4143-bd5f-833cc40667bc","ios":"levelo://app?vid=0fbcfb89-710d-4143-bd5f-833cc40667bc"},"vehicle_type_id":"4","last_reported":1742458402,"current_range_meters":10000,"station_id":"ce4bgup2rcd13ifvqcn0","pricing_plan_id":"cebpf4jnsgd1na2vs0mg"},{"bike_id":"f5928a68-7fb2-4bd5-bd17-c370d1a56077","system_id":"levelo_inurba_marseille","lat":43.3026,"lon":5.40052,"is_reserved":false,"is_disabled":false,"rental_uris":{"android":"levelo://app?vid=f5928a68-7fb2-4bd5-bd17-c370d1a56077","ios":"levelo://app?vid=f5928a68-7fb2-4bd5-bd17-c370d1a56077"},"vehicle_type_id":"4","last_reported":1742458402,"current_range_meters":10000,"station_id":"ce4bgvh2rcd13ifvqcs0","pricing_plan_id":"cebpf4jnsgd1na2vs0mg"},{"bike_id":"53453b7d-efa7-466b-acc7-100d440eb47d","system_id":"levelo_inurba_marseille","lat":43.26781,"lon":5.39411,"is_reserved":false,"is_disabled":false,"rental_uris":{"android":"levelo://app?vid=53453b7d-efa7-466b-acc7-100d440eb47d","ios":"levelo://app?vid=53453b7d-efa7-466b-acc7-100d440eb47d"},"vehicle_type_id":"4","last_reported":1742458402,"current_range_meters":9600,"station_id":"ce4bhh12rcd13ifvqfg0","pricing_plan_id":"cebpf4jnsgd1na2vs0mg"},{"bike_id":"a2b837c5-eca2-4c90-8d8e-11fa30ad2284","system_id":"levelo_inurba_marseille","lat":43.28922,"lon":5.36621,"is_reserved":false,"is_disabled":false,"rental_uris":{"android":"levelo://app?vid=a2b837c5-eca2-4c90-8d8e-11fa30ad2284","ios":"levelo://app?vid=a2b837c5-eca2-4c90-8d8e-11fa30ad2284"},"vehicle_type_id":"4","last_reported":1742458402,"current_range_meters":8000,"station_id":"ce4bhap2rcd13ifvqek0","pricing_plan_id":"cebpf4jnsgd1na2vs0mg"},{"bike_id":"1689fa84-13f6-46a5-be92-d2be23b25286","system_id":"levelo_inurba_marseille","lat":43.31447,"lon":5.37603,"is_reserved":false,"is_disabled":false,"rental_uris":{"android":"levelo://app?vid=1689fa84-13f6-46a5-be92-d2be23b25286","ios":"levelo://app?vid=1689fa84-13f6-46a5-be92-d2be23b25286"},"vehicle_type_id":"4","last_reported":1742458402,"current_range_meters":10000,"station_id":"","pricing_plan_id":"cebpf4jnsgd1na2vs0mg"},{"bike_id":"d7645557-54c5-44ed-8c44-41e433a350da","system_id":"levelo_inurba_marseille","lat":43.29471,"lon":5.3557,"is_reserved":false,"is_disabled":false,"rental_uris":{"android":"levelo://app?vid=d7645557-54c5-44ed-8c44-41e433a350da","ios":"levelo://app?vid=d7645557-54c5-44ed-8c44-41e433a350da"},"vehicle_type_id":"4","last_reported":1742458402,"current_range_meters":10000,"station_id":"","pricing_plan_id":"cebpf4jnsgd1na2vs0mg"},{"bike_id":"7cbbb3c1-2761-487f-9114-77ea7742e394","system_id":"levelo_inurba_marseille","lat":43.2974,"lon":5.37685,"is_reserved":false,"is_disabled":false,"rental_uris":{"android":"levelo://app?vid=7cbbb3c1-2761-487f-9114-77ea7742e394","ios":"levelo://app?vid=7cbbb3c1-2761-487f-9114-77ea7742e394"},"vehicle_type_id":"4","last_reported":1742458402,"current_range_meters":10000,"station_id":"ce4bgkh2rcd13ifvqbl0","pricing_plan_id":"cebpf4jnsgd1na2vs0mg"},{"bike_id":"63ae6f21-8aea-4639-af60-0a2aa764ad78","system_id":"levelo_inurba_marseille","lat":43.27495,"lon":5.42453,"is_reserved":false,"is_disabled":false,"rental_uris":{"android":"levelo://app?vid=63ae6f21-8aea-4639-af60-0a2aa764ad78","ios":"levelo://app?vid=63ae6f21-8aea-4639-af60-0a2aa764ad78"},"vehicle_type_id":"4","last_reported":1742458402,"current_range_meters":10800,"station_id":"ce4bhn92rcd13ifvqgrg","pricing_plan_id":"cebpf4jnsgd1na2vs0mg"},{"bike_id":"195c3fce-a0cb-402d-a36b-a03a870109c5","system_id":"levelo_inurba_marseille","lat":43.30943,"lon":5.39036,"is_reserved":false,"is_disabled":false,"rental_uris":{"android":"levelo://app?vid=195c3fce-a0cb-402d-a36b-a03a870109c5","ios":"levelo://app?vid=195c3fce-a0cb-402d-a36b-a03a870109c5"},"vehicle_type_id":"4","last_reported":1742458402,"current_range_meters":10800,"station_id":"ce4bgup2rcd13ifvqco0","pricing_plan_id":"cebpf4jnsgd1na2vs0mg"},{"bike_id":"a0deeb6c-62a7-4efb-834c-1bec837aaba6","system_id":"levelo_inurba_marseille","lat":43.33696,"lon":5.37826,"is_reserved":false,"is_disabled":false,"rental_uris":{"android":"levelo://app?vid=a0deeb6c-62a7-4efb-834c-1bec837aaba6","ios":"levelo://app?vid=a0deeb6c-62a7-4efb-834c-1bec837aaba6"},"vehicle_type_id":"4","last_reported":1742458402,"current_range_meters":10800,"station_id":"","pricing_plan_id":"cebpf4jnsgd1na2vs0mg"},{"bike_id":"10086b00-bef0-477b-822c-b7856d22bf0f","system_id":"levelo_inurba_marseille","lat":43.30957,"lon":5.39039,"is_reserved":false,"is_disabled":false,"rental_uris":{"android":"levelo://app?vid=10086b00-bef0-477b-822c-b7856d22bf0f","ios":"levelo://app?vid=10086b00-bef0-477b-822c-b7856d22bf0f"},"vehicle_type_id":"4","last_reported":1742458402,"current_range_meters":10800,"station_id":"ce4bgup2rcd13ifvqco0","pricing_plan_id":"cebpf4jnsgd1na2vs0mg"},{"bike_id":"ed36fc92-6cd1-442d-a318-4f4760ea0938","system_id":"levelo_inurba_marseille","lat":43.30259,"lon":5.40086,"is_reserved":false,"is_disabled":false,"rental_uris":{"android":"levelo://app?vid=ed36fc92-6cd1-442d-a318-4f4760ea0938","ios":"levelo://app?vid=ed36fc92-6cd1-442d-a318-4f4760ea0938"},"vehicle_type_id":"4","last_reported":1742458402,"current_range_meters":10800,"station_id":"ce4bgvh2rcd13ifvqcs0","pricing_plan_id":"cebpf4jnsgd1na2vs0mg"},{"bike_id":"85782564-15b3-42d4-8810-12088c1abb61","system_id":"levelo_inurba_marseille","lat":43.3017,"lon":5.38063,"is_reserved":false,"is_disabled":true,"rental_uris":{"android":"levelo://app?vid=85782564-15b3-42d4-8810-12088c1abb61","ios":"levelo://app?vid=85782564-15b3-42d4-8810-12088c1abb61"},"vehicle_type_id":"4","last_reported":1742458402,"current_range_meters":10800,"station_id":"ce4bgjp2rcd13ifvqbh0","pricing_plan_id":"cebpf4jnsgd1na2vs0mg"},{"bike_id":"c80669ac-c345-4701-b5f9-7d4bd3700c4b","system_id":"levelo_inurba_marseille","lat":43.29317,"lon":5.37177,"is_reserved":false,"is_disabled":false,"rental_uris":{"android":"levelo://app?vid=c80669ac-c345-4701-b5f9-7d4bd3700c4b","ios":"levelo://app?vid=c80669ac-c345-4701-b5f9-7d4bd3700c4b"},"vehicle_type_id":"4","last_reported":1742458402,"current_range_meters":10800,"station_id":"ce4bgh92rcd13ifvqb40","pricing_plan_id":"cebpf4jnsgd1na2vs0mg"},{"bike_id":"4c44c71d-64d5-4bb1-9445-5c9bbff69c6e","system_id":"levelo_inurba_marseille","lat":43.24083,"lon":5.37747,"is_reserved":false,"is_disabled":false,"rental_uris":{"android":"levelo://app?vid=4c44c71d-64d5-4bb1-9445-5c9bbff69c6e","ios":"levelo://app?vid=4c44c71d-64d5-4bb1-9445-5c9bbff69c6e"},"vehicle_type_id":"4","last_reported":1742458402,"current_range_meters":10800,"station_id":"ce4bhnp2rcd13ifvqgvg","pricing_plan_id":"cebpf4jnsgd1na2vs0mg"},{"bike_id":"b37180a4-94bf-4649-a7de-cb4074baa71a","system_id":"levelo_inurba_marseille","lat":43.29734,"lon":5.37695,"is_reserved":false,"is_disabled":false,"rental_uris":{"android":"levelo://app?vid=b37180a4-94bf-4649-a7de-cb4074baa71a","ios":"levelo://app?vid=b37180a4-94bf-4649-a7de-cb4074baa71a"},"vehicle_type_id":"4","last_reported":1742458402,"current_range_meters":10000,"station_id":"ce4bgkh2rcd13ifvqbl0","pricing_plan_id":"cebpf4jnsgd1na2vs0mg"},{"bike_id":"36fcd57a-3c3c-4b32-89c1-0f21ce8ea217","system_id":"levelo_inurba_marseille","lat":43.27206,"lon":5.39178,"is_reserved":false,"is_disabled":false,"rental_uris":{"android":"levelo://app?vid=36fcd57a-3c3c-4b32-89c1-0f21ce8ea217","ios":"levelo://app?vid=36fcd57a-3c3c-4b32-89c1-0f21ce8ea217"},"vehicle_type_id":"4","last_reported":1742458402,"current_range_meters":10800,"station_id":"ce4bhhp2rcd13ifvqfm0","pricing_plan_id":"cebpf4jnsgd1na2vs0mg"},{"bike_id":"fe02ae58-dec4-4ec8-a492-f67dc3bda5dd","system_id":"levelo_inurba_marseille","lat":43.24676,"lon":5.38149,"is_reserved":false,"is_disabled":false,"rental_uris":{"android":"levelo://app?vid=fe02ae58-dec4-4ec8-a492-f67dc3bda5dd","ios":"levelo://app?vid=fe02ae58-dec4-4ec8-a492-f67dc3bda5dd"},"vehicle_type_id":"4","last_reported":1742458402,"current_range_meters":10800,"station_id":"ce4bhih2rcd13ifvqfr0","pricing_plan_id":"cebpf4jnsgd1na2vs0mg"},{"bike_id":"1c91d8df-eac4-44fb-932a-5c411d61886f","system_id":"levelo_inurba_marseille","lat":43.26682,"lon":5.38273,"is_reserved":false,"is_disabled":false,"rental_uris":{"android":"levelo://app?vid=1c91d8df-eac4-44fb-932a-5c411d61886f","ios":"levelo://app?vid=1c91d8df-eac4-44fb-932a-5c411d61886f"},"vehicle_type_id":"4","last_reported":1742458402,"current_range_meters":10800,"station_id":"ce4bhg92rcd13ifvqf90","pricing_plan_id":"cebpf4jnsgd1na2vs0mg"},{"bike_id":"c1b8df7b-2ef2-4d52-be47-f7e5821c9bef","system_id":"levelo_inurba_marseille","lat":43.32476,"lon":5.36571,"is_reserved":false,"is_disabled":false,"rental_uris":{"android":"levelo://app?vid=c1b8df7b-2ef2-4d52-be47-f7e5821c9bef","ios":"levelo://app?vid=c1b8df7b-2ef2-4d52-be47-f7e5821c9bef"},"vehicle_type_id":"4","last_reported":1742458402,"current_range_meters":11200,"station_id":"ce4bhs12rcd13ifvqhvg","pricing_plan_id":"cebpf4jnsgd1na2vs0mg"},{"bike_id":"d6ace91f-7180-4ba5-a503-2cbd11cd4c1c","system_id":"levelo_inurba_marseille","lat":43.275,"lon":5.42469,"is_reserved":false,"is_disabled":false,"rental_uris":{"android":"levelo://app?vid=d6ace91f-7180-4ba5-a503-2cbd11cd4c1c","ios":"levelo://app?vid=d6ace91f-7180-4ba5-a503-2cbd11cd4c1c"},"vehicle_type_id":"4","last_reported":1742458402,"current_range_meters":10800,"station_id":"ce4bhn92rcd13ifvqgrg","pricing_plan_id":"cebpf4jnsgd1na2vs0mg"},{"bike_id":"750c8726-a58b-4b0e-b51b-8e8a5addc570","system_id":"levelo_inurba_marseille","lat":43.3139,"lon":5.36758,"is_reserved":false,"is_disabled":false,"rental_uris":{"android":"levelo://app?vid=750c8726-a58b-4b0e-b51b-8e8a5addc570","ios":"levelo://app?vid=750c8726-a58b-4b0e-b51b-8e8a5addc570"},"vehicle_type_id":"4","last_reported":1742458402,"current_range_meters":11200,"station_id":"","pricing_plan_id":"cebpf4jnsgd1na2vs0mg"},{"bike_id":"75e8bee3-0a10-4522-9d7e-72ece2846129","system_id":"levelo_inurba_marseille","lat":43.3345,"lon":5.39621,"is_reserved":false,"is_disabled":false,"rental_uris":{"android":"levelo://app?vid=75e8bee3-0a10-4522-9d7e-72ece2846129","ios":"levelo://app?vid=75e8bee3-0a10-4522-9d7e-72ece2846129"},"vehicle_type_id":"4","last_reported":1742458402,"current_range_meters":11200,"station_id":"","pricing_plan_id":"cebpf4jnsgd1na2vs0mg"},{"bike_id":"181b1742-09ee-46ab-8712-67d8396af664","system_id":"levelo_inurba_marseille","lat":43.24188,"lon":5.39742,"is_reserved":false,"is_disabled":false,"rental_uris":{"android":"levelo://app?vid=181b1742-09ee-46ab-8712-67d8396af664","ios":"levelo://app?vid=181b1742-09ee-46ab-8712-67d8396af664"},"vehicle_type_id":"4","last_reported":1742458402,"current_range_meters":11200,"station_id":"ce4bhn12rcd13ifvqgpg","pricing_plan_id":"cebpf4jnsgd1na2vs0mg"},{"bike_id":"bed7251b-f8e9-4484-a536-af9a4b5cde10","system_id":"levelo_inurba_marseille","lat":43.29024,"lon":5.38141,"is_reserved":false,"is_disabled":false,"rental_uris":{"android":"levelo://app?vid=bed7251b-f8e9-4484-a536-af9a4b5cde10","ios":"levelo://app?vid=bed7251b-f8e9-4484-a536-af9a4b5cde10"},"vehicle_type_id":"4","last_reported":1742458402,"current_range_meters":11200,"station_id":"ce4bh4p2rcd13ifvqe1g","pricing_plan_id":"cebpf4jnsgd1na2vs0mg"},{"bike_id":"7a3c36de-6886-4ac9-9390-ebc594ddc6d0","system_id":"levelo_inurba_marseille","lat":43.28928,"lon":5.38397,"is_reserved":false,"is_disabled":false,"rental_uris":{"android":"levelo://app?vid=7a3c36de-6886-4ac9-9390-ebc594ddc6d0","ios":"levelo://app?vid=7a3c36de-6886-4ac9-9390-ebc594ddc6d0"},"vehicle_type_id":"4","last_reported":1742458402,"current_range_meters":11600,"station_id":"ce4bh612rcd13ifvqe6g","pricing_plan_id":"cebpf4jnsgd1na2vs0mg"},{"bike_id":"3310a0c6-f8cb-44fe-b152-60eef21bf7f2","system_id":"levelo_inurba_marseille","lat":43.26786,"lon":5.39413,"is_reserved":false,"is_disabled":false,"rental_uris":{"android":"levelo://app?vid=3310a0c6-f8cb-44fe-b152-60eef21bf7f2","ios":"levelo://app?vid=3310a0c6-f8cb-44fe-b152-60eef21bf7f2"},"vehicle_type_id":"4","last_reported":1742458402,"current_range_meters":11600,"station_id":"ce4bhh12rcd13ifvqfg0","pricing_plan_id":"cebpf4jnsgd1na2vs0mg"},{"bike_id":"ffbee1c9-ab8d-45ee-b606-c546ab78c5f2","system_id":"levelo_inurba_marseille","lat":43.29754,"lon":5.37811,"is_reserved":false,"is_disabled":false,"rental_uris":{"android":"levelo://app?vid=ffbee1c9-ab8d-45ee-b606-c546ab78c5f2","ios":"levelo://app?vid=ffbee1c9-ab8d-45ee-b606-c546ab78c5f2"},"vehicle_type_id":"4","last_reported":1742458402,"current_range_meters":11600,"station_id":"","pricing_plan_id":"cebpf4jnsgd1na2vs0mg"},{"bike_id":"9e9e1ea5-8a04-4d10-a482-eb0039f65aa3","system_id":"levelo_inurba_marseille","lat":43.2417,"lon":5.39733,"is_reserved":false,"is_disabled":false,"rental_uris":{"android":"levelo://app?vid=9e9e1ea5-8a04-4d10-a482-eb0039f65aa3","ios":"levelo://app?vid=9e9e1ea5-8a04-4d10-a482-eb0039f65aa3"},"vehicle_type_id":"4","last_reported":1742458402,"current_range_meters":11600,"station_id":"ce4bhn12rcd13ifvqgpg","pricing_plan_id":"cebpf4jnsgd1na2vs0mg"},{"bike_id":"e8563ed6-b5eb-4fbf-9418-09fca60b1465","system_id":"levelo_inurba_marseille","lat":43.25867,"lon":5.39906,"is_reserved":false,"is_disabled":false,"rental_uris":{"android":"levelo://app?vid=e8563ed6-b5eb-4fbf-9418-09fca60b1465","ios":"levelo://app?vid=e8563ed6-b5eb-4fbf-9418-09fca60b1465"},"vehicle_type_id":"4","last_reported":1742458402,"current_range_meters":11600,"station_id":"ce4bhl92rcd13ifvqghg","pricing_plan_id":"cebpf4jnsgd1na2vs0mg"},{"bike_id":"6883c811-8746-429a-bd41-848ecf4dd19e","system_id":"levelo_inurba_marseille","lat":43.235168,"lon":5.377464,"is_reserved":false,"is_disabled":false,"rental_uris":{"android":"levelo://app?vid=6883c811-8746-429a-bd41-848ecf4dd19e","ios":"levelo://app?vid=6883c811-8746-429a-bd41-848ecf4dd19e"},"vehicle_type_id":"4","last_reported":1742458402,"current_range_meters":11600,"station_id":"","pricing_plan_id":"cebpf4jnsgd1na2vs0mg"},{"bike_id":"4fcd06ae-4851-4c19-aff2-bf420ac261fc","system_id":"levelo_inurba_marseille","lat":43.28351,"lon":5.38629,"is_reserved":false,"is_disabled":true,"rental_uris":{"android":"levelo://app?vid=4fcd06ae-4851-4c19-aff2-bf420ac261fc","ios":"levelo://app?vid=4fcd06ae-4851-4c19-aff2-bf420ac261fc"},"vehicle_type_id":"4","last_reported":1742458402,"current_range_meters":11600,"station_id":"ce4bh492rcd13ifvqdvg","pricing_plan_id":"cebpf4jnsgd1na2vs0mg"},{"bike_id":"c5bb5dca-1dc9-450e-9a3d-9fa737cf345d","system_id":"levelo_inurba_marseille","lat":43.24656,"lon":5.38895,"is_reserved":false,"is_disabled":false,"rental_uris":{"android":"levelo://app?vid=c5bb5dca-1dc9-450e-9a3d-9fa737cf345d","ios":"levelo://app?vid=c5bb5dca-1dc9-450e-9a3d-9fa737cf345d"},"vehicle_type_id":"4","last_reported":1742458402,"current_range_meters":11600,"station_id":"ce4bhg12rcd13ifvqf60","pricing_plan_id":"cebpf4jnsgd1na2vs0mg"},{"bike_id":"0d7125f7-4ef3-4163-b501-e403ffb079c4","system_id":"levelo_inurba_marseille","lat":43.31887,"lon":5.40734,"is_reserved":false,"is_disabled":false,"rental_uris":{"android":"levelo://app?vid=0d7125f7-4ef3-4163-b501-e403ffb079c4","ios":"levelo://app?vid=0d7125f7-4ef3-4163-b501-e403ffb079c4"},"vehicle_type_id":"4","last_reported":1742458402,"current_range_meters":11600,"station_id":"ce4bhq12rcd13ifvqhig","pricing_plan_id":"cebpf4jnsgd1na2vs0mg"},{"bike_id":"d5b1f4d5-216f-43f8-98c4-8a5a533ec21c","system_id":"levelo_inurba_marseille","lat":43.29433,"lon":5.39745,"is_reserved":false,"is_disabled":false,"rental_uris":{"android":"levelo://app?vid=d5b1f4d5-216f-43f8-98c4-8a5a533ec21c","ios":"levelo://app?vid=d5b1f4d5-216f-43f8-98c4-8a5a533ec21c"},"vehicle_type_id":"4","last_reported":1742458402,"current_range_meters":12000,"station_id":"","pricing_plan_id":"cebpf4jnsgd1na2vs0mg"},{"bike_id":"c2eca453-8552-4d4e-8efb-cb19fe865723","system_id":"levelo_inurba_marseille","lat":43.2963,"lon":5.37189,"is_reserved":false,"is_disabled":true,"rental_uris":{"android":"levelo://app?vid=c2eca453-8552-4d4e-8efb-cb19fe865723","ios":"levelo://app?vid=c2eca453-8552-4d4e-8efb-cb19fe865723"},"vehicle_type_id":"4","last_reported":1742458402,"current_range_meters":12000,"station_id":"ce4bgnh2rcd13ifvqc0g","pricing_plan_id":"cebpf4jnsgd1na2vs0mg"},{"bike_id":"7a170ee8-b4ab-4e10-af41-b7d66fb221b0","system_id":"levelo_inurba_marseille","lat":43.26678,"lon":5.38267,"is_reserved":false,"is_disabled":false,"rental_uris":{"android":"levelo://app?vid=7a170ee8-b4ab-4e10-af41-b7d66fb221b0","ios":"levelo://app?vid=7a170ee8-b4ab-4e10-af41-b7d66fb221b0"},"vehicle_type_id":"4","last_reported":1742458402,"current_range_meters":12000,"station_id":"ce4bhg92rcd13ifvqf90","pricing_plan_id":"cebpf4jnsgd1na2vs0mg"},{"bike_id":"24a11750-4473-4ae8-b3ca-16bbd4534f66","system_id":"levelo_inurba_marseille","lat":43.30895,"lon":5.37204,"is_reserved":false,"is_disabled":false,"rental_uris":{"android":"levelo://app?vid=24a11750-4473-4ae8-b3ca-16bbd4534f66","ios":"levelo://app?vid=24a11750-4473-4ae8-b3ca-16bbd4534f66"},"vehicle_type_id":"4","last_reported":1742458402,"current_range_meters":12000,"station_id":"ce4bguh2rcd13ifvqckg","pricing_plan_id":"cebpf4jnsgd1na2vs0mg"},{"bike_id":"7c6d8120-118c-419e-9a61-b050de9f67a1","system_id":"levelo_inurba_marseille","lat":43.27493,"lon":5.42468,"is_reserved":false,"is_disabled":false,"rental_uris":{"android":"levelo://app?vid=7c6d8120-118c-419e-9a61-b050de9f67a1","ios":"levelo://app?vid=7c6d8120-118c-419e-9a61-b050de9f67a1"},"vehicle_type_id":"4","last_reported":1742458402,"current_range_meters":12000,"station_id":"ce4bhn92rcd13ifvqgrg","pricing_plan_id":"cebpf4jnsgd1na2vs0mg"},{"bike_id":"04d2a356-7d5e-4949-b4ea-4404597c7bfe","system_id":"levelo_inurba_marseille","lat":43.27984,"lon":5.38707,"is_reserved":false,"is_disabled":false,"rental_uris":{"android":"levelo://app?vid=04d2a356-7d5e-4949-b4ea-4404597c7bfe","ios":"levelo://app?vid=04d2a356-7d5e-4949-b4ea-4404597c7bfe"},"vehicle_type_id":"4","last_reported":1742458402,"current_range_meters":12000,"station_id":"ce4bhg12rcd13ifvqf80","pricing_plan_id":"cebpf4jnsgd1na2vs0mg"},{"bike_id":"de84da4a-3571-420d-b198-b16185707696","system_id":"levelo_inurba_marseille","lat":43.2594,"lon":5.40905,"is_reserved":false,"is_disabled":false,"rental_uris":{"android":"levelo://app?vid=de84da4a-3571-420d-b198-b16185707696","ios":"levelo://app?vid=de84da4a-3571-420d-b198-b16185707696"},"vehicle_type_id":"4","last_reported":1742458402,"current_range_meters":12000,"station_id":"ce4bhm92rcd13ifvqglg","pricing_plan_id":"cebpf4jnsgd1na2vs0mg"},{"bike_id":"38e1fe39-5c27-4d67-b613-55615ef3df53","system_id":"levelo_inurba_marseille","lat":43.26958,"lon":5.38639,"is_reserved":false,"is_disabled":false,"rental_uris":{"android":"levelo://app?vid=38e1fe39-5c27-4d67-b613-55615ef3df53","ios":"levelo://app?vid=38e1fe39-5c27-4d67-b613-55615ef3df53"},"vehicle_type_id":"4","last_reported":1742458402,"current_range_meters":12000,"station_id":"ce4bhh92rcd13ifvqfh0","pricing_plan_id":"cebpf4jnsgd1na2vs0mg"},{"bike_id":"74840cc0-89b6-413b-83b8-0b71d906b04c","system_id":"levelo_inurba_marseille","lat":43.24086,"lon":5.37765,"is_reserved":false,"is_disabled":false,"rental_uris":{"android":"levelo://app?vid=74840cc0-89b6-413b-83b8-0b71d906b04c","ios":"levelo://app?vid=74840cc0-89b6-413b-83b8-0b71d906b04c"},"vehicle_type_id":"4","last_reported":1742458402,"current_range_meters":12000,"station_id":"ce4bhnp2rcd13ifvqgvg","pricing_plan_id":"cebpf4jnsgd1na2vs0mg"},{"bike_id":"b9e4bdd0-024c-4547-9a94-39d0c7923642","system_id":"levelo_inurba_marseille","lat":43.24173,"lon":5.36418,"is_reserved":false,"is_disabled":false,"rental_uris":{"android":"levelo://app?vid=b9e4bdd0-024c-4547-9a94-39d0c7923642","ios":"levelo://app?vid=b9e4bdd0-024c-4547-9a94-39d0c7923642"},"vehicle_type_id":"4","last_reported":1742458402,"current_range_meters":12000,"station_id":"cpo36qri1sfpv3e86is0","pricing_plan_id":"cebpf4jnsgd1na2vs0mg"},{"bike_id":"1bb14361-aeef-4fd0-8eae-f5e341610719","system_id":"levelo_inurba_marseille","lat":43.30259,"lon":5.4007,"is_reserved":false,"is_disabled":false,"rental_uris":{"android":"levelo://app?vid=1bb14361-aeef-4fd0-8eae-f5e341610719","ios":"levelo://app?vid=1bb14361-aeef-4fd0-8eae-f5e341610719"},"vehicle_type_id":"4","last_reported":1742458402,"current_range_meters":12000,"station_id":"ce4bgvh2rcd13ifvqcs0","pricing_plan_id":"cebpf4jnsgd1na2vs0mg"},{"bike_id":"eabae6b6-a70f-4c7c-b349-3ea70b6685b8","system_id":"levelo_inurba_marseille","lat":43.30169,"lon":5.36622,"is_reserved":false,"is_disabled":false,"rental_uris":{"android":"levelo://app?vid=eabae6b6-a70f-4c7c-b349-3ea70b6685b8","ios":"levelo://app?vid=eabae6b6-a70f-4c7c-b349-3ea70b6685b8"},"vehicle_type_id":"4","last_reported":1742458402,"current_range_meters":12000,"station_id":"ce4bgrh2rcd13ifvqc8g","pricing_plan_id":"cebpf4jnsgd1na2vs0mg"},{"bike_id":"c281afbc-f435-462e-91f6-2f68da71e4bb","system_id":"levelo_inurba_marseille","lat":43.30956,"lon":5.3904,"is_reserved":false,"is_disabled":false,"rental_uris":{"android":"levelo://app?vid=c281afbc-f435-462e-91f6-2f68da71e4bb","ios":"levelo://app?vid=c281afbc-f435-462e-91f6-2f68da71e4bb"},"vehicle_type_id":"4","last_reported":1742458402,"current_range_meters":12400,"station_id":"ce4bgup2rcd13ifvqco0","pricing_plan_id":"cebpf4jnsgd1na2vs0mg"},{"bike_id":"9e416160-7c0f-441b-b3e5-6061b7c9ea3e","system_id":"levelo_inurba_marseille","lat":43.30204,"lon":5.40081,"is_reserved":false,"is_disabled":false,"rental_uris":{"android":"levelo://app?vid=9e416160-7c0f-441b-b3e5-6061b7c9ea3e","ios":"levelo://app?vid=9e416160-7c0f-441b-b3e5-6061b7c9ea3e"},"vehicle_type_id":"4","last_reported":1742458402,"current_range_meters":12400,"station_id":"","pricing_plan_id":"cebpf4jnsgd1na2vs0mg"},{"bike_id":"cfcd43ac-55d6-41fe-bcae-b87609468037","system_id":"levelo_inurba_marseille","lat":43.276692,"lon":5.389249,"is_reserved":false,"is_disabled":true,"rental_uris":{"android":"levelo://app?vid=cfcd43ac-55d6-41fe-bcae-b87609468037","ios":"levelo://app?vid=cfcd43ac-55d6-41fe-bcae-b87609468037"},"vehicle_type_id":"4","last_reported":1742458402,"current_range_meters":12400,"station_id":"ce4bhi12rcd13ifvqfo0","pricing_plan_id":"cebpf4jnsgd1na2vs0mg"},{"bike_id":"91bbc4d7-c30f-4b98-bc8f-0b3299ccfa54","system_id":"levelo_inurba_marseille","lat":43.27374,"lon":5.36257,"is_reserved":false,"is_disabled":false,"rental_uris":{"android":"levelo://app?vid=91bbc4d7-c30f-4b98-bc8f-0b3299ccfa54","ios":"levelo://app?vid=91bbc4d7-c30f-4b98-bc8f-0b3299ccfa54"},"vehicle_type_id":"4","last_reported":1742458402,"current_range_meters":12400,"station_id":"ce4bhbh2rcd13ifvqeo0","pricing_plan_id":"cebpf4jnsgd1na2vs0mg"},{"bike_id":"9295b578-0937-4dab-b5c2-70750b7644d5","system_id":"levelo_inurba_marseille","lat":43.30141,"lon":5.37416,"is_reserved":false,"is_disabled":true,"rental_uris":{"android":"levelo://app?vid=9295b578-0937-4dab-b5c2-70750b7644d5","ios":"levelo://app?vid=9295b578-0937-4dab-b5c2-70750b7644d5"},"vehicle_type_id":"4","last_reported":1742458402,"current_range_meters":12400,"station_id":"ce4bgs92rcd13ifvqcc0","pricing_plan_id":"cebpf4jnsgd1na2vs0mg"},{"bike_id":"0ce58a39-4dc2-4e91-9a0e-edff334c7198","system_id":"levelo_inurba_marseille","lat":43.29615,"lon":5.37727,"is_reserved":false,"is_disabled":false,"rental_uris":{"android":"levelo://app?vid=0ce58a39-4dc2-4e91-9a0e-edff334c7198","ios":"levelo://app?vid=0ce58a39-4dc2-4e91-9a0e-edff334c7198"},"vehicle_type_id":"4","last_reported":1742458402,"current_range_meters":12000,"station_id":"ce4bgi92rcd13ifvqb90","pricing_plan_id":"cebpf4jnsgd1na2vs0mg"},{"bike_id":"779117cc-d553-49f1-a1ef-a888d3f89f02","system_id":"levelo_inurba_marseille","lat":43.30577,"lon":5.38439,"is_reserved":false,"is_disabled":false,"rental_uris":{"android":"levelo://app?vid=779117cc-d553-49f1-a1ef-a888d3f89f02","ios":"levelo://app?vid=779117cc-d553-49f1-a1ef-a888d3f89f02"},"vehicle_type_id":"4","last_reported":1742458402,"current_range_meters":12800,"station_id":"","pricing_plan_id":"cebpf4jnsgd1na2vs0mg"},{"bike_id":"77c325ba-2e1c-4b5f-812e-882a5e158ec8","system_id":"levelo_inurba_marseille","lat":43.27609,"lon":5.36134,"is_reserved":false,"is_disabled":false,"rental_uris":{"android":"levelo://app?vid=77c325ba-2e1c-4b5f-812e-882a5e158ec8","ios":"levelo://app?vid=77c325ba-2e1c-4b5f-812e-882a5e158ec8"},"vehicle_type_id":"4","last_reported":1742458402,"current_range_meters":12800,"station_id":"ce4bgj92rcd13ifvqbe0","pricing_plan_id":"cebpf4jnsgd1na2vs0mg"},{"bike_id":"00b7bdfa-f652-4d1c-bc08-53de59c6f315","system_id":"levelo_inurba_marseille","lat":43.29934,"lon":5.36552,"is_reserved":false,"is_disabled":false,"rental_uris":{"android":"levelo://app?vid=00b7bdfa-f652-4d1c-bc08-53de59c6f315","ios":"levelo://app?vid=00b7bdfa-f652-4d1c-bc08-53de59c6f315"},"vehicle_type_id":"4","last_reported":1742458402,"current_range_meters":12800,"station_id":"ce4bgm92rcd13ifvqbr0","pricing_plan_id":"cebpf4jnsgd1na2vs0mg"},{"bike_id":"68d99057-e8b7-4da9-8c37-bc9a1ee6e192","system_id":"levelo_inurba_marseille","lat":43.29047,"lon":5.39985,"is_reserved":false,"is_disabled":false,"rental_uris":{"android":"levelo://app?vid=68d99057-e8b7-4da9-8c37-bc9a1ee6e192","ios":"levelo://app?vid=68d99057-e8b7-4da9-8c37-bc9a1ee6e192"},"vehicle_type_id":"4","last_reported":1742458402,"current_range_meters":12800,"station_id":"ce4bh392rcd13ifvqdm0","pricing_plan_id":"cebpf4jnsgd1na2vs0mg"},{"bike_id":"12b11184-a4ce-452d-9850-fffa49f7995e","system_id":"levelo_inurba_marseille","lat":43.30905,"lon":5.36846,"is_reserved":false,"is_disabled":false,"rental_uris":{"android":"levelo://app?vid=12b11184-a4ce-452d-9850-fffa49f7995e","ios":"levelo://app?vid=12b11184-a4ce-452d-9850-fffa49f7995e"},"vehicle_type_id":"4","last_reported":1742458402,"current_range_meters":12800,"station_id":"ce4bgn92rcd13ifvqbvg","pricing_plan_id":"cebpf4jnsgd1na2vs0mg"},{"bike_id":"6a06d325-8a93-42bd-b514-c097b4e3fa15","system_id":"levelo_inurba_marseille","lat":43.28269,"lon":5.35064,"is_reserved":false,"is_disabled":false,"rental_uris":{"android":"levelo://app?vid=6a06d325-8a93-42bd-b514-c097b4e3fa15","ios":"levelo://app?vid=6a06d325-8a93-42bd-b514-c097b4e3fa15"},"vehicle_type_id":"4","last_reported":1742458402,"current_range_meters":12400,"station_id":"ce4bhbp2rcd13ifvqerg","pricing_plan_id":"cebpf4jnsgd1na2vs0mg"},{"bike_id":"3e94ca01-9783-429d-9f22-ad4d6f5d0723","system_id":"levelo_inurba_marseille","lat":43.26947,"lon":5.38638,"is_reserved":false,"is_disabled":false,"rental_uris":{"android":"levelo://app?vid=3e94ca01-9783-429d-9f22-ad4d6f5d0723","ios":"levelo://app?vid=3e94ca01-9783-429d-9f22-ad4d6f5d0723"},"vehicle_type_id":"4","last_reported":1742458402,"current_range_meters":12800,"station_id":"ce4bhh92rcd13ifvqfh0","pricing_plan_id":"cebpf4jnsgd1na2vs0mg"},{"bike_id":"4428c3e0-16dc-4a38-a0c9-6086283c839d","system_id":"levelo_inurba_marseille","lat":43.29026,"lon":5.3865,"is_reserved":false,"is_disabled":false,"rental_uris":{"android":"levelo://app?vid=4428c3e0-16dc-4a38-a0c9-6086283c839d","ios":"levelo://app?vid=4428c3e0-16dc-4a38-a0c9-6086283c839d"},"vehicle_type_id":"4","last_reported":1742458402,"current_range_meters":12800,"station_id":"ce4bh4p2rcd13ifvqe0g","pricing_plan_id":"cebpf4jnsgd1na2vs0mg"},{"bike_id":"64998481-b10a-4fa2-9aa3-20137eb99f9d","system_id":"levelo_inurba_marseille","lat":43.24076,"lon":5.37769,"is_reserved":false,"is_disabled":false,"rental_uris":{"android":"levelo://app?vid=64998481-b10a-4fa2-9aa3-20137eb99f9d","ios":"levelo://app?vid=64998481-b10a-4fa2-9aa3-20137eb99f9d"},"vehicle_type_id":"4","last_reported":1742458402,"current_range_meters":12800,"station_id":"ce4bhnp2rcd13ifvqgvg","pricing_plan_id":"cebpf4jnsgd1na2vs0mg"},{"bike_id":"2f608053-a475-4cd0-9217-fb6dc09de981","system_id":"levelo_inurba_marseille","lat":43.24656,"lon":5.38896,"is_reserved":false,"is_disabled":false,"rental_uris":{"android":"levelo://app?vid=2f608053-a475-4cd0-9217-fb6dc09de981","ios":"levelo://app?vid=2f608053-a475-4cd0-9217-fb6dc09de981"},"vehicle_type_id":"4","last_reported":1742458402,"current_range_meters":12800,"station_id":"ce4bhg12rcd13ifvqf60","pricing_plan_id":"cebpf4jnsgd1na2vs0mg"},{"bike_id":"72e1c3f1-52da-455e-8f51-f74023798e3a","system_id":"levelo_inurba_marseille","lat":43.2984,"lon":5.36267,"is_reserved":false,"is_disabled":false,"rental_uris":{"android":"levelo://app?vid=72e1c3f1-52da-455e-8f51-f74023798e3a","ios":"levelo://app?vid=72e1c3f1-52da-455e-8f51-f74023798e3a"},"vehicle_type_id":"4","last_reported":1742458402,"current_range_meters":12800,"station_id":"ce4bgpp2rcd13ifvqc3g","pricing_plan_id":"cebpf4jnsgd1na2vs0mg"},{"bike_id":"e913b0cd-b2a6-4678-bba9-91b2476e2c22","system_id":"levelo_inurba_marseille","lat":43.24179,"lon":5.39724,"is_reserved":false,"is_disabled":false,"rental_uris":{"android":"levelo://app?vid=e913b0cd-b2a6-4678-bba9-91b2476e2c22","ios":"levelo://app?vid=e913b0cd-b2a6-4678-bba9-91b2476e2c22"},"vehicle_type_id":"4","last_reported":1742458402,"current_range_meters":13600,"station_id":"ce4bhn12rcd13ifvqgpg","pricing_plan_id":"cebpf4jnsgd1na2vs0mg"},{"bike_id":"0f232bde-e18f-4822-9e4e-2c9d4a592d5f","system_id":"levelo_inurba_marseille","lat":43.30566,"lon":5.38418,"is_reserved":false,"is_disabled":false,"rental_uris":{"android":"levelo://app?vid=0f232bde-e18f-4822-9e4e-2c9d4a592d5f","ios":"levelo://app?vid=0f232bde-e18f-4822-9e4e-2c9d4a592d5f"},"vehicle_type_id":"4","last_reported":1742458402,"current_range_meters":12800,"station_id":"ce4bgg92rcd13ifvqb30","pricing_plan_id":"cebpf4jnsgd1na2vs0mg"},{"bike_id":"7ddac5fe-66e8-4a2f-b8b3-f3db394984cb","system_id":"levelo_inurba_marseille","lat":43.30951,"lon":5.39026,"is_reserved":false,"is_disabled":false,"rental_uris":{"android":"levelo://app?vid=7ddac5fe-66e8-4a2f-b8b3-f3db394984cb","ios":"levelo://app?vid=7ddac5fe-66e8-4a2f-b8b3-f3db394984cb"},"vehicle_type_id":"4","last_reported":1742458402,"current_range_meters":13600,"station_id":"ce4bgup2rcd13ifvqco0","pricing_plan_id":"cebpf4jnsgd1na2vs0mg"},{"bike_id":"cc0bfdbb-2155-4845-94ef-938a21d7b70e","system_id":"levelo_inurba_marseille","lat":43.28626,"lon":5.35097,"is_reserved":false,"is_disabled":false,"rental_uris":{"android":"levelo://app?vid=cc0bfdbb-2155-4845-94ef-938a21d7b70e","ios":"levelo://app?vid=cc0bfdbb-2155-4845-94ef-938a21d7b70e"},"vehicle_type_id":"4","last_reported":1742458402,"current_range_meters":13600,"station_id":"ce4bhch2rcd13ifvqeug","pricing_plan_id":"cebpf4jnsgd1na2vs0mg"},{"bike_id":"d666a6ad-a0a4-4127-8c39-8ef5817c6721","system_id":"levelo_inurba_marseille","lat":43.24677,"lon":5.38169,"is_reserved":false,"is_disabled":false,"rental_uris":{"android":"levelo://app?vid=d666a6ad-a0a4-4127-8c39-8ef5817c6721","ios":"levelo://app?vid=d666a6ad-a0a4-4127-8c39-8ef5817c6721"},"vehicle_type_id":"4","last_reported":1742458402,"current_range_meters":13600,"station_id":"ce4bhih2rcd13ifvqfr0","pricing_plan_id":"cebpf4jnsgd1na2vs0mg"},{"bike_id":"8c14267f-49a9-455d-815d-f11884f1effa","system_id":"levelo_inurba_marseille","lat":43.301357,"lon":5.398691,"is_reserved":false,"is_disabled":false,"rental_uris":{"android":"levelo://app?vid=8c14267f-49a9-455d-815d-f11884f1effa","ios":"levelo://app?vid=8c14267f-49a9-455d-815d-f11884f1effa"},"vehicle_type_id":"4","last_reported":1742458402,"current_range_meters":14000,"station_id":"ce4bh0h2rcd13ifvqd40","pricing_plan_id":"cebpf4jnsgd1na2vs0mg"},{"bike_id":"d2dbd4b4-faba-4076-b36c-88b19d11ec08","system_id":"levelo_inurba_marseille","lat":43.26688,"lon":5.38274,"is_reserved":false,"is_disabled":false,"rental_uris":{"android":"levelo://app?vid=d2dbd4b4-faba-4076-b36c-88b19d11ec08","ios":"levelo://app?vid=d2dbd4b4-faba-4076-b36c-88b19d11ec08"},"vehicle_type_id":"4","last_reported":1742458402,"current_range_meters":13600,"station_id":"ce4bhg92rcd13ifvqf90","pricing_plan_id":"cebpf4jnsgd1na2vs0mg"},{"bike_id":"74eba055-d07c-4ec5-982d-51190b75a7f4","system_id":"levelo_inurba_marseille","lat":43.29224,"lon":5.3607,"is_reserved":false,"is_disabled":false,"rental_uris":{"android":"levelo://app?vid=74eba055-d07c-4ec5-982d-51190b75a7f4","ios":"levelo://app?vid=74eba055-d07c-4ec5-982d-51190b75a7f4"},"vehicle_type_id":"4","last_reported":1742458402,"current_range_meters":14000,"station_id":"ce4bhbh2rcd13ifvqeqg","pricing_plan_id":"cebpf4jnsgd1na2vs0mg"},