{"last_updated":1712398061,"ttl":30,"version":"2.2","data":{"bikes":[{"bike_id":"734660f9-282d-4bfc-bbe1-f710de20f2cb","system_id":"levelo_inurba_marseille","lat":43.313391,"lon":5.36706,"is_reserved":false,"is_disabled":false,"rental_uris":{"android":"levelo://app?vid=734660f9-282d-4bfc-bbe1-f710de20f2cb","ios":"levelo://app?vid=734660f9-282d-4bfc-bbe1-f710de20f2cb"},"vehicle_type_id":"4","last_reported":1712398061,"current_range_meters":27200,"station_id":"ce4bgr92rcd13ifvqc6g","pricing_plan_id":"cebpf4jnsgd1na2vs0mg"},{"bike_id":"6d962c04-5386-4e5b-b230-391151e07141","system_id":"levelo_inurba_marseille","lat":43.313391,"lon":5.36706,"is_reserved":false,"is_disabled":false,"rental_uris":{"android":"levelo://app?vid=6d962c04-5386-4e5b-b230-391151e07141","ios":"levelo://app?vid=6d962c04-5386-4e5b-b230-391151e07141"},"vehicle_type_id":"4","last_reported":1712398061,"current_range_meters":30800,"station_id":"ce4bgr92rcd13ifvqc6g","pricing_plan_id":"cebpf4jnsgd1na2vs0mg"},{"bike_id":"01a01d79-ca14-4be9-9ee0-5471c350fcad","system_id":"levelo_inurba_marseille","lat":43.31341,"lon":5.367098,"is_reserved":false,"is_disabled":false,"rental_uris":{"android":"levelo://app?vid=01a01d79-ca14-4be9-9ee0-5471c350fcad","ios":"levelo://app?vid=01a01d79-ca14-4be9-9ee0-5471c350fcad"},"vehicle_type_id":"4","last_reported":1712398061,"current_range_meters":26800,"station_id":"ce4bgr92rcd13ifvqc6g","pricing_plan_id":"cebpf4jnsgd1na2vs0mg"},{"bike_id":"328d8511-d969-46f0-9d65-d93427bff08d","system_id":"levelo_inurba_marseille","lat":43.312239,"lon":5.368562,"is_reserved":false,"is_disabled":false,"rental_uris":{"android":"levelo://app?vid=328d8511-d969-46f0-9d65-d93427bff08d","ios":"levelo://app?vid=328d8511-d969-46f0-9d65-d93427bff08d"},"vehicle_type_id":"4","last_reported":1712398061,"current_range_meters":31200,"station_id":"ce4bgl92rcd13ifvqbq0","pricing_plan_id":"cebpf4jnsgd1na2vs0mg"},{"bike_id":"39c7b6af-d8fa-48eb-8664-af86f358e3c1","system_id":"levelo_inurba_marseille","lat":43.312239,"lon":5.368562,"is_reserved":false,"is_disabled":false,"rental_uris":{"android":"levelo://app?vid=39c7b6af-d8fa-48eb-8664-af86f358e3c1","ios":"levelo://app?vid=39c7b6af-d8fa-48eb-8664-af86f358e3c1"},"vehicle_type_id":"4","last_reported":1712398061,"current_range_meters":24800,"station_id":"ce4bgl92rcd13ifvqbq0","pricing_plan_id":"cebpf4jnsgd1na2vs0mg"},{"bike_id":"f9f87cc1-5d0f-4f7f-865e-2b2cfe156d7e","system_id":"levelo_inurba_marseille","lat":43.31227,"lon":5.368557,"is_reserved":false,"is_disabled":false,"rental_uris":{"android":"levelo://app?vid=f9f87cc1-5d0f-4f7f-865e-2b2cfe156d7e","ios":"levelo://app?vid=f9f87cc1-5d0f-4f7f-865e-2b2cfe156d7e"},"vehicle_type_id":"4","last_reported":1712398061,"current_range_meters":21200,"station_id":"ce4bgl92rcd13ifvqbq0","pricing_plan_id":"cebpf4jnsgd1na2vs0mg"},{"bike_id":"3a66393f-6f74-432e-87d8-0a41123cd9d1","system_id":"levelo_inurba_marseille","lat":43.312239,"lon":5.368562,"is_reserved":false,"is_disabled":false,"rental_uris":{"android":"levelo://app?vid=3a66393f-6f74-432e-87d8-0a41123cd9d1","ios":"levelo://app?vid=3a66393f-6f74-432e-87d8-0a41123cd9d1"},"vehicle_type_id":"4","last_reported":1712398061,"current_range_meters":30000,"station_id":"ce4bgl92rcd13ifvqbq0","pricing_plan_id":"cebpf4jnsgd1na2vs0mg"},{"bike_id":"6f072f3e-a24b-4a2a-8e27-db609991cb0d","system_id":"levelo_inurba_marseille","lat":43.309076,"lon":5.368465,"is_reserved":false,"is_disabled":false,"rental_uris":{"android":"levelo://app?vid=6f072f3e-a24b-4a2a-8e27-db609991cb0d","ios":"levelo://app?vid=6f072f3e-a24b-4a2a-8e27-db609991cb0d"},"vehicle_type_id":"4","last_reported":1712398061,"current_range_meters":20000,"station_id":"ce4bgn92rcd13ifvqbvg","pricing_plan_id":"cebpf4jnsgd1na2vs0mg"},{"bike_id":"0ba17641-348e-4ec3-bca8-afda4a042f6e","system_id":"levelo_inurba_marseille","lat":43.309076,"lon":5.368465,"is_reserved":false,"is_disabled":false,"rental_uris":{"android":"levelo://app?vid=0ba17641-348e-4ec3-bca8-afda4a042f6e","ios":"levelo://app?vid=0ba17641-348e-4ec3-bca8-afda4a042f6e"},"vehicle_type_id":"4","last_reported":1712398061,"current_range_meters":30000,"station_id":"ce4bgn92rcd13ifvqbvg","pricing_plan_id":"cebpf4jnsgd1na2vs0mg"},{"bike_id":"fda82223-e94c-45ee-b4c8-fdebe1f14c32","system_id":"levelo_inurba_marseille","lat":43.314811,"lon":5.373103,"is_reserved":false,"is_disabled":false,"rental_uris":{"android":"levelo://app?vid=fda82223-e94c-45ee-b4c8-fdebe1f14c32","ios":"levelo://app?vid=fda82223-e94c-45ee-b4c8-fdebe1f14c32"},"vehicle_type_id":"4","last_reported":1712398061,"current_range_meters":8400,"station_id":"ce4bgt12rcd13ifvqcd0","pricing_plan_id":"cebpf4jnsgd1na2vs0mg"},{"bike_id":"1d84d67b-d294-4027-af62-1740e469ff57","system_id":"levelo_inurba_marseille","lat":43.314811,"lon":5.373103,"is_reserved":false,"is_disabled":false,"rental_uris":{"android":"levelo://app?vid=1d84d67b-d294-4027-af62-1740e469ff57","ios":"levelo://app?vid=1d84d67b-d294-4027-af62-1740e469ff57"},"vehicle_type_id":"4","last_reported":1712398061,"current_range_meters":13200,"station_id":"ce4bgt12rcd13ifvqcd0","pricing_plan_id":"cebpf4jnsgd1na2vs0mg"},{"bike_id":"b11ab180-b4f9-4d12-9882-545cbc8dc6ab","system_id":"levelo_inurba_marseille","lat":43.314811,"lon":5.373104,"is_reserved":false,"is_disabled":false,"rental_uris":{"android":"levelo://app?vid=b11ab180-b4f9-4d12-9882-545cbc8dc6ab","ios":"levelo://app?vid=b11ab180-b4f9-4d12-9882-545cbc8dc6ab"},"vehicle_type_id":"4","last_reported":1712398061,"current_range_meters":22000,"station_id":"ce4bgt12rcd13ifvqcd0","pricing_plan_id":"cebpf4jnsgd1na2vs0mg"},{"bike_id":"9a0d0741-8842-4937-bd23-8544e78614fe","system_id":"levelo_inurba_marseille","lat":43.315,"lon":5.37305,"is_reserved":false,"is_disabled":false,"rental_uris":{"android":"levelo://app?vid=9a0d0741-8842-4937-bd23-8544e78614fe","ios":"levelo://app?vid=9a0d0741-8842-4937-bd23-8544e78614fe"},"vehicle_type_id":"4","last_reported":1712398061,"current_range_meters":27200,"station_id":"ce4bgt12rcd13ifvqcd0","pricing_plan_id":"cebpf4jnsgd1na2vs0mg"},{"bike_id":"2b95216f-f347-4f53-809e-4a77b7e2699e","system_id":"levelo_inurba_marseille","lat":43.309039,"lon":5.371797,"is_reserved":false,"is_disabled":false,"rental_uris":{"android":"levelo://app?vid=2b95216f-f347-4f53-809e-4a77b7e2699e","ios":"levelo://app?vid=2b95216f-f347-4f53-809e-4a77b7e2699e"},"vehicle_type_id":"4","last_reported":1712398061,"current_range_meters":13600,"station_id":"ce4bguh2rcd13ifvqckg","pricing_plan_id":"cebpf4jnsgd1na2vs0mg"},{"bike_id":"0cd11ba4-3cb8-4ea5-85a3-a7f79cda3e53","system_id":"levelo_inurba_marseille","lat":43.309034,"lon":5.371783,"is_reserved":false,"is_disabled":false,"rental_uris":{"android":"levelo://app?vid=0cd11ba4-3cb8-4ea5-85a3-a7f79cda3e53","ios":"levelo://app?vid=0cd11ba4-3cb8-4ea5-85a3-a7f79cda3e53"},"vehicle_type_id":"4","last_reported":1712398061,"current_range_meters":0,"station_id":"ce4bguh2rcd13ifvqckg","pricing_plan_id":"cebpf4jnsgd1na2vs0mg"},{"bike_id":"a082603e-72a3-4d5a-aa2e-e9c419c50947","system_id":"levelo_inurba_marseille","lat":43.309034,"lon":5.371783,"is_reserved":false,"is_disabled":false,"rental_uris":{"android":"levelo://app?vid=a082603e-72a3-4d5a-aa2e-e9c419c50947","ios":"levelo://app?vid=a082603e-72a3-4d5a-aa2e-e9c419c50947"},"vehicle_type_id":"4","last_reported":1712398061,"current_range_meters":23200,"station_id":"ce4bguh2rcd13ifvqckg","pricing_plan_id":"cebpf4jnsgd1na2vs0mg"},{"bike_id":"32501772-08b3-4849-b47e-f9fd779c8c41","system_id":"levelo_inurba_marseille","lat":43.30537,"lon":5.367345,"is_reserved":false,"is_disabled":false,"rental_uris":{"android":"levelo://app?vid=32501772-08b3-4849-b47e-f9fd779c8c41","ios":"levelo://app?vid=32501772-08b3-4849-b47e-f9fd779c8c41"},"vehicle_type_id":"4","last_reported":1712398061,"current_range_meters":7600,"station_id":"ce4bgrp2rcd13ifvqc9g","pricing_plan_id":"cebpf4jnsgd1na2vs0mg"},{"bike_id":"57500137-e030-4cdb-b4f8-d330e894a8c1","system_id":"levelo_inurba_marseille","lat":43.314811,"lon":5.373103,"is_reserved":false,"is_disabled":false,"rental_uris":{"android":"levelo://app?vid=57500137-e030-4cdb-b4f8-d330e894a8c1","ios":"levelo://app?vid=57500137-e030-4cdb-b4f8-d330e894a8c1"},"vehicle_type_id":"4","last_reported":1712398061,"current_range_meters":8000,"station_id":"ce4bgt12rcd13ifvqcd0","pricing_plan_id":"cebpf4jnsgd1na2vs0mg"},{"bike_id":"50e5e6f2-8dc0-4e92-af28-f699cce0a416","system_id":"levelo_inurba_marseille","lat":43.30547,"lon":5.36699,"is_reserved":false,"is_disabled":false,"rental_uris":{"android":"levelo://app?vid=50e5e6f2-8dc0-4e92-af28-f699cce0a416","ios":"levelo://app?vid=50e5e6f2-8dc0-4e92-af28-f699cce0a416"},"vehicle_type_id":"4","last_reported":1712398061,"current_range_meters":13600,"station_id":"ce4bho12rcd13ifvqh1g","pricing_plan_id":"cebpf4jnsgd1na2vs0mg"},{"bike_id":"724cdab1-3ee3-4368-91c2-991301fadaa7","system_id":"levelo_inurba_marseille","lat":43.3055,"lon":5.36522,"is_reserved":false,"is_disabled":false,"rental_uris":{"android":"levelo://app?vid=724cdab1-3ee3-4368-91c2-991301fadaa7","ios":"levelo://app?vid=724cdab1-3ee3-4368-91c2-991301fadaa7"},"vehicle_type_id":"4","last_reported":1712398061,"current_range_meters":17200,"station_id":"ce4bgs12rcd13ifvqcag","pricing_plan_id":"cebpf4jnsgd1na2vs0mg"},{"bike_id":"8790fc84-e63d-4f32-bd3b-f276645c4baa","system_id":"levelo_inurba_marseille","lat":43.305714,"lon":5.365633,"is_reserved":false,"is_disabled":false,"rental_uris":{"android":"levelo://app?vid=8790fc84-e63d-4f32-bd3b-f276645c4baa","ios":"levelo://app?vid=8790fc84-e63d-4f32-bd3b-f276645c4baa"},"vehicle_type_id":"4","last_reported":1712398061,"current_range_meters":18800,"station_id":"ce4bgs12rcd13ifvqcag","pricing_plan_id":"cebpf4jnsgd1na2vs0mg"},{"bike_id":"e9467aad-b7a5-4f67-a9d4-82a1ac17533c","system_id":"levelo_inurba_marseille","lat":43.305706,"lon":5.365654,"is_reserved":false,"is_disabled":false,"rental_uris":{"android":"levelo://app?vid=e9467aad-b7a5-4f67-a9d4-82a1ac17533c","ios":"levelo://app?vid=e9467aad-b7a5-4f67-a9d4-82a1ac17533c"},"vehicle_type_id":"4","last_reported":1712398061,"current_range_meters":30400,"station_id":"ce4bgs12rcd13ifvqcag","pricing_plan_id":"cebpf4jnsgd1na2vs0mg"},{"bike_id":"ddfd2570-adb7-473b-ab64-65a40e25f4ee","system_id":"levelo_inurba_marseille","lat":43.305706,"lon":5.365654,"is_reserved":false,"is_disabled":false,"rental_uris":{"android":"levelo://app?vid=ddfd2570-adb7-473b-ab64-65a40e25f4ee","ios":"levelo://app?vid=ddfd2570-adb7-473b-ab64-65a40e25f4ee"},"vehicle_type_id":"4","last_reported":1712398061,"current_range_meters":25200,"station_id":"ce4bgs12rcd13ifvqcag","pricing_plan_id":"cebpf4jnsgd1na2vs0mg"},{"bike_id":"93089449-a899-4c72-b97a-d5e88fe3ea36","system_id":"levelo_inurba_marseille","lat":43.305706,"lon":5.365654,"is_reserved":false,"is_disabled":false,"rental_uris":{"android":"levelo://app?vid=93089449-a899-4c72-b97a-d5e88fe3ea36","ios":"levelo://app?vid=93089449-a899-4c72-b97a-d5e88fe3ea36"},"vehicle_type_id":"4","last_reported":1712398061,"current_range_meters":31200,"station_id":"ce4bgs12rcd13ifvqcag","pricing_plan_id":"cebpf4jnsgd1na2vs0mg"},{"bike_id":"ca662d4a-452b-4a5f-b995-926ed701c0f7","system_id":"levelo_inurba_marseille","lat":43.305706,"lon":5.365654,"is_reserved":false,"is_disabled":false,"rental_uris":{"android":"levelo://app?vid=ca662d4a-452b-4a5f-b995-926ed701c0f7","ios":"levelo://app?vid=ca662d4a-452b-4a5f-b995-926ed701c0f7"},"vehicle_type_id":"4","last_reported":1712398061,"current_range_meters":29200,"station_id":"ce4bgs12rcd13ifvqcag","pricing_plan_id":"cebpf4jnsgd1na2vs0mg"},{"bike_id":"467be5f5-274a-417c-802d-df74a1ccc736","system_id":"levelo_inurba_marseille","lat":43.305706,"lon":5.365654,"is_reserved":false,"is_disabled":false,"rental_uris":{"android":"levelo://app?vid=467be5f5-274a-417c-802d-df74a1ccc736","ios":"levelo://app?vid=467be5f5-274a-417c-802d-df74a1ccc736"},"vehicle_type_id":"4","last_reported":1712398061,"current_range_meters":31600,"station_id":"ce4bgs12rcd13ifvqcag","pricing_plan_id":"cebpf4jnsgd1na2vs0mg"},{"bike_id":"78767a96-3a75-4b36-b7a0-5680fa8a01b1","system_id":"levelo_inurba_marseille","lat":43.305706,"lon":5.365654,"is_reserved":false,"is_disabled":false,"rental_uris":{"android":"levelo://app?vid=78767a96-3a75-4b36-b7a0-5680fa8a01b1","ios":"levelo://app?vid=78767a96-3a75-4b36-b7a0-5680fa8a01b1"},"vehicle_type_id":"4","last_reported":1712398061,"current_range_meters":27600,"station_id":"ce4bgs12rcd13ifvqcag","pricing_plan_id":"cebpf4jnsgd1na2vs0mg"},{"bike_id":"29ce407c-eeca-4e37-8df3-9672be9a030a","system_id":"levelo_inurba_marseille","lat":43.305706,"lon":5.365654,"is_reserved":false,"is_disabled":false,"rental_uris":{"android":"levelo://app?vid=29ce407c-eeca-4e37-8df3-9672be9a030a","ios":"levelo://app?vid=29ce407c-eeca-4e37-8df3-9672be9a030a"},"vehicle_type_id":"4","last_reported":1712398061,"current_range_meters":24400,"station_id":"ce4bgs12rcd13ifvqcag","pricing_plan_id":"cebpf4jnsgd1na2vs0mg"},{"bike_id":"d85f4a93-7c78-4b24-98fb-1c3a410f7e15","system_id":"levelo_inurba_marseille","lat":43.305706,"lon":5.365654,"is_reserved":false,"is_disabled":false,"rental_uris":{"android":"levelo://app?vid=d85f4a93-7c78-4b24-98fb-1c3a410f7e15","ios":"levelo://app?vid=d85f4a93-7c78-4b24-98fb-1c3a410f7e15"},"vehicle_type_id":"4","last_reported":1712398061,"current_range_meters":22400,"station_id":"ce4bgs12rcd13ifvqcag","pricing_plan_id":"cebpf4jnsgd1na2vs0mg"},{"bike_id":"e378aa3f-27af-43ef-831a-1246dd3a1b35","system_id":"levelo_inurba_marseille","lat":43.305989,"lon":5.37225,"is_reserved":false,"is_disabled":false,"rental_uris":{"android":"levelo://app?vid=e378aa3f-27af-43ef-831a-1246dd3a1b35","ios":"levelo://app?vid=e378aa3f-27af-43ef-831a-1246dd3a1b35"},"vehicle_type_id":"4","last_reported":1712398061,"current_range_meters":28800,"station_id":"ce4bgqh2rcd13ifvqc4g","pricing_plan_id":"cebpf4jnsgd1na2vs0mg"},{"bike_id":"b1f2a297-7cc6-4b90-ab07-162f79c5570a","system_id":"levelo_inurba_marseille","lat":43.311167,"lon":5.37763,"is_reserved":false,"is_disabled":false,"rental_uris":{"android":"levelo://app?vid=b1f2a297-7cc6-4b90-ab07-162f79c5570a","ios":"levelo://app?vid=b1f2a297-7cc6-4b90-ab07-162f79c5570a"},"vehicle_type_id":"4","last_reported":1712398061,"current_range_meters":18000,"station_id":"ce4bgt92rcd13ifvqcg0","pricing_plan_id":"cebpf4jnsgd1na2vs0mg"},{"bike_id":"13734c07-9616-4137-9ea1-46353ff9f943","system_id":"levelo_inurba_marseille","lat":43.254947,"lon":5.376454,"is_reserved":false,"is_disabled":false,"rental_uris":{"android":"levelo://app?vid=13734c07-9616-4137-9ea1-46353ff9f943","ios":"levelo://app?vid=13734c07-9616-4137-9ea1-46353ff9f943"},"vehicle_type_id":"4","last_reported":1712398061,"current_range_meters":8000,"station_id":"ce4bhh12rcd13ifvqff0","pricing_plan_id":"cebpf4jnsgd1na2vs0mg"},{"bike_id":"10b6e677-6f10-4220-9cdc-488f8a849cab","system_id":"levelo_inurba_marseille","lat":43.311536,"lon":5.378394,"is_reserved":false,"is_disabled":false,"rental_uris":{"android":"levelo://app?vid=10b6e677-6f10-4220-9cdc-488f8a849cab","ios":"levelo://app?vid=10b6e677-6f10-4220-9cdc-488f8a849cab"},"vehicle_type_id":"4","last_reported":1712398061,"current_range_meters":0,"station_id":"","pricing_plan_id":"cebpf4jnsgd1na2vs0mg"},{"bike_id":"8cc876eb-886d-4dc0-ab74-f5221f91e673","system_id":"levelo_inurba_marseille","lat":43.307945,"lon":5.376487,"is_reserved":false,"is_disabled":false,"rental_uris":{"android":"levelo://app?vid=8cc876eb-886d-4dc0-ab74-f5221f91e673","ios":"levelo://app?vid=8cc876eb-886d-4dc0-ab74-f5221f91e673"},"vehicle_type_id":"4","last_reported":1712398061,"current_range_meters":17200,"station_id":"ce4bgv92rcd13ifvqcq0","pricing_plan_id":"cebpf4jnsgd1na2vs0mg"},{"bike_id":"e3e6426d-65fc-464b-8db6-695b044d1dde","system_id":"levelo_inurba_marseille","lat":43.307945,"lon":5.376487,"is_reserved":false,"is_disabled":false,"rental_uris":{"android":"levelo://app?vid=e3e6426d-65fc-464b-8db6-695b044d1dde","ios":"levelo://app?vid=e3e6426d-65fc-464b-8db6-695b044d1dde"},"vehicle_type_id":"4","last_reported":1712398061,"current_range_meters":26800,"station_id":"ce4bgv92rcd13ifvqcq0","pricing_plan_id":"cebpf4jnsgd1na2vs0mg"},{"bike_id":"b3427dea-0832-483c-8b61-ecfc9f4aea61","system_id":"levelo_inurba_marseille","lat":43.307945,"lon":5.376487,"is_reserved":false,"is_disabled":false,"rental_uris":{"android":"levelo://app?vid=b3427dea-0832-483c-8b61-ecfc9f4aea61","ios":"levelo://app?vid=b3427dea-0832-483c-8b61-ecfc9f4aea61"},"vehicle_type_id":"4","last_reported":1712398061,"current_range_meters":22800,"station_id":"ce4bgv92rcd13ifvqcq0","pricing_plan_id":"cebpf4jnsgd1na2vs0mg"},{"bike_id":"cd24b165-8c61-45c5-8ac8-673156b83160","system_id":"levelo_inurba_marseille","lat":43.30785,"lon":5.37655,"is_reserved":false,"is_disabled":false,"rental_uris":{"android":"levelo://app?vid=cd24b165-8c61-45c5-8ac8-673156b83160","ios":"levelo://app?vid=cd24b165-8c61-45c5-8ac8-673156b83160"},"vehicle_type_id":"4","last_reported":1712398061,"current_range_meters":2800,"station_id":"ce4bgv92rcd13ifvqcq0","pricing_plan_id":"cebpf4jnsgd1na2vs0mg"},{"bike_id":"81a6d91c-6159-4662-9550-c14e15877758","system_id":"levelo_inurba_marseille","lat":43.30779,"lon":5.3765,"is_reserved":false,"is_disabled":false,"rental_uris":{"android":"levelo://app?vid=81a6d91c-6159-4662-9550-c14e15877758","ios":"levelo://app?vid=81a6d91c-6159-4662-9550-c14e15877758"},"vehicle_type_id":"4","last_reported":1712398061,"current_range_meters":28800,"station_id":"ce4bgv92rcd13ifvqcq0","pricing_plan_id":"cebpf4jnsgd1na2vs0mg"},{"bike_id":"2676bf12-8414-43ed-9d8d-8f96fe2fab9d","system_id":"levelo_inurba_marseille","lat":43.307804,"lon":5.376568,"is_reserved":false,"is_disabled":false,"rental_uris":{"android":"levelo://app?vid=2676bf12-8414-43ed-9d8d-8f96fe2fab9d","ios":"levelo://app?vid=2676bf12-8414-43ed-9d8d-8f96fe2fab9d"},"vehicle_type_id":"4","last_reported":1712398061,"current_range_meters":28800,"station_id":"ce4bgv92rcd13ifvqcq0","pricing_plan_id":"cebpf4jnsgd1na2vs0mg"},{"bike_id":"ce6b7edb-5ad7-468c-a3b2-1437ae61401f","system_id":"levelo_inurba_marseille","lat":43.307781,"lon":5.376559,"is_reserved":false,"is_disabled":false,"rental_uris":{"android":"levelo://app?vid=ce6b7edb-5ad7-468c-a3b2-1437ae61401f","ios":"levelo://app?vid=ce6b7edb-5ad7-468c-a3b2-1437ae61401f"},"vehicle_type_id":"4","last_reported":1712398061,"current_range_meters":9200,"station_id":"ce4bgv92rcd13ifvqcq0","pricing_plan_id":"cebpf4jnsgd1na2vs0mg"},{"bike_id":"bbfed310-f5ca-41c8-bf3a-f83cd6959697","system_id":"levelo_inurba_marseille","lat":43.313254,"lon":5.37881,"is_reserved":false,"is_disabled":false,"rental_uris":{"android":"levelo://app?vid=bbfed310-f5ca-41c8-bf3a-f83cd6959697","ios":"levelo://app?vid=bbfed310-f5ca-41c8-bf3a-f83cd6959697"},"vehicle_type_id":"4","last_reported":1712398061,"current_range_meters":1600,"station_id":"","pricing_plan_id":"cebpf4jnsgd1na2vs0mg"},{"bike_id":"26673d84-ae89-41a0-8ce2-fd3b28ab8fff","system_id":"levelo_inurba_marseille","lat":43.317073,"lon":5.37752,"is_reserved":false,"is_disabled":false,"rental_uris":{"android":"levelo://app?vid=26673d84-ae89-41a0-8ce2-fd3b28ab8fff","ios":"levelo://app?vid=26673d84-ae89-41a0-8ce2-fd3b28ab8fff"},"vehicle_type_id":"4","last_reported":1712398061,"current_range_meters":2400,"station_id":"ce4bgth2rcd13ifvqch0","pricing_plan_id":"cebpf4jnsgd1na2vs0mg"},{"bike_id":"0ab12ea2-7c64-40a5-9efb-3b009788dab9","system_id":"levelo_inurba_marseille","lat":43.317075,"lon":5.377367,"is_reserved":false,"is_disabled":false,"rental_uris":{"android":"levelo://app?vid=0ab12ea2-7c64-40a5-9efb-3b009788dab9","ios":"levelo://app?vid=0ab12ea2-7c64-40a5-9efb-3b009788dab9"},"vehicle_type_id":"4","last_reported":1712398061,"current_range_meters":27200,"station_id":"ce4bgth2rcd13ifvqch0","pricing_plan_id":"cebpf4jnsgd1na2vs0mg"},{"bike_id":"968e1605-a308-4178-97bc-21c815fb7c23","system_id":"levelo_inurba_marseille","lat":43.317075,"lon":5.377367,"is_reserved":false,"is_disabled":false,"rental_uris":{"android":"levelo://app?vid=968e1605-a308-4178-97bc-21c815fb7c23","ios":"levelo://app?vid=968e1605-a308-4178-97bc-21c815fb7c23"},"vehicle_type_id":"4","last_reported":1712398061,"current_range_meters":29200,"station_id":"ce4bgth2rcd13ifvqch0","pricing_plan_id":"cebpf4jnsgd1na2vs0mg"},{"bike_id":"62682c29-d3eb-4266-8b53-3b5eafeebf1f","system_id":"levelo_inurba_marseille","lat":43.30339,"lon":5.36522,"is_reserved":false,"is_disabled":false,"rental_uris":{"android":"levelo://app?vid=62682c29-d3eb-4266-8b53-3b5eafeebf1f","ios":"levelo://app?vid=62682c29-d3eb-4266-8b53-3b5eafeebf1f"},"vehicle_type_id":"4","last_reported":1712398061,"current_range_meters":7600,"station_id":"","pricing_plan_id":"cebpf4jnsgd1na2vs0mg"},{"bike_id":"2e925e11-1849-4997-b06b-b14a2a537c40","system_id":"levelo_inurba_marseille","lat":43.303046,"lon":5.368981,"is_reserved":false,"is_disabled":false,"rental_uris":{"android":"levelo://app?vid=2e925e11-1849-4997-b06b-b14a2a537c40","ios":"levelo://app?vid=2e925e11-1849-4997-b06b-b14a2a537c40"},"vehicle_type_id":"4","last_reported":1712398061,"current_range_meters":28000,"station_id":"ce4bgqh2rcd13ifvqc5g","pricing_plan_id":"cebpf4jnsgd1na2vs0mg"},{"bike_id":"6ab12f2e-32c2-4c3f-9ef6-27bfcff00642","system_id":"levelo_inurba_marseille","lat":43.30304,"lon":5.368987,"is_reserved":false,"is_disabled":false,"rental_uris":{"android":"levelo://app?vid=6ab12f2e-32c2-4c3f-9ef6-27bfcff00642","ios":"levelo://app?vid=6ab12f2e-32c2-4c3f-9ef6-27bfcff00642"},"vehicle_type_id":"4","last_reported":1712398061,"current_range_meters":26800,"station_id":"ce4bgqh2rcd13ifvqc5g","pricing_plan_id":"cebpf4jnsgd1na2vs0mg"},{"bike_id":"bb92397a-5e1f-4b4e-a17c-8b228f2bf11b","system_id":"levelo_inurba_marseille","lat":43.315289,"lon":5.380349,"is_reserved":false,"is_disabled":false,"rental_uris":{"android":"levelo://app?vid=bb92397a-5e1f-4b4e-a17c-8b228f2bf11b","ios":"levelo://app?vid=bb92397a-5e1f-4b4e-a17c-8b228f2bf11b"},"vehicle_type_id":"4","last_reported":1712398061,"current_range_meters":24000,"station_id":"ce4bhsp2rcd13ifvqi50","pricing_plan_id":"cebpf4jnsgd1na2vs0mg"},{"bike_id":"64f6609f-9f62-4b32-a8ac-b4beea3e5200","system_id":"levelo_inurba_marseille","lat":43.315293,"lon":5.380349,"is_reserved":false,"is_disabled":false,"rental_uris":{"android":"levelo://app?vid=64f6609f-9f62-4b32-a8ac-b4beea3e5200","ios":"levelo://app?vid=64f6609f-9f62-4b32-a8ac-b4beea3e5200"},"vehicle_type_id":"4","last_reported":1712398061,"current_range_meters":3600,"station_id":"ce4bhsp2rcd13ifvqi50","pricing_plan_id":"cebpf4jnsgd1na2vs0mg"},{"bike_id":"d88b1b92-f162-4362-9184-850fdb1c65a3","system_id":"levelo_inurba_marseille","lat":43.301939,"lon":5.366286,"is_reserved":false,"is_disabled":false,"rental_uris":{"android":"levelo://app?vid=d88b1b92-f162-4362-9184-850fdb1c65a3","ios":"levelo://app?vid=d88b1b92-f162-4362-9184-850fdb1c65a3"},"vehicle_type_id":"4","last_reported":1712398061,"current_range_meters":22000,"station_id":"ce4bgrh2rcd13ifvqc8g","pricing_plan_id":"cebpf4jnsgd1na2vs0mg"},{"bike_id":"526a34fa-4f39-4855-97b1-cfa642694274","system_id":"levelo_inurba_marseille","lat":43.302784,"lon":5.377158,"is_reserved":false,"is_disabled":false,"rental_uris":{"android":"levelo://app?vid=526a34fa-4f39-4855-97b1-cfa642694274","ios":"levelo://app?vid=526a34fa-4f39-4855-97b1-cfa642694274"},"vehicle_type_id":"4","last_reported":1712398061,"current_range_meters":27200,"station_id":"ce4bguh2rcd13ifvqcj0","pricing_plan_id":"cebpf4jnsgd1na2vs0mg"},{"bike_id":"c2443ca5-445c-4bd6-b9ee-1d3b9ced7c8b","system_id":"levelo_inurba_marseille","lat":43.308012,"lon":5.381511,"is_reserved":false,"is_disabled":false,"rental_uris":{"android":"levelo://app?vid=c2443ca5-445c-4bd6-b9ee-1d3b9ced7c8b","ios":"levelo://app?vid=c2443ca5-445c-4bd6-b9ee-1d3b9ced7c8b"},"vehicle_type_id":"4","last_reported":1712398061,"current_range_meters":25600,"station_id":"ce4bgt12rcd13ifvqce0","pricing_plan_id":"cebpf4jnsgd1na2vs0mg"},{"bike_id":"7f325252-d2d3-4914-90cf-e45a402ca604","system_id":"levelo_inurba_marseille","lat":43.308037,"lon":5.3815,"is_reserved":false,"is_disabled":false,"rental_uris":{"android":"levelo://app?vid=7f325252-d2d3-4914-90cf-e45a402ca604","ios":"levelo://app?vid=7f325252-d2d3-4914-90cf-e45a402ca604"},"vehicle_type_id":"4","last_reported":1712398061,"current_range_meters":21600,"station_id":"ce4bgt12rcd13ifvqce0","pricing_plan_id":"cebpf4jnsgd1na2vs0mg"},{"bike_id":"bb6ad924-ccd4-4eb8-8724-807356323a85","system_id":"levelo_inurba_marseille","lat":43.308012,"lon":5.381511,"is_reserved":false,"is_disabled":false,"rental_uris":{"android":"levelo://app?vid=bb6ad924-ccd4-4eb8-8724-807356323a85","ios":"levelo://app?vid=bb6ad924-ccd4-4eb8-8724-807356323a85"},"vehicle_type_id":"4","last_reported":1712398061,"current_range_meters":7200,"station_id":"ce4bgt12rcd13ifvqce0","pricing_plan_id":"cebpf4jnsgd1na2vs0mg"},{"bike_id":"02431e06-0e4c-4317-aec2-bb819d3bde23","system_id":"levelo_inurba_marseille","lat":43.304606,"lon":5.379026,"is_reserved":false,"is_disabled":false,"rental_uris":{"android":"levelo://app?vid=02431e06-0e4c-4317-aec2-bb819d3bde23","ios":"levelo://app?vid=02431e06-0e4c-4317-aec2-bb819d3bde23"},"vehicle_type_id":"4","last_reported":1712398061,"current_range_meters":8400,"station_id":"ce4bgup2rcd13ifvqcn0","pricing_plan_id":"cebpf4jnsgd1na2vs0mg"},{"bike_id":"2bb39763-f740-41e2-ad84-e647176e99e9","system_id":"levelo_inurba_marseille","lat":43.304606,"lon":5.379026,"is_reserved":false,"is_disabled":false,"rental_uris":{"android":"levelo://app?vid=2bb39763-f740-41e2-ad84-e647176e99e9","ios":"levelo://app?vid=2bb39763-f740-41e2-ad84-e647176e99e9"},"vehicle_type_id":"4","last_reported":1712398061,"current_range_meters":24800,"station_id":"ce4bgup2rcd13ifvqcn0","pricing_plan_id":"cebpf4jnsgd1na2vs0mg"},{"bike_id":"b74864f1-f387-41ad-82d1-87bf6c8990b3","system_id":"levelo_inurba_marseille","lat":43.304606,"lon":5.379026,"is_reserved":false,"is_disabled":false,"rental_uris":{"android":"levelo://app?vid=b74864f1-f387-41ad-82d1-87bf6c8990b3","ios":"levelo://app?vid=b74864f1-f387-41ad-82d1-87bf6c8990b3"},"vehicle_type_id":"4","last_reported":1712398061,"current_range_meters":11200,"station_id":"ce4bgup2rcd13ifvqcn0","pricing_plan_id":"cebpf4jnsgd1na2vs0mg"},{"bike_id":"1ff67eb8-7903-4470-b195-c19350f5f01d","system_id":"levelo_inurba_marseille","lat":43.304606,"lon":5.379026,"is_reserved":false,"is_disabled":false,"rental_uris":{"android":"levelo://app?vid=1ff67eb8-7903-4470-b195-c19350f5f01d","ios":"levelo://app?vid=1ff67eb8-7903-4470-b195-c19350f5f01d"},"vehicle_type_id":"4","last_reported":1712398061,"current_range_meters":20400,"station_id":"ce4bgup2rcd13ifvqcn0","pricing_plan_id":"cebpf4jnsgd1na2vs0mg"},{"bike_id":"872c9634-d006-4f6c-a4ef-d3a1526c23d3","system_id":"levelo_inurba_marseille","lat":43.304606,"lon":5.379026,"is_reserved":false,"is_disabled":false,"rental_uris":{"android":"levelo://app?vid=872c9634-d006-4f6c-a4ef-d3a1526c23d3","ios":"levelo://app?vid=872c9634-d006-4f6c-a4ef-d3a1526c23d3"},"vehicle_type_id":"4","last_reported":1712398061,"current_range_meters":26000,"station_id":"ce4bgup2rcd13ifvqcn0","pricing_plan_id":"cebpf4jnsgd1na2vs0mg"},{"bike_id":"73b11d06-74b2-4ed9-9a5f-b0a9630492e1","system_id":"levelo_inurba_marseille","lat":43.304606,"lon":5.379026,"is_reserved":false,"is_disabled":false,"rental_uris":{"android":"levelo://app?vid=73b11d06-74b2-4ed9-9a5f-b0a9630492e1","ios":"levelo://app?vid=73b11d06-74b2-4ed9-9a5f-b0a9630492e1"},"vehicle_type_id":"4","last_reported":1712398061,"current_range_meters":21600,"station_id":"ce4bgup2rcd13ifvqcn0","pricing_plan_id":"cebpf4jnsgd1na2vs0mg"},{"bike_id":"f158db84-931b-45d3-ba08-87c5dadd96ab","system_id":"levelo_inurba_marseille","lat":43.304606,"lon":5.379026,"is_reserved":false,"is_disabled":false,"rental_uris":{"android":"levelo://app?vid=f158db84-931b-45d3-ba08-87c5dadd96ab","ios":"levelo://app?vid=f158db84-931b-45d3-ba08-87c5dadd96ab"},"vehicle_type_id":"4","last_reported":1712398061,"current_range_meters":21600,"station_id":"ce4bgup2rcd13ifvqcn0","pricing_plan_id":"cebpf4jnsgd1na2vs0mg"},{"bike_id":"a844ffca-1538-4ec9-bde7-cd30912667d0","system_id":"levelo_inurba_marseille","lat":43.304606,"lon":5.379026,"is_reserved":false,"is_disabled":false,"rental_uris":{"android":"levelo://app?vid=a844ffca-1538-4ec9-bde7-cd30912667d0","ios":"levelo://app?vid=a844ffca-1538-4ec9-bde7-cd30912667d0"},"vehicle_type_id":"4","last_reported":1712398061,"current_range_meters":4000,"station_id":"ce4bgup2rcd13ifvqcn0","pricing_plan_id":"cebpf4jnsgd1na2vs0mg"},{"bike_id":"40970fcc-ce01-4f7b-8215-a6c1fbbe79a4","system_id":"levelo_inurba_marseille","lat":43.304606,"lon":5.379026,"is_reserved":false,"is_disabled":false,"rental_uris":{"android":"levelo://app?vid=40970fcc-ce01-4f7b-8215-a6c1fbbe79a4","ios":"levelo://app?vid=40970fcc-ce01-4f7b-8215-a6c1fbbe79a4"},"vehicle_type_id":"4","last_reported":1712398061,"current_range_meters":20000,"station_id":"ce4bgup2rcd13ifvqcn0","pricing_plan_id":"cebpf4jnsgd1na2vs0mg"},{"bike_id":"91765d3f-3e92-4b6d-856e-15d3cd16e304","system_id":"levelo_inurba_marseille","lat":43.304606,"lon":5.379026,"is_reserved":false,"is_disabled":false,"rental_uris":{"android":"levelo://app?vid=91765d3f-3e92-4b6d-856e-15d3cd16e304","ios":"levelo://app?vid=91765d3f-3e92-4b6d-856e-15d3cd16e304"},"vehicle_type_id":"4","last_reported":1712398061,"current_range_meters":16400,"station_id":"ce4bgup2rcd13ifvqcn0","pricing_plan_id":"cebpf4jnsgd1na2vs0mg"},{"bike_id":"18784beb-2e8d-45de-b45c-04835ef9436e","system_id":"levelo_inurba_marseille","lat":43.304606,"lon":5.379026,"is_reserved":false,"is_disabled":false,"rental_uris":{"android":"levelo://app?vid=18784beb-2e8d-45de-b45c-04835ef9436e","ios":"levelo://app?vid=18784beb-2e8d-45de-b45c-04835ef9436e"},"vehicle_type_id":"4","last_reported":1712398061,"current_range_meters":11600,"station_id":"ce4bgup2rcd13ifvqcn0","pricing_plan_id":"cebpf4jnsgd1na2vs0mg"},{"bike_id":"65015c42-899c-4790-8575-b35f25faa205","system_id":"levelo_inurba_marseille","lat":43.304606,"lon":5.379026,"is_reserved":false,"is_disabled":false,"rental_uris":{"android":"levelo://app?vid=65015c42-899c-4790-8575-b35f25faa205","ios":"levelo://app?vid=65015c42-899c-4790-8575-b35f25faa205"},"vehicle_type_id":"4","last_reported":1712398061,"current_range_meters":7600,"station_id":"ce4bgup2rcd13ifvqcn0","pricing_plan_id":"cebpf4jnsgd1na2vs0mg"},{"bike_id":"c93d96b9-e1c8-406f-9038-6db478057894","system_id":"levelo_inurba_marseille","lat":43.304606,"lon":5.379026,"is_reserved":false,"is_disabled":false,"rental_uris":{"android":"levelo://app?vid=c93d96b9-e1c8-406f-9038-6db478057894","ios":"levelo://app?vid=c93d96b9-e1c8-406f-9038-6db478057894"},"vehicle_type_id":"4","last_reported":1712398061,"current_range_meters":22400,"station_id":"ce4bgup2rcd13ifvqcn0","pricing_plan_id":"cebpf4jnsgd1na2vs0mg"},{"bike_id":"94bf1e61-ace8-45da-be2c-5e340913e687","system_id":"levelo_inurba_marseille","lat":43.304606,"lon":5.379026,"is_reserved":false,"is_disabled":false,"rental_uris":{"android":"levelo://app?vid=94bf1e61-ace8-45da-be2c-5e340913e687","ios":"levelo://app?vid=94bf1e61-ace8-45da-be2c-5e340913e687"},"vehicle_type_id":"4","last_reported":1712398061,"current_range_meters":19600,"station_id":"ce4bgup2rcd13ifvqcn0","pricing_plan_id":"cebpf4jnsgd1na2vs0mg"},{"bike_id":"1720c08c-cacd-429c-8f17-40ba3502c2bd","system_id":"levelo_inurba_marseille","lat":43.304606,"lon":5.379026,"is_reserved":false,"is_disabled":false,"rental_uris":{"android":"levelo://app?vid=1720c08c-cacd-429c-8f17-40ba3502c2bd","ios":"levelo://app?vid=1720c08c-cacd-429c-8f17-40ba3502c2bd"},"vehicle_type_id":"4","last_reported":1712398061,"current_range_meters":12400,"station_id":"ce4bgup2rcd13ifvqcn0","pricing_plan_id":"cebpf4jnsgd1na2vs0mg"},{"bike_id":"ff2d30be-6815-42dc-8122-3727d78807db","system_id":"levelo_inurba_marseille","lat":43.304606,"lon":5.379026,"is_reserved":false,"is_disabled":false,"rental_uris":{"android":"levelo://app?vid=ff2d30be-6815-42dc-8122-3727d78807db","ios":"levelo://app?vid=ff2d30be-6815-42dc-8122-3727d78807db"},"vehicle_type_id":"4","last_reported":1712398061,"current_range_meters":19200,"station_id":"ce4bgup2rcd13ifvqcn0","pricing_plan_id":"cebpf4jnsgd1na2vs0mg"},{"bike_id":"a5147649-a3f1-4424-bff6-05564a33bfa4","system_id":"levelo_inurba_marseille","lat":43.304606,"lon":5.379026,"is_reserved":false,"is_disabled":false,"rental_uris":{"android":"levelo://app?vid=a5147649-a3f1-4424-bff6-05564a33bfa4","ios":"levelo://app?vid=a5147649-a3f1-4424-bff6-05564a33bfa4"},"vehicle_type_id":"4","last_reported":1712398061,"current_range_meters":27200,"station_id":"ce4bgup2rcd13ifvqcn0","pricing_plan_id":"cebpf4jnsgd1na2vs0mg"},{"bike_id":"471585cf-a961-4237-be7c-cca06696c54f","system_id":"levelo_inurba_marseille","lat":43.304606,"lon":5.379026,"is_reserved":false,"is_disabled":false,"rental_uris":{"android":"levelo://app?vid=471585cf-a961-4237-be7c-cca06696c54f","ios":"levelo://app?vid=471585cf-a961-4237-be7c-cca06696c54f"},"vehicle_type_id":"4","last_reported":1712398061,"current_range_meters":21200,"station_id":"ce4bgup2rcd13ifvqcn0","pricing_plan_id":"cebpf4jnsgd1na2vs0mg"},{"bike_id":"1e06ac9c-0e16-4dd8-a60b-1cb224d556a1","system_id":"levelo_inurba_marseille","lat":43.304606,"lon":5.379026,"is_reserved":false,"is_disabled":false,"rental_uris":{"android":"levelo://app?vid=1e06ac9c-0e16-4dd8-a60b-1cb224d556a1","ios":"levelo://app?vid=1e06ac9c-0e16-4dd8-a60b-1cb224d556a1"},"vehicle_type_id":"4","last_reported":1712398061,"current_range_meters":18000,"station_id":"ce4bgup2rcd13ifvqcn0","pricing_plan_id":"cebpf4jnsgd1na2vs0mg"},{"bike_id":"6972c663-ad7b-472c-8c00-a5b424f579fc","system_id":"levelo_inurba_marseille","lat":43.304606,"lon":5.379026,"is_reserved":false,"is_disabled":false,"rental_uris":{"android":"levelo://app?vid=6972c663-ad7b-472c-8c00-a5b424f579fc","ios":"levelo://app?vid=6972c663-ad7b-472c-8c00-a5b424f579fc"},"vehicle_type_id":"4","last_reported":1712398061,"current_range_meters":18800,"station_id":"ce4bgup2rcd13ifvqcn0","pricing_plan_id":"cebpf4jnsgd1na2vs0mg"},{"bike_id":"697fe7ac-943c-48a0-86cd-cac675325b36","system_id":"levelo_inurba_marseille","lat":43.304606,"lon":5.379026,"is_reserved":false,"is_disabled":false,"rental_uris":{"android":"levelo://app?vid=697fe7ac-943c-48a0-86cd-cac675325b36","ios":"levelo://app?vid=697fe7ac-943c-48a0-86cd-cac675325b36"},"vehicle_type_id":"4","last_reported":1712398061,"current_range_meters":11600,"station_id":"ce4bgup2rcd13ifvqcn0","pricing_plan_id":"cebpf4jnsgd1na2vs0mg"},{"bike_id":"57d5fee6-e761-428f-b4a5-52c57a0ad968","system_id":"levelo_inurba_marseille","lat":43.324771,"lon":5.36557,"is_reserved":false,"is_disabled":false,"rental_uris":{"android":"levelo://app?vid=57d5fee6-e761-428f-b4a5-52c57a0ad968","ios":"levelo://app?vid=57d5fee6-e761-428f-b4a5-52c57a0ad968"},"vehicle_type_id":"4","last_reported":1712398061,"current_range_meters":12400,"station_id":"ce4bhs12rcd13ifvqhvg","pricing_plan_id":"cebpf4jnsgd1na2vs0mg"},{"bike_id":"d8eb1402-7896-4fbd-99d8-d4d1fa89cdfa","system_id":"levelo_inurba_marseille","lat":43.324771,"lon":5.36557,"is_reserved":false,"is_disabled":false,"rental_uris":{"android":"levelo://app?vid=d8eb1402-7896-4fbd-99d8-d4d1fa89cdfa","ios":"levelo://app?vid=d8eb1402-7896-4fbd-99d8-d4d1fa89cdfa"},"vehicle_type_id":"4","last_reported":1712398061,"current_range_meters":12000,"station_id":"ce4bhs12rcd13ifvqhvg","pricing_plan_id":"cebpf4jnsgd1na2vs0mg"},{"bike_id":"e6b64de8-ae44-45ca-ba9d-4fa18112c01c","system_id":"levelo_inurba_marseille","lat":43.324771,"lon":5.36557,"is_reserved":false,"is_disabled":false,"rental_uris":{"android":"levelo://app?vid=e6b64de8-ae44-45ca-ba9d-4fa18112c01c","ios":"levelo://app?vid=e6b64de8-ae44-45ca-ba9d-4fa18112c01c"},"vehicle_type_id":"4","last_reported":1712398061,"current_range_meters":30400,"station_id":"ce4bhs12rcd13ifvqhvg","pricing_plan_id":"cebpf4jnsgd1na2vs0mg"},{"bike_id":"110d00f3-ee8f-4dcf-b9bb-4e4041f2ade4","system_id":"levelo_inurba_marseille","lat":43.324771,"lon":5.36557,"is_reserved":false,"is_disabled":false,"rental_uris":{"android":"levelo://app?vid=110d00f3-ee8f-4dcf-b9bb-4e4041f2ade4","ios":"levelo://app?vid=110d00f3-ee8f-4dcf-b9bb-4e4041f2ade4"},"vehicle_type_id":"4","last_reported":1712398061,"current_range_meters":14400,"station_id":"ce4bhs12rcd13ifvqhvg","pricing_plan_id":"cebpf4jnsgd1na2vs0mg"},{"bike_id":"fe6c236c-053c-4fc3-bd68-cc8280e08f10","system_id":"levelo_inurba_marseille","lat":43.324771,"lon":5.36557,"is_reserved":false,"is_disabled":false,"rental_uris":{"android":"levelo://app?vid=fe6c236c-053c-4fc3-bd68-cc8280e08f10","ios":"levelo://app?vid=fe6c236c-053c-4fc3-bd68-cc8280e08f10"},"vehicle_type_id":"4","last_reported":1712398061,"current_range_meters":16000,"station_id":"ce4bhs12rcd13ifvqhvg","pricing_plan_id":"cebpf4jnsgd1na2vs0mg"},{"bike_id":"a8936ac5-f712-4c75-8f60-dd6d2021fa6a","system_id":"levelo_inurba_marseille","lat":43.324771,"lon":5.36557,"is_reserved":false,"is_disabled":false,"rental_uris":{"android":"levelo://app?vid=a8936ac5-f712-4c75-8f60-dd6d2021fa6a","ios":"levelo://app?vid=a8936ac5-f712-4c75-8f60-dd6d2021fa6a"},"vehicle_type_id":"4","last_reported":1712398061,"current_range_meters":17600,"station_id":"ce4bhs12rcd13ifvqhvg","pricing_plan_id":"cebpf4jnsgd1na2vs0mg"},{"bike_id":"4eca8582-1b3b-4390-817f-e9b1adebf443","system_id":"levelo_inurba_marseille","lat":43.31073,"lon":5.38348,"is_reserved":false,"is_disabled":false,"rental_uris":{"android":"levelo://app?vid=4eca8582-1b3b-4390-817f-e9b1adebf443","ios":"levelo://app?vid=4eca8582-1b3b-4390-817f-e9b1adebf443"},"vehicle_type_id":"4","last_reported":1712398061,"current_range_meters":30000,"station_id":"ce4bgv92rcd13ifvqcr0","pricing_plan_id":"cebpf4jnsgd1na2vs0mg"},{"bike_id":"31b5666b-9ab8-4677-8db7-344bbaaaa21c","system_id":"levelo_inurba_marseille","lat":43.302784,"lon":5.377158,"is_reserved":false,"is_disabled":false,"rental_uris":{"android":"levelo://app?vid=31b5666b-9ab8-4677-8db7-344bbaaaa21c","ios":"levelo://app?vid=31b5666b-9ab8-4677-8db7-344bbaaaa21c"},"vehicle_type_id":"4","last_reported":1712398061,"current_range_meters":18800,"station_id":"ce4bguh2rcd13ifvqcj0","pricing_plan_id":"cebpf4jnsgd1na2vs0mg"},{"bike_id":"42a21ed6-4ee6-45cc-9c8a-92075f46f77c","system_id":"levelo_inurba_marseille","lat":43.302784,"lon":5.377158,"is_reserved":false,"is_disabled":false,"rental_uris":{"android":"levelo://app?vid=42a21ed6-4ee6-45cc-9c8a-92075f46f77c","ios":"levelo://app?vid=42a21ed6-4ee6-45cc-9c8a-92075f46f77c"},"vehicle_type_id":"4","last_reported":1712398061,"current_range_meters":31200,"station_id":"ce4bguh2rcd13ifvqcj0","pricing_plan_id":"cebpf4jnsgd1na2vs0mg"},{"bike_id":"d13f8654-295a-4582-bcdd-e540d8e6069e","system_id":"levelo_inurba_marseille","lat":43.302784,"lon":5.377158,"is_reserved":false,"is_disabled":false,"rental_uris":{"android":"levelo://app?vid=d13f8654-295a-4582-bcdd-e540d8e6069e","ios":"levelo://app?vid=d13f8654-295a-4582-bcdd-e540d8e6069e"},"vehicle_type_id":"4","last_reported":1712398061,"current_range_meters":26000,"station_id":"ce4bguh2rcd13ifvqcj0","pricing_plan_id":"cebpf4jnsgd1na2vs0mg"},{"bike_id":"149560a7-b8c5-4ec7-9803-5a8f2f407831","system_id":"levelo_inurba_marseille","lat":43.302784,"lon":5.377158,"is_reserved":false,"is_disabled":false,"rental_uris":{"android":"levelo://app?vid=149560a7-b8c5-4ec7-9803-5a8f2f407831","ios":"levelo://app?vid=149560a7-b8c5-4ec7-9803-5a8f2f407831"},"vehicle_type_id":"4","last_reported":1712398061,"current_range_meters":31600,"station_id":"ce4bguh2rcd13ifvqcj0","pricing_plan_id":"cebpf4jnsgd1na2vs0mg"},{"bike_id":"4e2645f4-7acd-46a7-9664-846e69d646c2","system_id":"levelo_inurba_marseille","lat":43.302784,"lon":5.377158,"is_reserved":false,"is_disabled":false,"rental_uris":{"android":"levelo://app?vid=4e2645f4-7acd-46a7-9664-846e69d646c2","ios":"levelo://app?vid=4e2645f4-7acd-46a7-9664-846e69d646c2"},"vehicle_type_id":"4","last_reported":1712398061,"current_range_meters":28000,"station_id":"ce4bguh2rcd13ifvqcj0","pricing_plan_id":"cebpf4jnsgd1na2vs0mg"},{"bike_id":"54896ec9-9131-400d-b056-f03ff64f95fe","system_id":"levelo_inurba_marseille","lat":43.302784,"lon":5.377158,"is_reserved":false,"is_disabled":false,"rental_uris":{"android":"levelo://app?vid=54896ec9-9131-400d-b056-f03ff64f95fe","ios":"levelo://app?vid=54896ec9-9131-400d-b056-f03ff64f95fe"},"vehicle_type_id":"4","last_reported":1712398061,"current_range_meters":31600,"station_id":"ce4bguh2rcd13ifvqcj0","pricing_plan_id":"cebpf4jnsgd1na2vs0mg"},{"bike_id":"a19fddf7-05f6-483d-a6e1-8522717092fc","system_id":"levelo_inurba_marseille","lat":43.302784,"lon":5.377158,"is_reserved":false,"is_disabled":false,"rental_uris":{"android":"levelo://app?vid=a19fddf7-05f6-483d-a6e1-8522717092fc","ios":"levelo://app?vid=a19fddf7-05f6-483d-a6e1-8522717092fc"},"vehicle_type_id":"4","last_reported":1712398061,"current_range_meters":18400,"station_id":"ce4bguh2rcd13ifvqcj0","pricing_plan_id":"cebpf4jnsgd1na2vs0mg"},{"bike_id":"3f752e7f-a9b6-4a4b-bc13-56650d59b965","system_id":"levelo_inurba_marseille","lat":43.302784,"lon":5.377158,"is_reserved":false,"is_disabled":false,"rental_uris":{"android":"levelo://app?vid=3f752e7f-a9b6-4a4b-bc13-56650d59b965","ios":"levelo://app?vid=3f752e7f-a9b6-4a4b-bc13-56650d59b965"},"vehicle_type_id":"4","last_reported":1712398061,"current_range_meters":28400,"station_id":"ce4bguh2rcd13ifvqcj0","pricing_plan_id":"cebpf4jnsgd1na2vs0mg"},{"bike_id":"ab53d743-eda0-4335-b51a-de5335b7972c","system_id":"levelo_inurba_marseille","lat":43.302784,"lon":5.377158,"is_reserved":false,"is_disabled":false,"rental_uris":{"android":"levelo://app?vid=ab53d743-eda0-4335-b51a-de5335b7972c","ios":"levelo://app?vid=ab53d743-eda0-4335-b51a-de5335b7972c"},"vehicle_type_id":"4","last_reported":1712398061,"current_range_meters":22400,"station_id":"ce4bguh2rcd13ifvqcj0","pricing_plan_id":"cebpf4jnsgd1na2vs0mg"},{"bike_id":"5b5abcee-0089-4b6e-bbf9-3eb5c3742d65","system_id":"levelo_inurba_marseille","lat":43.302784,"lon":5.377158,"is_reserved":false,"is_disabled":false,"rental_uris":{"android":"levelo://app?vid=5b5abcee-0089-4b6e-bbf9-3eb5c3742d65","ios":"levelo://app?vid=5b5abcee-0089-4b6e-bbf9-3eb5c3742d65"},"vehicle_type_id":"4","last_reported":1712398061,"current_range_meters":31200,"station_id":"ce4bguh2rcd13ifvqcj0","pricing_plan_id":"cebpf4jnsgd1na2vs0mg"},{"bike_id":"89d43a89-8b75-43ed-88ee-a7d8cbbd3bbf","system_id":"levelo_inurba_marseille","lat":43.302784,"lon":5.377158,"is_reserved":false,"is_disabled":false,"rental_uris":{"android":"levelo://app?vid=89d43a89-8b75-43ed-88ee-a7d8cbbd3bbf","ios":"levelo://app?vid=89d43a89-8b75-43ed-88ee-a7d8cbbd3bbf"},"vehicle_type_id":"4","last_reported":1712398061,"current_range_meters":28000,"station_id":"ce4bguh2rcd13ifvqcj0","pricing_plan_id":"cebpf4jnsgd1na2vs0mg"},{"bike_id":"d9583b12-0b53-450a-892d-e144f49398fa","system_id":"levelo_inurba_marseille","lat":43.302784,"lon":5.377158,"is_reserved":false,"is_disabled":false,"rental_uris":{"android":"levelo://app?vid=d9583b12-0b53-450a-892d-e144f49398fa","ios":"levelo://app?vid=d9583b12-0b53-450a-892d-e144f49398fa"},"vehicle_type_id":"4","last_reported":1712398061,"current_range_meters":25200,"station_id":"ce4bguh2rcd13ifvqcj0","pricing_plan_id":"cebpf4jnsgd1na2vs0mg"},{"bike_id":"965da3e5-4381-4937-b0d3-63520e7116c5","system_id":"levelo_inurba_marseille","lat":43.302784,"lon":5.377158,"is_reserved":false,"is_disabled":false,"rental_uris":{"android":"levelo://app?vid=965da3e5-4381-4937-b0d3-63520e7116c5","ios":"levelo://app?vid=965da3e5-4381-4937-b0d3-63520e7116c5"},"vehicle_type_id":"4","last_reported":1712398061,"current_range_meters":25200,"station_id":"ce4bguh2rcd13ifvqcj0","pricing_plan_id":"cebpf4jnsgd1na2vs0mg"},{"bike_id":"35fab69c-6065-4aae-9e9a-ad6cf97a84ea","system_id":"levelo_inurba_marseille","lat":43.302784,"lon":5.377158,"is_reserved":false,"is_disabled":false,"rental_uris":{"android":"levelo://app?vid=35fab69c-6065-4aae-9e9a-ad6cf97a84ea","ios":"levelo://app?vid=35fab69c-6065-4aae-9e9a-ad6cf97a84ea"},"vehicle_type_id":"4","last_reported":1712398061,"current_range_meters":19600,"station_id":"ce4bguh2rcd13ifvqcj0","pricing_plan_id":"cebpf4jnsgd1na2vs0mg"},{"bike_id":"9ce1c102-8fb0-46df-bb9e-2282835d4cc1","system_id":"levelo_inurba_marseille","lat":43.319935,"lon":5.381699,"is_reserved":false,"is_disabled":false,"rental_uris":{"android":"levelo://app?vid=9ce1c102-8fb0-46df-bb9e-2282835d4cc1","ios":"levelo://app?vid=9ce1c102-8fb0-46df-bb9e-2282835d4cc1"},"vehicle_type_id":"4","last_reported":1712398061,"current_range_meters":0,"station_id":"ce4bhr12rcd13ifvqhpg","pricing_plan_id":"cebpf4jnsgd1na2vs0mg"},{"bike_id":"6920eb6a-6545-46c8-ab6f-a7e0189a9542","system_id":"levelo_inurba_marseille","lat":43.319908,"lon":5.381544,"is_reserved":false,"is_disabled":false,"rental_uris":{"android":"levelo://app?vid=6920eb6a-6545-46c8-ab6f-a7e0189a9542","ios":"levelo://app?vid=6920eb6a-6545-46c8-ab6f-a7e0189a9542"},"vehicle_type_id":"4","last_reported":1712398061,"current_range_meters":1200,"station_id":"ce4bhr12rcd13ifvqhpg","pricing_plan_id":"cebpf4jnsgd1na2vs0mg"},{"bike_id":"58d956c7-c872-46f8-a9a4-fa3b03a5c18b","system_id":"levelo_inurba_marseille","lat":43.319935,"lon":5.381699,"is_reserved":false,"is_disabled":false,"rental_uris":{"android":"levelo://app?vid=58d956c7-c872-46f8-a9a4-fa3b03a5c18b","ios":"levelo://app?vid=58d956c7-c872-46f8-a9a4-fa3b03a5c18b"},"vehicle_type_id":"4","last_reported":1712398061,"current_range_meters":28000,"station_id":"ce4bhr12rcd13ifvqhpg","pricing_plan_id":"cebpf4jnsgd1na2vs0mg"},{"bike_id":"3020cd15-a45c-44f8-b232-6920c4c1ddb0","system_id":"levelo_inurba_marseille","lat":43.319935,"lon":5.381699,"is_reserved":false,"is_disabled":false,"rental_uris":{"android":"levelo://app?vid=3020cd15-a45c-44f8-b232-6920c4c1ddb0","ios":"levelo://app?vid=3020cd15-a45c-44f8-b232-6920c4c1ddb0"},"vehicle_type_id":"4","last_reported":1712398061,"current_range_meters":24000,"station_id":"ce4bhr12rcd13ifvqhpg","pricing_plan_id":"cebpf4jnsgd1na2vs0mg"},{"bike_id":"a94b94cb-72c6-4631-83fa-71f216e4076c","system_id":"levelo_inurba_marseille","lat":43.313583,"lon":5.384933,"is_reserved":false,"is_disabled":false,"rental_uris":{"android":"levelo://app?vid=a94b94cb-72c6-4631-83fa-71f216e4076c","ios":"levelo://app?vid=a94b94cb-72c6-4631-83fa-71f216e4076c"},"vehicle_type_id":"4","last_reported":1712398061,"current_range_meters":30000,"station_id":"ce4bgt92rcd13ifvqcf0","pricing_plan_id":"cebpf4jnsgd1na2vs0mg"},{"bike_id":"8e8510e1-91e0-4ba1-9b61-16834ef43b35","system_id":"levelo_inurba_marseille","lat":43.296277,"lon":5.377108,"is_reserved":false,"is_disabled":false,"rental_uris":{"android":"levelo://app?vid=8e8510e1-91e0-4ba1-9b61-16834ef43b35","ios":"levelo://app?vid=8e8510e1-91e0-4ba1-9b61-16834ef43b35"},"vehicle_type_id":"4","last_reported":1712398061,"current_range_meters":24800,"station_id":"ce4bgi92rcd13ifvqb90","pricing_plan_id":"cebpf4jnsgd1na2vs0mg"},{"bike_id":"53288165-4bf3-45b8-8fb9-f8335fdf1159","system_id":"levelo_inurba_marseille","lat":43.31354,"lon":5.38502,"is_reserved":false,"is_disabled":false,"rental_uris":{"android":"levelo://app?vid=53288165-4bf3-45b8-8fb9-f8335fdf1159","ios":"levelo://app?vid=53288165-4bf3-45b8-8fb9-f8335fdf1159"},"vehicle_type_id":"4","last_reported":1712398061,"current_range_meters":30000,"station_id":"ce4bgt92rcd13ifvqcf0","pricing_plan_id":"cebpf4jnsgd1na2vs0mg"},{"bike_id":"456367e0-9851-4742-aad7-3a7006b2c8b6","system_id":"levelo_inurba_marseille","lat":43.299222,"lon":5.365554,"is_reserved":false,"is_disabled":false,"rental_uris":{"android":"levelo://app?vid=456367e0-9851-4742-aad7-3a7006b2c8b6","ios":"levelo://app?vid=456367e0-9851-4742-aad7-3a7006b2c8b6"},"vehicle_type_id":"4","last_reported":1712398061,"current_range_meters":15200,"station_id":"ce4bgm92rcd13ifvqbr0","pricing_plan_id":"cebpf4jnsgd1na2vs0mg"},{"bike_id":"103d7ed4-8181-4d0f-9787-9997f9b25b76","system_id":"levelo_inurba_marseille","lat":43.299222,"lon":5.365554,"is_reserved":false,"is_disabled":false,"rental_uris":{"android":"levelo://app?vid=103d7ed4-8181-4d0f-9787-9997f9b25b76","ios":"levelo://app?vid=103d7ed4-8181-4d0f-9787-9997f9b25b76"},"vehicle_type_id":"4","last_reported":1712398061,"current_range_meters":15600,"station_id":"ce4bgm92rcd13ifvqbr0","pricing_plan_id":"cebpf4jnsgd1na2vs0mg"},{"bike_id":"d2e1ffaa-6da1-4df1-bb6f-5c8bd1b8bae9","system_id":"levelo_inurba_marseille","lat":43.299724,"lon":5.371829,"is_reserved":false,"is_disabled":false,"rental_uris":{"android":"levelo://app?vid=d2e1ffaa-6da1-4df1-bb6f-5c8bd1b8bae9","ios":"levelo://app?vid=d2e1ffaa-6da1-4df1-bb6f-5c8bd1b8bae9"},"vehicle_type_id":"4","last_reported":1712398061,"current_range_meters":25600,"station_id":"ce4bgr92rcd13ifvqc7g","pricing_plan_id":"cebpf4jnsgd1na2vs0mg"},{"bike_id":"157db98b-00fd-4bc7-b1bc-938693fde1d9","system_id":"levelo_inurba_marseille","lat":43.299724,"lon":5.371829,"is_reserved":false,"is_disabled":false,"rental_uris":{"android":"levelo://app?vid=157db98b-00fd-4bc7-b1bc-938693fde1d9","ios":"levelo://app?vid=157db98b-00fd-4bc7-b1bc-938693fde1d9"},"vehicle_type_id":"4","last_reported":1712398061,"current_range_meters":9600,"station_id":"ce4bgr92rcd13ifvqc7g","pricing_plan_id":"cebpf4jnsgd1na2vs0mg"},{"bike_id":"4b38f1d8-80cc-4857-bad2-d6e1f120e195","system_id":"levelo_inurba_marseille","lat":43.299724,"lon":5.371829,"is_reserved":false,"is_disabled":false,"rental_uris":{"android":"levelo://app?vid=4b38f1d8-80cc-4857-bad2-d6e1f120e195","ios":"levelo://app?vid=4b38f1d8-80cc-4857-bad2-d6e1f120e195"},"vehicle_type_id":"4","last_reported":1712398061,"current_range_meters":800,"station_id":"ce4bgr92rcd13ifvqc7g","pricing_plan_id":"cebpf4jnsgd1na2vs0mg"},{"bike_id":"00ab1aee-e36b-4f02-b053-d6dd1c4b8f26","system_id":"levelo_inurba_marseille","lat":43.2985,"lon":5.36284,"is_reserved":false,"is_disabled":false,"rental_uris":{"android":"levelo://app?vid=00ab1aee-e36b-4f02-b053-d6dd1c4b8f26","ios":"levelo://app?vid=00ab1aee-e36b-4f02-b053-d6dd1c4b8f26"},"vehicle_type_id":"4","last_reported":1712398061,"current_range_meters":30800,"station_id":"","pricing_plan_id":"cebpf4jnsgd1na2vs0mg"},{"bike_id":"d9290df1-09a4-47d4-820f-33282cbc4c33","system_id":"levelo_inurba_marseille","lat":43.305364,"lon":5.384119,"is_reserved":false,"is_disabled":false,"rental_uris":{"android":"levelo://app?vid=d9290df1-09a4-47d4-820f-33282cbc4c33","ios":"levelo://app?vid=d9290df1-09a4-47d4-820f-33282cbc4c33"},"vehicle_type_id":"4","last_reported":1712398061,"current_range_meters":30000,"station_id":"ce4bgg92rcd13ifvqb30","pricing_plan_id":"cebpf4jnsgd1na2vs0mg"},{"bike_id":"8e1dbd01-afc7-4aff-a4cb-75b77216d0be","system_id":"levelo_inurba_marseille","lat":43.298433,"lon":5.362774,"is_reserved":false,"is_disabled":false,"rental_uris":{"android":"levelo://app?vid=8e1dbd01-afc7-4aff-a4cb-75b77216d0be","ios":"levelo://app?vid=8e1dbd01-afc7-4aff-a4cb-75b77216d0be"},"vehicle_type_id":"4","last_reported":1712398061,"current_range_meters":3200,"station_id":"ce4bgpp2rcd13ifvqc3g","pricing_plan_id":"cebpf4jnsgd1na2vs0mg"},{"bike_id":"756977eb-ebcf-4e12-8b0f-11393f371636","system_id":"levelo_inurba_marseille","lat":43.305364,"lon":5.384119,"is_reserved":false,"is_disabled":false,"rental_uris":{"android":"levelo://app?vid=756977eb-ebcf-4e12-8b0f-11393f371636","ios":"levelo://app?vid=756977eb-ebcf-4e12-8b0f-11393f371636"},"vehicle_type_id":"4","last_reported":1712398061,"current_range_meters":31200,"station_id":"ce4bgg92rcd13ifvqb30","pricing_plan_id":"cebpf4jnsgd1na2vs0mg"},{"bike_id":"31835bb0-f5cd-4b0b-933b-269d0031fa6c","system_id":"levelo_inurba_marseille","lat":43.298433,"lon":5.362774,"is_reserved":false,"is_disabled":false,"rental_uris":{"android":"levelo://app?vid=31835bb0-f5cd-4b0b-933b-269d0031fa6c","ios":"levelo://app?vid=31835bb0-f5cd-4b0b-933b-269d0031fa6c"},"vehicle_type_id":"4","last_reported":1712398061,"current_range_meters":13600,"station_id":"ce4bgpp2rcd13ifvqc3g","pricing_plan_id":"cebpf4jnsgd1na2vs0mg"},{"bike_id":"e2c0a4b2-9516-4a49-9d36-332ff3309bbb","system_id":"levelo_inurba_marseille","lat":43.305364,"lon":5.384119,"is_reserved":false,"is_disabled":false,"rental_uris":{"android":"levelo://app?vid=e2c0a4b2-9516-4a49-9d36-332ff3309bbb","ios":"levelo://app?vid=e2c0a4b2-9516-4a49-9d36-332ff3309bbb"},"vehicle_type_id":"4","last_reported":1712398061,"current_range_meters":31200,"station_id":"ce4bgg92rcd13ifvqb30","pricing_plan_id":"cebpf4jnsgd1na2vs0mg"},{"bike_id":"1fac1ca6-317d-4664-a542-3843f074e297","system_id":"levelo_inurba_marseille","lat":43.298433,"lon":5.362774,"is_reserved":false,"is_disabled":false,"rental_uris":{"android":"levelo://app?vid=1fac1ca6-317d-4664-a542-3843f074e297","ios":"levelo://app?vid=1fac1ca6-317d-4664-a542-3843f074e297"},"vehicle_type_id":"4","last_reported":1712398061,"current_range_meters":31200,"station_id":"ce4bgpp2rcd13ifvqc3g","pricing_plan_id":"cebpf4jnsgd1na2vs0mg"},{"bike_id":"21ab9371-38e6-4e1b-8503-d666a462d780","system_id":"levelo_inurba_marseille","lat":43.298433,"lon":5.362774,"is_reserved":false,"is_disabled":false,"rental_uris":{"android":"levelo://app?vid=21ab9371-38e6-4e1b-8503-d666a462d780","ios":"levelo://app?vid=21ab9371-38e6-4e1b-8503-d666a462d780"},"vehicle_type_id":"4","last_reported":1712398061,"current_range_meters":31200,"station_id":"ce4bgpp2rcd13ifvqc3g","pricing_plan_id":"cebpf4jnsgd1na2vs0mg"},{"bike_id":"0a52c371-b1ad-490c-af09-bfd16e6a4b8f","system_id":"levelo_inurba_marseille","lat":43.305364,"lon":5.384119,"is_reserved":false,"is_disabled":false,"rental_uris":{"android":"levelo://app?vid=0a52c371-b1ad-490c-af09-bfd16e6a4b8f","ios":"levelo://app?vid=0a52c371-b1ad-490c-af09-bfd16e6a4b8f"},"vehicle_type_id":"4","last_reported":1712398061,"current_range_meters":19600,"station_id":"ce4bgg92rcd13ifvqb30","pricing_plan_id":"cebpf4jnsgd1na2vs0mg"},{"bike_id":"5198c307-919f-4e6b-bbb7-162b3e0ae726","system_id":"levelo_inurba_marseille","lat":43.305364,"lon":5.384119,"is_reserved":false,"is_disabled":false,"rental_uris":{"android":"levelo://app?vid=5198c307-919f-4e6b-bbb7-162b3e0ae726","ios":"levelo://app?vid=5198c307-919f-4e6b-bbb7-162b3e0ae726"},"vehicle_type_id":"4","last_reported":1712398061,"current_range_meters":31200,"station_id":"ce4bgg92rcd13ifvqb30","pricing_plan_id":"cebpf4jnsgd1na2vs0mg"},{"bike_id":"0d88f1db-d43e-451d-baaa-73eb115b2442","system_id":"levelo_inurba_marseille","lat":43.298433,"lon":5.362774,"is_reserved":false,"is_disabled":false,"rental_uris":{"android":"levelo://app?vid=0d88f1db-d43e-451d-baaa-73eb115b2442","ios":"levelo://app?vid=0d88f1db-d43e-451d-baaa-73eb115b2442"},"vehicle_type_id":"4","last_reported":1712398061,"current_range_meters":6800,"station_id":"ce4bgpp2rcd13ifvqc3g","pricing_plan_id":"cebpf4jnsgd1na2vs0mg"},{"bike_id":"1a3243e6-86fe-4427-8063-a77c7fd9e375","system_id":"levelo_inurba_marseille","lat":43.298433,"lon":5.362774,"is_reserved":false,"is_disabled":false,"rental_uris":{"android":"levelo://app?vid=1a3243e6-86fe-4427-8063-a77c7fd9e375","ios":"levelo://app?vid=1a3243e6-86fe-4427-8063-a77c7fd9e375"},"vehicle_type_id":"4","last_reported":1712398061,"current_range_meters":28400,"station_id":"ce4bgpp2rcd13ifvqc3g","pricing_plan_id":"cebpf4jnsgd1na2vs0mg"},{"bike_id":"e5ec8599-a3cf-4dbd-91d7-1eb6e77a09ad","system_id":"levelo_inurba_marseille","lat":43.298433,"lon":5.362774,"is_reserved":false,"is_disabled":false,"rental_uris":{"android":"levelo://app?vid=e5ec8599-a3cf-4dbd-91d7-1eb6e77a09ad","ios":"levelo://app?vid=e5ec8599-a3cf-4dbd-91d7-1eb6e77a09ad"},"vehicle_type_id":"4","last_reported":1712398061,"current_range_meters":30400,"station_id":"ce4bgpp2rcd13ifvqc3g","pricing_plan_id":"cebpf4jnsgd1na2vs0mg"},{"bike_id":"dd1aa5c7-0cf7-422e-8ff2-79954396e4eb","system_id":"levelo_inurba_marseille","lat":43.299243,"lon":5.374807,"is_reserved":false,"is_disabled":false,"rental_uris":{"android":"levelo://app?vid=dd1aa5c7-0cf7-422e-8ff2-79954396e4eb","ios":"levelo://app?vid=dd1aa5c7-0cf7-422e-8ff2-79954396e4eb"},"vehicle_type_id":"4","last_reported":1712398061,"current_range_meters":31200,"station_id":"ce4bgjh2rcd13ifvqbg0","pricing_plan_id":"cebpf4jnsgd1na2vs0mg"},{"bike_id":"db4729f3-576a-4261-be83-e7e58a83b21b","system_id":"levelo_inurba_marseille","lat":43.30917,"lon":5.38646,"is_reserved":false,"is_disabled":false,"rental_uris":{"android":"levelo://app?vid=db4729f3-576a-4261-be83-e7e58a83b21b","ios":"levelo://app?vid=db4729f3-576a-4261-be83-e7e58a83b21b"},"vehicle_type_id":"4","last_reported":1712398061,"current_range_meters":27200,"station_id":"","pricing_plan_id":"cebpf4jnsgd1na2vs0mg"},{"bike_id":"1f7e9b29-f34a-4380-bfc2-4a0fec89f88e","system_id":"levelo_inurba_marseille","lat":43.305364,"lon":5.384119,"is_reserved":false,"is_disabled":false,"rental_uris":{"android":"levelo://app?vid=1f7e9b29-f34a-4380-bfc2-4a0fec89f88e","ios":"levelo://app?vid=1f7e9b29-f34a-4380-bfc2-4a0fec89f88e"},"vehicle_type_id":"4","last_reported":1712398061,"current_range_meters":28800,"station_id":"ce4bgg92rcd13ifvqb30","pricing_plan_id":"cebpf4jnsgd1na2vs0mg"},{"bike_id":"5542569a-9371-4d00-bf35-2fcb4ccc4c8c","system_id":"levelo_inurba_marseille","lat":43.298433,"lon":5.362774,"is_reserved":false,"is_disabled":false,"rental_uris":{"android":"levelo://app?vid=5542569a-9371-4d00-bf35-2fcb4ccc4c8c","ios":"levelo://app?vid=5542569a-9371-4d00-bf35-2fcb4ccc4c8c"},"vehicle_type_id":"4","last_reported":1712398061,"current_range_meters":15200,"station_id":"ce4bgpp2rcd13ifvqc3g","pricing_plan_id":"cebpf4jnsgd1na2vs0mg"},{"bike_id":"3c00216d-381f-45b2-b4d9-3ecd3bcf9802","system_id":"levelo_inurba_marseille","lat":43.305364,"lon":5.384119,"is_reserved":false,"is_disabled":false,"rental_uris":{"android":"levelo://app?vid=3c00216d-381f-45b2-b4d9-3ecd3bcf9802","ios":"levelo://app?vid=3c00216d-381f-45b2-b4d9-3ecd3bcf9802"},"vehicle_type_id":"4","last_reported":1712398061,"current_range_meters":29200,"station_id":"ce4bgg92rcd13ifvqb30","pricing_plan_id":"cebpf4jnsgd1na2vs0mg"},{"bike_id":"bcabdeac-cf82-480d-ac48-d583f08de024","system_id":"levelo_inurba_marseille","lat":43.298433,"lon":5.362774,"is_reserved":false,"is_disabled":false,"rental_uris":{"android":"levelo://app?vid=bcabdeac-cf82-480d-ac48-d583f08de024","ios":"levelo://app?vid=bcabdeac-cf82-480d-ac48-d583f08de024"},"vehicle_type_id":"4","last_reported":1712398061,"current_range_meters":16000,"station_id":"ce4bgpp2rcd13ifvqc3g","pricing_plan_id":"cebpf4jnsgd1na2vs0mg"},{"bike_id":"6c2df7ea-a4b6-4615-b0c4-ea9cf0d75325","system_id":"levelo_inurba_marseille","lat":43.298433,"lon":5.362774,"is_reserved":false,"is_disabled":false,"rental_uris":{"android":"levelo://app?vid=6c2df7ea-a4b6-4615-b0c4-ea9cf0d75325","ios":"levelo://app?vid=6c2df7ea-a4b6-4615-b0c4-ea9cf0d75325"},"vehicle_type_id":"4","last_reported":1712398061,"current_range_meters":25600,"station_id":"ce4bgpp2rcd13ifvqc3g","pricing_plan_id":"cebpf4jnsgd1na2vs0mg"},{"bike_id":"061244de-ba75-499c-911b-1d2cd05b5f2a","system_id":"levelo_inurba_marseille","lat":43.311722,"lon":5.387247,"is_reserved":false,"is_disabled":false,"rental_uris":{"android":"levelo://app?vid=061244de-ba75-499c-911b-1d2cd05b5f2a","ios":"levelo://app?vid=061244de-ba75-499c-911b-1d2cd05b5f2a"},"vehicle_type_id":"4","last_reported":1712398061,"current_range_meters":24400,"station_id":"ce4bgv12rcd13ifvqcp0","pricing_plan_id":"cebpf4jnsgd1na2vs0mg"},{"bike_id":"9516a087-ee54-4310-affc-381826f6e463","system_id":"levelo_inurba_marseille","lat":43.311722,"lon":5.387247,"is_reserved":false,"is_disabled":false,"rental_uris":{"android":"levelo://app?vid=9516a087-ee54-4310-affc-381826f6e463","ios":"levelo://app?vid=9516a087-ee54-4310-affc-381826f6e463"},"vehicle_type_id":"4","last_reported":1712398061,"current_range_meters":17600,"station_id":"ce4bgv12rcd13ifvqcp0","pricing_plan_id":"cebpf4jnsgd1na2vs0mg"},{"bike_id":"e426fb23-ad1e-4707-a523-f3b9a45f6bfd","system_id":"levelo_inurba_marseille","lat":43.31184,"lon":5.38709,"is_reserved":false,"is_disabled":false,"rental_uris":{"android":"levelo://app?vid=e426fb23-ad1e-4707-a523-f3b9a45f6bfd","ios":"levelo://app?vid=e426fb23-ad1e-4707-a523-f3b9a45f6bfd"},"vehicle_type_id":"4","last_reported":1712398061,"current_range_meters":29200,"station_id":"ce4bgv12rcd13ifvqcp0","pricing_plan_id":"cebpf4jnsgd1na2vs0mg"},{"bike_id":"b16cb4ee-3fd7-4db8-9570-91353bde545f","system_id":"levelo_inurba_marseille","lat":43.299243,"lon":5.374807,"is_reserved":false,"is_disabled":false,"rental_uris":{"android":"levelo://app?vid=b16cb4ee-3fd7-4db8-9570-91353bde545f","ios":"levelo://app?vid=b16cb4ee-3fd7-4db8-9570-91353bde545f"},"vehicle_type_id":"4","last_reported":1712398061,"current_range_meters":21600,"station_id":"ce4bgjh2rcd13ifvqbg0","pricing_plan_id":"cebpf4jnsgd1na2vs0mg"},{"bike_id":"fdfa65f9-b654-4b73-8202-f7ffe250004f","system_id":"levelo_inurba_marseille","lat":43.311722,"lon":5.387247,"is_reserved":false,"is_disabled":false,"rental_uris":{"android":"levelo://app?vid=fdfa65f9-b654-4b73-8202-f7ffe250004f","ios":"levelo://app?vid=fdfa65f9-b654-4b73-8202-f7ffe250004f"},"vehicle_type_id":"4","last_reported":1712398061,"current_range_meters":31600,"station_id":"ce4bgv12rcd13ifvqcp0","pricing_plan_id":"cebpf4jnsgd1na2vs0mg"},{"bike_id":"59ff6220-f83e-4c62-b40e-0639782abe19","system_id":"levelo_inurba_marseille","lat":43.311846,"lon":5.387122,"is_reserved":false,"is_disabled":false,"rental_uris":{"android":"levelo://app?vid=59ff6220-f83e-4c62-b40e-0639782abe19","ios":"levelo://app?vid=59ff6220-f83e-4c62-b40e-0639782abe19"},"vehicle_type_id":"4","last_reported":1712398061,"current_range_meters":30000,"station_id":"ce4bgv12rcd13ifvqcp0","pricing_plan_id":"cebpf4jnsgd1na2vs0mg"},{"bike_id":"e20051df-896f-4746-8d57-a932f7fb89f0","system_id":"levelo_inurba_marseille","lat":43.311722,"lon":5.387247,"is_reserved":false,"is_disabled":false,"rental_uris":{"android":"levelo://app?vid=e20051df-896f-4746-8d57-a932f7fb89f0","ios":"levelo://app?vid=e20051df-896f-4746-8d57-a932f7fb89f0"},"vehicle_type_id":"4","last_reported":1712398061,"current_range_meters":6800,"station_id":"ce4bgv12rcd13ifvqcp0","pricing_plan_id":"cebpf4jnsgd1na2vs0mg"},{"bike_id":"63f3d29b-0ed5-4289-beb6-07c9b0a30a27","system_id":"levelo_inurba_marseille","lat":43.311722,"lon":5.387247,"is_reserved":false,"is_disabled":false,"rental_uris":{"android":"levelo://app?vid=63f3d29b-0ed5-4289-beb6-07c9b0a30a27","ios":"levelo://app?vid=63f3d29b-0ed5-4289-beb6-07c9b0a30a27"},"vehicle_type_id":"4","last_reported":1712398061,"current_range_meters":31200,"station_id":"ce4bgv12rcd13ifvqcp0","pricing_plan_id":"cebpf4jnsgd1na2vs0mg"},{"bike_id":"64f6661c-b16f-40e2-b5de-42d869d415ab","system_id":"levelo_inurba_marseille","lat":43.311722,"lon":5.387247,"is_reserved":false,"is_disabled":false,"rental_uris":{"android":"levelo://app?vid=64f6661c-b16f-40e2-b5de-42d869d415ab","ios":"levelo://app?vid=64f6661c-b16f-40e2-b5de-42d869d415ab"},"vehicle_type_id":"4","last_reported":1712398061,"current_range_meters":2400,"station_id":"ce4bgv12rcd13ifvqcp0","pricing_plan_id":"cebpf4jnsgd1na2vs0mg"},{"bike_id":"30d83ec2-9b11-4ff3-8b16-ed83ec694375","system_id":"levelo_inurba_marseille","lat":43.299243,"lon":5.374807,"is_reserved":false,"is_disabled":false,"rental_uris":{"android":"levelo://app?vid=30d83ec2-9b11-4ff3-8b16-ed83ec694375","ios":"levelo://app?vid=30d83ec2-9b11-4ff3-8b16-ed83ec694375"},"vehicle_type_id":"4","last_reported":1712398061,"current_range_meters":27200,"station_id":"ce4bgjh2rcd13ifvqbg0","pricing_plan_id":"cebpf4jnsgd1na2vs0mg"},{"bike_id":"f49eb9cf-385a-41f3-bc5f-35e1ee888092","system_id":"levelo_inurba_marseille","lat":43.298433,"lon":5.362774,"is_reserved":false,"is_disabled":false,"rental_uris":{"android":"levelo://app?vid=f49eb9cf-385a-41f3-bc5f-35e1ee888092","ios":"levelo://app?vid=f49eb9cf-385a-41f3-bc5f-35e1ee888092"},"vehicle_type_id":"4","last_reported":1712398061,"current_range_meters":22000,"station_id":"ce4bgpp2rcd13ifvqc3g","pricing_plan_id":"cebpf4jnsgd1na2vs0mg"},{"bike_id":"f9cbb650-aadf-49f6-a3e7-b397f3d0f9e2","system_id":"levelo_inurba_marseille","lat":43.322872,"lon":5.382756,"is_reserved":false,"is_disabled":false,"rental_uris":{"android":"levelo://app?vid=f9cbb650-aadf-49f6-a3e7-b397f3d0f9e2","ios":"levelo://app?vid=f9cbb650-aadf-49f6-a3e7-b397f3d0f9e2"},"vehicle_type_id":"4","last_reported":1712398061,"current_range_meters":7200,"station_id":"ce4bhr12rcd13ifvqhqg","pricing_plan_id":"cebpf4jnsgd1na2vs0mg"},{"bike_id":"27d84a8c-3e1d-42cc-8b8f-a1cd38a0d6e2","system_id":"levelo_inurba_marseille","lat":43.322872,"lon":5.382756,"is_reserved":false,"is_disabled":false,"rental_uris":{"android":"levelo://app?vid=27d84a8c-3e1d-42cc-8b8f-a1cd38a0d6e2","ios":"levelo://app?vid=27d84a8c-3e1d-42cc-8b8f-a1cd38a0d6e2"},"vehicle_type_id":"4","last_reported":1712398061,"current_range_meters":10800,"station_id":"ce4bhr12rcd13ifvqhqg","pricing_plan_id":"cebpf4jnsgd1na2vs0mg"},{"bike_id":"5f3b4b36-aea9-4aeb-bd06-2084946bf6e4","system_id":"levelo_inurba_marseille","lat":43.322872,"lon":5.382756,"is_reserved":false,"is_disabled":false,"rental_uris":{"android":"levelo://app?vid=5f3b4b36-aea9-4aeb-bd06-2084946bf6e4","ios":"levelo://app?vid=5f3b4b36-aea9-4aeb-bd06-2084946bf6e4"},"vehicle_type_id":"4","last_reported":1712398061,"current_range_meters":10000,"station_id":"ce4bhr12rcd13ifvqhqg","pricing_plan_id":"cebpf4jnsgd1na2vs0mg"},{"bike_id":"9341832e-29cc-450d-89c4-a72177065648","system_id":"levelo_inurba_marseille","lat":43.322872,"lon":5.382756,"is_reserved":false,"is_disabled":false,"rental_uris":{"android":"levelo://app?vid=9341832e-29cc-450d-89c4-a72177065648","ios":"levelo://app?vid=9341832e-29cc-450d-89c4-a72177065648"},"vehicle_type_id":"4","last_reported":1712398061,"current_range_meters":15600,"station_id":"ce4bhr12rcd13ifvqhqg","pricing_plan_id":"cebpf4jnsgd1na2vs0mg"},{"bike_id":"18651e73-a960-43da-bdae-371146c35a92","system_id":"levelo_inurba_marseille","lat":43.322872,"lon":5.382756,"is_reserved":false,"is_disabled":false,"rental_uris":{"android":"levelo://app?vid=18651e73-a960-43da-bdae-371146c35a92","ios":"levelo://app?vid=18651e73-a960-43da-bdae-371146c35a92"},"vehicle_type_id":"4","last_reported":1712398061,"current_range_meters":31200,"station_id":"ce4bhr12rcd13ifvqhqg","pricing_plan_id":"cebpf4jnsgd1na2vs0mg"},{"bike_id":"3f2835e5-a51e-4529-8eba-48f6b95ac4a9","system_id":"levelo_inurba_marseille","lat":43.322847,"lon":5.382712,"is_reserved":false,"is_disabled":false,"rental_uris":{"android":"levelo://app?vid=3f2835e5-a51e-4529-8eba-48f6b95ac4a9","ios":"levelo://app?vid=3f2835e5-a51e-4529-8eba-48f6b95ac4a9"},"vehicle_type_id":"4","last_reported":1712398061,"current_range_meters":18400,"station_id":"ce4bhr12rcd13ifvqhqg","pricing_plan_id":"cebpf4jnsgd1na2vs0mg"},{"bike_id":"d9d0fad4-bb5e-4fd7-aa14-bc36fdd7e62b","system_id":"levelo_inurba_marseille","lat":43.322872,"lon":5.382756,"is_reserved":false,"is_disabled":false,"rental_uris":{"android":"levelo://app?vid=d9d0fad4-bb5e-4fd7-aa14-bc36fdd7e62b","ios":"levelo://app?vid=d9d0fad4-bb5e-4fd7-aa14-bc36fdd7e62b"},"vehicle_type_id":"4","last_reported":1712398061,"current_range_meters":31200,"station_id":"ce4bhr12rcd13ifvqhqg","pricing_plan_id":"cebpf4jnsgd1na2vs0mg"},{"bike_id":"dbc85d03-f6dc-466a-8497-39ace727fae0","system_id":"levelo_inurba_marseille","lat":43.297163,"lon":5.365866,"is_reserved":false,"is_disabled":false,"rental_uris":{"android":"levelo://app?vid=dbc85d03-f6dc-466a-8497-39ace727fae0","ios":"levelo://app?vid=dbc85d03-f6dc-466a-8497-39ace727fae0"},"vehicle_type_id":"4","last_reported":1712398061,"current_range_meters":16000,"station_id":"ce4bgn12rcd13ifvqbt0","pricing_plan_id":"cebpf4jnsgd1na2vs0mg"},{"bike_id":"12868420-cd43-4d41-9cd6-9b5eadd40bbb","system_id":"levelo_inurba_marseille","lat":43.322872,"lon":5.382756,"is_reserved":false,"is_disabled":false,"rental_uris":{"android":"levelo://app?vid=12868420-cd43-4d41-9cd6-9b5eadd40bbb","ios":"levelo://app?vid=12868420-cd43-4d41-9cd6-9b5eadd40bbb"},"vehicle_type_id":"4","last_reported":1712398061,"current_range_meters":31200,"station_id":"ce4bhr12rcd13ifvqhqg","pricing_plan_id":"cebpf4jnsgd1na2vs0mg"},{"bike_id":"79a09dc1-a136-4553-b035-ca9b20a658e5","system_id":"levelo_inurba_marseille","lat":43.30181,"lon":5.3818,"is_reserved":false,"is_disabled":false,"rental_uris":{"android":"levelo://app?vid=79a09dc1-a136-4553-b035-ca9b20a658e5","ios":"levelo://app?vid=79a09dc1-a136-4553-b035-ca9b20a658e5"},"vehicle_type_id":"4","last_reported":1712398061,"current_range_meters":14000,"station_id":"","pricing_plan_id":"cebpf4jnsgd1na2vs0mg"},{"bike_id":"da8e8503-040d-4c97-a120-87b68c377155","system_id":"levelo_inurba_marseille","lat":43.297163,"lon":5.365866,"is_reserved":false,"is_disabled":false,"rental_uris":{"android":"levelo://app?vid=da8e8503-040d-4c97-a120-87b68c377155","ios":"levelo://app?vid=da8e8503-040d-4c97-a120-87b68c377155"},"vehicle_type_id":"4","last_reported":1712398061,"current_range_meters":16800,"station_id":"ce4bgn12rcd13ifvqbt0","pricing_plan_id":"cebpf4jnsgd1na2vs0mg"},{"bike_id":"531e9d31-0ef3-47e4-9587-b85c349138fd","system_id":"levelo_inurba_marseille","lat":43.297163,"lon":5.365866,"is_reserved":false,"is_disabled":false,"rental_uris":{"android":"levelo://app?vid=531e9d31-0ef3-47e4-9587-b85c349138fd","ios":"levelo://app?vid=531e9d31-0ef3-47e4-9587-b85c349138fd"},"vehicle_type_id":"4","last_reported":1712398061,"current_range_meters":24800,"station_id":"ce4bgn12rcd13ifvqbt0","pricing_plan_id":"cebpf4jnsgd1na2vs0mg"},{"bike_id":"b90f4cf2-8269-4fcc-8685-532822fa8f54","system_id":"levelo_inurba_marseille","lat":43.297163,"lon":5.365866,"is_reserved":false,"is_disabled":false,"rental_uris":{"android":"levelo://app?vid=b90f4cf2-8269-4fcc-8685-532822fa8f54","ios":"levelo://app?vid=b90f4cf2-8269-4fcc-8685-532822fa8f54"},"vehicle_type_id":"4","last_reported":1712398061,"current_range_meters":18800,"station_id":"ce4bgn12rcd13ifvqbt0","pricing_plan_id":"cebpf4jnsgd1na2vs0mg"},{"bike_id":"228ff166-4bfc-4aa9-8525-73aac9420c6d","system_id":"levelo_inurba_marseille","lat":43.2968,"lon":5.37291,"is_reserved":false,"is_disabled":false,"rental_uris":{"android":"levelo://app?vid=228ff166-4bfc-4aa9-8525-73aac9420c6d","ios":"levelo://app?vid=228ff166-4bfc-4aa9-8525-73aac9420c6d"},"vehicle_type_id":"4","last_reported":1712398061,"current_range_meters":30400,"station_id":"ce4bgk12rcd13ifvqbj0","pricing_plan_id":"cebpf4jnsgd1na2vs0mg"},{"bike_id":"78abcef0-1af5-46d6-a3e9-8c4738c40dc8","system_id":"levelo_inurba_marseille","lat":43.2968,"lon":5.37291,"is_reserved":false,"is_disabled":false,"rental_uris":{"android":"levelo://app?vid=78abcef0-1af5-46d6-a3e9-8c4738c40dc8","ios":"levelo://app?vid=78abcef0-1af5-46d6-a3e9-8c4738c40dc8"},"vehicle_type_id":"4","last_reported":1712398061,"current_range_meters":19200,"station_id":"ce4bgk12rcd13ifvqbj0","pricing_plan_id":"cebpf4jnsgd1na2vs0mg"},{"bike_id":"0b8d166c-f708-48eb-b4e2-8938eb754192","system_id":"levelo_inurba_marseille","lat":43.298433,"lon":5.362774,"is_reserved":false,"is_disabled":false,"rental_uris":{"android":"levelo://app?vid=0b8d166c-f708-48eb-b4e2-8938eb754192","ios":"levelo://app?vid=0b8d166c-f708-48eb-b4e2-8938eb754192"},"vehicle_type_id":"4","last_reported":1712398061,"current_range_meters":20800,"station_id":"ce4bgpp2rcd13ifvqc3g","pricing_plan_id":"cebpf4jnsgd1na2vs0mg"},{"bike_id":"49debd6e-31e2-45ed-9c04-8a3d3e2da014","system_id":"levelo_inurba_marseille","lat":43.312609,"lon":5.401662,"is_reserved":false,"is_disabled":false,"rental_uris":{"android":"levelo://app?vid=49debd6e-31e2-45ed-9c04-8a3d3e2da014","ios":"levelo://app?vid=49debd6e-31e2-45ed-9c04-8a3d3e2da014"},"vehicle_type_id":"4","last_reported":1712398061,"current_range_meters":21200,"station_id":"ce4bh092rcd13ifvqd30","pricing_plan_id":"cebpf4jnsgd1na2vs0mg"},{"bike_id":"6e7883f3-2fd9-4d47-ae70-c26dd78e1443","system_id":"levelo_inurba_marseille","lat":43.29573,"lon":5.367355,"is_reserved":false,"is_disabled":false,"rental_uris":{"android":"levelo://app?vid=6e7883f3-2fd9-4d47-ae70-c26dd78e1443","ios":"levelo://app?vid=6e7883f3-2fd9-4d47-ae70-c26dd78e1443"},"vehicle_type_id":"4","last_reported":1712398061,"current_range_meters":10000,"station_id":"ce4bgph2rcd13ifvqc2g","pricing_plan_id":"cebpf4jnsgd1na2vs0mg"},{"bike_id":"30d17532-c436-459c-bc81-f4e0dee1edb6","system_id":"levelo_inurba_marseille","lat":43.29573,"lon":5.367355,"is_reserved":false,"is_disabled":false,"rental_uris":{"android":"levelo://app?vid=30d17532-c436-459c-bc81-f4e0dee1edb6","ios":"levelo://app?vid=30d17532-c436-459c-bc81-f4e0dee1edb6"},"vehicle_type_id":"4","last_reported":1712398061,"current_range_meters":28400,"station_id":"ce4bgph2rcd13ifvqc2g","pricing_plan_id":"cebpf4jnsgd1na2vs0mg"},{"bike_id":"58f0f820-6ef4-4687-bc73-cd993df81c33","system_id":"levelo_inurba_marseille","lat":43.2971,"lon":5.37679,"is_reserved":false,"is_disabled":false,"rental_uris":{"android":"levelo://app?vid=58f0f820-6ef4-4687-bc73-cd993df81c33","ios":"levelo://app?vid=58f0f820-6ef4-4687-bc73-cd993df81c33"},"vehicle_type_id":"4","last_reported":1712398061,"current_range_meters":23200,"station_id":"ce4bgkh2rcd13ifvqbl0","pricing_plan_id":"cebpf4jnsgd1na2vs0mg"},{"bike_id":"eaa3caea-9165-427c-af42-f9dd85fa6746","system_id":"levelo_inurba_marseille","lat":43.299028,"lon":5.381509,"is_reserved":false,"is_disabled":false,"rental_uris":{"android":"levelo://app?vid=eaa3caea-9165-427c-af42-f9dd85fa6746","ios":"levelo://app?vid=eaa3caea-9165-427c-af42-f9dd85fa6746"},"vehicle_type_id":"4","last_reported":1712398061,"current_range_meters":2800,"station_id":"ce4bgj12rcd13ifvqbc0","pricing_plan_id":"cebpf4jnsgd1na2vs0mg"},{"bike_id":"370ea2d9-db0c-4574-8812-f1f7d97438d8","system_id":"levelo_inurba_marseille","lat":43.296921,"lon":5.376579,"is_reserved":false,"is_disabled":false,"rental_uris":{"android":"levelo://app?vid=370ea2d9-db0c-4574-8812-f1f7d97438d8","ios":"levelo://app?vid=370ea2d9-db0c-4574-8812-f1f7d97438d8"},"vehicle_type_id":"4","last_reported":1712398061,"current_range_meters":12400,"station_id":"ce4bgkh2rcd13ifvqbl0","pricing_plan_id":"cebpf4jnsgd1na2vs0mg"},{"bike_id":"8816781d-5a8d-49ab-8a23-4f45e57c9aef","system_id":"levelo_inurba_marseille","lat":43.299028,"lon":5.381509,"is_reserved":false,"is_disabled":false,"rental_uris":{"android":"levelo://app?vid=8816781d-5a8d-49ab-8a23-4f45e57c9aef","ios":"levelo://app?vid=8816781d-5a8d-49ab-8a23-4f45e57c9aef"},"vehicle_type_id":"4","last_reported":1712398061,"current_range_meters":5200,"station_id":"ce4bgj12rcd13ifvqbc0","pricing_plan_id":"cebpf4jnsgd1na2vs0mg"},{"bike_id":"476d7362-44ac-42df-b2e8-74c62626511b","system_id":"levelo_inurba_marseille","lat":43.296921,"lon":5.376579,"is_reserved":false,"is_disabled":false,"rental_uris":{"android":"levelo://app?vid=476d7362-44ac-42df-b2e8-74c62626511b","ios":"levelo://app?vid=476d7362-44ac-42df-b2e8-74c62626511b"},"vehicle_type_id":"4","last_reported":1712398061,"current_range_meters":8800,"station_id":"ce4bgkh2rcd13ifvqbl0","pricing_plan_id":"cebpf4jnsgd1na2vs0mg"},{"bike_id":"b7858dff-1ea6-4b69-a8b2-be92eaf417d0","system_id":"levelo_inurba_marseille","lat":43.299028,"lon":5.381509,"is_reserved":false,"is_disabled":false,"rental_uris":{"android":"levelo://app?vid=b7858dff-1ea6-4b69-a8b2-be92eaf417d0","ios":"levelo://app?vid=b7858dff-1ea6-4b69-a8b2-be92eaf417d0"},"vehicle_type_id":"4","last_reported":1712398061,"current_range_meters":24000,"station_id":"ce4bgj12rcd13ifvqbc0","pricing_plan_id":"cebpf4jnsgd1na2vs0mg"},{"bike_id":"c796f15b-d272-4fe9-9452-fcbc6f2c0624","system_id":"levelo_inurba_marseille","lat":43.299028,"lon":5.381509,"is_reserved":false,"is_disabled":false,"rental_uris":{"android":"levelo://app?vid=c796f15b-d272-4fe9-9452-fcbc6f2c0624","ios":"levelo://app?vid=c796f15b-d272-4fe9-9452-fcbc6f2c0624"},"vehicle_type_id":"4","last_reported":1712398061,"current_range_meters":22400,"station_id":"ce4bgj12rcd13ifvqbc0","pricing_plan_id":"cebpf4jnsgd1na2vs0mg"},{"bike_id":"ddfdf90d-e946-4bdc-9e99-4560ce07e469","system_id":"levelo_inurba_marseille","lat":43.299028,"lon":5.381509,"is_reserved":false,"is_disabled":false,"rental_uris":{"android":"levelo://app?vid=ddfdf90d-e946-4bdc-9e99-4560ce07e469","ios":"levelo://app?vid=ddfdf90d-e946-4bdc-9e99-4560ce07e469"},"vehicle_type_id":"4","last_reported":1712398061,"current_range_meters":22400,"station_id":"ce4bgj12rcd13ifvqbc0","pricing_plan_id":"cebpf4jnsgd1na2vs0mg"},{"bike_id":"47e8ca0d-6e3c-445b-b481-dce80517146a","system_id":"levelo_inurba_marseille","lat":43.299028,"lon":5.381509,"is_reserved":false,"is_disabled":false,"rental_uris":{"android":"levelo://app?vid=47e8ca0d-6e3c-445b-b481-dce80517146a","ios":"levelo://app?vid=47e8ca0d-6e3c-445b-b481-dce80517146a"},"vehicle_type_id":"4","last_reported":1712398061,"current_range_meters":28800,"station_id":"ce4bgj12rcd13ifvqbc0","pricing_plan_id":"cebpf4jnsgd1na2vs0mg"},{"bike_id":"bb71332f-0bc8-4d5f-8916-ebd7c3fc77c2","system_id":"levelo_inurba_marseille","lat":43.309515,"lon":5.390293,"is_reserved":false,"is_disabled":false,"rental_uris":{"android":"levelo://app?vid=bb71332f-0bc8-4d5f-8916-ebd7c3fc77c2","ios":"levelo://app?vid=bb71332f-0bc8-4d5f-8916-ebd7c3fc77c2"},"vehicle_type_id":"4","last_reported":1712398061,"current_range_meters":18400,"station_id":"ce4bgup2rcd13ifvqco0","pricing_plan_id":"cebpf4jnsgd1na2vs0mg"},{"bike_id":"4705bb23-7f33-404c-b01e-1f1afa0ad77b","system_id":"levelo_inurba_marseille","lat":43.30953,"lon":5.39032,"is_reserved":false,"is_disabled":false,"rental_uris":{"android":"levelo://app?vid=4705bb23-7f33-404c-b01e-1f1afa0ad77b","ios":"levelo://app?vid=4705bb23-7f33-404c-b01e-1f1afa0ad77b"},"vehicle_type_id":"4","last_reported":1712398061,"current_range_meters":14400,"station_id":"ce4bgup2rcd13ifvqco0","pricing_plan_id":"cebpf4jnsgd1na2vs0mg"},{"bike_id":"bbbc7a17-187b-452f-b130-7a667881113b","system_id":"levelo_inurba_marseille","lat":43.30955,"lon":5.39033,"is_reserved":false,"is_disabled":false,"rental_uris":{"android":"levelo://app?vid=bbbc7a17-187b-452f-b130-7a667881113b","ios":"levelo://app?vid=bbbc7a17-187b-452f-b130-7a667881113b"},"vehicle_type_id":"4","last_reported":1712398061,"current_range_meters":30000,"station_id":"ce4bgup2rcd13ifvqco0","pricing_plan_id":"cebpf4jnsgd1na2vs0mg"},{"bike_id":"a9a2f564-07b9-4d11-824d-5fc084d9a48c","system_id":"levelo_inurba_marseille","lat":43.30953,"lon":5.390333,"is_reserved":false,"is_disabled":false,"rental_uris":{"android":"levelo://app?vid=a9a2f564-07b9-4d11-824d-5fc084d9a48c","ios":"levelo://app?vid=a9a2f564-07b9-4d11-824d-5fc084d9a48c"},"vehicle_type_id":"4","last_reported":1712398061,"current_range_meters":24800,"station_id":"ce4bgup2rcd13ifvqco0","pricing_plan_id":"cebpf4jnsgd1na2vs0mg"},{"bike_id":"3f49e91a-69d2-4304-9b92-e077c45dcc17","system_id":"levelo_inurba_marseille","lat":43.296921,"lon":5.376579,"is_reserved":false,"is_disabled":false,"rental_uris":{"android":"levelo://app?vid=3f49e91a-69d2-4304-9b92-e077c45dcc17","ios":"levelo://app?vid=3f49e91a-69d2-4304-9b92-e077c45dcc17"},"vehicle_type_id":"4","last_reported":1712398061,"current_range_meters":29600,"station_id":"ce4bgkh2rcd13ifvqbl0","pricing_plan_id":"cebpf4jnsgd1na2vs0mg"},{"bike_id":"836f7f1e-98c1-48b9-87df-e7eb2e92486b","system_id":"levelo_inurba_marseille","lat":43.30956,"lon":5.39036,"is_reserved":false,"is_disabled":false,"rental_uris":{"android":"levelo://app?vid=836f7f1e-98c1-48b9-87df-e7eb2e92486b","ios":"levelo://app?vid=836f7f1e-98c1-48b9-87df-e7eb2e92486b"},"vehicle_type_id":"4","last_reported":1712398061,"current_range_meters":19200,"station_id":"ce4bgup2rcd13ifvqco0","pricing_plan_id":"cebpf4jnsgd1na2vs0mg"},{"bike_id":"1490a2a6-edcb-4ae2-8209-8942dd7c4a16","system_id":"levelo_inurba_marseille","lat":43.299028,"lon":5.381509,"is_reserved":false,"is_disabled":false,"rental_uris":{"android":"levelo://app?vid=1490a2a6-edcb-4ae2-8209-8942dd7c4a16","ios":"levelo://app?vid=1490a2a6-edcb-4ae2-8209-8942dd7c4a16"},"vehicle_type_id":"4","last_reported":1712398061,"current_range_meters":21600,"station_id":"ce4bgj12rcd13ifvqbc0","pricing_plan_id":"cebpf4jnsgd1na2vs0mg"},{"bike_id":"1cf1c01d-5d74-43b0-ae10-a96a2933810b","system_id":"levelo_inurba_marseille","lat":43.309589,"lon":5.390258,"is_reserved":false,"is_disabled":false,"rental_uris":{"android":"levelo://app?vid=1cf1c01d-5d74-43b0-ae10-a96a2933810b","ios":"levelo://app?vid=1cf1c01d-5d74-43b0-ae10-a96a2933810b"},"vehicle_type_id":"4","last_reported":1712398061,"current_range_meters":26800,"station_id":"ce4bgup2rcd13ifvqco0","pricing_plan_id":"cebpf4jnsgd1na2vs0mg"},{"bike_id":"a1fdf148-3717-4d97-b5cb-035d8786778c","system_id":"levelo_inurba_marseille","lat":43.317557,"lon":5.390173,"is_reserved":false,"is_disabled":false,"rental_uris":{"android":"levelo://app?vid=a1fdf148-3717-4d97-b5cb-035d8786778c","ios":"levelo://app?vid=a1fdf148-3717-4d97-b5cb-035d8786778c"},"vehicle_type_id":"4","last_reported":1712398061,"current_range_meters":31200,"station_id":"ce4bhqp2rcd13ifvqhng","pricing_plan_id":"cebpf4jnsgd1na2vs0mg"},{"bike_id":"9ee8775b-3245-4620-9bb3-c5b57bc94d6e","system_id":"levelo_inurba_marseille","lat":43.317555,"lon":5.390165,"is_reserved":false,"is_disabled":false,"rental_uris":{"android":"levelo://app?vid=9ee8775b-3245-4620-9bb3-c5b57bc94d6e","ios":"levelo://app?vid=9ee8775b-3245-4620-9bb3-c5b57bc94d6e"},"vehicle_type_id":"4","last_reported":1712398061,"current_range_meters":22400,"station_id":"ce4bhqp2rcd13ifvqhng","pricing_plan_id":"cebpf4jnsgd1na2vs0mg"},{"bike_id":"7cf5954e-1d7f-45d6-b364-624552b81db0","system_id":"levelo_inurba_marseille","lat":43.298078,"lon":5.380912,"is_reserved":false,"is_disabled":false,"rental_uris":{"android":"levelo://app?vid=7cf5954e-1d7f-45d6-b364-624552b81db0","ios":"levelo://app?vid=7cf5954e-1d7f-45d6-b364-624552b81db0"},"vehicle_type_id":"4","last_reported":1712398061,"current_range_meters":29600,"station_id":"ce4bgip2rcd13ifvqbb0","pricing_plan_id":"cebpf4jnsgd1na2vs0mg"},{"bike_id":"caea0e97-78d0-430a-9b4a-bf537669209a","system_id":"levelo_inurba_marseille","lat":43.298013,"lon":5.3809,"is_reserved":false,"is_disabled":false,"rental_uris":{"android":"levelo://app?vid=caea0e97-78d0-430a-9b4a-bf537669209a","ios":"levelo://app?vid=caea0e97-78d0-430a-9b4a-bf537669209a"},"vehicle_type_id":"4","last_reported":1712398061,"current_range_meters":22000,"station_id":"ce4bgip2rcd13ifvqbb0","pricing_plan_id":"cebpf4jnsgd1na2vs0mg"},{"bike_id":"44f80d7c-3720-4dc5-b9cd-289d31426774","system_id":"levelo_inurba_marseille","lat":43.31494,"lon":5.39135,"is_reserved":false,"is_disabled":false,"rental_uris":{"android":"levelo://app?vid=44f80d7c-3720-4dc5-b9cd-289d31426774","ios":"levelo://app?vid=44f80d7c-3720-4dc5-b9cd-289d31426774"},"vehicle_type_id":"4","last_reported":1712398061,"current_range_meters":2000,"station_id":"","pricing_plan_id":"cebpf4jnsgd1na2vs0mg"},{"bike_id":"4b96b658-eb27-4823-976f-5df9ee995a67","system_id":"levelo_inurba_marseille","lat":43.295748,"lon":5.37522,"is_reserved":false,"is_disabled":false,"rental_uris":{"android":"levelo://app?vid=4b96b658-eb27-4823-976f-5df9ee995a67","ios":"levelo://app?vid=4b96b658-eb27-4823-976f-5df9ee995a67"},"vehicle_type_id":"4","last_reported":1712398061,"current_range_meters":3200,"station_id":"ce4bgh92rcd13ifvqb50","pricing_plan_id":"cebpf4jnsgd1na2vs0mg"},{"bike_id":"c8d0d598-a773-47e1-ae90-5a525b7520e2","system_id":"levelo_inurba_marseille","lat":43.298037,"lon":5.381066,"is_reserved":false,"is_disabled":false,"rental_uris":{"android":"levelo://app?vid=c8d0d598-a773-47e1-ae90-5a525b7520e2","ios":"levelo://app?vid=c8d0d598-a773-47e1-ae90-5a525b7520e2"},"vehicle_type_id":"4","last_reported":1712398061,"current_range_meters":26800,"station_id":"ce4bgip2rcd13ifvqbb0","pricing_plan_id":"cebpf4jnsgd1na2vs0mg"},{"bike_id":"e1be4f18-546e-4ff1-ad23-d4bd037c6b61","system_id":"levelo_inurba_marseille","lat":43.298037,"lon":5.381066,"is_reserved":false,"is_disabled":false,"rental_uris":{"android":"levelo://app?vid=e1be4f18-546e-4ff1-ad23-d4bd037c6b61","ios":"levelo://app?vid=e1be4f18-546e-4ff1-ad23-d4bd037c6b61"},"vehicle_type_id":"4","last_reported":1712398061,"current_range_meters":25600,"station_id":"ce4bgip2rcd13ifvqbb0","pricing_plan_id":"cebpf4jnsgd1na2vs0mg"},{"bike_id":"29f92c1c-d31b-475d-8d68-a88c3fe8a953","system_id":"levelo_inurba_marseille","lat":43.298037,"lon":5.381066,"is_reserved":false,"is_disabled":false,"rental_uris":{"android":"levelo://app?vid=29f92c1c-d31b-475d-8d68-a88c3fe8a953","ios":"levelo://app?vid=29f92c1c-d31b-475d-8d68-a88c3fe8a953"},"vehicle_type_id":"4","last_reported":1712398061,"current_range_meters":28400,"station_id":"ce4bgip2rcd13ifvqbb0","pricing_plan_id":"cebpf4jnsgd1na2vs0mg"},{"bike_id":"27f94307-27f7-4bc3-90f8-5a95ad392d3c","system_id":"levelo_inurba_marseille","lat":43.298037,"lon":5.381066,"is_reserved":false,"is_disabled":false,"rental_uris":{"android":"levelo://app?vid=27f94307-27f7-4bc3-90f8-5a95ad392d3c","ios":"levelo://app?vid=27f94307-27f7-4bc3-90f8-5a95ad392d3c"},"vehicle_type_id":"4","last_reported":1712398061,"current_range_meters":16800,"station_id":"ce4bgip2rcd13ifvqbb0","pricing_plan_id":"cebpf4jnsgd1na2vs0mg"},{"bike_id":"aa5f2192-60bd-4976-b331-dddf00ab5af4","system_id":"levelo_inurba_marseille","lat":43.295748,"lon":5.37522,"is_reserved":false,"is_disabled":false,"rental_uris":{"android":"levelo://app?vid=aa5f2192-60bd-4976-b331-dddf00ab5af4","ios":"levelo://app?vid=aa5f2192-60bd-4976-b331-dddf00ab5af4"},"vehicle_type_id":"4","last_reported":1712398061,"current_range_meters":24800,"station_id":"ce4bgh92rcd13ifvqb50","pricing_plan_id":"cebpf4jnsgd1na2vs0mg"},{"bike_id":"3fdc9bfb-1431-4c41-9267-96a55e547884","system_id":"levelo_inurba_marseille","lat":43.304274,"lon":5.388873,"is_reserved":false,"is_disabled":false,"rental_uris":{"android":"levelo://app?vid=3fdc9bfb-1431-4c41-9267-96a55e547884","ios":"levelo://app?vid=3fdc9bfb-1431-4c41-9267-96a55e547884"},"vehicle_type_id":"4","last_reported":1712398061,"current_range_meters":20800,"station_id":"ce4bgk12rcd13ifvqbi0","pricing_plan_id":"cebpf4jnsgd1na2vs0mg"},{"bike_id":"6f221758-232e-4863-b9d0-66b1c5e00193","system_id":"levelo_inurba_marseille","lat":43.284462,"lon":5.392121,"is_reserved":false,"is_disabled":false,"rental_uris":{"android":"levelo://app?vid=6f221758-232e-4863-b9d0-66b1c5e00193","ios":"levelo://app?vid=6f221758-232e-4863-b9d0-66b1c5e00193"},"vehicle_type_id":"4","last_reported":1712398061,"current_range_meters":22000,"station_id":"ce4bhoh2rcd13ifvqh5g","pricing_plan_id":"cebpf4jnsgd1na2vs0mg"},{"bike_id":"5aba5f32-a353-4732-8047-cabc0eff56e4","system_id":"levelo_inurba_marseille","lat":43.297881,"lon":5.380934,"is_reserved":false,"is_disabled":false,"rental_uris":{"android":"levelo://app?vid=5aba5f32-a353-4732-8047-cabc0eff56e4","ios":"levelo://app?vid=5aba5f32-a353-4732-8047-cabc0eff56e4"},"vehicle_type_id":"4","last_reported":1712398061,"current_range_meters":20400,"station_id":"ce4bgip2rcd13ifvqbb0","pricing_plan_id":"cebpf4jnsgd1na2vs0mg"},{"bike_id":"250bc85f-bbcd-4cc4-83a1-46f154b65666","system_id":"levelo_inurba_marseille","lat":43.304274,"lon":5.388873,"is_reserved":false,"is_disabled":false,"rental_uris":{"android":"levelo://app?vid=250bc85f-bbcd-4cc4-83a1-46f154b65666","ios":"levelo://app?vid=250bc85f-bbcd-4cc4-83a1-46f154b65666"},"vehicle_type_id":"4","last_reported":1712398061,"current_range_meters":14000,"station_id":"ce4bgk12rcd13ifvqbi0","pricing_plan_id":"cebpf4jnsgd1na2vs0mg"},{"bike_id":"10b9e137-c37a-401a-b158-b4fb95035f26","system_id":"levelo_inurba_marseille","lat":43.28856,"lon":5.358371,"is_reserved":false,"is_disabled":false,"rental_uris":{"android":"levelo://app?vid=10b9e137-c37a-401a-b158-b4fb95035f26","ios":"levelo://app?vid=10b9e137-c37a-401a-b158-b4fb95035f26"},"vehicle_type_id":"4","last_reported":1712398061,"current_range_meters":17200,"station_id":"ce4bhb12rcd13ifvqem0","pricing_plan_id":"cebpf4jnsgd1na2vs0mg"},{"bike_id":"77e86e52-c134-4f5d-9e70-e230597569a5","system_id":"levelo_inurba_marseille","lat":43.295748,"lon":5.37522,"is_reserved":false,"is_disabled":false,"rental_uris":{"android":"levelo://app?vid=77e86e52-c134-4f5d-9e70-e230597569a5","ios":"levelo://app?vid=77e86e52-c134-4f5d-9e70-e230597569a5"},"vehicle_type_id":"4","last_reported":1712398061,"current_range_meters":20800,"station_id":"ce4bgh92rcd13ifvqb50","pricing_plan_id":"cebpf4jnsgd1na2vs0mg"},{"bike_id":"31c7260d-6d75-4094-a795-a972aebc4f33","system_id":"levelo_inurba_marseille","lat":43.304278,"lon":5.388868,"is_reserved":false,"is_disabled":false,"rental_uris":{"android":"levelo://app?vid=31c7260d-6d75-4094-a795-a972aebc4f33","ios":"levelo://app?vid=31c7260d-6d75-4094-a795-a972aebc4f33"},"vehicle_type_id":"4","last_reported":1712398061,"current_range_meters":9600,"station_id":"ce4bgk12rcd13ifvqbi0","pricing_plan_id":"cebpf4jnsgd1na2vs0mg"},{"bike_id":"6c096e34-37e9-4b9d-b70c-ac0bf011c1e8","system_id":"levelo_inurba_marseille","lat":43.299028,"lon":5.381509,"is_reserved":false,"is_disabled":false,"rental_uris":{"android":"levelo://app?vid=6c096e34-37e9-4b9d-b70c-ac0bf011c1e8","ios":"levelo://app?vid=6c096e34-37e9-4b9d-b70c-ac0bf011c1e8"},"vehicle_type_id":"4","last_reported":1712398061,"current_range_meters":24000,"station_id":"ce4bgj12rcd13ifvqbc0","pricing_plan_id":"cebpf4jnsgd1na2vs0mg"},{"bike_id":"a81c653f-20f2-4eae-a72d-be32f55e98f6","system_id":"levelo_inurba_marseille","lat":43.295748,"lon":5.37522,"is_reserved":false,"is_disabled":false,"rental_uris":{"android":"levelo://app?vid=a81c653f-20f2-4eae-a72d-be32f55e98f6","ios":"levelo://app?vid=a81c653f-20f2-4eae-a72d-be32f55e98f6"},"vehicle_type_id":"4","last_reported":1712398061,"current_range_meters":24800,"station_id":"ce4bgh92rcd13ifvqb50","pricing_plan_id":"cebpf4jnsgd1na2vs0mg"},{"bike_id":"89b7b0c7-3cc7-4812-a869-6cf52dadd75b","system_id":"levelo_inurba_marseille","lat":43.29791,"lon":5.38118,"is_reserved":false,"is_disabled":false,"rental_uris":{"android":"levelo://app?vid=89b7b0c7-3cc7-4812-a869-6cf52dadd75b","ios":"levelo://app?vid=89b7b0c7-3cc7-4812-a869-6cf52dadd75b"},"vehicle_type_id":"4","last_reported":1712398061,"current_range_meters":18000,"station_id":"ce4bgip2rcd13ifvqbb0","pricing_plan_id":"cebpf4jnsgd1na2vs0mg"},{"bike_id":"bf6d86c9-ac30-416a-baca-1eb24f07f40a","system_id":"levelo_inurba_marseille","lat":43.296263,"lon":5.377094,"is_reserved":false,"is_disabled":false,"rental_uris":{"android":"levelo://app?vid=bf6d86c9-ac30-416a-baca-1eb24f07f40a","ios":"levelo://app?vid=bf6d86c9-ac30-416a-baca-1eb24f07f40a"},"vehicle_type_id":"4","last_reported":1712398061,"current_range_meters":5600,"station_id":"ce4bgi92rcd13ifvqb90","pricing_plan_id":"cebpf4jnsgd1na2vs0mg"},{"bike_id":"a76f3143-5566-425d-9b73-3450d75e7e76","system_id":"levelo_inurba_marseille","lat":43.296263,"lon":5.377094,"is_reserved":false,"is_disabled":false,"rental_uris":{"android":"levelo://app?vid=a76f3143-5566-425d-9b73-3450d75e7e76","ios":"levelo://app?vid=a76f3143-5566-425d-9b73-3450d75e7e76"},"vehicle_type_id":"4","last_reported":1712398061,"current_range_meters":29600,"station_id":"ce4bgi92rcd13ifvqb90","pricing_plan_id":"cebpf4jnsgd1na2vs0mg"},{"bike_id":"c472addb-d201-4327-9a16-0b669b260350","system_id":"levelo_inurba_marseille","lat":43.29788,"lon":5.381378,"is_reserved":false,"is_disabled":false,"rental_uris":{"android":"levelo://app?vid=c472addb-d201-4327-9a16-0b669b260350","ios":"levelo://app?vid=c472addb-d201-4327-9a16-0b669b260350"},"vehicle_type_id":"4","last_reported":1712398061,"current_range_meters":26400,"station_id":"ce4bgip2rcd13ifvqbb0","pricing_plan_id":"cebpf4jnsgd1na2vs0mg"},{"bike_id":"3cb8bf5a-9702-4ee7-a3f1-b34ff990c0f3","system_id":"levelo_inurba_marseille","lat":43.304274,"lon":5.388873,"is_reserved":false,"is_disabled":false,"rental_uris":{"android":"levelo://app?vid=3cb8bf5a-9702-4ee7-a3f1-b34ff990c0f3","ios":"levelo://app?vid=3cb8bf5a-9702-4ee7-a3f1-b34ff990c0f3"},"vehicle_type_id":"4","last_reported":1712398061,"current_range_meters":13200,"station_id":"ce4bgk12rcd13ifvqbi0","pricing_plan_id":"cebpf4jnsgd1na2vs0mg"},{"bike_id":"8afc7e16-4cfb-4765-8edb-c9ada45cae55","system_id":"levelo_inurba_marseille","lat":43.297871,"lon":5.381372,"is_reserved":false,"is_disabled":false,"rental_uris":{"android":"levelo://app?vid=8afc7e16-4cfb-4765-8edb-c9ada45cae55","ios":"levelo://app?vid=8afc7e16-4cfb-4765-8edb-c9ada45cae55"},"vehicle_type_id":"4","last_reported":1712398061,"current_range_meters":19200,"station_id":"ce4bgip2rcd13ifvqbb0","pricing_plan_id":"cebpf4jnsgd1na2vs0mg"},{"bike_id":"474fd355-0a33-4e23-abe2-c0837334410b","system_id":"levelo_inurba_marseille","lat":43.296277,"lon":5.377108,"is_reserved":false,"is_disabled":false,"rental_uris":{"android":"levelo://app?vid=474fd355-0a33-4e23-abe2-c0837334410b","ios":"levelo://app?vid=474fd355-0a33-4e23-abe2-c0837334410b"},"vehicle_type_id":"4","last_reported":1712398061,"current_range_meters":0,"station_id":"ce4bgi92rcd13ifvqb90","pricing_plan_id":"cebpf4jnsgd1na2vs0mg"},{"bike_id":"ff3605fb-7672-4e59-87dc-05e10c7f17af","system_id":"levelo_inurba_marseille","lat":43.296277,"lon":5.377108,"is_reserved":false,"is_disabled":false,"rental_uris":{"android":"levelo://app?vid=ff3605fb-7672-4e59-87dc-05e10c7f17af","ios":"levelo://app?vid=ff3605fb-7672-4e59-87dc-05e10c7f17af"},"vehicle_type_id":"4","last_reported":1712398061,"current_range_meters":26400,"station_id":"ce4bgi92rcd13ifvqb90","pricing_plan_id":"cebpf4jnsgd1na2vs0mg"},{"bike_id":"eda5f0ce-a1d0-4d85-ba64-0dd135d9d8ae","system_id":"levelo_inurba_marseille","lat":43.299717,"lon":5.384845,"is_reserved":false,"is_disabled":false,"rental_uris":{"android":"levelo://app?vid=eda5f0ce-a1d0-4d85-ba64-0dd135d9d8ae","ios":"levelo://app?vid=eda5f0ce-a1d0-4d85-ba64-0dd135d9d8ae"},"vehicle_type_id":"4","last_reported":1712398061,"current_range_meters":400,"station_id":"ce4bgj92rcd13ifvqbd0","pricing_plan_id":"cebpf4jnsgd1na2vs0mg"},{"bike_id":"1f7d89db-74ed-4098-a649-391c83534f0d","system_id":"levelo_inurba_marseille","lat":43.295279,"lon":5.375048,"is_reserved":false,"is_disabled":false,"rental_uris":{"android":"levelo://app?vid=1f7d89db-74ed-4098-a649-391c83534f0d","ios":"levelo://app?vid=1f7d89db-74ed-4098-a649-391c83534f0d"},"vehicle_type_id":"4","last_reported":1712398061,"current_range_meters":13600,"station_id":"ce4bgkp2rcd13ifvqbmg","pricing_plan_id":"cebpf4jnsgd1na2vs0mg"},{"bike_id":"90ddd36e-4ebb-46ac-92ea-9dda248d1faa","system_id":"levelo_inurba_marseille","lat":43.299727,"lon":5.384915,"is_reserved":false,"is_disabled":false,"rental_uris":{"android":"levelo://app?vid=90ddd36e-4ebb-46ac-92ea-9dda248d1faa","ios":"levelo://app?vid=90ddd36e-4ebb-46ac-92ea-9dda248d1faa"},"vehicle_type_id":"4","last_reported":1712398061,"current_range_meters":24400,"station_id":"ce4bgj92rcd13ifvqbd0","pricing_plan_id":"cebpf4jnsgd1na2vs0mg"},{"bike_id":"11877806-6c9d-4c1a-a6c7-19560ab787bd","system_id":"levelo_inurba_marseille","lat":43.295279,"lon":5.375048,"is_reserved":false,"is_disabled":false,"rental_uris":{"android":"levelo://app?vid=11877806-6c9d-4c1a-a6c7-19560ab787bd","ios":"levelo://app?vid=11877806-6c9d-4c1a-a6c7-19560ab787bd"},"vehicle_type_id":"4","last_reported":1712398061,"current_range_meters":6400,"station_id":"ce4bgkp2rcd13ifvqbmg","pricing_plan_id":"cebpf4jnsgd1na2vs0mg"},{"bike_id":"137b2540-b48f-4e7a-a05c-f0b8730f3ae9","system_id":"levelo_inurba_marseille","lat":43.295279,"lon":5.375048,"is_reserved":false,"is_disabled":false,"rental_uris":{"android":"levelo://app?vid=137b2540-b48f-4e7a-a05c-f0b8730f3ae9","ios":"levelo://app?vid=137b2540-b48f-4e7a-a05c-f0b8730f3ae9"},"vehicle_type_id":"4","last_reported":1712398061,"current_range_meters":12400,"station_id":"ce4bgkp2rcd13ifvqbmg","pricing_plan_id":"cebpf4jnsgd1na2vs0mg"},{"bike_id":"987d0676-a1cb-45c3-ab53-3afb80b2673b","system_id":"levelo_inurba_marseille","lat":43.3236,"lon":5.38877,"is_reserved":false,"is_disabled":false,"rental_uris":{"android":"levelo://app?vid=987d0676-a1cb-45c3-ab53-3afb80b2673b","ios":"levelo://app?vid=987d0676-a1cb-45c3-ab53-3afb80b2673b"},"vehicle_type_id":"4","last_reported":1712398061,"current_range_meters":8800,"station_id":"ce4bhqp2rcd13ifvqhog","pricing_plan_id":"cebpf4jnsgd1na2vs0mg"},{"bike_id":"6d8769bb-1db6-4d70-bcd3-ab8ccccf851e","system_id":"levelo_inurba_marseille","lat":43.32359,"lon":5.38881,"is_reserved":false,"is_disabled":false,"rental_uris":{"android":"levelo://app?vid=6d8769bb-1db6-4d70-bcd3-ab8ccccf851e","ios":"levelo://app?vid=6d8769bb-1db6-4d70-bcd3-ab8ccccf851e"},"vehicle_type_id":"4","last_reported":1712398061,"current_range_meters":14000,"station_id":"ce4bhqp2rcd13ifvqhog","pricing_plan_id":"cebpf4jnsgd1na2vs0mg"},{"bike_id":"ef95e66e-e894-4c47-af3b-a3b6eb491c17","system_id":"levelo_inurba_marseille","lat":43.323593,"lon":5.388825,"is_reserved":false,"is_disabled":false,"rental_uris":{"android":"levelo://app?vid=ef95e66e-e894-4c47-af3b-a3b6eb491c17","ios":"levelo://app?vid=ef95e66e-e894-4c47-af3b-a3b6eb491c17"},"vehicle_type_id":"4","last_reported":1712398061,"current_range_meters":31200,"station_id":"ce4bhqp2rcd13ifvqhog","pricing_plan_id":"cebpf4jnsgd1na2vs0mg"},{"bike_id":"3689cdca-7876-43fb-953b-57d2b65b0a2d","system_id":"levelo_inurba_marseille","lat":43.323637,"lon":5.388804,"is_reserved":false,"is_disabled":false,"rental_uris":{"android":"levelo://app?vid=3689cdca-7876-43fb-953b-57d2b65b0a2d","ios":"levelo://app?vid=3689cdca-7876-43fb-953b-57d2b65b0a2d"},"vehicle_type_id":"4","last_reported":1712398061,"current_range_meters":8800,"station_id":"ce4bhqp2rcd13ifvqhog","pricing_plan_id":"cebpf4jnsgd1na2vs0mg"},{"bike_id":"82ffb106-2f33-4466-87f2-62f79a6f7e84","system_id":"levelo_inurba_marseille","lat":43.32359,"lon":5.38886,"is_reserved":false,"is_disabled":false,"rental_uris":{"android":"levelo://app?vid=82ffb106-2f33-4466-87f2-62f79a6f7e84","ios":"levelo://app?vid=82ffb106-2f33-4466-87f2-62f79a6f7e84"},"vehicle_type_id":"4","last_reported":1712398061,"current_range_meters":9200,"station_id":"ce4bhqp2rcd13ifvqhog","pricing_plan_id":"cebpf4jnsgd1na2vs0mg"},{"bike_id":"ca489e1a-76bb-408d-a414-6afa997460b0","system_id":"levelo_inurba_marseille","lat":43.32363,"lon":5.38883,"is_reserved":false,"is_disabled":false,"rental_uris":{"android":"levelo://app?vid=ca489e1a-76bb-408d-a414-6afa997460b0","ios":"levelo://app?vid=ca489e1a-76bb-408d-a414-6afa997460b0"},"vehicle_type_id":"4","last_reported":1712398061,"current_range_meters":31200,"station_id":"ce4bhqp2rcd13ifvqhog","pricing_plan_id":"cebpf4jnsgd1na2vs0mg"},{"bike_id":"19a778c6-84de-43b4-9ee5-617e57525e2c","system_id":"levelo_inurba_marseille","lat":43.323581,"lon":5.388878,"is_reserved":false,"is_disabled":false,"rental_uris":{"android":"levelo://app?vid=19a778c6-84de-43b4-9ee5-617e57525e2c","ios":"levelo://app?vid=19a778c6-84de-43b4-9ee5-617e57525e2c"},"vehicle_type_id":"4","last_reported":1712398061,"current_range_meters":30400,"station_id":"ce4bhqp2rcd13ifvqhog","pricing_plan_id":"cebpf4jnsgd1na2vs0mg"},{"bike_id":"c7c8d46c-5a4a-4cca-ac41-95e7db9cc197","system_id":"levelo_inurba_marseille","lat":43.323626,"lon":5.388837,"is_reserved":false,"is_disabled":false,"rental_uris":{"android":"levelo://app?vid=c7c8d46c-5a4a-4cca-ac41-95e7db9cc197","ios":"levelo://app?vid=c7c8d46c-5a4a-4cca-ac41-95e7db9cc197"},"vehicle_type_id":"4","last_reported":1712398061,"current_range_meters":29600,"station_id":"ce4bhqp2rcd13ifvqhog","pricing_plan_id":"cebpf4jnsgd1na2vs0mg"},{"bike_id":"941a5afb-594d-47ec-8c61-fec50f33c0ee","system_id":"levelo_inurba_marseille","lat":43.32364,"lon":5.38884,"is_reserved":false,"is_disabled":false,"rental_uris":{"android":"levelo://app?vid=941a5afb-594d-47ec-8c61-fec50f33c0ee","ios":"levelo://app?vid=941a5afb-594d-47ec-8c61-fec50f33c0ee"},"vehicle_type_id":"4","last_reported":1712398061,"current_range_meters":29600,"station_id":"ce4bhqp2rcd13ifvqhog","pricing_plan_id":"cebpf4jnsgd1na2vs0mg"},{"bike_id":"cd93fb89-8201-4e6f-a051-31d7e592475f","system_id":"levelo_inurba_marseille","lat":43.323621,"lon":5.388889,"is_reserved":false,"is_disabled":false,"rental_uris":{"android":"levelo://app?vid=cd93fb89-8201-4e6f-a051-31d7e592475f","ios":"levelo://app?vid=cd93fb89-8201-4e6f-a051-31d7e592475f"},"vehicle_type_id":"4","last_reported":1712398061,"current_range_meters":17600,"station_id":"ce4bhqp2rcd13ifvqhog","pricing_plan_id":"cebpf4jnsgd1na2vs0mg"},