{"last_updated":1746764085,"ttl":60,"version":"2.2","data":{"bikes":[{"bike_id":"36671980-e086-4a5e-ba83-d6788a761960","system_id":"levelo_inurba_marseille","lat":43.24174,"lon":5.39727,"is_reserved":false,"is_disabled":false,"rental_uris":{"android":"levelo://app?vid=36671980-e086-4a5e-ba83-d6788a761960","ios":"levelo://app?vid=36671980-e086-4a5e-ba83-d6788a761960"},"vehicle_type_id":"4","last_reported":1746764085,"current_range_meters":2800,"station_id":"ce4bhn12rcd13ifvqgpg","pricing_plan_id":"cebpf4jnsgd1na2vs0mg"},{"bike_id":"7bc14fc7-e7b2-4f2d-afcc-5a98aa32bd1b","system_id":"levelo_inurba_marseille","lat":43.308042,"lon":5.381598,"is_reserved":false,"is_disabled":true,"rental_uris":{"android":"levelo://app?vid=7bc14fc7-e7b2-4f2d-afcc-5a98aa32bd1b","ios":"levelo://app?vid=7bc14fc7-e7b2-4f2d-afcc-5a98aa32bd1b"},"vehicle_type_id":"4","last_reported":1746764085,"current_range_meters":2800,"station_id":"ce4bgt12rcd13ifvqce0","pricing_plan_id":"cebpf4jnsgd1na2vs0mg"},{"bike_id":"d644e962-8059-4f14-a976-a02517b9ba1a","system_id":"levelo_inurba_marseille","lat":43.26947,"lon":5.3864,"is_reserved":false,"is_disabled":false,"rental_uris":{"android":"levelo://app?vid=d644e962-8059-4f14-a976-a02517b9ba1a","ios":"levelo://app?vid=d644e962-8059-4f14-a976-a02517b9ba1a"},"vehicle_type_id":"4","last_reported":1746764085,"current_range_meters":3200,"station_id":"ce4bhh92rcd13ifvqfh0","pricing_plan_id":"cebpf4jnsgd1na2vs0mg"},{"bike_id":"4d677a8d-2ed3-425d-b2fe-6f1e2ecc1756","system_id":"levelo_inurba_marseille","lat":43.27934,"lon":5.4104,"is_reserved":false,"is_disabled":false,"rental_uris":{"android":"levelo://app?vid=4d677a8d-2ed3-425d-b2fe-6f1e2ecc1756","ios":"levelo://app?vid=4d677a8d-2ed3-425d-b2fe-6f1e2ecc1756"},"vehicle_type_id":"4","last_reported":1746764085,"current_range_meters":3600,"station_id":"ce4bhnp2rcd13ifvqh0g","pricing_plan_id":"cebpf4jnsgd1na2vs0mg"},{"bike_id":"14e638c3-6ba0-4ad0-8ab0-153f53fa1fbe","system_id":"levelo_inurba_marseille","lat":43.22919,"lon":5.353823,"is_reserved":false,"is_disabled":false,"rental_uris":{"android":"levelo://app?vid=14e638c3-6ba0-4ad0-8ab0-153f53fa1fbe","ios":"levelo://app?vid=14e638c3-6ba0-4ad0-8ab0-153f53fa1fbe"},"vehicle_type_id":"4","last_reported":1746764085,"current_range_meters":4000,"station_id":"cpo3532slgdg3j2ikp40","pricing_plan_id":"cebpf4jnsgd1na2vs0mg"},{"bike_id":"472e3c1a-d6e1-4dbb-b1ce-cd54ea716381","system_id":"levelo_inurba_marseille","lat":43.245876,"lon":5.401816,"is_reserved":false,"is_disabled":false,"rental_uris":{"android":"levelo://app?vid=472e3c1a-d6e1-4dbb-b1ce-cd54ea716381","ios":"levelo://app?vid=472e3c1a-d6e1-4dbb-b1ce-cd54ea716381"},"vehicle_type_id":"4","last_reported":1746764085,"current_range_meters":4000,"station_id":"","pricing_plan_id":"cebpf4jnsgd1na2vs0mg"},{"bike_id":"2c71efa8-6cc2-421a-b5c5-0d69dbea440e","system_id":"levelo_inurba_marseille","lat":43.28338,"lon":5.38103,"is_reserved":false,"is_disabled":false,"rental_uris":{"android":"levelo://app?vid=2c71efa8-6cc2-421a-b5c5-0d69dbea440e","ios":"levelo://app?vid=2c71efa8-6cc2-421a-b5c5-0d69dbea440e"},"vehicle_type_id":"4","last_reported":1746764085,"current_range_meters":4000,"station_id":"ce4bh412rcd13ifvqdr0","pricing_plan_id":"cebpf4jnsgd1na2vs0mg"},{"bike_id":"87566af3-ff08-4ceb-83c6-0614d0d24b87","system_id":"levelo_inurba_marseille","lat":43.28599,"lon":5.36772,"is_reserved":false,"is_disabled":false,"rental_uris":{"android":"levelo://app?vid=87566af3-ff08-4ceb-83c6-0614d0d24b87","ios":"levelo://app?vid=87566af3-ff08-4ceb-83c6-0614d0d24b87"},"vehicle_type_id":"4","last_reported":1746764085,"current_range_meters":4400,"station_id":"","pricing_plan_id":"cebpf4jnsgd1na2vs0mg"},{"bike_id":"30a57150-f7d3-44ff-a719-985e18fc9a3a","system_id":"levelo_inurba_marseille","lat":43.31111,"lon":5.37769,"is_reserved":false,"is_disabled":true,"rental_uris":{"android":"levelo://app?vid=30a57150-f7d3-44ff-a719-985e18fc9a3a","ios":"levelo://app?vid=30a57150-f7d3-44ff-a719-985e18fc9a3a"},"vehicle_type_id":"4","last_reported":1746764085,"current_range_meters":5600,"station_id":"ce4bgt92rcd13ifvqcg0","pricing_plan_id":"cebpf4jnsgd1na2vs0mg"},{"bike_id":"917cb131-ad6e-47d2-9c14-a703a1181d22","system_id":"levelo_inurba_marseille","lat":43.306535,"lon":5.400895,"is_reserved":false,"is_disabled":false,"rental_uris":{"android":"levelo://app?vid=917cb131-ad6e-47d2-9c14-a703a1181d22","ios":"levelo://app?vid=917cb131-ad6e-47d2-9c14-a703a1181d22"},"vehicle_type_id":"4","last_reported":1746764085,"current_range_meters":5600,"station_id":"ce4bh112rcd13ifvqda0","pricing_plan_id":"cebpf4jnsgd1na2vs0mg"},{"bike_id":"63707718-642f-4e97-990d-b3182e27a6ae","system_id":"levelo_inurba_marseille","lat":43.27488,"lon":5.42446,"is_reserved":false,"is_disabled":false,"rental_uris":{"android":"levelo://app?vid=63707718-642f-4e97-990d-b3182e27a6ae","ios":"levelo://app?vid=63707718-642f-4e97-990d-b3182e27a6ae"},"vehicle_type_id":"4","last_reported":1746764085,"current_range_meters":6000,"station_id":"ce4bhn92rcd13ifvqgrg","pricing_plan_id":"cebpf4jnsgd1na2vs0mg"},{"bike_id":"341f6043-e914-44c4-896b-32102a500281","system_id":"levelo_inurba_marseille","lat":43.315054,"lon":5.372915,"is_reserved":false,"is_disabled":false,"rental_uris":{"android":"levelo://app?vid=341f6043-e914-44c4-896b-32102a500281","ios":"levelo://app?vid=341f6043-e914-44c4-896b-32102a500281"},"vehicle_type_id":"4","last_reported":1746764085,"current_range_meters":6400,"station_id":"ce4bgt12rcd13ifvqcd0","pricing_plan_id":"cebpf4jnsgd1na2vs0mg"},{"bike_id":"c91b378d-26a5-4ed8-99d4-6b3ec43dd75e","system_id":"levelo_inurba_marseille","lat":43.24037,"lon":5.37712,"is_reserved":false,"is_disabled":false,"rental_uris":{"android":"levelo://app?vid=c91b378d-26a5-4ed8-99d4-6b3ec43dd75e","ios":"levelo://app?vid=c91b378d-26a5-4ed8-99d4-6b3ec43dd75e"},"vehicle_type_id":"4","last_reported":1746764085,"current_range_meters":6400,"station_id":"ce4bhnp2rcd13ifvqgvg","pricing_plan_id":"cebpf4jnsgd1na2vs0mg"},{"bike_id":"2759d083-0a3e-4b0f-a11f-0ba0f467904e","system_id":"levelo_inurba_marseille","lat":43.28937,"lon":5.364,"is_reserved":false,"is_disabled":false,"rental_uris":{"android":"levelo://app?vid=2759d083-0a3e-4b0f-a11f-0ba0f467904e","ios":"levelo://app?vid=2759d083-0a3e-4b0f-a11f-0ba0f467904e"},"vehicle_type_id":"4","last_reported":1746764085,"current_range_meters":6400,"station_id":"ce4bhc92rcd13ifvqetg","pricing_plan_id":"cebpf4jnsgd1na2vs0mg"},{"bike_id":"645c5e89-a6ce-4c06-bbaa-31dca4510601","system_id":"levelo_inurba_marseille","lat":43.311225,"lon":5.377665,"is_reserved":false,"is_disabled":false,"rental_uris":{"android":"levelo://app?vid=645c5e89-a6ce-4c06-bbaa-31dca4510601","ios":"levelo://app?vid=645c5e89-a6ce-4c06-bbaa-31dca4510601"},"vehicle_type_id":"4","last_reported":1746764085,"current_range_meters":6400,"station_id":"ce4bgt92rcd13ifvqcg0","pricing_plan_id":"cebpf4jnsgd1na2vs0mg"},{"bike_id":"5dfad28c-5a73-49a4-b933-194b216d533b","system_id":"levelo_inurba_marseille","lat":43.25499,"lon":5.37652,"is_reserved":false,"is_disabled":false,"rental_uris":{"android":"levelo://app?vid=5dfad28c-5a73-49a4-b933-194b216d533b","ios":"levelo://app?vid=5dfad28c-5a73-49a4-b933-194b216d533b"},"vehicle_type_id":"4","last_reported":1746764085,"current_range_meters":6800,"station_id":"","pricing_plan_id":"cebpf4jnsgd1na2vs0mg"},{"bike_id":"b15fe93b-1059-4d75-abd3-040e349ce402","system_id":"levelo_inurba_marseille","lat":43.30098,"lon":5.3699,"is_reserved":false,"is_disabled":false,"rental_uris":{"android":"levelo://app?vid=b15fe93b-1059-4d75-abd3-040e349ce402","ios":"levelo://app?vid=b15fe93b-1059-4d75-abd3-040e349ce402"},"vehicle_type_id":"4","last_reported":1746764085,"current_range_meters":6800,"station_id":"","pricing_plan_id":"cebpf4jnsgd1na2vs0mg"},{"bike_id":"918de318-3a52-4bac-b73c-97bb688fe9ec","system_id":"levelo_inurba_marseille","lat":43.251041,"lon":5.403273,"is_reserved":false,"is_disabled":false,"rental_uris":{"android":"levelo://app?vid=918de318-3a52-4bac-b73c-97bb688fe9ec","ios":"levelo://app?vid=918de318-3a52-4bac-b73c-97bb688fe9ec"},"vehicle_type_id":"4","last_reported":1746764085,"current_range_meters":7200,"station_id":"ce4bhlh2rcd13ifvqgig","pricing_plan_id":"cebpf4jnsgd1na2vs0mg"},{"bike_id":"443bceb1-7e72-4e25-a025-b381171e7a9a","system_id":"levelo_inurba_marseille","lat":43.27916,"lon":5.39591,"is_reserved":false,"is_disabled":false,"rental_uris":{"android":"levelo://app?vid=443bceb1-7e72-4e25-a025-b381171e7a9a","ios":"levelo://app?vid=443bceb1-7e72-4e25-a025-b381171e7a9a"},"vehicle_type_id":"4","last_reported":1746764085,"current_range_meters":7200,"station_id":"ce4bhf92rcd13ifvqf40","pricing_plan_id":"cebpf4jnsgd1na2vs0mg"},{"bike_id":"1d8de8cd-13dc-4c82-8486-ad3c0692640a","system_id":"levelo_inurba_marseille","lat":43.32528,"lon":5.41421,"is_reserved":false,"is_disabled":false,"rental_uris":{"android":"levelo://app?vid=1d8de8cd-13dc-4c82-8486-ad3c0692640a","ios":"levelo://app?vid=1d8de8cd-13dc-4c82-8486-ad3c0692640a"},"vehicle_type_id":"4","last_reported":1746764085,"current_range_meters":7200,"station_id":"ce4bhq12rcd13ifvqhhg","pricing_plan_id":"cebpf4jnsgd1na2vs0mg"},{"bike_id":"1f281ed5-8e05-43ba-b583-cf4e73bd4cb4","system_id":"levelo_inurba_marseille","lat":43.321214,"lon":5.367755,"is_reserved":false,"is_disabled":false,"rental_uris":{"android":"levelo://app?vid=1f281ed5-8e05-43ba-b583-cf4e73bd4cb4","ios":"levelo://app?vid=1f281ed5-8e05-43ba-b583-cf4e73bd4cb4"},"vehicle_type_id":"4","last_reported":1746764085,"current_range_meters":7200,"station_id":"ce4bhrh2rcd13ifvqhug","pricing_plan_id":"cebpf4jnsgd1na2vs0mg"},{"bike_id":"916d67d8-ccd1-41b8-923b-e1ce6259ee20","system_id":"levelo_inurba_marseille","lat":43.307568,"lon":5.374406,"is_reserved":false,"is_disabled":false,"rental_uris":{"android":"levelo://app?vid=916d67d8-ccd1-41b8-923b-e1ce6259ee20","ios":"levelo://app?vid=916d67d8-ccd1-41b8-923b-e1ce6259ee20"},"vehicle_type_id":"4","last_reported":1746764085,"current_range_meters":7200,"station_id":"","pricing_plan_id":"cebpf4jnsgd1na2vs0mg"},{"bike_id":"c43ed3ca-340d-43d7-8ad5-7e6b2386ac59","system_id":"levelo_inurba_marseille","lat":43.298866,"lon":5.436629,"is_reserved":false,"is_disabled":false,"rental_uris":{"android":"levelo://app?vid=c43ed3ca-340d-43d7-8ad5-7e6b2386ac59","ios":"levelo://app?vid=c43ed3ca-340d-43d7-8ad5-7e6b2386ac59"},"vehicle_type_id":"4","last_reported":1746764085,"current_range_meters":7200,"station_id":"ce4bhpp2rcd13ifvqhfg","pricing_plan_id":"cebpf4jnsgd1na2vs0mg"},{"bike_id":"541f5c2f-38eb-4905-bd03-7b08d881795b","system_id":"levelo_inurba_marseille","lat":43.28151,"lon":5.42684,"is_reserved":false,"is_disabled":false,"rental_uris":{"android":"levelo://app?vid=541f5c2f-38eb-4905-bd03-7b08d881795b","ios":"levelo://app?vid=541f5c2f-38eb-4905-bd03-7b08d881795b"},"vehicle_type_id":"4","last_reported":1746764085,"current_range_meters":7200,"station_id":"ce4bhnh2rcd13ifvqgug","pricing_plan_id":"cebpf4jnsgd1na2vs0mg"},{"bike_id":"c70d8d67-a9c3-405e-9429-c7865ef9fe87","system_id":"levelo_inurba_marseille","lat":43.25134,"lon":5.40354,"is_reserved":false,"is_disabled":false,"rental_uris":{"android":"levelo://app?vid=c70d8d67-a9c3-405e-9429-c7865ef9fe87","ios":"levelo://app?vid=c70d8d67-a9c3-405e-9429-c7865ef9fe87"},"vehicle_type_id":"4","last_reported":1746764085,"current_range_meters":7200,"station_id":"ce4bhlh2rcd13ifvqgig","pricing_plan_id":"cebpf4jnsgd1na2vs0mg"},{"bike_id":"00138ee9-dd3d-4b66-85a7-f8ff69dd7e90","system_id":"levelo_inurba_marseille","lat":43.28491,"lon":5.38559,"is_reserved":false,"is_disabled":false,"rental_uris":{"android":"levelo://app?vid=00138ee9-dd3d-4b66-85a7-f8ff69dd7e90","ios":"levelo://app?vid=00138ee9-dd3d-4b66-85a7-f8ff69dd7e90"},"vehicle_type_id":"4","last_reported":1746764085,"current_range_meters":7200,"station_id":"ce4bh8p2rcd13ifvqeb0","pricing_plan_id":"cebpf4jnsgd1na2vs0mg"},{"bike_id":"6d27cd6b-8227-4167-83ab-3a9b25df353a","system_id":"levelo_inurba_marseille","lat":43.309442,"lon":5.390323,"is_reserved":false,"is_disabled":false,"rental_uris":{"android":"levelo://app?vid=6d27cd6b-8227-4167-83ab-3a9b25df353a","ios":"levelo://app?vid=6d27cd6b-8227-4167-83ab-3a9b25df353a"},"vehicle_type_id":"4","last_reported":1746764085,"current_range_meters":7200,"station_id":"ce4bgup2rcd13ifvqco0","pricing_plan_id":"cebpf4jnsgd1na2vs0mg"},{"bike_id":"3380be41-5609-4f83-92ea-376897d27f4f","system_id":"levelo_inurba_marseille","lat":43.231881,"lon":5.399929,"is_reserved":false,"is_disabled":false,"rental_uris":{"android":"levelo://app?vid=3380be41-5609-4f83-92ea-376897d27f4f","ios":"levelo://app?vid=3380be41-5609-4f83-92ea-376897d27f4f"},"vehicle_type_id":"4","last_reported":1746764085,"current_range_meters":7200,"station_id":"ce4bhn12rcd13ifvqgqg","pricing_plan_id":"cebpf4jnsgd1na2vs0mg"},{"bike_id":"94548bbc-0565-40b2-9e19-d4d8f4a3e175","system_id":"levelo_inurba_marseille","lat":43.23205,"lon":5.35584,"is_reserved":false,"is_disabled":true,"rental_uris":{"android":"levelo://app?vid=94548bbc-0565-40b2-9e19-d4d8f4a3e175","ios":"levelo://app?vid=94548bbc-0565-40b2-9e19-d4d8f4a3e175"},"vehicle_type_id":"4","last_reported":1746764085,"current_range_meters":8000,"station_id":"ce4bhu92rcd13ifvqi70","pricing_plan_id":"cebpf4jnsgd1na2vs0mg"},{"bike_id":"8b698a34-fbf5-484e-9ecb-26e22393bc90","system_id":"levelo_inurba_marseille","lat":43.33021,"lon":5.39066,"is_reserved":false,"is_disabled":false,"rental_uris":{"android":"levelo://app?vid=8b698a34-fbf5-484e-9ecb-26e22393bc90","ios":"levelo://app?vid=8b698a34-fbf5-484e-9ecb-26e22393bc90"},"vehicle_type_id":"4","last_reported":1746764085,"current_range_meters":8000,"station_id":"ce4bhr92rcd13ifvqhrg","pricing_plan_id":"cebpf4jnsgd1na2vs0mg"},{"bike_id":"1cae05bf-d182-443d-b87f-a5960e2c11f1","system_id":"levelo_inurba_marseille","lat":43.28929,"lon":5.363907,"is_reserved":false,"is_disabled":false,"rental_uris":{"android":"levelo://app?vid=1cae05bf-d182-443d-b87f-a5960e2c11f1","ios":"levelo://app?vid=1cae05bf-d182-443d-b87f-a5960e2c11f1"},"vehicle_type_id":"4","last_reported":1746764085,"current_range_meters":8000,"station_id":"ce4bhc92rcd13ifvqetg","pricing_plan_id":"cebpf4jnsgd1na2vs0mg"},{"bike_id":"11f2f90e-07ea-45fc-bea7-59b140809475","system_id":"levelo_inurba_marseille","lat":43.284808,"lon":5.385828,"is_reserved":false,"is_disabled":false,"rental_uris":{"android":"levelo://app?vid=11f2f90e-07ea-45fc-bea7-59b140809475","ios":"levelo://app?vid=11f2f90e-07ea-45fc-bea7-59b140809475"},"vehicle_type_id":"4","last_reported":1746764085,"current_range_meters":8000,"station_id":"ce4bh8p2rcd13ifvqeb0","pricing_plan_id":"cebpf4jnsgd1na2vs0mg"},{"bike_id":"c47b74ce-171d-4530-bd8d-ae8bcce195be","system_id":"levelo_inurba_marseille","lat":43.311729,"lon":5.38713,"is_reserved":false,"is_disabled":false,"rental_uris":{"android":"levelo://app?vid=c47b74ce-171d-4530-bd8d-ae8bcce195be","ios":"levelo://app?vid=c47b74ce-171d-4530-bd8d-ae8bcce195be"},"vehicle_type_id":"4","last_reported":1746764085,"current_range_meters":8400,"station_id":"ce4bgv12rcd13ifvqcp0","pricing_plan_id":"cebpf4jnsgd1na2vs0mg"},{"bike_id":"2a5bcdb2-8b4a-41c5-a1ba-387438d1e70b","system_id":"levelo_inurba_marseille","lat":43.30887,"lon":5.37212,"is_reserved":false,"is_disabled":false,"rental_uris":{"android":"levelo://app?vid=2a5bcdb2-8b4a-41c5-a1ba-387438d1e70b","ios":"levelo://app?vid=2a5bcdb2-8b4a-41c5-a1ba-387438d1e70b"},"vehicle_type_id":"4","last_reported":1746764085,"current_range_meters":8400,"station_id":"ce4bguh2rcd13ifvqckg","pricing_plan_id":"cebpf4jnsgd1na2vs0mg"},{"bike_id":"d1a0602d-cc96-4d4d-8203-9fc9dc600050","system_id":"levelo_inurba_marseille","lat":43.287029,"lon":5.399811,"is_reserved":false,"is_disabled":false,"rental_uris":{"android":"levelo://app?vid=d1a0602d-cc96-4d4d-8203-9fc9dc600050","ios":"levelo://app?vid=d1a0602d-cc96-4d4d-8203-9fc9dc600050"},"vehicle_type_id":"4","last_reported":1746764085,"current_range_meters":8400,"station_id":"ce4bho92rcd13ifvqh3g","pricing_plan_id":"cebpf4jnsgd1na2vs0mg"},{"bike_id":"35f36335-51c7-48bf-a321-437e1aea77da","system_id":"levelo_inurba_marseille","lat":43.32352,"lon":5.36741,"is_reserved":false,"is_disabled":false,"rental_uris":{"android":"levelo://app?vid=35f36335-51c7-48bf-a321-437e1aea77da","ios":"levelo://app?vid=35f36335-51c7-48bf-a321-437e1aea77da"},"vehicle_type_id":"4","last_reported":1746764085,"current_range_meters":8400,"station_id":"ce4bhsh2rcd13ifvqi2g","pricing_plan_id":"cebpf4jnsgd1na2vs0mg"},{"bike_id":"4ae7a83c-4508-4420-bdfc-fc011c19b67a","system_id":"levelo_inurba_marseille","lat":43.33746,"lon":5.3749,"is_reserved":false,"is_disabled":false,"rental_uris":{"android":"levelo://app?vid=4ae7a83c-4508-4420-bdfc-fc011c19b67a","ios":"levelo://app?vid=4ae7a83c-4508-4420-bdfc-fc011c19b67a"},"vehicle_type_id":"4","last_reported":1746764085,"current_range_meters":8400,"station_id":"","pricing_plan_id":"cebpf4jnsgd1na2vs0mg"},{"bike_id":"f3d8504d-b3fe-48d0-b39a-930e9b04517b","system_id":"levelo_inurba_marseille","lat":43.33607,"lon":5.41002,"is_reserved":false,"is_disabled":false,"rental_uris":{"android":"levelo://app?vid=f3d8504d-b3fe-48d0-b39a-930e9b04517b","ios":"levelo://app?vid=f3d8504d-b3fe-48d0-b39a-930e9b04517b"},"vehicle_type_id":"4","last_reported":1746764085,"current_range_meters":8400,"station_id":"ce4bhqh2rcd13ifvqhmg","pricing_plan_id":"cebpf4jnsgd1na2vs0mg"},{"bike_id":"fd991be1-d3a7-48e9-af71-ab1504a07e0f","system_id":"levelo_inurba_marseille","lat":43.231908,"lon":5.399884,"is_reserved":false,"is_disabled":false,"rental_uris":{"android":"levelo://app?vid=fd991be1-d3a7-48e9-af71-ab1504a07e0f","ios":"levelo://app?vid=fd991be1-d3a7-48e9-af71-ab1504a07e0f"},"vehicle_type_id":"4","last_reported":1746764085,"current_range_meters":8400,"station_id":"ce4bhn12rcd13ifvqgqg","pricing_plan_id":"cebpf4jnsgd1na2vs0mg"},{"bike_id":"6fbfffee-b2a7-4e9e-b262-ecd5bb698acd","system_id":"levelo_inurba_marseille","lat":43.31058,"lon":5.37708,"is_reserved":false,"is_disabled":false,"rental_uris":{"android":"levelo://app?vid=6fbfffee-b2a7-4e9e-b262-ecd5bb698acd","ios":"levelo://app?vid=6fbfffee-b2a7-4e9e-b262-ecd5bb698acd"},"vehicle_type_id":"4","last_reported":1746764085,"current_range_meters":8400,"station_id":"","pricing_plan_id":"cebpf4jnsgd1na2vs0mg"},{"bike_id":"83df5a3b-bee4-43c2-ab66-5cdd05e18bbc","system_id":"levelo_inurba_marseille","lat":43.292695,"lon":5.368542,"is_reserved":false,"is_disabled":true,"rental_uris":{"android":"levelo://app?vid=83df5a3b-bee4-43c2-ab66-5cdd05e18bbc","ios":"levelo://app?vid=83df5a3b-bee4-43c2-ab66-5cdd05e18bbc"},"vehicle_type_id":"4","last_reported":1746764085,"current_range_meters":8800,"station_id":"ce4bhbp2rcd13ifvqesg","pricing_plan_id":"cebpf4jnsgd1na2vs0mg"},{"bike_id":"35e8d545-8f0a-4b08-81d3-1acb9b10f3ac","system_id":"levelo_inurba_marseille","lat":43.21748,"lon":5.346017,"is_reserved":false,"is_disabled":false,"rental_uris":{"android":"levelo://app?vid=35e8d545-8f0a-4b08-81d3-1acb9b10f3ac","ios":"levelo://app?vid=35e8d545-8f0a-4b08-81d3-1acb9b10f3ac"},"vehicle_type_id":"4","last_reported":1746764085,"current_range_meters":8800,"station_id":"","pricing_plan_id":"cebpf4jnsgd1na2vs0mg"},{"bike_id":"4b58223e-e352-4d90-a120-1119238b706d","system_id":"levelo_inurba_marseille","lat":43.28517,"lon":5.39493,"is_reserved":false,"is_disabled":false,"rental_uris":{"android":"levelo://app?vid=4b58223e-e352-4d90-a120-1119238b706d","ios":"levelo://app?vid=4b58223e-e352-4d90-a120-1119238b706d"},"vehicle_type_id":"4","last_reported":1746764085,"current_range_meters":8800,"station_id":"","pricing_plan_id":"cebpf4jnsgd1na2vs0mg"},{"bike_id":"9025039b-a2a2-4b0b-b4f1-0558ab588f10","system_id":"levelo_inurba_marseille","lat":43.31087,"lon":5.37755,"is_reserved":false,"is_disabled":false,"rental_uris":{"android":"levelo://app?vid=9025039b-a2a2-4b0b-b4f1-0558ab588f10","ios":"levelo://app?vid=9025039b-a2a2-4b0b-b4f1-0558ab588f10"},"vehicle_type_id":"4","last_reported":1746764085,"current_range_meters":9200,"station_id":"ce4bgt92rcd13ifvqcg0","pricing_plan_id":"cebpf4jnsgd1na2vs0mg"},{"bike_id":"4554afe8-0437-4195-b7c2-ea4af52913b6","system_id":"levelo_inurba_marseille","lat":43.279479,"lon":5.387351,"is_reserved":false,"is_disabled":false,"rental_uris":{"android":"levelo://app?vid=4554afe8-0437-4195-b7c2-ea4af52913b6","ios":"levelo://app?vid=4554afe8-0437-4195-b7c2-ea4af52913b6"},"vehicle_type_id":"4","last_reported":1746764085,"current_range_meters":9200,"station_id":"ce4bhg12rcd13ifvqf80","pricing_plan_id":"cebpf4jnsgd1na2vs0mg"},{"bike_id":"3311c1f1-091b-4394-846c-138bab96fa5d","system_id":"levelo_inurba_marseille","lat":43.278991,"lon":5.380088,"is_reserved":false,"is_disabled":false,"rental_uris":{"android":"levelo://app?vid=3311c1f1-091b-4394-846c-138bab96fa5d","ios":"levelo://app?vid=3311c1f1-091b-4394-846c-138bab96fa5d"},"vehicle_type_id":"4","last_reported":1746764085,"current_range_meters":9200,"station_id":"ce4bhf92rcd13ifvqf50","pricing_plan_id":"cebpf4jnsgd1na2vs0mg"},{"bike_id":"dc29d612-501b-40db-8a9b-248c02a9bded","system_id":"levelo_inurba_marseille","lat":43.30233,"lon":5.40074,"is_reserved":false,"is_disabled":false,"rental_uris":{"android":"levelo://app?vid=dc29d612-501b-40db-8a9b-248c02a9bded","ios":"levelo://app?vid=dc29d612-501b-40db-8a9b-248c02a9bded"},"vehicle_type_id":"4","last_reported":1746764085,"current_range_meters":9200,"station_id":"ce4bgvh2rcd13ifvqcs0","pricing_plan_id":"cebpf4jnsgd1na2vs0mg"},{"bike_id":"830dcc65-f4a2-400f-97e2-531187504587","system_id":"levelo_inurba_marseille","lat":43.28084,"lon":5.39656,"is_reserved":false,"is_disabled":false,"rental_uris":{"android":"levelo://app?vid=830dcc65-f4a2-400f-97e2-531187504587","ios":"levelo://app?vid=830dcc65-f4a2-400f-97e2-531187504587"},"vehicle_type_id":"4","last_reported":1746764085,"current_range_meters":9200,"station_id":"ce4bho12rcd13ifvqh2g","pricing_plan_id":"cebpf4jnsgd1na2vs0mg"},{"bike_id":"75c2509f-8afd-4742-bb65-32085eba2c07","system_id":"levelo_inurba_marseille","lat":43.28436,"lon":5.39187,"is_reserved":false,"is_disabled":false,"rental_uris":{"android":"levelo://app?vid=75c2509f-8afd-4742-bb65-32085eba2c07","ios":"levelo://app?vid=75c2509f-8afd-4742-bb65-32085eba2c07"},"vehicle_type_id":"4","last_reported":1746764085,"current_range_meters":9200,"station_id":"ce4bhoh2rcd13ifvqh5g","pricing_plan_id":"cebpf4jnsgd1na2vs0mg"},{"bike_id":"809c8673-c032-46b9-aa07-62c38e26d44e","system_id":"levelo_inurba_marseille","lat":43.25042,"lon":5.38796,"is_reserved":false,"is_disabled":false,"rental_uris":{"android":"levelo://app?vid=809c8673-c032-46b9-aa07-62c38e26d44e","ios":"levelo://app?vid=809c8673-c032-46b9-aa07-62c38e26d44e"},"vehicle_type_id":"4","last_reported":1746764085,"current_range_meters":9600,"station_id":"","pricing_plan_id":"cebpf4jnsgd1na2vs0mg"},{"bike_id":"04126879-3d4b-4ce1-87ef-b85185ba84c6","system_id":"levelo_inurba_marseille","lat":43.2511,"lon":5.40323,"is_reserved":false,"is_disabled":false,"rental_uris":{"android":"levelo://app?vid=04126879-3d4b-4ce1-87ef-b85185ba84c6","ios":"levelo://app?vid=04126879-3d4b-4ce1-87ef-b85185ba84c6"},"vehicle_type_id":"4","last_reported":1746764085,"current_range_meters":9600,"station_id":"ce4bhlh2rcd13ifvqgig","pricing_plan_id":"cebpf4jnsgd1na2vs0mg"},{"bike_id":"0c15ccb4-dd7c-4172-8764-a05afe9d1a34","system_id":"levelo_inurba_marseille","lat":43.289367,"lon":5.366293,"is_reserved":false,"is_disabled":true,"rental_uris":{"android":"levelo://app?vid=0c15ccb4-dd7c-4172-8764-a05afe9d1a34","ios":"levelo://app?vid=0c15ccb4-dd7c-4172-8764-a05afe9d1a34"},"vehicle_type_id":"4","last_reported":1746764085,"current_range_meters":9600,"station_id":"ce4bhap2rcd13ifvqek0","pricing_plan_id":"cebpf4jnsgd1na2vs0mg"},{"bike_id":"caf9033d-5f00-49c3-b1ee-1328b62008dc","system_id":"levelo_inurba_marseille","lat":43.33584,"lon":5.42818,"is_reserved":false,"is_disabled":false,"rental_uris":{"android":"levelo://app?vid=caf9033d-5f00-49c3-b1ee-1328b62008dc","ios":"levelo://app?vid=caf9033d-5f00-49c3-b1ee-1328b62008dc"},"vehicle_type_id":"4","last_reported":1746764085,"current_range_meters":9600,"station_id":"","pricing_plan_id":"cebpf4jnsgd1na2vs0mg"},{"bike_id":"f06404ec-9adf-42eb-b59e-fe87e804efff","system_id":"levelo_inurba_marseille","lat":43.28714,"lon":5.39982,"is_reserved":false,"is_disabled":false,"rental_uris":{"android":"levelo://app?vid=f06404ec-9adf-42eb-b59e-fe87e804efff","ios":"levelo://app?vid=f06404ec-9adf-42eb-b59e-fe87e804efff"},"vehicle_type_id":"4","last_reported":1746764085,"current_range_meters":9600,"station_id":"ce4bho92rcd13ifvqh3g","pricing_plan_id":"cebpf4jnsgd1na2vs0mg"},{"bike_id":"6971f759-8594-489e-a8f6-9153c9a9c438","system_id":"levelo_inurba_marseille","lat":43.276911,"lon":5.419645,"is_reserved":false,"is_disabled":false,"rental_uris":{"android":"levelo://app?vid=6971f759-8594-489e-a8f6-9153c9a9c438","ios":"levelo://app?vid=6971f759-8594-489e-a8f6-9153c9a9c438"},"vehicle_type_id":"4","last_reported":1746764085,"current_range_meters":9600,"station_id":"","pricing_plan_id":"cebpf4jnsgd1na2vs0mg"},{"bike_id":"078b73e9-f808-4663-8ccd-26317deb1160","system_id":"levelo_inurba_marseille","lat":43.27935,"lon":5.41049,"is_reserved":false,"is_disabled":false,"rental_uris":{"android":"levelo://app?vid=078b73e9-f808-4663-8ccd-26317deb1160","ios":"levelo://app?vid=078b73e9-f808-4663-8ccd-26317deb1160"},"vehicle_type_id":"4","last_reported":1746764085,"current_range_meters":9600,"station_id":"ce4bhnp2rcd13ifvqh0g","pricing_plan_id":"cebpf4jnsgd1na2vs0mg"},{"bike_id":"d840b93a-751e-4a17-87e7-e7695655e260","system_id":"levelo_inurba_marseille","lat":43.305882,"lon":5.393425,"is_reserved":false,"is_disabled":false,"rental_uris":{"android":"levelo://app?vid=d840b93a-751e-4a17-87e7-e7695655e260","ios":"levelo://app?vid=d840b93a-751e-4a17-87e7-e7695655e260"},"vehicle_type_id":"4","last_reported":1746764085,"current_range_meters":10000,"station_id":"ce4bh0p2rcd13ifvqd80","pricing_plan_id":"cebpf4jnsgd1na2vs0mg"},{"bike_id":"47bb6f34-9c89-4a6c-b2ec-6a2d3e007f08","system_id":"levelo_inurba_marseille","lat":43.25729,"lon":5.41107,"is_reserved":false,"is_disabled":false,"rental_uris":{"android":"levelo://app?vid=47bb6f34-9c89-4a6c-b2ec-6a2d3e007f08","ios":"levelo://app?vid=47bb6f34-9c89-4a6c-b2ec-6a2d3e007f08"},"vehicle_type_id":"4","last_reported":1746764085,"current_range_meters":10000,"station_id":"ce4bhkp2rcd13ifvqgd0","pricing_plan_id":"cebpf4jnsgd1na2vs0mg"},{"bike_id":"b31a37d4-32bc-4201-9546-3b8be6093d7d","system_id":"levelo_inurba_marseille","lat":43.32375,"lon":5.36758,"is_reserved":false,"is_disabled":false,"rental_uris":{"android":"levelo://app?vid=b31a37d4-32bc-4201-9546-3b8be6093d7d","ios":"levelo://app?vid=b31a37d4-32bc-4201-9546-3b8be6093d7d"},"vehicle_type_id":"4","last_reported":1746764085,"current_range_meters":10000,"station_id":"ce4bhsh2rcd13ifvqi2g","pricing_plan_id":"cebpf4jnsgd1na2vs0mg"},{"bike_id":"812e31b7-42f9-4d63-b220-e99af5c192ed","system_id":"levelo_inurba_marseille","lat":43.31179,"lon":5.41618,"is_reserved":false,"is_disabled":false,"rental_uris":{"android":"levelo://app?vid=812e31b7-42f9-4d63-b220-e99af5c192ed","ios":"levelo://app?vid=812e31b7-42f9-4d63-b220-e99af5c192ed"},"vehicle_type_id":"4","last_reported":1746764085,"current_range_meters":10000,"station_id":"","pricing_plan_id":"cebpf4jnsgd1na2vs0mg"},{"bike_id":"93126291-f22a-443c-8cc3-8510e6bc4581","system_id":"levelo_inurba_marseille","lat":43.25091,"lon":5.39501,"is_reserved":false,"is_disabled":false,"rental_uris":{"android":"levelo://app?vid=93126291-f22a-443c-8cc3-8510e6bc4581","ios":"levelo://app?vid=93126291-f22a-443c-8cc3-8510e6bc4581"},"vehicle_type_id":"4","last_reported":1746764085,"current_range_meters":10800,"station_id":"ce4bhm12rcd13ifvqgkg","pricing_plan_id":"cebpf4jnsgd1na2vs0mg"},{"bike_id":"caccb556-2ad0-45b8-84b8-819024dd44e6","system_id":"levelo_inurba_marseille","lat":43.297914,"lon":5.367918,"is_reserved":false,"is_disabled":false,"rental_uris":{"android":"levelo://app?vid=caccb556-2ad0-45b8-84b8-819024dd44e6","ios":"levelo://app?vid=caccb556-2ad0-45b8-84b8-819024dd44e6"},"vehicle_type_id":"4","last_reported":1746764085,"current_range_meters":10800,"station_id":"","pricing_plan_id":"cebpf4jnsgd1na2vs0mg"},{"bike_id":"d8faead4-4f81-4144-a15a-184bd736d0e1","system_id":"levelo_inurba_marseille","lat":43.279582,"lon":5.387333,"is_reserved":false,"is_disabled":false,"rental_uris":{"android":"levelo://app?vid=d8faead4-4f81-4144-a15a-184bd736d0e1","ios":"levelo://app?vid=d8faead4-4f81-4144-a15a-184bd736d0e1"},"vehicle_type_id":"4","last_reported":1746764085,"current_range_meters":10800,"station_id":"ce4bhg12rcd13ifvqf80","pricing_plan_id":"cebpf4jnsgd1na2vs0mg"},{"bike_id":"5aaa5d52-7e74-432e-ad89-4c70047ce897","system_id":"levelo_inurba_marseille","lat":43.231877,"lon":5.399939,"is_reserved":false,"is_disabled":false,"rental_uris":{"android":"levelo://app?vid=5aaa5d52-7e74-432e-ad89-4c70047ce897","ios":"levelo://app?vid=5aaa5d52-7e74-432e-ad89-4c70047ce897"},"vehicle_type_id":"4","last_reported":1746764085,"current_range_meters":10800,"station_id":"ce4bhn12rcd13ifvqgqg","pricing_plan_id":"cebpf4jnsgd1na2vs0mg"},{"bike_id":"670b3881-33f6-40e8-b842-7eaf30c6924b","system_id":"levelo_inurba_marseille","lat":43.28426,"lon":5.39194,"is_reserved":false,"is_disabled":false,"rental_uris":{"android":"levelo://app?vid=670b3881-33f6-40e8-b842-7eaf30c6924b","ios":"levelo://app?vid=670b3881-33f6-40e8-b842-7eaf30c6924b"},"vehicle_type_id":"4","last_reported":1746764085,"current_range_meters":10800,"station_id":"ce4bhoh2rcd13ifvqh5g","pricing_plan_id":"cebpf4jnsgd1na2vs0mg"},{"bike_id":"294e5e93-618a-4492-9bac-02c9b5b12a80","system_id":"levelo_inurba_marseille","lat":43.321094,"lon":5.367745,"is_reserved":false,"is_disabled":false,"rental_uris":{"android":"levelo://app?vid=294e5e93-618a-4492-9bac-02c9b5b12a80","ios":"levelo://app?vid=294e5e93-618a-4492-9bac-02c9b5b12a80"},"vehicle_type_id":"4","last_reported":1746764085,"current_range_meters":10800,"station_id":"ce4bhrh2rcd13ifvqhug","pricing_plan_id":"cebpf4jnsgd1na2vs0mg"},{"bike_id":"ff47c92b-db73-42bd-99d4-eeb774bdf3be","system_id":"levelo_inurba_marseille","lat":43.310698,"lon":5.383429,"is_reserved":false,"is_disabled":true,"rental_uris":{"android":"levelo://app?vid=ff47c92b-db73-42bd-99d4-eeb774bdf3be","ios":"levelo://app?vid=ff47c92b-db73-42bd-99d4-eeb774bdf3be"},"vehicle_type_id":"4","last_reported":1746764085,"current_range_meters":10800,"station_id":"ce4bgv92rcd13ifvqcr0","pricing_plan_id":"cebpf4jnsgd1na2vs0mg"},{"bike_id":"a2309e80-b2ba-42c9-9c60-147f0babf9f9","system_id":"levelo_inurba_marseille","lat":43.30835,"lon":5.37041,"is_reserved":false,"is_disabled":false,"rental_uris":{"android":"levelo://app?vid=a2309e80-b2ba-42c9-9c60-147f0babf9f9","ios":"levelo://app?vid=a2309e80-b2ba-42c9-9c60-147f0babf9f9"},"vehicle_type_id":"4","last_reported":1746764085,"current_range_meters":11200,"station_id":"","pricing_plan_id":"cebpf4jnsgd1na2vs0mg"},{"bike_id":"0ac1a0c7-a3ec-4104-b49e-7c4b39c5ee28","system_id":"levelo_inurba_marseille","lat":43.29187,"lon":5.39317,"is_reserved":false,"is_disabled":false,"rental_uris":{"android":"levelo://app?vid=0ac1a0c7-a3ec-4104-b49e-7c4b39c5ee28","ios":"levelo://app?vid=0ac1a0c7-a3ec-4104-b49e-7c4b39c5ee28"},"vehicle_type_id":"4","last_reported":1746764085,"current_range_meters":11200,"station_id":"ce4bh192rcd13ifvqdd0","pricing_plan_id":"cebpf4jnsgd1na2vs0mg"},{"bike_id":"89f953df-2061-408d-8f0d-6a2938e5443a","system_id":"levelo_inurba_marseille","lat":43.236524,"lon":5.403569,"is_reserved":false,"is_disabled":false,"rental_uris":{"android":"levelo://app?vid=89f953df-2061-408d-8f0d-6a2938e5443a","ios":"levelo://app?vid=89f953df-2061-408d-8f0d-6a2938e5443a"},"vehicle_type_id":"4","last_reported":1746764085,"current_range_meters":11200,"station_id":"","pricing_plan_id":"cebpf4jnsgd1na2vs0mg"},{"bike_id":"102dcd7c-3f1d-4f36-82bb-4cb134e318bc","system_id":"levelo_inurba_marseille","lat":43.265777,"lon":5.39015,"is_reserved":false,"is_disabled":false,"rental_uris":{"android":"levelo://app?vid=102dcd7c-3f1d-4f36-82bb-4cb134e318bc","ios":"levelo://app?vid=102dcd7c-3f1d-4f36-82bb-4cb134e318bc"},"vehicle_type_id":"4","last_reported":1746764085,"current_range_meters":11200,"station_id":"ce4bhe12rcd13ifvqf30","pricing_plan_id":"cebpf4jnsgd1na2vs0mg"},{"bike_id":"6fe4edd0-5f22-45d0-9b9f-de7ebc144107","system_id":"levelo_inurba_marseille","lat":43.28034,"lon":5.36933,"is_reserved":false,"is_disabled":true,"rental_uris":{"android":"levelo://app?vid=6fe4edd0-5f22-45d0-9b9f-de7ebc144107","ios":"levelo://app?vid=6fe4edd0-5f22-45d0-9b9f-de7ebc144107"},"vehicle_type_id":"4","last_reported":1746764085,"current_range_meters":11200,"station_id":"ce4bha12rcd13ifvqef0","pricing_plan_id":"cebpf4jnsgd1na2vs0mg"},{"bike_id":"07f15ff9-0f0f-46a1-9fcc-610888639da0","system_id":"levelo_inurba_marseille","lat":43.29126,"lon":5.39311,"is_reserved":false,"is_disabled":false,"rental_uris":{"android":"levelo://app?vid=07f15ff9-0f0f-46a1-9fcc-610888639da0","ios":"levelo://app?vid=07f15ff9-0f0f-46a1-9fcc-610888639da0"},"vehicle_type_id":"4","last_reported":1746764085,"current_range_meters":11200,"station_id":"ce4bh192rcd13ifvqdd0","pricing_plan_id":"cebpf4jnsgd1na2vs0mg"},{"bike_id":"e52bfd82-0d4c-4ec9-a63b-aa566ebda16e","system_id":"levelo_inurba_marseille","lat":43.318046,"lon":5.368356,"is_reserved":false,"is_disabled":false,"rental_uris":{"android":"levelo://app?vid=e52bfd82-0d4c-4ec9-a63b-aa566ebda16e","ios":"levelo://app?vid=e52bfd82-0d4c-4ec9-a63b-aa566ebda16e"},"vehicle_type_id":"4","last_reported":1746764085,"current_range_meters":11600,"station_id":"","pricing_plan_id":"cebpf4jnsgd1na2vs0mg"},{"bike_id":"c62fcc6b-a04f-4845-a3bd-342e9d015e22","system_id":"levelo_inurba_marseille","lat":43.291846,"lon":5.393279,"is_reserved":false,"is_disabled":false,"rental_uris":{"android":"levelo://app?vid=c62fcc6b-a04f-4845-a3bd-342e9d015e22","ios":"levelo://app?vid=c62fcc6b-a04f-4845-a3bd-342e9d015e22"},"vehicle_type_id":"4","last_reported":1746764085,"current_range_meters":11600,"station_id":"ce4bh192rcd13ifvqdd0","pricing_plan_id":"cebpf4jnsgd1na2vs0mg"},{"bike_id":"bac1fbc3-7adb-4396-923a-3dbda4b00da2","system_id":"levelo_inurba_marseille","lat":43.3035,"lon":5.41882,"is_reserved":false,"is_disabled":false,"rental_uris":{"android":"levelo://app?vid=bac1fbc3-7adb-4396-923a-3dbda4b00da2","ios":"levelo://app?vid=bac1fbc3-7adb-4396-923a-3dbda4b00da2"},"vehicle_type_id":"4","last_reported":1746764085,"current_range_meters":11600,"station_id":"ce4bhop2rcd13ifvqh7g","pricing_plan_id":"cebpf4jnsgd1na2vs0mg"},{"bike_id":"ded8612e-711d-40ca-9ab1-869f52835937","system_id":"levelo_inurba_marseille","lat":43.32912,"lon":5.38059,"is_reserved":false,"is_disabled":false,"rental_uris":{"android":"levelo://app?vid=ded8612e-711d-40ca-9ab1-869f52835937","ios":"levelo://app?vid=ded8612e-711d-40ca-9ab1-869f52835937"},"vehicle_type_id":"4","last_reported":1746764085,"current_range_meters":12000,"station_id":"","pricing_plan_id":"cebpf4jnsgd1na2vs0mg"},{"bike_id":"b7e1fe51-1b5f-4a00-9987-135fe523c96e","system_id":"levelo_inurba_marseille","lat":43.30931,"lon":5.40166,"is_reserved":false,"is_disabled":false,"rental_uris":{"android":"levelo://app?vid=b7e1fe51-1b5f-4a00-9987-135fe523c96e","ios":"levelo://app?vid=b7e1fe51-1b5f-4a00-9987-135fe523c96e"},"vehicle_type_id":"4","last_reported":1746764085,"current_range_meters":12000,"station_id":"ce4bgvp2rcd13ifvqct0","pricing_plan_id":"cebpf4jnsgd1na2vs0mg"},{"bike_id":"cacec4d0-2192-4d88-9d0c-fda2092e1840","system_id":"levelo_inurba_marseille","lat":43.28415,"lon":5.37529,"is_reserved":false,"is_disabled":true,"rental_uris":{"android":"levelo://app?vid=cacec4d0-2192-4d88-9d0c-fda2092e1840","ios":"levelo://app?vid=cacec4d0-2192-4d88-9d0c-fda2092e1840"},"vehicle_type_id":"4","last_reported":1746764085,"current_range_meters":12000,"station_id":"ce4bh412rcd13ifvqds0","pricing_plan_id":"cebpf4jnsgd1na2vs0mg"},{"bike_id":"772b95b5-dfce-41b2-965c-7b8c18f55975","system_id":"levelo_inurba_marseille","lat":43.287002,"lon":5.373891,"is_reserved":false,"is_disabled":false,"rental_uris":{"android":"levelo://app?vid=772b95b5-dfce-41b2-965c-7b8c18f55975","ios":"levelo://app?vid=772b95b5-dfce-41b2-965c-7b8c18f55975"},"vehicle_type_id":"4","last_reported":1746764085,"current_range_meters":12000,"station_id":"ce4bh3p2rcd13ifvqdq0","pricing_plan_id":"cebpf4jnsgd1na2vs0mg"},{"bike_id":"049dee66-f320-4a39-90d5-cac240a0fc35","system_id":"levelo_inurba_marseille","lat":43.27055,"lon":5.42268,"is_reserved":false,"is_disabled":false,"rental_uris":{"android":"levelo://app?vid=049dee66-f320-4a39-90d5-cac240a0fc35","ios":"levelo://app?vid=049dee66-f320-4a39-90d5-cac240a0fc35"},"vehicle_type_id":"4","last_reported":1746764085,"current_range_meters":12000,"station_id":"ce4bhk92rcd13ifvqgb0","pricing_plan_id":"cebpf4jnsgd1na2vs0mg"},{"bike_id":"a112ba3c-1092-4a11-8ac5-534702e58335","system_id":"levelo_inurba_marseille","lat":43.314897,"lon":5.373121,"is_reserved":false,"is_disabled":false,"rental_uris":{"android":"levelo://app?vid=a112ba3c-1092-4a11-8ac5-534702e58335","ios":"levelo://app?vid=a112ba3c-1092-4a11-8ac5-534702e58335"},"vehicle_type_id":"4","last_reported":1746764085,"current_range_meters":12000,"station_id":"ce4bgt12rcd13ifvqcd0","pricing_plan_id":"cebpf4jnsgd1na2vs0mg"},{"bike_id":"772e63dd-73ed-4ad8-bbc6-f53cc71bfe9a","system_id":"levelo_inurba_marseille","lat":43.279584,"lon":5.387009,"is_reserved":false,"is_disabled":false,"rental_uris":{"android":"levelo://app?vid=772e63dd-73ed-4ad8-bbc6-f53cc71bfe9a","ios":"levelo://app?vid=772e63dd-73ed-4ad8-bbc6-f53cc71bfe9a"},"vehicle_type_id":"4","last_reported":1746764085,"current_range_meters":12000,"station_id":"ce4bhg12rcd13ifvqf80","pricing_plan_id":"cebpf4jnsgd1na2vs0mg"},{"bike_id":"c42d0137-01db-4e02-8a6e-f9af61ad1319","system_id":"levelo_inurba_marseille","lat":43.314947,"lon":5.372914,"is_reserved":false,"is_disabled":false,"rental_uris":{"android":"levelo://app?vid=c42d0137-01db-4e02-8a6e-f9af61ad1319","ios":"levelo://app?vid=c42d0137-01db-4e02-8a6e-f9af61ad1319"},"vehicle_type_id":"4","last_reported":1746764085,"current_range_meters":12000,"station_id":"ce4bgt12rcd13ifvqcd0","pricing_plan_id":"cebpf4jnsgd1na2vs0mg"},{"bike_id":"0b8a58cc-84ce-4893-ace4-6001974b3519","system_id":"levelo_inurba_marseille","lat":43.30447,"lon":5.38908,"is_reserved":false,"is_disabled":true,"rental_uris":{"android":"levelo://app?vid=0b8a58cc-84ce-4893-ace4-6001974b3519","ios":"levelo://app?vid=0b8a58cc-84ce-4893-ace4-6001974b3519"},"vehicle_type_id":"4","last_reported":1746764085,"current_range_meters":12400,"station_id":"ce4bgk12rcd13ifvqbi0","pricing_plan_id":"cebpf4jnsgd1na2vs0mg"},{"bike_id":"cf0d66b8-59c2-49cf-9cce-98307478e10a","system_id":"levelo_inurba_marseille","lat":43.27932,"lon":5.38758,"is_reserved":false,"is_disabled":false,"rental_uris":{"android":"levelo://app?vid=cf0d66b8-59c2-49cf-9cce-98307478e10a","ios":"levelo://app?vid=cf0d66b8-59c2-49cf-9cce-98307478e10a"},"vehicle_type_id":"4","last_reported":1746764085,"current_range_meters":12400,"station_id":"ce4bhg12rcd13ifvqf80","pricing_plan_id":"cebpf4jnsgd1na2vs0mg"},{"bike_id":"044478cb-8194-4092-b984-4fc9c042ef68","system_id":"levelo_inurba_marseille","lat":43.2871,"lon":5.46574,"is_reserved":false,"is_disabled":false,"rental_uris":{"android":"levelo://app?vid=044478cb-8194-4092-b984-4fc9c042ef68","ios":"levelo://app?vid=044478cb-8194-4092-b984-4fc9c042ef68"},"vehicle_type_id":"4","last_reported":1746764085,"current_range_meters":12400,"station_id":"","pricing_plan_id":"cebpf4jnsgd1na2vs0mg"},{"bike_id":"9962b8cb-c94d-4a94-804b-a946a3138815","system_id":"levelo_inurba_marseille","lat":43.31279,"lon":5.37314,"is_reserved":false,"is_disabled":false,"rental_uris":{"android":"levelo://app?vid=9962b8cb-c94d-4a94-804b-a946a3138815","ios":"levelo://app?vid=9962b8cb-c94d-4a94-804b-a946a3138815"},"vehicle_type_id":"4","last_reported":1746764085,"current_range_meters":12400,"station_id":"","pricing_plan_id":"cebpf4jnsgd1na2vs0mg"},{"bike_id":"057fc800-9f9b-44e6-8681-ad898305eaf8","system_id":"levelo_inurba_marseille","lat":43.31989,"lon":5.38175,"is_reserved":false,"is_disabled":false,"rental_uris":{"android":"levelo://app?vid=057fc800-9f9b-44e6-8681-ad898305eaf8","ios":"levelo://app?vid=057fc800-9f9b-44e6-8681-ad898305eaf8"},"vehicle_type_id":"4","last_reported":1746764085,"current_range_meters":12400,"station_id":"ce4bhr12rcd13ifvqhpg","pricing_plan_id":"cebpf4jnsgd1na2vs0mg"},{"bike_id":"b0c54ead-2c9a-4d45-904a-5e1b9abf7338","system_id":"levelo_inurba_marseille","lat":43.278888,"lon":5.440698,"is_reserved":false,"is_disabled":false,"rental_uris":{"android":"levelo://app?vid=b0c54ead-2c9a-4d45-904a-5e1b9abf7338","ios":"levelo://app?vid=b0c54ead-2c9a-4d45-904a-5e1b9abf7338"},"vehicle_type_id":"4","last_reported":1746764085,"current_range_meters":12400,"station_id":"","pricing_plan_id":"cebpf4jnsgd1na2vs0mg"},{"bike_id":"93104df9-925e-4304-a01e-4f8118405009","system_id":"levelo_inurba_marseille","lat":43.286829,"lon":5.400095,"is_reserved":false,"is_disabled":false,"rental_uris":{"android":"levelo://app?vid=93104df9-925e-4304-a01e-4f8118405009","ios":"levelo://app?vid=93104df9-925e-4304-a01e-4f8118405009"},"vehicle_type_id":"4","last_reported":1746764085,"current_range_meters":12400,"station_id":"ce4bho92rcd13ifvqh3g","pricing_plan_id":"cebpf4jnsgd1na2vs0mg"},{"bike_id":"cfb5f8ab-2814-4f4d-9d75-d10095b1f175","system_id":"levelo_inurba_marseille","lat":43.25918,"lon":5.40896,"is_reserved":false,"is_disabled":false,"rental_uris":{"android":"levelo://app?vid=cfb5f8ab-2814-4f4d-9d75-d10095b1f175","ios":"levelo://app?vid=cfb5f8ab-2814-4f4d-9d75-d10095b1f175"},"vehicle_type_id":"4","last_reported":1746764085,"current_range_meters":12800,"station_id":"ce4bhm92rcd13ifvqglg","pricing_plan_id":"cebpf4jnsgd1na2vs0mg"},{"bike_id":"0f6d8315-f668-403d-a54c-7ca5961a7dc7","system_id":"levelo_inurba_marseille","lat":43.30343,"lon":5.40461,"is_reserved":false,"is_disabled":false,"rental_uris":{"android":"levelo://app?vid=0f6d8315-f668-403d-a54c-7ca5961a7dc7","ios":"levelo://app?vid=0f6d8315-f668-403d-a54c-7ca5961a7dc7"},"vehicle_type_id":"4","last_reported":1746764085,"current_range_meters":12800,"station_id":"ce4bh012rcd13ifvqd10","pricing_plan_id":"cebpf4jnsgd1na2vs0mg"},{"bike_id":"a5677f1a-6706-4269-a054-819470957e0c","system_id":"levelo_inurba_marseille","lat":43.279579,"lon":5.387368,"is_reserved":false,"is_disabled":false,"rental_uris":{"android":"levelo://app?vid=a5677f1a-6706-4269-a054-819470957e0c","ios":"levelo://app?vid=a5677f1a-6706-4269-a054-819470957e0c"},"vehicle_type_id":"4","last_reported":1746764085,"current_range_meters":13600,"station_id":"ce4bhg12rcd13ifvqf80","pricing_plan_id":"cebpf4jnsgd1na2vs0mg"},{"bike_id":"cc2b3a34-dcee-4140-98b5-6858e6510f6c","system_id":"levelo_inurba_marseille","lat":43.314834,"lon":5.373016,"is_reserved":false,"is_disabled":false,"rental_uris":{"android":"levelo://app?vid=cc2b3a34-dcee-4140-98b5-6858e6510f6c","ios":"levelo://app?vid=cc2b3a34-dcee-4140-98b5-6858e6510f6c"},"vehicle_type_id":"4","last_reported":1746764085,"current_range_meters":13600,"station_id":"ce4bgt12rcd13ifvqcd0","pricing_plan_id":"cebpf4jnsgd1na2vs0mg"},{"bike_id":"8003133d-4f16-480b-a00f-f8b759ba4ae8","system_id":"levelo_inurba_marseille","lat":43.27506,"lon":5.38413,"is_reserved":false,"is_disabled":false,"rental_uris":{"android":"levelo://app?vid=8003133d-4f16-480b-a00f-f8b759ba4ae8","ios":"levelo://app?vid=8003133d-4f16-480b-a00f-f8b759ba4ae8"},"vehicle_type_id":"4","last_reported":1746764085,"current_range_meters":14000,"station_id":"","pricing_plan_id":"cebpf4jnsgd1na2vs0mg"},{"bike_id":"9f5c2541-d2d5-4e18-9467-072453be38a2","system_id":"levelo_inurba_marseille","lat":43.23125,"lon":5.43688,"is_reserved":false,"is_disabled":false,"rental_uris":{"android":"levelo://app?vid=9f5c2541-d2d5-4e18-9467-072453be38a2","ios":"levelo://app?vid=9f5c2541-d2d5-4e18-9467-072453be38a2"},"vehicle_type_id":"4","last_reported":1746764085,"current_range_meters":14000,"station_id":"ce4bhmp2rcd13ifvqgog","pricing_plan_id":"cebpf4jnsgd1na2vs0mg"},{"bike_id":"40227de1-6c4c-4b18-a9d9-4b06dd6eb10a","system_id":"levelo_inurba_marseille","lat":43.283645,"lon":5.386325,"is_reserved":false,"is_disabled":false,"rental_uris":{"android":"levelo://app?vid=40227de1-6c4c-4b18-a9d9-4b06dd6eb10a","ios":"levelo://app?vid=40227de1-6c4c-4b18-a9d9-4b06dd6eb10a"},"vehicle_type_id":"4","last_reported":1746764085,"current_range_meters":14000,"station_id":"ce4bh492rcd13ifvqdvg","pricing_plan_id":"cebpf4jnsgd1na2vs0mg"},{"bike_id":"b15283af-3ec3-4acc-98c6-e65aad894966","system_id":"levelo_inurba_marseille","lat":43.279178,"lon":5.395801,"is_reserved":false,"is_disabled":false,"rental_uris":{"android":"levelo://app?vid=b15283af-3ec3-4acc-98c6-e65aad894966","ios":"levelo://app?vid=b15283af-3ec3-4acc-98c6-e65aad894966"},"vehicle_type_id":"4","last_reported":1746764085,"current_range_meters":14000,"station_id":"ce4bhf92rcd13ifvqf40","pricing_plan_id":"cebpf4jnsgd1na2vs0mg"},{"bike_id":"64213659-e3d5-4f45-bf2c-f98d4c9c7733","system_id":"levelo_inurba_marseille","lat":43.269693,"lon":5.402549,"is_reserved":false,"is_disabled":false,"rental_uris":{"android":"levelo://app?vid=64213659-e3d5-4f45-bf2c-f98d4c9c7733","ios":"levelo://app?vid=64213659-e3d5-4f45-bf2c-f98d4c9c7733"},"vehicle_type_id":"4","last_reported":1746764085,"current_range_meters":14000,"station_id":"cjm6bp8fraef2m0cb0m0","pricing_plan_id":"cebpf4jnsgd1na2vs0mg"},{"bike_id":"3032996a-f32c-4e36-8739-39873a15af8d","system_id":"levelo_inurba_marseille","lat":43.28678,"lon":5.39989,"is_reserved":false,"is_disabled":false,"rental_uris":{"android":"levelo://app?vid=3032996a-f32c-4e36-8739-39873a15af8d","ios":"levelo://app?vid=3032996a-f32c-4e36-8739-39873a15af8d"},"vehicle_type_id":"4","last_reported":1746764085,"current_range_meters":14400,"station_id":"ce4bho92rcd13ifvqh3g","pricing_plan_id":"cebpf4jnsgd1na2vs0mg"},{"bike_id":"2e719a53-5bb7-4e06-8c27-2cf0eae6c9f7","system_id":"levelo_inurba_marseille","lat":43.292529,"lon":5.401498,"is_reserved":false,"is_disabled":true,"rental_uris":{"android":"levelo://app?vid=2e719a53-5bb7-4e06-8c27-2cf0eae6c9f7","ios":"levelo://app?vid=2e719a53-5bb7-4e06-8c27-2cf0eae6c9f7"},"vehicle_type_id":"4","last_reported":1746764085,"current_range_meters":14800,"station_id":"ce4bh312rcd13ifvqdk0","pricing_plan_id":"cebpf4jnsgd1na2vs0mg"},{"bike_id":"37a8ccc7-8348-465d-ad73-0d82f61265b5","system_id":"levelo_inurba_marseille","lat":43.286608,"lon":5.363608,"is_reserved":false,"is_disabled":false,"rental_uris":{"android":"levelo://app?vid=37a8ccc7-8348-465d-ad73-0d82f61265b5","ios":"levelo://app?vid=37a8ccc7-8348-465d-ad73-0d82f61265b5"},"vehicle_type_id":"4","last_reported":1746764085,"current_range_meters":14800,"station_id":"ce4bhah2rcd13ifvqej0","pricing_plan_id":"cebpf4jnsgd1na2vs0mg"},{"bike_id":"ccf62313-6c7d-4d79-a5d7-ce161920e475","system_id":"levelo_inurba_marseille","lat":43.323613,"lon":5.367565,"is_reserved":false,"is_disabled":false,"rental_uris":{"android":"levelo://app?vid=ccf62313-6c7d-4d79-a5d7-ce161920e475","ios":"levelo://app?vid=ccf62313-6c7d-4d79-a5d7-ce161920e475"},"vehicle_type_id":"4","last_reported":1746764085,"current_range_meters":14800,"station_id":"ce4bhsh2rcd13ifvqi2g","pricing_plan_id":"cebpf4jnsgd1na2vs0mg"},{"bike_id":"1d2af6a0-0698-4444-905a-e92783f2a4ea","system_id":"levelo_inurba_marseille","lat":43.30901,"lon":5.40151,"is_reserved":false,"is_disabled":false,"rental_uris":{"android":"levelo://app?vid=1d2af6a0-0698-4444-905a-e92783f2a4ea","ios":"levelo://app?vid=1d2af6a0-0698-4444-905a-e92783f2a4ea"},"vehicle_type_id":"4","last_reported":1746764085,"current_range_meters":14800,"station_id":"ce4bgvp2rcd13ifvqct0","pricing_plan_id":"cebpf4jnsgd1na2vs0mg"},{"bike_id":"2135fb98-8bf8-4007-a790-ca36c627e5f8","system_id":"levelo_inurba_marseille","lat":43.2318,"lon":5.39985,"is_reserved":false,"is_disabled":false,"rental_uris":{"android":"levelo://app?vid=2135fb98-8bf8-4007-a790-ca36c627e5f8","ios":"levelo://app?vid=2135fb98-8bf8-4007-a790-ca36c627e5f8"},"vehicle_type_id":"4","last_reported":1746764085,"current_range_meters":15200,"station_id":"ce4bhn12rcd13ifvqgqg","pricing_plan_id":"cebpf4jnsgd1na2vs0mg"},{"bike_id":"4f854b13-c5c9-4a77-acc7-c019704bebdf","system_id":"levelo_inurba_marseille","lat":43.29196,"lon":5.39329,"is_reserved":false,"is_disabled":false,"rental_uris":{"android":"levelo://app?vid=4f854b13-c5c9-4a77-acc7-c019704bebdf","ios":"levelo://app?vid=4f854b13-c5c9-4a77-acc7-c019704bebdf"},"vehicle_type_id":"4","last_reported":1746764085,"current_range_meters":15200,"station_id":"ce4bh192rcd13ifvqdd0","pricing_plan_id":"cebpf4jnsgd1na2vs0mg"},{"bike_id":"c1650d1d-555e-4fa4-9efa-c856b89c8563","system_id":"levelo_inurba_marseille","lat":43.26222,"lon":5.40453,"is_reserved":false,"is_disabled":false,"rental_uris":{"android":"levelo://app?vid=c1650d1d-555e-4fa4-9efa-c856b89c8563","ios":"levelo://app?vid=c1650d1d-555e-4fa4-9efa-c856b89c8563"},"vehicle_type_id":"4","last_reported":1746764085,"current_range_meters":15200,"station_id":"ce4bhmh2rcd13ifvqgmg","pricing_plan_id":"cebpf4jnsgd1na2vs0mg"},{"bike_id":"cdb08d94-433c-4ce4-b7fe-354732cb3e58","system_id":"levelo_inurba_marseille","lat":43.2868,"lon":5.39991,"is_reserved":false,"is_disabled":false,"rental_uris":{"android":"levelo://app?vid=cdb08d94-433c-4ce4-b7fe-354732cb3e58","ios":"levelo://app?vid=cdb08d94-433c-4ce4-b7fe-354732cb3e58"},"vehicle_type_id":"4","last_reported":1746764085,"current_range_meters":15200,"station_id":"ce4bho92rcd13ifvqh3g","pricing_plan_id":"cebpf4jnsgd1na2vs0mg"},{"bike_id":"929c5875-e763-42e9-b4ac-fdb480ecc4fd","system_id":"levelo_inurba_marseille","lat":43.29995,"lon":5.38114,"is_reserved":false,"is_disabled":false,"rental_uris":{"android":"levelo://app?vid=929c5875-e763-42e9-b4ac-fdb480ecc4fd","ios":"levelo://app?vid=929c5875-e763-42e9-b4ac-fdb480ecc4fd"},"vehicle_type_id":"4","last_reported":1746764085,"current_range_meters":16000,"station_id":"","pricing_plan_id":"cebpf4jnsgd1na2vs0mg"},{"bike_id":"e947d46d-41d4-4344-bbe9-b85252ab7ca0","system_id":"levelo_inurba_marseille","lat":43.279163,"lon":5.395772,"is_reserved":false,"is_disabled":false,"rental_uris":{"android":"levelo://app?vid=e947d46d-41d4-4344-bbe9-b85252ab7ca0","ios":"levelo://app?vid=e947d46d-41d4-4344-bbe9-b85252ab7ca0"},"vehicle_type_id":"4","last_reported":1746764085,"current_range_meters":16000,"station_id":"ce4bhf92rcd13ifvqf40","pricing_plan_id":"cebpf4jnsgd1na2vs0mg"},{"bike_id":"59c9eee2-2711-40e5-ad57-f78d6a66b9e3","system_id":"levelo_inurba_marseille","lat":43.25934,"lon":5.4092,"is_reserved":false,"is_disabled":false,"rental_uris":{"android":"levelo://app?vid=59c9eee2-2711-40e5-ad57-f78d6a66b9e3","ios":"levelo://app?vid=59c9eee2-2711-40e5-ad57-f78d6a66b9e3"},"vehicle_type_id":"4","last_reported":1746764085,"current_range_meters":16000,"station_id":"ce4bhm92rcd13ifvqglg","pricing_plan_id":"cebpf4jnsgd1na2vs0mg"},{"bike_id":"1eae8875-97d6-4285-b520-c6c5b7bd55e5","system_id":"levelo_inurba_marseille","lat":43.297005,"lon":5.366076,"is_reserved":false,"is_disabled":true,"rental_uris":{"android":"levelo://app?vid=1eae8875-97d6-4285-b520-c6c5b7bd55e5","ios":"levelo://app?vid=1eae8875-97d6-4285-b520-c6c5b7bd55e5"},"vehicle_type_id":"4","last_reported":1746764085,"current_range_meters":16000,"station_id":"ce4bgn12rcd13ifvqbt0","pricing_plan_id":"cebpf4jnsgd1na2vs0mg"},{"bike_id":"0d658139-c144-4049-a576-27ff08a41fb1","system_id":"levelo_inurba_marseille","lat":43.32608,"lon":5.36326,"is_reserved":false,"is_disabled":false,"rental_uris":{"android":"levelo://app?vid=0d658139-c144-4049-a576-27ff08a41fb1","ios":"levelo://app?vid=0d658139-c144-4049-a576-27ff08a41fb1"},"vehicle_type_id":"4","last_reported":1746764085,"current_range_meters":16000,"station_id":"","pricing_plan_id":"cebpf4jnsgd1na2vs0mg"},{"bike_id":"0c4cd874-6764-419b-8d5d-acb3bbe70dc0","system_id":"levelo_inurba_marseille","lat":43.28678,"lon":5.39994,"is_reserved":false,"is_disabled":false,"rental_uris":{"android":"levelo://app?vid=0c4cd874-6764-419b-8d5d-acb3bbe70dc0","ios":"levelo://app?vid=0c4cd874-6764-419b-8d5d-acb3bbe70dc0"},"vehicle_type_id":"4","last_reported":1746764085,"current_range_meters":16000,"station_id":"ce4bho92rcd13ifvqh3g","pricing_plan_id":"cebpf4jnsgd1na2vs0mg"},{"bike_id":"e6282093-23fb-41a9-859d-c0d9ad966535","system_id":"levelo_inurba_marseille","lat":43.31545,"lon":5.3823,"is_reserved":false,"is_disabled":false,"rental_uris":{"android":"levelo://app?vid=e6282093-23fb-41a9-859d-c0d9ad966535","ios":"levelo://app?vid=e6282093-23fb-41a9-859d-c0d9ad966535"},"vehicle_type_id":"4","last_reported":1746764085,"current_range_meters":16000,"station_id":"","pricing_plan_id":"cebpf4jnsgd1na2vs0mg"},{"bike_id":"169866c6-de01-462c-8aa5-9eafe28be50b","system_id":"levelo_inurba_marseille","lat":43.313613,"lon":5.384947,"is_reserved":false,"is_disabled":false,"rental_uris":{"android":"levelo://app?vid=169866c6-de01-462c-8aa5-9eafe28be50b","ios":"levelo://app?vid=169866c6-de01-462c-8aa5-9eafe28be50b"},"vehicle_type_id":"4","last_reported":1746764085,"current_range_meters":16000,"station_id":"ce4bgt92rcd13ifvqcf0","pricing_plan_id":"cebpf4jnsgd1na2vs0mg"},{"bike_id":"e7b3db5e-5a0c-4e3b-8c7f-75793bbbfdde","system_id":"levelo_inurba_marseille","lat":43.294162,"lon":5.386313,"is_reserved":false,"is_disabled":true,"rental_uris":{"android":"levelo://app?vid=e7b3db5e-5a0c-4e3b-8c7f-75793bbbfdde","ios":"levelo://app?vid=e7b3db5e-5a0c-4e3b-8c7f-75793bbbfdde"},"vehicle_type_id":"4","last_reported":1746764085,"current_range_meters":16000,"station_id":"ce4bh2h2rcd13ifvqdh0","pricing_plan_id":"cebpf4jnsgd1na2vs0mg"},{"bike_id":"4fc2916e-fd8a-4057-add3-fd7205558b49","system_id":"levelo_inurba_marseille","lat":43.314686,"lon":5.390828,"is_reserved":false,"is_disabled":false,"rental_uris":{"android":"levelo://app?vid=4fc2916e-fd8a-4057-add3-fd7205558b49","ios":"levelo://app?vid=4fc2916e-fd8a-4057-add3-fd7205558b49"},"vehicle_type_id":"4","last_reported":1746764085,"current_range_meters":16000,"station_id":"","pricing_plan_id":"cebpf4jnsgd1na2vs0mg"},{"bike_id":"db01a8a4-fc6c-47b0-b62e-79d7358b734a","system_id":"levelo_inurba_marseille","lat":43.28295,"lon":5.43233,"is_reserved":false,"is_disabled":false,"rental_uris":{"android":"levelo://app?vid=db01a8a4-fc6c-47b0-b62e-79d7358b734a","ios":"levelo://app?vid=db01a8a4-fc6c-47b0-b62e-79d7358b734a"},"vehicle_type_id":"4","last_reported":1746764085,"current_range_meters":16000,"station_id":"","pricing_plan_id":"cebpf4jnsgd1na2vs0mg"},{"bike_id":"5f977801-0540-4760-94af-914b99fd9a5d","system_id":"levelo_inurba_marseille","lat":43.305503,"lon":5.384245,"is_reserved":false,"is_disabled":false,"rental_uris":{"android":"levelo://app?vid=5f977801-0540-4760-94af-914b99fd9a5d","ios":"levelo://app?vid=5f977801-0540-4760-94af-914b99fd9a5d"},"vehicle_type_id":"4","last_reported":1746764085,"current_range_meters":16400,"station_id":"ce4bgg92rcd13ifvqb30","pricing_plan_id":"cebpf4jnsgd1na2vs0mg"},{"bike_id":"90aaaa1b-dccc-4168-b363-d25c9c0459cf","system_id":"levelo_inurba_marseille","lat":43.323681,"lon":5.388823,"is_reserved":false,"is_disabled":false,"rental_uris":{"android":"levelo://app?vid=90aaaa1b-dccc-4168-b363-d25c9c0459cf","ios":"levelo://app?vid=90aaaa1b-dccc-4168-b363-d25c9c0459cf"},"vehicle_type_id":"4","last_reported":1746764085,"current_range_meters":16400,"station_id":"ce4bhqp2rcd13ifvqhog","pricing_plan_id":"cebpf4jnsgd1na2vs0mg"},{"bike_id":"d4e825d6-11df-4dfe-b9f6-1d81c835a98c","system_id":"levelo_inurba_marseille","lat":43.28722,"lon":5.37937,"is_reserved":false,"is_disabled":false,"rental_uris":{"android":"levelo://app?vid=d4e825d6-11df-4dfe-b9f6-1d81c835a98c","ios":"levelo://app?vid=d4e825d6-11df-4dfe-b9f6-1d81c835a98c"},"vehicle_type_id":"4","last_reported":1746764085,"current_range_meters":16400,"station_id":"ce4bh9p2rcd13ifvqec0","pricing_plan_id":"cebpf4jnsgd1na2vs0mg"},{"bike_id":"c8a12acb-fe74-4815-8449-905729611693","system_id":"levelo_inurba_marseille","lat":43.30144,"lon":5.38069,"is_reserved":false,"is_disabled":false,"rental_uris":{"android":"levelo://app?vid=c8a12acb-fe74-4815-8449-905729611693","ios":"levelo://app?vid=c8a12acb-fe74-4815-8449-905729611693"},"vehicle_type_id":"4","last_reported":1746764085,"current_range_meters":16400,"station_id":"ce4bgjp2rcd13ifvqbh0","pricing_plan_id":"cebpf4jnsgd1na2vs0mg"},{"bike_id":"0ddbc89d-17e4-426d-8539-f3af2b22f6e9","system_id":"levelo_inurba_marseille","lat":43.27491,"lon":5.42479,"is_reserved":false,"is_disabled":false,"rental_uris":{"android":"levelo://app?vid=0ddbc89d-17e4-426d-8539-f3af2b22f6e9","ios":"levelo://app?vid=0ddbc89d-17e4-426d-8539-f3af2b22f6e9"},"vehicle_type_id":"4","last_reported":1746764085,"current_range_meters":16800,"station_id":"ce4bhn92rcd13ifvqgrg","pricing_plan_id":"cebpf4jnsgd1na2vs0mg"},{"bike_id":"d40294b7-faac-4173-bbbc-0ab2f66be5af","system_id":"levelo_inurba_marseille","lat":43.23182,"lon":5.3999,"is_reserved":false,"is_disabled":false,"rental_uris":{"android":"levelo://app?vid=d40294b7-faac-4173-bbbc-0ab2f66be5af","ios":"levelo://app?vid=d40294b7-faac-4173-bbbc-0ab2f66be5af"},"vehicle_type_id":"4","last_reported":1746764085,"current_range_meters":16800,"station_id":"ce4bhn12rcd13ifvqgqg","pricing_plan_id":"cebpf4jnsgd1na2vs0mg"},{"bike_id":"8b8bfee9-c2a4-46d6-b761-0d5f45dbfab7","system_id":"levelo_inurba_marseille","lat":43.315341,"lon":5.380267,"is_reserved":false,"is_disabled":false,"rental_uris":{"android":"levelo://app?vid=8b8bfee9-c2a4-46d6-b761-0d5f45dbfab7","ios":"levelo://app?vid=8b8bfee9-c2a4-46d6-b761-0d5f45dbfab7"},"vehicle_type_id":"4","last_reported":1746764085,"current_range_meters":16800,"station_id":"ce4bhsp2rcd13ifvqi50","pricing_plan_id":"cebpf4jnsgd1na2vs0mg"},{"bike_id":"01ad4e7e-edac-4e3a-9af6-a5e9d23c9bb8","system_id":"levelo_inurba_marseille","lat":43.3107,"lon":5.3835,"is_reserved":false,"is_disabled":false,"rental_uris":{"android":"levelo://app?vid=01ad4e7e-edac-4e3a-9af6-a5e9d23c9bb8","ios":"levelo://app?vid=01ad4e7e-edac-4e3a-9af6-a5e9d23c9bb8"},"vehicle_type_id":"4","last_reported":1746764085,"current_range_meters":16800,"station_id":"ce4bgv92rcd13ifvqcr0","pricing_plan_id":"cebpf4jnsgd1na2vs0mg"},{"bike_id":"79cf8e60-fee9-4379-891e-762d21d938fc","system_id":"levelo_inurba_marseille","lat":43.313654,"lon":5.385024,"is_reserved":false,"is_disabled":false,"rental_uris":{"android":"levelo://app?vid=79cf8e60-fee9-4379-891e-762d21d938fc","ios":"levelo://app?vid=79cf8e60-fee9-4379-891e-762d21d938fc"},"vehicle_type_id":"4","last_reported":1746764085,"current_range_meters":17200,"station_id":"ce4bgt92rcd13ifvqcf0","pricing_plan_id":"cebpf4jnsgd1na2vs0mg"},{"bike_id":"0cb542d0-661d-4a86-904d-249f6866850a","system_id":"levelo_inurba_marseille","lat":43.257176,"lon":5.41108,"is_reserved":false,"is_disabled":false,"rental_uris":{"android":"levelo://app?vid=0cb542d0-661d-4a86-904d-249f6866850a","ios":"levelo://app?vid=0cb542d0-661d-4a86-904d-249f6866850a"},"vehicle_type_id":"4","last_reported":1746764085,"current_range_meters":17200,"station_id":"ce4bhkp2rcd13ifvqgd0","pricing_plan_id":"cebpf4jnsgd1na2vs0mg"},{"bike_id":"d9d0e30b-3079-43fa-a262-c261004a95b0","system_id":"levelo_inurba_marseille","lat":43.311687,"lon":5.387107,"is_reserved":false,"is_disabled":false,"rental_uris":{"android":"levelo://app?vid=d9d0e30b-3079-43fa-a262-c261004a95b0","ios":"levelo://app?vid=d9d0e30b-3079-43fa-a262-c261004a95b0"},"vehicle_type_id":"4","last_reported":1746764085,"current_range_meters":17200,"station_id":"ce4bgv12rcd13ifvqcp0","pricing_plan_id":"cebpf4jnsgd1na2vs0mg"},{"bike_id":"1bc71fc2-e553-4d46-a216-fcdcaea618f0","system_id":"levelo_inurba_marseille","lat":43.341448,"lon":5.409027,"is_reserved":false,"is_disabled":false,"rental_uris":{"android":"levelo://app?vid=1bc71fc2-e553-4d46-a216-fcdcaea618f0","ios":"levelo://app?vid=1bc71fc2-e553-4d46-a216-fcdcaea618f0"},"vehicle_type_id":"4","last_reported":1746764085,"current_range_meters":17200,"station_id":"ce4bhqh2rcd13ifvqhlg","pricing_plan_id":"cebpf4jnsgd1na2vs0mg"},{"bike_id":"f67736aa-fe78-43b4-88f3-cb130731b90b","system_id":"levelo_inurba_marseille","lat":43.336092,"lon":5.410288,"is_reserved":false,"is_disabled":false,"rental_uris":{"android":"levelo://app?vid=f67736aa-fe78-43b4-88f3-cb130731b90b","ios":"levelo://app?vid=f67736aa-fe78-43b4-88f3-cb130731b90b"},"vehicle_type_id":"4","last_reported":1746764085,"current_range_meters":17200,"station_id":"ce4bhqh2rcd13ifvqhmg","pricing_plan_id":"cebpf4jnsgd1na2vs0mg"},{"bike_id":"1d73e95b-f565-4252-bef7-fca3189a5fff","system_id":"levelo_inurba_marseille","lat":43.27811,"lon":5.40719,"is_reserved":false,"is_disabled":false,"rental_uris":{"android":"levelo://app?vid=1d73e95b-f565-4252-bef7-fca3189a5fff","ios":"levelo://app?vid=1d73e95b-f565-4252-bef7-fca3189a5fff"},"vehicle_type_id":"4","last_reported":1746764085,"current_range_meters":17200,"station_id":"ce4bhnh2rcd13ifvqgtg","pricing_plan_id":"cebpf4jnsgd1na2vs0mg"},{"bike_id":"1ba56984-ba84-457d-8253-c11e76b3bace","system_id":"levelo_inurba_marseille","lat":43.287075,"lon":5.399783,"is_reserved":false,"is_disabled":false,"rental_uris":{"android":"levelo://app?vid=1ba56984-ba84-457d-8253-c11e76b3bace","ios":"levelo://app?vid=1ba56984-ba84-457d-8253-c11e76b3bace"},"vehicle_type_id":"4","last_reported":1746764085,"current_range_meters":17600,"station_id":"ce4bho92rcd13ifvqh3g","pricing_plan_id":"cebpf4jnsgd1na2vs0mg"},{"bike_id":"21276dcb-2aac-4e62-9931-be1eef60ec06","system_id":"levelo_inurba_marseille","lat":43.245473,"lon":5.395213,"is_reserved":false,"is_disabled":false,"rental_uris":{"android":"levelo://app?vid=21276dcb-2aac-4e62-9931-be1eef60ec06","ios":"levelo://app?vid=21276dcb-2aac-4e62-9931-be1eef60ec06"},"vehicle_type_id":"4","last_reported":1746764085,"current_range_meters":17600,"station_id":"ce4bhlp2rcd13ifvqgjg","pricing_plan_id":"cebpf4jnsgd1na2vs0mg"},{"bike_id":"c1041c9f-2085-470a-b13c-f88fd8323115","system_id":"levelo_inurba_marseille","lat":43.277496,"lon":5.387239,"is_reserved":false,"is_disabled":false,"rental_uris":{"android":"levelo://app?vid=c1041c9f-2085-470a-b13c-f88fd8323115","ios":"levelo://app?vid=c1041c9f-2085-470a-b13c-f88fd8323115"},"vehicle_type_id":"4","last_reported":1746764085,"current_range_meters":18000,"station_id":"","pricing_plan_id":"cebpf4jnsgd1na2vs0mg"},{"bike_id":"0bdcdff3-8294-49b9-80e9-145bbc1ad711","system_id":"levelo_inurba_marseille","lat":43.32257,"lon":5.3679,"is_reserved":false,"is_disabled":false,"rental_uris":{"android":"levelo://app?vid=0bdcdff3-8294-49b9-80e9-145bbc1ad711","ios":"levelo://app?vid=0bdcdff3-8294-49b9-80e9-145bbc1ad711"},"vehicle_type_id":"4","last_reported":1746764085,"current_range_meters":18000,"station_id":"","pricing_plan_id":"cebpf4jnsgd1na2vs0mg"},{"bike_id":"577b6fa1-01aa-4b90-beb1-386dce7ef354","system_id":"levelo_inurba_marseille","lat":43.259361,"lon":5.4089,"is_reserved":false,"is_disabled":false,"rental_uris":{"android":"levelo://app?vid=577b6fa1-01aa-4b90-beb1-386dce7ef354","ios":"levelo://app?vid=577b6fa1-01aa-4b90-beb1-386dce7ef354"},"vehicle_type_id":"4","last_reported":1746764085,"current_range_meters":18000,"station_id":"ce4bhm92rcd13ifvqglg","pricing_plan_id":"cebpf4jnsgd1na2vs0mg"},{"bike_id":"3ddec5e8-9d48-4f1d-866c-2cb5c584adb4","system_id":"levelo_inurba_marseille","lat":43.283671,"lon":5.386213,"is_reserved":false,"is_disabled":false,"rental_uris":{"android":"levelo://app?vid=3ddec5e8-9d48-4f1d-866c-2cb5c584adb4","ios":"levelo://app?vid=3ddec5e8-9d48-4f1d-866c-2cb5c584adb4"},"vehicle_type_id":"4","last_reported":1746764085,"current_range_meters":18000,"station_id":"ce4bh492rcd13ifvqdvg","pricing_plan_id":"cebpf4jnsgd1na2vs0mg"},{"bike_id":"2f9f9bf5-b34e-46a2-9148-0b2e9056a0c5","system_id":"levelo_inurba_marseille","lat":43.26321,"lon":5.37852,"is_reserved":false,"is_disabled":false,"rental_uris":{"android":"levelo://app?vid=2f9f9bf5-b34e-46a2-9148-0b2e9056a0c5","ios":"levelo://app?vid=2f9f9bf5-b34e-46a2-9148-0b2e9056a0c5"},"vehicle_type_id":"4","last_reported":1746764085,"current_range_meters":18800,"station_id":"","pricing_plan_id":"cebpf4jnsgd1na2vs0mg"},{"bike_id":"af07f2ba-567d-41f6-80a1-9b5cec286faf","system_id":"levelo_inurba_marseille","lat":43.229258,"lon":5.353741,"is_reserved":false,"is_disabled":true,"rental_uris":{"android":"levelo://app?vid=af07f2ba-567d-41f6-80a1-9b5cec286faf","ios":"levelo://app?vid=af07f2ba-567d-41f6-80a1-9b5cec286faf"},"vehicle_type_id":"4","last_reported":1746764085,"current_range_meters":18800,"station_id":"cpo3532slgdg3j2ikp40","pricing_plan_id":"cebpf4jnsgd1na2vs0mg"},{"bike_id":"b3949267-446d-428c-9e10-8d84f0e3ac5b","system_id":"levelo_inurba_marseille","lat":43.2797,"lon":5.41677,"is_reserved":false,"is_disabled":false,"rental_uris":{"android":"levelo://app?vid=b3949267-446d-428c-9e10-8d84f0e3ac5b","ios":"levelo://app?vid=b3949267-446d-428c-9e10-8d84f0e3ac5b"},"vehicle_type_id":"4","last_reported":1746764085,"current_range_meters":19200,"station_id":"ce4bho12rcd13ifvqh1g","pricing_plan_id":"cebpf4jnsgd1na2vs0mg"},{"bike_id":"41f243a8-dea0-4dca-ad00-14d4b4a5243e","system_id":"levelo_inurba_marseille","lat":43.27938,"lon":5.410465,"is_reserved":false,"is_disabled":false,"rental_uris":{"android":"levelo://app?vid=41f243a8-dea0-4dca-ad00-14d4b4a5243e","ios":"levelo://app?vid=41f243a8-dea0-4dca-ad00-14d4b4a5243e"},"vehicle_type_id":"4","last_reported":1746764085,"current_range_meters":19200,"station_id":"ce4bhnp2rcd13ifvqh0g","pricing_plan_id":"cebpf4jnsgd1na2vs0mg"},{"bike_id":"ed9faf3b-17f0-406c-9ef6-ba9124729479","system_id":"levelo_inurba_marseille","lat":43.314843,"lon":5.37302,"is_reserved":false,"is_disabled":false,"rental_uris":{"android":"levelo://app?vid=ed9faf3b-17f0-406c-9ef6-ba9124729479","ios":"levelo://app?vid=ed9faf3b-17f0-406c-9ef6-ba9124729479"},"vehicle_type_id":"4","last_reported":1746764085,"current_range_meters":19200,"station_id":"ce4bgt12rcd13ifvqcd0","pricing_plan_id":"cebpf4jnsgd1na2vs0mg"},{"bike_id":"4da8ca51-d474-4c79-96b7-81f25e38d5ee","system_id":"levelo_inurba_marseille","lat":43.31081,"lon":5.38349,"is_reserved":false,"is_disabled":false,"rental_uris":{"android":"levelo://app?vid=4da8ca51-d474-4c79-96b7-81f25e38d5ee","ios":"levelo://app?vid=4da8ca51-d474-4c79-96b7-81f25e38d5ee"},"vehicle_type_id":"4","last_reported":1746764085,"current_range_meters":19200,"station_id":"ce4bgv92rcd13ifvqcr0","pricing_plan_id":"cebpf4jnsgd1na2vs0mg"},{"bike_id":"9d3bcea9-fbb5-4089-affa-935ab4d765ea","system_id":"levelo_inurba_marseille","lat":43.302509,"lon":5.400495,"is_reserved":false,"is_disabled":false,"rental_uris":{"android":"levelo://app?vid=9d3bcea9-fbb5-4089-affa-935ab4d765ea","ios":"levelo://app?vid=9d3bcea9-fbb5-4089-affa-935ab4d765ea"},"vehicle_type_id":"4","last_reported":1746764085,"current_range_meters":19600,"station_id":"ce4bgvh2rcd13ifvqcs0","pricing_plan_id":"cebpf4jnsgd1na2vs0mg"},{"bike_id":"5ee48014-6b7e-42ac-8555-9310c89dd9ae","system_id":"levelo_inurba_marseille","lat":43.26563,"lon":5.390085,"is_reserved":false,"is_disabled":false,"rental_uris":{"android":"levelo://app?vid=5ee48014-6b7e-42ac-8555-9310c89dd9ae","ios":"levelo://app?vid=5ee48014-6b7e-42ac-8555-9310c89dd9ae"},"vehicle_type_id":"4","last_reported":1746764085,"current_range_meters":19600,"station_id":"ce4bhe12rcd13ifvqf30","pricing_plan_id":"cebpf4jnsgd1na2vs0mg"},{"bike_id":"881c097a-b180-44f5-9d6b-1f54f714978b","system_id":"levelo_inurba_marseille","lat":43.27073,"lon":5.42282,"is_reserved":false,"is_disabled":false,"rental_uris":{"android":"levelo://app?vid=881c097a-b180-44f5-9d6b-1f54f714978b","ios":"levelo://app?vid=881c097a-b180-44f5-9d6b-1f54f714978b"},"vehicle_type_id":"4","last_reported":1746764085,"current_range_meters":19600,"station_id":"ce4bhk92rcd13ifvqgb0","pricing_plan_id":"cebpf4jnsgd1na2vs0mg"},{"bike_id":"ffb97e98-b63f-4c42-9b50-5f510ebcee9b","system_id":"levelo_inurba_marseille","lat":43.27499,"lon":5.42478,"is_reserved":false,"is_disabled":false,"rental_uris":{"android":"levelo://app?vid=ffb97e98-b63f-4c42-9b50-5f510ebcee9b","ios":"levelo://app?vid=ffb97e98-b63f-4c42-9b50-5f510ebcee9b"},"vehicle_type_id":"4","last_reported":1746764085,"current_range_meters":19600,"station_id":"ce4bhn92rcd13ifvqgrg","pricing_plan_id":"cebpf4jnsgd1na2vs0mg"},{"bike_id":"3e998cdf-83c1-4e75-8456-786ecd931a8f","system_id":"levelo_inurba_marseille","lat":43.28438,"lon":5.39183,"is_reserved":false,"is_disabled":false,"rental_uris":{"android":"levelo://app?vid=3e998cdf-83c1-4e75-8456-786ecd931a8f","ios":"levelo://app?vid=3e998cdf-83c1-4e75-8456-786ecd931a8f"},"vehicle_type_id":"4","last_reported":1746764085,"current_range_meters":19600,"station_id":"ce4bhoh2rcd13ifvqh5g","pricing_plan_id":"cebpf4jnsgd1na2vs0mg"},{"bike_id":"80efb873-787b-4ccb-a57a-f1da25dc5336","system_id":"levelo_inurba_marseille","lat":43.319967,"lon":5.381559,"is_reserved":false,"is_disabled":false,"rental_uris":{"android":"levelo://app?vid=80efb873-787b-4ccb-a57a-f1da25dc5336","ios":"levelo://app?vid=80efb873-787b-4ccb-a57a-f1da25dc5336"},"vehicle_type_id":"4","last_reported":1746764085,"current_range_meters":19600,"station_id":"ce4bhr12rcd13ifvqhpg","pricing_plan_id":"cebpf4jnsgd1na2vs0mg"},{"bike_id":"a4c6a415-a8d3-413a-ba85-7cdbf624eae6","system_id":"levelo_inurba_marseille","lat":43.291926,"lon":5.393202,"is_reserved":false,"is_disabled":false,"rental_uris":{"android":"levelo://app?vid=a4c6a415-a8d3-413a-ba85-7cdbf624eae6","ios":"levelo://app?vid=a4c6a415-a8d3-413a-ba85-7cdbf624eae6"},"vehicle_type_id":"4","last_reported":1746764085,"current_range_meters":20000,"station_id":"ce4bh192rcd13ifvqdd0","pricing_plan_id":"cebpf4jnsgd1na2vs0mg"},{"bike_id":"ad3d4413-ccdc-4524-b5df-0fb044e03fb2","system_id":"levelo_inurba_marseille","lat":43.29804,"lon":5.38095,"is_reserved":false,"is_disabled":false,"rental_uris":{"android":"levelo://app?vid=ad3d4413-ccdc-4524-b5df-0fb044e03fb2","ios":"levelo://app?vid=ad3d4413-ccdc-4524-b5df-0fb044e03fb2"},"vehicle_type_id":"4","last_reported":1746764085,"current_range_meters":20000,"station_id":"ce4bgip2rcd13ifvqbb0","pricing_plan_id":"cebpf4jnsgd1na2vs0mg"},{"bike_id":"3e7c6aae-b2bc-4dc1-ae18-e8b01d55045f","system_id":"levelo_inurba_marseille","lat":43.246391,"lon":5.43646,"is_reserved":false,"is_disabled":false,"rental_uris":{"android":"levelo://app?vid=3e7c6aae-b2bc-4dc1-ae18-e8b01d55045f","ios":"levelo://app?vid=3e7c6aae-b2bc-4dc1-ae18-e8b01d55045f"},"vehicle_type_id":"4","last_reported":1746764085,"current_range_meters":20000,"station_id":"","pricing_plan_id":"cebpf4jnsgd1na2vs0mg"},{"bike_id":"b1cabc30-e0d5-4b2d-999b-0ed2b472e9aa","system_id":"levelo_inurba_marseille","lat":43.279567,"lon":5.387272,"is_reserved":false,"is_disabled":false,"rental_uris":{"android":"levelo://app?vid=b1cabc30-e0d5-4b2d-999b-0ed2b472e9aa","ios":"levelo://app?vid=b1cabc30-e0d5-4b2d-999b-0ed2b472e9aa"},"vehicle_type_id":"4","last_reported":1746764085,"current_range_meters":20000,"station_id":"ce4bhg12rcd13ifvqf80","pricing_plan_id":"cebpf4jnsgd1na2vs0mg"},{"bike_id":"4b55cb69-087f-4ac8-aec8-33ebaad80586","system_id":"levelo_inurba_marseille","lat":43.32551,"lon":5.4147,"is_reserved":false,"is_disabled":false,"rental_uris":{"android":"levelo://app?vid=4b55cb69-087f-4ac8-aec8-33ebaad80586","ios":"levelo://app?vid=4b55cb69-087f-4ac8-aec8-33ebaad80586"},"vehicle_type_id":"4","last_reported":1746764085,"current_range_meters":20000,"station_id":"ce4bhq12rcd13ifvqhhg","pricing_plan_id":"cebpf4jnsgd1na2vs0mg"},{"bike_id":"97182efb-a59a-43c1-9cf7-e02cffb92cdb","system_id":"levelo_inurba_marseille","lat":43.308855,"lon":5.396522,"is_reserved":false,"is_disabled":false,"rental_uris":{"android":"levelo://app?vid=97182efb-a59a-43c1-9cf7-e02cffb92cdb","ios":"levelo://app?vid=97182efb-a59a-43c1-9cf7-e02cffb92cdb"},"vehicle_type_id":"4","last_reported":1746764085,"current_range_meters":20000,"station_id":"ce4bh012rcd13ifvqcv0","pricing_plan_id":"cebpf4jnsgd1na2vs0mg"},{"bike_id":"2b695556-5fdc-4725-a789-9b7b81b7a3a6","system_id":"levelo_inurba_marseille","lat":43.32364,"lon":5.36767,"is_reserved":false,"is_disabled":false,"rental_uris":{"android":"levelo://app?vid=2b695556-5fdc-4725-a789-9b7b81b7a3a6","ios":"levelo://app?vid=2b695556-5fdc-4725-a789-9b7b81b7a3a6"},"vehicle_type_id":"4","last_reported":1746764085,"current_range_meters":20400,"station_id":"ce4bhsh2rcd13ifvqi2g","pricing_plan_id":"cebpf4jnsgd1na2vs0mg"},{"bike_id":"5e22b64b-e46d-42ad-9c85-19084df54309","system_id":"levelo_inurba_marseille","lat":43.31328,"lon":5.39696,"is_reserved":false,"is_disabled":false,"rental_uris":{"android":"levelo://app?vid=5e22b64b-e46d-42ad-9c85-19084df54309","ios":"levelo://app?vid=5e22b64b-e46d-42ad-9c85-19084df54309"},"vehicle_type_id":"4","last_reported":1746764085,"current_range_meters":20400,"station_id":"ce4bgvp2rcd13ifvqcu0","pricing_plan_id":"cebpf4jnsgd1na2vs0mg"},{"bike_id":"5584b774-5856-4006-9396-e45ef0397eb7","system_id":"levelo_inurba_marseille","lat":43.25,"lon":5.38927,"is_reserved":false,"is_disabled":false,"rental_uris":{"android":"levelo://app?vid=5584b774-5856-4006-9396-e45ef0397eb7","ios":"levelo://app?vid=5584b774-5856-4006-9396-e45ef0397eb7"},"vehicle_type_id":"4","last_reported":1746764085,"current_range_meters":20000,"station_id":"ce4bhgp2rcd13ifvqfd0","pricing_plan_id":"cebpf4jnsgd1na2vs0mg"},{"bike_id":"81b1461a-b964-4157-bc4d-845e8c44053d","system_id":"levelo_inurba_marseille","lat":43.25439,"lon":5.41852,"is_reserved":false,"is_disabled":false,"rental_uris":{"android":"levelo://app?vid=81b1461a-b964-4157-bc4d-845e8c44053d","ios":"levelo://app?vid=81b1461a-b964-4157-bc4d-845e8c44053d"},"vehicle_type_id":"4","last_reported":1746764085,"current_range_meters":20400,"station_id":"","pricing_plan_id":"cebpf4jnsgd1na2vs0mg"},{"bike_id":"d4144cc8-c3a3-4342-92f3-f340c48e14d8","system_id":"levelo_inurba_marseille","lat":43.311741,"lon":5.38715,"is_reserved":false,"is_disabled":false,"rental_uris":{"android":"levelo://app?vid=d4144cc8-c3a3-4342-92f3-f340c48e14d8","ios":"levelo://app?vid=d4144cc8-c3a3-4342-92f3-f340c48e14d8"},"vehicle_type_id":"4","last_reported":1746764085,"current_range_meters":20400,"station_id":"ce4bgv12rcd13ifvqcp0","pricing_plan_id":"cebpf4jnsgd1na2vs0mg"},{"bike_id":"545e5687-b7df-4883-81be-75a8925d5f91","system_id":"levelo_inurba_marseille","lat":43.337444,"lon":5.374475,"is_reserved":false,"is_disabled":false,"rental_uris":{"android":"levelo://app?vid=545e5687-b7df-4883-81be-75a8925d5f91","ios":"levelo://app?vid=545e5687-b7df-4883-81be-75a8925d5f91"},"vehicle_type_id":"4","last_reported":1746764085,"current_range_meters":20400,"station_id":"","pricing_plan_id":"cebpf4jnsgd1na2vs0mg"},{"bike_id":"fc2577e7-1497-425b-9d4f-ab8d7dc843c6","system_id":"levelo_inurba_marseille","lat":43.33771,"lon":5.37485,"is_reserved":false,"is_disabled":false,"rental_uris":{"android":"levelo://app?vid=fc2577e7-1497-425b-9d4f-ab8d7dc843c6","ios":"levelo://app?vid=fc2577e7-1497-425b-9d4f-ab8d7dc843c6"},"vehicle_type_id":"4","last_reported":1746764085,"current_range_meters":20800,"station_id":"","pricing_plan_id":"cebpf4jnsgd1na2vs0mg"},{"bike_id":"32f8af14-15c8-499b-a75c-572a1aeb5b63","system_id":"levelo_inurba_marseille","lat":43.287059,"lon":5.399856,"is_reserved":false,"is_disabled":false,"rental_uris":{"android":"levelo://app?vid=32f8af14-15c8-499b-a75c-572a1aeb5b63","ios":"levelo://app?vid=32f8af14-15c8-499b-a75c-572a1aeb5b63"},"vehicle_type_id":"4","last_reported":1746764085,"current_range_meters":20800,"station_id":"ce4bho92rcd13ifvqh3g","pricing_plan_id":"cebpf4jnsgd1na2vs0mg"},{"bike_id":"a73e01dd-e553-43ce-b191-5e06fc469750","system_id":"levelo_inurba_marseille","lat":43.2623,"lon":5.40479,"is_reserved":false,"is_disabled":false,"rental_uris":{"android":"levelo://app?vid=a73e01dd-e553-43ce-b191-5e06fc469750","ios":"levelo://app?vid=a73e01dd-e553-43ce-b191-5e06fc469750"},"vehicle_type_id":"4","last_reported":1746764085,"current_range_meters":20800,"station_id":"ce4bhmh2rcd13ifvqgmg","pricing_plan_id":"cebpf4jnsgd1na2vs0mg"},{"bike_id":"fa1b1f66-7519-42e8-92aa-be43cf3d9e34","system_id":"levelo_inurba_marseille","lat":43.2251,"lon":5.34784,"is_reserved":false,"is_disabled":true,"rental_uris":{"android":"levelo://app?vid=fa1b1f66-7519-42e8-92aa-be43cf3d9e34","ios":"levelo://app?vid=fa1b1f66-7519-42e8-92aa-be43cf3d9e34"},"vehicle_type_id":"4","last_reported":1746764085,"current_range_meters":21600,"station_id":"st_cvj5dfep6f1abm77gieg","pricing_plan_id":"cebpf4jnsgd1na2vs0mg"},{"bike_id":"cfd5f142-d0a7-4165-8612-8a55bd9248cd","system_id":"levelo_inurba_marseille","lat":43.25123,"lon":5.40336,"is_reserved":false,"is_disabled":false,"rental_uris":{"android":"levelo://app?vid=cfd5f142-d0a7-4165-8612-8a55bd9248cd","ios":"levelo://app?vid=cfd5f142-d0a7-4165-8612-8a55bd9248cd"},"vehicle_type_id":"4","last_reported":1746764085,"current_range_meters":21600,"station_id":"ce4bhlh2rcd13ifvqgig","pricing_plan_id":"cebpf4jnsgd1na2vs0mg"},{"bike_id":"ddda9be5-8495-4441-93b9-d1781506a90e","system_id":"levelo_inurba_marseille","lat":43.308004,"lon":5.381598,"is_reserved":false,"is_disabled":true,"rental_uris":{"android":"levelo://app?vid=ddda9be5-8495-4441-93b9-d1781506a90e","ios":"levelo://app?vid=ddda9be5-8495-4441-93b9-d1781506a90e"},"vehicle_type_id":"4","last_reported":1746764085,"current_range_meters":21600,"station_id":"ce4bgt12rcd13ifvqce0","pricing_plan_id":"cebpf4jnsgd1na2vs0mg"},{"bike_id":"99f90a21-0302-434d-a21f-17b2fb75866e","system_id":"levelo_inurba_marseille","lat":43.287083,"lon":5.39984,"is_reserved":false,"is_disabled":false,"rental_uris":{"android":"levelo://app?vid=99f90a21-0302-434d-a21f-17b2fb75866e","ios":"levelo://app?vid=99f90a21-0302-434d-a21f-17b2fb75866e"},"vehicle_type_id":"4","last_reported":1746764085,"current_range_meters":21600,"station_id":"ce4bho92rcd13ifvqh3g","pricing_plan_id":"cebpf4jnsgd1na2vs0mg"},{"bike_id":"e9748fc0-f1e1-4fc0-865f-0895428e4886","system_id":"levelo_inurba_marseille","lat":43.30596,"lon":5.39364,"is_reserved":false,"is_disabled":false,"rental_uris":{"android":"levelo://app?vid=e9748fc0-f1e1-4fc0-865f-0895428e4886","ios":"levelo://app?vid=e9748fc0-f1e1-4fc0-865f-0895428e4886"},"vehicle_type_id":"4","last_reported":1746764085,"current_range_meters":21600,"station_id":"ce4bh0p2rcd13ifvqd80","pricing_plan_id":"cebpf4jnsgd1na2vs0mg"},{"bike_id":"a5a20991-fbca-439b-90f1-aa653d533ed8","system_id":"levelo_inurba_marseille","lat":43.24638,"lon":5.38181,"is_reserved":false,"is_disabled":false,"rental_uris":{"android":"levelo://app?vid=a5a20991-fbca-439b-90f1-aa653d533ed8","ios":"levelo://app?vid=a5a20991-fbca-439b-90f1-aa653d533ed8"},"vehicle_type_id":"4","last_reported":1746764085,"current_range_meters":22000,"station_id":"ce4bhih2rcd13ifvqfr0","pricing_plan_id":"cebpf4jnsgd1na2vs0mg"},{"bike_id":"46815448-828e-4264-b487-1d252f79d6b7","system_id":"levelo_inurba_marseille","lat":43.3117,"lon":5.38721,"is_reserved":false,"is_disabled":false,"rental_uris":{"android":"levelo://app?vid=46815448-828e-4264-b487-1d252f79d6b7","ios":"levelo://app?vid=46815448-828e-4264-b487-1d252f79d6b7"},"vehicle_type_id":"4","last_reported":1746764085,"current_range_meters":22000,"station_id":"ce4bgv12rcd13ifvqcp0","pricing_plan_id":"cebpf4jnsgd1na2vs0mg"},{"bike_id":"95dc5ac3-f9a8-4e4d-a9ba-a15ab0bdde00","system_id":"levelo_inurba_marseille","lat":43.24069,"lon":5.37766,"is_reserved":false,"is_disabled":false,"rental_uris":{"android":"levelo://app?vid=95dc5ac3-f9a8-4e4d-a9ba-a15ab0bdde00","ios":"levelo://app?vid=95dc5ac3-f9a8-4e4d-a9ba-a15ab0bdde00"},"vehicle_type_id":"4","last_reported":1746764085,"current_range_meters":22000,"station_id":"ce4bhnp2rcd13ifvqgvg","pricing_plan_id":"cebpf4jnsgd1na2vs0mg"},{"bike_id":"7dbf7670-d1d0-4a80-8ac5-74bfe0c01954","system_id":"levelo_inurba_marseille","lat":43.2378,"lon":5.36186,"is_reserved":false,"is_disabled":false,"rental_uris":{"android":"levelo://app?vid=7dbf7670-d1d0-4a80-8ac5-74bfe0c01954","ios":"levelo://app?vid=7dbf7670-d1d0-4a80-8ac5-74bfe0c01954"},"vehicle_type_id":"4","last_reported":1746764085,"current_range_meters":22000,"station_id":"","pricing_plan_id":"cebpf4jnsgd1na2vs0mg"},{"bike_id":"edd60f3c-8f20-43fd-b8a1-002c70da4042","system_id":"levelo_inurba_marseille","lat":43.24545,"lon":5.39524,"is_reserved":false,"is_disabled":false,"rental_uris":{"android":"levelo://app?vid=edd60f3c-8f20-43fd-b8a1-002c70da4042","ios":"levelo://app?vid=edd60f3c-8f20-43fd-b8a1-002c70da4042"},"vehicle_type_id":"4","last_reported":1746764085,"current_range_meters":22000,"station_id":"ce4bhlp2rcd13ifvqgjg","pricing_plan_id":"cebpf4jnsgd1na2vs0mg"},{"bike_id":"c603af1c-0643-4b9e-83a3-7cd05232975e","system_id":"levelo_inurba_marseille","lat":43.306363,"lon":5.400803,"is_reserved":false,"is_disabled":false,"rental_uris":{"android":"levelo://app?vid=c603af1c-0643-4b9e-83a3-7cd05232975e","ios":"levelo://app?vid=c603af1c-0643-4b9e-83a3-7cd05232975e"},"vehicle_type_id":"4","last_reported":1746764085,"current_range_meters":22000,"station_id":"ce4bh112rcd13ifvqda0","pricing_plan_id":"cebpf4jnsgd1na2vs0mg"},{"bike_id":"5a64309b-a794-4a8f-8bbe-7e980831906b","system_id":"levelo_inurba_marseille","lat":43.286773,"lon":5.386761,"is_reserved":false,"is_disabled":false,"rental_uris":{"android":"levelo://app?vid=5a64309b-a794-4a8f-8bbe-7e980831906b","ios":"levelo://app?vid=5a64309b-a794-4a8f-8bbe-7e980831906b"},"vehicle_type_id":"4","last_reported":1746764085,"current_range_meters":22000,"station_id":"ce4bh492rcd13ifvqdug","pricing_plan_id":"cebpf4jnsgd1na2vs0mg"},{"bike_id":"66d39f5f-1aac-423b-9ea7-bf9c1b0e5079","system_id":"levelo_inurba_marseille","lat":43.275071,"lon":5.41125,"is_reserved":false,"is_disabled":false,"rental_uris":{"android":"levelo://app?vid=66d39f5f-1aac-423b-9ea7-bf9c1b0e5079","ios":"levelo://app?vid=66d39f5f-1aac-423b-9ea7-bf9c1b0e5079"},"vehicle_type_id":"4","last_reported":1746764085,"current_range_meters":22000,"station_id":"","pricing_plan_id":"cebpf4jnsgd1na2vs0mg"},{"bike_id":"9b84e65f-2424-4f8e-b51b-21355d123536","system_id":"levelo_inurba_marseille","lat":43.31456,"lon":5.37344,"is_reserved":false,"is_disabled":false,"rental_uris":{"android":"levelo://app?vid=9b84e65f-2424-4f8e-b51b-21355d123536","ios":"levelo://app?vid=9b84e65f-2424-4f8e-b51b-21355d123536"},"vehicle_type_id":"4","last_reported":1746764085,"current_range_meters":22400,"station_id":"ce4bgt12rcd13ifvqcd0","pricing_plan_id":"cebpf4jnsgd1na2vs0mg"},{"bike_id":"a1121b36-b5cd-4dda-96ef-13a3dfaa55e1","system_id":"levelo_inurba_marseille","lat":43.301401,"lon":5.387791,"is_reserved":false,"is_disabled":false,"rental_uris":{"android":"levelo://app?vid=a1121b36-b5cd-4dda-96ef-13a3dfaa55e1","ios":"levelo://app?vid=a1121b36-b5cd-4dda-96ef-13a3dfaa55e1"},"vehicle_type_id":"4","last_reported":1746764085,"current_range_meters":22400,"station_id":"","pricing_plan_id":"cebpf4jnsgd1na2vs0mg"},{"bike_id":"0f40c2d9-86bc-4c31-b94b-9322bc441669","system_id":"levelo_inurba_marseille","lat":43.291904,"lon":5.393285,"is_reserved":false,"is_disabled":false,"rental_uris":{"android":"levelo://app?vid=0f40c2d9-86bc-4c31-b94b-9322bc441669","ios":"levelo://app?vid=0f40c2d9-86bc-4c31-b94b-9322bc441669"},"vehicle_type_id":"4","last_reported":1746764085,"current_range_meters":22400,"station_id":"ce4bh192rcd13ifvqdd0","pricing_plan_id":"cebpf4jnsgd1na2vs0mg"},{"bike_id":"ff649001-1163-42c1-b4b9-34342c5f9697","system_id":"levelo_inurba_marseille","lat":43.29542,"lon":5.42295,"is_reserved":false,"is_disabled":false,"rental_uris":{"android":"levelo://app?vid=ff649001-1163-42c1-b4b9-34342c5f9697","ios":"levelo://app?vid=ff649001-1163-42c1-b4b9-34342c5f9697"},"vehicle_type_id":"4","last_reported":1746764085,"current_range_meters":22400,"station_id":"ce4bhph2rcd13ifvqhdg","pricing_plan_id":"cebpf4jnsgd1na2vs0mg"},{"bike_id":"cf1c615a-922a-4ca6-b662-d1b1b6732287","system_id":"levelo_inurba_marseille","lat":43.30559,"lon":5.38431,"is_reserved":false,"is_disabled":false,"rental_uris":{"android":"levelo://app?vid=cf1c615a-922a-4ca6-b662-d1b1b6732287","ios":"levelo://app?vid=cf1c615a-922a-4ca6-b662-d1b1b6732287"},"vehicle_type_id":"4","last_reported":1746764085,"current_range_meters":22800,"station_id":"ce4bgg92rcd13ifvqb30","pricing_plan_id":"cebpf4jnsgd1na2vs0mg"},{"bike_id":"75d6c7fe-be50-4776-b2fe-c2f3a935d28c","system_id":"levelo_inurba_marseille","lat":43.285498,"lon":5.395362,"is_reserved":false,"is_disabled":false,"rental_uris":{"android":"levelo://app?vid=75d6c7fe-be50-4776-b2fe-c2f3a935d28c","ios":"levelo://app?vid=75d6c7fe-be50-4776-b2fe-c2f3a935d28c"},"vehicle_type_id":"4","last_reported":1746764085,"current_range_meters":22800,"station_id":"ce4bh292rcd13ifvqdg0","pricing_plan_id":"cebpf4jnsgd1na2vs0mg"},{"bike_id":"8de62819-4a0a-4de6-af37-f52263a7ada2","system_id":"levelo_inurba_marseille","lat":43.31162,"lon":5.3871,"is_reserved":false,"is_disabled":false,"rental_uris":{"android":"levelo://app?vid=8de62819-4a0a-4de6-af37-f52263a7ada2","ios":"levelo://app?vid=8de62819-4a0a-4de6-af37-f52263a7ada2"},"vehicle_type_id":"4","last_reported":1746764085,"current_range_meters":22800,"station_id":"ce4bgv12rcd13ifvqcp0","pricing_plan_id":"cebpf4jnsgd1na2vs0mg"},{"bike_id":"bb064eb2-dd21-493e-8f01-f76ead261f38","system_id":"levelo_inurba_marseille","lat":43.30893,"lon":5.39653,"is_reserved":false,"is_disabled":false,"rental_uris":{"android":"levelo://app?vid=bb064eb2-dd21-493e-8f01-f76ead261f38","ios":"levelo://app?vid=bb064eb2-dd21-493e-8f01-f76ead261f38"},"vehicle_type_id":"4","last_reported":1746764085,"current_range_meters":22800,"station_id":"ce4bh012rcd13ifvqcv0","pricing_plan_id":"cebpf4jnsgd1na2vs0mg"},{"bike_id":"6c036e22-2880-4ca3-8ec2-3c1c93aa2e22","system_id":"levelo_inurba_marseille","lat":43.33018,"lon":5.39064,"is_reserved":false,"is_disabled":false,"rental_uris":{"android":"levelo://app?vid=6c036e22-2880-4ca3-8ec2-3c1c93aa2e22","ios":"levelo://app?vid=6c036e22-2880-4ca3-8ec2-3c1c93aa2e22"},"vehicle_type_id":"4","last_reported":1746764085,"current_range_meters":23200,"station_id":"ce4bhr92rcd13ifvqhrg","pricing_plan_id":"cebpf4jnsgd1na2vs0mg"},{"bike_id":"00b696f5-db00-4fbc-ae65-04d1a5f4ae48","system_id":"levelo_inurba_marseille","lat":43.330309,"lon":5.390439,"is_reserved":false,"is_disabled":false,"rental_uris":{"android":"levelo://app?vid=00b696f5-db00-4fbc-ae65-04d1a5f4ae48","ios":"levelo://app?vid=00b696f5-db00-4fbc-ae65-04d1a5f4ae48"},"vehicle_type_id":"4","last_reported":1746764085,"current_range_meters":23200,"station_id":"ce4bhr92rcd13ifvqhrg","pricing_plan_id":"cebpf4jnsgd1na2vs0mg"},{"bike_id":"99e1eb8b-eaa9-4210-93fa-950f67c9cbaa","system_id":"levelo_inurba_marseille","lat":43.28558,"lon":5.39527,"is_reserved":false,"is_disabled":false,"rental_uris":{"android":"levelo://app?vid=99e1eb8b-eaa9-4210-93fa-950f67c9cbaa","ios":"levelo://app?vid=99e1eb8b-eaa9-4210-93fa-950f67c9cbaa"},"vehicle_type_id":"4","last_reported":1746764085,"current_range_meters":23200,"station_id":"ce4bh292rcd13ifvqdg0","pricing_plan_id":"cebpf4jnsgd1na2vs0mg"},{"bike_id":"99184a83-5494-45ab-aa01-906cc2f91945","system_id":"levelo_inurba_marseille","lat":43.283645,"lon":5.38626,"is_reserved":false,"is_disabled":false,"rental_uris":{"android":"levelo://app?vid=99184a83-5494-45ab-aa01-906cc2f91945","ios":"levelo://app?vid=99184a83-5494-45ab-aa01-906cc2f91945"},"vehicle_type_id":"4","last_reported":1746764085,"current_range_meters":23200,"station_id":"ce4bh492rcd13ifvqdvg","pricing_plan_id":"cebpf4jnsgd1na2vs0mg"},{"bike_id":"02b87f3f-682c-4651-9cf5-5df10c4c3e4a","system_id":"levelo_inurba_marseille","lat":43.2453,"lon":5.39522,"is_reserved":false,"is_disabled":false,"rental_uris":{"android":"levelo://app?vid=02b87f3f-682c-4651-9cf5-5df10c4c3e4a","ios":"levelo://app?vid=02b87f3f-682c-4651-9cf5-5df10c4c3e4a"},"vehicle_type_id":"4","last_reported":1746764085,"current_range_meters":24000,"station_id":"ce4bhlp2rcd13ifvqgjg","pricing_plan_id":"cebpf4jnsgd1na2vs0mg"},{"bike_id":"596a273e-f590-451c-94f9-8cdd700d227f","system_id":"levelo_inurba_marseille","lat":43.287064,"lon":5.399792,"is_reserved":false,"is_disabled":false,"rental_uris":{"android":"levelo://app?vid=596a273e-f590-451c-94f9-8cdd700d227f","ios":"levelo://app?vid=596a273e-f590-451c-94f9-8cdd700d227f"},"vehicle_type_id":"4","last_reported":1746764085,"current_range_meters":24000,"station_id":"ce4bho92rcd13ifvqh3g","pricing_plan_id":"cebpf4jnsgd1na2vs0mg"},{"bike_id":"e9027ed5-cc10-44a7-8b6f-aeacc09540d4","system_id":"levelo_inurba_marseille","lat":43.30867,"lon":5.3718,"is_reserved":false,"is_disabled":false,"rental_uris":{"android":"levelo://app?vid=e9027ed5-cc10-44a7-8b6f-aeacc09540d4","ios":"levelo://app?vid=e9027ed5-cc10-44a7-8b6f-aeacc09540d4"},"vehicle_type_id":"4","last_reported":1746764085,"current_range_meters":24000,"station_id":"ce4bguh2rcd13ifvqckg","pricing_plan_id":"cebpf4jnsgd1na2vs0mg"},{"bike_id":"392caae5-c01d-4999-a7b5-44a0b88886cb","system_id":"levelo_inurba_marseille","lat":43.30906,"lon":5.37209,"is_reserved":false,"is_disabled":false,"rental_uris":{"android":"levelo://app?vid=392caae5-c01d-4999-a7b5-44a0b88886cb","ios":"levelo://app?vid=392caae5-c01d-4999-a7b5-44a0b88886cb"},"vehicle_type_id":"4","last_reported":1746764085,"current_range_meters":24000,"station_id":"ce4bguh2rcd13ifvqckg","pricing_plan_id":"cebpf4jnsgd1na2vs0mg"},{"bike_id":"42f8807f-49a9-4789-9472-28205f143792","system_id":"levelo_inurba_marseille","lat":43.28839,"lon":5.39325,"is_reserved":false,"is_disabled":false,"rental_uris":{"android":"levelo://app?vid=42f8807f-49a9-4789-9472-28205f143792","ios":"levelo://app?vid=42f8807f-49a9-4789-9472-28205f143792"},"vehicle_type_id":"4","last_reported":1746764085,"current_range_meters":24000,"station_id":"ce4bh2p2rcd13ifvqdi0","pricing_plan_id":"cebpf4jnsgd1na2vs0mg"},{"bike_id":"e1c9da78-713b-4fa8-84d9-51d687afe0a8","system_id":"levelo_inurba_marseille","lat":43.27065,"lon":5.40251,"is_reserved":false,"is_disabled":false,"rental_uris":{"android":"levelo://app?vid=e1c9da78-713b-4fa8-84d9-51d687afe0a8","ios":"levelo://app?vid=e1c9da78-713b-4fa8-84d9-51d687afe0a8"},"vehicle_type_id":"4","last_reported":1746764085,"current_range_meters":24000,"station_id":"ce4bhk92rcd13ifvqgc0","pricing_plan_id":"cebpf4jnsgd1na2vs0mg"},{"bike_id":"0a90f47a-9928-4f16-908d-644499ffefb0","system_id":"levelo_inurba_marseille","lat":43.28719,"lon":5.399809,"is_reserved":false,"is_disabled":false,"rental_uris":{"android":"levelo://app?vid=0a90f47a-9928-4f16-908d-644499ffefb0","ios":"levelo://app?vid=0a90f47a-9928-4f16-908d-644499ffefb0"},"vehicle_type_id":"4","last_reported":1746764085,"current_range_meters":24000,"station_id":"ce4bho92rcd13ifvqh3g","pricing_plan_id":"cebpf4jnsgd1na2vs0mg"},{"bike_id":"c9d955c9-04d1-429a-9835-09a447da332e","system_id":"levelo_inurba_marseille","lat":43.29752,"lon":5.38066,"is_reserved":false,"is_disabled":false,"rental_uris":{"android":"levelo://app?vid=c9d955c9-04d1-429a-9835-09a447da332e","ios":"levelo://app?vid=c9d955c9-04d1-429a-9835-09a447da332e"},"vehicle_type_id":"4","last_reported":1746764085,"current_range_meters":24000,"station_id":"","pricing_plan_id":"cebpf4jnsgd1na2vs0mg"},{"bike_id":"1a23c9ce-c0aa-408c-a8d9-cd1c4f15313d","system_id":"levelo_inurba_marseille","lat":43.323299,"lon":5.406276,"is_reserved":false,"is_disabled":false,"rental_uris":{"android":"levelo://app?vid=1a23c9ce-c0aa-408c-a8d9-cd1c4f15313d","ios":"levelo://app?vid=1a23c9ce-c0aa-408c-a8d9-cd1c4f15313d"},"vehicle_type_id":"4","last_reported":1746764085,"current_range_meters":24000,"station_id":"ce4bhq92rcd13ifvqhjg","pricing_plan_id":"cebpf4jnsgd1na2vs0mg"},{"bike_id":"94be72df-3c9f-465f-86d3-1f729c8adda1","system_id":"levelo_inurba_marseille","lat":43.323357,"lon":5.406145,"is_reserved":false,"is_disabled":false,"rental_uris":{"android":"levelo://app?vid=94be72df-3c9f-465f-86d3-1f729c8adda1","ios":"levelo://app?vid=94be72df-3c9f-465f-86d3-1f729c8adda1"},"vehicle_type_id":"4","last_reported":1746764085,"current_range_meters":24000,"station_id":"ce4bhq92rcd13ifvqhjg","pricing_plan_id":"cebpf4jnsgd1na2vs0mg"},{"bike_id":"8cf2b0fb-66d7-4ff9-abf1-463e4d528a2e","system_id":"levelo_inurba_marseille","lat":43.28728,"lon":5.39984,"is_reserved":false,"is_disabled":false,"rental_uris":{"android":"levelo://app?vid=8cf2b0fb-66d7-4ff9-abf1-463e4d528a2e","ios":"levelo://app?vid=8cf2b0fb-66d7-4ff9-abf1-463e4d528a2e"},"vehicle_type_id":"4","last_reported":1746764085,"current_range_meters":24400,"station_id":"ce4bho92rcd13ifvqh3g","pricing_plan_id":"cebpf4jnsgd1na2vs0mg"},{"bike_id":"521e586d-9582-4658-a0a1-056883e3d327","system_id":"levelo_inurba_marseille","lat":43.29601,"lon":5.38105,"is_reserved":false,"is_disabled":true,"rental_uris":{"android":"levelo://app?vid=521e586d-9582-4658-a0a1-056883e3d327","ios":"levelo://app?vid=521e586d-9582-4658-a0a1-056883e3d327"},"vehicle_type_id":"4","last_reported":1746764085,"current_range_meters":24400,"station_id":"ce4bgl12rcd13ifvqbo0","pricing_plan_id":"cebpf4jnsgd1na2vs0mg"},{"bike_id":"9e6e008f-adf0-4f82-9bcd-32184939a2c0","system_id":"levelo_inurba_marseille","lat":43.284094,"lon":5.375142,"is_reserved":false,"is_disabled":false,"rental_uris":{"android":"levelo://app?vid=9e6e008f-adf0-4f82-9bcd-32184939a2c0","ios":"levelo://app?vid=9e6e008f-adf0-4f82-9bcd-32184939a2c0"},"vehicle_type_id":"4","last_reported":1746764085,"current_range_meters":24400,"station_id":"ce4bh412rcd13ifvqds0","pricing_plan_id":"cebpf4jnsgd1na2vs0mg"},{"bike_id":"1ca13d81-f882-46d2-a985-410095fb2052","system_id":"levelo_inurba_marseille","lat":43.24804,"lon":5.37458,"is_reserved":false,"is_disabled":false,"rental_uris":{"android":"levelo://app?vid=1ca13d81-f882-46d2-a985-410095fb2052","ios":"levelo://app?vid=1ca13d81-f882-46d2-a985-410095fb2052"},"vehicle_type_id":"4","last_reported":1746764085,"current_range_meters":24400,"station_id":"ce4bhgh2rcd13ifvqfb0","pricing_plan_id":"cebpf4jnsgd1na2vs0mg"},{"bike_id":"b0af2943-ab5e-42a5-bbfc-0fe1e4dc3524","system_id":"levelo_inurba_marseille","lat":43.305968,"lon":5.393528,"is_reserved":false,"is_disabled":false,"rental_uris":{"android":"levelo://app?vid=b0af2943-ab5e-42a5-bbfc-0fe1e4dc3524","ios":"levelo://app?vid=b0af2943-ab5e-42a5-bbfc-0fe1e4dc3524"},"vehicle_type_id":"4","last_reported":1746764085,"current_range_meters":24400,"station_id":"ce4bh0p2rcd13ifvqd80","pricing_plan_id":"cebpf4jnsgd1na2vs0mg"},{"bike_id":"c858c73e-da31-4827-8661-76fb4ce30ba1","system_id":"levelo_inurba_marseille","lat":43.257111,"lon":5.411136,"is_reserved":false,"is_disabled":true,"rental_uris":{"android":"levelo://app?vid=c858c73e-da31-4827-8661-76fb4ce30ba1","ios":"levelo://app?vid=c858c73e-da31-4827-8661-76fb4ce30ba1"},"vehicle_type_id":"4","last_reported":1746764085,"current_range_meters":24400,"station_id":"ce4bhkp2rcd13ifvqgd0","pricing_plan_id":"cebpf4jnsgd1na2vs0mg"},{"bike_id":"1163b2df-bde6-4dce-9fbb-d7e838d79527","system_id":"levelo_inurba_marseille","lat":43.29203,"lon":5.39341,"is_reserved":false,"is_disabled":false,"rental_uris":{"android":"levelo://app?vid=1163b2df-bde6-4dce-9fbb-d7e838d79527","ios":"levelo://app?vid=1163b2df-bde6-4dce-9fbb-d7e838d79527"},"vehicle_type_id":"4","last_reported":1746764085,"current_range_meters":24400,"station_id":"ce4bh192rcd13ifvqdd0","pricing_plan_id":"cebpf4jnsgd1na2vs0mg"},{"bike_id":"ee1fb14b-4956-4ec0-afe5-0842f031f3a9","system_id":"levelo_inurba_marseille","lat":43.3115,"lon":5.38727,"is_reserved":false,"is_disabled":false,"rental_uris":{"android":"levelo://app?vid=ee1fb14b-4956-4ec0-afe5-0842f031f3a9","ios":"levelo://app?vid=ee1fb14b-4956-4ec0-afe5-0842f031f3a9"},"vehicle_type_id":"4","last_reported":1746764085,"current_range_meters":24800,"station_id":"ce4bgv12rcd13ifvqcp0","pricing_plan_id":"cebpf4jnsgd1na2vs0mg"},{"bike_id":"e33f7836-6054-4162-be9b-1db2c4ca9add","system_id":"levelo_inurba_marseille","lat":43.279011,"lon":5.380069,"is_reserved":false,"is_disabled":false,"rental_uris":{"android":"levelo://app?vid=e33f7836-6054-4162-be9b-1db2c4ca9add","ios":"levelo://app?vid=e33f7836-6054-4162-be9b-1db2c4ca9add"},"vehicle_type_id":"4","last_reported":1746764085,"current_range_meters":24800,"station_id":"ce4bhf92rcd13ifvqf50","pricing_plan_id":"cebpf4jnsgd1na2vs0mg"},{"bike_id":"4bd1444e-ae9c-411d-8fff-56e697dc0c48","system_id":"levelo_inurba_marseille","lat":43.284579,"lon":5.355179,"is_reserved":false,"is_disabled":false,"rental_uris":{"android":"levelo://app?vid=4bd1444e-ae9c-411d-8fff-56e697dc0c48","ios":"levelo://app?vid=4bd1444e-ae9c-411d-8fff-56e697dc0c48"},"vehicle_type_id":"4","last_reported":1746764085,"current_range_meters":24800,"station_id":"","pricing_plan_id":"cebpf4jnsgd1na2vs0mg"},{"bike_id":"d3a293c4-7429-49d1-8f2b-43fbd447bddc","system_id":"levelo_inurba_marseille","lat":43.323306,"lon":5.406256,"is_reserved":false,"is_disabled":false,"rental_uris":{"android":"levelo://app?vid=d3a293c4-7429-49d1-8f2b-43fbd447bddc","ios":"levelo://app?vid=d3a293c4-7429-49d1-8f2b-43fbd447bddc"},"vehicle_type_id":"4","last_reported":1746764085,"current_range_meters":25200,"station_id":"ce4bhq92rcd13ifvqhjg","pricing_plan_id":"cebpf4jnsgd1na2vs0mg"},{"bike_id":"020b7142-3123-4bc9-884a-308b5142e38a","system_id":"levelo_inurba_marseille","lat":43.300429,"lon":5.387883,"is_reserved":false,"is_disabled":false,"rental_uris":{"android":"levelo://app?vid=020b7142-3123-4bc9-884a-308b5142e38a","ios":"levelo://app?vid=020b7142-3123-4bc9-884a-308b5142e38a"},"vehicle_type_id":"4","last_reported":1746764085,"current_range_meters":25200,"station_id":"","pricing_plan_id":"cebpf4jnsgd1na2vs0mg"},{"bike_id":"959bd976-3543-499b-864a-0cdb8233f530","system_id":"levelo_inurba_marseille","lat":43.30609,"lon":5.39317,"is_reserved":false,"is_disabled":false,"rental_uris":{"android":"levelo://app?vid=959bd976-3543-499b-864a-0cdb8233f530","ios":"levelo://app?vid=959bd976-3543-499b-864a-0cdb8233f530"},"vehicle_type_id":"4","last_reported":1746764085,"current_range_meters":25200,"station_id":"ce4bh0p2rcd13ifvqd80","pricing_plan_id":"cebpf4jnsgd1na2vs0mg"},{"bike_id":"b050b473-aed1-4997-9d13-778a715dc3bf","system_id":"levelo_inurba_marseille","lat":43.31515,"lon":5.37267,"is_reserved":false,"is_disabled":false,"rental_uris":{"android":"levelo://app?vid=b050b473-aed1-4997-9d13-778a715dc3bf","ios":"levelo://app?vid=b050b473-aed1-4997-9d13-778a715dc3bf"},"vehicle_type_id":"4","last_reported":1746764085,"current_range_meters":25200,"station_id":"ce4bgt12rcd13ifvqcd0","pricing_plan_id":"cebpf4jnsgd1na2vs0mg"},{"bike_id":"0af1a939-4836-4a08-88c6-16e11c5f91a1","system_id":"levelo_inurba_marseille","lat":43.31266,"lon":5.4018,"is_reserved":false,"is_disabled":false,"rental_uris":{"android":"levelo://app?vid=0af1a939-4836-4a08-88c6-16e11c5f91a1","ios":"levelo://app?vid=0af1a939-4836-4a08-88c6-16e11c5f91a1"},"vehicle_type_id":"4","last_reported":1746764085,"current_range_meters":25200,"station_id":"ce4bh092rcd13ifvqd30","pricing_plan_id":"cebpf4jnsgd1na2vs0mg"},{"bike_id":"98c918bf-fcb0-471b-8fa5-14f514cb9c88","system_id":"levelo_inurba_marseille","lat":43.3046,"lon":5.37906,"is_reserved":false,"is_disabled":false,"rental_uris":{"android":"levelo://app?vid=98c918bf-fcb0-471b-8fa5-14f514cb9c88","ios":"levelo://app?vid=98c918bf-fcb0-471b-8fa5-14f514cb9c88"},"vehicle_type_id":"4","last_reported":1746764085,"current_range_meters":25200,"station_id":"ce4bgup2rcd13ifvqcn0","pricing_plan_id":"cebpf4jnsgd1na2vs0mg"},{"bike_id":"e9203bb8-25bc-4021-81c6-80c05c5ce043","system_id":"levelo_inurba_marseille","lat":43.305343,"lon":5.367045,"is_reserved":false,"is_disabled":false,"rental_uris":{"android":"levelo://app?vid=e9203bb8-25bc-4021-81c6-80c05c5ce043","ios":"levelo://app?vid=e9203bb8-25bc-4021-81c6-80c05c5ce043"},"vehicle_type_id":"4","last_reported":1746764085,"current_range_meters":25200,"station_id":"ce4bgrp2rcd13ifvqc9g","pricing_plan_id":"cebpf4jnsgd1na2vs0mg"},{"bike_id":"f836dc44-c667-4332-8a85-f5938b6534d7","system_id":"levelo_inurba_marseille","lat":43.280887,"lon":5.396492,"is_reserved":false,"is_disabled":false,"rental_uris":{"android":"levelo://app?vid=f836dc44-c667-4332-8a85-f5938b6534d7","ios":"levelo://app?vid=f836dc44-c667-4332-8a85-f5938b6534d7"},"vehicle_type_id":"4","last_reported":1746764085,"current_range_meters":25200,"station_id":"ce4bho12rcd13ifvqh2g","pricing_plan_id":"cebpf4jnsgd1na2vs0mg"},