{"last_updated":1735575065,"ttl":60,"version":"2.2","data":{"bikes":[{"bike_id":"46ecd33b-8389-422b-a6a3-737556237644","system_id":"levelo_inurba_marseille","lat":43.28475,"lon":5.35886,"is_reserved":false,"is_disabled":false,"rental_uris":{"android":"levelo://app?vid=46ecd33b-8389-422b-a6a3-737556237644","ios":"levelo://app?vid=46ecd33b-8389-422b-a6a3-737556237644"},"vehicle_type_id":"4","last_reported":1735575065,"current_range_meters":30400,"station_id":"ce4bhah2rcd13ifvqei0","pricing_plan_id":"cebpf4jnsgd1na2vs0mg"},{"bike_id":"ce883240-7a46-4c17-a8cb-25bd9d0d11e9","system_id":"levelo_inurba_marseille","lat":43.278185,"lon":5.407177,"is_reserved":false,"is_disabled":false,"rental_uris":{"android":"levelo://app?vid=ce883240-7a46-4c17-a8cb-25bd9d0d11e9","ios":"levelo://app?vid=ce883240-7a46-4c17-a8cb-25bd9d0d11e9"},"vehicle_type_id":"4","last_reported":1735575065,"current_range_meters":28800,"station_id":"ce4bhnh2rcd13ifvqgtg","pricing_plan_id":"cebpf4jnsgd1na2vs0mg"},{"bike_id":"b125795f-7d19-4680-a8d6-94e84290827f","system_id":"levelo_inurba_marseille","lat":43.30134,"lon":5.37433,"is_reserved":false,"is_disabled":false,"rental_uris":{"android":"levelo://app?vid=b125795f-7d19-4680-a8d6-94e84290827f","ios":"levelo://app?vid=b125795f-7d19-4680-a8d6-94e84290827f"},"vehicle_type_id":"4","last_reported":1735575065,"current_range_meters":39200,"station_id":"ce4bgs92rcd13ifvqcc0","pricing_plan_id":"cebpf4jnsgd1na2vs0mg"},{"bike_id":"92b731bd-5018-412b-882c-748ea846dc76","system_id":"levelo_inurba_marseille","lat":43.27318,"lon":5.39091,"is_reserved":false,"is_disabled":false,"rental_uris":{"android":"levelo://app?vid=92b731bd-5018-412b-882c-748ea846dc76","ios":"levelo://app?vid=92b731bd-5018-412b-882c-748ea846dc76"},"vehicle_type_id":"4","last_reported":1735575065,"current_range_meters":26800,"station_id":"ce4bhgp2rcd13ifvqfe0","pricing_plan_id":"cebpf4jnsgd1na2vs0mg"},{"bike_id":"b1e3d2fb-39b3-466a-8934-a01b3592fbe9","system_id":"levelo_inurba_marseille","lat":43.2984,"lon":5.36269,"is_reserved":false,"is_disabled":false,"rental_uris":{"android":"levelo://app?vid=b1e3d2fb-39b3-466a-8934-a01b3592fbe9","ios":"levelo://app?vid=b1e3d2fb-39b3-466a-8934-a01b3592fbe9"},"vehicle_type_id":"4","last_reported":1735575065,"current_range_meters":39200,"station_id":"ce4bgpp2rcd13ifvqc3g","pricing_plan_id":"cebpf4jnsgd1na2vs0mg"},{"bike_id":"0c4d407c-6cb3-4649-ac2d-959dc9dbd1fc","system_id":"levelo_inurba_marseille","lat":43.27953,"lon":5.41045,"is_reserved":false,"is_disabled":false,"rental_uris":{"android":"levelo://app?vid=0c4d407c-6cb3-4649-ac2d-959dc9dbd1fc","ios":"levelo://app?vid=0c4d407c-6cb3-4649-ac2d-959dc9dbd1fc"},"vehicle_type_id":"4","last_reported":1735575065,"current_range_meters":27600,"station_id":"ce4bhnp2rcd13ifvqh0g","pricing_plan_id":"cebpf4jnsgd1na2vs0mg"},{"bike_id":"dab3ccaf-c4b8-4722-8731-9973f6207435","system_id":"levelo_inurba_marseille","lat":43.3013,"lon":5.39864,"is_reserved":false,"is_disabled":false,"rental_uris":{"android":"levelo://app?vid=dab3ccaf-c4b8-4722-8731-9973f6207435","ios":"levelo://app?vid=dab3ccaf-c4b8-4722-8731-9973f6207435"},"vehicle_type_id":"4","last_reported":1735575065,"current_range_meters":38000,"station_id":"ce4bh0h2rcd13ifvqd40","pricing_plan_id":"cebpf4jnsgd1na2vs0mg"},{"bike_id":"e02c7dd9-59c0-450b-9ee9-b1f1ff0488d8","system_id":"levelo_inurba_marseille","lat":43.29723,"lon":5.36601,"is_reserved":false,"is_disabled":false,"rental_uris":{"android":"levelo://app?vid=e02c7dd9-59c0-450b-9ee9-b1f1ff0488d8","ios":"levelo://app?vid=e02c7dd9-59c0-450b-9ee9-b1f1ff0488d8"},"vehicle_type_id":"4","last_reported":1735575065,"current_range_meters":10000,"station_id":"ce4bgn12rcd13ifvqbt0","pricing_plan_id":"cebpf4jnsgd1na2vs0mg"},{"bike_id":"3991aac2-ec7f-43c8-801f-23e11845f2d6","system_id":"levelo_inurba_marseille","lat":43.281546,"lon":5.426533,"is_reserved":false,"is_disabled":false,"rental_uris":{"android":"levelo://app?vid=3991aac2-ec7f-43c8-801f-23e11845f2d6","ios":"levelo://app?vid=3991aac2-ec7f-43c8-801f-23e11845f2d6"},"vehicle_type_id":"4","last_reported":1735575065,"current_range_meters":38800,"station_id":"ce4bhnh2rcd13ifvqgug","pricing_plan_id":"cebpf4jnsgd1na2vs0mg"},{"bike_id":"215a3cc9-e20f-428c-9af1-514093bb2213","system_id":"levelo_inurba_marseille","lat":43.28421,"lon":5.34997,"is_reserved":false,"is_disabled":false,"rental_uris":{"android":"levelo://app?vid=215a3cc9-e20f-428c-9af1-514093bb2213","ios":"levelo://app?vid=215a3cc9-e20f-428c-9af1-514093bb2213"},"vehicle_type_id":"4","last_reported":1735575065,"current_range_meters":19600,"station_id":"ce4bhbh2rcd13ifvqepg","pricing_plan_id":"cebpf4jnsgd1na2vs0mg"},{"bike_id":"baaa04e6-afd5-4746-9e82-9d2e405bde6f","system_id":"levelo_inurba_marseille","lat":43.28458,"lon":5.35878,"is_reserved":false,"is_disabled":false,"rental_uris":{"android":"levelo://app?vid=baaa04e6-afd5-4746-9e82-9d2e405bde6f","ios":"levelo://app?vid=baaa04e6-afd5-4746-9e82-9d2e405bde6f"},"vehicle_type_id":"4","last_reported":1735575065,"current_range_meters":22800,"station_id":"ce4bhah2rcd13ifvqei0","pricing_plan_id":"cebpf4jnsgd1na2vs0mg"},{"bike_id":"a4b5b3e3-7bef-4978-a4f7-b2a8036d544d","system_id":"levelo_inurba_marseille","lat":43.28428,"lon":5.34987,"is_reserved":false,"is_disabled":false,"rental_uris":{"android":"levelo://app?vid=a4b5b3e3-7bef-4978-a4f7-b2a8036d544d","ios":"levelo://app?vid=a4b5b3e3-7bef-4978-a4f7-b2a8036d544d"},"vehicle_type_id":"4","last_reported":1735575065,"current_range_meters":26800,"station_id":"ce4bhbh2rcd13ifvqepg","pricing_plan_id":"cebpf4jnsgd1na2vs0mg"},{"bike_id":"3b3d2c75-4195-4f81-af35-afa13ebc8eea","system_id":"levelo_inurba_marseille","lat":43.27381,"lon":5.36259,"is_reserved":false,"is_disabled":true,"rental_uris":{"android":"levelo://app?vid=3b3d2c75-4195-4f81-af35-afa13ebc8eea","ios":"levelo://app?vid=3b3d2c75-4195-4f81-af35-afa13ebc8eea"},"vehicle_type_id":"4","last_reported":1735575065,"current_range_meters":22400,"station_id":"ce4bhbh2rcd13ifvqeo0","pricing_plan_id":"cebpf4jnsgd1na2vs0mg"},{"bike_id":"7700ee16-1279-4dce-b4c3-945e8b62b40d","system_id":"levelo_inurba_marseille","lat":43.26781,"lon":5.39413,"is_reserved":false,"is_disabled":false,"rental_uris":{"android":"levelo://app?vid=7700ee16-1279-4dce-b4c3-945e8b62b40d","ios":"levelo://app?vid=7700ee16-1279-4dce-b4c3-945e8b62b40d"},"vehicle_type_id":"4","last_reported":1735575065,"current_range_meters":28000,"station_id":"ce4bhh12rcd13ifvqfg0","pricing_plan_id":"cebpf4jnsgd1na2vs0mg"},{"bike_id":"d093c3a8-d086-45c6-b0b7-cbfbc0acb478","system_id":"levelo_inurba_marseille","lat":43.23962,"lon":5.3662,"is_reserved":false,"is_disabled":false,"rental_uris":{"android":"levelo://app?vid=d093c3a8-d086-45c6-b0b7-cbfbc0acb478","ios":"levelo://app?vid=d093c3a8-d086-45c6-b0b7-cbfbc0acb478"},"vehicle_type_id":"4","last_reported":1735575065,"current_range_meters":6800,"station_id":"ce4bhi12rcd13ifvqfp0","pricing_plan_id":"cebpf4jnsgd1na2vs0mg"},{"bike_id":"99c6b87a-843d-4eac-96f7-03bb3144a23d","system_id":"levelo_inurba_marseille","lat":43.23204,"lon":5.35563,"is_reserved":false,"is_disabled":false,"rental_uris":{"android":"levelo://app?vid=99c6b87a-843d-4eac-96f7-03bb3144a23d","ios":"levelo://app?vid=99c6b87a-843d-4eac-96f7-03bb3144a23d"},"vehicle_type_id":"4","last_reported":1735575065,"current_range_meters":37600,"station_id":"ce4bhu92rcd13ifvqi70","pricing_plan_id":"cebpf4jnsgd1na2vs0mg"},{"bike_id":"4b2d39f3-d5d3-4cb8-a84c-a1c267b615dd","system_id":"levelo_inurba_marseille","lat":43.28281,"lon":5.35088,"is_reserved":false,"is_disabled":true,"rental_uris":{"android":"levelo://app?vid=4b2d39f3-d5d3-4cb8-a84c-a1c267b615dd","ios":"levelo://app?vid=4b2d39f3-d5d3-4cb8-a84c-a1c267b615dd"},"vehicle_type_id":"4","last_reported":1735575065,"current_range_meters":10800,"station_id":"ce4bhbp2rcd13ifvqerg","pricing_plan_id":"cebpf4jnsgd1na2vs0mg"},{"bike_id":"43d70a12-f23b-4eab-80ce-32f6ec951a07","system_id":"levelo_inurba_marseille","lat":43.28007,"lon":5.4002,"is_reserved":false,"is_disabled":false,"rental_uris":{"android":"levelo://app?vid=43d70a12-f23b-4eab-80ce-32f6ec951a07","ios":"levelo://app?vid=43d70a12-f23b-4eab-80ce-32f6ec951a07"},"vehicle_type_id":"4","last_reported":1735575065,"current_range_meters":4400,"station_id":"ce4bho92rcd13ifvqh4g","pricing_plan_id":"cebpf4jnsgd1na2vs0mg"},{"bike_id":"a4b220c0-96b3-4dff-a0e6-c3ae3be6f46b","system_id":"levelo_inurba_marseille","lat":43.28997,"lon":5.356,"is_reserved":false,"is_disabled":false,"rental_uris":{"android":"levelo://app?vid=a4b220c0-96b3-4dff-a0e6-c3ae3be6f46b","ios":"levelo://app?vid=a4b220c0-96b3-4dff-a0e6-c3ae3be6f46b"},"vehicle_type_id":"4","last_reported":1735575065,"current_range_meters":38800,"station_id":"ce4bhb92rcd13ifvqen0","pricing_plan_id":"cebpf4jnsgd1na2vs0mg"},{"bike_id":"a6a30c74-d31a-4a3f-a251-d7bdc31aea9e","system_id":"levelo_inurba_marseille","lat":43.27076,"lon":5.42279,"is_reserved":false,"is_disabled":false,"rental_uris":{"android":"levelo://app?vid=a6a30c74-d31a-4a3f-a251-d7bdc31aea9e","ios":"levelo://app?vid=a6a30c74-d31a-4a3f-a251-d7bdc31aea9e"},"vehicle_type_id":"4","last_reported":1735575065,"current_range_meters":30800,"station_id":"ce4bhk92rcd13ifvqgb0","pricing_plan_id":"cebpf4jnsgd1na2vs0mg"},{"bike_id":"a29c3e60-080e-4654-bcf0-be274da7f720","system_id":"levelo_inurba_marseille","lat":43.27915,"lon":5.38639,"is_reserved":false,"is_disabled":false,"rental_uris":{"android":"levelo://app?vid=a29c3e60-080e-4654-bcf0-be274da7f720","ios":"levelo://app?vid=a29c3e60-080e-4654-bcf0-be274da7f720"},"vehicle_type_id":"4","last_reported":1735575065,"current_range_meters":36000,"station_id":"ce4bhg12rcd13ifvqf80","pricing_plan_id":"cebpf4jnsgd1na2vs0mg"},{"bike_id":"96c20827-89ed-4672-af72-3e7576524693","system_id":"levelo_inurba_marseille","lat":43.29006,"lon":5.35604,"is_reserved":false,"is_disabled":false,"rental_uris":{"android":"levelo://app?vid=96c20827-89ed-4672-af72-3e7576524693","ios":"levelo://app?vid=96c20827-89ed-4672-af72-3e7576524693"},"vehicle_type_id":"4","last_reported":1735575065,"current_range_meters":25200,"station_id":"ce4bhb92rcd13ifvqen0","pricing_plan_id":"cebpf4jnsgd1na2vs0mg"},{"bike_id":"32ace5bb-900b-4222-93e2-93d27226f8ca","system_id":"levelo_inurba_marseille","lat":43.26032,"lon":5.3755,"is_reserved":false,"is_disabled":false,"rental_uris":{"android":"levelo://app?vid=32ace5bb-900b-4222-93e2-93d27226f8ca","ios":"levelo://app?vid=32ace5bb-900b-4222-93e2-93d27226f8ca"},"vehicle_type_id":"4","last_reported":1735575065,"current_range_meters":15200,"station_id":"ce4bhgh2rcd13ifvqfa0","pricing_plan_id":"cebpf4jnsgd1na2vs0mg"},{"bike_id":"319cdfdb-ba38-4e57-83e0-925bb7d9e626","system_id":"levelo_inurba_marseille","lat":43.27816,"lon":5.40714,"is_reserved":false,"is_disabled":false,"rental_uris":{"android":"levelo://app?vid=319cdfdb-ba38-4e57-83e0-925bb7d9e626","ios":"levelo://app?vid=319cdfdb-ba38-4e57-83e0-925bb7d9e626"},"vehicle_type_id":"4","last_reported":1735575065,"current_range_meters":12800,"station_id":"ce4bhnh2rcd13ifvqgtg","pricing_plan_id":"cebpf4jnsgd1na2vs0mg"},{"bike_id":"9f2b9bba-3c4f-44b5-b426-31738094d189","system_id":"levelo_inurba_marseille","lat":43.30534,"lon":5.36727,"is_reserved":false,"is_disabled":false,"rental_uris":{"android":"levelo://app?vid=9f2b9bba-3c4f-44b5-b426-31738094d189","ios":"levelo://app?vid=9f2b9bba-3c4f-44b5-b426-31738094d189"},"vehicle_type_id":"4","last_reported":1735575065,"current_range_meters":29600,"station_id":"ce4bgrp2rcd13ifvqc9g","pricing_plan_id":"cebpf4jnsgd1na2vs0mg"},{"bike_id":"b4d130c6-4fa7-4fa3-83b8-3ae416781279","system_id":"levelo_inurba_marseille","lat":43.274369,"lon":5.392771,"is_reserved":false,"is_disabled":false,"rental_uris":{"android":"levelo://app?vid=b4d130c6-4fa7-4fa3-83b8-3ae416781279","ios":"levelo://app?vid=b4d130c6-4fa7-4fa3-83b8-3ae416781279"},"vehicle_type_id":"4","last_reported":1735575065,"current_range_meters":9600,"station_id":"","pricing_plan_id":"cebpf4jnsgd1na2vs0mg"},{"bike_id":"00fe8d92-c7ff-48a9-963b-cb862cc37bc1","system_id":"levelo_inurba_marseille","lat":43.3236,"lon":5.38879,"is_reserved":false,"is_disabled":false,"rental_uris":{"android":"levelo://app?vid=00fe8d92-c7ff-48a9-963b-cb862cc37bc1","ios":"levelo://app?vid=00fe8d92-c7ff-48a9-963b-cb862cc37bc1"},"vehicle_type_id":"4","last_reported":1735575065,"current_range_meters":25200,"station_id":"ce4bhqp2rcd13ifvqhog","pricing_plan_id":"cebpf4jnsgd1na2vs0mg"},{"bike_id":"8da5d8d5-7736-4902-a2a3-2af73789a5b8","system_id":"levelo_inurba_marseille","lat":43.26562,"lon":5.39021,"is_reserved":false,"is_disabled":false,"rental_uris":{"android":"levelo://app?vid=8da5d8d5-7736-4902-a2a3-2af73789a5b8","ios":"levelo://app?vid=8da5d8d5-7736-4902-a2a3-2af73789a5b8"},"vehicle_type_id":"4","last_reported":1735575065,"current_range_meters":38800,"station_id":"ce4bhe12rcd13ifvqf30","pricing_plan_id":"cebpf4jnsgd1na2vs0mg"},{"bike_id":"ff49d49a-53c3-499a-b296-89a67f332a8a","system_id":"levelo_inurba_marseille","lat":43.24166,"lon":5.36402,"is_reserved":false,"is_disabled":false,"rental_uris":{"android":"levelo://app?vid=ff49d49a-53c3-499a-b296-89a67f332a8a","ios":"levelo://app?vid=ff49d49a-53c3-499a-b296-89a67f332a8a"},"vehicle_type_id":"4","last_reported":1735575065,"current_range_meters":8400,"station_id":"cpo36qri1sfpv3e86is0","pricing_plan_id":"cebpf4jnsgd1na2vs0mg"},{"bike_id":"7b650bf4-9587-4dc5-8100-b644c449d67c","system_id":"levelo_inurba_marseille","lat":43.297097,"lon":5.376945,"is_reserved":false,"is_disabled":false,"rental_uris":{"android":"levelo://app?vid=7b650bf4-9587-4dc5-8100-b644c449d67c","ios":"levelo://app?vid=7b650bf4-9587-4dc5-8100-b644c449d67c"},"vehicle_type_id":"4","last_reported":1735575065,"current_range_meters":2800,"station_id":"ce4bgkh2rcd13ifvqbl0","pricing_plan_id":"cebpf4jnsgd1na2vs0mg"},{"bike_id":"68ce89d7-2c49-47a3-af51-4cee0b21d337","system_id":"levelo_inurba_marseille","lat":43.27964,"lon":5.38705,"is_reserved":false,"is_disabled":false,"rental_uris":{"android":"levelo://app?vid=68ce89d7-2c49-47a3-af51-4cee0b21d337","ios":"levelo://app?vid=68ce89d7-2c49-47a3-af51-4cee0b21d337"},"vehicle_type_id":"4","last_reported":1735575065,"current_range_meters":37600,"station_id":"ce4bhg12rcd13ifvqf80","pricing_plan_id":"cebpf4jnsgd1na2vs0mg"},{"bike_id":"294c14cb-577f-4c56-859e-2380db7a357a","system_id":"levelo_inurba_marseille","lat":43.2316,"lon":5.43728,"is_reserved":false,"is_disabled":true,"rental_uris":{"android":"levelo://app?vid=294c14cb-577f-4c56-859e-2380db7a357a","ios":"levelo://app?vid=294c14cb-577f-4c56-859e-2380db7a357a"},"vehicle_type_id":"4","last_reported":1735575065,"current_range_meters":1200,"station_id":"ce4bhmp2rcd13ifvqgog","pricing_plan_id":"cebpf4jnsgd1na2vs0mg"},{"bike_id":"2f38ae58-f85d-48ee-bf2a-2662fa040301","system_id":"levelo_inurba_marseille","lat":43.29002,"lon":5.3561,"is_reserved":false,"is_disabled":false,"rental_uris":{"android":"levelo://app?vid=2f38ae58-f85d-48ee-bf2a-2662fa040301","ios":"levelo://app?vid=2f38ae58-f85d-48ee-bf2a-2662fa040301"},"vehicle_type_id":"4","last_reported":1735575065,"current_range_meters":22400,"station_id":"ce4bhb92rcd13ifvqen0","pricing_plan_id":"cebpf4jnsgd1na2vs0mg"},{"bike_id":"b6559458-8701-4796-97db-d8dbe8701181","system_id":"levelo_inurba_marseille","lat":43.27311,"lon":5.39077,"is_reserved":false,"is_disabled":false,"rental_uris":{"android":"levelo://app?vid=b6559458-8701-4796-97db-d8dbe8701181","ios":"levelo://app?vid=b6559458-8701-4796-97db-d8dbe8701181"},"vehicle_type_id":"4","last_reported":1735575065,"current_range_meters":32400,"station_id":"ce4bhgp2rcd13ifvqfe0","pricing_plan_id":"cebpf4jnsgd1na2vs0mg"},{"bike_id":"13f84696-4405-43e0-b0f5-1a61d67abe32","system_id":"levelo_inurba_marseille","lat":43.278257,"lon":5.392036,"is_reserved":false,"is_disabled":false,"rental_uris":{"android":"levelo://app?vid=13f84696-4405-43e0-b0f5-1a61d67abe32","ios":"levelo://app?vid=13f84696-4405-43e0-b0f5-1a61d67abe32"},"vehicle_type_id":"4","last_reported":1735575065,"current_range_meters":18000,"station_id":"ce4bhjp2rcd13ifvqga0","pricing_plan_id":"cebpf4jnsgd1na2vs0mg"},{"bike_id":"caab34a4-5264-4b72-a12f-e55159fe93b6","system_id":"levelo_inurba_marseille","lat":43.27076,"lon":5.4227,"is_reserved":false,"is_disabled":false,"rental_uris":{"android":"levelo://app?vid=caab34a4-5264-4b72-a12f-e55159fe93b6","ios":"levelo://app?vid=caab34a4-5264-4b72-a12f-e55159fe93b6"},"vehicle_type_id":"4","last_reported":1735575065,"current_range_meters":18800,"station_id":"ce4bhk92rcd13ifvqgb0","pricing_plan_id":"cebpf4jnsgd1na2vs0mg"},{"bike_id":"125de5f8-09eb-44ba-80a5-284e382dbb1b","system_id":"levelo_inurba_marseille","lat":43.30476,"lon":5.37878,"is_reserved":false,"is_disabled":false,"rental_uris":{"android":"levelo://app?vid=125de5f8-09eb-44ba-80a5-284e382dbb1b","ios":"levelo://app?vid=125de5f8-09eb-44ba-80a5-284e382dbb1b"},"vehicle_type_id":"4","last_reported":1735575065,"current_range_meters":36800,"station_id":"ce4bgup2rcd13ifvqcn0","pricing_plan_id":"cebpf4jnsgd1na2vs0mg"},{"bike_id":"4b3c3617-003f-41ca-b24d-97369ba8f0f6","system_id":"levelo_inurba_marseille","lat":43.29076,"lon":5.37169,"is_reserved":false,"is_disabled":false,"rental_uris":{"android":"levelo://app?vid=4b3c3617-003f-41ca-b24d-97369ba8f0f6","ios":"levelo://app?vid=4b3c3617-003f-41ca-b24d-97369ba8f0f6"},"vehicle_type_id":"4","last_reported":1735575065,"current_range_meters":30000,"station_id":"ce4bh5p2rcd13ifvqe4g","pricing_plan_id":"cebpf4jnsgd1na2vs0mg"},{"bike_id":"1fdff105-c85f-4157-a441-abd257fe29bb","system_id":"levelo_inurba_marseille","lat":43.32364,"lon":5.38783,"is_reserved":false,"is_disabled":false,"rental_uris":{"android":"levelo://app?vid=1fdff105-c85f-4157-a441-abd257fe29bb","ios":"levelo://app?vid=1fdff105-c85f-4157-a441-abd257fe29bb"},"vehicle_type_id":"4","last_reported":1735575065,"current_range_meters":27600,"station_id":"","pricing_plan_id":"cebpf4jnsgd1na2vs0mg"},{"bike_id":"b28ff395-c223-42d8-887f-97ffb311c185","system_id":"levelo_inurba_marseille","lat":43.29011,"lon":5.35605,"is_reserved":false,"is_disabled":false,"rental_uris":{"android":"levelo://app?vid=b28ff395-c223-42d8-887f-97ffb311c185","ios":"levelo://app?vid=b28ff395-c223-42d8-887f-97ffb311c185"},"vehicle_type_id":"4","last_reported":1735575065,"current_range_meters":38400,"station_id":"ce4bhb92rcd13ifvqen0","pricing_plan_id":"cebpf4jnsgd1na2vs0mg"},{"bike_id":"a7c884f7-e1f0-40e9-bb5e-fa1a37c563c8","system_id":"levelo_inurba_marseille","lat":43.28628,"lon":5.35117,"is_reserved":false,"is_disabled":false,"rental_uris":{"android":"levelo://app?vid=a7c884f7-e1f0-40e9-bb5e-fa1a37c563c8","ios":"levelo://app?vid=a7c884f7-e1f0-40e9-bb5e-fa1a37c563c8"},"vehicle_type_id":"4","last_reported":1735575065,"current_range_meters":30000,"station_id":"ce4bhch2rcd13ifvqeug","pricing_plan_id":"cebpf4jnsgd1na2vs0mg"},{"bike_id":"10328e97-3b3f-42b6-8efd-3406f4be98f7","system_id":"levelo_inurba_marseille","lat":43.28428,"lon":5.34978,"is_reserved":false,"is_disabled":false,"rental_uris":{"android":"levelo://app?vid=10328e97-3b3f-42b6-8efd-3406f4be98f7","ios":"levelo://app?vid=10328e97-3b3f-42b6-8efd-3406f4be98f7"},"vehicle_type_id":"4","last_reported":1735575065,"current_range_meters":34800,"station_id":"ce4bhbh2rcd13ifvqepg","pricing_plan_id":"cebpf4jnsgd1na2vs0mg"},{"bike_id":"6eba8fb8-a8dc-4c1c-b5b2-8ff97466cc2d","system_id":"levelo_inurba_marseille","lat":43.25092,"lon":5.39526,"is_reserved":false,"is_disabled":false,"rental_uris":{"android":"levelo://app?vid=6eba8fb8-a8dc-4c1c-b5b2-8ff97466cc2d","ios":"levelo://app?vid=6eba8fb8-a8dc-4c1c-b5b2-8ff97466cc2d"},"vehicle_type_id":"4","last_reported":1735575065,"current_range_meters":18000,"station_id":"ce4bhm12rcd13ifvqgkg","pricing_plan_id":"cebpf4jnsgd1na2vs0mg"},{"bike_id":"1bdeba47-8c77-4dcb-a0de-8d667a296eb7","system_id":"levelo_inurba_marseille","lat":43.269189,"lon":5.403609,"is_reserved":false,"is_disabled":false,"rental_uris":{"android":"levelo://app?vid=1bdeba47-8c77-4dcb-a0de-8d667a296eb7","ios":"levelo://app?vid=1bdeba47-8c77-4dcb-a0de-8d667a296eb7"},"vehicle_type_id":"4","last_reported":1735575065,"current_range_meters":38400,"station_id":"cjm6bp8fraef2m0cb0m0","pricing_plan_id":"cebpf4jnsgd1na2vs0mg"},{"bike_id":"adddb5bb-31c3-49e9-ae76-52eab1442a1f","system_id":"levelo_inurba_marseille","lat":43.28842,"lon":5.35853,"is_reserved":false,"is_disabled":false,"rental_uris":{"android":"levelo://app?vid=adddb5bb-31c3-49e9-ae76-52eab1442a1f","ios":"levelo://app?vid=adddb5bb-31c3-49e9-ae76-52eab1442a1f"},"vehicle_type_id":"4","last_reported":1735575065,"current_range_meters":33600,"station_id":"ce4bhb12rcd13ifvqem0","pricing_plan_id":"cebpf4jnsgd1na2vs0mg"},{"bike_id":"8499c959-998d-4486-a511-9d65f0b01fae","system_id":"levelo_inurba_marseille","lat":43.25706,"lon":5.41049,"is_reserved":false,"is_disabled":false,"rental_uris":{"android":"levelo://app?vid=8499c959-998d-4486-a511-9d65f0b01fae","ios":"levelo://app?vid=8499c959-998d-4486-a511-9d65f0b01fae"},"vehicle_type_id":"4","last_reported":1735575065,"current_range_meters":30800,"station_id":"ce4bhkp2rcd13ifvqgd0","pricing_plan_id":"cebpf4jnsgd1na2vs0mg"},{"bike_id":"14c526e1-5037-4934-8226-6240aab7d63f","system_id":"levelo_inurba_marseille","lat":43.27493,"lon":5.42469,"is_reserved":false,"is_disabled":true,"rental_uris":{"android":"levelo://app?vid=14c526e1-5037-4934-8226-6240aab7d63f","ios":"levelo://app?vid=14c526e1-5037-4934-8226-6240aab7d63f"},"vehicle_type_id":"4","last_reported":1735575065,"current_range_meters":1600,"station_id":"ce4bhn92rcd13ifvqgrg","pricing_plan_id":"cebpf4jnsgd1na2vs0mg"},{"bike_id":"c754264e-2257-42b1-89f9-0bf9a740ba42","system_id":"levelo_inurba_marseille","lat":43.27566,"lon":5.38444,"is_reserved":false,"is_disabled":false,"rental_uris":{"android":"levelo://app?vid=c754264e-2257-42b1-89f9-0bf9a740ba42","ios":"levelo://app?vid=c754264e-2257-42b1-89f9-0bf9a740ba42"},"vehicle_type_id":"4","last_reported":1735575065,"current_range_meters":34800,"station_id":"ce4bhh92rcd13ifvqfi0","pricing_plan_id":"cebpf4jnsgd1na2vs0mg"},{"bike_id":"789a4ff9-d968-4f31-af36-a724bc6aea71","system_id":"levelo_inurba_marseille","lat":43.27819,"lon":5.39203,"is_reserved":false,"is_disabled":false,"rental_uris":{"android":"levelo://app?vid=789a4ff9-d968-4f31-af36-a724bc6aea71","ios":"levelo://app?vid=789a4ff9-d968-4f31-af36-a724bc6aea71"},"vehicle_type_id":"4","last_reported":1735575065,"current_range_meters":28400,"station_id":"ce4bhjp2rcd13ifvqga0","pricing_plan_id":"cebpf4jnsgd1na2vs0mg"},{"bike_id":"7703770a-4bfb-49d5-8a4d-d38f7b1c8b6c","system_id":"levelo_inurba_marseille","lat":43.2306,"lon":5.35492,"is_reserved":false,"is_disabled":false,"rental_uris":{"android":"levelo://app?vid=7703770a-4bfb-49d5-8a4d-d38f7b1c8b6c","ios":"levelo://app?vid=7703770a-4bfb-49d5-8a4d-d38f7b1c8b6c"},"vehicle_type_id":"4","last_reported":1735575065,"current_range_meters":8000,"station_id":"cpo3342slgdg3j2ifvpg","pricing_plan_id":"cebpf4jnsgd1na2vs0mg"},{"bike_id":"6b2dad46-8813-495f-bd0a-1ec44832666e","system_id":"levelo_inurba_marseille","lat":43.23185,"lon":5.35544,"is_reserved":false,"is_disabled":false,"rental_uris":{"android":"levelo://app?vid=6b2dad46-8813-495f-bd0a-1ec44832666e","ios":"levelo://app?vid=6b2dad46-8813-495f-bd0a-1ec44832666e"},"vehicle_type_id":"4","last_reported":1735575065,"current_range_meters":16800,"station_id":"ce4bhu92rcd13ifvqi70","pricing_plan_id":"cebpf4jnsgd1na2vs0mg"},{"bike_id":"dc36945f-1d52-4e2a-a26a-3610fb458e14","system_id":"levelo_inurba_marseille","lat":43.2848,"lon":5.38422,"is_reserved":false,"is_disabled":false,"rental_uris":{"android":"levelo://app?vid=dc36945f-1d52-4e2a-a26a-3610fb458e14","ios":"levelo://app?vid=dc36945f-1d52-4e2a-a26a-3610fb458e14"},"vehicle_type_id":"4","last_reported":1735575065,"current_range_meters":38000,"station_id":"ce4bh512rcd13ifvqe3g","pricing_plan_id":"cebpf4jnsgd1na2vs0mg"},{"bike_id":"9450ce1b-d2ba-417f-919e-b2631ccc4ee8","system_id":"levelo_inurba_marseille","lat":43.29385,"lon":5.37857,"is_reserved":false,"is_disabled":false,"rental_uris":{"android":"levelo://app?vid=9450ce1b-d2ba-417f-919e-b2631ccc4ee8","ios":"levelo://app?vid=9450ce1b-d2ba-417f-919e-b2631ccc4ee8"},"vehicle_type_id":"4","last_reported":1735575065,"current_range_meters":24000,"station_id":"ce4bgjh2rcd13ifvqbf0","pricing_plan_id":"cebpf4jnsgd1na2vs0mg"},{"bike_id":"b577f04f-9b10-4090-99ac-8f444e70b3e5","system_id":"levelo_inurba_marseille","lat":43.27493,"lon":5.42468,"is_reserved":false,"is_disabled":false,"rental_uris":{"android":"levelo://app?vid=b577f04f-9b10-4090-99ac-8f444e70b3e5","ios":"levelo://app?vid=b577f04f-9b10-4090-99ac-8f444e70b3e5"},"vehicle_type_id":"4","last_reported":1735575065,"current_range_meters":24800,"station_id":"ce4bhn92rcd13ifvqgrg","pricing_plan_id":"cebpf4jnsgd1na2vs0mg"},{"bike_id":"e3439fb3-f34d-45d1-958e-f99b48aeb0e9","system_id":"levelo_inurba_marseille","lat":43.29578,"lon":5.36752,"is_reserved":false,"is_disabled":false,"rental_uris":{"android":"levelo://app?vid=e3439fb3-f34d-45d1-958e-f99b48aeb0e9","ios":"levelo://app?vid=e3439fb3-f34d-45d1-958e-f99b48aeb0e9"},"vehicle_type_id":"4","last_reported":1735575065,"current_range_meters":38800,"station_id":"ce4bgph2rcd13ifvqc2g","pricing_plan_id":"cebpf4jnsgd1na2vs0mg"},{"bike_id":"5897f7d8-d786-47c8-96a0-2c453bad544c","system_id":"levelo_inurba_marseille","lat":43.2811,"lon":5.37871,"is_reserved":false,"is_disabled":false,"rental_uris":{"android":"levelo://app?vid=5897f7d8-d786-47c8-96a0-2c453bad544c","ios":"levelo://app?vid=5897f7d8-d786-47c8-96a0-2c453bad544c"},"vehicle_type_id":"4","last_reported":1735575065,"current_range_meters":37600,"station_id":"ce4bha12rcd13ifvqee0","pricing_plan_id":"cebpf4jnsgd1na2vs0mg"},{"bike_id":"e72c6d65-0b04-411e-bf0f-f72d15cad0d7","system_id":"levelo_inurba_marseille","lat":43.33731,"lon":5.39179,"is_reserved":false,"is_disabled":false,"rental_uris":{"android":"levelo://app?vid=e72c6d65-0b04-411e-bf0f-f72d15cad0d7","ios":"levelo://app?vid=e72c6d65-0b04-411e-bf0f-f72d15cad0d7"},"vehicle_type_id":"4","last_reported":1735575065,"current_range_meters":38800,"station_id":"ce4bhr92rcd13ifvqhsg","pricing_plan_id":"cebpf4jnsgd1na2vs0mg"},{"bike_id":"bb026ccd-d3aa-4c00-a992-d9f20432a24e","system_id":"levelo_inurba_marseille","lat":43.27649,"lon":5.38865,"is_reserved":false,"is_disabled":false,"rental_uris":{"android":"levelo://app?vid=bb026ccd-d3aa-4c00-a992-d9f20432a24e","ios":"levelo://app?vid=bb026ccd-d3aa-4c00-a992-d9f20432a24e"},"vehicle_type_id":"4","last_reported":1735575065,"current_range_meters":35200,"station_id":"ce4bhi12rcd13ifvqfo0","pricing_plan_id":"cebpf4jnsgd1na2vs0mg"},{"bike_id":"922f50a4-84de-453e-b928-5027b3618100","system_id":"levelo_inurba_marseille","lat":43.26562,"lon":5.37293,"is_reserved":false,"is_disabled":false,"rental_uris":{"android":"levelo://app?vid=922f50a4-84de-453e-b928-5027b3618100","ios":"levelo://app?vid=922f50a4-84de-453e-b928-5027b3618100"},"vehicle_type_id":"4","last_reported":1735575065,"current_range_meters":36800,"station_id":"ce4bhg12rcd13ifvqf70","pricing_plan_id":"cebpf4jnsgd1na2vs0mg"},{"bike_id":"51e96054-9df1-4d5f-8f38-d21429534890","system_id":"levelo_inurba_marseille","lat":43.28617,"lon":5.35105,"is_reserved":false,"is_disabled":false,"rental_uris":{"android":"levelo://app?vid=51e96054-9df1-4d5f-8f38-d21429534890","ios":"levelo://app?vid=51e96054-9df1-4d5f-8f38-d21429534890"},"vehicle_type_id":"4","last_reported":1735575065,"current_range_meters":38000,"station_id":"ce4bhch2rcd13ifvqeug","pricing_plan_id":"cebpf4jnsgd1na2vs0mg"},{"bike_id":"2fdeab75-c3c7-44e1-8744-5eb7e97729bb","system_id":"levelo_inurba_marseille","lat":43.32112,"lon":5.36769,"is_reserved":false,"is_disabled":false,"rental_uris":{"android":"levelo://app?vid=2fdeab75-c3c7-44e1-8744-5eb7e97729bb","ios":"levelo://app?vid=2fdeab75-c3c7-44e1-8744-5eb7e97729bb"},"vehicle_type_id":"4","last_reported":1735575065,"current_range_meters":36400,"station_id":"ce4bhrh2rcd13ifvqhug","pricing_plan_id":"cebpf4jnsgd1na2vs0mg"},{"bike_id":"931b1634-ff1b-468a-b5c6-459a7a66dd49","system_id":"levelo_inurba_marseille","lat":43.29024,"lon":5.38645,"is_reserved":false,"is_disabled":true,"rental_uris":{"android":"levelo://app?vid=931b1634-ff1b-468a-b5c6-459a7a66dd49","ios":"levelo://app?vid=931b1634-ff1b-468a-b5c6-459a7a66dd49"},"vehicle_type_id":"4","last_reported":1735575065,"current_range_meters":34000,"station_id":"ce4bh4p2rcd13ifvqe0g","pricing_plan_id":"cebpf4jnsgd1na2vs0mg"},{"bike_id":"40d33d5a-b0d6-4ca7-b92a-5a5e00a2e584","system_id":"levelo_inurba_marseille","lat":43.27317,"lon":5.39097,"is_reserved":false,"is_disabled":false,"rental_uris":{"android":"levelo://app?vid=40d33d5a-b0d6-4ca7-b92a-5a5e00a2e584","ios":"levelo://app?vid=40d33d5a-b0d6-4ca7-b92a-5a5e00a2e584"},"vehicle_type_id":"4","last_reported":1735575065,"current_range_meters":38800,"station_id":"ce4bhgp2rcd13ifvqfe0","pricing_plan_id":"cebpf4jnsgd1na2vs0mg"},{"bike_id":"9b64e674-316c-4a19-a9db-ef919fcbb4f0","system_id":"levelo_inurba_marseille","lat":43.2781,"lon":5.40711,"is_reserved":false,"is_disabled":false,"rental_uris":{"android":"levelo://app?vid=9b64e674-316c-4a19-a9db-ef919fcbb4f0","ios":"levelo://app?vid=9b64e674-316c-4a19-a9db-ef919fcbb4f0"},"vehicle_type_id":"4","last_reported":1735575065,"current_range_meters":22400,"station_id":"ce4bhnh2rcd13ifvqgtg","pricing_plan_id":"cebpf4jnsgd1na2vs0mg"},{"bike_id":"57103b12-06fc-494b-9a1a-1903f8f245d5","system_id":"levelo_inurba_marseille","lat":43.27985,"lon":5.41657,"is_reserved":false,"is_disabled":false,"rental_uris":{"android":"levelo://app?vid=57103b12-06fc-494b-9a1a-1903f8f245d5","ios":"levelo://app?vid=57103b12-06fc-494b-9a1a-1903f8f245d5"},"vehicle_type_id":"4","last_reported":1735575065,"current_range_meters":11600,"station_id":"ce4bho12rcd13ifvqh1g","pricing_plan_id":"cebpf4jnsgd1na2vs0mg"},{"bike_id":"c93a8900-340a-4a6d-ac3e-8882057837af","system_id":"levelo_inurba_marseille","lat":43.27382,"lon":5.36261,"is_reserved":false,"is_disabled":false,"rental_uris":{"android":"levelo://app?vid=c93a8900-340a-4a6d-ac3e-8882057837af","ios":"levelo://app?vid=c93a8900-340a-4a6d-ac3e-8882057837af"},"vehicle_type_id":"4","last_reported":1735575065,"current_range_meters":30800,"station_id":"ce4bhbh2rcd13ifvqeo0","pricing_plan_id":"cebpf4jnsgd1na2vs0mg"},{"bike_id":"d9d97985-8792-47a3-ab8c-09980f6a9900","system_id":"levelo_inurba_marseille","lat":43.29527,"lon":5.37509,"is_reserved":false,"is_disabled":false,"rental_uris":{"android":"levelo://app?vid=d9d97985-8792-47a3-ab8c-09980f6a9900","ios":"levelo://app?vid=d9d97985-8792-47a3-ab8c-09980f6a9900"},"vehicle_type_id":"4","last_reported":1735575065,"current_range_meters":37600,"station_id":"ce4bgkp2rcd13ifvqbmg","pricing_plan_id":"cebpf4jnsgd1na2vs0mg"},{"bike_id":"dad825e9-c481-4ecb-8e5a-ab3402dc32ab","system_id":"levelo_inurba_marseille","lat":43.301444,"lon":5.374148,"is_reserved":false,"is_disabled":false,"rental_uris":{"android":"levelo://app?vid=dad825e9-c481-4ecb-8e5a-ab3402dc32ab","ios":"levelo://app?vid=dad825e9-c481-4ecb-8e5a-ab3402dc32ab"},"vehicle_type_id":"4","last_reported":1735575065,"current_range_meters":24000,"station_id":"ce4bgs92rcd13ifvqcc0","pricing_plan_id":"cebpf4jnsgd1na2vs0mg"},{"bike_id":"f36bd60d-5c8a-4e27-967f-db546e208648","system_id":"levelo_inurba_marseille","lat":43.29872,"lon":5.38904,"is_reserved":false,"is_disabled":false,"rental_uris":{"android":"levelo://app?vid=f36bd60d-5c8a-4e27-967f-db546e208648","ios":"levelo://app?vid=f36bd60d-5c8a-4e27-967f-db546e208648"},"vehicle_type_id":"4","last_reported":1735575065,"current_range_meters":6400,"station_id":"ce4bh392rcd13ifvqdl0","pricing_plan_id":"cebpf4jnsgd1na2vs0mg"},{"bike_id":"c8c7da2f-8c1e-42c0-8bab-047558bbc6dc","system_id":"levelo_inurba_marseille","lat":43.337444,"lon":5.374475,"is_reserved":false,"is_disabled":false,"rental_uris":{"android":"levelo://app?vid=c8c7da2f-8c1e-42c0-8bab-047558bbc6dc","ios":"levelo://app?vid=c8c7da2f-8c1e-42c0-8bab-047558bbc6dc"},"vehicle_type_id":"4","last_reported":1735575065,"current_range_meters":22800,"station_id":"","pricing_plan_id":"cebpf4jnsgd1na2vs0mg"},{"bike_id":"482b0b80-c53d-4d05-aa82-218b22575b6c","system_id":"levelo_inurba_marseille","lat":43.23163,"lon":5.43713,"is_reserved":false,"is_disabled":true,"rental_uris":{"android":"levelo://app?vid=482b0b80-c53d-4d05-aa82-218b22575b6c","ios":"levelo://app?vid=482b0b80-c53d-4d05-aa82-218b22575b6c"},"vehicle_type_id":"4","last_reported":1735575065,"current_range_meters":34000,"station_id":"ce4bhmp2rcd13ifvqgog","pricing_plan_id":"cebpf4jnsgd1na2vs0mg"},{"bike_id":"9a716e5d-f84a-4446-8deb-b518e6295159","system_id":"levelo_inurba_marseille","lat":43.337444,"lon":5.374475,"is_reserved":false,"is_disabled":false,"rental_uris":{"android":"levelo://app?vid=9a716e5d-f84a-4446-8deb-b518e6295159","ios":"levelo://app?vid=9a716e5d-f84a-4446-8deb-b518e6295159"},"vehicle_type_id":"4","last_reported":1735575065,"current_range_meters":9600,"station_id":"","pricing_plan_id":"cebpf4jnsgd1na2vs0mg"},{"bike_id":"461bcdee-7e94-4615-b3c6-1955e94db622","system_id":"levelo_inurba_marseille","lat":43.25003,"lon":5.38931,"is_reserved":false,"is_disabled":false,"rental_uris":{"android":"levelo://app?vid=461bcdee-7e94-4615-b3c6-1955e94db622","ios":"levelo://app?vid=461bcdee-7e94-4615-b3c6-1955e94db622"},"vehicle_type_id":"4","last_reported":1735575065,"current_range_meters":38000,"station_id":"ce4bhgp2rcd13ifvqfd0","pricing_plan_id":"cebpf4jnsgd1na2vs0mg"},{"bike_id":"af4c9205-55ff-4407-b7c8-b9aaacba9b6e","system_id":"levelo_inurba_marseille","lat":43.27619,"lon":5.36121,"is_reserved":false,"is_disabled":false,"rental_uris":{"android":"levelo://app?vid=af4c9205-55ff-4407-b7c8-b9aaacba9b6e","ios":"levelo://app?vid=af4c9205-55ff-4407-b7c8-b9aaacba9b6e"},"vehicle_type_id":"4","last_reported":1735575065,"current_range_meters":30400,"station_id":"ce4bgj92rcd13ifvqbe0","pricing_plan_id":"cebpf4jnsgd1na2vs0mg"},{"bike_id":"d8b45686-a0fa-4221-98bc-ac76ebbb03c3","system_id":"levelo_inurba_marseille","lat":43.29318,"lon":5.37455,"is_reserved":false,"is_disabled":true,"rental_uris":{"android":"levelo://app?vid=d8b45686-a0fa-4221-98bc-ac76ebbb03c3","ios":"levelo://app?vid=d8b45686-a0fa-4221-98bc-ac76ebbb03c3"},"vehicle_type_id":"4","last_reported":1735575065,"current_range_meters":0,"station_id":"ce4bgi12rcd13ifvqb70","pricing_plan_id":"cebpf4jnsgd1na2vs0mg"},{"bike_id":"930f7ce6-e931-48ed-acea-dde57f1887ce","system_id":"levelo_inurba_marseille","lat":43.32104,"lon":5.36758,"is_reserved":false,"is_disabled":false,"rental_uris":{"android":"levelo://app?vid=930f7ce6-e931-48ed-acea-dde57f1887ce","ios":"levelo://app?vid=930f7ce6-e931-48ed-acea-dde57f1887ce"},"vehicle_type_id":"4","last_reported":1735575065,"current_range_meters":38000,"station_id":"ce4bhrh2rcd13ifvqhug","pricing_plan_id":"cebpf4jnsgd1na2vs0mg"},{"bike_id":"5d2018aa-7074-4fb0-bd19-46c785b0343c","system_id":"levelo_inurba_marseille","lat":43.27949,"lon":5.41049,"is_reserved":false,"is_disabled":false,"rental_uris":{"android":"levelo://app?vid=5d2018aa-7074-4fb0-bd19-46c785b0343c","ios":"levelo://app?vid=5d2018aa-7074-4fb0-bd19-46c785b0343c"},"vehicle_type_id":"4","last_reported":1735575065,"current_range_meters":6000,"station_id":"ce4bhnp2rcd13ifvqh0g","pricing_plan_id":"cebpf4jnsgd1na2vs0mg"},{"bike_id":"46c31a0a-be5e-43d4-93a4-4c27ab5b58ca","system_id":"levelo_inurba_marseille","lat":43.29634,"lon":5.37174,"is_reserved":false,"is_disabled":true,"rental_uris":{"android":"levelo://app?vid=46c31a0a-be5e-43d4-93a4-4c27ab5b58ca","ios":"levelo://app?vid=46c31a0a-be5e-43d4-93a4-4c27ab5b58ca"},"vehicle_type_id":"4","last_reported":1735575065,"current_range_meters":1600,"station_id":"ce4bgnh2rcd13ifvqc0g","pricing_plan_id":"cebpf4jnsgd1na2vs0mg"},{"bike_id":"857e731f-9747-4e99-8531-5484607712fb","system_id":"levelo_inurba_marseille","lat":43.29015,"lon":5.35588,"is_reserved":false,"is_disabled":false,"rental_uris":{"android":"levelo://app?vid=857e731f-9747-4e99-8531-5484607712fb","ios":"levelo://app?vid=857e731f-9747-4e99-8531-5484607712fb"},"vehicle_type_id":"4","last_reported":1735575065,"current_range_meters":38800,"station_id":"ce4bhb92rcd13ifvqen0","pricing_plan_id":"cebpf4jnsgd1na2vs0mg"},{"bike_id":"4a607445-ac1a-4540-9358-5748cbcbe727","system_id":"levelo_inurba_marseille","lat":43.31219,"lon":5.36834,"is_reserved":false,"is_disabled":false,"rental_uris":{"android":"levelo://app?vid=4a607445-ac1a-4540-9358-5748cbcbe727","ios":"levelo://app?vid=4a607445-ac1a-4540-9358-5748cbcbe727"},"vehicle_type_id":"4","last_reported":1735575065,"current_range_meters":16800,"station_id":"ce4bgl92rcd13ifvqbq0","pricing_plan_id":"cebpf4jnsgd1na2vs0mg"},{"bike_id":"216a1752-6291-4cd2-944a-f00d197e33eb","system_id":"levelo_inurba_marseille","lat":43.28473,"lon":5.35898,"is_reserved":false,"is_disabled":false,"rental_uris":{"android":"levelo://app?vid=216a1752-6291-4cd2-944a-f00d197e33eb","ios":"levelo://app?vid=216a1752-6291-4cd2-944a-f00d197e33eb"},"vehicle_type_id":"4","last_reported":1735575065,"current_range_meters":39200,"station_id":"ce4bhah2rcd13ifvqei0","pricing_plan_id":"cebpf4jnsgd1na2vs0mg"},{"bike_id":"42795d47-d62f-4f29-b59e-6d69fc9e7f52","system_id":"levelo_inurba_marseille","lat":43.30887,"lon":5.37185,"is_reserved":false,"is_disabled":false,"rental_uris":{"android":"levelo://app?vid=42795d47-d62f-4f29-b59e-6d69fc9e7f52","ios":"levelo://app?vid=42795d47-d62f-4f29-b59e-6d69fc9e7f52"},"vehicle_type_id":"4","last_reported":1735575065,"current_range_meters":37600,"station_id":"ce4bguh2rcd13ifvqckg","pricing_plan_id":"cebpf4jnsgd1na2vs0mg"},{"bike_id":"9fa91a67-dbf8-4a99-ab48-bde4b091de84","system_id":"levelo_inurba_marseille","lat":43.28615,"lon":5.37068,"is_reserved":false,"is_disabled":false,"rental_uris":{"android":"levelo://app?vid=9fa91a67-dbf8-4a99-ab48-bde4b091de84","ios":"levelo://app?vid=9fa91a67-dbf8-4a99-ab48-bde4b091de84"},"vehicle_type_id":"4","last_reported":1735575065,"current_range_meters":10800,"station_id":"ce4bht12rcd13ifvqi60","pricing_plan_id":"cebpf4jnsgd1na2vs0mg"},{"bike_id":"db407435-b2b4-4d68-8d1d-4736937f75f4","system_id":"levelo_inurba_marseille","lat":43.27378,"lon":5.36262,"is_reserved":false,"is_disabled":false,"rental_uris":{"android":"levelo://app?vid=db407435-b2b4-4d68-8d1d-4736937f75f4","ios":"levelo://app?vid=db407435-b2b4-4d68-8d1d-4736937f75f4"},"vehicle_type_id":"4","last_reported":1735575065,"current_range_meters":38800,"station_id":"ce4bhbh2rcd13ifvqeo0","pricing_plan_id":"cebpf4jnsgd1na2vs0mg"},{"bike_id":"d49ff4b4-a62e-41ab-8794-9fbd9fe470ce","system_id":"levelo_inurba_marseille","lat":43.28495,"lon":5.38459,"is_reserved":false,"is_disabled":false,"rental_uris":{"android":"levelo://app?vid=d49ff4b4-a62e-41ab-8794-9fbd9fe470ce","ios":"levelo://app?vid=d49ff4b4-a62e-41ab-8794-9fbd9fe470ce"},"vehicle_type_id":"4","last_reported":1735575065,"current_range_meters":38800,"station_id":"ce4bh512rcd13ifvqe3g","pricing_plan_id":"cebpf4jnsgd1na2vs0mg"},{"bike_id":"d124b3fa-f3a5-4c6d-bebc-2f7ad1a1004e","system_id":"levelo_inurba_marseille","lat":43.269494,"lon":5.386404,"is_reserved":false,"is_disabled":false,"rental_uris":{"android":"levelo://app?vid=d124b3fa-f3a5-4c6d-bebc-2f7ad1a1004e","ios":"levelo://app?vid=d124b3fa-f3a5-4c6d-bebc-2f7ad1a1004e"},"vehicle_type_id":"4","last_reported":1735575065,"current_range_meters":37600,"station_id":"ce4bhh92rcd13ifvqfh0","pricing_plan_id":"cebpf4jnsgd1na2vs0mg"},{"bike_id":"ea990fc9-5f95-4acd-a2be-29105099e24e","system_id":"levelo_inurba_marseille","lat":43.23062,"lon":5.35483,"is_reserved":false,"is_disabled":true,"rental_uris":{"android":"levelo://app?vid=ea990fc9-5f95-4acd-a2be-29105099e24e","ios":"levelo://app?vid=ea990fc9-5f95-4acd-a2be-29105099e24e"},"vehicle_type_id":"4","last_reported":1735575065,"current_range_meters":0,"station_id":"cpo3342slgdg3j2ifvpg","pricing_plan_id":"cebpf4jnsgd1na2vs0mg"},{"bike_id":"ecad0d45-3ae6-417e-877a-625f0224895a","system_id":"levelo_inurba_marseille","lat":43.29303,"lon":5.37462,"is_reserved":false,"is_disabled":false,"rental_uris":{"android":"levelo://app?vid=ecad0d45-3ae6-417e-877a-625f0224895a","ios":"levelo://app?vid=ecad0d45-3ae6-417e-877a-625f0224895a"},"vehicle_type_id":"4","last_reported":1735575065,"current_range_meters":19600,"station_id":"ce4bgi12rcd13ifvqb70","pricing_plan_id":"cebpf4jnsgd1na2vs0mg"},{"bike_id":"d062f8ed-af3b-4810-b7fb-e25f0dbd8c07","system_id":"levelo_inurba_marseille","lat":43.29688,"lon":5.3596,"is_reserved":false,"is_disabled":false,"rental_uris":{"android":"levelo://app?vid=d062f8ed-af3b-4810-b7fb-e25f0dbd8c07","ios":"levelo://app?vid=d062f8ed-af3b-4810-b7fb-e25f0dbd8c07"},"vehicle_type_id":"4","last_reported":1735575065,"current_range_meters":14400,"station_id":"","pricing_plan_id":"cebpf4jnsgd1na2vs0mg"},{"bike_id":"2f1d9612-95dd-4f76-a879-4949abd99b99","system_id":"levelo_inurba_marseille","lat":43.29534,"lon":5.37539,"is_reserved":false,"is_disabled":false,"rental_uris":{"android":"levelo://app?vid=2f1d9612-95dd-4f76-a879-4949abd99b99","ios":"levelo://app?vid=2f1d9612-95dd-4f76-a879-4949abd99b99"},"vehicle_type_id":"4","last_reported":1735575065,"current_range_meters":17200,"station_id":"ce4bgkp2rcd13ifvqbmg","pricing_plan_id":"cebpf4jnsgd1na2vs0mg"},{"bike_id":"16ca1e1d-dcaf-42e0-8205-375e734c2c66","system_id":"levelo_inurba_marseille","lat":43.25001,"lon":5.38928,"is_reserved":false,"is_disabled":false,"rental_uris":{"android":"levelo://app?vid=16ca1e1d-dcaf-42e0-8205-375e734c2c66","ios":"levelo://app?vid=16ca1e1d-dcaf-42e0-8205-375e734c2c66"},"vehicle_type_id":"4","last_reported":1735575065,"current_range_meters":10800,"station_id":"ce4bhgp2rcd13ifvqfd0","pricing_plan_id":"cebpf4jnsgd1na2vs0mg"},{"bike_id":"805b146d-680f-4010-8a1d-979f727ac65c","system_id":"levelo_inurba_marseille","lat":43.31364,"lon":5.36693,"is_reserved":false,"is_disabled":false,"rental_uris":{"android":"levelo://app?vid=805b146d-680f-4010-8a1d-979f727ac65c","ios":"levelo://app?vid=805b146d-680f-4010-8a1d-979f727ac65c"},"vehicle_type_id":"4","last_reported":1735575065,"current_range_meters":24400,"station_id":"ce4bgr92rcd13ifvqc6g","pricing_plan_id":"cebpf4jnsgd1na2vs0mg"},{"bike_id":"2a1b35da-daea-4a1d-a941-20b6a3a8bd98","system_id":"levelo_inurba_marseille","lat":43.2928,"lon":5.3685,"is_reserved":false,"is_disabled":false,"rental_uris":{"android":"levelo://app?vid=2a1b35da-daea-4a1d-a941-20b6a3a8bd98","ios":"levelo://app?vid=2a1b35da-daea-4a1d-a941-20b6a3a8bd98"},"vehicle_type_id":"4","last_reported":1735575065,"current_range_meters":36800,"station_id":"ce4bhbp2rcd13ifvqesg","pricing_plan_id":"cebpf4jnsgd1na2vs0mg"},{"bike_id":"32afc6cc-1544-4f88-ab5c-34496cc35b04","system_id":"levelo_inurba_marseille","lat":43.230618,"lon":5.35493,"is_reserved":false,"is_disabled":false,"rental_uris":{"android":"levelo://app?vid=32afc6cc-1544-4f88-ab5c-34496cc35b04","ios":"levelo://app?vid=32afc6cc-1544-4f88-ab5c-34496cc35b04"},"vehicle_type_id":"4","last_reported":1735575065,"current_range_meters":21600,"station_id":"cpo3342slgdg3j2ifvpg","pricing_plan_id":"cebpf4jnsgd1na2vs0mg"},{"bike_id":"ff27b50e-e127-48ea-a99c-ced35aad3637","system_id":"levelo_inurba_marseille","lat":43.27812,"lon":5.40707,"is_reserved":false,"is_disabled":false,"rental_uris":{"android":"levelo://app?vid=ff27b50e-e127-48ea-a99c-ced35aad3637","ios":"levelo://app?vid=ff27b50e-e127-48ea-a99c-ced35aad3637"},"vehicle_type_id":"4","last_reported":1735575065,"current_range_meters":30000,"station_id":"ce4bhnh2rcd13ifvqgtg","pricing_plan_id":"cebpf4jnsgd1na2vs0mg"},{"bike_id":"909f440c-cb07-4e90-ae06-2fd800ec689a","system_id":"levelo_inurba_marseille","lat":43.28491,"lon":5.38557,"is_reserved":false,"is_disabled":false,"rental_uris":{"android":"levelo://app?vid=909f440c-cb07-4e90-ae06-2fd800ec689a","ios":"levelo://app?vid=909f440c-cb07-4e90-ae06-2fd800ec689a"},"vehicle_type_id":"4","last_reported":1735575065,"current_range_meters":38800,"station_id":"ce4bh8p2rcd13ifvqeb0","pricing_plan_id":"cebpf4jnsgd1na2vs0mg"},{"bike_id":"9fd114e0-110e-4342-83f9-34fd35cf3864","system_id":"levelo_inurba_marseille","lat":43.29186,"lon":5.35816,"is_reserved":false,"is_disabled":false,"rental_uris":{"android":"levelo://app?vid=9fd114e0-110e-4342-83f9-34fd35cf3864","ios":"levelo://app?vid=9fd114e0-110e-4342-83f9-34fd35cf3864"},"vehicle_type_id":"4","last_reported":1735575065,"current_range_meters":10000,"station_id":"ce4bhb12rcd13ifvqel0","pricing_plan_id":"cebpf4jnsgd1na2vs0mg"},{"bike_id":"06171619-8a7f-48d4-ab35-dd3dfb7fd8fa","system_id":"levelo_inurba_marseille","lat":43.30601,"lon":5.37226,"is_reserved":false,"is_disabled":false,"rental_uris":{"android":"levelo://app?vid=06171619-8a7f-48d4-ab35-dd3dfb7fd8fa","ios":"levelo://app?vid=06171619-8a7f-48d4-ab35-dd3dfb7fd8fa"},"vehicle_type_id":"4","last_reported":1735575065,"current_range_meters":8800,"station_id":"ce4bgqh2rcd13ifvqc4g","pricing_plan_id":"cebpf4jnsgd1na2vs0mg"},{"bike_id":"4e9db863-43fc-4851-af2e-290d3ea7a6e9","system_id":"levelo_inurba_marseille","lat":43.28415,"lon":5.34992,"is_reserved":false,"is_disabled":false,"rental_uris":{"android":"levelo://app?vid=4e9db863-43fc-4851-af2e-290d3ea7a6e9","ios":"levelo://app?vid=4e9db863-43fc-4851-af2e-290d3ea7a6e9"},"vehicle_type_id":"4","last_reported":1735575065,"current_range_meters":38800,"station_id":"ce4bhbh2rcd13ifvqepg","pricing_plan_id":"cebpf4jnsgd1na2vs0mg"},{"bike_id":"002f93d3-effc-472e-a10a-4189e41c5d4e","system_id":"levelo_inurba_marseille","lat":43.27953,"lon":5.38697,"is_reserved":false,"is_disabled":false,"rental_uris":{"android":"levelo://app?vid=002f93d3-effc-472e-a10a-4189e41c5d4e","ios":"levelo://app?vid=002f93d3-effc-472e-a10a-4189e41c5d4e"},"vehicle_type_id":"4","last_reported":1735575065,"current_range_meters":38800,"station_id":"ce4bhg12rcd13ifvqf80","pricing_plan_id":"cebpf4jnsgd1na2vs0mg"},{"bike_id":"c555ca4c-11f1-431d-8a50-f4a1100f526d","system_id":"levelo_inurba_marseille","lat":43.30881,"lon":5.37175,"is_reserved":false,"is_disabled":false,"rental_uris":{"android":"levelo://app?vid=c555ca4c-11f1-431d-8a50-f4a1100f526d","ios":"levelo://app?vid=c555ca4c-11f1-431d-8a50-f4a1100f526d"},"vehicle_type_id":"4","last_reported":1735575065,"current_range_meters":16400,"station_id":"ce4bguh2rcd13ifvqckg","pricing_plan_id":"cebpf4jnsgd1na2vs0mg"},{"bike_id":"fafee940-bb5c-40a2-b27e-b4883261f360","system_id":"levelo_inurba_marseille","lat":43.24177,"lon":5.39741,"is_reserved":false,"is_disabled":false,"rental_uris":{"android":"levelo://app?vid=fafee940-bb5c-40a2-b27e-b4883261f360","ios":"levelo://app?vid=fafee940-bb5c-40a2-b27e-b4883261f360"},"vehicle_type_id":"4","last_reported":1735575065,"current_range_meters":4800,"station_id":"ce4bhn12rcd13ifvqgpg","pricing_plan_id":"cebpf4jnsgd1na2vs0mg"},{"bike_id":"022d826a-d31d-48ef-b07e-f8dd0ceaa746","system_id":"levelo_inurba_marseille","lat":43.25014,"lon":5.38915,"is_reserved":false,"is_disabled":false,"rental_uris":{"android":"levelo://app?vid=022d826a-d31d-48ef-b07e-f8dd0ceaa746","ios":"levelo://app?vid=022d826a-d31d-48ef-b07e-f8dd0ceaa746"},"vehicle_type_id":"4","last_reported":1735575065,"current_range_meters":38800,"station_id":"ce4bhgp2rcd13ifvqfd0","pricing_plan_id":"cebpf4jnsgd1na2vs0mg"},{"bike_id":"979b8b4b-9035-4588-93c7-c3b914ffee1a","system_id":"levelo_inurba_marseille","lat":43.3029,"lon":5.39194,"is_reserved":false,"is_disabled":false,"rental_uris":{"android":"levelo://app?vid=979b8b4b-9035-4588-93c7-c3b914ffee1a","ios":"levelo://app?vid=979b8b4b-9035-4588-93c7-c3b914ffee1a"},"vehicle_type_id":"4","last_reported":1735575065,"current_range_meters":35200,"station_id":"ce4bgkh2rcd13ifvqbk0","pricing_plan_id":"cebpf4jnsgd1na2vs0mg"},{"bike_id":"c72b4c7e-bcdc-4f19-94cf-8b04b39637b9","system_id":"levelo_inurba_marseille","lat":43.29419,"lon":5.38621,"is_reserved":false,"is_disabled":false,"rental_uris":{"android":"levelo://app?vid=c72b4c7e-bcdc-4f19-94cf-8b04b39637b9","ios":"levelo://app?vid=c72b4c7e-bcdc-4f19-94cf-8b04b39637b9"},"vehicle_type_id":"4","last_reported":1735575065,"current_range_meters":35200,"station_id":"ce4bh2h2rcd13ifvqdh0","pricing_plan_id":"cebpf4jnsgd1na2vs0mg"},{"bike_id":"e3cc78b5-f94a-4b1d-8594-87db830b5526","system_id":"levelo_inurba_marseille","lat":43.2762,"lon":5.36105,"is_reserved":false,"is_disabled":false,"rental_uris":{"android":"levelo://app?vid=e3cc78b5-f94a-4b1d-8594-87db830b5526","ios":"levelo://app?vid=e3cc78b5-f94a-4b1d-8594-87db830b5526"},"vehicle_type_id":"4","last_reported":1735575065,"current_range_meters":38800,"station_id":"ce4bgj92rcd13ifvqbe0","pricing_plan_id":"cebpf4jnsgd1na2vs0mg"},{"bike_id":"2f90c399-2dae-4be2-b282-04f6c3355909","system_id":"levelo_inurba_marseille","lat":43.312326,"lon":5.368452,"is_reserved":false,"is_disabled":false,"rental_uris":{"android":"levelo://app?vid=2f90c399-2dae-4be2-b282-04f6c3355909","ios":"levelo://app?vid=2f90c399-2dae-4be2-b282-04f6c3355909"},"vehicle_type_id":"4","last_reported":1735575065,"current_range_meters":38800,"station_id":"ce4bgl92rcd13ifvqbq0","pricing_plan_id":"cebpf4jnsgd1na2vs0mg"},{"bike_id":"ef2b8e0d-f459-42fc-b0fa-07fcd6e1bc1a","system_id":"levelo_inurba_marseille","lat":43.27317,"lon":5.39105,"is_reserved":false,"is_disabled":false,"rental_uris":{"android":"levelo://app?vid=ef2b8e0d-f459-42fc-b0fa-07fcd6e1bc1a","ios":"levelo://app?vid=ef2b8e0d-f459-42fc-b0fa-07fcd6e1bc1a"},"vehicle_type_id":"4","last_reported":1735575065,"current_range_meters":38800,"station_id":"ce4bhgp2rcd13ifvqfe0","pricing_plan_id":"cebpf4jnsgd1na2vs0mg"},{"bike_id":"99d4d7d3-4a4f-40d2-aa53-bd8647f920ff","system_id":"levelo_inurba_marseille","lat":43.30141,"lon":5.38803,"is_reserved":false,"is_disabled":true,"rental_uris":{"android":"levelo://app?vid=99d4d7d3-4a4f-40d2-aa53-bd8647f920ff","ios":"levelo://app?vid=99d4d7d3-4a4f-40d2-aa53-bd8647f920ff"},"vehicle_type_id":"4","last_reported":1735575065,"current_range_meters":0,"station_id":"ce4bghh2rcd13ifvqb60","pricing_plan_id":"cebpf4jnsgd1na2vs0mg"},{"bike_id":"963c7f56-156f-4c15-8767-946ec40d2c53","system_id":"levelo_inurba_marseille","lat":43.28489,"lon":5.38573,"is_reserved":false,"is_disabled":false,"rental_uris":{"android":"levelo://app?vid=963c7f56-156f-4c15-8767-946ec40d2c53","ios":"levelo://app?vid=963c7f56-156f-4c15-8767-946ec40d2c53"},"vehicle_type_id":"4","last_reported":1735575065,"current_range_meters":26000,"station_id":"ce4bh8p2rcd13ifvqeb0","pricing_plan_id":"cebpf4jnsgd1na2vs0mg"},{"bike_id":"356fd92d-e963-40e6-b40e-58fc72ac9553","system_id":"levelo_inurba_marseille","lat":43.32091,"lon":5.36774,"is_reserved":false,"is_disabled":false,"rental_uris":{"android":"levelo://app?vid=356fd92d-e963-40e6-b40e-58fc72ac9553","ios":"levelo://app?vid=356fd92d-e963-40e6-b40e-58fc72ac9553"},"vehicle_type_id":"4","last_reported":1735575065,"current_range_meters":32400,"station_id":"ce4bhrh2rcd13ifvqhug","pricing_plan_id":"cebpf4jnsgd1na2vs0mg"},{"bike_id":"bc5b1eb0-e0cc-4bc8-ace6-73ac5a62f2ea","system_id":"levelo_inurba_marseille","lat":43.30588,"lon":5.39351,"is_reserved":false,"is_disabled":false,"rental_uris":{"android":"levelo://app?vid=bc5b1eb0-e0cc-4bc8-ace6-73ac5a62f2ea","ios":"levelo://app?vid=bc5b1eb0-e0cc-4bc8-ace6-73ac5a62f2ea"},"vehicle_type_id":"4","last_reported":1735575065,"current_range_meters":3200,"station_id":"ce4bh0p2rcd13ifvqd80","pricing_plan_id":"cebpf4jnsgd1na2vs0mg"},{"bike_id":"f6c3569e-efa4-4a1c-b75b-94ded8df3e64","system_id":"levelo_inurba_marseille","lat":43.27959,"lon":5.38731,"is_reserved":false,"is_disabled":false,"rental_uris":{"android":"levelo://app?vid=f6c3569e-efa4-4a1c-b75b-94ded8df3e64","ios":"levelo://app?vid=f6c3569e-efa4-4a1c-b75b-94ded8df3e64"},"vehicle_type_id":"4","last_reported":1735575065,"current_range_meters":36400,"station_id":"ce4bhg12rcd13ifvqf80","pricing_plan_id":"cebpf4jnsgd1na2vs0mg"},{"bike_id":"6f2d13c6-6ebc-4e88-b92c-8f9906dcf352","system_id":"levelo_inurba_marseille","lat":43.27495,"lon":5.42454,"is_reserved":false,"is_disabled":false,"rental_uris":{"android":"levelo://app?vid=6f2d13c6-6ebc-4e88-b92c-8f9906dcf352","ios":"levelo://app?vid=6f2d13c6-6ebc-4e88-b92c-8f9906dcf352"},"vehicle_type_id":"4","last_reported":1735575065,"current_range_meters":18000,"station_id":"ce4bhn92rcd13ifvqgrg","pricing_plan_id":"cebpf4jnsgd1na2vs0mg"},{"bike_id":"5b0aed25-3a00-480b-8943-84ac3074319e","system_id":"levelo_inurba_marseille","lat":43.29715,"lon":5.36601,"is_reserved":false,"is_disabled":false,"rental_uris":{"android":"levelo://app?vid=5b0aed25-3a00-480b-8943-84ac3074319e","ios":"levelo://app?vid=5b0aed25-3a00-480b-8943-84ac3074319e"},"vehicle_type_id":"4","last_reported":1735575065,"current_range_meters":38800,"station_id":"ce4bgn12rcd13ifvqbt0","pricing_plan_id":"cebpf4jnsgd1na2vs0mg"},{"bike_id":"882f499c-d93f-4e6b-baed-ec6fb82f4ebf","system_id":"levelo_inurba_marseille","lat":43.30152,"lon":5.38088,"is_reserved":false,"is_disabled":false,"rental_uris":{"android":"levelo://app?vid=882f499c-d93f-4e6b-baed-ec6fb82f4ebf","ios":"levelo://app?vid=882f499c-d93f-4e6b-baed-ec6fb82f4ebf"},"vehicle_type_id":"4","last_reported":1735575065,"current_range_meters":36400,"station_id":"ce4bgjp2rcd13ifvqbh0","pricing_plan_id":"cebpf4jnsgd1na2vs0mg"},{"bike_id":"782ac4f8-43d6-48d5-bebe-d3b623304674","system_id":"levelo_inurba_marseille","lat":43.29621,"lon":5.37725,"is_reserved":false,"is_disabled":true,"rental_uris":{"android":"levelo://app?vid=782ac4f8-43d6-48d5-bebe-d3b623304674","ios":"levelo://app?vid=782ac4f8-43d6-48d5-bebe-d3b623304674"},"vehicle_type_id":"4","last_reported":1735575065,"current_range_meters":32000,"station_id":"ce4bgi92rcd13ifvqb90","pricing_plan_id":"cebpf4jnsgd1na2vs0mg"},{"bike_id":"7495a795-77c2-47dc-9670-8e9b96226790","system_id":"levelo_inurba_marseille","lat":43.29898,"lon":5.43664,"is_reserved":false,"is_disabled":false,"rental_uris":{"android":"levelo://app?vid=7495a795-77c2-47dc-9670-8e9b96226790","ios":"levelo://app?vid=7495a795-77c2-47dc-9670-8e9b96226790"},"vehicle_type_id":"4","last_reported":1735575065,"current_range_meters":34800,"station_id":"ce4bhpp2rcd13ifvqhfg","pricing_plan_id":"cebpf4jnsgd1na2vs0mg"},{"bike_id":"80a92a9b-3285-426b-91cf-07d379966c6b","system_id":"levelo_inurba_marseille","lat":43.26693,"lon":5.3829,"is_reserved":false,"is_disabled":false,"rental_uris":{"android":"levelo://app?vid=80a92a9b-3285-426b-91cf-07d379966c6b","ios":"levelo://app?vid=80a92a9b-3285-426b-91cf-07d379966c6b"},"vehicle_type_id":"4","last_reported":1735575065,"current_range_meters":36000,"station_id":"ce4bhg92rcd13ifvqf90","pricing_plan_id":"cebpf4jnsgd1na2vs0mg"},{"bike_id":"1546d79b-9150-4154-b844-f0e1ceb5f6e7","system_id":"levelo_inurba_marseille","lat":43.3014,"lon":5.3987,"is_reserved":false,"is_disabled":false,"rental_uris":{"android":"levelo://app?vid=1546d79b-9150-4154-b844-f0e1ceb5f6e7","ios":"levelo://app?vid=1546d79b-9150-4154-b844-f0e1ceb5f6e7"},"vehicle_type_id":"4","last_reported":1735575065,"current_range_meters":38400,"station_id":"ce4bh0h2rcd13ifvqd40","pricing_plan_id":"cebpf4jnsgd1na2vs0mg"},{"bike_id":"4ac49525-4448-4d40-aa46-1837c66fb5eb","system_id":"levelo_inurba_marseille","lat":43.29267,"lon":5.38441,"is_reserved":false,"is_disabled":false,"rental_uris":{"android":"levelo://app?vid=4ac49525-4448-4d40-aa46-1837c66fb5eb","ios":"levelo://app?vid=4ac49525-4448-4d40-aa46-1837c66fb5eb"},"vehicle_type_id":"4","last_reported":1735575065,"current_range_meters":22000,"station_id":"ce4bh692rcd13ifvqea0","pricing_plan_id":"cebpf4jnsgd1na2vs0mg"},{"bike_id":"af59883f-544e-410f-af29-7b7215b585c3","system_id":"levelo_inurba_marseille","lat":43.28416,"lon":5.37507,"is_reserved":false,"is_disabled":false,"rental_uris":{"android":"levelo://app?vid=af59883f-544e-410f-af29-7b7215b585c3","ios":"levelo://app?vid=af59883f-544e-410f-af29-7b7215b585c3"},"vehicle_type_id":"4","last_reported":1735575065,"current_range_meters":16400,"station_id":"ce4bh412rcd13ifvqds0","pricing_plan_id":"cebpf4jnsgd1na2vs0mg"},{"bike_id":"e70ce8bb-674e-436b-ab6d-79ca756c291a","system_id":"levelo_inurba_marseille","lat":43.25728,"lon":5.41112,"is_reserved":false,"is_disabled":false,"rental_uris":{"android":"levelo://app?vid=e70ce8bb-674e-436b-ab6d-79ca756c291a","ios":"levelo://app?vid=e70ce8bb-674e-436b-ab6d-79ca756c291a"},"vehicle_type_id":"4","last_reported":1735575065,"current_range_meters":26800,"station_id":"ce4bhkp2rcd13ifvqgd0","pricing_plan_id":"cebpf4jnsgd1na2vs0mg"},{"bike_id":"fd9c27ba-b836-43d9-bd9d-4a6e69976d7f","system_id":"levelo_inurba_marseille","lat":43.328077,"lon":5.366989,"is_reserved":false,"is_disabled":false,"rental_uris":{"android":"levelo://app?vid=fd9c27ba-b836-43d9-bd9d-4a6e69976d7f","ios":"levelo://app?vid=fd9c27ba-b836-43d9-bd9d-4a6e69976d7f"},"vehicle_type_id":"4","last_reported":1735575065,"current_range_meters":38800,"station_id":"ce4bh2h2rcd13ifvqdh0","pricing_plan_id":"cebpf4jnsgd1na2vs0mg"},{"bike_id":"679b64bb-93c5-49e5-85ca-b34af0193bc4","system_id":"levelo_inurba_marseille","lat":43.27079,"lon":5.4228,"is_reserved":false,"is_disabled":false,"rental_uris":{"android":"levelo://app?vid=679b64bb-93c5-49e5-85ca-b34af0193bc4","ios":"levelo://app?vid=679b64bb-93c5-49e5-85ca-b34af0193bc4"},"vehicle_type_id":"4","last_reported":1735575065,"current_range_meters":23200,"station_id":"ce4bhk92rcd13ifvqgb0","pricing_plan_id":"cebpf4jnsgd1na2vs0mg"},{"bike_id":"35142cb1-da84-4465-a902-1b70f5829b31","system_id":"levelo_inurba_marseille","lat":43.25723,"lon":5.41106,"is_reserved":false,"is_disabled":false,"rental_uris":{"android":"levelo://app?vid=35142cb1-da84-4465-a902-1b70f5829b31","ios":"levelo://app?vid=35142cb1-da84-4465-a902-1b70f5829b31"},"vehicle_type_id":"4","last_reported":1735575065,"current_range_meters":35600,"station_id":"ce4bhkp2rcd13ifvqgd0","pricing_plan_id":"cebpf4jnsgd1na2vs0mg"},{"bike_id":"052fe37e-bb23-4867-b74d-9d07f72e74a4","system_id":"levelo_inurba_marseille","lat":43.3043,"lon":5.38899,"is_reserved":false,"is_disabled":false,"rental_uris":{"android":"levelo://app?vid=052fe37e-bb23-4867-b74d-9d07f72e74a4","ios":"levelo://app?vid=052fe37e-bb23-4867-b74d-9d07f72e74a4"},"vehicle_type_id":"4","last_reported":1735575065,"current_range_meters":30800,"station_id":"ce4bgk12rcd13ifvqbi0","pricing_plan_id":"cebpf4jnsgd1na2vs0mg"},{"bike_id":"23a12986-fc99-4901-b1bc-5abc112ec4de","system_id":"levelo_inurba_marseille","lat":43.23153,"lon":5.43739,"is_reserved":false,"is_disabled":false,"rental_uris":{"android":"levelo://app?vid=23a12986-fc99-4901-b1bc-5abc112ec4de","ios":"levelo://app?vid=23a12986-fc99-4901-b1bc-5abc112ec4de"},"vehicle_type_id":"4","last_reported":1735575065,"current_range_meters":2800,"station_id":"ce4bhmp2rcd13ifvqgog","pricing_plan_id":"cebpf4jnsgd1na2vs0mg"},{"bike_id":"f5997a88-606e-48c9-933e-041b10894cea","system_id":"levelo_inurba_marseille","lat":43.27067,"lon":5.4228,"is_reserved":false,"is_disabled":false,"rental_uris":{"android":"levelo://app?vid=f5997a88-606e-48c9-933e-041b10894cea","ios":"levelo://app?vid=f5997a88-606e-48c9-933e-041b10894cea"},"vehicle_type_id":"4","last_reported":1735575065,"current_range_meters":28400,"station_id":"ce4bhk92rcd13ifvqgb0","pricing_plan_id":"cebpf4jnsgd1na2vs0mg"},{"bike_id":"357113db-8e20-40dd-894a-20d3cf3ab5b5","system_id":"levelo_inurba_marseille","lat":43.273775,"lon":5.36249,"is_reserved":false,"is_disabled":false,"rental_uris":{"android":"levelo://app?vid=357113db-8e20-40dd-894a-20d3cf3ab5b5","ios":"levelo://app?vid=357113db-8e20-40dd-894a-20d3cf3ab5b5"},"vehicle_type_id":"4","last_reported":1735575065,"current_range_meters":12000,"station_id":"ce4bhbh2rcd13ifvqeo0","pricing_plan_id":"cebpf4jnsgd1na2vs0mg"},{"bike_id":"79a9cc94-882c-4645-897a-abb5a5249316","system_id":"levelo_inurba_marseille","lat":43.337444,"lon":5.374475,"is_reserved":false,"is_disabled":false,"rental_uris":{"android":"levelo://app?vid=79a9cc94-882c-4645-897a-abb5a5249316","ios":"levelo://app?vid=79a9cc94-882c-4645-897a-abb5a5249316"},"vehicle_type_id":"4","last_reported":1735575065,"current_range_meters":35200,"station_id":"","pricing_plan_id":"cebpf4jnsgd1na2vs0mg"},{"bike_id":"2c33038e-7670-40a2-bea3-07077b80fc21","system_id":"levelo_inurba_marseille","lat":43.26683,"lon":5.38273,"is_reserved":false,"is_disabled":true,"rental_uris":{"android":"levelo://app?vid=2c33038e-7670-40a2-bea3-07077b80fc21","ios":"levelo://app?vid=2c33038e-7670-40a2-bea3-07077b80fc21"},"vehicle_type_id":"4","last_reported":1735575065,"current_range_meters":2000,"station_id":"ce4bhg92rcd13ifvqf90","pricing_plan_id":"cebpf4jnsgd1na2vs0mg"},{"bike_id":"0c85ca13-031c-4199-ad79-f9b475e982aa","system_id":"levelo_inurba_marseille","lat":43.28059,"lon":5.3695,"is_reserved":false,"is_disabled":false,"rental_uris":{"android":"levelo://app?vid=0c85ca13-031c-4199-ad79-f9b475e982aa","ios":"levelo://app?vid=0c85ca13-031c-4199-ad79-f9b475e982aa"},"vehicle_type_id":"4","last_reported":1735575065,"current_range_meters":38800,"station_id":"ce4bha12rcd13ifvqef0","pricing_plan_id":"cebpf4jnsgd1na2vs0mg"},{"bike_id":"e400ae91-796a-42de-a6cd-61842b2737c2","system_id":"levelo_inurba_marseille","lat":43.26677,"lon":5.3827,"is_reserved":false,"is_disabled":false,"rental_uris":{"android":"levelo://app?vid=e400ae91-796a-42de-a6cd-61842b2737c2","ios":"levelo://app?vid=e400ae91-796a-42de-a6cd-61842b2737c2"},"vehicle_type_id":"4","last_reported":1735575065,"current_range_meters":28400,"station_id":"ce4bhg92rcd13ifvqf90","pricing_plan_id":"cebpf4jnsgd1na2vs0mg"},{"bike_id":"e05b8841-1e37-41ca-a6c3-d911f4b910c9","system_id":"levelo_inurba_marseille","lat":43.27306,"lon":5.39106,"is_reserved":false,"is_disabled":false,"rental_uris":{"android":"levelo://app?vid=e05b8841-1e37-41ca-a6c3-d911f4b910c9","ios":"levelo://app?vid=e05b8841-1e37-41ca-a6c3-d911f4b910c9"},"vehicle_type_id":"4","last_reported":1735575065,"current_range_meters":24800,"station_id":"ce4bhgp2rcd13ifvqfe0","pricing_plan_id":"cebpf4jnsgd1na2vs0mg"},{"bike_id":"3f188f7c-a5c4-44f4-9bc3-999d2a09a56e","system_id":"levelo_inurba_marseille","lat":43.27567,"lon":5.38415,"is_reserved":false,"is_disabled":false,"rental_uris":{"android":"levelo://app?vid=3f188f7c-a5c4-44f4-9bc3-999d2a09a56e","ios":"levelo://app?vid=3f188f7c-a5c4-44f4-9bc3-999d2a09a56e"},"vehicle_type_id":"4","last_reported":1735575065,"current_range_meters":38800,"station_id":"ce4bhh92rcd13ifvqfi0","pricing_plan_id":"cebpf4jnsgd1na2vs0mg"},{"bike_id":"86e46d16-f92c-4f5f-835e-4c1347488a8c","system_id":"levelo_inurba_marseille","lat":43.30142,"lon":5.37416,"is_reserved":false,"is_disabled":false,"rental_uris":{"android":"levelo://app?vid=86e46d16-f92c-4f5f-835e-4c1347488a8c","ios":"levelo://app?vid=86e46d16-f92c-4f5f-835e-4c1347488a8c"},"vehicle_type_id":"4","last_reported":1735575065,"current_range_meters":2800,"station_id":"ce4bgs92rcd13ifvqcc0","pricing_plan_id":"cebpf4jnsgd1na2vs0mg"},{"bike_id":"56731e3e-7f36-4713-a4bd-24b5ee5d43d3","system_id":"levelo_inurba_marseille","lat":43.28033,"lon":5.36946,"is_reserved":false,"is_disabled":false,"rental_uris":{"android":"levelo://app?vid=56731e3e-7f36-4713-a4bd-24b5ee5d43d3","ios":"levelo://app?vid=56731e3e-7f36-4713-a4bd-24b5ee5d43d3"},"vehicle_type_id":"4","last_reported":1735575065,"current_range_meters":38800,"station_id":"ce4bha12rcd13ifvqef0","pricing_plan_id":"cebpf4jnsgd1na2vs0mg"},{"bike_id":"5737f50c-7647-4928-8c04-d75aea34bf76","system_id":"levelo_inurba_marseille","lat":43.29188,"lon":5.35809,"is_reserved":false,"is_disabled":false,"rental_uris":{"android":"levelo://app?vid=5737f50c-7647-4928-8c04-d75aea34bf76","ios":"levelo://app?vid=5737f50c-7647-4928-8c04-d75aea34bf76"},"vehicle_type_id":"4","last_reported":1735575065,"current_range_meters":34000,"station_id":"ce4bhb12rcd13ifvqel0","pricing_plan_id":"cebpf4jnsgd1na2vs0mg"},{"bike_id":"dd708212-6c95-4591-b555-43b33b8da7f5","system_id":"levelo_inurba_marseille","lat":43.25719,"lon":5.41082,"is_reserved":false,"is_disabled":false,"rental_uris":{"android":"levelo://app?vid=dd708212-6c95-4591-b555-43b33b8da7f5","ios":"levelo://app?vid=dd708212-6c95-4591-b555-43b33b8da7f5"},"vehicle_type_id":"4","last_reported":1735575065,"current_range_meters":33600,"station_id":"ce4bhkp2rcd13ifvqgd0","pricing_plan_id":"cebpf4jnsgd1na2vs0mg"},{"bike_id":"299d264c-fd0b-4c1d-83d6-4d6e8aa30546","system_id":"levelo_inurba_marseille","lat":43.29552,"lon":5.42274,"is_reserved":false,"is_disabled":false,"rental_uris":{"android":"levelo://app?vid=299d264c-fd0b-4c1d-83d6-4d6e8aa30546","ios":"levelo://app?vid=299d264c-fd0b-4c1d-83d6-4d6e8aa30546"},"vehicle_type_id":"4","last_reported":1735575065,"current_range_meters":12800,"station_id":"ce4bhph2rcd13ifvqhdg","pricing_plan_id":"cebpf4jnsgd1na2vs0mg"},{"bike_id":"7686e9a1-b495-4cbd-9cf0-a8331cae3345","system_id":"levelo_inurba_marseille","lat":43.31753,"lon":5.39011,"is_reserved":false,"is_disabled":false,"rental_uris":{"android":"levelo://app?vid=7686e9a1-b495-4cbd-9cf0-a8331cae3345","ios":"levelo://app?vid=7686e9a1-b495-4cbd-9cf0-a8331cae3345"},"vehicle_type_id":"4","last_reported":1735575065,"current_range_meters":38800,"station_id":"ce4bhqp2rcd13ifvqhng","pricing_plan_id":"cebpf4jnsgd1na2vs0mg"},{"bike_id":"53a6fb77-ae87-4252-8b46-0b6c355db75f","system_id":"levelo_inurba_marseille","lat":43.27987,"lon":5.4166,"is_reserved":false,"is_disabled":false,"rental_uris":{"android":"levelo://app?vid=53a6fb77-ae87-4252-8b46-0b6c355db75f","ios":"levelo://app?vid=53a6fb77-ae87-4252-8b46-0b6c355db75f"},"vehicle_type_id":"4","last_reported":1735575065,"current_range_meters":24400,"station_id":"ce4bho12rcd13ifvqh1g","pricing_plan_id":"cebpf4jnsgd1na2vs0mg"},{"bike_id":"28f8ba53-2f9c-40e0-9459-0471bc6a35d0","system_id":"levelo_inurba_marseille","lat":43.30263,"lon":5.40084,"is_reserved":false,"is_disabled":false,"rental_uris":{"android":"levelo://app?vid=28f8ba53-2f9c-40e0-9459-0471bc6a35d0","ios":"levelo://app?vid=28f8ba53-2f9c-40e0-9459-0471bc6a35d0"},"vehicle_type_id":"4","last_reported":1735575065,"current_range_meters":5600,"station_id":"ce4bgvh2rcd13ifvqcs0","pricing_plan_id":"cebpf4jnsgd1na2vs0mg"},{"bike_id":"d8cef4a7-11ba-4a41-8aac-49b8b245e410","system_id":"levelo_inurba_marseille","lat":43.24672,"lon":5.38167,"is_reserved":false,"is_disabled":false,"rental_uris":{"android":"levelo://app?vid=d8cef4a7-11ba-4a41-8aac-49b8b245e410","ios":"levelo://app?vid=d8cef4a7-11ba-4a41-8aac-49b8b245e410"},"vehicle_type_id":"4","last_reported":1735575065,"current_range_meters":35600,"station_id":"ce4bhih2rcd13ifvqfr0","pricing_plan_id":"cebpf4jnsgd1na2vs0mg"},{"bike_id":"5f8ee9c5-4e33-43ee-b8aa-ac908ba0aac5","system_id":"levelo_inurba_marseille","lat":43.27501,"lon":5.42449,"is_reserved":false,"is_disabled":false,"rental_uris":{"android":"levelo://app?vid=5f8ee9c5-4e33-43ee-b8aa-ac908ba0aac5","ios":"levelo://app?vid=5f8ee9c5-4e33-43ee-b8aa-ac908ba0aac5"},"vehicle_type_id":"4","last_reported":1735575065,"current_range_meters":19200,"station_id":"ce4bhn92rcd13ifvqgrg","pricing_plan_id":"cebpf4jnsgd1na2vs0mg"},{"bike_id":"3386b582-58ed-4ac9-9579-531ff14dbde3","system_id":"levelo_inurba_marseille","lat":43.28263,"lon":5.3508,"is_reserved":false,"is_disabled":false,"rental_uris":{"android":"levelo://app?vid=3386b582-58ed-4ac9-9579-531ff14dbde3","ios":"levelo://app?vid=3386b582-58ed-4ac9-9579-531ff14dbde3"},"vehicle_type_id":"4","last_reported":1735575065,"current_range_meters":28800,"station_id":"ce4bhbp2rcd13ifvqerg","pricing_plan_id":"cebpf4jnsgd1na2vs0mg"},{"bike_id":"f84e0a68-bf0a-4ee5-b7ea-154330e0c995","system_id":"levelo_inurba_marseille","lat":43.28604,"lon":5.37068,"is_reserved":false,"is_disabled":false,"rental_uris":{"android":"levelo://app?vid=f84e0a68-bf0a-4ee5-b7ea-154330e0c995","ios":"levelo://app?vid=f84e0a68-bf0a-4ee5-b7ea-154330e0c995"},"vehicle_type_id":"4","last_reported":1735575065,"current_range_meters":13600,"station_id":"ce4bht12rcd13ifvqi60","pricing_plan_id":"cebpf4jnsgd1na2vs0mg"},{"bike_id":"db32cf0d-643f-4166-93d9-c2dd42363683","system_id":"levelo_inurba_marseille","lat":43.30313,"lon":5.36925,"is_reserved":false,"is_disabled":false,"rental_uris":{"android":"levelo://app?vid=db32cf0d-643f-4166-93d9-c2dd42363683","ios":"levelo://app?vid=db32cf0d-643f-4166-93d9-c2dd42363683"},"vehicle_type_id":"4","last_reported":1735575065,"current_range_meters":30800,"station_id":"ce4bgqh2rcd13ifvqc5g","pricing_plan_id":"cebpf4jnsgd1na2vs0mg"},{"bike_id":"8de05a72-a0c9-494c-9d8c-b04847e3ba01","system_id":"levelo_inurba_marseille","lat":43.28137,"lon":5.42583,"is_reserved":false,"is_disabled":false,"rental_uris":{"android":"levelo://app?vid=8de05a72-a0c9-494c-9d8c-b04847e3ba01","ios":"levelo://app?vid=8de05a72-a0c9-494c-9d8c-b04847e3ba01"},"vehicle_type_id":"4","last_reported":1735575065,"current_range_meters":38800,"station_id":"ce4bhnh2rcd13ifvqgug","pricing_plan_id":"cebpf4jnsgd1na2vs0mg"},{"bike_id":"15027a12-6937-4d31-9066-3350e057abdc","system_id":"levelo_inurba_marseille","lat":43.30525,"lon":5.36728,"is_reserved":false,"is_disabled":false,"rental_uris":{"android":"levelo://app?vid=15027a12-6937-4d31-9066-3350e057abdc","ios":"levelo://app?vid=15027a12-6937-4d31-9066-3350e057abdc"},"vehicle_type_id":"4","last_reported":1735575065,"current_range_meters":38000,"station_id":"ce4bgrp2rcd13ifvqc9g","pricing_plan_id":"cebpf4jnsgd1na2vs0mg"},{"bike_id":"5367a292-5564-4681-91cd-97babb89fc00","system_id":"levelo_inurba_marseille","lat":43.22936,"lon":5.35394,"is_reserved":false,"is_disabled":false,"rental_uris":{"android":"levelo://app?vid=5367a292-5564-4681-91cd-97babb89fc00","ios":"levelo://app?vid=5367a292-5564-4681-91cd-97babb89fc00"},"vehicle_type_id":"4","last_reported":1735575065,"current_range_meters":32000,"station_id":"cpo3532slgdg3j2ikp40","pricing_plan_id":"cebpf4jnsgd1na2vs0mg"},{"bike_id":"0483d5a5-12c2-4b90-8e6c-47d6d5a4b82c","system_id":"levelo_inurba_marseille","lat":43.25826,"lon":5.39436,"is_reserved":false,"is_disabled":false,"rental_uris":{"android":"levelo://app?vid=0483d5a5-12c2-4b90-8e6c-47d6d5a4b82c","ios":"levelo://app?vid=0483d5a5-12c2-4b90-8e6c-47d6d5a4b82c"},"vehicle_type_id":"4","last_reported":1735575065,"current_range_meters":10800,"station_id":"ce4bhip2rcd13ifvqft0","pricing_plan_id":"cebpf4jnsgd1na2vs0mg"},{"bike_id":"f06787d5-a72d-446e-92b5-4df76d9f2dae","system_id":"levelo_inurba_marseille","lat":43.28266,"lon":5.35062,"is_reserved":false,"is_disabled":false,"rental_uris":{"android":"levelo://app?vid=f06787d5-a72d-446e-92b5-4df76d9f2dae","ios":"levelo://app?vid=f06787d5-a72d-446e-92b5-4df76d9f2dae"},"vehicle_type_id":"4","last_reported":1735575065,"current_range_meters":6800,"station_id":"ce4bhbp2rcd13ifvqerg","pricing_plan_id":"cebpf4jnsgd1na2vs0mg"},{"bike_id":"314cfe14-af0b-41ab-b053-9975e7cb9ae3","system_id":"levelo_inurba_marseille","lat":43.23212,"lon":5.39986,"is_reserved":false,"is_disabled":false,"rental_uris":{"android":"levelo://app?vid=314cfe14-af0b-41ab-b053-9975e7cb9ae3","ios":"levelo://app?vid=314cfe14-af0b-41ab-b053-9975e7cb9ae3"},"vehicle_type_id":"4","last_reported":1735575065,"current_range_meters":6800,"station_id":"ce4bhn12rcd13ifvqgqg","pricing_plan_id":"cebpf4jnsgd1na2vs0mg"},{"bike_id":"94d38955-21a2-4852-a963-0a3cc1374e49","system_id":"levelo_inurba_marseille","lat":43.23192,"lon":5.35546,"is_reserved":false,"is_disabled":false,"rental_uris":{"android":"levelo://app?vid=94d38955-21a2-4852-a963-0a3cc1374e49","ios":"levelo://app?vid=94d38955-21a2-4852-a963-0a3cc1374e49"},"vehicle_type_id":"4","last_reported":1735575065,"current_range_meters":21600,"station_id":"ce4bhu92rcd13ifvqi70","pricing_plan_id":"cebpf4jnsgd1na2vs0mg"},{"bike_id":"4e75906b-945d-46b4-8774-1da27a7dc1d4","system_id":"levelo_inurba_marseille","lat":43.23232,"lon":5.35527,"is_reserved":false,"is_disabled":false,"rental_uris":{"android":"levelo://app?vid=4e75906b-945d-46b4-8774-1da27a7dc1d4","ios":"levelo://app?vid=4e75906b-945d-46b4-8774-1da27a7dc1d4"},"vehicle_type_id":"4","last_reported":1735575065,"current_range_meters":19600,"station_id":"ce4bhu92rcd13ifvqi70","pricing_plan_id":"cebpf4jnsgd1na2vs0mg"},{"bike_id":"4ff0bbc5-7583-4ce1-91c3-8358d4089d6e","system_id":"levelo_inurba_marseille","lat":43.27622,"lon":5.36105,"is_reserved":false,"is_disabled":false,"rental_uris":{"android":"levelo://app?vid=4ff0bbc5-7583-4ce1-91c3-8358d4089d6e","ios":"levelo://app?vid=4ff0bbc5-7583-4ce1-91c3-8358d4089d6e"},"vehicle_type_id":"4","last_reported":1735575065,"current_range_meters":37600,"station_id":"ce4bgj92rcd13ifvqbe0","pricing_plan_id":"cebpf4jnsgd1na2vs0mg"},{"bike_id":"647d23b8-4e7c-4423-a02a-d60eef618897","system_id":"levelo_inurba_marseille","lat":43.27825,"lon":5.40726,"is_reserved":false,"is_disabled":false,"rental_uris":{"android":"levelo://app?vid=647d23b8-4e7c-4423-a02a-d60eef618897","ios":"levelo://app?vid=647d23b8-4e7c-4423-a02a-d60eef618897"},"vehicle_type_id":"4","last_reported":1735575065,"current_range_meters":26000,"station_id":"ce4bhnh2rcd13ifvqgtg","pricing_plan_id":"cebpf4jnsgd1na2vs0mg"},{"bike_id":"179f7c7e-cf60-4979-b064-1b4336e1db8c","system_id":"levelo_inurba_marseille","lat":43.27848,"lon":5.39211,"is_reserved":false,"is_disabled":false,"rental_uris":{"android":"levelo://app?vid=179f7c7e-cf60-4979-b064-1b4336e1db8c","ios":"levelo://app?vid=179f7c7e-cf60-4979-b064-1b4336e1db8c"},"vehicle_type_id":"4","last_reported":1735575065,"current_range_meters":38800,"station_id":"ce4bhjp2rcd13ifvqga0","pricing_plan_id":"cebpf4jnsgd1na2vs0mg"},{"bike_id":"2e19126c-44cf-40bf-a549-dc01e1a05272","system_id":"levelo_inurba_marseille","lat":43.28405,"lon":5.37513,"is_reserved":false,"is_disabled":false,"rental_uris":{"android":"levelo://app?vid=2e19126c-44cf-40bf-a549-dc01e1a05272","ios":"levelo://app?vid=2e19126c-44cf-40bf-a549-dc01e1a05272"},"vehicle_type_id":"4","last_reported":1735575065,"current_range_meters":10000,"station_id":"ce4bh412rcd13ifvqds0","pricing_plan_id":"cebpf4jnsgd1na2vs0mg"},{"bike_id":"caa372f6-57cd-46be-b1b6-e4b6f7913495","system_id":"levelo_inurba_marseille","lat":43.312283,"lon":5.368767,"is_reserved":false,"is_disabled":false,"rental_uris":{"android":"levelo://app?vid=caa372f6-57cd-46be-b1b6-e4b6f7913495","ios":"levelo://app?vid=caa372f6-57cd-46be-b1b6-e4b6f7913495"},"vehicle_type_id":"4","last_reported":1735575065,"current_range_meters":22800,"station_id":"ce4bgl92rcd13ifvqbq0","pricing_plan_id":"cebpf4jnsgd1na2vs0mg"},{"bike_id":"09b230a8-ba34-4403-94a3-e7d692aa7773","system_id":"levelo_inurba_marseille","lat":43.26689,"lon":5.38269,"is_reserved":false,"is_disabled":false,"rental_uris":{"android":"levelo://app?vid=09b230a8-ba34-4403-94a3-e7d692aa7773","ios":"levelo://app?vid=09b230a8-ba34-4403-94a3-e7d692aa7773"},"vehicle_type_id":"4","last_reported":1735575065,"current_range_meters":36000,"station_id":"ce4bhg92rcd13ifvqf90","pricing_plan_id":"cebpf4jnsgd1na2vs0mg"},{"bike_id":"7f10fdf8-d7c6-46b9-94b4-cd895f175782","system_id":"levelo_inurba_marseille","lat":43.29595,"lon":5.37722,"is_reserved":false,"is_disabled":true,"rental_uris":{"android":"levelo://app?vid=7f10fdf8-d7c6-46b9-94b4-cd895f175782","ios":"levelo://app?vid=7f10fdf8-d7c6-46b9-94b4-cd895f175782"},"vehicle_type_id":"4","last_reported":1735575065,"current_range_meters":16800,"station_id":"ce4bgi92rcd13ifvqb90","pricing_plan_id":"cebpf4jnsgd1na2vs0mg"},{"bike_id":"54c00f69-c62b-42ff-864d-1326f8c33acf","system_id":"levelo_inurba_marseille","lat":43.30538,"lon":5.36547,"is_reserved":false,"is_disabled":false,"rental_uris":{"android":"levelo://app?vid=54c00f69-c62b-42ff-864d-1326f8c33acf","ios":"levelo://app?vid=54c00f69-c62b-42ff-864d-1326f8c33acf"},"vehicle_type_id":"4","last_reported":1735575065,"current_range_meters":30400,"station_id":"ce4bgs12rcd13ifvqcag","pricing_plan_id":"cebpf4jnsgd1na2vs0mg"},{"bike_id":"dac94ecf-3203-4c89-acc0-21c14e979588","system_id":"levelo_inurba_marseille","lat":43.26686,"lon":5.38279,"is_reserved":false,"is_disabled":false,"rental_uris":{"android":"levelo://app?vid=dac94ecf-3203-4c89-acc0-21c14e979588","ios":"levelo://app?vid=dac94ecf-3203-4c89-acc0-21c14e979588"},"vehicle_type_id":"4","last_reported":1735575065,"current_range_meters":21600,"station_id":"ce4bhg92rcd13ifvqf90","pricing_plan_id":"cebpf4jnsgd1na2vs0mg"},{"bike_id":"91bb292a-df5c-4dce-bd7e-6647a12df4cd","system_id":"levelo_inurba_marseille","lat":43.26941,"lon":5.38642,"is_reserved":false,"is_disabled":false,"rental_uris":{"android":"levelo://app?vid=91bb292a-df5c-4dce-bd7e-6647a12df4cd","ios":"levelo://app?vid=91bb292a-df5c-4dce-bd7e-6647a12df4cd"},"vehicle_type_id":"4","last_reported":1735575065,"current_range_meters":38800,"station_id":"ce4bhh92rcd13ifvqfh0","pricing_plan_id":"cebpf4jnsgd1na2vs0mg"},{"bike_id":"dae442df-0334-4a2a-8901-28b38cfe10c7","system_id":"levelo_inurba_marseille","lat":43.23153,"lon":5.43701,"is_reserved":false,"is_disabled":false,"rental_uris":{"android":"levelo://app?vid=dae442df-0334-4a2a-8901-28b38cfe10c7","ios":"levelo://app?vid=dae442df-0334-4a2a-8901-28b38cfe10c7"},"vehicle_type_id":"4","last_reported":1735575065,"current_range_meters":36400,"station_id":"ce4bhmp2rcd13ifvqgog","pricing_plan_id":"cebpf4jnsgd1na2vs0mg"},{"bike_id":"9c42c59a-a990-48ee-91ac-32ebebcaabf5","system_id":"levelo_inurba_marseille","lat":43.2757,"lon":5.38413,"is_reserved":false,"is_disabled":false,"rental_uris":{"android":"levelo://app?vid=9c42c59a-a990-48ee-91ac-32ebebcaabf5","ios":"levelo://app?vid=9c42c59a-a990-48ee-91ac-32ebebcaabf5"},"vehicle_type_id":"4","last_reported":1735575065,"current_range_meters":38800,"station_id":"ce4bhh92rcd13ifvqfi0","pricing_plan_id":"cebpf4jnsgd1na2vs0mg"},{"bike_id":"14348531-e2c5-4669-8e8d-22780e655465","system_id":"levelo_inurba_marseille","lat":43.25835,"lon":5.39427,"is_reserved":false,"is_disabled":false,"rental_uris":{"android":"levelo://app?vid=14348531-e2c5-4669-8e8d-22780e655465","ios":"levelo://app?vid=14348531-e2c5-4669-8e8d-22780e655465"},"vehicle_type_id":"4","last_reported":1735575065,"current_range_meters":25200,"station_id":"ce4bhip2rcd13ifvqft0","pricing_plan_id":"cebpf4jnsgd1na2vs0mg"},{"bike_id":"d03c46bd-d8c1-4904-b26d-3530eab9a1ec","system_id":"levelo_inurba_marseille","lat":43.26077,"lon":5.39402,"is_reserved":false,"is_disabled":false,"rental_uris":{"android":"levelo://app?vid=d03c46bd-d8c1-4904-b26d-3530eab9a1ec","ios":"levelo://app?vid=d03c46bd-d8c1-4904-b26d-3530eab9a1ec"},"vehicle_type_id":"4","last_reported":1735575065,"current_range_meters":22800,"station_id":"ce4bhh92rcd13ifvqfj0","pricing_plan_id":"cebpf4jnsgd1na2vs0mg"},{"bike_id":"b7fd34d2-a34c-4dfc-87aa-9a94f35fd521","system_id":"levelo_inurba_marseille","lat":43.28484,"lon":5.35899,"is_reserved":false,"is_disabled":false,"rental_uris":{"android":"levelo://app?vid=b7fd34d2-a34c-4dfc-87aa-9a94f35fd521","ios":"levelo://app?vid=b7fd34d2-a34c-4dfc-87aa-9a94f35fd521"},"vehicle_type_id":"4","last_reported":1735575065,"current_range_meters":27600,"station_id":"ce4bhah2rcd13ifvqei0","pricing_plan_id":"cebpf4jnsgd1na2vs0mg"},{"bike_id":"689516bd-b1d8-4e6f-ba97-cfe8e8a9db89","system_id":"levelo_inurba_marseille","lat":43.28422,"lon":5.34991,"is_reserved":false,"is_disabled":false,"rental_uris":{"android":"levelo://app?vid=689516bd-b1d8-4e6f-ba97-cfe8e8a9db89","ios":"levelo://app?vid=689516bd-b1d8-4e6f-ba97-cfe8e8a9db89"},"vehicle_type_id":"4","last_reported":1735575065,"current_range_meters":38000,"station_id":"ce4bhbh2rcd13ifvqepg","pricing_plan_id":"cebpf4jnsgd1na2vs0mg"},{"bike_id":"b8e2e3d4-597b-4721-a36a-769f7d940844","system_id":"levelo_inurba_marseille","lat":43.2657,"lon":5.42101,"is_reserved":false,"is_disabled":false,"rental_uris":{"android":"levelo://app?vid=b8e2e3d4-597b-4721-a36a-769f7d940844","ios":"levelo://app?vid=b8e2e3d4-597b-4721-a36a-769f7d940844"},"vehicle_type_id":"4","last_reported":1735575065,"current_range_meters":24800,"station_id":"","pricing_plan_id":"cebpf4jnsgd1na2vs0mg"},{"bike_id":"af327d6a-2a11-47d9-a133-1de9835aaf41","system_id":"levelo_inurba_marseille","lat":43.30459,"lon":5.37902,"is_reserved":false,"is_disabled":false,"rental_uris":{"android":"levelo://app?vid=af327d6a-2a11-47d9-a133-1de9835aaf41","ios":"levelo://app?vid=af327d6a-2a11-47d9-a133-1de9835aaf41"},"vehicle_type_id":"4","last_reported":1735575065,"current_range_meters":6400,"station_id":"ce4bgup2rcd13ifvqcn0","pricing_plan_id":"cebpf4jnsgd1na2vs0mg"},{"bike_id":"ddaa2fb9-dbb8-4086-8c94-de0ff251173c","system_id":"levelo_inurba_marseille","lat":43.27829,"lon":5.3921,"is_reserved":false,"is_disabled":false,"rental_uris":{"android":"levelo://app?vid=ddaa2fb9-dbb8-4086-8c94-de0ff251173c","ios":"levelo://app?vid=ddaa2fb9-dbb8-4086-8c94-de0ff251173c"},"vehicle_type_id":"4","last_reported":1735575065,"current_range_meters":38800,"station_id":"ce4bhjp2rcd13ifvqga0","pricing_plan_id":"cebpf4jnsgd1na2vs0mg"},{"bike_id":"b5f1cb34-1fef-4806-9758-3cf4cf172f13","system_id":"levelo_inurba_marseille","lat":43.28041,"lon":5.36944,"is_reserved":false,"is_disabled":false,"rental_uris":{"android":"levelo://app?vid=b5f1cb34-1fef-4806-9758-3cf4cf172f13","ios":"levelo://app?vid=b5f1cb34-1fef-4806-9758-3cf4cf172f13"},"vehicle_type_id":"4","last_reported":1735575065,"current_range_meters":8000,"station_id":"ce4bha12rcd13ifvqef0","pricing_plan_id":"cebpf4jnsgd1na2vs0mg"},{"bike_id":"5e57eef6-8100-463f-8b9f-a736bec4d03f","system_id":"levelo_inurba_marseille","lat":43.26956,"lon":5.38633,"is_reserved":false,"is_disabled":false,"rental_uris":{"android":"levelo://app?vid=5e57eef6-8100-463f-8b9f-a736bec4d03f","ios":"levelo://app?vid=5e57eef6-8100-463f-8b9f-a736bec4d03f"},"vehicle_type_id":"4","last_reported":1735575065,"current_range_meters":38800,"station_id":"ce4bhh92rcd13ifvqfh0","pricing_plan_id":"cebpf4jnsgd1na2vs0mg"},{"bike_id":"fa141c48-69a7-4f45-926d-e604e334ab92","system_id":"levelo_inurba_marseille","lat":43.30124,"lon":5.39874,"is_reserved":false,"is_disabled":false,"rental_uris":{"android":"levelo://app?vid=fa141c48-69a7-4f45-926d-e604e334ab92","ios":"levelo://app?vid=fa141c48-69a7-4f45-926d-e604e334ab92"},"vehicle_type_id":"4","last_reported":1735575065,"current_range_meters":38000,"station_id":"ce4bh0h2rcd13ifvqd40","pricing_plan_id":"cebpf4jnsgd1na2vs0mg"},{"bike_id":"55250c90-edac-4424-8fe4-9853c93b20bb","system_id":"levelo_inurba_marseille","lat":43.29841,"lon":5.36272,"is_reserved":false,"is_disabled":false,"rental_uris":{"android":"levelo://app?vid=55250c90-edac-4424-8fe4-9853c93b20bb","ios":"levelo://app?vid=55250c90-edac-4424-8fe4-9853c93b20bb"},"vehicle_type_id":"4","last_reported":1735575065,"current_range_meters":18800,"station_id":"ce4bgpp2rcd13ifvqc3g","pricing_plan_id":"cebpf4jnsgd1na2vs0mg"},{"bike_id":"5c2def8a-2c65-42c6-ac07-783ced93d820","system_id":"levelo_inurba_marseille","lat":43.30631,"lon":5.3724,"is_reserved":false,"is_disabled":false,"rental_uris":{"android":"levelo://app?vid=5c2def8a-2c65-42c6-ac07-783ced93d820","ios":"levelo://app?vid=5c2def8a-2c65-42c6-ac07-783ced93d820"},"vehicle_type_id":"4","last_reported":1735575065,"current_range_meters":29600,"station_id":"ce4bgqh2rcd13ifvqc4g","pricing_plan_id":"cebpf4jnsgd1na2vs0mg"},{"bike_id":"763a0d6c-ae56-402c-b4c4-fe5d1fa24c2b","system_id":"levelo_inurba_marseille","lat":43.27428,"lon":5.39416,"is_reserved":false,"is_disabled":true,"rental_uris":{"android":"levelo://app?vid=763a0d6c-ae56-402c-b4c4-fe5d1fa24c2b","ios":"levelo://app?vid=763a0d6c-ae56-402c-b4c4-fe5d1fa24c2b"},"vehicle_type_id":"4","last_reported":1735575065,"current_range_meters":36800,"station_id":"ce4bhdp2rcd13ifvqf20","pricing_plan_id":"cebpf4jnsgd1na2vs0mg"},{"bike_id":"4ccf6920-84bf-476d-9251-3c32481fde35","system_id":"levelo_inurba_marseille","lat":43.26689,"lon":5.38271,"is_reserved":false,"is_disabled":false,"rental_uris":{"android":"levelo://app?vid=4ccf6920-84bf-476d-9251-3c32481fde35","ios":"levelo://app?vid=4ccf6920-84bf-476d-9251-3c32481fde35"},"vehicle_type_id":"4","last_reported":1735575065,"current_range_meters":18800,"station_id":"ce4bhg92rcd13ifvqf90","pricing_plan_id":"cebpf4jnsgd1na2vs0mg"},{"bike_id":"fe17c963-ee96-4f5b-8f42-7842d71e406c","system_id":"levelo_inurba_marseille","lat":43.25725,"lon":5.41131,"is_reserved":false,"is_disabled":false,"rental_uris":{"android":"levelo://app?vid=fe17c963-ee96-4f5b-8f42-7842d71e406c","ios":"levelo://app?vid=fe17c963-ee96-4f5b-8f42-7842d71e406c"},"vehicle_type_id":"4","last_reported":1735575065,"current_range_meters":17200,"station_id":"ce4bhkp2rcd13ifvqgd0","pricing_plan_id":"cebpf4jnsgd1na2vs0mg"},{"bike_id":"836a2fdc-5c7f-4eaf-8248-358a78ee4601","system_id":"levelo_inurba_marseille","lat":43.2622,"lon":5.37463,"is_reserved":false,"is_disabled":false,"rental_uris":{"android":"levelo://app?vid=836a2fdc-5c7f-4eaf-8248-358a78ee4601","ios":"levelo://app?vid=836a2fdc-5c7f-4eaf-8248-358a78ee4601"},"vehicle_type_id":"4","last_reported":1735575065,"current_range_meters":24000,"station_id":"ce4bhgp2rcd13ifvqfc0","pricing_plan_id":"cebpf4jnsgd1na2vs0mg"},{"bike_id":"3e09f37a-c256-4c56-93f3-2d3e33869821","system_id":"levelo_inurba_marseille","lat":43.28392,"lon":5.34949,"is_reserved":false,"is_disabled":false,"rental_uris":{"android":"levelo://app?vid=3e09f37a-c256-4c56-93f3-2d3e33869821","ios":"levelo://app?vid=3e09f37a-c256-4c56-93f3-2d3e33869821"},"vehicle_type_id":"4","last_reported":1735575065,"current_range_meters":17600,"station_id":"ce4bhbh2rcd13ifvqepg","pricing_plan_id":"cebpf4jnsgd1na2vs0mg"},{"bike_id":"d5cd70ce-9ffb-41ae-ae4b-feb92b200f36","system_id":"levelo_inurba_marseille","lat":43.26194,"lon":5.3745,"is_reserved":false,"is_disabled":false,"rental_uris":{"android":"levelo://app?vid=d5cd70ce-9ffb-41ae-ae4b-feb92b200f36","ios":"levelo://app?vid=d5cd70ce-9ffb-41ae-ae4b-feb92b200f36"},"vehicle_type_id":"4","last_reported":1735575065,"current_range_meters":30000,"station_id":"ce4bhgp2rcd13ifvqfc0","pricing_plan_id":"cebpf4jnsgd1na2vs0mg"},{"bike_id":"45a4ab65-5c71-4623-aec2-76715e6602ea","system_id":"levelo_inurba_marseille","lat":43.24999,"lon":5.38934,"is_reserved":false,"is_disabled":false,"rental_uris":{"android":"levelo://app?vid=45a4ab65-5c71-4623-aec2-76715e6602ea","ios":"levelo://app?vid=45a4ab65-5c71-4623-aec2-76715e6602ea"},"vehicle_type_id":"4","last_reported":1735575065,"current_range_meters":12800,"station_id":"ce4bhgp2rcd13ifvqfd0","pricing_plan_id":"cebpf4jnsgd1na2vs0mg"},{"bike_id":"b8feb562-9ac0-4974-8ba7-4af547dd85da","system_id":"levelo_inurba_marseille","lat":43.2607,"lon":5.39399,"is_reserved":false,"is_disabled":false,"rental_uris":{"android":"levelo://app?vid=b8feb562-9ac0-4974-8ba7-4af547dd85da","ios":"levelo://app?vid=b8feb562-9ac0-4974-8ba7-4af547dd85da"},"vehicle_type_id":"4","last_reported":1735575065,"current_range_meters":38800,"station_id":"ce4bhh92rcd13ifvqfj0","pricing_plan_id":"cebpf4jnsgd1na2vs0mg"},{"bike_id":"46012680-f776-4d27-8d45-4bb31fb9dc2b","system_id":"levelo_inurba_marseille","lat":43.23064,"lon":5.35493,"is_reserved":false,"is_disabled":false,"rental_uris":{"android":"levelo://app?vid=46012680-f776-4d27-8d45-4bb31fb9dc2b","ios":"levelo://app?vid=46012680-f776-4d27-8d45-4bb31fb9dc2b"},"vehicle_type_id":"4","last_reported":1735575065,"current_range_meters":38800,"station_id":"cpo3342slgdg3j2ifvpg","pricing_plan_id":"cebpf4jnsgd1na2vs0mg"},{"bike_id":"abfd25fc-c655-439b-8597-04a124918241","system_id":"levelo_inurba_marseille","lat":43.29792,"lon":5.38111,"is_reserved":false,"is_disabled":true,"rental_uris":{"android":"levelo://app?vid=abfd25fc-c655-439b-8597-04a124918241","ios":"levelo://app?vid=abfd25fc-c655-439b-8597-04a124918241"},"vehicle_type_id":"4","last_reported":1735575065,"current_range_meters":38800,"station_id":"ce4bgip2rcd13ifvqbb0","pricing_plan_id":"cebpf4jnsgd1na2vs0mg"},{"bike_id":"1e87cf0b-10c4-4800-b755-1b1768da1a22","system_id":"levelo_inurba_marseille","lat":43.28003,"lon":5.40017,"is_reserved":false,"is_disabled":false,"rental_uris":{"android":"levelo://app?vid=1e87cf0b-10c4-4800-b755-1b1768da1a22","ios":"levelo://app?vid=1e87cf0b-10c4-4800-b755-1b1768da1a22"},"vehicle_type_id":"4","last_reported":1735575065,"current_range_meters":8800,"station_id":"ce4bho92rcd13ifvqh4g","pricing_plan_id":"cebpf4jnsgd1na2vs0mg"},{"bike_id":"fc822da2-b511-4880-837d-d0bb888d4d92","system_id":"levelo_inurba_marseille","lat":43.28618,"lon":5.35104,"is_reserved":false,"is_disabled":false,"rental_uris":{"android":"levelo://app?vid=fc822da2-b511-4880-837d-d0bb888d4d92","ios":"levelo://app?vid=fc822da2-b511-4880-837d-d0bb888d4d92"},"vehicle_type_id":"4","last_reported":1735575065,"current_range_meters":6800,"station_id":"ce4bhch2rcd13ifvqeug","pricing_plan_id":"cebpf4jnsgd1na2vs0mg"},{"bike_id":"6a41ef4b-fa19-49b7-ac39-99b84cb8b727","system_id":"levelo_inurba_marseille","lat":43.24064,"lon":5.37727,"is_reserved":false,"is_disabled":false,"rental_uris":{"android":"levelo://app?vid=6a41ef4b-fa19-49b7-ac39-99b84cb8b727","ios":"levelo://app?vid=6a41ef4b-fa19-49b7-ac39-99b84cb8b727"},"vehicle_type_id":"4","last_reported":1735575065,"current_range_meters":6400,"station_id":"ce4bhnp2rcd13ifvqgvg","pricing_plan_id":"cebpf4jnsgd1na2vs0mg"},{"bike_id":"5c26a2c9-bfc4-4558-aef0-ee51d5dae50e","system_id":"levelo_inurba_marseille","lat":43.30406,"lon":5.41296,"is_reserved":false,"is_disabled":false,"rental_uris":{"android":"levelo://app?vid=5c26a2c9-bfc4-4558-aef0-ee51d5dae50e","ios":"levelo://app?vid=5c26a2c9-bfc4-4558-aef0-ee51d5dae50e"},"vehicle_type_id":"4","last_reported":1735575065,"current_range_meters":38800,"station_id":"ce4bhop2rcd13ifvqh8g","pricing_plan_id":"cebpf4jnsgd1na2vs0mg"},{"bike_id":"c7a16261-fcab-4d31-9a7c-3b5289d9e38c","system_id":"levelo_inurba_marseille","lat":43.27283,"lon":5.39086,"is_reserved":false,"is_disabled":false,"rental_uris":{"android":"levelo://app?vid=c7a16261-fcab-4d31-9a7c-3b5289d9e38c","ios":"levelo://app?vid=c7a16261-fcab-4d31-9a7c-3b5289d9e38c"},"vehicle_type_id":"4","last_reported":1735575065,"current_range_meters":39200,"station_id":"ce4bhgp2rcd13ifvqfe0","pricing_plan_id":"cebpf4jnsgd1na2vs0mg"},{"bike_id":"d99156df-57b6-4d70-8fef-415e81c143b4","system_id":"levelo_inurba_marseille","lat":43.28415,"lon":5.34984,"is_reserved":false,"is_disabled":false,"rental_uris":{"android":"levelo://app?vid=d99156df-57b6-4d70-8fef-415e81c143b4","ios":"levelo://app?vid=d99156df-57b6-4d70-8fef-415e81c143b4"},"vehicle_type_id":"4","last_reported":1735575065,"current_range_meters":20400,"station_id":"ce4bhbh2rcd13ifvqepg","pricing_plan_id":"cebpf4jnsgd1na2vs0mg"},{"bike_id":"5fa2bc43-7c81-45c6-a7af-9e700d12d05b","system_id":"levelo_inurba_marseille","lat":43.30897,"lon":5.36856,"is_reserved":false,"is_disabled":false,"rental_uris":{"android":"levelo://app?vid=5fa2bc43-7c81-45c6-a7af-9e700d12d05b","ios":"levelo://app?vid=5fa2bc43-7c81-45c6-a7af-9e700d12d05b"},"vehicle_type_id":"4","last_reported":1735575065,"current_range_meters":28800,"station_id":"ce4bgn92rcd13ifvqbvg","pricing_plan_id":"cebpf4jnsgd1na2vs0mg"},{"bike_id":"6d0b969d-be10-4173-a1da-7e470b4a10ed","system_id":"levelo_inurba_marseille","lat":43.29611,"lon":5.37711,"is_reserved":false,"is_disabled":false,"rental_uris":{"android":"levelo://app?vid=6d0b969d-be10-4173-a1da-7e470b4a10ed","ios":"levelo://app?vid=6d0b969d-be10-4173-a1da-7e470b4a10ed"},"vehicle_type_id":"4","last_reported":1735575065,"current_range_meters":20400,"station_id":"ce4bgi92rcd13ifvqb90","pricing_plan_id":"cebpf4jnsgd1na2vs0mg"},{"bike_id":"c4fa8b26-bff7-4443-9f60-4eb78ee47219","system_id":"levelo_inurba_marseille","lat":43.337444,"lon":5.374475,"is_reserved":false,"is_disabled":false,"rental_uris":{"android":"levelo://app?vid=c4fa8b26-bff7-4443-9f60-4eb78ee47219","ios":"levelo://app?vid=c4fa8b26-bff7-4443-9f60-4eb78ee47219"},"vehicle_type_id":"4","last_reported":1735575065,"current_range_meters":27600,"station_id":"","pricing_plan_id":"cebpf4jnsgd1na2vs0mg"},{"bike_id":"faf56cb3-1d9f-4164-acf2-2b22d7c88f2e","system_id":"levelo_inurba_marseille","lat":43.27382,"lon":5.3626,"is_reserved":false,"is_disabled":false,"rental_uris":{"android":"levelo://app?vid=faf56cb3-1d9f-4164-acf2-2b22d7c88f2e","ios":"levelo://app?vid=faf56cb3-1d9f-4164-acf2-2b22d7c88f2e"},"vehicle_type_id":"4","last_reported":1735575065,"current_range_meters":38800,"station_id":"ce4bhbh2rcd13ifvqeo0","pricing_plan_id":"cebpf4jnsgd1na2vs0mg"},{"bike_id":"d82d9388-0ebd-4676-a25a-4c5688b1e993","system_id":"levelo_inurba_marseille","lat":43.29855,"lon":5.36278,"is_reserved":false,"is_disabled":false,"rental_uris":{"android":"levelo://app?vid=d82d9388-0ebd-4676-a25a-4c5688b1e993","ios":"levelo://app?vid=d82d9388-0ebd-4676-a25a-4c5688b1e993"},"vehicle_type_id":"4","last_reported":1735575065,"current_range_meters":27600,"station_id":"ce4bgpp2rcd13ifvqc3g","pricing_plan_id":"cebpf4jnsgd1na2vs0mg"},{"bike_id":"39532236-d23b-4244-ba6f-5e2bdfb832be","system_id":"levelo_inurba_marseille","lat":43.279452,"lon":5.410432,"is_reserved":false,"is_disabled":false,"rental_uris":{"android":"levelo://app?vid=39532236-d23b-4244-ba6f-5e2bdfb832be","ios":"levelo://app?vid=39532236-d23b-4244-ba6f-5e2bdfb832be"},"vehicle_type_id":"4","last_reported":1735575065,"current_range_meters":28800,"station_id":"ce4bhnp2rcd13ifvqh0g","pricing_plan_id":"cebpf4jnsgd1na2vs0mg"},{"bike_id":"a6e56f2f-2de5-468e-8a42-29b7e22f1402","system_id":"levelo_inurba_marseille","lat":43.28568,"lon":5.39494,"is_reserved":false,"is_disabled":false,"rental_uris":{"android":"levelo://app?vid=a6e56f2f-2de5-468e-8a42-29b7e22f1402","ios":"levelo://app?vid=a6e56f2f-2de5-468e-8a42-29b7e22f1402"},"vehicle_type_id":"4","last_reported":1735575065,"current_range_meters":23200,"station_id":"ce4bh292rcd13ifvqdg0","pricing_plan_id":"cebpf4jnsgd1na2vs0mg"},{"bike_id":"9eb1e9d3-259d-427b-b177-23c534179f97","system_id":"levelo_inurba_marseille","lat":43.28152,"lon":5.42645,"is_reserved":false,"is_disabled":false,"rental_uris":{"android":"levelo://app?vid=9eb1e9d3-259d-427b-b177-23c534179f97","ios":"levelo://app?vid=9eb1e9d3-259d-427b-b177-23c534179f97"},"vehicle_type_id":"4","last_reported":1735575065,"current_range_meters":27200,"station_id":"ce4bhnh2rcd13ifvqgug","pricing_plan_id":"cebpf4jnsgd1na2vs0mg"},{"bike_id":"49b7a4a1-8389-46ba-a75c-88f3015f0a91","system_id":"levelo_inurba_marseille","lat":43.29934,"lon":5.37433,"is_reserved":false,"is_disabled":false,"rental_uris":{"android":"levelo://app?vid=49b7a4a1-8389-46ba-a75c-88f3015f0a91","ios":"levelo://app?vid=49b7a4a1-8389-46ba-a75c-88f3015f0a91"},"vehicle_type_id":"4","last_reported":1735575065,"current_range_meters":38000,"station_id":"ce4bgjh2rcd13ifvqbg0","pricing_plan_id":"cebpf4jnsgd1na2vs0mg"},{"bike_id":"f10d488a-1bde-4e13-8396-054e47e02b19","system_id":"levelo_inurba_marseille","lat":43.28687,"lon":5.38662,"is_reserved":false,"is_disabled":false,"rental_uris":{"android":"levelo://app?vid=f10d488a-1bde-4e13-8396-054e47e02b19","ios":"levelo://app?vid=f10d488a-1bde-4e13-8396-054e47e02b19"},"vehicle_type_id":"4","last_reported":1735575065,"current_range_meters":38800,"station_id":"ce4bh492rcd13ifvqdug","pricing_plan_id":"cebpf4jnsgd1na2vs0mg"},{"bike_id":"18e812f2-f07e-4080-8716-df12ba1ca27c","system_id":"levelo_inurba_marseille","lat":43.29535,"lon":5.38543,"is_reserved":false,"is_disabled":false,"rental_uris":{"android":"levelo://app?vid=18e812f2-f07e-4080-8716-df12ba1ca27c","ios":"levelo://app?vid=18e812f2-f07e-4080-8716-df12ba1ca27c"},"vehicle_type_id":"4","last_reported":1735575065,"current_range_meters":28800,"station_id":"ce4bgih2rcd13ifvqba0","pricing_plan_id":"cebpf4jnsgd1na2vs0mg"},{"bike_id":"73964e96-b062-49d4-93a6-803ee072593e","system_id":"levelo_inurba_marseille","lat":43.27375,"lon":5.36248,"is_reserved":false,"is_disabled":true,"rental_uris":{"android":"levelo://app?vid=73964e96-b062-49d4-93a6-803ee072593e","ios":"levelo://app?vid=73964e96-b062-49d4-93a6-803ee072593e"},"vehicle_type_id":"4","last_reported":1735575065,"current_range_meters":38800,"station_id":"ce4bhbh2rcd13ifvqeo0","pricing_plan_id":"cebpf4jnsgd1na2vs0mg"},{"bike_id":"96f5a5b9-2ac1-4f14-8379-2520a82b4153","system_id":"levelo_inurba_marseille","lat":43.26061,"lon":5.394,"is_reserved":false,"is_disabled":false,"rental_uris":{"android":"levelo://app?vid=96f5a5b9-2ac1-4f14-8379-2520a82b4153","ios":"levelo://app?vid=96f5a5b9-2ac1-4f14-8379-2520a82b4153"},"vehicle_type_id":"4","last_reported":1735575065,"current_range_meters":36800,"station_id":"ce4bhh92rcd13ifvqfj0","pricing_plan_id":"cebpf4jnsgd1na2vs0mg"},{"bike_id":"712c75c4-3652-4697-927f-3b9b03fea0a3","system_id":"levelo_inurba_marseille","lat":43.2992,"lon":5.37475,"is_reserved":false,"is_disabled":false,"rental_uris":{"android":"levelo://app?vid=712c75c4-3652-4697-927f-3b9b03fea0a3","ios":"levelo://app?vid=712c75c4-3652-4697-927f-3b9b03fea0a3"},"vehicle_type_id":"4","last_reported":1735575065,"current_range_meters":11600,"station_id":"ce4bgjh2rcd13ifvqbg0","pricing_plan_id":"cebpf4jnsgd1na2vs0mg"},{"bike_id":"a2b4dea9-986d-438f-808c-19f049a05e5c","system_id":"levelo_inurba_marseille","lat":43.29847,"lon":5.36287,"is_reserved":false,"is_disabled":false,"rental_uris":{"android":"levelo://app?vid=a2b4dea9-986d-438f-808c-19f049a05e5c","ios":"levelo://app?vid=a2b4dea9-986d-438f-808c-19f049a05e5c"},"vehicle_type_id":"4","last_reported":1735575065,"current_range_meters":38800,"station_id":"ce4bgpp2rcd13ifvqc3g","pricing_plan_id":"cebpf4jnsgd1na2vs0mg"},{"bike_id":"976abf1b-2fd1-4294-ac06-3c1193b2d559","system_id":"levelo_inurba_marseille","lat":43.23194,"lon":5.355586,"is_reserved":false,"is_disabled":false,"rental_uris":{"android":"levelo://app?vid=976abf1b-2fd1-4294-ac06-3c1193b2d559","ios":"levelo://app?vid=976abf1b-2fd1-4294-ac06-3c1193b2d559"},"vehicle_type_id":"4","last_reported":1735575065,"current_range_meters":37600,"station_id":"ce4bhu92rcd13ifvqi70","pricing_plan_id":"cebpf4jnsgd1na2vs0mg"},{"bike_id":"8cce4e7a-8af1-4906-a0ee-50da75170d4c","system_id":"levelo_inurba_marseille","lat":43.27445,"lon":5.39414,"is_reserved":false,"is_disabled":false,"rental_uris":{"android":"levelo://app?vid=8cce4e7a-8af1-4906-a0ee-50da75170d4c","ios":"levelo://app?vid=8cce4e7a-8af1-4906-a0ee-50da75170d4c"},"vehicle_type_id":"4","last_reported":1735575065,"current_range_meters":38800,"station_id":"ce4bhdp2rcd13ifvqf20","pricing_plan_id":"cebpf4jnsgd1na2vs0mg"},{"bike_id":"8960c74a-baeb-4914-9231-b9bd4900e6ca","system_id":"levelo_inurba_marseille","lat":43.26952,"lon":5.3865,"is_reserved":false,"is_disabled":false,"rental_uris":{"android":"levelo://app?vid=8960c74a-baeb-4914-9231-b9bd4900e6ca","ios":"levelo://app?vid=8960c74a-baeb-4914-9231-b9bd4900e6ca"},"vehicle_type_id":"4","last_reported":1735575065,"current_range_meters":28800,"station_id":"ce4bhh92rcd13ifvqfh0","pricing_plan_id":"cebpf4jnsgd1na2vs0mg"},{"bike_id":"5a0ce7fa-53be-4a8a-b533-c092d7088dc9","system_id":"levelo_inurba_marseille","lat":43.27818,"lon":5.4072,"is_reserved":false,"is_disabled":false,"rental_uris":{"android":"levelo://app?vid=5a0ce7fa-53be-4a8a-b533-c092d7088dc9","ios":"levelo://app?vid=5a0ce7fa-53be-4a8a-b533-c092d7088dc9"},"vehicle_type_id":"4","last_reported":1735575065,"current_range_meters":33600,"station_id":"ce4bhnh2rcd13ifvqgtg","pricing_plan_id":"cebpf4jnsgd1na2vs0mg"},{"bike_id":"e9beaeff-a0f8-4d89-8105-397c9a8192d7","system_id":"levelo_inurba_marseille","lat":43.29225,"lon":5.36071,"is_reserved":false,"is_disabled":false,"rental_uris":{"android":"levelo://app?vid=e9beaeff-a0f8-4d89-8105-397c9a8192d7","ios":"levelo://app?vid=e9beaeff-a0f8-4d89-8105-397c9a8192d7"},"vehicle_type_id":"4","last_reported":1735575065,"current_range_meters":11600,"station_id":"ce4bhbh2rcd13ifvqeqg","pricing_plan_id":"cebpf4jnsgd1na2vs0mg"},{"bike_id":"e4afa47e-3586-46a4-a4ff-ff2596513ce6","system_id":"levelo_inurba_marseille","lat":43.28034,"lon":5.36946,"is_reserved":false,"is_disabled":false,"rental_uris":{"android":"levelo://app?vid=e4afa47e-3586-46a4-a4ff-ff2596513ce6","ios":"levelo://app?vid=e4afa47e-3586-46a4-a4ff-ff2596513ce6"},"vehicle_type_id":"4","last_reported":1735575065,"current_range_meters":27600,"station_id":"ce4bha12rcd13ifvqef0","pricing_plan_id":"cebpf4jnsgd1na2vs0mg"},{"bike_id":"22fa4da4-6542-4cbf-9378-d06d5e100a49","system_id":"levelo_inurba_marseille","lat":43.29979,"lon":5.37178,"is_reserved":false,"is_disabled":false,"rental_uris":{"android":"levelo://app?vid=22fa4da4-6542-4cbf-9378-d06d5e100a49","ios":"levelo://app?vid=22fa4da4-6542-4cbf-9378-d06d5e100a49"},"vehicle_type_id":"4","last_reported":1735575065,"current_range_meters":14000,"station_id":"ce4bgr92rcd13ifvqc7g","pricing_plan_id":"cebpf4jnsgd1na2vs0mg"},