{"last_updated":1712369622,"ttl":30,"version":"2.2","data":{"bikes":[{"bike_id":"04b80a00-da9b-4c76-97f9-e568d09760e5","system_id":"levelo_inurba_marseille","lat":43.312239,"lon":5.368562,"is_reserved":false,"is_disabled":false,"rental_uris":{"android":"levelo://app?vid=04b80a00-da9b-4c76-97f9-e568d09760e5","ios":"levelo://app?vid=04b80a00-da9b-4c76-97f9-e568d09760e5"},"vehicle_type_id":"4","last_reported":1712369622,"current_range_meters":17600,"station_id":"ce4bgl92rcd13ifvqbq0","pricing_plan_id":"cebpf4jnsgd1na2vs0mg"},{"bike_id":"cf22db7b-820e-4551-8c55-338a021ba4b8","system_id":"levelo_inurba_marseille","lat":43.312239,"lon":5.368562,"is_reserved":false,"is_disabled":false,"rental_uris":{"android":"levelo://app?vid=cf22db7b-820e-4551-8c55-338a021ba4b8","ios":"levelo://app?vid=cf22db7b-820e-4551-8c55-338a021ba4b8"},"vehicle_type_id":"4","last_reported":1712369622,"current_range_meters":16400,"station_id":"ce4bgl92rcd13ifvqbq0","pricing_plan_id":"cebpf4jnsgd1na2vs0mg"},{"bike_id":"ed191553-d55d-449e-adc2-c8c5d254e92b","system_id":"levelo_inurba_marseille","lat":43.312239,"lon":5.368562,"is_reserved":false,"is_disabled":false,"rental_uris":{"android":"levelo://app?vid=ed191553-d55d-449e-adc2-c8c5d254e92b","ios":"levelo://app?vid=ed191553-d55d-449e-adc2-c8c5d254e92b"},"vehicle_type_id":"4","last_reported":1712369622,"current_range_meters":8400,"station_id":"ce4bgl92rcd13ifvqbq0","pricing_plan_id":"cebpf4jnsgd1na2vs0mg"},{"bike_id":"014030b7-536a-4a9b-b79f-f2b0401b4aad","system_id":"levelo_inurba_marseille","lat":43.314811,"lon":5.373103,"is_reserved":false,"is_disabled":false,"rental_uris":{"android":"levelo://app?vid=014030b7-536a-4a9b-b79f-f2b0401b4aad","ios":"levelo://app?vid=014030b7-536a-4a9b-b79f-f2b0401b4aad"},"vehicle_type_id":"4","last_reported":1712369622,"current_range_meters":17200,"station_id":"ce4bgt12rcd13ifvqcd0","pricing_plan_id":"cebpf4jnsgd1na2vs0mg"},{"bike_id":"894d3235-36ab-474b-9472-33043d1ec3b2","system_id":"levelo_inurba_marseille","lat":43.314811,"lon":5.373104,"is_reserved":false,"is_disabled":false,"rental_uris":{"android":"levelo://app?vid=894d3235-36ab-474b-9472-33043d1ec3b2","ios":"levelo://app?vid=894d3235-36ab-474b-9472-33043d1ec3b2"},"vehicle_type_id":"4","last_reported":1712369622,"current_range_meters":7600,"station_id":"ce4bgt12rcd13ifvqcd0","pricing_plan_id":"cebpf4jnsgd1na2vs0mg"},{"bike_id":"d5abe692-33f7-4aec-adfe-2d9f30048abe","system_id":"levelo_inurba_marseille","lat":43.314811,"lon":5.373104,"is_reserved":false,"is_disabled":false,"rental_uris":{"android":"levelo://app?vid=d5abe692-33f7-4aec-adfe-2d9f30048abe","ios":"levelo://app?vid=d5abe692-33f7-4aec-adfe-2d9f30048abe"},"vehicle_type_id":"4","last_reported":1712369622,"current_range_meters":3600,"station_id":"ce4bgt12rcd13ifvqcd0","pricing_plan_id":"cebpf4jnsgd1na2vs0mg"},{"bike_id":"69cdd3b1-9a1f-4562-bb0b-107294be1e54","system_id":"levelo_inurba_marseille","lat":43.314811,"lon":5.373104,"is_reserved":false,"is_disabled":false,"rental_uris":{"android":"levelo://app?vid=69cdd3b1-9a1f-4562-bb0b-107294be1e54","ios":"levelo://app?vid=69cdd3b1-9a1f-4562-bb0b-107294be1e54"},"vehicle_type_id":"4","last_reported":1712369622,"current_range_meters":11200,"station_id":"ce4bgt12rcd13ifvqcd0","pricing_plan_id":"cebpf4jnsgd1na2vs0mg"},{"bike_id":"02d02cb3-d07c-45b0-a89d-0d1d7417d57b","system_id":"levelo_inurba_marseille","lat":43.314811,"lon":5.373104,"is_reserved":false,"is_disabled":false,"rental_uris":{"android":"levelo://app?vid=02d02cb3-d07c-45b0-a89d-0d1d7417d57b","ios":"levelo://app?vid=02d02cb3-d07c-45b0-a89d-0d1d7417d57b"},"vehicle_type_id":"4","last_reported":1712369622,"current_range_meters":23600,"station_id":"ce4bgt12rcd13ifvqcd0","pricing_plan_id":"cebpf4jnsgd1na2vs0mg"},{"bike_id":"ec8875b6-6478-47e0-b612-423d8e4ebe57","system_id":"levelo_inurba_marseille","lat":43.309034,"lon":5.371783,"is_reserved":false,"is_disabled":false,"rental_uris":{"android":"levelo://app?vid=ec8875b6-6478-47e0-b612-423d8e4ebe57","ios":"levelo://app?vid=ec8875b6-6478-47e0-b612-423d8e4ebe57"},"vehicle_type_id":"4","last_reported":1712369622,"current_range_meters":6800,"station_id":"ce4bguh2rcd13ifvqckg","pricing_plan_id":"cebpf4jnsgd1na2vs0mg"},{"bike_id":"d936ddef-1e0e-46d9-ae5d-290cf828a335","system_id":"levelo_inurba_marseille","lat":43.309034,"lon":5.371783,"is_reserved":false,"is_disabled":false,"rental_uris":{"android":"levelo://app?vid=d936ddef-1e0e-46d9-ae5d-290cf828a335","ios":"levelo://app?vid=d936ddef-1e0e-46d9-ae5d-290cf828a335"},"vehicle_type_id":"4","last_reported":1712369622,"current_range_meters":11600,"station_id":"ce4bguh2rcd13ifvqckg","pricing_plan_id":"cebpf4jnsgd1na2vs0mg"},{"bike_id":"f3be59ef-9c35-4b72-8138-ba9741673bb6","system_id":"levelo_inurba_marseille","lat":43.309034,"lon":5.371783,"is_reserved":false,"is_disabled":false,"rental_uris":{"android":"levelo://app?vid=f3be59ef-9c35-4b72-8138-ba9741673bb6","ios":"levelo://app?vid=f3be59ef-9c35-4b72-8138-ba9741673bb6"},"vehicle_type_id":"4","last_reported":1712369622,"current_range_meters":28400,"station_id":"ce4bguh2rcd13ifvqckg","pricing_plan_id":"cebpf4jnsgd1na2vs0mg"},{"bike_id":"96cd6820-a91e-4725-bf65-94add822ddbf","system_id":"levelo_inurba_marseille","lat":43.305368,"lon":5.367343,"is_reserved":false,"is_disabled":false,"rental_uris":{"android":"levelo://app?vid=96cd6820-a91e-4725-bf65-94add822ddbf","ios":"levelo://app?vid=96cd6820-a91e-4725-bf65-94add822ddbf"},"vehicle_type_id":"4","last_reported":1712369622,"current_range_meters":23600,"station_id":"ce4bgrp2rcd13ifvqc9g","pricing_plan_id":"cebpf4jnsgd1na2vs0mg"},{"bike_id":"ec97936f-1d40-4712-8f48-fb3d91d57f8c","system_id":"levelo_inurba_marseille","lat":43.305989,"lon":5.37225,"is_reserved":false,"is_disabled":false,"rental_uris":{"android":"levelo://app?vid=ec97936f-1d40-4712-8f48-fb3d91d57f8c","ios":"levelo://app?vid=ec97936f-1d40-4712-8f48-fb3d91d57f8c"},"vehicle_type_id":"4","last_reported":1712369622,"current_range_meters":5200,"station_id":"ce4bgqh2rcd13ifvqc4g","pricing_plan_id":"cebpf4jnsgd1na2vs0mg"},{"bike_id":"19a9701f-d372-429a-ac8b-ae61faa613b6","system_id":"levelo_inurba_marseille","lat":43.30596,"lon":5.37221,"is_reserved":false,"is_disabled":false,"rental_uris":{"android":"levelo://app?vid=19a9701f-d372-429a-ac8b-ae61faa613b6","ios":"levelo://app?vid=19a9701f-d372-429a-ac8b-ae61faa613b6"},"vehicle_type_id":"4","last_reported":1712369622,"current_range_meters":16400,"station_id":"ce4bgqh2rcd13ifvqc4g","pricing_plan_id":"cebpf4jnsgd1na2vs0mg"},{"bike_id":"76b79178-7750-404b-9dec-f245eda807e9","system_id":"levelo_inurba_marseille","lat":43.311131,"lon":5.377651,"is_reserved":false,"is_disabled":false,"rental_uris":{"android":"levelo://app?vid=76b79178-7750-404b-9dec-f245eda807e9","ios":"levelo://app?vid=76b79178-7750-404b-9dec-f245eda807e9"},"vehicle_type_id":"4","last_reported":1712369622,"current_range_meters":22000,"station_id":"ce4bgt92rcd13ifvqcg0","pricing_plan_id":"cebpf4jnsgd1na2vs0mg"},{"bike_id":"40c30c09-f01f-48a6-9b65-dc1d2cfb2c5a","system_id":"levelo_inurba_marseille","lat":43.311125,"lon":5.377624,"is_reserved":false,"is_disabled":false,"rental_uris":{"android":"levelo://app?vid=40c30c09-f01f-48a6-9b65-dc1d2cfb2c5a","ios":"levelo://app?vid=40c30c09-f01f-48a6-9b65-dc1d2cfb2c5a"},"vehicle_type_id":"4","last_reported":1712369622,"current_range_meters":1200,"station_id":"ce4bgt92rcd13ifvqcg0","pricing_plan_id":"cebpf4jnsgd1na2vs0mg"},{"bike_id":"129cfa7e-4fd6-4982-b7f9-6cab851bfac6","system_id":"levelo_inurba_marseille","lat":43.311125,"lon":5.377624,"is_reserved":false,"is_disabled":false,"rental_uris":{"android":"levelo://app?vid=129cfa7e-4fd6-4982-b7f9-6cab851bfac6","ios":"levelo://app?vid=129cfa7e-4fd6-4982-b7f9-6cab851bfac6"},"vehicle_type_id":"4","last_reported":1712369622,"current_range_meters":20400,"station_id":"ce4bgt92rcd13ifvqcg0","pricing_plan_id":"cebpf4jnsgd1na2vs0mg"},{"bike_id":"16663284-c8e4-4730-ace1-759056b637c7","system_id":"levelo_inurba_marseille","lat":43.311125,"lon":5.377624,"is_reserved":false,"is_disabled":false,"rental_uris":{"android":"levelo://app?vid=16663284-c8e4-4730-ace1-759056b637c7","ios":"levelo://app?vid=16663284-c8e4-4730-ace1-759056b637c7"},"vehicle_type_id":"4","last_reported":1712369622,"current_range_meters":18400,"station_id":"ce4bgt92rcd13ifvqcg0","pricing_plan_id":"cebpf4jnsgd1na2vs0mg"},{"bike_id":"09bcb50f-0727-46ec-9fc6-f8509053c0b1","system_id":"levelo_inurba_marseille","lat":43.311131,"lon":5.377651,"is_reserved":false,"is_disabled":false,"rental_uris":{"android":"levelo://app?vid=09bcb50f-0727-46ec-9fc6-f8509053c0b1","ios":"levelo://app?vid=09bcb50f-0727-46ec-9fc6-f8509053c0b1"},"vehicle_type_id":"4","last_reported":1712369622,"current_range_meters":18400,"station_id":"ce4bgt92rcd13ifvqcg0","pricing_plan_id":"cebpf4jnsgd1na2vs0mg"},{"bike_id":"5059171a-ea82-4a8f-8f01-814856691d90","system_id":"levelo_inurba_marseille","lat":43.311125,"lon":5.377624,"is_reserved":false,"is_disabled":false,"rental_uris":{"android":"levelo://app?vid=5059171a-ea82-4a8f-8f01-814856691d90","ios":"levelo://app?vid=5059171a-ea82-4a8f-8f01-814856691d90"},"vehicle_type_id":"4","last_reported":1712369622,"current_range_meters":28000,"station_id":"ce4bgt92rcd13ifvqcg0","pricing_plan_id":"cebpf4jnsgd1na2vs0mg"},{"bike_id":"a154f5f9-2f51-4546-8664-e0df0e7ea4a1","system_id":"levelo_inurba_marseille","lat":43.311131,"lon":5.377651,"is_reserved":false,"is_disabled":false,"rental_uris":{"android":"levelo://app?vid=a154f5f9-2f51-4546-8664-e0df0e7ea4a1","ios":"levelo://app?vid=a154f5f9-2f51-4546-8664-e0df0e7ea4a1"},"vehicle_type_id":"4","last_reported":1712369622,"current_range_meters":13600,"station_id":"ce4bgt92rcd13ifvqcg0","pricing_plan_id":"cebpf4jnsgd1na2vs0mg"},{"bike_id":"e7f87895-ddb1-431c-9d7c-e13b3f2cbc64","system_id":"levelo_inurba_marseille","lat":43.311125,"lon":5.377624,"is_reserved":false,"is_disabled":false,"rental_uris":{"android":"levelo://app?vid=e7f87895-ddb1-431c-9d7c-e13b3f2cbc64","ios":"levelo://app?vid=e7f87895-ddb1-431c-9d7c-e13b3f2cbc64"},"vehicle_type_id":"4","last_reported":1712369622,"current_range_meters":21600,"station_id":"ce4bgt92rcd13ifvqcg0","pricing_plan_id":"cebpf4jnsgd1na2vs0mg"},{"bike_id":"57ac6719-0fd1-4d79-a7c8-64d83b0a79ba","system_id":"levelo_inurba_marseille","lat":43.311131,"lon":5.377651,"is_reserved":false,"is_disabled":false,"rental_uris":{"android":"levelo://app?vid=57ac6719-0fd1-4d79-a7c8-64d83b0a79ba","ios":"levelo://app?vid=57ac6719-0fd1-4d79-a7c8-64d83b0a79ba"},"vehicle_type_id":"4","last_reported":1712369622,"current_range_meters":30800,"station_id":"ce4bgt92rcd13ifvqcg0","pricing_plan_id":"cebpf4jnsgd1na2vs0mg"},{"bike_id":"cd24b165-8c61-45c5-8ac8-673156b83160","system_id":"levelo_inurba_marseille","lat":43.30797,"lon":5.37652,"is_reserved":false,"is_disabled":false,"rental_uris":{"android":"levelo://app?vid=cd24b165-8c61-45c5-8ac8-673156b83160","ios":"levelo://app?vid=cd24b165-8c61-45c5-8ac8-673156b83160"},"vehicle_type_id":"4","last_reported":1712369622,"current_range_meters":4400,"station_id":"ce4bgv92rcd13ifvqcq0","pricing_plan_id":"cebpf4jnsgd1na2vs0mg"},{"bike_id":"10b6e677-6f10-4220-9cdc-488f8a849cab","system_id":"levelo_inurba_marseille","lat":43.311619,"lon":5.378489,"is_reserved":false,"is_disabled":false,"rental_uris":{"android":"levelo://app?vid=10b6e677-6f10-4220-9cdc-488f8a849cab","ios":"levelo://app?vid=10b6e677-6f10-4220-9cdc-488f8a849cab"},"vehicle_type_id":"4","last_reported":1712369622,"current_range_meters":1200,"station_id":"","pricing_plan_id":"cebpf4jnsgd1na2vs0mg"},{"bike_id":"f3932dba-9083-4310-a02f-ba56bcf37d26","system_id":"levelo_inurba_marseille","lat":43.307845,"lon":5.376495,"is_reserved":false,"is_disabled":false,"rental_uris":{"android":"levelo://app?vid=f3932dba-9083-4310-a02f-ba56bcf37d26","ios":"levelo://app?vid=f3932dba-9083-4310-a02f-ba56bcf37d26"},"vehicle_type_id":"4","last_reported":1712369622,"current_range_meters":18800,"station_id":"ce4bgv92rcd13ifvqcq0","pricing_plan_id":"cebpf4jnsgd1na2vs0mg"},{"bike_id":"0f3be81d-b940-46cb-9afa-e804290037fb","system_id":"levelo_inurba_marseille","lat":43.30781,"lon":5.3765,"is_reserved":false,"is_disabled":false,"rental_uris":{"android":"levelo://app?vid=0f3be81d-b940-46cb-9afa-e804290037fb","ios":"levelo://app?vid=0f3be81d-b940-46cb-9afa-e804290037fb"},"vehicle_type_id":"4","last_reported":1712369622,"current_range_meters":20400,"station_id":"ce4bgv92rcd13ifvqcq0","pricing_plan_id":"cebpf4jnsgd1na2vs0mg"},{"bike_id":"ce6b7edb-5ad7-468c-a3b2-1437ae61401f","system_id":"levelo_inurba_marseille","lat":43.30778,"lon":5.37658,"is_reserved":false,"is_disabled":false,"rental_uris":{"android":"levelo://app?vid=ce6b7edb-5ad7-468c-a3b2-1437ae61401f","ios":"levelo://app?vid=ce6b7edb-5ad7-468c-a3b2-1437ae61401f"},"vehicle_type_id":"4","last_reported":1712369622,"current_range_meters":10800,"station_id":"ce4bgv92rcd13ifvqcq0","pricing_plan_id":"cebpf4jnsgd1na2vs0mg"},{"bike_id":"2676bf12-8414-43ed-9d8d-8f96fe2fab9d","system_id":"levelo_inurba_marseille","lat":43.30778,"lon":5.37663,"is_reserved":false,"is_disabled":false,"rental_uris":{"android":"levelo://app?vid=2676bf12-8414-43ed-9d8d-8f96fe2fab9d","ios":"levelo://app?vid=2676bf12-8414-43ed-9d8d-8f96fe2fab9d"},"vehicle_type_id":"4","last_reported":1712369622,"current_range_meters":30400,"station_id":"ce4bgv92rcd13ifvqcq0","pricing_plan_id":"cebpf4jnsgd1na2vs0mg"},{"bike_id":"bbfed310-f5ca-41c8-bf3a-f83cd6959697","system_id":"levelo_inurba_marseille","lat":43.313254,"lon":5.37881,"is_reserved":false,"is_disabled":false,"rental_uris":{"android":"levelo://app?vid=bbfed310-f5ca-41c8-bf3a-f83cd6959697","ios":"levelo://app?vid=bbfed310-f5ca-41c8-bf3a-f83cd6959697"},"vehicle_type_id":"4","last_reported":1712369622,"current_range_meters":3200,"station_id":"","pricing_plan_id":"cebpf4jnsgd1na2vs0mg"},{"bike_id":"538c02de-05b0-424e-8d40-87f24b26eb0e","system_id":"levelo_inurba_marseille","lat":43.317075,"lon":5.377367,"is_reserved":false,"is_disabled":false,"rental_uris":{"android":"levelo://app?vid=538c02de-05b0-424e-8d40-87f24b26eb0e","ios":"levelo://app?vid=538c02de-05b0-424e-8d40-87f24b26eb0e"},"vehicle_type_id":"4","last_reported":1712369622,"current_range_meters":7200,"station_id":"ce4bgth2rcd13ifvqch0","pricing_plan_id":"cebpf4jnsgd1na2vs0mg"},{"bike_id":"61b3f78d-ac31-4767-9497-74231f72dcbe","system_id":"levelo_inurba_marseille","lat":43.317075,"lon":5.377367,"is_reserved":false,"is_disabled":false,"rental_uris":{"android":"levelo://app?vid=61b3f78d-ac31-4767-9497-74231f72dcbe","ios":"levelo://app?vid=61b3f78d-ac31-4767-9497-74231f72dcbe"},"vehicle_type_id":"4","last_reported":1712369622,"current_range_meters":21200,"station_id":"ce4bgth2rcd13ifvqch0","pricing_plan_id":"cebpf4jnsgd1na2vs0mg"},{"bike_id":"62682c29-d3eb-4266-8b53-3b5eafeebf1f","system_id":"levelo_inurba_marseille","lat":43.30353,"lon":5.36523,"is_reserved":false,"is_disabled":false,"rental_uris":{"android":"levelo://app?vid=62682c29-d3eb-4266-8b53-3b5eafeebf1f","ios":"levelo://app?vid=62682c29-d3eb-4266-8b53-3b5eafeebf1f"},"vehicle_type_id":"4","last_reported":1712369622,"current_range_meters":9200,"station_id":"","pricing_plan_id":"cebpf4jnsgd1na2vs0mg"},{"bike_id":"b074d292-20e7-4b6e-9ef5-99f5afafebcb","system_id":"levelo_inurba_marseille","lat":43.303046,"lon":5.368981,"is_reserved":false,"is_disabled":false,"rental_uris":{"android":"levelo://app?vid=b074d292-20e7-4b6e-9ef5-99f5afafebcb","ios":"levelo://app?vid=b074d292-20e7-4b6e-9ef5-99f5afafebcb"},"vehicle_type_id":"4","last_reported":1712369622,"current_range_meters":6800,"station_id":"ce4bgqh2rcd13ifvqc5g","pricing_plan_id":"cebpf4jnsgd1na2vs0mg"},{"bike_id":"9a2e3d8b-4b16-4b29-bafe-a8b46a2bcd5f","system_id":"levelo_inurba_marseille","lat":43.303046,"lon":5.368981,"is_reserved":false,"is_disabled":false,"rental_uris":{"android":"levelo://app?vid=9a2e3d8b-4b16-4b29-bafe-a8b46a2bcd5f","ios":"levelo://app?vid=9a2e3d8b-4b16-4b29-bafe-a8b46a2bcd5f"},"vehicle_type_id":"4","last_reported":1712369622,"current_range_meters":20400,"station_id":"ce4bgqh2rcd13ifvqc5g","pricing_plan_id":"cebpf4jnsgd1na2vs0mg"},{"bike_id":"5a4c3c75-2635-40f8-afe0-2d0197cece35","system_id":"levelo_inurba_marseille","lat":43.303046,"lon":5.368981,"is_reserved":false,"is_disabled":false,"rental_uris":{"android":"levelo://app?vid=5a4c3c75-2635-40f8-afe0-2d0197cece35","ios":"levelo://app?vid=5a4c3c75-2635-40f8-afe0-2d0197cece35"},"vehicle_type_id":"4","last_reported":1712369622,"current_range_meters":21600,"station_id":"ce4bgqh2rcd13ifvqc5g","pricing_plan_id":"cebpf4jnsgd1na2vs0mg"},{"bike_id":"0fde2cce-7218-4392-8c02-701f1ea479db","system_id":"levelo_inurba_marseille","lat":43.315289,"lon":5.380349,"is_reserved":false,"is_disabled":false,"rental_uris":{"android":"levelo://app?vid=0fde2cce-7218-4392-8c02-701f1ea479db","ios":"levelo://app?vid=0fde2cce-7218-4392-8c02-701f1ea479db"},"vehicle_type_id":"4","last_reported":1712369622,"current_range_meters":29600,"station_id":"ce4bhsp2rcd13ifvqi50","pricing_plan_id":"cebpf4jnsgd1na2vs0mg"},{"bike_id":"48003744-59f3-4730-8ffa-c89728c69cd1","system_id":"levelo_inurba_marseille","lat":43.315289,"lon":5.380349,"is_reserved":false,"is_disabled":false,"rental_uris":{"android":"levelo://app?vid=48003744-59f3-4730-8ffa-c89728c69cd1","ios":"levelo://app?vid=48003744-59f3-4730-8ffa-c89728c69cd1"},"vehicle_type_id":"4","last_reported":1712369622,"current_range_meters":22800,"station_id":"ce4bhsp2rcd13ifvqi50","pricing_plan_id":"cebpf4jnsgd1na2vs0mg"},{"bike_id":"a68ede3d-ef15-41e6-a299-458a5a2d14df","system_id":"levelo_inurba_marseille","lat":43.315289,"lon":5.380349,"is_reserved":false,"is_disabled":false,"rental_uris":{"android":"levelo://app?vid=a68ede3d-ef15-41e6-a299-458a5a2d14df","ios":"levelo://app?vid=a68ede3d-ef15-41e6-a299-458a5a2d14df"},"vehicle_type_id":"4","last_reported":1712369622,"current_range_meters":26800,"station_id":"ce4bhsp2rcd13ifvqi50","pricing_plan_id":"cebpf4jnsgd1na2vs0mg"},{"bike_id":"830aebe7-3a45-4fcd-b02e-b83afa267e20","system_id":"levelo_inurba_marseille","lat":43.315293,"lon":5.380349,"is_reserved":false,"is_disabled":false,"rental_uris":{"android":"levelo://app?vid=830aebe7-3a45-4fcd-b02e-b83afa267e20","ios":"levelo://app?vid=830aebe7-3a45-4fcd-b02e-b83afa267e20"},"vehicle_type_id":"4","last_reported":1712369622,"current_range_meters":23200,"station_id":"ce4bhsp2rcd13ifvqi50","pricing_plan_id":"cebpf4jnsgd1na2vs0mg"},{"bike_id":"3de631a9-4a95-4a1d-8d69-2bf4b675a7a7","system_id":"levelo_inurba_marseille","lat":43.315293,"lon":5.380349,"is_reserved":false,"is_disabled":false,"rental_uris":{"android":"levelo://app?vid=3de631a9-4a95-4a1d-8d69-2bf4b675a7a7","ios":"levelo://app?vid=3de631a9-4a95-4a1d-8d69-2bf4b675a7a7"},"vehicle_type_id":"4","last_reported":1712369622,"current_range_meters":20000,"station_id":"ce4bhsp2rcd13ifvqi50","pricing_plan_id":"cebpf4jnsgd1na2vs0mg"},{"bike_id":"d32ed4b7-9432-4b33-9be2-802270662314","system_id":"levelo_inurba_marseille","lat":43.315289,"lon":5.380349,"is_reserved":false,"is_disabled":false,"rental_uris":{"android":"levelo://app?vid=d32ed4b7-9432-4b33-9be2-802270662314","ios":"levelo://app?vid=d32ed4b7-9432-4b33-9be2-802270662314"},"vehicle_type_id":"4","last_reported":1712369622,"current_range_meters":25600,"station_id":"ce4bhsp2rcd13ifvqi50","pricing_plan_id":"cebpf4jnsgd1na2vs0mg"},{"bike_id":"8efbe6b0-6087-406d-9c4e-e374590ee5bb","system_id":"levelo_inurba_marseille","lat":43.301939,"lon":5.366286,"is_reserved":false,"is_disabled":false,"rental_uris":{"android":"levelo://app?vid=8efbe6b0-6087-406d-9c4e-e374590ee5bb","ios":"levelo://app?vid=8efbe6b0-6087-406d-9c4e-e374590ee5bb"},"vehicle_type_id":"4","last_reported":1712369622,"current_range_meters":21200,"station_id":"ce4bgrh2rcd13ifvqc8g","pricing_plan_id":"cebpf4jnsgd1na2vs0mg"},{"bike_id":"303a8f0d-10ec-40e8-8da8-7edecbe2a50d","system_id":"levelo_inurba_marseille","lat":43.301939,"lon":5.366286,"is_reserved":false,"is_disabled":false,"rental_uris":{"android":"levelo://app?vid=303a8f0d-10ec-40e8-8da8-7edecbe2a50d","ios":"levelo://app?vid=303a8f0d-10ec-40e8-8da8-7edecbe2a50d"},"vehicle_type_id":"4","last_reported":1712369622,"current_range_meters":22000,"station_id":"ce4bgrh2rcd13ifvqc8g","pricing_plan_id":"cebpf4jnsgd1na2vs0mg"},{"bike_id":"8a1a6bd4-6b9e-41f2-bdc6-beb2a7907864","system_id":"levelo_inurba_marseille","lat":43.308012,"lon":5.381511,"is_reserved":false,"is_disabled":false,"rental_uris":{"android":"levelo://app?vid=8a1a6bd4-6b9e-41f2-bdc6-beb2a7907864","ios":"levelo://app?vid=8a1a6bd4-6b9e-41f2-bdc6-beb2a7907864"},"vehicle_type_id":"4","last_reported":1712369622,"current_range_meters":13200,"station_id":"ce4bgt12rcd13ifvqce0","pricing_plan_id":"cebpf4jnsgd1na2vs0mg"},{"bike_id":"8a8f0405-3c65-42aa-a492-0b38f14f5d90","system_id":"levelo_inurba_marseille","lat":43.308012,"lon":5.381511,"is_reserved":false,"is_disabled":false,"rental_uris":{"android":"levelo://app?vid=8a8f0405-3c65-42aa-a492-0b38f14f5d90","ios":"levelo://app?vid=8a8f0405-3c65-42aa-a492-0b38f14f5d90"},"vehicle_type_id":"4","last_reported":1712369622,"current_range_meters":11200,"station_id":"ce4bgt12rcd13ifvqce0","pricing_plan_id":"cebpf4jnsgd1na2vs0mg"},{"bike_id":"7bf5d164-4c07-45cf-8245-2474d8a99266","system_id":"levelo_inurba_marseille","lat":43.32311,"lon":5.37426,"is_reserved":false,"is_disabled":false,"rental_uris":{"android":"levelo://app?vid=7bf5d164-4c07-45cf-8245-2474d8a99266","ios":"levelo://app?vid=7bf5d164-4c07-45cf-8245-2474d8a99266"},"vehicle_type_id":"4","last_reported":1712369622,"current_range_meters":14000,"station_id":"","pricing_plan_id":"cebpf4jnsgd1na2vs0mg"},{"bike_id":"b92a14c6-c154-4cef-a9e5-f7ca4e17235b","system_id":"levelo_inurba_marseille","lat":43.308012,"lon":5.381511,"is_reserved":false,"is_disabled":false,"rental_uris":{"android":"levelo://app?vid=b92a14c6-c154-4cef-a9e5-f7ca4e17235b","ios":"levelo://app?vid=b92a14c6-c154-4cef-a9e5-f7ca4e17235b"},"vehicle_type_id":"4","last_reported":1712369622,"current_range_meters":10000,"station_id":"ce4bgt12rcd13ifvqce0","pricing_plan_id":"cebpf4jnsgd1na2vs0mg"},{"bike_id":"d7397516-3415-416f-8740-f32927c02fde","system_id":"levelo_inurba_marseille","lat":43.308012,"lon":5.381511,"is_reserved":false,"is_disabled":false,"rental_uris":{"android":"levelo://app?vid=d7397516-3415-416f-8740-f32927c02fde","ios":"levelo://app?vid=d7397516-3415-416f-8740-f32927c02fde"},"vehicle_type_id":"4","last_reported":1712369622,"current_range_meters":24400,"station_id":"ce4bgt12rcd13ifvqce0","pricing_plan_id":"cebpf4jnsgd1na2vs0mg"},{"bike_id":"0710d23b-e494-43ff-a11f-96693e751775","system_id":"levelo_inurba_marseille","lat":43.308012,"lon":5.381511,"is_reserved":false,"is_disabled":false,"rental_uris":{"android":"levelo://app?vid=0710d23b-e494-43ff-a11f-96693e751775","ios":"levelo://app?vid=0710d23b-e494-43ff-a11f-96693e751775"},"vehicle_type_id":"4","last_reported":1712369622,"current_range_meters":18000,"station_id":"ce4bgt12rcd13ifvqce0","pricing_plan_id":"cebpf4jnsgd1na2vs0mg"},{"bike_id":"73b11d06-74b2-4ed9-9a5f-b0a9630492e1","system_id":"levelo_inurba_marseille","lat":43.304606,"lon":5.379026,"is_reserved":false,"is_disabled":false,"rental_uris":{"android":"levelo://app?vid=73b11d06-74b2-4ed9-9a5f-b0a9630492e1","ios":"levelo://app?vid=73b11d06-74b2-4ed9-9a5f-b0a9630492e1"},"vehicle_type_id":"4","last_reported":1712369622,"current_range_meters":17200,"station_id":"ce4bgup2rcd13ifvqcn0","pricing_plan_id":"cebpf4jnsgd1na2vs0mg"},{"bike_id":"8ee5acd4-daf9-46ea-aea2-a4d99b213fb5","system_id":"levelo_inurba_marseille","lat":43.324771,"lon":5.36557,"is_reserved":false,"is_disabled":false,"rental_uris":{"android":"levelo://app?vid=8ee5acd4-daf9-46ea-aea2-a4d99b213fb5","ios":"levelo://app?vid=8ee5acd4-daf9-46ea-aea2-a4d99b213fb5"},"vehicle_type_id":"4","last_reported":1712369622,"current_range_meters":21200,"station_id":"ce4bhs12rcd13ifvqhvg","pricing_plan_id":"cebpf4jnsgd1na2vs0mg"},{"bike_id":"65c7febf-046b-4347-9dbb-f5eac64237c5","system_id":"levelo_inurba_marseille","lat":43.324771,"lon":5.36557,"is_reserved":false,"is_disabled":false,"rental_uris":{"android":"levelo://app?vid=65c7febf-046b-4347-9dbb-f5eac64237c5","ios":"levelo://app?vid=65c7febf-046b-4347-9dbb-f5eac64237c5"},"vehicle_type_id":"4","last_reported":1712369622,"current_range_meters":20000,"station_id":"ce4bhs12rcd13ifvqhvg","pricing_plan_id":"cebpf4jnsgd1na2vs0mg"},{"bike_id":"e7859fb1-899d-40c8-a11d-77f494852427","system_id":"levelo_inurba_marseille","lat":43.324771,"lon":5.36557,"is_reserved":false,"is_disabled":false,"rental_uris":{"android":"levelo://app?vid=e7859fb1-899d-40c8-a11d-77f494852427","ios":"levelo://app?vid=e7859fb1-899d-40c8-a11d-77f494852427"},"vehicle_type_id":"4","last_reported":1712369622,"current_range_meters":13200,"station_id":"ce4bhs12rcd13ifvqhvg","pricing_plan_id":"cebpf4jnsgd1na2vs0mg"},{"bike_id":"4b0f9170-0b82-4fd4-974d-1ab2919e60e7","system_id":"levelo_inurba_marseille","lat":43.324771,"lon":5.36557,"is_reserved":false,"is_disabled":false,"rental_uris":{"android":"levelo://app?vid=4b0f9170-0b82-4fd4-974d-1ab2919e60e7","ios":"levelo://app?vid=4b0f9170-0b82-4fd4-974d-1ab2919e60e7"},"vehicle_type_id":"4","last_reported":1712369622,"current_range_meters":17200,"station_id":"ce4bhs12rcd13ifvqhvg","pricing_plan_id":"cebpf4jnsgd1na2vs0mg"},{"bike_id":"e241da9c-f9b3-4258-b83a-fc8144cbf8d5","system_id":"levelo_inurba_marseille","lat":43.324771,"lon":5.36557,"is_reserved":false,"is_disabled":false,"rental_uris":{"android":"levelo://app?vid=e241da9c-f9b3-4258-b83a-fc8144cbf8d5","ios":"levelo://app?vid=e241da9c-f9b3-4258-b83a-fc8144cbf8d5"},"vehicle_type_id":"4","last_reported":1712369622,"current_range_meters":10800,"station_id":"ce4bhs12rcd13ifvqhvg","pricing_plan_id":"cebpf4jnsgd1na2vs0mg"},{"bike_id":"75002fa4-3fb9-4c75-96ad-81fc00d0d7fc","system_id":"levelo_inurba_marseille","lat":43.324771,"lon":5.36557,"is_reserved":false,"is_disabled":false,"rental_uris":{"android":"levelo://app?vid=75002fa4-3fb9-4c75-96ad-81fc00d0d7fc","ios":"levelo://app?vid=75002fa4-3fb9-4c75-96ad-81fc00d0d7fc"},"vehicle_type_id":"4","last_reported":1712369622,"current_range_meters":16000,"station_id":"ce4bhs12rcd13ifvqhvg","pricing_plan_id":"cebpf4jnsgd1na2vs0mg"},{"bike_id":"4eca8582-1b3b-4390-817f-e9b1adebf443","system_id":"levelo_inurba_marseille","lat":43.3107,"lon":5.38344,"is_reserved":false,"is_disabled":false,"rental_uris":{"android":"levelo://app?vid=4eca8582-1b3b-4390-817f-e9b1adebf443","ios":"levelo://app?vid=4eca8582-1b3b-4390-817f-e9b1adebf443"},"vehicle_type_id":"4","last_reported":1712369622,"current_range_meters":31200,"station_id":"ce4bgv92rcd13ifvqcr0","pricing_plan_id":"cebpf4jnsgd1na2vs0mg"},{"bike_id":"48d74f0e-6fc9-4f80-ad3c-fd167cd4c489","system_id":"levelo_inurba_marseille","lat":43.310804,"lon":5.38359,"is_reserved":false,"is_disabled":false,"rental_uris":{"android":"levelo://app?vid=48d74f0e-6fc9-4f80-ad3c-fd167cd4c489","ios":"levelo://app?vid=48d74f0e-6fc9-4f80-ad3c-fd167cd4c489"},"vehicle_type_id":"4","last_reported":1712369622,"current_range_meters":30000,"station_id":"ce4bgv92rcd13ifvqcr0","pricing_plan_id":"cebpf4jnsgd1na2vs0mg"},{"bike_id":"16102df9-2c79-4c15-a90d-9ef0aaa14a1e","system_id":"levelo_inurba_marseille","lat":43.310804,"lon":5.38359,"is_reserved":false,"is_disabled":false,"rental_uris":{"android":"levelo://app?vid=16102df9-2c79-4c15-a90d-9ef0aaa14a1e","ios":"levelo://app?vid=16102df9-2c79-4c15-a90d-9ef0aaa14a1e"},"vehicle_type_id":"4","last_reported":1712369622,"current_range_meters":25200,"station_id":"ce4bgv92rcd13ifvqcr0","pricing_plan_id":"cebpf4jnsgd1na2vs0mg"},{"bike_id":"c7eaa570-2d65-404c-bc41-c42bd8a0875d","system_id":"levelo_inurba_marseille","lat":43.310804,"lon":5.38359,"is_reserved":false,"is_disabled":false,"rental_uris":{"android":"levelo://app?vid=c7eaa570-2d65-404c-bc41-c42bd8a0875d","ios":"levelo://app?vid=c7eaa570-2d65-404c-bc41-c42bd8a0875d"},"vehicle_type_id":"4","last_reported":1712369622,"current_range_meters":400,"station_id":"ce4bgv92rcd13ifvqcr0","pricing_plan_id":"cebpf4jnsgd1na2vs0mg"},{"bike_id":"498a882d-17a9-48da-ab01-4e53374d5d6f","system_id":"levelo_inurba_marseille","lat":43.310804,"lon":5.38359,"is_reserved":false,"is_disabled":false,"rental_uris":{"android":"levelo://app?vid=498a882d-17a9-48da-ab01-4e53374d5d6f","ios":"levelo://app?vid=498a882d-17a9-48da-ab01-4e53374d5d6f"},"vehicle_type_id":"4","last_reported":1712369622,"current_range_meters":31600,"station_id":"ce4bgv92rcd13ifvqcr0","pricing_plan_id":"cebpf4jnsgd1na2vs0mg"},{"bike_id":"deb7312b-7300-4b90-a245-51dcbe43149f","system_id":"levelo_inurba_marseille","lat":43.310804,"lon":5.38359,"is_reserved":false,"is_disabled":false,"rental_uris":{"android":"levelo://app?vid=deb7312b-7300-4b90-a245-51dcbe43149f","ios":"levelo://app?vid=deb7312b-7300-4b90-a245-51dcbe43149f"},"vehicle_type_id":"4","last_reported":1712369622,"current_range_meters":26000,"station_id":"ce4bgv92rcd13ifvqcr0","pricing_plan_id":"cebpf4jnsgd1na2vs0mg"},{"bike_id":"1365208b-7fb9-431d-b312-87db242a972c","system_id":"levelo_inurba_marseille","lat":43.310804,"lon":5.38359,"is_reserved":false,"is_disabled":false,"rental_uris":{"android":"levelo://app?vid=1365208b-7fb9-431d-b312-87db242a972c","ios":"levelo://app?vid=1365208b-7fb9-431d-b312-87db242a972c"},"vehicle_type_id":"4","last_reported":1712369622,"current_range_meters":20800,"station_id":"ce4bgv92rcd13ifvqcr0","pricing_plan_id":"cebpf4jnsgd1na2vs0mg"},{"bike_id":"f28cd570-5dbb-44f6-9531-4e2c9f41b885","system_id":"levelo_inurba_marseille","lat":43.302784,"lon":5.377158,"is_reserved":false,"is_disabled":false,"rental_uris":{"android":"levelo://app?vid=f28cd570-5dbb-44f6-9531-4e2c9f41b885","ios":"levelo://app?vid=f28cd570-5dbb-44f6-9531-4e2c9f41b885"},"vehicle_type_id":"4","last_reported":1712369622,"current_range_meters":18400,"station_id":"ce4bguh2rcd13ifvqcj0","pricing_plan_id":"cebpf4jnsgd1na2vs0mg"},{"bike_id":"1a1191c3-7b4d-447f-bb06-7b6a651f6f13","system_id":"levelo_inurba_marseille","lat":43.310804,"lon":5.38359,"is_reserved":false,"is_disabled":false,"rental_uris":{"android":"levelo://app?vid=1a1191c3-7b4d-447f-bb06-7b6a651f6f13","ios":"levelo://app?vid=1a1191c3-7b4d-447f-bb06-7b6a651f6f13"},"vehicle_type_id":"4","last_reported":1712369622,"current_range_meters":23600,"station_id":"ce4bgv92rcd13ifvqcr0","pricing_plan_id":"cebpf4jnsgd1na2vs0mg"},{"bike_id":"2dbf2828-40ad-4ec0-99e8-eeeda682713e","system_id":"levelo_inurba_marseille","lat":43.301429,"lon":5.37413,"is_reserved":false,"is_disabled":false,"rental_uris":{"android":"levelo://app?vid=2dbf2828-40ad-4ec0-99e8-eeeda682713e","ios":"levelo://app?vid=2dbf2828-40ad-4ec0-99e8-eeeda682713e"},"vehicle_type_id":"4","last_reported":1712369622,"current_range_meters":20800,"station_id":"ce4bgs92rcd13ifvqcc0","pricing_plan_id":"cebpf4jnsgd1na2vs0mg"},{"bike_id":"f7865c2b-f25c-4af4-ad63-eeff2472152d","system_id":"levelo_inurba_marseille","lat":43.302784,"lon":5.377158,"is_reserved":false,"is_disabled":false,"rental_uris":{"android":"levelo://app?vid=f7865c2b-f25c-4af4-ad63-eeff2472152d","ios":"levelo://app?vid=f7865c2b-f25c-4af4-ad63-eeff2472152d"},"vehicle_type_id":"4","last_reported":1712369622,"current_range_meters":29200,"station_id":"ce4bguh2rcd13ifvqcj0","pricing_plan_id":"cebpf4jnsgd1na2vs0mg"},{"bike_id":"797bb9d1-5877-40de-8034-48f2834a0948","system_id":"levelo_inurba_marseille","lat":43.30143,"lon":5.37413,"is_reserved":false,"is_disabled":false,"rental_uris":{"android":"levelo://app?vid=797bb9d1-5877-40de-8034-48f2834a0948","ios":"levelo://app?vid=797bb9d1-5877-40de-8034-48f2834a0948"},"vehicle_type_id":"4","last_reported":1712369622,"current_range_meters":26800,"station_id":"ce4bgs92rcd13ifvqcc0","pricing_plan_id":"cebpf4jnsgd1na2vs0mg"},{"bike_id":"6920eb6a-6545-46c8-ab6f-a7e0189a9542","system_id":"levelo_inurba_marseille","lat":43.31993,"lon":5.3815,"is_reserved":false,"is_disabled":false,"rental_uris":{"android":"levelo://app?vid=6920eb6a-6545-46c8-ab6f-a7e0189a9542","ios":"levelo://app?vid=6920eb6a-6545-46c8-ab6f-a7e0189a9542"},"vehicle_type_id":"4","last_reported":1712369622,"current_range_meters":2400,"station_id":"ce4bhr12rcd13ifvqhpg","pricing_plan_id":"cebpf4jnsgd1na2vs0mg"},{"bike_id":"3020cd15-a45c-44f8-b232-6920c4c1ddb0","system_id":"levelo_inurba_marseille","lat":43.319935,"lon":5.381699,"is_reserved":false,"is_disabled":false,"rental_uris":{"android":"levelo://app?vid=3020cd15-a45c-44f8-b232-6920c4c1ddb0","ios":"levelo://app?vid=3020cd15-a45c-44f8-b232-6920c4c1ddb0"},"vehicle_type_id":"4","last_reported":1712369622,"current_range_meters":28000,"station_id":"ce4bhr12rcd13ifvqhpg","pricing_plan_id":"cebpf4jnsgd1na2vs0mg"},{"bike_id":"1829be0a-5060-4234-8f24-9857cbab0d74","system_id":"levelo_inurba_marseille","lat":43.319935,"lon":5.381699,"is_reserved":false,"is_disabled":false,"rental_uris":{"android":"levelo://app?vid=1829be0a-5060-4234-8f24-9857cbab0d74","ios":"levelo://app?vid=1829be0a-5060-4234-8f24-9857cbab0d74"},"vehicle_type_id":"4","last_reported":1712369622,"current_range_meters":4800,"station_id":"ce4bhr12rcd13ifvqhpg","pricing_plan_id":"cebpf4jnsgd1na2vs0mg"},{"bike_id":"b6033c9b-ef77-4185-acab-aabc76d44e94","system_id":"levelo_inurba_marseille","lat":43.319935,"lon":5.381699,"is_reserved":false,"is_disabled":false,"rental_uris":{"android":"levelo://app?vid=b6033c9b-ef77-4185-acab-aabc76d44e94","ios":"levelo://app?vid=b6033c9b-ef77-4185-acab-aabc76d44e94"},"vehicle_type_id":"4","last_reported":1712369622,"current_range_meters":2000,"station_id":"ce4bhr12rcd13ifvqhpg","pricing_plan_id":"cebpf4jnsgd1na2vs0mg"},{"bike_id":"07120840-63e0-42d5-a1bd-d72e479345a2","system_id":"levelo_inurba_marseille","lat":43.319935,"lon":5.381699,"is_reserved":false,"is_disabled":false,"rental_uris":{"android":"levelo://app?vid=07120840-63e0-42d5-a1bd-d72e479345a2","ios":"levelo://app?vid=07120840-63e0-42d5-a1bd-d72e479345a2"},"vehicle_type_id":"4","last_reported":1712369622,"current_range_meters":1200,"station_id":"ce4bhr12rcd13ifvqhpg","pricing_plan_id":"cebpf4jnsgd1na2vs0mg"},{"bike_id":"34200b90-e558-43be-8d99-44a2fe58e047","system_id":"levelo_inurba_marseille","lat":43.319935,"lon":5.381699,"is_reserved":false,"is_disabled":false,"rental_uris":{"android":"levelo://app?vid=34200b90-e558-43be-8d99-44a2fe58e047","ios":"levelo://app?vid=34200b90-e558-43be-8d99-44a2fe58e047"},"vehicle_type_id":"4","last_reported":1712369622,"current_range_meters":0,"station_id":"ce4bhr12rcd13ifvqhpg","pricing_plan_id":"cebpf4jnsgd1na2vs0mg"},{"bike_id":"63d57732-07e2-4a21-b2be-d24e3918f231","system_id":"levelo_inurba_marseille","lat":43.319935,"lon":5.381699,"is_reserved":false,"is_disabled":false,"rental_uris":{"android":"levelo://app?vid=63d57732-07e2-4a21-b2be-d24e3918f231","ios":"levelo://app?vid=63d57732-07e2-4a21-b2be-d24e3918f231"},"vehicle_type_id":"4","last_reported":1712369622,"current_range_meters":25600,"station_id":"ce4bhr12rcd13ifvqhpg","pricing_plan_id":"cebpf4jnsgd1na2vs0mg"},{"bike_id":"ab206211-58e1-4548-a53d-fe240099683d","system_id":"levelo_inurba_marseille","lat":43.319935,"lon":5.381699,"is_reserved":false,"is_disabled":false,"rental_uris":{"android":"levelo://app?vid=ab206211-58e1-4548-a53d-fe240099683d","ios":"levelo://app?vid=ab206211-58e1-4548-a53d-fe240099683d"},"vehicle_type_id":"4","last_reported":1712369622,"current_range_meters":11600,"station_id":"ce4bhr12rcd13ifvqhpg","pricing_plan_id":"cebpf4jnsgd1na2vs0mg"},{"bike_id":"4ae1a50c-e909-4394-b553-22bb2aa42c1b","system_id":"levelo_inurba_marseille","lat":43.3136,"lon":5.38485,"is_reserved":false,"is_disabled":false,"rental_uris":{"android":"levelo://app?vid=4ae1a50c-e909-4394-b553-22bb2aa42c1b","ios":"levelo://app?vid=4ae1a50c-e909-4394-b553-22bb2aa42c1b"},"vehicle_type_id":"4","last_reported":1712369622,"current_range_meters":24800,"station_id":"ce4bgt92rcd13ifvqcf0","pricing_plan_id":"cebpf4jnsgd1na2vs0mg"},{"bike_id":"49cf6464-d1d5-4ad5-9266-8e6dd33037ae","system_id":"levelo_inurba_marseille","lat":43.3136,"lon":5.38491,"is_reserved":false,"is_disabled":false,"rental_uris":{"android":"levelo://app?vid=49cf6464-d1d5-4ad5-9266-8e6dd33037ae","ios":"levelo://app?vid=49cf6464-d1d5-4ad5-9266-8e6dd33037ae"},"vehicle_type_id":"4","last_reported":1712369622,"current_range_meters":24400,"station_id":"ce4bgt92rcd13ifvqcf0","pricing_plan_id":"cebpf4jnsgd1na2vs0mg"},{"bike_id":"e39d1850-4f7e-4a96-bfcc-92ffdbc7c537","system_id":"levelo_inurba_marseille","lat":43.31361,"lon":5.38491,"is_reserved":false,"is_disabled":false,"rental_uris":{"android":"levelo://app?vid=e39d1850-4f7e-4a96-bfcc-92ffdbc7c537","ios":"levelo://app?vid=e39d1850-4f7e-4a96-bfcc-92ffdbc7c537"},"vehicle_type_id":"4","last_reported":1712369622,"current_range_meters":13200,"station_id":"ce4bgt92rcd13ifvqcf0","pricing_plan_id":"cebpf4jnsgd1na2vs0mg"},{"bike_id":"1b7156f7-d48e-4105-86a6-557ba18e1e55","system_id":"levelo_inurba_marseille","lat":43.313571,"lon":5.384829,"is_reserved":false,"is_disabled":false,"rental_uris":{"android":"levelo://app?vid=1b7156f7-d48e-4105-86a6-557ba18e1e55","ios":"levelo://app?vid=1b7156f7-d48e-4105-86a6-557ba18e1e55"},"vehicle_type_id":"4","last_reported":1712369622,"current_range_meters":9200,"station_id":"ce4bgt92rcd13ifvqcf0","pricing_plan_id":"cebpf4jnsgd1na2vs0mg"},{"bike_id":"cd608234-5d8f-4d32-b75a-190574585931","system_id":"levelo_inurba_marseille","lat":43.313649,"lon":5.384917,"is_reserved":false,"is_disabled":false,"rental_uris":{"android":"levelo://app?vid=cd608234-5d8f-4d32-b75a-190574585931","ios":"levelo://app?vid=cd608234-5d8f-4d32-b75a-190574585931"},"vehicle_type_id":"4","last_reported":1712369622,"current_range_meters":22800,"station_id":"ce4bgt92rcd13ifvqcf0","pricing_plan_id":"cebpf4jnsgd1na2vs0mg"},{"bike_id":"c730fbfa-2da2-48f5-a725-9a069939cc48","system_id":"levelo_inurba_marseille","lat":43.31364,"lon":5.38495,"is_reserved":false,"is_disabled":false,"rental_uris":{"android":"levelo://app?vid=c730fbfa-2da2-48f5-a725-9a069939cc48","ios":"levelo://app?vid=c730fbfa-2da2-48f5-a725-9a069939cc48"},"vehicle_type_id":"4","last_reported":1712369622,"current_range_meters":14000,"station_id":"ce4bgt92rcd13ifvqcf0","pricing_plan_id":"cebpf4jnsgd1na2vs0mg"},{"bike_id":"a8aa1582-e146-40fb-a67a-1d59c1bfa8e6","system_id":"levelo_inurba_marseille","lat":43.31364,"lon":5.38496,"is_reserved":false,"is_disabled":false,"rental_uris":{"android":"levelo://app?vid=a8aa1582-e146-40fb-a67a-1d59c1bfa8e6","ios":"levelo://app?vid=a8aa1582-e146-40fb-a67a-1d59c1bfa8e6"},"vehicle_type_id":"4","last_reported":1712369622,"current_range_meters":0,"station_id":"ce4bgt92rcd13ifvqcf0","pricing_plan_id":"cebpf4jnsgd1na2vs0mg"},{"bike_id":"586d204e-774d-444d-adca-7706deffa37f","system_id":"levelo_inurba_marseille","lat":43.31349,"lon":5.384973,"is_reserved":false,"is_disabled":false,"rental_uris":{"android":"levelo://app?vid=586d204e-774d-444d-adca-7706deffa37f","ios":"levelo://app?vid=586d204e-774d-444d-adca-7706deffa37f"},"vehicle_type_id":"4","last_reported":1712369622,"current_range_meters":22000,"station_id":"ce4bgt92rcd13ifvqcf0","pricing_plan_id":"cebpf4jnsgd1na2vs0mg"},{"bike_id":"38807241-d82d-4884-bea4-e60f37663489","system_id":"levelo_inurba_marseille","lat":43.313587,"lon":5.38498,"is_reserved":false,"is_disabled":false,"rental_uris":{"android":"levelo://app?vid=38807241-d82d-4884-bea4-e60f37663489","ios":"levelo://app?vid=38807241-d82d-4884-bea4-e60f37663489"},"vehicle_type_id":"4","last_reported":1712369622,"current_range_meters":31200,"station_id":"ce4bgt92rcd13ifvqcf0","pricing_plan_id":"cebpf4jnsgd1na2vs0mg"},{"bike_id":"44b913eb-d3b5-4790-aba6-645c7462904f","system_id":"levelo_inurba_marseille","lat":43.31365,"lon":5.38499,"is_reserved":false,"is_disabled":false,"rental_uris":{"android":"levelo://app?vid=44b913eb-d3b5-4790-aba6-645c7462904f","ios":"levelo://app?vid=44b913eb-d3b5-4790-aba6-645c7462904f"},"vehicle_type_id":"4","last_reported":1712369622,"current_range_meters":24400,"station_id":"ce4bgt92rcd13ifvqcf0","pricing_plan_id":"cebpf4jnsgd1na2vs0mg"},{"bike_id":"5bec4855-f9a9-4caa-bd06-12aaa23ece89","system_id":"levelo_inurba_marseille","lat":43.313732,"lon":5.384982,"is_reserved":false,"is_disabled":false,"rental_uris":{"android":"levelo://app?vid=5bec4855-f9a9-4caa-bd06-12aaa23ece89","ios":"levelo://app?vid=5bec4855-f9a9-4caa-bd06-12aaa23ece89"},"vehicle_type_id":"4","last_reported":1712369622,"current_range_meters":9200,"station_id":"ce4bgt92rcd13ifvqcf0","pricing_plan_id":"cebpf4jnsgd1na2vs0mg"},{"bike_id":"53288165-4bf3-45b8-8fb9-f8335fdf1159","system_id":"levelo_inurba_marseille","lat":43.31369,"lon":5.385,"is_reserved":false,"is_disabled":false,"rental_uris":{"android":"levelo://app?vid=53288165-4bf3-45b8-8fb9-f8335fdf1159","ios":"levelo://app?vid=53288165-4bf3-45b8-8fb9-f8335fdf1159"},"vehicle_type_id":"4","last_reported":1712369622,"current_range_meters":31200,"station_id":"ce4bgt92rcd13ifvqcf0","pricing_plan_id":"cebpf4jnsgd1na2vs0mg"},{"bike_id":"4b42c62b-566e-4618-b8c5-1e33f608418b","system_id":"levelo_inurba_marseille","lat":43.313571,"lon":5.384829,"is_reserved":false,"is_disabled":false,"rental_uris":{"android":"levelo://app?vid=4b42c62b-566e-4618-b8c5-1e33f608418b","ios":"levelo://app?vid=4b42c62b-566e-4618-b8c5-1e33f608418b"},"vehicle_type_id":"4","last_reported":1712369622,"current_range_meters":31200,"station_id":"ce4bgt92rcd13ifvqcf0","pricing_plan_id":"cebpf4jnsgd1na2vs0mg"},{"bike_id":"a94b94cb-72c6-4631-83fa-71f216e4076c","system_id":"levelo_inurba_marseille","lat":43.313571,"lon":5.384829,"is_reserved":false,"is_disabled":false,"rental_uris":{"android":"levelo://app?vid=a94b94cb-72c6-4631-83fa-71f216e4076c","ios":"levelo://app?vid=a94b94cb-72c6-4631-83fa-71f216e4076c"},"vehicle_type_id":"4","last_reported":1712369622,"current_range_meters":31200,"station_id":"ce4bgt92rcd13ifvqcf0","pricing_plan_id":"cebpf4jnsgd1na2vs0mg"},{"bike_id":"423af7f0-cc46-4e8b-a0da-47990327700b","system_id":"levelo_inurba_marseille","lat":43.31358,"lon":5.38509,"is_reserved":false,"is_disabled":false,"rental_uris":{"android":"levelo://app?vid=423af7f0-cc46-4e8b-a0da-47990327700b","ios":"levelo://app?vid=423af7f0-cc46-4e8b-a0da-47990327700b"},"vehicle_type_id":"4","last_reported":1712369622,"current_range_meters":19600,"station_id":"ce4bhg12rcd13ifvqf60","pricing_plan_id":"cebpf4jnsgd1na2vs0mg"},{"bike_id":"497d0305-936e-4727-bdda-b39ebe58002c","system_id":"levelo_inurba_marseille","lat":43.313587,"lon":5.385107,"is_reserved":false,"is_disabled":false,"rental_uris":{"android":"levelo://app?vid=497d0305-936e-4727-bdda-b39ebe58002c","ios":"levelo://app?vid=497d0305-936e-4727-bdda-b39ebe58002c"},"vehicle_type_id":"4","last_reported":1712369622,"current_range_meters":20800,"station_id":"ce4bgt92rcd13ifvqcf0","pricing_plan_id":"cebpf4jnsgd1na2vs0mg"},{"bike_id":"fde34722-74dd-4318-9867-95bc4861002f","system_id":"levelo_inurba_marseille","lat":43.29936,"lon":5.36527,"is_reserved":false,"is_disabled":false,"rental_uris":{"android":"levelo://app?vid=fde34722-74dd-4318-9867-95bc4861002f","ios":"levelo://app?vid=fde34722-74dd-4318-9867-95bc4861002f"},"vehicle_type_id":"4","last_reported":1712369622,"current_range_meters":19200,"station_id":"ce4bgm92rcd13ifvqbr0","pricing_plan_id":"cebpf4jnsgd1na2vs0mg"},{"bike_id":"adefabf0-6ecf-487d-b8e6-e478a740cdf7","system_id":"levelo_inurba_marseille","lat":43.299222,"lon":5.365554,"is_reserved":false,"is_disabled":false,"rental_uris":{"android":"levelo://app?vid=adefabf0-6ecf-487d-b8e6-e478a740cdf7","ios":"levelo://app?vid=adefabf0-6ecf-487d-b8e6-e478a740cdf7"},"vehicle_type_id":"4","last_reported":1712369622,"current_range_meters":20400,"station_id":"ce4bgm92rcd13ifvqbr0","pricing_plan_id":"cebpf4jnsgd1na2vs0mg"},{"bike_id":"dc9f927c-3363-47f8-946b-f6ed59bd69f4","system_id":"levelo_inurba_marseille","lat":43.299724,"lon":5.371829,"is_reserved":false,"is_disabled":false,"rental_uris":{"android":"levelo://app?vid=dc9f927c-3363-47f8-946b-f6ed59bd69f4","ios":"levelo://app?vid=dc9f927c-3363-47f8-946b-f6ed59bd69f4"},"vehicle_type_id":"4","last_reported":1712369622,"current_range_meters":4000,"station_id":"ce4bgr92rcd13ifvqc7g","pricing_plan_id":"cebpf4jnsgd1na2vs0mg"},{"bike_id":"32174aea-c5ff-4764-b6a0-5d93d0226d8b","system_id":"levelo_inurba_marseille","lat":43.29934,"lon":5.36518,"is_reserved":false,"is_disabled":false,"rental_uris":{"android":"levelo://app?vid=32174aea-c5ff-4764-b6a0-5d93d0226d8b","ios":"levelo://app?vid=32174aea-c5ff-4764-b6a0-5d93d0226d8b"},"vehicle_type_id":"4","last_reported":1712369622,"current_range_meters":21600,"station_id":"ce4bgm92rcd13ifvqbr0","pricing_plan_id":"cebpf4jnsgd1na2vs0mg"},{"bike_id":"3c897a04-ac52-4c46-9829-bfdc49aa0a36","system_id":"levelo_inurba_marseille","lat":43.299222,"lon":5.365554,"is_reserved":false,"is_disabled":false,"rental_uris":{"android":"levelo://app?vid=3c897a04-ac52-4c46-9829-bfdc49aa0a36","ios":"levelo://app?vid=3c897a04-ac52-4c46-9829-bfdc49aa0a36"},"vehicle_type_id":"4","last_reported":1712369622,"current_range_meters":18400,"station_id":"ce4bgm92rcd13ifvqbr0","pricing_plan_id":"cebpf4jnsgd1na2vs0mg"},{"bike_id":"8b7a6940-2678-4e91-9398-dc272e0aa925","system_id":"levelo_inurba_marseille","lat":43.299222,"lon":5.365554,"is_reserved":false,"is_disabled":false,"rental_uris":{"android":"levelo://app?vid=8b7a6940-2678-4e91-9398-dc272e0aa925","ios":"levelo://app?vid=8b7a6940-2678-4e91-9398-dc272e0aa925"},"vehicle_type_id":"4","last_reported":1712369622,"current_range_meters":22000,"station_id":"ce4bgm92rcd13ifvqbr0","pricing_plan_id":"cebpf4jnsgd1na2vs0mg"},{"bike_id":"5cd85100-b0e7-4d25-8f8c-0fc69c94368f","system_id":"levelo_inurba_marseille","lat":43.299724,"lon":5.371829,"is_reserved":false,"is_disabled":false,"rental_uris":{"android":"levelo://app?vid=5cd85100-b0e7-4d25-8f8c-0fc69c94368f","ios":"levelo://app?vid=5cd85100-b0e7-4d25-8f8c-0fc69c94368f"},"vehicle_type_id":"4","last_reported":1712369622,"current_range_meters":31600,"station_id":"ce4bgr92rcd13ifvqc7g","pricing_plan_id":"cebpf4jnsgd1na2vs0mg"},{"bike_id":"164cba2b-2460-4bf3-9062-da7cc7f88235","system_id":"levelo_inurba_marseille","lat":43.298433,"lon":5.362774,"is_reserved":false,"is_disabled":false,"rental_uris":{"android":"levelo://app?vid=164cba2b-2460-4bf3-9062-da7cc7f88235","ios":"levelo://app?vid=164cba2b-2460-4bf3-9062-da7cc7f88235"},"vehicle_type_id":"4","last_reported":1712369622,"current_range_meters":19200,"station_id":"ce4bgpp2rcd13ifvqc3g","pricing_plan_id":"cebpf4jnsgd1na2vs0mg"},{"bike_id":"05d3c929-6781-428b-8268-0d5f17d9cb8e","system_id":"levelo_inurba_marseille","lat":43.298433,"lon":5.362774,"is_reserved":false,"is_disabled":false,"rental_uris":{"android":"levelo://app?vid=05d3c929-6781-428b-8268-0d5f17d9cb8e","ios":"levelo://app?vid=05d3c929-6781-428b-8268-0d5f17d9cb8e"},"vehicle_type_id":"4","last_reported":1712369622,"current_range_meters":27200,"station_id":"ce4bgpp2rcd13ifvqc3g","pricing_plan_id":"cebpf4jnsgd1na2vs0mg"},{"bike_id":"8531113d-4ea7-43d3-8042-d5edba103cc9","system_id":"levelo_inurba_marseille","lat":43.305364,"lon":5.384119,"is_reserved":false,"is_disabled":false,"rental_uris":{"android":"levelo://app?vid=8531113d-4ea7-43d3-8042-d5edba103cc9","ios":"levelo://app?vid=8531113d-4ea7-43d3-8042-d5edba103cc9"},"vehicle_type_id":"4","last_reported":1712369622,"current_range_meters":24000,"station_id":"ce4bgg92rcd13ifvqb30","pricing_plan_id":"cebpf4jnsgd1na2vs0mg"},{"bike_id":"fc802dc6-3bc5-477d-9725-538ec84618fe","system_id":"levelo_inurba_marseille","lat":43.311722,"lon":5.387247,"is_reserved":false,"is_disabled":false,"rental_uris":{"android":"levelo://app?vid=fc802dc6-3bc5-477d-9725-538ec84618fe","ios":"levelo://app?vid=fc802dc6-3bc5-477d-9725-538ec84618fe"},"vehicle_type_id":"4","last_reported":1712369622,"current_range_meters":11600,"station_id":"ce4bgv12rcd13ifvqcp0","pricing_plan_id":"cebpf4jnsgd1na2vs0mg"},{"bike_id":"0f5a81eb-eddc-4809-9cd3-7d553ad7ba0f","system_id":"levelo_inurba_marseille","lat":43.299187,"lon":5.374694,"is_reserved":false,"is_disabled":false,"rental_uris":{"android":"levelo://app?vid=0f5a81eb-eddc-4809-9cd3-7d553ad7ba0f","ios":"levelo://app?vid=0f5a81eb-eddc-4809-9cd3-7d553ad7ba0f"},"vehicle_type_id":"4","last_reported":1712369622,"current_range_meters":0,"station_id":"ce4bgjh2rcd13ifvqbg0","pricing_plan_id":"cebpf4jnsgd1na2vs0mg"},{"bike_id":"db4729f3-576a-4261-be83-e7e58a83b21b","system_id":"levelo_inurba_marseille","lat":43.309308,"lon":5.386576,"is_reserved":false,"is_disabled":false,"rental_uris":{"android":"levelo://app?vid=db4729f3-576a-4261-be83-e7e58a83b21b","ios":"levelo://app?vid=db4729f3-576a-4261-be83-e7e58a83b21b"},"vehicle_type_id":"4","last_reported":1712369622,"current_range_meters":28800,"station_id":"","pricing_plan_id":"cebpf4jnsgd1na2vs0mg"},{"bike_id":"b2c9680f-8d96-46ab-bd78-3776179a0574","system_id":"levelo_inurba_marseille","lat":43.311722,"lon":5.387247,"is_reserved":false,"is_disabled":false,"rental_uris":{"android":"levelo://app?vid=b2c9680f-8d96-46ab-bd78-3776179a0574","ios":"levelo://app?vid=b2c9680f-8d96-46ab-bd78-3776179a0574"},"vehicle_type_id":"4","last_reported":1712369622,"current_range_meters":31600,"station_id":"ce4bgv12rcd13ifvqcp0","pricing_plan_id":"cebpf4jnsgd1na2vs0mg"},{"bike_id":"2a5771ca-ceb1-4bdb-84ee-c045cb17f2fb","system_id":"levelo_inurba_marseille","lat":43.311722,"lon":5.387247,"is_reserved":false,"is_disabled":false,"rental_uris":{"android":"levelo://app?vid=2a5771ca-ceb1-4bdb-84ee-c045cb17f2fb","ios":"levelo://app?vid=2a5771ca-ceb1-4bdb-84ee-c045cb17f2fb"},"vehicle_type_id":"4","last_reported":1712369622,"current_range_meters":4800,"station_id":"ce4bgv12rcd13ifvqcp0","pricing_plan_id":"cebpf4jnsgd1na2vs0mg"},{"bike_id":"7e09be3c-9858-4e4a-8722-e0a8c9021320","system_id":"levelo_inurba_marseille","lat":43.311722,"lon":5.387247,"is_reserved":false,"is_disabled":false,"rental_uris":{"android":"levelo://app?vid=7e09be3c-9858-4e4a-8722-e0a8c9021320","ios":"levelo://app?vid=7e09be3c-9858-4e4a-8722-e0a8c9021320"},"vehicle_type_id":"4","last_reported":1712369622,"current_range_meters":29600,"station_id":"ce4bgv12rcd13ifvqcp0","pricing_plan_id":"cebpf4jnsgd1na2vs0mg"},{"bike_id":"5353bcc3-86fd-4750-a76e-4762ac8a9409","system_id":"levelo_inurba_marseille","lat":43.299243,"lon":5.374807,"is_reserved":false,"is_disabled":false,"rental_uris":{"android":"levelo://app?vid=5353bcc3-86fd-4750-a76e-4762ac8a9409","ios":"levelo://app?vid=5353bcc3-86fd-4750-a76e-4762ac8a9409"},"vehicle_type_id":"4","last_reported":1712369622,"current_range_meters":12000,"station_id":"ce4bgjh2rcd13ifvqbg0","pricing_plan_id":"cebpf4jnsgd1na2vs0mg"},{"bike_id":"871544a2-590e-418f-a8f7-05c6cb8eec76","system_id":"levelo_inurba_marseille","lat":43.29905,"lon":5.374488,"is_reserved":false,"is_disabled":false,"rental_uris":{"android":"levelo://app?vid=871544a2-590e-418f-a8f7-05c6cb8eec76","ios":"levelo://app?vid=871544a2-590e-418f-a8f7-05c6cb8eec76"},"vehicle_type_id":"4","last_reported":1712369622,"current_range_meters":12800,"station_id":"ce4bgjh2rcd13ifvqbg0","pricing_plan_id":"cebpf4jnsgd1na2vs0mg"},{"bike_id":"25dea2c9-cb48-47b6-8364-ed7d05d6feb4","system_id":"levelo_inurba_marseille","lat":43.311722,"lon":5.387247,"is_reserved":false,"is_disabled":false,"rental_uris":{"android":"levelo://app?vid=25dea2c9-cb48-47b6-8364-ed7d05d6feb4","ios":"levelo://app?vid=25dea2c9-cb48-47b6-8364-ed7d05d6feb4"},"vehicle_type_id":"4","last_reported":1712369622,"current_range_meters":30400,"station_id":"ce4bgv12rcd13ifvqcp0","pricing_plan_id":"cebpf4jnsgd1na2vs0mg"},{"bike_id":"0f213710-3447-4b42-8865-7ee1a28aa759","system_id":"levelo_inurba_marseille","lat":43.311722,"lon":5.387247,"is_reserved":false,"is_disabled":false,"rental_uris":{"android":"levelo://app?vid=0f213710-3447-4b42-8865-7ee1a28aa759","ios":"levelo://app?vid=0f213710-3447-4b42-8865-7ee1a28aa759"},"vehicle_type_id":"4","last_reported":1712369622,"current_range_meters":15200,"station_id":"ce4bgv12rcd13ifvqcp0","pricing_plan_id":"cebpf4jnsgd1na2vs0mg"},{"bike_id":"5e5c8bbb-072f-431f-9220-1204bad6297e","system_id":"levelo_inurba_marseille","lat":43.311722,"lon":5.387247,"is_reserved":false,"is_disabled":false,"rental_uris":{"android":"levelo://app?vid=5e5c8bbb-072f-431f-9220-1204bad6297e","ios":"levelo://app?vid=5e5c8bbb-072f-431f-9220-1204bad6297e"},"vehicle_type_id":"4","last_reported":1712369622,"current_range_meters":18400,"station_id":"ce4bgv12rcd13ifvqcp0","pricing_plan_id":"cebpf4jnsgd1na2vs0mg"},{"bike_id":"37dda108-6e2e-4bfb-bb35-23e3cfd62f58","system_id":"levelo_inurba_marseille","lat":43.299243,"lon":5.374807,"is_reserved":false,"is_disabled":false,"rental_uris":{"android":"levelo://app?vid=37dda108-6e2e-4bfb-bb35-23e3cfd62f58","ios":"levelo://app?vid=37dda108-6e2e-4bfb-bb35-23e3cfd62f58"},"vehicle_type_id":"4","last_reported":1712369622,"current_range_meters":17200,"station_id":"ce4bgjh2rcd13ifvqbg0","pricing_plan_id":"cebpf4jnsgd1na2vs0mg"},{"bike_id":"fdfa65f9-b654-4b73-8202-f7ffe250004f","system_id":"levelo_inurba_marseille","lat":43.311722,"lon":5.387247,"is_reserved":false,"is_disabled":false,"rental_uris":{"android":"levelo://app?vid=fdfa65f9-b654-4b73-8202-f7ffe250004f","ios":"levelo://app?vid=fdfa65f9-b654-4b73-8202-f7ffe250004f"},"vehicle_type_id":"4","last_reported":1712369622,"current_range_meters":31600,"station_id":"ce4bgv12rcd13ifvqcp0","pricing_plan_id":"cebpf4jnsgd1na2vs0mg"},{"bike_id":"388717df-f0b7-49d7-a3fd-0fa086f62c9e","system_id":"levelo_inurba_marseille","lat":43.311722,"lon":5.387247,"is_reserved":false,"is_disabled":false,"rental_uris":{"android":"levelo://app?vid=388717df-f0b7-49d7-a3fd-0fa086f62c9e","ios":"levelo://app?vid=388717df-f0b7-49d7-a3fd-0fa086f62c9e"},"vehicle_type_id":"4","last_reported":1712369622,"current_range_meters":22800,"station_id":"ce4bgv12rcd13ifvqcp0","pricing_plan_id":"cebpf4jnsgd1na2vs0mg"},{"bike_id":"c2cc2eb4-eca1-47e4-9df4-9e14f1700ad4","system_id":"levelo_inurba_marseille","lat":43.299243,"lon":5.374807,"is_reserved":false,"is_disabled":false,"rental_uris":{"android":"levelo://app?vid=c2cc2eb4-eca1-47e4-9df4-9e14f1700ad4","ios":"levelo://app?vid=c2cc2eb4-eca1-47e4-9df4-9e14f1700ad4"},"vehicle_type_id":"4","last_reported":1712369622,"current_range_meters":6800,"station_id":"ce4bgjh2rcd13ifvqbg0","pricing_plan_id":"cebpf4jnsgd1na2vs0mg"},{"bike_id":"63f3d29b-0ed5-4289-beb6-07c9b0a30a27","system_id":"levelo_inurba_marseille","lat":43.311722,"lon":5.387247,"is_reserved":false,"is_disabled":false,"rental_uris":{"android":"levelo://app?vid=63f3d29b-0ed5-4289-beb6-07c9b0a30a27","ios":"levelo://app?vid=63f3d29b-0ed5-4289-beb6-07c9b0a30a27"},"vehicle_type_id":"4","last_reported":1712369622,"current_range_meters":19600,"station_id":"ce4bgv12rcd13ifvqcp0","pricing_plan_id":"cebpf4jnsgd1na2vs0mg"},{"bike_id":"edf4ae02-c742-44de-90d0-8090ac25ee26","system_id":"levelo_inurba_marseille","lat":43.299243,"lon":5.374807,"is_reserved":false,"is_disabled":false,"rental_uris":{"android":"levelo://app?vid=edf4ae02-c742-44de-90d0-8090ac25ee26","ios":"levelo://app?vid=edf4ae02-c742-44de-90d0-8090ac25ee26"},"vehicle_type_id":"4","last_reported":1712369622,"current_range_meters":9600,"station_id":"ce4bgjh2rcd13ifvqbg0","pricing_plan_id":"cebpf4jnsgd1na2vs0mg"},{"bike_id":"e4aa563d-259c-45ff-a604-a82241ca72da","system_id":"levelo_inurba_marseille","lat":43.311722,"lon":5.387247,"is_reserved":false,"is_disabled":false,"rental_uris":{"android":"levelo://app?vid=e4aa563d-259c-45ff-a604-a82241ca72da","ios":"levelo://app?vid=e4aa563d-259c-45ff-a604-a82241ca72da"},"vehicle_type_id":"4","last_reported":1712369622,"current_range_meters":24400,"station_id":"ce4bgv12rcd13ifvqcp0","pricing_plan_id":"cebpf4jnsgd1na2vs0mg"},{"bike_id":"d364f42e-612b-4fb9-81b8-518d84a4054b","system_id":"levelo_inurba_marseille","lat":43.311722,"lon":5.387247,"is_reserved":false,"is_disabled":false,"rental_uris":{"android":"levelo://app?vid=d364f42e-612b-4fb9-81b8-518d84a4054b","ios":"levelo://app?vid=d364f42e-612b-4fb9-81b8-518d84a4054b"},"vehicle_type_id":"4","last_reported":1712369622,"current_range_meters":8800,"station_id":"ce4bgv12rcd13ifvqcp0","pricing_plan_id":"cebpf4jnsgd1na2vs0mg"},{"bike_id":"e53b5c45-3b62-458a-a937-961989edf6cd","system_id":"levelo_inurba_marseille","lat":43.311722,"lon":5.387247,"is_reserved":false,"is_disabled":false,"rental_uris":{"android":"levelo://app?vid=e53b5c45-3b62-458a-a937-961989edf6cd","ios":"levelo://app?vid=e53b5c45-3b62-458a-a937-961989edf6cd"},"vehicle_type_id":"4","last_reported":1712369622,"current_range_meters":15200,"station_id":"ce4bgv12rcd13ifvqcp0","pricing_plan_id":"cebpf4jnsgd1na2vs0mg"},{"bike_id":"860e2982-ead7-409e-9808-1fee1d414147","system_id":"levelo_inurba_marseille","lat":43.311722,"lon":5.387247,"is_reserved":false,"is_disabled":false,"rental_uris":{"android":"levelo://app?vid=860e2982-ead7-409e-9808-1fee1d414147","ios":"levelo://app?vid=860e2982-ead7-409e-9808-1fee1d414147"},"vehicle_type_id":"4","last_reported":1712369622,"current_range_meters":21600,"station_id":"ce4bgv12rcd13ifvqcp0","pricing_plan_id":"cebpf4jnsgd1na2vs0mg"},{"bike_id":"a4badd2c-5c38-4d06-8acc-042f77e3fee6","system_id":"levelo_inurba_marseille","lat":43.322872,"lon":5.382756,"is_reserved":false,"is_disabled":false,"rental_uris":{"android":"levelo://app?vid=a4badd2c-5c38-4d06-8acc-042f77e3fee6","ios":"levelo://app?vid=a4badd2c-5c38-4d06-8acc-042f77e3fee6"},"vehicle_type_id":"4","last_reported":1712369622,"current_range_meters":11600,"station_id":"ce4bhr12rcd13ifvqhqg","pricing_plan_id":"cebpf4jnsgd1na2vs0mg"},{"bike_id":"b2eb7d4c-bb5c-472f-9d38-ea46de522cfd","system_id":"levelo_inurba_marseille","lat":43.322872,"lon":5.382756,"is_reserved":false,"is_disabled":false,"rental_uris":{"android":"levelo://app?vid=b2eb7d4c-bb5c-472f-9d38-ea46de522cfd","ios":"levelo://app?vid=b2eb7d4c-bb5c-472f-9d38-ea46de522cfd"},"vehicle_type_id":"4","last_reported":1712369622,"current_range_meters":0,"station_id":"ce4bhr12rcd13ifvqhqg","pricing_plan_id":"cebpf4jnsgd1na2vs0mg"},{"bike_id":"45c33a70-8dce-4732-91e5-2dc515742b4e","system_id":"levelo_inurba_marseille","lat":43.322845,"lon":5.382744,"is_reserved":false,"is_disabled":false,"rental_uris":{"android":"levelo://app?vid=45c33a70-8dce-4732-91e5-2dc515742b4e","ios":"levelo://app?vid=45c33a70-8dce-4732-91e5-2dc515742b4e"},"vehicle_type_id":"4","last_reported":1712369622,"current_range_meters":0,"station_id":"ce4bhr12rcd13ifvqhqg","pricing_plan_id":"cebpf4jnsgd1na2vs0mg"},{"bike_id":"3f2835e5-a51e-4529-8eba-48f6b95ac4a9","system_id":"levelo_inurba_marseille","lat":43.322843,"lon":5.382762,"is_reserved":false,"is_disabled":false,"rental_uris":{"android":"levelo://app?vid=3f2835e5-a51e-4529-8eba-48f6b95ac4a9","ios":"levelo://app?vid=3f2835e5-a51e-4529-8eba-48f6b95ac4a9"},"vehicle_type_id":"4","last_reported":1712369622,"current_range_meters":19600,"station_id":"ce4bhr12rcd13ifvqhqg","pricing_plan_id":"cebpf4jnsgd1na2vs0mg"},{"bike_id":"18651e73-a960-43da-bdae-371146c35a92","system_id":"levelo_inurba_marseille","lat":43.322872,"lon":5.382756,"is_reserved":false,"is_disabled":false,"rental_uris":{"android":"levelo://app?vid=18651e73-a960-43da-bdae-371146c35a92","ios":"levelo://app?vid=18651e73-a960-43da-bdae-371146c35a92"},"vehicle_type_id":"4","last_reported":1712369622,"current_range_meters":31600,"station_id":"ce4bhr12rcd13ifvqhqg","pricing_plan_id":"cebpf4jnsgd1na2vs0mg"},{"bike_id":"f9cbb650-aadf-49f6-a3e7-b397f3d0f9e2","system_id":"levelo_inurba_marseille","lat":43.322872,"lon":5.382756,"is_reserved":false,"is_disabled":false,"rental_uris":{"android":"levelo://app?vid=f9cbb650-aadf-49f6-a3e7-b397f3d0f9e2","ios":"levelo://app?vid=f9cbb650-aadf-49f6-a3e7-b397f3d0f9e2"},"vehicle_type_id":"4","last_reported":1712369622,"current_range_meters":8400,"station_id":"ce4bhr12rcd13ifvqhqg","pricing_plan_id":"cebpf4jnsgd1na2vs0mg"},{"bike_id":"dad8de42-b10d-4ad4-b426-d0016e89d810","system_id":"levelo_inurba_marseille","lat":43.322866,"lon":5.382786,"is_reserved":false,"is_disabled":false,"rental_uris":{"android":"levelo://app?vid=dad8de42-b10d-4ad4-b426-d0016e89d810","ios":"levelo://app?vid=dad8de42-b10d-4ad4-b426-d0016e89d810"},"vehicle_type_id":"4","last_reported":1712369622,"current_range_meters":20800,"station_id":"ce4bhr12rcd13ifvqhqg","pricing_plan_id":"cebpf4jnsgd1na2vs0mg"},{"bike_id":"d9d0fad4-bb5e-4fd7-aa14-bc36fdd7e62b","system_id":"levelo_inurba_marseille","lat":43.32288,"lon":5.38277,"is_reserved":false,"is_disabled":false,"rental_uris":{"android":"levelo://app?vid=d9d0fad4-bb5e-4fd7-aa14-bc36fdd7e62b","ios":"levelo://app?vid=d9d0fad4-bb5e-4fd7-aa14-bc36fdd7e62b"},"vehicle_type_id":"4","last_reported":1712369622,"current_range_meters":15600,"station_id":"ce4bhr12rcd13ifvqhqg","pricing_plan_id":"cebpf4jnsgd1na2vs0mg"},{"bike_id":"c66a5a8f-f4a2-412f-84b8-5170b4e7c93f","system_id":"levelo_inurba_marseille","lat":43.326935,"lon":5.37497,"is_reserved":false,"is_disabled":false,"rental_uris":{"android":"levelo://app?vid=c66a5a8f-f4a2-412f-84b8-5170b4e7c93f","ios":"levelo://app?vid=c66a5a8f-f4a2-412f-84b8-5170b4e7c93f"},"vehicle_type_id":"4","last_reported":1712369622,"current_range_meters":5200,"station_id":"","pricing_plan_id":"cebpf4jnsgd1na2vs0mg"},{"bike_id":"12868420-cd43-4d41-9cd6-9b5eadd40bbb","system_id":"levelo_inurba_marseille","lat":43.322872,"lon":5.382756,"is_reserved":false,"is_disabled":false,"rental_uris":{"android":"levelo://app?vid=12868420-cd43-4d41-9cd6-9b5eadd40bbb","ios":"levelo://app?vid=12868420-cd43-4d41-9cd6-9b5eadd40bbb"},"vehicle_type_id":"4","last_reported":1712369622,"current_range_meters":31200,"station_id":"ce4bhr12rcd13ifvqhqg","pricing_plan_id":"cebpf4jnsgd1na2vs0mg"},{"bike_id":"b6b6a3d2-78ad-414e-aaee-b4a26bc4d179","system_id":"levelo_inurba_marseille","lat":43.297163,"lon":5.365866,"is_reserved":false,"is_disabled":false,"rental_uris":{"android":"levelo://app?vid=b6b6a3d2-78ad-414e-aaee-b4a26bc4d179","ios":"levelo://app?vid=b6b6a3d2-78ad-414e-aaee-b4a26bc4d179"},"vehicle_type_id":"4","last_reported":1712369622,"current_range_meters":30000,"station_id":"ce4bgn12rcd13ifvqbt0","pricing_plan_id":"cebpf4jnsgd1na2vs0mg"},{"bike_id":"1c5f2263-29bc-42c3-92f4-ff475c844319","system_id":"levelo_inurba_marseille","lat":43.29703,"lon":5.36618,"is_reserved":false,"is_disabled":false,"rental_uris":{"android":"levelo://app?vid=1c5f2263-29bc-42c3-92f4-ff475c844319","ios":"levelo://app?vid=1c5f2263-29bc-42c3-92f4-ff475c844319"},"vehicle_type_id":"4","last_reported":1712369622,"current_range_meters":20000,"station_id":"ce4bgn12rcd13ifvqbt0","pricing_plan_id":"cebpf4jnsgd1na2vs0mg"},{"bike_id":"580e8204-3156-462b-98de-bd25ecb022ef","system_id":"levelo_inurba_marseille","lat":43.297135,"lon":5.377115,"is_reserved":false,"is_disabled":false,"rental_uris":{"android":"levelo://app?vid=580e8204-3156-462b-98de-bd25ecb022ef","ios":"levelo://app?vid=580e8204-3156-462b-98de-bd25ecb022ef"},"vehicle_type_id":"4","last_reported":1712369622,"current_range_meters":10800,"station_id":"","pricing_plan_id":"cebpf4jnsgd1na2vs0mg"},{"bike_id":"8bf3aa7b-6bf1-4013-9496-6d9597af9b68","system_id":"levelo_inurba_marseille","lat":43.309507,"lon":5.390313,"is_reserved":false,"is_disabled":false,"rental_uris":{"android":"levelo://app?vid=8bf3aa7b-6bf1-4013-9496-6d9597af9b68","ios":"levelo://app?vid=8bf3aa7b-6bf1-4013-9496-6d9597af9b68"},"vehicle_type_id":"4","last_reported":1712369622,"current_range_meters":24000,"station_id":"ce4bgup2rcd13ifvqco0","pricing_plan_id":"cebpf4jnsgd1na2vs0mg"},{"bike_id":"e79b7eb1-ce79-4b83-8956-a6e5641ec288","system_id":"levelo_inurba_marseille","lat":43.299028,"lon":5.381509,"is_reserved":false,"is_disabled":false,"rental_uris":{"android":"levelo://app?vid=e79b7eb1-ce79-4b83-8956-a6e5641ec288","ios":"levelo://app?vid=e79b7eb1-ce79-4b83-8956-a6e5641ec288"},"vehicle_type_id":"4","last_reported":1712369622,"current_range_meters":29200,"station_id":"ce4bgj12rcd13ifvqbc0","pricing_plan_id":"cebpf4jnsgd1na2vs0mg"},{"bike_id":"123b7b96-3a7e-47f4-adf6-058a1aa418d0","system_id":"levelo_inurba_marseille","lat":43.30946,"lon":5.39037,"is_reserved":false,"is_disabled":false,"rental_uris":{"android":"levelo://app?vid=123b7b96-3a7e-47f4-adf6-058a1aa418d0","ios":"levelo://app?vid=123b7b96-3a7e-47f4-adf6-058a1aa418d0"},"vehicle_type_id":"4","last_reported":1712369622,"current_range_meters":12800,"station_id":"ce4bgup2rcd13ifvqco0","pricing_plan_id":"cebpf4jnsgd1na2vs0mg"},{"bike_id":"a1fdf148-3717-4d97-b5cb-035d8786778c","system_id":"levelo_inurba_marseille","lat":43.317557,"lon":5.390173,"is_reserved":false,"is_disabled":false,"rental_uris":{"android":"levelo://app?vid=a1fdf148-3717-4d97-b5cb-035d8786778c","ios":"levelo://app?vid=a1fdf148-3717-4d97-b5cb-035d8786778c"},"vehicle_type_id":"4","last_reported":1712369622,"current_range_meters":30000,"station_id":"ce4bhqp2rcd13ifvqhng","pricing_plan_id":"cebpf4jnsgd1na2vs0mg"},{"bike_id":"883419d3-b36c-4580-8d5b-4f062e85d997","system_id":"levelo_inurba_marseille","lat":43.317557,"lon":5.390173,"is_reserved":false,"is_disabled":false,"rental_uris":{"android":"levelo://app?vid=883419d3-b36c-4580-8d5b-4f062e85d997","ios":"levelo://app?vid=883419d3-b36c-4580-8d5b-4f062e85d997"},"vehicle_type_id":"4","last_reported":1712369622,"current_range_meters":8800,"station_id":"ce4bhqp2rcd13ifvqhng","pricing_plan_id":"cebpf4jnsgd1na2vs0mg"},{"bike_id":"66921706-a7a6-450b-b430-8ab35ac59c36","system_id":"levelo_inurba_marseille","lat":43.317557,"lon":5.390173,"is_reserved":false,"is_disabled":false,"rental_uris":{"android":"levelo://app?vid=66921706-a7a6-450b-b430-8ab35ac59c36","ios":"levelo://app?vid=66921706-a7a6-450b-b430-8ab35ac59c36"},"vehicle_type_id":"4","last_reported":1712369622,"current_range_meters":30800,"station_id":"ce4bhqp2rcd13ifvqhng","pricing_plan_id":"cebpf4jnsgd1na2vs0mg"},{"bike_id":"9ee8775b-3245-4620-9bb3-c5b57bc94d6e","system_id":"levelo_inurba_marseille","lat":43.317557,"lon":5.390173,"is_reserved":false,"is_disabled":false,"rental_uris":{"android":"levelo://app?vid=9ee8775b-3245-4620-9bb3-c5b57bc94d6e","ios":"levelo://app?vid=9ee8775b-3245-4620-9bb3-c5b57bc94d6e"},"vehicle_type_id":"4","last_reported":1712369622,"current_range_meters":23600,"station_id":"ce4bhqp2rcd13ifvqhng","pricing_plan_id":"cebpf4jnsgd1na2vs0mg"},{"bike_id":"8de62dfe-817e-44d0-b635-f4fa7c61b44b","system_id":"levelo_inurba_marseille","lat":43.317557,"lon":5.390173,"is_reserved":false,"is_disabled":false,"rental_uris":{"android":"levelo://app?vid=8de62dfe-817e-44d0-b635-f4fa7c61b44b","ios":"levelo://app?vid=8de62dfe-817e-44d0-b635-f4fa7c61b44b"},"vehicle_type_id":"4","last_reported":1712369622,"current_range_meters":16400,"station_id":"ce4bhqp2rcd13ifvqhng","pricing_plan_id":"cebpf4jnsgd1na2vs0mg"},{"bike_id":"44f80d7c-3720-4dc5-b9cd-289d31426774","system_id":"levelo_inurba_marseille","lat":43.31491,"lon":5.39131,"is_reserved":false,"is_disabled":false,"rental_uris":{"android":"levelo://app?vid=44f80d7c-3720-4dc5-b9cd-289d31426774","ios":"levelo://app?vid=44f80d7c-3720-4dc5-b9cd-289d31426774"},"vehicle_type_id":"4","last_reported":1712369622,"current_range_meters":3600,"station_id":"","pricing_plan_id":"cebpf4jnsgd1na2vs0mg"},{"bike_id":"64545aae-9729-4a69-91dd-63d2c814bf9a","system_id":"levelo_inurba_marseille","lat":43.29795,"lon":5.38089,"is_reserved":false,"is_disabled":false,"rental_uris":{"android":"levelo://app?vid=64545aae-9729-4a69-91dd-63d2c814bf9a","ios":"levelo://app?vid=64545aae-9729-4a69-91dd-63d2c814bf9a"},"vehicle_type_id":"4","last_reported":1712369622,"current_range_meters":0,"station_id":"ce4bgip2rcd13ifvqbb0","pricing_plan_id":"cebpf4jnsgd1na2vs0mg"},{"bike_id":"bd01601b-8455-4060-9635-b3fdccbb6c29","system_id":"levelo_inurba_marseille","lat":43.304274,"lon":5.388873,"is_reserved":false,"is_disabled":false,"rental_uris":{"android":"levelo://app?vid=bd01601b-8455-4060-9635-b3fdccbb6c29","ios":"levelo://app?vid=bd01601b-8455-4060-9635-b3fdccbb6c29"},"vehicle_type_id":"4","last_reported":1712369622,"current_range_meters":31200,"station_id":"ce4bgk12rcd13ifvqbi0","pricing_plan_id":"cebpf4jnsgd1na2vs0mg"},{"bike_id":"7c401a8d-4224-422e-80dd-8330e5a2fa01","system_id":"levelo_inurba_marseille","lat":43.304278,"lon":5.388868,"is_reserved":false,"is_disabled":false,"rental_uris":{"android":"levelo://app?vid=7c401a8d-4224-422e-80dd-8330e5a2fa01","ios":"levelo://app?vid=7c401a8d-4224-422e-80dd-8330e5a2fa01"},"vehicle_type_id":"4","last_reported":1712369622,"current_range_meters":17200,"station_id":"ce4bgk12rcd13ifvqbi0","pricing_plan_id":"cebpf4jnsgd1na2vs0mg"},{"bike_id":"24354daf-f843-4fe0-ad40-2f1fb87cda27","system_id":"levelo_inurba_marseille","lat":43.30428,"lon":5.38888,"is_reserved":false,"is_disabled":false,"rental_uris":{"android":"levelo://app?vid=24354daf-f843-4fe0-ad40-2f1fb87cda27","ios":"levelo://app?vid=24354daf-f843-4fe0-ad40-2f1fb87cda27"},"vehicle_type_id":"4","last_reported":1712369622,"current_range_meters":24000,"station_id":"ce4bgk12rcd13ifvqbi0","pricing_plan_id":"cebpf4jnsgd1na2vs0mg"},{"bike_id":"550665d6-5b7a-4999-bf6d-3e0273de1305","system_id":"levelo_inurba_marseille","lat":43.304274,"lon":5.388873,"is_reserved":false,"is_disabled":false,"rental_uris":{"android":"levelo://app?vid=550665d6-5b7a-4999-bf6d-3e0273de1305","ios":"levelo://app?vid=550665d6-5b7a-4999-bf6d-3e0273de1305"},"vehicle_type_id":"4","last_reported":1712369622,"current_range_meters":19200,"station_id":"ce4bgk12rcd13ifvqbi0","pricing_plan_id":"cebpf4jnsgd1na2vs0mg"},{"bike_id":"12dadba8-586e-446e-9be8-c3e4a74e5aad","system_id":"levelo_inurba_marseille","lat":43.2998,"lon":5.384923,"is_reserved":false,"is_disabled":false,"rental_uris":{"android":"levelo://app?vid=12dadba8-586e-446e-9be8-c3e4a74e5aad","ios":"levelo://app?vid=12dadba8-586e-446e-9be8-c3e4a74e5aad"},"vehicle_type_id":"4","last_reported":1712369622,"current_range_meters":0,"station_id":"ce4bgj92rcd13ifvqbd0","pricing_plan_id":"cebpf4jnsgd1na2vs0mg"},{"bike_id":"70bf06b7-e5c7-4aaf-afa8-f062919a02c6","system_id":"levelo_inurba_marseille","lat":43.299707,"lon":5.384859,"is_reserved":false,"is_disabled":false,"rental_uris":{"android":"levelo://app?vid=70bf06b7-e5c7-4aaf-afa8-f062919a02c6","ios":"levelo://app?vid=70bf06b7-e5c7-4aaf-afa8-f062919a02c6"},"vehicle_type_id":"4","last_reported":1712369622,"current_range_meters":30400,"station_id":"ce4bgj92rcd13ifvqbd0","pricing_plan_id":"cebpf4jnsgd1na2vs0mg"},{"bike_id":"a0cc15ff-68f8-4f5b-b623-6a163d8248de","system_id":"levelo_inurba_marseille","lat":43.29526,"lon":5.37503,"is_reserved":false,"is_disabled":false,"rental_uris":{"android":"levelo://app?vid=a0cc15ff-68f8-4f5b-b623-6a163d8248de","ios":"levelo://app?vid=a0cc15ff-68f8-4f5b-b623-6a163d8248de"},"vehicle_type_id":"4","last_reported":1712369622,"current_range_meters":0,"station_id":"ce4bgkp2rcd13ifvqbmg","pricing_plan_id":"cebpf4jnsgd1na2vs0mg"},{"bike_id":"86a45d79-f917-4767-813a-40a8f6b3af1b","system_id":"levelo_inurba_marseille","lat":43.299707,"lon":5.384859,"is_reserved":false,"is_disabled":false,"rental_uris":{"android":"levelo://app?vid=86a45d79-f917-4767-813a-40a8f6b3af1b","ios":"levelo://app?vid=86a45d79-f917-4767-813a-40a8f6b3af1b"},"vehicle_type_id":"4","last_reported":1712369622,"current_range_meters":15600,"station_id":"ce4bgj92rcd13ifvqbd0","pricing_plan_id":"cebpf4jnsgd1na2vs0mg"},{"bike_id":"5f041e45-b3c7-4414-bacf-7d2561c18c5d","system_id":"levelo_inurba_marseille","lat":43.299707,"lon":5.384859,"is_reserved":false,"is_disabled":false,"rental_uris":{"android":"levelo://app?vid=5f041e45-b3c7-4414-bacf-7d2561c18c5d","ios":"levelo://app?vid=5f041e45-b3c7-4414-bacf-7d2561c18c5d"},"vehicle_type_id":"4","last_reported":1712369622,"current_range_meters":25600,"station_id":"ce4bgj92rcd13ifvqbd0","pricing_plan_id":"cebpf4jnsgd1na2vs0mg"},{"bike_id":"82ffb106-2f33-4466-87f2-62f79a6f7e84","system_id":"levelo_inurba_marseille","lat":43.3236,"lon":5.38881,"is_reserved":false,"is_disabled":false,"rental_uris":{"android":"levelo://app?vid=82ffb106-2f33-4466-87f2-62f79a6f7e84","ios":"levelo://app?vid=82ffb106-2f33-4466-87f2-62f79a6f7e84"},"vehicle_type_id":"4","last_reported":1712369622,"current_range_meters":10800,"station_id":"ce4bhqp2rcd13ifvqhog","pricing_plan_id":"cebpf4jnsgd1na2vs0mg"},{"bike_id":"ef95e66e-e894-4c47-af3b-a3b6eb491c17","system_id":"levelo_inurba_marseille","lat":43.3236,"lon":5.38881,"is_reserved":false,"is_disabled":false,"rental_uris":{"android":"levelo://app?vid=ef95e66e-e894-4c47-af3b-a3b6eb491c17","ios":"levelo://app?vid=ef95e66e-e894-4c47-af3b-a3b6eb491c17"},"vehicle_type_id":"4","last_reported":1712369622,"current_range_meters":31200,"station_id":"ce4bhqp2rcd13ifvqhog","pricing_plan_id":"cebpf4jnsgd1na2vs0mg"},{"bike_id":"c5ed90dd-85d0-4191-b4fa-f5b81de4b1cc","system_id":"levelo_inurba_marseille","lat":43.32366,"lon":5.38878,"is_reserved":false,"is_disabled":false,"rental_uris":{"android":"levelo://app?vid=c5ed90dd-85d0-4191-b4fa-f5b81de4b1cc","ios":"levelo://app?vid=c5ed90dd-85d0-4191-b4fa-f5b81de4b1cc"},"vehicle_type_id":"4","last_reported":1712369622,"current_range_meters":4800,"station_id":"ce4bhqp2rcd13ifvqhog","pricing_plan_id":"cebpf4jnsgd1na2vs0mg"},{"bike_id":"c7c8d46c-5a4a-4cca-ac41-95e7db9cc197","system_id":"levelo_inurba_marseille","lat":43.32365,"lon":5.38881,"is_reserved":false,"is_disabled":false,"rental_uris":{"android":"levelo://app?vid=c7c8d46c-5a4a-4cca-ac41-95e7db9cc197","ios":"levelo://app?vid=c7c8d46c-5a4a-4cca-ac41-95e7db9cc197"},"vehicle_type_id":"4","last_reported":1712369622,"current_range_meters":31200,"station_id":"ce4bhqp2rcd13ifvqhog","pricing_plan_id":"cebpf4jnsgd1na2vs0mg"},{"bike_id":"8c53dfd4-294b-4745-8a22-fdf2bf20f21b","system_id":"levelo_inurba_marseille","lat":43.32364,"lon":5.38882,"is_reserved":false,"is_disabled":false,"rental_uris":{"android":"levelo://app?vid=8c53dfd4-294b-4745-8a22-fdf2bf20f21b","ios":"levelo://app?vid=8c53dfd4-294b-4745-8a22-fdf2bf20f21b"},"vehicle_type_id":"4","last_reported":1712369622,"current_range_meters":25600,"station_id":"ce4bhqp2rcd13ifvqhog","pricing_plan_id":"cebpf4jnsgd1na2vs0mg"},{"bike_id":"cd93fb89-8201-4e6f-a051-31d7e592475f","system_id":"levelo_inurba_marseille","lat":43.32362,"lon":5.38884,"is_reserved":false,"is_disabled":false,"rental_uris":{"android":"levelo://app?vid=cd93fb89-8201-4e6f-a051-31d7e592475f","ios":"levelo://app?vid=cd93fb89-8201-4e6f-a051-31d7e592475f"},"vehicle_type_id":"4","last_reported":1712369622,"current_range_meters":18800,"station_id":"ce4bhqp2rcd13ifvqhog","pricing_plan_id":"cebpf4jnsgd1na2vs0mg"},{"bike_id":"941a5afb-594d-47ec-8c61-fec50f33c0ee","system_id":"levelo_inurba_marseille","lat":43.32366,"lon":5.38881,"is_reserved":false,"is_disabled":false,"rental_uris":{"android":"levelo://app?vid=941a5afb-594d-47ec-8c61-fec50f33c0ee","ios":"levelo://app?vid=941a5afb-594d-47ec-8c61-fec50f33c0ee"},"vehicle_type_id":"4","last_reported":1712369622,"current_range_meters":30800,"station_id":"ce4bhqp2rcd13ifvqhog","pricing_plan_id":"cebpf4jnsgd1na2vs0mg"},{"bike_id":"19a778c6-84de-43b4-9ee5-617e57525e2c","system_id":"levelo_inurba_marseille","lat":43.32365,"lon":5.38882,"is_reserved":false,"is_disabled":false,"rental_uris":{"android":"levelo://app?vid=19a778c6-84de-43b4-9ee5-617e57525e2c","ios":"levelo://app?vid=19a778c6-84de-43b4-9ee5-617e57525e2c"},"vehicle_type_id":"4","last_reported":1712369622,"current_range_meters":0,"station_id":"ce4bhqp2rcd13ifvqhog","pricing_plan_id":"cebpf4jnsgd1na2vs0mg"},{"bike_id":"6d8769bb-1db6-4d70-bcd3-ab8ccccf851e","system_id":"levelo_inurba_marseille","lat":43.32365,"lon":5.38882,"is_reserved":false,"is_disabled":false,"rental_uris":{"android":"levelo://app?vid=6d8769bb-1db6-4d70-bcd3-ab8ccccf851e","ios":"levelo://app?vid=6d8769bb-1db6-4d70-bcd3-ab8ccccf851e"},"vehicle_type_id":"4","last_reported":1712369622,"current_range_meters":15200,"station_id":"ce4bhqp2rcd13ifvqhog","pricing_plan_id":"cebpf4jnsgd1na2vs0mg"},{"bike_id":"c4433137-a155-4c9c-92fd-007eb25cafce","system_id":"levelo_inurba_marseille","lat":43.32365,"lon":5.38882,"is_reserved":false,"is_disabled":false,"rental_uris":{"android":"levelo://app?vid=c4433137-a155-4c9c-92fd-007eb25cafce","ios":"levelo://app?vid=c4433137-a155-4c9c-92fd-007eb25cafce"},"vehicle_type_id":"4","last_reported":1712369622,"current_range_meters":31200,"station_id":"ce4bhqp2rcd13ifvqhog","pricing_plan_id":"cebpf4jnsgd1na2vs0mg"},{"bike_id":"ca489e1a-76bb-408d-a414-6afa997460b0","system_id":"levelo_inurba_marseille","lat":43.32364,"lon":5.38883,"is_reserved":false,"is_disabled":false,"rental_uris":{"android":"levelo://app?vid=ca489e1a-76bb-408d-a414-6afa997460b0","ios":"levelo://app?vid=ca489e1a-76bb-408d-a414-6afa997460b0"},"vehicle_type_id":"4","last_reported":1712369622,"current_range_meters":31200,"station_id":"ce4bhqp2rcd13ifvqhog","pricing_plan_id":"cebpf4jnsgd1na2vs0mg"},{"bike_id":"987d0676-a1cb-45c3-ab53-3afb80b2673b","system_id":"levelo_inurba_marseille","lat":43.32367,"lon":5.388836,"is_reserved":false,"is_disabled":false,"rental_uris":{"android":"levelo://app?vid=987d0676-a1cb-45c3-ab53-3afb80b2673b","ios":"levelo://app?vid=987d0676-a1cb-45c3-ab53-3afb80b2673b"},"vehicle_type_id":"4","last_reported":1712369622,"current_range_meters":10800,"station_id":"ce4bhqp2rcd13ifvqhog","pricing_plan_id":"cebpf4jnsgd1na2vs0mg"},{"bike_id":"41405296-cc57-4517-995e-a1d8f1fd6e67","system_id":"levelo_inurba_marseille","lat":43.32367,"lon":5.388836,"is_reserved":false,"is_disabled":false,"rental_uris":{"android":"levelo://app?vid=41405296-cc57-4517-995e-a1d8f1fd6e67","ios":"levelo://app?vid=41405296-cc57-4517-995e-a1d8f1fd6e67"},"vehicle_type_id":"4","last_reported":1712369622,"current_range_meters":19200,"station_id":"ce4bhqp2rcd13ifvqhog","pricing_plan_id":"cebpf4jnsgd1na2vs0mg"},{"bike_id":"82e0bf95-7532-40c8-bcb5-0a17359a133e","system_id":"levelo_inurba_marseille","lat":43.29305,"lon":5.371635,"is_reserved":false,"is_disabled":false,"rental_uris":{"android":"levelo://app?vid=82e0bf95-7532-40c8-bcb5-0a17359a133e","ios":"levelo://app?vid=82e0bf95-7532-40c8-bcb5-0a17359a133e"},"vehicle_type_id":"4","last_reported":1712369622,"current_range_meters":26800,"station_id":"ce4bgh92rcd13ifvqb40","pricing_plan_id":"cebpf4jnsgd1na2vs0mg"},{"bike_id":"9a207dfa-f761-40fb-834c-70cbdf261c04","system_id":"levelo_inurba_marseille","lat":43.292972,"lon":5.371581,"is_reserved":false,"is_disabled":false,"rental_uris":{"android":"levelo://app?vid=9a207dfa-f761-40fb-834c-70cbdf261c04","ios":"levelo://app?vid=9a207dfa-f761-40fb-834c-70cbdf261c04"},"vehicle_type_id":"4","last_reported":1712369622,"current_range_meters":28800,"station_id":"ce4bgh92rcd13ifvqb40","pricing_plan_id":"cebpf4jnsgd1na2vs0mg"},{"bike_id":"f0f5c1a9-f086-40b5-8a2a-99b2880d9adb","system_id":"levelo_inurba_marseille","lat":43.29304,"lon":5.37444,"is_reserved":false,"is_disabled":false,"rental_uris":{"android":"levelo://app?vid=f0f5c1a9-f086-40b5-8a2a-99b2880d9adb","ios":"levelo://app?vid=f0f5c1a9-f086-40b5-8a2a-99b2880d9adb"},"vehicle_type_id":"4","last_reported":1712369622,"current_range_meters":14800,"station_id":"","pricing_plan_id":"cebpf4jnsgd1na2vs0mg"},{"bike_id":"7991b26f-08e1-4179-a718-ba0c52332cf8","system_id":"levelo_inurba_marseille","lat":43.292294,"lon":5.368483,"is_reserved":false,"is_disabled":false,"rental_uris":{"android":"levelo://app?vid=7991b26f-08e1-4179-a718-ba0c52332cf8","ios":"levelo://app?vid=7991b26f-08e1-4179-a718-ba0c52332cf8"},"vehicle_type_id":"4","last_reported":1712369622,"current_range_meters":9200,"station_id":"ce4bhbp2rcd13ifvqesg","pricing_plan_id":"cebpf4jnsgd1na2vs0mg"},{"bike_id":"7a90f0d5-5b88-4ce8-8517-adcb3d25a46e","system_id":"levelo_inurba_marseille","lat":43.306,"lon":5.39351,"is_reserved":false,"is_disabled":false,"rental_uris":{"android":"levelo://app?vid=7a90f0d5-5b88-4ce8-8517-adcb3d25a46e","ios":"levelo://app?vid=7a90f0d5-5b88-4ce8-8517-adcb3d25a46e"},"vehicle_type_id":"4","last_reported":1712369622,"current_range_meters":1200,"station_id":"","pricing_plan_id":"cebpf4jnsgd1na2vs0mg"},{"bike_id":"d272f84f-1d06-4876-8a9e-cdcc29806639","system_id":"levelo_inurba_marseille","lat":43.305994,"lon":5.393687,"is_reserved":false,"is_disabled":false,"rental_uris":{"android":"levelo://app?vid=d272f84f-1d06-4876-8a9e-cdcc29806639","ios":"levelo://app?vid=d272f84f-1d06-4876-8a9e-cdcc29806639"},"vehicle_type_id":"4","last_reported":1712369622,"current_range_meters":7600,"station_id":"ce4bh0p2rcd13ifvqd80","pricing_plan_id":"cebpf4jnsgd1na2vs0mg"},{"bike_id":"a3932eb0-f4ea-4f4c-a285-8a572d5fc282","system_id":"levelo_inurba_marseille","lat":43.302992,"lon":5.392136,"is_reserved":false,"is_disabled":false,"rental_uris":{"android":"levelo://app?vid=a3932eb0-f4ea-4f4c-a285-8a572d5fc282","ios":"levelo://app?vid=a3932eb0-f4ea-4f4c-a285-8a572d5fc282"},"vehicle_type_id":"4","last_reported":1712369622,"current_range_meters":23600,"station_id":"ce4bgkh2rcd13ifvqbk0","pricing_plan_id":"cebpf4jnsgd1na2vs0mg"},{"bike_id":"51a7da8c-40fa-4697-af55-a2444358f7f1","system_id":"levelo_inurba_marseille","lat":43.298764,"lon":5.388973,"is_reserved":false,"is_disabled":false,"rental_uris":{"android":"levelo://app?vid=51a7da8c-40fa-4697-af55-a2444358f7f1","ios":"levelo://app?vid=51a7da8c-40fa-4697-af55-a2444358f7f1"},"vehicle_type_id":"4","last_reported":1712369622,"current_range_meters":7200,"station_id":"ce4bh392rcd13ifvqdl0","pricing_plan_id":"cebpf4jnsgd1na2vs0mg"},{"bike_id":"354d93b7-a440-47ca-abe8-b3cade963b6e","system_id":"levelo_inurba_marseille","lat":43.308871,"lon":5.396299,"is_reserved":false,"is_disabled":false,"rental_uris":{"android":"levelo://app?vid=354d93b7-a440-47ca-abe8-b3cade963b6e","ios":"levelo://app?vid=354d93b7-a440-47ca-abe8-b3cade963b6e"},"vehicle_type_id":"4","last_reported":1712369622,"current_range_meters":18800,"station_id":"ce4bh012rcd13ifvqcv0","pricing_plan_id":"cebpf4jnsgd1na2vs0mg"},{"bike_id":"243ce47b-856e-4f84-982b-6c81514bd0f9","system_id":"levelo_inurba_marseille","lat":43.308833,"lon":5.396293,"is_reserved":false,"is_disabled":false,"rental_uris":{"android":"levelo://app?vid=243ce47b-856e-4f84-982b-6c81514bd0f9","ios":"levelo://app?vid=243ce47b-856e-4f84-982b-6c81514bd0f9"},"vehicle_type_id":"4","last_reported":1712369622,"current_range_meters":23200,"station_id":"ce4bh012rcd13ifvqcv0","pricing_plan_id":"cebpf4jnsgd1na2vs0mg"},{"bike_id":"23bb6b45-bfb9-46a7-accf-63cc46bb269f","system_id":"levelo_inurba_marseille","lat":43.308853,"lon":5.396327,"is_reserved":false,"is_disabled":false,"rental_uris":{"android":"levelo://app?vid=23bb6b45-bfb9-46a7-accf-63cc46bb269f","ios":"levelo://app?vid=23bb6b45-bfb9-46a7-accf-63cc46bb269f"},"vehicle_type_id":"4","last_reported":1712369622,"current_range_meters":18000,"station_id":"ce4bh012rcd13ifvqcv0","pricing_plan_id":"cebpf4jnsgd1na2vs0mg"},{"bike_id":"7019b86d-4402-4fbe-89e8-b6fd78f8f739","system_id":"levelo_inurba_marseille","lat":43.30886,"lon":5.39634,"is_reserved":false,"is_disabled":false,"rental_uris":{"android":"levelo://app?vid=7019b86d-4402-4fbe-89e8-b6fd78f8f739","ios":"levelo://app?vid=7019b86d-4402-4fbe-89e8-b6fd78f8f739"},"vehicle_type_id":"4","last_reported":1712369622,"current_range_meters":6400,"station_id":"ce4bh012rcd13ifvqcv0","pricing_plan_id":"cebpf4jnsgd1na2vs0mg"},{"bike_id":"72e02ce4-2be2-4a26-9331-758390544009","system_id":"levelo_inurba_marseille","lat":43.309038,"lon":5.396546,"is_reserved":false,"is_disabled":false,"rental_uris":{"android":"levelo://app?vid=72e02ce4-2be2-4a26-9331-758390544009","ios":"levelo://app?vid=72e02ce4-2be2-4a26-9331-758390544009"},"vehicle_type_id":"4","last_reported":1712369622,"current_range_meters":16800,"station_id":"ce4bh012rcd13ifvqcv0","pricing_plan_id":"cebpf4jnsgd1na2vs0mg"},{"bike_id":"6585fdee-390c-4c0d-a7c9-3f7286775a52","system_id":"levelo_inurba_marseille","lat":43.30879,"lon":5.396333,"is_reserved":false,"is_disabled":false,"rental_uris":{"android":"levelo://app?vid=6585fdee-390c-4c0d-a7c9-3f7286775a52","ios":"levelo://app?vid=6585fdee-390c-4c0d-a7c9-3f7286775a52"},"vehicle_type_id":"4","last_reported":1712369622,"current_range_meters":0,"station_id":"ce4bh012rcd13ifvqcv0","pricing_plan_id":"cebpf4jnsgd1na2vs0mg"},{"bike_id":"631dda5a-4c17-4721-a5f3-584eb9c8bc56","system_id":"levelo_inurba_marseille","lat":43.309047,"lon":5.396551,"is_reserved":false,"is_disabled":false,"rental_uris":{"android":"levelo://app?vid=631dda5a-4c17-4721-a5f3-584eb9c8bc56","ios":"levelo://app?vid=631dda5a-4c17-4721-a5f3-584eb9c8bc56"},"vehicle_type_id":"4","last_reported":1712369622,"current_range_meters":27200,"station_id":"ce4bh012rcd13ifvqcv0","pricing_plan_id":"cebpf4jnsgd1na2vs0mg"},{"bike_id":"6e7550bc-7dd3-4c5e-baab-797b1c3d9478","system_id":"levelo_inurba_marseille","lat":43.309038,"lon":5.396546,"is_reserved":false,"is_disabled":false,"rental_uris":{"android":"levelo://app?vid=6e7550bc-7dd3-4c5e-baab-797b1c3d9478","ios":"levelo://app?vid=6e7550bc-7dd3-4c5e-baab-797b1c3d9478"},"vehicle_type_id":"4","last_reported":1712369622,"current_range_meters":0,"station_id":"ce4bh012rcd13ifvqcv0","pricing_plan_id":"cebpf4jnsgd1na2vs0mg"},{"bike_id":"7007aade-5654-408c-95e1-814fb9f42ed6","system_id":"levelo_inurba_marseille","lat":43.308878,"lon":5.396376,"is_reserved":false,"is_disabled":false,"rental_uris":{"android":"levelo://app?vid=7007aade-5654-408c-95e1-814fb9f42ed6","ios":"levelo://app?vid=7007aade-5654-408c-95e1-814fb9f42ed6"},"vehicle_type_id":"4","last_reported":1712369622,"current_range_meters":1600,"station_id":"ce4bh012rcd13ifvqcv0","pricing_plan_id":"cebpf4jnsgd1na2vs0mg"},{"bike_id":"a33fc0bc-4220-4574-ad64-3f15e2730294","system_id":"levelo_inurba_marseille","lat":43.309038,"lon":5.396546,"is_reserved":false,"is_disabled":false,"rental_uris":{"android":"levelo://app?vid=a33fc0bc-4220-4574-ad64-3f15e2730294","ios":"levelo://app?vid=a33fc0bc-4220-4574-ad64-3f15e2730294"},"vehicle_type_id":"4","last_reported":1712369622,"current_range_meters":23600,"station_id":"ce4bh012rcd13ifvqcv0","pricing_plan_id":"cebpf4jnsgd1na2vs0mg"},{"bike_id":"9df0fedf-3854-4d63-96e0-ed9f8e1b26b9","system_id":"levelo_inurba_marseille","lat":43.308866,"lon":5.396389,"is_reserved":false,"is_disabled":false,"rental_uris":{"android":"levelo://app?vid=9df0fedf-3854-4d63-96e0-ed9f8e1b26b9","ios":"levelo://app?vid=9df0fedf-3854-4d63-96e0-ed9f8e1b26b9"},"vehicle_type_id":"4","last_reported":1712369622,"current_range_meters":4800,"station_id":"ce4bh012rcd13ifvqcv0","pricing_plan_id":"cebpf4jnsgd1na2vs0mg"},{"bike_id":"675a1aef-5ead-4106-bd99-66b7510e121a","system_id":"levelo_inurba_marseille","lat":43.309038,"lon":5.396546,"is_reserved":false,"is_disabled":false,"rental_uris":{"android":"levelo://app?vid=675a1aef-5ead-4106-bd99-66b7510e121a","ios":"levelo://app?vid=675a1aef-5ead-4106-bd99-66b7510e121a"},"vehicle_type_id":"4","last_reported":1712369622,"current_range_meters":29200,"station_id":"ce4bh012rcd13ifvqcv0","pricing_plan_id":"cebpf4jnsgd1na2vs0mg"},{"bike_id":"23eebd60-9f68-4608-9d8d-cea83035861a","system_id":"levelo_inurba_marseille","lat":43.309038,"lon":5.396546,"is_reserved":false,"is_disabled":false,"rental_uris":{"android":"levelo://app?vid=23eebd60-9f68-4608-9d8d-cea83035861a","ios":"levelo://app?vid=23eebd60-9f68-4608-9d8d-cea83035861a"},"vehicle_type_id":"4","last_reported":1712369622,"current_range_meters":18400,"station_id":"ce4bh012rcd13ifvqcv0","pricing_plan_id":"cebpf4jnsgd1na2vs0mg"},{"bike_id":"1fd804db-fa04-4ac3-b99f-c9a9717d18bc","system_id":"levelo_inurba_marseille","lat":43.308843,"lon":5.396416,"is_reserved":false,"is_disabled":false,"rental_uris":{"android":"levelo://app?vid=1fd804db-fa04-4ac3-b99f-c9a9717d18bc","ios":"levelo://app?vid=1fd804db-fa04-4ac3-b99f-c9a9717d18bc"},"vehicle_type_id":"4","last_reported":1712369622,"current_range_meters":0,"station_id":"ce4bh012rcd13ifvqcv0","pricing_plan_id":"cebpf4jnsgd1na2vs0mg"},{"bike_id":"fbb35337-421e-4146-8220-587ec281c784","system_id":"levelo_inurba_marseille","lat":43.313291,"lon":5.396838,"is_reserved":false,"is_disabled":false,"rental_uris":{"android":"levelo://app?vid=fbb35337-421e-4146-8220-587ec281c784","ios":"levelo://app?vid=fbb35337-421e-4146-8220-587ec281c784"},"vehicle_type_id":"4","last_reported":1712369622,"current_range_meters":6400,"station_id":"ce4bgvp2rcd13ifvqcu0","pricing_plan_id":"cebpf4jnsgd1na2vs0mg"},{"bike_id":"8b69f94a-970d-4f70-9ab3-e46cffb96f3c","system_id":"levelo_inurba_marseille","lat":43.2919,"lon":5.35805,"is_reserved":false,"is_disabled":false,"rental_uris":{"android":"levelo://app?vid=8b69f94a-970d-4f70-9ab3-e46cffb96f3c","ios":"levelo://app?vid=8b69f94a-970d-4f70-9ab3-e46cffb96f3c"},"vehicle_type_id":"4","last_reported":1712369622,"current_range_meters":16400,"station_id":"ce4bhb12rcd13ifvqel0","pricing_plan_id":"cebpf4jnsgd1na2vs0mg"},{"bike_id":"e6a0c4f3-55e2-4c25-b9b7-f08da7bdefbd","system_id":"levelo_inurba_marseille","lat":43.313291,"lon":5.396838,"is_reserved":false,"is_disabled":false,"rental_uris":{"android":"levelo://app?vid=e6a0c4f3-55e2-4c25-b9b7-f08da7bdefbd","ios":"levelo://app?vid=e6a0c4f3-55e2-4c25-b9b7-f08da7bdefbd"},"vehicle_type_id":"4","last_reported":1712369622,"current_range_meters":31600,"station_id":"ce4bgvp2rcd13ifvqcu0","pricing_plan_id":"cebpf4jnsgd1na2vs0mg"},{"bike_id":"5659b112-0164-41e6-b7d7-2f64a08a2872","system_id":"levelo_inurba_marseille","lat":43.309038,"lon":5.396546,"is_reserved":false,"is_disabled":false,"rental_uris":{"android":"levelo://app?vid=5659b112-0164-41e6-b7d7-2f64a08a2872","ios":"levelo://app?vid=5659b112-0164-41e6-b7d7-2f64a08a2872"},"vehicle_type_id":"4","last_reported":1712369622,"current_range_meters":26000,"station_id":"ce4bh012rcd13ifvqcv0","pricing_plan_id":"cebpf4jnsgd1na2vs0mg"},{"bike_id":"ece37122-3bca-48a7-bccf-10fcf435564e","system_id":"levelo_inurba_marseille","lat":43.313291,"lon":5.396838,"is_reserved":false,"is_disabled":false,"rental_uris":{"android":"levelo://app?vid=ece37122-3bca-48a7-bccf-10fcf435564e","ios":"levelo://app?vid=ece37122-3bca-48a7-bccf-10fcf435564e"},"vehicle_type_id":"4","last_reported":1712369622,"current_range_meters":10800,"station_id":"ce4bgvp2rcd13ifvqcu0","pricing_plan_id":"cebpf4jnsgd1na2vs0mg"},{"bike_id":"6a15808d-ea71-4d26-a1b3-07e0470b1c21","system_id":"levelo_inurba_marseille","lat":43.313291,"lon":5.396838,"is_reserved":false,"is_disabled":false,"rental_uris":{"android":"levelo://app?vid=6a15808d-ea71-4d26-a1b3-07e0470b1c21","ios":"levelo://app?vid=6a15808d-ea71-4d26-a1b3-07e0470b1c21"},"vehicle_type_id":"4","last_reported":1712369622,"current_range_meters":17200,"station_id":"ce4bgvp2rcd13ifvqcu0","pricing_plan_id":"cebpf4jnsgd1na2vs0mg"},{"bike_id":"f0ad0db2-089d-4bc2-b041-62533f606189","system_id":"levelo_inurba_marseille","lat":43.309038,"lon":5.396546,"is_reserved":false,"is_disabled":false,"rental_uris":{"android":"levelo://app?vid=f0ad0db2-089d-4bc2-b041-62533f606189","ios":"levelo://app?vid=f0ad0db2-089d-4bc2-b041-62533f606189"},"vehicle_type_id":"4","last_reported":1712369622,"current_range_meters":24800,"station_id":"ce4bh012rcd13ifvqcv0","pricing_plan_id":"cebpf4jnsgd1na2vs0mg"},{"bike_id":"40bb14d3-130d-4775-a1e9-85216ad9a3d0","system_id":"levelo_inurba_marseille","lat":43.313291,"lon":5.396838,"is_reserved":false,"is_disabled":false,"rental_uris":{"android":"levelo://app?vid=40bb14d3-130d-4775-a1e9-85216ad9a3d0","ios":"levelo://app?vid=40bb14d3-130d-4775-a1e9-85216ad9a3d0"},"vehicle_type_id":"4","last_reported":1712369622,"current_range_meters":21200,"station_id":"ce4bgvp2rcd13ifvqcu0","pricing_plan_id":"cebpf4jnsgd1na2vs0mg"},{"bike_id":"8381cfb6-bd90-426c-b57e-ea0c34d5d078","system_id":"levelo_inurba_marseille","lat":43.309038,"lon":5.396546,"is_reserved":false,"is_disabled":false,"rental_uris":{"android":"levelo://app?vid=8381cfb6-bd90-426c-b57e-ea0c34d5d078","ios":"levelo://app?vid=8381cfb6-bd90-426c-b57e-ea0c34d5d078"},"vehicle_type_id":"4","last_reported":1712369622,"current_range_meters":20000,"station_id":"ce4bh012rcd13ifvqcv0","pricing_plan_id":"cebpf4jnsgd1na2vs0mg"},{"bike_id":"bb24198a-e840-4639-8fa9-07cb810a9356","system_id":"levelo_inurba_marseille","lat":43.313291,"lon":5.396838,"is_reserved":false,"is_disabled":false,"rental_uris":{"android":"levelo://app?vid=bb24198a-e840-4639-8fa9-07cb810a9356","ios":"levelo://app?vid=bb24198a-e840-4639-8fa9-07cb810a9356"},"vehicle_type_id":"4","last_reported":1712369622,"current_range_meters":13600,"station_id":"ce4bgvp2rcd13ifvqcu0","pricing_plan_id":"cebpf4jnsgd1na2vs0mg"},{"bike_id":"0236c418-a4ea-429b-85bd-fbd11245f1e7","system_id":"levelo_inurba_marseille","lat":43.313291,"lon":5.396838,"is_reserved":false,"is_disabled":false,"rental_uris":{"android":"levelo://app?vid=0236c418-a4ea-429b-85bd-fbd11245f1e7","ios":"levelo://app?vid=0236c418-a4ea-429b-85bd-fbd11245f1e7"},"vehicle_type_id":"4","last_reported":1712369622,"current_range_meters":26800,"station_id":"ce4bgvp2rcd13ifvqcu0","pricing_plan_id":"cebpf4jnsgd1na2vs0mg"},{"bike_id":"8a22f05a-aa99-4b7e-aa31-139691efce94","system_id":"levelo_inurba_marseille","lat":43.309038,"lon":5.396546,"is_reserved":false,"is_disabled":false,"rental_uris":{"android":"levelo://app?vid=8a22f05a-aa99-4b7e-aa31-139691efce94","ios":"levelo://app?vid=8a22f05a-aa99-4b7e-aa31-139691efce94"},"vehicle_type_id":"4","last_reported":1712369622,"current_range_meters":2800,"station_id":"ce4bh012rcd13ifvqcv0","pricing_plan_id":"cebpf4jnsgd1na2vs0mg"},{"bike_id":"5efb1ceb-6872-495b-8d52-21f1dac9a5e8","system_id":"levelo_inurba_marseille","lat":43.313291,"lon":5.396838,"is_reserved":false,"is_disabled":false,"rental_uris":{"android":"levelo://app?vid=5efb1ceb-6872-495b-8d52-21f1dac9a5e8","ios":"levelo://app?vid=5efb1ceb-6872-495b-8d52-21f1dac9a5e8"},"vehicle_type_id":"4","last_reported":1712369622,"current_range_meters":7600,"station_id":"ce4bgvp2rcd13ifvqcu0","pricing_plan_id":"cebpf4jnsgd1na2vs0mg"},{"bike_id":"d4112786-d39c-41de-a39b-2a323739e44a","system_id":"levelo_inurba_marseille","lat":43.309038,"lon":5.396546,"is_reserved":false,"is_disabled":false,"rental_uris":{"android":"levelo://app?vid=d4112786-d39c-41de-a39b-2a323739e44a","ios":"levelo://app?vid=d4112786-d39c-41de-a39b-2a323739e44a"},"vehicle_type_id":"4","last_reported":1712369622,"current_range_meters":11600,"station_id":"ce4bh012rcd13ifvqcv0","pricing_plan_id":"cebpf4jnsgd1na2vs0mg"},{"bike_id":"791beefe-5878-4ea8-a9ec-7b5d7ea47bab","system_id":"levelo_inurba_marseille","lat":43.309038,"lon":5.396546,"is_reserved":false,"is_disabled":false,"rental_uris":{"android":"levelo://app?vid=791beefe-5878-4ea8-a9ec-7b5d7ea47bab","ios":"levelo://app?vid=791beefe-5878-4ea8-a9ec-7b5d7ea47bab"},"vehicle_type_id":"4","last_reported":1712369622,"current_range_meters":24000,"station_id":"ce4bh012rcd13ifvqcv0","pricing_plan_id":"cebpf4jnsgd1na2vs0mg"},{"bike_id":"dab759dc-cfdd-46d7-9db7-1d52eab989fc","system_id":"levelo_inurba_marseille","lat":43.313291,"lon":5.396838,"is_reserved":false,"is_disabled":false,"rental_uris":{"android":"levelo://app?vid=dab759dc-cfdd-46d7-9db7-1d52eab989fc","ios":"levelo://app?vid=dab759dc-cfdd-46d7-9db7-1d52eab989fc"},"vehicle_type_id":"4","last_reported":1712369622,"current_range_meters":4400,"station_id":"ce4bgvp2rcd13ifvqcu0","pricing_plan_id":"cebpf4jnsgd1na2vs0mg"},{"bike_id":"62eb69ae-f734-4305-bdba-4a80d528229b","system_id":"levelo_inurba_marseille","lat":43.309038,"lon":5.396546,"is_reserved":false,"is_disabled":false,"rental_uris":{"android":"levelo://app?vid=62eb69ae-f734-4305-bdba-4a80d528229b","ios":"levelo://app?vid=62eb69ae-f734-4305-bdba-4a80d528229b"},"vehicle_type_id":"4","last_reported":1712369622,"current_range_meters":18000,"station_id":"ce4bh012rcd13ifvqcv0","pricing_plan_id":"cebpf4jnsgd1na2vs0mg"},{"bike_id":"025f8826-c4b2-427c-855a-f9ea5e267b1a","system_id":"levelo_inurba_marseille","lat":43.290624,"lon":5.359245,"is_reserved":false,"is_disabled":false,"rental_uris":{"android":"levelo://app?vid=025f8826-c4b2-427c-855a-f9ea5e267b1a","ios":"levelo://app?vid=025f8826-c4b2-427c-855a-f9ea5e267b1a"},"vehicle_type_id":"4","last_reported":1712369622,"current_range_meters":3200,"station_id":"ce4bha92rcd13ifvqeg0","pricing_plan_id":"cebpf4jnsgd1na2vs0mg"},{"bike_id":"413041a7-0cd7-4a41-aa67-cb18ad77f3a7","system_id":"levelo_inurba_marseille","lat":43.290624,"lon":5.359245,"is_reserved":false,"is_disabled":false,"rental_uris":{"android":"levelo://app?vid=413041a7-0cd7-4a41-aa67-cb18ad77f3a7","ios":"levelo://app?vid=413041a7-0cd7-4a41-aa67-cb18ad77f3a7"},"vehicle_type_id":"4","last_reported":1712369622,"current_range_meters":23600,"station_id":"ce4bha92rcd13ifvqeg0","pricing_plan_id":"cebpf4jnsgd1na2vs0mg"},{"bike_id":"5a590958-9c74-4ee8-ad60-5675064190cd","system_id":"levelo_inurba_marseille","lat":43.290624,"lon":5.359245,"is_reserved":false,"is_disabled":false,"rental_uris":{"android":"levelo://app?vid=5a590958-9c74-4ee8-ad60-5675064190cd","ios":"levelo://app?vid=5a590958-9c74-4ee8-ad60-5675064190cd"},"vehicle_type_id":"4","last_reported":1712369622,"current_range_meters":30400,"station_id":"ce4bha92rcd13ifvqeg0","pricing_plan_id":"cebpf4jnsgd1na2vs0mg"},{"bike_id":"9ab69e2b-6021-4864-b4fa-1a339c0cf044","system_id":"levelo_inurba_marseille","lat":43.290631,"lon":5.359244,"is_reserved":false,"is_disabled":false,"rental_uris":{"android":"levelo://app?vid=9ab69e2b-6021-4864-b4fa-1a339c0cf044","ios":"levelo://app?vid=9ab69e2b-6021-4864-b4fa-1a339c0cf044"},"vehicle_type_id":"4","last_reported":1712369622,"current_range_meters":24400,"station_id":"ce4bha92rcd13ifvqeg0","pricing_plan_id":"cebpf4jnsgd1na2vs0mg"},{"bike_id":"e582f7f5-54a0-49ff-a64d-a5a78e7cee09","system_id":"levelo_inurba_marseille","lat":43.290624,"lon":5.359245,"is_reserved":false,"is_disabled":false,"rental_uris":{"android":"levelo://app?vid=e582f7f5-54a0-49ff-a64d-a5a78e7cee09","ios":"levelo://app?vid=e582f7f5-54a0-49ff-a64d-a5a78e7cee09"},"vehicle_type_id":"4","last_reported":1712369622,"current_range_meters":22400,"station_id":"ce4bha92rcd13ifvqeg0","pricing_plan_id":"cebpf4jnsgd1na2vs0mg"},{"bike_id":"502151f5-f33c-49b3-9507-670bcd747bb5","system_id":"levelo_inurba_marseille","lat":43.290327,"lon":5.375711,"is_reserved":false,"is_disabled":false,"rental_uris":{"android":"levelo://app?vid=502151f5-f33c-49b3-9507-670bcd747bb5","ios":"levelo://app?vid=502151f5-f33c-49b3-9507-670bcd747bb5"},"vehicle_type_id":"4","last_reported":1712369622,"current_range_meters":28400,"station_id":"ce4bh692rcd13ifvqe90","pricing_plan_id":"cebpf4jnsgd1na2vs0mg"},{"bike_id":"c672b7f3-a935-4d7b-b5f4-7a31b521a41c","system_id":"levelo_inurba_marseille","lat":43.231562,"lon":5.436933,"is_reserved":false,"is_disabled":false,"rental_uris":{"android":"levelo://app?vid=c672b7f3-a935-4d7b-b5f4-7a31b521a41c","ios":"levelo://app?vid=c672b7f3-a935-4d7b-b5f4-7a31b521a41c"},"vehicle_type_id":"4","last_reported":1712369622,"current_range_meters":14800,"station_id":"ce4bhmp2rcd13ifvqgog","pricing_plan_id":"cebpf4jnsgd1na2vs0mg"},{"bike_id":"e99030ba-8ff0-4aa8-b549-4583f145f0b6","system_id":"levelo_inurba_marseille","lat":43.289184,"lon":5.366408,"is_reserved":false,"is_disabled":false,"rental_uris":{"android":"levelo://app?vid=e99030ba-8ff0-4aa8-b549-4583f145f0b6","ios":"levelo://app?vid=e99030ba-8ff0-4aa8-b549-4583f145f0b6"},"vehicle_type_id":"4","last_reported":1712369622,"current_range_meters":13200,"station_id":"ce4bhap2rcd13ifvqek0","pricing_plan_id":"cebpf4jnsgd1na2vs0mg"},{"bike_id":"ede437a0-bfdc-41aa-a36d-87d6a3a60c8a","system_id":"levelo_inurba_marseille","lat":43.28943,"lon":5.36402,"is_reserved":false,"is_disabled":false,"rental_uris":{"android":"levelo://app?vid=ede437a0-bfdc-41aa-a36d-87d6a3a60c8a","ios":"levelo://app?vid=ede437a0-bfdc-41aa-a36d-87d6a3a60c8a"},"vehicle_type_id":"4","last_reported":1712369622,"current_range_meters":18400,"station_id":"ce4bhc92rcd13ifvqetg","pricing_plan_id":"cebpf4jnsgd1na2vs0mg"},{"bike_id":"e7ad755a-5c03-4244-af21-1fa54a4cefa6","system_id":"levelo_inurba_marseille","lat":43.289374,"lon":5.363959,"is_reserved":false,"is_disabled":false,"rental_uris":{"android":"levelo://app?vid=e7ad755a-5c03-4244-af21-1fa54a4cefa6","ios":"levelo://app?vid=e7ad755a-5c03-4244-af21-1fa54a4cefa6"},"vehicle_type_id":"4","last_reported":1712369622,"current_range_meters":24800,"station_id":"ce4bhc92rcd13ifvqetg","pricing_plan_id":"cebpf4jnsgd1na2vs0mg"},