{"last_updated":1781557112,"ttl":60,"version":"2.2","data":{"bikes":[{"bike_id":"7b36a8d5-4055-43a7-b56e-7d447da04f3a","system_id":"levelo_inurba_marseille","lat":43.337444,"lon":5.374475,"is_reserved":false,"is_disabled":false,"rental_uris":{"android":"levelo://app?vid=7b36a8d5-4055-43a7-b56e-7d447da04f3a","ios":"levelo://app?vid=7b36a8d5-4055-43a7-b56e-7d447da04f3a"},"vehicle_type_id":"4","last_reported":1781557113,"current_range_meters":0,"station_id":"","pricing_plan_id":"cebpf4jnsgd1na2vs0mg"},{"bike_id":"57c46c0a-1106-4b23-90b0-8f24b3eec876","system_id":"levelo_inurba_marseille","lat":43.29024,"lon":5.38651,"is_reserved":false,"is_disabled":false,"rental_uris":{"android":"levelo://app?vid=57c46c0a-1106-4b23-90b0-8f24b3eec876","ios":"levelo://app?vid=57c46c0a-1106-4b23-90b0-8f24b3eec876"},"vehicle_type_id":"4","last_reported":1781557113,"current_range_meters":2800,"station_id":"ce4bh4p2rcd13ifvqe0g","pricing_plan_id":"cebpf4jnsgd1na2vs0mg"},{"bike_id":"c536f2fd-4681-4045-b568-09320e088eb6","system_id":"levelo_inurba_marseille","lat":43.33604,"lon":5.41038,"is_reserved":false,"is_disabled":false,"rental_uris":{"android":"levelo://app?vid=c536f2fd-4681-4045-b568-09320e088eb6","ios":"levelo://app?vid=c536f2fd-4681-4045-b568-09320e088eb6"},"vehicle_type_id":"4","last_reported":1781557113,"current_range_meters":2800,"station_id":"ce4bhqh2rcd13ifvqhmg","pricing_plan_id":"cebpf4jnsgd1na2vs0mg"},{"bike_id":"c5ec3421-d295-4b51-9ade-5cd5799d74a1","system_id":"levelo_inurba_marseille","lat":43.26983,"lon":5.39281,"is_reserved":false,"is_disabled":false,"rental_uris":{"android":"levelo://app?vid=c5ec3421-d295-4b51-9ade-5cd5799d74a1","ios":"levelo://app?vid=c5ec3421-d295-4b51-9ade-5cd5799d74a1"},"vehicle_type_id":"4","last_reported":1781557113,"current_range_meters":2800,"station_id":"","pricing_plan_id":"cebpf4jnsgd1na2vs0mg"},{"bike_id":"d98fc694-14ac-4233-a6b3-a034902eae43","system_id":"levelo_inurba_marseille","lat":43.31365,"lon":5.38487,"is_reserved":false,"is_disabled":false,"rental_uris":{"android":"levelo://app?vid=d98fc694-14ac-4233-a6b3-a034902eae43","ios":"levelo://app?vid=d98fc694-14ac-4233-a6b3-a034902eae43"},"vehicle_type_id":"4","last_reported":1781557113,"current_range_meters":2800,"station_id":"ce4bgt92rcd13ifvqcf0","pricing_plan_id":"cebpf4jnsgd1na2vs0mg"},{"bike_id":"9868f171-082e-421f-a080-d95930b04691","system_id":"levelo_inurba_marseille","lat":43.28605,"lon":5.39872,"is_reserved":false,"is_disabled":false,"rental_uris":{"android":"levelo://app?vid=9868f171-082e-421f-a080-d95930b04691","ios":"levelo://app?vid=9868f171-082e-421f-a080-d95930b04691"},"vehicle_type_id":"4","last_reported":1781557113,"current_range_meters":2800,"station_id":"st_d4a7ka997mjs738ck50g","pricing_plan_id":"cebpf4jnsgd1na2vs0mg"},{"bike_id":"b9b416bf-719d-4468-8ce3-5872872742ed","system_id":"levelo_inurba_marseille","lat":43.22269,"lon":5.40493,"is_reserved":false,"is_disabled":false,"rental_uris":{"android":"levelo://app?vid=b9b416bf-719d-4468-8ce3-5872872742ed","ios":"levelo://app?vid=b9b416bf-719d-4468-8ce3-5872872742ed"},"vehicle_type_id":"4","last_reported":1781557113,"current_range_meters":2800,"station_id":"","pricing_plan_id":"cebpf4jnsgd1na2vs0mg"},{"bike_id":"54558256-61a7-4276-bd24-cdc45fa3c9f9","system_id":"levelo_inurba_marseille","lat":43.26168,"lon":5.40527,"is_reserved":false,"is_disabled":false,"rental_uris":{"android":"levelo://app?vid=54558256-61a7-4276-bd24-cdc45fa3c9f9","ios":"levelo://app?vid=54558256-61a7-4276-bd24-cdc45fa3c9f9"},"vehicle_type_id":"4","last_reported":1781557113,"current_range_meters":2800,"station_id":"","pricing_plan_id":"cebpf4jnsgd1na2vs0mg"},{"bike_id":"af007abc-2a5e-4e75-9828-877a7547e4fe","system_id":"levelo_inurba_marseille","lat":43.30652,"lon":5.39298,"is_reserved":false,"is_disabled":false,"rental_uris":{"android":"levelo://app?vid=af007abc-2a5e-4e75-9828-877a7547e4fe","ios":"levelo://app?vid=af007abc-2a5e-4e75-9828-877a7547e4fe"},"vehicle_type_id":"4","last_reported":1781557113,"current_range_meters":2800,"station_id":"","pricing_plan_id":"cebpf4jnsgd1na2vs0mg"},{"bike_id":"a57ee0eb-e36e-404a-8a95-c74036373696","system_id":"levelo_inurba_marseille","lat":43.29258,"lon":5.40906,"is_reserved":false,"is_disabled":false,"rental_uris":{"android":"levelo://app?vid=a57ee0eb-e36e-404a-8a95-c74036373696","ios":"levelo://app?vid=a57ee0eb-e36e-404a-8a95-c74036373696"},"vehicle_type_id":"4","last_reported":1781557113,"current_range_meters":2800,"station_id":"ce4bh192rcd13ifvqdc0","pricing_plan_id":"cebpf4jnsgd1na2vs0mg"},{"bike_id":"d1c0f254-e9f9-4c9c-94a6-a41f13d095f1","system_id":"levelo_inurba_marseille","lat":43.24541,"lon":5.41168,"is_reserved":false,"is_disabled":true,"rental_uris":{"android":"levelo://app?vid=d1c0f254-e9f9-4c9c-94a6-a41f13d095f1","ios":"levelo://app?vid=d1c0f254-e9f9-4c9c-94a6-a41f13d095f1"},"vehicle_type_id":"4","last_reported":1781557113,"current_range_meters":3200,"station_id":"","pricing_plan_id":"cebpf4jnsgd1na2vs0mg"},{"bike_id":"a91bbfff-2baf-4b6e-9e10-4940430f4a9c","system_id":"levelo_inurba_marseille","lat":43.29985,"lon":5.37569,"is_reserved":false,"is_disabled":false,"rental_uris":{"android":"levelo://app?vid=a91bbfff-2baf-4b6e-9e10-4940430f4a9c","ios":"levelo://app?vid=a91bbfff-2baf-4b6e-9e10-4940430f4a9c"},"vehicle_type_id":"4","last_reported":1781557113,"current_range_meters":3200,"station_id":"","pricing_plan_id":"cebpf4jnsgd1na2vs0mg"},{"bike_id":"d87ebf40-97ce-401d-8893-dcea3cd303d8","system_id":"levelo_inurba_marseille","lat":43.26566,"lon":5.39009,"is_reserved":false,"is_disabled":false,"rental_uris":{"android":"levelo://app?vid=d87ebf40-97ce-401d-8893-dcea3cd303d8","ios":"levelo://app?vid=d87ebf40-97ce-401d-8893-dcea3cd303d8"},"vehicle_type_id":"4","last_reported":1781557113,"current_range_meters":3200,"station_id":"ce4bhe12rcd13ifvqf30","pricing_plan_id":"cebpf4jnsgd1na2vs0mg"},{"bike_id":"4150da3c-e2ee-4516-ba7a-0f345e55a96d","system_id":"levelo_inurba_marseille","lat":43.26215,"lon":5.38839,"is_reserved":false,"is_disabled":false,"rental_uris":{"android":"levelo://app?vid=4150da3c-e2ee-4516-ba7a-0f345e55a96d","ios":"levelo://app?vid=4150da3c-e2ee-4516-ba7a-0f345e55a96d"},"vehicle_type_id":"4","last_reported":1781557113,"current_range_meters":3200,"station_id":"","pricing_plan_id":"cebpf4jnsgd1na2vs0mg"},{"bike_id":"56935de3-074f-4c85-85a6-2c88e837ad9a","system_id":"levelo_inurba_marseille","lat":43.27895,"lon":5.38013,"is_reserved":false,"is_disabled":false,"rental_uris":{"android":"levelo://app?vid=56935de3-074f-4c85-85a6-2c88e837ad9a","ios":"levelo://app?vid=56935de3-074f-4c85-85a6-2c88e837ad9a"},"vehicle_type_id":"4","last_reported":1781557113,"current_range_meters":3200,"station_id":"ce4bhf92rcd13ifvqf50","pricing_plan_id":"cebpf4jnsgd1na2vs0mg"},{"bike_id":"6fcdbc8e-0753-487a-95c7-ac1509af0d8e","system_id":"levelo_inurba_marseille","lat":43.25197,"lon":5.37518,"is_reserved":false,"is_disabled":false,"rental_uris":{"android":"levelo://app?vid=6fcdbc8e-0753-487a-95c7-ac1509af0d8e","ios":"levelo://app?vid=6fcdbc8e-0753-487a-95c7-ac1509af0d8e"},"vehicle_type_id":"4","last_reported":1781557113,"current_range_meters":3200,"station_id":"","pricing_plan_id":"cebpf4jnsgd1na2vs0mg"},{"bike_id":"37585f1b-1e3f-451e-bfe1-233586ed4083","system_id":"levelo_inurba_marseille","lat":43.25085,"lon":5.39522,"is_reserved":false,"is_disabled":false,"rental_uris":{"android":"levelo://app?vid=37585f1b-1e3f-451e-bfe1-233586ed4083","ios":"levelo://app?vid=37585f1b-1e3f-451e-bfe1-233586ed4083"},"vehicle_type_id":"4","last_reported":1781557113,"current_range_meters":3200,"station_id":"ce4bhm12rcd13ifvqgkg","pricing_plan_id":"cebpf4jnsgd1na2vs0mg"},{"bike_id":"4a83d1fa-edf1-486a-9e29-8db00b262b9c","system_id":"levelo_inurba_marseille","lat":43.25415,"lon":5.42109,"is_reserved":false,"is_disabled":true,"rental_uris":{"android":"levelo://app?vid=4a83d1fa-edf1-486a-9e29-8db00b262b9c","ios":"levelo://app?vid=4a83d1fa-edf1-486a-9e29-8db00b262b9c"},"vehicle_type_id":"4","last_reported":1781557113,"current_range_meters":3200,"station_id":"","pricing_plan_id":"cebpf4jnsgd1na2vs0mg"},{"bike_id":"61fbedba-6997-4c85-a98e-22b5bd924258","system_id":"levelo_inurba_marseille","lat":43.22545,"lon":5.34821,"is_reserved":false,"is_disabled":false,"rental_uris":{"android":"levelo://app?vid=61fbedba-6997-4c85-a98e-22b5bd924258","ios":"levelo://app?vid=61fbedba-6997-4c85-a98e-22b5bd924258"},"vehicle_type_id":"4","last_reported":1781557113,"current_range_meters":3200,"station_id":"st_cvj5dfep6f1abm77gieg","pricing_plan_id":"cebpf4jnsgd1na2vs0mg"},{"bike_id":"6b916299-b246-41da-ae5d-cbe62298d798","system_id":"levelo_inurba_marseille","lat":43.32665,"lon":5.41,"is_reserved":false,"is_disabled":false,"rental_uris":{"android":"levelo://app?vid=6b916299-b246-41da-ae5d-cbe62298d798","ios":"levelo://app?vid=6b916299-b246-41da-ae5d-cbe62298d798"},"vehicle_type_id":"4","last_reported":1781557113,"current_range_meters":3200,"station_id":"ce4bhpp2rcd13ifvqhgg","pricing_plan_id":"cebpf4jnsgd1na2vs0mg"},{"bike_id":"5df4ce81-329f-45a1-9820-35a407d86129","system_id":"levelo_inurba_marseille","lat":43.29929,"lon":5.41028,"is_reserved":false,"is_disabled":false,"rental_uris":{"android":"levelo://app?vid=5df4ce81-329f-45a1-9820-35a407d86129","ios":"levelo://app?vid=5df4ce81-329f-45a1-9820-35a407d86129"},"vehicle_type_id":"4","last_reported":1781557113,"current_range_meters":3200,"station_id":"","pricing_plan_id":"cebpf4jnsgd1na2vs0mg"},{"bike_id":"8502900f-ee01-4db8-98bd-6faebeac7c5e","system_id":"levelo_inurba_marseille","lat":43.29526,"lon":5.39401,"is_reserved":false,"is_disabled":false,"rental_uris":{"android":"levelo://app?vid=8502900f-ee01-4db8-98bd-6faebeac7c5e","ios":"levelo://app?vid=8502900f-ee01-4db8-98bd-6faebeac7c5e"},"vehicle_type_id":"4","last_reported":1781557113,"current_range_meters":3200,"station_id":"ce4bh292rcd13ifvqdf0","pricing_plan_id":"cebpf4jnsgd1na2vs0mg"},{"bike_id":"4d8be99e-147c-4e02-a89e-0ee6a7569805","system_id":"levelo_inurba_marseille","lat":43.30177,"lon":5.36609,"is_reserved":false,"is_disabled":false,"rental_uris":{"android":"levelo://app?vid=4d8be99e-147c-4e02-a89e-0ee6a7569805","ios":"levelo://app?vid=4d8be99e-147c-4e02-a89e-0ee6a7569805"},"vehicle_type_id":"4","last_reported":1781557113,"current_range_meters":3600,"station_id":"ce4bgrh2rcd13ifvqc8g","pricing_plan_id":"cebpf4jnsgd1na2vs0mg"},{"bike_id":"fd209ccf-8d9f-4ac2-9ba9-1773bcbd746a","system_id":"levelo_inurba_marseille","lat":43.29276,"lon":5.40122,"is_reserved":false,"is_disabled":false,"rental_uris":{"android":"levelo://app?vid=fd209ccf-8d9f-4ac2-9ba9-1773bcbd746a","ios":"levelo://app?vid=fd209ccf-8d9f-4ac2-9ba9-1773bcbd746a"},"vehicle_type_id":"4","last_reported":1781557113,"current_range_meters":3600,"station_id":"ce4bh312rcd13ifvqdk0","pricing_plan_id":"cebpf4jnsgd1na2vs0mg"},{"bike_id":"6a6a3b6a-8e14-454d-88a5-eaa0672b5846","system_id":"levelo_inurba_marseille","lat":43.29028,"lon":5.39963,"is_reserved":false,"is_disabled":false,"rental_uris":{"android":"levelo://app?vid=6a6a3b6a-8e14-454d-88a5-eaa0672b5846","ios":"levelo://app?vid=6a6a3b6a-8e14-454d-88a5-eaa0672b5846"},"vehicle_type_id":"4","last_reported":1781557113,"current_range_meters":3600,"station_id":"ce4bh392rcd13ifvqdm0","pricing_plan_id":"cebpf4jnsgd1na2vs0mg"},{"bike_id":"85b3a488-38fb-46d2-97cc-92c132df413c","system_id":"levelo_inurba_marseille","lat":43.30428,"lon":5.39745,"is_reserved":false,"is_disabled":false,"rental_uris":{"android":"levelo://app?vid=85b3a488-38fb-46d2-97cc-92c132df413c","ios":"levelo://app?vid=85b3a488-38fb-46d2-97cc-92c132df413c"},"vehicle_type_id":"4","last_reported":1781557113,"current_range_meters":3600,"station_id":"ce4bh092rcd13ifvqd20","pricing_plan_id":"cebpf4jnsgd1na2vs0mg"},{"bike_id":"7248a74a-8ffb-4867-931e-46ff9c2950a6","system_id":"levelo_inurba_marseille","lat":43.30205,"lon":5.3947,"is_reserved":false,"is_disabled":false,"rental_uris":{"android":"levelo://app?vid=7248a74a-8ffb-4867-931e-46ff9c2950a6","ios":"levelo://app?vid=7248a74a-8ffb-4867-931e-46ff9c2950a6"},"vehicle_type_id":"4","last_reported":1781557113,"current_range_meters":3600,"station_id":"ce4bh0p2rcd13ifvqd70","pricing_plan_id":"cebpf4jnsgd1na2vs0mg"},{"bike_id":"f849508d-6541-4028-9f96-d4d9bab8fbe4","system_id":"levelo_inurba_marseille","lat":43.29628,"lon":5.39066,"is_reserved":false,"is_disabled":false,"rental_uris":{"android":"levelo://app?vid=f849508d-6541-4028-9f96-d4d9bab8fbe4","ios":"levelo://app?vid=f849508d-6541-4028-9f96-d4d9bab8fbe4"},"vehicle_type_id":"4","last_reported":1781557113,"current_range_meters":3600,"station_id":"","pricing_plan_id":"cebpf4jnsgd1na2vs0mg"},{"bike_id":"c6a1d25f-43b5-4566-b933-b1c5e36f5cc7","system_id":"levelo_inurba_marseille","lat":43.28328,"lon":5.38833,"is_reserved":false,"is_disabled":false,"rental_uris":{"android":"levelo://app?vid=c6a1d25f-43b5-4566-b933-b1c5e36f5cc7","ios":"levelo://app?vid=c6a1d25f-43b5-4566-b933-b1c5e36f5cc7"},"vehicle_type_id":"4","last_reported":1781557113,"current_range_meters":3600,"station_id":"","pricing_plan_id":"cebpf4jnsgd1na2vs0mg"},{"bike_id":"c6fc6f72-27d4-4bae-bd6d-854f36ad954a","system_id":"levelo_inurba_marseille","lat":43.22554,"lon":5.34827,"is_reserved":false,"is_disabled":false,"rental_uris":{"android":"levelo://app?vid=c6fc6f72-27d4-4bae-bd6d-854f36ad954a","ios":"levelo://app?vid=c6fc6f72-27d4-4bae-bd6d-854f36ad954a"},"vehicle_type_id":"4","last_reported":1781557113,"current_range_meters":3600,"station_id":"st_cvj5dfep6f1abm77gieg","pricing_plan_id":"cebpf4jnsgd1na2vs0mg"},{"bike_id":"1e870eb3-e4c8-4789-94fa-6957ea08dcc8","system_id":"levelo_inurba_marseille","lat":43.33536,"lon":5.37484,"is_reserved":false,"is_disabled":false,"rental_uris":{"android":"levelo://app?vid=1e870eb3-e4c8-4789-94fa-6957ea08dcc8","ios":"levelo://app?vid=1e870eb3-e4c8-4789-94fa-6957ea08dcc8"},"vehicle_type_id":"4","last_reported":1781557113,"current_range_meters":3600,"station_id":"st_d46tts09ee8s73dlu43g","pricing_plan_id":"cebpf4jnsgd1na2vs0mg"},{"bike_id":"a0e8d405-0aec-40a1-a28b-26fe3cca6395","system_id":"levelo_inurba_marseille","lat":43.29589,"lon":5.38109,"is_reserved":false,"is_disabled":true,"rental_uris":{"android":"levelo://app?vid=a0e8d405-0aec-40a1-a28b-26fe3cca6395","ios":"levelo://app?vid=a0e8d405-0aec-40a1-a28b-26fe3cca6395"},"vehicle_type_id":"4","last_reported":1781557113,"current_range_meters":4000,"station_id":"ce4bgl12rcd13ifvqbo0","pricing_plan_id":"cebpf4jnsgd1na2vs0mg"},{"bike_id":"cf18fab3-8b72-47d1-9255-75ae5d45f66c","system_id":"levelo_inurba_marseille","lat":43.31467,"lon":5.38617,"is_reserved":false,"is_disabled":false,"rental_uris":{"android":"levelo://app?vid=cf18fab3-8b72-47d1-9255-75ae5d45f66c","ios":"levelo://app?vid=cf18fab3-8b72-47d1-9255-75ae5d45f66c"},"vehicle_type_id":"4","last_reported":1781557113,"current_range_meters":4000,"station_id":"","pricing_plan_id":"cebpf4jnsgd1na2vs0mg"},{"bike_id":"ee54c86f-b7b5-4dcc-a1b9-815c84c51b72","system_id":"levelo_inurba_marseille","lat":43.28483,"lon":5.48393,"is_reserved":false,"is_disabled":false,"rental_uris":{"android":"levelo://app?vid=ee54c86f-b7b5-4dcc-a1b9-815c84c51b72","ios":"levelo://app?vid=ee54c86f-b7b5-4dcc-a1b9-815c84c51b72"},"vehicle_type_id":"4","last_reported":1781557113,"current_range_meters":4000,"station_id":"st_d3svhcjqgbts73a3dn0g","pricing_plan_id":"cebpf4jnsgd1na2vs0mg"},{"bike_id":"0df09a19-c670-4eb7-a858-5087a4d3dd88","system_id":"levelo_inurba_marseille","lat":43.31892,"lon":5.36813,"is_reserved":false,"is_disabled":false,"rental_uris":{"android":"levelo://app?vid=0df09a19-c670-4eb7-a858-5087a4d3dd88","ios":"levelo://app?vid=0df09a19-c670-4eb7-a858-5087a4d3dd88"},"vehicle_type_id":"4","last_reported":1781557113,"current_range_meters":4000,"station_id":"st_d6o2h0d0559c73evc1b0","pricing_plan_id":"cebpf4jnsgd1na2vs0mg"},{"bike_id":"e6b29b0d-577d-498a-ab9c-9c5b73891460","system_id":"levelo_inurba_marseille","lat":43.29271,"lon":5.36843,"is_reserved":false,"is_disabled":false,"rental_uris":{"android":"levelo://app?vid=e6b29b0d-577d-498a-ab9c-9c5b73891460","ios":"levelo://app?vid=e6b29b0d-577d-498a-ab9c-9c5b73891460"},"vehicle_type_id":"4","last_reported":1781557113,"current_range_meters":4000,"station_id":"ce4bhbp2rcd13ifvqesg","pricing_plan_id":"cebpf4jnsgd1na2vs0mg"},{"bike_id":"edbe55b7-4846-4e16-ae6c-1a7235b29e06","system_id":"levelo_inurba_marseille","lat":43.28157,"lon":5.42632,"is_reserved":false,"is_disabled":false,"rental_uris":{"android":"levelo://app?vid=edbe55b7-4846-4e16-ae6c-1a7235b29e06","ios":"levelo://app?vid=edbe55b7-4846-4e16-ae6c-1a7235b29e06"},"vehicle_type_id":"4","last_reported":1781557113,"current_range_meters":4000,"station_id":"ce4bhnh2rcd13ifvqgug","pricing_plan_id":"cebpf4jnsgd1na2vs0mg"},{"bike_id":"c0493d3e-5b93-4dae-a78c-bf60c796c9e1","system_id":"levelo_inurba_marseille","lat":43.3144,"lon":5.3739,"is_reserved":false,"is_disabled":false,"rental_uris":{"android":"levelo://app?vid=c0493d3e-5b93-4dae-a78c-bf60c796c9e1","ios":"levelo://app?vid=c0493d3e-5b93-4dae-a78c-bf60c796c9e1"},"vehicle_type_id":"4","last_reported":1781557113,"current_range_meters":4000,"station_id":"","pricing_plan_id":"cebpf4jnsgd1na2vs0mg"},{"bike_id":"aa54ca0d-2ced-48e9-be85-1c3185d7e01c","system_id":"levelo_inurba_marseille","lat":43.29306,"lon":5.37502,"is_reserved":false,"is_disabled":false,"rental_uris":{"android":"levelo://app?vid=aa54ca0d-2ced-48e9-be85-1c3185d7e01c","ios":"levelo://app?vid=aa54ca0d-2ced-48e9-be85-1c3185d7e01c"},"vehicle_type_id":"4","last_reported":1781557113,"current_range_meters":4000,"station_id":"ce4bgi12rcd13ifvqb70","pricing_plan_id":"cebpf4jnsgd1na2vs0mg"},{"bike_id":"f5336d72-b4de-4c38-8487-81c5d84d13ce","system_id":"levelo_inurba_marseille","lat":43.30143,"lon":5.39849,"is_reserved":false,"is_disabled":false,"rental_uris":{"android":"levelo://app?vid=f5336d72-b4de-4c38-8487-81c5d84d13ce","ios":"levelo://app?vid=f5336d72-b4de-4c38-8487-81c5d84d13ce"},"vehicle_type_id":"4","last_reported":1781557113,"current_range_meters":4000,"station_id":"ce4bh0h2rcd13ifvqd40","pricing_plan_id":"cebpf4jnsgd1na2vs0mg"},{"bike_id":"3691964e-3648-4971-92b3-26da4e2b9c7f","system_id":"levelo_inurba_marseille","lat":43.303128,"lon":5.369038,"is_reserved":false,"is_disabled":true,"rental_uris":{"android":"levelo://app?vid=3691964e-3648-4971-92b3-26da4e2b9c7f","ios":"levelo://app?vid=3691964e-3648-4971-92b3-26da4e2b9c7f"},"vehicle_type_id":"4","last_reported":1781557113,"current_range_meters":4000,"station_id":"ce4bhgh2rcd13ifvqfb0","pricing_plan_id":"cebpf4jnsgd1na2vs0mg"},{"bike_id":"bcc592cd-8d32-47c4-82b6-81b8c960be12","system_id":"levelo_inurba_marseille","lat":43.29179,"lon":5.38436,"is_reserved":false,"is_disabled":false,"rental_uris":{"android":"levelo://app?vid=bcc592cd-8d32-47c4-82b6-81b8c960be12","ios":"levelo://app?vid=bcc592cd-8d32-47c4-82b6-81b8c960be12"},"vehicle_type_id":"4","last_reported":1781557113,"current_range_meters":4000,"station_id":"","pricing_plan_id":"cebpf4jnsgd1na2vs0mg"},{"bike_id":"98695ad4-6e9c-48c8-97ad-b1bf5fc1e4ed","system_id":"levelo_inurba_marseille","lat":43.28343,"lon":5.38099,"is_reserved":false,"is_disabled":false,"rental_uris":{"android":"levelo://app?vid=98695ad4-6e9c-48c8-97ad-b1bf5fc1e4ed","ios":"levelo://app?vid=98695ad4-6e9c-48c8-97ad-b1bf5fc1e4ed"},"vehicle_type_id":"4","last_reported":1781557113,"current_range_meters":4000,"station_id":"ce4bh412rcd13ifvqdr0","pricing_plan_id":"cebpf4jnsgd1na2vs0mg"},{"bike_id":"ebd036cd-bd2f-4c4e-826e-4be714797cc6","system_id":"levelo_inurba_marseille","lat":43.29945,"lon":5.38184,"is_reserved":false,"is_disabled":false,"rental_uris":{"android":"levelo://app?vid=ebd036cd-bd2f-4c4e-826e-4be714797cc6","ios":"levelo://app?vid=ebd036cd-bd2f-4c4e-826e-4be714797cc6"},"vehicle_type_id":"4","last_reported":1781557113,"current_range_meters":4000,"station_id":"","pricing_plan_id":"cebpf4jnsgd1na2vs0mg"},{"bike_id":"b91d6662-0a66-49ec-a590-297e9143a80d","system_id":"levelo_inurba_marseille","lat":43.22536,"lon":5.3482,"is_reserved":false,"is_disabled":false,"rental_uris":{"android":"levelo://app?vid=b91d6662-0a66-49ec-a590-297e9143a80d","ios":"levelo://app?vid=b91d6662-0a66-49ec-a590-297e9143a80d"},"vehicle_type_id":"4","last_reported":1781557113,"current_range_meters":4000,"station_id":"st_cvj5dfep6f1abm77gieg","pricing_plan_id":"cebpf4jnsgd1na2vs0mg"},{"bike_id":"986e86c7-1e51-488d-b3ac-feaa183fcfce","system_id":"levelo_inurba_marseille","lat":43.27418,"lon":5.39417,"is_reserved":false,"is_disabled":true,"rental_uris":{"android":"levelo://app?vid=986e86c7-1e51-488d-b3ac-feaa183fcfce","ios":"levelo://app?vid=986e86c7-1e51-488d-b3ac-feaa183fcfce"},"vehicle_type_id":"4","last_reported":1781557113,"current_range_meters":4400,"station_id":"ce4bhdp2rcd13ifvqf20","pricing_plan_id":"cebpf4jnsgd1na2vs0mg"},{"bike_id":"ef86b5bc-17ca-4bbd-9d52-430c4c065219","system_id":"levelo_inurba_marseille","lat":43.29211,"lon":5.36041,"is_reserved":false,"is_disabled":true,"rental_uris":{"android":"levelo://app?vid=ef86b5bc-17ca-4bbd-9d52-430c4c065219","ios":"levelo://app?vid=ef86b5bc-17ca-4bbd-9d52-430c4c065219"},"vehicle_type_id":"4","last_reported":1781557113,"current_range_meters":4400,"station_id":"ce4bhbh2rcd13ifvqeqg","pricing_plan_id":"cebpf4jnsgd1na2vs0mg"},{"bike_id":"a28e6956-e022-4147-9962-459b79136125","system_id":"levelo_inurba_marseille","lat":43.30933,"lon":5.40165,"is_reserved":false,"is_disabled":false,"rental_uris":{"android":"levelo://app?vid=a28e6956-e022-4147-9962-459b79136125","ios":"levelo://app?vid=a28e6956-e022-4147-9962-459b79136125"},"vehicle_type_id":"4","last_reported":1781557113,"current_range_meters":4400,"station_id":"ce4bgvp2rcd13ifvqct0","pricing_plan_id":"cebpf4jnsgd1na2vs0mg"},{"bike_id":"dc505a28-c348-4ada-9142-8ce06bc669ff","system_id":"levelo_inurba_marseille","lat":43.32517,"lon":5.38345,"is_reserved":false,"is_disabled":false,"rental_uris":{"android":"levelo://app?vid=dc505a28-c348-4ada-9142-8ce06bc669ff","ios":"levelo://app?vid=dc505a28-c348-4ada-9142-8ce06bc669ff"},"vehicle_type_id":"4","last_reported":1781557113,"current_range_meters":4400,"station_id":"st_d4asgbiv49dc73anf9m0","pricing_plan_id":"cebpf4jnsgd1na2vs0mg"},{"bike_id":"7bf01284-ae2d-4fc1-93d5-57a19d595e6f","system_id":"levelo_inurba_marseille","lat":43.28698,"lon":5.37718,"is_reserved":false,"is_disabled":false,"rental_uris":{"android":"levelo://app?vid=7bf01284-ae2d-4fc1-93d5-57a19d595e6f","ios":"levelo://app?vid=7bf01284-ae2d-4fc1-93d5-57a19d595e6f"},"vehicle_type_id":"4","last_reported":1781557113,"current_range_meters":4400,"station_id":"","pricing_plan_id":"cebpf4jnsgd1na2vs0mg"},{"bike_id":"be0bcf81-7c87-40e8-b13c-1013cbc648f2","system_id":"levelo_inurba_marseille","lat":43.23874,"lon":5.36522,"is_reserved":false,"is_disabled":false,"rental_uris":{"android":"levelo://app?vid=be0bcf81-7c87-40e8-b13c-1013cbc648f2","ios":"levelo://app?vid=be0bcf81-7c87-40e8-b13c-1013cbc648f2"},"vehicle_type_id":"4","last_reported":1781557113,"current_range_meters":4400,"station_id":"","pricing_plan_id":"cebpf4jnsgd1na2vs0mg"},{"bike_id":"cae75da7-bd15-4504-9193-7345ede13f0e","system_id":"levelo_inurba_marseille","lat":43.30637,"lon":5.40075,"is_reserved":false,"is_disabled":false,"rental_uris":{"android":"levelo://app?vid=cae75da7-bd15-4504-9193-7345ede13f0e","ios":"levelo://app?vid=cae75da7-bd15-4504-9193-7345ede13f0e"},"vehicle_type_id":"4","last_reported":1781557113,"current_range_meters":4400,"station_id":"ce4bh112rcd13ifvqda0","pricing_plan_id":"cebpf4jnsgd1na2vs0mg"},{"bike_id":"5e858f68-786f-4790-ab63-6a92bb277cc5","system_id":"levelo_inurba_marseille","lat":43.29774,"lon":5.38544,"is_reserved":false,"is_disabled":false,"rental_uris":{"android":"levelo://app?vid=5e858f68-786f-4790-ab63-6a92bb277cc5","ios":"levelo://app?vid=5e858f68-786f-4790-ab63-6a92bb277cc5"},"vehicle_type_id":"4","last_reported":1781557113,"current_range_meters":4400,"station_id":"","pricing_plan_id":"cebpf4jnsgd1na2vs0mg"},{"bike_id":"90f18db5-e6ec-447e-9442-0ce4b09bbafa","system_id":"levelo_inurba_marseille","lat":43.24932,"lon":5.40494,"is_reserved":false,"is_disabled":false,"rental_uris":{"android":"levelo://app?vid=90f18db5-e6ec-447e-9442-0ce4b09bbafa","ios":"levelo://app?vid=90f18db5-e6ec-447e-9442-0ce4b09bbafa"},"vehicle_type_id":"4","last_reported":1781557113,"current_range_meters":4400,"station_id":"st_d2ngiaodas8pm72gd1h0","pricing_plan_id":"cebpf4jnsgd1na2vs0mg"},{"bike_id":"6002aeb0-9176-4abb-9c6f-fb2ecf2448ba","system_id":"levelo_inurba_marseille","lat":43.28696,"lon":5.39971,"is_reserved":false,"is_disabled":false,"rental_uris":{"android":"levelo://app?vid=6002aeb0-9176-4abb-9c6f-fb2ecf2448ba","ios":"levelo://app?vid=6002aeb0-9176-4abb-9c6f-fb2ecf2448ba"},"vehicle_type_id":"4","last_reported":1781557113,"current_range_meters":4400,"station_id":"ce4bho92rcd13ifvqh3g","pricing_plan_id":"cebpf4jnsgd1na2vs0mg"},{"bike_id":"50277989-ff79-4125-a50a-4bb5c3490c46","system_id":"levelo_inurba_marseille","lat":43.24086,"lon":5.37742,"is_reserved":false,"is_disabled":false,"rental_uris":{"android":"levelo://app?vid=50277989-ff79-4125-a50a-4bb5c3490c46","ios":"levelo://app?vid=50277989-ff79-4125-a50a-4bb5c3490c46"},"vehicle_type_id":"4","last_reported":1781557113,"current_range_meters":4800,"station_id":"ce4bhnp2rcd13ifvqgvg","pricing_plan_id":"cebpf4jnsgd1na2vs0mg"},{"bike_id":"d1c0a72b-9e58-450e-a278-9f401ce00415","system_id":"levelo_inurba_marseille","lat":43.29251,"lon":5.38416,"is_reserved":false,"is_disabled":false,"rental_uris":{"android":"levelo://app?vid=d1c0a72b-9e58-450e-a278-9f401ce00415","ios":"levelo://app?vid=d1c0a72b-9e58-450e-a278-9f401ce00415"},"vehicle_type_id":"4","last_reported":1781557113,"current_range_meters":4800,"station_id":"ce4bh692rcd13ifvqea0","pricing_plan_id":"cebpf4jnsgd1na2vs0mg"},{"bike_id":"b1ad9593-2667-4868-a8d2-457603a295c9","system_id":"levelo_inurba_marseille","lat":43.33598,"lon":5.41006,"is_reserved":false,"is_disabled":false,"rental_uris":{"android":"levelo://app?vid=b1ad9593-2667-4868-a8d2-457603a295c9","ios":"levelo://app?vid=b1ad9593-2667-4868-a8d2-457603a295c9"},"vehicle_type_id":"4","last_reported":1781557113,"current_range_meters":4800,"station_id":"ce4bhqh2rcd13ifvqhmg","pricing_plan_id":"cebpf4jnsgd1na2vs0mg"},{"bike_id":"8d527d67-39ec-431a-b352-cfd1060053ee","system_id":"levelo_inurba_marseille","lat":43.29525,"lon":5.39393,"is_reserved":false,"is_disabled":false,"rental_uris":{"android":"levelo://app?vid=8d527d67-39ec-431a-b352-cfd1060053ee","ios":"levelo://app?vid=8d527d67-39ec-431a-b352-cfd1060053ee"},"vehicle_type_id":"4","last_reported":1781557113,"current_range_meters":4800,"station_id":"ce4bh292rcd13ifvqdf0","pricing_plan_id":"cebpf4jnsgd1na2vs0mg"},{"bike_id":"29258cd9-84bc-4f65-9ad6-004ed0fe1172","system_id":"levelo_inurba_marseille","lat":43.30139,"lon":5.37429,"is_reserved":false,"is_disabled":true,"rental_uris":{"android":"levelo://app?vid=29258cd9-84bc-4f65-9ad6-004ed0fe1172","ios":"levelo://app?vid=29258cd9-84bc-4f65-9ad6-004ed0fe1172"},"vehicle_type_id":"4","last_reported":1781557113,"current_range_meters":4800,"station_id":"ce4bgs92rcd13ifvqcc0","pricing_plan_id":"cebpf4jnsgd1na2vs0mg"},{"bike_id":"394ba36d-dff5-465f-90dd-996257f36cf9","system_id":"levelo_inurba_marseille","lat":43.24261,"lon":5.36782,"is_reserved":false,"is_disabled":false,"rental_uris":{"android":"levelo://app?vid=394ba36d-dff5-465f-90dd-996257f36cf9","ios":"levelo://app?vid=394ba36d-dff5-465f-90dd-996257f36cf9"},"vehicle_type_id":"4","last_reported":1781557113,"current_range_meters":4800,"station_id":"","pricing_plan_id":"cebpf4jnsgd1na2vs0mg"},{"bike_id":"a856eee9-da31-448e-8592-eebd5455e1a4","system_id":"levelo_inurba_marseille","lat":43.289361,"lon":5.366537,"is_reserved":false,"is_disabled":false,"rental_uris":{"android":"levelo://app?vid=a856eee9-da31-448e-8592-eebd5455e1a4","ios":"levelo://app?vid=a856eee9-da31-448e-8592-eebd5455e1a4"},"vehicle_type_id":"4","last_reported":1781557113,"current_range_meters":4800,"station_id":"ce4bhap2rcd13ifvqek0","pricing_plan_id":"cebpf4jnsgd1na2vs0mg"},{"bike_id":"ec5ad897-3551-4438-b159-2a43879a9a6e","system_id":"levelo_inurba_marseille","lat":43.30297,"lon":5.39214,"is_reserved":false,"is_disabled":false,"rental_uris":{"android":"levelo://app?vid=ec5ad897-3551-4438-b159-2a43879a9a6e","ios":"levelo://app?vid=ec5ad897-3551-4438-b159-2a43879a9a6e"},"vehicle_type_id":"4","last_reported":1781557113,"current_range_meters":4800,"station_id":"","pricing_plan_id":"cebpf4jnsgd1na2vs0mg"},{"bike_id":"582bfd9e-b481-4966-bfc7-104af45d1650","system_id":"levelo_inurba_marseille","lat":43.29515,"lon":5.42324,"is_reserved":false,"is_disabled":false,"rental_uris":{"android":"levelo://app?vid=582bfd9e-b481-4966-bfc7-104af45d1650","ios":"levelo://app?vid=582bfd9e-b481-4966-bfc7-104af45d1650"},"vehicle_type_id":"4","last_reported":1781557113,"current_range_meters":4800,"station_id":"ce4bhph2rcd13ifvqhdg","pricing_plan_id":"cebpf4jnsgd1na2vs0mg"},{"bike_id":"51a1b461-fdd4-4a9a-91e4-715b7104b9ba","system_id":"levelo_inurba_marseille","lat":43.29276,"lon":5.38422,"is_reserved":false,"is_disabled":false,"rental_uris":{"android":"levelo://app?vid=51a1b461-fdd4-4a9a-91e4-715b7104b9ba","ios":"levelo://app?vid=51a1b461-fdd4-4a9a-91e4-715b7104b9ba"},"vehicle_type_id":"4","last_reported":1781557113,"current_range_meters":4800,"station_id":"ce4bh692rcd13ifvqea0","pricing_plan_id":"cebpf4jnsgd1na2vs0mg"},{"bike_id":"6f18b215-a1e3-4ba5-9f79-478bfd4b0ffd","system_id":"levelo_inurba_marseille","lat":43.28843,"lon":5.39329,"is_reserved":false,"is_disabled":false,"rental_uris":{"android":"levelo://app?vid=6f18b215-a1e3-4ba5-9f79-478bfd4b0ffd","ios":"levelo://app?vid=6f18b215-a1e3-4ba5-9f79-478bfd4b0ffd"},"vehicle_type_id":"4","last_reported":1781557113,"current_range_meters":4800,"station_id":"ce4bh2p2rcd13ifvqdi0","pricing_plan_id":"cebpf4jnsgd1na2vs0mg"},{"bike_id":"1d8fed04-50e3-4b20-96b5-854faf490ffa","system_id":"levelo_inurba_marseille","lat":43.25821,"lon":5.3945,"is_reserved":false,"is_disabled":false,"rental_uris":{"android":"levelo://app?vid=1d8fed04-50e3-4b20-96b5-854faf490ffa","ios":"levelo://app?vid=1d8fed04-50e3-4b20-96b5-854faf490ffa"},"vehicle_type_id":"4","last_reported":1781557113,"current_range_meters":4800,"station_id":"ce4bhip2rcd13ifvqft0","pricing_plan_id":"cebpf4jnsgd1na2vs0mg"},{"bike_id":"de52e8d5-24fa-4a2f-8d67-1742b0f998a8","system_id":"levelo_inurba_marseille","lat":43.31494,"lon":5.373,"is_reserved":false,"is_disabled":false,"rental_uris":{"android":"levelo://app?vid=de52e8d5-24fa-4a2f-8d67-1742b0f998a8","ios":"levelo://app?vid=de52e8d5-24fa-4a2f-8d67-1742b0f998a8"},"vehicle_type_id":"4","last_reported":1781557113,"current_range_meters":4800,"station_id":"ce4bgt12rcd13ifvqcd0","pricing_plan_id":"cebpf4jnsgd1na2vs0mg"},{"bike_id":"164702a3-49aa-4593-b71d-eeb61e48df72","system_id":"levelo_inurba_marseille","lat":43.25077,"lon":5.39516,"is_reserved":false,"is_disabled":false,"rental_uris":{"android":"levelo://app?vid=164702a3-49aa-4593-b71d-eeb61e48df72","ios":"levelo://app?vid=164702a3-49aa-4593-b71d-eeb61e48df72"},"vehicle_type_id":"4","last_reported":1781557113,"current_range_meters":4800,"station_id":"ce4bhm12rcd13ifvqgkg","pricing_plan_id":"cebpf4jnsgd1na2vs0mg"},{"bike_id":"bdf7241d-eaa7-411f-bce2-5a943e7462a1","system_id":"levelo_inurba_marseille","lat":43.29546,"lon":5.42291,"is_reserved":false,"is_disabled":false,"rental_uris":{"android":"levelo://app?vid=bdf7241d-eaa7-411f-bce2-5a943e7462a1","ios":"levelo://app?vid=bdf7241d-eaa7-411f-bce2-5a943e7462a1"},"vehicle_type_id":"4","last_reported":1781557113,"current_range_meters":4800,"station_id":"ce4bhph2rcd13ifvqhdg","pricing_plan_id":"cebpf4jnsgd1na2vs0mg"},{"bike_id":"66d15697-4a3b-4820-8cad-de8417cecf23","system_id":"levelo_inurba_marseille","lat":43.24354,"lon":5.36937,"is_reserved":false,"is_disabled":false,"rental_uris":{"android":"levelo://app?vid=66d15697-4a3b-4820-8cad-de8417cecf23","ios":"levelo://app?vid=66d15697-4a3b-4820-8cad-de8417cecf23"},"vehicle_type_id":"4","last_reported":1781557113,"current_range_meters":4800,"station_id":"","pricing_plan_id":"cebpf4jnsgd1na2vs0mg"},{"bike_id":"a542e842-9335-4f0c-9562-29b6d4fb28b7","system_id":"levelo_inurba_marseille","lat":43.28496,"lon":5.38562,"is_reserved":false,"is_disabled":false,"rental_uris":{"android":"levelo://app?vid=a542e842-9335-4f0c-9562-29b6d4fb28b7","ios":"levelo://app?vid=a542e842-9335-4f0c-9562-29b6d4fb28b7"},"vehicle_type_id":"4","last_reported":1781557113,"current_range_meters":4800,"station_id":"ce4bh8p2rcd13ifvqeb0","pricing_plan_id":"cebpf4jnsgd1na2vs0mg"},{"bike_id":"2ac64a2b-bf35-45fd-9774-c4baa9d2faea","system_id":"levelo_inurba_marseille","lat":43.25127,"lon":5.40292,"is_reserved":false,"is_disabled":false,"rental_uris":{"android":"levelo://app?vid=2ac64a2b-bf35-45fd-9774-c4baa9d2faea","ios":"levelo://app?vid=2ac64a2b-bf35-45fd-9774-c4baa9d2faea"},"vehicle_type_id":"4","last_reported":1781557113,"current_range_meters":4800,"station_id":"ce4bhlh2rcd13ifvqgig","pricing_plan_id":"cebpf4jnsgd1na2vs0mg"},{"bike_id":"38400fea-6981-482e-9cc2-d1ddb8b1eaee","system_id":"levelo_inurba_marseille","lat":43.27721,"lon":5.39574,"is_reserved":false,"is_disabled":false,"rental_uris":{"android":"levelo://app?vid=38400fea-6981-482e-9cc2-d1ddb8b1eaee","ios":"levelo://app?vid=38400fea-6981-482e-9cc2-d1ddb8b1eaee"},"vehicle_type_id":"4","last_reported":1781557113,"current_range_meters":5600,"station_id":"","pricing_plan_id":"cebpf4jnsgd1na2vs0mg"},{"bike_id":"0a907abf-6471-47e0-a198-2ee303631410","system_id":"levelo_inurba_marseille","lat":43.32353,"lon":5.36753,"is_reserved":false,"is_disabled":false,"rental_uris":{"android":"levelo://app?vid=0a907abf-6471-47e0-a198-2ee303631410","ios":"levelo://app?vid=0a907abf-6471-47e0-a198-2ee303631410"},"vehicle_type_id":"4","last_reported":1781557113,"current_range_meters":5600,"station_id":"ce4bhsh2rcd13ifvqi2g","pricing_plan_id":"cebpf4jnsgd1na2vs0mg"},{"bike_id":"9ef46ebe-4caa-4560-88df-cc3b97945b3d","system_id":"levelo_inurba_marseille","lat":43.25504,"lon":5.37636,"is_reserved":false,"is_disabled":false,"rental_uris":{"android":"levelo://app?vid=9ef46ebe-4caa-4560-88df-cc3b97945b3d","ios":"levelo://app?vid=9ef46ebe-4caa-4560-88df-cc3b97945b3d"},"vehicle_type_id":"4","last_reported":1781557113,"current_range_meters":5600,"station_id":"ce4bhh12rcd13ifvqff0","pricing_plan_id":"cebpf4jnsgd1na2vs0mg"},{"bike_id":"95560c20-31c8-4255-8012-3ef021fae0e8","system_id":"levelo_inurba_marseille","lat":43.30844,"lon":5.38284,"is_reserved":false,"is_disabled":false,"rental_uris":{"android":"levelo://app?vid=95560c20-31c8-4255-8012-3ef021fae0e8","ios":"levelo://app?vid=95560c20-31c8-4255-8012-3ef021fae0e8"},"vehicle_type_id":"4","last_reported":1781557113,"current_range_meters":5600,"station_id":"","pricing_plan_id":"cebpf4jnsgd1na2vs0mg"},{"bike_id":"1d126009-870b-4861-8b9a-102729be1fb4","system_id":"levelo_inurba_marseille","lat":43.2927,"lon":5.38221,"is_reserved":false,"is_disabled":false,"rental_uris":{"android":"levelo://app?vid=1d126009-870b-4861-8b9a-102729be1fb4","ios":"levelo://app?vid=1d126009-870b-4861-8b9a-102729be1fb4"},"vehicle_type_id":"4","last_reported":1781557113,"current_range_meters":5600,"station_id":"","pricing_plan_id":"cebpf4jnsgd1na2vs0mg"},{"bike_id":"0921ee89-85d1-4627-9f58-333fdff1e512","system_id":"levelo_inurba_marseille","lat":43.27065,"lon":5.42287,"is_reserved":false,"is_disabled":false,"rental_uris":{"android":"levelo://app?vid=0921ee89-85d1-4627-9f58-333fdff1e512","ios":"levelo://app?vid=0921ee89-85d1-4627-9f58-333fdff1e512"},"vehicle_type_id":"4","last_reported":1781557113,"current_range_meters":5600,"station_id":"ce4bhk92rcd13ifvqgb0","pricing_plan_id":"cebpf4jnsgd1na2vs0mg"},{"bike_id":"78b416f6-2cc7-42b3-8f02-acc3e98679a9","system_id":"levelo_inurba_marseille","lat":43.255167,"lon":5.37651,"is_reserved":false,"is_disabled":false,"rental_uris":{"android":"levelo://app?vid=78b416f6-2cc7-42b3-8f02-acc3e98679a9","ios":"levelo://app?vid=78b416f6-2cc7-42b3-8f02-acc3e98679a9"},"vehicle_type_id":"4","last_reported":1781557113,"current_range_meters":5600,"station_id":"ce4bhh12rcd13ifvqff0","pricing_plan_id":"cebpf4jnsgd1na2vs0mg"},{"bike_id":"1f9dfe01-f65f-4140-a34d-5d726562bab6","system_id":"levelo_inurba_marseille","lat":43.29695,"lon":5.36629,"is_reserved":false,"is_disabled":true,"rental_uris":{"android":"levelo://app?vid=1f9dfe01-f65f-4140-a34d-5d726562bab6","ios":"levelo://app?vid=1f9dfe01-f65f-4140-a34d-5d726562bab6"},"vehicle_type_id":"4","last_reported":1781557113,"current_range_meters":5600,"station_id":"ce4bgn12rcd13ifvqbt0","pricing_plan_id":"cebpf4jnsgd1na2vs0mg"},{"bike_id":"14254520-9236-44a2-aa01-2bb54306c4ce","system_id":"levelo_inurba_marseille","lat":43.294,"lon":5.37837,"is_reserved":false,"is_disabled":true,"rental_uris":{"android":"levelo://app?vid=14254520-9236-44a2-aa01-2bb54306c4ce","ios":"levelo://app?vid=14254520-9236-44a2-aa01-2bb54306c4ce"},"vehicle_type_id":"4","last_reported":1781557113,"current_range_meters":5600,"station_id":"ce4bgjh2rcd13ifvqbf0","pricing_plan_id":"cebpf4jnsgd1na2vs0mg"},{"bike_id":"6f284f7a-7fd0-4562-a573-728988b78caa","system_id":"levelo_inurba_marseille","lat":43.28366,"lon":5.38615,"is_reserved":false,"is_disabled":false,"rental_uris":{"android":"levelo://app?vid=6f284f7a-7fd0-4562-a573-728988b78caa","ios":"levelo://app?vid=6f284f7a-7fd0-4562-a573-728988b78caa"},"vehicle_type_id":"4","last_reported":1781557113,"current_range_meters":5600,"station_id":"ce4bh492rcd13ifvqdvg","pricing_plan_id":"cebpf4jnsgd1na2vs0mg"},{"bike_id":"93a22268-9b15-427f-85db-047fcc621e30","system_id":"levelo_inurba_marseille","lat":43.225344,"lon":5.348326,"is_reserved":false,"is_disabled":false,"rental_uris":{"android":"levelo://app?vid=93a22268-9b15-427f-85db-047fcc621e30","ios":"levelo://app?vid=93a22268-9b15-427f-85db-047fcc621e30"},"vehicle_type_id":"4","last_reported":1781557113,"current_range_meters":5600,"station_id":"st_cvj5dfep6f1abm77gieg","pricing_plan_id":"cebpf4jnsgd1na2vs0mg"},{"bike_id":"dd78ad4c-cc40-4199-b427-f1b647efde62","system_id":"levelo_inurba_marseille","lat":43.31246,"lon":5.38475,"is_reserved":false,"is_disabled":false,"rental_uris":{"android":"levelo://app?vid=dd78ad4c-cc40-4199-b427-f1b647efde62","ios":"levelo://app?vid=dd78ad4c-cc40-4199-b427-f1b647efde62"},"vehicle_type_id":"4","last_reported":1781557113,"current_range_meters":5600,"station_id":"","pricing_plan_id":"cebpf4jnsgd1na2vs0mg"},{"bike_id":"d366add0-4ec6-4a5b-a6a7-122d7800cd04","system_id":"levelo_inurba_marseille","lat":43.31109,"lon":5.37771,"is_reserved":false,"is_disabled":false,"rental_uris":{"android":"levelo://app?vid=d366add0-4ec6-4a5b-a6a7-122d7800cd04","ios":"levelo://app?vid=d366add0-4ec6-4a5b-a6a7-122d7800cd04"},"vehicle_type_id":"4","last_reported":1781557113,"current_range_meters":5600,"station_id":"ce4bgt92rcd13ifvqcg0","pricing_plan_id":"cebpf4jnsgd1na2vs0mg"},{"bike_id":"bc7b542a-e491-42f7-a7cc-343fe14b5ab0","system_id":"levelo_inurba_marseille","lat":43.29283,"lon":5.37997,"is_reserved":false,"is_disabled":false,"rental_uris":{"android":"levelo://app?vid=bc7b542a-e491-42f7-a7cc-343fe14b5ab0","ios":"levelo://app?vid=bc7b542a-e491-42f7-a7cc-343fe14b5ab0"},"vehicle_type_id":"4","last_reported":1781557113,"current_range_meters":5600,"station_id":"","pricing_plan_id":"cebpf4jnsgd1na2vs0mg"},{"bike_id":"4c652cfb-e10c-411d-bfb2-16dd6a2642e8","system_id":"levelo_inurba_marseille","lat":43.26551,"lon":5.37285,"is_reserved":false,"is_disabled":false,"rental_uris":{"android":"levelo://app?vid=4c652cfb-e10c-411d-bfb2-16dd6a2642e8","ios":"levelo://app?vid=4c652cfb-e10c-411d-bfb2-16dd6a2642e8"},"vehicle_type_id":"4","last_reported":1781557113,"current_range_meters":5600,"station_id":"ce4bhg12rcd13ifvqf70","pricing_plan_id":"cebpf4jnsgd1na2vs0mg"},{"bike_id":"5dfd1c10-a9cc-473e-bf47-93aaa8d8a10f","system_id":"levelo_inurba_marseille","lat":43.29117,"lon":5.38084,"is_reserved":false,"is_disabled":false,"rental_uris":{"android":"levelo://app?vid=5dfd1c10-a9cc-473e-bf47-93aaa8d8a10f","ios":"levelo://app?vid=5dfd1c10-a9cc-473e-bf47-93aaa8d8a10f"},"vehicle_type_id":"4","last_reported":1781557113,"current_range_meters":6000,"station_id":"ce4bh512rcd13ifvqe2g","pricing_plan_id":"cebpf4jnsgd1na2vs0mg"},{"bike_id":"f4c07fe7-8e11-4754-ab0b-ee351fd4629e","system_id":"levelo_inurba_marseille","lat":43.32493,"lon":5.38284,"is_reserved":false,"is_disabled":false,"rental_uris":{"android":"levelo://app?vid=f4c07fe7-8e11-4754-ab0b-ee351fd4629e","ios":"levelo://app?vid=f4c07fe7-8e11-4754-ab0b-ee351fd4629e"},"vehicle_type_id":"4","last_reported":1781557113,"current_range_meters":6000,"station_id":"st_d4asgbiv49dc73anf9m0","pricing_plan_id":"cebpf4jnsgd1na2vs0mg"},{"bike_id":"7409280b-9863-4876-81bf-89df5dea8eca","system_id":"levelo_inurba_marseille","lat":43.290192,"lon":5.38129,"is_reserved":false,"is_disabled":false,"rental_uris":{"android":"levelo://app?vid=7409280b-9863-4876-81bf-89df5dea8eca","ios":"levelo://app?vid=7409280b-9863-4876-81bf-89df5dea8eca"},"vehicle_type_id":"4","last_reported":1781557113,"current_range_meters":6000,"station_id":"ce4bh4p2rcd13ifvqe1g","pricing_plan_id":"cebpf4jnsgd1na2vs0mg"},{"bike_id":"6f303f6e-3721-485c-b238-57b82af9ca7c","system_id":"levelo_inurba_marseille","lat":43.28605,"lon":5.39873,"is_reserved":false,"is_disabled":false,"rental_uris":{"android":"levelo://app?vid=6f303f6e-3721-485c-b238-57b82af9ca7c","ios":"levelo://app?vid=6f303f6e-3721-485c-b238-57b82af9ca7c"},"vehicle_type_id":"4","last_reported":1781557113,"current_range_meters":6000,"station_id":"st_d4a7ka997mjs738ck50g","pricing_plan_id":"cebpf4jnsgd1na2vs0mg"},{"bike_id":"9cd02543-05e7-4f8d-ae5b-d64755361de9","system_id":"levelo_inurba_marseille","lat":43.31502,"lon":5.37294,"is_reserved":false,"is_disabled":false,"rental_uris":{"android":"levelo://app?vid=9cd02543-05e7-4f8d-ae5b-d64755361de9","ios":"levelo://app?vid=9cd02543-05e7-4f8d-ae5b-d64755361de9"},"vehicle_type_id":"4","last_reported":1781557113,"current_range_meters":6000,"station_id":"ce4bgt12rcd13ifvqcd0","pricing_plan_id":"cebpf4jnsgd1na2vs0mg"},{"bike_id":"4e488ecc-0213-4c14-bec9-f0ca04efdc0e","system_id":"levelo_inurba_marseille","lat":43.33124,"lon":5.37952,"is_reserved":false,"is_disabled":false,"rental_uris":{"android":"levelo://app?vid=4e488ecc-0213-4c14-bec9-f0ca04efdc0e","ios":"levelo://app?vid=4e488ecc-0213-4c14-bec9-f0ca04efdc0e"},"vehicle_type_id":"4","last_reported":1781557113,"current_range_meters":6000,"station_id":"","pricing_plan_id":"cebpf4jnsgd1na2vs0mg"},{"bike_id":"33947881-3faf-4dcd-a440-61e5a68477c3","system_id":"levelo_inurba_marseille","lat":43.24462,"lon":5.42552,"is_reserved":false,"is_disabled":true,"rental_uris":{"android":"levelo://app?vid=33947881-3faf-4dcd-a440-61e5a68477c3","ios":"levelo://app?vid=33947881-3faf-4dcd-a440-61e5a68477c3"},"vehicle_type_id":"4","last_reported":1781557113,"current_range_meters":6000,"station_id":"st_d4a3vfp97mjs738cd8kg","pricing_plan_id":"cebpf4jnsgd1na2vs0mg"},{"bike_id":"5faece23-1f7b-42ac-870e-bafa086109a1","system_id":"levelo_inurba_marseille","lat":43.21748,"lon":5.34593,"is_reserved":false,"is_disabled":true,"rental_uris":{"android":"levelo://app?vid=5faece23-1f7b-42ac-870e-bafa086109a1","ios":"levelo://app?vid=5faece23-1f7b-42ac-870e-bafa086109a1"},"vehicle_type_id":"4","last_reported":1781557113,"current_range_meters":6000,"station_id":"st_cvj6r9ubvosntc0bgbag","pricing_plan_id":"cebpf4jnsgd1na2vs0mg"},{"bike_id":"0e3998c7-21de-405d-bf2a-8a4a111e39bc","system_id":"levelo_inurba_marseille","lat":43.23171,"lon":5.35574,"is_reserved":false,"is_disabled":false,"rental_uris":{"android":"levelo://app?vid=0e3998c7-21de-405d-bf2a-8a4a111e39bc","ios":"levelo://app?vid=0e3998c7-21de-405d-bf2a-8a4a111e39bc"},"vehicle_type_id":"4","last_reported":1781557113,"current_range_meters":6000,"station_id":"ce4bhu92rcd13ifvqi70","pricing_plan_id":"cebpf4jnsgd1na2vs0mg"},{"bike_id":"dbcdde7f-6cf3-4774-8465-eb6041efba56","system_id":"levelo_inurba_marseille","lat":43.23962,"lon":5.36623,"is_reserved":false,"is_disabled":false,"rental_uris":{"android":"levelo://app?vid=dbcdde7f-6cf3-4774-8465-eb6041efba56","ios":"levelo://app?vid=dbcdde7f-6cf3-4774-8465-eb6041efba56"},"vehicle_type_id":"4","last_reported":1781557113,"current_range_meters":6000,"station_id":"ce4bhi12rcd13ifvqfp0","pricing_plan_id":"cebpf4jnsgd1na2vs0mg"},{"bike_id":"c5bfd777-f92e-4f6a-8b98-bf09b82a1db7","system_id":"levelo_inurba_marseille","lat":43.24674,"lon":5.38169,"is_reserved":false,"is_disabled":false,"rental_uris":{"android":"levelo://app?vid=c5bfd777-f92e-4f6a-8b98-bf09b82a1db7","ios":"levelo://app?vid=c5bfd777-f92e-4f6a-8b98-bf09b82a1db7"},"vehicle_type_id":"4","last_reported":1781557113,"current_range_meters":6000,"station_id":"ce4bhih2rcd13ifvqfr0","pricing_plan_id":"cebpf4jnsgd1na2vs0mg"},{"bike_id":"d0af0dcb-7c10-43b6-9484-cae48c2c00d8","system_id":"levelo_inurba_marseille","lat":43.29525,"lon":5.38549,"is_reserved":false,"is_disabled":false,"rental_uris":{"android":"levelo://app?vid=d0af0dcb-7c10-43b6-9484-cae48c2c00d8","ios":"levelo://app?vid=d0af0dcb-7c10-43b6-9484-cae48c2c00d8"},"vehicle_type_id":"4","last_reported":1781557113,"current_range_meters":6000,"station_id":"ce4bgih2rcd13ifvqba0","pricing_plan_id":"cebpf4jnsgd1na2vs0mg"},{"bike_id":"8d4bd21a-a2d8-4f62-a742-e0240fd63232","system_id":"levelo_inurba_marseille","lat":43.27967,"lon":5.38695,"is_reserved":false,"is_disabled":true,"rental_uris":{"android":"levelo://app?vid=8d4bd21a-a2d8-4f62-a742-e0240fd63232","ios":"levelo://app?vid=8d4bd21a-a2d8-4f62-a742-e0240fd63232"},"vehicle_type_id":"4","last_reported":1781557113,"current_range_meters":6000,"station_id":"ce4bhg12rcd13ifvqf80","pricing_plan_id":"cebpf4jnsgd1na2vs0mg"},{"bike_id":"d1366603-8371-4c81-b737-8dd7fe52a8c0","system_id":"levelo_inurba_marseille","lat":43.286994,"lon":5.399851,"is_reserved":false,"is_disabled":false,"rental_uris":{"android":"levelo://app?vid=d1366603-8371-4c81-b737-8dd7fe52a8c0","ios":"levelo://app?vid=d1366603-8371-4c81-b737-8dd7fe52a8c0"},"vehicle_type_id":"4","last_reported":1781557113,"current_range_meters":6000,"station_id":"ce4bho92rcd13ifvqh3g","pricing_plan_id":"cebpf4jnsgd1na2vs0mg"},{"bike_id":"bbaa52ac-4ab8-4a05-9887-9ffe0c573710","system_id":"levelo_inurba_marseille","lat":43.289795,"lon":5.378328,"is_reserved":false,"is_disabled":false,"rental_uris":{"android":"levelo://app?vid=bbaa52ac-4ab8-4a05-9887-9ffe0c573710","ios":"levelo://app?vid=bbaa52ac-4ab8-4a05-9887-9ffe0c573710"},"vehicle_type_id":"4","last_reported":1781557113,"current_range_meters":6000,"station_id":"ce4bh9p2rcd13ifvqed0","pricing_plan_id":"cebpf4jnsgd1na2vs0mg"},{"bike_id":"14ba164d-b07b-4a27-ba9b-3fd95cdcf132","system_id":"levelo_inurba_marseille","lat":43.26787,"lon":5.39416,"is_reserved":false,"is_disabled":false,"rental_uris":{"android":"levelo://app?vid=14ba164d-b07b-4a27-ba9b-3fd95cdcf132","ios":"levelo://app?vid=14ba164d-b07b-4a27-ba9b-3fd95cdcf132"},"vehicle_type_id":"4","last_reported":1781557113,"current_range_meters":6000,"station_id":"ce4bhh12rcd13ifvqfg0","pricing_plan_id":"cebpf4jnsgd1na2vs0mg"},{"bike_id":"94b5c0df-5ff6-4c4b-a2ff-ca5510254a2b","system_id":"levelo_inurba_marseille","lat":43.23187,"lon":5.3998,"is_reserved":false,"is_disabled":false,"rental_uris":{"android":"levelo://app?vid=94b5c0df-5ff6-4c4b-a2ff-ca5510254a2b","ios":"levelo://app?vid=94b5c0df-5ff6-4c4b-a2ff-ca5510254a2b"},"vehicle_type_id":"4","last_reported":1781557113,"current_range_meters":6000,"station_id":"ce4bhn12rcd13ifvqgqg","pricing_plan_id":"cebpf4jnsgd1na2vs0mg"},{"bike_id":"3b9aabcc-c79e-4c2e-be83-8f2befddf810","system_id":"levelo_inurba_marseille","lat":43.31698,"lon":5.37762,"is_reserved":false,"is_disabled":false,"rental_uris":{"android":"levelo://app?vid=3b9aabcc-c79e-4c2e-be83-8f2befddf810","ios":"levelo://app?vid=3b9aabcc-c79e-4c2e-be83-8f2befddf810"},"vehicle_type_id":"4","last_reported":1781557113,"current_range_meters":6000,"station_id":"ce4bgth2rcd13ifvqch0","pricing_plan_id":"cebpf4jnsgd1na2vs0mg"},{"bike_id":"cb4f712a-04a6-4462-a5fe-25e8489da6b6","system_id":"levelo_inurba_marseille","lat":43.28606,"lon":5.39903,"is_reserved":false,"is_disabled":true,"rental_uris":{"android":"levelo://app?vid=cb4f712a-04a6-4462-a5fe-25e8489da6b6","ios":"levelo://app?vid=cb4f712a-04a6-4462-a5fe-25e8489da6b6"},"vehicle_type_id":"4","last_reported":1781557113,"current_range_meters":6000,"station_id":"ce4bho92rcd13ifvqh3g","pricing_plan_id":"cebpf4jnsgd1na2vs0mg"},{"bike_id":"aa44f56b-7cf4-434a-85fa-52bb7b1fcb57","system_id":"levelo_inurba_marseille","lat":43.23385,"lon":5.43567,"is_reserved":false,"is_disabled":false,"rental_uris":{"android":"levelo://app?vid=aa44f56b-7cf4-434a-85fa-52bb7b1fcb57","ios":"levelo://app?vid=aa44f56b-7cf4-434a-85fa-52bb7b1fcb57"},"vehicle_type_id":"4","last_reported":1781557113,"current_range_meters":6000,"station_id":"","pricing_plan_id":"cebpf4jnsgd1na2vs0mg"},{"bike_id":"96f00021-48a6-4f3d-9b5a-dd8dd216db64","system_id":"levelo_inurba_marseille","lat":43.32184,"lon":5.44076,"is_reserved":false,"is_disabled":false,"rental_uris":{"android":"levelo://app?vid=96f00021-48a6-4f3d-9b5a-dd8dd216db64","ios":"levelo://app?vid=96f00021-48a6-4f3d-9b5a-dd8dd216db64"},"vehicle_type_id":"4","last_reported":1781557113,"current_range_meters":6000,"station_id":"","pricing_plan_id":"cebpf4jnsgd1na2vs0mg"},{"bike_id":"435e1eb4-56ef-4163-b94b-1cfd32c1e3e4","system_id":"levelo_inurba_marseille","lat":43.28152,"lon":5.42638,"is_reserved":false,"is_disabled":false,"rental_uris":{"android":"levelo://app?vid=435e1eb4-56ef-4163-b94b-1cfd32c1e3e4","ios":"levelo://app?vid=435e1eb4-56ef-4163-b94b-1cfd32c1e3e4"},"vehicle_type_id":"4","last_reported":1781557113,"current_range_meters":6000,"station_id":"ce4bhnh2rcd13ifvqgug","pricing_plan_id":"cebpf4jnsgd1na2vs0mg"},{"bike_id":"4d200994-303e-4b74-ae8a-0d84f1f23dad","system_id":"levelo_inurba_marseille","lat":43.26512,"lon":5.3949,"is_reserved":false,"is_disabled":false,"rental_uris":{"android":"levelo://app?vid=4d200994-303e-4b74-ae8a-0d84f1f23dad","ios":"levelo://app?vid=4d200994-303e-4b74-ae8a-0d84f1f23dad"},"vehicle_type_id":"4","last_reported":1781557113,"current_range_meters":6000,"station_id":"ce4bhi12rcd13ifvqfq0","pricing_plan_id":"cebpf4jnsgd1na2vs0mg"},{"bike_id":"348915f4-96a6-4635-98f0-d3fb29f565b8","system_id":"levelo_inurba_marseille","lat":43.27615,"lon":5.3611,"is_reserved":false,"is_disabled":false,"rental_uris":{"android":"levelo://app?vid=348915f4-96a6-4635-98f0-d3fb29f565b8","ios":"levelo://app?vid=348915f4-96a6-4635-98f0-d3fb29f565b8"},"vehicle_type_id":"4","last_reported":1781557113,"current_range_meters":6000,"station_id":"ce4bgj92rcd13ifvqbe0","pricing_plan_id":"cebpf4jnsgd1na2vs0mg"},{"bike_id":"d44550bd-9a0e-4c9c-9f0a-a44d44d30d6f","system_id":"levelo_inurba_marseille","lat":43.29472,"lon":5.39175,"is_reserved":false,"is_disabled":false,"rental_uris":{"android":"levelo://app?vid=d44550bd-9a0e-4c9c-9f0a-a44d44d30d6f","ios":"levelo://app?vid=d44550bd-9a0e-4c9c-9f0a-a44d44d30d6f"},"vehicle_type_id":"4","last_reported":1781557113,"current_range_meters":6000,"station_id":"","pricing_plan_id":"cebpf4jnsgd1na2vs0mg"},{"bike_id":"6ce83518-f7a6-4ac2-8d1a-cda4ad18cd7a","system_id":"levelo_inurba_marseille","lat":43.24808,"lon":5.37455,"is_reserved":false,"is_disabled":false,"rental_uris":{"android":"levelo://app?vid=6ce83518-f7a6-4ac2-8d1a-cda4ad18cd7a","ios":"levelo://app?vid=6ce83518-f7a6-4ac2-8d1a-cda4ad18cd7a"},"vehicle_type_id":"4","last_reported":1781557113,"current_range_meters":6400,"station_id":"ce4bhgh2rcd13ifvqfb0","pricing_plan_id":"cebpf4jnsgd1na2vs0mg"},{"bike_id":"6f69ed97-1cf4-4e02-b94e-7a3d1ad57f00","system_id":"levelo_inurba_marseille","lat":43.25397,"lon":5.42777,"is_reserved":false,"is_disabled":false,"rental_uris":{"android":"levelo://app?vid=6f69ed97-1cf4-4e02-b94e-7a3d1ad57f00","ios":"levelo://app?vid=6f69ed97-1cf4-4e02-b94e-7a3d1ad57f00"},"vehicle_type_id":"4","last_reported":1781557113,"current_range_meters":6400,"station_id":"","pricing_plan_id":"cebpf4jnsgd1na2vs0mg"},{"bike_id":"16b6aacc-e179-44cb-b6a5-3f4532d226f6","system_id":"levelo_inurba_marseille","lat":43.337533,"lon":5.374474,"is_reserved":false,"is_disabled":false,"rental_uris":{"android":"levelo://app?vid=16b6aacc-e179-44cb-b6a5-3f4532d226f6","ios":"levelo://app?vid=16b6aacc-e179-44cb-b6a5-3f4532d226f6"},"vehicle_type_id":"4","last_reported":1781557113,"current_range_meters":6400,"station_id":"","pricing_plan_id":"cebpf4jnsgd1na2vs0mg"},{"bike_id":"7577409e-5682-4baf-9ef7-a00dcc1107ea","system_id":"levelo_inurba_marseille","lat":43.29308,"lon":5.3718,"is_reserved":false,"is_disabled":false,"rental_uris":{"android":"levelo://app?vid=7577409e-5682-4baf-9ef7-a00dcc1107ea","ios":"levelo://app?vid=7577409e-5682-4baf-9ef7-a00dcc1107ea"},"vehicle_type_id":"4","last_reported":1781557113,"current_range_meters":6400,"station_id":"ce4bgh92rcd13ifvqb40","pricing_plan_id":"cebpf4jnsgd1na2vs0mg"},{"bike_id":"a1280248-64e9-46f5-ba79-34b1f1884f72","system_id":"levelo_inurba_marseille","lat":43.28651,"lon":5.36354,"is_reserved":false,"is_disabled":false,"rental_uris":{"android":"levelo://app?vid=a1280248-64e9-46f5-ba79-34b1f1884f72","ios":"levelo://app?vid=a1280248-64e9-46f5-ba79-34b1f1884f72"},"vehicle_type_id":"4","last_reported":1781557113,"current_range_meters":6400,"station_id":"ce4bhah2rcd13ifvqej0","pricing_plan_id":"cebpf4jnsgd1na2vs0mg"},{"bike_id":"71989aa6-cb3f-4c9c-a095-a038e6abdab7","system_id":"levelo_inurba_marseille","lat":43.27998,"lon":5.41667,"is_reserved":false,"is_disabled":false,"rental_uris":{"android":"levelo://app?vid=71989aa6-cb3f-4c9c-a095-a038e6abdab7","ios":"levelo://app?vid=71989aa6-cb3f-4c9c-a095-a038e6abdab7"},"vehicle_type_id":"4","last_reported":1781557113,"current_range_meters":6400,"station_id":"ce4bho12rcd13ifvqh1g","pricing_plan_id":"cebpf4jnsgd1na2vs0mg"},{"bike_id":"0e69c16f-3be9-4d4c-9a55-708c5e07f4f8","system_id":"levelo_inurba_marseille","lat":43.30126,"lon":5.43092,"is_reserved":false,"is_disabled":false,"rental_uris":{"android":"levelo://app?vid=0e69c16f-3be9-4d4c-9a55-708c5e07f4f8","ios":"levelo://app?vid=0e69c16f-3be9-4d4c-9a55-708c5e07f4f8"},"vehicle_type_id":"4","last_reported":1781557113,"current_range_meters":6400,"station_id":"st_d3js3co5814s73ftftug","pricing_plan_id":"cebpf4jnsgd1na2vs0mg"},{"bike_id":"0ad9ba8e-759f-40fb-94a1-7f63100f3fc1","system_id":"levelo_inurba_marseille","lat":43.30197,"lon":5.41781,"is_reserved":false,"is_disabled":false,"rental_uris":{"android":"levelo://app?vid=0ad9ba8e-759f-40fb-94a1-7f63100f3fc1","ios":"levelo://app?vid=0ad9ba8e-759f-40fb-94a1-7f63100f3fc1"},"vehicle_type_id":"4","last_reported":1781557113,"current_range_meters":6400,"station_id":"","pricing_plan_id":"cebpf4jnsgd1na2vs0mg"},{"bike_id":"1d1598d5-6739-4d58-b566-67c66ac3e5d4","system_id":"levelo_inurba_marseille","lat":43.23049,"lon":5.35489,"is_reserved":false,"is_disabled":true,"rental_uris":{"android":"levelo://app?vid=1d1598d5-6739-4d58-b566-67c66ac3e5d4","ios":"levelo://app?vid=1d1598d5-6739-4d58-b566-67c66ac3e5d4"},"vehicle_type_id":"4","last_reported":1781557113,"current_range_meters":6400,"station_id":"cpo3342slgdg3j2ifvpg","pricing_plan_id":"cebpf4jnsgd1na2vs0mg"},{"bike_id":"6f706d0b-4d41-4913-bdf0-7fc9fa95e41f","system_id":"levelo_inurba_marseille","lat":43.2804,"lon":5.35333,"is_reserved":false,"is_disabled":true,"rental_uris":{"android":"levelo://app?vid=6f706d0b-4d41-4913-bdf0-7fc9fa95e41f","ios":"levelo://app?vid=6f706d0b-4d41-4913-bdf0-7fc9fa95e41f"},"vehicle_type_id":"4","last_reported":1781557113,"current_range_meters":6400,"station_id":"","pricing_plan_id":"cebpf4jnsgd1na2vs0mg"},{"bike_id":"6c488a01-7648-4c39-9a57-b0a3eef6d817","system_id":"levelo_inurba_marseille","lat":43.29301,"lon":5.37455,"is_reserved":false,"is_disabled":false,"rental_uris":{"android":"levelo://app?vid=6c488a01-7648-4c39-9a57-b0a3eef6d817","ios":"levelo://app?vid=6c488a01-7648-4c39-9a57-b0a3eef6d817"},"vehicle_type_id":"4","last_reported":1781557113,"current_range_meters":6400,"station_id":"ce4bgi12rcd13ifvqb70","pricing_plan_id":"cebpf4jnsgd1na2vs0mg"},{"bike_id":"b4a2837c-38cc-4135-9e58-1c50c096dd43","system_id":"levelo_inurba_marseille","lat":43.23203,"lon":5.35553,"is_reserved":false,"is_disabled":false,"rental_uris":{"android":"levelo://app?vid=b4a2837c-38cc-4135-9e58-1c50c096dd43","ios":"levelo://app?vid=b4a2837c-38cc-4135-9e58-1c50c096dd43"},"vehicle_type_id":"4","last_reported":1781557113,"current_range_meters":6400,"station_id":"ce4bhu92rcd13ifvqi70","pricing_plan_id":"cebpf4jnsgd1na2vs0mg"},{"bike_id":"ff979e94-ddcd-47f1-9768-52d937a94930","system_id":"levelo_inurba_marseille","lat":43.2446,"lon":5.4398,"is_reserved":false,"is_disabled":false,"rental_uris":{"android":"levelo://app?vid=ff979e94-ddcd-47f1-9768-52d937a94930","ios":"levelo://app?vid=ff979e94-ddcd-47f1-9768-52d937a94930"},"vehicle_type_id":"4","last_reported":1781557113,"current_range_meters":6400,"station_id":"","pricing_plan_id":"cebpf4jnsgd1na2vs0mg"},{"bike_id":"4937996e-641c-4e43-b780-ddfea4268335","system_id":"levelo_inurba_marseille","lat":43.28691,"lon":5.46908,"is_reserved":false,"is_disabled":false,"rental_uris":{"android":"levelo://app?vid=4937996e-641c-4e43-b780-ddfea4268335","ios":"levelo://app?vid=4937996e-641c-4e43-b780-ddfea4268335"},"vehicle_type_id":"4","last_reported":1781557113,"current_range_meters":6400,"station_id":"","pricing_plan_id":"cebpf4jnsgd1na2vs0mg"},{"bike_id":"169065fb-7f05-41fa-8c93-ec8260f41a9f","system_id":"levelo_inurba_marseille","lat":43.29551,"lon":5.42293,"is_reserved":false,"is_disabled":false,"rental_uris":{"android":"levelo://app?vid=169065fb-7f05-41fa-8c93-ec8260f41a9f","ios":"levelo://app?vid=169065fb-7f05-41fa-8c93-ec8260f41a9f"},"vehicle_type_id":"4","last_reported":1781557113,"current_range_meters":6400,"station_id":"ce4bhph2rcd13ifvqhdg","pricing_plan_id":"cebpf4jnsgd1na2vs0mg"},{"bike_id":"636f9c4d-9ddc-4b27-8ffb-bb463b23068c","system_id":"levelo_inurba_marseille","lat":43.29869,"lon":5.39758,"is_reserved":false,"is_disabled":false,"rental_uris":{"android":"levelo://app?vid=636f9c4d-9ddc-4b27-8ffb-bb463b23068c","ios":"levelo://app?vid=636f9c4d-9ddc-4b27-8ffb-bb463b23068c"},"vehicle_type_id":"4","last_reported":1781557113,"current_range_meters":6400,"station_id":"ce4bh0h2rcd13ifvqd50","pricing_plan_id":"cebpf4jnsgd1na2vs0mg"},{"bike_id":"1daafa66-7367-42a5-a7f0-9dcaf5ca98d1","system_id":"levelo_inurba_marseille","lat":43.28394,"lon":5.45961,"is_reserved":false,"is_disabled":false,"rental_uris":{"android":"levelo://app?vid=1daafa66-7367-42a5-a7f0-9dcaf5ca98d1","ios":"levelo://app?vid=1daafa66-7367-42a5-a7f0-9dcaf5ca98d1"},"vehicle_type_id":"4","last_reported":1781557113,"current_range_meters":6400,"station_id":"","pricing_plan_id":"cebpf4jnsgd1na2vs0mg"},{"bike_id":"f191b986-6f93-4d6a-a073-402112f528c9","system_id":"levelo_inurba_marseille","lat":43.24466,"lon":5.42528,"is_reserved":false,"is_disabled":false,"rental_uris":{"android":"levelo://app?vid=f191b986-6f93-4d6a-a073-402112f528c9","ios":"levelo://app?vid=f191b986-6f93-4d6a-a073-402112f528c9"},"vehicle_type_id":"4","last_reported":1781557113,"current_range_meters":6400,"station_id":"st_d4a3vfp97mjs738cd8kg","pricing_plan_id":"cebpf4jnsgd1na2vs0mg"},{"bike_id":"208e99f0-0528-4bb6-a39c-9165c6674d6b","system_id":"levelo_inurba_marseille","lat":43.27492,"lon":5.4244,"is_reserved":false,"is_disabled":false,"rental_uris":{"android":"levelo://app?vid=208e99f0-0528-4bb6-a39c-9165c6674d6b","ios":"levelo://app?vid=208e99f0-0528-4bb6-a39c-9165c6674d6b"},"vehicle_type_id":"4","last_reported":1781557113,"current_range_meters":6400,"station_id":"ce4bhn92rcd13ifvqgrg","pricing_plan_id":"cebpf4jnsgd1na2vs0mg"},{"bike_id":"b6b6560c-3f0b-425f-9656-5376ac90536e","system_id":"levelo_inurba_marseille","lat":43.29591,"lon":5.38103,"is_reserved":false,"is_disabled":true,"rental_uris":{"android":"levelo://app?vid=b6b6560c-3f0b-425f-9656-5376ac90536e","ios":"levelo://app?vid=b6b6560c-3f0b-425f-9656-5376ac90536e"},"vehicle_type_id":"4","last_reported":1781557113,"current_range_meters":6400,"station_id":"ce4bgl12rcd13ifvqbo0","pricing_plan_id":"cebpf4jnsgd1na2vs0mg"},{"bike_id":"52e4704f-4922-4e9f-8a12-9ed9e49ffd90","system_id":"levelo_inurba_marseille","lat":43.2884,"lon":5.39321,"is_reserved":false,"is_disabled":true,"rental_uris":{"android":"levelo://app?vid=52e4704f-4922-4e9f-8a12-9ed9e49ffd90","ios":"levelo://app?vid=52e4704f-4922-4e9f-8a12-9ed9e49ffd90"},"vehicle_type_id":"4","last_reported":1781557113,"current_range_meters":6400,"station_id":"ce4bh2p2rcd13ifvqdi0","pricing_plan_id":"cebpf4jnsgd1na2vs0mg"},{"bike_id":"354cee51-6788-4418-9f35-f6c0936561a7","system_id":"levelo_inurba_marseille","lat":43.26559,"lon":5.39027,"is_reserved":false,"is_disabled":false,"rental_uris":{"android":"levelo://app?vid=354cee51-6788-4418-9f35-f6c0936561a7","ios":"levelo://app?vid=354cee51-6788-4418-9f35-f6c0936561a7"},"vehicle_type_id":"4","last_reported":1781557113,"current_range_meters":6800,"station_id":"ce4bhe12rcd13ifvqf30","pricing_plan_id":"cebpf4jnsgd1na2vs0mg"},{"bike_id":"a297e512-b640-47cd-80c9-544285e648f5","system_id":"levelo_inurba_marseille","lat":43.30802,"lon":5.38155,"is_reserved":false,"is_disabled":false,"rental_uris":{"android":"levelo://app?vid=a297e512-b640-47cd-80c9-544285e648f5","ios":"levelo://app?vid=a297e512-b640-47cd-80c9-544285e648f5"},"vehicle_type_id":"4","last_reported":1781557113,"current_range_meters":6800,"station_id":"","pricing_plan_id":"cebpf4jnsgd1na2vs0mg"},{"bike_id":"edf6b1ed-8d23-4602-be1c-52d37e1c11ee","system_id":"levelo_inurba_marseille","lat":43.23966,"lon":5.36632,"is_reserved":false,"is_disabled":false,"rental_uris":{"android":"levelo://app?vid=edf6b1ed-8d23-4602-be1c-52d37e1c11ee","ios":"levelo://app?vid=edf6b1ed-8d23-4602-be1c-52d37e1c11ee"},"vehicle_type_id":"4","last_reported":1781557113,"current_range_meters":6800,"station_id":"ce4bhi12rcd13ifvqfp0","pricing_plan_id":"cebpf4jnsgd1na2vs0mg"},{"bike_id":"be373205-c46b-426d-b5d7-15e3224dfb15","system_id":"levelo_inurba_marseille","lat":43.28129,"lon":5.37804,"is_reserved":false,"is_disabled":false,"rental_uris":{"android":"levelo://app?vid=be373205-c46b-426d-b5d7-15e3224dfb15","ios":"levelo://app?vid=be373205-c46b-426d-b5d7-15e3224dfb15"},"vehicle_type_id":"4","last_reported":1781557113,"current_range_meters":6800,"station_id":"ce4bha12rcd13ifvqee0","pricing_plan_id":"cebpf4jnsgd1na2vs0mg"},{"bike_id":"58bc47c9-9dfb-402f-b32f-9fa887c6c8f0","system_id":"levelo_inurba_marseille","lat":43.28476,"lon":5.48397,"is_reserved":false,"is_disabled":false,"rental_uris":{"android":"levelo://app?vid=58bc47c9-9dfb-402f-b32f-9fa887c6c8f0","ios":"levelo://app?vid=58bc47c9-9dfb-402f-b32f-9fa887c6c8f0"},"vehicle_type_id":"4","last_reported":1781557113,"current_range_meters":6800,"station_id":"st_d3svhcjqgbts73a3dn0g","pricing_plan_id":"cebpf4jnsgd1na2vs0mg"},{"bike_id":"ce374fa0-7d7d-4e7c-82b9-0686fef0e3fd","system_id":"levelo_inurba_marseille","lat":43.29565,"lon":5.39972,"is_reserved":false,"is_disabled":false,"rental_uris":{"android":"levelo://app?vid=ce374fa0-7d7d-4e7c-82b9-0686fef0e3fd","ios":"levelo://app?vid=ce374fa0-7d7d-4e7c-82b9-0686fef0e3fd"},"vehicle_type_id":"4","last_reported":1781557113,"current_range_meters":6800,"station_id":"ce4bh312rcd13ifvqdj0","pricing_plan_id":"cebpf4jnsgd1na2vs0mg"},{"bike_id":"b0f61888-4c52-48c3-a53f-67fc360bb68a","system_id":"levelo_inurba_marseille","lat":43.28659,"lon":5.36367,"is_reserved":false,"is_disabled":false,"rental_uris":{"android":"levelo://app?vid=b0f61888-4c52-48c3-a53f-67fc360bb68a","ios":"levelo://app?vid=b0f61888-4c52-48c3-a53f-67fc360bb68a"},"vehicle_type_id":"4","last_reported":1781557113,"current_range_meters":6800,"station_id":"ce4bhah2rcd13ifvqej0","pricing_plan_id":"cebpf4jnsgd1na2vs0mg"},{"bike_id":"dd61809a-0af7-4dbd-8185-2b45a4d20671","system_id":"levelo_inurba_marseille","lat":43.27811,"lon":5.39201,"is_reserved":false,"is_disabled":false,"rental_uris":{"android":"levelo://app?vid=dd61809a-0af7-4dbd-8185-2b45a4d20671","ios":"levelo://app?vid=dd61809a-0af7-4dbd-8185-2b45a4d20671"},"vehicle_type_id":"4","last_reported":1781557113,"current_range_meters":6800,"station_id":"ce4bhjp2rcd13ifvqga0","pricing_plan_id":"cebpf4jnsgd1na2vs0mg"},{"bike_id":"ff2d1b26-9aac-4f34-b415-b72e532caa26","system_id":"levelo_inurba_marseille","lat":43.2902,"lon":5.38633,"is_reserved":false,"is_disabled":false,"rental_uris":{"android":"levelo://app?vid=ff2d1b26-9aac-4f34-b415-b72e532caa26","ios":"levelo://app?vid=ff2d1b26-9aac-4f34-b415-b72e532caa26"},"vehicle_type_id":"4","last_reported":1781557113,"current_range_meters":6800,"station_id":"ce4bh4p2rcd13ifvqe0g","pricing_plan_id":"cebpf4jnsgd1na2vs0mg"},{"bike_id":"64f3aede-32d6-4ab9-96c8-d7be8f086e32","system_id":"levelo_inurba_marseille","lat":43.29575,"lon":5.37493,"is_reserved":false,"is_disabled":false,"rental_uris":{"android":"levelo://app?vid=64f3aede-32d6-4ab9-96c8-d7be8f086e32","ios":"levelo://app?vid=64f3aede-32d6-4ab9-96c8-d7be8f086e32"},"vehicle_type_id":"4","last_reported":1781557113,"current_range_meters":6800,"station_id":"ce4bgh92rcd13ifvqb50","pricing_plan_id":"cebpf4jnsgd1na2vs0mg"},{"bike_id":"ff350727-8e8f-4827-a8a0-c7578b976cb2","system_id":"levelo_inurba_marseille","lat":43.28923,"lon":5.39626,"is_reserved":false,"is_disabled":false,"rental_uris":{"android":"levelo://app?vid=ff350727-8e8f-4827-a8a0-c7578b976cb2","ios":"levelo://app?vid=ff350727-8e8f-4827-a8a0-c7578b976cb2"},"vehicle_type_id":"4","last_reported":1781557113,"current_range_meters":6800,"station_id":"ce4bh3h2rcd13ifvqdn0","pricing_plan_id":"cebpf4jnsgd1na2vs0mg"},{"bike_id":"11429138-5e0e-4152-b3df-21b909c46e9f","system_id":"levelo_inurba_marseille","lat":43.28613,"lon":5.37052,"is_reserved":false,"is_disabled":false,"rental_uris":{"android":"levelo://app?vid=11429138-5e0e-4152-b3df-21b909c46e9f","ios":"levelo://app?vid=11429138-5e0e-4152-b3df-21b909c46e9f"},"vehicle_type_id":"4","last_reported":1781557113,"current_range_meters":6800,"station_id":"ce4bht12rcd13ifvqi60","pricing_plan_id":"cebpf4jnsgd1na2vs0mg"},{"bike_id":"7d20eb56-c528-4c1b-8cab-c5fd1c59cff9","system_id":"levelo_inurba_marseille","lat":43.31666,"lon":5.405,"is_reserved":false,"is_disabled":false,"rental_uris":{"android":"levelo://app?vid=7d20eb56-c528-4c1b-8cab-c5fd1c59cff9","ios":"levelo://app?vid=7d20eb56-c528-4c1b-8cab-c5fd1c59cff9"},"vehicle_type_id":"4","last_reported":1781557113,"current_range_meters":6800,"station_id":"ce4bh012rcd13ifvqd00","pricing_plan_id":"cebpf4jnsgd1na2vs0mg"},{"bike_id":"00439db5-0581-4019-8fdd-6e9083c60935","system_id":"levelo_inurba_marseille","lat":43.2304,"lon":5.355,"is_reserved":false,"is_disabled":false,"rental_uris":{"android":"levelo://app?vid=00439db5-0581-4019-8fdd-6e9083c60935","ios":"levelo://app?vid=00439db5-0581-4019-8fdd-6e9083c60935"},"vehicle_type_id":"4","last_reported":1781557113,"current_range_meters":6800,"station_id":"cpo3342slgdg3j2ifvpg","pricing_plan_id":"cebpf4jnsgd1na2vs0mg"},{"bike_id":"4b0f32fb-a87d-4749-ac69-c87adfec6445","system_id":"levelo_inurba_marseille","lat":43.27961,"lon":5.38749,"is_reserved":false,"is_disabled":false,"rental_uris":{"android":"levelo://app?vid=4b0f32fb-a87d-4749-ac69-c87adfec6445","ios":"levelo://app?vid=4b0f32fb-a87d-4749-ac69-c87adfec6445"},"vehicle_type_id":"4","last_reported":1781557113,"current_range_meters":6800,"station_id":"ce4bhg12rcd13ifvqf80","pricing_plan_id":"cebpf4jnsgd1na2vs0mg"},{"bike_id":"5970562c-43ae-4476-932f-5727763a4403","system_id":"levelo_inurba_marseille","lat":43.30883,"lon":5.39623,"is_reserved":false,"is_disabled":false,"rental_uris":{"android":"levelo://app?vid=5970562c-43ae-4476-932f-5727763a4403","ios":"levelo://app?vid=5970562c-43ae-4476-932f-5727763a4403"},"vehicle_type_id":"4","last_reported":1781557113,"current_range_meters":6800,"station_id":"ce4bh012rcd13ifvqcv0","pricing_plan_id":"cebpf4jnsgd1na2vs0mg"},{"bike_id":"72a740ab-b2b5-41e7-8204-c8640817e7c1","system_id":"levelo_inurba_marseille","lat":43.28941,"lon":5.36398,"is_reserved":false,"is_disabled":false,"rental_uris":{"android":"levelo://app?vid=72a740ab-b2b5-41e7-8204-c8640817e7c1","ios":"levelo://app?vid=72a740ab-b2b5-41e7-8204-c8640817e7c1"},"vehicle_type_id":"4","last_reported":1781557113,"current_range_meters":6800,"station_id":"ce4bhc92rcd13ifvqetg","pricing_plan_id":"cebpf4jnsgd1na2vs0mg"},{"bike_id":"cb2bf84e-842f-40e6-a8f7-7e1b8e872a22","system_id":"levelo_inurba_marseille","lat":43.31215,"lon":5.36815,"is_reserved":false,"is_disabled":true,"rental_uris":{"android":"levelo://app?vid=cb2bf84e-842f-40e6-a8f7-7e1b8e872a22","ios":"levelo://app?vid=cb2bf84e-842f-40e6-a8f7-7e1b8e872a22"},"vehicle_type_id":"4","last_reported":1781557113,"current_range_meters":6800,"station_id":"ce4bgl92rcd13ifvqbq0","pricing_plan_id":"cebpf4jnsgd1na2vs0mg"},{"bike_id":"393054bb-ce8e-4e6b-bd96-67db6a583036","system_id":"levelo_inurba_marseille","lat":43.24935,"lon":5.40518,"is_reserved":false,"is_disabled":false,"rental_uris":{"android":"levelo://app?vid=393054bb-ce8e-4e6b-bd96-67db6a583036","ios":"levelo://app?vid=393054bb-ce8e-4e6b-bd96-67db6a583036"},"vehicle_type_id":"4","last_reported":1781557113,"current_range_meters":6800,"station_id":"st_d2ngiaodas8pm72gd1h0","pricing_plan_id":"cebpf4jnsgd1na2vs0mg"},{"bike_id":"d8a1c8b5-346e-448d-a92c-e83c6d07739a","system_id":"levelo_inurba_marseille","lat":43.28474,"lon":5.35883,"is_reserved":false,"is_disabled":false,"rental_uris":{"android":"levelo://app?vid=d8a1c8b5-346e-448d-a92c-e83c6d07739a","ios":"levelo://app?vid=d8a1c8b5-346e-448d-a92c-e83c6d07739a"},"vehicle_type_id":"4","last_reported":1781557113,"current_range_meters":6800,"station_id":"ce4bhah2rcd13ifvqei0","pricing_plan_id":"cebpf4jnsgd1na2vs0mg"},{"bike_id":"df6eb863-c034-404d-8bcd-725f8bef43ee","system_id":"levelo_inurba_marseille","lat":43.22561,"lon":5.4162,"is_reserved":false,"is_disabled":false,"rental_uris":{"android":"levelo://app?vid=df6eb863-c034-404d-8bcd-725f8bef43ee","ios":"levelo://app?vid=df6eb863-c034-404d-8bcd-725f8bef43ee"},"vehicle_type_id":"4","last_reported":1781557113,"current_range_meters":7200,"station_id":"st_d2o4gvlbi1j2169b742g","pricing_plan_id":"cebpf4jnsgd1na2vs0mg"},{"bike_id":"8613be29-51f8-487e-b118-b9e0e4e532fd","system_id":"levelo_inurba_marseille","lat":43.29531,"lon":5.39414,"is_reserved":false,"is_disabled":false,"rental_uris":{"android":"levelo://app?vid=8613be29-51f8-487e-b118-b9e0e4e532fd","ios":"levelo://app?vid=8613be29-51f8-487e-b118-b9e0e4e532fd"},"vehicle_type_id":"4","last_reported":1781557113,"current_range_meters":7200,"station_id":"ce4bh292rcd13ifvqdf0","pricing_plan_id":"cebpf4jnsgd1na2vs0mg"},{"bike_id":"f4657516-8d81-4be2-9122-39c4c97eadab","system_id":"levelo_inurba_marseille","lat":43.27606,"lon":5.36124,"is_reserved":false,"is_disabled":false,"rental_uris":{"android":"levelo://app?vid=f4657516-8d81-4be2-9122-39c4c97eadab","ios":"levelo://app?vid=f4657516-8d81-4be2-9122-39c4c97eadab"},"vehicle_type_id":"4","last_reported":1781557113,"current_range_meters":7200,"station_id":"ce4bgj92rcd13ifvqbe0","pricing_plan_id":"cebpf4jnsgd1na2vs0mg"},{"bike_id":"c828816c-66d4-4f7b-b2ca-bb770f1f213c","system_id":"levelo_inurba_marseille","lat":43.26475,"lon":5.39559,"is_reserved":false,"is_disabled":false,"rental_uris":{"android":"levelo://app?vid=c828816c-66d4-4f7b-b2ca-bb770f1f213c","ios":"levelo://app?vid=c828816c-66d4-4f7b-b2ca-bb770f1f213c"},"vehicle_type_id":"4","last_reported":1781557113,"current_range_meters":7200,"station_id":"ce4bhi12rcd13ifvqfq0","pricing_plan_id":"cebpf4jnsgd1na2vs0mg"},{"bike_id":"7d5a6322-5e71-4b4e-9ced-84536f8173b1","system_id":"levelo_inurba_marseille","lat":43.31683,"lon":5.40464,"is_reserved":false,"is_disabled":false,"rental_uris":{"android":"levelo://app?vid=7d5a6322-5e71-4b4e-9ced-84536f8173b1","ios":"levelo://app?vid=7d5a6322-5e71-4b4e-9ced-84536f8173b1"},"vehicle_type_id":"4","last_reported":1781557113,"current_range_meters":7200,"station_id":"ce4bh012rcd13ifvqd00","pricing_plan_id":"cebpf4jnsgd1na2vs0mg"},{"bike_id":"104c5c16-248a-4228-8343-b9e3c203c3a0","system_id":"levelo_inurba_marseille","lat":43.29522,"lon":5.38543,"is_reserved":false,"is_disabled":false,"rental_uris":{"android":"levelo://app?vid=104c5c16-248a-4228-8343-b9e3c203c3a0","ios":"levelo://app?vid=104c5c16-248a-4228-8343-b9e3c203c3a0"},"vehicle_type_id":"4","last_reported":1781557113,"current_range_meters":7200,"station_id":"ce4bgih2rcd13ifvqba0","pricing_plan_id":"cebpf4jnsgd1na2vs0mg"},{"bike_id":"c92279a2-4e70-48dc-8ba0-cde248ddac46","system_id":"levelo_inurba_marseille","lat":43.24389,"lon":5.3705,"is_reserved":false,"is_disabled":false,"rental_uris":{"android":"levelo://app?vid=c92279a2-4e70-48dc-8ba0-cde248ddac46","ios":"levelo://app?vid=c92279a2-4e70-48dc-8ba0-cde248ddac46"},"vehicle_type_id":"4","last_reported":1781557113,"current_range_meters":7200,"station_id":"ce4bhhh2rcd13ifvqfk0","pricing_plan_id":"cebpf4jnsgd1na2vs0mg"},{"bike_id":"139a2fec-0986-4951-9a4f-b13e1caf7f37","system_id":"levelo_inurba_marseille","lat":43.24706,"lon":5.39494,"is_reserved":false,"is_disabled":false,"rental_uris":{"android":"levelo://app?vid=139a2fec-0986-4951-9a4f-b13e1caf7f37","ios":"levelo://app?vid=139a2fec-0986-4951-9a4f-b13e1caf7f37"},"vehicle_type_id":"4","last_reported":1781557113,"current_range_meters":7200,"station_id":"","pricing_plan_id":"cebpf4jnsgd1na2vs0mg"},{"bike_id":"6fa55c76-8d8c-4826-a774-1e0ab00b3a41","system_id":"levelo_inurba_marseille","lat":43.27185,"lon":5.39222,"is_reserved":false,"is_disabled":true,"rental_uris":{"android":"levelo://app?vid=6fa55c76-8d8c-4826-a774-1e0ab00b3a41","ios":"levelo://app?vid=6fa55c76-8d8c-4826-a774-1e0ab00b3a41"},"vehicle_type_id":"4","last_reported":1781557113,"current_range_meters":7200,"station_id":"ce4bhhp2rcd13ifvqfm0","pricing_plan_id":"cebpf4jnsgd1na2vs0mg"},{"bike_id":"702253cd-4dc2-45dc-a3f2-c0b357c642d0","system_id":"levelo_inurba_marseille","lat":43.28442,"lon":5.37188,"is_reserved":false,"is_disabled":true,"rental_uris":{"android":"levelo://app?vid=702253cd-4dc2-45dc-a3f2-c0b357c642d0","ios":"levelo://app?vid=702253cd-4dc2-45dc-a3f2-c0b357c642d0"},"vehicle_type_id":"4","last_reported":1781557113,"current_range_meters":7200,"station_id":"","pricing_plan_id":"cebpf4jnsgd1na2vs0mg"},{"bike_id":"18e29a0b-6002-46c7-82c4-f72ee4ff1eb8","system_id":"levelo_inurba_marseille","lat":43.25079,"lon":5.39521,"is_reserved":false,"is_disabled":false,"rental_uris":{"android":"levelo://app?vid=18e29a0b-6002-46c7-82c4-f72ee4ff1eb8","ios":"levelo://app?vid=18e29a0b-6002-46c7-82c4-f72ee4ff1eb8"},"vehicle_type_id":"4","last_reported":1781557113,"current_range_meters":7200,"station_id":"ce4bhm12rcd13ifvqgkg","pricing_plan_id":"cebpf4jnsgd1na2vs0mg"},{"bike_id":"33abdfd0-528e-472a-9ce3-5c21f3d1fa82","system_id":"levelo_inurba_marseille","lat":43.28824,"lon":5.35262,"is_reserved":false,"is_disabled":false,"rental_uris":{"android":"levelo://app?vid=33abdfd0-528e-472a-9ce3-5c21f3d1fa82","ios":"levelo://app?vid=33abdfd0-528e-472a-9ce3-5c21f3d1fa82"},"vehicle_type_id":"4","last_reported":1781557113,"current_range_meters":7200,"station_id":"","pricing_plan_id":"cebpf4jnsgd1na2vs0mg"},{"bike_id":"17453acf-ff89-4286-ba88-58207237f627","system_id":"levelo_inurba_marseille","lat":43.22564,"lon":5.41624,"is_reserved":false,"is_disabled":false,"rental_uris":{"android":"levelo://app?vid=17453acf-ff89-4286-ba88-58207237f627","ios":"levelo://app?vid=17453acf-ff89-4286-ba88-58207237f627"},"vehicle_type_id":"4","last_reported":1781557113,"current_range_meters":7200,"station_id":"st_d2o4gvlbi1j2169b742g","pricing_plan_id":"cebpf4jnsgd1na2vs0mg"},{"bike_id":"2a7491c3-a00e-4128-9ada-8e1861453082","system_id":"levelo_inurba_marseille","lat":43.28926,"lon":5.36447,"is_reserved":false,"is_disabled":true,"rental_uris":{"android":"levelo://app?vid=2a7491c3-a00e-4128-9ada-8e1861453082","ios":"levelo://app?vid=2a7491c3-a00e-4128-9ada-8e1861453082"},"vehicle_type_id":"4","last_reported":1781557113,"current_range_meters":7200,"station_id":"","pricing_plan_id":"cebpf4jnsgd1na2vs0mg"},{"bike_id":"0f3c0e77-8181-4c67-a083-0e29a54d8f42","system_id":"levelo_inurba_marseille","lat":43.29181,"lon":5.39323,"is_reserved":false,"is_disabled":true,"rental_uris":{"android":"levelo://app?vid=0f3c0e77-8181-4c67-a083-0e29a54d8f42","ios":"levelo://app?vid=0f3c0e77-8181-4c67-a083-0e29a54d8f42"},"vehicle_type_id":"4","last_reported":1781557113,"current_range_meters":7200,"station_id":"ce4bh192rcd13ifvqdd0","pricing_plan_id":"cebpf4jnsgd1na2vs0mg"},{"bike_id":"e7e15d7e-524e-436c-9f8d-ebc0bb94b952","system_id":"levelo_inurba_marseille","lat":43.2957,"lon":5.37499,"is_reserved":false,"is_disabled":true,"rental_uris":{"android":"levelo://app?vid=e7e15d7e-524e-436c-9f8d-ebc0bb94b952","ios":"levelo://app?vid=e7e15d7e-524e-436c-9f8d-ebc0bb94b952"},"vehicle_type_id":"4","last_reported":1781557113,"current_range_meters":7200,"station_id":"ce4bgh92rcd13ifvqb50","pricing_plan_id":"cebpf4jnsgd1na2vs0mg"},{"bike_id":"a181d944-ba3c-4811-bfea-126ff7ecfae5","system_id":"levelo_inurba_marseille","lat":43.29521,"lon":5.394,"is_reserved":false,"is_disabled":false,"rental_uris":{"android":"levelo://app?vid=a181d944-ba3c-4811-bfea-126ff7ecfae5","ios":"levelo://app?vid=a181d944-ba3c-4811-bfea-126ff7ecfae5"},"vehicle_type_id":"4","last_reported":1781557113,"current_range_meters":7200,"station_id":"ce4bh292rcd13ifvqdf0","pricing_plan_id":"cebpf4jnsgd1na2vs0mg"},{"bike_id":"4668c0f9-0a78-478d-b86b-64a1f9fdd49d","system_id":"levelo_inurba_marseille","lat":43.26508,"lon":5.40715,"is_reserved":false,"is_disabled":false,"rental_uris":{"android":"levelo://app?vid=4668c0f9-0a78-478d-b86b-64a1f9fdd49d","ios":"levelo://app?vid=4668c0f9-0a78-478d-b86b-64a1f9fdd49d"},"vehicle_type_id":"4","last_reported":1781557113,"current_range_meters":7200,"station_id":"","pricing_plan_id":"cebpf4jnsgd1na2vs0mg"},{"bike_id":"b80116df-611e-421c-975a-bdb08eec7c1a","system_id":"levelo_inurba_marseille","lat":43.28135,"lon":5.38912,"is_reserved":false,"is_disabled":false,"rental_uris":{"android":"levelo://app?vid=b80116df-611e-421c-975a-bdb08eec7c1a","ios":"levelo://app?vid=b80116df-611e-421c-975a-bdb08eec7c1a"},"vehicle_type_id":"4","last_reported":1781557113,"current_range_meters":7200,"station_id":"","pricing_plan_id":"cebpf4jnsgd1na2vs0mg"},{"bike_id":"11816898-7cb8-4db0-a23d-100da89fc04a","system_id":"levelo_inurba_marseille","lat":43.2439,"lon":5.37048,"is_reserved":false,"is_disabled":false,"rental_uris":{"android":"levelo://app?vid=11816898-7cb8-4db0-a23d-100da89fc04a","ios":"levelo://app?vid=11816898-7cb8-4db0-a23d-100da89fc04a"},"vehicle_type_id":"4","last_reported":1781557113,"current_range_meters":7200,"station_id":"ce4bhhh2rcd13ifvqfk0","pricing_plan_id":"cebpf4jnsgd1na2vs0mg"},{"bike_id":"02e8aac0-6505-4638-af3a-274ea05df3eb","system_id":"levelo_inurba_marseille","lat":43.27052,"lon":5.38312,"is_reserved":false,"is_disabled":false,"rental_uris":{"android":"levelo://app?vid=02e8aac0-6505-4638-af3a-274ea05df3eb","ios":"levelo://app?vid=02e8aac0-6505-4638-af3a-274ea05df3eb"},"vehicle_type_id":"4","last_reported":1781557113,"current_range_meters":7200,"station_id":"st_d3n2fo6cfp8s73cte1j0","pricing_plan_id":"cebpf4jnsgd1na2vs0mg"},{"bike_id":"d448cac4-9531-4613-824a-dd61f60a7374","system_id":"levelo_inurba_marseille","lat":43.28857,"lon":5.42523,"is_reserved":false,"is_disabled":false,"rental_uris":{"android":"levelo://app?vid=d448cac4-9531-4613-824a-dd61f60a7374","ios":"levelo://app?vid=d448cac4-9531-4613-824a-dd61f60a7374"},"vehicle_type_id":"4","last_reported":1781557113,"current_range_meters":7200,"station_id":"st_d3b462108ojc7389ooeg","pricing_plan_id":"cebpf4jnsgd1na2vs0mg"},{"bike_id":"06431108-a20c-4d6d-97ba-afb737ac3f36","system_id":"levelo_inurba_marseille","lat":43.25119,"lon":5.40308,"is_reserved":false,"is_disabled":false,"rental_uris":{"android":"levelo://app?vid=06431108-a20c-4d6d-97ba-afb737ac3f36","ios":"levelo://app?vid=06431108-a20c-4d6d-97ba-afb737ac3f36"},"vehicle_type_id":"4","last_reported":1781557113,"current_range_meters":7200,"station_id":"ce4bhlh2rcd13ifvqgig","pricing_plan_id":"cebpf4jnsgd1na2vs0mg"},{"bike_id":"1d888d67-df59-4529-b1e1-5b9152c8fc6e","system_id":"levelo_inurba_marseille","lat":43.29249,"lon":5.38438,"is_reserved":false,"is_disabled":false,"rental_uris":{"android":"levelo://app?vid=1d888d67-df59-4529-b1e1-5b9152c8fc6e","ios":"levelo://app?vid=1d888d67-df59-4529-b1e1-5b9152c8fc6e"},"vehicle_type_id":"4","last_reported":1781557113,"current_range_meters":7200,"station_id":"ce4bh692rcd13ifvqea0","pricing_plan_id":"cebpf4jnsgd1na2vs0mg"},{"bike_id":"50df9d39-c22c-4649-a8a0-e7e188521b75","system_id":"levelo_inurba_marseille","lat":43.30324,"lon":5.40437,"is_reserved":false,"is_disabled":false,"rental_uris":{"android":"levelo://app?vid=50df9d39-c22c-4649-a8a0-e7e188521b75","ios":"levelo://app?vid=50df9d39-c22c-4649-a8a0-e7e188521b75"},"vehicle_type_id":"4","last_reported":1781557113,"current_range_meters":7200,"station_id":"ce4bh012rcd13ifvqd10","pricing_plan_id":"cebpf4jnsgd1na2vs0mg"},{"bike_id":"4fc5ab6c-183d-4a8e-ae68-393bcd2e4a1c","system_id":"levelo_inurba_marseille","lat":43.2903,"lon":5.38642,"is_reserved":false,"is_disabled":false,"rental_uris":{"android":"levelo://app?vid=4fc5ab6c-183d-4a8e-ae68-393bcd2e4a1c","ios":"levelo://app?vid=4fc5ab6c-183d-4a8e-ae68-393bcd2e4a1c"},"vehicle_type_id":"4","last_reported":1781557113,"current_range_meters":7200,"station_id":"ce4bh4p2rcd13ifvqe0g","pricing_plan_id":"cebpf4jnsgd1na2vs0mg"},{"bike_id":"4697fcb5-3301-42c2-8228-f2acfb3fc2a2","system_id":"levelo_inurba_marseille","lat":43.29676,"lon":5.37727,"is_reserved":false,"is_disabled":false,"rental_uris":{"android":"levelo://app?vid=4697fcb5-3301-42c2-8228-f2acfb3fc2a2","ios":"levelo://app?vid=4697fcb5-3301-42c2-8228-f2acfb3fc2a2"},"vehicle_type_id":"4","last_reported":1781557113,"current_range_meters":8000,"station_id":"ce4bgkh2rcd13ifvqbl0","pricing_plan_id":"cebpf4jnsgd1na2vs0mg"},{"bike_id":"9719c0a8-dcbc-4195-92e7-95c0f851bdc4","system_id":"levelo_inurba_marseille","lat":43.28666,"lon":5.36344,"is_reserved":false,"is_disabled":false,"rental_uris":{"android":"levelo://app?vid=9719c0a8-dcbc-4195-92e7-95c0f851bdc4","ios":"levelo://app?vid=9719c0a8-dcbc-4195-92e7-95c0f851bdc4"},"vehicle_type_id":"4","last_reported":1781557113,"current_range_meters":8000,"station_id":"ce4bhah2rcd13ifvqej0","pricing_plan_id":"cebpf4jnsgd1na2vs0mg"},{"bike_id":"c07332d5-e4e5-4a7a-aee9-645cfed8d033","system_id":"levelo_inurba_marseille","lat":43.22673,"lon":5.34795,"is_reserved":false,"is_disabled":false,"rental_uris":{"android":"levelo://app?vid=c07332d5-e4e5-4a7a-aee9-645cfed8d033","ios":"levelo://app?vid=c07332d5-e4e5-4a7a-aee9-645cfed8d033"},"vehicle_type_id":"4","last_reported":1781557113,"current_range_meters":8000,"station_id":"","pricing_plan_id":"cebpf4jnsgd1na2vs0mg"},{"bike_id":"cc069d5d-516c-40d6-84c8-d79979a28212","system_id":"levelo_inurba_marseille","lat":43.28429,"lon":5.37507,"is_reserved":false,"is_disabled":false,"rental_uris":{"android":"levelo://app?vid=cc069d5d-516c-40d6-84c8-d79979a28212","ios":"levelo://app?vid=cc069d5d-516c-40d6-84c8-d79979a28212"},"vehicle_type_id":"4","last_reported":1781557113,"current_range_meters":8000,"station_id":"ce4bh412rcd13ifvqds0","pricing_plan_id":"cebpf4jnsgd1na2vs0mg"},{"bike_id":"5de42f73-7189-44c1-bd2f-a60d02d7e7f9","system_id":"levelo_inurba_marseille","lat":43.30776,"lon":5.37652,"is_reserved":false,"is_disabled":true,"rental_uris":{"android":"levelo://app?vid=5de42f73-7189-44c1-bd2f-a60d02d7e7f9","ios":"levelo://app?vid=5de42f73-7189-44c1-bd2f-a60d02d7e7f9"},"vehicle_type_id":"4","last_reported":1781557113,"current_range_meters":8000,"station_id":"ce4bgv92rcd13ifvqcq0","pricing_plan_id":"cebpf4jnsgd1na2vs0mg"},{"bike_id":"e3532b4e-3fb0-4d37-8224-ccf7d89e6a8e","system_id":"levelo_inurba_marseille","lat":43.2841,"lon":5.37469,"is_reserved":false,"is_disabled":false,"rental_uris":{"android":"levelo://app?vid=e3532b4e-3fb0-4d37-8224-ccf7d89e6a8e","ios":"levelo://app?vid=e3532b4e-3fb0-4d37-8224-ccf7d89e6a8e"},"vehicle_type_id":"4","last_reported":1781557113,"current_range_meters":8000,"station_id":"ce4bh412rcd13ifvqds0","pricing_plan_id":"cebpf4jnsgd1na2vs0mg"},{"bike_id":"a441da7c-63be-4303-8b2e-b8d98bff6cfd","system_id":"levelo_inurba_marseille","lat":43.26211,"lon":5.37427,"is_reserved":false,"is_disabled":true,"rental_uris":{"android":"levelo://app?vid=a441da7c-63be-4303-8b2e-b8d98bff6cfd","ios":"levelo://app?vid=a441da7c-63be-4303-8b2e-b8d98bff6cfd"},"vehicle_type_id":"4","last_reported":1781557113,"current_range_meters":8000,"station_id":"ce4bhgp2rcd13ifvqfc0","pricing_plan_id":"cebpf4jnsgd1na2vs0mg"},{"bike_id":"6dd52475-3d1b-4a98-964d-d7cf2cecfb3f","system_id":"levelo_inurba_marseille","lat":43.26193,"lon":5.37395,"is_reserved":false,"is_disabled":false,"rental_uris":{"android":"levelo://app?vid=6dd52475-3d1b-4a98-964d-d7cf2cecfb3f","ios":"levelo://app?vid=6dd52475-3d1b-4a98-964d-d7cf2cecfb3f"},"vehicle_type_id":"4","last_reported":1781557113,"current_range_meters":8000,"station_id":"ce4bhgp2rcd13ifvqfc0","pricing_plan_id":"cebpf4jnsgd1na2vs0mg"},{"bike_id":"4d7f62be-62a7-4644-af61-3d6ef3f083ba","system_id":"levelo_inurba_marseille","lat":43.28361,"lon":5.38634,"is_reserved":false,"is_disabled":false,"rental_uris":{"android":"levelo://app?vid=4d7f62be-62a7-4644-af61-3d6ef3f083ba","ios":"levelo://app?vid=4d7f62be-62a7-4644-af61-3d6ef3f083ba"},"vehicle_type_id":"4","last_reported":1781557113,"current_range_meters":8000,"station_id":"ce4bh492rcd13ifvqdvg","pricing_plan_id":"cebpf4jnsgd1na2vs0mg"},{"bike_id":"4efc7353-7468-4278-a056-556472090a1f","system_id":"levelo_inurba_marseille","lat":43.25086,"lon":5.39515,"is_reserved":false,"is_disabled":false,"rental_uris":{"android":"levelo://app?vid=4efc7353-7468-4278-a056-556472090a1f","ios":"levelo://app?vid=4efc7353-7468-4278-a056-556472090a1f"},"vehicle_type_id":"4","last_reported":1781557113,"current_range_meters":8000,"station_id":"ce4bhm12rcd13ifvqgkg","pricing_plan_id":"cebpf4jnsgd1na2vs0mg"},{"bike_id":"6ca8a0ad-7452-4188-ae31-2fc3bb81a860","system_id":"levelo_inurba_marseille","lat":43.31977,"lon":5.38133,"is_reserved":false,"is_disabled":false,"rental_uris":{"android":"levelo://app?vid=6ca8a0ad-7452-4188-ae31-2fc3bb81a860","ios":"levelo://app?vid=6ca8a0ad-7452-4188-ae31-2fc3bb81a860"},"vehicle_type_id":"4","last_reported":1781557113,"current_range_meters":8000,"station_id":"ce4bhr12rcd13ifvqhpg","pricing_plan_id":"cebpf4jnsgd1na2vs0mg"},{"bike_id":"7001737c-4b0c-44d5-90cc-468d74a51e5d","system_id":"levelo_inurba_marseille","lat":43.29893,"lon":5.39729,"is_reserved":false,"is_disabled":false,"rental_uris":{"android":"levelo://app?vid=7001737c-4b0c-44d5-90cc-468d74a51e5d","ios":"levelo://app?vid=7001737c-4b0c-44d5-90cc-468d74a51e5d"},"vehicle_type_id":"4","last_reported":1781557113,"current_range_meters":8000,"station_id":"ce4bh0h2rcd13ifvqd50","pricing_plan_id":"cebpf4jnsgd1na2vs0mg"},{"bike_id":"5e318848-4470-4d19-8f8a-83be285cda40","system_id":"levelo_inurba_marseille","lat":43.29051,"lon":5.39951,"is_reserved":false,"is_disabled":false,"rental_uris":{"android":"levelo://app?vid=5e318848-4470-4d19-8f8a-83be285cda40","ios":"levelo://app?vid=5e318848-4470-4d19-8f8a-83be285cda40"},"vehicle_type_id":"4","last_reported":1781557113,"current_range_meters":8000,"station_id":"ce4bh392rcd13ifvqdm0","pricing_plan_id":"cebpf4jnsgd1na2vs0mg"},{"bike_id":"f9c3ba1d-dab7-4e89-8e58-87a763ea25de","system_id":"levelo_inurba_marseille","lat":43.26395,"lon":5.4105,"is_reserved":false,"is_disabled":false,"rental_uris":{"android":"levelo://app?vid=f9c3ba1d-dab7-4e89-8e58-87a763ea25de","ios":"levelo://app?vid=f9c3ba1d-dab7-4e89-8e58-87a763ea25de"},"vehicle_type_id":"4","last_reported":1781557113,"current_range_meters":8000,"station_id":"st_d4e5ca6na9uc73bfl5fg","pricing_plan_id":"cebpf4jnsgd1na2vs0mg"},{"bike_id":"7fae33bc-d1d6-4c69-a56c-3e09395e360e","system_id":"levelo_inurba_marseille","lat":43.28472,"lon":5.48409,"is_reserved":false,"is_disabled":false,"rental_uris":{"android":"levelo://app?vid=7fae33bc-d1d6-4c69-a56c-3e09395e360e","ios":"levelo://app?vid=7fae33bc-d1d6-4c69-a56c-3e09395e360e"},"vehicle_type_id":"4","last_reported":1781557113,"current_range_meters":8000,"station_id":"st_d3svhcjqgbts73a3dn0g","pricing_plan_id":"cebpf4jnsgd1na2vs0mg"},{"bike_id":"4ba5bb0f-aebe-4559-989d-a9889ff48559","system_id":"levelo_inurba_marseille","lat":43.29719,"lon":5.37677,"is_reserved":false,"is_disabled":true,"rental_uris":{"android":"levelo://app?vid=4ba5bb0f-aebe-4559-989d-a9889ff48559","ios":"levelo://app?vid=4ba5bb0f-aebe-4559-989d-a9889ff48559"},"vehicle_type_id":"4","last_reported":1781557113,"current_range_meters":8000,"station_id":"ce4bgkh2rcd13ifvqbl0","pricing_plan_id":"cebpf4jnsgd1na2vs0mg"},{"bike_id":"fa7009c8-4822-4dcc-a9fe-f425c541eb81","system_id":"levelo_inurba_marseille","lat":43.28482,"lon":5.4839,"is_reserved":false,"is_disabled":false,"rental_uris":{"android":"levelo://app?vid=fa7009c8-4822-4dcc-a9fe-f425c541eb81","ios":"levelo://app?vid=fa7009c8-4822-4dcc-a9fe-f425c541eb81"},"vehicle_type_id":"4","last_reported":1781557113,"current_range_meters":8000,"station_id":"st_d3svhcjqgbts73a3dn0g","pricing_plan_id":"cebpf4jnsgd1na2vs0mg"},{"bike_id":"3867d9af-ea72-4e28-9a46-325afc864c22","system_id":"levelo_inurba_marseille","lat":43.31218,"lon":5.36873,"is_reserved":false,"is_disabled":true,"rental_uris":{"android":"levelo://app?vid=3867d9af-ea72-4e28-9a46-325afc864c22","ios":"levelo://app?vid=3867d9af-ea72-4e28-9a46-325afc864c22"},"vehicle_type_id":"4","last_reported":1781557113,"current_range_meters":8000,"station_id":"ce4bgl92rcd13ifvqbq0","pricing_plan_id":"cebpf4jnsgd1na2vs0mg"},{"bike_id":"7dda0791-2712-47f1-a158-fea7f73e6d45","system_id":"levelo_inurba_marseille","lat":43.30471,"lon":5.37892,"is_reserved":false,"is_disabled":true,"rental_uris":{"android":"levelo://app?vid=7dda0791-2712-47f1-a158-fea7f73e6d45","ios":"levelo://app?vid=7dda0791-2712-47f1-a158-fea7f73e6d45"},"vehicle_type_id":"4","last_reported":1781557113,"current_range_meters":8000,"station_id":"ce4bgup2rcd13ifvqcn0","pricing_plan_id":"cebpf4jnsgd1na2vs0mg"},{"bike_id":"a67c1d0b-051d-467b-afee-938c1064e81c","system_id":"levelo_inurba_marseille","lat":43.28473,"lon":5.48393,"is_reserved":false,"is_disabled":false,"rental_uris":{"android":"levelo://app?vid=a67c1d0b-051d-467b-afee-938c1064e81c","ios":"levelo://app?vid=a67c1d0b-051d-467b-afee-938c1064e81c"},"vehicle_type_id":"4","last_reported":1781557113,"current_range_meters":8000,"station_id":"st_d3svhcjqgbts73a3dn0g","pricing_plan_id":"cebpf4jnsgd1na2vs0mg"},{"bike_id":"01ef9853-c8f9-498e-af1d-0ac2b5dc9719","system_id":"levelo_inurba_marseille","lat":43.29504,"lon":5.43291,"is_reserved":false,"is_disabled":false,"rental_uris":{"android":"levelo://app?vid=01ef9853-c8f9-498e-af1d-0ac2b5dc9719","ios":"levelo://app?vid=01ef9853-c8f9-498e-af1d-0ac2b5dc9719"},"vehicle_type_id":"4","last_reported":1781557113,"current_range_meters":8000,"station_id":"st_d3j5ugp08ojc73fj9d10","pricing_plan_id":"cebpf4jnsgd1na2vs0mg"},{"bike_id":"fe6b3de2-9af6-4a3f-b69c-11126692ba60","system_id":"levelo_inurba_marseille","lat":43.30316,"lon":5.4044,"is_reserved":false,"is_disabled":false,"rental_uris":{"android":"levelo://app?vid=fe6b3de2-9af6-4a3f-b69c-11126692ba60","ios":"levelo://app?vid=fe6b3de2-9af6-4a3f-b69c-11126692ba60"},"vehicle_type_id":"4","last_reported":1781557113,"current_range_meters":8000,"station_id":"ce4bh012rcd13ifvqd10","pricing_plan_id":"cebpf4jnsgd1na2vs0mg"},{"bike_id":"f3f98f3f-0a98-4141-82a1-b35355e5c1d2","system_id":"levelo_inurba_marseille","lat":43.28606,"lon":5.37061,"is_reserved":false,"is_disabled":false,"rental_uris":{"android":"levelo://app?vid=f3f98f3f-0a98-4141-82a1-b35355e5c1d2","ios":"levelo://app?vid=f3f98f3f-0a98-4141-82a1-b35355e5c1d2"},"vehicle_type_id":"4","last_reported":1781557113,"current_range_meters":8000,"station_id":"ce4bht12rcd13ifvqi60","pricing_plan_id":"cebpf4jnsgd1na2vs0mg"},{"bike_id":"4928f153-dc76-42c1-90b1-afed55f01515","system_id":"levelo_inurba_marseille","lat":43.299659,"lon":5.371704,"is_reserved":false,"is_disabled":false,"rental_uris":{"android":"levelo://app?vid=4928f153-dc76-42c1-90b1-afed55f01515","ios":"levelo://app?vid=4928f153-dc76-42c1-90b1-afed55f01515"},"vehicle_type_id":"4","last_reported":1781557113,"current_range_meters":8000,"station_id":"ce4bgr92rcd13ifvqc7g","pricing_plan_id":"cebpf4jnsgd1na2vs0mg"},{"bike_id":"3ff99cc7-1325-4851-8e04-1043bb4256ff","system_id":"levelo_inurba_marseille","lat":43.23159,"lon":5.405,"is_reserved":false,"is_disabled":false,"rental_uris":{"android":"levelo://app?vid=3ff99cc7-1325-4851-8e04-1043bb4256ff","ios":"levelo://app?vid=3ff99cc7-1325-4851-8e04-1043bb4256ff"},"vehicle_type_id":"4","last_reported":1781557113,"current_range_meters":8000,"station_id":"","pricing_plan_id":"cebpf4jnsgd1na2vs0mg"},{"bike_id":"3f7a856a-f662-4edd-a3a7-0ba8bd5f7090","system_id":"levelo_inurba_marseille","lat":43.29553,"lon":5.38518,"is_reserved":false,"is_disabled":false,"rental_uris":{"android":"levelo://app?vid=3f7a856a-f662-4edd-a3a7-0ba8bd5f7090","ios":"levelo://app?vid=3f7a856a-f662-4edd-a3a7-0ba8bd5f7090"},"vehicle_type_id":"4","last_reported":1781557113,"current_range_meters":8000,"station_id":"ce4bgih2rcd13ifvqba0","pricing_plan_id":"cebpf4jnsgd1na2vs0mg"},{"bike_id":"ce2d0e72-9047-4f74-83cd-39df39d3f18f","system_id":"levelo_inurba_marseille","lat":43.28376,"lon":5.38637,"is_reserved":false,"is_disabled":false,"rental_uris":{"android":"levelo://app?vid=ce2d0e72-9047-4f74-83cd-39df39d3f18f","ios":"levelo://app?vid=ce2d0e72-9047-4f74-83cd-39df39d3f18f"},"vehicle_type_id":"4","last_reported":1781557113,"current_range_meters":8000,"station_id":"ce4bh492rcd13ifvqdvg","pricing_plan_id":"cebpf4jnsgd1na2vs0mg"},{"bike_id":"8d03ffde-08eb-4a78-958d-5c09b301e69f","system_id":"levelo_inurba_marseille","lat":43.24328,"lon":5.38419,"is_reserved":false,"is_disabled":false,"rental_uris":{"android":"levelo://app?vid=8d03ffde-08eb-4a78-958d-5c09b301e69f","ios":"levelo://app?vid=8d03ffde-08eb-4a78-958d-5c09b301e69f"},"vehicle_type_id":"4","last_reported":1781557113,"current_range_meters":8000,"station_id":"","pricing_plan_id":"cebpf4jnsgd1na2vs0mg"},{"bike_id":"c2db04fd-57bb-4ce2-b595-0f34468d7aab","system_id":"levelo_inurba_marseille","lat":43.298737,"lon":5.389109,"is_reserved":false,"is_disabled":false,"rental_uris":{"android":"levelo://app?vid=c2db04fd-57bb-4ce2-b595-0f34468d7aab","ios":"levelo://app?vid=c2db04fd-57bb-4ce2-b595-0f34468d7aab"},"vehicle_type_id":"4","last_reported":1781557113,"current_range_meters":8000,"station_id":"ce4bh392rcd13ifvqdl0","pricing_plan_id":"cebpf4jnsgd1na2vs0mg"},{"bike_id":"f2468c26-dbf8-447d-a9da-f1835f44304a","system_id":"levelo_inurba_marseille","lat":43.23974,"lon":5.36602,"is_reserved":false,"is_disabled":false,"rental_uris":{"android":"levelo://app?vid=f2468c26-dbf8-447d-a9da-f1835f44304a","ios":"levelo://app?vid=f2468c26-dbf8-447d-a9da-f1835f44304a"},"vehicle_type_id":"4","last_reported":1781557113,"current_range_meters":8400,"station_id":"ce4bhi12rcd13ifvqfp0","pricing_plan_id":"cebpf4jnsgd1na2vs0mg"},{"bike_id":"adcc7480-7ddc-4aad-81ce-e943e358c78a","system_id":"levelo_inurba_marseille","lat":43.263635,"lon":5.410813,"is_reserved":false,"is_disabled":false,"rental_uris":{"android":"levelo://app?vid=adcc7480-7ddc-4aad-81ce-e943e358c78a","ios":"levelo://app?vid=adcc7480-7ddc-4aad-81ce-e943e358c78a"},"vehicle_type_id":"4","last_reported":1781557113,"current_range_meters":8400,"station_id":"st_d4e5ca6na9uc73bfl5fg","pricing_plan_id":"cebpf4jnsgd1na2vs0mg"},{"bike_id":"98cb5525-a0a4-4a59-9834-2e4682882033","system_id":"levelo_inurba_marseille","lat":43.29037,"lon":5.38158,"is_reserved":false,"is_disabled":false,"rental_uris":{"android":"levelo://app?vid=98cb5525-a0a4-4a59-9834-2e4682882033","ios":"levelo://app?vid=98cb5525-a0a4-4a59-9834-2e4682882033"},"vehicle_type_id":"4","last_reported":1781557113,"current_range_meters":8400,"station_id":"ce4bh4p2rcd13ifvqe1g","pricing_plan_id":"cebpf4jnsgd1na2vs0mg"},{"bike_id":"fa7da799-f804-4cf4-8242-504821e55367","system_id":"levelo_inurba_marseille","lat":43.31497,"lon":5.40107,"is_reserved":false,"is_disabled":false,"rental_uris":{"android":"levelo://app?vid=fa7da799-f804-4cf4-8242-504821e55367","ios":"levelo://app?vid=fa7da799-f804-4cf4-8242-504821e55367"},"vehicle_type_id":"4","last_reported":1781557113,"current_range_meters":8400,"station_id":"","pricing_plan_id":"cebpf4jnsgd1na2vs0mg"},{"bike_id":"b93dea6b-e573-4839-9d6e-b256e396ad23","system_id":"levelo_inurba_marseille","lat":43.284758,"lon":5.384238,"is_reserved":false,"is_disabled":false,"rental_uris":{"android":"levelo://app?vid=b93dea6b-e573-4839-9d6e-b256e396ad23","ios":"levelo://app?vid=b93dea6b-e573-4839-9d6e-b256e396ad23"},"vehicle_type_id":"4","last_reported":1781557113,"current_range_meters":8400,"station_id":"ce4bh512rcd13ifvqe3g","pricing_plan_id":"cebpf4jnsgd1na2vs0mg"},{"bike_id":"dc44b96b-99b6-4c49-9f03-333c99de18b4","system_id":"levelo_inurba_marseille","lat":43.30328,"lon":5.4043,"is_reserved":false,"is_disabled":false,"rental_uris":{"android":"levelo://app?vid=dc44b96b-99b6-4c49-9f03-333c99de18b4","ios":"levelo://app?vid=dc44b96b-99b6-4c49-9f03-333c99de18b4"},"vehicle_type_id":"4","last_reported":1781557113,"current_range_meters":8400,"station_id":"ce4bh012rcd13ifvqd10","pricing_plan_id":"cebpf4jnsgd1na2vs0mg"},{"bike_id":"11efaa89-387a-465c-ac64-fd042113f145","system_id":"levelo_inurba_marseille","lat":43.23184,"lon":5.35566,"is_reserved":false,"is_disabled":false,"rental_uris":{"android":"levelo://app?vid=11efaa89-387a-465c-ac64-fd042113f145","ios":"levelo://app?vid=11efaa89-387a-465c-ac64-fd042113f145"},"vehicle_type_id":"4","last_reported":1781557113,"current_range_meters":8400,"station_id":"ce4bhu92rcd13ifvqi70","pricing_plan_id":"cebpf4jnsgd1na2vs0mg"},{"bike_id":"2b7f33c0-c943-4ad7-a68e-2c0f2c5dce40","system_id":"levelo_inurba_marseille","lat":43.28355,"lon":5.3811,"is_reserved":false,"is_disabled":false,"rental_uris":{"android":"levelo://app?vid=2b7f33c0-c943-4ad7-a68e-2c0f2c5dce40","ios":"levelo://app?vid=2b7f33c0-c943-4ad7-a68e-2c0f2c5dce40"},"vehicle_type_id":"4","last_reported":1781557113,"current_range_meters":8400,"station_id":"ce4bh412rcd13ifvqdr0","pricing_plan_id":"cebpf4jnsgd1na2vs0mg"},{"bike_id":"8e256f55-69bc-49e9-9b40-90feb118febc","system_id":"levelo_inurba_marseille","lat":43.32348,"lon":5.36746,"is_reserved":false,"is_disabled":false,"rental_uris":{"android":"levelo://app?vid=8e256f55-69bc-49e9-9b40-90feb118febc","ios":"levelo://app?vid=8e256f55-69bc-49e9-9b40-90feb118febc"},"vehicle_type_id":"4","last_reported":1781557113,"current_range_meters":8400,"station_id":"ce4bhsh2rcd13ifvqi2g","pricing_plan_id":"cebpf4jnsgd1na2vs0mg"},{"bike_id":"2120e221-1cc7-4873-8fbd-560857bfc905","system_id":"levelo_inurba_marseille","lat":43.289572,"lon":5.378346,"is_reserved":false,"is_disabled":false,"rental_uris":{"android":"levelo://app?vid=2120e221-1cc7-4873-8fbd-560857bfc905","ios":"levelo://app?vid=2120e221-1cc7-4873-8fbd-560857bfc905"},"vehicle_type_id":"4","last_reported":1781557113,"current_range_meters":8400,"station_id":"ce4bh9p2rcd13ifvqed0","pricing_plan_id":"cebpf4jnsgd1na2vs0mg"},{"bike_id":"83f5a09f-77f3-4e75-8f00-84b0b46b6609","system_id":"levelo_inurba_marseille","lat":43.317282,"lon":5.423865,"is_reserved":false,"is_disabled":false,"rental_uris":{"android":"levelo://app?vid=83f5a09f-77f3-4e75-8f00-84b0b46b6609","ios":"levelo://app?vid=83f5a09f-77f3-4e75-8f00-84b0b46b6609"},"vehicle_type_id":"4","last_reported":1781557113,"current_range_meters":8400,"station_id":"ce4bhp92rcd13ifvqhbg","pricing_plan_id":"cebpf4jnsgd1na2vs0mg"},{"bike_id":"3c6c7718-7502-460d-abfc-33f1cb37d131","system_id":"levelo_inurba_marseille","lat":43.28459,"lon":5.48422,"is_reserved":false,"is_disabled":false,"rental_uris":{"android":"levelo://app?vid=3c6c7718-7502-460d-abfc-33f1cb37d131","ios":"levelo://app?vid=3c6c7718-7502-460d-abfc-33f1cb37d131"},"vehicle_type_id":"4","last_reported":1781557113,"current_range_meters":8400,"station_id":"st_d3svhcjqgbts73a3dn0g","pricing_plan_id":"cebpf4jnsgd1na2vs0mg"},