{"last_updated":1768511524,"ttl":60,"version":"2.2","data":{"bikes":[{"bike_id":"3cb8d320-b835-4a91-8917-02940b979d51","system_id":"levelo_inurba_marseille","lat":43.31157,"lon":5.3785,"is_reserved":false,"is_disabled":false,"rental_uris":{"android":"levelo://app?vid=3cb8d320-b835-4a91-8917-02940b979d51","ios":"levelo://app?vid=3cb8d320-b835-4a91-8917-02940b979d51"},"vehicle_type_id":"4","last_reported":1768511525,"current_range_meters":2800,"station_id":"ce4bgt12rcd13ifvqcd0","pricing_plan_id":"cebpf4jnsgd1na2vs0mg"},{"bike_id":"5ac6a251-1738-4a9e-b284-25b5f32147a6","system_id":"levelo_inurba_marseille","lat":43.28945,"lon":5.36686,"is_reserved":false,"is_disabled":false,"rental_uris":{"android":"levelo://app?vid=5ac6a251-1738-4a9e-b284-25b5f32147a6","ios":"levelo://app?vid=5ac6a251-1738-4a9e-b284-25b5f32147a6"},"vehicle_type_id":"4","last_reported":1768511525,"current_range_meters":2800,"station_id":"ce4bhap2rcd13ifvqek0","pricing_plan_id":"cebpf4jnsgd1na2vs0mg"},{"bike_id":"5410fd45-b8b4-470d-9bd7-ad1acafbc363","system_id":"levelo_inurba_marseille","lat":43.28477,"lon":5.48396,"is_reserved":false,"is_disabled":false,"rental_uris":{"android":"levelo://app?vid=5410fd45-b8b4-470d-9bd7-ad1acafbc363","ios":"levelo://app?vid=5410fd45-b8b4-470d-9bd7-ad1acafbc363"},"vehicle_type_id":"4","last_reported":1768511525,"current_range_meters":2800,"station_id":"","pricing_plan_id":"cebpf4jnsgd1na2vs0mg"},{"bike_id":"2c0e82ac-2b70-4799-8d21-f91680b043fa","system_id":"levelo_inurba_marseille","lat":43.2919,"lon":5.35815,"is_reserved":false,"is_disabled":false,"rental_uris":{"android":"levelo://app?vid=2c0e82ac-2b70-4799-8d21-f91680b043fa","ios":"levelo://app?vid=2c0e82ac-2b70-4799-8d21-f91680b043fa"},"vehicle_type_id":"4","last_reported":1768511525,"current_range_meters":2800,"station_id":"ce4bhb12rcd13ifvqel0","pricing_plan_id":"cebpf4jnsgd1na2vs0mg"},{"bike_id":"16a6f94e-c148-4449-bb02-40c0272d02ae","system_id":"levelo_inurba_marseille","lat":43.26501,"lon":5.3954,"is_reserved":false,"is_disabled":false,"rental_uris":{"android":"levelo://app?vid=16a6f94e-c148-4449-bb02-40c0272d02ae","ios":"levelo://app?vid=16a6f94e-c148-4449-bb02-40c0272d02ae"},"vehicle_type_id":"4","last_reported":1768511525,"current_range_meters":2800,"station_id":"ce4bhi12rcd13ifvqfq0","pricing_plan_id":"cebpf4jnsgd1na2vs0mg"},{"bike_id":"554c04e7-941a-4c22-b472-97e077e3a312","system_id":"levelo_inurba_marseille","lat":43.301337,"lon":5.403835,"is_reserved":false,"is_disabled":false,"rental_uris":{"android":"levelo://app?vid=554c04e7-941a-4c22-b472-97e077e3a312","ios":"levelo://app?vid=554c04e7-941a-4c22-b472-97e077e3a312"},"vehicle_type_id":"4","last_reported":1768511525,"current_range_meters":2800,"station_id":"","pricing_plan_id":"cebpf4jnsgd1na2vs0mg"},{"bike_id":"061f7b84-1054-4947-83f7-87165dac6c12","system_id":"levelo_inurba_marseille","lat":43.246337,"lon":5.431435,"is_reserved":false,"is_disabled":false,"rental_uris":{"android":"levelo://app?vid=061f7b84-1054-4947-83f7-87165dac6c12","ios":"levelo://app?vid=061f7b84-1054-4947-83f7-87165dac6c12"},"vehicle_type_id":"4","last_reported":1768511525,"current_range_meters":2800,"station_id":"st_d2m6c4gdas8pm72e190g","pricing_plan_id":"cebpf4jnsgd1na2vs0mg"},{"bike_id":"6667100e-3304-469c-b37b-4108f47873eb","system_id":"levelo_inurba_marseille","lat":43.2511,"lon":5.40317,"is_reserved":false,"is_disabled":false,"rental_uris":{"android":"levelo://app?vid=6667100e-3304-469c-b37b-4108f47873eb","ios":"levelo://app?vid=6667100e-3304-469c-b37b-4108f47873eb"},"vehicle_type_id":"4","last_reported":1768511525,"current_range_meters":2800,"station_id":"ce4bhlh2rcd13ifvqgig","pricing_plan_id":"cebpf4jnsgd1na2vs0mg"},{"bike_id":"4191155e-d23a-4ee1-be3f-b22da9cd6fd7","system_id":"levelo_inurba_marseille","lat":43.292594,"lon":5.384342,"is_reserved":false,"is_disabled":false,"rental_uris":{"android":"levelo://app?vid=4191155e-d23a-4ee1-be3f-b22da9cd6fd7","ios":"levelo://app?vid=4191155e-d23a-4ee1-be3f-b22da9cd6fd7"},"vehicle_type_id":"4","last_reported":1768511525,"current_range_meters":3200,"station_id":"ce4bh692rcd13ifvqea0","pricing_plan_id":"cebpf4jnsgd1na2vs0mg"},{"bike_id":"2f317efe-a01b-468a-9036-21dfc4cc3358","system_id":"levelo_inurba_marseille","lat":43.25822,"lon":5.39436,"is_reserved":false,"is_disabled":false,"rental_uris":{"android":"levelo://app?vid=2f317efe-a01b-468a-9036-21dfc4cc3358","ios":"levelo://app?vid=2f317efe-a01b-468a-9036-21dfc4cc3358"},"vehicle_type_id":"4","last_reported":1768511525,"current_range_meters":3200,"station_id":"ce4bhip2rcd13ifvqft0","pricing_plan_id":"cebpf4jnsgd1na2vs0mg"},{"bike_id":"6f5bac51-1804-4cd4-beeb-e05c41221d16","system_id":"levelo_inurba_marseille","lat":43.30504,"lon":5.36699,"is_reserved":false,"is_disabled":false,"rental_uris":{"android":"levelo://app?vid=6f5bac51-1804-4cd4-beeb-e05c41221d16","ios":"levelo://app?vid=6f5bac51-1804-4cd4-beeb-e05c41221d16"},"vehicle_type_id":"4","last_reported":1768511525,"current_range_meters":3200,"station_id":"ce4bgrp2rcd13ifvqc9g","pricing_plan_id":"cebpf4jnsgd1na2vs0mg"},{"bike_id":"f3fd5d29-21f0-4f72-a5d6-01e525578e9a","system_id":"levelo_inurba_marseille","lat":43.25344,"lon":5.42135,"is_reserved":false,"is_disabled":false,"rental_uris":{"android":"levelo://app?vid=f3fd5d29-21f0-4f72-a5d6-01e525578e9a","ios":"levelo://app?vid=f3fd5d29-21f0-4f72-a5d6-01e525578e9a"},"vehicle_type_id":"4","last_reported":1768511525,"current_range_meters":3200,"station_id":"st_d2m65c5bi1j21697t3ng","pricing_plan_id":"cebpf4jnsgd1na2vs0mg"},{"bike_id":"04280a73-51c8-4805-a709-d7546e986952","system_id":"levelo_inurba_marseille","lat":43.30899,"lon":5.36875,"is_reserved":false,"is_disabled":false,"rental_uris":{"android":"levelo://app?vid=04280a73-51c8-4805-a709-d7546e986952","ios":"levelo://app?vid=04280a73-51c8-4805-a709-d7546e986952"},"vehicle_type_id":"4","last_reported":1768511525,"current_range_meters":3200,"station_id":"ce4bgn92rcd13ifvqbvg","pricing_plan_id":"cebpf4jnsgd1na2vs0mg"},{"bike_id":"3b326f81-b0c4-4b16-a9c9-f528a517d078","system_id":"levelo_inurba_marseille","lat":43.23191,"lon":5.35558,"is_reserved":false,"is_disabled":false,"rental_uris":{"android":"levelo://app?vid=3b326f81-b0c4-4b16-a9c9-f528a517d078","ios":"levelo://app?vid=3b326f81-b0c4-4b16-a9c9-f528a517d078"},"vehicle_type_id":"4","last_reported":1768511525,"current_range_meters":3200,"station_id":"ce4bhu92rcd13ifvqi70","pricing_plan_id":"cebpf4jnsgd1na2vs0mg"},{"bike_id":"0cb4e287-3b5c-4f27-9531-3ee061bd4a7c","system_id":"levelo_inurba_marseille","lat":43.25343,"lon":5.42168,"is_reserved":false,"is_disabled":false,"rental_uris":{"android":"levelo://app?vid=0cb4e287-3b5c-4f27-9531-3ee061bd4a7c","ios":"levelo://app?vid=0cb4e287-3b5c-4f27-9531-3ee061bd4a7c"},"vehicle_type_id":"4","last_reported":1768511525,"current_range_meters":3200,"station_id":"st_d2m65c5bi1j21697t3ng","pricing_plan_id":"cebpf4jnsgd1na2vs0mg"},{"bike_id":"ac798af9-54d2-4a14-a172-f6992a8b4758","system_id":"levelo_inurba_marseille","lat":43.241654,"lon":5.363959,"is_reserved":false,"is_disabled":false,"rental_uris":{"android":"levelo://app?vid=ac798af9-54d2-4a14-a172-f6992a8b4758","ios":"levelo://app?vid=ac798af9-54d2-4a14-a172-f6992a8b4758"},"vehicle_type_id":"4","last_reported":1768511525,"current_range_meters":3200,"station_id":"cpo36qri1sfpv3e86is0","pricing_plan_id":"cebpf4jnsgd1na2vs0mg"},{"bike_id":"3aecb5d6-35c0-429b-bf45-983beadab213","system_id":"levelo_inurba_marseille","lat":43.22561,"lon":5.41634,"is_reserved":false,"is_disabled":false,"rental_uris":{"android":"levelo://app?vid=3aecb5d6-35c0-429b-bf45-983beadab213","ios":"levelo://app?vid=3aecb5d6-35c0-429b-bf45-983beadab213"},"vehicle_type_id":"4","last_reported":1768511525,"current_range_meters":3200,"station_id":"st_d2o4gvlbi1j2169b742g","pricing_plan_id":"cebpf4jnsgd1na2vs0mg"},{"bike_id":"75617202-0059-475b-9c59-374d150234d6","system_id":"levelo_inurba_marseille","lat":43.295641,"lon":5.385612,"is_reserved":false,"is_disabled":false,"rental_uris":{"android":"levelo://app?vid=75617202-0059-475b-9c59-374d150234d6","ios":"levelo://app?vid=75617202-0059-475b-9c59-374d150234d6"},"vehicle_type_id":"4","last_reported":1768511525,"current_range_meters":3200,"station_id":"ce4bh412rcd13ifvqdr0","pricing_plan_id":"cebpf4jnsgd1na2vs0mg"},{"bike_id":"6bc316b6-9bd7-42b2-867a-1abe6c510b9a","system_id":"levelo_inurba_marseille","lat":43.27421,"lon":5.39412,"is_reserved":false,"is_disabled":false,"rental_uris":{"android":"levelo://app?vid=6bc316b6-9bd7-42b2-867a-1abe6c510b9a","ios":"levelo://app?vid=6bc316b6-9bd7-42b2-867a-1abe6c510b9a"},"vehicle_type_id":"4","last_reported":1768511525,"current_range_meters":3200,"station_id":"ce4bhdp2rcd13ifvqf20","pricing_plan_id":"cebpf4jnsgd1na2vs0mg"},{"bike_id":"181ec529-443d-4447-9e03-87e11a7ffc8d","system_id":"levelo_inurba_marseille","lat":43.29882,"lon":5.38902,"is_reserved":false,"is_disabled":false,"rental_uris":{"android":"levelo://app?vid=181ec529-443d-4447-9e03-87e11a7ffc8d","ios":"levelo://app?vid=181ec529-443d-4447-9e03-87e11a7ffc8d"},"vehicle_type_id":"4","last_reported":1768511525,"current_range_meters":3600,"station_id":"ce4bh392rcd13ifvqdl0","pricing_plan_id":"cebpf4jnsgd1na2vs0mg"},{"bike_id":"03bea929-ded9-4f0a-b535-3ced67ddbf39","system_id":"levelo_inurba_marseille","lat":43.24623,"lon":5.43171,"is_reserved":false,"is_disabled":false,"rental_uris":{"android":"levelo://app?vid=03bea929-ded9-4f0a-b535-3ced67ddbf39","ios":"levelo://app?vid=03bea929-ded9-4f0a-b535-3ced67ddbf39"},"vehicle_type_id":"4","last_reported":1768511525,"current_range_meters":3600,"station_id":"st_d2m6c4gdas8pm72e190g","pricing_plan_id":"cebpf4jnsgd1na2vs0mg"},{"bike_id":"9db25893-e260-4d73-b8cb-c64bef7f9f51","system_id":"levelo_inurba_marseille","lat":43.28573,"lon":5.39496,"is_reserved":false,"is_disabled":false,"rental_uris":{"android":"levelo://app?vid=9db25893-e260-4d73-b8cb-c64bef7f9f51","ios":"levelo://app?vid=9db25893-e260-4d73-b8cb-c64bef7f9f51"},"vehicle_type_id":"4","last_reported":1768511525,"current_range_meters":3600,"station_id":"ce4bh292rcd13ifvqdg0","pricing_plan_id":"cebpf4jnsgd1na2vs0mg"},{"bike_id":"6da68625-e4b7-41aa-96a7-da86f228b8ba","system_id":"levelo_inurba_marseille","lat":43.30541,"lon":5.36692,"is_reserved":false,"is_disabled":false,"rental_uris":{"android":"levelo://app?vid=6da68625-e4b7-41aa-96a7-da86f228b8ba","ios":"levelo://app?vid=6da68625-e4b7-41aa-96a7-da86f228b8ba"},"vehicle_type_id":"4","last_reported":1768511525,"current_range_meters":3600,"station_id":"ce4bgrp2rcd13ifvqc9g","pricing_plan_id":"cebpf4jnsgd1na2vs0mg"},{"bike_id":"611737f5-0f65-4007-a4ce-c26d4cf73149","system_id":"levelo_inurba_marseille","lat":43.25002,"lon":5.38917,"is_reserved":false,"is_disabled":false,"rental_uris":{"android":"levelo://app?vid=611737f5-0f65-4007-a4ce-c26d4cf73149","ios":"levelo://app?vid=611737f5-0f65-4007-a4ce-c26d4cf73149"},"vehicle_type_id":"4","last_reported":1768511525,"current_range_meters":3600,"station_id":"ce4bhgp2rcd13ifvqfd0","pricing_plan_id":"cebpf4jnsgd1na2vs0mg"},{"bike_id":"d8b52035-9107-4203-ba3b-8ab85229defc","system_id":"levelo_inurba_marseille","lat":43.25627,"lon":5.40029,"is_reserved":false,"is_disabled":false,"rental_uris":{"android":"levelo://app?vid=d8b52035-9107-4203-ba3b-8ab85229defc","ios":"levelo://app?vid=d8b52035-9107-4203-ba3b-8ab85229defc"},"vehicle_type_id":"4","last_reported":1768511525,"current_range_meters":4000,"station_id":"","pricing_plan_id":"cebpf4jnsgd1na2vs0mg"},{"bike_id":"3f7b1cdf-d5bb-4e7b-9759-b3abb1965747","system_id":"levelo_inurba_marseille","lat":43.26228,"lon":5.40451,"is_reserved":false,"is_disabled":false,"rental_uris":{"android":"levelo://app?vid=3f7b1cdf-d5bb-4e7b-9759-b3abb1965747","ios":"levelo://app?vid=3f7b1cdf-d5bb-4e7b-9759-b3abb1965747"},"vehicle_type_id":"4","last_reported":1768511525,"current_range_meters":4000,"station_id":"ce4bhmh2rcd13ifvqgmg","pricing_plan_id":"cebpf4jnsgd1na2vs0mg"},{"bike_id":"7e9c80da-de39-4aa5-b4ff-293329b5cd81","system_id":"levelo_inurba_marseille","lat":43.24647,"lon":5.38139,"is_reserved":false,"is_disabled":false,"rental_uris":{"android":"levelo://app?vid=7e9c80da-de39-4aa5-b4ff-293329b5cd81","ios":"levelo://app?vid=7e9c80da-de39-4aa5-b4ff-293329b5cd81"},"vehicle_type_id":"4","last_reported":1768511525,"current_range_meters":4000,"station_id":"ce4bhih2rcd13ifvqfr0","pricing_plan_id":"cebpf4jnsgd1na2vs0mg"},{"bike_id":"294130fc-0ec9-4d2e-966f-c328a1ee476f","system_id":"levelo_inurba_marseille","lat":43.30314,"lon":5.40448,"is_reserved":false,"is_disabled":true,"rental_uris":{"android":"levelo://app?vid=294130fc-0ec9-4d2e-966f-c328a1ee476f","ios":"levelo://app?vid=294130fc-0ec9-4d2e-966f-c328a1ee476f"},"vehicle_type_id":"4","last_reported":1768511525,"current_range_meters":4000,"station_id":"ce4bh012rcd13ifvqd10","pricing_plan_id":"cebpf4jnsgd1na2vs0mg"},{"bike_id":"88893997-617f-497d-a1d5-9e986696fd98","system_id":"levelo_inurba_marseille","lat":43.26571,"lon":5.40285,"is_reserved":false,"is_disabled":false,"rental_uris":{"android":"levelo://app?vid=88893997-617f-497d-a1d5-9e986696fd98","ios":"levelo://app?vid=88893997-617f-497d-a1d5-9e986696fd98"},"vehicle_type_id":"4","last_reported":1768511525,"current_range_meters":4000,"station_id":"ce4bhmp2rcd13ifvqgng","pricing_plan_id":"cebpf4jnsgd1na2vs0mg"},{"bike_id":"f880bc6b-a5e7-442b-9dc3-15311575575e","system_id":"levelo_inurba_marseille","lat":43.24819,"lon":5.3745,"is_reserved":false,"is_disabled":false,"rental_uris":{"android":"levelo://app?vid=f880bc6b-a5e7-442b-9dc3-15311575575e","ios":"levelo://app?vid=f880bc6b-a5e7-442b-9dc3-15311575575e"},"vehicle_type_id":"4","last_reported":1768511525,"current_range_meters":4000,"station_id":"ce4bhgh2rcd13ifvqfb0","pricing_plan_id":"cebpf4jnsgd1na2vs0mg"},{"bike_id":"8be361d1-171b-4ab9-af93-e6c62720e7e8","system_id":"levelo_inurba_marseille","lat":43.282757,"lon":5.350707,"is_reserved":false,"is_disabled":true,"rental_uris":{"android":"levelo://app?vid=8be361d1-171b-4ab9-af93-e6c62720e7e8","ios":"levelo://app?vid=8be361d1-171b-4ab9-af93-e6c62720e7e8"},"vehicle_type_id":"4","last_reported":1768511525,"current_range_meters":4000,"station_id":"ce4bhbp2rcd13ifvqerg","pricing_plan_id":"cebpf4jnsgd1na2vs0mg"},{"bike_id":"1821f50e-6a86-46f8-ade1-2f2c6b167d1c","system_id":"levelo_inurba_marseille","lat":43.30667,"lon":5.40079,"is_reserved":false,"is_disabled":false,"rental_uris":{"android":"levelo://app?vid=1821f50e-6a86-46f8-ade1-2f2c6b167d1c","ios":"levelo://app?vid=1821f50e-6a86-46f8-ade1-2f2c6b167d1c"},"vehicle_type_id":"4","last_reported":1768511525,"current_range_meters":4000,"station_id":"ce4bh112rcd13ifvqda0","pricing_plan_id":"cebpf4jnsgd1na2vs0mg"},{"bike_id":"57b5227e-8460-48fe-a4f0-626b434b3af5","system_id":"levelo_inurba_marseille","lat":43.3171,"lon":5.37726,"is_reserved":false,"is_disabled":false,"rental_uris":{"android":"levelo://app?vid=57b5227e-8460-48fe-a4f0-626b434b3af5","ios":"levelo://app?vid=57b5227e-8460-48fe-a4f0-626b434b3af5"},"vehicle_type_id":"4","last_reported":1768511525,"current_range_meters":4000,"station_id":"ce4bgth2rcd13ifvqch0","pricing_plan_id":"cebpf4jnsgd1na2vs0mg"},{"bike_id":"c3e6e69d-ba2f-4302-94f0-0016c4ca520e","system_id":"levelo_inurba_marseille","lat":43.27999,"lon":5.40028,"is_reserved":false,"is_disabled":false,"rental_uris":{"android":"levelo://app?vid=c3e6e69d-ba2f-4302-94f0-0016c4ca520e","ios":"levelo://app?vid=c3e6e69d-ba2f-4302-94f0-0016c4ca520e"},"vehicle_type_id":"4","last_reported":1768511525,"current_range_meters":4000,"station_id":"ce4bho92rcd13ifvqh4g","pricing_plan_id":"cebpf4jnsgd1na2vs0mg"},{"bike_id":"56790d27-8ddf-41a2-b5b3-583677679935","system_id":"levelo_inurba_marseille","lat":43.2481,"lon":5.37452,"is_reserved":false,"is_disabled":false,"rental_uris":{"android":"levelo://app?vid=56790d27-8ddf-41a2-b5b3-583677679935","ios":"levelo://app?vid=56790d27-8ddf-41a2-b5b3-583677679935"},"vehicle_type_id":"4","last_reported":1768511525,"current_range_meters":4000,"station_id":"ce4bhgh2rcd13ifvqfb0","pricing_plan_id":"cebpf4jnsgd1na2vs0mg"},{"bike_id":"0a3fe00f-38d0-43b6-a016-635022657667","system_id":"levelo_inurba_marseille","lat":43.262085,"lon":5.393269,"is_reserved":false,"is_disabled":false,"rental_uris":{"android":"levelo://app?vid=0a3fe00f-38d0-43b6-a016-635022657667","ios":"levelo://app?vid=0a3fe00f-38d0-43b6-a016-635022657667"},"vehicle_type_id":"4","last_reported":1768511525,"current_range_meters":4000,"station_id":"ce4bhh92rcd13ifvqfj0","pricing_plan_id":"cebpf4jnsgd1na2vs0mg"},{"bike_id":"b02e7b3d-bfa1-4a73-bfb4-3a8d24b24cf4","system_id":"levelo_inurba_marseille","lat":43.25507,"lon":5.37657,"is_reserved":false,"is_disabled":false,"rental_uris":{"android":"levelo://app?vid=b02e7b3d-bfa1-4a73-bfb4-3a8d24b24cf4","ios":"levelo://app?vid=b02e7b3d-bfa1-4a73-bfb4-3a8d24b24cf4"},"vehicle_type_id":"4","last_reported":1768511525,"current_range_meters":4400,"station_id":"ce4bhh12rcd13ifvqff0","pricing_plan_id":"cebpf4jnsgd1na2vs0mg"},{"bike_id":"07416b25-3565-4611-8a8f-087ad7ce87f4","system_id":"levelo_inurba_marseille","lat":43.2903,"lon":5.37152,"is_reserved":false,"is_disabled":false,"rental_uris":{"android":"levelo://app?vid=07416b25-3565-4611-8a8f-087ad7ce87f4","ios":"levelo://app?vid=07416b25-3565-4611-8a8f-087ad7ce87f4"},"vehicle_type_id":"4","last_reported":1768511525,"current_range_meters":4400,"station_id":"ce4bh5p2rcd13ifvqe4g","pricing_plan_id":"cebpf4jnsgd1na2vs0mg"},{"bike_id":"0cc13f42-9562-48d5-8ba3-b1844f9cd1ea","system_id":"levelo_inurba_marseille","lat":43.30505,"lon":5.37336,"is_reserved":false,"is_disabled":false,"rental_uris":{"android":"levelo://app?vid=0cc13f42-9562-48d5-8ba3-b1844f9cd1ea","ios":"levelo://app?vid=0cc13f42-9562-48d5-8ba3-b1844f9cd1ea"},"vehicle_type_id":"4","last_reported":1768511525,"current_range_meters":4400,"station_id":"","pricing_plan_id":"cebpf4jnsgd1na2vs0mg"},{"bike_id":"26e05d3c-6761-4b77-951f-c864124fa018","system_id":"levelo_inurba_marseille","lat":43.25005,"lon":5.38915,"is_reserved":false,"is_disabled":true,"rental_uris":{"android":"levelo://app?vid=26e05d3c-6761-4b77-951f-c864124fa018","ios":"levelo://app?vid=26e05d3c-6761-4b77-951f-c864124fa018"},"vehicle_type_id":"4","last_reported":1768511525,"current_range_meters":4400,"station_id":"ce4bhgp2rcd13ifvqfd0","pricing_plan_id":"cebpf4jnsgd1na2vs0mg"},{"bike_id":"dfb0c88e-5d7c-4ce4-a817-0c7d987328d1","system_id":"levelo_inurba_marseille","lat":43.29033,"lon":5.37583,"is_reserved":false,"is_disabled":false,"rental_uris":{"android":"levelo://app?vid=dfb0c88e-5d7c-4ce4-a817-0c7d987328d1","ios":"levelo://app?vid=dfb0c88e-5d7c-4ce4-a817-0c7d987328d1"},"vehicle_type_id":"4","last_reported":1768511525,"current_range_meters":4400,"station_id":"ce4bh692rcd13ifvqe90","pricing_plan_id":"cebpf4jnsgd1na2vs0mg"},{"bike_id":"af4d5202-0d4e-46c3-a072-f69a3799cdfc","system_id":"levelo_inurba_marseille","lat":43.29237,"lon":5.38374,"is_reserved":false,"is_disabled":false,"rental_uris":{"android":"levelo://app?vid=af4d5202-0d4e-46c3-a072-f69a3799cdfc","ios":"levelo://app?vid=af4d5202-0d4e-46c3-a072-f69a3799cdfc"},"vehicle_type_id":"4","last_reported":1768511525,"current_range_meters":4400,"station_id":"","pricing_plan_id":"cebpf4jnsgd1na2vs0mg"},{"bike_id":"45560b8c-0e05-4e12-aadd-6d4f84ae2310","system_id":"levelo_inurba_marseille","lat":43.2687,"lon":5.38911,"is_reserved":false,"is_disabled":false,"rental_uris":{"android":"levelo://app?vid=45560b8c-0e05-4e12-aadd-6d4f84ae2310","ios":"levelo://app?vid=45560b8c-0e05-4e12-aadd-6d4f84ae2310"},"vehicle_type_id":"4","last_reported":1768511525,"current_range_meters":4400,"station_id":"","pricing_plan_id":"cebpf4jnsgd1na2vs0mg"},{"bike_id":"f1d328ec-8a2c-4647-8162-9531bcbcb299","system_id":"levelo_inurba_marseille","lat":43.24456,"lon":5.41091,"is_reserved":false,"is_disabled":false,"rental_uris":{"android":"levelo://app?vid=f1d328ec-8a2c-4647-8162-9531bcbcb299","ios":"levelo://app?vid=f1d328ec-8a2c-4647-8162-9531bcbcb299"},"vehicle_type_id":"4","last_reported":1768511525,"current_range_meters":4400,"station_id":"","pricing_plan_id":"cebpf4jnsgd1na2vs0mg"},{"bike_id":"b3817e2e-cdb9-4c8a-ac4e-2553b766e5fa","system_id":"levelo_inurba_marseille","lat":43.27813,"lon":5.40725,"is_reserved":false,"is_disabled":false,"rental_uris":{"android":"levelo://app?vid=b3817e2e-cdb9-4c8a-ac4e-2553b766e5fa","ios":"levelo://app?vid=b3817e2e-cdb9-4c8a-ac4e-2553b766e5fa"},"vehicle_type_id":"4","last_reported":1768511525,"current_range_meters":4800,"station_id":"ce4bhnh2rcd13ifvqgtg","pricing_plan_id":"cebpf4jnsgd1na2vs0mg"},{"bike_id":"5cfd03cf-24a1-4762-9fb7-26a053abe44f","system_id":"levelo_inurba_marseille","lat":43.25853,"lon":5.39428,"is_reserved":false,"is_disabled":false,"rental_uris":{"android":"levelo://app?vid=5cfd03cf-24a1-4762-9fb7-26a053abe44f","ios":"levelo://app?vid=5cfd03cf-24a1-4762-9fb7-26a053abe44f"},"vehicle_type_id":"4","last_reported":1768511525,"current_range_meters":4800,"station_id":"ce4bhip2rcd13ifvqft0","pricing_plan_id":"cebpf4jnsgd1na2vs0mg"},{"bike_id":"3ff3b472-3b75-482c-aa50-6907cace285a","system_id":"levelo_inurba_marseille","lat":43.23788,"lon":5.36636,"is_reserved":false,"is_disabled":false,"rental_uris":{"android":"levelo://app?vid=3ff3b472-3b75-482c-aa50-6907cace285a","ios":"levelo://app?vid=3ff3b472-3b75-482c-aa50-6907cace285a"},"vehicle_type_id":"4","last_reported":1768511525,"current_range_meters":4800,"station_id":"st_d3nk18o9ro0c73en2l3g","pricing_plan_id":"cebpf4jnsgd1na2vs0mg"},{"bike_id":"41c6df5d-9efa-4820-9975-0d7427d61fed","system_id":"levelo_inurba_marseille","lat":43.28924,"lon":5.38405,"is_reserved":false,"is_disabled":false,"rental_uris":{"android":"levelo://app?vid=41c6df5d-9efa-4820-9975-0d7427d61fed","ios":"levelo://app?vid=41c6df5d-9efa-4820-9975-0d7427d61fed"},"vehicle_type_id":"4","last_reported":1768511525,"current_range_meters":4800,"station_id":"ce4bh612rcd13ifvqe6g","pricing_plan_id":"cebpf4jnsgd1na2vs0mg"},{"bike_id":"2bae9f67-b649-4326-9db5-076d835a5d1d","system_id":"levelo_inurba_marseille","lat":43.24624,"lon":5.43117,"is_reserved":false,"is_disabled":false,"rental_uris":{"android":"levelo://app?vid=2bae9f67-b649-4326-9db5-076d835a5d1d","ios":"levelo://app?vid=2bae9f67-b649-4326-9db5-076d835a5d1d"},"vehicle_type_id":"4","last_reported":1768511525,"current_range_meters":4800,"station_id":"st_d2m6c4gdas8pm72e190g","pricing_plan_id":"cebpf4jnsgd1na2vs0mg"},{"bike_id":"7a5c08cf-d90b-408e-a297-6ea242ed66a8","system_id":"levelo_inurba_marseille","lat":43.25504,"lon":5.37666,"is_reserved":false,"is_disabled":false,"rental_uris":{"android":"levelo://app?vid=7a5c08cf-d90b-408e-a297-6ea242ed66a8","ios":"levelo://app?vid=7a5c08cf-d90b-408e-a297-6ea242ed66a8"},"vehicle_type_id":"4","last_reported":1768511525,"current_range_meters":4800,"station_id":"ce4bhh12rcd13ifvqff0","pricing_plan_id":"cebpf4jnsgd1na2vs0mg"},{"bike_id":"09b3e5ca-db4b-4a6b-b1f5-e6e317845680","system_id":"levelo_inurba_marseille","lat":43.2938,"lon":5.37855,"is_reserved":false,"is_disabled":false,"rental_uris":{"android":"levelo://app?vid=09b3e5ca-db4b-4a6b-b1f5-e6e317845680","ios":"levelo://app?vid=09b3e5ca-db4b-4a6b-b1f5-e6e317845680"},"vehicle_type_id":"4","last_reported":1768511525,"current_range_meters":4800,"station_id":"ce4bgjh2rcd13ifvqbf0","pricing_plan_id":"cebpf4jnsgd1na2vs0mg"},{"bike_id":"d1fd5b02-bc13-42b2-a054-a9b64f3553b6","system_id":"levelo_inurba_marseille","lat":43.29537,"lon":5.38541,"is_reserved":false,"is_disabled":false,"rental_uris":{"android":"levelo://app?vid=d1fd5b02-bc13-42b2-a054-a9b64f3553b6","ios":"levelo://app?vid=d1fd5b02-bc13-42b2-a054-a9b64f3553b6"},"vehicle_type_id":"4","last_reported":1768511525,"current_range_meters":4800,"station_id":"ce4bgih2rcd13ifvqba0","pricing_plan_id":"cebpf4jnsgd1na2vs0mg"},{"bike_id":"9b13de66-c1dd-401e-ac5b-c58054fa87f8","system_id":"levelo_inurba_marseille","lat":43.295292,"lon":5.385439,"is_reserved":false,"is_disabled":false,"rental_uris":{"android":"levelo://app?vid=9b13de66-c1dd-401e-ac5b-c58054fa87f8","ios":"levelo://app?vid=9b13de66-c1dd-401e-ac5b-c58054fa87f8"},"vehicle_type_id":"4","last_reported":1768511525,"current_range_meters":4800,"station_id":"ce4bgih2rcd13ifvqba0","pricing_plan_id":"cebpf4jnsgd1na2vs0mg"},{"bike_id":"b5ad29a0-462d-4d07-9a18-d87946a4398c","system_id":"levelo_inurba_marseille","lat":43.31146,"lon":5.38057,"is_reserved":false,"is_disabled":false,"rental_uris":{"android":"levelo://app?vid=b5ad29a0-462d-4d07-9a18-d87946a4398c","ios":"levelo://app?vid=b5ad29a0-462d-4d07-9a18-d87946a4398c"},"vehicle_type_id":"4","last_reported":1768511525,"current_range_meters":4800,"station_id":"","pricing_plan_id":"cebpf4jnsgd1na2vs0mg"},{"bike_id":"1665fbb0-027c-4469-9a12-f7bda2614b3b","system_id":"levelo_inurba_marseille","lat":43.24826,"lon":5.37455,"is_reserved":false,"is_disabled":false,"rental_uris":{"android":"levelo://app?vid=1665fbb0-027c-4469-9a12-f7bda2614b3b","ios":"levelo://app?vid=1665fbb0-027c-4469-9a12-f7bda2614b3b"},"vehicle_type_id":"4","last_reported":1768511525,"current_range_meters":5600,"station_id":"ce4bhgh2rcd13ifvqfb0","pricing_plan_id":"cebpf4jnsgd1na2vs0mg"},{"bike_id":"c03cd309-c737-47c4-a7e9-06a2667d9dfa","system_id":"levelo_inurba_marseille","lat":43.2853,"lon":5.44094,"is_reserved":false,"is_disabled":false,"rental_uris":{"android":"levelo://app?vid=c03cd309-c737-47c4-a7e9-06a2667d9dfa","ios":"levelo://app?vid=c03cd309-c737-47c4-a7e9-06a2667d9dfa"},"vehicle_type_id":"4","last_reported":1768511525,"current_range_meters":5600,"station_id":"st_d3j3df2ikq2c7380ej80","pricing_plan_id":"cebpf4jnsgd1na2vs0mg"},{"bike_id":"673fd0b9-828b-44b2-b82b-3c75e109c9c4","system_id":"levelo_inurba_marseille","lat":43.29549,"lon":5.38551,"is_reserved":false,"is_disabled":false,"rental_uris":{"android":"levelo://app?vid=673fd0b9-828b-44b2-b82b-3c75e109c9c4","ios":"levelo://app?vid=673fd0b9-828b-44b2-b82b-3c75e109c9c4"},"vehicle_type_id":"4","last_reported":1768511525,"current_range_meters":5600,"station_id":"ce4bgih2rcd13ifvqba0","pricing_plan_id":"cebpf4jnsgd1na2vs0mg"},{"bike_id":"05cbb25b-60ad-4710-8b0e-01cf38628829","system_id":"levelo_inurba_marseille","lat":43.3021,"lon":5.39476,"is_reserved":false,"is_disabled":false,"rental_uris":{"android":"levelo://app?vid=05cbb25b-60ad-4710-8b0e-01cf38628829","ios":"levelo://app?vid=05cbb25b-60ad-4710-8b0e-01cf38628829"},"vehicle_type_id":"4","last_reported":1768511525,"current_range_meters":5600,"station_id":"ce4bh0p2rcd13ifvqd70","pricing_plan_id":"cebpf4jnsgd1na2vs0mg"},{"bike_id":"1c051b1c-6329-4082-803a-f7e4ea56755d","system_id":"levelo_inurba_marseille","lat":43.24081,"lon":5.3775,"is_reserved":false,"is_disabled":false,"rental_uris":{"android":"levelo://app?vid=1c051b1c-6329-4082-803a-f7e4ea56755d","ios":"levelo://app?vid=1c051b1c-6329-4082-803a-f7e4ea56755d"},"vehicle_type_id":"4","last_reported":1768511525,"current_range_meters":5600,"station_id":"ce4bhnp2rcd13ifvqgvg","pricing_plan_id":"cebpf4jnsgd1na2vs0mg"},{"bike_id":"7c13900c-9ba6-4085-bea5-af3b0d13af71","system_id":"levelo_inurba_marseille","lat":43.29672,"lon":5.38062,"is_reserved":false,"is_disabled":false,"rental_uris":{"android":"levelo://app?vid=7c13900c-9ba6-4085-bea5-af3b0d13af71","ios":"levelo://app?vid=7c13900c-9ba6-4085-bea5-af3b0d13af71"},"vehicle_type_id":"4","last_reported":1768511525,"current_range_meters":5600,"station_id":"","pricing_plan_id":"cebpf4jnsgd1na2vs0mg"},{"bike_id":"b312db78-e8ac-4f11-b037-0c9bd94e0705","system_id":"levelo_inurba_marseille","lat":43.28666,"lon":5.36354,"is_reserved":false,"is_disabled":false,"rental_uris":{"android":"levelo://app?vid=b312db78-e8ac-4f11-b037-0c9bd94e0705","ios":"levelo://app?vid=b312db78-e8ac-4f11-b037-0c9bd94e0705"},"vehicle_type_id":"4","last_reported":1768511525,"current_range_meters":5600,"station_id":"ce4bhah2rcd13ifvqej0","pricing_plan_id":"cebpf4jnsgd1na2vs0mg"},{"bike_id":"a3a68054-3a27-4a78-8534-42fd98fd0061","system_id":"levelo_inurba_marseille","lat":43.25574,"lon":5.38218,"is_reserved":false,"is_disabled":false,"rental_uris":{"android":"levelo://app?vid=a3a68054-3a27-4a78-8534-42fd98fd0061","ios":"levelo://app?vid=a3a68054-3a27-4a78-8534-42fd98fd0061"},"vehicle_type_id":"4","last_reported":1768511525,"current_range_meters":5600,"station_id":"ce4bhih2rcd13ifvqfs0","pricing_plan_id":"cebpf4jnsgd1na2vs0mg"},{"bike_id":"e01689a8-673f-4fe8-a8b4-e1f91af166ad","system_id":"levelo_inurba_marseille","lat":43.29556,"lon":5.39977,"is_reserved":false,"is_disabled":false,"rental_uris":{"android":"levelo://app?vid=e01689a8-673f-4fe8-a8b4-e1f91af166ad","ios":"levelo://app?vid=e01689a8-673f-4fe8-a8b4-e1f91af166ad"},"vehicle_type_id":"4","last_reported":1768511525,"current_range_meters":5600,"station_id":"ce4bh312rcd13ifvqdj0","pricing_plan_id":"cebpf4jnsgd1na2vs0mg"},{"bike_id":"c3322278-dd1d-4edb-aa8d-b49c22c304c2","system_id":"levelo_inurba_marseille","lat":43.24171,"lon":5.39738,"is_reserved":false,"is_disabled":false,"rental_uris":{"android":"levelo://app?vid=c3322278-dd1d-4edb-aa8d-b49c22c304c2","ios":"levelo://app?vid=c3322278-dd1d-4edb-aa8d-b49c22c304c2"},"vehicle_type_id":"4","last_reported":1768511525,"current_range_meters":5600,"station_id":"ce4bhn12rcd13ifvqgpg","pricing_plan_id":"cebpf4jnsgd1na2vs0mg"},{"bike_id":"d696a850-a902-46d1-b8ad-7f557410f2da","system_id":"levelo_inurba_marseille","lat":43.30897,"lon":5.3965,"is_reserved":false,"is_disabled":false,"rental_uris":{"android":"levelo://app?vid=d696a850-a902-46d1-b8ad-7f557410f2da","ios":"levelo://app?vid=d696a850-a902-46d1-b8ad-7f557410f2da"},"vehicle_type_id":"4","last_reported":1768511525,"current_range_meters":5600,"station_id":"ce4bh012rcd13ifvqcv0","pricing_plan_id":"cebpf4jnsgd1na2vs0mg"},{"bike_id":"3fd4d04e-ddd6-40be-baa6-433aead63644","system_id":"levelo_inurba_marseille","lat":43.30403,"lon":5.41294,"is_reserved":false,"is_disabled":false,"rental_uris":{"android":"levelo://app?vid=3fd4d04e-ddd6-40be-baa6-433aead63644","ios":"levelo://app?vid=3fd4d04e-ddd6-40be-baa6-433aead63644"},"vehicle_type_id":"4","last_reported":1768511525,"current_range_meters":5600,"station_id":"ce4bhop2rcd13ifvqh8g","pricing_plan_id":"cebpf4jnsgd1na2vs0mg"},{"bike_id":"1c9762d0-99c2-407e-affd-fe0880429a32","system_id":"levelo_inurba_marseille","lat":43.24625,"lon":5.43156,"is_reserved":false,"is_disabled":false,"rental_uris":{"android":"levelo://app?vid=1c9762d0-99c2-407e-affd-fe0880429a32","ios":"levelo://app?vid=1c9762d0-99c2-407e-affd-fe0880429a32"},"vehicle_type_id":"4","last_reported":1768511525,"current_range_meters":5600,"station_id":"st_d2m6c4gdas8pm72e190g","pricing_plan_id":"cebpf4jnsgd1na2vs0mg"},{"bike_id":"f8641e67-468f-4532-8957-9e2f50d6a634","system_id":"levelo_inurba_marseille","lat":43.3032,"lon":5.36906,"is_reserved":false,"is_disabled":false,"rental_uris":{"android":"levelo://app?vid=f8641e67-468f-4532-8957-9e2f50d6a634","ios":"levelo://app?vid=f8641e67-468f-4532-8957-9e2f50d6a634"},"vehicle_type_id":"4","last_reported":1768511525,"current_range_meters":5600,"station_id":"ce4bgqh2rcd13ifvqc5g","pricing_plan_id":"cebpf4jnsgd1na2vs0mg"},{"bike_id":"a33c3167-3eca-46a2-91bd-5ae48b614622","system_id":"levelo_inurba_marseille","lat":43.24819,"lon":5.37453,"is_reserved":false,"is_disabled":false,"rental_uris":{"android":"levelo://app?vid=a33c3167-3eca-46a2-91bd-5ae48b614622","ios":"levelo://app?vid=a33c3167-3eca-46a2-91bd-5ae48b614622"},"vehicle_type_id":"4","last_reported":1768511525,"current_range_meters":6000,"station_id":"ce4bhgh2rcd13ifvqfb0","pricing_plan_id":"cebpf4jnsgd1na2vs0mg"},{"bike_id":"d0b267f6-f914-42a7-9362-552b1e3f772c","system_id":"levelo_inurba_marseille","lat":43.25863,"lon":5.39897,"is_reserved":false,"is_disabled":false,"rental_uris":{"android":"levelo://app?vid=d0b267f6-f914-42a7-9362-552b1e3f772c","ios":"levelo://app?vid=d0b267f6-f914-42a7-9362-552b1e3f772c"},"vehicle_type_id":"4","last_reported":1768511525,"current_range_meters":6000,"station_id":"ce4bhl92rcd13ifvqghg","pricing_plan_id":"cebpf4jnsgd1na2vs0mg"},{"bike_id":"333678ab-48ed-467f-be49-f68e59ac50d3","system_id":"levelo_inurba_marseille","lat":43.28214,"lon":5.39043,"is_reserved":false,"is_disabled":false,"rental_uris":{"android":"levelo://app?vid=333678ab-48ed-467f-be49-f68e59ac50d3","ios":"levelo://app?vid=333678ab-48ed-467f-be49-f68e59ac50d3"},"vehicle_type_id":"4","last_reported":1768511525,"current_range_meters":6000,"station_id":"ce4bhn92rcd13ifvqgsg","pricing_plan_id":"cebpf4jnsgd1na2vs0mg"},{"bike_id":"9fd76afb-1b61-4a30-a9a1-0703501a8a8a","system_id":"levelo_inurba_marseille","lat":43.29254,"lon":5.38441,"is_reserved":false,"is_disabled":false,"rental_uris":{"android":"levelo://app?vid=9fd76afb-1b61-4a30-a9a1-0703501a8a8a","ios":"levelo://app?vid=9fd76afb-1b61-4a30-a9a1-0703501a8a8a"},"vehicle_type_id":"4","last_reported":1768511525,"current_range_meters":6000,"station_id":"ce4bh692rcd13ifvqea0","pricing_plan_id":"cebpf4jnsgd1na2vs0mg"},{"bike_id":"04ade247-f407-4bd6-9e53-d992984d2e85","system_id":"levelo_inurba_marseille","lat":43.26542,"lon":5.40345,"is_reserved":false,"is_disabled":false,"rental_uris":{"android":"levelo://app?vid=04ade247-f407-4bd6-9e53-d992984d2e85","ios":"levelo://app?vid=04ade247-f407-4bd6-9e53-d992984d2e85"},"vehicle_type_id":"4","last_reported":1768511525,"current_range_meters":6000,"station_id":"ce4bhmp2rcd13ifvqgng","pricing_plan_id":"cebpf4jnsgd1na2vs0mg"},{"bike_id":"e19e70c3-1cf0-4471-994a-a7d8c127e1c1","system_id":"levelo_inurba_marseille","lat":43.31358,"lon":5.38498,"is_reserved":false,"is_disabled":false,"rental_uris":{"android":"levelo://app?vid=e19e70c3-1cf0-4471-994a-a7d8c127e1c1","ios":"levelo://app?vid=e19e70c3-1cf0-4471-994a-a7d8c127e1c1"},"vehicle_type_id":"4","last_reported":1768511525,"current_range_meters":6000,"station_id":"ce4bgt92rcd13ifvqcf0","pricing_plan_id":"cebpf4jnsgd1na2vs0mg"},{"bike_id":"045e9d48-83b4-464f-9465-7c29bf6ec9c6","system_id":"levelo_inurba_marseille","lat":43.28549,"lon":5.44079,"is_reserved":false,"is_disabled":false,"rental_uris":{"android":"levelo://app?vid=045e9d48-83b4-464f-9465-7c29bf6ec9c6","ios":"levelo://app?vid=045e9d48-83b4-464f-9465-7c29bf6ec9c6"},"vehicle_type_id":"4","last_reported":1768511525,"current_range_meters":6000,"station_id":"st_d3j3df2ikq2c7380ej80","pricing_plan_id":"cebpf4jnsgd1na2vs0mg"},{"bike_id":"b91539d5-f355-4a5f-a9af-6e7991d59b03","system_id":"levelo_inurba_marseille","lat":43.3032,"lon":5.40443,"is_reserved":false,"is_disabled":false,"rental_uris":{"android":"levelo://app?vid=b91539d5-f355-4a5f-a9af-6e7991d59b03","ios":"levelo://app?vid=b91539d5-f355-4a5f-a9af-6e7991d59b03"},"vehicle_type_id":"4","last_reported":1768511525,"current_range_meters":6000,"station_id":"ce4bh012rcd13ifvqd10","pricing_plan_id":"cebpf4jnsgd1na2vs0mg"},{"bike_id":"b0af1aeb-c4d6-4641-bc9e-da7e6c1db235","system_id":"levelo_inurba_marseille","lat":43.32089,"lon":5.36789,"is_reserved":false,"is_disabled":false,"rental_uris":{"android":"levelo://app?vid=b0af1aeb-c4d6-4641-bc9e-da7e6c1db235","ios":"levelo://app?vid=b0af1aeb-c4d6-4641-bc9e-da7e6c1db235"},"vehicle_type_id":"4","last_reported":1768511525,"current_range_meters":6000,"station_id":"ce4bhrh2rcd13ifvqhug","pricing_plan_id":"cebpf4jnsgd1na2vs0mg"},{"bike_id":"b16db95a-1eae-47ad-b2e3-882874b3d4d4","system_id":"levelo_inurba_marseille","lat":43.28478,"lon":5.48387,"is_reserved":false,"is_disabled":false,"rental_uris":{"android":"levelo://app?vid=b16db95a-1eae-47ad-b2e3-882874b3d4d4","ios":"levelo://app?vid=b16db95a-1eae-47ad-b2e3-882874b3d4d4"},"vehicle_type_id":"4","last_reported":1768511525,"current_range_meters":6000,"station_id":"st_d3svhcjqgbts73a3dn0g","pricing_plan_id":"cebpf4jnsgd1na2vs0mg"},{"bike_id":"23694f2c-b2d4-4d58-b373-d1c7186e4244","system_id":"levelo_inurba_marseille","lat":43.29763,"lon":5.42767,"is_reserved":false,"is_disabled":false,"rental_uris":{"android":"levelo://app?vid=23694f2c-b2d4-4d58-b373-d1c7186e4244","ios":"levelo://app?vid=23694f2c-b2d4-4d58-b373-d1c7186e4244"},"vehicle_type_id":"4","last_reported":1768511525,"current_range_meters":6000,"station_id":"st_d3md5207bmas73dh9klg","pricing_plan_id":"cebpf4jnsgd1na2vs0mg"},{"bike_id":"153daeb6-1ced-443a-8511-9ccae5c5d53f","system_id":"levelo_inurba_marseille","lat":43.31709,"lon":5.37515,"is_reserved":false,"is_disabled":false,"rental_uris":{"android":"levelo://app?vid=153daeb6-1ced-443a-8511-9ccae5c5d53f","ios":"levelo://app?vid=153daeb6-1ced-443a-8511-9ccae5c5d53f"},"vehicle_type_id":"4","last_reported":1768511525,"current_range_meters":6000,"station_id":"","pricing_plan_id":"cebpf4jnsgd1na2vs0mg"},{"bike_id":"705d32b4-b129-4b6a-9219-88a701fed4c6","system_id":"levelo_inurba_marseille","lat":43.29625,"lon":5.37167,"is_reserved":false,"is_disabled":false,"rental_uris":{"android":"levelo://app?vid=705d32b4-b129-4b6a-9219-88a701fed4c6","ios":"levelo://app?vid=705d32b4-b129-4b6a-9219-88a701fed4c6"},"vehicle_type_id":"4","last_reported":1768511525,"current_range_meters":6000,"station_id":"ce4bgnh2rcd13ifvqc0g","pricing_plan_id":"cebpf4jnsgd1na2vs0mg"},{"bike_id":"99409799-c113-4b8e-ae0b-ffe9a1c1e6c2","system_id":"levelo_inurba_marseille","lat":43.28492,"lon":5.38407,"is_reserved":false,"is_disabled":false,"rental_uris":{"android":"levelo://app?vid=99409799-c113-4b8e-ae0b-ffe9a1c1e6c2","ios":"levelo://app?vid=99409799-c113-4b8e-ae0b-ffe9a1c1e6c2"},"vehicle_type_id":"4","last_reported":1768511525,"current_range_meters":6000,"station_id":"ce4bh512rcd13ifvqe3g","pricing_plan_id":"cebpf4jnsgd1na2vs0mg"},{"bike_id":"1647898a-7e44-47a9-947d-d61611f1f7c8","system_id":"levelo_inurba_marseille","lat":43.23949,"lon":5.36649,"is_reserved":false,"is_disabled":false,"rental_uris":{"android":"levelo://app?vid=1647898a-7e44-47a9-947d-d61611f1f7c8","ios":"levelo://app?vid=1647898a-7e44-47a9-947d-d61611f1f7c8"},"vehicle_type_id":"4","last_reported":1768511525,"current_range_meters":6000,"station_id":"ce4bhi12rcd13ifvqfp0","pricing_plan_id":"cebpf4jnsgd1na2vs0mg"},{"bike_id":"691d5fc0-c268-4d2b-9f44-44b515ba68ce","system_id":"levelo_inurba_marseille","lat":43.253331,"lon":5.421744,"is_reserved":false,"is_disabled":false,"rental_uris":{"android":"levelo://app?vid=691d5fc0-c268-4d2b-9f44-44b515ba68ce","ios":"levelo://app?vid=691d5fc0-c268-4d2b-9f44-44b515ba68ce"},"vehicle_type_id":"4","last_reported":1768511525,"current_range_meters":6000,"station_id":"st_d2m65c5bi1j21697t3ng","pricing_plan_id":"cebpf4jnsgd1na2vs0mg"},{"bike_id":"bbca5a78-1ee0-4dab-ba7e-f05d9beea402","system_id":"levelo_inurba_marseille","lat":43.244744,"lon":5.425247,"is_reserved":false,"is_disabled":false,"rental_uris":{"android":"levelo://app?vid=bbca5a78-1ee0-4dab-ba7e-f05d9beea402","ios":"levelo://app?vid=bbca5a78-1ee0-4dab-ba7e-f05d9beea402"},"vehicle_type_id":"4","last_reported":1768511525,"current_range_meters":6000,"station_id":"st_d4a3vfp97mjs738cd8kg","pricing_plan_id":"cebpf4jnsgd1na2vs0mg"},{"bike_id":"2a127f4a-92a1-4c20-a5f2-8feed33d8339","system_id":"levelo_inurba_marseille","lat":43.32477,"lon":5.36575,"is_reserved":false,"is_disabled":false,"rental_uris":{"android":"levelo://app?vid=2a127f4a-92a1-4c20-a5f2-8feed33d8339","ios":"levelo://app?vid=2a127f4a-92a1-4c20-a5f2-8feed33d8339"},"vehicle_type_id":"4","last_reported":1768511525,"current_range_meters":6000,"station_id":"ce4bhs12rcd13ifvqhvg","pricing_plan_id":"cebpf4jnsgd1na2vs0mg"},{"bike_id":"eb738c0a-1dd4-4d94-b0d0-f95b7802bb79","system_id":"levelo_inurba_marseille","lat":43.29035,"lon":5.386584,"is_reserved":false,"is_disabled":false,"rental_uris":{"android":"levelo://app?vid=eb738c0a-1dd4-4d94-b0d0-f95b7802bb79","ios":"levelo://app?vid=eb738c0a-1dd4-4d94-b0d0-f95b7802bb79"},"vehicle_type_id":"4","last_reported":1768511525,"current_range_meters":6400,"station_id":"ce4bh4p2rcd13ifvqe0g","pricing_plan_id":"cebpf4jnsgd1na2vs0mg"},{"bike_id":"05e16fb9-c29b-478d-98b3-025d2b880cd6","system_id":"levelo_inurba_marseille","lat":43.250524,"lon":5.396941,"is_reserved":false,"is_disabled":false,"rental_uris":{"android":"levelo://app?vid=05e16fb9-c29b-478d-98b3-025d2b880cd6","ios":"levelo://app?vid=05e16fb9-c29b-478d-98b3-025d2b880cd6"},"vehicle_type_id":"4","last_reported":1768511525,"current_range_meters":6400,"station_id":"","pricing_plan_id":"cebpf4jnsgd1na2vs0mg"},{"bike_id":"82b87168-267f-432c-a609-70f7b40ac901","system_id":"levelo_inurba_marseille","lat":43.27709,"lon":5.40799,"is_reserved":false,"is_disabled":false,"rental_uris":{"android":"levelo://app?vid=82b87168-267f-432c-a609-70f7b40ac901","ios":"levelo://app?vid=82b87168-267f-432c-a609-70f7b40ac901"},"vehicle_type_id":"4","last_reported":1768511525,"current_range_meters":6400,"station_id":"","pricing_plan_id":"cebpf4jnsgd1na2vs0mg"},{"bike_id":"e003fee9-e905-4cfe-80f4-f93375901dd0","system_id":"levelo_inurba_marseille","lat":43.248047,"lon":5.37459,"is_reserved":false,"is_disabled":false,"rental_uris":{"android":"levelo://app?vid=e003fee9-e905-4cfe-80f4-f93375901dd0","ios":"levelo://app?vid=e003fee9-e905-4cfe-80f4-f93375901dd0"},"vehicle_type_id":"4","last_reported":1768511525,"current_range_meters":6400,"station_id":"ce4bhgh2rcd13ifvqfb0","pricing_plan_id":"cebpf4jnsgd1na2vs0mg"},{"bike_id":"9ad917c7-dbd4-426b-90b7-0264f0724281","system_id":"levelo_inurba_marseille","lat":43.26058,"lon":5.39397,"is_reserved":false,"is_disabled":false,"rental_uris":{"android":"levelo://app?vid=9ad917c7-dbd4-426b-90b7-0264f0724281","ios":"levelo://app?vid=9ad917c7-dbd4-426b-90b7-0264f0724281"},"vehicle_type_id":"4","last_reported":1768511525,"current_range_meters":6400,"station_id":"ce4bhh92rcd13ifvqfj0","pricing_plan_id":"cebpf4jnsgd1na2vs0mg"},{"bike_id":"5f7d7ab8-22eb-44f4-b629-9cb567806cf8","system_id":"levelo_inurba_marseille","lat":43.22931,"lon":5.35387,"is_reserved":false,"is_disabled":false,"rental_uris":{"android":"levelo://app?vid=5f7d7ab8-22eb-44f4-b629-9cb567806cf8","ios":"levelo://app?vid=5f7d7ab8-22eb-44f4-b629-9cb567806cf8"},"vehicle_type_id":"4","last_reported":1768511525,"current_range_meters":6400,"station_id":"cpo3532slgdg3j2ikp40","pricing_plan_id":"cebpf4jnsgd1na2vs0mg"},{"bike_id":"e69ac4ae-c308-46c2-b5a8-224a56ec4411","system_id":"levelo_inurba_marseille","lat":43.29268,"lon":5.3844,"is_reserved":false,"is_disabled":false,"rental_uris":{"android":"levelo://app?vid=e69ac4ae-c308-46c2-b5a8-224a56ec4411","ios":"levelo://app?vid=e69ac4ae-c308-46c2-b5a8-224a56ec4411"},"vehicle_type_id":"4","last_reported":1768511525,"current_range_meters":6400,"station_id":"ce4bh692rcd13ifvqea0","pricing_plan_id":"cebpf4jnsgd1na2vs0mg"},{"bike_id":"ecf0d209-53b9-47e3-8f9f-faa8b0ad9eb4","system_id":"levelo_inurba_marseille","lat":43.24946,"lon":5.40494,"is_reserved":false,"is_disabled":false,"rental_uris":{"android":"levelo://app?vid=ecf0d209-53b9-47e3-8f9f-faa8b0ad9eb4","ios":"levelo://app?vid=ecf0d209-53b9-47e3-8f9f-faa8b0ad9eb4"},"vehicle_type_id":"4","last_reported":1768511525,"current_range_meters":6400,"station_id":"st_d2ngiaodas8pm72gd1h0","pricing_plan_id":"cebpf4jnsgd1na2vs0mg"},{"bike_id":"1a1c0da4-c565-40bd-ac37-a0ef441f8de6","system_id":"levelo_inurba_marseille","lat":43.29006,"lon":5.38651,"is_reserved":false,"is_disabled":false,"rental_uris":{"android":"levelo://app?vid=1a1c0da4-c565-40bd-ac37-a0ef441f8de6","ios":"levelo://app?vid=1a1c0da4-c565-40bd-ac37-a0ef441f8de6"},"vehicle_type_id":"4","last_reported":1768511525,"current_range_meters":6400,"station_id":"ce4bh4p2rcd13ifvqe0g","pricing_plan_id":"cebpf4jnsgd1na2vs0mg"},{"bike_id":"4da4b045-4bb4-44c2-bf61-e03d8af437dc","system_id":"levelo_inurba_marseille","lat":43.29931,"lon":5.39755,"is_reserved":false,"is_disabled":false,"rental_uris":{"android":"levelo://app?vid=4da4b045-4bb4-44c2-bf61-e03d8af437dc","ios":"levelo://app?vid=4da4b045-4bb4-44c2-bf61-e03d8af437dc"},"vehicle_type_id":"4","last_reported":1768511525,"current_range_meters":6400,"station_id":"ce4bh0h2rcd13ifvqd50","pricing_plan_id":"cebpf4jnsgd1na2vs0mg"},{"bike_id":"b8049dce-74e4-4e4d-8a8b-d3ebaaca31da","system_id":"levelo_inurba_marseille","lat":43.24641,"lon":5.4317,"is_reserved":false,"is_disabled":false,"rental_uris":{"android":"levelo://app?vid=b8049dce-74e4-4e4d-8a8b-d3ebaaca31da","ios":"levelo://app?vid=b8049dce-74e4-4e4d-8a8b-d3ebaaca31da"},"vehicle_type_id":"4","last_reported":1768511525,"current_range_meters":6400,"station_id":"st_d2m6c4gdas8pm72e190g","pricing_plan_id":"cebpf4jnsgd1na2vs0mg"},{"bike_id":"d8cb4356-0509-4609-843f-c03e508362c0","system_id":"levelo_inurba_marseille","lat":43.28345,"lon":5.3811,"is_reserved":false,"is_disabled":true,"rental_uris":{"android":"levelo://app?vid=d8cb4356-0509-4609-843f-c03e508362c0","ios":"levelo://app?vid=d8cb4356-0509-4609-843f-c03e508362c0"},"vehicle_type_id":"4","last_reported":1768511525,"current_range_meters":6400,"station_id":"ce4bh412rcd13ifvqdr0","pricing_plan_id":"cebpf4jnsgd1na2vs0mg"},{"bike_id":"df50b4e3-8902-49a1-8366-e1f55ba4823e","system_id":"levelo_inurba_marseille","lat":43.2903,"lon":5.3866,"is_reserved":false,"is_disabled":false,"rental_uris":{"android":"levelo://app?vid=df50b4e3-8902-49a1-8366-e1f55ba4823e","ios":"levelo://app?vid=df50b4e3-8902-49a1-8366-e1f55ba4823e"},"vehicle_type_id":"4","last_reported":1768511525,"current_range_meters":6400,"station_id":"ce4bh4p2rcd13ifvqe0g","pricing_plan_id":"cebpf4jnsgd1na2vs0mg"},{"bike_id":"bc3c387c-8c40-42e3-93c3-5c14834e3a59","system_id":"levelo_inurba_marseille","lat":43.23192,"lon":5.40003,"is_reserved":false,"is_disabled":false,"rental_uris":{"android":"levelo://app?vid=bc3c387c-8c40-42e3-93c3-5c14834e3a59","ios":"levelo://app?vid=bc3c387c-8c40-42e3-93c3-5c14834e3a59"},"vehicle_type_id":"4","last_reported":1768511525,"current_range_meters":6400,"station_id":"ce4bhn12rcd13ifvqgqg","pricing_plan_id":"cebpf4jnsgd1na2vs0mg"},{"bike_id":"24b13bde-24a6-4a9e-8d0f-a64c87085dc9","system_id":"levelo_inurba_marseille","lat":43.29928,"lon":5.38149,"is_reserved":false,"is_disabled":false,"rental_uris":{"android":"levelo://app?vid=24b13bde-24a6-4a9e-8d0f-a64c87085dc9","ios":"levelo://app?vid=24b13bde-24a6-4a9e-8d0f-a64c87085dc9"},"vehicle_type_id":"4","last_reported":1768511525,"current_range_meters":6400,"station_id":"","pricing_plan_id":"cebpf4jnsgd1na2vs0mg"},{"bike_id":"65bcc84f-bced-4e8c-bfc3-ea0c47e00834","system_id":"levelo_inurba_marseille","lat":43.29519,"lon":5.3902,"is_reserved":false,"is_disabled":false,"rental_uris":{"android":"levelo://app?vid=65bcc84f-bced-4e8c-bfc3-ea0c47e00834","ios":"levelo://app?vid=65bcc84f-bced-4e8c-bfc3-ea0c47e00834"},"vehicle_type_id":"4","last_reported":1768511525,"current_range_meters":6400,"station_id":"ce4bh3p2rcd13ifvqdp0","pricing_plan_id":"cebpf4jnsgd1na2vs0mg"},{"bike_id":"766b6315-d0e9-4f21-99cc-ac73caf0d81f","system_id":"levelo_inurba_marseille","lat":43.267685,"lon":5.394396,"is_reserved":false,"is_disabled":false,"rental_uris":{"android":"levelo://app?vid=766b6315-d0e9-4f21-99cc-ac73caf0d81f","ios":"levelo://app?vid=766b6315-d0e9-4f21-99cc-ac73caf0d81f"},"vehicle_type_id":"4","last_reported":1768511525,"current_range_meters":6400,"station_id":"ce4bhh12rcd13ifvqfg0","pricing_plan_id":"cebpf4jnsgd1na2vs0mg"},{"bike_id":"d14c563e-7d81-4312-b6b2-f8e7e772a5f6","system_id":"levelo_inurba_marseille","lat":43.24461,"lon":5.42533,"is_reserved":false,"is_disabled":false,"rental_uris":{"android":"levelo://app?vid=d14c563e-7d81-4312-b6b2-f8e7e772a5f6","ios":"levelo://app?vid=d14c563e-7d81-4312-b6b2-f8e7e772a5f6"},"vehicle_type_id":"4","last_reported":1768511525,"current_range_meters":6400,"station_id":"st_d4a3vfp97mjs738cd8kg","pricing_plan_id":"cebpf4jnsgd1na2vs0mg"},{"bike_id":"57454146-bf70-4336-bd1a-8d9f9690c6b3","system_id":"levelo_inurba_marseille","lat":43.28488,"lon":5.35872,"is_reserved":false,"is_disabled":false,"rental_uris":{"android":"levelo://app?vid=57454146-bf70-4336-bd1a-8d9f9690c6b3","ios":"levelo://app?vid=57454146-bf70-4336-bd1a-8d9f9690c6b3"},"vehicle_type_id":"4","last_reported":1768511525,"current_range_meters":6800,"station_id":"ce4bhah2rcd13ifvqei0","pricing_plan_id":"cebpf4jnsgd1na2vs0mg"},{"bike_id":"41bcc576-3262-4c06-a0fd-4f105ce774f7","system_id":"levelo_inurba_marseille","lat":43.27998,"lon":5.40013,"is_reserved":false,"is_disabled":false,"rental_uris":{"android":"levelo://app?vid=41bcc576-3262-4c06-a0fd-4f105ce774f7","ios":"levelo://app?vid=41bcc576-3262-4c06-a0fd-4f105ce774f7"},"vehicle_type_id":"4","last_reported":1768511525,"current_range_meters":6800,"station_id":"ce4bho92rcd13ifvqh4g","pricing_plan_id":"cebpf4jnsgd1na2vs0mg"},{"bike_id":"91dbe188-56c8-4fce-a414-d6e43ed9eb6b","system_id":"levelo_inurba_marseille","lat":43.26719,"lon":5.3996,"is_reserved":false,"is_disabled":false,"rental_uris":{"android":"levelo://app?vid=91dbe188-56c8-4fce-a414-d6e43ed9eb6b","ios":"levelo://app?vid=91dbe188-56c8-4fce-a414-d6e43ed9eb6b"},"vehicle_type_id":"4","last_reported":1768511525,"current_range_meters":6800,"station_id":"","pricing_plan_id":"cebpf4jnsgd1na2vs0mg"},{"bike_id":"d1437624-7325-4411-87ce-3009f56ae813","system_id":"levelo_inurba_marseille","lat":43.27787,"lon":5.40758,"is_reserved":false,"is_disabled":false,"rental_uris":{"android":"levelo://app?vid=d1437624-7325-4411-87ce-3009f56ae813","ios":"levelo://app?vid=d1437624-7325-4411-87ce-3009f56ae813"},"vehicle_type_id":"4","last_reported":1768511525,"current_range_meters":6800,"station_id":"ce4bhnh2rcd13ifvqgtg","pricing_plan_id":"cebpf4jnsgd1na2vs0mg"},{"bike_id":"7a3dee4b-7565-484a-900a-56cb9b772ca8","system_id":"levelo_inurba_marseille","lat":43.28615,"lon":5.35118,"is_reserved":false,"is_disabled":false,"rental_uris":{"android":"levelo://app?vid=7a3dee4b-7565-484a-900a-56cb9b772ca8","ios":"levelo://app?vid=7a3dee4b-7565-484a-900a-56cb9b772ca8"},"vehicle_type_id":"4","last_reported":1768511525,"current_range_meters":6800,"station_id":"ce4bhch2rcd13ifvqeug","pricing_plan_id":"cebpf4jnsgd1na2vs0mg"},{"bike_id":"0cdf751e-50be-4213-adcd-ec4933b84284","system_id":"levelo_inurba_marseille","lat":43.285387,"lon":5.441003,"is_reserved":false,"is_disabled":false,"rental_uris":{"android":"levelo://app?vid=0cdf751e-50be-4213-adcd-ec4933b84284","ios":"levelo://app?vid=0cdf751e-50be-4213-adcd-ec4933b84284"},"vehicle_type_id":"4","last_reported":1768511525,"current_range_meters":6800,"station_id":"st_d3j3df2ikq2c7380ej80","pricing_plan_id":"cebpf4jnsgd1na2vs0mg"},{"bike_id":"55ca926a-74e8-4d75-948c-be9d1d94f87e","system_id":"levelo_inurba_marseille","lat":43.29074,"lon":5.3711,"is_reserved":false,"is_disabled":false,"rental_uris":{"android":"levelo://app?vid=55ca926a-74e8-4d75-948c-be9d1d94f87e","ios":"levelo://app?vid=55ca926a-74e8-4d75-948c-be9d1d94f87e"},"vehicle_type_id":"4","last_reported":1768511525,"current_range_meters":6800,"station_id":"ce4bh5p2rcd13ifvqe4g","pricing_plan_id":"cebpf4jnsgd1na2vs0mg"},{"bike_id":"8e1f1ed2-bc25-4426-af81-32cf1e4d20f3","system_id":"levelo_inurba_marseille","lat":43.31758,"lon":5.39024,"is_reserved":false,"is_disabled":false,"rental_uris":{"android":"levelo://app?vid=8e1f1ed2-bc25-4426-af81-32cf1e4d20f3","ios":"levelo://app?vid=8e1f1ed2-bc25-4426-af81-32cf1e4d20f3"},"vehicle_type_id":"4","last_reported":1768511525,"current_range_meters":6800,"station_id":"ce4bhqp2rcd13ifvqhng","pricing_plan_id":"cebpf4jnsgd1na2vs0mg"},{"bike_id":"5e278ca3-4b01-43eb-85cf-feccb26b7c9f","system_id":"levelo_inurba_marseille","lat":43.302989,"lon":5.392169,"is_reserved":false,"is_disabled":false,"rental_uris":{"android":"levelo://app?vid=5e278ca3-4b01-43eb-85cf-feccb26b7c9f","ios":"levelo://app?vid=5e278ca3-4b01-43eb-85cf-feccb26b7c9f"},"vehicle_type_id":"4","last_reported":1768511525,"current_range_meters":6800,"station_id":"ce4bgkh2rcd13ifvqbk0","pricing_plan_id":"cebpf4jnsgd1na2vs0mg"},{"bike_id":"20696002-54d7-4af6-a1a3-4992415bf5f7","system_id":"levelo_inurba_marseille","lat":43.29618,"lon":5.37654,"is_reserved":false,"is_disabled":false,"rental_uris":{"android":"levelo://app?vid=20696002-54d7-4af6-a1a3-4992415bf5f7","ios":"levelo://app?vid=20696002-54d7-4af6-a1a3-4992415bf5f7"},"vehicle_type_id":"4","last_reported":1768511525,"current_range_meters":6800,"station_id":"ce4bgi92rcd13ifvqb90","pricing_plan_id":"cebpf4jnsgd1na2vs0mg"},{"bike_id":"75422019-3005-404c-b749-06eb292054c7","system_id":"levelo_inurba_marseille","lat":43.25013,"lon":5.3893,"is_reserved":false,"is_disabled":false,"rental_uris":{"android":"levelo://app?vid=75422019-3005-404c-b749-06eb292054c7","ios":"levelo://app?vid=75422019-3005-404c-b749-06eb292054c7"},"vehicle_type_id":"4","last_reported":1768511525,"current_range_meters":6800,"station_id":"ce4bhgp2rcd13ifvqfd0","pricing_plan_id":"cebpf4jnsgd1na2vs0mg"},{"bike_id":"0cd1e779-26e9-49c5-b773-f088de1cb9ab","system_id":"levelo_inurba_marseille","lat":43.26066,"lon":5.38523,"is_reserved":false,"is_disabled":false,"rental_uris":{"android":"levelo://app?vid=0cd1e779-26e9-49c5-b773-f088de1cb9ab","ios":"levelo://app?vid=0cd1e779-26e9-49c5-b773-f088de1cb9ab"},"vehicle_type_id":"4","last_reported":1768511525,"current_range_meters":6800,"station_id":"","pricing_plan_id":"cebpf4jnsgd1na2vs0mg"},{"bike_id":"d827ebc5-99c2-462b-bbd3-4c2b7c741ded","system_id":"levelo_inurba_marseille","lat":43.28668,"lon":5.36421,"is_reserved":false,"is_disabled":false,"rental_uris":{"android":"levelo://app?vid=d827ebc5-99c2-462b-bbd3-4c2b7c741ded","ios":"levelo://app?vid=d827ebc5-99c2-462b-bbd3-4c2b7c741ded"},"vehicle_type_id":"4","last_reported":1768511525,"current_range_meters":6800,"station_id":"","pricing_plan_id":"cebpf4jnsgd1na2vs0mg"},{"bike_id":"de053820-f473-4d4f-8be6-7eb46f3d1ea3","system_id":"levelo_inurba_marseille","lat":43.31048,"lon":5.39335,"is_reserved":false,"is_disabled":false,"rental_uris":{"android":"levelo://app?vid=de053820-f473-4d4f-8be6-7eb46f3d1ea3","ios":"levelo://app?vid=de053820-f473-4d4f-8be6-7eb46f3d1ea3"},"vehicle_type_id":"4","last_reported":1768511525,"current_range_meters":6800,"station_id":"","pricing_plan_id":"cebpf4jnsgd1na2vs0mg"},{"bike_id":"2ffaf0c9-9016-4c67-8314-b46e32a838a9","system_id":"levelo_inurba_marseille","lat":43.24382,"lon":5.37052,"is_reserved":false,"is_disabled":false,"rental_uris":{"android":"levelo://app?vid=2ffaf0c9-9016-4c67-8314-b46e32a838a9","ios":"levelo://app?vid=2ffaf0c9-9016-4c67-8314-b46e32a838a9"},"vehicle_type_id":"4","last_reported":1768511525,"current_range_meters":6800,"station_id":"ce4bhhh2rcd13ifvqfk0","pricing_plan_id":"cebpf4jnsgd1na2vs0mg"},{"bike_id":"034d5afc-523d-46c5-ab86-35ae3f3b2938","system_id":"levelo_inurba_marseille","lat":43.23963,"lon":5.36624,"is_reserved":false,"is_disabled":false,"rental_uris":{"android":"levelo://app?vid=034d5afc-523d-46c5-ab86-35ae3f3b2938","ios":"levelo://app?vid=034d5afc-523d-46c5-ab86-35ae3f3b2938"},"vehicle_type_id":"4","last_reported":1768511525,"current_range_meters":6800,"station_id":"ce4bhi12rcd13ifvqfp0","pricing_plan_id":"cebpf4jnsgd1na2vs0mg"},{"bike_id":"8ea47e76-4d6f-4a78-83f5-ab0a1828073d","system_id":"levelo_inurba_marseille","lat":43.22557,"lon":5.41665,"is_reserved":false,"is_disabled":false,"rental_uris":{"android":"levelo://app?vid=8ea47e76-4d6f-4a78-83f5-ab0a1828073d","ios":"levelo://app?vid=8ea47e76-4d6f-4a78-83f5-ab0a1828073d"},"vehicle_type_id":"4","last_reported":1768511525,"current_range_meters":6800,"station_id":"st_d2o4gvlbi1j2169b742g","pricing_plan_id":"cebpf4jnsgd1na2vs0mg"},{"bike_id":"ab5f5628-bc0a-46b5-95a7-9314030d4938","system_id":"levelo_inurba_marseille","lat":43.28468,"lon":5.38416,"is_reserved":false,"is_disabled":false,"rental_uris":{"android":"levelo://app?vid=ab5f5628-bc0a-46b5-95a7-9314030d4938","ios":"levelo://app?vid=ab5f5628-bc0a-46b5-95a7-9314030d4938"},"vehicle_type_id":"4","last_reported":1768511525,"current_range_meters":6800,"station_id":"ce4bh512rcd13ifvqe3g","pricing_plan_id":"cebpf4jnsgd1na2vs0mg"},{"bike_id":"dbcf6ef4-a784-430e-9991-3e608cc1669e","system_id":"levelo_inurba_marseille","lat":43.22563,"lon":5.41634,"is_reserved":false,"is_disabled":false,"rental_uris":{"android":"levelo://app?vid=dbcf6ef4-a784-430e-9991-3e608cc1669e","ios":"levelo://app?vid=dbcf6ef4-a784-430e-9991-3e608cc1669e"},"vehicle_type_id":"4","last_reported":1768511525,"current_range_meters":6800,"station_id":"st_d2o4gvlbi1j2169b742g","pricing_plan_id":"cebpf4jnsgd1na2vs0mg"},{"bike_id":"cd8e47b7-9740-4367-b0b2-aca3b636bacc","system_id":"levelo_inurba_marseille","lat":43.27904,"lon":5.41024,"is_reserved":false,"is_disabled":false,"rental_uris":{"android":"levelo://app?vid=cd8e47b7-9740-4367-b0b2-aca3b636bacc","ios":"levelo://app?vid=cd8e47b7-9740-4367-b0b2-aca3b636bacc"},"vehicle_type_id":"4","last_reported":1768511525,"current_range_meters":6800,"station_id":"ce4bhnp2rcd13ifvqh0g","pricing_plan_id":"cebpf4jnsgd1na2vs0mg"},{"bike_id":"c47b9162-9a66-4b88-ac9b-575e9b7e6df6","system_id":"levelo_inurba_marseille","lat":43.26568,"lon":5.4034,"is_reserved":false,"is_disabled":false,"rental_uris":{"android":"levelo://app?vid=c47b9162-9a66-4b88-ac9b-575e9b7e6df6","ios":"levelo://app?vid=c47b9162-9a66-4b88-ac9b-575e9b7e6df6"},"vehicle_type_id":"4","last_reported":1768511525,"current_range_meters":6800,"station_id":"ce4bhmp2rcd13ifvqgng","pricing_plan_id":"cebpf4jnsgd1na2vs0mg"},{"bike_id":"301ae823-fb3e-427a-8fc7-0d20ac0eb1ee","system_id":"levelo_inurba_marseille","lat":43.29248,"lon":5.36465,"is_reserved":false,"is_disabled":false,"rental_uris":{"android":"levelo://app?vid=301ae823-fb3e-427a-8fc7-0d20ac0eb1ee","ios":"levelo://app?vid=301ae823-fb3e-427a-8fc7-0d20ac0eb1ee"},"vehicle_type_id":"4","last_reported":1768511525,"current_range_meters":6800,"station_id":"","pricing_plan_id":"cebpf4jnsgd1na2vs0mg"},{"bike_id":"a98ea1f7-5de9-495d-9bc6-c9a34468d831","system_id":"levelo_inurba_marseille","lat":43.27821,"lon":5.40744,"is_reserved":false,"is_disabled":true,"rental_uris":{"android":"levelo://app?vid=a98ea1f7-5de9-495d-9bc6-c9a34468d831","ios":"levelo://app?vid=a98ea1f7-5de9-495d-9bc6-c9a34468d831"},"vehicle_type_id":"4","last_reported":1768511525,"current_range_meters":6800,"station_id":"ce4bhnh2rcd13ifvqgtg","pricing_plan_id":"cebpf4jnsgd1na2vs0mg"},{"bike_id":"b0dae9b1-e34b-4a3b-b844-36054e5e176f","system_id":"levelo_inurba_marseille","lat":43.25824,"lon":5.39436,"is_reserved":false,"is_disabled":false,"rental_uris":{"android":"levelo://app?vid=b0dae9b1-e34b-4a3b-b844-36054e5e176f","ios":"levelo://app?vid=b0dae9b1-e34b-4a3b-b844-36054e5e176f"},"vehicle_type_id":"4","last_reported":1768511525,"current_range_meters":6800,"station_id":"ce4bhip2rcd13ifvqft0","pricing_plan_id":"cebpf4jnsgd1na2vs0mg"},{"bike_id":"55307b8e-b51c-4509-a6b9-a280d2e31788","system_id":"levelo_inurba_marseille","lat":43.29278,"lon":5.4012,"is_reserved":false,"is_disabled":false,"rental_uris":{"android":"levelo://app?vid=55307b8e-b51c-4509-a6b9-a280d2e31788","ios":"levelo://app?vid=55307b8e-b51c-4509-a6b9-a280d2e31788"},"vehicle_type_id":"4","last_reported":1768511525,"current_range_meters":7200,"station_id":"ce4bh312rcd13ifvqdk0","pricing_plan_id":"cebpf4jnsgd1na2vs0mg"},{"bike_id":"736ec16a-dc55-4587-9b1c-c917e562c9fe","system_id":"levelo_inurba_marseille","lat":43.25508,"lon":5.37657,"is_reserved":false,"is_disabled":false,"rental_uris":{"android":"levelo://app?vid=736ec16a-dc55-4587-9b1c-c917e562c9fe","ios":"levelo://app?vid=736ec16a-dc55-4587-9b1c-c917e562c9fe"},"vehicle_type_id":"4","last_reported":1768511525,"current_range_meters":7200,"station_id":"ce4bhh12rcd13ifvqff0","pricing_plan_id":"cebpf4jnsgd1na2vs0mg"},{"bike_id":"50f9b102-1935-483f-baee-37effab68bc3","system_id":"levelo_inurba_marseille","lat":43.28628,"lon":5.35109,"is_reserved":false,"is_disabled":false,"rental_uris":{"android":"levelo://app?vid=50f9b102-1935-483f-baee-37effab68bc3","ios":"levelo://app?vid=50f9b102-1935-483f-baee-37effab68bc3"},"vehicle_type_id":"4","last_reported":1768511525,"current_range_meters":7200,"station_id":"ce4bhch2rcd13ifvqeug","pricing_plan_id":"cebpf4jnsgd1na2vs0mg"},{"bike_id":"d2d2d908-ffb6-4c0a-97f2-e5e034e39816","system_id":"levelo_inurba_marseille","lat":43.27943,"lon":5.4039,"is_reserved":false,"is_disabled":false,"rental_uris":{"android":"levelo://app?vid=d2d2d908-ffb6-4c0a-97f2-e5e034e39816","ios":"levelo://app?vid=d2d2d908-ffb6-4c0a-97f2-e5e034e39816"},"vehicle_type_id":"4","last_reported":1768511525,"current_range_meters":7200,"station_id":"","pricing_plan_id":"cebpf4jnsgd1na2vs0mg"},{"bike_id":"8253f57c-141c-4ec1-bc3a-514404b971d8","system_id":"levelo_inurba_marseille","lat":43.29279,"lon":5.36847,"is_reserved":false,"is_disabled":false,"rental_uris":{"android":"levelo://app?vid=8253f57c-141c-4ec1-bc3a-514404b971d8","ios":"levelo://app?vid=8253f57c-141c-4ec1-bc3a-514404b971d8"},"vehicle_type_id":"4","last_reported":1768511525,"current_range_meters":7200,"station_id":"ce4bhbp2rcd13ifvqesg","pricing_plan_id":"cebpf4jnsgd1na2vs0mg"},{"bike_id":"fbca656e-02c6-47d2-8a61-af26f7f00021","system_id":"levelo_inurba_marseille","lat":43.25852,"lon":5.39916,"is_reserved":false,"is_disabled":false,"rental_uris":{"android":"levelo://app?vid=fbca656e-02c6-47d2-8a61-af26f7f00021","ios":"levelo://app?vid=fbca656e-02c6-47d2-8a61-af26f7f00021"},"vehicle_type_id":"4","last_reported":1768511525,"current_range_meters":7200,"station_id":"ce4bhl92rcd13ifvqghg","pricing_plan_id":"cebpf4jnsgd1na2vs0mg"},{"bike_id":"f4bc8881-cafb-4d21-83b9-8e903d2e8cd8","system_id":"levelo_inurba_marseille","lat":43.33123,"lon":5.3771,"is_reserved":false,"is_disabled":false,"rental_uris":{"android":"levelo://app?vid=f4bc8881-cafb-4d21-83b9-8e903d2e8cd8","ios":"levelo://app?vid=f4bc8881-cafb-4d21-83b9-8e903d2e8cd8"},"vehicle_type_id":"4","last_reported":1768511525,"current_range_meters":7200,"station_id":"st_d46cu089ee8s73dldbu0","pricing_plan_id":"cebpf4jnsgd1na2vs0mg"},{"bike_id":"0fe23f40-caad-46ad-b558-32f62e0f76ac","system_id":"levelo_inurba_marseille","lat":43.31129,"lon":5.39819,"is_reserved":false,"is_disabled":false,"rental_uris":{"android":"levelo://app?vid=0fe23f40-caad-46ad-b558-32f62e0f76ac","ios":"levelo://app?vid=0fe23f40-caad-46ad-b558-32f62e0f76ac"},"vehicle_type_id":"4","last_reported":1768511525,"current_range_meters":7200,"station_id":"","pricing_plan_id":"cebpf4jnsgd1na2vs0mg"},{"bike_id":"e5aa787f-c7e4-4b02-b6ed-ac65ac7744ea","system_id":"levelo_inurba_marseille","lat":43.23192,"lon":5.39995,"is_reserved":false,"is_disabled":false,"rental_uris":{"android":"levelo://app?vid=e5aa787f-c7e4-4b02-b6ed-ac65ac7744ea","ios":"levelo://app?vid=e5aa787f-c7e4-4b02-b6ed-ac65ac7744ea"},"vehicle_type_id":"4","last_reported":1768511525,"current_range_meters":7200,"station_id":"ce4bhn12rcd13ifvqgqg","pricing_plan_id":"cebpf4jnsgd1na2vs0mg"},{"bike_id":"6ef8518a-645e-48e3-8a8e-63008a01b256","system_id":"levelo_inurba_marseille","lat":43.29704,"lon":5.36611,"is_reserved":false,"is_disabled":false,"rental_uris":{"android":"levelo://app?vid=6ef8518a-645e-48e3-8a8e-63008a01b256","ios":"levelo://app?vid=6ef8518a-645e-48e3-8a8e-63008a01b256"},"vehicle_type_id":"4","last_reported":1768511525,"current_range_meters":7200,"station_id":"ce4bgn12rcd13ifvqbt0","pricing_plan_id":"cebpf4jnsgd1na2vs0mg"},{"bike_id":"b85377a7-d43a-495c-a917-5b248a813004","system_id":"levelo_inurba_marseille","lat":43.30878,"lon":5.39651,"is_reserved":false,"is_disabled":false,"rental_uris":{"android":"levelo://app?vid=b85377a7-d43a-495c-a917-5b248a813004","ios":"levelo://app?vid=b85377a7-d43a-495c-a917-5b248a813004"},"vehicle_type_id":"4","last_reported":1768511525,"current_range_meters":7200,"station_id":"ce4bh012rcd13ifvqcv0","pricing_plan_id":"cebpf4jnsgd1na2vs0mg"},{"bike_id":"55170d4b-128c-41f3-880e-d06947427d85","system_id":"levelo_inurba_marseille","lat":43.29265,"lon":5.36841,"is_reserved":false,"is_disabled":false,"rental_uris":{"android":"levelo://app?vid=55170d4b-128c-41f3-880e-d06947427d85","ios":"levelo://app?vid=55170d4b-128c-41f3-880e-d06947427d85"},"vehicle_type_id":"4","last_reported":1768511525,"current_range_meters":7200,"station_id":"ce4bhbp2rcd13ifvqesg","pricing_plan_id":"cebpf4jnsgd1na2vs0mg"},{"bike_id":"57a819a1-efc5-49b2-a9d3-3a8a47ca6b6a","system_id":"levelo_inurba_marseille","lat":43.30251,"lon":5.40061,"is_reserved":false,"is_disabled":false,"rental_uris":{"android":"levelo://app?vid=57a819a1-efc5-49b2-a9d3-3a8a47ca6b6a","ios":"levelo://app?vid=57a819a1-efc5-49b2-a9d3-3a8a47ca6b6a"},"vehicle_type_id":"4","last_reported":1768511525,"current_range_meters":7200,"station_id":"ce4bgvh2rcd13ifvqcs0","pricing_plan_id":"cebpf4jnsgd1na2vs0mg"},{"bike_id":"4557fbf3-c2ff-4322-8518-16a987e128b4","system_id":"levelo_inurba_marseille","lat":43.25337,"lon":5.42173,"is_reserved":false,"is_disabled":false,"rental_uris":{"android":"levelo://app?vid=4557fbf3-c2ff-4322-8518-16a987e128b4","ios":"levelo://app?vid=4557fbf3-c2ff-4322-8518-16a987e128b4"},"vehicle_type_id":"4","last_reported":1768511525,"current_range_meters":7200,"station_id":"st_d2m65c5bi1j21697t3ng","pricing_plan_id":"cebpf4jnsgd1na2vs0mg"},{"bike_id":"8782c85b-4cd2-4d16-816f-ea9c0e380452","system_id":"levelo_inurba_marseille","lat":43.28113,"lon":5.40433,"is_reserved":false,"is_disabled":false,"rental_uris":{"android":"levelo://app?vid=8782c85b-4cd2-4d16-816f-ea9c0e380452","ios":"levelo://app?vid=8782c85b-4cd2-4d16-816f-ea9c0e380452"},"vehicle_type_id":"4","last_reported":1768511525,"current_range_meters":7200,"station_id":"","pricing_plan_id":"cebpf4jnsgd1na2vs0mg"},{"bike_id":"b250a877-8cef-49b5-94de-42b1fb1f6c4b","system_id":"levelo_inurba_marseille","lat":43.29049,"lon":5.35914,"is_reserved":false,"is_disabled":false,"rental_uris":{"android":"levelo://app?vid=b250a877-8cef-49b5-94de-42b1fb1f6c4b","ios":"levelo://app?vid=b250a877-8cef-49b5-94de-42b1fb1f6c4b"},"vehicle_type_id":"4","last_reported":1768511525,"current_range_meters":7200,"station_id":"ce4bha92rcd13ifvqeg0","pricing_plan_id":"cebpf4jnsgd1na2vs0mg"},{"bike_id":"4e9bdc44-06af-4aac-bfc5-bd723f844e8d","system_id":"levelo_inurba_marseille","lat":43.30318,"lon":5.36898,"is_reserved":false,"is_disabled":false,"rental_uris":{"android":"levelo://app?vid=4e9bdc44-06af-4aac-bfc5-bd723f844e8d","ios":"levelo://app?vid=4e9bdc44-06af-4aac-bfc5-bd723f844e8d"},"vehicle_type_id":"4","last_reported":1768511525,"current_range_meters":7200,"station_id":"ce4bgqh2rcd13ifvqc5g","pricing_plan_id":"cebpf4jnsgd1na2vs0mg"},{"bike_id":"d647cb4d-c82e-4a65-a3e4-17b1b3468796","system_id":"levelo_inurba_marseille","lat":43.30305,"lon":5.39223,"is_reserved":false,"is_disabled":false,"rental_uris":{"android":"levelo://app?vid=d647cb4d-c82e-4a65-a3e4-17b1b3468796","ios":"levelo://app?vid=d647cb4d-c82e-4a65-a3e4-17b1b3468796"},"vehicle_type_id":"4","last_reported":1768511525,"current_range_meters":8000,"station_id":"ce4bgkh2rcd13ifvqbk0","pricing_plan_id":"cebpf4jnsgd1na2vs0mg"},{"bike_id":"f0f77a0a-fb63-466f-8221-ca4aa28e90e6","system_id":"levelo_inurba_marseille","lat":43.24809,"lon":5.37459,"is_reserved":false,"is_disabled":false,"rental_uris":{"android":"levelo://app?vid=f0f77a0a-fb63-466f-8221-ca4aa28e90e6","ios":"levelo://app?vid=f0f77a0a-fb63-466f-8221-ca4aa28e90e6"},"vehicle_type_id":"4","last_reported":1768511525,"current_range_meters":8000,"station_id":"ce4bhgh2rcd13ifvqfb0","pricing_plan_id":"cebpf4jnsgd1na2vs0mg"},{"bike_id":"997233dd-58c4-4f6a-84de-ab108f878623","system_id":"levelo_inurba_marseille","lat":43.24389,"lon":5.3706,"is_reserved":false,"is_disabled":false,"rental_uris":{"android":"levelo://app?vid=997233dd-58c4-4f6a-84de-ab108f878623","ios":"levelo://app?vid=997233dd-58c4-4f6a-84de-ab108f878623"},"vehicle_type_id":"4","last_reported":1768511525,"current_range_meters":8000,"station_id":"ce4bhhh2rcd13ifvqfk0","pricing_plan_id":"cebpf4jnsgd1na2vs0mg"},{"bike_id":"9798252a-9361-46ce-9695-59458b1329bc","system_id":"levelo_inurba_marseille","lat":43.23192,"lon":5.35556,"is_reserved":false,"is_disabled":false,"rental_uris":{"android":"levelo://app?vid=9798252a-9361-46ce-9695-59458b1329bc","ios":"levelo://app?vid=9798252a-9361-46ce-9695-59458b1329bc"},"vehicle_type_id":"4","last_reported":1768511525,"current_range_meters":8000,"station_id":"ce4bhu92rcd13ifvqi70","pricing_plan_id":"cebpf4jnsgd1na2vs0mg"},{"bike_id":"cf4a53e8-25b0-469f-ba1f-0209ae65d76f","system_id":"levelo_inurba_marseille","lat":43.26575,"lon":5.39022,"is_reserved":false,"is_disabled":false,"rental_uris":{"android":"levelo://app?vid=cf4a53e8-25b0-469f-ba1f-0209ae65d76f","ios":"levelo://app?vid=cf4a53e8-25b0-469f-ba1f-0209ae65d76f"},"vehicle_type_id":"4","last_reported":1768511525,"current_range_meters":8000,"station_id":"ce4bhe12rcd13ifvqf30","pricing_plan_id":"cebpf4jnsgd1na2vs0mg"},{"bike_id":"fe760492-f7f6-4e9b-8605-bd507140d798","system_id":"levelo_inurba_marseille","lat":43.30129,"lon":5.4308,"is_reserved":false,"is_disabled":false,"rental_uris":{"android":"levelo://app?vid=fe760492-f7f6-4e9b-8605-bd507140d798","ios":"levelo://app?vid=fe760492-f7f6-4e9b-8605-bd507140d798"},"vehicle_type_id":"4","last_reported":1768511525,"current_range_meters":8000,"station_id":"st_d3js3co5814s73ftftug","pricing_plan_id":"cebpf4jnsgd1na2vs0mg"},{"bike_id":"36c0d000-5e44-4a52-82d7-46d18177d9e9","system_id":"levelo_inurba_marseille","lat":43.308691,"lon":5.396175,"is_reserved":false,"is_disabled":false,"rental_uris":{"android":"levelo://app?vid=36c0d000-5e44-4a52-82d7-46d18177d9e9","ios":"levelo://app?vid=36c0d000-5e44-4a52-82d7-46d18177d9e9"},"vehicle_type_id":"4","last_reported":1768511525,"current_range_meters":8000,"station_id":"ce4bh012rcd13ifvqcv0","pricing_plan_id":"cebpf4jnsgd1na2vs0mg"},{"bike_id":"d10c0024-e2ec-401f-bf30-95042a990a73","system_id":"levelo_inurba_marseille","lat":43.28115,"lon":5.42601,"is_reserved":false,"is_disabled":false,"rental_uris":{"android":"levelo://app?vid=d10c0024-e2ec-401f-bf30-95042a990a73","ios":"levelo://app?vid=d10c0024-e2ec-401f-bf30-95042a990a73"},"vehicle_type_id":"4","last_reported":1768511525,"current_range_meters":8000,"station_id":"","pricing_plan_id":"cebpf4jnsgd1na2vs0mg"},{"bike_id":"7163724e-7d88-4ab5-909f-51d27f65f7d8","system_id":"levelo_inurba_marseille","lat":43.28543,"lon":5.44097,"is_reserved":false,"is_disabled":false,"rental_uris":{"android":"levelo://app?vid=7163724e-7d88-4ab5-909f-51d27f65f7d8","ios":"levelo://app?vid=7163724e-7d88-4ab5-909f-51d27f65f7d8"},"vehicle_type_id":"4","last_reported":1768511525,"current_range_meters":8000,"station_id":"st_d3j3df2ikq2c7380ej80","pricing_plan_id":"cebpf4jnsgd1na2vs0mg"},{"bike_id":"f2c787eb-1b36-4e92-b487-3132386b8e37","system_id":"levelo_inurba_marseille","lat":43.24811,"lon":5.37463,"is_reserved":false,"is_disabled":false,"rental_uris":{"android":"levelo://app?vid=f2c787eb-1b36-4e92-b487-3132386b8e37","ios":"levelo://app?vid=f2c787eb-1b36-4e92-b487-3132386b8e37"},"vehicle_type_id":"4","last_reported":1768511525,"current_range_meters":8000,"station_id":"ce4bhgh2rcd13ifvqfb0","pricing_plan_id":"cebpf4jnsgd1na2vs0mg"},{"bike_id":"599cc64d-7492-4f45-b2f5-312b0bd4aa12","system_id":"levelo_inurba_marseille","lat":43.28466,"lon":5.35897,"is_reserved":false,"is_disabled":false,"rental_uris":{"android":"levelo://app?vid=599cc64d-7492-4f45-b2f5-312b0bd4aa12","ios":"levelo://app?vid=599cc64d-7492-4f45-b2f5-312b0bd4aa12"},"vehicle_type_id":"4","last_reported":1768511525,"current_range_meters":8000,"station_id":"ce4bhah2rcd13ifvqei0","pricing_plan_id":"cebpf4jnsgd1na2vs0mg"},{"bike_id":"04445095-b038-41a3-a0ad-fec8f36b4c83","system_id":"levelo_inurba_marseille","lat":43.25818,"lon":5.39427,"is_reserved":false,"is_disabled":false,"rental_uris":{"android":"levelo://app?vid=04445095-b038-41a3-a0ad-fec8f36b4c83","ios":"levelo://app?vid=04445095-b038-41a3-a0ad-fec8f36b4c83"},"vehicle_type_id":"4","last_reported":1768511525,"current_range_meters":8000,"station_id":"ce4bhip2rcd13ifvqft0","pricing_plan_id":"cebpf4jnsgd1na2vs0mg"},{"bike_id":"37faa26e-f328-4315-a505-4a796c4b29c7","system_id":"levelo_inurba_marseille","lat":43.3143,"lon":5.36967,"is_reserved":false,"is_disabled":true,"rental_uris":{"android":"levelo://app?vid=37faa26e-f328-4315-a505-4a796c4b29c7","ios":"levelo://app?vid=37faa26e-f328-4315-a505-4a796c4b29c7"},"vehicle_type_id":"4","last_reported":1768511525,"current_range_meters":8000,"station_id":"","pricing_plan_id":"cebpf4jnsgd1na2vs0mg"},{"bike_id":"bc17f6e8-30be-4dfb-93fd-4127c7a3cbcb","system_id":"levelo_inurba_marseille","lat":43.29271,"lon":5.38446,"is_reserved":false,"is_disabled":false,"rental_uris":{"android":"levelo://app?vid=bc17f6e8-30be-4dfb-93fd-4127c7a3cbcb","ios":"levelo://app?vid=bc17f6e8-30be-4dfb-93fd-4127c7a3cbcb"},"vehicle_type_id":"4","last_reported":1768511525,"current_range_meters":8000,"station_id":"ce4bh692rcd13ifvqea0","pricing_plan_id":"cebpf4jnsgd1na2vs0mg"},{"bike_id":"753ccbc1-bc1b-4429-8a43-0dcf4c26b7fc","system_id":"levelo_inurba_marseille","lat":43.3316,"lon":5.37709,"is_reserved":false,"is_disabled":false,"rental_uris":{"android":"levelo://app?vid=753ccbc1-bc1b-4429-8a43-0dcf4c26b7fc","ios":"levelo://app?vid=753ccbc1-bc1b-4429-8a43-0dcf4c26b7fc"},"vehicle_type_id":"4","last_reported":1768511525,"current_range_meters":8000,"station_id":"st_d46cu089ee8s73dldbu0","pricing_plan_id":"cebpf4jnsgd1na2vs0mg"},{"bike_id":"f95bc25d-369a-46e5-8408-f3bc217332e3","system_id":"levelo_inurba_marseille","lat":43.30311,"lon":5.39207,"is_reserved":false,"is_disabled":false,"rental_uris":{"android":"levelo://app?vid=f95bc25d-369a-46e5-8408-f3bc217332e3","ios":"levelo://app?vid=f95bc25d-369a-46e5-8408-f3bc217332e3"},"vehicle_type_id":"4","last_reported":1768511525,"current_range_meters":8000,"station_id":"ce4bgkh2rcd13ifvqbk0","pricing_plan_id":"cebpf4jnsgd1na2vs0mg"},{"bike_id":"13c7c20f-0feb-4e4c-b067-68cfe4794af8","system_id":"levelo_inurba_marseille","lat":43.28871,"lon":5.38426,"is_reserved":false,"is_disabled":false,"rental_uris":{"android":"levelo://app?vid=13c7c20f-0feb-4e4c-b067-68cfe4794af8","ios":"levelo://app?vid=13c7c20f-0feb-4e4c-b067-68cfe4794af8"},"vehicle_type_id":"4","last_reported":1768511525,"current_range_meters":8000,"station_id":"","pricing_plan_id":"cebpf4jnsgd1na2vs0mg"},{"bike_id":"3b06d8ac-0c0e-4815-baae-3f6b7bfae72e","system_id":"levelo_inurba_marseille","lat":43.341636,"lon":5.360414,"is_reserved":false,"is_disabled":false,"rental_uris":{"android":"levelo://app?vid=3b06d8ac-0c0e-4815-baae-3f6b7bfae72e","ios":"levelo://app?vid=3b06d8ac-0c0e-4815-baae-3f6b7bfae72e"},"vehicle_type_id":"4","last_reported":1768511525,"current_range_meters":8000,"station_id":"","pricing_plan_id":"cebpf4jnsgd1na2vs0mg"},{"bike_id":"6c7879a0-4f8d-4c32-af3b-8fad0907f05b","system_id":"levelo_inurba_marseille","lat":43.24663,"lon":5.38164,"is_reserved":false,"is_disabled":false,"rental_uris":{"android":"levelo://app?vid=6c7879a0-4f8d-4c32-af3b-8fad0907f05b","ios":"levelo://app?vid=6c7879a0-4f8d-4c32-af3b-8fad0907f05b"},"vehicle_type_id":"4","last_reported":1768511525,"current_range_meters":8000,"station_id":"ce4bhih2rcd13ifvqfr0","pricing_plan_id":"cebpf4jnsgd1na2vs0mg"},{"bike_id":"e80cd4b9-49c2-4c4e-8725-62995e08c2ff","system_id":"levelo_inurba_marseille","lat":43.27817,"lon":5.40736,"is_reserved":false,"is_disabled":false,"rental_uris":{"android":"levelo://app?vid=e80cd4b9-49c2-4c4e-8725-62995e08c2ff","ios":"levelo://app?vid=e80cd4b9-49c2-4c4e-8725-62995e08c2ff"},"vehicle_type_id":"4","last_reported":1768511525,"current_range_meters":8000,"station_id":"ce4bhnh2rcd13ifvqgtg","pricing_plan_id":"cebpf4jnsgd1na2vs0mg"},{"bike_id":"4b1cc435-33e0-4945-b75a-c7858ef44544","system_id":"levelo_inurba_marseille","lat":43.28576,"lon":5.3949,"is_reserved":false,"is_disabled":false,"rental_uris":{"android":"levelo://app?vid=4b1cc435-33e0-4945-b75a-c7858ef44544","ios":"levelo://app?vid=4b1cc435-33e0-4945-b75a-c7858ef44544"},"vehicle_type_id":"4","last_reported":1768511525,"current_range_meters":8000,"station_id":"ce4bh292rcd13ifvqdg0","pricing_plan_id":"cebpf4jnsgd1na2vs0mg"},{"bike_id":"d573dea0-84f2-4278-9343-3e80901c823b","system_id":"levelo_inurba_marseille","lat":43.31501,"lon":5.37847,"is_reserved":false,"is_disabled":false,"rental_uris":{"android":"levelo://app?vid=d573dea0-84f2-4278-9343-3e80901c823b","ios":"levelo://app?vid=d573dea0-84f2-4278-9343-3e80901c823b"},"vehicle_type_id":"4","last_reported":1768511525,"current_range_meters":8000,"station_id":"","pricing_plan_id":"cebpf4jnsgd1na2vs0mg"},{"bike_id":"37715dfd-9d71-4a09-9691-34e9840ce97a","system_id":"levelo_inurba_marseille","lat":43.25113,"lon":5.40315,"is_reserved":false,"is_disabled":false,"rental_uris":{"android":"levelo://app?vid=37715dfd-9d71-4a09-9691-34e9840ce97a","ios":"levelo://app?vid=37715dfd-9d71-4a09-9691-34e9840ce97a"},"vehicle_type_id":"4","last_reported":1768511525,"current_range_meters":8000,"station_id":"ce4bhlh2rcd13ifvqgig","pricing_plan_id":"cebpf4jnsgd1na2vs0mg"},{"bike_id":"1e968b7e-b2a9-4233-b11f-55f81763167f","system_id":"levelo_inurba_marseille","lat":43.29247,"lon":5.38445,"is_reserved":false,"is_disabled":false,"rental_uris":{"android":"levelo://app?vid=1e968b7e-b2a9-4233-b11f-55f81763167f","ios":"levelo://app?vid=1e968b7e-b2a9-4233-b11f-55f81763167f"},"vehicle_type_id":"4","last_reported":1768511525,"current_range_meters":8000,"station_id":"ce4bh692rcd13ifvqea0","pricing_plan_id":"cebpf4jnsgd1na2vs0mg"},{"bike_id":"5a93d198-f47a-4920-b23d-99cac685b431","system_id":"levelo_inurba_marseille","lat":43.2931,"lon":5.37171,"is_reserved":false,"is_disabled":false,"rental_uris":{"android":"levelo://app?vid=5a93d198-f47a-4920-b23d-99cac685b431","ios":"levelo://app?vid=5a93d198-f47a-4920-b23d-99cac685b431"},"vehicle_type_id":"4","last_reported":1768511525,"current_range_meters":8000,"station_id":"ce4bgh92rcd13ifvqb40","pricing_plan_id":"cebpf4jnsgd1na2vs0mg"},{"bike_id":"0bf6d0bf-6ddd-4a77-aa88-419175054f53","system_id":"levelo_inurba_marseille","lat":43.28028,"lon":5.36921,"is_reserved":false,"is_disabled":false,"rental_uris":{"android":"levelo://app?vid=0bf6d0bf-6ddd-4a77-aa88-419175054f53","ios":"levelo://app?vid=0bf6d0bf-6ddd-4a77-aa88-419175054f53"},"vehicle_type_id":"4","last_reported":1768511525,"current_range_meters":8000,"station_id":"ce4bha12rcd13ifvqef0","pricing_plan_id":"cebpf4jnsgd1na2vs0mg"},{"bike_id":"5379f5ed-da06-4adb-b823-51e71e531df4","system_id":"levelo_inurba_marseille","lat":43.24638,"lon":5.43139,"is_reserved":false,"is_disabled":false,"rental_uris":{"android":"levelo://app?vid=5379f5ed-da06-4adb-b823-51e71e531df4","ios":"levelo://app?vid=5379f5ed-da06-4adb-b823-51e71e531df4"},"vehicle_type_id":"4","last_reported":1768511525,"current_range_meters":8000,"station_id":"st_d2m6c4gdas8pm72e190g","pricing_plan_id":"cebpf4jnsgd1na2vs0mg"},{"bike_id":"67fe11a7-78c9-4396-8912-02d80248656f","system_id":"levelo_inurba_marseille","lat":43.301237,"lon":5.398658,"is_reserved":false,"is_disabled":false,"rental_uris":{"android":"levelo://app?vid=67fe11a7-78c9-4396-8912-02d80248656f","ios":"levelo://app?vid=67fe11a7-78c9-4396-8912-02d80248656f"},"vehicle_type_id":"4","last_reported":1768511525,"current_range_meters":8000,"station_id":"ce4bh0h2rcd13ifvqd40","pricing_plan_id":"cebpf4jnsgd1na2vs0mg"},{"bike_id":"7465de0c-3252-438c-a1d0-10a150ee4d72","system_id":"levelo_inurba_marseille","lat":43.22927,"lon":5.35384,"is_reserved":false,"is_disabled":false,"rental_uris":{"android":"levelo://app?vid=7465de0c-3252-438c-a1d0-10a150ee4d72","ios":"levelo://app?vid=7465de0c-3252-438c-a1d0-10a150ee4d72"},"vehicle_type_id":"4","last_reported":1768511525,"current_range_meters":8000,"station_id":"cpo3532slgdg3j2ikp40","pricing_plan_id":"cebpf4jnsgd1na2vs0mg"},{"bike_id":"2c05b132-68db-4dba-a090-efe0dd5386f7","system_id":"levelo_inurba_marseille","lat":43.29229,"lon":5.37583,"is_reserved":false,"is_disabled":false,"rental_uris":{"android":"levelo://app?vid=2c05b132-68db-4dba-a090-efe0dd5386f7","ios":"levelo://app?vid=2c05b132-68db-4dba-a090-efe0dd5386f7"},"vehicle_type_id":"4","last_reported":1768511525,"current_range_meters":8000,"station_id":"","pricing_plan_id":"cebpf4jnsgd1na2vs0mg"},{"bike_id":"90218040-6582-4aa2-8913-05c76010fcbf","system_id":"levelo_inurba_marseille","lat":43.23786,"lon":5.36633,"is_reserved":false,"is_disabled":false,"rental_uris":{"android":"levelo://app?vid=90218040-6582-4aa2-8913-05c76010fcbf","ios":"levelo://app?vid=90218040-6582-4aa2-8913-05c76010fcbf"},"vehicle_type_id":"4","last_reported":1768511525,"current_range_meters":8000,"station_id":"st_d3nk18o9ro0c73en2l3g","pricing_plan_id":"cebpf4jnsgd1na2vs0mg"},{"bike_id":"8ac29141-6985-4b16-8504-2238bb54b54a","system_id":"levelo_inurba_marseille","lat":43.24385,"lon":5.3706,"is_reserved":false,"is_disabled":false,"rental_uris":{"android":"levelo://app?vid=8ac29141-6985-4b16-8504-2238bb54b54a","ios":"levelo://app?vid=8ac29141-6985-4b16-8504-2238bb54b54a"},"vehicle_type_id":"4","last_reported":1768511525,"current_range_meters":8400,"station_id":"ce4bhhh2rcd13ifvqfk0","pricing_plan_id":"cebpf4jnsgd1na2vs0mg"},{"bike_id":"011f3f90-1b10-486a-8955-76f8d5a49d25","system_id":"levelo_inurba_marseille","lat":43.27964,"lon":5.43609,"is_reserved":false,"is_disabled":false,"rental_uris":{"android":"levelo://app?vid=011f3f90-1b10-486a-8955-76f8d5a49d25","ios":"levelo://app?vid=011f3f90-1b10-486a-8955-76f8d5a49d25"},"vehicle_type_id":"4","last_reported":1768511525,"current_range_meters":8400,"station_id":"","pricing_plan_id":"cebpf4jnsgd1na2vs0mg"},{"bike_id":"a6efb7b3-8c44-4a6c-92e4-ed7eb57f41e2","system_id":"levelo_inurba_marseille","lat":43.28443,"lon":5.36771,"is_reserved":false,"is_disabled":false,"rental_uris":{"android":"levelo://app?vid=a6efb7b3-8c44-4a6c-92e4-ed7eb57f41e2","ios":"levelo://app?vid=a6efb7b3-8c44-4a6c-92e4-ed7eb57f41e2"},"vehicle_type_id":"4","last_reported":1768511525,"current_range_meters":8400,"station_id":"","pricing_plan_id":"cebpf4jnsgd1na2vs0mg"},{"bike_id":"890d619d-ccf5-4936-b295-6f52b9520ec1","system_id":"levelo_inurba_marseille","lat":43.28926,"lon":5.36653,"is_reserved":false,"is_disabled":false,"rental_uris":{"android":"levelo://app?vid=890d619d-ccf5-4936-b295-6f52b9520ec1","ios":"levelo://app?vid=890d619d-ccf5-4936-b295-6f52b9520ec1"},"vehicle_type_id":"4","last_reported":1768511525,"current_range_meters":8400,"station_id":"ce4bhap2rcd13ifvqek0","pricing_plan_id":"cebpf4jnsgd1na2vs0mg"},{"bike_id":"c242e646-f282-457f-a670-771ea65dbddf","system_id":"levelo_inurba_marseille","lat":43.32111,"lon":5.36777,"is_reserved":false,"is_disabled":false,"rental_uris":{"android":"levelo://app?vid=c242e646-f282-457f-a670-771ea65dbddf","ios":"levelo://app?vid=c242e646-f282-457f-a670-771ea65dbddf"},"vehicle_type_id":"4","last_reported":1768511525,"current_range_meters":8400,"station_id":"ce4bhrh2rcd13ifvqhug","pricing_plan_id":"cebpf4jnsgd1na2vs0mg"},{"bike_id":"ceb127dd-c990-4e84-9bd5-10a36add8b4c","system_id":"levelo_inurba_marseille","lat":43.27997,"lon":5.40008,"is_reserved":false,"is_disabled":false,"rental_uris":{"android":"levelo://app?vid=ceb127dd-c990-4e84-9bd5-10a36add8b4c","ios":"levelo://app?vid=ceb127dd-c990-4e84-9bd5-10a36add8b4c"},"vehicle_type_id":"4","last_reported":1768511525,"current_range_meters":8400,"station_id":"ce4bho92rcd13ifvqh4g","pricing_plan_id":"cebpf4jnsgd1na2vs0mg"},{"bike_id":"dcba5e0d-8e79-44d0-8827-5e7dfb547664","system_id":"levelo_inurba_marseille","lat":43.28535,"lon":5.44118,"is_reserved":false,"is_disabled":false,"rental_uris":{"android":"levelo://app?vid=dcba5e0d-8e79-44d0-8827-5e7dfb547664","ios":"levelo://app?vid=dcba5e0d-8e79-44d0-8827-5e7dfb547664"},"vehicle_type_id":"4","last_reported":1768511525,"current_range_meters":8400,"station_id":"st_d3j3df2ikq2c7380ej80","pricing_plan_id":"cebpf4jnsgd1na2vs0mg"},{"bike_id":"0aaffd21-6317-47b2-85da-6b9bfa421a46","system_id":"levelo_inurba_marseille","lat":43.29824,"lon":5.37664,"is_reserved":false,"is_disabled":false,"rental_uris":{"android":"levelo://app?vid=0aaffd21-6317-47b2-85da-6b9bfa421a46","ios":"levelo://app?vid=0aaffd21-6317-47b2-85da-6b9bfa421a46"},"vehicle_type_id":"4","last_reported":1768511525,"current_range_meters":8400,"station_id":"","pricing_plan_id":"cebpf4jnsgd1na2vs0mg"},{"bike_id":"6de0e044-94b4-4d5e-9718-b6af86cb6e35","system_id":"levelo_inurba_marseille","lat":43.28856,"lon":5.39291,"is_reserved":false,"is_disabled":false,"rental_uris":{"android":"levelo://app?vid=6de0e044-94b4-4d5e-9718-b6af86cb6e35","ios":"levelo://app?vid=6de0e044-94b4-4d5e-9718-b6af86cb6e35"},"vehicle_type_id":"4","last_reported":1768511525,"current_range_meters":8400,"station_id":"ce4bh2p2rcd13ifvqdi0","pricing_plan_id":"cebpf4jnsgd1na2vs0mg"},{"bike_id":"ceaf6b53-6462-4248-b42f-13ce8dd9be15","system_id":"levelo_inurba_marseille","lat":43.28943,"lon":5.36387,"is_reserved":false,"is_disabled":false,"rental_uris":{"android":"levelo://app?vid=ceaf6b53-6462-4248-b42f-13ce8dd9be15","ios":"levelo://app?vid=ceaf6b53-6462-4248-b42f-13ce8dd9be15"},"vehicle_type_id":"4","last_reported":1768511525,"current_range_meters":8400,"station_id":"ce4bhc92rcd13ifvqetg","pricing_plan_id":"cebpf4jnsgd1na2vs0mg"},{"bike_id":"711317a0-0fc3-4fdd-8536-0b61be8a41ac","system_id":"levelo_inurba_marseille","lat":43.28579,"lon":5.395,"is_reserved":false,"is_disabled":false,"rental_uris":{"android":"levelo://app?vid=711317a0-0fc3-4fdd-8536-0b61be8a41ac","ios":"levelo://app?vid=711317a0-0fc3-4fdd-8536-0b61be8a41ac"},"vehicle_type_id":"4","last_reported":1768511525,"current_range_meters":8400,"station_id":"ce4bh292rcd13ifvqdg0","pricing_plan_id":"cebpf4jnsgd1na2vs0mg"},{"bike_id":"8a9c8e19-0485-48d1-8b64-257ddb3efc73","system_id":"levelo_inurba_marseille","lat":43.29934,"lon":5.37442,"is_reserved":false,"is_disabled":false,"rental_uris":{"android":"levelo://app?vid=8a9c8e19-0485-48d1-8b64-257ddb3efc73","ios":"levelo://app?vid=8a9c8e19-0485-48d1-8b64-257ddb3efc73"},"vehicle_type_id":"4","last_reported":1768511525,"current_range_meters":8400,"station_id":"","pricing_plan_id":"cebpf4jnsgd1na2vs0mg"},{"bike_id":"436eadf7-ff16-4732-946c-e33568d77044","system_id":"levelo_inurba_marseille","lat":43.27833,"lon":5.40729,"is_reserved":false,"is_disabled":false,"rental_uris":{"android":"levelo://app?vid=436eadf7-ff16-4732-946c-e33568d77044","ios":"levelo://app?vid=436eadf7-ff16-4732-946c-e33568d77044"},"vehicle_type_id":"4","last_reported":1768511525,"current_range_meters":8400,"station_id":"ce4bhnh2rcd13ifvqgtg","pricing_plan_id":"cebpf4jnsgd1na2vs0mg"},{"bike_id":"8432b899-8a4a-43d5-85e8-0637e8a5b849","system_id":"levelo_inurba_marseille","lat":43.3136,"lon":5.38488,"is_reserved":false,"is_disabled":false,"rental_uris":{"android":"levelo://app?vid=8432b899-8a4a-43d5-85e8-0637e8a5b849","ios":"levelo://app?vid=8432b899-8a4a-43d5-85e8-0637e8a5b849"},"vehicle_type_id":"4","last_reported":1768511525,"current_range_meters":8400,"station_id":"ce4bgt92rcd13ifvqcf0","pricing_plan_id":"cebpf4jnsgd1na2vs0mg"},{"bike_id":"0ce3cc02-2962-4286-804f-4dc1590de945","system_id":"levelo_inurba_marseille","lat":43.255802,"lon":5.382416,"is_reserved":false,"is_disabled":false,"rental_uris":{"android":"levelo://app?vid=0ce3cc02-2962-4286-804f-4dc1590de945","ios":"levelo://app?vid=0ce3cc02-2962-4286-804f-4dc1590de945"},"vehicle_type_id":"4","last_reported":1768511525,"current_range_meters":8400,"station_id":"ce4bhih2rcd13ifvqfs0","pricing_plan_id":"cebpf4jnsgd1na2vs0mg"},{"bike_id":"2feea6da-16f8-4530-b8c8-54959725e67d","system_id":"levelo_inurba_marseille","lat":43.24812,"lon":5.37462,"is_reserved":false,"is_disabled":false,"rental_uris":{"android":"levelo://app?vid=2feea6da-16f8-4530-b8c8-54959725e67d","ios":"levelo://app?vid=2feea6da-16f8-4530-b8c8-54959725e67d"},"vehicle_type_id":"4","last_reported":1768511525,"current_range_meters":8400,"station_id":"ce4bhgh2rcd13ifvqfb0","pricing_plan_id":"cebpf4jnsgd1na2vs0mg"},{"bike_id":"1b055412-806e-48f1-925c-445a01fdb3fe","system_id":"levelo_inurba_marseille","lat":43.29181,"lon":5.38603,"is_reserved":false,"is_disabled":false,"rental_uris":{"android":"levelo://app?vid=1b055412-806e-48f1-925c-445a01fdb3fe","ios":"levelo://app?vid=1b055412-806e-48f1-925c-445a01fdb3fe"},"vehicle_type_id":"4","last_reported":1768511525,"current_range_meters":8400,"station_id":"","pricing_plan_id":"cebpf4jnsgd1na2vs0mg"},{"bike_id":"7e3f2531-5750-4fda-a8e2-a3bd9eecac4d","system_id":"levelo_inurba_marseille","lat":43.28846,"lon":5.3932,"is_reserved":false,"is_disabled":false,"rental_uris":{"android":"levelo://app?vid=7e3f2531-5750-4fda-a8e2-a3bd9eecac4d","ios":"levelo://app?vid=7e3f2531-5750-4fda-a8e2-a3bd9eecac4d"},"vehicle_type_id":"4","last_reported":1768511525,"current_range_meters":8400,"station_id":"ce4bh2p2rcd13ifvqdi0","pricing_plan_id":"cebpf4jnsgd1na2vs0mg"},{"bike_id":"6abf8a46-f540-4848-8617-65edd2aabe92","system_id":"levelo_inurba_marseille","lat":43.31768,"lon":5.39752,"is_reserved":false,"is_disabled":false,"rental_uris":{"android":"levelo://app?vid=6abf8a46-f540-4848-8617-65edd2aabe92","ios":"levelo://app?vid=6abf8a46-f540-4848-8617-65edd2aabe92"},"vehicle_type_id":"4","last_reported":1768511525,"current_range_meters":8400,"station_id":"","pricing_plan_id":"cebpf4jnsgd1na2vs0mg"},{"bike_id":"2a8c5997-1181-47aa-a0bc-65833fc7d81a","system_id":"levelo_inurba_marseille","lat":43.295269,"lon":5.390351,"is_reserved":false,"is_disabled":false,"rental_uris":{"android":"levelo://app?vid=2a8c5997-1181-47aa-a0bc-65833fc7d81a","ios":"levelo://app?vid=2a8c5997-1181-47aa-a0bc-65833fc7d81a"},"vehicle_type_id":"4","last_reported":1768511525,"current_range_meters":8400,"station_id":"ce4bh3p2rcd13ifvqdp0","pricing_plan_id":"cebpf4jnsgd1na2vs0mg"},{"bike_id":"fc3f9817-8b43-4c1a-9039-35d0c408b1cd","system_id":"levelo_inurba_marseille","lat":43.29036,"lon":5.35919,"is_reserved":false,"is_disabled":false,"rental_uris":{"android":"levelo://app?vid=fc3f9817-8b43-4c1a-9039-35d0c408b1cd","ios":"levelo://app?vid=fc3f9817-8b43-4c1a-9039-35d0c408b1cd"},"vehicle_type_id":"4","last_reported":1768511525,"current_range_meters":8400,"station_id":"ce4bha92rcd13ifvqeg0","pricing_plan_id":"cebpf4jnsgd1na2vs0mg"},{"bike_id":"23ec3a98-26a5-4b81-8fe6-bd629f0771f5","system_id":"levelo_inurba_marseille","lat":43.281272,"lon":5.389248,"is_reserved":false,"is_disabled":false,"rental_uris":{"android":"levelo://app?vid=23ec3a98-26a5-4b81-8fe6-bd629f0771f5","ios":"levelo://app?vid=23ec3a98-26a5-4b81-8fe6-bd629f0771f5"},"vehicle_type_id":"4","last_reported":1768511525,"current_range_meters":8400,"station_id":"","pricing_plan_id":"cebpf4jnsgd1na2vs0mg"},{"bike_id":"f546a598-b504-471e-9b6d-f4786269b128","system_id":"levelo_inurba_marseille","lat":43.25197,"lon":5.38064,"is_reserved":false,"is_disabled":false,"rental_uris":{"android":"levelo://app?vid=f546a598-b504-471e-9b6d-f4786269b128","ios":"levelo://app?vid=f546a598-b504-471e-9b6d-f4786269b128"},"vehicle_type_id":"4","last_reported":1768511525,"current_range_meters":8400,"station_id":"","pricing_plan_id":"cebpf4jnsgd1na2vs0mg"},{"bike_id":"ca58f5b6-e381-495f-9a57-ed56b58464a3","system_id":"levelo_inurba_marseille","lat":43.23967,"lon":5.3663,"is_reserved":false,"is_disabled":false,"rental_uris":{"android":"levelo://app?vid=ca58f5b6-e381-495f-9a57-ed56b58464a3","ios":"levelo://app?vid=ca58f5b6-e381-495f-9a57-ed56b58464a3"},"vehicle_type_id":"4","last_reported":1768511525,"current_range_meters":8800,"station_id":"ce4bhi12rcd13ifvqfp0","pricing_plan_id":"cebpf4jnsgd1na2vs0mg"},{"bike_id":"f453663f-1a0f-42e4-b339-7ae16233dc9e","system_id":"levelo_inurba_marseille","lat":43.25582,"lon":5.3825,"is_reserved":false,"is_disabled":false,"rental_uris":{"android":"levelo://app?vid=f453663f-1a0f-42e4-b339-7ae16233dc9e","ios":"levelo://app?vid=f453663f-1a0f-42e4-b339-7ae16233dc9e"},"vehicle_type_id":"4","last_reported":1768511525,"current_range_meters":8800,"station_id":"ce4bhih2rcd13ifvqfs0","pricing_plan_id":"cebpf4jnsgd1na2vs0mg"},{"bike_id":"6a18159c-bda5-48a5-b3af-72f45cbffd91","system_id":"levelo_inurba_marseille","lat":43.2894,"lon":5.36628,"is_reserved":false,"is_disabled":false,"rental_uris":{"android":"levelo://app?vid=6a18159c-bda5-48a5-b3af-72f45cbffd91","ios":"levelo://app?vid=6a18159c-bda5-48a5-b3af-72f45cbffd91"},"vehicle_type_id":"4","last_reported":1768511525,"current_range_meters":8800,"station_id":"ce4bhap2rcd13ifvqek0","pricing_plan_id":"cebpf4jnsgd1na2vs0mg"},{"bike_id":"38c3b80e-0308-46b2-9a29-2654b96d87d9","system_id":"levelo_inurba_marseille","lat":43.2995,"lon":5.37352,"is_reserved":false,"is_disabled":false,"rental_uris":{"android":"levelo://app?vid=38c3b80e-0308-46b2-9a29-2654b96d87d9","ios":"levelo://app?vid=38c3b80e-0308-46b2-9a29-2654b96d87d9"},"vehicle_type_id":"4","last_reported":1768511525,"current_range_meters":8800,"station_id":"","pricing_plan_id":"cebpf4jnsgd1na2vs0mg"},{"bike_id":"8875f8cc-07a8-40ca-92de-9f4ce77fad56","system_id":"levelo_inurba_marseille","lat":43.28447,"lon":5.38655,"is_reserved":false,"is_disabled":false,"rental_uris":{"android":"levelo://app?vid=8875f8cc-07a8-40ca-92de-9f4ce77fad56","ios":"levelo://app?vid=8875f8cc-07a8-40ca-92de-9f4ce77fad56"},"vehicle_type_id":"4","last_reported":1768511525,"current_range_meters":8800,"station_id":"","pricing_plan_id":"cebpf4jnsgd1na2vs0mg"},{"bike_id":"aad3b51d-46ae-4281-a78b-26c0ae3907ef","system_id":"levelo_inurba_marseille","lat":43.28928,"lon":5.38405,"is_reserved":false,"is_disabled":false,"rental_uris":{"android":"levelo://app?vid=aad3b51d-46ae-4281-a78b-26c0ae3907ef","ios":"levelo://app?vid=aad3b51d-46ae-4281-a78b-26c0ae3907ef"},"vehicle_type_id":"4","last_reported":1768511525,"current_range_meters":8800,"station_id":"ce4bh612rcd13ifvqe6g","pricing_plan_id":"cebpf4jnsgd1na2vs0mg"},{"bike_id":"4c76e413-f964-439e-b2ed-77cbfd887213","system_id":"levelo_inurba_marseille","lat":43.28859,"lon":5.42527,"is_reserved":false,"is_disabled":false,"rental_uris":{"android":"levelo://app?vid=4c76e413-f964-439e-b2ed-77cbfd887213","ios":"levelo://app?vid=4c76e413-f964-439e-b2ed-77cbfd887213"},"vehicle_type_id":"4","last_reported":1768511525,"current_range_meters":8800,"station_id":"st_d3b462108ojc7389ooeg","pricing_plan_id":"cebpf4jnsgd1na2vs0mg"},{"bike_id":"bc625143-076d-413f-880b-c33b1491f456","system_id":"levelo_inurba_marseille","lat":43.23959,"lon":5.36662,"is_reserved":false,"is_disabled":false,"rental_uris":{"android":"levelo://app?vid=bc625143-076d-413f-880b-c33b1491f456","ios":"levelo://app?vid=bc625143-076d-413f-880b-c33b1491f456"},"vehicle_type_id":"4","last_reported":1768511525,"current_range_meters":8800,"station_id":"ce4bhi12rcd13ifvqfp0","pricing_plan_id":"cebpf4jnsgd1na2vs0mg"},{"bike_id":"48aeaab0-6b80-4b7a-a472-f0414a5d3089","system_id":"levelo_inurba_marseille","lat":43.29779,"lon":5.37082,"is_reserved":false,"is_disabled":false,"rental_uris":{"android":"levelo://app?vid=48aeaab0-6b80-4b7a-a472-f0414a5d3089","ios":"levelo://app?vid=48aeaab0-6b80-4b7a-a472-f0414a5d3089"},"vehicle_type_id":"4","last_reported":1768511525,"current_range_meters":8800,"station_id":"ce4bgop2rcd13ifvqc1g","pricing_plan_id":"cebpf4jnsgd1na2vs0mg"},{"bike_id":"78e45d95-b891-4462-8f40-71e1bb72c06d","system_id":"levelo_inurba_marseille","lat":43.29576,"lon":5.39965,"is_reserved":false,"is_disabled":true,"rental_uris":{"android":"levelo://app?vid=78e45d95-b891-4462-8f40-71e1bb72c06d","ios":"levelo://app?vid=78e45d95-b891-4462-8f40-71e1bb72c06d"},"vehicle_type_id":"4","last_reported":1768511525,"current_range_meters":8800,"station_id":"ce4bh312rcd13ifvqdj0","pricing_plan_id":"cebpf4jnsgd1na2vs0mg"},{"bike_id":"e1006462-68a0-4ccc-a6ad-e2bac9c35aea","system_id":"levelo_inurba_marseille","lat":43.25331,"lon":5.42166,"is_reserved":false,"is_disabled":false,"rental_uris":{"android":"levelo://app?vid=e1006462-68a0-4ccc-a6ad-e2bac9c35aea","ios":"levelo://app?vid=e1006462-68a0-4ccc-a6ad-e2bac9c35aea"},"vehicle_type_id":"4","last_reported":1768511525,"current_range_meters":8800,"station_id":"st_d2m65c5bi1j21697t3ng","pricing_plan_id":"cebpf4jnsgd1na2vs0mg"},{"bike_id":"bba9e660-d3c4-4fb7-89b1-c9c59c43e626","system_id":"levelo_inurba_marseille","lat":43.26379,"lon":5.37418,"is_reserved":false,"is_disabled":false,"rental_uris":{"android":"levelo://app?vid=bba9e660-d3c4-4fb7-89b1-c9c59c43e626","ios":"levelo://app?vid=bba9e660-d3c4-4fb7-89b1-c9c59c43e626"},"vehicle_type_id":"4","last_reported":1768511525,"current_range_meters":8800,"station_id":"","pricing_plan_id":"cebpf4jnsgd1na2vs0mg"},{"bike_id":"a64862b7-7fb6-4e06-afb6-d51a9970bf2e","system_id":"levelo_inurba_marseille","lat":43.24823,"lon":5.37472,"is_reserved":false,"is_disabled":false,"rental_uris":{"android":"levelo://app?vid=a64862b7-7fb6-4e06-afb6-d51a9970bf2e","ios":"levelo://app?vid=a64862b7-7fb6-4e06-afb6-d51a9970bf2e"},"vehicle_type_id":"4","last_reported":1768511525,"current_range_meters":8800,"station_id":"ce4bhgh2rcd13ifvqfb0","pricing_plan_id":"cebpf4jnsgd1na2vs0mg"},{"bike_id":"633241f7-f589-4b5e-b00a-272be3b1d076","system_id":"levelo_inurba_marseille","lat":43.26235,"lon":5.40299,"is_reserved":false,"is_disabled":false,"rental_uris":{"android":"levelo://app?vid=633241f7-f589-4b5e-b00a-272be3b1d076","ios":"levelo://app?vid=633241f7-f589-4b5e-b00a-272be3b1d076"},"vehicle_type_id":"4","last_reported":1768511525,"current_range_meters":8800,"station_id":"","pricing_plan_id":"cebpf4jnsgd1na2vs0mg"},{"bike_id":"a81f4be5-66c7-43ef-82aa-6c2ab0b53977","system_id":"levelo_inurba_marseille","lat":43.31337,"lon":5.39686,"is_reserved":false,"is_disabled":false,"rental_uris":{"android":"levelo://app?vid=a81f4be5-66c7-43ef-82aa-6c2ab0b53977","ios":"levelo://app?vid=a81f4be5-66c7-43ef-82aa-6c2ab0b53977"},"vehicle_type_id":"4","last_reported":1768511525,"current_range_meters":8800,"station_id":"ce4bgvp2rcd13ifvqcu0","pricing_plan_id":"cebpf4jnsgd1na2vs0mg"},{"bike_id":"6591b97e-2de1-4ffb-a6c8-26f52512dce1","system_id":"levelo_inurba_marseille","lat":43.30401,"lon":5.41194,"is_reserved":false,"is_disabled":false,"rental_uris":{"android":"levelo://app?vid=6591b97e-2de1-4ffb-a6c8-26f52512dce1","ios":"levelo://app?vid=6591b97e-2de1-4ffb-a6c8-26f52512dce1"},"vehicle_type_id":"4","last_reported":1768511525,"current_range_meters":8800,"station_id":"","pricing_plan_id":"cebpf4jnsgd1na2vs0mg"},{"bike_id":"134e8e3b-f15c-4a0c-aafc-a6fac2184e35","system_id":"levelo_inurba_marseille","lat":43.29473,"lon":5.43332,"is_reserved":false,"is_disabled":false,"rental_uris":{"android":"levelo://app?vid=134e8e3b-f15c-4a0c-aafc-a6fac2184e35","ios":"levelo://app?vid=134e8e3b-f15c-4a0c-aafc-a6fac2184e35"},"vehicle_type_id":"4","last_reported":1768511525,"current_range_meters":8800,"station_id":"st_d3j5ugp08ojc73fj9d10","pricing_plan_id":"cebpf4jnsgd1na2vs0mg"},{"bike_id":"4d332247-4585-4fac-8403-d2828a2858be","system_id":"levelo_inurba_marseille","lat":43.29537,"lon":5.38539,"is_reserved":false,"is_disabled":false,"rental_uris":{"android":"levelo://app?vid=4d332247-4585-4fac-8403-d2828a2858be","ios":"levelo://app?vid=4d332247-4585-4fac-8403-d2828a2858be"},"vehicle_type_id":"4","last_reported":1768511525,"current_range_meters":8800,"station_id":"ce4bgih2rcd13ifvqba0","pricing_plan_id":"cebpf4jnsgd1na2vs0mg"},{"bike_id":"b4a6f475-169a-4c6b-9874-44d755467932","system_id":"levelo_inurba_marseille","lat":43.27949,"lon":5.41046,"is_reserved":false,"is_disabled":false,"rental_uris":{"android":"levelo://app?vid=b4a6f475-169a-4c6b-9874-44d755467932","ios":"levelo://app?vid=b4a6f475-169a-4c6b-9874-44d755467932"},"vehicle_type_id":"4","last_reported":1768511525,"current_range_meters":9200,"station_id":"ce4bhnp2rcd13ifvqh0g","pricing_plan_id":"cebpf4jnsgd1na2vs0mg"},{"bike_id":"1fbf11d0-f681-485a-a697-105e4d30495f","system_id":"levelo_inurba_marseille","lat":43.2887,"lon":5.42529,"is_reserved":false,"is_disabled":false,"rental_uris":{"android":"levelo://app?vid=1fbf11d0-f681-485a-a697-105e4d30495f","ios":"levelo://app?vid=1fbf11d0-f681-485a-a697-105e4d30495f"},"vehicle_type_id":"4","last_reported":1768511525,"current_range_meters":9200,"station_id":"st_d3b462108ojc7389ooeg","pricing_plan_id":"cebpf4jnsgd1na2vs0mg"},{"bike_id":"627e5e4e-322b-49e8-be53-e7b0ef4c2eda","system_id":"levelo_inurba_marseille","lat":43.25581,"lon":5.38244,"is_reserved":false,"is_disabled":false,"rental_uris":{"android":"levelo://app?vid=627e5e4e-322b-49e8-be53-e7b0ef4c2eda","ios":"levelo://app?vid=627e5e4e-322b-49e8-be53-e7b0ef4c2eda"},"vehicle_type_id":"4","last_reported":1768511525,"current_range_meters":9200,"station_id":"ce4bhih2rcd13ifvqfs0","pricing_plan_id":"cebpf4jnsgd1na2vs0mg"},{"bike_id":"7d22d8e5-d57e-4b04-a7cf-16fd5f512cbc","system_id":"levelo_inurba_marseille","lat":43.27057,"lon":5.38309,"is_reserved":false,"is_disabled":false,"rental_uris":{"android":"levelo://app?vid=7d22d8e5-d57e-4b04-a7cf-16fd5f512cbc","ios":"levelo://app?vid=7d22d8e5-d57e-4b04-a7cf-16fd5f512cbc"},