{"last_updated":1679148333,"ttl":30,"version":"2.2","data":{"bikes":[{"bike_id":"79ea9b34-8451-41e4-8346-d1d1c48a7aa4","system_id":"levelo_inurba_marseille","lat":43.309076,"lon":5.368465,"is_reserved":false,"is_disabled":false,"rental_uris":{"android":"levelo://app?vid=79ea9b34-8451-41e4-8346-d1d1c48a7aa4","ios":"levelo://app?vid=79ea9b34-8451-41e4-8346-d1d1c48a7aa4"},"vehicle_type_id":"4","last_reported":1679148334,"current_range_meters":4800,"station_id":"ce4bgn92rcd13ifvqbvg","pricing_plan_id":"free"},{"bike_id":"165ec091-fef2-4ecc-8db8-382ee01a4a6f","system_id":"levelo_inurba_marseille","lat":43.30904,"lon":5.36851,"is_reserved":false,"is_disabled":false,"rental_uris":{"android":"levelo://app?vid=165ec091-fef2-4ecc-8db8-382ee01a4a6f","ios":"levelo://app?vid=165ec091-fef2-4ecc-8db8-382ee01a4a6f"},"vehicle_type_id":"4","last_reported":1679148334,"current_range_meters":0,"station_id":"","pricing_plan_id":"free"},{"bike_id":"2e996665-2f36-4da9-b7a1-8c45b94cb8d3","system_id":"levelo_inurba_marseille","lat":43.305989,"lon":5.37225,"is_reserved":false,"is_disabled":false,"rental_uris":{"android":"levelo://app?vid=2e996665-2f36-4da9-b7a1-8c45b94cb8d3","ios":"levelo://app?vid=2e996665-2f36-4da9-b7a1-8c45b94cb8d3"},"vehicle_type_id":"4","last_reported":1679148334,"current_range_meters":2800,"station_id":"ce4bgqh2rcd13ifvqc4g","pricing_plan_id":"free"},{"bike_id":"c00813ab-65e0-4119-94e8-080a50e0fc1f","system_id":"levelo_inurba_marseille","lat":43.305989,"lon":5.37225,"is_reserved":false,"is_disabled":false,"rental_uris":{"android":"levelo://app?vid=c00813ab-65e0-4119-94e8-080a50e0fc1f","ios":"levelo://app?vid=c00813ab-65e0-4119-94e8-080a50e0fc1f"},"vehicle_type_id":"4","last_reported":1679148334,"current_range_meters":13200,"station_id":"ce4bgqh2rcd13ifvqc4g","pricing_plan_id":"free"},{"bike_id":"78dd1b25-2555-4e2f-92ec-5787cd2869e3","system_id":"levelo_inurba_marseille","lat":43.317115,"lon":5.37749,"is_reserved":false,"is_disabled":false,"rental_uris":{"android":"levelo://app?vid=78dd1b25-2555-4e2f-92ec-5787cd2869e3","ios":"levelo://app?vid=78dd1b25-2555-4e2f-92ec-5787cd2869e3"},"vehicle_type_id":"4","last_reported":1679148334,"current_range_meters":9600,"station_id":"ce4bgth2rcd13ifvqch0","pricing_plan_id":"free"},{"bike_id":"81f1ffe1-3631-4b21-a3db-983175492cc2","system_id":"levelo_inurba_marseille","lat":43.312317,"lon":5.379638,"is_reserved":false,"is_disabled":false,"rental_uris":{"android":"levelo://app?vid=81f1ffe1-3631-4b21-a3db-983175492cc2","ios":"levelo://app?vid=81f1ffe1-3631-4b21-a3db-983175492cc2"},"vehicle_type_id":"4","last_reported":1679148334,"current_range_meters":0,"station_id":"","pricing_plan_id":"free"},{"bike_id":"2bf76630-700d-41ca-b37b-2871f2dfb53f","system_id":"levelo_inurba_marseille","lat":43.30547,"lon":5.37619,"is_reserved":false,"is_disabled":false,"rental_uris":{"android":"levelo://app?vid=2bf76630-700d-41ca-b37b-2871f2dfb53f","ios":"levelo://app?vid=2bf76630-700d-41ca-b37b-2871f2dfb53f"},"vehicle_type_id":"4","last_reported":1679148334,"current_range_meters":16800,"station_id":"","pricing_plan_id":"free"},{"bike_id":"837db4c9-fe4a-4e94-a050-ddc6c37bdecd","system_id":"levelo_inurba_marseille","lat":43.30143,"lon":5.37413,"is_reserved":false,"is_disabled":false,"rental_uris":{"android":"levelo://app?vid=837db4c9-fe4a-4e94-a050-ddc6c37bdecd","ios":"levelo://app?vid=837db4c9-fe4a-4e94-a050-ddc6c37bdecd"},"vehicle_type_id":"4","last_reported":1679148334,"current_range_meters":14400,"station_id":"ce4bgs92rcd13ifvqcc0","pricing_plan_id":"free"},{"bike_id":"ed5d9d09-119f-4de9-a0c6-e075e82b0f99","system_id":"levelo_inurba_marseille","lat":43.298433,"lon":5.362774,"is_reserved":false,"is_disabled":false,"rental_uris":{"android":"levelo://app?vid=ed5d9d09-119f-4de9-a0c6-e075e82b0f99","ios":"levelo://app?vid=ed5d9d09-119f-4de9-a0c6-e075e82b0f99"},"vehicle_type_id":"4","last_reported":1679148334,"current_range_meters":23600,"station_id":"ce4bgpp2rcd13ifvqc3g","pricing_plan_id":"free"},{"bike_id":"64aec7ca-80ef-4c4c-8a9f-a2b8b89740ae","system_id":"levelo_inurba_marseille","lat":43.298433,"lon":5.362774,"is_reserved":false,"is_disabled":false,"rental_uris":{"android":"levelo://app?vid=64aec7ca-80ef-4c4c-8a9f-a2b8b89740ae","ios":"levelo://app?vid=64aec7ca-80ef-4c4c-8a9f-a2b8b89740ae"},"vehicle_type_id":"4","last_reported":1679148334,"current_range_meters":5600,"station_id":"ce4bgpp2rcd13ifvqc3g","pricing_plan_id":"free"},{"bike_id":"845e883d-aa04-4f93-bafd-73d1545e7c2e","system_id":"levelo_inurba_marseille","lat":43.298433,"lon":5.362774,"is_reserved":false,"is_disabled":false,"rental_uris":{"android":"levelo://app?vid=845e883d-aa04-4f93-bafd-73d1545e7c2e","ios":"levelo://app?vid=845e883d-aa04-4f93-bafd-73d1545e7c2e"},"vehicle_type_id":"4","last_reported":1679148334,"current_range_meters":21600,"station_id":"ce4bgpp2rcd13ifvqc3g","pricing_plan_id":"free"},{"bike_id":"f28d55f0-c43a-462e-bf52-2630e7b7c0e9","system_id":"levelo_inurba_marseille","lat":43.29688,"lon":5.37293,"is_reserved":false,"is_disabled":false,"rental_uris":{"android":"levelo://app?vid=f28d55f0-c43a-462e-bf52-2630e7b7c0e9","ios":"levelo://app?vid=f28d55f0-c43a-462e-bf52-2630e7b7c0e9"},"vehicle_type_id":"4","last_reported":1679148334,"current_range_meters":10800,"station_id":"","pricing_plan_id":"free"},{"bike_id":"dfdc7fb9-61e8-4a6d-bd41-edcdf1574ec3","system_id":"levelo_inurba_marseille","lat":43.29573,"lon":5.367355,"is_reserved":false,"is_disabled":false,"rental_uris":{"android":"levelo://app?vid=dfdc7fb9-61e8-4a6d-bd41-edcdf1574ec3","ios":"levelo://app?vid=dfdc7fb9-61e8-4a6d-bd41-edcdf1574ec3"},"vehicle_type_id":"4","last_reported":1679148334,"current_range_meters":0,"station_id":"ce4bgph2rcd13ifvqc2g","pricing_plan_id":"free"},{"bike_id":"42afed7c-3dcd-4fab-877b-c9d357a568ec","system_id":"levelo_inurba_marseille","lat":43.29573,"lon":5.367355,"is_reserved":false,"is_disabled":false,"rental_uris":{"android":"levelo://app?vid=42afed7c-3dcd-4fab-877b-c9d357a568ec","ios":"levelo://app?vid=42afed7c-3dcd-4fab-877b-c9d357a568ec"},"vehicle_type_id":"4","last_reported":1679148334,"current_range_meters":3600,"station_id":"ce4bgph2rcd13ifvqc2g","pricing_plan_id":"free"},{"bike_id":"15217fa2-94a2-4433-9ec3-ed3b46b6067c","system_id":"levelo_inurba_marseille","lat":43.296921,"lon":5.376579,"is_reserved":false,"is_disabled":false,"rental_uris":{"android":"levelo://app?vid=15217fa2-94a2-4433-9ec3-ed3b46b6067c","ios":"levelo://app?vid=15217fa2-94a2-4433-9ec3-ed3b46b6067c"},"vehicle_type_id":"4","last_reported":1679148334,"current_range_meters":7600,"station_id":"ce4bgkh2rcd13ifvqbl0","pricing_plan_id":"free"},{"bike_id":"ac5b0658-a856-4344-89c3-facc37d5892a","system_id":"levelo_inurba_marseille","lat":43.296921,"lon":5.376579,"is_reserved":false,"is_disabled":false,"rental_uris":{"android":"levelo://app?vid=ac5b0658-a856-4344-89c3-facc37d5892a","ios":"levelo://app?vid=ac5b0658-a856-4344-89c3-facc37d5892a"},"vehicle_type_id":"4","last_reported":1679148334,"current_range_meters":0,"station_id":"ce4bgkh2rcd13ifvqbl0","pricing_plan_id":"free"},{"bike_id":"e134ae62-cb0f-4667-bb2f-de00663d3600","system_id":"levelo_inurba_marseille","lat":43.296921,"lon":5.376579,"is_reserved":false,"is_disabled":false,"rental_uris":{"android":"levelo://app?vid=e134ae62-cb0f-4667-bb2f-de00663d3600","ios":"levelo://app?vid=e134ae62-cb0f-4667-bb2f-de00663d3600"},"vehicle_type_id":"4","last_reported":1679148334,"current_range_meters":4400,"station_id":"ce4bgkh2rcd13ifvqbl0","pricing_plan_id":"free"},{"bike_id":"675a9939-bb15-468a-b1fb-eda7584e0a93","system_id":"levelo_inurba_marseille","lat":43.309589,"lon":5.390258,"is_reserved":false,"is_disabled":false,"rental_uris":{"android":"levelo://app?vid=675a9939-bb15-468a-b1fb-eda7584e0a93","ios":"levelo://app?vid=675a9939-bb15-468a-b1fb-eda7584e0a93"},"vehicle_type_id":"4","last_reported":1679148334,"current_range_meters":2000,"station_id":"ce4bgup2rcd13ifvqco0","pricing_plan_id":"free"},{"bike_id":"4dafff6b-9621-4e2b-86a4-abd86b4f6566","system_id":"levelo_inurba_marseille","lat":43.3176,"lon":5.39017,"is_reserved":false,"is_disabled":false,"rental_uris":{"android":"levelo://app?vid=4dafff6b-9621-4e2b-86a4-abd86b4f6566","ios":"levelo://app?vid=4dafff6b-9621-4e2b-86a4-abd86b4f6566"},"vehicle_type_id":"4","last_reported":1679148334,"current_range_meters":0,"station_id":"ce4bhqp2rcd13ifvqhng","pricing_plan_id":"free"},{"bike_id":"8c49eca2-53d3-414f-84ef-525ceea58ca1","system_id":"levelo_inurba_marseille","lat":43.298037,"lon":5.381066,"is_reserved":false,"is_disabled":false,"rental_uris":{"android":"levelo://app?vid=8c49eca2-53d3-414f-84ef-525ceea58ca1","ios":"levelo://app?vid=8c49eca2-53d3-414f-84ef-525ceea58ca1"},"vehicle_type_id":"4","last_reported":1679148334,"current_range_meters":0,"station_id":"ce4bgip2rcd13ifvqbb0","pricing_plan_id":"free"},{"bike_id":"afff1259-fcef-473a-a1c2-9179d2276fe7","system_id":"levelo_inurba_marseille","lat":43.298097,"lon":5.381073,"is_reserved":false,"is_disabled":false,"rental_uris":{"android":"levelo://app?vid=afff1259-fcef-473a-a1c2-9179d2276fe7","ios":"levelo://app?vid=afff1259-fcef-473a-a1c2-9179d2276fe7"},"vehicle_type_id":"4","last_reported":1679148334,"current_range_meters":0,"station_id":"","pricing_plan_id":"free"},{"bike_id":"dbbb64b1-bdac-4cd2-8f7a-fe704f5cd232","system_id":"levelo_inurba_marseille","lat":43.29791,"lon":5.38107,"is_reserved":false,"is_disabled":false,"rental_uris":{"android":"levelo://app?vid=dbbb64b1-bdac-4cd2-8f7a-fe704f5cd232","ios":"levelo://app?vid=dbbb64b1-bdac-4cd2-8f7a-fe704f5cd232"},"vehicle_type_id":"4","last_reported":1679148334,"current_range_meters":20400,"station_id":"ce4bgip2rcd13ifvqbb0","pricing_plan_id":"free"},{"bike_id":"771b3599-25c5-4955-bbf1-965498729387","system_id":"levelo_inurba_marseille","lat":43.295748,"lon":5.37522,"is_reserved":false,"is_disabled":false,"rental_uris":{"android":"levelo://app?vid=771b3599-25c5-4955-bbf1-965498729387","ios":"levelo://app?vid=771b3599-25c5-4955-bbf1-965498729387"},"vehicle_type_id":"4","last_reported":1679148334,"current_range_meters":0,"station_id":"ce4bgh92rcd13ifvqb50","pricing_plan_id":"free"},{"bike_id":"01ba1366-0388-48ce-9cc4-56f3e6552179","system_id":"levelo_inurba_marseille","lat":43.296183,"lon":5.377219,"is_reserved":false,"is_disabled":false,"rental_uris":{"android":"levelo://app?vid=01ba1366-0388-48ce-9cc4-56f3e6552179","ios":"levelo://app?vid=01ba1366-0388-48ce-9cc4-56f3e6552179"},"vehicle_type_id":"4","last_reported":1679148334,"current_range_meters":4800,"station_id":"ce4bgi92rcd13ifvqb90","pricing_plan_id":"free"},{"bike_id":"9adc1a46-1aad-490f-9add-5579ddd4317d","system_id":"levelo_inurba_marseille","lat":43.296048,"lon":5.377149,"is_reserved":false,"is_disabled":false,"rental_uris":{"android":"levelo://app?vid=9adc1a46-1aad-490f-9add-5579ddd4317d","ios":"levelo://app?vid=9adc1a46-1aad-490f-9add-5579ddd4317d"},"vehicle_type_id":"4","last_reported":1679148334,"current_range_meters":0,"station_id":"","pricing_plan_id":"free"},{"bike_id":"5971bedb-4e55-4cca-a827-15c1c85bce63","system_id":"levelo_inurba_marseille","lat":43.299681,"lon":5.384946,"is_reserved":false,"is_disabled":false,"rental_uris":{"android":"levelo://app?vid=5971bedb-4e55-4cca-a827-15c1c85bce63","ios":"levelo://app?vid=5971bedb-4e55-4cca-a827-15c1c85bce63"},"vehicle_type_id":"4","last_reported":1679148334,"current_range_meters":0,"station_id":"ce4bgj92rcd13ifvqbd0","pricing_plan_id":"free"},{"bike_id":"b9c18f37-556a-490b-8fe1-bd3f6c30f620","system_id":"levelo_inurba_marseille","lat":43.29518,"lon":5.37505,"is_reserved":false,"is_disabled":false,"rental_uris":{"android":"levelo://app?vid=b9c18f37-556a-490b-8fe1-bd3f6c30f620","ios":"levelo://app?vid=b9c18f37-556a-490b-8fe1-bd3f6c30f620"},"vehicle_type_id":"4","last_reported":1679148334,"current_range_meters":16000,"station_id":"","pricing_plan_id":"free"},{"bike_id":"09112c0d-d458-4ec1-966c-bfa9dbc549cd","system_id":"levelo_inurba_marseille","lat":43.295157,"lon":5.375076,"is_reserved":false,"is_disabled":false,"rental_uris":{"android":"levelo://app?vid=09112c0d-d458-4ec1-966c-bfa9dbc549cd","ios":"levelo://app?vid=09112c0d-d458-4ec1-966c-bfa9dbc549cd"},"vehicle_type_id":"4","last_reported":1679148334,"current_range_meters":12400,"station_id":"ce4bgkp2rcd13ifvqbmg","pricing_plan_id":"free"},{"bike_id":"451e2951-c99b-4214-8171-d40013ac7fa2","system_id":"levelo_inurba_marseille","lat":43.2936,"lon":5.37835,"is_reserved":false,"is_disabled":false,"rental_uris":{"android":"levelo://app?vid=451e2951-c99b-4214-8171-d40013ac7fa2","ios":"levelo://app?vid=451e2951-c99b-4214-8171-d40013ac7fa2"},"vehicle_type_id":"4","last_reported":1679148334,"current_range_meters":13600,"station_id":"ce4bgjh2rcd13ifvqbf0","pricing_plan_id":"free"},{"bike_id":"f7caafea-e513-4cb7-9952-9c99bc607d32","system_id":"levelo_inurba_marseille","lat":43.2936,"lon":5.37835,"is_reserved":false,"is_disabled":false,"rental_uris":{"android":"levelo://app?vid=f7caafea-e513-4cb7-9952-9c99bc607d32","ios":"levelo://app?vid=f7caafea-e513-4cb7-9952-9c99bc607d32"},"vehicle_type_id":"4","last_reported":1679148334,"current_range_meters":17200,"station_id":"ce4bgjh2rcd13ifvqbf0","pricing_plan_id":"free"},{"bike_id":"50334e09-ac69-41af-913c-4e00ba87a9a1","system_id":"levelo_inurba_marseille","lat":43.29883,"lon":5.38906,"is_reserved":false,"is_disabled":false,"rental_uris":{"android":"levelo://app?vid=50334e09-ac69-41af-913c-4e00ba87a9a1","ios":"levelo://app?vid=50334e09-ac69-41af-913c-4e00ba87a9a1"},"vehicle_type_id":"4","last_reported":1679148334,"current_range_meters":400,"station_id":"ce4bh392rcd13ifvqdl0","pricing_plan_id":"free"},{"bike_id":"060d2a6e-54e8-4de0-a8f1-5a088c270882","system_id":"levelo_inurba_marseille","lat":43.291675,"lon":5.371583,"is_reserved":false,"is_disabled":false,"rental_uris":{"android":"levelo://app?vid=060d2a6e-54e8-4de0-a8f1-5a088c270882","ios":"levelo://app?vid=060d2a6e-54e8-4de0-a8f1-5a088c270882"},"vehicle_type_id":"4","last_reported":1679148334,"current_range_meters":0,"station_id":"ce4bha92rcd13ifvqeh0","pricing_plan_id":"free"},{"bike_id":"c0fba56c-0c37-46ff-84f0-333e33bfe0e9","system_id":"levelo_inurba_marseille","lat":43.30182,"lon":5.39208,"is_reserved":false,"is_disabled":false,"rental_uris":{"android":"levelo://app?vid=c0fba56c-0c37-46ff-84f0-333e33bfe0e9","ios":"levelo://app?vid=c0fba56c-0c37-46ff-84f0-333e33bfe0e9"},"vehicle_type_id":"4","last_reported":1679148334,"current_range_meters":12400,"station_id":"","pricing_plan_id":"free"},{"bike_id":"c284e87e-6885-44c4-acde-ae8600f305b1","system_id":"levelo_inurba_marseille","lat":43.32219,"lon":5.39434,"is_reserved":false,"is_disabled":false,"rental_uris":{"android":"levelo://app?vid=c284e87e-6885-44c4-acde-ae8600f305b1","ios":"levelo://app?vid=c284e87e-6885-44c4-acde-ae8600f305b1"},"vehicle_type_id":"4","last_reported":1679148334,"current_range_meters":10800,"station_id":"","pricing_plan_id":"free"},{"bike_id":"c01b4031-ee2f-4dbb-9963-140687df431c","system_id":"levelo_inurba_marseille","lat":43.302008,"lon":5.394694,"is_reserved":false,"is_disabled":false,"rental_uris":{"android":"levelo://app?vid=c01b4031-ee2f-4dbb-9963-140687df431c","ios":"levelo://app?vid=c01b4031-ee2f-4dbb-9963-140687df431c"},"vehicle_type_id":"4","last_reported":1679148334,"current_range_meters":24400,"station_id":"ce4bh0p2rcd13ifvqd70","pricing_plan_id":"free"},{"bike_id":"7c51c04b-2d9b-45dd-a46a-f0a9779e2e54","system_id":"levelo_inurba_marseille","lat":43.29414,"lon":5.38629,"is_reserved":false,"is_disabled":false,"rental_uris":{"android":"levelo://app?vid=7c51c04b-2d9b-45dd-a46a-f0a9779e2e54","ios":"levelo://app?vid=7c51c04b-2d9b-45dd-a46a-f0a9779e2e54"},"vehicle_type_id":"4","last_reported":1679148334,"current_range_meters":10400,"station_id":"ce4bh2h2rcd13ifvqdh0","pricing_plan_id":"free"},{"bike_id":"1a05bfdb-f377-4990-888c-8436e7942810","system_id":"levelo_inurba_marseille","lat":43.28942,"lon":5.363995,"is_reserved":false,"is_disabled":false,"rental_uris":{"android":"levelo://app?vid=1a05bfdb-f377-4990-888c-8436e7942810","ios":"levelo://app?vid=1a05bfdb-f377-4990-888c-8436e7942810"},"vehicle_type_id":"4","last_reported":1679148334,"current_range_meters":30400,"station_id":"","pricing_plan_id":"free"},{"bike_id":"f2f4cd70-de70-4d60-a774-f8efe2ff047b","system_id":"levelo_inurba_marseille","lat":43.304296,"lon":5.397513,"is_reserved":false,"is_disabled":false,"rental_uris":{"android":"levelo://app?vid=f2f4cd70-de70-4d60-a774-f8efe2ff047b","ios":"levelo://app?vid=f2f4cd70-de70-4d60-a774-f8efe2ff047b"},"vehicle_type_id":"4","last_reported":1679148334,"current_range_meters":400,"station_id":"ce4bh092rcd13ifvqd20","pricing_plan_id":"free"},{"bike_id":"322c8d10-908c-412a-9715-5adafe250464","system_id":"levelo_inurba_marseille","lat":43.33041,"lon":5.38915,"is_reserved":false,"is_disabled":false,"rental_uris":{"android":"levelo://app?vid=322c8d10-908c-412a-9715-5adafe250464","ios":"levelo://app?vid=322c8d10-908c-412a-9715-5adafe250464"},"vehicle_type_id":"4","last_reported":1679148334,"current_range_meters":8000,"station_id":"","pricing_plan_id":"free"},{"bike_id":"fb3b8d29-b08f-45b9-ac40-61bbdfbd5f94","system_id":"levelo_inurba_marseille","lat":43.33045,"lon":5.38917,"is_reserved":false,"is_disabled":false,"rental_uris":{"android":"levelo://app?vid=fb3b8d29-b08f-45b9-ac40-61bbdfbd5f94","ios":"levelo://app?vid=fb3b8d29-b08f-45b9-ac40-61bbdfbd5f94"},"vehicle_type_id":"4","last_reported":1679148334,"current_range_meters":1200,"station_id":"ce4bhr92rcd13ifvqhrg","pricing_plan_id":"free"},{"bike_id":"15165648-4b98-4665-8703-9d38d76f5b78","system_id":"levelo_inurba_marseille","lat":43.289743,"lon":5.378304,"is_reserved":false,"is_disabled":false,"rental_uris":{"android":"levelo://app?vid=15165648-4b98-4665-8703-9d38d76f5b78","ios":"levelo://app?vid=15165648-4b98-4665-8703-9d38d76f5b78"},"vehicle_type_id":"4","last_reported":1679148334,"current_range_meters":16000,"station_id":"ce4bh9p2rcd13ifvqed0","pricing_plan_id":"free"},{"bike_id":"fc915b30-ba7c-4aae-ae8c-3796ce53ca9b","system_id":"levelo_inurba_marseille","lat":43.28856,"lon":5.358371,"is_reserved":false,"is_disabled":false,"rental_uris":{"android":"levelo://app?vid=fc915b30-ba7c-4aae-ae8c-3796ce53ca9b","ios":"levelo://app?vid=fc915b30-ba7c-4aae-ae8c-3796ce53ca9b"},"vehicle_type_id":"4","last_reported":1679148334,"current_range_meters":12800,"station_id":"ce4bhb12rcd13ifvqem0","pricing_plan_id":"free"},{"bike_id":"cf4c859d-b9ab-4c50-a0a0-2439a8ee8c3f","system_id":"levelo_inurba_marseille","lat":43.28856,"lon":5.358371,"is_reserved":false,"is_disabled":false,"rental_uris":{"android":"levelo://app?vid=cf4c859d-b9ab-4c50-a0a0-2439a8ee8c3f","ios":"levelo://app?vid=cf4c859d-b9ab-4c50-a0a0-2439a8ee8c3f"},"vehicle_type_id":"4","last_reported":1679148334,"current_range_meters":14000,"station_id":"ce4bhb12rcd13ifvqem0","pricing_plan_id":"free"},{"bike_id":"f0888a5d-8469-4a4a-aa32-e51183159fbe","system_id":"levelo_inurba_marseille","lat":43.337437,"lon":5.374608,"is_reserved":false,"is_disabled":false,"rental_uris":{"android":"levelo://app?vid=f0888a5d-8469-4a4a-aa32-e51183159fbe","ios":"levelo://app?vid=f0888a5d-8469-4a4a-aa32-e51183159fbe"},"vehicle_type_id":"4","last_reported":1679148334,"current_range_meters":10800,"station_id":"","pricing_plan_id":"free"},{"bike_id":"97a70748-85a2-4139-aa8d-3426ee2a5b86","system_id":"levelo_inurba_marseille","lat":43.337501,"lon":5.374448,"is_reserved":false,"is_disabled":false,"rental_uris":{"android":"levelo://app?vid=97a70748-85a2-4139-aa8d-3426ee2a5b86","ios":"levelo://app?vid=97a70748-85a2-4139-aa8d-3426ee2a5b86"},"vehicle_type_id":"4","last_reported":1679148334,"current_range_meters":0,"station_id":"","pricing_plan_id":"free"},{"bike_id":"3691d997-1cad-46ed-b7e6-586680d35f2f","system_id":"levelo_inurba_marseille","lat":43.337503,"lon":5.3747,"is_reserved":false,"is_disabled":false,"rental_uris":{"android":"levelo://app?vid=3691d997-1cad-46ed-b7e6-586680d35f2f","ios":"levelo://app?vid=3691d997-1cad-46ed-b7e6-586680d35f2f"},"vehicle_type_id":"4","last_reported":1679148334,"current_range_meters":21600,"station_id":"","pricing_plan_id":"free"},{"bike_id":"f3e60a9c-2b74-43cb-ac11-5dfafdbb73c0","system_id":"levelo_inurba_marseille","lat":43.337553,"lon":5.374626,"is_reserved":false,"is_disabled":false,"rental_uris":{"android":"levelo://app?vid=f3e60a9c-2b74-43cb-ac11-5dfafdbb73c0","ios":"levelo://app?vid=f3e60a9c-2b74-43cb-ac11-5dfafdbb73c0"},"vehicle_type_id":"4","last_reported":1679148334,"current_range_meters":26400,"station_id":"","pricing_plan_id":"free"},{"bike_id":"a27f4e6d-55f5-44ee-9ce9-b285a798fc58","system_id":"levelo_inurba_marseille","lat":43.29487,"lon":5.39371,"is_reserved":false,"is_disabled":false,"rental_uris":{"android":"levelo://app?vid=a27f4e6d-55f5-44ee-9ce9-b285a798fc58","ios":"levelo://app?vid=a27f4e6d-55f5-44ee-9ce9-b285a798fc58"},"vehicle_type_id":"4","last_reported":1679148334,"current_range_meters":0,"station_id":"","pricing_plan_id":"free"},{"bike_id":"7d8123dd-d5d0-4bc1-b347-f4b12a3175c2","system_id":"levelo_inurba_marseille","lat":43.300739,"lon":5.399563,"is_reserved":false,"is_disabled":false,"rental_uris":{"android":"levelo://app?vid=7d8123dd-d5d0-4bc1-b347-f4b12a3175c2","ios":"levelo://app?vid=7d8123dd-d5d0-4bc1-b347-f4b12a3175c2"},"vehicle_type_id":"4","last_reported":1679148334,"current_range_meters":0,"station_id":"","pricing_plan_id":"free"},{"bike_id":"0a931404-2297-4a67-8952-517dba235576","system_id":"levelo_inurba_marseille","lat":43.287185,"lon":5.379373,"is_reserved":false,"is_disabled":false,"rental_uris":{"android":"levelo://app?vid=0a931404-2297-4a67-8952-517dba235576","ios":"levelo://app?vid=0a931404-2297-4a67-8952-517dba235576"},"vehicle_type_id":"4","last_reported":1679148334,"current_range_meters":5200,"station_id":"ce4bh9p2rcd13ifvqec0","pricing_plan_id":"free"},{"bike_id":"8b873737-2558-4291-bd84-5b6945feaf8d","system_id":"levelo_inurba_marseille","lat":43.287185,"lon":5.379373,"is_reserved":false,"is_disabled":false,"rental_uris":{"android":"levelo://app?vid=8b873737-2558-4291-bd84-5b6945feaf8d","ios":"levelo://app?vid=8b873737-2558-4291-bd84-5b6945feaf8d"},"vehicle_type_id":"4","last_reported":1679148334,"current_range_meters":18800,"station_id":"ce4bh9p2rcd13ifvqec0","pricing_plan_id":"free"},{"bike_id":"3d269065-d0f3-4af7-88c7-f4fa33738d31","system_id":"levelo_inurba_marseille","lat":43.284793,"lon":5.384113,"is_reserved":false,"is_disabled":false,"rental_uris":{"android":"levelo://app?vid=3d269065-d0f3-4af7-88c7-f4fa33738d31","ios":"levelo://app?vid=3d269065-d0f3-4af7-88c7-f4fa33738d31"},"vehicle_type_id":"4","last_reported":1679148334,"current_range_meters":23600,"station_id":"ce4bh512rcd13ifvqe3g","pricing_plan_id":"free"},{"bike_id":"7da50cf2-84b2-4cdc-90b1-294cf45698cb","system_id":"levelo_inurba_marseille","lat":43.32145,"lon":5.40721,"is_reserved":false,"is_disabled":false,"rental_uris":{"android":"levelo://app?vid=7da50cf2-84b2-4cdc-90b1-294cf45698cb","ios":"levelo://app?vid=7da50cf2-84b2-4cdc-90b1-294cf45698cb"},"vehicle_type_id":"4","last_reported":1679148334,"current_range_meters":7600,"station_id":"ce4bhq92rcd13ifvqhjg","pricing_plan_id":"free"},{"bike_id":"0756b97c-9875-49e7-8f1b-7ffad31cbc71","system_id":"levelo_inurba_marseille","lat":43.284793,"lon":5.384113,"is_reserved":false,"is_disabled":false,"rental_uris":{"android":"levelo://app?vid=0756b97c-9875-49e7-8f1b-7ffad31cbc71","ios":"levelo://app?vid=0756b97c-9875-49e7-8f1b-7ffad31cbc71"},"vehicle_type_id":"4","last_reported":1679148334,"current_range_meters":30400,"station_id":"ce4bh512rcd13ifvqe3g","pricing_plan_id":"free"},{"bike_id":"8917f712-a661-4ffc-842b-da6fca8b6b80","system_id":"levelo_inurba_marseille","lat":43.284793,"lon":5.384113,"is_reserved":false,"is_disabled":false,"rental_uris":{"android":"levelo://app?vid=8917f712-a661-4ffc-842b-da6fca8b6b80","ios":"levelo://app?vid=8917f712-a661-4ffc-842b-da6fca8b6b80"},"vehicle_type_id":"4","last_reported":1679148334,"current_range_meters":28800,"station_id":"ce4bh512rcd13ifvqe3g","pricing_plan_id":"free"},{"bike_id":"6c14192a-ba6f-4c8f-99ee-362ec22a0a9c","system_id":"levelo_inurba_marseille","lat":43.32148,"lon":5.40725,"is_reserved":false,"is_disabled":false,"rental_uris":{"android":"levelo://app?vid=6c14192a-ba6f-4c8f-99ee-362ec22a0a9c","ios":"levelo://app?vid=6c14192a-ba6f-4c8f-99ee-362ec22a0a9c"},"vehicle_type_id":"4","last_reported":1679148334,"current_range_meters":16000,"station_id":"ce4bhq92rcd13ifvqhjg","pricing_plan_id":"free"},{"bike_id":"0dca6690-7b5d-443a-934a-ebd17e5c0551","system_id":"levelo_inurba_marseille","lat":43.284793,"lon":5.384119,"is_reserved":false,"is_disabled":false,"rental_uris":{"android":"levelo://app?vid=0dca6690-7b5d-443a-934a-ebd17e5c0551","ios":"levelo://app?vid=0dca6690-7b5d-443a-934a-ebd17e5c0551"},"vehicle_type_id":"4","last_reported":1679148334,"current_range_meters":31600,"station_id":"ce4bh512rcd13ifvqe3g","pricing_plan_id":"free"},{"bike_id":"058c2636-1d35-472c-bb06-5c8c3468647c","system_id":"levelo_inurba_marseille","lat":43.284793,"lon":5.384119,"is_reserved":false,"is_disabled":false,"rental_uris":{"android":"levelo://app?vid=058c2636-1d35-472c-bb06-5c8c3468647c","ios":"levelo://app?vid=058c2636-1d35-472c-bb06-5c8c3468647c"},"vehicle_type_id":"4","last_reported":1679148334,"current_range_meters":28800,"station_id":"ce4bh512rcd13ifvqe3g","pricing_plan_id":"free"},{"bike_id":"66b2bf0d-a572-4f4d-861e-479bb451d68e","system_id":"levelo_inurba_marseille","lat":43.284793,"lon":5.384119,"is_reserved":false,"is_disabled":false,"rental_uris":{"android":"levelo://app?vid=66b2bf0d-a572-4f4d-861e-479bb451d68e","ios":"levelo://app?vid=66b2bf0d-a572-4f4d-861e-479bb451d68e"},"vehicle_type_id":"4","last_reported":1679148334,"current_range_meters":28000,"station_id":"ce4bh512rcd13ifvqe3g","pricing_plan_id":"free"},{"bike_id":"6c584190-025b-43f5-9fd3-71674d07a35b","system_id":"levelo_inurba_marseille","lat":43.284793,"lon":5.384119,"is_reserved":false,"is_disabled":false,"rental_uris":{"android":"levelo://app?vid=6c584190-025b-43f5-9fd3-71674d07a35b","ios":"levelo://app?vid=6c584190-025b-43f5-9fd3-71674d07a35b"},"vehicle_type_id":"4","last_reported":1679148334,"current_range_meters":27200,"station_id":"ce4bh512rcd13ifvqe3g","pricing_plan_id":"free"},{"bike_id":"f7ec87f2-a8b8-4edb-9e47-65a79ac79380","system_id":"levelo_inurba_marseille","lat":43.284793,"lon":5.384119,"is_reserved":false,"is_disabled":false,"rental_uris":{"android":"levelo://app?vid=f7ec87f2-a8b8-4edb-9e47-65a79ac79380","ios":"levelo://app?vid=f7ec87f2-a8b8-4edb-9e47-65a79ac79380"},"vehicle_type_id":"4","last_reported":1679148334,"current_range_meters":31200,"station_id":"ce4bh512rcd13ifvqe3g","pricing_plan_id":"free"},{"bike_id":"379033c0-4186-43f7-90aa-c8c43cc39aca","system_id":"levelo_inurba_marseille","lat":43.284793,"lon":5.384119,"is_reserved":false,"is_disabled":false,"rental_uris":{"android":"levelo://app?vid=379033c0-4186-43f7-90aa-c8c43cc39aca","ios":"levelo://app?vid=379033c0-4186-43f7-90aa-c8c43cc39aca"},"vehicle_type_id":"4","last_reported":1679148334,"current_range_meters":31200,"station_id":"ce4bh512rcd13ifvqe3g","pricing_plan_id":"free"},{"bike_id":"abe5ed84-dccc-4ce7-9557-071b67e22432","system_id":"levelo_inurba_marseille","lat":43.284787,"lon":5.384116,"is_reserved":false,"is_disabled":false,"rental_uris":{"android":"levelo://app?vid=abe5ed84-dccc-4ce7-9557-071b67e22432","ios":"levelo://app?vid=abe5ed84-dccc-4ce7-9557-071b67e22432"},"vehicle_type_id":"4","last_reported":1679148334,"current_range_meters":27200,"station_id":"ce4bh512rcd13ifvqe3g","pricing_plan_id":"free"},{"bike_id":"e17c591e-1050-40d6-bab4-47d2e462f049","system_id":"levelo_inurba_marseille","lat":43.284787,"lon":5.384116,"is_reserved":false,"is_disabled":false,"rental_uris":{"android":"levelo://app?vid=e17c591e-1050-40d6-bab4-47d2e462f049","ios":"levelo://app?vid=e17c591e-1050-40d6-bab4-47d2e462f049"},"vehicle_type_id":"4","last_reported":1679148334,"current_range_meters":19200,"station_id":"ce4bh512rcd13ifvqe3g","pricing_plan_id":"free"},{"bike_id":"080024aa-3195-417a-8f19-a3bce1e3ad58","system_id":"levelo_inurba_marseille","lat":43.284787,"lon":5.384116,"is_reserved":false,"is_disabled":false,"rental_uris":{"android":"levelo://app?vid=080024aa-3195-417a-8f19-a3bce1e3ad58","ios":"levelo://app?vid=080024aa-3195-417a-8f19-a3bce1e3ad58"},"vehicle_type_id":"4","last_reported":1679148334,"current_range_meters":20000,"station_id":"ce4bh512rcd13ifvqe3g","pricing_plan_id":"free"},{"bike_id":"96a953aa-5f62-4cdb-a4e3-9210e85788cc","system_id":"levelo_inurba_marseille","lat":43.284793,"lon":5.384113,"is_reserved":false,"is_disabled":false,"rental_uris":{"android":"levelo://app?vid=96a953aa-5f62-4cdb-a4e3-9210e85788cc","ios":"levelo://app?vid=96a953aa-5f62-4cdb-a4e3-9210e85788cc"},"vehicle_type_id":"4","last_reported":1679148334,"current_range_meters":29200,"station_id":"ce4bh512rcd13ifvqe3g","pricing_plan_id":"free"},{"bike_id":"1ca43054-d103-4c91-8e46-61199c577922","system_id":"levelo_inurba_marseille","lat":43.284787,"lon":5.384116,"is_reserved":false,"is_disabled":false,"rental_uris":{"android":"levelo://app?vid=1ca43054-d103-4c91-8e46-61199c577922","ios":"levelo://app?vid=1ca43054-d103-4c91-8e46-61199c577922"},"vehicle_type_id":"4","last_reported":1679148334,"current_range_meters":28000,"station_id":"ce4bh512rcd13ifvqe3g","pricing_plan_id":"free"},{"bike_id":"8aac610e-aaba-4441-9c4e-63ed74d1aeb6","system_id":"levelo_inurba_marseille","lat":43.284787,"lon":5.384116,"is_reserved":false,"is_disabled":false,"rental_uris":{"android":"levelo://app?vid=8aac610e-aaba-4441-9c4e-63ed74d1aeb6","ios":"levelo://app?vid=8aac610e-aaba-4441-9c4e-63ed74d1aeb6"},"vehicle_type_id":"4","last_reported":1679148334,"current_range_meters":30400,"station_id":"ce4bh512rcd13ifvqe3g","pricing_plan_id":"free"},{"bike_id":"87563cf7-0b1d-4010-b251-637f9b2517ef","system_id":"levelo_inurba_marseille","lat":43.284793,"lon":5.384113,"is_reserved":false,"is_disabled":false,"rental_uris":{"android":"levelo://app?vid=87563cf7-0b1d-4010-b251-637f9b2517ef","ios":"levelo://app?vid=87563cf7-0b1d-4010-b251-637f9b2517ef"},"vehicle_type_id":"4","last_reported":1679148334,"current_range_meters":27200,"station_id":"ce4bh512rcd13ifvqe3g","pricing_plan_id":"free"},{"bike_id":"53246b54-1e33-48d7-8090-974ec1899c6b","system_id":"levelo_inurba_marseille","lat":43.284793,"lon":5.384113,"is_reserved":false,"is_disabled":false,"rental_uris":{"android":"levelo://app?vid=53246b54-1e33-48d7-8090-974ec1899c6b","ios":"levelo://app?vid=53246b54-1e33-48d7-8090-974ec1899c6b"},"vehicle_type_id":"4","last_reported":1679148334,"current_range_meters":23600,"station_id":"ce4bh512rcd13ifvqe3g","pricing_plan_id":"free"},{"bike_id":"bc1c6946-1826-43b0-beab-c3a76d906a46","system_id":"levelo_inurba_marseille","lat":43.284797,"lon":5.38431,"is_reserved":false,"is_disabled":false,"rental_uris":{"android":"levelo://app?vid=bc1c6946-1826-43b0-beab-c3a76d906a46","ios":"levelo://app?vid=bc1c6946-1826-43b0-beab-c3a76d906a46"},"vehicle_type_id":"4","last_reported":1679148334,"current_range_meters":28800,"station_id":"","pricing_plan_id":"free"},{"bike_id":"5ee5e927-6015-4880-861e-a3d2948d0e58","system_id":"levelo_inurba_marseille","lat":43.284794,"lon":5.384388,"is_reserved":false,"is_disabled":false,"rental_uris":{"android":"levelo://app?vid=5ee5e927-6015-4880-861e-a3d2948d0e58","ios":"levelo://app?vid=5ee5e927-6015-4880-861e-a3d2948d0e58"},"vehicle_type_id":"4","last_reported":1679148334,"current_range_meters":31600,"station_id":"ce4bh512rcd13ifvqe3g","pricing_plan_id":"free"},{"bike_id":"9c57a7db-b9bb-4326-bbba-2f4a66b94eb5","system_id":"levelo_inurba_marseille","lat":43.284793,"lon":5.384119,"is_reserved":false,"is_disabled":false,"rental_uris":{"android":"levelo://app?vid=9c57a7db-b9bb-4326-bbba-2f4a66b94eb5","ios":"levelo://app?vid=9c57a7db-b9bb-4326-bbba-2f4a66b94eb5"},"vehicle_type_id":"4","last_reported":1679148334,"current_range_meters":31200,"station_id":"ce4bh512rcd13ifvqe3g","pricing_plan_id":"free"},{"bike_id":"7d3c9812-063c-4ad5-bc8f-ab964f7d8ad7","system_id":"levelo_inurba_marseille","lat":43.29274,"lon":5.40122,"is_reserved":false,"is_disabled":false,"rental_uris":{"android":"levelo://app?vid=7d3c9812-063c-4ad5-bc8f-ab964f7d8ad7","ios":"levelo://app?vid=7d3c9812-063c-4ad5-bc8f-ab964f7d8ad7"},"vehicle_type_id":"4","last_reported":1679148334,"current_range_meters":31200,"station_id":"ce4bh312rcd13ifvqdk0","pricing_plan_id":"free"},{"bike_id":"475aacd5-0005-497f-a03e-529b680d34df","system_id":"levelo_inurba_marseille","lat":43.28039,"lon":5.369297,"is_reserved":false,"is_disabled":false,"rental_uris":{"android":"levelo://app?vid=475aacd5-0005-497f-a03e-529b680d34df","ios":"levelo://app?vid=475aacd5-0005-497f-a03e-529b680d34df"},"vehicle_type_id":"4","last_reported":1679148334,"current_range_meters":19600,"station_id":"ce4bha12rcd13ifvqef0","pricing_plan_id":"free"},{"bike_id":"10164de3-2ebe-4abe-a354-81678861c98b","system_id":"levelo_inurba_marseille","lat":43.28039,"lon":5.369297,"is_reserved":false,"is_disabled":false,"rental_uris":{"android":"levelo://app?vid=10164de3-2ebe-4abe-a354-81678861c98b","ios":"levelo://app?vid=10164de3-2ebe-4abe-a354-81678861c98b"},"vehicle_type_id":"4","last_reported":1679148334,"current_range_meters":3200,"station_id":"ce4bha12rcd13ifvqef0","pricing_plan_id":"free"},{"bike_id":"7b2cbd1f-9f49-4b9f-847f-accf7856b124","system_id":"levelo_inurba_marseille","lat":43.280382,"lon":5.369291,"is_reserved":false,"is_disabled":false,"rental_uris":{"android":"levelo://app?vid=7b2cbd1f-9f49-4b9f-847f-accf7856b124","ios":"levelo://app?vid=7b2cbd1f-9f49-4b9f-847f-accf7856b124"},"vehicle_type_id":"4","last_reported":1679148334,"current_range_meters":17200,"station_id":"ce4bha12rcd13ifvqef0","pricing_plan_id":"free"},{"bike_id":"1ff3ac7c-e045-4f87-b87d-5407589fc27c","system_id":"levelo_inurba_marseille","lat":43.296263,"lon":5.40601,"is_reserved":false,"is_disabled":false,"rental_uris":{"android":"levelo://app?vid=1ff3ac7c-e045-4f87-b87d-5407589fc27c","ios":"levelo://app?vid=1ff3ac7c-e045-4f87-b87d-5407589fc27c"},"vehicle_type_id":"4","last_reported":1679148334,"current_range_meters":9600,"station_id":"ce4bh0h2rcd13ifvqd60","pricing_plan_id":"free"},{"bike_id":"010b9f6e-6748-4096-9d85-b6941edce7e8","system_id":"levelo_inurba_marseille","lat":43.287154,"lon":5.399979,"is_reserved":false,"is_disabled":false,"rental_uris":{"android":"levelo://app?vid=010b9f6e-6748-4096-9d85-b6941edce7e8","ios":"levelo://app?vid=010b9f6e-6748-4096-9d85-b6941edce7e8"},"vehicle_type_id":"4","last_reported":1679148334,"current_range_meters":29200,"station_id":"ce4bho92rcd13ifvqh3g","pricing_plan_id":"free"},{"bike_id":"762e5028-0fc9-4e70-bfdd-4dee796b2b63","system_id":"levelo_inurba_marseille","lat":43.32046,"lon":5.41536,"is_reserved":false,"is_disabled":false,"rental_uris":{"android":"levelo://app?vid=762e5028-0fc9-4e70-bfdd-4dee796b2b63","ios":"levelo://app?vid=762e5028-0fc9-4e70-bfdd-4dee796b2b63"},"vehicle_type_id":"4","last_reported":1679148334,"current_range_meters":16400,"station_id":"","pricing_plan_id":"free"},{"bike_id":"24eb172e-32cf-4b00-8cbe-db9683e24c73","system_id":"levelo_inurba_marseille","lat":43.320045,"lon":5.415048,"is_reserved":false,"is_disabled":false,"rental_uris":{"android":"levelo://app?vid=24eb172e-32cf-4b00-8cbe-db9683e24c73","ios":"levelo://app?vid=24eb172e-32cf-4b00-8cbe-db9683e24c73"},"vehicle_type_id":"4","last_reported":1679148334,"current_range_meters":12400,"station_id":"ce4bhq92rcd13ifvqhkg","pricing_plan_id":"free"},{"bike_id":"2032acdc-62aa-4746-9875-909469b7b28a","system_id":"levelo_inurba_marseille","lat":43.32043,"lon":5.41559,"is_reserved":false,"is_disabled":false,"rental_uris":{"android":"levelo://app?vid=2032acdc-62aa-4746-9875-909469b7b28a","ios":"levelo://app?vid=2032acdc-62aa-4746-9875-909469b7b28a"},"vehicle_type_id":"4","last_reported":1679148334,"current_range_meters":15200,"station_id":"","pricing_plan_id":"free"},{"bike_id":"f4a0eef4-b3e5-4c5f-9536-964001cbd095","system_id":"levelo_inurba_marseille","lat":43.279742,"lon":5.38744,"is_reserved":false,"is_disabled":false,"rental_uris":{"android":"levelo://app?vid=f4a0eef4-b3e5-4c5f-9536-964001cbd095","ios":"levelo://app?vid=f4a0eef4-b3e5-4c5f-9536-964001cbd095"},"vehicle_type_id":"4","last_reported":1679148334,"current_range_meters":12000,"station_id":"ce4bhg12rcd13ifvqf80","pricing_plan_id":"free"},{"bike_id":"dc021f6f-9a86-47aa-b2a2-84aaaff87332","system_id":"levelo_inurba_marseille","lat":43.320045,"lon":5.415048,"is_reserved":false,"is_disabled":false,"rental_uris":{"android":"levelo://app?vid=dc021f6f-9a86-47aa-b2a2-84aaaff87332","ios":"levelo://app?vid=dc021f6f-9a86-47aa-b2a2-84aaaff87332"},"vehicle_type_id":"4","last_reported":1679148334,"current_range_meters":1600,"station_id":"ce4bhq92rcd13ifvqhkg","pricing_plan_id":"free"},{"bike_id":"9d002998-c479-45f0-879d-1bd38fbf953b","system_id":"levelo_inurba_marseille","lat":43.32482,"lon":5.41425,"is_reserved":false,"is_disabled":false,"rental_uris":{"android":"levelo://app?vid=9d002998-c479-45f0-879d-1bd38fbf953b","ios":"levelo://app?vid=9d002998-c479-45f0-879d-1bd38fbf953b"},"vehicle_type_id":"4","last_reported":1679148334,"current_range_meters":10400,"station_id":"","pricing_plan_id":"free"},{"bike_id":"416b648f-d2d5-4279-ab39-e5dc37154821","system_id":"levelo_inurba_marseille","lat":43.320045,"lon":5.415048,"is_reserved":false,"is_disabled":false,"rental_uris":{"android":"levelo://app?vid=416b648f-d2d5-4279-ab39-e5dc37154821","ios":"levelo://app?vid=416b648f-d2d5-4279-ab39-e5dc37154821"},"vehicle_type_id":"4","last_reported":1679148334,"current_range_meters":25600,"station_id":"ce4bhq92rcd13ifvqhkg","pricing_plan_id":"free"},{"bike_id":"d9c352a4-4cd3-4f97-93a4-aec273d02db8","system_id":"levelo_inurba_marseille","lat":43.292571,"lon":5.409107,"is_reserved":false,"is_disabled":false,"rental_uris":{"android":"levelo://app?vid=d9c352a4-4cd3-4f97-93a4-aec273d02db8","ios":"levelo://app?vid=d9c352a4-4cd3-4f97-93a4-aec273d02db8"},"vehicle_type_id":"4","last_reported":1679148334,"current_range_meters":5600,"station_id":"ce4bh192rcd13ifvqdc0","pricing_plan_id":"free"},{"bike_id":"10d10cf0-6210-416b-aec4-8db00a0c885f","system_id":"levelo_inurba_marseille","lat":43.29251,"lon":5.409153,"is_reserved":false,"is_disabled":false,"rental_uris":{"android":"levelo://app?vid=10d10cf0-6210-416b-aec4-8db00a0c885f","ios":"levelo://app?vid=10d10cf0-6210-416b-aec4-8db00a0c885f"},"vehicle_type_id":"4","last_reported":1679148334,"current_range_meters":28800,"station_id":"ce4bh192rcd13ifvqdc0","pricing_plan_id":"free"},{"bike_id":"02f1dcbb-94bd-4c1e-8ea6-be3c988fdb83","system_id":"levelo_inurba_marseille","lat":43.325243,"lon":5.414326,"is_reserved":false,"is_disabled":false,"rental_uris":{"android":"levelo://app?vid=02f1dcbb-94bd-4c1e-8ea6-be3c988fdb83","ios":"levelo://app?vid=02f1dcbb-94bd-4c1e-8ea6-be3c988fdb83"},"vehicle_type_id":"4","last_reported":1679148334,"current_range_meters":4800,"station_id":"ce4bhq12rcd13ifvqhhg","pricing_plan_id":"free"},{"bike_id":"078b02be-b786-47f4-b8a1-0e5acee98c30","system_id":"levelo_inurba_marseille","lat":43.280784,"lon":5.396622,"is_reserved":false,"is_disabled":false,"rental_uris":{"android":"levelo://app?vid=078b02be-b786-47f4-b8a1-0e5acee98c30","ios":"levelo://app?vid=078b02be-b786-47f4-b8a1-0e5acee98c30"},"vehicle_type_id":"4","last_reported":1679148334,"current_range_meters":0,"station_id":"ce4bho12rcd13ifvqh2g","pricing_plan_id":"free"},{"bike_id":"0a0fa632-122e-4c18-9a0e-6a1cce1a50f6","system_id":"levelo_inurba_marseille","lat":43.276682,"lon":5.389108,"is_reserved":false,"is_disabled":false,"rental_uris":{"android":"levelo://app?vid=0a0fa632-122e-4c18-9a0e-6a1cce1a50f6","ios":"levelo://app?vid=0a0fa632-122e-4c18-9a0e-6a1cce1a50f6"},"vehicle_type_id":"4","last_reported":1679148334,"current_range_meters":0,"station_id":"","pricing_plan_id":"free"},{"bike_id":"12dce33d-ca09-4724-a114-451872e4a036","system_id":"levelo_inurba_marseille","lat":43.28,"lon":5.39966,"is_reserved":false,"is_disabled":false,"rental_uris":{"android":"levelo://app?vid=12dce33d-ca09-4724-a114-451872e4a036","ios":"levelo://app?vid=12dce33d-ca09-4724-a114-451872e4a036"},"vehicle_type_id":"4","last_reported":1679148334,"current_range_meters":0,"station_id":"","pricing_plan_id":"free"},{"bike_id":"203b48d2-aaca-4244-a9fa-f17dfb0173ad","system_id":"levelo_inurba_marseille","lat":43.317121,"lon":5.423936,"is_reserved":false,"is_disabled":false,"rental_uris":{"android":"levelo://app?vid=203b48d2-aaca-4244-a9fa-f17dfb0173ad","ios":"levelo://app?vid=203b48d2-aaca-4244-a9fa-f17dfb0173ad"},"vehicle_type_id":"4","last_reported":1679148334,"current_range_meters":7200,"station_id":"ce4bhp92rcd13ifvqhbg","pricing_plan_id":"free"},{"bike_id":"4c094cd0-7222-4917-ad8b-27c03a149a60","system_id":"levelo_inurba_marseille","lat":43.310849,"lon":5.424267,"is_reserved":false,"is_disabled":false,"rental_uris":{"android":"levelo://app?vid=4c094cd0-7222-4917-ad8b-27c03a149a60","ios":"levelo://app?vid=4c094cd0-7222-4917-ad8b-27c03a149a60"},"vehicle_type_id":"4","last_reported":1679148334,"current_range_meters":23600,"station_id":"ce4bhp92rcd13ifvqhag","pricing_plan_id":"free"},{"bike_id":"b7a56549-6b7d-497e-8496-7ff25fff6ed4","system_id":"levelo_inurba_marseille","lat":43.31081,"lon":5.42427,"is_reserved":false,"is_disabled":false,"rental_uris":{"android":"levelo://app?vid=b7a56549-6b7d-497e-8496-7ff25fff6ed4","ios":"levelo://app?vid=b7a56549-6b7d-497e-8496-7ff25fff6ed4"},"vehicle_type_id":"4","last_reported":1679148334,"current_range_meters":26800,"station_id":"ce4bhp92rcd13ifvqhag","pricing_plan_id":"free"},{"bike_id":"f3e8fb6d-352b-4dd2-b33c-1eafeef7186f","system_id":"levelo_inurba_marseille","lat":43.31081,"lon":5.42431,"is_reserved":false,"is_disabled":false,"rental_uris":{"android":"levelo://app?vid=f3e8fb6d-352b-4dd2-b33c-1eafeef7186f","ios":"levelo://app?vid=f3e8fb6d-352b-4dd2-b33c-1eafeef7186f"},"vehicle_type_id":"4","last_reported":1679148334,"current_range_meters":27200,"station_id":"","pricing_plan_id":"free"},{"bike_id":"8895aa92-5fbf-4a87-b2cc-398b3b8d73ea","system_id":"levelo_inurba_marseille","lat":43.31086,"lon":5.42435,"is_reserved":false,"is_disabled":false,"rental_uris":{"android":"levelo://app?vid=8895aa92-5fbf-4a87-b2cc-398b3b8d73ea","ios":"levelo://app?vid=8895aa92-5fbf-4a87-b2cc-398b3b8d73ea"},"vehicle_type_id":"4","last_reported":1679148334,"current_range_meters":10000,"station_id":"","pricing_plan_id":"free"},{"bike_id":"dcf781a7-183f-4b18-a082-0731d10fe12d","system_id":"levelo_inurba_marseille","lat":43.304096,"lon":5.425385,"is_reserved":false,"is_disabled":false,"rental_uris":{"android":"levelo://app?vid=dcf781a7-183f-4b18-a082-0731d10fe12d","ios":"levelo://app?vid=dcf781a7-183f-4b18-a082-0731d10fe12d"},"vehicle_type_id":"4","last_reported":1679148334,"current_range_meters":27200,"station_id":"ce4bhoh2rcd13ifvqh6g","pricing_plan_id":"free"},{"bike_id":"5eecbdc6-4bd3-493c-a320-5c6a01a076fb","system_id":"levelo_inurba_marseille","lat":43.304096,"lon":5.425385,"is_reserved":false,"is_disabled":false,"rental_uris":{"android":"levelo://app?vid=5eecbdc6-4bd3-493c-a320-5c6a01a076fb","ios":"levelo://app?vid=5eecbdc6-4bd3-493c-a320-5c6a01a076fb"},"vehicle_type_id":"4","last_reported":1679148334,"current_range_meters":31200,"station_id":"ce4bhoh2rcd13ifvqh6g","pricing_plan_id":"free"},{"bike_id":"97845fa5-b394-4ad4-aedb-37c067bbba4d","system_id":"levelo_inurba_marseille","lat":43.304096,"lon":5.425385,"is_reserved":false,"is_disabled":false,"rental_uris":{"android":"levelo://app?vid=97845fa5-b394-4ad4-aedb-37c067bbba4d","ios":"levelo://app?vid=97845fa5-b394-4ad4-aedb-37c067bbba4d"},"vehicle_type_id":"4","last_reported":1679148334,"current_range_meters":24000,"station_id":"ce4bhoh2rcd13ifvqh6g","pricing_plan_id":"free"},{"bike_id":"dbaa0b39-1891-4199-9add-480664c5aade","system_id":"levelo_inurba_marseille","lat":43.304096,"lon":5.425385,"is_reserved":false,"is_disabled":false,"rental_uris":{"android":"levelo://app?vid=dbaa0b39-1891-4199-9add-480664c5aade","ios":"levelo://app?vid=dbaa0b39-1891-4199-9add-480664c5aade"},"vehicle_type_id":"4","last_reported":1679148334,"current_range_meters":16800,"station_id":"ce4bhoh2rcd13ifvqh6g","pricing_plan_id":"free"},{"bike_id":"1130bd26-8973-42e5-b748-8c0392d35f23","system_id":"levelo_inurba_marseille","lat":43.304096,"lon":5.425385,"is_reserved":false,"is_disabled":false,"rental_uris":{"android":"levelo://app?vid=1130bd26-8973-42e5-b748-8c0392d35f23","ios":"levelo://app?vid=1130bd26-8973-42e5-b748-8c0392d35f23"},"vehicle_type_id":"4","last_reported":1679148334,"current_range_meters":15200,"station_id":"ce4bhoh2rcd13ifvqh6g","pricing_plan_id":"free"},{"bike_id":"0102a14d-1976-4b23-815b-e01f89045796","system_id":"levelo_inurba_marseille","lat":43.304096,"lon":5.425385,"is_reserved":false,"is_disabled":false,"rental_uris":{"android":"levelo://app?vid=0102a14d-1976-4b23-815b-e01f89045796","ios":"levelo://app?vid=0102a14d-1976-4b23-815b-e01f89045796"},"vehicle_type_id":"4","last_reported":1679148334,"current_range_meters":24800,"station_id":"ce4bhoh2rcd13ifvqh6g","pricing_plan_id":"free"},{"bike_id":"728a5816-028c-4a92-bd69-ad0a44d83942","system_id":"levelo_inurba_marseille","lat":43.2955,"lon":5.42281,"is_reserved":false,"is_disabled":false,"rental_uris":{"android":"levelo://app?vid=728a5816-028c-4a92-bd69-ad0a44d83942","ios":"levelo://app?vid=728a5816-028c-4a92-bd69-ad0a44d83942"},"vehicle_type_id":"4","last_reported":1679148334,"current_range_meters":30800,"station_id":"ce4bhph2rcd13ifvqhdg","pricing_plan_id":"free"},{"bike_id":"ed39570b-0d60-4c1a-840f-8bd1149ab069","system_id":"levelo_inurba_marseille","lat":43.29547,"lon":5.4228,"is_reserved":false,"is_disabled":false,"rental_uris":{"android":"levelo://app?vid=ed39570b-0d60-4c1a-840f-8bd1149ab069","ios":"levelo://app?vid=ed39570b-0d60-4c1a-840f-8bd1149ab069"},"vehicle_type_id":"4","last_reported":1679148334,"current_range_meters":31600,"station_id":"","pricing_plan_id":"free"},{"bike_id":"433be8fa-cf10-4f89-bdc0-9ae23e316753","system_id":"levelo_inurba_marseille","lat":43.295523,"lon":5.422926,"is_reserved":false,"is_disabled":false,"rental_uris":{"android":"levelo://app?vid=433be8fa-cf10-4f89-bdc0-9ae23e316753","ios":"levelo://app?vid=433be8fa-cf10-4f89-bdc0-9ae23e316753"},"vehicle_type_id":"4","last_reported":1679148334,"current_range_meters":17600,"station_id":"ce4bhph2rcd13ifvqhdg","pricing_plan_id":"free"},{"bike_id":"07b4fcbf-0b2a-496b-a57f-97dfd12cb6e4","system_id":"levelo_inurba_marseille","lat":43.295553,"lon":5.422905,"is_reserved":false,"is_disabled":false,"rental_uris":{"android":"levelo://app?vid=07b4fcbf-0b2a-496b-a57f-97dfd12cb6e4","ios":"levelo://app?vid=07b4fcbf-0b2a-496b-a57f-97dfd12cb6e4"},"vehicle_type_id":"4","last_reported":1679148334,"current_range_meters":31600,"station_id":"ce4bhph2rcd13ifvqhdg","pricing_plan_id":"free"},{"bike_id":"4e2647f1-059f-46a9-a548-eacc871d2f57","system_id":"levelo_inurba_marseille","lat":43.295529,"lon":5.422969,"is_reserved":false,"is_disabled":false,"rental_uris":{"android":"levelo://app?vid=4e2647f1-059f-46a9-a548-eacc871d2f57","ios":"levelo://app?vid=4e2647f1-059f-46a9-a548-eacc871d2f57"},"vehicle_type_id":"4","last_reported":1679148334,"current_range_meters":2000,"station_id":"ce4bhph2rcd13ifvqhdg","pricing_plan_id":"free"},{"bike_id":"540d7295-f76f-49f3-9ea4-73c34719e69f","system_id":"levelo_inurba_marseille","lat":43.279939,"lon":5.416594,"is_reserved":false,"is_disabled":false,"rental_uris":{"android":"levelo://app?vid=540d7295-f76f-49f3-9ea4-73c34719e69f","ios":"levelo://app?vid=540d7295-f76f-49f3-9ea4-73c34719e69f"},"vehicle_type_id":"4","last_reported":1679148334,"current_range_meters":0,"station_id":"ce4bho12rcd13ifvqh1g","pricing_plan_id":"free"},{"bike_id":"1c8a0c70-fcfc-46b8-8da2-01105369cdc0","system_id":"levelo_inurba_marseille","lat":43.262012,"lon":5.379307,"is_reserved":false,"is_disabled":false,"rental_uris":{"android":"levelo://app?vid=1c8a0c70-fcfc-46b8-8da2-01105369cdc0","ios":"levelo://app?vid=1c8a0c70-fcfc-46b8-8da2-01105369cdc0"},"vehicle_type_id":"4","last_reported":1679148334,"current_range_meters":19200,"station_id":"ce4bhjp2rcd13ifvqg90","pricing_plan_id":"free"},{"bike_id":"d6f08d6d-3c8a-4db9-92a2-caeb4a0c76bb","system_id":"levelo_inurba_marseille","lat":43.267959,"lon":5.402685,"is_reserved":false,"is_disabled":false,"rental_uris":{"android":"levelo://app?vid=d6f08d6d-3c8a-4db9-92a2-caeb4a0c76bb","ios":"levelo://app?vid=d6f08d6d-3c8a-4db9-92a2-caeb4a0c76bb"},"vehicle_type_id":"4","last_reported":1679148334,"current_range_meters":26400,"station_id":"ce501612rcd8frsf0b60","pricing_plan_id":"free"},{"bike_id":"5c71b6ab-6d18-420e-b55b-c83b09ea64db","system_id":"levelo_inurba_marseille","lat":43.267959,"lon":5.402685,"is_reserved":false,"is_disabled":false,"rental_uris":{"android":"levelo://app?vid=5c71b6ab-6d18-420e-b55b-c83b09ea64db","ios":"levelo://app?vid=5c71b6ab-6d18-420e-b55b-c83b09ea64db"},"vehicle_type_id":"4","last_reported":1679148334,"current_range_meters":6000,"station_id":"ce501612rcd8frsf0b60","pricing_plan_id":"free"},{"bike_id":"acb447df-43a9-48ca-b3d1-38929029b32f","system_id":"levelo_inurba_marseille","lat":43.2609,"lon":5.39761,"is_reserved":false,"is_disabled":false,"rental_uris":{"android":"levelo://app?vid=acb447df-43a9-48ca-b3d1-38929029b32f","ios":"levelo://app?vid=acb447df-43a9-48ca-b3d1-38929029b32f"},"vehicle_type_id":"4","last_reported":1679148334,"current_range_meters":7600,"station_id":"","pricing_plan_id":"free"},{"bike_id":"2101ba88-8cdf-4fb4-b34b-6d97fdfdd7eb","system_id":"levelo_inurba_marseille","lat":43.26091,"lon":5.39767,"is_reserved":false,"is_disabled":false,"rental_uris":{"android":"levelo://app?vid=2101ba88-8cdf-4fb4-b34b-6d97fdfdd7eb","ios":"levelo://app?vid=2101ba88-8cdf-4fb4-b34b-6d97fdfdd7eb"},"vehicle_type_id":"4","last_reported":1679148334,"current_range_meters":19200,"station_id":"","pricing_plan_id":"free"},{"bike_id":"f226eeaa-b7af-4386-8e33-5b6c94d958f8","system_id":"levelo_inurba_marseille","lat":43.26089,"lon":5.39766,"is_reserved":false,"is_disabled":false,"rental_uris":{"android":"levelo://app?vid=f226eeaa-b7af-4386-8e33-5b6c94d958f8","ios":"levelo://app?vid=f226eeaa-b7af-4386-8e33-5b6c94d958f8"},"vehicle_type_id":"4","last_reported":1679148334,"current_range_meters":12800,"station_id":"","pricing_plan_id":"free"},{"bike_id":"c1c94d2c-c232-400f-8df6-4305b0cd2cf2","system_id":"levelo_inurba_marseille","lat":43.255756,"lon":5.382303,"is_reserved":false,"is_disabled":false,"rental_uris":{"android":"levelo://app?vid=c1c94d2c-c232-400f-8df6-4305b0cd2cf2","ios":"levelo://app?vid=c1c94d2c-c232-400f-8df6-4305b0cd2cf2"},"vehicle_type_id":"4","last_reported":1679148334,"current_range_meters":20000,"station_id":"ce4bhih2rcd13ifvqfs0","pricing_plan_id":"free"},{"bike_id":"504b9dc9-2b35-499c-a3cd-60af2177ae32","system_id":"levelo_inurba_marseille","lat":43.25586,"lon":5.38224,"is_reserved":false,"is_disabled":false,"rental_uris":{"android":"levelo://app?vid=504b9dc9-2b35-499c-a3cd-60af2177ae32","ios":"levelo://app?vid=504b9dc9-2b35-499c-a3cd-60af2177ae32"},"vehicle_type_id":"4","last_reported":1679148334,"current_range_meters":400,"station_id":"ce4bhih2rcd13ifvqfs0","pricing_plan_id":"free"},{"bike_id":"fb90b93c-5591-4ec2-9a6a-db58241bbdc1","system_id":"levelo_inurba_marseille","lat":43.255043,"lon":5.376432,"is_reserved":false,"is_disabled":false,"rental_uris":{"android":"levelo://app?vid=fb90b93c-5591-4ec2-9a6a-db58241bbdc1","ios":"levelo://app?vid=fb90b93c-5591-4ec2-9a6a-db58241bbdc1"},"vehicle_type_id":"4","last_reported":1679148334,"current_range_meters":0,"station_id":"","pricing_plan_id":"free"},{"bike_id":"d413346d-111b-47a2-b320-08accc19881f","system_id":"levelo_inurba_marseille","lat":43.254947,"lon":5.376454,"is_reserved":false,"is_disabled":false,"rental_uris":{"android":"levelo://app?vid=d413346d-111b-47a2-b320-08accc19881f","ios":"levelo://app?vid=d413346d-111b-47a2-b320-08accc19881f"},"vehicle_type_id":"4","last_reported":1679148334,"current_range_meters":2800,"station_id":"ce4bhh12rcd13ifvqff0","pricing_plan_id":"free"},{"bike_id":"514a6f39-2a0d-4cad-b08d-2715abfb1bd5","system_id":"levelo_inurba_marseille","lat":43.254947,"lon":5.376454,"is_reserved":false,"is_disabled":false,"rental_uris":{"android":"levelo://app?vid=514a6f39-2a0d-4cad-b08d-2715abfb1bd5","ios":"levelo://app?vid=514a6f39-2a0d-4cad-b08d-2715abfb1bd5"},"vehicle_type_id":"4","last_reported":1679148334,"current_range_meters":4400,"station_id":"ce4bhh12rcd13ifvqff0","pricing_plan_id":"free"},{"bike_id":"a6ffdf48-a6c1-4744-a557-6630ae2dc6ff","system_id":"levelo_inurba_marseille","lat":43.254947,"lon":5.376454,"is_reserved":false,"is_disabled":false,"rental_uris":{"android":"levelo://app?vid=a6ffdf48-a6c1-4744-a557-6630ae2dc6ff","ios":"levelo://app?vid=a6ffdf48-a6c1-4744-a557-6630ae2dc6ff"},"vehicle_type_id":"4","last_reported":1679148334,"current_range_meters":26800,"station_id":"ce4bhh12rcd13ifvqff0","pricing_plan_id":"free"},{"bike_id":"1e222674-c7fa-4849-9836-a6f20052e7b9","system_id":"levelo_inurba_marseille","lat":43.250009,"lon":5.389195,"is_reserved":false,"is_disabled":false,"rental_uris":{"android":"levelo://app?vid=1e222674-c7fa-4849-9836-a6f20052e7b9","ios":"levelo://app?vid=1e222674-c7fa-4849-9836-a6f20052e7b9"},"vehicle_type_id":"4","last_reported":1679148334,"current_range_meters":26400,"station_id":"ce4bhgp2rcd13ifvqfd0","pricing_plan_id":"free"},{"bike_id":"9402795b-e345-4c63-998c-39ec5c0ea4c1","system_id":"levelo_inurba_marseille","lat":43.250009,"lon":5.389195,"is_reserved":false,"is_disabled":false,"rental_uris":{"android":"levelo://app?vid=9402795b-e345-4c63-998c-39ec5c0ea4c1","ios":"levelo://app?vid=9402795b-e345-4c63-998c-39ec5c0ea4c1"},"vehicle_type_id":"4","last_reported":1679148334,"current_range_meters":31600,"station_id":"ce4bhgp2rcd13ifvqfd0","pricing_plan_id":"free"},{"bike_id":"68f5637d-0ce0-4e21-919a-e73e920d810d","system_id":"levelo_inurba_marseille","lat":43.250009,"lon":5.389195,"is_reserved":false,"is_disabled":false,"rental_uris":{"android":"levelo://app?vid=68f5637d-0ce0-4e21-919a-e73e920d810d","ios":"levelo://app?vid=68f5637d-0ce0-4e21-919a-e73e920d810d"},"vehicle_type_id":"4","last_reported":1679148334,"current_range_meters":13200,"station_id":"ce4bhgp2rcd13ifvqfd0","pricing_plan_id":"free"},{"bike_id":"4fa24eba-609a-44a6-a9b5-1c8089b1e434","system_id":"levelo_inurba_marseille","lat":43.25002,"lon":5.38929,"is_reserved":false,"is_disabled":false,"rental_uris":{"android":"levelo://app?vid=4fa24eba-609a-44a6-a9b5-1c8089b1e434","ios":"levelo://app?vid=4fa24eba-609a-44a6-a9b5-1c8089b1e434"},"vehicle_type_id":"4","last_reported":1679148334,"current_range_meters":16800,"station_id":"","pricing_plan_id":"free"},{"bike_id":"bf4fb621-500e-4434-aef7-29623ecc99dc","system_id":"levelo_inurba_marseille","lat":43.250009,"lon":5.389195,"is_reserved":false,"is_disabled":false,"rental_uris":{"android":"levelo://app?vid=bf4fb621-500e-4434-aef7-29623ecc99dc","ios":"levelo://app?vid=bf4fb621-500e-4434-aef7-29623ecc99dc"},"vehicle_type_id":"4","last_reported":1679148334,"current_range_meters":12400,"station_id":"ce4bhgp2rcd13ifvqfd0","pricing_plan_id":"free"},{"bike_id":"d3033048-c81a-4bb4-9bf8-b1c88293fa96","system_id":"levelo_inurba_marseille","lat":43.250009,"lon":5.389195,"is_reserved":false,"is_disabled":false,"rental_uris":{"android":"levelo://app?vid=d3033048-c81a-4bb4-9bf8-b1c88293fa96","ios":"levelo://app?vid=d3033048-c81a-4bb4-9bf8-b1c88293fa96"},"vehicle_type_id":"4","last_reported":1679148334,"current_range_meters":31600,"station_id":"ce4bhgp2rcd13ifvqfd0","pricing_plan_id":"free"},{"bike_id":"b97371b0-2081-4d7c-9ff6-4ce3dbddad9f","system_id":"levelo_inurba_marseille","lat":43.250009,"lon":5.389195,"is_reserved":false,"is_disabled":false,"rental_uris":{"android":"levelo://app?vid=b97371b0-2081-4d7c-9ff6-4ce3dbddad9f","ios":"levelo://app?vid=b97371b0-2081-4d7c-9ff6-4ce3dbddad9f"},"vehicle_type_id":"4","last_reported":1679148334,"current_range_meters":30400,"station_id":"ce4bhgp2rcd13ifvqfd0","pricing_plan_id":"free"},{"bike_id":"84af4f38-ec70-4ebb-af39-a66368d94cd0","system_id":"levelo_inurba_marseille","lat":43.250009,"lon":5.389195,"is_reserved":false,"is_disabled":false,"rental_uris":{"android":"levelo://app?vid=84af4f38-ec70-4ebb-af39-a66368d94cd0","ios":"levelo://app?vid=84af4f38-ec70-4ebb-af39-a66368d94cd0"},"vehicle_type_id":"4","last_reported":1679148334,"current_range_meters":27600,"station_id":"ce4bhgp2rcd13ifvqfd0","pricing_plan_id":"free"},{"bike_id":"c8aeffd4-d769-4f54-90b9-6937c7646dac","system_id":"levelo_inurba_marseille","lat":43.24813,"lon":5.37458,"is_reserved":false,"is_disabled":false,"rental_uris":{"android":"levelo://app?vid=c8aeffd4-d769-4f54-90b9-6937c7646dac","ios":"levelo://app?vid=c8aeffd4-d769-4f54-90b9-6937c7646dac"},"vehicle_type_id":"4","last_reported":1679148334,"current_range_meters":10800,"station_id":"ce4bhgh2rcd13ifvqfb0","pricing_plan_id":"free"},{"bike_id":"5692738f-ec03-4b8e-b231-5b37ac6e2db5","system_id":"levelo_inurba_marseille","lat":43.2479,"lon":5.374457,"is_reserved":false,"is_disabled":false,"rental_uris":{"android":"levelo://app?vid=5692738f-ec03-4b8e-b231-5b37ac6e2db5","ios":"levelo://app?vid=5692738f-ec03-4b8e-b231-5b37ac6e2db5"},"vehicle_type_id":"4","last_reported":1679148334,"current_range_meters":0,"station_id":"ce4bhgh2rcd13ifvqfb0","pricing_plan_id":"free"},{"bike_id":"63b75ead-78fc-43b1-85eb-a9e162fb51f1","system_id":"levelo_inurba_marseille","lat":43.2479,"lon":5.374457,"is_reserved":false,"is_disabled":false,"rental_uris":{"android":"levelo://app?vid=63b75ead-78fc-43b1-85eb-a9e162fb51f1","ios":"levelo://app?vid=63b75ead-78fc-43b1-85eb-a9e162fb51f1"},"vehicle_type_id":"4","last_reported":1679148334,"current_range_meters":29200,"station_id":"ce4bhgh2rcd13ifvqfb0","pricing_plan_id":"free"},{"bike_id":"f9010983-907c-4b92-82f7-dc3edfcc786d","system_id":"levelo_inurba_marseille","lat":43.2479,"lon":5.374457,"is_reserved":false,"is_disabled":false,"rental_uris":{"android":"levelo://app?vid=f9010983-907c-4b92-82f7-dc3edfcc786d","ios":"levelo://app?vid=f9010983-907c-4b92-82f7-dc3edfcc786d"},"vehicle_type_id":"4","last_reported":1679148334,"current_range_meters":29600,"station_id":"ce4bhgh2rcd13ifvqfb0","pricing_plan_id":"free"},{"bike_id":"0ff44bc0-9b67-4bf5-82f7-bde4f16cbcec","system_id":"levelo_inurba_marseille","lat":43.248054,"lon":5.374515,"is_reserved":false,"is_disabled":false,"rental_uris":{"android":"levelo://app?vid=0ff44bc0-9b67-4bf5-82f7-bde4f16cbcec","ios":"levelo://app?vid=0ff44bc0-9b67-4bf5-82f7-bde4f16cbcec"},"vehicle_type_id":"4","last_reported":1679148334,"current_range_meters":9200,"station_id":"ce4bhgh2rcd13ifvqfb0","pricing_plan_id":"free"},{"bike_id":"a5bc996a-4962-46b5-921e-37d92e3453e5","system_id":"levelo_inurba_marseille","lat":43.2479,"lon":5.374457,"is_reserved":false,"is_disabled":false,"rental_uris":{"android":"levelo://app?vid=a5bc996a-4962-46b5-921e-37d92e3453e5","ios":"levelo://app?vid=a5bc996a-4962-46b5-921e-37d92e3453e5"},"vehicle_type_id":"4","last_reported":1679148334,"current_range_meters":15200,"station_id":"ce4bhgh2rcd13ifvqfb0","pricing_plan_id":"free"},{"bike_id":"d4a0f554-11f0-47cb-a3d1-ca4c19695465","system_id":"levelo_inurba_marseille","lat":43.2479,"lon":5.374457,"is_reserved":false,"is_disabled":false,"rental_uris":{"android":"levelo://app?vid=d4a0f554-11f0-47cb-a3d1-ca4c19695465","ios":"levelo://app?vid=d4a0f554-11f0-47cb-a3d1-ca4c19695465"},"vehicle_type_id":"4","last_reported":1679148334,"current_range_meters":29200,"station_id":"ce4bhgh2rcd13ifvqfb0","pricing_plan_id":"free"},{"bike_id":"148aa54a-cb02-4c92-ac3d-1f41b949cfd2","system_id":"levelo_inurba_marseille","lat":43.2479,"lon":5.374457,"is_reserved":false,"is_disabled":false,"rental_uris":{"android":"levelo://app?vid=148aa54a-cb02-4c92-ac3d-1f41b949cfd2","ios":"levelo://app?vid=148aa54a-cb02-4c92-ac3d-1f41b949cfd2"},"vehicle_type_id":"4","last_reported":1679148334,"current_range_meters":31600,"station_id":"ce4bhgh2rcd13ifvqfb0","pricing_plan_id":"free"},{"bike_id":"8a60166c-d5a0-4680-8bbf-59587b8f564e","system_id":"levelo_inurba_marseille","lat":43.2479,"lon":5.374457,"is_reserved":false,"is_disabled":false,"rental_uris":{"android":"levelo://app?vid=8a60166c-d5a0-4680-8bbf-59587b8f564e","ios":"levelo://app?vid=8a60166c-d5a0-4680-8bbf-59587b8f564e"},"vehicle_type_id":"4","last_reported":1679148334,"current_range_meters":31600,"station_id":"ce4bhgh2rcd13ifvqfb0","pricing_plan_id":"free"},{"bike_id":"ad90196d-0e58-459e-aef8-8817a565511d","system_id":"levelo_inurba_marseille","lat":43.250966,"lon":5.395186,"is_reserved":false,"is_disabled":false,"rental_uris":{"android":"levelo://app?vid=ad90196d-0e58-459e-aef8-8817a565511d","ios":"levelo://app?vid=ad90196d-0e58-459e-aef8-8817a565511d"},"vehicle_type_id":"4","last_reported":1679148334,"current_range_meters":28400,"station_id":"ce4bhm12rcd13ifvqgkg","pricing_plan_id":"free"},{"bike_id":"b35f5bff-337f-44c7-9686-9a4a741f8cfd","system_id":"levelo_inurba_marseille","lat":43.24693,"lon":5.382096,"is_reserved":false,"is_disabled":false,"rental_uris":{"android":"levelo://app?vid=b35f5bff-337f-44c7-9686-9a4a741f8cfd","ios":"levelo://app?vid=b35f5bff-337f-44c7-9686-9a4a741f8cfd"},"vehicle_type_id":"4","last_reported":1679148334,"current_range_meters":0,"station_id":"ce4bhih2rcd13ifvqfr0","pricing_plan_id":"free"},{"bike_id":"789194dc-a393-4812-b9c0-2c8c1997cfdf","system_id":"levelo_inurba_marseille","lat":43.24693,"lon":5.382096,"is_reserved":false,"is_disabled":false,"rental_uris":{"android":"levelo://app?vid=789194dc-a393-4812-b9c0-2c8c1997cfdf","ios":"levelo://app?vid=789194dc-a393-4812-b9c0-2c8c1997cfdf"},"vehicle_type_id":"4","last_reported":1679148334,"current_range_meters":6000,"station_id":"ce4bhih2rcd13ifvqfr0","pricing_plan_id":"free"},{"bike_id":"fa4060ff-4486-4ae7-bba5-60bc9b05e550","system_id":"levelo_inurba_marseille","lat":43.25117,"lon":5.40324,"is_reserved":false,"is_disabled":false,"rental_uris":{"android":"levelo://app?vid=fa4060ff-4486-4ae7-bba5-60bc9b05e550","ios":"levelo://app?vid=fa4060ff-4486-4ae7-bba5-60bc9b05e550"},"vehicle_type_id":"4","last_reported":1679148334,"current_range_meters":27600,"station_id":"","pricing_plan_id":"free"},{"bike_id":"3cc1b91a-bbdf-4548-bd59-fc3083c04c06","system_id":"levelo_inurba_marseille","lat":43.24393,"lon":5.3705,"is_reserved":false,"is_disabled":false,"rental_uris":{"android":"levelo://app?vid=3cc1b91a-bbdf-4548-bd59-fc3083c04c06","ios":"levelo://app?vid=3cc1b91a-bbdf-4548-bd59-fc3083c04c06"},"vehicle_type_id":"4","last_reported":1679148334,"current_range_meters":11600,"station_id":"","pricing_plan_id":"free"},{"bike_id":"ecb3a446-224f-464f-b1cd-12740cea4b67","system_id":"levelo_inurba_marseille","lat":43.24391,"lon":5.37062,"is_reserved":false,"is_disabled":false,"rental_uris":{"android":"levelo://app?vid=ecb3a446-224f-464f-b1cd-12740cea4b67","ios":"levelo://app?vid=ecb3a446-224f-464f-b1cd-12740cea4b67"},"vehicle_type_id":"4","last_reported":1679148334,"current_range_meters":29200,"station_id":"","pricing_plan_id":"free"},{"bike_id":"3cd856d2-6ddf-492d-9b5b-0e2cec7863d2","system_id":"levelo_inurba_marseille","lat":43.24391,"lon":5.37064,"is_reserved":false,"is_disabled":false,"rental_uris":{"android":"levelo://app?vid=3cd856d2-6ddf-492d-9b5b-0e2cec7863d2","ios":"levelo://app?vid=3cd856d2-6ddf-492d-9b5b-0e2cec7863d2"},"vehicle_type_id":"4","last_reported":1679148334,"current_range_meters":19200,"station_id":"ce4bhhh2rcd13ifvqfk0","pricing_plan_id":"free"},{"bike_id":"5b9328a8-1552-4602-bf6d-588798b25df3","system_id":"levelo_inurba_marseille","lat":43.243899,"lon":5.370536,"is_reserved":false,"is_disabled":false,"rental_uris":{"android":"levelo://app?vid=5b9328a8-1552-4602-bf6d-588798b25df3","ios":"levelo://app?vid=5b9328a8-1552-4602-bf6d-588798b25df3"},"vehicle_type_id":"4","last_reported":1679148334,"current_range_meters":3200,"station_id":"ce4bhhh2rcd13ifvqfk0","pricing_plan_id":"free"},{"bike_id":"27451b56-b88f-4f88-8075-fbbc8f0dc709","system_id":"levelo_inurba_marseille","lat":43.2439,"lon":5.37057,"is_reserved":false,"is_disabled":false,"rental_uris":{"android":"levelo://app?vid=27451b56-b88f-4f88-8075-fbbc8f0dc709","ios":"levelo://app?vid=27451b56-b88f-4f88-8075-fbbc8f0dc709"},"vehicle_type_id":"4","last_reported":1679148334,"current_range_meters":31600,"station_id":"","pricing_plan_id":"free"},{"bike_id":"27450aed-d877-488a-a0ec-8d24e5ef24d4","system_id":"levelo_inurba_marseille","lat":43.2439,"lon":5.37058,"is_reserved":false,"is_disabled":false,"rental_uris":{"android":"levelo://app?vid=27450aed-d877-488a-a0ec-8d24e5ef24d4","ios":"levelo://app?vid=27450aed-d877-488a-a0ec-8d24e5ef24d4"},"vehicle_type_id":"4","last_reported":1679148334,"current_range_meters":19200,"station_id":"","pricing_plan_id":"free"},{"bike_id":"57bf2e4f-643d-4f9d-9bfb-2b77de7399a7","system_id":"levelo_inurba_marseille","lat":43.2439,"lon":5.37059,"is_reserved":false,"is_disabled":false,"rental_uris":{"android":"levelo://app?vid=57bf2e4f-643d-4f9d-9bfb-2b77de7399a7","ios":"levelo://app?vid=57bf2e4f-643d-4f9d-9bfb-2b77de7399a7"},"vehicle_type_id":"4","last_reported":1679148334,"current_range_meters":18800,"station_id":"","pricing_plan_id":"free"},{"bike_id":"bb9945e2-c7cb-4c88-a8cf-f2230d89b687","system_id":"levelo_inurba_marseille","lat":43.2439,"lon":5.3706,"is_reserved":false,"is_disabled":false,"rental_uris":{"android":"levelo://app?vid=bb9945e2-c7cb-4c88-a8cf-f2230d89b687","ios":"levelo://app?vid=bb9945e2-c7cb-4c88-a8cf-f2230d89b687"},"vehicle_type_id":"4","last_reported":1679148334,"current_range_meters":7600,"station_id":"ce4bhhh2rcd13ifvqfk0","pricing_plan_id":"free"},{"bike_id":"4e79a185-ce17-4afd-8806-0e529b396056","system_id":"levelo_inurba_marseille","lat":43.243892,"lon":5.370571,"is_reserved":false,"is_disabled":false,"rental_uris":{"android":"levelo://app?vid=4e79a185-ce17-4afd-8806-0e529b396056","ios":"levelo://app?vid=4e79a185-ce17-4afd-8806-0e529b396056"},"vehicle_type_id":"4","last_reported":1679148334,"current_range_meters":1200,"station_id":"ce4bhhh2rcd13ifvqfk0","pricing_plan_id":"free"},{"bike_id":"251616f5-d54d-42b9-ab01-70caf5bad6e5","system_id":"levelo_inurba_marseille","lat":43.24389,"lon":5.37059,"is_reserved":false,"is_disabled":false,"rental_uris":{"android":"levelo://app?vid=251616f5-d54d-42b9-ab01-70caf5bad6e5","ios":"levelo://app?vid=251616f5-d54d-42b9-ab01-70caf5bad6e5"},"vehicle_type_id":"4","last_reported":1679148334,"current_range_meters":23200,"station_id":"ce4bhhh2rcd13ifvqfk0","pricing_plan_id":"free"},{"bike_id":"09a87802-6ae3-496b-8a23-fd81a5ae1aed","system_id":"levelo_inurba_marseille","lat":43.24389,"lon":5.3706,"is_reserved":false,"is_disabled":false,"rental_uris":{"android":"levelo://app?vid=09a87802-6ae3-496b-8a23-fd81a5ae1aed","ios":"levelo://app?vid=09a87802-6ae3-496b-8a23-fd81a5ae1aed"},"vehicle_type_id":"4","last_reported":1679148334,"current_range_meters":21600,"station_id":"ce4bhhh2rcd13ifvqfk0","pricing_plan_id":"free"},{"bike_id":"5ab4f8b3-3943-45ce-a818-b1373536b6d9","system_id":"levelo_inurba_marseille","lat":43.24389,"lon":5.37062,"is_reserved":false,"is_disabled":false,"rental_uris":{"android":"levelo://app?vid=5ab4f8b3-3943-45ce-a818-b1373536b6d9","ios":"levelo://app?vid=5ab4f8b3-3943-45ce-a818-b1373536b6d9"},"vehicle_type_id":"4","last_reported":1679148334,"current_range_meters":10800,"station_id":"ce4bhhh2rcd13ifvqfk0","pricing_plan_id":"free"},{"bike_id":"a8ecd58c-ee05-4e67-92bd-f45b14543f1d","system_id":"levelo_inurba_marseille","lat":43.24389,"lon":5.37065,"is_reserved":false,"is_disabled":false,"rental_uris":{"android":"levelo://app?vid=a8ecd58c-ee05-4e67-92bd-f45b14543f1d","ios":"levelo://app?vid=a8ecd58c-ee05-4e67-92bd-f45b14543f1d"},"vehicle_type_id":"4","last_reported":1679148334,"current_range_meters":29200,"station_id":"ce4bhhh2rcd13ifvqfk0","pricing_plan_id":"free"},{"bike_id":"85b04368-6c76-438d-a2d0-353922432406","system_id":"levelo_inurba_marseille","lat":43.24389,"lon":5.37065,"is_reserved":false,"is_disabled":false,"rental_uris":{"android":"levelo://app?vid=85b04368-6c76-438d-a2d0-353922432406","ios":"levelo://app?vid=85b04368-6c76-438d-a2d0-353922432406"},"vehicle_type_id":"4","last_reported":1679148334,"current_range_meters":6400,"station_id":"ce4bhhh2rcd13ifvqfk0","pricing_plan_id":"free"},{"bike_id":"7cf502a4-d89a-4150-9a4f-384b140ecf74","system_id":"levelo_inurba_marseille","lat":43.24388,"lon":5.37051,"is_reserved":false,"is_disabled":false,"rental_uris":{"android":"levelo://app?vid=7cf502a4-d89a-4150-9a4f-384b140ecf74","ios":"levelo://app?vid=7cf502a4-d89a-4150-9a4f-384b140ecf74"},"vehicle_type_id":"4","last_reported":1679148334,"current_range_meters":12400,"station_id":"","pricing_plan_id":"free"},{"bike_id":"616f7ff5-9d4b-4998-9f13-95338ff38559","system_id":"levelo_inurba_marseille","lat":43.24386,"lon":5.37062,"is_reserved":false,"is_disabled":false,"rental_uris":{"android":"levelo://app?vid=616f7ff5-9d4b-4998-9f13-95338ff38559","ios":"levelo://app?vid=616f7ff5-9d4b-4998-9f13-95338ff38559"},"vehicle_type_id":"4","last_reported":1679148334,"current_range_meters":6800,"station_id":"","pricing_plan_id":"free"},{"bike_id":"89bd9dfa-5d7a-43d2-847c-e2c648177d88","system_id":"levelo_inurba_marseille","lat":43.243853,"lon":5.370543,"is_reserved":false,"is_disabled":false,"rental_uris":{"android":"levelo://app?vid=89bd9dfa-5d7a-43d2-847c-e2c648177d88","ios":"levelo://app?vid=89bd9dfa-5d7a-43d2-847c-e2c648177d88"},"vehicle_type_id":"4","last_reported":1679148334,"current_range_meters":21200,"station_id":"","pricing_plan_id":"free"},{"bike_id":"bfca4ce8-abdf-49b4-9799-aca7bf54cae9","system_id":"levelo_inurba_marseille","lat":43.24545,"lon":5.39522,"is_reserved":false,"is_disabled":false,"rental_uris":{"android":"levelo://app?vid=bfca4ce8-abdf-49b4-9799-aca7bf54cae9","ios":"levelo://app?vid=bfca4ce8-abdf-49b4-9799-aca7bf54cae9"},"vehicle_type_id":"4","last_reported":1679148334,"current_range_meters":22000,"station_id":"ce4bhlp2rcd13ifvqgjg","pricing_plan_id":"free"},{"bike_id":"aa5454e0-3a29-45e9-8f59-ae0f6ee52f1c","system_id":"levelo_inurba_marseille","lat":43.245581,"lon":5.395069,"is_reserved":false,"is_disabled":false,"rental_uris":{"android":"levelo://app?vid=aa5454e0-3a29-45e9-8f59-ae0f6ee52f1c","ios":"levelo://app?vid=aa5454e0-3a29-45e9-8f59-ae0f6ee52f1c"},"vehicle_type_id":"4","last_reported":1679148334,"current_range_meters":10400,"station_id":"ce4bhlp2rcd13ifvqgjg","pricing_plan_id":"free"},{"bike_id":"1405e1b5-ea6b-437e-8568-056654c484a1","system_id":"levelo_inurba_marseille","lat":43.240947,"lon":5.377663,"is_reserved":false,"is_disabled":false,"rental_uris":{"android":"levelo://app?vid=1405e1b5-ea6b-437e-8568-056654c484a1","ios":"levelo://app?vid=1405e1b5-ea6b-437e-8568-056654c484a1"},"vehicle_type_id":"4","last_reported":1679148334,"current_range_meters":5600,"station_id":"ce4bhnp2rcd13ifvqgvg","pricing_plan_id":"free"},{"bike_id":"5521ec33-ee6d-49f4-9471-d24cf70bcd7b","system_id":"levelo_inurba_marseille","lat":43.240623,"lon":5.377642,"is_reserved":false,"is_disabled":false,"rental_uris":{"android":"levelo://app?vid=5521ec33-ee6d-49f4-9471-d24cf70bcd7b","ios":"levelo://app?vid=5521ec33-ee6d-49f4-9471-d24cf70bcd7b"},"vehicle_type_id":"4","last_reported":1679148334,"current_range_meters":31600,"station_id":"ce4bhnp2rcd13ifvqgvg","pricing_plan_id":"free"},{"bike_id":"fec23fb4-f91d-478f-8eac-f2f40737c875","system_id":"levelo_inurba_marseille","lat":43.240623,"lon":5.377642,"is_reserved":false,"is_disabled":false,"rental_uris":{"android":"levelo://app?vid=fec23fb4-f91d-478f-8eac-f2f40737c875","ios":"levelo://app?vid=fec23fb4-f91d-478f-8eac-f2f40737c875"},"vehicle_type_id":"4","last_reported":1679148334,"current_range_meters":12000,"station_id":"ce4bhnp2rcd13ifvqgvg","pricing_plan_id":"free"},{"bike_id":"e3d8335d-9a0d-4ba0-b42b-7349ec611a7a","system_id":"levelo_inurba_marseille","lat":43.240623,"lon":5.377642,"is_reserved":false,"is_disabled":false,"rental_uris":{"android":"levelo://app?vid=e3d8335d-9a0d-4ba0-b42b-7349ec611a7a","ios":"levelo://app?vid=e3d8335d-9a0d-4ba0-b42b-7349ec611a7a"},"vehicle_type_id":"4","last_reported":1679148334,"current_range_meters":12000,"station_id":"ce4bhnp2rcd13ifvqgvg","pricing_plan_id":"free"},{"bike_id":"e2b39f61-a433-4fea-8ef4-f9a8742713b8","system_id":"levelo_inurba_marseille","lat":43.240623,"lon":5.377642,"is_reserved":false,"is_disabled":false,"rental_uris":{"android":"levelo://app?vid=e2b39f61-a433-4fea-8ef4-f9a8742713b8","ios":"levelo://app?vid=e2b39f61-a433-4fea-8ef4-f9a8742713b8"},"vehicle_type_id":"4","last_reported":1679148334,"current_range_meters":9200,"station_id":"ce4bhnp2rcd13ifvqgvg","pricing_plan_id":"free"},{"bike_id":"c03daf93-bd02-4eae-9c2b-09e471aa7c7a","system_id":"levelo_inurba_marseille","lat":43.240623,"lon":5.377642,"is_reserved":false,"is_disabled":false,"rental_uris":{"android":"levelo://app?vid=c03daf93-bd02-4eae-9c2b-09e471aa7c7a","ios":"levelo://app?vid=c03daf93-bd02-4eae-9c2b-09e471aa7c7a"},"vehicle_type_id":"4","last_reported":1679148334,"current_range_meters":14000,"station_id":"ce4bhnp2rcd13ifvqgvg","pricing_plan_id":"free"},{"bike_id":"77800063-d00a-4522-9222-b8d7fdda693b","system_id":"levelo_inurba_marseille","lat":43.240623,"lon":5.377642,"is_reserved":false,"is_disabled":false,"rental_uris":{"android":"levelo://app?vid=77800063-d00a-4522-9222-b8d7fdda693b","ios":"levelo://app?vid=77800063-d00a-4522-9222-b8d7fdda693b"},"vehicle_type_id":"4","last_reported":1679148334,"current_range_meters":31200,"station_id":"ce4bhnp2rcd13ifvqgvg","pricing_plan_id":"free"},{"bike_id":"2dc6c64b-a336-4241-b75a-c19c36648900","system_id":"levelo_inurba_marseille","lat":43.240623,"lon":5.377642,"is_reserved":false,"is_disabled":false,"rental_uris":{"android":"levelo://app?vid=2dc6c64b-a336-4241-b75a-c19c36648900","ios":"levelo://app?vid=2dc6c64b-a336-4241-b75a-c19c36648900"},"vehicle_type_id":"4","last_reported":1679148334,"current_range_meters":18400,"station_id":"ce4bhnp2rcd13ifvqgvg","pricing_plan_id":"free"},{"bike_id":"83c4b1bf-6edb-4b19-bd29-0126dad68b95","system_id":"levelo_inurba_marseille","lat":43.239588,"lon":5.366238,"is_reserved":false,"is_disabled":false,"rental_uris":{"android":"levelo://app?vid=83c4b1bf-6edb-4b19-bd29-0126dad68b95","ios":"levelo://app?vid=83c4b1bf-6edb-4b19-bd29-0126dad68b95"},"vehicle_type_id":"4","last_reported":1679148334,"current_range_meters":17600,"station_id":"ce4bhi12rcd13ifvqfp0","pricing_plan_id":"free"},{"bike_id":"c6cc925c-8bd8-48ba-9cd2-4132a28370ba","system_id":"levelo_inurba_marseille","lat":43.239588,"lon":5.366238,"is_reserved":false,"is_disabled":false,"rental_uris":{"android":"levelo://app?vid=c6cc925c-8bd8-48ba-9cd2-4132a28370ba","ios":"levelo://app?vid=c6cc925c-8bd8-48ba-9cd2-4132a28370ba"},"vehicle_type_id":"4","last_reported":1679148334,"current_range_meters":6800,"station_id":"ce4bhi12rcd13ifvqfp0","pricing_plan_id":"free"},{"bike_id":"7ce34fb4-d2f1-4fd2-a1df-852c0c60ac7a","system_id":"levelo_inurba_marseille","lat":43.23965,"lon":5.36637,"is_reserved":false,"is_disabled":false,"rental_uris":{"android":"levelo://app?vid=7ce34fb4-d2f1-4fd2-a1df-852c0c60ac7a","ios":"levelo://app?vid=7ce34fb4-d2f1-4fd2-a1df-852c0c60ac7a"},"vehicle_type_id":"4","last_reported":1679148334,"current_range_meters":9600,"station_id":"","pricing_plan_id":"free"},{"bike_id":"31785a66-9b6e-4896-add8-797a882dfd6f","system_id":"levelo_inurba_marseille","lat":43.24174,"lon":5.397123,"is_reserved":false,"is_disabled":false,"rental_uris":{"android":"levelo://app?vid=31785a66-9b6e-4896-add8-797a882dfd6f","ios":"levelo://app?vid=31785a66-9b6e-4896-add8-797a882dfd6f"},"vehicle_type_id":"4","last_reported":1679148334,"current_range_meters":800,"station_id":"","pricing_plan_id":"free"},{"bike_id":"63da8a7c-cf47-4be3-94bd-7381503f3246","system_id":"levelo_inurba_marseille","lat":43.23537,"lon":5.36002,"is_reserved":false,"is_disabled":false,"rental_uris":{"android":"levelo://app?vid=63da8a7c-cf47-4be3-94bd-7381503f3246","ios":"levelo://app?vid=63da8a7c-cf47-4be3-94bd-7381503f3246"},"vehicle_type_id":"4","last_reported":1679148334,"current_range_meters":7200,"station_id":"","pricing_plan_id":"free"},{"bike_id":"11c62a0d-7882-4db7-9dce-2e8145ca1f47","system_id":"levelo_inurba_marseille","lat":43.23195,"lon":5.35557,"is_reserved":false,"is_disabled":false,"rental_uris":{"android":"levelo://app?vid=11c62a0d-7882-4db7-9dce-2e8145ca1f47","ios":"levelo://app?vid=11c62a0d-7882-4db7-9dce-2e8145ca1f47"},"vehicle_type_id":"4","last_reported":1679148334,"current_range_meters":18400,"station_id":"ce4bhu92rcd13ifvqi70","pricing_plan_id":"free"},{"bike_id":"611d303e-d8dc-4fba-b9cc-de73730e9558","system_id":"levelo_inurba_marseille","lat":43.23194,"lon":5.35554,"is_reserved":false,"is_disabled":false,"rental_uris":{"android":"levelo://app?vid=611d303e-d8dc-4fba-b9cc-de73730e9558","ios":"levelo://app?vid=611d303e-d8dc-4fba-b9cc-de73730e9558"},"vehicle_type_id":"4","last_reported":1679148334,"current_range_meters":23200,"station_id":"ce4bhu92rcd13ifvqi70","pricing_plan_id":"free"},{"bike_id":"5c296cfe-bb42-4ddc-9604-9304ff266475","system_id":"levelo_inurba_marseille","lat":43.23194,"lon":5.35554,"is_reserved":false,"is_disabled":false,"rental_uris":{"android":"levelo://app?vid=5c296cfe-bb42-4ddc-9604-9304ff266475","ios":"levelo://app?vid=5c296cfe-bb42-4ddc-9604-9304ff266475"},"vehicle_type_id":"4","last_reported":1679148334,"current_range_meters":31600,"station_id":"","pricing_plan_id":"free"},{"bike_id":"956fe110-a343-4414-91a1-6e3d50bfa094","system_id":"levelo_inurba_marseille","lat":43.231923,"lon":5.355545,"is_reserved":false,"is_disabled":false,"rental_uris":{"android":"levelo://app?vid=956fe110-a343-4414-91a1-6e3d50bfa094","ios":"levelo://app?vid=956fe110-a343-4414-91a1-6e3d50bfa094"},"vehicle_type_id":"4","last_reported":1679148334,"current_range_meters":31600,"station_id":"ce4bhu92rcd13ifvqi70","pricing_plan_id":"free"},{"bike_id":"3396f8cd-a485-415b-8db8-2bba087f8106","system_id":"levelo_inurba_marseille","lat":43.231923,"lon":5.355545,"is_reserved":false,"is_disabled":false,"rental_uris":{"android":"levelo://app?vid=3396f8cd-a485-415b-8db8-2bba087f8106","ios":"levelo://app?vid=3396f8cd-a485-415b-8db8-2bba087f8106"},"vehicle_type_id":"4","last_reported":1679148334,"current_range_meters":8400,"station_id":"ce4bhu92rcd13ifvqi70","pricing_plan_id":"free"},{"bike_id":"88879922-dcd9-4b6f-9fe6-a6a039e9642d","system_id":"levelo_inurba_marseille","lat":43.231923,"lon":5.355545,"is_reserved":false,"is_disabled":false,"rental_uris":{"android":"levelo://app?vid=88879922-dcd9-4b6f-9fe6-a6a039e9642d","ios":"levelo://app?vid=88879922-dcd9-4b6f-9fe6-a6a039e9642d"},"vehicle_type_id":"4","last_reported":1679148334,"current_range_meters":31600,"station_id":"ce4bhu92rcd13ifvqi70","pricing_plan_id":"free"},{"bike_id":"ff98316f-748f-4069-a942-b27635abd352","system_id":"levelo_inurba_marseille","lat":43.231923,"lon":5.355545,"is_reserved":false,"is_disabled":false,"rental_uris":{"android":"levelo://app?vid=ff98316f-748f-4069-a942-b27635abd352","ios":"levelo://app?vid=ff98316f-748f-4069-a942-b27635abd352"},"vehicle_type_id":"4","last_reported":1679148334,"current_range_meters":31600,"station_id":"ce4bhu92rcd13ifvqi70","pricing_plan_id":"free"},{"bike_id":"b9f6f4f0-f36b-4f70-8715-1fede5862196","system_id":"levelo_inurba_marseille","lat":43.23193,"lon":5.35554,"is_reserved":false,"is_disabled":false,"rental_uris":{"android":"levelo://app?vid=b9f6f4f0-f36b-4f70-8715-1fede5862196","ios":"levelo://app?vid=b9f6f4f0-f36b-4f70-8715-1fede5862196"},"vehicle_type_id":"4","last_reported":1679148334,"current_range_meters":31200,"station_id":"","pricing_plan_id":"free"},{"bike_id":"9396a642-8421-4ca9-b20d-a2492104caf9","system_id":"levelo_inurba_marseille","lat":43.231924,"lon":5.355556,"is_reserved":false,"is_disabled":false,"rental_uris":{"android":"levelo://app?vid=9396a642-8421-4ca9-b20d-a2492104caf9","ios":"levelo://app?vid=9396a642-8421-4ca9-b20d-a2492104caf9"},"vehicle_type_id":"4","last_reported":1679148334,"current_range_meters":31600,"station_id":"","pricing_plan_id":"free"},{"bike_id":"0010ebe6-0da4-49c8-96ff-1cfa6d1925a0","system_id":"levelo_inurba_marseille","lat":43.23192,"lon":5.35557,"is_reserved":false,"is_disabled":false,"rental_uris":{"android":"levelo://app?vid=0010ebe6-0da4-49c8-96ff-1cfa6d1925a0","ios":"levelo://app?vid=0010ebe6-0da4-49c8-96ff-1cfa6d1925a0"},"vehicle_type_id":"4","last_reported":1679148334,"current_range_meters":26000,"station_id":"ce4bhu92rcd13ifvqi70","pricing_plan_id":"free"},{"bike_id":"fb1950d7-12d3-47d0-bd53-c1bd3e1c9a94","system_id":"levelo_inurba_marseille","lat":43.23191,"lon":5.35551,"is_reserved":false,"is_disabled":false,"rental_uris":{"android":"levelo://app?vid=fb1950d7-12d3-47d0-bd53-c1bd3e1c9a94","ios":"levelo://app?vid=fb1950d7-12d3-47d0-bd53-c1bd3e1c9a94"},"vehicle_type_id":"4","last_reported":1679148334,"current_range_meters":12800,"station_id":"ce4bhu92rcd13ifvqi70","pricing_plan_id":"free"},{"bike_id":"c609bd05-9ac8-45c2-9e95-79b7cc3205ec","system_id":"levelo_inurba_marseille","lat":43.2319,"lon":5.35559,"is_reserved":false,"is_disabled":false,"rental_uris":{"android":"levelo://app?vid=c609bd05-9ac8-45c2-9e95-79b7cc3205ec","ios":"levelo://app?vid=c609bd05-9ac8-45c2-9e95-79b7cc3205ec"},"vehicle_type_id":"4","last_reported":1679148334,"current_range_meters":24800,"station_id":"","pricing_plan_id":"free"},{"bike_id":"beaf722f-8cce-48cc-9f08-62b9af3ed634","system_id":"levelo_inurba_marseille","lat":43.2319,"lon":5.355538,"is_reserved":false,"is_disabled":false,"rental_uris":{"android":"levelo://app?vid=beaf722f-8cce-48cc-9f08-62b9af3ed634","ios":"levelo://app?vid=beaf722f-8cce-48cc-9f08-62b9af3ed634"},"vehicle_type_id":"4","last_reported":1679148334,"current_range_meters":26000,"station_id":"","pricing_plan_id":"free"},{"bike_id":"fadf4fdb-4d37-4e56-ac9b-30c332e74b6f","system_id":"levelo_inurba_marseille","lat":43.231923,"lon":5.355545,"is_reserved":false,"is_disabled":false,"rental_uris":{"android":"levelo://app?vid=fadf4fdb-4d37-4e56-ac9b-30c332e74b6f","ios":"levelo://app?vid=fadf4fdb-4d37-4e56-ac9b-30c332e74b6f"},"vehicle_type_id":"4","last_reported":1679148334,"current_range_meters":16400,"station_id":"ce4bhu92rcd13ifvqi70","pricing_plan_id":"free"},{"bike_id":"f9079c9a-45b1-4321-bdd7-c26504f6524c","system_id":"levelo_inurba_marseille","lat":43.231923,"lon":5.355545,"is_reserved":false,"is_disabled":false,"rental_uris":{"android":"levelo://app?vid=f9079c9a-45b1-4321-bdd7-c26504f6524c","ios":"levelo://app?vid=f9079c9a-45b1-4321-bdd7-c26504f6524c"},"vehicle_type_id":"4","last_reported":1679148334,"current_range_meters":28800,"station_id":"ce4bhu92rcd13ifvqi70","pricing_plan_id":"free"},{"bike_id":"1a1cf502-dc73-49e8-adfb-79041b4bd3aa","system_id":"levelo_inurba_marseille","lat":43.231923,"lon":5.355545,"is_reserved":false,"is_disabled":false,"rental_uris":{"android":"levelo://app?vid=1a1cf502-dc73-49e8-adfb-79041b4bd3aa","ios":"levelo://app?vid=1a1cf502-dc73-49e8-adfb-79041b4bd3aa"},"vehicle_type_id":"4","last_reported":1679148334,"current_range_meters":12400,"station_id":"ce4bhu92rcd13ifvqi70","pricing_plan_id":"free"}]}}