{"last_updated":1733047753,"ttl":60,"version":"2.2","data":{"bikes":[{"bike_id":"d0adae0d-5139-4c37-b759-c780aa93d035","system_id":"levelo_inurba_marseille","lat":43.31526,"lon":5.38033,"is_reserved":false,"is_disabled":false,"rental_uris":{"android":"levelo://app?vid=d0adae0d-5139-4c37-b759-c780aa93d035","ios":"levelo://app?vid=d0adae0d-5139-4c37-b759-c780aa93d035"},"vehicle_type_id":"4","last_reported":1733047753,"current_range_meters":39200,"station_id":"ce4bhsp2rcd13ifvqi50","pricing_plan_id":"cebpf4jnsgd1na2vs0mg"},{"bike_id":"9eb9ee9b-532a-4e66-9337-6742bfb3d802","system_id":"levelo_inurba_marseille","lat":43.27989,"lon":5.41652,"is_reserved":false,"is_disabled":true,"rental_uris":{"android":"levelo://app?vid=9eb9ee9b-532a-4e66-9337-6742bfb3d802","ios":"levelo://app?vid=9eb9ee9b-532a-4e66-9337-6742bfb3d802"},"vehicle_type_id":"4","last_reported":1733047753,"current_range_meters":30800,"station_id":"ce4bho12rcd13ifvqh1g","pricing_plan_id":"cebpf4jnsgd1na2vs0mg"},{"bike_id":"1afc036f-4162-41fb-bcbc-34117026c5f4","system_id":"levelo_inurba_marseille","lat":43.27494,"lon":5.42446,"is_reserved":false,"is_disabled":false,"rental_uris":{"android":"levelo://app?vid=1afc036f-4162-41fb-bcbc-34117026c5f4","ios":"levelo://app?vid=1afc036f-4162-41fb-bcbc-34117026c5f4"},"vehicle_type_id":"4","last_reported":1733047753,"current_range_meters":28400,"station_id":"ce4bhn92rcd13ifvqgrg","pricing_plan_id":"cebpf4jnsgd1na2vs0mg"},{"bike_id":"a1fe7e09-2fd6-4de4-8f3a-15d388f1e196","system_id":"levelo_inurba_marseille","lat":43.30151,"lon":5.38081,"is_reserved":false,"is_disabled":true,"rental_uris":{"android":"levelo://app?vid=a1fe7e09-2fd6-4de4-8f3a-15d388f1e196","ios":"levelo://app?vid=a1fe7e09-2fd6-4de4-8f3a-15d388f1e196"},"vehicle_type_id":"4","last_reported":1733047753,"current_range_meters":0,"station_id":"ce4bgjp2rcd13ifvqbh0","pricing_plan_id":"cebpf4jnsgd1na2vs0mg"},{"bike_id":"b856c8b4-412d-4c25-bdd4-e6b29aed04cb","system_id":"levelo_inurba_marseille","lat":43.22935,"lon":5.35378,"is_reserved":false,"is_disabled":false,"rental_uris":{"android":"levelo://app?vid=b856c8b4-412d-4c25-bdd4-e6b29aed04cb","ios":"levelo://app?vid=b856c8b4-412d-4c25-bdd4-e6b29aed04cb"},"vehicle_type_id":"4","last_reported":1733047753,"current_range_meters":40000,"station_id":"cpo3532slgdg3j2ikp40","pricing_plan_id":"cebpf4jnsgd1na2vs0mg"},{"bike_id":"b205fa0f-4b33-4b93-842a-7dec95d52c2f","system_id":"levelo_inurba_marseille","lat":43.24162,"lon":5.36408,"is_reserved":false,"is_disabled":false,"rental_uris":{"android":"levelo://app?vid=b205fa0f-4b33-4b93-842a-7dec95d52c2f","ios":"levelo://app?vid=b205fa0f-4b33-4b93-842a-7dec95d52c2f"},"vehicle_type_id":"4","last_reported":1733047753,"current_range_meters":25200,"station_id":"cpo36qri1sfpv3e86is0","pricing_plan_id":"cebpf4jnsgd1na2vs0mg"},{"bike_id":"a5578a43-f5ad-410e-9cff-1cdc0db55577","system_id":"levelo_inurba_marseille","lat":43.29417,"lon":5.38616,"is_reserved":false,"is_disabled":true,"rental_uris":{"android":"levelo://app?vid=a5578a43-f5ad-410e-9cff-1cdc0db55577","ios":"levelo://app?vid=a5578a43-f5ad-410e-9cff-1cdc0db55577"},"vehicle_type_id":"4","last_reported":1733047753,"current_range_meters":30400,"station_id":"ce4bh2h2rcd13ifvqdh0","pricing_plan_id":"cebpf4jnsgd1na2vs0mg"},{"bike_id":"7c2f5026-8e41-43e5-86a3-f20271746f98","system_id":"levelo_inurba_marseille","lat":43.2846,"lon":5.35888,"is_reserved":false,"is_disabled":false,"rental_uris":{"android":"levelo://app?vid=7c2f5026-8e41-43e5-86a3-f20271746f98","ios":"levelo://app?vid=7c2f5026-8e41-43e5-86a3-f20271746f98"},"vehicle_type_id":"4","last_reported":1733047753,"current_range_meters":39200,"station_id":"ce4bhah2rcd13ifvqei0","pricing_plan_id":"cebpf4jnsgd1na2vs0mg"},{"bike_id":"790a34a4-12ca-4fff-94f4-df476875eae0","system_id":"levelo_inurba_marseille","lat":43.232,"lon":5.39997,"is_reserved":false,"is_disabled":false,"rental_uris":{"android":"levelo://app?vid=790a34a4-12ca-4fff-94f4-df476875eae0","ios":"levelo://app?vid=790a34a4-12ca-4fff-94f4-df476875eae0"},"vehicle_type_id":"4","last_reported":1733047753,"current_range_meters":20000,"station_id":"ce4bhn12rcd13ifvqgqg","pricing_plan_id":"cebpf4jnsgd1na2vs0mg"},{"bike_id":"92f0d863-2ad1-43c3-baae-270b71087465","system_id":"levelo_inurba_marseille","lat":43.27365,"lon":5.36251,"is_reserved":false,"is_disabled":false,"rental_uris":{"android":"levelo://app?vid=92f0d863-2ad1-43c3-baae-270b71087465","ios":"levelo://app?vid=92f0d863-2ad1-43c3-baae-270b71087465"},"vehicle_type_id":"4","last_reported":1733047753,"current_range_meters":27600,"station_id":"ce4bhbh2rcd13ifvqeo0","pricing_plan_id":"cebpf4jnsgd1na2vs0mg"},{"bike_id":"b65688fa-b1c3-40d7-a238-e0b81dcc7be7","system_id":"levelo_inurba_marseille","lat":43.231804,"lon":5.39989,"is_reserved":false,"is_disabled":false,"rental_uris":{"android":"levelo://app?vid=b65688fa-b1c3-40d7-a238-e0b81dcc7be7","ios":"levelo://app?vid=b65688fa-b1c3-40d7-a238-e0b81dcc7be7"},"vehicle_type_id":"4","last_reported":1733047753,"current_range_meters":38800,"station_id":"ce4bhn12rcd13ifvqgqg","pricing_plan_id":"cebpf4jnsgd1na2vs0mg"},{"bike_id":"82100146-f184-490e-81ce-03e8fc0849aa","system_id":"levelo_inurba_marseille","lat":43.2994,"lon":5.36524,"is_reserved":false,"is_disabled":false,"rental_uris":{"android":"levelo://app?vid=82100146-f184-490e-81ce-03e8fc0849aa","ios":"levelo://app?vid=82100146-f184-490e-81ce-03e8fc0849aa"},"vehicle_type_id":"4","last_reported":1733047753,"current_range_meters":38800,"station_id":"ce4bgm92rcd13ifvqbr0","pricing_plan_id":"cebpf4jnsgd1na2vs0mg"},{"bike_id":"5b811d3a-cae0-4f12-9af9-b5fb1f651755","system_id":"levelo_inurba_marseille","lat":43.25094,"lon":5.40346,"is_reserved":false,"is_disabled":false,"rental_uris":{"android":"levelo://app?vid=5b811d3a-cae0-4f12-9af9-b5fb1f651755","ios":"levelo://app?vid=5b811d3a-cae0-4f12-9af9-b5fb1f651755"},"vehicle_type_id":"4","last_reported":1733047753,"current_range_meters":36000,"station_id":"ce4bhlh2rcd13ifvqgig","pricing_plan_id":"cebpf4jnsgd1na2vs0mg"},{"bike_id":"3f7d1b83-7fbe-4b4b-b621-09fc8c3dc4a5","system_id":"levelo_inurba_marseille","lat":43.33598,"lon":5.41021,"is_reserved":false,"is_disabled":false,"rental_uris":{"android":"levelo://app?vid=3f7d1b83-7fbe-4b4b-b621-09fc8c3dc4a5","ios":"levelo://app?vid=3f7d1b83-7fbe-4b4b-b621-09fc8c3dc4a5"},"vehicle_type_id":"4","last_reported":1733047753,"current_range_meters":28400,"station_id":"ce4bhqh2rcd13ifvqhmg","pricing_plan_id":"cebpf4jnsgd1na2vs0mg"},{"bike_id":"967e9a74-8d35-43a8-bb3f-b2f2942f3b6d","system_id":"levelo_inurba_marseille","lat":43.305444,"lon":5.367039,"is_reserved":false,"is_disabled":true,"rental_uris":{"android":"levelo://app?vid=967e9a74-8d35-43a8-bb3f-b2f2942f3b6d","ios":"levelo://app?vid=967e9a74-8d35-43a8-bb3f-b2f2942f3b6d"},"vehicle_type_id":"4","last_reported":1733047753,"current_range_meters":36400,"station_id":"ce4bgrp2rcd13ifvqc9g","pricing_plan_id":"cebpf4jnsgd1na2vs0mg"},{"bike_id":"966791e8-cdff-4838-a42b-c9b609a533a7","system_id":"levelo_inurba_marseille","lat":43.27452,"lon":5.4007,"is_reserved":false,"is_disabled":true,"rental_uris":{"android":"levelo://app?vid=966791e8-cdff-4838-a42b-c9b609a533a7","ios":"levelo://app?vid=966791e8-cdff-4838-a42b-c9b609a533a7"},"vehicle_type_id":"4","last_reported":1733047753,"current_range_meters":0,"station_id":"","pricing_plan_id":"cebpf4jnsgd1na2vs0mg"},{"bike_id":"51cbe1a2-78e5-4d4c-b925-a223c0878491","system_id":"levelo_inurba_marseille","lat":43.32648,"lon":5.40987,"is_reserved":false,"is_disabled":false,"rental_uris":{"android":"levelo://app?vid=51cbe1a2-78e5-4d4c-b925-a223c0878491","ios":"levelo://app?vid=51cbe1a2-78e5-4d4c-b925-a223c0878491"},"vehicle_type_id":"4","last_reported":1733047753,"current_range_meters":4000,"station_id":"ce4bhpp2rcd13ifvqhgg","pricing_plan_id":"cebpf4jnsgd1na2vs0mg"},{"bike_id":"7974306f-50f1-4979-96e6-42a3a669c81a","system_id":"levelo_inurba_marseille","lat":43.32,"lon":5.38148,"is_reserved":false,"is_disabled":false,"rental_uris":{"android":"levelo://app?vid=7974306f-50f1-4979-96e6-42a3a669c81a","ios":"levelo://app?vid=7974306f-50f1-4979-96e6-42a3a669c81a"},"vehicle_type_id":"4","last_reported":1733047753,"current_range_meters":7200,"station_id":"ce4bhr12rcd13ifvqhpg","pricing_plan_id":"cebpf4jnsgd1na2vs0mg"},{"bike_id":"950f0f61-2f5c-492f-8f8c-4a0c56c50709","system_id":"levelo_inurba_marseille","lat":43.29971,"lon":5.37184,"is_reserved":false,"is_disabled":false,"rental_uris":{"android":"levelo://app?vid=950f0f61-2f5c-492f-8f8c-4a0c56c50709","ios":"levelo://app?vid=950f0f61-2f5c-492f-8f8c-4a0c56c50709"},"vehicle_type_id":"4","last_reported":1733047753,"current_range_meters":26800,"station_id":"ce4bgr92rcd13ifvqc7g","pricing_plan_id":"cebpf4jnsgd1na2vs0mg"},{"bike_id":"3c1cbe93-68cb-4c82-9bcc-67105abc0047","system_id":"levelo_inurba_marseille","lat":43.29418,"lon":5.38616,"is_reserved":false,"is_disabled":false,"rental_uris":{"android":"levelo://app?vid=3c1cbe93-68cb-4c82-9bcc-67105abc0047","ios":"levelo://app?vid=3c1cbe93-68cb-4c82-9bcc-67105abc0047"},"vehicle_type_id":"4","last_reported":1733047753,"current_range_meters":30000,"station_id":"ce4bh2h2rcd13ifvqdh0","pricing_plan_id":"cebpf4jnsgd1na2vs0mg"},{"bike_id":"e403c0aa-4297-4238-8692-9a22138001aa","system_id":"levelo_inurba_marseille","lat":43.325031,"lon":5.415679,"is_reserved":false,"is_disabled":false,"rental_uris":{"android":"levelo://app?vid=e403c0aa-4297-4238-8692-9a22138001aa","ios":"levelo://app?vid=e403c0aa-4297-4238-8692-9a22138001aa"},"vehicle_type_id":"4","last_reported":1733047753,"current_range_meters":32000,"station_id":"ce4bhqh2rcd13ifvqhlg","pricing_plan_id":"cebpf4jnsgd1na2vs0mg"},{"bike_id":"ee3c4318-4146-4fe4-86b0-fc0b9ce70693","system_id":"levelo_inurba_marseille","lat":43.23066,"lon":5.35492,"is_reserved":false,"is_disabled":false,"rental_uris":{"android":"levelo://app?vid=ee3c4318-4146-4fe4-86b0-fc0b9ce70693","ios":"levelo://app?vid=ee3c4318-4146-4fe4-86b0-fc0b9ce70693"},"vehicle_type_id":"4","last_reported":1733047753,"current_range_meters":30800,"station_id":"cpo3342slgdg3j2ifvpg","pricing_plan_id":"cebpf4jnsgd1na2vs0mg"},{"bike_id":"3f8b483c-e3b2-4658-a804-0b0ff902e821","system_id":"levelo_inurba_marseille","lat":43.24656,"lon":5.38176,"is_reserved":false,"is_disabled":false,"rental_uris":{"android":"levelo://app?vid=3f8b483c-e3b2-4658-a804-0b0ff902e821","ios":"levelo://app?vid=3f8b483c-e3b2-4658-a804-0b0ff902e821"},"vehicle_type_id":"4","last_reported":1733047753,"current_range_meters":37600,"station_id":"ce4bhih2rcd13ifvqfr0","pricing_plan_id":"cebpf4jnsgd1na2vs0mg"},{"bike_id":"c8540c9d-7dc3-44fa-a0f8-7263d3d70bb8","system_id":"levelo_inurba_marseille","lat":43.24642,"lon":5.3889,"is_reserved":false,"is_disabled":true,"rental_uris":{"android":"levelo://app?vid=c8540c9d-7dc3-44fa-a0f8-7263d3d70bb8","ios":"levelo://app?vid=c8540c9d-7dc3-44fa-a0f8-7263d3d70bb8"},"vehicle_type_id":"4","last_reported":1733047753,"current_range_meters":0,"station_id":"ce4bhg12rcd13ifvqf60","pricing_plan_id":"cebpf4jnsgd1na2vs0mg"},{"bike_id":"34553e4f-2bbe-4e94-8740-7b5a4682f76a","system_id":"levelo_inurba_marseille","lat":43.31124,"lon":5.37765,"is_reserved":false,"is_disabled":true,"rental_uris":{"android":"levelo://app?vid=34553e4f-2bbe-4e94-8740-7b5a4682f76a","ios":"levelo://app?vid=34553e4f-2bbe-4e94-8740-7b5a4682f76a"},"vehicle_type_id":"4","last_reported":1733047753,"current_range_meters":36400,"station_id":"ce4bgt92rcd13ifvqcg0","pricing_plan_id":"cebpf4jnsgd1na2vs0mg"},{"bike_id":"c7124f38-3d56-473c-9e8b-76061f1c5a09","system_id":"levelo_inurba_marseille","lat":43.27072,"lon":5.422773,"is_reserved":false,"is_disabled":false,"rental_uris":{"android":"levelo://app?vid=c7124f38-3d56-473c-9e8b-76061f1c5a09","ios":"levelo://app?vid=c7124f38-3d56-473c-9e8b-76061f1c5a09"},"vehicle_type_id":"4","last_reported":1733047753,"current_range_meters":36800,"station_id":"ce4bhk92rcd13ifvqgb0","pricing_plan_id":"cebpf4jnsgd1na2vs0mg"},{"bike_id":"bc349d87-33fa-417a-b576-c9e08ccf7a4b","system_id":"levelo_inurba_marseille","lat":43.30956,"lon":5.39038,"is_reserved":false,"is_disabled":false,"rental_uris":{"android":"levelo://app?vid=bc349d87-33fa-417a-b576-c9e08ccf7a4b","ios":"levelo://app?vid=bc349d87-33fa-417a-b576-c9e08ccf7a4b"},"vehicle_type_id":"4","last_reported":1733047753,"current_range_meters":38400,"station_id":"ce4bgup2rcd13ifvqco0","pricing_plan_id":"cebpf4jnsgd1na2vs0mg"},{"bike_id":"923e0682-9417-4cf9-a4f0-0c31bc00dbd7","system_id":"levelo_inurba_marseille","lat":43.31275,"lon":5.40171,"is_reserved":false,"is_disabled":false,"rental_uris":{"android":"levelo://app?vid=923e0682-9417-4cf9-a4f0-0c31bc00dbd7","ios":"levelo://app?vid=923e0682-9417-4cf9-a4f0-0c31bc00dbd7"},"vehicle_type_id":"4","last_reported":1733047753,"current_range_meters":38800,"station_id":"ce4bh092rcd13ifvqd30","pricing_plan_id":"cebpf4jnsgd1na2vs0mg"},{"bike_id":"b0bd4cdf-7308-45f0-8e99-a0d5811907ff","system_id":"levelo_inurba_marseille","lat":43.25438,"lon":5.38159,"is_reserved":false,"is_disabled":true,"rental_uris":{"android":"levelo://app?vid=b0bd4cdf-7308-45f0-8e99-a0d5811907ff","ios":"levelo://app?vid=b0bd4cdf-7308-45f0-8e99-a0d5811907ff"},"vehicle_type_id":"4","last_reported":1733047753,"current_range_meters":0,"station_id":"","pricing_plan_id":"cebpf4jnsgd1na2vs0mg"},{"bike_id":"de1c482b-f44e-4cf8-a9d1-e367d542d92f","system_id":"levelo_inurba_marseille","lat":43.31174,"lon":5.38715,"is_reserved":false,"is_disabled":false,"rental_uris":{"android":"levelo://app?vid=de1c482b-f44e-4cf8-a9d1-e367d542d92f","ios":"levelo://app?vid=de1c482b-f44e-4cf8-a9d1-e367d542d92f"},"vehicle_type_id":"4","last_reported":1733047753,"current_range_meters":28800,"station_id":"ce4bgv12rcd13ifvqcp0","pricing_plan_id":"cebpf4jnsgd1na2vs0mg"},{"bike_id":"666302fc-6302-41f8-b710-165386bd17a3","system_id":"levelo_inurba_marseille","lat":43.33728,"lon":5.39185,"is_reserved":false,"is_disabled":true,"rental_uris":{"android":"levelo://app?vid=666302fc-6302-41f8-b710-165386bd17a3","ios":"levelo://app?vid=666302fc-6302-41f8-b710-165386bd17a3"},"vehicle_type_id":"4","last_reported":1733047753,"current_range_meters":5600,"station_id":"ce4bhr92rcd13ifvqhsg","pricing_plan_id":"cebpf4jnsgd1na2vs0mg"},{"bike_id":"cdf36f27-1cb5-40ec-83a9-0b63a3da7bab","system_id":"levelo_inurba_marseille","lat":43.2707,"lon":5.42277,"is_reserved":false,"is_disabled":false,"rental_uris":{"android":"levelo://app?vid=cdf36f27-1cb5-40ec-83a9-0b63a3da7bab","ios":"levelo://app?vid=cdf36f27-1cb5-40ec-83a9-0b63a3da7bab"},"vehicle_type_id":"4","last_reported":1733047753,"current_range_meters":26800,"station_id":"ce4bhk92rcd13ifvqgb0","pricing_plan_id":"cebpf4jnsgd1na2vs0mg"},{"bike_id":"f0ca66be-c5fa-4f1d-8e2b-9450ca0243d7","system_id":"levelo_inurba_marseille","lat":43.30157,"lon":5.38084,"is_reserved":false,"is_disabled":true,"rental_uris":{"android":"levelo://app?vid=f0ca66be-c5fa-4f1d-8e2b-9450ca0243d7","ios":"levelo://app?vid=f0ca66be-c5fa-4f1d-8e2b-9450ca0243d7"},"vehicle_type_id":"4","last_reported":1733047753,"current_range_meters":33600,"station_id":"ce4bgjp2rcd13ifvqbh0","pricing_plan_id":"cebpf4jnsgd1na2vs0mg"},{"bike_id":"21e63416-2bf9-4519-965f-264ac2187b74","system_id":"levelo_inurba_marseille","lat":43.28656,"lon":5.36352,"is_reserved":false,"is_disabled":false,"rental_uris":{"android":"levelo://app?vid=21e63416-2bf9-4519-965f-264ac2187b74","ios":"levelo://app?vid=21e63416-2bf9-4519-965f-264ac2187b74"},"vehicle_type_id":"4","last_reported":1733047753,"current_range_meters":10000,"station_id":"ce4bhah2rcd13ifvqej0","pricing_plan_id":"cebpf4jnsgd1na2vs0mg"},{"bike_id":"6f7949e1-de87-4a49-8620-fec27e04447f","system_id":"levelo_inurba_marseille","lat":43.33707,"lon":5.39193,"is_reserved":false,"is_disabled":false,"rental_uris":{"android":"levelo://app?vid=6f7949e1-de87-4a49-8620-fec27e04447f","ios":"levelo://app?vid=6f7949e1-de87-4a49-8620-fec27e04447f"},"vehicle_type_id":"4","last_reported":1733047753,"current_range_meters":24400,"station_id":"ce4bhr92rcd13ifvqhsg","pricing_plan_id":"cebpf4jnsgd1na2vs0mg"},{"bike_id":"7066298c-8444-4dbb-8e5a-afa45f0890f5","system_id":"levelo_inurba_marseille","lat":43.28861,"lon":5.39316,"is_reserved":false,"is_disabled":true,"rental_uris":{"android":"levelo://app?vid=7066298c-8444-4dbb-8e5a-afa45f0890f5","ios":"levelo://app?vid=7066298c-8444-4dbb-8e5a-afa45f0890f5"},"vehicle_type_id":"4","last_reported":1733047753,"current_range_meters":8800,"station_id":"ce4bh2p2rcd13ifvqdi0","pricing_plan_id":"cebpf4jnsgd1na2vs0mg"},{"bike_id":"79da6e11-068f-4f85-891a-bf5d6033ae1b","system_id":"levelo_inurba_marseille","lat":43.29194,"lon":5.393171,"is_reserved":false,"is_disabled":true,"rental_uris":{"android":"levelo://app?vid=79da6e11-068f-4f85-891a-bf5d6033ae1b","ios":"levelo://app?vid=79da6e11-068f-4f85-891a-bf5d6033ae1b"},"vehicle_type_id":"4","last_reported":1733047753,"current_range_meters":19200,"station_id":"ce4bh192rcd13ifvqdd0","pricing_plan_id":"cebpf4jnsgd1na2vs0mg"},{"bike_id":"5a5a955a-9e88-4d2b-a8bf-3790d418dca4","system_id":"levelo_inurba_marseille","lat":43.30958,"lon":5.46197,"is_reserved":false,"is_disabled":false,"rental_uris":{"android":"levelo://app?vid=5a5a955a-9e88-4d2b-a8bf-3790d418dca4","ios":"levelo://app?vid=5a5a955a-9e88-4d2b-a8bf-3790d418dca4"},"vehicle_type_id":"4","last_reported":1733047753,"current_range_meters":23200,"station_id":"","pricing_plan_id":"cebpf4jnsgd1na2vs0mg"},{"bike_id":"ce1ee1c6-fc1c-4c7b-b125-aa7f2bd03708","system_id":"levelo_inurba_marseille","lat":43.29939,"lon":5.36547,"is_reserved":false,"is_disabled":false,"rental_uris":{"android":"levelo://app?vid=ce1ee1c6-fc1c-4c7b-b125-aa7f2bd03708","ios":"levelo://app?vid=ce1ee1c6-fc1c-4c7b-b125-aa7f2bd03708"},"vehicle_type_id":"4","last_reported":1733047753,"current_range_meters":38800,"station_id":"ce4bgm92rcd13ifvqbr0","pricing_plan_id":"cebpf4jnsgd1na2vs0mg"},{"bike_id":"60b56983-4dd0-4c43-a512-0e9952841805","system_id":"levelo_inurba_marseille","lat":43.32365,"lon":5.38919,"is_reserved":false,"is_disabled":false,"rental_uris":{"android":"levelo://app?vid=60b56983-4dd0-4c43-a512-0e9952841805","ios":"levelo://app?vid=60b56983-4dd0-4c43-a512-0e9952841805"},"vehicle_type_id":"4","last_reported":1733047753,"current_range_meters":13600,"station_id":"ce4bhqp2rcd13ifvqhog","pricing_plan_id":"cebpf4jnsgd1na2vs0mg"},{"bike_id":"7d098495-e5b5-491b-a9e9-957e8d1e6f31","system_id":"levelo_inurba_marseille","lat":43.29189,"lon":5.35804,"is_reserved":false,"is_disabled":false,"rental_uris":{"android":"levelo://app?vid=7d098495-e5b5-491b-a9e9-957e8d1e6f31","ios":"levelo://app?vid=7d098495-e5b5-491b-a9e9-957e8d1e6f31"},"vehicle_type_id":"4","last_reported":1733047753,"current_range_meters":20000,"station_id":"ce4bhb12rcd13ifvqel0","pricing_plan_id":"cebpf4jnsgd1na2vs0mg"},{"bike_id":"0f8c64ee-34d6-451a-aa19-b088c7164738","system_id":"levelo_inurba_marseille","lat":43.26775,"lon":5.39415,"is_reserved":false,"is_disabled":false,"rental_uris":{"android":"levelo://app?vid=0f8c64ee-34d6-451a-aa19-b088c7164738","ios":"levelo://app?vid=0f8c64ee-34d6-451a-aa19-b088c7164738"},"vehicle_type_id":"4","last_reported":1733047753,"current_range_meters":27600,"station_id":"ce4bhh12rcd13ifvqfg0","pricing_plan_id":"cebpf4jnsgd1na2vs0mg"},{"bike_id":"114e0915-573b-4faa-a468-a394c2bf69cb","system_id":"levelo_inurba_marseille","lat":43.3265,"lon":5.40989,"is_reserved":false,"is_disabled":false,"rental_uris":{"android":"levelo://app?vid=114e0915-573b-4faa-a468-a394c2bf69cb","ios":"levelo://app?vid=114e0915-573b-4faa-a468-a394c2bf69cb"},"vehicle_type_id":"4","last_reported":1733047753,"current_range_meters":16400,"station_id":"ce4bhpp2rcd13ifvqhgg","pricing_plan_id":"cebpf4jnsgd1na2vs0mg"},{"bike_id":"0149fa58-2865-43ea-b698-52776d51dd69","system_id":"levelo_inurba_marseille","lat":43.30239,"lon":5.40051,"is_reserved":false,"is_disabled":true,"rental_uris":{"android":"levelo://app?vid=0149fa58-2865-43ea-b698-52776d51dd69","ios":"levelo://app?vid=0149fa58-2865-43ea-b698-52776d51dd69"},"vehicle_type_id":"4","last_reported":1733047753,"current_range_meters":800,"station_id":"ce4bgvh2rcd13ifvqcs0","pricing_plan_id":"cebpf4jnsgd1na2vs0mg"},{"bike_id":"c821b2d9-7c67-435b-88a1-f36b5d7f620d","system_id":"levelo_inurba_marseille","lat":43.31081,"lon":5.42434,"is_reserved":false,"is_disabled":false,"rental_uris":{"android":"levelo://app?vid=c821b2d9-7c67-435b-88a1-f36b5d7f620d","ios":"levelo://app?vid=c821b2d9-7c67-435b-88a1-f36b5d7f620d"},"vehicle_type_id":"4","last_reported":1733047753,"current_range_meters":8000,"station_id":"ce4bhp92rcd13ifvqhag","pricing_plan_id":"cebpf4jnsgd1na2vs0mg"},{"bike_id":"a0f85c10-8e22-402d-b0a6-d224b35a3b53","system_id":"levelo_inurba_marseille","lat":43.25808,"lon":5.39418,"is_reserved":false,"is_disabled":false,"rental_uris":{"android":"levelo://app?vid=a0f85c10-8e22-402d-b0a6-d224b35a3b53","ios":"levelo://app?vid=a0f85c10-8e22-402d-b0a6-d224b35a3b53"},"vehicle_type_id":"4","last_reported":1733047753,"current_range_meters":39200,"station_id":"ce4bhip2rcd13ifvqft0","pricing_plan_id":"cebpf4jnsgd1na2vs0mg"},{"bike_id":"7e34e2cc-7262-4633-b6ee-8a75aae8a374","system_id":"levelo_inurba_marseille","lat":43.2899,"lon":5.35601,"is_reserved":false,"is_disabled":false,"rental_uris":{"android":"levelo://app?vid=7e34e2cc-7262-4633-b6ee-8a75aae8a374","ios":"levelo://app?vid=7e34e2cc-7262-4633-b6ee-8a75aae8a374"},"vehicle_type_id":"4","last_reported":1733047753,"current_range_meters":36800,"station_id":"ce4bhb92rcd13ifvqen0","pricing_plan_id":"cebpf4jnsgd1na2vs0mg"},{"bike_id":"7d8d506b-f7cd-454d-83a7-afde1b506237","system_id":"levelo_inurba_marseille","lat":43.30462,"lon":5.37898,"is_reserved":false,"is_disabled":false,"rental_uris":{"android":"levelo://app?vid=7d8d506b-f7cd-454d-83a7-afde1b506237","ios":"levelo://app?vid=7d8d506b-f7cd-454d-83a7-afde1b506237"},"vehicle_type_id":"4","last_reported":1733047753,"current_range_meters":39200,"station_id":"ce4bgup2rcd13ifvqcn0","pricing_plan_id":"cebpf4jnsgd1na2vs0mg"},{"bike_id":"7ed2229e-6e77-42d8-826e-e15ec9f33077","system_id":"levelo_inurba_marseille","lat":43.26688,"lon":5.38275,"is_reserved":false,"is_disabled":true,"rental_uris":{"android":"levelo://app?vid=7ed2229e-6e77-42d8-826e-e15ec9f33077","ios":"levelo://app?vid=7ed2229e-6e77-42d8-826e-e15ec9f33077"},"vehicle_type_id":"4","last_reported":1733047753,"current_range_meters":17200,"station_id":"ce4bhg92rcd13ifvqf90","pricing_plan_id":"cebpf4jnsgd1na2vs0mg"},{"bike_id":"8fdf0680-166b-4766-a655-d02e84d131fa","system_id":"levelo_inurba_marseille","lat":43.309493,"lon":5.390278,"is_reserved":false,"is_disabled":true,"rental_uris":{"android":"levelo://app?vid=8fdf0680-166b-4766-a655-d02e84d131fa","ios":"levelo://app?vid=8fdf0680-166b-4766-a655-d02e84d131fa"},"vehicle_type_id":"4","last_reported":1733047753,"current_range_meters":38800,"station_id":"ce4bgup2rcd13ifvqco0","pricing_plan_id":"cebpf4jnsgd1na2vs0mg"},{"bike_id":"c2aaed70-11e4-4a23-aa57-d972bdbe69eb","system_id":"levelo_inurba_marseille","lat":43.251121,"lon":5.40336,"is_reserved":false,"is_disabled":false,"rental_uris":{"android":"levelo://app?vid=c2aaed70-11e4-4a23-aa57-d972bdbe69eb","ios":"levelo://app?vid=c2aaed70-11e4-4a23-aa57-d972bdbe69eb"},"vehicle_type_id":"4","last_reported":1733047753,"current_range_meters":15200,"station_id":"ce4bhlh2rcd13ifvqgig","pricing_plan_id":"cebpf4jnsgd1na2vs0mg"},{"bike_id":"64cbfd6a-4a4e-4d37-982c-18402a201eee","system_id":"levelo_inurba_marseille","lat":43.28652,"lon":5.36353,"is_reserved":false,"is_disabled":true,"rental_uris":{"android":"levelo://app?vid=64cbfd6a-4a4e-4d37-982c-18402a201eee","ios":"levelo://app?vid=64cbfd6a-4a4e-4d37-982c-18402a201eee"},"vehicle_type_id":"4","last_reported":1733047753,"current_range_meters":17200,"station_id":"ce4bhah2rcd13ifvqej0","pricing_plan_id":"cebpf4jnsgd1na2vs0mg"},{"bike_id":"c0054edb-5a8c-4cde-93a6-194d063ea63c","system_id":"levelo_inurba_marseille","lat":43.26197,"lon":5.37926,"is_reserved":false,"is_disabled":false,"rental_uris":{"android":"levelo://app?vid=c0054edb-5a8c-4cde-93a6-194d063ea63c","ios":"levelo://app?vid=c0054edb-5a8c-4cde-93a6-194d063ea63c"},"vehicle_type_id":"4","last_reported":1733047753,"current_range_meters":38800,"station_id":"ce4bhjp2rcd13ifvqg90","pricing_plan_id":"cebpf4jnsgd1na2vs0mg"},{"bike_id":"1502cead-a5b2-4186-bd48-c895a49a3989","system_id":"levelo_inurba_marseille","lat":43.30945,"lon":5.39047,"is_reserved":false,"is_disabled":false,"rental_uris":{"android":"levelo://app?vid=1502cead-a5b2-4186-bd48-c895a49a3989","ios":"levelo://app?vid=1502cead-a5b2-4186-bd48-c895a49a3989"},"vehicle_type_id":"4","last_reported":1733047753,"current_range_meters":39200,"station_id":"ce4bgup2rcd13ifvqco0","pricing_plan_id":"cebpf4jnsgd1na2vs0mg"},{"bike_id":"23842e29-7ef4-4c74-a24a-f49a16dd91c4","system_id":"levelo_inurba_marseille","lat":43.29907,"lon":5.37473,"is_reserved":false,"is_disabled":false,"rental_uris":{"android":"levelo://app?vid=23842e29-7ef4-4c74-a24a-f49a16dd91c4","ios":"levelo://app?vid=23842e29-7ef4-4c74-a24a-f49a16dd91c4"},"vehicle_type_id":"4","last_reported":1733047753,"current_range_meters":24400,"station_id":"ce4bgjh2rcd13ifvqbg0","pricing_plan_id":"cebpf4jnsgd1na2vs0mg"},{"bike_id":"3ab4c64b-a573-471d-9dc1-aa13385ed60a","system_id":"levelo_inurba_marseille","lat":43.32661,"lon":5.40972,"is_reserved":false,"is_disabled":false,"rental_uris":{"android":"levelo://app?vid=3ab4c64b-a573-471d-9dc1-aa13385ed60a","ios":"levelo://app?vid=3ab4c64b-a573-471d-9dc1-aa13385ed60a"},"vehicle_type_id":"4","last_reported":1733047753,"current_range_meters":38800,"station_id":"ce4bhpp2rcd13ifvqhgg","pricing_plan_id":"cebpf4jnsgd1na2vs0mg"},{"bike_id":"1aa61925-f4ba-4fd5-b1de-08db522586c3","system_id":"levelo_inurba_marseille","lat":43.27058,"lon":5.40256,"is_reserved":false,"is_disabled":false,"rental_uris":{"android":"levelo://app?vid=1aa61925-f4ba-4fd5-b1de-08db522586c3","ios":"levelo://app?vid=1aa61925-f4ba-4fd5-b1de-08db522586c3"},"vehicle_type_id":"4","last_reported":1733047753,"current_range_meters":38400,"station_id":"ce4bhk92rcd13ifvqgc0","pricing_plan_id":"cebpf4jnsgd1na2vs0mg"},{"bike_id":"694ada16-62be-4cd2-822e-a4599887121c","system_id":"levelo_inurba_marseille","lat":43.23191,"lon":5.35554,"is_reserved":false,"is_disabled":false,"rental_uris":{"android":"levelo://app?vid=694ada16-62be-4cd2-822e-a4599887121c","ios":"levelo://app?vid=694ada16-62be-4cd2-822e-a4599887121c"},"vehicle_type_id":"4","last_reported":1733047753,"current_range_meters":32000,"station_id":"ce4bhu92rcd13ifvqi70","pricing_plan_id":"cebpf4jnsgd1na2vs0mg"},{"bike_id":"00ca1a40-c8bb-4849-b9e3-9eaf800364d7","system_id":"levelo_inurba_marseille","lat":43.3015,"lon":5.38079,"is_reserved":false,"is_disabled":false,"rental_uris":{"android":"levelo://app?vid=00ca1a40-c8bb-4849-b9e3-9eaf800364d7","ios":"levelo://app?vid=00ca1a40-c8bb-4849-b9e3-9eaf800364d7"},"vehicle_type_id":"4","last_reported":1733047753,"current_range_meters":6000,"station_id":"ce4bgjp2rcd13ifvqbh0","pricing_plan_id":"cebpf4jnsgd1na2vs0mg"},{"bike_id":"67fa2a9e-eed8-4ed6-bdd8-7d1023a52b4e","system_id":"levelo_inurba_marseille","lat":43.2694,"lon":5.3892,"is_reserved":false,"is_disabled":true,"rental_uris":{"android":"levelo://app?vid=67fa2a9e-eed8-4ed6-bdd8-7d1023a52b4e","ios":"levelo://app?vid=67fa2a9e-eed8-4ed6-bdd8-7d1023a52b4e"},"vehicle_type_id":"4","last_reported":1733047753,"current_range_meters":6400,"station_id":"ce4bhhh2rcd13ifvqfl0","pricing_plan_id":"cebpf4jnsgd1na2vs0mg"},{"bike_id":"c8537d05-a067-41ab-8139-dc89a2af92b1","system_id":"levelo_inurba_marseille","lat":43.31888,"lon":5.40732,"is_reserved":false,"is_disabled":false,"rental_uris":{"android":"levelo://app?vid=c8537d05-a067-41ab-8139-dc89a2af92b1","ios":"levelo://app?vid=c8537d05-a067-41ab-8139-dc89a2af92b1"},"vehicle_type_id":"4","last_reported":1733047753,"current_range_meters":17200,"station_id":"ce4bhq12rcd13ifvqhig","pricing_plan_id":"cebpf4jnsgd1na2vs0mg"},{"bike_id":"d7152440-00fe-4015-a4ef-ed6a3f005a38","system_id":"levelo_inurba_marseille","lat":43.23188,"lon":5.39987,"is_reserved":false,"is_disabled":false,"rental_uris":{"android":"levelo://app?vid=d7152440-00fe-4015-a4ef-ed6a3f005a38","ios":"levelo://app?vid=d7152440-00fe-4015-a4ef-ed6a3f005a38"},"vehicle_type_id":"4","last_reported":1733047753,"current_range_meters":39200,"station_id":"ce4bhn12rcd13ifvqgqg","pricing_plan_id":"cebpf4jnsgd1na2vs0mg"},{"bike_id":"e4d881a7-dc76-49b9-80f1-d342c355622d","system_id":"levelo_inurba_marseille","lat":43.26789,"lon":5.39409,"is_reserved":false,"is_disabled":false,"rental_uris":{"android":"levelo://app?vid=e4d881a7-dc76-49b9-80f1-d342c355622d","ios":"levelo://app?vid=e4d881a7-dc76-49b9-80f1-d342c355622d"},"vehicle_type_id":"4","last_reported":1733047753,"current_range_meters":34800,"station_id":"ce4bhh12rcd13ifvqfg0","pricing_plan_id":"cebpf4jnsgd1na2vs0mg"},{"bike_id":"f8c9b462-874a-46cf-9e07-e89e0f8792ee","system_id":"levelo_inurba_marseille","lat":43.30472,"lon":5.37894,"is_reserved":false,"is_disabled":false,"rental_uris":{"android":"levelo://app?vid=f8c9b462-874a-46cf-9e07-e89e0f8792ee","ios":"levelo://app?vid=f8c9b462-874a-46cf-9e07-e89e0f8792ee"},"vehicle_type_id":"4","last_reported":1733047753,"current_range_meters":29600,"station_id":"ce4bgup2rcd13ifvqcn0","pricing_plan_id":"cebpf4jnsgd1na2vs0mg"},{"bike_id":"f6177dff-f121-4ac2-9441-dc7483ec2c8a","system_id":"levelo_inurba_marseille","lat":43.28847,"lon":5.35867,"is_reserved":false,"is_disabled":false,"rental_uris":{"android":"levelo://app?vid=f6177dff-f121-4ac2-9441-dc7483ec2c8a","ios":"levelo://app?vid=f6177dff-f121-4ac2-9441-dc7483ec2c8a"},"vehicle_type_id":"4","last_reported":1733047753,"current_range_meters":6800,"station_id":"ce4bhb12rcd13ifvqem0","pricing_plan_id":"cebpf4jnsgd1na2vs0mg"},{"bike_id":"db859837-cb21-41ca-b64b-3ebed09d2649","system_id":"levelo_inurba_marseille","lat":43.26685,"lon":5.38275,"is_reserved":false,"is_disabled":false,"rental_uris":{"android":"levelo://app?vid=db859837-cb21-41ca-b64b-3ebed09d2649","ios":"levelo://app?vid=db859837-cb21-41ca-b64b-3ebed09d2649"},"vehicle_type_id":"4","last_reported":1733047753,"current_range_meters":38000,"station_id":"ce4bhg92rcd13ifvqf90","pricing_plan_id":"cebpf4jnsgd1na2vs0mg"},{"bike_id":"cce025e4-7c3c-43a5-8266-b8071aef3c28","system_id":"levelo_inurba_marseille","lat":43.23193,"lon":5.35557,"is_reserved":false,"is_disabled":false,"rental_uris":{"android":"levelo://app?vid=cce025e4-7c3c-43a5-8266-b8071aef3c28","ios":"levelo://app?vid=cce025e4-7c3c-43a5-8266-b8071aef3c28"},"vehicle_type_id":"4","last_reported":1733047753,"current_range_meters":38000,"station_id":"ce4bhu92rcd13ifvqi70","pricing_plan_id":"cebpf4jnsgd1na2vs0mg"},{"bike_id":"47963362-7219-44e7-8c38-dd7e17bc3716","system_id":"levelo_inurba_marseille","lat":43.32102,"lon":5.36783,"is_reserved":false,"is_disabled":false,"rental_uris":{"android":"levelo://app?vid=47963362-7219-44e7-8c38-dd7e17bc3716","ios":"levelo://app?vid=47963362-7219-44e7-8c38-dd7e17bc3716"},"vehicle_type_id":"4","last_reported":1733047753,"current_range_meters":35600,"station_id":"ce4bhrh2rcd13ifvqhug","pricing_plan_id":"cebpf4jnsgd1na2vs0mg"},{"bike_id":"f8968860-9ebe-425f-866f-a253a48101dd","system_id":"levelo_inurba_marseille","lat":43.28462,"lon":5.35872,"is_reserved":false,"is_disabled":false,"rental_uris":{"android":"levelo://app?vid=f8968860-9ebe-425f-866f-a253a48101dd","ios":"levelo://app?vid=f8968860-9ebe-425f-866f-a253a48101dd"},"vehicle_type_id":"4","last_reported":1733047753,"current_range_meters":33200,"station_id":"ce4bhah2rcd13ifvqei0","pricing_plan_id":"cebpf4jnsgd1na2vs0mg"},{"bike_id":"bc749360-3ce4-4dd6-a0ac-83aa82c323a7","system_id":"levelo_inurba_marseille","lat":43.28152,"lon":5.42632,"is_reserved":false,"is_disabled":true,"rental_uris":{"android":"levelo://app?vid=bc749360-3ce4-4dd6-a0ac-83aa82c323a7","ios":"levelo://app?vid=bc749360-3ce4-4dd6-a0ac-83aa82c323a7"},"vehicle_type_id":"4","last_reported":1733047753,"current_range_meters":30400,"station_id":"ce4bhnh2rcd13ifvqgug","pricing_plan_id":"cebpf4jnsgd1na2vs0mg"},{"bike_id":"0c121fdf-68e5-4b36-b3e7-e4c85e4a5bd4","system_id":"levelo_inurba_marseille","lat":43.2481,"lon":5.37455,"is_reserved":false,"is_disabled":false,"rental_uris":{"android":"levelo://app?vid=0c121fdf-68e5-4b36-b3e7-e4c85e4a5bd4","ios":"levelo://app?vid=0c121fdf-68e5-4b36-b3e7-e4c85e4a5bd4"},"vehicle_type_id":"4","last_reported":1733047753,"current_range_meters":38400,"station_id":"ce4bhgh2rcd13ifvqfb0","pricing_plan_id":"cebpf4jnsgd1na2vs0mg"},{"bike_id":"4d4c884f-6933-49c0-8899-f9856d90f44d","system_id":"levelo_inurba_marseille","lat":43.29748,"lon":5.37971,"is_reserved":false,"is_disabled":true,"rental_uris":{"android":"levelo://app?vid=4d4c884f-6933-49c0-8899-f9856d90f44d","ios":"levelo://app?vid=4d4c884f-6933-49c0-8899-f9856d90f44d"},"vehicle_type_id":"4","last_reported":1733047753,"current_range_meters":0,"station_id":"","pricing_plan_id":"cebpf4jnsgd1na2vs0mg"},{"bike_id":"49383f8c-5e0c-4bb5-aa2b-e1c81f4536f3","system_id":"levelo_inurba_marseille","lat":43.32294,"lon":5.38261,"is_reserved":false,"is_disabled":false,"rental_uris":{"android":"levelo://app?vid=49383f8c-5e0c-4bb5-aa2b-e1c81f4536f3","ios":"levelo://app?vid=49383f8c-5e0c-4bb5-aa2b-e1c81f4536f3"},"vehicle_type_id":"4","last_reported":1733047753,"current_range_meters":26000,"station_id":"ce4bhr12rcd13ifvqhqg","pricing_plan_id":"cebpf4jnsgd1na2vs0mg"},{"bike_id":"362acf97-9e8f-4c3e-8574-4958ae2ff74f","system_id":"levelo_inurba_marseille","lat":43.26182,"lon":5.42075,"is_reserved":false,"is_disabled":false,"rental_uris":{"android":"levelo://app?vid=362acf97-9e8f-4c3e-8574-4958ae2ff74f","ios":"levelo://app?vid=362acf97-9e8f-4c3e-8574-4958ae2ff74f"},"vehicle_type_id":"4","last_reported":1733047753,"current_range_meters":28000,"station_id":"","pricing_plan_id":"cebpf4jnsgd1na2vs0mg"},{"bike_id":"b3442046-6338-4dce-a840-cc4fb86d40ac","system_id":"levelo_inurba_marseille","lat":43.31887,"lon":5.40731,"is_reserved":false,"is_disabled":false,"rental_uris":{"android":"levelo://app?vid=b3442046-6338-4dce-a840-cc4fb86d40ac","ios":"levelo://app?vid=b3442046-6338-4dce-a840-cc4fb86d40ac"},"vehicle_type_id":"4","last_reported":1733047753,"current_range_meters":20400,"station_id":"ce4bhq12rcd13ifvqhig","pricing_plan_id":"cebpf4jnsgd1na2vs0mg"},{"bike_id":"c6fd581e-fb92-4619-ac86-89d0d8c3fccf","system_id":"levelo_inurba_marseille","lat":43.286594,"lon":5.363522,"is_reserved":false,"is_disabled":false,"rental_uris":{"android":"levelo://app?vid=c6fd581e-fb92-4619-ac86-89d0d8c3fccf","ios":"levelo://app?vid=c6fd581e-fb92-4619-ac86-89d0d8c3fccf"},"vehicle_type_id":"4","last_reported":1733047753,"current_range_meters":16400,"station_id":"ce4bhah2rcd13ifvqej0","pricing_plan_id":"cebpf4jnsgd1na2vs0mg"},{"bike_id":"9009be37-c6b1-406b-b0a8-fbab355f715e","system_id":"levelo_inurba_marseille","lat":43.33763,"lon":5.37495,"is_reserved":false,"is_disabled":false,"rental_uris":{"android":"levelo://app?vid=9009be37-c6b1-406b-b0a8-fbab355f715e","ios":"levelo://app?vid=9009be37-c6b1-406b-b0a8-fbab355f715e"},"vehicle_type_id":"4","last_reported":1733047753,"current_range_meters":32400,"station_id":"","pricing_plan_id":"cebpf4jnsgd1na2vs0mg"},{"bike_id":"e6de8d66-256e-4bd7-a6eb-ece49b048c9e","system_id":"levelo_inurba_marseille","lat":43.31221,"lon":5.36865,"is_reserved":false,"is_disabled":false,"rental_uris":{"android":"levelo://app?vid=e6de8d66-256e-4bd7-a6eb-ece49b048c9e","ios":"levelo://app?vid=e6de8d66-256e-4bd7-a6eb-ece49b048c9e"},"vehicle_type_id":"4","last_reported":1733047753,"current_range_meters":38400,"station_id":"ce4bgl92rcd13ifvqbq0","pricing_plan_id":"cebpf4jnsgd1na2vs0mg"},{"bike_id":"b7b33697-14a7-4110-9b8b-4194e6ef5f3f","system_id":"levelo_inurba_marseille","lat":43.27278,"lon":5.39204,"is_reserved":false,"is_disabled":true,"rental_uris":{"android":"levelo://app?vid=b7b33697-14a7-4110-9b8b-4194e6ef5f3f","ios":"levelo://app?vid=b7b33697-14a7-4110-9b8b-4194e6ef5f3f"},"vehicle_type_id":"4","last_reported":1733047753,"current_range_meters":0,"station_id":"","pricing_plan_id":"cebpf4jnsgd1na2vs0mg"},{"bike_id":"ec4b5ef2-14fb-46ae-80be-f4ab148060f9","system_id":"levelo_inurba_marseille","lat":43.28354,"lon":5.38098,"is_reserved":false,"is_disabled":false,"rental_uris":{"android":"levelo://app?vid=ec4b5ef2-14fb-46ae-80be-f4ab148060f9","ios":"levelo://app?vid=ec4b5ef2-14fb-46ae-80be-f4ab148060f9"},"vehicle_type_id":"4","last_reported":1733047753,"current_range_meters":8800,"station_id":"ce4bh412rcd13ifvqdr0","pricing_plan_id":"cebpf4jnsgd1na2vs0mg"},{"bike_id":"ac49fba4-30df-4893-b052-7d9d76fd86a2","system_id":"levelo_inurba_marseille","lat":43.2925,"lon":5.38435,"is_reserved":false,"is_disabled":true,"rental_uris":{"android":"levelo://app?vid=ac49fba4-30df-4893-b052-7d9d76fd86a2","ios":"levelo://app?vid=ac49fba4-30df-4893-b052-7d9d76fd86a2"},"vehicle_type_id":"4","last_reported":1733047753,"current_range_meters":12400,"station_id":"ce4bh692rcd13ifvqea0","pricing_plan_id":"cebpf4jnsgd1na2vs0mg"},{"bike_id":"a3d540a5-c9e8-4c92-9399-ec0baac57a71","system_id":"levelo_inurba_marseille","lat":43.2953,"lon":5.38533,"is_reserved":false,"is_disabled":true,"rental_uris":{"android":"levelo://app?vid=a3d540a5-c9e8-4c92-9399-ec0baac57a71","ios":"levelo://app?vid=a3d540a5-c9e8-4c92-9399-ec0baac57a71"},"vehicle_type_id":"4","last_reported":1733047753,"current_range_meters":34800,"station_id":"ce4bgih2rcd13ifvqba0","pricing_plan_id":"cebpf4jnsgd1na2vs0mg"},{"bike_id":"f8c96851-0afb-4e76-963e-6a283010bcce","system_id":"levelo_inurba_marseille","lat":43.25724,"lon":5.41104,"is_reserved":false,"is_disabled":false,"rental_uris":{"android":"levelo://app?vid=f8c96851-0afb-4e76-963e-6a283010bcce","ios":"levelo://app?vid=f8c96851-0afb-4e76-963e-6a283010bcce"},"vehicle_type_id":"4","last_reported":1733047753,"current_range_meters":10800,"station_id":"ce4bhkp2rcd13ifvqgd0","pricing_plan_id":"cebpf4jnsgd1na2vs0mg"},{"bike_id":"2960a01c-da77-43e4-8f2b-b8c66fc26ea3","system_id":"levelo_inurba_marseille","lat":43.29847,"lon":5.36288,"is_reserved":false,"is_disabled":false,"rental_uris":{"android":"levelo://app?vid=2960a01c-da77-43e4-8f2b-b8c66fc26ea3","ios":"levelo://app?vid=2960a01c-da77-43e4-8f2b-b8c66fc26ea3"},"vehicle_type_id":"4","last_reported":1733047753,"current_range_meters":38000,"station_id":"ce4bgpp2rcd13ifvqc3g","pricing_plan_id":"cebpf4jnsgd1na2vs0mg"},{"bike_id":"3abdb507-aca9-41cf-ab5c-c13fb795c3a0","system_id":"levelo_inurba_marseille","lat":43.2842,"lon":5.34989,"is_reserved":false,"is_disabled":true,"rental_uris":{"android":"levelo://app?vid=3abdb507-aca9-41cf-ab5c-c13fb795c3a0","ios":"levelo://app?vid=3abdb507-aca9-41cf-ab5c-c13fb795c3a0"},"vehicle_type_id":"4","last_reported":1733047753,"current_range_meters":0,"station_id":"ce4bhbh2rcd13ifvqepg","pricing_plan_id":"cebpf4jnsgd1na2vs0mg"},{"bike_id":"9e4a8ddf-edda-4e09-8182-0d36f93e35f0","system_id":"levelo_inurba_marseille","lat":43.30145,"lon":5.37413,"is_reserved":false,"is_disabled":false,"rental_uris":{"android":"levelo://app?vid=9e4a8ddf-edda-4e09-8182-0d36f93e35f0","ios":"levelo://app?vid=9e4a8ddf-edda-4e09-8182-0d36f93e35f0"},"vehicle_type_id":"4","last_reported":1733047753,"current_range_meters":33600,"station_id":"ce4bgs92rcd13ifvqcc0","pricing_plan_id":"cebpf4jnsgd1na2vs0mg"},{"bike_id":"7fda7038-d61c-405a-a660-6de6859d9497","system_id":"levelo_inurba_marseille","lat":43.32659,"lon":5.40987,"is_reserved":false,"is_disabled":false,"rental_uris":{"android":"levelo://app?vid=7fda7038-d61c-405a-a660-6de6859d9497","ios":"levelo://app?vid=7fda7038-d61c-405a-a660-6de6859d9497"},"vehicle_type_id":"4","last_reported":1733047753,"current_range_meters":39200,"station_id":"ce4bhpp2rcd13ifvqhgg","pricing_plan_id":"cebpf4jnsgd1na2vs0mg"},{"bike_id":"97b35c0e-7e77-4f0a-83fa-58fbc99a2959","system_id":"levelo_inurba_marseille","lat":43.337444,"lon":5.374475,"is_reserved":false,"is_disabled":false,"rental_uris":{"android":"levelo://app?vid=97b35c0e-7e77-4f0a-83fa-58fbc99a2959","ios":"levelo://app?vid=97b35c0e-7e77-4f0a-83fa-58fbc99a2959"},"vehicle_type_id":"4","last_reported":1733047753,"current_range_meters":31200,"station_id":"","pricing_plan_id":"cebpf4jnsgd1na2vs0mg"},{"bike_id":"90e6624d-f15b-40a9-aa21-66d0047fb8c0","system_id":"levelo_inurba_marseille","lat":43.29933,"lon":5.36527,"is_reserved":false,"is_disabled":false,"rental_uris":{"android":"levelo://app?vid=90e6624d-f15b-40a9-aa21-66d0047fb8c0","ios":"levelo://app?vid=90e6624d-f15b-40a9-aa21-66d0047fb8c0"},"vehicle_type_id":"4","last_reported":1733047753,"current_range_meters":6400,"station_id":"ce4bgm92rcd13ifvqbr0","pricing_plan_id":"cebpf4jnsgd1na2vs0mg"},{"bike_id":"76490f10-0bdc-4c56-9a17-8d7fa1908fdd","system_id":"levelo_inurba_marseille","lat":43.25823,"lon":5.39429,"is_reserved":false,"is_disabled":false,"rental_uris":{"android":"levelo://app?vid=76490f10-0bdc-4c56-9a17-8d7fa1908fdd","ios":"levelo://app?vid=76490f10-0bdc-4c56-9a17-8d7fa1908fdd"},"vehicle_type_id":"4","last_reported":1733047753,"current_range_meters":34800,"station_id":"ce4bhip2rcd13ifvqft0","pricing_plan_id":"cebpf4jnsgd1na2vs0mg"},{"bike_id":"314d1365-c0f9-4b36-8299-e279909a774d","system_id":"levelo_inurba_marseille","lat":43.31214,"lon":5.36859,"is_reserved":false,"is_disabled":true,"rental_uris":{"android":"levelo://app?vid=314d1365-c0f9-4b36-8299-e279909a774d","ios":"levelo://app?vid=314d1365-c0f9-4b36-8299-e279909a774d"},"vehicle_type_id":"4","last_reported":1733047753,"current_range_meters":0,"station_id":"ce4bgl92rcd13ifvqbq0","pricing_plan_id":"cebpf4jnsgd1na2vs0mg"},{"bike_id":"e5a85dd5-13a7-4d9e-a70f-6158151d88c4","system_id":"levelo_inurba_marseille","lat":43.30543,"lon":5.36534,"is_reserved":false,"is_disabled":false,"rental_uris":{"android":"levelo://app?vid=e5a85dd5-13a7-4d9e-a70f-6158151d88c4","ios":"levelo://app?vid=e5a85dd5-13a7-4d9e-a70f-6158151d88c4"},"vehicle_type_id":"4","last_reported":1733047753,"current_range_meters":18000,"station_id":"ce4bgs12rcd13ifvqcag","pricing_plan_id":"cebpf4jnsgd1na2vs0mg"},{"bike_id":"256ed7b4-aff1-4687-9338-98ca1590cf7b","system_id":"levelo_inurba_marseille","lat":43.29627,"lon":5.37157,"is_reserved":false,"is_disabled":false,"rental_uris":{"android":"levelo://app?vid=256ed7b4-aff1-4687-9338-98ca1590cf7b","ios":"levelo://app?vid=256ed7b4-aff1-4687-9338-98ca1590cf7b"},"vehicle_type_id":"4","last_reported":1733047753,"current_range_meters":17200,"station_id":"ce4bgnh2rcd13ifvqc0g","pricing_plan_id":"cebpf4jnsgd1na2vs0mg"},{"bike_id":"fd3b7ed7-cae6-419a-a5f6-e5eda0442a53","system_id":"levelo_inurba_marseille","lat":43.25492,"lon":5.37648,"is_reserved":false,"is_disabled":false,"rental_uris":{"android":"levelo://app?vid=fd3b7ed7-cae6-419a-a5f6-e5eda0442a53","ios":"levelo://app?vid=fd3b7ed7-cae6-419a-a5f6-e5eda0442a53"},"vehicle_type_id":"4","last_reported":1733047753,"current_range_meters":38000,"station_id":"ce4bhh12rcd13ifvqff0","pricing_plan_id":"cebpf4jnsgd1na2vs0mg"},{"bike_id":"064861a6-5a15-4e22-bc40-26ea165590ab","system_id":"levelo_inurba_marseille","lat":43.29193,"lon":5.39318,"is_reserved":false,"is_disabled":true,"rental_uris":{"android":"levelo://app?vid=064861a6-5a15-4e22-bc40-26ea165590ab","ios":"levelo://app?vid=064861a6-5a15-4e22-bc40-26ea165590ab"},"vehicle_type_id":"4","last_reported":1733047753,"current_range_meters":24400,"station_id":"ce4bh192rcd13ifvqdd0","pricing_plan_id":"cebpf4jnsgd1na2vs0mg"},{"bike_id":"83187be1-7efa-435e-ae9b-74201cb4dec3","system_id":"levelo_inurba_marseille","lat":43.26685,"lon":5.38274,"is_reserved":false,"is_disabled":true,"rental_uris":{"android":"levelo://app?vid=83187be1-7efa-435e-ae9b-74201cb4dec3","ios":"levelo://app?vid=83187be1-7efa-435e-ae9b-74201cb4dec3"},"vehicle_type_id":"4","last_reported":1733047753,"current_range_meters":38400,"station_id":"ce4bhg92rcd13ifvqf90","pricing_plan_id":"cebpf4jnsgd1na2vs0mg"},{"bike_id":"09ed15d7-8c69-4be4-b485-46e6ba08aaf9","system_id":"levelo_inurba_marseille","lat":43.31883,"lon":5.40734,"is_reserved":false,"is_disabled":false,"rental_uris":{"android":"levelo://app?vid=09ed15d7-8c69-4be4-b485-46e6ba08aaf9","ios":"levelo://app?vid=09ed15d7-8c69-4be4-b485-46e6ba08aaf9"},"vehicle_type_id":"4","last_reported":1733047753,"current_range_meters":11600,"station_id":"ce4bhq12rcd13ifvqhig","pricing_plan_id":"cebpf4jnsgd1na2vs0mg"},{"bike_id":"e8fa7be1-2407-41a7-b843-e7c70f1917ef","system_id":"levelo_inurba_marseille","lat":43.27611,"lon":5.36109,"is_reserved":false,"is_disabled":true,"rental_uris":{"android":"levelo://app?vid=e8fa7be1-2407-41a7-b843-e7c70f1917ef","ios":"levelo://app?vid=e8fa7be1-2407-41a7-b843-e7c70f1917ef"},"vehicle_type_id":"4","last_reported":1733047753,"current_range_meters":0,"station_id":"ce4bgj92rcd13ifvqbe0","pricing_plan_id":"cebpf4jnsgd1na2vs0mg"},{"bike_id":"a4404dac-00c5-4861-a1ae-6d042a4030f1","system_id":"levelo_inurba_marseille","lat":43.33763,"lon":5.37413,"is_reserved":false,"is_disabled":false,"rental_uris":{"android":"levelo://app?vid=a4404dac-00c5-4861-a1ae-6d042a4030f1","ios":"levelo://app?vid=a4404dac-00c5-4861-a1ae-6d042a4030f1"},"vehicle_type_id":"4","last_reported":1733047753,"current_range_meters":3600,"station_id":"","pricing_plan_id":"cebpf4jnsgd1na2vs0mg"},{"bike_id":"f447017a-0658-4440-99b9-36b1ab0f2428","system_id":"levelo_inurba_marseille","lat":43.25818,"lon":5.39421,"is_reserved":false,"is_disabled":false,"rental_uris":{"android":"levelo://app?vid=f447017a-0658-4440-99b9-36b1ab0f2428","ios":"levelo://app?vid=f447017a-0658-4440-99b9-36b1ab0f2428"},"vehicle_type_id":"4","last_reported":1733047753,"current_range_meters":38000,"station_id":"ce4bhip2rcd13ifvqft0","pricing_plan_id":"cebpf4jnsgd1na2vs0mg"},{"bike_id":"a98950b6-7027-4bf8-b943-d211a2d8db6d","system_id":"levelo_inurba_marseille","lat":43.27057,"lon":5.40258,"is_reserved":false,"is_disabled":false,"rental_uris":{"android":"levelo://app?vid=a98950b6-7027-4bf8-b943-d211a2d8db6d","ios":"levelo://app?vid=a98950b6-7027-4bf8-b943-d211a2d8db6d"},"vehicle_type_id":"4","last_reported":1733047753,"current_range_meters":4000,"station_id":"ce4bhk92rcd13ifvqgc0","pricing_plan_id":"cebpf4jnsgd1na2vs0mg"},{"bike_id":"ae110baa-6fa5-463d-9c19-2aa3237d6213","system_id":"levelo_inurba_marseille","lat":43.23197,"lon":5.3555,"is_reserved":false,"is_disabled":false,"rental_uris":{"android":"levelo://app?vid=ae110baa-6fa5-463d-9c19-2aa3237d6213","ios":"levelo://app?vid=ae110baa-6fa5-463d-9c19-2aa3237d6213"},"vehicle_type_id":"4","last_reported":1733047753,"current_range_meters":20800,"station_id":"ce4bhu92rcd13ifvqi70","pricing_plan_id":"cebpf4jnsgd1na2vs0mg"},{"bike_id":"eb84d778-f8b0-4aba-be39-7acc8e4527fc","system_id":"levelo_inurba_marseille","lat":43.25112,"lon":5.40331,"is_reserved":false,"is_disabled":false,"rental_uris":{"android":"levelo://app?vid=eb84d778-f8b0-4aba-be39-7acc8e4527fc","ios":"levelo://app?vid=eb84d778-f8b0-4aba-be39-7acc8e4527fc"},"vehicle_type_id":"4","last_reported":1733047753,"current_range_meters":38000,"station_id":"ce4bhlh2rcd13ifvqgig","pricing_plan_id":"cebpf4jnsgd1na2vs0mg"},{"bike_id":"a380d86a-cfde-492f-9e21-44023492cfba","system_id":"levelo_inurba_marseille","lat":43.31713,"lon":5.43703,"is_reserved":false,"is_disabled":false,"rental_uris":{"android":"levelo://app?vid=a380d86a-cfde-492f-9e21-44023492cfba","ios":"levelo://app?vid=a380d86a-cfde-492f-9e21-44023492cfba"},"vehicle_type_id":"4","last_reported":1733047753,"current_range_meters":39200,"station_id":"ce4bhp92rcd13ifvqhcg","pricing_plan_id":"cebpf4jnsgd1na2vs0mg"},{"bike_id":"9700beae-0fbf-4e58-beda-d02b6fed27fe","system_id":"levelo_inurba_marseille","lat":43.29623,"lon":5.37152,"is_reserved":false,"is_disabled":false,"rental_uris":{"android":"levelo://app?vid=9700beae-0fbf-4e58-beda-d02b6fed27fe","ios":"levelo://app?vid=9700beae-0fbf-4e58-beda-d02b6fed27fe"},"vehicle_type_id":"4","last_reported":1733047753,"current_range_meters":34800,"station_id":"ce4bgnh2rcd13ifvqc0g","pricing_plan_id":"cebpf4jnsgd1na2vs0mg"},{"bike_id":"3d678357-a4fc-472f-ad86-438716ed68e2","system_id":"levelo_inurba_marseille","lat":43.29799,"lon":5.40404,"is_reserved":false,"is_disabled":false,"rental_uris":{"android":"levelo://app?vid=3d678357-a4fc-472f-ad86-438716ed68e2","ios":"levelo://app?vid=3d678357-a4fc-472f-ad86-438716ed68e2"},"vehicle_type_id":"4","last_reported":1733047753,"current_range_meters":11600,"station_id":"ce4bh112rcd13ifvqd90","pricing_plan_id":"cebpf4jnsgd1na2vs0mg"},{"bike_id":"af12a5f9-720e-4019-987d-3779fe2b91a2","system_id":"levelo_inurba_marseille","lat":43.30823,"lon":5.37389,"is_reserved":false,"is_disabled":true,"rental_uris":{"android":"levelo://app?vid=af12a5f9-720e-4019-987d-3779fe2b91a2","ios":"levelo://app?vid=af12a5f9-720e-4019-987d-3779fe2b91a2"},"vehicle_type_id":"4","last_reported":1733047753,"current_range_meters":800,"station_id":"","pricing_plan_id":"cebpf4jnsgd1na2vs0mg"},{"bike_id":"b1fb2dba-bfa9-4cd7-a438-ec21bfc31d25","system_id":"levelo_inurba_marseille","lat":43.29768,"lon":5.42166,"is_reserved":false,"is_disabled":false,"rental_uris":{"android":"levelo://app?vid=b1fb2dba-bfa9-4cd7-a438-ec21bfc31d25","ios":"levelo://app?vid=b1fb2dba-bfa9-4cd7-a438-ec21bfc31d25"},"vehicle_type_id":"4","last_reported":1733047753,"current_range_meters":25200,"station_id":"","pricing_plan_id":"cebpf4jnsgd1na2vs0mg"},{"bike_id":"c80abd19-6def-4fe1-888f-b272d02243bd","system_id":"levelo_inurba_marseille","lat":43.30305,"lon":5.369,"is_reserved":false,"is_disabled":false,"rental_uris":{"android":"levelo://app?vid=c80abd19-6def-4fe1-888f-b272d02243bd","ios":"levelo://app?vid=c80abd19-6def-4fe1-888f-b272d02243bd"},"vehicle_type_id":"4","last_reported":1733047753,"current_range_meters":33600,"station_id":"ce4bgqh2rcd13ifvqc5g","pricing_plan_id":"cebpf4jnsgd1na2vs0mg"},{"bike_id":"e8aaf989-f7c7-4f92-9039-2cedc59abe88","system_id":"levelo_inurba_marseille","lat":43.25388,"lon":5.41848,"is_reserved":false,"is_disabled":false,"rental_uris":{"android":"levelo://app?vid=e8aaf989-f7c7-4f92-9039-2cedc59abe88","ios":"levelo://app?vid=e8aaf989-f7c7-4f92-9039-2cedc59abe88"},"vehicle_type_id":"4","last_reported":1733047753,"current_range_meters":29600,"station_id":"","pricing_plan_id":"cebpf4jnsgd1na2vs0mg"},{"bike_id":"a81f0370-9437-4c42-a8c8-3783fbcc99f5","system_id":"levelo_inurba_marseille","lat":43.2606,"lon":5.39396,"is_reserved":false,"is_disabled":false,"rental_uris":{"android":"levelo://app?vid=a81f0370-9437-4c42-a8c8-3783fbcc99f5","ios":"levelo://app?vid=a81f0370-9437-4c42-a8c8-3783fbcc99f5"},"vehicle_type_id":"4","last_reported":1733047753,"current_range_meters":24800,"station_id":"ce4bhh92rcd13ifvqfj0","pricing_plan_id":"cebpf4jnsgd1na2vs0mg"},{"bike_id":"2b82be2b-842c-4809-901e-1b13d7fde033","system_id":"levelo_inurba_marseille","lat":43.28156,"lon":5.42635,"is_reserved":false,"is_disabled":true,"rental_uris":{"android":"levelo://app?vid=2b82be2b-842c-4809-901e-1b13d7fde033","ios":"levelo://app?vid=2b82be2b-842c-4809-901e-1b13d7fde033"},"vehicle_type_id":"4","last_reported":1733047753,"current_range_meters":1200,"station_id":"ce4bhnh2rcd13ifvqgug","pricing_plan_id":"cebpf4jnsgd1na2vs0mg"},{"bike_id":"38fdde5e-f6df-4159-ba41-a1bf56251ada","system_id":"levelo_inurba_marseille","lat":43.23066,"lon":5.35492,"is_reserved":false,"is_disabled":false,"rental_uris":{"android":"levelo://app?vid=38fdde5e-f6df-4159-ba41-a1bf56251ada","ios":"levelo://app?vid=38fdde5e-f6df-4159-ba41-a1bf56251ada"},"vehicle_type_id":"4","last_reported":1733047753,"current_range_meters":24400,"station_id":"cpo3342slgdg3j2ifvpg","pricing_plan_id":"cebpf4jnsgd1na2vs0mg"},{"bike_id":"4a2be555-d056-454c-bed3-fe781ba86f8e","system_id":"levelo_inurba_marseille","lat":43.25886,"lon":5.39954,"is_reserved":false,"is_disabled":true,"rental_uris":{"android":"levelo://app?vid=4a2be555-d056-454c-bed3-fe781ba86f8e","ios":"levelo://app?vid=4a2be555-d056-454c-bed3-fe781ba86f8e"},"vehicle_type_id":"4","last_reported":1733047753,"current_range_meters":0,"station_id":"","pricing_plan_id":"cebpf4jnsgd1na2vs0mg"},{"bike_id":"f6d4426c-3f83-4c1a-9949-eb267efb461e","system_id":"levelo_inurba_marseille","lat":43.31354,"lon":5.36698,"is_reserved":false,"is_disabled":false,"rental_uris":{"android":"levelo://app?vid=f6d4426c-3f83-4c1a-9949-eb267efb461e","ios":"levelo://app?vid=f6d4426c-3f83-4c1a-9949-eb267efb461e"},"vehicle_type_id":"4","last_reported":1733047753,"current_range_meters":39200,"station_id":"ce4bgr92rcd13ifvqc6g","pricing_plan_id":"cebpf4jnsgd1na2vs0mg"},{"bike_id":"f0fc9aa9-c9d1-48e5-a9e2-c792dd60843e","system_id":"levelo_inurba_marseille","lat":43.29622,"lon":5.37168,"is_reserved":false,"is_disabled":false,"rental_uris":{"android":"levelo://app?vid=f0fc9aa9-c9d1-48e5-a9e2-c792dd60843e","ios":"levelo://app?vid=f0fc9aa9-c9d1-48e5-a9e2-c792dd60843e"},"vehicle_type_id":"4","last_reported":1733047753,"current_range_meters":39200,"station_id":"ce4bgnh2rcd13ifvqc0g","pricing_plan_id":"cebpf4jnsgd1na2vs0mg"},{"bike_id":"bdaf15ef-30a6-43fb-b654-b47fa5d101b0","system_id":"levelo_inurba_marseille","lat":43.23193,"lon":5.35558,"is_reserved":false,"is_disabled":false,"rental_uris":{"android":"levelo://app?vid=bdaf15ef-30a6-43fb-b654-b47fa5d101b0","ios":"levelo://app?vid=bdaf15ef-30a6-43fb-b654-b47fa5d101b0"},"vehicle_type_id":"4","last_reported":1733047753,"current_range_meters":39200,"station_id":"ce4bhu92rcd13ifvqi70","pricing_plan_id":"cebpf4jnsgd1na2vs0mg"},{"bike_id":"3514cf32-f5b9-4ece-ad78-2fbb554b81b6","system_id":"levelo_inurba_marseille","lat":43.25009,"lon":5.38918,"is_reserved":false,"is_disabled":false,"rental_uris":{"android":"levelo://app?vid=3514cf32-f5b9-4ece-ad78-2fbb554b81b6","ios":"levelo://app?vid=3514cf32-f5b9-4ece-ad78-2fbb554b81b6"},"vehicle_type_id":"4","last_reported":1733047753,"current_range_meters":19200,"station_id":"ce4bhgp2rcd13ifvqfd0","pricing_plan_id":"cebpf4jnsgd1na2vs0mg"},{"bike_id":"41329919-d8a6-4529-9c36-e6723e50ee60","system_id":"levelo_inurba_marseille","lat":43.30299,"lon":5.392,"is_reserved":false,"is_disabled":true,"rental_uris":{"android":"levelo://app?vid=41329919-d8a6-4529-9c36-e6723e50ee60","ios":"levelo://app?vid=41329919-d8a6-4529-9c36-e6723e50ee60"},"vehicle_type_id":"4","last_reported":1733047753,"current_range_meters":30800,"station_id":"ce4bgkh2rcd13ifvqbk0","pricing_plan_id":"cebpf4jnsgd1na2vs0mg"},{"bike_id":"3ec2af63-7cba-4635-8a69-907574b70c71","system_id":"levelo_inurba_marseille","lat":43.23194,"lon":5.35555,"is_reserved":false,"is_disabled":false,"rental_uris":{"android":"levelo://app?vid=3ec2af63-7cba-4635-8a69-907574b70c71","ios":"levelo://app?vid=3ec2af63-7cba-4635-8a69-907574b70c71"},"vehicle_type_id":"4","last_reported":1733047753,"current_range_meters":39200,"station_id":"ce4bhu92rcd13ifvqi70","pricing_plan_id":"cebpf4jnsgd1na2vs0mg"},{"bike_id":"72a6ae14-ff81-4592-b7f6-c6c309b5f127","system_id":"levelo_inurba_marseille","lat":43.25504,"lon":5.37648,"is_reserved":false,"is_disabled":false,"rental_uris":{"android":"levelo://app?vid=72a6ae14-ff81-4592-b7f6-c6c309b5f127","ios":"levelo://app?vid=72a6ae14-ff81-4592-b7f6-c6c309b5f127"},"vehicle_type_id":"4","last_reported":1733047753,"current_range_meters":30800,"station_id":"ce4bhh12rcd13ifvqff0","pricing_plan_id":"cebpf4jnsgd1na2vs0mg"},{"bike_id":"f91c92a9-381f-4b6d-80c7-72d43980fc46","system_id":"levelo_inurba_marseille","lat":43.27068,"lon":5.42272,"is_reserved":false,"is_disabled":false,"rental_uris":{"android":"levelo://app?vid=f91c92a9-381f-4b6d-80c7-72d43980fc46","ios":"levelo://app?vid=f91c92a9-381f-4b6d-80c7-72d43980fc46"},"vehicle_type_id":"4","last_reported":1733047753,"current_range_meters":39200,"station_id":"ce4bhk92rcd13ifvqgb0","pricing_plan_id":"cebpf4jnsgd1na2vs0mg"},{"bike_id":"000b518d-442b-4752-8b9a-e2fc3654d286","system_id":"levelo_inurba_marseille","lat":43.29442,"lon":5.39757,"is_reserved":false,"is_disabled":true,"rental_uris":{"android":"levelo://app?vid=000b518d-442b-4752-8b9a-e2fc3654d286","ios":"levelo://app?vid=000b518d-442b-4752-8b9a-e2fc3654d286"},"vehicle_type_id":"4","last_reported":1733047753,"current_range_meters":17200,"station_id":"ce4bh3h2rcd13ifvqdo0","pricing_plan_id":"cebpf4jnsgd1na2vs0mg"},{"bike_id":"e36c7284-fef6-4d0c-9b81-2d7bf519cd53","system_id":"levelo_inurba_marseille","lat":43.28466,"lon":5.35876,"is_reserved":false,"is_disabled":false,"rental_uris":{"android":"levelo://app?vid=e36c7284-fef6-4d0c-9b81-2d7bf519cd53","ios":"levelo://app?vid=e36c7284-fef6-4d0c-9b81-2d7bf519cd53"},"vehicle_type_id":"4","last_reported":1733047753,"current_range_meters":9200,"station_id":"ce4bhah2rcd13ifvqei0","pricing_plan_id":"cebpf4jnsgd1na2vs0mg"},{"bike_id":"dd286089-a453-43dc-a80c-4c3f6f42092c","system_id":"levelo_inurba_marseille","lat":43.29621,"lon":5.3716,"is_reserved":false,"is_disabled":false,"rental_uris":{"android":"levelo://app?vid=dd286089-a453-43dc-a80c-4c3f6f42092c","ios":"levelo://app?vid=dd286089-a453-43dc-a80c-4c3f6f42092c"},"vehicle_type_id":"4","last_reported":1733047753,"current_range_meters":36800,"station_id":"ce4bgnh2rcd13ifvqc0g","pricing_plan_id":"cebpf4jnsgd1na2vs0mg"},{"bike_id":"f1f635b4-0a6b-4ee6-903a-41289ec89338","system_id":"levelo_inurba_marseille","lat":43.28103,"lon":5.37849,"is_reserved":false,"is_disabled":false,"rental_uris":{"android":"levelo://app?vid=f1f635b4-0a6b-4ee6-903a-41289ec89338","ios":"levelo://app?vid=f1f635b4-0a6b-4ee6-903a-41289ec89338"},"vehicle_type_id":"4","last_reported":1733047753,"current_range_meters":14000,"station_id":"ce4bha12rcd13ifvqee0","pricing_plan_id":"cebpf4jnsgd1na2vs0mg"},{"bike_id":"f8fbba96-238c-4d39-8a28-6a51f5b83e5f","system_id":"levelo_inurba_marseille","lat":43.3091,"lon":5.3685,"is_reserved":false,"is_disabled":false,"rental_uris":{"android":"levelo://app?vid=f8fbba96-238c-4d39-8a28-6a51f5b83e5f","ios":"levelo://app?vid=f8fbba96-238c-4d39-8a28-6a51f5b83e5f"},"vehicle_type_id":"4","last_reported":1733047753,"current_range_meters":37600,"station_id":"ce4bgn92rcd13ifvqbvg","pricing_plan_id":"cebpf4jnsgd1na2vs0mg"},{"bike_id":"d9b65755-777a-471e-af75-f95e32f0a46b","system_id":"levelo_inurba_marseille","lat":43.30881,"lon":5.371907,"is_reserved":false,"is_disabled":false,"rental_uris":{"android":"levelo://app?vid=d9b65755-777a-471e-af75-f95e32f0a46b","ios":"levelo://app?vid=d9b65755-777a-471e-af75-f95e32f0a46b"},"vehicle_type_id":"4","last_reported":1733047753,"current_range_meters":35600,"station_id":"ce4bguh2rcd13ifvqckg","pricing_plan_id":"cebpf4jnsgd1na2vs0mg"},{"bike_id":"f90c55ca-bd64-494b-972d-6e3fa8cd7868","system_id":"levelo_inurba_marseille","lat":43.28152,"lon":5.42638,"is_reserved":false,"is_disabled":false,"rental_uris":{"android":"levelo://app?vid=f90c55ca-bd64-494b-972d-6e3fa8cd7868","ios":"levelo://app?vid=f90c55ca-bd64-494b-972d-6e3fa8cd7868"},"vehicle_type_id":"4","last_reported":1733047753,"current_range_meters":38800,"station_id":"ce4bhnh2rcd13ifvqgug","pricing_plan_id":"cebpf4jnsgd1na2vs0mg"},{"bike_id":"06e6470a-e7c6-43e1-8faf-2131a4d6a529","system_id":"levelo_inurba_marseille","lat":43.23177,"lon":5.39982,"is_reserved":false,"is_disabled":false,"rental_uris":{"android":"levelo://app?vid=06e6470a-e7c6-43e1-8faf-2131a4d6a529","ios":"levelo://app?vid=06e6470a-e7c6-43e1-8faf-2131a4d6a529"},"vehicle_type_id":"4","last_reported":1733047753,"current_range_meters":40000,"station_id":"ce4bhn12rcd13ifvqgqg","pricing_plan_id":"cebpf4jnsgd1na2vs0mg"},{"bike_id":"6d8772e0-ce0f-4ed1-ba3d-d03384e956b3","system_id":"levelo_inurba_marseille","lat":43.29187,"lon":5.35809,"is_reserved":false,"is_disabled":false,"rental_uris":{"android":"levelo://app?vid=6d8772e0-ce0f-4ed1-ba3d-d03384e956b3","ios":"levelo://app?vid=6d8772e0-ce0f-4ed1-ba3d-d03384e956b3"},"vehicle_type_id":"4","last_reported":1733047753,"current_range_meters":38800,"station_id":"ce4bhb12rcd13ifvqel0","pricing_plan_id":"cebpf4jnsgd1na2vs0mg"},{"bike_id":"b5452ca3-1666-4d0a-8884-04d7bd76e099","system_id":"levelo_inurba_marseille","lat":43.31996,"lon":5.38158,"is_reserved":false,"is_disabled":false,"rental_uris":{"android":"levelo://app?vid=b5452ca3-1666-4d0a-8884-04d7bd76e099","ios":"levelo://app?vid=b5452ca3-1666-4d0a-8884-04d7bd76e099"},"vehicle_type_id":"4","last_reported":1733047753,"current_range_meters":36800,"station_id":"ce4bhr12rcd13ifvqhpg","pricing_plan_id":"cebpf4jnsgd1na2vs0mg"},{"bike_id":"b535dfd0-ec01-4a13-996f-71245b6113cc","system_id":"levelo_inurba_marseille","lat":43.27979,"lon":5.4123,"is_reserved":false,"is_disabled":true,"rental_uris":{"android":"levelo://app?vid=b535dfd0-ec01-4a13-996f-71245b6113cc","ios":"levelo://app?vid=b535dfd0-ec01-4a13-996f-71245b6113cc"},"vehicle_type_id":"4","last_reported":1733047753,"current_range_meters":0,"station_id":"","pricing_plan_id":"cebpf4jnsgd1na2vs0mg"},{"bike_id":"39b3f021-df75-4cd6-8b4e-a707899d7c80","system_id":"levelo_inurba_marseille","lat":43.281,"lon":5.37834,"is_reserved":false,"is_disabled":false,"rental_uris":{"android":"levelo://app?vid=39b3f021-df75-4cd6-8b4e-a707899d7c80","ios":"levelo://app?vid=39b3f021-df75-4cd6-8b4e-a707899d7c80"},"vehicle_type_id":"4","last_reported":1733047753,"current_range_meters":11600,"station_id":"ce4bha12rcd13ifvqee0","pricing_plan_id":"cebpf4jnsgd1na2vs0mg"},{"bike_id":"b642d79a-bd2c-495a-acdd-099583f67bf5","system_id":"levelo_inurba_marseille","lat":43.32292,"lon":5.38274,"is_reserved":false,"is_disabled":false,"rental_uris":{"android":"levelo://app?vid=b642d79a-bd2c-495a-acdd-099583f67bf5","ios":"levelo://app?vid=b642d79a-bd2c-495a-acdd-099583f67bf5"},"vehicle_type_id":"4","last_reported":1733047753,"current_range_meters":27200,"station_id":"ce4bhr12rcd13ifvqhqg","pricing_plan_id":"cebpf4jnsgd1na2vs0mg"},{"bike_id":"aad4be0a-2a0d-4e6a-bfa0-4d4086eb2d91","system_id":"levelo_inurba_marseille","lat":43.23157,"lon":5.43705,"is_reserved":false,"is_disabled":false,"rental_uris":{"android":"levelo://app?vid=aad4be0a-2a0d-4e6a-bfa0-4d4086eb2d91","ios":"levelo://app?vid=aad4be0a-2a0d-4e6a-bfa0-4d4086eb2d91"},"vehicle_type_id":"4","last_reported":1733047753,"current_range_meters":39200,"station_id":"ce4bhmp2rcd13ifvqgog","pricing_plan_id":"cebpf4jnsgd1na2vs0mg"},{"bike_id":"2ebf3b3c-662f-41a2-b8dc-68990b8b5b78","system_id":"levelo_inurba_marseille","lat":43.27069,"lon":5.42276,"is_reserved":false,"is_disabled":false,"rental_uris":{"android":"levelo://app?vid=2ebf3b3c-662f-41a2-b8dc-68990b8b5b78","ios":"levelo://app?vid=2ebf3b3c-662f-41a2-b8dc-68990b8b5b78"},"vehicle_type_id":"4","last_reported":1733047753,"current_range_meters":11200,"station_id":"ce4bhk92rcd13ifvqgb0","pricing_plan_id":"cebpf4jnsgd1na2vs0mg"},{"bike_id":"5b9d6f48-f6d1-42ec-91ce-2705b20346f7","system_id":"levelo_inurba_marseille","lat":43.2762,"lon":5.36122,"is_reserved":false,"is_disabled":true,"rental_uris":{"android":"levelo://app?vid=5b9d6f48-f6d1-42ec-91ce-2705b20346f7","ios":"levelo://app?vid=5b9d6f48-f6d1-42ec-91ce-2705b20346f7"},"vehicle_type_id":"4","last_reported":1733047753,"current_range_meters":0,"station_id":"ce4bgj92rcd13ifvqbe0","pricing_plan_id":"cebpf4jnsgd1na2vs0mg"},{"bike_id":"dfae53f2-2072-45ad-83ba-eb288c672871","system_id":"levelo_inurba_marseille","lat":43.30882,"lon":5.37184,"is_reserved":false,"is_disabled":false,"rental_uris":{"android":"levelo://app?vid=dfae53f2-2072-45ad-83ba-eb288c672871","ios":"levelo://app?vid=dfae53f2-2072-45ad-83ba-eb288c672871"},"vehicle_type_id":"4","last_reported":1733047753,"current_range_meters":38800,"station_id":"ce4bguh2rcd13ifvqckg","pricing_plan_id":"cebpf4jnsgd1na2vs0mg"},{"bike_id":"0174841e-8011-4a7b-bd18-480101bee765","system_id":"levelo_inurba_marseille","lat":43.239581,"lon":5.366254,"is_reserved":false,"is_disabled":true,"rental_uris":{"android":"levelo://app?vid=0174841e-8011-4a7b-bd18-480101bee765","ios":"levelo://app?vid=0174841e-8011-4a7b-bd18-480101bee765"},"vehicle_type_id":"4","last_reported":1733047753,"current_range_meters":0,"station_id":"ce4bhi12rcd13ifvqfp0","pricing_plan_id":"cebpf4jnsgd1na2vs0mg"},{"bike_id":"55aa419e-7ca9-4f29-976a-fefd7a814401","system_id":"levelo_inurba_marseille","lat":43.30129,"lon":5.38785,"is_reserved":false,"is_disabled":true,"rental_uris":{"android":"levelo://app?vid=55aa419e-7ca9-4f29-976a-fefd7a814401","ios":"levelo://app?vid=55aa419e-7ca9-4f29-976a-fefd7a814401"},"vehicle_type_id":"4","last_reported":1733047753,"current_range_meters":18000,"station_id":"ce4bghh2rcd13ifvqb60","pricing_plan_id":"cebpf4jnsgd1na2vs0mg"},{"bike_id":"0bef5b7a-87f8-4eca-81e0-efb70c1d92ed","system_id":"levelo_inurba_marseille","lat":43.30634,"lon":5.40092,"is_reserved":false,"is_disabled":false,"rental_uris":{"android":"levelo://app?vid=0bef5b7a-87f8-4eca-81e0-efb70c1d92ed","ios":"levelo://app?vid=0bef5b7a-87f8-4eca-81e0-efb70c1d92ed"},"vehicle_type_id":"4","last_reported":1733047753,"current_range_meters":23200,"station_id":"ce4bh112rcd13ifvqda0","pricing_plan_id":"cebpf4jnsgd1na2vs0mg"},{"bike_id":"8a0e475b-a6e5-4b16-8cc3-7a8925fc43a9","system_id":"levelo_inurba_marseille","lat":43.30143,"lon":5.38063,"is_reserved":false,"is_disabled":false,"rental_uris":{"android":"levelo://app?vid=8a0e475b-a6e5-4b16-8cc3-7a8925fc43a9","ios":"levelo://app?vid=8a0e475b-a6e5-4b16-8cc3-7a8925fc43a9"},"vehicle_type_id":"4","last_reported":1733047753,"current_range_meters":12000,"station_id":"ce4bgjp2rcd13ifvqbh0","pricing_plan_id":"cebpf4jnsgd1na2vs0mg"},{"bike_id":"2e234174-fcfa-4646-a42d-eff8c5a39050","system_id":"levelo_inurba_marseille","lat":43.29775,"lon":5.39337,"is_reserved":false,"is_disabled":false,"rental_uris":{"android":"levelo://app?vid=2e234174-fcfa-4646-a42d-eff8c5a39050","ios":"levelo://app?vid=2e234174-fcfa-4646-a42d-eff8c5a39050"},"vehicle_type_id":"4","last_reported":1733047753,"current_range_meters":31200,"station_id":"chh1huq6cuj3fo74tm60","pricing_plan_id":"cebpf4jnsgd1na2vs0mg"},{"bike_id":"a233b25b-869e-422b-bf5e-63d3d8ff686f","system_id":"levelo_inurba_marseille","lat":43.30928,"lon":5.40144,"is_reserved":false,"is_disabled":true,"rental_uris":{"android":"levelo://app?vid=a233b25b-869e-422b-bf5e-63d3d8ff686f","ios":"levelo://app?vid=a233b25b-869e-422b-bf5e-63d3d8ff686f"},"vehicle_type_id":"4","last_reported":1733047753,"current_range_meters":39200,"station_id":"ce4bgvp2rcd13ifvqct0","pricing_plan_id":"cebpf4jnsgd1na2vs0mg"},{"bike_id":"ca06fb5f-11e1-4d8e-8f6e-d8bf571b0044","system_id":"levelo_inurba_marseille","lat":43.31102,"lon":5.3843,"is_reserved":false,"is_disabled":false,"rental_uris":{"android":"levelo://app?vid=ca06fb5f-11e1-4d8e-8f6e-d8bf571b0044","ios":"levelo://app?vid=ca06fb5f-11e1-4d8e-8f6e-d8bf571b0044"},"vehicle_type_id":"4","last_reported":1733047753,"current_range_meters":16400,"station_id":"","pricing_plan_id":"cebpf4jnsgd1na2vs0mg"},{"bike_id":"d3d123b9-bf77-4e17-859d-89236002e59e","system_id":"levelo_inurba_marseille","lat":43.32356,"lon":5.36757,"is_reserved":false,"is_disabled":true,"rental_uris":{"android":"levelo://app?vid=d3d123b9-bf77-4e17-859d-89236002e59e","ios":"levelo://app?vid=d3d123b9-bf77-4e17-859d-89236002e59e"},"vehicle_type_id":"4","last_reported":1733047753,"current_range_meters":2000,"station_id":"ce4bhsh2rcd13ifvqi2g","pricing_plan_id":"cebpf4jnsgd1na2vs0mg"},{"bike_id":"470a565b-967f-45c0-83b5-74eebed86124","system_id":"levelo_inurba_marseille","lat":43.23153,"lon":5.43708,"is_reserved":false,"is_disabled":false,"rental_uris":{"android":"levelo://app?vid=470a565b-967f-45c0-83b5-74eebed86124","ios":"levelo://app?vid=470a565b-967f-45c0-83b5-74eebed86124"},"vehicle_type_id":"4","last_reported":1733047753,"current_range_meters":24400,"station_id":"ce4bhmp2rcd13ifvqgog","pricing_plan_id":"cebpf4jnsgd1na2vs0mg"},{"bike_id":"c30c90a2-06ef-4928-aede-a780e5409b12","system_id":"levelo_inurba_marseille","lat":43.29851,"lon":5.36291,"is_reserved":false,"is_disabled":false,"rental_uris":{"android":"levelo://app?vid=c30c90a2-06ef-4928-aede-a780e5409b12","ios":"levelo://app?vid=c30c90a2-06ef-4928-aede-a780e5409b12"},"vehicle_type_id":"4","last_reported":1733047753,"current_range_meters":35600,"station_id":"ce4bgpp2rcd13ifvqc3g","pricing_plan_id":"cebpf4jnsgd1na2vs0mg"},{"bike_id":"7db095fe-335f-455d-9456-2582bbc72d93","system_id":"levelo_inurba_marseille","lat":43.29906,"lon":5.4369,"is_reserved":false,"is_disabled":false,"rental_uris":{"android":"levelo://app?vid=7db095fe-335f-455d-9456-2582bbc72d93","ios":"levelo://app?vid=7db095fe-335f-455d-9456-2582bbc72d93"},"vehicle_type_id":"4","last_reported":1733047753,"current_range_meters":18800,"station_id":"ce4bhpp2rcd13ifvqhfg","pricing_plan_id":"cebpf4jnsgd1na2vs0mg"},{"bike_id":"b7cfc805-9c9b-4d99-a815-382103b07848","system_id":"levelo_inurba_marseille","lat":43.28616,"lon":5.35108,"is_reserved":false,"is_disabled":false,"rental_uris":{"android":"levelo://app?vid=b7cfc805-9c9b-4d99-a815-382103b07848","ios":"levelo://app?vid=b7cfc805-9c9b-4d99-a815-382103b07848"},"vehicle_type_id":"4","last_reported":1733047753,"current_range_meters":32400,"station_id":"ce4bhch2rcd13ifvqeug","pricing_plan_id":"cebpf4jnsgd1na2vs0mg"},{"bike_id":"ddbda7d5-c035-4416-b36b-d29a627465ea","system_id":"levelo_inurba_marseille","lat":43.25006,"lon":5.38922,"is_reserved":false,"is_disabled":false,"rental_uris":{"android":"levelo://app?vid=ddbda7d5-c035-4416-b36b-d29a627465ea","ios":"levelo://app?vid=ddbda7d5-c035-4416-b36b-d29a627465ea"},"vehicle_type_id":"4","last_reported":1733047753,"current_range_meters":39200,"station_id":"ce4bhgp2rcd13ifvqfd0","pricing_plan_id":"cebpf4jnsgd1na2vs0mg"},{"bike_id":"2bfb3418-f106-4cd3-a5f5-f5a48e6314fc","system_id":"levelo_inurba_marseille","lat":43.30539,"lon":5.38419,"is_reserved":false,"is_disabled":false,"rental_uris":{"android":"levelo://app?vid=2bfb3418-f106-4cd3-a5f5-f5a48e6314fc","ios":"levelo://app?vid=2bfb3418-f106-4cd3-a5f5-f5a48e6314fc"},"vehicle_type_id":"4","last_reported":1733047753,"current_range_meters":8800,"station_id":"ce4bgg92rcd13ifvqb30","pricing_plan_id":"cebpf4jnsgd1na2vs0mg"},{"bike_id":"95d72828-3312-4aff-bc4e-fb947427dc28","system_id":"levelo_inurba_marseille","lat":43.30911,"lon":5.36857,"is_reserved":false,"is_disabled":false,"rental_uris":{"android":"levelo://app?vid=95d72828-3312-4aff-bc4e-fb947427dc28","ios":"levelo://app?vid=95d72828-3312-4aff-bc4e-fb947427dc28"},"vehicle_type_id":"4","last_reported":1733047753,"current_range_meters":37600,"station_id":"ce4bgn92rcd13ifvqbvg","pricing_plan_id":"cebpf4jnsgd1na2vs0mg"},{"bike_id":"936c1587-a2e2-4ba6-b45d-aae2e4b4059b","system_id":"levelo_inurba_marseille","lat":43.32072,"lon":5.41554,"is_reserved":false,"is_disabled":false,"rental_uris":{"android":"levelo://app?vid=936c1587-a2e2-4ba6-b45d-aae2e4b4059b","ios":"levelo://app?vid=936c1587-a2e2-4ba6-b45d-aae2e4b4059b"},"vehicle_type_id":"4","last_reported":1733047753,"current_range_meters":39200,"station_id":"ce4bhq92rcd13ifvqhkg","pricing_plan_id":"cebpf4jnsgd1na2vs0mg"},{"bike_id":"bab2c541-cee6-43ec-9133-02677927cda0","system_id":"levelo_inurba_marseille","lat":43.30138,"lon":5.37421,"is_reserved":false,"is_disabled":false,"rental_uris":{"android":"levelo://app?vid=bab2c541-cee6-43ec-9133-02677927cda0","ios":"levelo://app?vid=bab2c541-cee6-43ec-9133-02677927cda0"},"vehicle_type_id":"4","last_reported":1733047753,"current_range_meters":30400,"station_id":"ce4bgs92rcd13ifvqcc0","pricing_plan_id":"cebpf4jnsgd1na2vs0mg"},{"bike_id":"42dff1c4-6053-46d6-ab14-2b44877e8b55","system_id":"levelo_inurba_marseille","lat":43.28439,"lon":5.39177,"is_reserved":false,"is_disabled":true,"rental_uris":{"android":"levelo://app?vid=42dff1c4-6053-46d6-ab14-2b44877e8b55","ios":"levelo://app?vid=42dff1c4-6053-46d6-ab14-2b44877e8b55"},"vehicle_type_id":"4","last_reported":1733047753,"current_range_meters":38000,"station_id":"ce4bhoh2rcd13ifvqh5g","pricing_plan_id":"cebpf4jnsgd1na2vs0mg"},{"bike_id":"27d13c7a-6338-48dc-81dd-618b3e4ff60b","system_id":"levelo_inurba_marseille","lat":43.283629,"lon":5.386367,"is_reserved":false,"is_disabled":true,"rental_uris":{"android":"levelo://app?vid=27d13c7a-6338-48dc-81dd-618b3e4ff60b","ios":"levelo://app?vid=27d13c7a-6338-48dc-81dd-618b3e4ff60b"},"vehicle_type_id":"4","last_reported":1733047753,"current_range_meters":36000,"station_id":"ce4bh492rcd13ifvqdvg","pricing_plan_id":"cebpf4jnsgd1na2vs0mg"},{"bike_id":"c7700a96-85d8-46c3-8149-11e50004f5a3","system_id":"levelo_inurba_marseille","lat":43.24076,"lon":5.37762,"is_reserved":false,"is_disabled":false,"rental_uris":{"android":"levelo://app?vid=c7700a96-85d8-46c3-8149-11e50004f5a3","ios":"levelo://app?vid=c7700a96-85d8-46c3-8149-11e50004f5a3"},"vehicle_type_id":"4","last_reported":1733047753,"current_range_meters":6400,"station_id":"ce4bhnp2rcd13ifvqgvg","pricing_plan_id":"cebpf4jnsgd1na2vs0mg"},{"bike_id":"13151158-c4ba-49c7-a920-9a61c5dd56f2","system_id":"levelo_inurba_marseille","lat":43.23954,"lon":5.36633,"is_reserved":false,"is_disabled":true,"rental_uris":{"android":"levelo://app?vid=13151158-c4ba-49c7-a920-9a61c5dd56f2","ios":"levelo://app?vid=13151158-c4ba-49c7-a920-9a61c5dd56f2"},"vehicle_type_id":"4","last_reported":1733047753,"current_range_meters":0,"station_id":"ce4bhi12rcd13ifvqfp0","pricing_plan_id":"cebpf4jnsgd1na2vs0mg"},{"bike_id":"2176458e-fe6e-4abc-800b-3c151c788374","system_id":"levelo_inurba_marseille","lat":43.2894,"lon":5.36397,"is_reserved":false,"is_disabled":false,"rental_uris":{"android":"levelo://app?vid=2176458e-fe6e-4abc-800b-3c151c788374","ios":"levelo://app?vid=2176458e-fe6e-4abc-800b-3c151c788374"},"vehicle_type_id":"4","last_reported":1733047753,"current_range_meters":38400,"station_id":"ce4bhc92rcd13ifvqetg","pricing_plan_id":"cebpf4jnsgd1na2vs0mg"},{"bike_id":"a53c70c1-f69f-455b-8b65-ea625a8f4f98","system_id":"levelo_inurba_marseille","lat":43.2737,"lon":5.36258,"is_reserved":false,"is_disabled":false,"rental_uris":{"android":"levelo://app?vid=a53c70c1-f69f-455b-8b65-ea625a8f4f98","ios":"levelo://app?vid=a53c70c1-f69f-455b-8b65-ea625a8f4f98"},"vehicle_type_id":"4","last_reported":1733047753,"current_range_meters":38000,"station_id":"ce4bhbh2rcd13ifvqeo0","pricing_plan_id":"cebpf4jnsgd1na2vs0mg"},{"bike_id":"acf4a756-d86a-4aba-99d9-8148b7db3378","system_id":"levelo_inurba_marseille","lat":43.27982,"lon":5.4002,"is_reserved":false,"is_disabled":true,"rental_uris":{"android":"levelo://app?vid=acf4a756-d86a-4aba-99d9-8148b7db3378","ios":"levelo://app?vid=acf4a756-d86a-4aba-99d9-8148b7db3378"},"vehicle_type_id":"4","last_reported":1733047753,"current_range_meters":0,"station_id":"ce4bho92rcd13ifvqh4g","pricing_plan_id":"cebpf4jnsgd1na2vs0mg"},{"bike_id":"4018fb8f-45f3-45d0-a054-90a03257f3a3","system_id":"levelo_inurba_marseille","lat":43.283141,"lon":5.405444,"is_reserved":false,"is_disabled":false,"rental_uris":{"android":"levelo://app?vid=4018fb8f-45f3-45d0-a054-90a03257f3a3","ios":"levelo://app?vid=4018fb8f-45f3-45d0-a054-90a03257f3a3"},"vehicle_type_id":"4","last_reported":1733047753,"current_range_meters":23200,"station_id":"","pricing_plan_id":"cebpf4jnsgd1na2vs0mg"},{"bike_id":"3b4fc9e4-c8fc-41aa-b58a-0c77d180b556","system_id":"levelo_inurba_marseille","lat":43.29301,"lon":5.37153,"is_reserved":false,"is_disabled":false,"rental_uris":{"android":"levelo://app?vid=3b4fc9e4-c8fc-41aa-b58a-0c77d180b556","ios":"levelo://app?vid=3b4fc9e4-c8fc-41aa-b58a-0c77d180b556"},"vehicle_type_id":"4","last_reported":1733047753,"current_range_meters":36400,"station_id":"ce4bgh92rcd13ifvqb40","pricing_plan_id":"cebpf4jnsgd1na2vs0mg"},{"bike_id":"d4b6a353-3b96-4f8b-a61b-818ddfd019c6","system_id":"levelo_inurba_marseille","lat":43.26031,"lon":5.3755,"is_reserved":false,"is_disabled":false,"rental_uris":{"android":"levelo://app?vid=d4b6a353-3b96-4f8b-a61b-818ddfd019c6","ios":"levelo://app?vid=d4b6a353-3b96-4f8b-a61b-818ddfd019c6"},"vehicle_type_id":"4","last_reported":1733047753,"current_range_meters":7200,"station_id":"ce4bhgh2rcd13ifvqfa0","pricing_plan_id":"cebpf4jnsgd1na2vs0mg"},{"bike_id":"18299652-2a9d-4717-aa6c-9d08b0165b52","system_id":"levelo_inurba_marseille","lat":43.33024,"lon":5.39038,"is_reserved":false,"is_disabled":false,"rental_uris":{"android":"levelo://app?vid=18299652-2a9d-4717-aa6c-9d08b0165b52","ios":"levelo://app?vid=18299652-2a9d-4717-aa6c-9d08b0165b52"},"vehicle_type_id":"4","last_reported":1733047753,"current_range_meters":38800,"station_id":"ce4bhr92rcd13ifvqhrg","pricing_plan_id":"cebpf4jnsgd1na2vs0mg"},{"bike_id":"b70a532f-8dbf-4741-b378-867bc2e80a9e","system_id":"levelo_inurba_marseille","lat":43.30113,"lon":5.38736,"is_reserved":false,"is_disabled":false,"rental_uris":{"android":"levelo://app?vid=b70a532f-8dbf-4741-b378-867bc2e80a9e","ios":"levelo://app?vid=b70a532f-8dbf-4741-b378-867bc2e80a9e"},"vehicle_type_id":"4","last_reported":1733047753,"current_range_meters":6800,"station_id":"ce4bghh2rcd13ifvqb60","pricing_plan_id":"cebpf4jnsgd1na2vs0mg"},{"bike_id":"e0161261-fd33-45e3-8038-51d77778a6b0","system_id":"levelo_inurba_marseille","lat":43.306537,"lon":5.400881,"is_reserved":false,"is_disabled":true,"rental_uris":{"android":"levelo://app?vid=e0161261-fd33-45e3-8038-51d77778a6b0","ios":"levelo://app?vid=e0161261-fd33-45e3-8038-51d77778a6b0"},"vehicle_type_id":"4","last_reported":1733047753,"current_range_meters":36400,"station_id":"ce4bh112rcd13ifvqda0","pricing_plan_id":"cebpf4jnsgd1na2vs0mg"},{"bike_id":"1c60f751-c76e-427a-9405-56fb50489dfd","system_id":"levelo_inurba_marseille","lat":43.30907,"lon":5.36859,"is_reserved":false,"is_disabled":false,"rental_uris":{"android":"levelo://app?vid=1c60f751-c76e-427a-9405-56fb50489dfd","ios":"levelo://app?vid=1c60f751-c76e-427a-9405-56fb50489dfd"},"vehicle_type_id":"4","last_reported":1733047753,"current_range_meters":36800,"station_id":"ce4bgn92rcd13ifvqbvg","pricing_plan_id":"cebpf4jnsgd1na2vs0mg"},{"bike_id":"f4d19859-dbfb-4982-b796-c8007145699f","system_id":"levelo_inurba_marseille","lat":43.28619,"lon":5.35099,"is_reserved":false,"is_disabled":false,"rental_uris":{"android":"levelo://app?vid=f4d19859-dbfb-4982-b796-c8007145699f","ios":"levelo://app?vid=f4d19859-dbfb-4982-b796-c8007145699f"},"vehicle_type_id":"4","last_reported":1733047753,"current_range_meters":16000,"station_id":"ce4bhch2rcd13ifvqeug","pricing_plan_id":"cebpf4jnsgd1na2vs0mg"},{"bike_id":"bfb856cf-7615-4aa7-a7e4-859a62ce8248","system_id":"levelo_inurba_marseille","lat":43.33776,"lon":5.3741,"is_reserved":false,"is_disabled":false,"rental_uris":{"android":"levelo://app?vid=bfb856cf-7615-4aa7-a7e4-859a62ce8248","ios":"levelo://app?vid=bfb856cf-7615-4aa7-a7e4-859a62ce8248"},"vehicle_type_id":"4","last_reported":1733047753,"current_range_meters":12000,"station_id":"","pricing_plan_id":"cebpf4jnsgd1na2vs0mg"},{"bike_id":"29283b72-b5e0-4c46-8811-89331fd7b8d3","system_id":"levelo_inurba_marseille","lat":43.29781,"lon":5.38119,"is_reserved":false,"is_disabled":false,"rental_uris":{"android":"levelo://app?vid=29283b72-b5e0-4c46-8811-89331fd7b8d3","ios":"levelo://app?vid=29283b72-b5e0-4c46-8811-89331fd7b8d3"},"vehicle_type_id":"4","last_reported":1733047753,"current_range_meters":24800,"station_id":"ce4bgip2rcd13ifvqbb0","pricing_plan_id":"cebpf4jnsgd1na2vs0mg"},{"bike_id":"ea948b53-089a-43c9-adef-34ac47c87daf","system_id":"levelo_inurba_marseille","lat":43.27202,"lon":5.39174,"is_reserved":false,"is_disabled":false,"rental_uris":{"android":"levelo://app?vid=ea948b53-089a-43c9-adef-34ac47c87daf","ios":"levelo://app?vid=ea948b53-089a-43c9-adef-34ac47c87daf"},"vehicle_type_id":"4","last_reported":1733047753,"current_range_meters":21600,"station_id":"ce4bhhp2rcd13ifvqfm0","pricing_plan_id":"cebpf4jnsgd1na2vs0mg"},{"bike_id":"68f984c9-51a6-4902-b463-f264f9fe3444","system_id":"levelo_inurba_marseille","lat":43.32535,"lon":5.41458,"is_reserved":false,"is_disabled":false,"rental_uris":{"android":"levelo://app?vid=68f984c9-51a6-4902-b463-f264f9fe3444","ios":"levelo://app?vid=68f984c9-51a6-4902-b463-f264f9fe3444"},"vehicle_type_id":"4","last_reported":1733047753,"current_range_meters":38000,"station_id":"ce4bhq12rcd13ifvqhhg","pricing_plan_id":"cebpf4jnsgd1na2vs0mg"},{"bike_id":"f6406f66-5153-40ce-bc97-7cea00959e6b","system_id":"levelo_inurba_marseille","lat":43.31266,"lon":5.40172,"is_reserved":false,"is_disabled":true,"rental_uris":{"android":"levelo://app?vid=f6406f66-5153-40ce-bc97-7cea00959e6b","ios":"levelo://app?vid=f6406f66-5153-40ce-bc97-7cea00959e6b"},"vehicle_type_id":"4","last_reported":1733047753,"current_range_meters":0,"station_id":"ce4bh092rcd13ifvqd30","pricing_plan_id":"cebpf4jnsgd1na2vs0mg"},{"bike_id":"7917a545-8090-4521-ad99-6fdb2030ba79","system_id":"levelo_inurba_marseille","lat":43.27939,"lon":5.41047,"is_reserved":false,"is_disabled":false,"rental_uris":{"android":"levelo://app?vid=7917a545-8090-4521-ad99-6fdb2030ba79","ios":"levelo://app?vid=7917a545-8090-4521-ad99-6fdb2030ba79"},"vehicle_type_id":"4","last_reported":1733047753,"current_range_meters":33200,"station_id":"ce4bhnp2rcd13ifvqh0g","pricing_plan_id":"cebpf4jnsgd1na2vs0mg"},{"bike_id":"ce20c844-7914-4b0b-b70c-e7bdec0d808d","system_id":"levelo_inurba_marseille","lat":43.2594,"lon":5.40915,"is_reserved":false,"is_disabled":false,"rental_uris":{"android":"levelo://app?vid=ce20c844-7914-4b0b-b70c-e7bdec0d808d","ios":"levelo://app?vid=ce20c844-7914-4b0b-b70c-e7bdec0d808d"},"vehicle_type_id":"4","last_reported":1733047753,"current_range_meters":13600,"station_id":"ce4bhm92rcd13ifvqglg","pricing_plan_id":"cebpf4jnsgd1na2vs0mg"},{"bike_id":"a9583175-0897-41a0-958c-4a07e78d5c45","system_id":"levelo_inurba_marseille","lat":43.28353,"lon":5.38637,"is_reserved":false,"is_disabled":true,"rental_uris":{"android":"levelo://app?vid=a9583175-0897-41a0-958c-4a07e78d5c45","ios":"levelo://app?vid=a9583175-0897-41a0-958c-4a07e78d5c45"},"vehicle_type_id":"4","last_reported":1733047753,"current_range_meters":12400,"station_id":"ce4bh492rcd13ifvqdvg","pricing_plan_id":"cebpf4jnsgd1na2vs0mg"},{"bike_id":"1484588d-a6d8-48a1-b9e8-65b559ab2eed","system_id":"levelo_inurba_marseille","lat":43.25499,"lon":5.37653,"is_reserved":false,"is_disabled":false,"rental_uris":{"android":"levelo://app?vid=1484588d-a6d8-48a1-b9e8-65b559ab2eed","ios":"levelo://app?vid=1484588d-a6d8-48a1-b9e8-65b559ab2eed"},"vehicle_type_id":"4","last_reported":1733047753,"current_range_meters":16000,"station_id":"ce4bhh12rcd13ifvqff0","pricing_plan_id":"cebpf4jnsgd1na2vs0mg"},{"bike_id":"58f5d99c-c01f-4bd1-ac20-b06556b13d63","system_id":"levelo_inurba_marseille","lat":43.30809,"lon":5.4352,"is_reserved":false,"is_disabled":false,"rental_uris":{"android":"levelo://app?vid=58f5d99c-c01f-4bd1-ac20-b06556b13d63","ios":"levelo://app?vid=58f5d99c-c01f-4bd1-ac20-b06556b13d63"},"vehicle_type_id":"4","last_reported":1733047753,"current_range_meters":10800,"station_id":"ce4bhph2rcd13ifvqheg","pricing_plan_id":"cebpf4jnsgd1na2vs0mg"},{"bike_id":"e48715d5-5e4f-448a-9704-784ee3ea3c25","system_id":"levelo_inurba_marseille","lat":43.25,"lon":5.38923,"is_reserved":false,"is_disabled":false,"rental_uris":{"android":"levelo://app?vid=e48715d5-5e4f-448a-9704-784ee3ea3c25","ios":"levelo://app?vid=e48715d5-5e4f-448a-9704-784ee3ea3c25"},"vehicle_type_id":"4","last_reported":1733047753,"current_range_meters":8800,"station_id":"ce4bhgp2rcd13ifvqfd0","pricing_plan_id":"cebpf4jnsgd1na2vs0mg"},{"bike_id":"7af4e189-039e-4775-ae57-ac26379e5fae","system_id":"levelo_inurba_marseille","lat":43.25493,"lon":5.37656,"is_reserved":false,"is_disabled":false,"rental_uris":{"android":"levelo://app?vid=7af4e189-039e-4775-ae57-ac26379e5fae","ios":"levelo://app?vid=7af4e189-039e-4775-ae57-ac26379e5fae"},"vehicle_type_id":"4","last_reported":1733047753,"current_range_meters":38800,"station_id":"ce4bhh12rcd13ifvqff0","pricing_plan_id":"cebpf4jnsgd1na2vs0mg"},{"bike_id":"f8d592a2-1761-4fc2-ae68-7688d9a28c14","system_id":"levelo_inurba_marseille","lat":43.27953,"lon":5.3872,"is_reserved":false,"is_disabled":true,"rental_uris":{"android":"levelo://app?vid=f8d592a2-1761-4fc2-ae68-7688d9a28c14","ios":"levelo://app?vid=f8d592a2-1761-4fc2-ae68-7688d9a28c14"},"vehicle_type_id":"4","last_reported":1733047753,"current_range_meters":0,"station_id":"ce4bhg12rcd13ifvqf80","pricing_plan_id":"cebpf4jnsgd1na2vs0mg"},{"bike_id":"240953f0-b7b0-454b-a5ce-7cb6500cf7ea","system_id":"levelo_inurba_marseille","lat":43.25085,"lon":5.39513,"is_reserved":false,"is_disabled":false,"rental_uris":{"android":"levelo://app?vid=240953f0-b7b0-454b-a5ce-7cb6500cf7ea","ios":"levelo://app?vid=240953f0-b7b0-454b-a5ce-7cb6500cf7ea"},"vehicle_type_id":"4","last_reported":1733047753,"current_range_meters":38800,"station_id":"ce4bhm12rcd13ifvqgkg","pricing_plan_id":"cebpf4jnsgd1na2vs0mg"},{"bike_id":"5e1e37c0-8410-4b39-b3ea-c00fd6371bc5","system_id":"levelo_inurba_marseille","lat":43.30912,"lon":5.36851,"is_reserved":false,"is_disabled":false,"rental_uris":{"android":"levelo://app?vid=5e1e37c0-8410-4b39-b3ea-c00fd6371bc5","ios":"levelo://app?vid=5e1e37c0-8410-4b39-b3ea-c00fd6371bc5"},"vehicle_type_id":"4","last_reported":1733047753,"current_range_meters":40000,"station_id":"ce4bgn92rcd13ifvqbvg","pricing_plan_id":"cebpf4jnsgd1na2vs0mg"},{"bike_id":"7dc2caec-37b5-482a-abad-d1d2f62e7e82","system_id":"levelo_inurba_marseille","lat":43.312584,"lon":5.370024,"is_reserved":false,"is_disabled":true,"rental_uris":{"android":"levelo://app?vid=7dc2caec-37b5-482a-abad-d1d2f62e7e82","ios":"levelo://app?vid=7dc2caec-37b5-482a-abad-d1d2f62e7e82"},"vehicle_type_id":"4","last_reported":1733047753,"current_range_meters":0,"station_id":"","pricing_plan_id":"cebpf4jnsgd1na2vs0mg"},{"bike_id":"d096a05a-f487-4e0d-9d29-6cd024c7c698","system_id":"levelo_inurba_marseille","lat":43.24995,"lon":5.38924,"is_reserved":false,"is_disabled":false,"rental_uris":{"android":"levelo://app?vid=d096a05a-f487-4e0d-9d29-6cd024c7c698","ios":"levelo://app?vid=d096a05a-f487-4e0d-9d29-6cd024c7c698"},"vehicle_type_id":"4","last_reported":1733047753,"current_range_meters":32000,"station_id":"ce4bhgp2rcd13ifvqfd0","pricing_plan_id":"cebpf4jnsgd1na2vs0mg"},{"bike_id":"9dd1fc98-a89e-437a-b707-6eb8b3c899e8","system_id":"levelo_inurba_marseille","lat":43.290399,"lon":5.359153,"is_reserved":false,"is_disabled":true,"rental_uris":{"android":"levelo://app?vid=9dd1fc98-a89e-437a-b707-6eb8b3c899e8","ios":"levelo://app?vid=9dd1fc98-a89e-437a-b707-6eb8b3c899e8"},"vehicle_type_id":"4","last_reported":1733047753,"current_range_meters":0,"station_id":"ce4bha92rcd13ifvqeg0","pricing_plan_id":"cebpf4jnsgd1na2vs0mg"},{"bike_id":"28a82196-100a-4883-b98e-31aeb1068b5e","system_id":"levelo_inurba_marseille","lat":43.296899,"lon":5.362546,"is_reserved":false,"is_disabled":false,"rental_uris":{"android":"levelo://app?vid=28a82196-100a-4883-b98e-31aeb1068b5e","ios":"levelo://app?vid=28a82196-100a-4883-b98e-31aeb1068b5e"},"vehicle_type_id":"4","last_reported":1733047753,"current_range_meters":33600,"station_id":"","pricing_plan_id":"cebpf4jnsgd1na2vs0mg"},{"bike_id":"aea6b7a8-fa3c-4842-89c6-693b08a99724","system_id":"levelo_inurba_marseille","lat":43.29623,"lon":5.37154,"is_reserved":false,"is_disabled":false,"rental_uris":{"android":"levelo://app?vid=aea6b7a8-fa3c-4842-89c6-693b08a99724","ios":"levelo://app?vid=aea6b7a8-fa3c-4842-89c6-693b08a99724"},"vehicle_type_id":"4","last_reported":1733047753,"current_range_meters":38000,"station_id":"ce4bgnh2rcd13ifvqc0g","pricing_plan_id":"cebpf4jnsgd1na2vs0mg"},{"bike_id":"2b1b614c-c07a-46d9-abd3-6e17ee8872cb","system_id":"levelo_inurba_marseille","lat":43.28842,"lon":5.35848,"is_reserved":false,"is_disabled":false,"rental_uris":{"android":"levelo://app?vid=2b1b614c-c07a-46d9-abd3-6e17ee8872cb","ios":"levelo://app?vid=2b1b614c-c07a-46d9-abd3-6e17ee8872cb"},"vehicle_type_id":"4","last_reported":1733047753,"current_range_meters":31200,"station_id":"ce4bhb12rcd13ifvqem0","pricing_plan_id":"cebpf4jnsgd1na2vs0mg"},{"bike_id":"bea43fe6-0ab8-4ff0-afcb-1dc4fc192577","system_id":"levelo_inurba_marseille","lat":43.25102,"lon":5.4033,"is_reserved":false,"is_disabled":true,"rental_uris":{"android":"levelo://app?vid=bea43fe6-0ab8-4ff0-afcb-1dc4fc192577","ios":"levelo://app?vid=bea43fe6-0ab8-4ff0-afcb-1dc4fc192577"},"vehicle_type_id":"4","last_reported":1733047753,"current_range_meters":0,"station_id":"ce4bhlh2rcd13ifvqgig","pricing_plan_id":"cebpf4jnsgd1na2vs0mg"},{"bike_id":"ff90587f-4b59-47e3-82d7-9ecb2f1bc4ef","system_id":"levelo_inurba_marseille","lat":43.32359,"lon":5.40591,"is_reserved":false,"is_disabled":false,"rental_uris":{"android":"levelo://app?vid=ff90587f-4b59-47e3-82d7-9ecb2f1bc4ef","ios":"levelo://app?vid=ff90587f-4b59-47e3-82d7-9ecb2f1bc4ef"},"vehicle_type_id":"4","last_reported":1733047753,"current_range_meters":38800,"station_id":"ce4bhq92rcd13ifvqhjg","pricing_plan_id":"cebpf4jnsgd1na2vs0mg"},{"bike_id":"1b4091b4-9da5-4e08-a623-15bd0eb83e75","system_id":"levelo_inurba_marseille","lat":43.29303,"lon":5.37183,"is_reserved":false,"is_disabled":true,"rental_uris":{"android":"levelo://app?vid=1b4091b4-9da5-4e08-a623-15bd0eb83e75","ios":"levelo://app?vid=1b4091b4-9da5-4e08-a623-15bd0eb83e75"},"vehicle_type_id":"4","last_reported":1733047753,"current_range_meters":6800,"station_id":"ce4bgh92rcd13ifvqb40","pricing_plan_id":"cebpf4jnsgd1na2vs0mg"},{"bike_id":"d943d960-7d9b-4964-9228-20089cd21664","system_id":"levelo_inurba_marseille","lat":43.32898,"lon":5.36439,"is_reserved":false,"is_disabled":false,"rental_uris":{"android":"levelo://app?vid=d943d960-7d9b-4964-9228-20089cd21664","ios":"levelo://app?vid=d943d960-7d9b-4964-9228-20089cd21664"},"vehicle_type_id":"4","last_reported":1733047753,"current_range_meters":16800,"station_id":"","pricing_plan_id":"cebpf4jnsgd1na2vs0mg"},{"bike_id":"01dd0f6c-5d7c-4e63-a161-668f65657b81","system_id":"levelo_inurba_marseille","lat":43.2293,"lon":5.35381,"is_reserved":false,"is_disabled":false,"rental_uris":{"android":"levelo://app?vid=01dd0f6c-5d7c-4e63-a161-668f65657b81","ios":"levelo://app?vid=01dd0f6c-5d7c-4e63-a161-668f65657b81"},"vehicle_type_id":"4","last_reported":1733047753,"current_range_meters":38400,"station_id":"cpo3532slgdg3j2ikp40","pricing_plan_id":"cebpf4jnsgd1na2vs0mg"},{"bike_id":"c76039a4-5bfa-43b5-b062-784ce68f5ac4","system_id":"levelo_inurba_marseille","lat":43.29963,"lon":5.38497,"is_reserved":false,"is_disabled":false,"rental_uris":{"android":"levelo://app?vid=c76039a4-5bfa-43b5-b062-784ce68f5ac4","ios":"levelo://app?vid=c76039a4-5bfa-43b5-b062-784ce68f5ac4"},"vehicle_type_id":"4","last_reported":1733047753,"current_range_meters":36800,"station_id":"ce4bgj92rcd13ifvqbd0","pricing_plan_id":"cebpf4jnsgd1na2vs0mg"},{"bike_id":"b338592b-1494-4ba2-b9e8-9493dcc2b18a","system_id":"levelo_inurba_marseille","lat":43.26029,"lon":5.37546,"is_reserved":false,"is_disabled":false,"rental_uris":{"android":"levelo://app?vid=b338592b-1494-4ba2-b9e8-9493dcc2b18a","ios":"levelo://app?vid=b338592b-1494-4ba2-b9e8-9493dcc2b18a"},"vehicle_type_id":"4","last_reported":1733047753,"current_range_meters":40000,"station_id":"ce4bhgh2rcd13ifvqfa0","pricing_plan_id":"cebpf4jnsgd1na2vs0mg"},{"bike_id":"78c93a32-a73c-4d0e-8794-3c6b220deb0e","system_id":"levelo_inurba_marseille","lat":43.24805,"lon":5.37454,"is_reserved":false,"is_disabled":false,"rental_uris":{"android":"levelo://app?vid=78c93a32-a73c-4d0e-8794-3c6b220deb0e","ios":"levelo://app?vid=78c93a32-a73c-4d0e-8794-3c6b220deb0e"},"vehicle_type_id":"4","last_reported":1733047753,"current_range_meters":37600,"station_id":"ce4bhgh2rcd13ifvqfb0","pricing_plan_id":"cebpf4jnsgd1na2vs0mg"},{"bike_id":"3fa7a75d-8677-4292-b8d3-8cce5ac0e9d8","system_id":"levelo_inurba_marseille","lat":43.29589,"lon":5.36738,"is_reserved":false,"is_disabled":false,"rental_uris":{"android":"levelo://app?vid=3fa7a75d-8677-4292-b8d3-8cce5ac0e9d8","ios":"levelo://app?vid=3fa7a75d-8677-4292-b8d3-8cce5ac0e9d8"},"vehicle_type_id":"4","last_reported":1733047753,"current_range_meters":38800,"station_id":"ce4bgph2rcd13ifvqc2g","pricing_plan_id":"cebpf4jnsgd1na2vs0mg"},{"bike_id":"df8bfb60-6438-46c2-9137-0a6f775a1567","system_id":"levelo_inurba_marseille","lat":43.28611,"lon":5.37057,"is_reserved":false,"is_disabled":false,"rental_uris":{"android":"levelo://app?vid=df8bfb60-6438-46c2-9137-0a6f775a1567","ios":"levelo://app?vid=df8bfb60-6438-46c2-9137-0a6f775a1567"},"vehicle_type_id":"4","last_reported":1733047753,"current_range_meters":18800,"station_id":"ce4bht12rcd13ifvqi60","pricing_plan_id":"cebpf4jnsgd1na2vs0mg"},{"bike_id":"e5951ee3-4a5a-4ebb-b469-096c5188dfa3","system_id":"levelo_inurba_marseille","lat":43.23198,"lon":5.3557,"is_reserved":false,"is_disabled":false,"rental_uris":{"android":"levelo://app?vid=e5951ee3-4a5a-4ebb-b469-096c5188dfa3","ios":"levelo://app?vid=e5951ee3-4a5a-4ebb-b469-096c5188dfa3"},"vehicle_type_id":"4","last_reported":1733047753,"current_range_meters":14000,"station_id":"ce4bhu92rcd13ifvqi70","pricing_plan_id":"cebpf4jnsgd1na2vs0mg"},{"bike_id":"f9a63393-5401-4f98-ae5a-dfbb8291ab6d","system_id":"levelo_inurba_marseille","lat":43.3004,"lon":5.37551,"is_reserved":false,"is_disabled":true,"rental_uris":{"android":"levelo://app?vid=f9a63393-5401-4f98-ae5a-dfbb8291ab6d","ios":"levelo://app?vid=f9a63393-5401-4f98-ae5a-dfbb8291ab6d"},"vehicle_type_id":"4","last_reported":1733047753,"current_range_meters":0,"station_id":"","pricing_plan_id":"cebpf4jnsgd1na2vs0mg"},{"bike_id":"284d7bb9-2b3f-481e-84a7-e7cd77d4464d","system_id":"levelo_inurba_marseille","lat":43.26196,"lon":5.37931,"is_reserved":false,"is_disabled":false,"rental_uris":{"android":"levelo://app?vid=284d7bb9-2b3f-481e-84a7-e7cd77d4464d","ios":"levelo://app?vid=284d7bb9-2b3f-481e-84a7-e7cd77d4464d"},"vehicle_type_id":"4","last_reported":1733047753,"current_range_meters":38800,"station_id":"ce4bhjp2rcd13ifvqg90","pricing_plan_id":"cebpf4jnsgd1na2vs0mg"},{"bike_id":"b38c09bb-a215-4e8b-b764-0091f548550c","system_id":"levelo_inurba_marseille","lat":43.22942,"lon":5.35384,"is_reserved":false,"is_disabled":false,"rental_uris":{"android":"levelo://app?vid=b38c09bb-a215-4e8b-b764-0091f548550c","ios":"levelo://app?vid=b38c09bb-a215-4e8b-b764-0091f548550c"},"vehicle_type_id":"4","last_reported":1733047753,"current_range_meters":39200,"station_id":"cpo3532slgdg3j2ikp40","pricing_plan_id":"cebpf4jnsgd1na2vs0mg"},{"bike_id":"2dc38ade-27f7-4963-9993-df653a004c9b","system_id":"levelo_inurba_marseille","lat":43.27366,"lon":5.36243,"is_reserved":false,"is_disabled":false,"rental_uris":{"android":"levelo://app?vid=2dc38ade-27f7-4963-9993-df653a004c9b","ios":"levelo://app?vid=2dc38ade-27f7-4963-9993-df653a004c9b"},"vehicle_type_id":"4","last_reported":1733047753,"current_range_meters":24400,"station_id":"ce4bhbh2rcd13ifvqeo0","pricing_plan_id":"cebpf4jnsgd1na2vs0mg"},{"bike_id":"b187126a-f02d-4468-8acb-d4cf5bf2e5e6","system_id":"levelo_inurba_marseille","lat":43.31266,"lon":5.40161,"is_reserved":false,"is_disabled":false,"rental_uris":{"android":"levelo://app?vid=b187126a-f02d-4468-8acb-d4cf5bf2e5e6","ios":"levelo://app?vid=b187126a-f02d-4468-8acb-d4cf5bf2e5e6"},"vehicle_type_id":"4","last_reported":1733047753,"current_range_meters":27600,"station_id":"ce4bh092rcd13ifvqd30","pricing_plan_id":"cebpf4jnsgd1na2vs0mg"},{"bike_id":"ea461fa6-489e-4de7-89c7-2f448445227c","system_id":"levelo_inurba_marseille","lat":43.293,"lon":5.37182,"is_reserved":false,"is_disabled":true,"rental_uris":{"android":"levelo://app?vid=ea461fa6-489e-4de7-89c7-2f448445227c","ios":"levelo://app?vid=ea461fa6-489e-4de7-89c7-2f448445227c"},"vehicle_type_id":"4","last_reported":1733047753,"current_range_meters":36800,"station_id":"ce4bgh92rcd13ifvqb40","pricing_plan_id":"cebpf4jnsgd1na2vs0mg"},{"bike_id":"146c5eba-adcb-4d36-ac22-772166f52eb5","system_id":"levelo_inurba_marseille","lat":43.337444,"lon":5.374475,"is_reserved":false,"is_disabled":false,"rental_uris":{"android":"levelo://app?vid=146c5eba-adcb-4d36-ac22-772166f52eb5","ios":"levelo://app?vid=146c5eba-adcb-4d36-ac22-772166f52eb5"},"vehicle_type_id":"4","last_reported":1733047753,"current_range_meters":36400,"station_id":"","pricing_plan_id":"cebpf4jnsgd1na2vs0mg"},{"bike_id":"b0bda3a0-8d9d-4bd3-a5b8-75ccdf39fdf3","system_id":"levelo_inurba_marseille","lat":43.29439,"lon":5.39753,"is_reserved":false,"is_disabled":true,"rental_uris":{"android":"levelo://app?vid=b0bda3a0-8d9d-4bd3-a5b8-75ccdf39fdf3","ios":"levelo://app?vid=b0bda3a0-8d9d-4bd3-a5b8-75ccdf39fdf3"},"vehicle_type_id":"4","last_reported":1733047753,"current_range_meters":24800,"station_id":"ce4bh3h2rcd13ifvqdo0","pricing_plan_id":"cebpf4jnsgd1na2vs0mg"},{"bike_id":"38185d7a-9e0f-43a5-aa1a-37078885e6a5","system_id":"levelo_inurba_marseille","lat":43.28037,"lon":5.36953,"is_reserved":false,"is_disabled":false,"rental_uris":{"android":"levelo://app?vid=38185d7a-9e0f-43a5-aa1a-37078885e6a5","ios":"levelo://app?vid=38185d7a-9e0f-43a5-aa1a-37078885e6a5"},"vehicle_type_id":"4","last_reported":1733047753,"current_range_meters":30000,"station_id":"ce4bha12rcd13ifvqef0","pricing_plan_id":"cebpf4jnsgd1na2vs0mg"},{"bike_id":"8d958c83-9b9f-4a5f-99e5-784608df87f7","system_id":"levelo_inurba_marseille","lat":43.33741,"lon":5.37471,"is_reserved":false,"is_disabled":false,"rental_uris":{"android":"levelo://app?vid=8d958c83-9b9f-4a5f-99e5-784608df87f7","ios":"levelo://app?vid=8d958c83-9b9f-4a5f-99e5-784608df87f7"},"vehicle_type_id":"4","last_reported":1733047753,"current_range_meters":36800,"station_id":"","pricing_plan_id":"cebpf4jnsgd1na2vs0mg"},{"bike_id":"3f7b6e4c-d82e-46c1-bef1-bc4cb7cd5d8c","system_id":"levelo_inurba_marseille","lat":43.29197,"lon":5.39324,"is_reserved":false,"is_disabled":false,"rental_uris":{"android":"levelo://app?vid=3f7b6e4c-d82e-46c1-bef1-bc4cb7cd5d8c","ios":"levelo://app?vid=3f7b6e4c-d82e-46c1-bef1-bc4cb7cd5d8c"},"vehicle_type_id":"4","last_reported":1733047753,"current_range_meters":37600,"station_id":"ce4bh192rcd13ifvqdd0","pricing_plan_id":"cebpf4jnsgd1na2vs0mg"},{"bike_id":"9e877546-5a12-4a58-8a21-89e298ef100c","system_id":"levelo_inurba_marseille","lat":43.30207,"lon":5.43777,"is_reserved":false,"is_disabled":false,"rental_uris":{"android":"levelo://app?vid=9e877546-5a12-4a58-8a21-89e298ef100c","ios":"levelo://app?vid=9e877546-5a12-4a58-8a21-89e298ef100c"},"vehicle_type_id":"4","last_reported":1733047753,"current_range_meters":3200,"station_id":"","pricing_plan_id":"cebpf4jnsgd1na2vs0mg"},{"bike_id":"ffee92d3-4119-470f-811e-5a167fe07917","system_id":"levelo_inurba_marseille","lat":43.33024,"lon":5.39041,"is_reserved":false,"is_disabled":false,"rental_uris":{"android":"levelo://app?vid=ffee92d3-4119-470f-811e-5a167fe07917","ios":"levelo://app?vid=ffee92d3-4119-470f-811e-5a167fe07917"},"vehicle_type_id":"4","last_reported":1733047753,"current_range_meters":38800,"station_id":"ce4bhr92rcd13ifvqhrg","pricing_plan_id":"cebpf4jnsgd1na2vs0mg"},{"bike_id":"92b65a36-260b-4c60-bd5b-3958e8f60f92","system_id":"levelo_inurba_marseille","lat":43.25498,"lon":5.37648,"is_reserved":false,"is_disabled":false,"rental_uris":{"android":"levelo://app?vid=92b65a36-260b-4c60-bd5b-3958e8f60f92","ios":"levelo://app?vid=92b65a36-260b-4c60-bd5b-3958e8f60f92"},"vehicle_type_id":"4","last_reported":1733047753,"current_range_meters":38000,"station_id":"ce4bhh12rcd13ifvqff0","pricing_plan_id":"cebpf4jnsgd1na2vs0mg"},{"bike_id":"102d1d6e-484b-4cf2-9633-e669083d9a2a","system_id":"levelo_inurba_marseille","lat":43.29779,"lon":5.37096,"is_reserved":false,"is_disabled":false,"rental_uris":{"android":"levelo://app?vid=102d1d6e-484b-4cf2-9633-e669083d9a2a","ios":"levelo://app?vid=102d1d6e-484b-4cf2-9633-e669083d9a2a"},"vehicle_type_id":"4","last_reported":1733047753,"current_range_meters":38800,"station_id":"ce4bgop2rcd13ifvqc1g","pricing_plan_id":"cebpf4jnsgd1na2vs0mg"},{"bike_id":"4f7d45ef-7d61-41e4-93ae-e39543ce3066","system_id":"levelo_inurba_marseille","lat":43.28034,"lon":5.36933,"is_reserved":false,"is_disabled":false,"rental_uris":{"android":"levelo://app?vid=4f7d45ef-7d61-41e4-93ae-e39543ce3066","ios":"levelo://app?vid=4f7d45ef-7d61-41e4-93ae-e39543ce3066"},"vehicle_type_id":"4","last_reported":1733047753,"current_range_meters":32800,"station_id":"ce4bha12rcd13ifvqef0","pricing_plan_id":"cebpf4jnsgd1na2vs0mg"},{"bike_id":"355209cb-cd04-4975-9152-b99706b2af1e","system_id":"levelo_inurba_marseille","lat":43.28844,"lon":5.39308,"is_reserved":false,"is_disabled":false,"rental_uris":{"android":"levelo://app?vid=355209cb-cd04-4975-9152-b99706b2af1e","ios":"levelo://app?vid=355209cb-cd04-4975-9152-b99706b2af1e"},"vehicle_type_id":"4","last_reported":1733047753,"current_range_meters":37600,"station_id":"ce4bh2p2rcd13ifvqdi0","pricing_plan_id":"cebpf4jnsgd1na2vs0mg"},