{"last_updated":1730715066,"ttl":60,"version":"2.2","data":{"bikes":[{"bike_id":"b586d36e-ce49-4645-b9cd-606adfe2e87d","system_id":"levelo_inurba_marseille","lat":43.30808,"lon":5.38164,"is_reserved":false,"is_disabled":false,"rental_uris":{"android":"levelo://app?vid=b586d36e-ce49-4645-b9cd-606adfe2e87d","ios":"levelo://app?vid=b586d36e-ce49-4645-b9cd-606adfe2e87d"},"vehicle_type_id":"4","last_reported":1730715066,"current_range_meters":14400,"station_id":"ce4bgt12rcd13ifvqce0","pricing_plan_id":"cebpf4jnsgd1na2vs0mg"},{"bike_id":"aa4a5991-c369-4626-972d-569a5885f560","system_id":"levelo_inurba_marseille","lat":43.30325,"lon":5.40471,"is_reserved":false,"is_disabled":false,"rental_uris":{"android":"levelo://app?vid=aa4a5991-c369-4626-972d-569a5885f560","ios":"levelo://app?vid=aa4a5991-c369-4626-972d-569a5885f560"},"vehicle_type_id":"4","last_reported":1730715066,"current_range_meters":6800,"station_id":"ce4bh012rcd13ifvqd10","pricing_plan_id":"cebpf4jnsgd1na2vs0mg"},{"bike_id":"9a7847e0-6ffa-4090-92ad-fd5e07263073","system_id":"levelo_inurba_marseille","lat":43.28158,"lon":5.42638,"is_reserved":false,"is_disabled":false,"rental_uris":{"android":"levelo://app?vid=9a7847e0-6ffa-4090-92ad-fd5e07263073","ios":"levelo://app?vid=9a7847e0-6ffa-4090-92ad-fd5e07263073"},"vehicle_type_id":"4","last_reported":1730715066,"current_range_meters":5600,"station_id":"ce4bhnh2rcd13ifvqgug","pricing_plan_id":"cebpf4jnsgd1na2vs0mg"},{"bike_id":"1d55fc4b-01cb-4281-8d42-6ea2a5d53a08","system_id":"levelo_inurba_marseille","lat":43.31365,"lon":5.38495,"is_reserved":false,"is_disabled":false,"rental_uris":{"android":"levelo://app?vid=1d55fc4b-01cb-4281-8d42-6ea2a5d53a08","ios":"levelo://app?vid=1d55fc4b-01cb-4281-8d42-6ea2a5d53a08"},"vehicle_type_id":"4","last_reported":1730715066,"current_range_meters":27600,"station_id":"ce4bgt92rcd13ifvqcf0","pricing_plan_id":"cebpf4jnsgd1na2vs0mg"},{"bike_id":"8fb6f5e5-9352-4a52-a752-980b1ca639d1","system_id":"levelo_inurba_marseille","lat":43.33606,"lon":5.41025,"is_reserved":false,"is_disabled":false,"rental_uris":{"android":"levelo://app?vid=8fb6f5e5-9352-4a52-a752-980b1ca639d1","ios":"levelo://app?vid=8fb6f5e5-9352-4a52-a752-980b1ca639d1"},"vehicle_type_id":"4","last_reported":1730715066,"current_range_meters":27600,"station_id":"ce4bhqh2rcd13ifvqhmg","pricing_plan_id":"cebpf4jnsgd1na2vs0mg"},{"bike_id":"32e0bd39-8846-4b8b-9ff5-b45ce87f8492","system_id":"levelo_inurba_marseille","lat":43.25944,"lon":5.40896,"is_reserved":false,"is_disabled":false,"rental_uris":{"android":"levelo://app?vid=32e0bd39-8846-4b8b-9ff5-b45ce87f8492","ios":"levelo://app?vid=32e0bd39-8846-4b8b-9ff5-b45ce87f8492"},"vehicle_type_id":"4","last_reported":1730715066,"current_range_meters":24000,"station_id":"ce4bhm92rcd13ifvqglg","pricing_plan_id":"cebpf4jnsgd1na2vs0mg"},{"bike_id":"b45d93e2-137e-40d9-b8b9-f9ceab009d23","system_id":"levelo_inurba_marseille","lat":43.24183,"lon":5.39734,"is_reserved":false,"is_disabled":false,"rental_uris":{"android":"levelo://app?vid=b45d93e2-137e-40d9-b8b9-f9ceab009d23","ios":"levelo://app?vid=b45d93e2-137e-40d9-b8b9-f9ceab009d23"},"vehicle_type_id":"4","last_reported":1730715066,"current_range_meters":38800,"station_id":"ce4bhn12rcd13ifvqgpg","pricing_plan_id":"cebpf4jnsgd1na2vs0mg"},{"bike_id":"23a8e268-b759-4997-95af-80a8eb1043b2","system_id":"levelo_inurba_marseille","lat":43.26497,"lon":5.39544,"is_reserved":false,"is_disabled":false,"rental_uris":{"android":"levelo://app?vid=23a8e268-b759-4997-95af-80a8eb1043b2","ios":"levelo://app?vid=23a8e268-b759-4997-95af-80a8eb1043b2"},"vehicle_type_id":"4","last_reported":1730715066,"current_range_meters":33600,"station_id":"ce4bhi12rcd13ifvqfq0","pricing_plan_id":"cebpf4jnsgd1na2vs0mg"},{"bike_id":"c7a51b24-0fab-4242-b11c-e03d2ff6fb2e","system_id":"levelo_inurba_marseille","lat":43.29023,"lon":5.3997,"is_reserved":false,"is_disabled":false,"rental_uris":{"android":"levelo://app?vid=c7a51b24-0fab-4242-b11c-e03d2ff6fb2e","ios":"levelo://app?vid=c7a51b24-0fab-4242-b11c-e03d2ff6fb2e"},"vehicle_type_id":"4","last_reported":1730715066,"current_range_meters":18000,"station_id":"ce4bh392rcd13ifvqdm0","pricing_plan_id":"cebpf4jnsgd1na2vs0mg"},{"bike_id":"19752ea2-9dc8-4cdf-8f95-54ed237911bd","system_id":"levelo_inurba_marseille","lat":43.29372,"lon":5.37838,"is_reserved":false,"is_disabled":false,"rental_uris":{"android":"levelo://app?vid=19752ea2-9dc8-4cdf-8f95-54ed237911bd","ios":"levelo://app?vid=19752ea2-9dc8-4cdf-8f95-54ed237911bd"},"vehicle_type_id":"4","last_reported":1730715066,"current_range_meters":31200,"station_id":"ce4bgjh2rcd13ifvqbf0","pricing_plan_id":"cebpf4jnsgd1na2vs0mg"},{"bike_id":"37c14f64-b8de-4bcf-822e-ff939133b996","system_id":"levelo_inurba_marseille","lat":43.24076,"lon":5.37754,"is_reserved":false,"is_disabled":false,"rental_uris":{"android":"levelo://app?vid=37c14f64-b8de-4bcf-822e-ff939133b996","ios":"levelo://app?vid=37c14f64-b8de-4bcf-822e-ff939133b996"},"vehicle_type_id":"4","last_reported":1730715066,"current_range_meters":20400,"station_id":"ce4bhnp2rcd13ifvqgvg","pricing_plan_id":"cebpf4jnsgd1na2vs0mg"},{"bike_id":"fd57cfbe-65d2-404b-90bd-28ce1e3e1db9","system_id":"levelo_inurba_marseille","lat":43.33606,"lon":5.41027,"is_reserved":false,"is_disabled":false,"rental_uris":{"android":"levelo://app?vid=fd57cfbe-65d2-404b-90bd-28ce1e3e1db9","ios":"levelo://app?vid=fd57cfbe-65d2-404b-90bd-28ce1e3e1db9"},"vehicle_type_id":"4","last_reported":1730715066,"current_range_meters":11200,"station_id":"ce4bhqh2rcd13ifvqhmg","pricing_plan_id":"cebpf4jnsgd1na2vs0mg"},{"bike_id":"3367b0d9-ce8d-4885-971b-3fc1140ee5c3","system_id":"levelo_inurba_marseille","lat":43.2695,"lon":5.38616,"is_reserved":false,"is_disabled":false,"rental_uris":{"android":"levelo://app?vid=3367b0d9-ce8d-4885-971b-3fc1140ee5c3","ios":"levelo://app?vid=3367b0d9-ce8d-4885-971b-3fc1140ee5c3"},"vehicle_type_id":"4","last_reported":1730715066,"current_range_meters":24000,"station_id":"ce4bhh92rcd13ifvqfh0","pricing_plan_id":"cebpf4jnsgd1na2vs0mg"},{"bike_id":"2a39fee9-2e1a-4506-90a5-52fa3c1e7f62","system_id":"levelo_inurba_marseille","lat":43.24079,"lon":5.37748,"is_reserved":false,"is_disabled":false,"rental_uris":{"android":"levelo://app?vid=2a39fee9-2e1a-4506-90a5-52fa3c1e7f62","ios":"levelo://app?vid=2a39fee9-2e1a-4506-90a5-52fa3c1e7f62"},"vehicle_type_id":"4","last_reported":1730715066,"current_range_meters":38000,"station_id":"ce4bhnp2rcd13ifvqgvg","pricing_plan_id":"cebpf4jnsgd1na2vs0mg"},{"bike_id":"13ce73ff-de39-4563-8ef2-5b5e2775bdeb","system_id":"levelo_inurba_marseille","lat":43.32532,"lon":5.41447,"is_reserved":false,"is_disabled":false,"rental_uris":{"android":"levelo://app?vid=13ce73ff-de39-4563-8ef2-5b5e2775bdeb","ios":"levelo://app?vid=13ce73ff-de39-4563-8ef2-5b5e2775bdeb"},"vehicle_type_id":"4","last_reported":1730715066,"current_range_meters":14800,"station_id":"ce4bhq12rcd13ifvqhhg","pricing_plan_id":"cebpf4jnsgd1na2vs0mg"},{"bike_id":"4147bbfb-4b14-4aca-b782-8ec6c0473609","system_id":"levelo_inurba_marseille","lat":43.23597,"lon":5.40357,"is_reserved":false,"is_disabled":false,"rental_uris":{"android":"levelo://app?vid=4147bbfb-4b14-4aca-b782-8ec6c0473609","ios":"levelo://app?vid=4147bbfb-4b14-4aca-b782-8ec6c0473609"},"vehicle_type_id":"4","last_reported":1730715066,"current_range_meters":16000,"station_id":"","pricing_plan_id":"cebpf4jnsgd1na2vs0mg"},{"bike_id":"70980a44-d60f-4b5e-882d-6b758a677d3e","system_id":"levelo_inurba_marseille","lat":43.27499,"lon":5.42442,"is_reserved":false,"is_disabled":false,"rental_uris":{"android":"levelo://app?vid=70980a44-d60f-4b5e-882d-6b758a677d3e","ios":"levelo://app?vid=70980a44-d60f-4b5e-882d-6b758a677d3e"},"vehicle_type_id":"4","last_reported":1730715066,"current_range_meters":9200,"station_id":"ce4bhn92rcd13ifvqgrg","pricing_plan_id":"cebpf4jnsgd1na2vs0mg"},{"bike_id":"6e98f531-8b62-494c-8221-6de21bb2512c","system_id":"levelo_inurba_marseille","lat":43.23158,"lon":5.43717,"is_reserved":false,"is_disabled":false,"rental_uris":{"android":"levelo://app?vid=6e98f531-8b62-494c-8221-6de21bb2512c","ios":"levelo://app?vid=6e98f531-8b62-494c-8221-6de21bb2512c"},"vehicle_type_id":"4","last_reported":1730715066,"current_range_meters":6800,"station_id":"ce4bhmp2rcd13ifvqgog","pricing_plan_id":"cebpf4jnsgd1na2vs0mg"},{"bike_id":"c3c4d41d-7148-4370-b749-aace2892e397","system_id":"levelo_inurba_marseille","lat":43.2315,"lon":5.43715,"is_reserved":false,"is_disabled":false,"rental_uris":{"android":"levelo://app?vid=c3c4d41d-7148-4370-b749-aace2892e397","ios":"levelo://app?vid=c3c4d41d-7148-4370-b749-aace2892e397"},"vehicle_type_id":"4","last_reported":1730715066,"current_range_meters":36400,"station_id":"ce4bhmp2rcd13ifvqgog","pricing_plan_id":"cebpf4jnsgd1na2vs0mg"},{"bike_id":"0d4d5bf6-795b-4382-9e63-c2e5027c000e","system_id":"levelo_inurba_marseille","lat":43.31236,"lon":5.36847,"is_reserved":false,"is_disabled":false,"rental_uris":{"android":"levelo://app?vid=0d4d5bf6-795b-4382-9e63-c2e5027c000e","ios":"levelo://app?vid=0d4d5bf6-795b-4382-9e63-c2e5027c000e"},"vehicle_type_id":"4","last_reported":1730715066,"current_range_meters":39200,"station_id":"ce4bgl92rcd13ifvqbq0","pricing_plan_id":"cebpf4jnsgd1na2vs0mg"},{"bike_id":"444c5960-1f6d-4e5e-8341-fce3ce90757f","system_id":"levelo_inurba_marseille","lat":43.29622,"lon":5.37171,"is_reserved":false,"is_disabled":false,"rental_uris":{"android":"levelo://app?vid=444c5960-1f6d-4e5e-8341-fce3ce90757f","ios":"levelo://app?vid=444c5960-1f6d-4e5e-8341-fce3ce90757f"},"vehicle_type_id":"4","last_reported":1730715066,"current_range_meters":30800,"station_id":"ce4bgnh2rcd13ifvqc0g","pricing_plan_id":"cebpf4jnsgd1na2vs0mg"},{"bike_id":"b97d9adc-ce60-4c39-8afd-921a04111eb6","system_id":"levelo_inurba_marseille","lat":43.34146,"lon":5.40897,"is_reserved":false,"is_disabled":false,"rental_uris":{"android":"levelo://app?vid=b97d9adc-ce60-4c39-8afd-921a04111eb6","ios":"levelo://app?vid=b97d9adc-ce60-4c39-8afd-921a04111eb6"},"vehicle_type_id":"4","last_reported":1730715066,"current_range_meters":38800,"station_id":"ce4bhqh2rcd13ifvqhlg","pricing_plan_id":"cebpf4jnsgd1na2vs0mg"},{"bike_id":"70fb30a5-5579-4fdc-b200-7b5805fb889f","system_id":"levelo_inurba_marseille","lat":43.30422,"lon":5.41285,"is_reserved":false,"is_disabled":false,"rental_uris":{"android":"levelo://app?vid=70fb30a5-5579-4fdc-b200-7b5805fb889f","ios":"levelo://app?vid=70fb30a5-5579-4fdc-b200-7b5805fb889f"},"vehicle_type_id":"4","last_reported":1730715066,"current_range_meters":22000,"station_id":"ce4bhop2rcd13ifvqh8g","pricing_plan_id":"cebpf4jnsgd1na2vs0mg"},{"bike_id":"f8676706-151e-428b-bc5c-68e7f8be586a","system_id":"levelo_inurba_marseille","lat":43.33612,"lon":5.41022,"is_reserved":false,"is_disabled":false,"rental_uris":{"android":"levelo://app?vid=f8676706-151e-428b-bc5c-68e7f8be586a","ios":"levelo://app?vid=f8676706-151e-428b-bc5c-68e7f8be586a"},"vehicle_type_id":"4","last_reported":1730715066,"current_range_meters":39200,"station_id":"ce4bhqh2rcd13ifvqhmg","pricing_plan_id":"cebpf4jnsgd1na2vs0mg"},{"bike_id":"31acf9d6-4f8f-4cd3-b26d-c19842d16d03","system_id":"levelo_inurba_marseille","lat":43.30522,"lon":5.36707,"is_reserved":false,"is_disabled":false,"rental_uris":{"android":"levelo://app?vid=31acf9d6-4f8f-4cd3-b26d-c19842d16d03","ios":"levelo://app?vid=31acf9d6-4f8f-4cd3-b26d-c19842d16d03"},"vehicle_type_id":"4","last_reported":1730715066,"current_range_meters":25600,"station_id":"ce4bgrp2rcd13ifvqc9g","pricing_plan_id":"cebpf4jnsgd1na2vs0mg"},{"bike_id":"c9cbc836-212b-45e1-bc73-5bb9b72afa8b","system_id":"levelo_inurba_marseille","lat":43.30333,"lon":5.40436,"is_reserved":false,"is_disabled":false,"rental_uris":{"android":"levelo://app?vid=c9cbc836-212b-45e1-bc73-5bb9b72afa8b","ios":"levelo://app?vid=c9cbc836-212b-45e1-bc73-5bb9b72afa8b"},"vehicle_type_id":"4","last_reported":1730715066,"current_range_meters":19200,"station_id":"ce4bh012rcd13ifvqd10","pricing_plan_id":"cebpf4jnsgd1na2vs0mg"},{"bike_id":"baea6945-ac3f-4195-a6a4-4b887db0844f","system_id":"levelo_inurba_marseille","lat":43.27071,"lon":5.42274,"is_reserved":false,"is_disabled":false,"rental_uris":{"android":"levelo://app?vid=baea6945-ac3f-4195-a6a4-4b887db0844f","ios":"levelo://app?vid=baea6945-ac3f-4195-a6a4-4b887db0844f"},"vehicle_type_id":"4","last_reported":1730715066,"current_range_meters":38000,"station_id":"ce4bhk92rcd13ifvqgb0","pricing_plan_id":"cebpf4jnsgd1na2vs0mg"},{"bike_id":"2378f453-72a7-4eb2-ab3b-946285d406fd","system_id":"levelo_inurba_marseille","lat":43.29226,"lon":5.37722,"is_reserved":false,"is_disabled":false,"rental_uris":{"android":"levelo://app?vid=2378f453-72a7-4eb2-ab3b-946285d406fd","ios":"levelo://app?vid=2378f453-72a7-4eb2-ab3b-946285d406fd"},"vehicle_type_id":"4","last_reported":1730715066,"current_range_meters":8800,"station_id":"","pricing_plan_id":"cebpf4jnsgd1na2vs0mg"},{"bike_id":"69c5828b-16b5-4e21-9a89-eb78828b437f","system_id":"levelo_inurba_marseille","lat":43.27067,"lon":5.42266,"is_reserved":false,"is_disabled":false,"rental_uris":{"android":"levelo://app?vid=69c5828b-16b5-4e21-9a89-eb78828b437f","ios":"levelo://app?vid=69c5828b-16b5-4e21-9a89-eb78828b437f"},"vehicle_type_id":"4","last_reported":1730715066,"current_range_meters":33600,"station_id":"ce4bhk92rcd13ifvqgb0","pricing_plan_id":"cebpf4jnsgd1na2vs0mg"},{"bike_id":"f65a5750-8f48-47e1-a4f3-7a0755ef340d","system_id":"levelo_inurba_marseille","lat":43.33759,"lon":5.37441,"is_reserved":false,"is_disabled":false,"rental_uris":{"android":"levelo://app?vid=f65a5750-8f48-47e1-a4f3-7a0755ef340d","ios":"levelo://app?vid=f65a5750-8f48-47e1-a4f3-7a0755ef340d"},"vehicle_type_id":"4","last_reported":1730715066,"current_range_meters":27200,"station_id":"","pricing_plan_id":"cebpf4jnsgd1na2vs0mg"},{"bike_id":"14792c36-645f-4c2a-b394-bf0eeaac67a9","system_id":"levelo_inurba_marseille","lat":43.24081,"lon":5.37749,"is_reserved":false,"is_disabled":false,"rental_uris":{"android":"levelo://app?vid=14792c36-645f-4c2a-b394-bf0eeaac67a9","ios":"levelo://app?vid=14792c36-645f-4c2a-b394-bf0eeaac67a9"},"vehicle_type_id":"4","last_reported":1730715066,"current_range_meters":25200,"station_id":"ce4bhnp2rcd13ifvqgvg","pricing_plan_id":"cebpf4jnsgd1na2vs0mg"},{"bike_id":"61dbaa79-fb29-4ce6-ad78-01486dfbbfff","system_id":"levelo_inurba_marseille","lat":43.23973,"lon":5.36619,"is_reserved":false,"is_disabled":false,"rental_uris":{"android":"levelo://app?vid=61dbaa79-fb29-4ce6-ad78-01486dfbbfff","ios":"levelo://app?vid=61dbaa79-fb29-4ce6-ad78-01486dfbbfff"},"vehicle_type_id":"4","last_reported":1730715066,"current_range_meters":38800,"station_id":"ce4bhi12rcd13ifvqfp0","pricing_plan_id":"cebpf4jnsgd1na2vs0mg"},{"bike_id":"8d1b79fc-650a-4f5e-aa51-c63e111832ad","system_id":"levelo_inurba_marseille","lat":43.31893,"lon":5.40729,"is_reserved":false,"is_disabled":false,"rental_uris":{"android":"levelo://app?vid=8d1b79fc-650a-4f5e-aa51-c63e111832ad","ios":"levelo://app?vid=8d1b79fc-650a-4f5e-aa51-c63e111832ad"},"vehicle_type_id":"4","last_reported":1730715066,"current_range_meters":17200,"station_id":"ce4bhq12rcd13ifvqhig","pricing_plan_id":"cebpf4jnsgd1na2vs0mg"},{"bike_id":"61955b30-75ec-462d-8192-e4ca8836731f","system_id":"levelo_inurba_marseille","lat":43.30281,"lon":5.39444,"is_reserved":false,"is_disabled":false,"rental_uris":{"android":"levelo://app?vid=61955b30-75ec-462d-8192-e4ca8836731f","ios":"levelo://app?vid=61955b30-75ec-462d-8192-e4ca8836731f"},"vehicle_type_id":"4","last_reported":1730715066,"current_range_meters":38800,"station_id":"ce4bh0h2rcd13ifvqd40","pricing_plan_id":"cebpf4jnsgd1na2vs0mg"},{"bike_id":"3bd62d41-958b-4c0c-872c-6a72b57371ab","system_id":"levelo_inurba_marseille","lat":43.2407,"lon":5.3776,"is_reserved":false,"is_disabled":false,"rental_uris":{"android":"levelo://app?vid=3bd62d41-958b-4c0c-872c-6a72b57371ab","ios":"levelo://app?vid=3bd62d41-958b-4c0c-872c-6a72b57371ab"},"vehicle_type_id":"4","last_reported":1730715066,"current_range_meters":25200,"station_id":"ce4bhnp2rcd13ifvqgvg","pricing_plan_id":"cebpf4jnsgd1na2vs0mg"},{"bike_id":"b8c6da7c-66b0-4441-a8f2-3198c852a6dc","system_id":"levelo_inurba_marseille","lat":43.28716,"lon":5.37935,"is_reserved":false,"is_disabled":false,"rental_uris":{"android":"levelo://app?vid=b8c6da7c-66b0-4441-a8f2-3198c852a6dc","ios":"levelo://app?vid=b8c6da7c-66b0-4441-a8f2-3198c852a6dc"},"vehicle_type_id":"4","last_reported":1730715066,"current_range_meters":27200,"station_id":"ce4bh9p2rcd13ifvqec0","pricing_plan_id":"cebpf4jnsgd1na2vs0mg"},{"bike_id":"dbaee213-8369-49f1-935e-faaf8a60f54c","system_id":"levelo_inurba_marseille","lat":43.30534,"lon":5.36699,"is_reserved":false,"is_disabled":false,"rental_uris":{"android":"levelo://app?vid=dbaee213-8369-49f1-935e-faaf8a60f54c","ios":"levelo://app?vid=dbaee213-8369-49f1-935e-faaf8a60f54c"},"vehicle_type_id":"4","last_reported":1730715066,"current_range_meters":32800,"station_id":"ce4bgrp2rcd13ifvqc9g","pricing_plan_id":"cebpf4jnsgd1na2vs0mg"},{"bike_id":"ee3491d6-1283-4674-8d06-a31fd64723e2","system_id":"levelo_inurba_marseille","lat":43.26202,"lon":5.37931,"is_reserved":false,"is_disabled":false,"rental_uris":{"android":"levelo://app?vid=ee3491d6-1283-4674-8d06-a31fd64723e2","ios":"levelo://app?vid=ee3491d6-1283-4674-8d06-a31fd64723e2"},"vehicle_type_id":"4","last_reported":1730715066,"current_range_meters":10000,"station_id":"ce4bhjp2rcd13ifvqg90","pricing_plan_id":"cebpf4jnsgd1na2vs0mg"},{"bike_id":"5f182c0f-58e8-4d44-8169-760b9016320b","system_id":"levelo_inurba_marseille","lat":43.28153,"lon":5.42643,"is_reserved":false,"is_disabled":false,"rental_uris":{"android":"levelo://app?vid=5f182c0f-58e8-4d44-8169-760b9016320b","ios":"levelo://app?vid=5f182c0f-58e8-4d44-8169-760b9016320b"},"vehicle_type_id":"4","last_reported":1730715066,"current_range_meters":30000,"station_id":"ce4bhnh2rcd13ifvqgug","pricing_plan_id":"cebpf4jnsgd1na2vs0mg"},{"bike_id":"729ed762-2084-40cb-ba5b-e8d2d89903cd","system_id":"levelo_inurba_marseille","lat":43.25934,"lon":5.40921,"is_reserved":false,"is_disabled":false,"rental_uris":{"android":"levelo://app?vid=729ed762-2084-40cb-ba5b-e8d2d89903cd","ios":"levelo://app?vid=729ed762-2084-40cb-ba5b-e8d2d89903cd"},"vehicle_type_id":"4","last_reported":1730715066,"current_range_meters":18800,"station_id":"ce4bhm92rcd13ifvqglg","pricing_plan_id":"cebpf4jnsgd1na2vs0mg"},{"bike_id":"505621c8-f572-4e54-9efa-b66e6eed7712","system_id":"levelo_inurba_marseille","lat":43.30129,"lon":5.39839,"is_reserved":false,"is_disabled":false,"rental_uris":{"android":"levelo://app?vid=505621c8-f572-4e54-9efa-b66e6eed7712","ios":"levelo://app?vid=505621c8-f572-4e54-9efa-b66e6eed7712"},"vehicle_type_id":"4","last_reported":1730715066,"current_range_meters":6000,"station_id":"ce4bh0h2rcd13ifvqd40","pricing_plan_id":"cebpf4jnsgd1na2vs0mg"},{"bike_id":"1f426912-0a52-4bca-b2ca-60a7d9494c81","system_id":"levelo_inurba_marseille","lat":43.29608,"lon":5.37712,"is_reserved":false,"is_disabled":false,"rental_uris":{"android":"levelo://app?vid=1f426912-0a52-4bca-b2ca-60a7d9494c81","ios":"levelo://app?vid=1f426912-0a52-4bca-b2ca-60a7d9494c81"},"vehicle_type_id":"4","last_reported":1730715066,"current_range_meters":34800,"station_id":"ce4bgi92rcd13ifvqb90","pricing_plan_id":"cebpf4jnsgd1na2vs0mg"},{"bike_id":"6773b473-5ca0-41b3-8986-273b1e9c8956","system_id":"levelo_inurba_marseille","lat":43.30551,"lon":5.36692,"is_reserved":false,"is_disabled":false,"rental_uris":{"android":"levelo://app?vid=6773b473-5ca0-41b3-8986-273b1e9c8956","ios":"levelo://app?vid=6773b473-5ca0-41b3-8986-273b1e9c8956"},"vehicle_type_id":"4","last_reported":1730715066,"current_range_meters":38000,"station_id":"ce4bgrp2rcd13ifvqc9g","pricing_plan_id":"cebpf4jnsgd1na2vs0mg"},{"bike_id":"2cb89906-0d20-4044-a2d1-4beca852b088","system_id":"levelo_inurba_marseille","lat":43.285713,"lon":5.394966,"is_reserved":false,"is_disabled":false,"rental_uris":{"android":"levelo://app?vid=2cb89906-0d20-4044-a2d1-4beca852b088","ios":"levelo://app?vid=2cb89906-0d20-4044-a2d1-4beca852b088"},"vehicle_type_id":"4","last_reported":1730715066,"current_range_meters":34800,"station_id":"ce4bh292rcd13ifvqdg0","pricing_plan_id":"cebpf4jnsgd1na2vs0mg"},{"bike_id":"6257c3e9-db65-483b-845c-aa1296813a0e","system_id":"levelo_inurba_marseille","lat":43.30282,"lon":5.37695,"is_reserved":false,"is_disabled":false,"rental_uris":{"android":"levelo://app?vid=6257c3e9-db65-483b-845c-aa1296813a0e","ios":"levelo://app?vid=6257c3e9-db65-483b-845c-aa1296813a0e"},"vehicle_type_id":"4","last_reported":1730715066,"current_range_meters":29600,"station_id":"ce4bguh2rcd13ifvqcj0","pricing_plan_id":"cebpf4jnsgd1na2vs0mg"},{"bike_id":"1e1a1502-5c9b-4c7b-abea-9d3c67aa8800","system_id":"levelo_inurba_marseille","lat":43.2621,"lon":5.37442,"is_reserved":false,"is_disabled":false,"rental_uris":{"android":"levelo://app?vid=1e1a1502-5c9b-4c7b-abea-9d3c67aa8800","ios":"levelo://app?vid=1e1a1502-5c9b-4c7b-abea-9d3c67aa8800"},"vehicle_type_id":"4","last_reported":1730715066,"current_range_meters":7200,"station_id":"ce4bhgp2rcd13ifvqfc0","pricing_plan_id":"cebpf4jnsgd1na2vs0mg"},{"bike_id":"6e6f830f-6242-4b2b-a89c-3de5e0bea1a2","system_id":"levelo_inurba_marseille","lat":43.31354,"lon":5.38493,"is_reserved":false,"is_disabled":false,"rental_uris":{"android":"levelo://app?vid=6e6f830f-6242-4b2b-a89c-3de5e0bea1a2","ios":"levelo://app?vid=6e6f830f-6242-4b2b-a89c-3de5e0bea1a2"},"vehicle_type_id":"4","last_reported":1730715066,"current_range_meters":21600,"station_id":"ce4bgt92rcd13ifvqcf0","pricing_plan_id":"cebpf4jnsgd1na2vs0mg"},{"bike_id":"bfb4e9f1-502b-4eee-ad84-0c905afe5629","system_id":"levelo_inurba_marseille","lat":43.32488,"lon":5.3656,"is_reserved":false,"is_disabled":false,"rental_uris":{"android":"levelo://app?vid=bfb4e9f1-502b-4eee-ad84-0c905afe5629","ios":"levelo://app?vid=bfb4e9f1-502b-4eee-ad84-0c905afe5629"},"vehicle_type_id":"4","last_reported":1730715066,"current_range_meters":29600,"station_id":"ce4bhs12rcd13ifvqhvg","pricing_plan_id":"cebpf4jnsgd1na2vs0mg"},{"bike_id":"91ab9f3e-0a6a-433c-b133-3a29425ab881","system_id":"levelo_inurba_marseille","lat":43.30283,"lon":5.37697,"is_reserved":false,"is_disabled":false,"rental_uris":{"android":"levelo://app?vid=91ab9f3e-0a6a-433c-b133-3a29425ab881","ios":"levelo://app?vid=91ab9f3e-0a6a-433c-b133-3a29425ab881"},"vehicle_type_id":"4","last_reported":1730715066,"current_range_meters":38800,"station_id":"ce4bguh2rcd13ifvqcj0","pricing_plan_id":"cebpf4jnsgd1na2vs0mg"},{"bike_id":"8630f5de-2383-4f92-941a-886eaad5302f","system_id":"levelo_inurba_marseille","lat":43.26502,"lon":5.39532,"is_reserved":false,"is_disabled":false,"rental_uris":{"android":"levelo://app?vid=8630f5de-2383-4f92-941a-886eaad5302f","ios":"levelo://app?vid=8630f5de-2383-4f92-941a-886eaad5302f"},"vehicle_type_id":"4","last_reported":1730715066,"current_range_meters":20000,"station_id":"ce4bhi12rcd13ifvqfq0","pricing_plan_id":"cebpf4jnsgd1na2vs0mg"},{"bike_id":"7fa9e0db-d5db-4e00-9bab-71088473e9a3","system_id":"levelo_inurba_marseille","lat":43.28352,"lon":5.38102,"is_reserved":false,"is_disabled":false,"rental_uris":{"android":"levelo://app?vid=7fa9e0db-d5db-4e00-9bab-71088473e9a3","ios":"levelo://app?vid=7fa9e0db-d5db-4e00-9bab-71088473e9a3"},"vehicle_type_id":"4","last_reported":1730715066,"current_range_meters":30400,"station_id":"ce4bh412rcd13ifvqdr0","pricing_plan_id":"cebpf4jnsgd1na2vs0mg"},{"bike_id":"fcda431b-00f7-4fd8-bb18-897981fe927f","system_id":"levelo_inurba_marseille","lat":43.26679,"lon":5.38263,"is_reserved":false,"is_disabled":false,"rental_uris":{"android":"levelo://app?vid=fcda431b-00f7-4fd8-bb18-897981fe927f","ios":"levelo://app?vid=fcda431b-00f7-4fd8-bb18-897981fe927f"},"vehicle_type_id":"4","last_reported":1730715066,"current_range_meters":37600,"station_id":"ce4bhg92rcd13ifvqf90","pricing_plan_id":"cebpf4jnsgd1na2vs0mg"},{"bike_id":"da06faf3-8146-4200-88f2-9af71dcd839e","system_id":"levelo_inurba_marseille","lat":43.26676,"lon":5.38274,"is_reserved":false,"is_disabled":false,"rental_uris":{"android":"levelo://app?vid=da06faf3-8146-4200-88f2-9af71dcd839e","ios":"levelo://app?vid=da06faf3-8146-4200-88f2-9af71dcd839e"},"vehicle_type_id":"4","last_reported":1730715066,"current_range_meters":36800,"station_id":"ce4bhg92rcd13ifvqf90","pricing_plan_id":"cebpf4jnsgd1na2vs0mg"},{"bike_id":"8d0bafa5-3e07-4a4f-ab05-9bc750c7af39","system_id":"levelo_inurba_marseille","lat":43.30781,"lon":5.37648,"is_reserved":false,"is_disabled":false,"rental_uris":{"android":"levelo://app?vid=8d0bafa5-3e07-4a4f-ab05-9bc750c7af39","ios":"levelo://app?vid=8d0bafa5-3e07-4a4f-ab05-9bc750c7af39"},"vehicle_type_id":"4","last_reported":1730715066,"current_range_meters":28400,"station_id":"ce4bgv92rcd13ifvqcq0","pricing_plan_id":"cebpf4jnsgd1na2vs0mg"},{"bike_id":"91bac80f-c7f6-4f09-a522-ca90aa8acd88","system_id":"levelo_inurba_marseille","lat":43.29978,"lon":5.38478,"is_reserved":false,"is_disabled":false,"rental_uris":{"android":"levelo://app?vid=91bac80f-c7f6-4f09-a522-ca90aa8acd88","ios":"levelo://app?vid=91bac80f-c7f6-4f09-a522-ca90aa8acd88"},"vehicle_type_id":"4","last_reported":1730715066,"current_range_meters":37600,"station_id":"ce4bgj92rcd13ifvqbd0","pricing_plan_id":"cebpf4jnsgd1na2vs0mg"},{"bike_id":"d9b13aff-b16e-4abb-a7a0-e1af1f6b59f9","system_id":"levelo_inurba_marseille","lat":43.26561,"lon":5.38989,"is_reserved":false,"is_disabled":false,"rental_uris":{"android":"levelo://app?vid=d9b13aff-b16e-4abb-a7a0-e1af1f6b59f9","ios":"levelo://app?vid=d9b13aff-b16e-4abb-a7a0-e1af1f6b59f9"},"vehicle_type_id":"4","last_reported":1730715066,"current_range_meters":20400,"station_id":"ce4bhe12rcd13ifvqf30","pricing_plan_id":"cebpf4jnsgd1na2vs0mg"},{"bike_id":"a1022dd0-4012-4c5a-8d7b-dff970082031","system_id":"levelo_inurba_marseille","lat":43.26951,"lon":5.38633,"is_reserved":false,"is_disabled":false,"rental_uris":{"android":"levelo://app?vid=a1022dd0-4012-4c5a-8d7b-dff970082031","ios":"levelo://app?vid=a1022dd0-4012-4c5a-8d7b-dff970082031"},"vehicle_type_id":"4","last_reported":1730715066,"current_range_meters":6400,"station_id":"ce4bhh92rcd13ifvqfh0","pricing_plan_id":"cebpf4jnsgd1na2vs0mg"},{"bike_id":"7f823f81-0de8-4399-ac99-85f8a1cd0193","system_id":"levelo_inurba_marseille","lat":43.26958,"lon":5.3862,"is_reserved":false,"is_disabled":false,"rental_uris":{"android":"levelo://app?vid=7f823f81-0de8-4399-ac99-85f8a1cd0193","ios":"levelo://app?vid=7f823f81-0de8-4399-ac99-85f8a1cd0193"},"vehicle_type_id":"4","last_reported":1730715066,"current_range_meters":35200,"station_id":"ce4bhh92rcd13ifvqfh0","pricing_plan_id":"cebpf4jnsgd1na2vs0mg"},{"bike_id":"7ce77be2-28e6-467f-9494-16f057502bba","system_id":"levelo_inurba_marseille","lat":43.28153,"lon":5.42632,"is_reserved":false,"is_disabled":false,"rental_uris":{"android":"levelo://app?vid=7ce77be2-28e6-467f-9494-16f057502bba","ios":"levelo://app?vid=7ce77be2-28e6-467f-9494-16f057502bba"},"vehicle_type_id":"4","last_reported":1730715066,"current_range_meters":29600,"station_id":"ce4bhnh2rcd13ifvqgug","pricing_plan_id":"cebpf4jnsgd1na2vs0mg"},{"bike_id":"c8fe287c-8773-492c-bff9-8bcf9d982888","system_id":"levelo_inurba_marseille","lat":43.31347,"lon":5.36708,"is_reserved":false,"is_disabled":false,"rental_uris":{"android":"levelo://app?vid=c8fe287c-8773-492c-bff9-8bcf9d982888","ios":"levelo://app?vid=c8fe287c-8773-492c-bff9-8bcf9d982888"},"vehicle_type_id":"4","last_reported":1730715066,"current_range_meters":27200,"station_id":"ce4bgr92rcd13ifvqc6g","pricing_plan_id":"cebpf4jnsgd1na2vs0mg"},{"bike_id":"5a9508a0-ffb8-440d-8e57-b079acad0af1","system_id":"levelo_inurba_marseille","lat":43.27491,"lon":5.42451,"is_reserved":false,"is_disabled":false,"rental_uris":{"android":"levelo://app?vid=5a9508a0-ffb8-440d-8e57-b079acad0af1","ios":"levelo://app?vid=5a9508a0-ffb8-440d-8e57-b079acad0af1"},"vehicle_type_id":"4","last_reported":1730715066,"current_range_meters":8000,"station_id":"ce4bhn92rcd13ifvqgrg","pricing_plan_id":"cebpf4jnsgd1na2vs0mg"},{"bike_id":"e634d99d-8489-4714-8436-0d24deb573c2","system_id":"levelo_inurba_marseille","lat":43.30134,"lon":5.39866,"is_reserved":false,"is_disabled":false,"rental_uris":{"android":"levelo://app?vid=e634d99d-8489-4714-8436-0d24deb573c2","ios":"levelo://app?vid=e634d99d-8489-4714-8436-0d24deb573c2"},"vehicle_type_id":"4","last_reported":1730715066,"current_range_meters":12000,"station_id":"ce4bh0h2rcd13ifvqd40","pricing_plan_id":"cebpf4jnsgd1na2vs0mg"},{"bike_id":"fa40f091-6067-48f8-a967-aeb74b2ceea5","system_id":"levelo_inurba_marseille","lat":43.28715,"lon":5.37936,"is_reserved":false,"is_disabled":false,"rental_uris":{"android":"levelo://app?vid=fa40f091-6067-48f8-a967-aeb74b2ceea5","ios":"levelo://app?vid=fa40f091-6067-48f8-a967-aeb74b2ceea5"},"vehicle_type_id":"4","last_reported":1730715066,"current_range_meters":32400,"station_id":"ce4bh9p2rcd13ifvqec0","pricing_plan_id":"cebpf4jnsgd1na2vs0mg"},{"bike_id":"496d1592-f444-4219-9dc2-55373938e639","system_id":"levelo_inurba_marseille","lat":43.28149,"lon":5.42627,"is_reserved":false,"is_disabled":false,"rental_uris":{"android":"levelo://app?vid=496d1592-f444-4219-9dc2-55373938e639","ios":"levelo://app?vid=496d1592-f444-4219-9dc2-55373938e639"},"vehicle_type_id":"4","last_reported":1730715066,"current_range_meters":35600,"station_id":"ce4bhnh2rcd13ifvqgug","pricing_plan_id":"cebpf4jnsgd1na2vs0mg"},{"bike_id":"a00d593c-4c7a-4d12-adbe-01c899ca408a","system_id":"levelo_inurba_marseille","lat":43.27894,"lon":5.37997,"is_reserved":false,"is_disabled":false,"rental_uris":{"android":"levelo://app?vid=a00d593c-4c7a-4d12-adbe-01c899ca408a","ios":"levelo://app?vid=a00d593c-4c7a-4d12-adbe-01c899ca408a"},"vehicle_type_id":"4","last_reported":1730715066,"current_range_meters":38000,"station_id":"ce4bhf92rcd13ifvqf50","pricing_plan_id":"cebpf4jnsgd1na2vs0mg"},{"bike_id":"9dc3374b-0b85-4a8b-88a8-db8ad8f687c8","system_id":"levelo_inurba_marseille","lat":43.24075,"lon":5.3774,"is_reserved":false,"is_disabled":false,"rental_uris":{"android":"levelo://app?vid=9dc3374b-0b85-4a8b-88a8-db8ad8f687c8","ios":"levelo://app?vid=9dc3374b-0b85-4a8b-88a8-db8ad8f687c8"},"vehicle_type_id":"4","last_reported":1730715066,"current_range_meters":12000,"station_id":"ce4bhnp2rcd13ifvqgvg","pricing_plan_id":"cebpf4jnsgd1na2vs0mg"},{"bike_id":"ef91460b-fafc-46be-9d84-f66d7fe91567","system_id":"levelo_inurba_marseille","lat":43.24071,"lon":5.37759,"is_reserved":false,"is_disabled":false,"rental_uris":{"android":"levelo://app?vid=ef91460b-fafc-46be-9d84-f66d7fe91567","ios":"levelo://app?vid=ef91460b-fafc-46be-9d84-f66d7fe91567"},"vehicle_type_id":"4","last_reported":1730715066,"current_range_meters":30000,"station_id":"ce4bhnp2rcd13ifvqgvg","pricing_plan_id":"cebpf4jnsgd1na2vs0mg"},{"bike_id":"c6e847b9-0da7-4220-baaf-b696661d2f92","system_id":"levelo_inurba_marseille","lat":43.30152,"lon":5.37427,"is_reserved":false,"is_disabled":false,"rental_uris":{"android":"levelo://app?vid=c6e847b9-0da7-4220-baaf-b696661d2f92","ios":"levelo://app?vid=c6e847b9-0da7-4220-baaf-b696661d2f92"},"vehicle_type_id":"4","last_reported":1730715066,"current_range_meters":23200,"station_id":"ce4bgs92rcd13ifvqcc0","pricing_plan_id":"cebpf4jnsgd1na2vs0mg"},{"bike_id":"641f6c86-cb12-4318-bde4-1c8be0f10334","system_id":"levelo_inurba_marseille","lat":43.337444,"lon":5.374475,"is_reserved":false,"is_disabled":false,"rental_uris":{"android":"levelo://app?vid=641f6c86-cb12-4318-bde4-1c8be0f10334","ios":"levelo://app?vid=641f6c86-cb12-4318-bde4-1c8be0f10334"},"vehicle_type_id":"4","last_reported":1730715066,"current_range_meters":17600,"station_id":"ce4bgqh2rcd13ifvqc4g","pricing_plan_id":"cebpf4jnsgd1na2vs0mg"},{"bike_id":"b922572a-dcbd-4d6d-933a-e448369bf48e","system_id":"levelo_inurba_marseille","lat":43.289124,"lon":5.362601,"is_reserved":false,"is_disabled":false,"rental_uris":{"android":"levelo://app?vid=b922572a-dcbd-4d6d-933a-e448369bf48e","ios":"levelo://app?vid=b922572a-dcbd-4d6d-933a-e448369bf48e"},"vehicle_type_id":"4","last_reported":1730715066,"current_range_meters":32000,"station_id":"ce4bhc92rcd13ifvqetg","pricing_plan_id":"cebpf4jnsgd1na2vs0mg"},{"bike_id":"4501f38e-eed1-4921-871d-67b7fe3c27cc","system_id":"levelo_inurba_marseille","lat":43.29615,"lon":5.37723,"is_reserved":false,"is_disabled":false,"rental_uris":{"android":"levelo://app?vid=4501f38e-eed1-4921-871d-67b7fe3c27cc","ios":"levelo://app?vid=4501f38e-eed1-4921-871d-67b7fe3c27cc"},"vehicle_type_id":"4","last_reported":1730715066,"current_range_meters":38000,"station_id":"ce4bgi92rcd13ifvqb90","pricing_plan_id":"cebpf4jnsgd1na2vs0mg"},{"bike_id":"edd6181d-02cf-49c3-8386-d50835f0a5d1","system_id":"levelo_inurba_marseille","lat":43.29714,"lon":5.37689,"is_reserved":false,"is_disabled":false,"rental_uris":{"android":"levelo://app?vid=edd6181d-02cf-49c3-8386-d50835f0a5d1","ios":"levelo://app?vid=edd6181d-02cf-49c3-8386-d50835f0a5d1"},"vehicle_type_id":"4","last_reported":1730715066,"current_range_meters":28000,"station_id":"ce4bgkh2rcd13ifvqbl0","pricing_plan_id":"cebpf4jnsgd1na2vs0mg"},{"bike_id":"29aa3fae-0afc-4610-bec7-b8ecd82301a8","system_id":"levelo_inurba_marseille","lat":43.31083,"lon":5.42429,"is_reserved":false,"is_disabled":false,"rental_uris":{"android":"levelo://app?vid=29aa3fae-0afc-4610-bec7-b8ecd82301a8","ios":"levelo://app?vid=29aa3fae-0afc-4610-bec7-b8ecd82301a8"},"vehicle_type_id":"4","last_reported":1730715066,"current_range_meters":35600,"station_id":"ce4bhp92rcd13ifvqhag","pricing_plan_id":"cebpf4jnsgd1na2vs0mg"},{"bike_id":"ca05696c-7616-416c-bade-67c722f005a6","system_id":"levelo_inurba_marseille","lat":43.28105,"lon":5.37835,"is_reserved":false,"is_disabled":false,"rental_uris":{"android":"levelo://app?vid=ca05696c-7616-416c-bade-67c722f005a6","ios":"levelo://app?vid=ca05696c-7616-416c-bade-67c722f005a6"},"vehicle_type_id":"4","last_reported":1730715066,"current_range_meters":38400,"station_id":"ce4bha12rcd13ifvqee0","pricing_plan_id":"cebpf4jnsgd1na2vs0mg"},{"bike_id":"3a38eb60-07fa-498b-8680-f7a2deecf1cc","system_id":"levelo_inurba_marseille","lat":43.27182,"lon":5.40985,"is_reserved":false,"is_disabled":false,"rental_uris":{"android":"levelo://app?vid=3a38eb60-07fa-498b-8680-f7a2deecf1cc","ios":"levelo://app?vid=3a38eb60-07fa-498b-8680-f7a2deecf1cc"},"vehicle_type_id":"4","last_reported":1730715066,"current_range_meters":28400,"station_id":"ce4bhl12rcd13ifvqgf0","pricing_plan_id":"cebpf4jnsgd1na2vs0mg"},{"bike_id":"b68d6422-f1ad-46b9-b257-35e69ef59c6c","system_id":"levelo_inurba_marseille","lat":43.30913,"lon":5.36849,"is_reserved":false,"is_disabled":false,"rental_uris":{"android":"levelo://app?vid=b68d6422-f1ad-46b9-b257-35e69ef59c6c","ios":"levelo://app?vid=b68d6422-f1ad-46b9-b257-35e69ef59c6c"},"vehicle_type_id":"4","last_reported":1730715066,"current_range_meters":29600,"station_id":"ce4bgn92rcd13ifvqbvg","pricing_plan_id":"cebpf4jnsgd1na2vs0mg"},{"bike_id":"d4472d20-9c4b-4c70-ad00-3a005519a429","system_id":"levelo_inurba_marseille","lat":43.35385,"lon":5.35726,"is_reserved":false,"is_disabled":false,"rental_uris":{"android":"levelo://app?vid=d4472d20-9c4b-4c70-ad00-3a005519a429","ios":"levelo://app?vid=d4472d20-9c4b-4c70-ad00-3a005519a429"},"vehicle_type_id":"4","last_reported":1730715066,"current_range_meters":9600,"station_id":"","pricing_plan_id":"cebpf4jnsgd1na2vs0mg"},{"bike_id":"4bd01789-c771-47ac-86c8-73b3d5706e40","system_id":"levelo_inurba_marseille","lat":43.25935,"lon":5.40911,"is_reserved":false,"is_disabled":false,"rental_uris":{"android":"levelo://app?vid=4bd01789-c771-47ac-86c8-73b3d5706e40","ios":"levelo://app?vid=4bd01789-c771-47ac-86c8-73b3d5706e40"},"vehicle_type_id":"4","last_reported":1730715066,"current_range_meters":32800,"station_id":"ce4bhm92rcd13ifvqglg","pricing_plan_id":"cebpf4jnsgd1na2vs0mg"},{"bike_id":"912e0a3f-207a-4c5b-b2b7-675e07ddaafd","system_id":"levelo_inurba_marseille","lat":43.30553,"lon":5.36532,"is_reserved":false,"is_disabled":false,"rental_uris":{"android":"levelo://app?vid=912e0a3f-207a-4c5b-b2b7-675e07ddaafd","ios":"levelo://app?vid=912e0a3f-207a-4c5b-b2b7-675e07ddaafd"},"vehicle_type_id":"4","last_reported":1730715066,"current_range_meters":38000,"station_id":"ce4bgs12rcd13ifvqcag","pricing_plan_id":"cebpf4jnsgd1na2vs0mg"},{"bike_id":"c09a7329-74d9-48dd-a3d8-26a52258e13f","system_id":"levelo_inurba_marseille","lat":43.23151,"lon":5.43714,"is_reserved":false,"is_disabled":false,"rental_uris":{"android":"levelo://app?vid=c09a7329-74d9-48dd-a3d8-26a52258e13f","ios":"levelo://app?vid=c09a7329-74d9-48dd-a3d8-26a52258e13f"},"vehicle_type_id":"4","last_reported":1730715066,"current_range_meters":8000,"station_id":"ce4bhmp2rcd13ifvqgog","pricing_plan_id":"cebpf4jnsgd1na2vs0mg"},{"bike_id":"b934fcd8-e051-4247-b318-9e132267edf8","system_id":"levelo_inurba_marseille","lat":43.3122,"lon":5.36827,"is_reserved":false,"is_disabled":false,"rental_uris":{"android":"levelo://app?vid=b934fcd8-e051-4247-b318-9e132267edf8","ios":"levelo://app?vid=b934fcd8-e051-4247-b318-9e132267edf8"},"vehicle_type_id":"4","last_reported":1730715066,"current_range_meters":12000,"station_id":"ce4bgl92rcd13ifvqbq0","pricing_plan_id":"cebpf4jnsgd1na2vs0mg"},{"bike_id":"255a3061-1362-41f1-8c13-ee9fca9da59e","system_id":"levelo_inurba_marseille","lat":43.337444,"lon":5.374475,"is_reserved":false,"is_disabled":false,"rental_uris":{"android":"levelo://app?vid=255a3061-1362-41f1-8c13-ee9fca9da59e","ios":"levelo://app?vid=255a3061-1362-41f1-8c13-ee9fca9da59e"},"vehicle_type_id":"4","last_reported":1730715066,"current_range_meters":26800,"station_id":"","pricing_plan_id":"cebpf4jnsgd1na2vs0mg"},{"bike_id":"0f8f14ee-1866-47bb-b28d-ae58cb8d7404","system_id":"levelo_inurba_marseille","lat":43.31222,"lon":5.36855,"is_reserved":false,"is_disabled":false,"rental_uris":{"android":"levelo://app?vid=0f8f14ee-1866-47bb-b28d-ae58cb8d7404","ios":"levelo://app?vid=0f8f14ee-1866-47bb-b28d-ae58cb8d7404"},"vehicle_type_id":"4","last_reported":1730715066,"current_range_meters":28000,"station_id":"ce4bgl92rcd13ifvqbq0","pricing_plan_id":"cebpf4jnsgd1na2vs0mg"},{"bike_id":"696cf5c3-d0bd-4b06-9489-1076b81fc0ed","system_id":"levelo_inurba_marseille","lat":43.2904,"lon":5.37566,"is_reserved":false,"is_disabled":false,"rental_uris":{"android":"levelo://app?vid=696cf5c3-d0bd-4b06-9489-1076b81fc0ed","ios":"levelo://app?vid=696cf5c3-d0bd-4b06-9489-1076b81fc0ed"},"vehicle_type_id":"4","last_reported":1730715066,"current_range_meters":28400,"station_id":"ce4bh692rcd13ifvqe90","pricing_plan_id":"cebpf4jnsgd1na2vs0mg"},{"bike_id":"8692c708-6749-4cff-a161-ad26fb2f62aa","system_id":"levelo_inurba_marseille","lat":43.3062,"lon":5.37248,"is_reserved":false,"is_disabled":false,"rental_uris":{"android":"levelo://app?vid=8692c708-6749-4cff-a161-ad26fb2f62aa","ios":"levelo://app?vid=8692c708-6749-4cff-a161-ad26fb2f62aa"},"vehicle_type_id":"4","last_reported":1730715066,"current_range_meters":34000,"station_id":"ce4bgqh2rcd13ifvqc4g","pricing_plan_id":"cebpf4jnsgd1na2vs0mg"},{"bike_id":"7dbc5c61-122b-45ec-b9fb-9274fc54d230","system_id":"levelo_inurba_marseille","lat":43.32544,"lon":5.41424,"is_reserved":false,"is_disabled":false,"rental_uris":{"android":"levelo://app?vid=7dbc5c61-122b-45ec-b9fb-9274fc54d230","ios":"levelo://app?vid=7dbc5c61-122b-45ec-b9fb-9274fc54d230"},"vehicle_type_id":"4","last_reported":1730715066,"current_range_meters":25600,"station_id":"ce4bhq12rcd13ifvqhhg","pricing_plan_id":"cebpf4jnsgd1na2vs0mg"},{"bike_id":"7f368203-ffdd-4fc5-9e6e-39282529f201","system_id":"levelo_inurba_marseille","lat":43.2862,"lon":5.35094,"is_reserved":false,"is_disabled":false,"rental_uris":{"android":"levelo://app?vid=7f368203-ffdd-4fc5-9e6e-39282529f201","ios":"levelo://app?vid=7f368203-ffdd-4fc5-9e6e-39282529f201"},"vehicle_type_id":"4","last_reported":1730715066,"current_range_meters":28800,"station_id":"ce4bhch2rcd13ifvqeug","pricing_plan_id":"cebpf4jnsgd1na2vs0mg"},{"bike_id":"98c11371-ec47-468c-8c3d-1f20f9e8bc05","system_id":"levelo_inurba_marseille","lat":43.24074,"lon":5.37759,"is_reserved":false,"is_disabled":false,"rental_uris":{"android":"levelo://app?vid=98c11371-ec47-468c-8c3d-1f20f9e8bc05","ios":"levelo://app?vid=98c11371-ec47-468c-8c3d-1f20f9e8bc05"},"vehicle_type_id":"4","last_reported":1730715066,"current_range_meters":22400,"station_id":"ce4bhnp2rcd13ifvqgvg","pricing_plan_id":"cebpf4jnsgd1na2vs0mg"},{"bike_id":"eeb5af3d-79f9-45ed-95f9-f60e99a90a19","system_id":"levelo_inurba_marseille","lat":43.23152,"lon":5.43721,"is_reserved":false,"is_disabled":false,"rental_uris":{"android":"levelo://app?vid=eeb5af3d-79f9-45ed-95f9-f60e99a90a19","ios":"levelo://app?vid=eeb5af3d-79f9-45ed-95f9-f60e99a90a19"},"vehicle_type_id":"4","last_reported":1730715066,"current_range_meters":20400,"station_id":"ce4bhmp2rcd13ifvqgog","pricing_plan_id":"cebpf4jnsgd1na2vs0mg"},{"bike_id":"4fe43525-1285-4aba-9ae8-f2d36b5e2147","system_id":"levelo_inurba_marseille","lat":43.27974,"lon":5.38727,"is_reserved":false,"is_disabled":false,"rental_uris":{"android":"levelo://app?vid=4fe43525-1285-4aba-9ae8-f2d36b5e2147","ios":"levelo://app?vid=4fe43525-1285-4aba-9ae8-f2d36b5e2147"},"vehicle_type_id":"4","last_reported":1730715066,"current_range_meters":32800,"station_id":"ce4bhg12rcd13ifvqf80","pricing_plan_id":"cebpf4jnsgd1na2vs0mg"},{"bike_id":"128c6138-7b8f-41fb-8846-b155b9e9fc62","system_id":"levelo_inurba_marseille","lat":43.30953,"lon":5.39045,"is_reserved":false,"is_disabled":false,"rental_uris":{"android":"levelo://app?vid=128c6138-7b8f-41fb-8846-b155b9e9fc62","ios":"levelo://app?vid=128c6138-7b8f-41fb-8846-b155b9e9fc62"},"vehicle_type_id":"4","last_reported":1730715066,"current_range_meters":38800,"station_id":"ce4bgup2rcd13ifvqco0","pricing_plan_id":"cebpf4jnsgd1na2vs0mg"},{"bike_id":"40733afb-19be-48a8-9714-ec11f089b48a","system_id":"levelo_inurba_marseille","lat":43.28611,"lon":5.37061,"is_reserved":false,"is_disabled":false,"rental_uris":{"android":"levelo://app?vid=40733afb-19be-48a8-9714-ec11f089b48a","ios":"levelo://app?vid=40733afb-19be-48a8-9714-ec11f089b48a"},"vehicle_type_id":"4","last_reported":1730715066,"current_range_meters":38400,"station_id":"ce4bht12rcd13ifvqi60","pricing_plan_id":"cebpf4jnsgd1na2vs0mg"},{"bike_id":"94c8aa08-abc9-45cb-b45a-ab6494a06b08","system_id":"levelo_inurba_marseille","lat":43.30552,"lon":5.36533,"is_reserved":false,"is_disabled":false,"rental_uris":{"android":"levelo://app?vid=94c8aa08-abc9-45cb-b45a-ab6494a06b08","ios":"levelo://app?vid=94c8aa08-abc9-45cb-b45a-ab6494a06b08"},"vehicle_type_id":"4","last_reported":1730715066,"current_range_meters":36400,"station_id":"ce4bgs12rcd13ifvqcag","pricing_plan_id":"cebpf4jnsgd1na2vs0mg"},{"bike_id":"047c2de7-07cc-42b9-a607-ec4d58ef9aa4","system_id":"levelo_inurba_marseille","lat":43.28328,"lon":5.40582,"is_reserved":false,"is_disabled":false,"rental_uris":{"android":"levelo://app?vid=047c2de7-07cc-42b9-a607-ec4d58ef9aa4","ios":"levelo://app?vid=047c2de7-07cc-42b9-a607-ec4d58ef9aa4"},"vehicle_type_id":"4","last_reported":1730715066,"current_range_meters":6800,"station_id":"","pricing_plan_id":"cebpf4jnsgd1na2vs0mg"},{"bike_id":"27200751-568b-4436-9351-086d68e244f6","system_id":"levelo_inurba_marseille","lat":43.29273,"lon":5.36844,"is_reserved":false,"is_disabled":false,"rental_uris":{"android":"levelo://app?vid=27200751-568b-4436-9351-086d68e244f6","ios":"levelo://app?vid=27200751-568b-4436-9351-086d68e244f6"},"vehicle_type_id":"4","last_reported":1730715066,"current_range_meters":7200,"station_id":"ce4bhbp2rcd13ifvqesg","pricing_plan_id":"cebpf4jnsgd1na2vs0mg"},{"bike_id":"1db175d3-3ea2-4883-b679-33db78b42664","system_id":"levelo_inurba_marseille","lat":43.27063,"lon":5.40258,"is_reserved":false,"is_disabled":false,"rental_uris":{"android":"levelo://app?vid=1db175d3-3ea2-4883-b679-33db78b42664","ios":"levelo://app?vid=1db175d3-3ea2-4883-b679-33db78b42664"},"vehicle_type_id":"4","last_reported":1730715066,"current_range_meters":30800,"station_id":"ce4bhk92rcd13ifvqgc0","pricing_plan_id":"cebpf4jnsgd1na2vs0mg"},{"bike_id":"a5153138-a8f4-4ca6-a371-48e0c84eac1a","system_id":"levelo_inurba_marseille","lat":43.30143,"lon":5.37411,"is_reserved":false,"is_disabled":false,"rental_uris":{"android":"levelo://app?vid=a5153138-a8f4-4ca6-a371-48e0c84eac1a","ios":"levelo://app?vid=a5153138-a8f4-4ca6-a371-48e0c84eac1a"},"vehicle_type_id":"4","last_reported":1730715066,"current_range_meters":24800,"station_id":"ce4bgs92rcd13ifvqcc0","pricing_plan_id":"cebpf4jnsgd1na2vs0mg"},{"bike_id":"57634921-1e2a-4f0d-a755-8f2070cfbbc7","system_id":"levelo_inurba_marseille","lat":43.26199,"lon":5.37927,"is_reserved":false,"is_disabled":false,"rental_uris":{"android":"levelo://app?vid=57634921-1e2a-4f0d-a755-8f2070cfbbc7","ios":"levelo://app?vid=57634921-1e2a-4f0d-a755-8f2070cfbbc7"},"vehicle_type_id":"4","last_reported":1730715066,"current_range_meters":38800,"station_id":"ce4bhjp2rcd13ifvqg90","pricing_plan_id":"cebpf4jnsgd1na2vs0mg"},{"bike_id":"cfceb85a-8c7b-4241-b2ee-fb768a9758e3","system_id":"levelo_inurba_marseille","lat":43.27991,"lon":5.41651,"is_reserved":false,"is_disabled":false,"rental_uris":{"android":"levelo://app?vid=cfceb85a-8c7b-4241-b2ee-fb768a9758e3","ios":"levelo://app?vid=cfceb85a-8c7b-4241-b2ee-fb768a9758e3"},"vehicle_type_id":"4","last_reported":1730715066,"current_range_meters":36800,"station_id":"ce4bho12rcd13ifvqh1g","pricing_plan_id":"cebpf4jnsgd1na2vs0mg"},{"bike_id":"7aad5d6f-422f-478a-abc6-e20286c98efd","system_id":"levelo_inurba_marseille","lat":43.29588,"lon":5.37521,"is_reserved":false,"is_disabled":false,"rental_uris":{"android":"levelo://app?vid=7aad5d6f-422f-478a-abc6-e20286c98efd","ios":"levelo://app?vid=7aad5d6f-422f-478a-abc6-e20286c98efd"},"vehicle_type_id":"4","last_reported":1730715066,"current_range_meters":30000,"station_id":"ce4bgh92rcd13ifvqb50","pricing_plan_id":"cebpf4jnsgd1na2vs0mg"},{"bike_id":"52c87382-fa2b-4b96-89a5-f73605f11272","system_id":"levelo_inurba_marseille","lat":43.23849,"lon":5.38957,"is_reserved":false,"is_disabled":false,"rental_uris":{"android":"levelo://app?vid=52c87382-fa2b-4b96-89a5-f73605f11272","ios":"levelo://app?vid=52c87382-fa2b-4b96-89a5-f73605f11272"},"vehicle_type_id":"4","last_reported":1730715066,"current_range_meters":23200,"station_id":"","pricing_plan_id":"cebpf4jnsgd1na2vs0mg"},{"bike_id":"ba5dbdeb-fc6a-4b1e-966f-6d742c9f71e5","system_id":"levelo_inurba_marseille","lat":43.28726,"lon":5.37941,"is_reserved":false,"is_disabled":false,"rental_uris":{"android":"levelo://app?vid=ba5dbdeb-fc6a-4b1e-966f-6d742c9f71e5","ios":"levelo://app?vid=ba5dbdeb-fc6a-4b1e-966f-6d742c9f71e5"},"vehicle_type_id":"4","last_reported":1730715066,"current_range_meters":33600,"station_id":"ce4bh9p2rcd13ifvqec0","pricing_plan_id":"cebpf4jnsgd1na2vs0mg"},{"bike_id":"a1637a4b-5969-42e5-b096-5a17078386cb","system_id":"levelo_inurba_marseille","lat":43.30611,"lon":5.37238,"is_reserved":false,"is_disabled":false,"rental_uris":{"android":"levelo://app?vid=a1637a4b-5969-42e5-b096-5a17078386cb","ios":"levelo://app?vid=a1637a4b-5969-42e5-b096-5a17078386cb"},"vehicle_type_id":"4","last_reported":1730715066,"current_range_meters":11200,"station_id":"ce4bgqh2rcd13ifvqc4g","pricing_plan_id":"cebpf4jnsgd1na2vs0mg"},{"bike_id":"d9a1fa31-947a-4b97-8e33-aa5c2150e4b5","system_id":"levelo_inurba_marseille","lat":43.33614,"lon":5.41027,"is_reserved":false,"is_disabled":false,"rental_uris":{"android":"levelo://app?vid=d9a1fa31-947a-4b97-8e33-aa5c2150e4b5","ios":"levelo://app?vid=d9a1fa31-947a-4b97-8e33-aa5c2150e4b5"},"vehicle_type_id":"4","last_reported":1730715066,"current_range_meters":13600,"station_id":"ce4bhqh2rcd13ifvqhmg","pricing_plan_id":"cebpf4jnsgd1na2vs0mg"},{"bike_id":"5908bc81-a7f9-48ff-a0cb-2e9155342915","system_id":"levelo_inurba_marseille","lat":43.3108,"lon":5.38343,"is_reserved":false,"is_disabled":false,"rental_uris":{"android":"levelo://app?vid=5908bc81-a7f9-48ff-a0cb-2e9155342915","ios":"levelo://app?vid=5908bc81-a7f9-48ff-a0cb-2e9155342915"},"vehicle_type_id":"4","last_reported":1730715066,"current_range_meters":24800,"station_id":"ce4bgv92rcd13ifvqcr0","pricing_plan_id":"cebpf4jnsgd1na2vs0mg"},{"bike_id":"4adb7e65-e18e-4ef1-be00-3ea3c7f6dd44","system_id":"levelo_inurba_marseille","lat":43.24076,"lon":5.37732,"is_reserved":false,"is_disabled":false,"rental_uris":{"android":"levelo://app?vid=4adb7e65-e18e-4ef1-be00-3ea3c7f6dd44","ios":"levelo://app?vid=4adb7e65-e18e-4ef1-be00-3ea3c7f6dd44"},"vehicle_type_id":"4","last_reported":1730715066,"current_range_meters":27600,"station_id":"ce4bhnp2rcd13ifvqgvg","pricing_plan_id":"cebpf4jnsgd1na2vs0mg"},{"bike_id":"82ddcd16-6e33-4839-b269-008091a238aa","system_id":"levelo_inurba_marseille","lat":43.2998,"lon":5.38484,"is_reserved":false,"is_disabled":false,"rental_uris":{"android":"levelo://app?vid=82ddcd16-6e33-4839-b269-008091a238aa","ios":"levelo://app?vid=82ddcd16-6e33-4839-b269-008091a238aa"},"vehicle_type_id":"4","last_reported":1730715066,"current_range_meters":36000,"station_id":"ce4bgj92rcd13ifvqbd0","pricing_plan_id":"cebpf4jnsgd1na2vs0mg"},{"bike_id":"ee3dccf9-22bf-4760-8927-68d482635c84","system_id":"levelo_inurba_marseille","lat":43.30541,"lon":5.36527,"is_reserved":false,"is_disabled":false,"rental_uris":{"android":"levelo://app?vid=ee3dccf9-22bf-4760-8927-68d482635c84","ios":"levelo://app?vid=ee3dccf9-22bf-4760-8927-68d482635c84"},"vehicle_type_id":"4","last_reported":1730715066,"current_range_meters":39200,"station_id":"ce4bgs12rcd13ifvqcag","pricing_plan_id":"cebpf4jnsgd1na2vs0mg"},{"bike_id":"1b80601b-8be3-4b0b-bcc4-eebb89de1629","system_id":"levelo_inurba_marseille","lat":43.25833,"lon":5.39428,"is_reserved":false,"is_disabled":false,"rental_uris":{"android":"levelo://app?vid=1b80601b-8be3-4b0b-bcc4-eebb89de1629","ios":"levelo://app?vid=1b80601b-8be3-4b0b-bcc4-eebb89de1629"},"vehicle_type_id":"4","last_reported":1730715066,"current_range_meters":30400,"station_id":"ce4bhip2rcd13ifvqft0","pricing_plan_id":"cebpf4jnsgd1na2vs0mg"},{"bike_id":"d68eb4f1-f66f-4f23-8a73-f73518a80845","system_id":"levelo_inurba_marseille","lat":43.299347,"lon":5.365603,"is_reserved":false,"is_disabled":false,"rental_uris":{"android":"levelo://app?vid=d68eb4f1-f66f-4f23-8a73-f73518a80845","ios":"levelo://app?vid=d68eb4f1-f66f-4f23-8a73-f73518a80845"},"vehicle_type_id":"4","last_reported":1730715066,"current_range_meters":32000,"station_id":"ce4bgm92rcd13ifvqbr0","pricing_plan_id":"cebpf4jnsgd1na2vs0mg"},{"bike_id":"34d79294-ce7d-4438-be71-ec19030923fc","system_id":"levelo_inurba_marseille","lat":43.27495,"lon":5.42452,"is_reserved":false,"is_disabled":false,"rental_uris":{"android":"levelo://app?vid=34d79294-ce7d-4438-be71-ec19030923fc","ios":"levelo://app?vid=34d79294-ce7d-4438-be71-ec19030923fc"},"vehicle_type_id":"4","last_reported":1730715066,"current_range_meters":31200,"station_id":"ce4bhn92rcd13ifvqgrg","pricing_plan_id":"cebpf4jnsgd1na2vs0mg"},{"bike_id":"c87ad16f-287a-4530-9f45-be77bc1c26d2","system_id":"levelo_inurba_marseille","lat":43.30135,"lon":5.37418,"is_reserved":false,"is_disabled":false,"rental_uris":{"android":"levelo://app?vid=c87ad16f-287a-4530-9f45-be77bc1c26d2","ios":"levelo://app?vid=c87ad16f-287a-4530-9f45-be77bc1c26d2"},"vehicle_type_id":"4","last_reported":1730715066,"current_range_meters":31200,"station_id":"ce4bgs92rcd13ifvqcc0","pricing_plan_id":"cebpf4jnsgd1na2vs0mg"},{"bike_id":"ab29d354-2344-4161-8d68-f84e74e0be7a","system_id":"levelo_inurba_marseille","lat":43.23154,"lon":5.43701,"is_reserved":false,"is_disabled":false,"rental_uris":{"android":"levelo://app?vid=ab29d354-2344-4161-8d68-f84e74e0be7a","ios":"levelo://app?vid=ab29d354-2344-4161-8d68-f84e74e0be7a"},"vehicle_type_id":"4","last_reported":1730715066,"current_range_meters":35200,"station_id":"ce4bhmp2rcd13ifvqgog","pricing_plan_id":"cebpf4jnsgd1na2vs0mg"},{"bike_id":"c8ff769d-3de8-4ba5-b126-ee1befb95d70","system_id":"levelo_inurba_marseille","lat":43.2386,"lon":5.38979,"is_reserved":false,"is_disabled":false,"rental_uris":{"android":"levelo://app?vid=c8ff769d-3de8-4ba5-b126-ee1befb95d70","ios":"levelo://app?vid=c8ff769d-3de8-4ba5-b126-ee1befb95d70"},"vehicle_type_id":"4","last_reported":1730715066,"current_range_meters":9200,"station_id":"","pricing_plan_id":"cebpf4jnsgd1na2vs0mg"},{"bike_id":"1751e87c-3dd4-4ebc-91e4-1968bdeaacdc","system_id":"levelo_inurba_marseille","lat":43.30544,"lon":5.36701,"is_reserved":false,"is_disabled":false,"rental_uris":{"android":"levelo://app?vid=1751e87c-3dd4-4ebc-91e4-1968bdeaacdc","ios":"levelo://app?vid=1751e87c-3dd4-4ebc-91e4-1968bdeaacdc"},"vehicle_type_id":"4","last_reported":1730715066,"current_range_meters":39200,"station_id":"ce4bgrp2rcd13ifvqc9g","pricing_plan_id":"cebpf4jnsgd1na2vs0mg"},{"bike_id":"beeef4e4-0d45-4dfa-9ccc-aedb2ce31115","system_id":"levelo_inurba_marseille","lat":43.32107,"lon":5.36766,"is_reserved":false,"is_disabled":false,"rental_uris":{"android":"levelo://app?vid=beeef4e4-0d45-4dfa-9ccc-aedb2ce31115","ios":"levelo://app?vid=beeef4e4-0d45-4dfa-9ccc-aedb2ce31115"},"vehicle_type_id":"4","last_reported":1730715066,"current_range_meters":31200,"station_id":"ce4bhrh2rcd13ifvqhug","pricing_plan_id":"cebpf4jnsgd1na2vs0mg"},{"bike_id":"4b15547f-97b6-484c-bcd8-d5e7f33a2887","system_id":"levelo_inurba_marseille","lat":43.2991,"lon":5.3747,"is_reserved":false,"is_disabled":false,"rental_uris":{"android":"levelo://app?vid=4b15547f-97b6-484c-bcd8-d5e7f33a2887","ios":"levelo://app?vid=4b15547f-97b6-484c-bcd8-d5e7f33a2887"},"vehicle_type_id":"4","last_reported":1730715066,"current_range_meters":36800,"station_id":"ce4bgjh2rcd13ifvqbg0","pricing_plan_id":"cebpf4jnsgd1na2vs0mg"},{"bike_id":"46619f51-83b5-43d0-9fb2-f895a2600dbe","system_id":"levelo_inurba_marseille","lat":43.27963,"lon":5.38721,"is_reserved":false,"is_disabled":false,"rental_uris":{"android":"levelo://app?vid=46619f51-83b5-43d0-9fb2-f895a2600dbe","ios":"levelo://app?vid=46619f51-83b5-43d0-9fb2-f895a2600dbe"},"vehicle_type_id":"4","last_reported":1730715066,"current_range_meters":26800,"station_id":"ce4bhg12rcd13ifvqf80","pricing_plan_id":"cebpf4jnsgd1na2vs0mg"},{"bike_id":"e057b72f-da22-4f74-b632-7c26ad219f8c","system_id":"levelo_inurba_marseille","lat":43.32289,"lon":5.38278,"is_reserved":false,"is_disabled":false,"rental_uris":{"android":"levelo://app?vid=e057b72f-da22-4f74-b632-7c26ad219f8c","ios":"levelo://app?vid=e057b72f-da22-4f74-b632-7c26ad219f8c"},"vehicle_type_id":"4","last_reported":1730715066,"current_range_meters":38800,"station_id":"ce4bhr12rcd13ifvqhqg","pricing_plan_id":"cebpf4jnsgd1na2vs0mg"},{"bike_id":"82ed6ddf-ac89-425e-89a3-807c26e7067e","system_id":"levelo_inurba_marseille","lat":43.3053,"lon":5.3654,"is_reserved":false,"is_disabled":false,"rental_uris":{"android":"levelo://app?vid=82ed6ddf-ac89-425e-89a3-807c26e7067e","ios":"levelo://app?vid=82ed6ddf-ac89-425e-89a3-807c26e7067e"},"vehicle_type_id":"4","last_reported":1730715066,"current_range_meters":11200,"station_id":"ce4bgs12rcd13ifvqcag","pricing_plan_id":"cebpf4jnsgd1na2vs0mg"},{"bike_id":"dcad223a-dec2-4896-b82b-a08ea958ce75","system_id":"levelo_inurba_marseille","lat":43.30139,"lon":5.37433,"is_reserved":false,"is_disabled":false,"rental_uris":{"android":"levelo://app?vid=dcad223a-dec2-4896-b82b-a08ea958ce75","ios":"levelo://app?vid=dcad223a-dec2-4896-b82b-a08ea958ce75"},"vehicle_type_id":"4","last_reported":1730715066,"current_range_meters":30000,"station_id":"ce4bgs92rcd13ifvqcc0","pricing_plan_id":"cebpf4jnsgd1na2vs0mg"},{"bike_id":"54dadb1b-a026-4fd1-902a-6d831ef552f3","system_id":"levelo_inurba_marseille","lat":43.26208,"lon":5.37925,"is_reserved":false,"is_disabled":false,"rental_uris":{"android":"levelo://app?vid=54dadb1b-a026-4fd1-902a-6d831ef552f3","ios":"levelo://app?vid=54dadb1b-a026-4fd1-902a-6d831ef552f3"},"vehicle_type_id":"4","last_reported":1730715066,"current_range_meters":8400,"station_id":"ce4bhjp2rcd13ifvqg90","pricing_plan_id":"cebpf4jnsgd1na2vs0mg"},{"bike_id":"eacd66df-206c-472f-9531-edaa1ace1ca7","system_id":"levelo_inurba_marseille","lat":43.30149,"lon":5.39867,"is_reserved":false,"is_disabled":false,"rental_uris":{"android":"levelo://app?vid=eacd66df-206c-472f-9531-edaa1ace1ca7","ios":"levelo://app?vid=eacd66df-206c-472f-9531-edaa1ace1ca7"},"vehicle_type_id":"4","last_reported":1730715066,"current_range_meters":18000,"station_id":"ce4bh0h2rcd13ifvqd40","pricing_plan_id":"cebpf4jnsgd1na2vs0mg"},{"bike_id":"55a5ca7c-6af1-429c-9c94-9fa3bccda2bb","system_id":"levelo_inurba_marseille","lat":43.28346,"lon":5.38104,"is_reserved":false,"is_disabled":false,"rental_uris":{"android":"levelo://app?vid=55a5ca7c-6af1-429c-9c94-9fa3bccda2bb","ios":"levelo://app?vid=55a5ca7c-6af1-429c-9c94-9fa3bccda2bb"},"vehicle_type_id":"4","last_reported":1730715066,"current_range_meters":28000,"station_id":"ce4bh412rcd13ifvqdr0","pricing_plan_id":"cebpf4jnsgd1na2vs0mg"},{"bike_id":"b0d285de-6099-447e-a29c-05a573e401b8","system_id":"levelo_inurba_marseille","lat":43.31363,"lon":5.36714,"is_reserved":false,"is_disabled":false,"rental_uris":{"android":"levelo://app?vid=b0d285de-6099-447e-a29c-05a573e401b8","ios":"levelo://app?vid=b0d285de-6099-447e-a29c-05a573e401b8"},"vehicle_type_id":"4","last_reported":1730715066,"current_range_meters":29600,"station_id":"ce4bgr92rcd13ifvqc6g","pricing_plan_id":"cebpf4jnsgd1na2vs0mg"},{"bike_id":"c1fbef02-8df5-480a-b2fe-532339a00324","system_id":"levelo_inurba_marseille","lat":43.27967,"lon":5.38747,"is_reserved":false,"is_disabled":false,"rental_uris":{"android":"levelo://app?vid=c1fbef02-8df5-480a-b2fe-532339a00324","ios":"levelo://app?vid=c1fbef02-8df5-480a-b2fe-532339a00324"},"vehicle_type_id":"4","last_reported":1730715066,"current_range_meters":24000,"station_id":"ce4bhg12rcd13ifvqf80","pricing_plan_id":"cebpf4jnsgd1na2vs0mg"},{"bike_id":"5ba7069c-9bf0-4fd5-ac19-e18cc36f55d7","system_id":"levelo_inurba_marseille","lat":43.30946,"lon":5.39028,"is_reserved":false,"is_disabled":false,"rental_uris":{"android":"levelo://app?vid=5ba7069c-9bf0-4fd5-ac19-e18cc36f55d7","ios":"levelo://app?vid=5ba7069c-9bf0-4fd5-ac19-e18cc36f55d7"},"vehicle_type_id":"4","last_reported":1730715066,"current_range_meters":25600,"station_id":"ce4bgup2rcd13ifvqco0","pricing_plan_id":"cebpf4jnsgd1na2vs0mg"},{"bike_id":"905ab8e9-1f53-439c-a3ce-7d736f026964","system_id":"levelo_inurba_marseille","lat":43.30549,"lon":5.36702,"is_reserved":false,"is_disabled":false,"rental_uris":{"android":"levelo://app?vid=905ab8e9-1f53-439c-a3ce-7d736f026964","ios":"levelo://app?vid=905ab8e9-1f53-439c-a3ce-7d736f026964"},"vehicle_type_id":"4","last_reported":1730715066,"current_range_meters":38800,"station_id":"ce4bgrp2rcd13ifvqc9g","pricing_plan_id":"cebpf4jnsgd1na2vs0mg"},{"bike_id":"4783aed0-5b0b-4b8b-9cc3-515df70a4cea","system_id":"levelo_inurba_marseille","lat":43.27493,"lon":5.42455,"is_reserved":false,"is_disabled":false,"rental_uris":{"android":"levelo://app?vid=4783aed0-5b0b-4b8b-9cc3-515df70a4cea","ios":"levelo://app?vid=4783aed0-5b0b-4b8b-9cc3-515df70a4cea"},"vehicle_type_id":"4","last_reported":1730715066,"current_range_meters":30400,"station_id":"ce4bhn92rcd13ifvqgrg","pricing_plan_id":"cebpf4jnsgd1na2vs0mg"},{"bike_id":"a0ed6699-83e8-4db1-b811-73c5e9f3475e","system_id":"levelo_inurba_marseille","lat":43.2749,"lon":5.42457,"is_reserved":false,"is_disabled":false,"rental_uris":{"android":"levelo://app?vid=a0ed6699-83e8-4db1-b811-73c5e9f3475e","ios":"levelo://app?vid=a0ed6699-83e8-4db1-b811-73c5e9f3475e"},"vehicle_type_id":"4","last_reported":1730715066,"current_range_meters":32400,"station_id":"ce4bhn92rcd13ifvqgrg","pricing_plan_id":"cebpf4jnsgd1na2vs0mg"},{"bike_id":"7e0973fe-3845-4532-81d5-ea803d75ac4d","system_id":"levelo_inurba_marseille","lat":43.29924,"lon":5.37469,"is_reserved":false,"is_disabled":false,"rental_uris":{"android":"levelo://app?vid=7e0973fe-3845-4532-81d5-ea803d75ac4d","ios":"levelo://app?vid=7e0973fe-3845-4532-81d5-ea803d75ac4d"},"vehicle_type_id":"4","last_reported":1730715066,"current_range_meters":28000,"station_id":"ce4bgjh2rcd13ifvqbg0","pricing_plan_id":"cebpf4jnsgd1na2vs0mg"},{"bike_id":"0dcca800-5fb1-42a6-8e25-f7e86ee0ca25","system_id":"levelo_inurba_marseille","lat":43.2693,"lon":5.38912,"is_reserved":false,"is_disabled":false,"rental_uris":{"android":"levelo://app?vid=0dcca800-5fb1-42a6-8e25-f7e86ee0ca25","ios":"levelo://app?vid=0dcca800-5fb1-42a6-8e25-f7e86ee0ca25"},"vehicle_type_id":"4","last_reported":1730715066,"current_range_meters":37600,"station_id":"ce4bhhh2rcd13ifvqfl0","pricing_plan_id":"cebpf4jnsgd1na2vs0mg"},{"bike_id":"7580d83e-3d7c-46be-82b1-25f013a114af","system_id":"levelo_inurba_marseille","lat":43.3107,"lon":5.40091,"is_reserved":false,"is_disabled":false,"rental_uris":{"android":"levelo://app?vid=7580d83e-3d7c-46be-82b1-25f013a114af","ios":"levelo://app?vid=7580d83e-3d7c-46be-82b1-25f013a114af"},"vehicle_type_id":"4","last_reported":1730715066,"current_range_meters":22400,"station_id":"","pricing_plan_id":"cebpf4jnsgd1na2vs0mg"},{"bike_id":"0beee424-e81f-4821-93f8-913a6e29e82e","system_id":"levelo_inurba_marseille","lat":43.2306,"lon":5.35489,"is_reserved":false,"is_disabled":false,"rental_uris":{"android":"levelo://app?vid=0beee424-e81f-4821-93f8-913a6e29e82e","ios":"levelo://app?vid=0beee424-e81f-4821-93f8-913a6e29e82e"},"vehicle_type_id":"4","last_reported":1730715066,"current_range_meters":16800,"station_id":"cpo3342slgdg3j2ifvpg","pricing_plan_id":"cebpf4jnsgd1na2vs0mg"},{"bike_id":"7b96349d-5922-4925-8552-3138f34b008e","system_id":"levelo_inurba_marseille","lat":43.29965,"lon":5.38498,"is_reserved":false,"is_disabled":false,"rental_uris":{"android":"levelo://app?vid=7b96349d-5922-4925-8552-3138f34b008e","ios":"levelo://app?vid=7b96349d-5922-4925-8552-3138f34b008e"},"vehicle_type_id":"4","last_reported":1730715066,"current_range_meters":33200,"station_id":"ce4bgj92rcd13ifvqbd0","pricing_plan_id":"cebpf4jnsgd1na2vs0mg"},{"bike_id":"23318a29-34d2-4d10-917f-6b9fe01ef36a","system_id":"levelo_inurba_marseille","lat":43.27496,"lon":5.42453,"is_reserved":false,"is_disabled":false,"rental_uris":{"android":"levelo://app?vid=23318a29-34d2-4d10-917f-6b9fe01ef36a","ios":"levelo://app?vid=23318a29-34d2-4d10-917f-6b9fe01ef36a"},"vehicle_type_id":"4","last_reported":1730715066,"current_range_meters":36000,"station_id":"ce4bhn92rcd13ifvqgrg","pricing_plan_id":"cebpf4jnsgd1na2vs0mg"},{"bike_id":"755908d2-47b9-4bb8-839d-59256ac33eb6","system_id":"levelo_inurba_marseille","lat":43.30146,"lon":5.37422,"is_reserved":false,"is_disabled":false,"rental_uris":{"android":"levelo://app?vid=755908d2-47b9-4bb8-839d-59256ac33eb6","ios":"levelo://app?vid=755908d2-47b9-4bb8-839d-59256ac33eb6"},"vehicle_type_id":"4","last_reported":1730715066,"current_range_meters":24000,"station_id":"ce4bgs92rcd13ifvqcc0","pricing_plan_id":"cebpf4jnsgd1na2vs0mg"},{"bike_id":"37e2ac36-77af-4e7b-b0fd-43420207efda","system_id":"levelo_inurba_marseille","lat":43.28055,"lon":5.40978,"is_reserved":false,"is_disabled":false,"rental_uris":{"android":"levelo://app?vid=37e2ac36-77af-4e7b-b0fd-43420207efda","ios":"levelo://app?vid=37e2ac36-77af-4e7b-b0fd-43420207efda"},"vehicle_type_id":"4","last_reported":1730715066,"current_range_meters":36800,"station_id":"","pricing_plan_id":"cebpf4jnsgd1na2vs0mg"},{"bike_id":"339adae8-54a0-4143-9f41-673a1f8ff6b8","system_id":"levelo_inurba_marseille","lat":43.30289,"lon":5.37713,"is_reserved":false,"is_disabled":false,"rental_uris":{"android":"levelo://app?vid=339adae8-54a0-4143-9f41-673a1f8ff6b8","ios":"levelo://app?vid=339adae8-54a0-4143-9f41-673a1f8ff6b8"},"vehicle_type_id":"4","last_reported":1730715066,"current_range_meters":38000,"station_id":"ce4bguh2rcd13ifvqcj0","pricing_plan_id":"cebpf4jnsgd1na2vs0mg"},{"bike_id":"7ecb3c5b-78f5-4408-bb26-5cc69d42fb6c","system_id":"levelo_inurba_marseille","lat":43.24068,"lon":5.3772,"is_reserved":false,"is_disabled":false,"rental_uris":{"android":"levelo://app?vid=7ecb3c5b-78f5-4408-bb26-5cc69d42fb6c","ios":"levelo://app?vid=7ecb3c5b-78f5-4408-bb26-5cc69d42fb6c"},"vehicle_type_id":"4","last_reported":1730715066,"current_range_meters":38800,"station_id":"ce4bhnp2rcd13ifvqgvg","pricing_plan_id":"cebpf4jnsgd1na2vs0mg"},{"bike_id":"325e86d5-5b48-4753-9057-b0de55e70742","system_id":"levelo_inurba_marseille","lat":43.26807,"lon":5.40271,"is_reserved":false,"is_disabled":false,"rental_uris":{"android":"levelo://app?vid=325e86d5-5b48-4753-9057-b0de55e70742","ios":"levelo://app?vid=325e86d5-5b48-4753-9057-b0de55e70742"},"vehicle_type_id":"4","last_reported":1730715066,"current_range_meters":26800,"station_id":"ce501612rcd8frsf0b60","pricing_plan_id":"cebpf4jnsgd1na2vs0mg"},{"bike_id":"f256e407-b1cd-4ba4-8262-8d961bb4d647","system_id":"levelo_inurba_marseille","lat":43.25511,"lon":5.37648,"is_reserved":false,"is_disabled":false,"rental_uris":{"android":"levelo://app?vid=f256e407-b1cd-4ba4-8262-8d961bb4d647","ios":"levelo://app?vid=f256e407-b1cd-4ba4-8262-8d961bb4d647"},"vehicle_type_id":"4","last_reported":1730715066,"current_range_meters":38800,"station_id":"ce4bhh12rcd13ifvqff0","pricing_plan_id":"cebpf4jnsgd1na2vs0mg"},{"bike_id":"ba0dc76e-39d3-45e2-b06a-88fc2809aa39","system_id":"levelo_inurba_marseille","lat":43.27486,"lon":5.42452,"is_reserved":false,"is_disabled":false,"rental_uris":{"android":"levelo://app?vid=ba0dc76e-39d3-45e2-b06a-88fc2809aa39","ios":"levelo://app?vid=ba0dc76e-39d3-45e2-b06a-88fc2809aa39"},"vehicle_type_id":"4","last_reported":1730715066,"current_range_meters":30800,"station_id":"ce4bhn92rcd13ifvqgrg","pricing_plan_id":"cebpf4jnsgd1na2vs0mg"},{"bike_id":"84826187-31ec-4949-bd9b-654531a44675","system_id":"levelo_inurba_marseille","lat":43.2315,"lon":5.43716,"is_reserved":false,"is_disabled":false,"rental_uris":{"android":"levelo://app?vid=84826187-31ec-4949-bd9b-654531a44675","ios":"levelo://app?vid=84826187-31ec-4949-bd9b-654531a44675"},"vehicle_type_id":"4","last_reported":1730715066,"current_range_meters":24000,"station_id":"ce4bhmp2rcd13ifvqgog","pricing_plan_id":"cebpf4jnsgd1na2vs0mg"},{"bike_id":"0b597ca6-8a05-4580-9840-f0829a5e4450","system_id":"levelo_inurba_marseille","lat":43.26781,"lon":5.39421,"is_reserved":false,"is_disabled":false,"rental_uris":{"android":"levelo://app?vid=0b597ca6-8a05-4580-9840-f0829a5e4450","ios":"levelo://app?vid=0b597ca6-8a05-4580-9840-f0829a5e4450"},"vehicle_type_id":"4","last_reported":1730715066,"current_range_meters":20400,"station_id":"ce4bhh12rcd13ifvqfg0","pricing_plan_id":"cebpf4jnsgd1na2vs0mg"},{"bike_id":"710ee38e-77b0-4542-9111-fce7597ff620","system_id":"levelo_inurba_marseille","lat":43.27059,"lon":5.40256,"is_reserved":false,"is_disabled":false,"rental_uris":{"android":"levelo://app?vid=710ee38e-77b0-4542-9111-fce7597ff620","ios":"levelo://app?vid=710ee38e-77b0-4542-9111-fce7597ff620"},"vehicle_type_id":"4","last_reported":1730715066,"current_range_meters":11600,"station_id":"ce4bhk92rcd13ifvqgc0","pricing_plan_id":"cebpf4jnsgd1na2vs0mg"},{"bike_id":"3ff0dc3f-c9cf-45a9-9f30-b0e63d30490d","system_id":"levelo_inurba_marseille","lat":43.3017,"lon":5.36625,"is_reserved":false,"is_disabled":false,"rental_uris":{"android":"levelo://app?vid=3ff0dc3f-c9cf-45a9-9f30-b0e63d30490d","ios":"levelo://app?vid=3ff0dc3f-c9cf-45a9-9f30-b0e63d30490d"},"vehicle_type_id":"4","last_reported":1730715066,"current_range_meters":7200,"station_id":"ce4bgrh2rcd13ifvqc8g","pricing_plan_id":"cebpf4jnsgd1na2vs0mg"},{"bike_id":"f096c496-f8db-4185-9b36-b85c627b721a","system_id":"levelo_inurba_marseille","lat":43.33607,"lon":5.41025,"is_reserved":false,"is_disabled":false,"rental_uris":{"android":"levelo://app?vid=f096c496-f8db-4185-9b36-b85c627b721a","ios":"levelo://app?vid=f096c496-f8db-4185-9b36-b85c627b721a"},"vehicle_type_id":"4","last_reported":1730715066,"current_range_meters":9200,"station_id":"ce4bhqh2rcd13ifvqhmg","pricing_plan_id":"cebpf4jnsgd1na2vs0mg"},{"bike_id":"909fd824-d8fe-4d38-b958-5046d8c9169b","system_id":"levelo_inurba_marseille","lat":43.32489,"lon":5.36552,"is_reserved":false,"is_disabled":false,"rental_uris":{"android":"levelo://app?vid=909fd824-d8fe-4d38-b958-5046d8c9169b","ios":"levelo://app?vid=909fd824-d8fe-4d38-b958-5046d8c9169b"},"vehicle_type_id":"4","last_reported":1730715066,"current_range_meters":38800,"station_id":"ce4bhs12rcd13ifvqhvg","pricing_plan_id":"cebpf4jnsgd1na2vs0mg"},{"bike_id":"31e65bd8-c3e1-4ed0-8c7f-057ff8939736","system_id":"levelo_inurba_marseille","lat":43.299686,"lon":5.384852,"is_reserved":false,"is_disabled":false,"rental_uris":{"android":"levelo://app?vid=31e65bd8-c3e1-4ed0-8c7f-057ff8939736","ios":"levelo://app?vid=31e65bd8-c3e1-4ed0-8c7f-057ff8939736"},"vehicle_type_id":"4","last_reported":1730715066,"current_range_meters":25600,"station_id":"ce4bgj92rcd13ifvqbd0","pricing_plan_id":"cebpf4jnsgd1na2vs0mg"},{"bike_id":"f618011d-b4b5-45f1-9b25-0be7c95294a0","system_id":"levelo_inurba_marseille","lat":43.27207,"lon":5.39179,"is_reserved":false,"is_disabled":false,"rental_uris":{"android":"levelo://app?vid=f618011d-b4b5-45f1-9b25-0be7c95294a0","ios":"levelo://app?vid=f618011d-b4b5-45f1-9b25-0be7c95294a0"},"vehicle_type_id":"4","last_reported":1730715066,"current_range_meters":8800,"station_id":"ce4bhhp2rcd13ifvqfm0","pricing_plan_id":"cebpf4jnsgd1na2vs0mg"},{"bike_id":"a692db69-0875-4333-93be-11d4adb2afa9","system_id":"levelo_inurba_marseille","lat":43.28274,"lon":5.3508,"is_reserved":false,"is_disabled":false,"rental_uris":{"android":"levelo://app?vid=a692db69-0875-4333-93be-11d4adb2afa9","ios":"levelo://app?vid=a692db69-0875-4333-93be-11d4adb2afa9"},"vehicle_type_id":"4","last_reported":1730715066,"current_range_meters":16800,"station_id":"ce4bhbp2rcd13ifvqerg","pricing_plan_id":"cebpf4jnsgd1na2vs0mg"},{"bike_id":"1cb5ab22-315c-43df-a54a-e71f27abdcde","system_id":"levelo_inurba_marseille","lat":43.24389,"lon":5.37061,"is_reserved":false,"is_disabled":false,"rental_uris":{"android":"levelo://app?vid=1cb5ab22-315c-43df-a54a-e71f27abdcde","ios":"levelo://app?vid=1cb5ab22-315c-43df-a54a-e71f27abdcde"},"vehicle_type_id":"4","last_reported":1730715066,"current_range_meters":33600,"station_id":"ce4bhhh2rcd13ifvqfk0","pricing_plan_id":"cebpf4jnsgd1na2vs0mg"},{"bike_id":"48020f63-9819-4917-a2d8-415464338689","system_id":"levelo_inurba_marseille","lat":43.28423,"lon":5.34989,"is_reserved":false,"is_disabled":false,"rental_uris":{"android":"levelo://app?vid=48020f63-9819-4917-a2d8-415464338689","ios":"levelo://app?vid=48020f63-9819-4917-a2d8-415464338689"},"vehicle_type_id":"4","last_reported":1730715066,"current_range_meters":28000,"station_id":"ce4bhbh2rcd13ifvqepg","pricing_plan_id":"cebpf4jnsgd1na2vs0mg"},{"bike_id":"00fa663e-ca43-453d-afb5-fe8b2d7b7459","system_id":"levelo_inurba_marseille","lat":43.30549,"lon":5.36526,"is_reserved":false,"is_disabled":false,"rental_uris":{"android":"levelo://app?vid=00fa663e-ca43-453d-afb5-fe8b2d7b7459","ios":"levelo://app?vid=00fa663e-ca43-453d-afb5-fe8b2d7b7459"},"vehicle_type_id":"4","last_reported":1730715066,"current_range_meters":38800,"station_id":"ce4bgs12rcd13ifvqcag","pricing_plan_id":"cebpf4jnsgd1na2vs0mg"},{"bike_id":"d92c8444-a65d-4737-a606-0c5d8234cf5e","system_id":"levelo_inurba_marseille","lat":43.28979,"lon":5.3782,"is_reserved":false,"is_disabled":false,"rental_uris":{"android":"levelo://app?vid=d92c8444-a65d-4737-a606-0c5d8234cf5e","ios":"levelo://app?vid=d92c8444-a65d-4737-a606-0c5d8234cf5e"},"vehicle_type_id":"4","last_reported":1730715066,"current_range_meters":36800,"station_id":"ce4bh9p2rcd13ifvqed0","pricing_plan_id":"cebpf4jnsgd1na2vs0mg"},{"bike_id":"8f31e753-c0d2-41d7-8ee6-6bafa8c9e072","system_id":"levelo_inurba_marseille","lat":43.2408,"lon":5.37747,"is_reserved":false,"is_disabled":false,"rental_uris":{"android":"levelo://app?vid=8f31e753-c0d2-41d7-8ee6-6bafa8c9e072","ios":"levelo://app?vid=8f31e753-c0d2-41d7-8ee6-6bafa8c9e072"},"vehicle_type_id":"4","last_reported":1730715066,"current_range_meters":32800,"station_id":"ce4bhnp2rcd13ifvqgvg","pricing_plan_id":"cebpf4jnsgd1na2vs0mg"},{"bike_id":"ff8c2b26-dc4d-4dd3-b2b9-8992f4bdbc12","system_id":"levelo_inurba_marseille","lat":43.28105,"lon":5.3783,"is_reserved":false,"is_disabled":false,"rental_uris":{"android":"levelo://app?vid=ff8c2b26-dc4d-4dd3-b2b9-8992f4bdbc12","ios":"levelo://app?vid=ff8c2b26-dc4d-4dd3-b2b9-8992f4bdbc12"},"vehicle_type_id":"4","last_reported":1730715066,"current_range_meters":25600,"station_id":"ce4bha12rcd13ifvqee0","pricing_plan_id":"cebpf4jnsgd1na2vs0mg"},{"bike_id":"be489a06-75ed-4736-886a-d0549ad022c5","system_id":"levelo_inurba_marseille","lat":43.29572,"lon":5.37505,"is_reserved":false,"is_disabled":false,"rental_uris":{"android":"levelo://app?vid=be489a06-75ed-4736-886a-d0549ad022c5","ios":"levelo://app?vid=be489a06-75ed-4736-886a-d0549ad022c5"},"vehicle_type_id":"4","last_reported":1730715066,"current_range_meters":28800,"station_id":"ce4bgh92rcd13ifvqb50","pricing_plan_id":"cebpf4jnsgd1na2vs0mg"},{"bike_id":"e2abd31f-f10b-4a82-b723-e32a7fde9bd8","system_id":"levelo_inurba_marseille","lat":43.30948,"lon":5.40134,"is_reserved":false,"is_disabled":false,"rental_uris":{"android":"levelo://app?vid=e2abd31f-f10b-4a82-b723-e32a7fde9bd8","ios":"levelo://app?vid=e2abd31f-f10b-4a82-b723-e32a7fde9bd8"},"vehicle_type_id":"4","last_reported":1730715066,"current_range_meters":16400,"station_id":"ce4bgvp2rcd13ifvqct0","pricing_plan_id":"cebpf4jnsgd1na2vs0mg"},{"bike_id":"5bba7c22-fefb-4ebe-b8be-388db8cc34a2","system_id":"levelo_inurba_marseille","lat":43.25867,"lon":5.39889,"is_reserved":false,"is_disabled":false,"rental_uris":{"android":"levelo://app?vid=5bba7c22-fefb-4ebe-b8be-388db8cc34a2","ios":"levelo://app?vid=5bba7c22-fefb-4ebe-b8be-388db8cc34a2"},"vehicle_type_id":"4","last_reported":1730715066,"current_range_meters":20000,"station_id":"ce4bhl92rcd13ifvqghg","pricing_plan_id":"cebpf4jnsgd1na2vs0mg"},{"bike_id":"5cebc7c7-1425-4012-8ecc-1436e09ba8ae","system_id":"levelo_inurba_marseille","lat":43.30137,"lon":5.37417,"is_reserved":false,"is_disabled":false,"rental_uris":{"android":"levelo://app?vid=5cebc7c7-1425-4012-8ecc-1436e09ba8ae","ios":"levelo://app?vid=5cebc7c7-1425-4012-8ecc-1436e09ba8ae"},"vehicle_type_id":"4","last_reported":1730715066,"current_range_meters":18800,"station_id":"ce4bgs92rcd13ifvqcc0","pricing_plan_id":"cebpf4jnsgd1na2vs0mg"},{"bike_id":"baee8935-462a-45e7-89ea-2647d185d886","system_id":"levelo_inurba_marseille","lat":43.26952,"lon":5.38625,"is_reserved":false,"is_disabled":false,"rental_uris":{"android":"levelo://app?vid=baee8935-462a-45e7-89ea-2647d185d886","ios":"levelo://app?vid=baee8935-462a-45e7-89ea-2647d185d886"},"vehicle_type_id":"4","last_reported":1730715066,"current_range_meters":33600,"station_id":"ce4bhh92rcd13ifvqfh0","pricing_plan_id":"cebpf4jnsgd1na2vs0mg"},{"bike_id":"b0672c50-2175-4879-9ad4-3ae408ab9c9a","system_id":"levelo_inurba_marseille","lat":43.33023,"lon":5.39044,"is_reserved":false,"is_disabled":false,"rental_uris":{"android":"levelo://app?vid=b0672c50-2175-4879-9ad4-3ae408ab9c9a","ios":"levelo://app?vid=b0672c50-2175-4879-9ad4-3ae408ab9c9a"},"vehicle_type_id":"4","last_reported":1730715066,"current_range_meters":8000,"station_id":"ce4bhr92rcd13ifvqhrg","pricing_plan_id":"cebpf4jnsgd1na2vs0mg"},{"bike_id":"20ba62ee-2151-4dc9-8a72-2d3c7b78e768","system_id":"levelo_inurba_marseille","lat":43.2594,"lon":5.40901,"is_reserved":false,"is_disabled":false,"rental_uris":{"android":"levelo://app?vid=20ba62ee-2151-4dc9-8a72-2d3c7b78e768","ios":"levelo://app?vid=20ba62ee-2151-4dc9-8a72-2d3c7b78e768"},"vehicle_type_id":"4","last_reported":1730715066,"current_range_meters":34000,"station_id":"ce4bhm92rcd13ifvqglg","pricing_plan_id":"cebpf4jnsgd1na2vs0mg"},{"bike_id":"fe144177-327f-48aa-98bf-b0d3318680db","system_id":"levelo_inurba_marseille","lat":43.24078,"lon":5.37748,"is_reserved":false,"is_disabled":false,"rental_uris":{"android":"levelo://app?vid=fe144177-327f-48aa-98bf-b0d3318680db","ios":"levelo://app?vid=fe144177-327f-48aa-98bf-b0d3318680db"},"vehicle_type_id":"4","last_reported":1730715066,"current_range_meters":10800,"station_id":"ce4bhnp2rcd13ifvqgvg","pricing_plan_id":"cebpf4jnsgd1na2vs0mg"},{"bike_id":"c767894e-fb6b-4ccb-9c8e-d01b14f25398","system_id":"levelo_inurba_marseille","lat":43.26684,"lon":5.38267,"is_reserved":false,"is_disabled":false,"rental_uris":{"android":"levelo://app?vid=c767894e-fb6b-4ccb-9c8e-d01b14f25398","ios":"levelo://app?vid=c767894e-fb6b-4ccb-9c8e-d01b14f25398"},"vehicle_type_id":"4","last_reported":1730715066,"current_range_meters":14000,"station_id":"ce4bhg92rcd13ifvqf90","pricing_plan_id":"cebpf4jnsgd1na2vs0mg"},{"bike_id":"61864400-2b8e-4568-889d-c79c7cc8f788","system_id":"levelo_inurba_marseille","lat":43.23154,"lon":5.43711,"is_reserved":false,"is_disabled":false,"rental_uris":{"android":"levelo://app?vid=61864400-2b8e-4568-889d-c79c7cc8f788","ios":"levelo://app?vid=61864400-2b8e-4568-889d-c79c7cc8f788"},"vehicle_type_id":"4","last_reported":1730715066,"current_range_meters":9200,"station_id":"ce4bhmp2rcd13ifvqgog","pricing_plan_id":"cebpf4jnsgd1na2vs0mg"},{"bike_id":"adc68074-c1bf-489b-b4fb-7f92cf64c2cc","system_id":"levelo_inurba_marseille","lat":43.26945,"lon":5.38648,"is_reserved":false,"is_disabled":false,"rental_uris":{"android":"levelo://app?vid=adc68074-c1bf-489b-b4fb-7f92cf64c2cc","ios":"levelo://app?vid=adc68074-c1bf-489b-b4fb-7f92cf64c2cc"},"vehicle_type_id":"4","last_reported":1730715066,"current_range_meters":27600,"station_id":"ce4bhh92rcd13ifvqfh0","pricing_plan_id":"cebpf4jnsgd1na2vs0mg"},{"bike_id":"7a58136c-3165-4313-8fac-2c364b399752","system_id":"levelo_inurba_marseille","lat":43.33723,"lon":5.39181,"is_reserved":false,"is_disabled":false,"rental_uris":{"android":"levelo://app?vid=7a58136c-3165-4313-8fac-2c364b399752","ios":"levelo://app?vid=7a58136c-3165-4313-8fac-2c364b399752"},"vehicle_type_id":"4","last_reported":1730715066,"current_range_meters":28800,"station_id":"ce4bhr92rcd13ifvqhsg","pricing_plan_id":"cebpf4jnsgd1na2vs0mg"},{"bike_id":"f8abd8c9-d457-4e36-a12f-d15a50d6ca32","system_id":"levelo_inurba_marseille","lat":43.24649,"lon":5.38888,"is_reserved":false,"is_disabled":false,"rental_uris":{"android":"levelo://app?vid=f8abd8c9-d457-4e36-a12f-d15a50d6ca32","ios":"levelo://app?vid=f8abd8c9-d457-4e36-a12f-d15a50d6ca32"},"vehicle_type_id":"4","last_reported":1730715066,"current_range_meters":19200,"station_id":"ce4bhg12rcd13ifvqf60","pricing_plan_id":"cebpf4jnsgd1na2vs0mg"},{"bike_id":"a3ae4c1b-8ed3-43f0-95b2-9f60ca274476","system_id":"levelo_inurba_marseille","lat":43.324827,"lon":5.365657,"is_reserved":false,"is_disabled":false,"rental_uris":{"android":"levelo://app?vid=a3ae4c1b-8ed3-43f0-95b2-9f60ca274476","ios":"levelo://app?vid=a3ae4c1b-8ed3-43f0-95b2-9f60ca274476"},"vehicle_type_id":"4","last_reported":1730715066,"current_range_meters":38800,"station_id":"ce4bhs12rcd13ifvqhvg","pricing_plan_id":"cebpf4jnsgd1na2vs0mg"},{"bike_id":"ab9173ec-0645-441d-90af-326a5e948990","system_id":"levelo_inurba_marseille","lat":43.2835,"lon":5.38108,"is_reserved":false,"is_disabled":false,"rental_uris":{"android":"levelo://app?vid=ab9173ec-0645-441d-90af-326a5e948990","ios":"levelo://app?vid=ab9173ec-0645-441d-90af-326a5e948990"},"vehicle_type_id":"4","last_reported":1730715066,"current_range_meters":28400,"station_id":"ce4bh412rcd13ifvqdr0","pricing_plan_id":"cebpf4jnsgd1na2vs0mg"},{"bike_id":"77da8c0e-0043-48d9-9bee-c58df7d82bb8","system_id":"levelo_inurba_marseille","lat":43.30536,"lon":5.36704,"is_reserved":false,"is_disabled":false,"rental_uris":{"android":"levelo://app?vid=77da8c0e-0043-48d9-9bee-c58df7d82bb8","ios":"levelo://app?vid=77da8c0e-0043-48d9-9bee-c58df7d82bb8"},"vehicle_type_id":"4","last_reported":1730715066,"current_range_meters":22800,"station_id":"ce4bgrp2rcd13ifvqc9g","pricing_plan_id":"cebpf4jnsgd1na2vs0mg"},{"bike_id":"493d40b9-a581-4129-a3d4-fee20b359c39","system_id":"levelo_inurba_marseille","lat":43.31229,"lon":5.3685,"is_reserved":false,"is_disabled":false,"rental_uris":{"android":"levelo://app?vid=493d40b9-a581-4129-a3d4-fee20b359c39","ios":"levelo://app?vid=493d40b9-a581-4129-a3d4-fee20b359c39"},"vehicle_type_id":"4","last_reported":1730715066,"current_range_meters":32800,"station_id":"ce4bgl92rcd13ifvqbq0","pricing_plan_id":"cebpf4jnsgd1na2vs0mg"},{"bike_id":"d5154aa7-9f6d-4f09-8dd7-076b92df9944","system_id":"levelo_inurba_marseille","lat":43.3097,"lon":5.39033,"is_reserved":false,"is_disabled":false,"rental_uris":{"android":"levelo://app?vid=d5154aa7-9f6d-4f09-8dd7-076b92df9944","ios":"levelo://app?vid=d5154aa7-9f6d-4f09-8dd7-076b92df9944"},"vehicle_type_id":"4","last_reported":1730715066,"current_range_meters":34800,"station_id":"ce4bgup2rcd13ifvqco0","pricing_plan_id":"cebpf4jnsgd1na2vs0mg"},{"bike_id":"6e7dd636-a5c9-49a8-9da5-13f5d56a1f4c","system_id":"levelo_inurba_marseille","lat":43.30135,"lon":5.37412,"is_reserved":false,"is_disabled":false,"rental_uris":{"android":"levelo://app?vid=6e7dd636-a5c9-49a8-9da5-13f5d56a1f4c","ios":"levelo://app?vid=6e7dd636-a5c9-49a8-9da5-13f5d56a1f4c"},"vehicle_type_id":"4","last_reported":1730715066,"current_range_meters":12400,"station_id":"ce4bgs92rcd13ifvqcc0","pricing_plan_id":"cebpf4jnsgd1na2vs0mg"},{"bike_id":"ad6b9979-2833-497c-ae59-5afeb88a87ce","system_id":"levelo_inurba_marseille","lat":43.32359,"lon":5.36756,"is_reserved":false,"is_disabled":false,"rental_uris":{"android":"levelo://app?vid=ad6b9979-2833-497c-ae59-5afeb88a87ce","ios":"levelo://app?vid=ad6b9979-2833-497c-ae59-5afeb88a87ce"},"vehicle_type_id":"4","last_reported":1730715066,"current_range_meters":36800,"station_id":"ce4bhsh2rcd13ifvqi2g","pricing_plan_id":"cebpf4jnsgd1na2vs0mg"},{"bike_id":"b68db036-3fa9-493f-89e6-b4fbc6cc60b2","system_id":"levelo_inurba_marseille","lat":43.27491,"lon":5.42454,"is_reserved":false,"is_disabled":false,"rental_uris":{"android":"levelo://app?vid=b68db036-3fa9-493f-89e6-b4fbc6cc60b2","ios":"levelo://app?vid=b68db036-3fa9-493f-89e6-b4fbc6cc60b2"},"vehicle_type_id":"4","last_reported":1730715066,"current_range_meters":14400,"station_id":"ce4bhn92rcd13ifvqgrg","pricing_plan_id":"cebpf4jnsgd1na2vs0mg"},{"bike_id":"fa4b79b7-0b68-44fd-a86a-a3d67eed44d0","system_id":"levelo_inurba_marseille","lat":43.33612,"lon":5.41031,"is_reserved":false,"is_disabled":false,"rental_uris":{"android":"levelo://app?vid=fa4b79b7-0b68-44fd-a86a-a3d67eed44d0","ios":"levelo://app?vid=fa4b79b7-0b68-44fd-a86a-a3d67eed44d0"},"vehicle_type_id":"4","last_reported":1730715066,"current_range_meters":30400,"station_id":"ce4bhqh2rcd13ifvqhmg","pricing_plan_id":"cebpf4jnsgd1na2vs0mg"},{"bike_id":"aca15595-4d0b-4e26-ba02-b8d02f9c6ef1","system_id":"levelo_inurba_marseille","lat":43.30612,"lon":5.37232,"is_reserved":false,"is_disabled":false,"rental_uris":{"android":"levelo://app?vid=aca15595-4d0b-4e26-ba02-b8d02f9c6ef1","ios":"levelo://app?vid=aca15595-4d0b-4e26-ba02-b8d02f9c6ef1"},"vehicle_type_id":"4","last_reported":1730715066,"current_range_meters":32400,"station_id":"ce4bgqh2rcd13ifvqc4g","pricing_plan_id":"cebpf4jnsgd1na2vs0mg"},{"bike_id":"5d3c3804-2fe2-458d-8917-55765b91a260","system_id":"levelo_inurba_marseille","lat":43.24384,"lon":5.37057,"is_reserved":false,"is_disabled":false,"rental_uris":{"android":"levelo://app?vid=5d3c3804-2fe2-458d-8917-55765b91a260","ios":"levelo://app?vid=5d3c3804-2fe2-458d-8917-55765b91a260"},"vehicle_type_id":"4","last_reported":1730715066,"current_range_meters":31200,"station_id":"ce4bhhh2rcd13ifvqfk0","pricing_plan_id":"cebpf4jnsgd1na2vs0mg"},{"bike_id":"d2738cce-314b-4cee-88e4-e667009c47fa","system_id":"levelo_inurba_marseille","lat":43.25928,"lon":5.40896,"is_reserved":false,"is_disabled":false,"rental_uris":{"android":"levelo://app?vid=d2738cce-314b-4cee-88e4-e667009c47fa","ios":"levelo://app?vid=d2738cce-314b-4cee-88e4-e667009c47fa"},"vehicle_type_id":"4","last_reported":1730715066,"current_range_meters":7200,"station_id":"ce4bhm92rcd13ifvqglg","pricing_plan_id":"cebpf4jnsgd1na2vs0mg"},{"bike_id":"3070c640-07d6-40c9-95a3-a00f24995dc9","system_id":"levelo_inurba_marseille","lat":43.28365,"lon":5.3864,"is_reserved":false,"is_disabled":false,"rental_uris":{"android":"levelo://app?vid=3070c640-07d6-40c9-95a3-a00f24995dc9","ios":"levelo://app?vid=3070c640-07d6-40c9-95a3-a00f24995dc9"},"vehicle_type_id":"4","last_reported":1730715066,"current_range_meters":38800,"station_id":"ce4bh492rcd13ifvqdvg","pricing_plan_id":"cebpf4jnsgd1na2vs0mg"},{"bike_id":"1e4f763b-eed0-4036-9bbe-2ffbd747890f","system_id":"levelo_inurba_marseille","lat":43.30957,"lon":5.39036,"is_reserved":false,"is_disabled":false,"rental_uris":{"android":"levelo://app?vid=1e4f763b-eed0-4036-9bbe-2ffbd747890f","ios":"levelo://app?vid=1e4f763b-eed0-4036-9bbe-2ffbd747890f"},"vehicle_type_id":"4","last_reported":1730715066,"current_range_meters":36800,"station_id":"ce4bgup2rcd13ifvqco0","pricing_plan_id":"cebpf4jnsgd1na2vs0mg"},{"bike_id":"3ea98146-e7ec-4434-906e-145512b44a69","system_id":"levelo_inurba_marseille","lat":43.30136,"lon":5.37408,"is_reserved":false,"is_disabled":false,"rental_uris":{"android":"levelo://app?vid=3ea98146-e7ec-4434-906e-145512b44a69","ios":"levelo://app?vid=3ea98146-e7ec-4434-906e-145512b44a69"},"vehicle_type_id":"4","last_reported":1730715066,"current_range_meters":36000,"station_id":"ce4bgs92rcd13ifvqcc0","pricing_plan_id":"cebpf4jnsgd1na2vs0mg"},{"bike_id":"22277462-ea58-4946-ba2c-ef08f6cd7659","system_id":"levelo_inurba_marseille","lat":43.2797,"lon":5.4105,"is_reserved":false,"is_disabled":false,"rental_uris":{"android":"levelo://app?vid=22277462-ea58-4946-ba2c-ef08f6cd7659","ios":"levelo://app?vid=22277462-ea58-4946-ba2c-ef08f6cd7659"},"vehicle_type_id":"4","last_reported":1730715066,"current_range_meters":12800,"station_id":"","pricing_plan_id":"cebpf4jnsgd1na2vs0mg"},{"bike_id":"43b3a1fb-7fdb-4124-9cf1-817f4f5e8a36","system_id":"levelo_inurba_marseille","lat":43.29714,"lon":5.37698,"is_reserved":false,"is_disabled":false,"rental_uris":{"android":"levelo://app?vid=43b3a1fb-7fdb-4124-9cf1-817f4f5e8a36","ios":"levelo://app?vid=43b3a1fb-7fdb-4124-9cf1-817f4f5e8a36"},"vehicle_type_id":"4","last_reported":1730715066,"current_range_meters":18000,"station_id":"ce4bgkh2rcd13ifvqbl0","pricing_plan_id":"cebpf4jnsgd1na2vs0mg"},{"bike_id":"af50b2bf-f1ba-4363-8b2a-66f11fbc1723","system_id":"levelo_inurba_marseille","lat":43.291189,"lon":5.380781,"is_reserved":false,"is_disabled":false,"rental_uris":{"android":"levelo://app?vid=af50b2bf-f1ba-4363-8b2a-66f11fbc1723","ios":"levelo://app?vid=af50b2bf-f1ba-4363-8b2a-66f11fbc1723"},"vehicle_type_id":"4","last_reported":1730715066,"current_range_meters":15200,"station_id":"ce4bh4p2rcd13ifvqe1g","pricing_plan_id":"cebpf4jnsgd1na2vs0mg"},{"bike_id":"86285ce3-d06d-43fa-aff5-7dec079c234c","system_id":"levelo_inurba_marseille","lat":43.3107,"lon":5.38352,"is_reserved":false,"is_disabled":false,"rental_uris":{"android":"levelo://app?vid=86285ce3-d06d-43fa-aff5-7dec079c234c","ios":"levelo://app?vid=86285ce3-d06d-43fa-aff5-7dec079c234c"},"vehicle_type_id":"4","last_reported":1730715066,"current_range_meters":19200,"station_id":"ce4bgv92rcd13ifvqcr0","pricing_plan_id":"cebpf4jnsgd1na2vs0mg"},{"bike_id":"f40f8051-0dd6-4f3f-8991-a5de540a152d","system_id":"levelo_inurba_marseille","lat":43.283569,"lon":5.381033,"is_reserved":false,"is_disabled":false,"rental_uris":{"android":"levelo://app?vid=f40f8051-0dd6-4f3f-8991-a5de540a152d","ios":"levelo://app?vid=f40f8051-0dd6-4f3f-8991-a5de540a152d"},"vehicle_type_id":"4","last_reported":1730715066,"current_range_meters":33200,"station_id":"ce4bh412rcd13ifvqdr0","pricing_plan_id":"cebpf4jnsgd1na2vs0mg"},{"bike_id":"f761b98b-858b-4242-943f-5faf4a09ace9","system_id":"levelo_inurba_marseille","lat":43.2756,"lon":5.38426,"is_reserved":false,"is_disabled":false,"rental_uris":{"android":"levelo://app?vid=f761b98b-858b-4242-943f-5faf4a09ace9","ios":"levelo://app?vid=f761b98b-858b-4242-943f-5faf4a09ace9"},"vehicle_type_id":"4","last_reported":1730715066,"current_range_meters":23200,"station_id":"ce4bhh92rcd13ifvqfi0","pricing_plan_id":"cebpf4jnsgd1na2vs0mg"},{"bike_id":"b19ed350-96e8-4003-8f7a-008153e449b3","system_id":"levelo_inurba_marseille","lat":43.24173,"lon":5.39722,"is_reserved":false,"is_disabled":false,"rental_uris":{"android":"levelo://app?vid=b19ed350-96e8-4003-8f7a-008153e449b3","ios":"levelo://app?vid=b19ed350-96e8-4003-8f7a-008153e449b3"},"vehicle_type_id":"4","last_reported":1730715066,"current_range_meters":13600,"station_id":"ce4bhn12rcd13ifvqgpg","pricing_plan_id":"cebpf4jnsgd1na2vs0mg"},{"bike_id":"d0dcbb3a-18eb-44e3-9933-f7f7f781950f","system_id":"levelo_inurba_marseille","lat":43.27204,"lon":5.39182,"is_reserved":false,"is_disabled":false,"rental_uris":{"android":"levelo://app?vid=d0dcbb3a-18eb-44e3-9933-f7f7f781950f","ios":"levelo://app?vid=d0dcbb3a-18eb-44e3-9933-f7f7f781950f"},"vehicle_type_id":"4","last_reported":1730715066,"current_range_meters":26000,"station_id":"ce4bhhp2rcd13ifvqfm0","pricing_plan_id":"cebpf4jnsgd1na2vs0mg"},{"bike_id":"714dea4e-1707-4c77-a665-1761aea59e16","system_id":"levelo_inurba_marseille","lat":43.26801,"lon":5.40267,"is_reserved":false,"is_disabled":false,"rental_uris":{"android":"levelo://app?vid=714dea4e-1707-4c77-a665-1761aea59e16","ios":"levelo://app?vid=714dea4e-1707-4c77-a665-1761aea59e16"},"vehicle_type_id":"4","last_reported":1730715066,"current_range_meters":16000,"station_id":"ce501612rcd8frsf0b60","pricing_plan_id":"cebpf4jnsgd1na2vs0mg"},{"bike_id":"7d9ee8ba-656e-46e2-afbf-5eed9f48fbad","system_id":"levelo_inurba_marseille","lat":43.31215,"lon":5.36862,"is_reserved":false,"is_disabled":false,"rental_uris":{"android":"levelo://app?vid=7d9ee8ba-656e-46e2-afbf-5eed9f48fbad","ios":"levelo://app?vid=7d9ee8ba-656e-46e2-afbf-5eed9f48fbad"},"vehicle_type_id":"4","last_reported":1730715066,"current_range_meters":38800,"station_id":"ce4bgl92rcd13ifvqbq0","pricing_plan_id":"cebpf4jnsgd1na2vs0mg"},{"bike_id":"2a4ec70a-39cc-4be2-ba99-e5bbf5dfb6ae","system_id":"levelo_inurba_marseille","lat":43.25869,"lon":5.39899,"is_reserved":false,"is_disabled":false,"rental_uris":{"android":"levelo://app?vid=2a4ec70a-39cc-4be2-ba99-e5bbf5dfb6ae","ios":"levelo://app?vid=2a4ec70a-39cc-4be2-ba99-e5bbf5dfb6ae"},"vehicle_type_id":"4","last_reported":1730715066,"current_range_meters":16000,"station_id":"ce4bhl92rcd13ifvqghg","pricing_plan_id":"cebpf4jnsgd1na2vs0mg"},{"bike_id":"e965a5a5-d13d-4a75-99d6-cfc5678f6b32","system_id":"levelo_inurba_marseille","lat":43.26039,"lon":5.37944,"is_reserved":false,"is_disabled":false,"rental_uris":{"android":"levelo://app?vid=e965a5a5-d13d-4a75-99d6-cfc5678f6b32","ios":"levelo://app?vid=e965a5a5-d13d-4a75-99d6-cfc5678f6b32"},"vehicle_type_id":"4","last_reported":1730715066,"current_range_meters":37600,"station_id":"ce4bhjp2rcd13ifvqg90","pricing_plan_id":"cebpf4jnsgd1na2vs0mg"},{"bike_id":"9a3c9924-4d33-43b2-9add-c558cd4e5c7d","system_id":"levelo_inurba_marseille","lat":43.30464,"lon":5.37896,"is_reserved":false,"is_disabled":false,"rental_uris":{"android":"levelo://app?vid=9a3c9924-4d33-43b2-9add-c558cd4e5c7d","ios":"levelo://app?vid=9a3c9924-4d33-43b2-9add-c558cd4e5c7d"},"vehicle_type_id":"4","last_reported":1730715066,"current_range_meters":30800,"station_id":"ce4bgup2rcd13ifvqcn0","pricing_plan_id":"cebpf4jnsgd1na2vs0mg"},{"bike_id":"444298e4-443b-4c3b-a020-4132fc610d68","system_id":"levelo_inurba_marseille","lat":43.2997,"lon":5.37162,"is_reserved":false,"is_disabled":false,"rental_uris":{"android":"levelo://app?vid=444298e4-443b-4c3b-a020-4132fc610d68","ios":"levelo://app?vid=444298e4-443b-4c3b-a020-4132fc610d68"},"vehicle_type_id":"4","last_reported":1730715066,"current_range_meters":38800,"station_id":"ce4bgr92rcd13ifvqc7g","pricing_plan_id":"cebpf4jnsgd1na2vs0mg"},{"bike_id":"cb81e8a1-f5c2-4c95-bfcd-076f7f535ffd","system_id":"levelo_inurba_marseille","lat":43.29728,"lon":5.371563,"is_reserved":false,"is_disabled":false,"rental_uris":{"android":"levelo://app?vid=cb81e8a1-f5c2-4c95-bfcd-076f7f535ffd","ios":"levelo://app?vid=cb81e8a1-f5c2-4c95-bfcd-076f7f535ffd"},"vehicle_type_id":"4","last_reported":1730715066,"current_range_meters":19600,"station_id":"","pricing_plan_id":"cebpf4jnsgd1na2vs0mg"},{"bike_id":"b002bdad-c1af-41c6-891d-1723b6bdf0d4","system_id":"levelo_inurba_marseille","lat":43.30967,"lon":5.39036,"is_reserved":false,"is_disabled":false,"rental_uris":{"android":"levelo://app?vid=b002bdad-c1af-41c6-891d-1723b6bdf0d4","ios":"levelo://app?vid=b002bdad-c1af-41c6-891d-1723b6bdf0d4"},"vehicle_type_id":"4","last_reported":1730715066,"current_range_meters":20000,"station_id":"ce4bgup2rcd13ifvqco0","pricing_plan_id":"cebpf4jnsgd1na2vs0mg"},{"bike_id":"5a5ca637-4a18-4597-b859-7ab9a6b224f3","system_id":"levelo_inurba_marseille","lat":43.23148,"lon":5.43726,"is_reserved":false,"is_disabled":false,"rental_uris":{"android":"levelo://app?vid=5a5ca637-4a18-4597-b859-7ab9a6b224f3","ios":"levelo://app?vid=5a5ca637-4a18-4597-b859-7ab9a6b224f3"},"vehicle_type_id":"4","last_reported":1730715066,"current_range_meters":9200,"station_id":"ce4bhmp2rcd13ifvqgog","pricing_plan_id":"cebpf4jnsgd1na2vs0mg"},{"bike_id":"0010a6aa-a10e-44f2-ad68-04a562a5f99a","system_id":"levelo_inurba_marseille","lat":43.33606,"lon":5.41027,"is_reserved":false,"is_disabled":false,"rental_uris":{"android":"levelo://app?vid=0010a6aa-a10e-44f2-ad68-04a562a5f99a","ios":"levelo://app?vid=0010a6aa-a10e-44f2-ad68-04a562a5f99a"},"vehicle_type_id":"4","last_reported":1730715066,"current_range_meters":22800,"station_id":"ce4bhqh2rcd13ifvqhmg","pricing_plan_id":"cebpf4jnsgd1na2vs0mg"},{"bike_id":"0e96aa8a-6651-4df6-8c72-fb29a760544e","system_id":"levelo_inurba_marseille","lat":43.29915,"lon":5.3747,"is_reserved":false,"is_disabled":false,"rental_uris":{"android":"levelo://app?vid=0e96aa8a-6651-4df6-8c72-fb29a760544e","ios":"levelo://app?vid=0e96aa8a-6651-4df6-8c72-fb29a760544e"},"vehicle_type_id":"4","last_reported":1730715066,"current_range_meters":21600,"station_id":"ce4bgjh2rcd13ifvqbg0","pricing_plan_id":"cebpf4jnsgd1na2vs0mg"},{"bike_id":"c2e5ff9a-9dd4-479a-9dd6-52948c6f960c","system_id":"levelo_inurba_marseille","lat":43.337568,"lon":5.374549,"is_reserved":false,"is_disabled":false,"rental_uris":{"android":"levelo://app?vid=c2e5ff9a-9dd4-479a-9dd6-52948c6f960c","ios":"levelo://app?vid=c2e5ff9a-9dd4-479a-9dd6-52948c6f960c"},"vehicle_type_id":"4","last_reported":1730715066,"current_range_meters":38400,"station_id":"","pricing_plan_id":"cebpf4jnsgd1na2vs0mg"},{"bike_id":"b1078aa1-07c9-43e0-baad-b05bfd4fd1d1","system_id":"levelo_inurba_marseille","lat":43.30537,"lon":5.3654,"is_reserved":false,"is_disabled":false,"rental_uris":{"android":"levelo://app?vid=b1078aa1-07c9-43e0-baad-b05bfd4fd1d1","ios":"levelo://app?vid=b1078aa1-07c9-43e0-baad-b05bfd4fd1d1"},"vehicle_type_id":"4","last_reported":1730715066,"current_range_meters":19200,"station_id":"ce4bgs12rcd13ifvqcag","pricing_plan_id":"cebpf4jnsgd1na2vs0mg"},{"bike_id":"a7ce3e07-385e-4247-9f14-8d58313f5c7d","system_id":"levelo_inurba_marseille","lat":43.32487,"lon":5.36562,"is_reserved":false,"is_disabled":false,"rental_uris":{"android":"levelo://app?vid=a7ce3e07-385e-4247-9f14-8d58313f5c7d","ios":"levelo://app?vid=a7ce3e07-385e-4247-9f14-8d58313f5c7d"},"vehicle_type_id":"4","last_reported":1730715066,"current_range_meters":28800,"station_id":"","pricing_plan_id":"cebpf4jnsgd1na2vs0mg"},{"bike_id":"b63470a3-afe7-437b-a108-7e37d58b9081","system_id":"levelo_inurba_marseille","lat":43.27614,"lon":5.38986,"is_reserved":false,"is_disabled":false,"rental_uris":{"android":"levelo://app?vid=b63470a3-afe7-437b-a108-7e37d58b9081","ios":"levelo://app?vid=b63470a3-afe7-437b-a108-7e37d58b9081"},"vehicle_type_id":"4","last_reported":1730715066,"current_range_meters":36400,"station_id":"","pricing_plan_id":"cebpf4jnsgd1na2vs0mg"},{"bike_id":"2e83a5ec-539f-4da3-96ad-d96c270d4bff","system_id":"levelo_inurba_marseille","lat":43.32534,"lon":5.41441,"is_reserved":false,"is_disabled":false,"rental_uris":{"android":"levelo://app?vid=2e83a5ec-539f-4da3-96ad-d96c270d4bff","ios":"levelo://app?vid=2e83a5ec-539f-4da3-96ad-d96c270d4bff"},"vehicle_type_id":"4","last_reported":1730715066,"current_range_meters":26800,"station_id":"ce4bhq12rcd13ifvqhhg","pricing_plan_id":"cebpf4jnsgd1na2vs0mg"},{"bike_id":"f476710f-91c6-4560-8599-a267875445ba","system_id":"levelo_inurba_marseille","lat":43.26951,"lon":5.38627,"is_reserved":false,"is_disabled":false,"rental_uris":{"android":"levelo://app?vid=f476710f-91c6-4560-8599-a267875445ba","ios":"levelo://app?vid=f476710f-91c6-4560-8599-a267875445ba"},"vehicle_type_id":"4","last_reported":1730715066,"current_range_meters":38800,"station_id":"ce4bhh92rcd13ifvqfh0","pricing_plan_id":"cebpf4jnsgd1na2vs0mg"},{"bike_id":"b660520d-7bca-4b11-8965-e79652640606","system_id":"levelo_inurba_marseille","lat":43.32356,"lon":5.36752,"is_reserved":false,"is_disabled":false,"rental_uris":{"android":"levelo://app?vid=b660520d-7bca-4b11-8965-e79652640606","ios":"levelo://app?vid=b660520d-7bca-4b11-8965-e79652640606"},"vehicle_type_id":"4","last_reported":1730715066,"current_range_meters":8000,"station_id":"ce4bhsh2rcd13ifvqi2g","pricing_plan_id":"cebpf4jnsgd1na2vs0mg"},{"bike_id":"7b2daa43-2d7a-4e1a-b26e-724f64bf4f37","system_id":"levelo_inurba_marseille","lat":43.28413,"lon":5.34992,"is_reserved":false,"is_disabled":false,"rental_uris":{"android":"levelo://app?vid=7b2daa43-2d7a-4e1a-b26e-724f64bf4f37","ios":"levelo://app?vid=7b2daa43-2d7a-4e1a-b26e-724f64bf4f37"},"vehicle_type_id":"4","last_reported":1730715066,"current_range_meters":38800,"station_id":"ce4bhbh2rcd13ifvqepg","pricing_plan_id":"cebpf4jnsgd1na2vs0mg"},{"bike_id":"d7d47d1c-0535-46cf-8954-1649df593b1a","system_id":"levelo_inurba_marseille","lat":43.24078,"lon":5.37752,"is_reserved":false,"is_disabled":false,"rental_uris":{"android":"levelo://app?vid=d7d47d1c-0535-46cf-8954-1649df593b1a","ios":"levelo://app?vid=d7d47d1c-0535-46cf-8954-1649df593b1a"},"vehicle_type_id":"4","last_reported":1730715066,"current_range_meters":18000,"station_id":"ce4bhnp2rcd13ifvqgvg","pricing_plan_id":"cebpf4jnsgd1na2vs0mg"},{"bike_id":"556240cc-e7f2-48a4-aa5e-c4d59f7c9bed","system_id":"levelo_inurba_marseille","lat":43.26958,"lon":5.38631,"is_reserved":false,"is_disabled":false,"rental_uris":{"android":"levelo://app?vid=556240cc-e7f2-48a4-aa5e-c4d59f7c9bed","ios":"levelo://app?vid=556240cc-e7f2-48a4-aa5e-c4d59f7c9bed"},"vehicle_type_id":"4","last_reported":1730715066,"current_range_meters":39200,"station_id":"ce4bhh92rcd13ifvqfh0","pricing_plan_id":"cebpf4jnsgd1na2vs0mg"},{"bike_id":"63a65b91-603b-4aa1-b0c4-693c0f219c31","system_id":"levelo_inurba_marseille","lat":43.2408,"lon":5.37757,"is_reserved":false,"is_disabled":false,"rental_uris":{"android":"levelo://app?vid=63a65b91-603b-4aa1-b0c4-693c0f219c31","ios":"levelo://app?vid=63a65b91-603b-4aa1-b0c4-693c0f219c31"},"vehicle_type_id":"4","last_reported":1730715066,"current_range_meters":32400,"station_id":"ce4bhnp2rcd13ifvqgvg","pricing_plan_id":"cebpf4jnsgd1na2vs0mg"},{"bike_id":"c43f9cce-d490-4fd1-801b-69c9ee4842e7","system_id":"levelo_inurba_marseille","lat":43.269491,"lon":5.386389,"is_reserved":false,"is_disabled":false,"rental_uris":{"android":"levelo://app?vid=c43f9cce-d490-4fd1-801b-69c9ee4842e7","ios":"levelo://app?vid=c43f9cce-d490-4fd1-801b-69c9ee4842e7"},"vehicle_type_id":"4","last_reported":1730715066,"current_range_meters":39200,"station_id":"ce4bhh92rcd13ifvqfh0","pricing_plan_id":"cebpf4jnsgd1na2vs0mg"},{"bike_id":"f5271804-b9d4-4c86-8e80-cd382767a853","system_id":"levelo_inurba_marseille","lat":43.31054,"lon":5.38322,"is_reserved":false,"is_disabled":false,"rental_uris":{"android":"levelo://app?vid=f5271804-b9d4-4c86-8e80-cd382767a853","ios":"levelo://app?vid=f5271804-b9d4-4c86-8e80-cd382767a853"},"vehicle_type_id":"4","last_reported":1730715066,"current_range_meters":27600,"station_id":"ce4bhh92rcd13ifvqfi0","pricing_plan_id":"cebpf4jnsgd1na2vs0mg"},{"bike_id":"0aba54e2-6d88-4b1a-8332-43a7e09880dd","system_id":"levelo_inurba_marseille","lat":43.26951,"lon":5.38634,"is_reserved":false,"is_disabled":false,"rental_uris":{"android":"levelo://app?vid=0aba54e2-6d88-4b1a-8332-43a7e09880dd","ios":"levelo://app?vid=0aba54e2-6d88-4b1a-8332-43a7e09880dd"},"vehicle_type_id":"4","last_reported":1730715066,"current_range_meters":39200,"station_id":"ce4bhh92rcd13ifvqfh0","pricing_plan_id":"cebpf4jnsgd1na2vs0mg"},