{"last_updated":1744888096,"ttl":60,"version":"2.2","data":{"bikes":[{"bike_id":"24223659-7e57-4a0b-a27e-833ef817663a","system_id":"levelo_inurba_marseille","lat":43.2558,"lon":5.38247,"is_reserved":false,"is_disabled":false,"rental_uris":{"android":"levelo://app?vid=24223659-7e57-4a0b-a27e-833ef817663a","ios":"levelo://app?vid=24223659-7e57-4a0b-a27e-833ef817663a"},"vehicle_type_id":"4","last_reported":1744888096,"current_range_meters":2800,"station_id":"ce4bhih2rcd13ifvqfs0","pricing_plan_id":"cebpf4jnsgd1na2vs0mg"},{"bike_id":"4be423fc-b49d-4203-8abc-985b45dfd65e","system_id":"levelo_inurba_marseille","lat":43.32928,"lon":5.43392,"is_reserved":false,"is_disabled":false,"rental_uris":{"android":"levelo://app?vid=4be423fc-b49d-4203-8abc-985b45dfd65e","ios":"levelo://app?vid=4be423fc-b49d-4203-8abc-985b45dfd65e"},"vehicle_type_id":"4","last_reported":1744888096,"current_range_meters":3200,"station_id":"","pricing_plan_id":"cebpf4jnsgd1na2vs0mg"},{"bike_id":"e830f15f-1fc7-4598-869b-2baaf3289f9f","system_id":"levelo_inurba_marseille","lat":43.32548,"lon":5.41468,"is_reserved":false,"is_disabled":false,"rental_uris":{"android":"levelo://app?vid=e830f15f-1fc7-4598-869b-2baaf3289f9f","ios":"levelo://app?vid=e830f15f-1fc7-4598-869b-2baaf3289f9f"},"vehicle_type_id":"4","last_reported":1744888096,"current_range_meters":3600,"station_id":"ce4bhq12rcd13ifvqhhg","pricing_plan_id":"cebpf4jnsgd1na2vs0mg"},{"bike_id":"2afa25bc-7f71-491e-93fd-1a954e74ea42","system_id":"levelo_inurba_marseille","lat":43.295166,"lon":5.394064,"is_reserved":false,"is_disabled":false,"rental_uris":{"android":"levelo://app?vid=2afa25bc-7f71-491e-93fd-1a954e74ea42","ios":"levelo://app?vid=2afa25bc-7f71-491e-93fd-1a954e74ea42"},"vehicle_type_id":"4","last_reported":1744888096,"current_range_meters":3600,"station_id":"ce4bh692rcd13ifvqea0","pricing_plan_id":"cebpf4jnsgd1na2vs0mg"},{"bike_id":"376f754b-7bba-4962-babe-b49b1468281c","system_id":"levelo_inurba_marseille","lat":43.30927,"lon":5.40129,"is_reserved":false,"is_disabled":true,"rental_uris":{"android":"levelo://app?vid=376f754b-7bba-4962-babe-b49b1468281c","ios":"levelo://app?vid=376f754b-7bba-4962-babe-b49b1468281c"},"vehicle_type_id":"4","last_reported":1744888096,"current_range_meters":3600,"station_id":"ce4bgvp2rcd13ifvqct0","pricing_plan_id":"cebpf4jnsgd1na2vs0mg"},{"bike_id":"3bc5ba5b-8d55-466c-b126-0301703e0963","system_id":"levelo_inurba_marseille","lat":43.31216,"lon":5.36856,"is_reserved":false,"is_disabled":false,"rental_uris":{"android":"levelo://app?vid=3bc5ba5b-8d55-466c-b126-0301703e0963","ios":"levelo://app?vid=3bc5ba5b-8d55-466c-b126-0301703e0963"},"vehicle_type_id":"4","last_reported":1744888096,"current_range_meters":4000,"station_id":"ce4bgl92rcd13ifvqbq0","pricing_plan_id":"cebpf4jnsgd1na2vs0mg"},{"bike_id":"cb1e961c-5454-46f7-a4b2-44b341f1310e","system_id":"levelo_inurba_marseille","lat":43.2408,"lon":5.37754,"is_reserved":false,"is_disabled":false,"rental_uris":{"android":"levelo://app?vid=cb1e961c-5454-46f7-a4b2-44b341f1310e","ios":"levelo://app?vid=cb1e961c-5454-46f7-a4b2-44b341f1310e"},"vehicle_type_id":"4","last_reported":1744888096,"current_range_meters":4000,"station_id":"ce4bhnp2rcd13ifvqgvg","pricing_plan_id":"cebpf4jnsgd1na2vs0mg"},{"bike_id":"b6e30e17-c53d-41cd-9357-be6be43eac1b","system_id":"levelo_inurba_marseille","lat":43.28748,"lon":5.37927,"is_reserved":false,"is_disabled":false,"rental_uris":{"android":"levelo://app?vid=b6e30e17-c53d-41cd-9357-be6be43eac1b","ios":"levelo://app?vid=b6e30e17-c53d-41cd-9357-be6be43eac1b"},"vehicle_type_id":"4","last_reported":1744888096,"current_range_meters":4400,"station_id":"ce4bh9p2rcd13ifvqec0","pricing_plan_id":"cebpf4jnsgd1na2vs0mg"},{"bike_id":"09db7dfa-806a-4604-b985-83e23f627107","system_id":"levelo_inurba_marseille","lat":43.3088,"lon":5.3966,"is_reserved":false,"is_disabled":false,"rental_uris":{"android":"levelo://app?vid=09db7dfa-806a-4604-b985-83e23f627107","ios":"levelo://app?vid=09db7dfa-806a-4604-b985-83e23f627107"},"vehicle_type_id":"4","last_reported":1744888096,"current_range_meters":4400,"station_id":"ce4bh012rcd13ifvqcv0","pricing_plan_id":"cebpf4jnsgd1na2vs0mg"},{"bike_id":"27d65429-e235-4ad4-8e99-624219bf772a","system_id":"levelo_inurba_marseille","lat":43.3075,"lon":5.42433,"is_reserved":false,"is_disabled":false,"rental_uris":{"android":"levelo://app?vid=27d65429-e235-4ad4-8e99-624219bf772a","ios":"levelo://app?vid=27d65429-e235-4ad4-8e99-624219bf772a"},"vehicle_type_id":"4","last_reported":1744888096,"current_range_meters":4400,"station_id":"st_cvj6ca6bvosntc0bfgr0","pricing_plan_id":"cebpf4jnsgd1na2vs0mg"},{"bike_id":"e4ecfc8f-e4d8-4135-9523-3b596a93806f","system_id":"levelo_inurba_marseille","lat":43.30889,"lon":5.39657,"is_reserved":false,"is_disabled":false,"rental_uris":{"android":"levelo://app?vid=e4ecfc8f-e4d8-4135-9523-3b596a93806f","ios":"levelo://app?vid=e4ecfc8f-e4d8-4135-9523-3b596a93806f"},"vehicle_type_id":"4","last_reported":1744888096,"current_range_meters":4400,"station_id":"ce4bh012rcd13ifvqcv0","pricing_plan_id":"cebpf4jnsgd1na2vs0mg"},{"bike_id":"0ae24ac7-dbc2-483b-b18b-44adb15b0e49","system_id":"levelo_inurba_marseille","lat":43.2869,"lon":5.38664,"is_reserved":false,"is_disabled":false,"rental_uris":{"android":"levelo://app?vid=0ae24ac7-dbc2-483b-b18b-44adb15b0e49","ios":"levelo://app?vid=0ae24ac7-dbc2-483b-b18b-44adb15b0e49"},"vehicle_type_id":"4","last_reported":1744888096,"current_range_meters":4000,"station_id":"ce4bh492rcd13ifvqdug","pricing_plan_id":"cebpf4jnsgd1na2vs0mg"},{"bike_id":"d0fa1c66-c3d5-4977-98d2-ff60d56db392","system_id":"levelo_inurba_marseille","lat":43.2938,"lon":5.3786,"is_reserved":false,"is_disabled":true,"rental_uris":{"android":"levelo://app?vid=d0fa1c66-c3d5-4977-98d2-ff60d56db392","ios":"levelo://app?vid=d0fa1c66-c3d5-4977-98d2-ff60d56db392"},"vehicle_type_id":"4","last_reported":1744888096,"current_range_meters":4800,"station_id":"ce4bgjh2rcd13ifvqbf0","pricing_plan_id":"cebpf4jnsgd1na2vs0mg"},{"bike_id":"13265a65-0078-4658-a260-29784d76c6a7","system_id":"levelo_inurba_marseille","lat":43.301524,"lon":5.38108,"is_reserved":false,"is_disabled":false,"rental_uris":{"android":"levelo://app?vid=13265a65-0078-4658-a260-29784d76c6a7","ios":"levelo://app?vid=13265a65-0078-4658-a260-29784d76c6a7"},"vehicle_type_id":"4","last_reported":1744888096,"current_range_meters":4800,"station_id":"","pricing_plan_id":"cebpf4jnsgd1na2vs0mg"},{"bike_id":"05d39fa2-2f66-4b20-bb62-3da94c173bb5","system_id":"levelo_inurba_marseille","lat":43.28443,"lon":5.39186,"is_reserved":false,"is_disabled":false,"rental_uris":{"android":"levelo://app?vid=05d39fa2-2f66-4b20-bb62-3da94c173bb5","ios":"levelo://app?vid=05d39fa2-2f66-4b20-bb62-3da94c173bb5"},"vehicle_type_id":"4","last_reported":1744888096,"current_range_meters":6400,"station_id":"ce4bhoh2rcd13ifvqh5g","pricing_plan_id":"cebpf4jnsgd1na2vs0mg"},{"bike_id":"8cae0115-0477-4796-888a-48eb5f782979","system_id":"levelo_inurba_marseille","lat":43.311809,"lon":5.401258,"is_reserved":false,"is_disabled":false,"rental_uris":{"android":"levelo://app?vid=8cae0115-0477-4796-888a-48eb5f782979","ios":"levelo://app?vid=8cae0115-0477-4796-888a-48eb5f782979"},"vehicle_type_id":"4","last_reported":1744888096,"current_range_meters":6000,"station_id":"ce4bh092rcd13ifvqd30","pricing_plan_id":"cebpf4jnsgd1na2vs0mg"},{"bike_id":"b2264eb1-5e1f-4f92-929e-c66b4b54a200","system_id":"levelo_inurba_marseille","lat":43.28609,"lon":5.37065,"is_reserved":false,"is_disabled":false,"rental_uris":{"android":"levelo://app?vid=b2264eb1-5e1f-4f92-929e-c66b4b54a200","ios":"levelo://app?vid=b2264eb1-5e1f-4f92-929e-c66b4b54a200"},"vehicle_type_id":"4","last_reported":1744888096,"current_range_meters":6800,"station_id":"ce4bht12rcd13ifvqi60","pricing_plan_id":"cebpf4jnsgd1na2vs0mg"},{"bike_id":"96f5f037-58a2-404e-9bf2-d760906cb49d","system_id":"levelo_inurba_marseille","lat":43.305397,"lon":5.365372,"is_reserved":false,"is_disabled":false,"rental_uris":{"android":"levelo://app?vid=96f5f037-58a2-404e-9bf2-d760906cb49d","ios":"levelo://app?vid=96f5f037-58a2-404e-9bf2-d760906cb49d"},"vehicle_type_id":"4","last_reported":1744888096,"current_range_meters":6800,"station_id":"ce4bgs12rcd13ifvqcag","pricing_plan_id":"cebpf4jnsgd1na2vs0mg"},{"bike_id":"7910dee2-0d3e-4a34-baab-0f9bbc0cd5d8","system_id":"levelo_inurba_marseille","lat":43.28858,"lon":5.35859,"is_reserved":false,"is_disabled":false,"rental_uris":{"android":"levelo://app?vid=7910dee2-0d3e-4a34-baab-0f9bbc0cd5d8","ios":"levelo://app?vid=7910dee2-0d3e-4a34-baab-0f9bbc0cd5d8"},"vehicle_type_id":"4","last_reported":1744888096,"current_range_meters":6800,"station_id":"ce4bhb12rcd13ifvqem0","pricing_plan_id":"cebpf4jnsgd1na2vs0mg"},{"bike_id":"c9a4c7b1-46c4-4c2a-b43c-321903ee6d0f","system_id":"levelo_inurba_marseille","lat":43.28858,"lon":5.35862,"is_reserved":false,"is_disabled":false,"rental_uris":{"android":"levelo://app?vid=c9a4c7b1-46c4-4c2a-b43c-321903ee6d0f","ios":"levelo://app?vid=c9a4c7b1-46c4-4c2a-b43c-321903ee6d0f"},"vehicle_type_id":"4","last_reported":1744888096,"current_range_meters":6800,"station_id":"ce4bhb12rcd13ifvqem0","pricing_plan_id":"cebpf4jnsgd1na2vs0mg"},{"bike_id":"9660786b-a120-4550-8d8a-ed8902e25948","system_id":"levelo_inurba_marseille","lat":43.297067,"lon":5.376955,"is_reserved":false,"is_disabled":false,"rental_uris":{"android":"levelo://app?vid=9660786b-a120-4550-8d8a-ed8902e25948","ios":"levelo://app?vid=9660786b-a120-4550-8d8a-ed8902e25948"},"vehicle_type_id":"4","last_reported":1744888096,"current_range_meters":7200,"station_id":"ce4bho12rcd13ifvqh1g","pricing_plan_id":"cebpf4jnsgd1na2vs0mg"},{"bike_id":"2e4fbe9c-cd7a-4779-ad7f-26ec0f0cc6ce","system_id":"levelo_inurba_marseille","lat":43.2482,"lon":5.37468,"is_reserved":false,"is_disabled":false,"rental_uris":{"android":"levelo://app?vid=2e4fbe9c-cd7a-4779-ad7f-26ec0f0cc6ce","ios":"levelo://app?vid=2e4fbe9c-cd7a-4779-ad7f-26ec0f0cc6ce"},"vehicle_type_id":"4","last_reported":1744888096,"current_range_meters":7200,"station_id":"ce4bhgh2rcd13ifvqfb0","pricing_plan_id":"cebpf4jnsgd1na2vs0mg"},{"bike_id":"4a340735-6d34-4c51-83b1-b50b0b43373d","system_id":"levelo_inurba_marseille","lat":43.324929,"lon":5.36565,"is_reserved":false,"is_disabled":false,"rental_uris":{"android":"levelo://app?vid=4a340735-6d34-4c51-83b1-b50b0b43373d","ios":"levelo://app?vid=4a340735-6d34-4c51-83b1-b50b0b43373d"},"vehicle_type_id":"4","last_reported":1744888096,"current_range_meters":7200,"station_id":"ce4bhs12rcd13ifvqhvg","pricing_plan_id":"cebpf4jnsgd1na2vs0mg"},{"bike_id":"a42a5ce9-2cba-49d1-91c2-e82429329c19","system_id":"levelo_inurba_marseille","lat":43.27051,"lon":5.40287,"is_reserved":false,"is_disabled":false,"rental_uris":{"android":"levelo://app?vid=a42a5ce9-2cba-49d1-91c2-e82429329c19","ios":"levelo://app?vid=a42a5ce9-2cba-49d1-91c2-e82429329c19"},"vehicle_type_id":"4","last_reported":1744888096,"current_range_meters":8000,"station_id":"ce4bhk92rcd13ifvqgc0","pricing_plan_id":"cebpf4jnsgd1na2vs0mg"},{"bike_id":"8c8c5814-ec21-4be8-8ef8-5ec79d9dcccc","system_id":"levelo_inurba_marseille","lat":43.29724,"lon":5.36621,"is_reserved":false,"is_disabled":false,"rental_uris":{"android":"levelo://app?vid=8c8c5814-ec21-4be8-8ef8-5ec79d9dcccc","ios":"levelo://app?vid=8c8c5814-ec21-4be8-8ef8-5ec79d9dcccc"},"vehicle_type_id":"4","last_reported":1744888096,"current_range_meters":8000,"station_id":"ce4bgn12rcd13ifvqbt0","pricing_plan_id":"cebpf4jnsgd1na2vs0mg"},{"bike_id":"8630df7b-be54-42b4-8b18-6ff53049d8ed","system_id":"levelo_inurba_marseille","lat":43.29337,"lon":5.37168,"is_reserved":false,"is_disabled":false,"rental_uris":{"android":"levelo://app?vid=8630df7b-be54-42b4-8b18-6ff53049d8ed","ios":"levelo://app?vid=8630df7b-be54-42b4-8b18-6ff53049d8ed"},"vehicle_type_id":"4","last_reported":1744888096,"current_range_meters":8000,"station_id":"ce4bgh92rcd13ifvqb40","pricing_plan_id":"cebpf4jnsgd1na2vs0mg"},{"bike_id":"8ffe4fb1-9fc9-4625-804e-ea886d48cb27","system_id":"levelo_inurba_marseille","lat":43.31364,"lon":5.36725,"is_reserved":false,"is_disabled":false,"rental_uris":{"android":"levelo://app?vid=8ffe4fb1-9fc9-4625-804e-ea886d48cb27","ios":"levelo://app?vid=8ffe4fb1-9fc9-4625-804e-ea886d48cb27"},"vehicle_type_id":"4","last_reported":1744888096,"current_range_meters":8400,"station_id":"ce4bgr92rcd13ifvqc6g","pricing_plan_id":"cebpf4jnsgd1na2vs0mg"},{"bike_id":"ab546c6e-654b-48fc-8dfb-80caa4d95fb0","system_id":"levelo_inurba_marseille","lat":43.2842,"lon":5.37524,"is_reserved":false,"is_disabled":false,"rental_uris":{"android":"levelo://app?vid=ab546c6e-654b-48fc-8dfb-80caa4d95fb0","ios":"levelo://app?vid=ab546c6e-654b-48fc-8dfb-80caa4d95fb0"},"vehicle_type_id":"4","last_reported":1744888096,"current_range_meters":8400,"station_id":"ce4bh412rcd13ifvqds0","pricing_plan_id":"cebpf4jnsgd1na2vs0mg"},{"bike_id":"6ec2cec1-eca4-41b1-a5bc-69493acfb9d4","system_id":"levelo_inurba_marseille","lat":43.23189,"lon":5.35564,"is_reserved":false,"is_disabled":false,"rental_uris":{"android":"levelo://app?vid=6ec2cec1-eca4-41b1-a5bc-69493acfb9d4","ios":"levelo://app?vid=6ec2cec1-eca4-41b1-a5bc-69493acfb9d4"},"vehicle_type_id":"4","last_reported":1744888096,"current_range_meters":8400,"station_id":"ce4bhu92rcd13ifvqi70","pricing_plan_id":"cebpf4jnsgd1na2vs0mg"},{"bike_id":"994695a9-98fd-4da6-9191-c96330e6cffb","system_id":"levelo_inurba_marseille","lat":43.21751,"lon":5.34609,"is_reserved":false,"is_disabled":false,"rental_uris":{"android":"levelo://app?vid=994695a9-98fd-4da6-9191-c96330e6cffb","ios":"levelo://app?vid=994695a9-98fd-4da6-9191-c96330e6cffb"},"vehicle_type_id":"4","last_reported":1744888096,"current_range_meters":8400,"station_id":"st_cvj6r9ubvosntc0bgbag","pricing_plan_id":"cebpf4jnsgd1na2vs0mg"},{"bike_id":"178dad46-cb0d-4eb0-b656-2a8e4563fbcb","system_id":"levelo_inurba_marseille","lat":43.30159,"lon":5.38101,"is_reserved":false,"is_disabled":false,"rental_uris":{"android":"levelo://app?vid=178dad46-cb0d-4eb0-b656-2a8e4563fbcb","ios":"levelo://app?vid=178dad46-cb0d-4eb0-b656-2a8e4563fbcb"},"vehicle_type_id":"4","last_reported":1744888096,"current_range_meters":8400,"station_id":"ce4bgjp2rcd13ifvqbh0","pricing_plan_id":"cebpf4jnsgd1na2vs0mg"},{"bike_id":"17d425c7-2ff7-47af-abf9-ee9063cee3be","system_id":"levelo_inurba_marseille","lat":43.33598,"lon":5.41032,"is_reserved":false,"is_disabled":false,"rental_uris":{"android":"levelo://app?vid=17d425c7-2ff7-47af-abf9-ee9063cee3be","ios":"levelo://app?vid=17d425c7-2ff7-47af-abf9-ee9063cee3be"},"vehicle_type_id":"4","last_reported":1744888096,"current_range_meters":8800,"station_id":"ce4bhqh2rcd13ifvqhmg","pricing_plan_id":"cebpf4jnsgd1na2vs0mg"},{"bike_id":"9c63db25-3992-48ad-8291-47ede146e6da","system_id":"levelo_inurba_marseille","lat":43.31686,"lon":5.4049,"is_reserved":false,"is_disabled":false,"rental_uris":{"android":"levelo://app?vid=9c63db25-3992-48ad-8291-47ede146e6da","ios":"levelo://app?vid=9c63db25-3992-48ad-8291-47ede146e6da"},"vehicle_type_id":"4","last_reported":1744888096,"current_range_meters":8800,"station_id":"ce4bhr12rcd13ifvqhqg","pricing_plan_id":"cebpf4jnsgd1na2vs0mg"},{"bike_id":"834ec9e1-9d50-4bee-85ae-d1db335c55e5","system_id":"levelo_inurba_marseille","lat":43.313,"lon":5.37342,"is_reserved":false,"is_disabled":false,"rental_uris":{"android":"levelo://app?vid=834ec9e1-9d50-4bee-85ae-d1db335c55e5","ios":"levelo://app?vid=834ec9e1-9d50-4bee-85ae-d1db335c55e5"},"vehicle_type_id":"4","last_reported":1744888096,"current_range_meters":9200,"station_id":"","pricing_plan_id":"cebpf4jnsgd1na2vs0mg"},{"bike_id":"374ec97f-bf8a-4c4d-880e-a1f12b9f3940","system_id":"levelo_inurba_marseille","lat":43.29788,"lon":5.37117,"is_reserved":false,"is_disabled":false,"rental_uris":{"android":"levelo://app?vid=374ec97f-bf8a-4c4d-880e-a1f12b9f3940","ios":"levelo://app?vid=374ec97f-bf8a-4c4d-880e-a1f12b9f3940"},"vehicle_type_id":"4","last_reported":1744888096,"current_range_meters":9200,"station_id":"ce4bgop2rcd13ifvqc1g","pricing_plan_id":"cebpf4jnsgd1na2vs0mg"},{"bike_id":"8ede1f6d-998d-4b59-b54a-dc95aec71853","system_id":"levelo_inurba_marseille","lat":43.29247,"lon":5.40929,"is_reserved":false,"is_disabled":true,"rental_uris":{"android":"levelo://app?vid=8ede1f6d-998d-4b59-b54a-dc95aec71853","ios":"levelo://app?vid=8ede1f6d-998d-4b59-b54a-dc95aec71853"},"vehicle_type_id":"4","last_reported":1744888096,"current_range_meters":10000,"station_id":"ce4bh192rcd13ifvqdc0","pricing_plan_id":"cebpf4jnsgd1na2vs0mg"},{"bike_id":"eff696f6-2db3-4c7c-8624-9e6fdc11f334","system_id":"levelo_inurba_marseille","lat":43.31071,"lon":5.38362,"is_reserved":false,"is_disabled":false,"rental_uris":{"android":"levelo://app?vid=eff696f6-2db3-4c7c-8624-9e6fdc11f334","ios":"levelo://app?vid=eff696f6-2db3-4c7c-8624-9e6fdc11f334"},"vehicle_type_id":"4","last_reported":1744888096,"current_range_meters":9600,"station_id":"ce4bgv92rcd13ifvqcr0","pricing_plan_id":"cebpf4jnsgd1na2vs0mg"},{"bike_id":"5df85a79-274c-4999-ab35-d1f225e8f5cd","system_id":"levelo_inurba_marseille","lat":43.31368,"lon":5.36693,"is_reserved":false,"is_disabled":false,"rental_uris":{"android":"levelo://app?vid=5df85a79-274c-4999-ab35-d1f225e8f5cd","ios":"levelo://app?vid=5df85a79-274c-4999-ab35-d1f225e8f5cd"},"vehicle_type_id":"4","last_reported":1744888096,"current_range_meters":9600,"station_id":"ce4bgr92rcd13ifvqc6g","pricing_plan_id":"cebpf4jnsgd1na2vs0mg"},{"bike_id":"87589144-7229-468d-a3b6-bf1e8c66afbc","system_id":"levelo_inurba_marseille","lat":43.29422,"lon":5.38626,"is_reserved":false,"is_disabled":false,"rental_uris":{"android":"levelo://app?vid=87589144-7229-468d-a3b6-bf1e8c66afbc","ios":"levelo://app?vid=87589144-7229-468d-a3b6-bf1e8c66afbc"},"vehicle_type_id":"4","last_reported":1744888096,"current_range_meters":10000,"station_id":"ce4bh2h2rcd13ifvqdh0","pricing_plan_id":"cebpf4jnsgd1na2vs0mg"},{"bike_id":"87f7fa9a-2362-408f-b7ed-5108c515e1a6","system_id":"levelo_inurba_marseille","lat":43.289486,"lon":5.363921,"is_reserved":false,"is_disabled":false,"rental_uris":{"android":"levelo://app?vid=87f7fa9a-2362-408f-b7ed-5108c515e1a6","ios":"levelo://app?vid=87f7fa9a-2362-408f-b7ed-5108c515e1a6"},"vehicle_type_id":"4","last_reported":1744888096,"current_range_meters":9600,"station_id":"ce4bhc92rcd13ifvqetg","pricing_plan_id":"cebpf4jnsgd1na2vs0mg"},{"bike_id":"af88db6c-6ed6-4cd1-bda5-d2603147fa04","system_id":"levelo_inurba_marseille","lat":43.33617,"lon":5.41033,"is_reserved":false,"is_disabled":false,"rental_uris":{"android":"levelo://app?vid=af88db6c-6ed6-4cd1-bda5-d2603147fa04","ios":"levelo://app?vid=af88db6c-6ed6-4cd1-bda5-d2603147fa04"},"vehicle_type_id":"4","last_reported":1744888096,"current_range_meters":10000,"station_id":"ce4bhqh2rcd13ifvqhmg","pricing_plan_id":"cebpf4jnsgd1na2vs0mg"},{"bike_id":"84242ad0-a464-4f1d-aba5-33da4830ad43","system_id":"levelo_inurba_marseille","lat":43.28349,"lon":5.38111,"is_reserved":false,"is_disabled":false,"rental_uris":{"android":"levelo://app?vid=84242ad0-a464-4f1d-aba5-33da4830ad43","ios":"levelo://app?vid=84242ad0-a464-4f1d-aba5-33da4830ad43"},"vehicle_type_id":"4","last_reported":1744888096,"current_range_meters":10000,"station_id":"ce4bh412rcd13ifvqdr0","pricing_plan_id":"cebpf4jnsgd1na2vs0mg"},{"bike_id":"1bdba7a7-a82e-4252-906c-80db6beb180e","system_id":"levelo_inurba_marseille","lat":43.24898,"lon":5.39422,"is_reserved":false,"is_disabled":false,"rental_uris":{"android":"levelo://app?vid=1bdba7a7-a82e-4252-906c-80db6beb180e","ios":"levelo://app?vid=1bdba7a7-a82e-4252-906c-80db6beb180e"},"vehicle_type_id":"4","last_reported":1744888096,"current_range_meters":10800,"station_id":"","pricing_plan_id":"cebpf4jnsgd1na2vs0mg"},{"bike_id":"96e57b32-e02f-41de-8e0c-268db5f3fff5","system_id":"levelo_inurba_marseille","lat":43.30468,"lon":5.37909,"is_reserved":false,"is_disabled":false,"rental_uris":{"android":"levelo://app?vid=96e57b32-e02f-41de-8e0c-268db5f3fff5","ios":"levelo://app?vid=96e57b32-e02f-41de-8e0c-268db5f3fff5"},"vehicle_type_id":"4","last_reported":1744888096,"current_range_meters":10800,"station_id":"ce4bgup2rcd13ifvqcn0","pricing_plan_id":"cebpf4jnsgd1na2vs0mg"},{"bike_id":"59bfd095-f6e4-4aaa-93ed-04c933774020","system_id":"levelo_inurba_marseille","lat":43.30116,"lon":5.39894,"is_reserved":false,"is_disabled":false,"rental_uris":{"android":"levelo://app?vid=59bfd095-f6e4-4aaa-93ed-04c933774020","ios":"levelo://app?vid=59bfd095-f6e4-4aaa-93ed-04c933774020"},"vehicle_type_id":"4","last_reported":1744888096,"current_range_meters":10800,"station_id":"ce4bh0h2rcd13ifvqd40","pricing_plan_id":"cebpf4jnsgd1na2vs0mg"},{"bike_id":"da2917d3-cbba-4913-b9d1-32de983372e1","system_id":"levelo_inurba_marseille","lat":43.284668,"lon":5.384033,"is_reserved":false,"is_disabled":false,"rental_uris":{"android":"levelo://app?vid=da2917d3-cbba-4913-b9d1-32de983372e1","ios":"levelo://app?vid=da2917d3-cbba-4913-b9d1-32de983372e1"},"vehicle_type_id":"4","last_reported":1744888096,"current_range_meters":10800,"station_id":"ce4bh512rcd13ifvqe3g","pricing_plan_id":"cebpf4jnsgd1na2vs0mg"},{"bike_id":"2bff78df-ee2d-4122-92f5-9a64c61a7b4e","system_id":"levelo_inurba_marseille","lat":43.25923,"lon":5.4091,"is_reserved":false,"is_disabled":false,"rental_uris":{"android":"levelo://app?vid=2bff78df-ee2d-4122-92f5-9a64c61a7b4e","ios":"levelo://app?vid=2bff78df-ee2d-4122-92f5-9a64c61a7b4e"},"vehicle_type_id":"4","last_reported":1744888096,"current_range_meters":10800,"station_id":"ce4bhm92rcd13ifvqglg","pricing_plan_id":"cebpf4jnsgd1na2vs0mg"},{"bike_id":"0a0b0a73-2b27-49fb-801a-3111dcebfbac","system_id":"levelo_inurba_marseille","lat":43.274961,"lon":5.424541,"is_reserved":false,"is_disabled":false,"rental_uris":{"android":"levelo://app?vid=0a0b0a73-2b27-49fb-801a-3111dcebfbac","ios":"levelo://app?vid=0a0b0a73-2b27-49fb-801a-3111dcebfbac"},"vehicle_type_id":"4","last_reported":1744888096,"current_range_meters":10800,"station_id":"ce4bhn92rcd13ifvqgrg","pricing_plan_id":"cebpf4jnsgd1na2vs0mg"},{"bike_id":"4918f85b-d5f1-454b-af3c-8423e1db8d37","system_id":"levelo_inurba_marseille","lat":43.29702,"lon":5.37702,"is_reserved":false,"is_disabled":false,"rental_uris":{"android":"levelo://app?vid=4918f85b-d5f1-454b-af3c-8423e1db8d37","ios":"levelo://app?vid=4918f85b-d5f1-454b-af3c-8423e1db8d37"},"vehicle_type_id":"4","last_reported":1744888096,"current_range_meters":10000,"station_id":"ce4bgkh2rcd13ifvqbl0","pricing_plan_id":"cebpf4jnsgd1na2vs0mg"},{"bike_id":"2772f21f-7d7b-4614-967d-1944e2fc3b0a","system_id":"levelo_inurba_marseille","lat":43.2467,"lon":5.38159,"is_reserved":false,"is_disabled":false,"rental_uris":{"android":"levelo://app?vid=2772f21f-7d7b-4614-967d-1944e2fc3b0a","ios":"levelo://app?vid=2772f21f-7d7b-4614-967d-1944e2fc3b0a"},"vehicle_type_id":"4","last_reported":1744888096,"current_range_meters":10800,"station_id":"ce4bhih2rcd13ifvqfr0","pricing_plan_id":"cebpf4jnsgd1na2vs0mg"},{"bike_id":"6a42fdd6-075d-4748-811a-29f5845c8920","system_id":"levelo_inurba_marseille","lat":43.21767,"lon":5.34596,"is_reserved":false,"is_disabled":false,"rental_uris":{"android":"levelo://app?vid=6a42fdd6-075d-4748-811a-29f5845c8920","ios":"levelo://app?vid=6a42fdd6-075d-4748-811a-29f5845c8920"},"vehicle_type_id":"4","last_reported":1744888096,"current_range_meters":11200,"station_id":"st_cvj6r9ubvosntc0bgbag","pricing_plan_id":"cebpf4jnsgd1na2vs0mg"},{"bike_id":"4f3dfbf4-d1ae-44db-8110-b28c7d24107a","system_id":"levelo_inurba_marseille","lat":43.2707,"lon":5.40265,"is_reserved":false,"is_disabled":false,"rental_uris":{"android":"levelo://app?vid=4f3dfbf4-d1ae-44db-8110-b28c7d24107a","ios":"levelo://app?vid=4f3dfbf4-d1ae-44db-8110-b28c7d24107a"},"vehicle_type_id":"4","last_reported":1744888096,"current_range_meters":11200,"station_id":"ce4bhk92rcd13ifvqgc0","pricing_plan_id":"cebpf4jnsgd1na2vs0mg"},{"bike_id":"433810f3-e32b-43c5-a128-b7763ec4a597","system_id":"levelo_inurba_marseille","lat":43.29284,"lon":5.36853,"is_reserved":false,"is_disabled":false,"rental_uris":{"android":"levelo://app?vid=433810f3-e32b-43c5-a128-b7763ec4a597","ios":"levelo://app?vid=433810f3-e32b-43c5-a128-b7763ec4a597"},"vehicle_type_id":"4","last_reported":1744888096,"current_range_meters":11200,"station_id":"ce4bhbp2rcd13ifvqesg","pricing_plan_id":"cebpf4jnsgd1na2vs0mg"},{"bike_id":"3026ffc4-bc97-4bc8-8a84-ec45981bfdb6","system_id":"levelo_inurba_marseille","lat":43.27176,"lon":5.40996,"is_reserved":false,"is_disabled":false,"rental_uris":{"android":"levelo://app?vid=3026ffc4-bc97-4bc8-8a84-ec45981bfdb6","ios":"levelo://app?vid=3026ffc4-bc97-4bc8-8a84-ec45981bfdb6"},"vehicle_type_id":"4","last_reported":1744888096,"current_range_meters":11600,"station_id":"ce4bhl12rcd13ifvqgf0","pricing_plan_id":"cebpf4jnsgd1na2vs0mg"},{"bike_id":"c7e55eeb-008f-40d6-91b1-d4095000def9","system_id":"levelo_inurba_marseille","lat":43.30321,"lon":5.40446,"is_reserved":false,"is_disabled":false,"rental_uris":{"android":"levelo://app?vid=c7e55eeb-008f-40d6-91b1-d4095000def9","ios":"levelo://app?vid=c7e55eeb-008f-40d6-91b1-d4095000def9"},"vehicle_type_id":"4","last_reported":1744888096,"current_range_meters":12000,"station_id":"ce4bh012rcd13ifvqd10","pricing_plan_id":"cebpf4jnsgd1na2vs0mg"},{"bike_id":"d4f92fbf-b804-4106-93f7-539ae181fc87","system_id":"levelo_inurba_marseille","lat":43.30642,"lon":5.40064,"is_reserved":false,"is_disabled":false,"rental_uris":{"android":"levelo://app?vid=d4f92fbf-b804-4106-93f7-539ae181fc87","ios":"levelo://app?vid=d4f92fbf-b804-4106-93f7-539ae181fc87"},"vehicle_type_id":"4","last_reported":1744888096,"current_range_meters":12000,"station_id":"ce4bh112rcd13ifvqda0","pricing_plan_id":"cebpf4jnsgd1na2vs0mg"},{"bike_id":"b3368a4b-172f-436c-89f1-5b68b3612fbc","system_id":"levelo_inurba_marseille","lat":43.295549,"lon":5.422769,"is_reserved":false,"is_disabled":false,"rental_uris":{"android":"levelo://app?vid=b3368a4b-172f-436c-89f1-5b68b3612fbc","ios":"levelo://app?vid=b3368a4b-172f-436c-89f1-5b68b3612fbc"},"vehicle_type_id":"4","last_reported":1744888096,"current_range_meters":12400,"station_id":"ce4bhph2rcd13ifvqhdg","pricing_plan_id":"cebpf4jnsgd1na2vs0mg"},{"bike_id":"de0160f6-3d8f-4a3e-9509-3b0f08807f0d","system_id":"levelo_inurba_marseille","lat":43.30527,"lon":5.36705,"is_reserved":false,"is_disabled":false,"rental_uris":{"android":"levelo://app?vid=de0160f6-3d8f-4a3e-9509-3b0f08807f0d","ios":"levelo://app?vid=de0160f6-3d8f-4a3e-9509-3b0f08807f0d"},"vehicle_type_id":"4","last_reported":1744888096,"current_range_meters":12400,"station_id":"ce4bgrp2rcd13ifvqc9g","pricing_plan_id":"cebpf4jnsgd1na2vs0mg"},{"bike_id":"d91aa712-226d-429b-8f85-e669b4e2618c","system_id":"levelo_inurba_marseille","lat":43.30532,"lon":5.36535,"is_reserved":false,"is_disabled":false,"rental_uris":{"android":"levelo://app?vid=d91aa712-226d-429b-8f85-e669b4e2618c","ios":"levelo://app?vid=d91aa712-226d-429b-8f85-e669b4e2618c"},"vehicle_type_id":"4","last_reported":1744888096,"current_range_meters":12400,"station_id":"ce4bgs12rcd13ifvqcag","pricing_plan_id":"cebpf4jnsgd1na2vs0mg"},{"bike_id":"4029a96f-48f2-464e-9cd8-29f60757e559","system_id":"levelo_inurba_marseille","lat":43.29167,"lon":5.37175,"is_reserved":false,"is_disabled":false,"rental_uris":{"android":"levelo://app?vid=4029a96f-48f2-464e-9cd8-29f60757e559","ios":"levelo://app?vid=4029a96f-48f2-464e-9cd8-29f60757e559"},"vehicle_type_id":"4","last_reported":1744888096,"current_range_meters":12400,"station_id":"ce4bha92rcd13ifvqeh0","pricing_plan_id":"cebpf4jnsgd1na2vs0mg"},{"bike_id":"ff935f1c-246d-4e07-a399-40ad7e059de5","system_id":"levelo_inurba_marseille","lat":43.25487,"lon":5.37665,"is_reserved":false,"is_disabled":true,"rental_uris":{"android":"levelo://app?vid=ff935f1c-246d-4e07-a399-40ad7e059de5","ios":"levelo://app?vid=ff935f1c-246d-4e07-a399-40ad7e059de5"},"vehicle_type_id":"4","last_reported":1744888096,"current_range_meters":12800,"station_id":"ce4bhh12rcd13ifvqff0","pricing_plan_id":"cebpf4jnsgd1na2vs0mg"},{"bike_id":"9ae4de2b-65d6-4c8d-9fd9-eb2927f36e22","system_id":"levelo_inurba_marseille","lat":43.23352,"lon":5.3645,"is_reserved":false,"is_disabled":false,"rental_uris":{"android":"levelo://app?vid=9ae4de2b-65d6-4c8d-9fd9-eb2927f36e22","ios":"levelo://app?vid=9ae4de2b-65d6-4c8d-9fd9-eb2927f36e22"},"vehicle_type_id":"4","last_reported":1744888096,"current_range_meters":12800,"station_id":"","pricing_plan_id":"cebpf4jnsgd1na2vs0mg"},{"bike_id":"bae4a5bc-9dba-4092-b55f-f368ecf4d7cf","system_id":"levelo_inurba_marseille","lat":43.295105,"lon":5.393216,"is_reserved":false,"is_disabled":false,"rental_uris":{"android":"levelo://app?vid=bae4a5bc-9dba-4092-b55f-f368ecf4d7cf","ios":"levelo://app?vid=bae4a5bc-9dba-4092-b55f-f368ecf4d7cf"},"vehicle_type_id":"4","last_reported":1744888096,"current_range_meters":12800,"station_id":"ce4bh3h2rcd13ifvqdo0","pricing_plan_id":"cebpf4jnsgd1na2vs0mg"},{"bike_id":"fe552450-c0a0-482b-ad4d-745c7e3315b5","system_id":"levelo_inurba_marseille","lat":43.23963,"lon":5.36643,"is_reserved":false,"is_disabled":false,"rental_uris":{"android":"levelo://app?vid=fe552450-c0a0-482b-ad4d-745c7e3315b5","ios":"levelo://app?vid=fe552450-c0a0-482b-ad4d-745c7e3315b5"},"vehicle_type_id":"4","last_reported":1744888096,"current_range_meters":13600,"station_id":"ce4bhi12rcd13ifvqfp0","pricing_plan_id":"cebpf4jnsgd1na2vs0mg"},{"bike_id":"da0699e6-fffb-42fd-bda2-fa249cfedfd8","system_id":"levelo_inurba_marseille","lat":43.315,"lon":5.3729,"is_reserved":false,"is_disabled":false,"rental_uris":{"android":"levelo://app?vid=da0699e6-fffb-42fd-bda2-fa249cfedfd8","ios":"levelo://app?vid=da0699e6-fffb-42fd-bda2-fa249cfedfd8"},"vehicle_type_id":"4","last_reported":1744888096,"current_range_meters":13600,"station_id":"ce4bgt12rcd13ifvqcd0","pricing_plan_id":"cebpf4jnsgd1na2vs0mg"},{"bike_id":"fbf5d7f7-cf52-4e30-a1d0-e8b38a75e14c","system_id":"levelo_inurba_marseille","lat":43.275759,"lon":5.384318,"is_reserved":false,"is_disabled":false,"rental_uris":{"android":"levelo://app?vid=fbf5d7f7-cf52-4e30-a1d0-e8b38a75e14c","ios":"levelo://app?vid=fbf5d7f7-cf52-4e30-a1d0-e8b38a75e14c"},"vehicle_type_id":"4","last_reported":1744888096,"current_range_meters":12800,"station_id":"ce4bhh92rcd13ifvqfi0","pricing_plan_id":"cebpf4jnsgd1na2vs0mg"},{"bike_id":"0b7b9afc-b2db-43f5-aeb8-7a1248a5408e","system_id":"levelo_inurba_marseille","lat":43.31278,"lon":5.37771,"is_reserved":false,"is_disabled":false,"rental_uris":{"android":"levelo://app?vid=0b7b9afc-b2db-43f5-aeb8-7a1248a5408e","ios":"levelo://app?vid=0b7b9afc-b2db-43f5-aeb8-7a1248a5408e"},"vehicle_type_id":"4","last_reported":1744888096,"current_range_meters":14000,"station_id":"","pricing_plan_id":"cebpf4jnsgd1na2vs0mg"},{"bike_id":"ec8c9ac7-1e95-4171-97f3-226ce1e3c951","system_id":"levelo_inurba_marseille","lat":43.32106,"lon":5.36773,"is_reserved":false,"is_disabled":false,"rental_uris":{"android":"levelo://app?vid=ec8c9ac7-1e95-4171-97f3-226ce1e3c951","ios":"levelo://app?vid=ec8c9ac7-1e95-4171-97f3-226ce1e3c951"},"vehicle_type_id":"4","last_reported":1744888096,"current_range_meters":14400,"station_id":"ce4bhrh2rcd13ifvqhug","pricing_plan_id":"cebpf4jnsgd1na2vs0mg"},{"bike_id":"da8950e0-8d23-4f66-aaca-45d3a4fe8164","system_id":"levelo_inurba_marseille","lat":43.31228,"lon":5.36839,"is_reserved":false,"is_disabled":false,"rental_uris":{"android":"levelo://app?vid=da8950e0-8d23-4f66-aaca-45d3a4fe8164","ios":"levelo://app?vid=da8950e0-8d23-4f66-aaca-45d3a4fe8164"},"vehicle_type_id":"4","last_reported":1744888096,"current_range_meters":14400,"station_id":"ce4bgl92rcd13ifvqbq0","pricing_plan_id":"cebpf4jnsgd1na2vs0mg"},{"bike_id":"6b167838-79e8-4b8d-95e8-60926f312d86","system_id":"levelo_inurba_marseille","lat":43.29188,"lon":5.37154,"is_reserved":false,"is_disabled":false,"rental_uris":{"android":"levelo://app?vid=6b167838-79e8-4b8d-95e8-60926f312d86","ios":"levelo://app?vid=6b167838-79e8-4b8d-95e8-60926f312d86"},"vehicle_type_id":"4","last_reported":1744888096,"current_range_meters":14800,"station_id":"ce4bha92rcd13ifvqeh0","pricing_plan_id":"cebpf4jnsgd1na2vs0mg"},{"bike_id":"53227418-3efb-4894-9939-42826d780933","system_id":"levelo_inurba_marseille","lat":43.29262,"lon":5.38443,"is_reserved":false,"is_disabled":false,"rental_uris":{"android":"levelo://app?vid=53227418-3efb-4894-9939-42826d780933","ios":"levelo://app?vid=53227418-3efb-4894-9939-42826d780933"},"vehicle_type_id":"4","last_reported":1744888096,"current_range_meters":14800,"station_id":"ce4bh692rcd13ifvqea0","pricing_plan_id":"cebpf4jnsgd1na2vs0mg"},{"bike_id":"dc88ca14-385b-47d2-8f34-ba0ff66a2869","system_id":"levelo_inurba_marseille","lat":43.30935,"lon":5.37875,"is_reserved":false,"is_disabled":false,"rental_uris":{"android":"levelo://app?vid=dc88ca14-385b-47d2-8f34-ba0ff66a2869","ios":"levelo://app?vid=dc88ca14-385b-47d2-8f34-ba0ff66a2869"},"vehicle_type_id":"4","last_reported":1744888096,"current_range_meters":14800,"station_id":"","pricing_plan_id":"cebpf4jnsgd1na2vs0mg"},{"bike_id":"91669d43-fc0c-4175-a7c5-cfcf80b3430c","system_id":"levelo_inurba_marseille","lat":43.29035,"lon":5.38662,"is_reserved":false,"is_disabled":false,"rental_uris":{"android":"levelo://app?vid=91669d43-fc0c-4175-a7c5-cfcf80b3430c","ios":"levelo://app?vid=91669d43-fc0c-4175-a7c5-cfcf80b3430c"},"vehicle_type_id":"4","last_reported":1744888096,"current_range_meters":14400,"station_id":"ce4bh4p2rcd13ifvqe0g","pricing_plan_id":"cebpf4jnsgd1na2vs0mg"},{"bike_id":"173d39b4-7a97-4693-9385-db8bda0fe199","system_id":"levelo_inurba_marseille","lat":43.21767,"lon":5.34586,"is_reserved":false,"is_disabled":false,"rental_uris":{"android":"levelo://app?vid=173d39b4-7a97-4693-9385-db8bda0fe199","ios":"levelo://app?vid=173d39b4-7a97-4693-9385-db8bda0fe199"},"vehicle_type_id":"4","last_reported":1744888096,"current_range_meters":15200,"station_id":"st_cvj6r9ubvosntc0bgbag","pricing_plan_id":"cebpf4jnsgd1na2vs0mg"},{"bike_id":"6b263e6b-aafb-45b2-8f6c-e9526fac004d","system_id":"levelo_inurba_marseille","lat":43.25822,"lon":5.39425,"is_reserved":false,"is_disabled":false,"rental_uris":{"android":"levelo://app?vid=6b263e6b-aafb-45b2-8f6c-e9526fac004d","ios":"levelo://app?vid=6b263e6b-aafb-45b2-8f6c-e9526fac004d"},"vehicle_type_id":"4","last_reported":1744888096,"current_range_meters":15200,"station_id":"ce4bhip2rcd13ifvqft0","pricing_plan_id":"cebpf4jnsgd1na2vs0mg"},{"bike_id":"0291b7a7-5f86-48ec-8437-eba04e7bafe8","system_id":"levelo_inurba_marseille","lat":43.32353,"lon":5.3672,"is_reserved":false,"is_disabled":false,"rental_uris":{"android":"levelo://app?vid=0291b7a7-5f86-48ec-8437-eba04e7bafe8","ios":"levelo://app?vid=0291b7a7-5f86-48ec-8437-eba04e7bafe8"},"vehicle_type_id":"4","last_reported":1744888096,"current_range_meters":15200,"station_id":"ce4bhsh2rcd13ifvqi2g","pricing_plan_id":"cebpf4jnsgd1na2vs0mg"},{"bike_id":"0e4e98ae-bd1e-43d8-adcc-de215d7e9b95","system_id":"levelo_inurba_marseille","lat":43.29381,"lon":5.37835,"is_reserved":false,"is_disabled":false,"rental_uris":{"android":"levelo://app?vid=0e4e98ae-bd1e-43d8-adcc-de215d7e9b95","ios":"levelo://app?vid=0e4e98ae-bd1e-43d8-adcc-de215d7e9b95"},"vehicle_type_id":"4","last_reported":1744888096,"current_range_meters":14800,"station_id":"ce4bgjh2rcd13ifvqbf0","pricing_plan_id":"cebpf4jnsgd1na2vs0mg"},{"bike_id":"4b49c93a-dea0-43c5-b3b5-e63bc890031d","system_id":"levelo_inurba_marseille","lat":43.30152,"lon":5.38095,"is_reserved":false,"is_disabled":false,"rental_uris":{"android":"levelo://app?vid=4b49c93a-dea0-43c5-b3b5-e63bc890031d","ios":"levelo://app?vid=4b49c93a-dea0-43c5-b3b5-e63bc890031d"},"vehicle_type_id":"4","last_reported":1744888096,"current_range_meters":15200,"station_id":"ce4bgjp2rcd13ifvqbh0","pricing_plan_id":"cebpf4jnsgd1na2vs0mg"},{"bike_id":"9690ce0c-2b16-4e77-8667-cd440ef274c8","system_id":"levelo_inurba_marseille","lat":43.3254,"lon":5.41429,"is_reserved":false,"is_disabled":false,"rental_uris":{"android":"levelo://app?vid=9690ce0c-2b16-4e77-8667-cd440ef274c8","ios":"levelo://app?vid=9690ce0c-2b16-4e77-8667-cd440ef274c8"},"vehicle_type_id":"4","last_reported":1744888096,"current_range_meters":15200,"station_id":"ce4bhq12rcd13ifvqhhg","pricing_plan_id":"cebpf4jnsgd1na2vs0mg"},{"bike_id":"4d0781bb-7006-4d03-b4ca-8a0a1b0b4906","system_id":"levelo_inurba_marseille","lat":43.31893,"lon":5.40736,"is_reserved":false,"is_disabled":false,"rental_uris":{"android":"levelo://app?vid=4d0781bb-7006-4d03-b4ca-8a0a1b0b4906","ios":"levelo://app?vid=4d0781bb-7006-4d03-b4ca-8a0a1b0b4906"},"vehicle_type_id":"4","last_reported":1744888096,"current_range_meters":15200,"station_id":"ce4bhq12rcd13ifvqhig","pricing_plan_id":"cebpf4jnsgd1na2vs0mg"},{"bike_id":"3af48173-ba90-4f90-a09a-afe24b29a50c","system_id":"levelo_inurba_marseille","lat":43.24163,"lon":5.39724,"is_reserved":false,"is_disabled":false,"rental_uris":{"android":"levelo://app?vid=3af48173-ba90-4f90-a09a-afe24b29a50c","ios":"levelo://app?vid=3af48173-ba90-4f90-a09a-afe24b29a50c"},"vehicle_type_id":"4","last_reported":1744888096,"current_range_meters":16000,"station_id":"ce4bhn12rcd13ifvqgpg","pricing_plan_id":"cebpf4jnsgd1na2vs0mg"},{"bike_id":"35a0ee86-26b8-4eaf-9e15-9bc197b4bd1a","system_id":"levelo_inurba_marseille","lat":43.29041,"lon":5.37574,"is_reserved":false,"is_disabled":false,"rental_uris":{"android":"levelo://app?vid=35a0ee86-26b8-4eaf-9e15-9bc197b4bd1a","ios":"levelo://app?vid=35a0ee86-26b8-4eaf-9e15-9bc197b4bd1a"},"vehicle_type_id":"4","last_reported":1744888096,"current_range_meters":16000,"station_id":"ce4bh692rcd13ifvqe90","pricing_plan_id":"cebpf4jnsgd1na2vs0mg"},{"bike_id":"cc7ac33d-b61e-49f5-ad83-554a3d040679","system_id":"levelo_inurba_marseille","lat":43.30471,"lon":5.37918,"is_reserved":false,"is_disabled":false,"rental_uris":{"android":"levelo://app?vid=cc7ac33d-b61e-49f5-ad83-554a3d040679","ios":"levelo://app?vid=cc7ac33d-b61e-49f5-ad83-554a3d040679"},"vehicle_type_id":"4","last_reported":1744888096,"current_range_meters":16000,"station_id":"ce4bgup2rcd13ifvqcn0","pricing_plan_id":"cebpf4jnsgd1na2vs0mg"},{"bike_id":"78154f9e-a675-40b5-aedc-448676d3a498","system_id":"levelo_inurba_marseille","lat":43.30587,"lon":5.36684,"is_reserved":false,"is_disabled":false,"rental_uris":{"android":"levelo://app?vid=78154f9e-a675-40b5-aedc-448676d3a498","ios":"levelo://app?vid=78154f9e-a675-40b5-aedc-448676d3a498"},"vehicle_type_id":"4","last_reported":1744888096,"current_range_meters":16400,"station_id":"ce4bgrp2rcd13ifvqc9g","pricing_plan_id":"cebpf4jnsgd1na2vs0mg"},{"bike_id":"d750596a-6ac6-4755-84cc-45acd4464f3d","system_id":"levelo_inurba_marseille","lat":43.24384,"lon":5.37074,"is_reserved":false,"is_disabled":false,"rental_uris":{"android":"levelo://app?vid=d750596a-6ac6-4755-84cc-45acd4464f3d","ios":"levelo://app?vid=d750596a-6ac6-4755-84cc-45acd4464f3d"},"vehicle_type_id":"4","last_reported":1744888096,"current_range_meters":16400,"station_id":"ce4bhhh2rcd13ifvqfk0","pricing_plan_id":"cebpf4jnsgd1na2vs0mg"},{"bike_id":"e9d6e951-31b1-4c7b-adf0-2c9b3854ff28","system_id":"levelo_inurba_marseille","lat":43.284412,"lon":5.392064,"is_reserved":false,"is_disabled":false,"rental_uris":{"android":"levelo://app?vid=e9d6e951-31b1-4c7b-adf0-2c9b3854ff28","ios":"levelo://app?vid=e9d6e951-31b1-4c7b-adf0-2c9b3854ff28"},"vehicle_type_id":"4","last_reported":1744888096,"current_range_meters":16400,"station_id":"ce4bhoh2rcd13ifvqh5g","pricing_plan_id":"cebpf4jnsgd1na2vs0mg"},{"bike_id":"41fb0398-f2fe-4abb-ae37-a38f47615ea9","system_id":"levelo_inurba_marseille","lat":43.32367,"lon":5.36772,"is_reserved":false,"is_disabled":false,"rental_uris":{"android":"levelo://app?vid=41fb0398-f2fe-4abb-ae37-a38f47615ea9","ios":"levelo://app?vid=41fb0398-f2fe-4abb-ae37-a38f47615ea9"},"vehicle_type_id":"4","last_reported":1744888096,"current_range_meters":16400,"station_id":"ce4bhsh2rcd13ifvqi2g","pricing_plan_id":"cebpf4jnsgd1na2vs0mg"},{"bike_id":"e14c265e-eca3-4791-a3e7-f534121ae166","system_id":"levelo_inurba_marseille","lat":43.2293,"lon":5.35388,"is_reserved":false,"is_disabled":false,"rental_uris":{"android":"levelo://app?vid=e14c265e-eca3-4791-a3e7-f534121ae166","ios":"levelo://app?vid=e14c265e-eca3-4791-a3e7-f534121ae166"},"vehicle_type_id":"4","last_reported":1744888096,"current_range_meters":16400,"station_id":"cpo3532slgdg3j2ikp40","pricing_plan_id":"cebpf4jnsgd1na2vs0mg"},{"bike_id":"27de2feb-1ae5-4b04-9ba0-5f05a97f2257","system_id":"levelo_inurba_marseille","lat":43.29577,"lon":5.37534,"is_reserved":false,"is_disabled":false,"rental_uris":{"android":"levelo://app?vid=27de2feb-1ae5-4b04-9ba0-5f05a97f2257","ios":"levelo://app?vid=27de2feb-1ae5-4b04-9ba0-5f05a97f2257"},"vehicle_type_id":"4","last_reported":1744888096,"current_range_meters":16400,"station_id":"ce4bgh92rcd13ifvqb50","pricing_plan_id":"cebpf4jnsgd1na2vs0mg"},{"bike_id":"373635db-b1fd-41c4-8fe2-6a97768d7602","system_id":"levelo_inurba_marseille","lat":43.27369,"lon":5.36253,"is_reserved":false,"is_disabled":false,"rental_uris":{"android":"levelo://app?vid=373635db-b1fd-41c4-8fe2-6a97768d7602","ios":"levelo://app?vid=373635db-b1fd-41c4-8fe2-6a97768d7602"},"vehicle_type_id":"4","last_reported":1744888096,"current_range_meters":16800,"station_id":"ce4bhbh2rcd13ifvqeo0","pricing_plan_id":"cebpf4jnsgd1na2vs0mg"},{"bike_id":"5e1950f1-3570-4e07-a7cc-3dbf8a21d845","system_id":"levelo_inurba_marseille","lat":43.2813,"lon":5.42634,"is_reserved":false,"is_disabled":false,"rental_uris":{"android":"levelo://app?vid=5e1950f1-3570-4e07-a7cc-3dbf8a21d845","ios":"levelo://app?vid=5e1950f1-3570-4e07-a7cc-3dbf8a21d845"},"vehicle_type_id":"4","last_reported":1744888096,"current_range_meters":16800,"station_id":"ce4bhnh2rcd13ifvqgug","pricing_plan_id":"cebpf4jnsgd1na2vs0mg"},{"bike_id":"1fe019ac-92be-4738-bdac-7d926a7ff71d","system_id":"levelo_inurba_marseille","lat":43.30473,"lon":5.37894,"is_reserved":false,"is_disabled":false,"rental_uris":{"android":"levelo://app?vid=1fe019ac-92be-4738-bdac-7d926a7ff71d","ios":"levelo://app?vid=1fe019ac-92be-4738-bdac-7d926a7ff71d"},"vehicle_type_id":"4","last_reported":1744888096,"current_range_meters":17200,"station_id":"ce4bgup2rcd13ifvqcn0","pricing_plan_id":"cebpf4jnsgd1na2vs0mg"},{"bike_id":"c5170b3f-5826-4239-afd9-a452f9f0cd21","system_id":"levelo_inurba_marseille","lat":43.29434,"lon":5.3863,"is_reserved":false,"is_disabled":false,"rental_uris":{"android":"levelo://app?vid=c5170b3f-5826-4239-afd9-a452f9f0cd21","ios":"levelo://app?vid=c5170b3f-5826-4239-afd9-a452f9f0cd21"},"vehicle_type_id":"4","last_reported":1744888096,"current_range_meters":17200,"station_id":"ce4bh2h2rcd13ifvqdh0","pricing_plan_id":"cebpf4jnsgd1na2vs0mg"},{"bike_id":"b410fb9b-4ad9-45fb-9da8-d39c2ecda477","system_id":"levelo_inurba_marseille","lat":43.3015,"lon":5.38782,"is_reserved":false,"is_disabled":false,"rental_uris":{"android":"levelo://app?vid=b410fb9b-4ad9-45fb-9da8-d39c2ecda477","ios":"levelo://app?vid=b410fb9b-4ad9-45fb-9da8-d39c2ecda477"},"vehicle_type_id":"4","last_reported":1744888096,"current_range_meters":17200,"station_id":"ce4bghh2rcd13ifvqb60","pricing_plan_id":"cebpf4jnsgd1na2vs0mg"},{"bike_id":"d4dcb79f-e0b9-4ff5-8814-7102eebeb712","system_id":"levelo_inurba_marseille","lat":43.30474,"lon":5.37904,"is_reserved":false,"is_disabled":false,"rental_uris":{"android":"levelo://app?vid=d4dcb79f-e0b9-4ff5-8814-7102eebeb712","ios":"levelo://app?vid=d4dcb79f-e0b9-4ff5-8814-7102eebeb712"},"vehicle_type_id":"4","last_reported":1744888096,"current_range_meters":17200,"station_id":"ce4bgup2rcd13ifvqcn0","pricing_plan_id":"cebpf4jnsgd1na2vs0mg"},{"bike_id":"502eb57f-58c1-46b5-bbab-f82b11336169","system_id":"levelo_inurba_marseille","lat":43.30533,"lon":5.3654,"is_reserved":false,"is_disabled":false,"rental_uris":{"android":"levelo://app?vid=502eb57f-58c1-46b5-bbab-f82b11336169","ios":"levelo://app?vid=502eb57f-58c1-46b5-bbab-f82b11336169"},"vehicle_type_id":"4","last_reported":1744888096,"current_range_meters":17600,"station_id":"ce4bgs12rcd13ifvqcag","pricing_plan_id":"cebpf4jnsgd1na2vs0mg"},{"bike_id":"05889502-1960-4626-b647-6be7781e2329","system_id":"levelo_inurba_marseille","lat":43.28669,"lon":5.35042,"is_reserved":false,"is_disabled":false,"rental_uris":{"android":"levelo://app?vid=05889502-1960-4626-b647-6be7781e2329","ios":"levelo://app?vid=05889502-1960-4626-b647-6be7781e2329"},"vehicle_type_id":"4","last_reported":1744888096,"current_range_meters":17600,"station_id":"","pricing_plan_id":"cebpf4jnsgd1na2vs0mg"},{"bike_id":"1ce2e4b6-92ac-4019-987f-f7e2d80b4e6b","system_id":"levelo_inurba_marseille","lat":43.274967,"lon":5.424542,"is_reserved":false,"is_disabled":false,"rental_uris":{"android":"levelo://app?vid=1ce2e4b6-92ac-4019-987f-f7e2d80b4e6b","ios":"levelo://app?vid=1ce2e4b6-92ac-4019-987f-f7e2d80b4e6b"},"vehicle_type_id":"4","last_reported":1744888096,"current_range_meters":17600,"station_id":"ce4bhn92rcd13ifvqgrg","pricing_plan_id":"cebpf4jnsgd1na2vs0mg"},{"bike_id":"19d3e60f-673f-4ed2-a8c8-890c42135f26","system_id":"levelo_inurba_marseille","lat":43.29577,"lon":5.37529,"is_reserved":false,"is_disabled":false,"rental_uris":{"android":"levelo://app?vid=19d3e60f-673f-4ed2-a8c8-890c42135f26","ios":"levelo://app?vid=19d3e60f-673f-4ed2-a8c8-890c42135f26"},"vehicle_type_id":"4","last_reported":1744888096,"current_range_meters":17600,"station_id":"ce4bgh92rcd13ifvqb50","pricing_plan_id":"cebpf4jnsgd1na2vs0mg"},{"bike_id":"a0ddb0a5-f7f0-4281-aa27-9e82747cc573","system_id":"levelo_inurba_marseille","lat":43.33754,"lon":5.37491,"is_reserved":false,"is_disabled":false,"rental_uris":{"android":"levelo://app?vid=a0ddb0a5-f7f0-4281-aa27-9e82747cc573","ios":"levelo://app?vid=a0ddb0a5-f7f0-4281-aa27-9e82747cc573"},"vehicle_type_id":"4","last_reported":1744888096,"current_range_meters":17600,"station_id":"","pricing_plan_id":"cebpf4jnsgd1na2vs0mg"},{"bike_id":"bbb1c662-cc65-4c72-8489-de78d2f0f12f","system_id":"levelo_inurba_marseille","lat":43.23066,"lon":5.35503,"is_reserved":false,"is_disabled":false,"rental_uris":{"android":"levelo://app?vid=bbb1c662-cc65-4c72-8489-de78d2f0f12f","ios":"levelo://app?vid=bbb1c662-cc65-4c72-8489-de78d2f0f12f"},"vehicle_type_id":"4","last_reported":1744888096,"current_range_meters":18000,"station_id":"cpo3342slgdg3j2ifvpg","pricing_plan_id":"cebpf4jnsgd1na2vs0mg"},{"bike_id":"1dd1b03e-4be1-468f-95a3-8cd2b3d665db","system_id":"levelo_inurba_marseille","lat":43.28976,"lon":5.37852,"is_reserved":false,"is_disabled":false,"rental_uris":{"android":"levelo://app?vid=1dd1b03e-4be1-468f-95a3-8cd2b3d665db","ios":"levelo://app?vid=1dd1b03e-4be1-468f-95a3-8cd2b3d665db"},"vehicle_type_id":"4","last_reported":1744888096,"current_range_meters":18000,"station_id":"ce4bh9p2rcd13ifvqed0","pricing_plan_id":"cebpf4jnsgd1na2vs0mg"},{"bike_id":"7ed91d22-3d5b-4254-83bf-64eb2a7d5481","system_id":"levelo_inurba_marseille","lat":43.22499,"lon":5.34796,"is_reserved":false,"is_disabled":false,"rental_uris":{"android":"levelo://app?vid=7ed91d22-3d5b-4254-83bf-64eb2a7d5481","ios":"levelo://app?vid=7ed91d22-3d5b-4254-83bf-64eb2a7d5481"},"vehicle_type_id":"4","last_reported":1744888096,"current_range_meters":18000,"station_id":"","pricing_plan_id":"cebpf4jnsgd1na2vs0mg"},{"bike_id":"4db06d98-ef3f-4322-bb1a-56487e040895","system_id":"levelo_inurba_marseille","lat":43.24164,"lon":5.39735,"is_reserved":false,"is_disabled":false,"rental_uris":{"android":"levelo://app?vid=4db06d98-ef3f-4322-bb1a-56487e040895","ios":"levelo://app?vid=4db06d98-ef3f-4322-bb1a-56487e040895"},"vehicle_type_id":"4","last_reported":1744888096,"current_range_meters":18000,"station_id":"ce4bhn12rcd13ifvqgpg","pricing_plan_id":"cebpf4jnsgd1na2vs0mg"},{"bike_id":"d386e8ee-c755-4777-a484-12ed7f758d2a","system_id":"levelo_inurba_marseille","lat":43.28685,"lon":5.38665,"is_reserved":false,"is_disabled":false,"rental_uris":{"android":"levelo://app?vid=d386e8ee-c755-4777-a484-12ed7f758d2a","ios":"levelo://app?vid=d386e8ee-c755-4777-a484-12ed7f758d2a"},"vehicle_type_id":"4","last_reported":1744888096,"current_range_meters":18000,"station_id":"ce4bh492rcd13ifvqdug","pricing_plan_id":"cebpf4jnsgd1na2vs0mg"},{"bike_id":"a17920db-4b7e-474c-ab57-3b97ec496a14","system_id":"levelo_inurba_marseille","lat":43.24173,"lon":5.39736,"is_reserved":false,"is_disabled":false,"rental_uris":{"android":"levelo://app?vid=a17920db-4b7e-474c-ab57-3b97ec496a14","ios":"levelo://app?vid=a17920db-4b7e-474c-ab57-3b97ec496a14"},"vehicle_type_id":"4","last_reported":1744888096,"current_range_meters":18000,"station_id":"ce4bhn12rcd13ifvqgpg","pricing_plan_id":"cebpf4jnsgd1na2vs0mg"},{"bike_id":"c6e9611d-829c-475c-a5b5-ed5aad2da349","system_id":"levelo_inurba_marseille","lat":43.31891,"lon":5.40727,"is_reserved":false,"is_disabled":false,"rental_uris":{"android":"levelo://app?vid=c6e9611d-829c-475c-a5b5-ed5aad2da349","ios":"levelo://app?vid=c6e9611d-829c-475c-a5b5-ed5aad2da349"},"vehicle_type_id":"4","last_reported":1744888096,"current_range_meters":18000,"station_id":"ce4bhq12rcd13ifvqhig","pricing_plan_id":"cebpf4jnsgd1na2vs0mg"},{"bike_id":"ecd9b5fe-4b17-4d30-a270-9ff21e0a9ad2","system_id":"levelo_inurba_marseille","lat":43.24171,"lon":5.36402,"is_reserved":false,"is_disabled":false,"rental_uris":{"android":"levelo://app?vid=ecd9b5fe-4b17-4d30-a270-9ff21e0a9ad2","ios":"levelo://app?vid=ecd9b5fe-4b17-4d30-a270-9ff21e0a9ad2"},"vehicle_type_id":"4","last_reported":1744888096,"current_range_meters":18800,"station_id":"cpo36qri1sfpv3e86is0","pricing_plan_id":"cebpf4jnsgd1na2vs0mg"},{"bike_id":"65178c12-9226-446d-a54f-438b947046c8","system_id":"levelo_inurba_marseille","lat":43.299659,"lon":5.384921,"is_reserved":false,"is_disabled":false,"rental_uris":{"android":"levelo://app?vid=65178c12-9226-446d-a54f-438b947046c8","ios":"levelo://app?vid=65178c12-9226-446d-a54f-438b947046c8"},"vehicle_type_id":"4","last_reported":1744888096,"current_range_meters":18800,"station_id":"ce4bgj92rcd13ifvqbd0","pricing_plan_id":"cebpf4jnsgd1na2vs0mg"},{"bike_id":"d05db1b5-d53d-45a4-89f1-f839a3767be6","system_id":"levelo_inurba_marseille","lat":43.2942,"lon":5.38633,"is_reserved":false,"is_disabled":false,"rental_uris":{"android":"levelo://app?vid=d05db1b5-d53d-45a4-89f1-f839a3767be6","ios":"levelo://app?vid=d05db1b5-d53d-45a4-89f1-f839a3767be6"},"vehicle_type_id":"4","last_reported":1744888096,"current_range_meters":18000,"station_id":"ce4bh2h2rcd13ifvqdh0","pricing_plan_id":"cebpf4jnsgd1na2vs0mg"},{"bike_id":"e717e6cb-4306-466e-a80f-6272da86e644","system_id":"levelo_inurba_marseille","lat":43.30361,"lon":5.386209,"is_reserved":false,"is_disabled":false,"rental_uris":{"android":"levelo://app?vid=e717e6cb-4306-466e-a80f-6272da86e644","ios":"levelo://app?vid=e717e6cb-4306-466e-a80f-6272da86e644"},"vehicle_type_id":"4","last_reported":1744888096,"current_range_meters":18800,"station_id":"ce4bgk12rcd13ifvqbi0","pricing_plan_id":"cebpf4jnsgd1na2vs0mg"},{"bike_id":"5376db3a-f912-4a95-826f-4197746248f5","system_id":"levelo_inurba_marseille","lat":43.30389,"lon":5.42487,"is_reserved":false,"is_disabled":false,"rental_uris":{"android":"levelo://app?vid=5376db3a-f912-4a95-826f-4197746248f5","ios":"levelo://app?vid=5376db3a-f912-4a95-826f-4197746248f5"},"vehicle_type_id":"4","last_reported":1744888096,"current_range_meters":18800,"station_id":"ce4bhoh2rcd13ifvqh6g","pricing_plan_id":"cebpf4jnsgd1na2vs0mg"},{"bike_id":"6c66bebb-af6e-4cbb-b83e-ce688915bf5f","system_id":"levelo_inurba_marseille","lat":43.312695,"lon":5.401755,"is_reserved":false,"is_disabled":false,"rental_uris":{"android":"levelo://app?vid=6c66bebb-af6e-4cbb-b83e-ce688915bf5f","ios":"levelo://app?vid=6c66bebb-af6e-4cbb-b83e-ce688915bf5f"},"vehicle_type_id":"4","last_reported":1744888096,"current_range_meters":18800,"station_id":"ce4bh092rcd13ifvqd30","pricing_plan_id":"cebpf4jnsgd1na2vs0mg"},{"bike_id":"5707eaa9-c0b9-4ff0-a80f-03f665943d65","system_id":"levelo_inurba_marseille","lat":43.27948,"lon":5.41054,"is_reserved":false,"is_disabled":false,"rental_uris":{"android":"levelo://app?vid=5707eaa9-c0b9-4ff0-a80f-03f665943d65","ios":"levelo://app?vid=5707eaa9-c0b9-4ff0-a80f-03f665943d65"},"vehicle_type_id":"4","last_reported":1744888096,"current_range_meters":19200,"station_id":"ce4bhnp2rcd13ifvqh0g","pricing_plan_id":"cebpf4jnsgd1na2vs0mg"},{"bike_id":"03c9e03c-67c6-453d-8b38-cbed9721f95d","system_id":"levelo_inurba_marseille","lat":43.28632,"lon":5.35062,"is_reserved":false,"is_disabled":false,"rental_uris":{"android":"levelo://app?vid=03c9e03c-67c6-453d-8b38-cbed9721f95d","ios":"levelo://app?vid=03c9e03c-67c6-453d-8b38-cbed9721f95d"},"vehicle_type_id":"4","last_reported":1744888096,"current_range_meters":19200,"station_id":"ce4bhch2rcd13ifvqeug","pricing_plan_id":"cebpf4jnsgd1na2vs0mg"},{"bike_id":"2052dc63-8ee1-4b61-9715-d5f11bb2c19a","system_id":"levelo_inurba_marseille","lat":43.26487,"lon":5.39554,"is_reserved":false,"is_disabled":false,"rental_uris":{"android":"levelo://app?vid=2052dc63-8ee1-4b61-9715-d5f11bb2c19a","ios":"levelo://app?vid=2052dc63-8ee1-4b61-9715-d5f11bb2c19a"},"vehicle_type_id":"4","last_reported":1744888096,"current_range_meters":19200,"station_id":"ce4bhi12rcd13ifvqfq0","pricing_plan_id":"cebpf4jnsgd1na2vs0mg"},{"bike_id":"4cdeb94d-6b8c-4d5b-a59f-49def5ff14db","system_id":"levelo_inurba_marseille","lat":43.274948,"lon":5.424535,"is_reserved":false,"is_disabled":false,"rental_uris":{"android":"levelo://app?vid=4cdeb94d-6b8c-4d5b-a59f-49def5ff14db","ios":"levelo://app?vid=4cdeb94d-6b8c-4d5b-a59f-49def5ff14db"},"vehicle_type_id":"4","last_reported":1744888096,"current_range_meters":19200,"station_id":"ce4bhn92rcd13ifvqgrg","pricing_plan_id":"cebpf4jnsgd1na2vs0mg"},{"bike_id":"bb74353b-d6ea-486a-9d02-c5f9afba6107","system_id":"levelo_inurba_marseille","lat":43.23151,"lon":5.43729,"is_reserved":false,"is_disabled":false,"rental_uris":{"android":"levelo://app?vid=bb74353b-d6ea-486a-9d02-c5f9afba6107","ios":"levelo://app?vid=bb74353b-d6ea-486a-9d02-c5f9afba6107"},"vehicle_type_id":"4","last_reported":1744888096,"current_range_meters":19200,"station_id":"ce4bhmp2rcd13ifvqgog","pricing_plan_id":"cebpf4jnsgd1na2vs0mg"},{"bike_id":"ef6e9c6f-8f69-4fcf-9727-b556a001e5bc","system_id":"levelo_inurba_marseille","lat":43.2956,"lon":5.42294,"is_reserved":false,"is_disabled":false,"rental_uris":{"android":"levelo://app?vid=ef6e9c6f-8f69-4fcf-9727-b556a001e5bc","ios":"levelo://app?vid=ef6e9c6f-8f69-4fcf-9727-b556a001e5bc"},"vehicle_type_id":"4","last_reported":1744888096,"current_range_meters":19200,"station_id":"ce4bhph2rcd13ifvqhdg","pricing_plan_id":"cebpf4jnsgd1na2vs0mg"},{"bike_id":"332d50ef-0349-465a-a3f8-a14d47a27c91","system_id":"levelo_inurba_marseille","lat":43.30532,"lon":5.36551,"is_reserved":false,"is_disabled":false,"rental_uris":{"android":"levelo://app?vid=332d50ef-0349-465a-a3f8-a14d47a27c91","ios":"levelo://app?vid=332d50ef-0349-465a-a3f8-a14d47a27c91"},"vehicle_type_id":"4","last_reported":1744888096,"current_range_meters":19200,"station_id":"ce4bgs12rcd13ifvqcag","pricing_plan_id":"cebpf4jnsgd1na2vs0mg"},{"bike_id":"7eb8853e-3665-40f5-8308-1299f0674652","system_id":"levelo_inurba_marseille","lat":43.30394,"lon":5.42485,"is_reserved":false,"is_disabled":false,"rental_uris":{"android":"levelo://app?vid=7eb8853e-3665-40f5-8308-1299f0674652","ios":"levelo://app?vid=7eb8853e-3665-40f5-8308-1299f0674652"},"vehicle_type_id":"4","last_reported":1744888096,"current_range_meters":19200,"station_id":"ce4bhoh2rcd13ifvqh6g","pricing_plan_id":"cebpf4jnsgd1na2vs0mg"},{"bike_id":"789c3822-56ca-4769-bcd4-8845bdea2fda","system_id":"levelo_inurba_marseille","lat":43.24173,"lon":5.36391,"is_reserved":false,"is_disabled":false,"rental_uris":{"android":"levelo://app?vid=789c3822-56ca-4769-bcd4-8845bdea2fda","ios":"levelo://app?vid=789c3822-56ca-4769-bcd4-8845bdea2fda"},"vehicle_type_id":"4","last_reported":1744888096,"current_range_meters":19600,"station_id":"cpo36qri1sfpv3e86is0","pricing_plan_id":"cebpf4jnsgd1na2vs0mg"},{"bike_id":"9bb7361c-307f-49cb-ac99-d77623f20e19","system_id":"levelo_inurba_marseille","lat":43.32481,"lon":5.36615,"is_reserved":false,"is_disabled":false,"rental_uris":{"android":"levelo://app?vid=9bb7361c-307f-49cb-ac99-d77623f20e19","ios":"levelo://app?vid=9bb7361c-307f-49cb-ac99-d77623f20e19"},"vehicle_type_id":"4","last_reported":1744888096,"current_range_meters":20000,"station_id":"ce4bhs12rcd13ifvqhvg","pricing_plan_id":"cebpf4jnsgd1na2vs0mg"},{"bike_id":"cca0c336-36c9-4275-9c3f-c16f77e3485c","system_id":"levelo_inurba_marseille","lat":43.29169,"lon":5.37165,"is_reserved":false,"is_disabled":false,"rental_uris":{"android":"levelo://app?vid=cca0c336-36c9-4275-9c3f-c16f77e3485c","ios":"levelo://app?vid=cca0c336-36c9-4275-9c3f-c16f77e3485c"},"vehicle_type_id":"4","last_reported":1744888096,"current_range_meters":19600,"station_id":"ce4bha92rcd13ifvqeh0","pricing_plan_id":"cebpf4jnsgd1na2vs0mg"},{"bike_id":"2c23446e-ced4-427f-8778-1e9031460f15","system_id":"levelo_inurba_marseille","lat":43.306571,"lon":5.394819,"is_reserved":false,"is_disabled":false,"rental_uris":{"android":"levelo://app?vid=2c23446e-ced4-427f-8778-1e9031460f15","ios":"levelo://app?vid=2c23446e-ced4-427f-8778-1e9031460f15"},"vehicle_type_id":"4","last_reported":1744888096,"current_range_meters":19600,"station_id":"ce4bh092rcd13ifvqd20","pricing_plan_id":"cebpf4jnsgd1na2vs0mg"},{"bike_id":"84d18d34-5c83-416e-abf6-f53b6026883d","system_id":"levelo_inurba_marseille","lat":43.250341,"lon":5.39647,"is_reserved":false,"is_disabled":false,"rental_uris":{"android":"levelo://app?vid=84d18d34-5c83-416e-abf6-f53b6026883d","ios":"levelo://app?vid=84d18d34-5c83-416e-abf6-f53b6026883d"},"vehicle_type_id":"4","last_reported":1744888096,"current_range_meters":19600,"station_id":"ce4bhn12rcd13ifvqgqg","pricing_plan_id":"cebpf4jnsgd1na2vs0mg"},{"bike_id":"33efbe4e-e642-4271-be29-4926b421ca5b","system_id":"levelo_inurba_marseille","lat":43.2417,"lon":5.36396,"is_reserved":false,"is_disabled":false,"rental_uris":{"android":"levelo://app?vid=33efbe4e-e642-4271-be29-4926b421ca5b","ios":"levelo://app?vid=33efbe4e-e642-4271-be29-4926b421ca5b"},"vehicle_type_id":"4","last_reported":1744888096,"current_range_meters":19600,"station_id":"cpo36qri1sfpv3e86is0","pricing_plan_id":"cebpf4jnsgd1na2vs0mg"},{"bike_id":"e2610827-be5f-4519-9010-041a87391e95","system_id":"levelo_inurba_marseille","lat":43.23142,"lon":5.4372,"is_reserved":false,"is_disabled":false,"rental_uris":{"android":"levelo://app?vid=e2610827-be5f-4519-9010-041a87391e95","ios":"levelo://app?vid=e2610827-be5f-4519-9010-041a87391e95"},"vehicle_type_id":"4","last_reported":1744888096,"current_range_meters":19600,"station_id":"ce4bhmp2rcd13ifvqgog","pricing_plan_id":"cebpf4jnsgd1na2vs0mg"},{"bike_id":"934a8fc0-98f8-4aaf-a145-d485dee937c7","system_id":"levelo_inurba_marseille","lat":43.32302,"lon":5.36655,"is_reserved":false,"is_disabled":false,"rental_uris":{"android":"levelo://app?vid=934a8fc0-98f8-4aaf-a145-d485dee937c7","ios":"levelo://app?vid=934a8fc0-98f8-4aaf-a145-d485dee937c7"},"vehicle_type_id":"4","last_reported":1744888096,"current_range_meters":19600,"station_id":"ce4bhsh2rcd13ifvqi2g","pricing_plan_id":"cebpf4jnsgd1na2vs0mg"},{"bike_id":"68342d9f-f0b6-47e7-b690-b27078e67a77","system_id":"levelo_inurba_marseille","lat":43.24155,"lon":5.36413,"is_reserved":false,"is_disabled":false,"rental_uris":{"android":"levelo://app?vid=68342d9f-f0b6-47e7-b690-b27078e67a77","ios":"levelo://app?vid=68342d9f-f0b6-47e7-b690-b27078e67a77"},"vehicle_type_id":"4","last_reported":1744888096,"current_range_meters":20000,"station_id":"cpo36qri1sfpv3e86is0","pricing_plan_id":"cebpf4jnsgd1na2vs0mg"},{"bike_id":"0d14cfb7-8069-4fcd-b17e-acce701d5f75","system_id":"levelo_inurba_marseille","lat":43.27317,"lon":5.39088,"is_reserved":false,"is_disabled":false,"rental_uris":{"android":"levelo://app?vid=0d14cfb7-8069-4fcd-b17e-acce701d5f75","ios":"levelo://app?vid=0d14cfb7-8069-4fcd-b17e-acce701d5f75"},"vehicle_type_id":"4","last_reported":1744888096,"current_range_meters":20000,"station_id":"ce4bhgp2rcd13ifvqfe0","pricing_plan_id":"cebpf4jnsgd1na2vs0mg"},{"bike_id":"f9d3fbe6-73e5-424e-af02-f446d5b07152","system_id":"levelo_inurba_marseille","lat":43.21741,"lon":5.34623,"is_reserved":false,"is_disabled":false,"rental_uris":{"android":"levelo://app?vid=f9d3fbe6-73e5-424e-af02-f446d5b07152","ios":"levelo://app?vid=f9d3fbe6-73e5-424e-af02-f446d5b07152"},"vehicle_type_id":"4","last_reported":1744888096,"current_range_meters":20000,"station_id":"st_cvj6r9ubvosntc0bgbag","pricing_plan_id":"cebpf4jnsgd1na2vs0mg"},{"bike_id":"3d478ed8-ed25-416a-87f2-402df3b77c0b","system_id":"levelo_inurba_marseille","lat":43.2418,"lon":5.39741,"is_reserved":false,"is_disabled":false,"rental_uris":{"android":"levelo://app?vid=3d478ed8-ed25-416a-87f2-402df3b77c0b","ios":"levelo://app?vid=3d478ed8-ed25-416a-87f2-402df3b77c0b"},"vehicle_type_id":"4","last_reported":1744888096,"current_range_meters":20000,"station_id":"ce4bhn12rcd13ifvqgpg","pricing_plan_id":"cebpf4jnsgd1na2vs0mg"},{"bike_id":"04b27430-aed8-4dd3-a229-380dfbad9203","system_id":"levelo_inurba_marseille","lat":43.30552,"lon":5.36709,"is_reserved":false,"is_disabled":false,"rental_uris":{"android":"levelo://app?vid=04b27430-aed8-4dd3-a229-380dfbad9203","ios":"levelo://app?vid=04b27430-aed8-4dd3-a229-380dfbad9203"},"vehicle_type_id":"4","last_reported":1744888096,"current_range_meters":20400,"station_id":"ce4bgrp2rcd13ifvqc9g","pricing_plan_id":"cebpf4jnsgd1na2vs0mg"},{"bike_id":"5bb7b446-853f-4598-b24e-adca7411c99f","system_id":"levelo_inurba_marseille","lat":43.28272,"lon":5.35065,"is_reserved":false,"is_disabled":false,"rental_uris":{"android":"levelo://app?vid=5bb7b446-853f-4598-b24e-adca7411c99f","ios":"levelo://app?vid=5bb7b446-853f-4598-b24e-adca7411c99f"},"vehicle_type_id":"4","last_reported":1744888096,"current_range_meters":20400,"station_id":"ce4bhbp2rcd13ifvqerg","pricing_plan_id":"cebpf4jnsgd1na2vs0mg"},{"bike_id":"6927db80-8d9e-4a29-9db2-d97908d9e74d","system_id":"levelo_inurba_marseille","lat":43.280207,"lon":5.387164,"is_reserved":false,"is_disabled":false,"rental_uris":{"android":"levelo://app?vid=6927db80-8d9e-4a29-9db2-d97908d9e74d","ios":"levelo://app?vid=6927db80-8d9e-4a29-9db2-d97908d9e74d"},"vehicle_type_id":"4","last_reported":1744888096,"current_range_meters":20400,"station_id":"ce4bhhp2rcd13ifvqfm0","pricing_plan_id":"cebpf4jnsgd1na2vs0mg"},{"bike_id":"b1c1a30c-5d75-47e8-bb16-610caf6c0195","system_id":"levelo_inurba_marseille","lat":43.3248,"lon":5.36571,"is_reserved":false,"is_disabled":false,"rental_uris":{"android":"levelo://app?vid=b1c1a30c-5d75-47e8-bb16-610caf6c0195","ios":"levelo://app?vid=b1c1a30c-5d75-47e8-bb16-610caf6c0195"},"vehicle_type_id":"4","last_reported":1744888096,"current_range_meters":20400,"station_id":"ce4bhs12rcd13ifvqhvg","pricing_plan_id":"cebpf4jnsgd1na2vs0mg"},{"bike_id":"11aba779-b9a1-49cb-90d3-0669feeb74c9","system_id":"levelo_inurba_marseille","lat":43.211822,"lon":5.350748,"is_reserved":false,"is_disabled":false,"rental_uris":{"android":"levelo://app?vid=11aba779-b9a1-49cb-90d3-0669feeb74c9","ios":"levelo://app?vid=11aba779-b9a1-49cb-90d3-0669feeb74c9"},"vehicle_type_id":"4","last_reported":1744888096,"current_range_meters":20400,"station_id":"st_cvj6sg6p6f1abm77japg","pricing_plan_id":"cebpf4jnsgd1na2vs0mg"},{"bike_id":"df333a31-16eb-4605-a51f-fed6098dd41c","system_id":"levelo_inurba_marseille","lat":43.29595,"lon":5.36733,"is_reserved":false,"is_disabled":false,"rental_uris":{"android":"levelo://app?vid=df333a31-16eb-4605-a51f-fed6098dd41c","ios":"levelo://app?vid=df333a31-16eb-4605-a51f-fed6098dd41c"},"vehicle_type_id":"4","last_reported":1744888096,"current_range_meters":20400,"station_id":"ce4bgph2rcd13ifvqc2g","pricing_plan_id":"cebpf4jnsgd1na2vs0mg"},{"bike_id":"3f432c39-1f87-40f6-8089-60e47d552d79","system_id":"levelo_inurba_marseille","lat":43.25088,"lon":5.39532,"is_reserved":false,"is_disabled":false,"rental_uris":{"android":"levelo://app?vid=3f432c39-1f87-40f6-8089-60e47d552d79","ios":"levelo://app?vid=3f432c39-1f87-40f6-8089-60e47d552d79"},"vehicle_type_id":"4","last_reported":1744888096,"current_range_meters":20400,"station_id":"ce4bhm12rcd13ifvqgkg","pricing_plan_id":"cebpf4jnsgd1na2vs0mg"},{"bike_id":"c305c827-8b59-4e6c-91de-4d8a3fcbcac2","system_id":"levelo_inurba_marseille","lat":43.2416,"lon":5.36407,"is_reserved":false,"is_disabled":false,"rental_uris":{"android":"levelo://app?vid=c305c827-8b59-4e6c-91de-4d8a3fcbcac2","ios":"levelo://app?vid=c305c827-8b59-4e6c-91de-4d8a3fcbcac2"},"vehicle_type_id":"4","last_reported":1744888096,"current_range_meters":20400,"station_id":"cpo36qri1sfpv3e86is0","pricing_plan_id":"cebpf4jnsgd1na2vs0mg"},{"bike_id":"04cd718a-739b-4f09-8fdf-74e445452766","system_id":"levelo_inurba_marseille","lat":43.31491,"lon":5.37284,"is_reserved":false,"is_disabled":false,"rental_uris":{"android":"levelo://app?vid=04cd718a-739b-4f09-8fdf-74e445452766","ios":"levelo://app?vid=04cd718a-739b-4f09-8fdf-74e445452766"},"vehicle_type_id":"4","last_reported":1744888096,"current_range_meters":20800,"station_id":"ce4bgt12rcd13ifvqcd0","pricing_plan_id":"cebpf4jnsgd1na2vs0mg"},{"bike_id":"177d0eac-242d-4d40-93f4-d64412ac6171","system_id":"levelo_inurba_marseille","lat":43.29276,"lon":5.38437,"is_reserved":false,"is_disabled":false,"rental_uris":{"android":"levelo://app?vid=177d0eac-242d-4d40-93f4-d64412ac6171","ios":"levelo://app?vid=177d0eac-242d-4d40-93f4-d64412ac6171"},"vehicle_type_id":"4","last_reported":1744888096,"current_range_meters":20800,"station_id":"ce4bh692rcd13ifvqea0","pricing_plan_id":"cebpf4jnsgd1na2vs0mg"},{"bike_id":"bfc0f2bb-f1f4-4fed-b9af-c547a21d1d5d","system_id":"levelo_inurba_marseille","lat":43.28625,"lon":5.35091,"is_reserved":false,"is_disabled":false,"rental_uris":{"android":"levelo://app?vid=bfc0f2bb-f1f4-4fed-b9af-c547a21d1d5d","ios":"levelo://app?vid=bfc0f2bb-f1f4-4fed-b9af-c547a21d1d5d"},"vehicle_type_id":"4","last_reported":1744888096,"current_range_meters":20800,"station_id":"ce4bhch2rcd13ifvqeug","pricing_plan_id":"cebpf4jnsgd1na2vs0mg"},{"bike_id":"e3188c68-2cdc-4f22-af61-506a31b7e371","system_id":"levelo_inurba_marseille","lat":43.29528,"lon":5.3905,"is_reserved":false,"is_disabled":false,"rental_uris":{"android":"levelo://app?vid=e3188c68-2cdc-4f22-af61-506a31b7e371","ios":"levelo://app?vid=e3188c68-2cdc-4f22-af61-506a31b7e371"},"vehicle_type_id":"4","last_reported":1744888096,"current_range_meters":20800,"station_id":"ce4bh3p2rcd13ifvqdp0","pricing_plan_id":"cebpf4jnsgd1na2vs0mg"},{"bike_id":"f333f110-959a-46ad-821a-d1feadf162d8","system_id":"levelo_inurba_marseille","lat":43.30563,"lon":5.36713,"is_reserved":false,"is_disabled":false,"rental_uris":{"android":"levelo://app?vid=f333f110-959a-46ad-821a-d1feadf162d8","ios":"levelo://app?vid=f333f110-959a-46ad-821a-d1feadf162d8"},"vehicle_type_id":"4","last_reported":1744888096,"current_range_meters":20800,"station_id":"ce4bgrp2rcd13ifvqc9g","pricing_plan_id":"cebpf4jnsgd1na2vs0mg"},{"bike_id":"4566ecb3-0ed1-4480-a385-fa1779d62b0c","system_id":"levelo_inurba_marseille","lat":43.291004,"lon":5.381326,"is_reserved":false,"is_disabled":false,"rental_uris":{"android":"levelo://app?vid=4566ecb3-0ed1-4480-a385-fa1779d62b0c","ios":"levelo://app?vid=4566ecb3-0ed1-4480-a385-fa1779d62b0c"},"vehicle_type_id":"4","last_reported":1744888096,"current_range_meters":20800,"station_id":"ce4bhoh2rcd13ifvqh5g","pricing_plan_id":"cebpf4jnsgd1na2vs0mg"},{"bike_id":"d1a2b493-7d30-4a9c-a02b-dfad0b4f73f7","system_id":"levelo_inurba_marseille","lat":43.24824,"lon":5.37459,"is_reserved":false,"is_disabled":false,"rental_uris":{"android":"levelo://app?vid=d1a2b493-7d30-4a9c-a02b-dfad0b4f73f7","ios":"levelo://app?vid=d1a2b493-7d30-4a9c-a02b-dfad0b4f73f7"},"vehicle_type_id":"4","last_reported":1744888096,"current_range_meters":20800,"station_id":"ce4bhgh2rcd13ifvqfb0","pricing_plan_id":"cebpf4jnsgd1na2vs0mg"},{"bike_id":"5db340d3-75e8-4e78-8c65-1153b885a9f3","system_id":"levelo_inurba_marseille","lat":43.301576,"lon":5.381607,"is_reserved":false,"is_disabled":false,"rental_uris":{"android":"levelo://app?vid=5db340d3-75e8-4e78-8c65-1153b885a9f3","ios":"levelo://app?vid=5db340d3-75e8-4e78-8c65-1153b885a9f3"},"vehicle_type_id":"4","last_reported":1744888096,"current_range_meters":21600,"station_id":"ce4bgjp2rcd13ifvqbh0","pricing_plan_id":"cebpf4jnsgd1na2vs0mg"},{"bike_id":"efb996b3-bed7-4ae8-93ff-d4d1352bc8f1","system_id":"levelo_inurba_marseille","lat":43.30287,"lon":5.37699,"is_reserved":false,"is_disabled":false,"rental_uris":{"android":"levelo://app?vid=efb996b3-bed7-4ae8-93ff-d4d1352bc8f1","ios":"levelo://app?vid=efb996b3-bed7-4ae8-93ff-d4d1352bc8f1"},"vehicle_type_id":"4","last_reported":1744888096,"current_range_meters":21600,"station_id":"ce4bguh2rcd13ifvqcj0","pricing_plan_id":"cebpf4jnsgd1na2vs0mg"},{"bike_id":"d39e5537-c00a-4bf8-9f22-53966b448679","system_id":"levelo_inurba_marseille","lat":43.29553,"lon":5.42281,"is_reserved":false,"is_disabled":false,"rental_uris":{"android":"levelo://app?vid=d39e5537-c00a-4bf8-9f22-53966b448679","ios":"levelo://app?vid=d39e5537-c00a-4bf8-9f22-53966b448679"},"vehicle_type_id":"4","last_reported":1744888096,"current_range_meters":21600,"station_id":"ce4bhph2rcd13ifvqhdg","pricing_plan_id":"cebpf4jnsgd1na2vs0mg"},{"bike_id":"a98846e9-8bfc-47f7-8530-12eb548f5820","system_id":"levelo_inurba_marseille","lat":43.28988,"lon":5.37856,"is_reserved":false,"is_disabled":false,"rental_uris":{"android":"levelo://app?vid=a98846e9-8bfc-47f7-8530-12eb548f5820","ios":"levelo://app?vid=a98846e9-8bfc-47f7-8530-12eb548f5820"},"vehicle_type_id":"4","last_reported":1744888096,"current_range_meters":21600,"station_id":"ce4bh9p2rcd13ifvqed0","pricing_plan_id":"cebpf4jnsgd1na2vs0mg"},{"bike_id":"34bae3a6-8052-46aa-a159-ccf9d119e151","system_id":"levelo_inurba_marseille","lat":43.306023,"lon":5.372358,"is_reserved":false,"is_disabled":false,"rental_uris":{"android":"levelo://app?vid=34bae3a6-8052-46aa-a159-ccf9d119e151","ios":"levelo://app?vid=34bae3a6-8052-46aa-a159-ccf9d119e151"},"vehicle_type_id":"4","last_reported":1744888096,"current_range_meters":20800,"station_id":"ce4bgqh2rcd13ifvqc4g","pricing_plan_id":"cebpf4jnsgd1na2vs0mg"},{"bike_id":"05f9b99d-7805-460c-b863-06baeb2f9dc2","system_id":"levelo_inurba_marseille","lat":43.30176,"lon":5.38094,"is_reserved":false,"is_disabled":false,"rental_uris":{"android":"levelo://app?vid=05f9b99d-7805-460c-b863-06baeb2f9dc2","ios":"levelo://app?vid=05f9b99d-7805-460c-b863-06baeb2f9dc2"},"vehicle_type_id":"4","last_reported":1744888096,"current_range_meters":21600,"station_id":"ce4bgjp2rcd13ifvqbh0","pricing_plan_id":"cebpf4jnsgd1na2vs0mg"},{"bike_id":"767ac8e2-0e80-4549-a954-7d5c8496a13a","system_id":"levelo_inurba_marseille","lat":43.30531,"lon":5.3655,"is_reserved":false,"is_disabled":false,"rental_uris":{"android":"levelo://app?vid=767ac8e2-0e80-4549-a954-7d5c8496a13a","ios":"levelo://app?vid=767ac8e2-0e80-4549-a954-7d5c8496a13a"},"vehicle_type_id":"4","last_reported":1744888096,"current_range_meters":21600,"station_id":"ce4bgs12rcd13ifvqcag","pricing_plan_id":"cebpf4jnsgd1na2vs0mg"},{"bike_id":"8c0be09f-1a08-4f03-adf3-9ab53d05b7e1","system_id":"levelo_inurba_marseille","lat":43.30405,"lon":5.4129,"is_reserved":false,"is_disabled":true,"rental_uris":{"android":"levelo://app?vid=8c0be09f-1a08-4f03-adf3-9ab53d05b7e1","ios":"levelo://app?vid=8c0be09f-1a08-4f03-adf3-9ab53d05b7e1"},"vehicle_type_id":"4","last_reported":1744888096,"current_range_meters":21600,"station_id":"ce4bhop2rcd13ifvqh8g","pricing_plan_id":"cebpf4jnsgd1na2vs0mg"},{"bike_id":"f1d513e7-93f2-472b-b840-4c42490aad95","system_id":"levelo_inurba_marseille","lat":43.24167,"lon":5.36398,"is_reserved":false,"is_disabled":false,"rental_uris":{"android":"levelo://app?vid=f1d513e7-93f2-472b-b840-4c42490aad95","ios":"levelo://app?vid=f1d513e7-93f2-472b-b840-4c42490aad95"},"vehicle_type_id":"4","last_reported":1744888096,"current_range_meters":21600,"station_id":"cpo36qri1sfpv3e86is0","pricing_plan_id":"cebpf4jnsgd1na2vs0mg"},{"bike_id":"67909641-519d-44ba-9299-135095b5b719","system_id":"levelo_inurba_marseille","lat":43.29417,"lon":5.3863,"is_reserved":false,"is_disabled":false,"rental_uris":{"android":"levelo://app?vid=67909641-519d-44ba-9299-135095b5b719","ios":"levelo://app?vid=67909641-519d-44ba-9299-135095b5b719"},"vehicle_type_id":"4","last_reported":1744888096,"current_range_meters":21600,"station_id":"ce4bh2h2rcd13ifvqdh0","pricing_plan_id":"cebpf4jnsgd1na2vs0mg"},{"bike_id":"dedb470f-6c6a-4f9a-aa3f-f9f94aa535bb","system_id":"levelo_inurba_marseille","lat":43.264863,"lon":5.395587,"is_reserved":false,"is_disabled":false,"rental_uris":{"android":"levelo://app?vid=dedb470f-6c6a-4f9a-aa3f-f9f94aa535bb","ios":"levelo://app?vid=dedb470f-6c6a-4f9a-aa3f-f9f94aa535bb"},"vehicle_type_id":"4","last_reported":1744888096,"current_range_meters":21600,"station_id":"ce4bhi12rcd13ifvqfq0","pricing_plan_id":"cebpf4jnsgd1na2vs0mg"},{"bike_id":"bf01d443-1d07-4abe-96f1-098d89ebecc6","system_id":"levelo_inurba_marseille","lat":43.28975,"lon":5.37866,"is_reserved":false,"is_disabled":false,"rental_uris":{"android":"levelo://app?vid=bf01d443-1d07-4abe-96f1-098d89ebecc6","ios":"levelo://app?vid=bf01d443-1d07-4abe-96f1-098d89ebecc6"},"vehicle_type_id":"4","last_reported":1744888096,"current_range_meters":20800,"station_id":"ce4bh9p2rcd13ifvqed0","pricing_plan_id":"cebpf4jnsgd1na2vs0mg"},{"bike_id":"cc937bc8-27c1-44e9-a469-8b24e9cfd941","system_id":"levelo_inurba_marseille","lat":43.29854,"lon":5.36297,"is_reserved":false,"is_disabled":false,"rental_uris":{"android":"levelo://app?vid=cc937bc8-27c1-44e9-a469-8b24e9cfd941","ios":"levelo://app?vid=cc937bc8-27c1-44e9-a469-8b24e9cfd941"},"vehicle_type_id":"4","last_reported":1744888096,"current_range_meters":22000,"station_id":"ce4bgpp2rcd13ifvqc3g","pricing_plan_id":"cebpf4jnsgd1na2vs0mg"},{"bike_id":"06f9d4f4-99dc-49b6-a57a-58ad8f2a357c","system_id":"levelo_inurba_marseille","lat":43.29709,"lon":5.36621,"is_reserved":false,"is_disabled":false,"rental_uris":{"android":"levelo://app?vid=06f9d4f4-99dc-49b6-a57a-58ad8f2a357c","ios":"levelo://app?vid=06f9d4f4-99dc-49b6-a57a-58ad8f2a357c"},"vehicle_type_id":"4","last_reported":1744888096,"current_range_meters":22000,"station_id":"ce4bgn12rcd13ifvqbt0","pricing_plan_id":"cebpf4jnsgd1na2vs0mg"},{"bike_id":"33bf5d63-424c-48d6-a0cb-a0565488ee3e","system_id":"levelo_inurba_marseille","lat":43.241821,"lon":5.397285,"is_reserved":false,"is_disabled":false,"rental_uris":{"android":"levelo://app?vid=33bf5d63-424c-48d6-a0cb-a0565488ee3e","ios":"levelo://app?vid=33bf5d63-424c-48d6-a0cb-a0565488ee3e"},"vehicle_type_id":"4","last_reported":1744888096,"current_range_meters":22000,"station_id":"ce4bhn12rcd13ifvqgpg","pricing_plan_id":"cebpf4jnsgd1na2vs0mg"},{"bike_id":"4ae1af70-fa48-4e66-80e5-94e9e8b423ca","system_id":"levelo_inurba_marseille","lat":43.28658,"lon":5.36346,"is_reserved":false,"is_disabled":true,"rental_uris":{"android":"levelo://app?vid=4ae1af70-fa48-4e66-80e5-94e9e8b423ca","ios":"levelo://app?vid=4ae1af70-fa48-4e66-80e5-94e9e8b423ca"},"vehicle_type_id":"4","last_reported":1744888096,"current_range_meters":22000,"station_id":"ce4bhah2rcd13ifvqej0","pricing_plan_id":"cebpf4jnsgd1na2vs0mg"},{"bike_id":"04b0cb39-9229-4c02-890e-562e273ff746","system_id":"levelo_inurba_marseille","lat":43.29782,"lon":5.3812,"is_reserved":false,"is_disabled":true,"rental_uris":{"android":"levelo://app?vid=04b0cb39-9229-4c02-890e-562e273ff746","ios":"levelo://app?vid=04b0cb39-9229-4c02-890e-562e273ff746"},"vehicle_type_id":"4","last_reported":1744888096,"current_range_meters":22000,"station_id":"ce4bgip2rcd13ifvqbb0","pricing_plan_id":"cebpf4jnsgd1na2vs0mg"},{"bike_id":"9213b5d2-e0ec-4cca-a989-84591f092b06","system_id":"levelo_inurba_marseille","lat":43.29788,"lon":5.37105,"is_reserved":false,"is_disabled":false,"rental_uris":{"android":"levelo://app?vid=9213b5d2-e0ec-4cca-a989-84591f092b06","ios":"levelo://app?vid=9213b5d2-e0ec-4cca-a989-84591f092b06"},"vehicle_type_id":"4","last_reported":1744888096,"current_range_meters":22000,"station_id":"ce4bgop2rcd13ifvqc1g","pricing_plan_id":"cebpf4jnsgd1na2vs0mg"},{"bike_id":"5e6be620-a3d0-49c3-9ff0-b85332cde817","system_id":"levelo_inurba_marseille","lat":43.23197,"lon":5.35591,"is_reserved":false,"is_disabled":false,"rental_uris":{"android":"levelo://app?vid=5e6be620-a3d0-49c3-9ff0-b85332cde817","ios":"levelo://app?vid=5e6be620-a3d0-49c3-9ff0-b85332cde817"},"vehicle_type_id":"4","last_reported":1744888096,"current_range_meters":22000,"station_id":"ce4bhu92rcd13ifvqi70","pricing_plan_id":"cebpf4jnsgd1na2vs0mg"},{"bike_id":"980829e1-f26b-4e3b-8ec7-536b69016beb","system_id":"levelo_inurba_marseille","lat":43.30554,"lon":5.36688,"is_reserved":false,"is_disabled":false,"rental_uris":{"android":"levelo://app?vid=980829e1-f26b-4e3b-8ec7-536b69016beb","ios":"levelo://app?vid=980829e1-f26b-4e3b-8ec7-536b69016beb"},"vehicle_type_id":"4","last_reported":1744888096,"current_range_meters":22000,"station_id":"ce4bgrp2rcd13ifvqc9g","pricing_plan_id":"cebpf4jnsgd1na2vs0mg"},{"bike_id":"023eb699-62b8-4aec-bc32-a3c1e49039ea","system_id":"levelo_inurba_marseille","lat":43.295921,"lon":5.400705,"is_reserved":false,"is_disabled":false,"rental_uris":{"android":"levelo://app?vid=023eb699-62b8-4aec-bc32-a3c1e49039ea","ios":"levelo://app?vid=023eb699-62b8-4aec-bc32-a3c1e49039ea"},"vehicle_type_id":"4","last_reported":1744888096,"current_range_meters":22400,"station_id":"ce4bh0h2rcd13ifvqd60","pricing_plan_id":"cebpf4jnsgd1na2vs0mg"},{"bike_id":"09a5395e-a240-4b6c-be3c-e21058370cff","system_id":"levelo_inurba_marseille","lat":43.23156,"lon":5.4371,"is_reserved":false,"is_disabled":false,"rental_uris":{"android":"levelo://app?vid=09a5395e-a240-4b6c-be3c-e21058370cff","ios":"levelo://app?vid=09a5395e-a240-4b6c-be3c-e21058370cff"},"vehicle_type_id":"4","last_reported":1744888096,"current_range_meters":22400,"station_id":"ce4bhmp2rcd13ifvqgog","pricing_plan_id":"cebpf4jnsgd1na2vs0mg"},{"bike_id":"22b4e403-87cd-46d0-9098-2ed92d657962","system_id":"levelo_inurba_marseille","lat":43.29303,"lon":5.37473,"is_reserved":false,"is_disabled":false,"rental_uris":{"android":"levelo://app?vid=22b4e403-87cd-46d0-9098-2ed92d657962","ios":"levelo://app?vid=22b4e403-87cd-46d0-9098-2ed92d657962"},"vehicle_type_id":"4","last_reported":1744888096,"current_range_meters":22400,"station_id":"ce4bgi12rcd13ifvqb70","pricing_plan_id":"cebpf4jnsgd1na2vs0mg"},{"bike_id":"5edff29b-8597-4123-8eac-13badbdfa345","system_id":"levelo_inurba_marseille","lat":43.29309,"lon":5.37441,"is_reserved":false,"is_disabled":false,"rental_uris":{"android":"levelo://app?vid=5edff29b-8597-4123-8eac-13badbdfa345","ios":"levelo://app?vid=5edff29b-8597-4123-8eac-13badbdfa345"},"vehicle_type_id":"4","last_reported":1744888096,"current_range_meters":22400,"station_id":"ce4bgi12rcd13ifvqb70","pricing_plan_id":"cebpf4jnsgd1na2vs0mg"},{"bike_id":"80bac1fe-218c-4068-937c-4aa733df023f","system_id":"levelo_inurba_marseille","lat":43.2865,"lon":5.37083,"is_reserved":false,"is_disabled":false,"rental_uris":{"android":"levelo://app?vid=80bac1fe-218c-4068-937c-4aa733df023f","ios":"levelo://app?vid=80bac1fe-218c-4068-937c-4aa733df023f"},"vehicle_type_id":"4","last_reported":1744888096,"current_range_meters":22400,"station_id":"ce4bht12rcd13ifvqi60","pricing_plan_id":"cebpf4jnsgd1na2vs0mg"},{"bike_id":"2b1048f5-f68f-4b65-b196-88d2f44db76b","system_id":"levelo_inurba_marseille","lat":43.29409,"lon":5.38628,"is_reserved":false,"is_disabled":false,"rental_uris":{"android":"levelo://app?vid=2b1048f5-f68f-4b65-b196-88d2f44db76b","ios":"levelo://app?vid=2b1048f5-f68f-4b65-b196-88d2f44db76b"},"vehicle_type_id":"4","last_reported":1744888096,"current_range_meters":22800,"station_id":"ce4bh2h2rcd13ifvqdh0","pricing_plan_id":"cebpf4jnsgd1na2vs0mg"},{"bike_id":"873bcab6-b973-48ed-b129-34762c209441","system_id":"levelo_inurba_marseille","lat":43.31471,"lon":5.37313,"is_reserved":false,"is_disabled":false,"rental_uris":{"android":"levelo://app?vid=873bcab6-b973-48ed-b129-34762c209441","ios":"levelo://app?vid=873bcab6-b973-48ed-b129-34762c209441"},"vehicle_type_id":"4","last_reported":1744888096,"current_range_meters":22800,"station_id":"ce4bgt12rcd13ifvqcd0","pricing_plan_id":"cebpf4jnsgd1na2vs0mg"},{"bike_id":"56882ef9-a6d4-408d-adac-a41b1e58d41a","system_id":"levelo_inurba_marseille","lat":43.2985,"lon":5.36293,"is_reserved":false,"is_disabled":true,"rental_uris":{"android":"levelo://app?vid=56882ef9-a6d4-408d-adac-a41b1e58d41a","ios":"levelo://app?vid=56882ef9-a6d4-408d-adac-a41b1e58d41a"},"vehicle_type_id":"4","last_reported":1744888096,"current_range_meters":22800,"station_id":"ce4bgpp2rcd13ifvqc3g","pricing_plan_id":"cebpf4jnsgd1na2vs0mg"},{"bike_id":"983a3155-cb2e-43bd-b5b3-575d70c547bc","system_id":"levelo_inurba_marseille","lat":43.24651,"lon":5.38896,"is_reserved":false,"is_disabled":false,"rental_uris":{"android":"levelo://app?vid=983a3155-cb2e-43bd-b5b3-575d70c547bc","ios":"levelo://app?vid=983a3155-cb2e-43bd-b5b3-575d70c547bc"},"vehicle_type_id":"4","last_reported":1744888096,"current_range_meters":22800,"station_id":"ce4bhg12rcd13ifvqf60","pricing_plan_id":"cebpf4jnsgd1na2vs0mg"},{"bike_id":"8072d6a8-09c2-4f36-8a75-6edde0c50c32","system_id":"levelo_inurba_marseille","lat":43.28468,"lon":5.35905,"is_reserved":false,"is_disabled":false,"rental_uris":{"android":"levelo://app?vid=8072d6a8-09c2-4f36-8a75-6edde0c50c32","ios":"levelo://app?vid=8072d6a8-09c2-4f36-8a75-6edde0c50c32"},"vehicle_type_id":"4","last_reported":1744888096,"current_range_meters":22800,"station_id":"ce4bhah2rcd13ifvqei0","pricing_plan_id":"cebpf4jnsgd1na2vs0mg"},{"bike_id":"9eb6738d-486c-4d0a-88f4-70b8d81983d1","system_id":"levelo_inurba_marseille","lat":43.21757,"lon":5.34608,"is_reserved":false,"is_disabled":false,"rental_uris":{"android":"levelo://app?vid=9eb6738d-486c-4d0a-88f4-70b8d81983d1","ios":"levelo://app?vid=9eb6738d-486c-4d0a-88f4-70b8d81983d1"},"vehicle_type_id":"4","last_reported":1744888096,"current_range_meters":22800,"station_id":"st_cvj6r9ubvosntc0bgbag","pricing_plan_id":"cebpf4jnsgd1na2vs0mg"},{"bike_id":"1c2a369f-e6cf-43de-9ce5-40d9efeb3579","system_id":"levelo_inurba_marseille","lat":43.2857,"lon":5.39504,"is_reserved":false,"is_disabled":false,"rental_uris":{"android":"levelo://app?vid=1c2a369f-e6cf-43de-9ce5-40d9efeb3579","ios":"levelo://app?vid=1c2a369f-e6cf-43de-9ce5-40d9efeb3579"},"vehicle_type_id":"4","last_reported":1744888096,"current_range_meters":22400,"station_id":"ce4bh292rcd13ifvqdg0","pricing_plan_id":"cebpf4jnsgd1na2vs0mg"},{"bike_id":"dd9bc5a1-4c5d-48ef-a366-e087f9649940","system_id":"levelo_inurba_marseille","lat":43.31193,"lon":5.36927,"is_reserved":false,"is_disabled":false,"rental_uris":{"android":"levelo://app?vid=dd9bc5a1-4c5d-48ef-a366-e087f9649940","ios":"levelo://app?vid=dd9bc5a1-4c5d-48ef-a366-e087f9649940"},"vehicle_type_id":"4","last_reported":1744888096,"current_range_meters":23200,"station_id":"","pricing_plan_id":"cebpf4jnsgd1na2vs0mg"},{"bike_id":"d4fed459-1a16-49d1-a46c-cd8044b4601a","system_id":"levelo_inurba_marseille","lat":43.29614,"lon":5.37732,"is_reserved":false,"is_disabled":false,"rental_uris":{"android":"levelo://app?vid=d4fed459-1a16-49d1-a46c-cd8044b4601a","ios":"levelo://app?vid=d4fed459-1a16-49d1-a46c-cd8044b4601a"},"vehicle_type_id":"4","last_reported":1744888096,"current_range_meters":23200,"station_id":"ce4bgi92rcd13ifvqb90","pricing_plan_id":"cebpf4jnsgd1na2vs0mg"},{"bike_id":"91aa591a-3e56-4092-a295-ecb6aebe69eb","system_id":"levelo_inurba_marseille","lat":43.22502,"lon":5.34791,"is_reserved":false,"is_disabled":false,"rental_uris":{"android":"levelo://app?vid=91aa591a-3e56-4092-a295-ecb6aebe69eb","ios":"levelo://app?vid=91aa591a-3e56-4092-a295-ecb6aebe69eb"},"vehicle_type_id":"4","last_reported":1744888096,"current_range_meters":23200,"station_id":"st_cvj5dfep6f1abm77gieg","pricing_plan_id":"cebpf4jnsgd1na2vs0mg"},{"bike_id":"bd87b5c8-4341-49cf-bfcd-ce76278224ae","system_id":"levelo_inurba_marseille","lat":43.29717,"lon":5.37704,"is_reserved":false,"is_disabled":false,"rental_uris":{"android":"levelo://app?vid=bd87b5c8-4341-49cf-bfcd-ce76278224ae","ios":"levelo://app?vid=bd87b5c8-4341-49cf-bfcd-ce76278224ae"},"vehicle_type_id":"4","last_reported":1744888096,"current_range_meters":23200,"station_id":"ce4bgkh2rcd13ifvqbl0","pricing_plan_id":"cebpf4jnsgd1na2vs0mg"},{"bike_id":"aea2afb6-112e-4c3a-968a-5eb5aa77e9be","system_id":"levelo_inurba_marseille","lat":43.21233,"lon":5.35033,"is_reserved":false,"is_disabled":false,"rental_uris":{"android":"levelo://app?vid=aea2afb6-112e-4c3a-968a-5eb5aa77e9be","ios":"levelo://app?vid=aea2afb6-112e-4c3a-968a-5eb5aa77e9be"},"vehicle_type_id":"4","last_reported":1744888096,"current_range_meters":23200,"station_id":"","pricing_plan_id":"cebpf4jnsgd1na2vs0mg"},{"bike_id":"9e943695-5ef5-4ff8-a91b-9fe3d1298080","system_id":"levelo_inurba_marseille","lat":43.30153,"lon":5.38096,"is_reserved":false,"is_disabled":false,"rental_uris":{"android":"levelo://app?vid=9e943695-5ef5-4ff8-a91b-9fe3d1298080","ios":"levelo://app?vid=9e943695-5ef5-4ff8-a91b-9fe3d1298080"},"vehicle_type_id":"4","last_reported":1744888096,"current_range_meters":23200,"station_id":"ce4bgjp2rcd13ifvqbh0","pricing_plan_id":"cebpf4jnsgd1na2vs0mg"},{"bike_id":"09ed2f99-3de5-46d0-a2e0-ed554d61393f","system_id":"levelo_inurba_marseille","lat":43.31001,"lon":5.3847,"is_reserved":false,"is_disabled":false,"rental_uris":{"android":"levelo://app?vid=09ed2f99-3de5-46d0-a2e0-ed554d61393f","ios":"levelo://app?vid=09ed2f99-3de5-46d0-a2e0-ed554d61393f"},"vehicle_type_id":"4","last_reported":1744888096,"current_range_meters":23200,"station_id":"","pricing_plan_id":"cebpf4jnsgd1na2vs0mg"},{"bike_id":"db2488d1-77a1-4eb3-9b9b-b51975bfb43c","system_id":"levelo_inurba_marseille","lat":43.30181,"lon":5.37361,"is_reserved":false,"is_disabled":false,"rental_uris":{"android":"levelo://app?vid=db2488d1-77a1-4eb3-9b9b-b51975bfb43c","ios":"levelo://app?vid=db2488d1-77a1-4eb3-9b9b-b51975bfb43c"},"vehicle_type_id":"4","last_reported":1744888096,"current_range_meters":23200,"station_id":"","pricing_plan_id":"cebpf4jnsgd1na2vs0mg"},{"bike_id":"57bc6ae8-8ba9-43fb-955d-045fe331c855","system_id":"levelo_inurba_marseille","lat":43.30537,"lon":5.36691,"is_reserved":false,"is_disabled":false,"rental_uris":{"android":"levelo://app?vid=57bc6ae8-8ba9-43fb-955d-045fe331c855","ios":"levelo://app?vid=57bc6ae8-8ba9-43fb-955d-045fe331c855"},"vehicle_type_id":"4","last_reported":1744888096,"current_range_meters":23200,"station_id":"ce4bgrp2rcd13ifvqc9g","pricing_plan_id":"cebpf4jnsgd1na2vs0mg"},{"bike_id":"0356825b-1f31-4401-8b56-d69e8b7bc4cc","system_id":"levelo_inurba_marseille","lat":43.314833,"lon":5.373107,"is_reserved":false,"is_disabled":false,"rental_uris":{"android":"levelo://app?vid=0356825b-1f31-4401-8b56-d69e8b7bc4cc","ios":"levelo://app?vid=0356825b-1f31-4401-8b56-d69e8b7bc4cc"},"vehicle_type_id":"4","last_reported":1744888096,"current_range_meters":23200,"station_id":"ce4bgt12rcd13ifvqcd0","pricing_plan_id":"cebpf4jnsgd1na2vs0mg"},{"bike_id":"b412b3e8-9c22-4520-a111-85129702ff20","system_id":"levelo_inurba_marseille","lat":43.23187,"lon":5.39988,"is_reserved":false,"is_disabled":false,"rental_uris":{"android":"levelo://app?vid=b412b3e8-9c22-4520-a111-85129702ff20","ios":"levelo://app?vid=b412b3e8-9c22-4520-a111-85129702ff20"},"vehicle_type_id":"4","last_reported":1744888096,"current_range_meters":23200,"station_id":"ce4bhn12rcd13ifvqgqg","pricing_plan_id":"cebpf4jnsgd1na2vs0mg"},{"bike_id":"17e56fbc-c39a-478e-8d3a-3c91f79de422","system_id":"levelo_inurba_marseille","lat":43.2962,"lon":5.37729,"is_reserved":false,"is_disabled":false,"rental_uris":{"android":"levelo://app?vid=17e56fbc-c39a-478e-8d3a-3c91f79de422","ios":"levelo://app?vid=17e56fbc-c39a-478e-8d3a-3c91f79de422"},"vehicle_type_id":"4","last_reported":1744888096,"current_range_meters":23200,"station_id":"ce4bgi92rcd13ifvqb90","pricing_plan_id":"cebpf4jnsgd1na2vs0mg"},{"bike_id":"2daa9929-2b45-46ff-943a-bb2bb178315b","system_id":"levelo_inurba_marseille","lat":43.28714,"lon":5.39993,"is_reserved":false,"is_disabled":false,"rental_uris":{"android":"levelo://app?vid=2daa9929-2b45-46ff-943a-bb2bb178315b","ios":"levelo://app?vid=2daa9929-2b45-46ff-943a-bb2bb178315b"},"vehicle_type_id":"4","last_reported":1744888096,"current_range_meters":23200,"station_id":"ce4bho92rcd13ifvqh3g","pricing_plan_id":"cebpf4jnsgd1na2vs0mg"},{"bike_id":"b8fd4637-80f0-49ed-8e56-ba4f5c82acfc","system_id":"levelo_inurba_marseille","lat":43.299713,"lon":5.371785,"is_reserved":false,"is_disabled":false,"rental_uris":{"android":"levelo://app?vid=b8fd4637-80f0-49ed-8e56-ba4f5c82acfc","ios":"levelo://app?vid=b8fd4637-80f0-49ed-8e56-ba4f5c82acfc"},"vehicle_type_id":"4","last_reported":1744888096,"current_range_meters":24000,"station_id":"ce4bgr92rcd13ifvqc7g","pricing_plan_id":"cebpf4jnsgd1na2vs0mg"},{"bike_id":"d05b7cc4-f88b-4d02-ae6c-c344f22c0e5c","system_id":"levelo_inurba_marseille","lat":43.29767,"lon":5.36549,"is_reserved":false,"is_disabled":false,"rental_uris":{"android":"levelo://app?vid=d05b7cc4-f88b-4d02-ae6c-c344f22c0e5c","ios":"levelo://app?vid=d05b7cc4-f88b-4d02-ae6c-c344f22c0e5c"},"vehicle_type_id":"4","last_reported":1744888096,"current_range_meters":24000,"station_id":"","pricing_plan_id":"cebpf4jnsgd1na2vs0mg"},{"bike_id":"169cfa47-f08f-4b2d-acdf-f6e87b6776f1","system_id":"levelo_inurba_marseille","lat":43.31232,"lon":5.36881,"is_reserved":false,"is_disabled":false,"rental_uris":{"android":"levelo://app?vid=169cfa47-f08f-4b2d-acdf-f6e87b6776f1","ios":"levelo://app?vid=169cfa47-f08f-4b2d-acdf-f6e87b6776f1"},"vehicle_type_id":"4","last_reported":1744888096,"current_range_meters":24000,"station_id":"ce4bgl92rcd13ifvqbq0","pricing_plan_id":"cebpf4jnsgd1na2vs0mg"},{"bike_id":"7d1b0b4b-e95b-4533-8309-734860489786","system_id":"levelo_inurba_marseille","lat":43.275017,"lon":5.411389,"is_reserved":false,"is_disabled":false,"rental_uris":{"android":"levelo://app?vid=7d1b0b4b-e95b-4533-8309-734860489786","ios":"levelo://app?vid=7d1b0b4b-e95b-4533-8309-734860489786"},"vehicle_type_id":"4","last_reported":1744888096,"current_range_meters":24000,"station_id":"","pricing_plan_id":"cebpf4jnsgd1na2vs0mg"},{"bike_id":"c66014ef-7394-4f70-aa60-b19eaba268b4","system_id":"levelo_inurba_marseille","lat":43.29095,"lon":5.37175,"is_reserved":false,"is_disabled":false,"rental_uris":{"android":"levelo://app?vid=c66014ef-7394-4f70-aa60-b19eaba268b4","ios":"levelo://app?vid=c66014ef-7394-4f70-aa60-b19eaba268b4"},"vehicle_type_id":"4","last_reported":1744888096,"current_range_meters":24000,"station_id":"ce4bh5p2rcd13ifvqe4g","pricing_plan_id":"cebpf4jnsgd1na2vs0mg"},{"bike_id":"24213b37-b766-4d9c-a174-f6bf34920497","system_id":"levelo_inurba_marseille","lat":43.28469,"lon":5.384178,"is_reserved":false,"is_disabled":false,"rental_uris":{"android":"levelo://app?vid=24213b37-b766-4d9c-a174-f6bf34920497","ios":"levelo://app?vid=24213b37-b766-4d9c-a174-f6bf34920497"},"vehicle_type_id":"4","last_reported":1744888096,"current_range_meters":24000,"station_id":"ce4bh512rcd13ifvqe3g","pricing_plan_id":"cebpf4jnsgd1na2vs0mg"},{"bike_id":"7e9fbd33-cfb6-44a6-96fc-1f60d0c215f7","system_id":"levelo_inurba_marseille","lat":43.32334,"lon":5.36709,"is_reserved":false,"is_disabled":false,"rental_uris":{"android":"levelo://app?vid=7e9fbd33-cfb6-44a6-96fc-1f60d0c215f7","ios":"levelo://app?vid=7e9fbd33-cfb6-44a6-96fc-1f60d0c215f7"},"vehicle_type_id":"4","last_reported":1744888096,"current_range_meters":24000,"station_id":"ce4bhsh2rcd13ifvqi2g","pricing_plan_id":"cebpf4jnsgd1na2vs0mg"},{"bike_id":"d463df27-020c-45c2-827b-47663c8f26f7","system_id":"levelo_inurba_marseille","lat":43.24653,"lon":5.38892,"is_reserved":false,"is_disabled":false,"rental_uris":{"android":"levelo://app?vid=d463df27-020c-45c2-827b-47663c8f26f7","ios":"levelo://app?vid=d463df27-020c-45c2-827b-47663c8f26f7"},"vehicle_type_id":"4","last_reported":1744888096,"current_range_meters":24000,"station_id":"ce4bhg12rcd13ifvqf60","pricing_plan_id":"cebpf4jnsgd1na2vs0mg"},{"bike_id":"07251f7c-e716-4e1e-8274-56f841ecdd84","system_id":"levelo_inurba_marseille","lat":43.2872,"lon":5.37938,"is_reserved":false,"is_disabled":false,"rental_uris":{"android":"levelo://app?vid=07251f7c-e716-4e1e-8274-56f841ecdd84","ios":"levelo://app?vid=07251f7c-e716-4e1e-8274-56f841ecdd84"},"vehicle_type_id":"4","last_reported":1744888096,"current_range_meters":24000,"station_id":"ce4bh9p2rcd13ifvqec0","pricing_plan_id":"cebpf4jnsgd1na2vs0mg"},{"bike_id":"07456d6f-306c-4403-a6be-79421c908067","system_id":"levelo_inurba_marseille","lat":43.296924,"lon":5.366151,"is_reserved":false,"is_disabled":true,"rental_uris":{"android":"levelo://app?vid=07456d6f-306c-4403-a6be-79421c908067","ios":"levelo://app?vid=07456d6f-306c-4403-a6be-79421c908067"},"vehicle_type_id":"4","last_reported":1744888096,"current_range_meters":24000,"station_id":"ce4bgn12rcd13ifvqbt0","pricing_plan_id":"cebpf4jnsgd1na2vs0mg"},{"bike_id":"727179f5-0c3a-45df-baf0-e85db52bfe04","system_id":"levelo_inurba_marseille","lat":43.28852,"lon":5.39314,"is_reserved":false,"is_disabled":false,"rental_uris":{"android":"levelo://app?vid=727179f5-0c3a-45df-baf0-e85db52bfe04","ios":"levelo://app?vid=727179f5-0c3a-45df-baf0-e85db52bfe04"},"vehicle_type_id":"4","last_reported":1744888096,"current_range_meters":24000,"station_id":"ce4bh2p2rcd13ifvqdi0","pricing_plan_id":"cebpf4jnsgd1na2vs0mg"},{"bike_id":"46c30ad0-e07f-4512-863d-dda6913fb85d","system_id":"levelo_inurba_marseille","lat":43.28671,"lon":5.38658,"is_reserved":false,"is_disabled":false,"rental_uris":{"android":"levelo://app?vid=46c30ad0-e07f-4512-863d-dda6913fb85d","ios":"levelo://app?vid=46c30ad0-e07f-4512-863d-dda6913fb85d"},"vehicle_type_id":"4","last_reported":1744888096,"current_range_meters":24400,"station_id":"ce4bh492rcd13ifvqdug","pricing_plan_id":"cebpf4jnsgd1na2vs0mg"},{"bike_id":"4f172882-e66e-4d6c-944a-b9671eae4dda","system_id":"levelo_inurba_marseille","lat":43.24175,"lon":5.39717,"is_reserved":false,"is_disabled":false,"rental_uris":{"android":"levelo://app?vid=4f172882-e66e-4d6c-944a-b9671eae4dda","ios":"levelo://app?vid=4f172882-e66e-4d6c-944a-b9671eae4dda"},"vehicle_type_id":"4","last_reported":1744888096,"current_range_meters":24400,"station_id":"ce4bhn12rcd13ifvqgpg","pricing_plan_id":"cebpf4jnsgd1na2vs0mg"},{"bike_id":"379dee3f-34cd-468c-aca0-cf546e557097","system_id":"levelo_inurba_marseille","lat":43.26566,"lon":5.39007,"is_reserved":false,"is_disabled":false,"rental_uris":{"android":"levelo://app?vid=379dee3f-34cd-468c-aca0-cf546e557097","ios":"levelo://app?vid=379dee3f-34cd-468c-aca0-cf546e557097"},"vehicle_type_id":"4","last_reported":1744888096,"current_range_meters":24400,"station_id":"ce4bhe12rcd13ifvqf30","pricing_plan_id":"cebpf4jnsgd1na2vs0mg"},{"bike_id":"17de6571-3c1c-4621-995b-d445cb9c6f14","system_id":"levelo_inurba_marseille","lat":43.21202,"lon":5.35084,"is_reserved":false,"is_disabled":false,"rental_uris":{"android":"levelo://app?vid=17de6571-3c1c-4621-995b-d445cb9c6f14","ios":"levelo://app?vid=17de6571-3c1c-4621-995b-d445cb9c6f14"},"vehicle_type_id":"4","last_reported":1744888096,"current_range_meters":24400,"station_id":"st_cvj6sg6p6f1abm77japg","pricing_plan_id":"cebpf4jnsgd1na2vs0mg"},{"bike_id":"bee30ca5-9897-4679-86bc-5dd6ad5300b6","system_id":"levelo_inurba_marseille","lat":43.3093,"lon":5.40146,"is_reserved":false,"is_disabled":true,"rental_uris":{"android":"levelo://app?vid=bee30ca5-9897-4679-86bc-5dd6ad5300b6","ios":"levelo://app?vid=bee30ca5-9897-4679-86bc-5dd6ad5300b6"},"vehicle_type_id":"4","last_reported":1744888096,"current_range_meters":24400,"station_id":"ce4bgvp2rcd13ifvqct0","pricing_plan_id":"cebpf4jnsgd1na2vs0mg"},{"bike_id":"3c37d3ec-c1f3-47c3-9356-b25b0d14152b","system_id":"levelo_inurba_marseille","lat":43.28611,"lon":5.37069,"is_reserved":false,"is_disabled":false,"rental_uris":{"android":"levelo://app?vid=3c37d3ec-c1f3-47c3-9356-b25b0d14152b","ios":"levelo://app?vid=3c37d3ec-c1f3-47c3-9356-b25b0d14152b"},"vehicle_type_id":"4","last_reported":1744888096,"current_range_meters":24400,"station_id":"ce4bht12rcd13ifvqi60","pricing_plan_id":"cebpf4jnsgd1na2vs0mg"},{"bike_id":"6f285f9d-ec6c-44c2-b937-ae3848044c05","system_id":"levelo_inurba_marseille","lat":43.29713,"lon":5.37702,"is_reserved":false,"is_disabled":false,"rental_uris":{"android":"levelo://app?vid=6f285f9d-ec6c-44c2-b937-ae3848044c05","ios":"levelo://app?vid=6f285f9d-ec6c-44c2-b937-ae3848044c05"},"vehicle_type_id":"4","last_reported":1744888096,"current_range_meters":24400,"station_id":"ce4bgkh2rcd13ifvqbl0","pricing_plan_id":"cebpf4jnsgd1na2vs0mg"},{"bike_id":"33df844c-3a05-42b8-bb64-6f13c37d36d9","system_id":"levelo_inurba_marseille","lat":43.309567,"lon":5.390342,"is_reserved":false,"is_disabled":false,"rental_uris":{"android":"levelo://app?vid=33df844c-3a05-42b8-bb64-6f13c37d36d9","ios":"levelo://app?vid=33df844c-3a05-42b8-bb64-6f13c37d36d9"},"vehicle_type_id":"4","last_reported":1744888096,"current_range_meters":24400,"station_id":"ce4bgup2rcd13ifvqco0","pricing_plan_id":"cebpf4jnsgd1na2vs0mg"},{"bike_id":"7a597853-937c-4204-b8b9-87d3c6b4e8ef","system_id":"levelo_inurba_marseille","lat":43.24211,"lon":5.36365,"is_reserved":false,"is_disabled":false,"rental_uris":{"android":"levelo://app?vid=7a597853-937c-4204-b8b9-87d3c6b4e8ef","ios":"levelo://app?vid=7a597853-937c-4204-b8b9-87d3c6b4e8ef"},"vehicle_type_id":"4","last_reported":1744888096,"current_range_meters":24400,"station_id":"cpo36qri1sfpv3e86is0","pricing_plan_id":"cebpf4jnsgd1na2vs0mg"},{"bike_id":"33203d26-945b-4a55-92a5-97548cc35c7f","system_id":"levelo_inurba_marseille","lat":43.3015,"lon":5.3808,"is_reserved":false,"is_disabled":false,"rental_uris":{"android":"levelo://app?vid=33203d26-945b-4a55-92a5-97548cc35c7f","ios":"levelo://app?vid=33203d26-945b-4a55-92a5-97548cc35c7f"},"vehicle_type_id":"4","last_reported":1744888096,"current_range_meters":24400,"station_id":"ce4bgjp2rcd13ifvqbh0","pricing_plan_id":"cebpf4jnsgd1na2vs0mg"},{"bike_id":"0ae19b9c-c885-40b5-b292-868c221bc3d0","system_id":"levelo_inurba_marseille","lat":43.30231,"lon":5.37394,"is_reserved":false,"is_disabled":false,"rental_uris":{"android":"levelo://app?vid=0ae19b9c-c885-40b5-b292-868c221bc3d0","ios":"levelo://app?vid=0ae19b9c-c885-40b5-b292-868c221bc3d0"},"vehicle_type_id":"4","last_reported":1744888096,"current_range_meters":24400,"station_id":"","pricing_plan_id":"cebpf4jnsgd1na2vs0mg"},{"bike_id":"ad87f514-c461-4bb4-8533-33722fd9937b","system_id":"levelo_inurba_marseille","lat":43.26687,"lon":5.38275,"is_reserved":false,"is_disabled":false,"rental_uris":{"android":"levelo://app?vid=ad87f514-c461-4bb4-8533-33722fd9937b","ios":"levelo://app?vid=ad87f514-c461-4bb4-8533-33722fd9937b"},"vehicle_type_id":"4","last_reported":1744888096,"current_range_meters":24400,"station_id":"ce4bhg92rcd13ifvqf90","pricing_plan_id":"cebpf4jnsgd1na2vs0mg"},{"bike_id":"a3cb3541-e34e-4e91-96bd-3d2be11ba3ea","system_id":"levelo_inurba_marseille","lat":43.3047,"lon":5.37906,"is_reserved":false,"is_disabled":false,"rental_uris":{"android":"levelo://app?vid=a3cb3541-e34e-4e91-96bd-3d2be11ba3ea","ios":"levelo://app?vid=a3cb3541-e34e-4e91-96bd-3d2be11ba3ea"},"vehicle_type_id":"4","last_reported":1744888096,"current_range_meters":24400,"station_id":"ce4bgup2rcd13ifvqcn0","pricing_plan_id":"cebpf4jnsgd1na2vs0mg"},{"bike_id":"dc0b63f5-cbce-4110-be59-4ef6187b1b2b","system_id":"levelo_inurba_marseille","lat":43.28457,"lon":5.35885,"is_reserved":false,"is_disabled":false,"rental_uris":{"android":"levelo://app?vid=dc0b63f5-cbce-4110-be59-4ef6187b1b2b","ios":"levelo://app?vid=dc0b63f5-cbce-4110-be59-4ef6187b1b2b"},"vehicle_type_id":"4","last_reported":1744888096,"current_range_meters":24400,"station_id":"ce4bhah2rcd13ifvqei0","pricing_plan_id":"cebpf4jnsgd1na2vs0mg"},{"bike_id":"70448cb1-5410-4c8f-884d-eb846f070e83","system_id":"levelo_inurba_marseille","lat":43.28614,"lon":5.35111,"is_reserved":false,"is_disabled":false,"rental_uris":{"android":"levelo://app?vid=70448cb1-5410-4c8f-884d-eb846f070e83","ios":"levelo://app?vid=70448cb1-5410-4c8f-884d-eb846f070e83"},"vehicle_type_id":"4","last_reported":1744888096,"current_range_meters":24800,"station_id":"ce4bhch2rcd13ifvqeug","pricing_plan_id":"cebpf4jnsgd1na2vs0mg"},