{"last_updated":1737558528,"ttl":60,"version":"2.2","data":{"bikes":[{"bike_id":"3c3ccabd-91d5-4e6f-80c3-770c5ae6e2d1","system_id":"levelo_inurba_marseille","lat":43.26564,"lon":5.39012,"is_reserved":false,"is_disabled":false,"rental_uris":{"android":"levelo://app?vid=3c3ccabd-91d5-4e6f-80c3-770c5ae6e2d1","ios":"levelo://app?vid=3c3ccabd-91d5-4e6f-80c3-770c5ae6e2d1"},"vehicle_type_id":"4","last_reported":1737558529,"current_range_meters":8000,"station_id":"ce4bhe12rcd13ifvqf30","pricing_plan_id":"cebpf4jnsgd1na2vs0mg"},{"bike_id":"e913c709-fa3f-4831-936e-37c9b49b8721","system_id":"levelo_inurba_marseille","lat":43.29718,"lon":5.377,"is_reserved":false,"is_disabled":false,"rental_uris":{"android":"levelo://app?vid=e913c709-fa3f-4831-936e-37c9b49b8721","ios":"levelo://app?vid=e913c709-fa3f-4831-936e-37c9b49b8721"},"vehicle_type_id":"4","last_reported":1737558529,"current_range_meters":6400,"station_id":"ce4bgkh2rcd13ifvqbl0","pricing_plan_id":"cebpf4jnsgd1na2vs0mg"},{"bike_id":"095074da-7b9b-4cce-8fbe-a1e27b35ecf1","system_id":"levelo_inurba_marseille","lat":43.23151,"lon":5.43712,"is_reserved":false,"is_disabled":false,"rental_uris":{"android":"levelo://app?vid=095074da-7b9b-4cce-8fbe-a1e27b35ecf1","ios":"levelo://app?vid=095074da-7b9b-4cce-8fbe-a1e27b35ecf1"},"vehicle_type_id":"4","last_reported":1737558529,"current_range_meters":8400,"station_id":"ce4bhmp2rcd13ifvqgog","pricing_plan_id":"cebpf4jnsgd1na2vs0mg"},{"bike_id":"52bd1362-589c-457d-bceb-056d515e97d5","system_id":"levelo_inurba_marseille","lat":43.23141,"lon":5.43707,"is_reserved":false,"is_disabled":false,"rental_uris":{"android":"levelo://app?vid=52bd1362-589c-457d-bceb-056d515e97d5","ios":"levelo://app?vid=52bd1362-589c-457d-bceb-056d515e97d5"},"vehicle_type_id":"4","last_reported":1737558529,"current_range_meters":38400,"station_id":"ce4bhmp2rcd13ifvqgog","pricing_plan_id":"cebpf4jnsgd1na2vs0mg"},{"bike_id":"5b0a91b8-fa98-4cdc-88c1-8bdff24a02ca","system_id":"levelo_inurba_marseille","lat":43.29971,"lon":5.41334,"is_reserved":false,"is_disabled":false,"rental_uris":{"android":"levelo://app?vid=5b0a91b8-fa98-4cdc-88c1-8bdff24a02ca","ios":"levelo://app?vid=5b0a91b8-fa98-4cdc-88c1-8bdff24a02ca"},"vehicle_type_id":"4","last_reported":1737558529,"current_range_meters":38000,"station_id":"ce4bhp12rcd13ifvqh9g","pricing_plan_id":"cebpf4jnsgd1na2vs0mg"},{"bike_id":"a4fa50ac-f498-48af-a472-624159680442","system_id":"levelo_inurba_marseille","lat":43.27373,"lon":5.36262,"is_reserved":false,"is_disabled":false,"rental_uris":{"android":"levelo://app?vid=a4fa50ac-f498-48af-a472-624159680442","ios":"levelo://app?vid=a4fa50ac-f498-48af-a472-624159680442"},"vehicle_type_id":"4","last_reported":1737558529,"current_range_meters":36000,"station_id":"ce4bhbh2rcd13ifvqeo0","pricing_plan_id":"cebpf4jnsgd1na2vs0mg"},{"bike_id":"a833880f-dc42-40f4-9ad6-8c2d069158bc","system_id":"levelo_inurba_marseille","lat":43.29007,"lon":5.35616,"is_reserved":false,"is_disabled":false,"rental_uris":{"android":"levelo://app?vid=a833880f-dc42-40f4-9ad6-8c2d069158bc","ios":"levelo://app?vid=a833880f-dc42-40f4-9ad6-8c2d069158bc"},"vehicle_type_id":"4","last_reported":1737558529,"current_range_meters":9200,"station_id":"ce4bhb92rcd13ifvqen0","pricing_plan_id":"cebpf4jnsgd1na2vs0mg"},{"bike_id":"d87d02d5-063a-4bcc-b088-594ddfa70522","system_id":"levelo_inurba_marseille","lat":43.32111,"lon":5.36766,"is_reserved":false,"is_disabled":false,"rental_uris":{"android":"levelo://app?vid=d87d02d5-063a-4bcc-b088-594ddfa70522","ios":"levelo://app?vid=d87d02d5-063a-4bcc-b088-594ddfa70522"},"vehicle_type_id":"4","last_reported":1737558529,"current_range_meters":34800,"station_id":"ce4bhrh2rcd13ifvqhug","pricing_plan_id":"cebpf4jnsgd1na2vs0mg"},{"bike_id":"ce146d1a-2487-489e-97fe-3925a0581077","system_id":"levelo_inurba_marseille","lat":43.29726,"lon":5.37655,"is_reserved":false,"is_disabled":false,"rental_uris":{"android":"levelo://app?vid=ce146d1a-2487-489e-97fe-3925a0581077","ios":"levelo://app?vid=ce146d1a-2487-489e-97fe-3925a0581077"},"vehicle_type_id":"4","last_reported":1737558529,"current_range_meters":26000,"station_id":"ce4bgkh2rcd13ifvqbl0","pricing_plan_id":"cebpf4jnsgd1na2vs0mg"},{"bike_id":"2a42880a-bfb6-44ad-b75d-98adb0240f3c","system_id":"levelo_inurba_marseille","lat":43.31172,"lon":5.38716,"is_reserved":false,"is_disabled":false,"rental_uris":{"android":"levelo://app?vid=2a42880a-bfb6-44ad-b75d-98adb0240f3c","ios":"levelo://app?vid=2a42880a-bfb6-44ad-b75d-98adb0240f3c"},"vehicle_type_id":"4","last_reported":1737558529,"current_range_meters":38800,"station_id":"ce4bgv12rcd13ifvqcp0","pricing_plan_id":"cebpf4jnsgd1na2vs0mg"},{"bike_id":"a4b635e0-47c5-4ee2-979a-7e6446e0e9cc","system_id":"levelo_inurba_marseille","lat":43.29891,"lon":5.38898,"is_reserved":false,"is_disabled":false,"rental_uris":{"android":"levelo://app?vid=a4b635e0-47c5-4ee2-979a-7e6446e0e9cc","ios":"levelo://app?vid=a4b635e0-47c5-4ee2-979a-7e6446e0e9cc"},"vehicle_type_id":"4","last_reported":1737558529,"current_range_meters":14000,"station_id":"ce4bh392rcd13ifvqdl0","pricing_plan_id":"cebpf4jnsgd1na2vs0mg"},{"bike_id":"162a07f5-4a97-4564-8c99-7711a38952f9","system_id":"levelo_inurba_marseille","lat":43.29888,"lon":5.38907,"is_reserved":false,"is_disabled":false,"rental_uris":{"android":"levelo://app?vid=162a07f5-4a97-4564-8c99-7711a38952f9","ios":"levelo://app?vid=162a07f5-4a97-4564-8c99-7711a38952f9"},"vehicle_type_id":"4","last_reported":1737558529,"current_range_meters":14400,"station_id":"ce4bh392rcd13ifvqdl0","pricing_plan_id":"cebpf4jnsgd1na2vs0mg"},{"bike_id":"bfb62230-2683-4e51-a165-d8eabb8755a4","system_id":"levelo_inurba_marseille","lat":43.27811,"lon":5.40701,"is_reserved":false,"is_disabled":false,"rental_uris":{"android":"levelo://app?vid=bfb62230-2683-4e51-a165-d8eabb8755a4","ios":"levelo://app?vid=bfb62230-2683-4e51-a165-d8eabb8755a4"},"vehicle_type_id":"4","last_reported":1737558529,"current_range_meters":32400,"station_id":"ce4bhnh2rcd13ifvqgtg","pricing_plan_id":"cebpf4jnsgd1na2vs0mg"},{"bike_id":"a1763a7c-1139-4e94-94ba-75f40470248a","system_id":"levelo_inurba_marseille","lat":43.30945,"lon":5.40145,"is_reserved":false,"is_disabled":false,"rental_uris":{"android":"levelo://app?vid=a1763a7c-1139-4e94-94ba-75f40470248a","ios":"levelo://app?vid=a1763a7c-1139-4e94-94ba-75f40470248a"},"vehicle_type_id":"4","last_reported":1737558529,"current_range_meters":38800,"station_id":"ce4bgvp2rcd13ifvqct0","pricing_plan_id":"cebpf4jnsgd1na2vs0mg"},{"bike_id":"0b49530f-ec57-45b5-ac89-77dd7a74aa21","system_id":"levelo_inurba_marseille","lat":43.29613,"lon":5.37725,"is_reserved":false,"is_disabled":false,"rental_uris":{"android":"levelo://app?vid=0b49530f-ec57-45b5-ac89-77dd7a74aa21","ios":"levelo://app?vid=0b49530f-ec57-45b5-ac89-77dd7a74aa21"},"vehicle_type_id":"4","last_reported":1737558529,"current_range_meters":39200,"station_id":"ce4bgi92rcd13ifvqb90","pricing_plan_id":"cebpf4jnsgd1na2vs0mg"},{"bike_id":"6f3fe19d-67fc-4eed-8ff3-e54f50963873","system_id":"levelo_inurba_marseille","lat":43.28942,"lon":5.36637,"is_reserved":false,"is_disabled":false,"rental_uris":{"android":"levelo://app?vid=6f3fe19d-67fc-4eed-8ff3-e54f50963873","ios":"levelo://app?vid=6f3fe19d-67fc-4eed-8ff3-e54f50963873"},"vehicle_type_id":"4","last_reported":1737558529,"current_range_meters":38800,"station_id":"ce4bhap2rcd13ifvqek0","pricing_plan_id":"cebpf4jnsgd1na2vs0mg"},{"bike_id":"c21fd412-751e-41dd-9422-3afd79d888e5","system_id":"levelo_inurba_marseille","lat":43.23516,"lon":5.36044,"is_reserved":false,"is_disabled":false,"rental_uris":{"android":"levelo://app?vid=c21fd412-751e-41dd-9422-3afd79d888e5","ios":"levelo://app?vid=c21fd412-751e-41dd-9422-3afd79d888e5"},"vehicle_type_id":"4","last_reported":1737558529,"current_range_meters":31200,"station_id":"ce4bhih2rcd13ifvqfs0","pricing_plan_id":"cebpf4jnsgd1na2vs0mg"},{"bike_id":"ea3eb9b8-e669-41de-afc9-0f88a8e7ad4d","system_id":"levelo_inurba_marseille","lat":43.3055,"lon":5.3652,"is_reserved":false,"is_disabled":false,"rental_uris":{"android":"levelo://app?vid=ea3eb9b8-e669-41de-afc9-0f88a8e7ad4d","ios":"levelo://app?vid=ea3eb9b8-e669-41de-afc9-0f88a8e7ad4d"},"vehicle_type_id":"4","last_reported":1737558529,"current_range_meters":38800,"station_id":"ce4bgs12rcd13ifvqcag","pricing_plan_id":"cebpf4jnsgd1na2vs0mg"},{"bike_id":"835f2917-8490-4958-ad36-b74d1478c256","system_id":"levelo_inurba_marseille","lat":43.262112,"lon":5.374448,"is_reserved":false,"is_disabled":false,"rental_uris":{"android":"levelo://app?vid=835f2917-8490-4958-ad36-b74d1478c256","ios":"levelo://app?vid=835f2917-8490-4958-ad36-b74d1478c256"},"vehicle_type_id":"4","last_reported":1737558529,"current_range_meters":31200,"station_id":"ce4bhgp2rcd13ifvqfc0","pricing_plan_id":"cebpf4jnsgd1na2vs0mg"},{"bike_id":"2aaf194b-e843-496b-800b-ffbb038c4de7","system_id":"levelo_inurba_marseille","lat":43.3231,"lon":5.38242,"is_reserved":false,"is_disabled":false,"rental_uris":{"android":"levelo://app?vid=2aaf194b-e843-496b-800b-ffbb038c4de7","ios":"levelo://app?vid=2aaf194b-e843-496b-800b-ffbb038c4de7"},"vehicle_type_id":"4","last_reported":1737558529,"current_range_meters":38000,"station_id":"ce4bhr12rcd13ifvqhqg","pricing_plan_id":"cebpf4jnsgd1na2vs0mg"},{"bike_id":"9c071769-a041-4506-8df3-32107bf66832","system_id":"levelo_inurba_marseille","lat":43.23182,"lon":5.39986,"is_reserved":false,"is_disabled":false,"rental_uris":{"android":"levelo://app?vid=9c071769-a041-4506-8df3-32107bf66832","ios":"levelo://app?vid=9c071769-a041-4506-8df3-32107bf66832"},"vehicle_type_id":"4","last_reported":1737558529,"current_range_meters":10000,"station_id":"ce4bhn12rcd13ifvqgqg","pricing_plan_id":"cebpf4jnsgd1na2vs0mg"},{"bike_id":"6661a075-3684-4dee-9c67-ef0b4376c594","system_id":"levelo_inurba_marseille","lat":43.23201,"lon":5.355471,"is_reserved":false,"is_disabled":false,"rental_uris":{"android":"levelo://app?vid=6661a075-3684-4dee-9c67-ef0b4376c594","ios":"levelo://app?vid=6661a075-3684-4dee-9c67-ef0b4376c594"},"vehicle_type_id":"4","last_reported":1737558529,"current_range_meters":39200,"station_id":"ce4bhu92rcd13ifvqi70","pricing_plan_id":"cebpf4jnsgd1na2vs0mg"},{"bike_id":"45a65755-19f6-44db-9603-da623144823f","system_id":"levelo_inurba_marseille","lat":43.31139,"lon":5.37758,"is_reserved":false,"is_disabled":false,"rental_uris":{"android":"levelo://app?vid=45a65755-19f6-44db-9603-da623144823f","ios":"levelo://app?vid=45a65755-19f6-44db-9603-da623144823f"},"vehicle_type_id":"4","last_reported":1737558529,"current_range_meters":16800,"station_id":"ce4bgt92rcd13ifvqcg0","pricing_plan_id":"cebpf4jnsgd1na2vs0mg"},{"bike_id":"03029508-7ed2-4693-b735-f7deaf763344","system_id":"levelo_inurba_marseille","lat":43.255743,"lon":5.382398,"is_reserved":false,"is_disabled":false,"rental_uris":{"android":"levelo://app?vid=03029508-7ed2-4693-b735-f7deaf763344","ios":"levelo://app?vid=03029508-7ed2-4693-b735-f7deaf763344"},"vehicle_type_id":"4","last_reported":1737558529,"current_range_meters":22000,"station_id":"ce4bhih2rcd13ifvqfs0","pricing_plan_id":"cebpf4jnsgd1na2vs0mg"},{"bike_id":"083dbb9f-1243-483f-a814-a94cd543a059","system_id":"levelo_inurba_marseille","lat":43.31357,"lon":5.36646,"is_reserved":false,"is_disabled":false,"rental_uris":{"android":"levelo://app?vid=083dbb9f-1243-483f-a814-a94cd543a059","ios":"levelo://app?vid=083dbb9f-1243-483f-a814-a94cd543a059"},"vehicle_type_id":"4","last_reported":1737558529,"current_range_meters":9600,"station_id":"ce4bgr92rcd13ifvqc6g","pricing_plan_id":"cebpf4jnsgd1na2vs0mg"},{"bike_id":"a13ce008-4e6a-46fc-b7f3-72b997c243f9","system_id":"levelo_inurba_marseille","lat":43.291554,"lon":5.399954,"is_reserved":false,"is_disabled":false,"rental_uris":{"android":"levelo://app?vid=a13ce008-4e6a-46fc-b7f3-72b997c243f9","ios":"levelo://app?vid=a13ce008-4e6a-46fc-b7f3-72b997c243f9"},"vehicle_type_id":"4","last_reported":1737558529,"current_range_meters":20400,"station_id":"ce4bh112rcd13ifvqd90","pricing_plan_id":"cebpf4jnsgd1na2vs0mg"},{"bike_id":"8b2fb933-ccc6-4beb-9e45-9dbbc569353d","system_id":"levelo_inurba_marseille","lat":43.29248,"lon":5.40908,"is_reserved":false,"is_disabled":false,"rental_uris":{"android":"levelo://app?vid=8b2fb933-ccc6-4beb-9e45-9dbbc569353d","ios":"levelo://app?vid=8b2fb933-ccc6-4beb-9e45-9dbbc569353d"},"vehicle_type_id":"4","last_reported":1737558529,"current_range_meters":22800,"station_id":"ce4bh192rcd13ifvqdc0","pricing_plan_id":"cebpf4jnsgd1na2vs0mg"},{"bike_id":"cac15169-486f-43a5-9e95-33c702c4876b","system_id":"levelo_inurba_marseille","lat":43.30797,"lon":5.43528,"is_reserved":false,"is_disabled":false,"rental_uris":{"android":"levelo://app?vid=cac15169-486f-43a5-9e95-33c702c4876b","ios":"levelo://app?vid=cac15169-486f-43a5-9e95-33c702c4876b"},"vehicle_type_id":"4","last_reported":1737558529,"current_range_meters":39200,"station_id":"ce4bhph2rcd13ifvqheg","pricing_plan_id":"cebpf4jnsgd1na2vs0mg"},{"bike_id":"8f39037d-6b70-4ec1-aca4-c32fd0dff772","system_id":"levelo_inurba_marseille","lat":43.31362,"lon":5.36726,"is_reserved":false,"is_disabled":false,"rental_uris":{"android":"levelo://app?vid=8f39037d-6b70-4ec1-aca4-c32fd0dff772","ios":"levelo://app?vid=8f39037d-6b70-4ec1-aca4-c32fd0dff772"},"vehicle_type_id":"4","last_reported":1737558529,"current_range_meters":38800,"station_id":"ce4bgr92rcd13ifvqc6g","pricing_plan_id":"cebpf4jnsgd1na2vs0mg"},{"bike_id":"e3d76a58-1761-4656-923a-c19c9b0f6727","system_id":"levelo_inurba_marseille","lat":43.301464,"lon":5.380824,"is_reserved":false,"is_disabled":false,"rental_uris":{"android":"levelo://app?vid=e3d76a58-1761-4656-923a-c19c9b0f6727","ios":"levelo://app?vid=e3d76a58-1761-4656-923a-c19c9b0f6727"},"vehicle_type_id":"4","last_reported":1737558529,"current_range_meters":30800,"station_id":"ce4bgjp2rcd13ifvqbh0","pricing_plan_id":"cebpf4jnsgd1na2vs0mg"},{"bike_id":"5a874f97-e53a-486b-bf03-022b93e71acd","system_id":"levelo_inurba_marseille","lat":43.255,"lon":5.37652,"is_reserved":false,"is_disabled":false,"rental_uris":{"android":"levelo://app?vid=5a874f97-e53a-486b-bf03-022b93e71acd","ios":"levelo://app?vid=5a874f97-e53a-486b-bf03-022b93e71acd"},"vehicle_type_id":"4","last_reported":1737558529,"current_range_meters":26800,"station_id":"ce4bhh12rcd13ifvqff0","pricing_plan_id":"cebpf4jnsgd1na2vs0mg"},{"bike_id":"7c0ecca9-2d3b-4f03-a520-6be799a0fa00","system_id":"levelo_inurba_marseille","lat":43.30925,"lon":5.4013,"is_reserved":false,"is_disabled":false,"rental_uris":{"android":"levelo://app?vid=7c0ecca9-2d3b-4f03-a520-6be799a0fa00","ios":"levelo://app?vid=7c0ecca9-2d3b-4f03-a520-6be799a0fa00"},"vehicle_type_id":"4","last_reported":1737558529,"current_range_meters":36400,"station_id":"ce4bgvp2rcd13ifvqct0","pricing_plan_id":"cebpf4jnsgd1na2vs0mg"},{"bike_id":"e962f1f0-eb75-424f-bba3-6a3b6ec985ef","system_id":"levelo_inurba_marseille","lat":43.29299,"lon":5.37452,"is_reserved":false,"is_disabled":false,"rental_uris":{"android":"levelo://app?vid=e962f1f0-eb75-424f-bba3-6a3b6ec985ef","ios":"levelo://app?vid=e962f1f0-eb75-424f-bba3-6a3b6ec985ef"},"vehicle_type_id":"4","last_reported":1737558529,"current_range_meters":38000,"station_id":"ce4bgi12rcd13ifvqb70","pricing_plan_id":"cebpf4jnsgd1na2vs0mg"},{"bike_id":"3dfca92b-e70d-4f97-9b14-65a4052b9ea1","system_id":"levelo_inurba_marseille","lat":43.2996,"lon":5.41316,"is_reserved":false,"is_disabled":false,"rental_uris":{"android":"levelo://app?vid=3dfca92b-e70d-4f97-9b14-65a4052b9ea1","ios":"levelo://app?vid=3dfca92b-e70d-4f97-9b14-65a4052b9ea1"},"vehicle_type_id":"4","last_reported":1737558529,"current_range_meters":22800,"station_id":"ce4bhp12rcd13ifvqh9g","pricing_plan_id":"cebpf4jnsgd1na2vs0mg"},{"bike_id":"89e6bc7c-f280-402b-b630-30f66aaa527c","system_id":"levelo_inurba_marseille","lat":43.26937,"lon":5.40262,"is_reserved":false,"is_disabled":false,"rental_uris":{"android":"levelo://app?vid=89e6bc7c-f280-402b-b630-30f66aaa527c","ios":"levelo://app?vid=89e6bc7c-f280-402b-b630-30f66aaa527c"},"vehicle_type_id":"4","last_reported":1737558529,"current_range_meters":38800,"station_id":"cjm6bp8fraef2m0cb0m0","pricing_plan_id":"cebpf4jnsgd1na2vs0mg"},{"bike_id":"025e7424-ca9f-468a-ab53-bc97a654c9ac","system_id":"levelo_inurba_marseille","lat":43.28962,"lon":5.36379,"is_reserved":false,"is_disabled":false,"rental_uris":{"android":"levelo://app?vid=025e7424-ca9f-468a-ab53-bc97a654c9ac","ios":"levelo://app?vid=025e7424-ca9f-468a-ab53-bc97a654c9ac"},"vehicle_type_id":"4","last_reported":1737558529,"current_range_meters":38800,"station_id":"ce4bhc92rcd13ifvqetg","pricing_plan_id":"cebpf4jnsgd1na2vs0mg"},{"bike_id":"e29d5d6a-774f-4b30-92fa-7b0f5591c3c5","system_id":"levelo_inurba_marseille","lat":43.31702,"lon":5.43703,"is_reserved":false,"is_disabled":false,"rental_uris":{"android":"levelo://app?vid=e29d5d6a-774f-4b30-92fa-7b0f5591c3c5","ios":"levelo://app?vid=e29d5d6a-774f-4b30-92fa-7b0f5591c3c5"},"vehicle_type_id":"4","last_reported":1737558529,"current_range_meters":24400,"station_id":"ce4bhp92rcd13ifvqhcg","pricing_plan_id":"cebpf4jnsgd1na2vs0mg"},{"bike_id":"fb07722b-6c4a-4667-a97b-6fa04f98ca7a","system_id":"levelo_inurba_marseille","lat":43.29847,"lon":5.36268,"is_reserved":false,"is_disabled":false,"rental_uris":{"android":"levelo://app?vid=fb07722b-6c4a-4667-a97b-6fa04f98ca7a","ios":"levelo://app?vid=fb07722b-6c4a-4667-a97b-6fa04f98ca7a"},"vehicle_type_id":"4","last_reported":1737558529,"current_range_meters":38800,"station_id":"ce4bgpp2rcd13ifvqc3g","pricing_plan_id":"cebpf4jnsgd1na2vs0mg"},{"bike_id":"1202fdc5-d932-4ad6-9a2c-ba692f19604f","system_id":"levelo_inurba_marseille","lat":43.29555,"lon":5.42293,"is_reserved":false,"is_disabled":false,"rental_uris":{"android":"levelo://app?vid=1202fdc5-d932-4ad6-9a2c-ba692f19604f","ios":"levelo://app?vid=1202fdc5-d932-4ad6-9a2c-ba692f19604f"},"vehicle_type_id":"4","last_reported":1737558529,"current_range_meters":20400,"station_id":"ce4bhph2rcd13ifvqhdg","pricing_plan_id":"cebpf4jnsgd1na2vs0mg"},{"bike_id":"1c5350bc-b85e-4a3a-a39b-e473b0f89be6","system_id":"levelo_inurba_marseille","lat":43.31756,"lon":5.39012,"is_reserved":false,"is_disabled":false,"rental_uris":{"android":"levelo://app?vid=1c5350bc-b85e-4a3a-a39b-e473b0f89be6","ios":"levelo://app?vid=1c5350bc-b85e-4a3a-a39b-e473b0f89be6"},"vehicle_type_id":"4","last_reported":1737558529,"current_range_meters":22800,"station_id":"ce4bhqp2rcd13ifvqhng","pricing_plan_id":"cebpf4jnsgd1na2vs0mg"},{"bike_id":"6790f6bd-e635-4182-b7c4-eb1c4b85147b","system_id":"levelo_inurba_marseille","lat":43.32051,"lon":5.4154,"is_reserved":false,"is_disabled":false,"rental_uris":{"android":"levelo://app?vid=6790f6bd-e635-4182-b7c4-eb1c4b85147b","ios":"levelo://app?vid=6790f6bd-e635-4182-b7c4-eb1c4b85147b"},"vehicle_type_id":"4","last_reported":1737558529,"current_range_meters":37600,"station_id":"ce4bhq92rcd13ifvqhkg","pricing_plan_id":"cebpf4jnsgd1na2vs0mg"},{"bike_id":"67cd0fb0-d75d-4de9-9761-e14d9676ec4c","system_id":"levelo_inurba_marseille","lat":43.29271,"lon":5.36854,"is_reserved":false,"is_disabled":false,"rental_uris":{"android":"levelo://app?vid=67cd0fb0-d75d-4de9-9761-e14d9676ec4c","ios":"levelo://app?vid=67cd0fb0-d75d-4de9-9761-e14d9676ec4c"},"vehicle_type_id":"4","last_reported":1737558529,"current_range_meters":21600,"station_id":"ce4bhbp2rcd13ifvqesg","pricing_plan_id":"cebpf4jnsgd1na2vs0mg"},{"bike_id":"42ffd8be-59bd-4e3d-829a-b035d16c04f3","system_id":"levelo_inurba_marseille","lat":43.28421,"lon":5.37532,"is_reserved":false,"is_disabled":false,"rental_uris":{"android":"levelo://app?vid=42ffd8be-59bd-4e3d-829a-b035d16c04f3","ios":"levelo://app?vid=42ffd8be-59bd-4e3d-829a-b035d16c04f3"},"vehicle_type_id":"4","last_reported":1737558529,"current_range_meters":21600,"station_id":"ce4bh412rcd13ifvqds0","pricing_plan_id":"cebpf4jnsgd1na2vs0mg"},{"bike_id":"f4064b91-d50f-4faa-b80a-c4b38df2d08b","system_id":"levelo_inurba_marseille","lat":43.22939,"lon":5.3537,"is_reserved":false,"is_disabled":false,"rental_uris":{"android":"levelo://app?vid=f4064b91-d50f-4faa-b80a-c4b38df2d08b","ios":"levelo://app?vid=f4064b91-d50f-4faa-b80a-c4b38df2d08b"},"vehicle_type_id":"4","last_reported":1737558529,"current_range_meters":38800,"station_id":"cpo3532slgdg3j2ikp40","pricing_plan_id":"cebpf4jnsgd1na2vs0mg"},{"bike_id":"1c5c6c97-e589-4b16-a350-502643230369","system_id":"levelo_inurba_marseille","lat":43.23154,"lon":5.43704,"is_reserved":false,"is_disabled":false,"rental_uris":{"android":"levelo://app?vid=1c5c6c97-e589-4b16-a350-502643230369","ios":"levelo://app?vid=1c5c6c97-e589-4b16-a350-502643230369"},"vehicle_type_id":"4","last_reported":1737558529,"current_range_meters":36800,"station_id":"ce4bhmp2rcd13ifvqgog","pricing_plan_id":"cebpf4jnsgd1na2vs0mg"},{"bike_id":"c608a355-799a-42b0-8df8-e6a61a956853","system_id":"levelo_inurba_marseille","lat":43.31721,"lon":5.42431,"is_reserved":false,"is_disabled":false,"rental_uris":{"android":"levelo://app?vid=c608a355-799a-42b0-8df8-e6a61a956853","ios":"levelo://app?vid=c608a355-799a-42b0-8df8-e6a61a956853"},"vehicle_type_id":"4","last_reported":1737558529,"current_range_meters":38800,"station_id":"ce4bhp92rcd13ifvqhbg","pricing_plan_id":"cebpf4jnsgd1na2vs0mg"},{"bike_id":"5e75dd30-ab3b-44d3-8dcb-cb5fd4a0eb65","system_id":"levelo_inurba_marseille","lat":43.24655,"lon":5.38892,"is_reserved":false,"is_disabled":true,"rental_uris":{"android":"levelo://app?vid=5e75dd30-ab3b-44d3-8dcb-cb5fd4a0eb65","ios":"levelo://app?vid=5e75dd30-ab3b-44d3-8dcb-cb5fd4a0eb65"},"vehicle_type_id":"4","last_reported":1737558529,"current_range_meters":400,"station_id":"ce4bhg12rcd13ifvqf60","pricing_plan_id":"cebpf4jnsgd1na2vs0mg"},{"bike_id":"e1b89984-b5cc-4df5-889d-b87c33e3719c","system_id":"levelo_inurba_marseille","lat":43.29033,"lon":5.37561,"is_reserved":false,"is_disabled":false,"rental_uris":{"android":"levelo://app?vid=e1b89984-b5cc-4df5-889d-b87c33e3719c","ios":"levelo://app?vid=e1b89984-b5cc-4df5-889d-b87c33e3719c"},"vehicle_type_id":"4","last_reported":1737558529,"current_range_meters":38800,"station_id":"ce4bh692rcd13ifvqe90","pricing_plan_id":"cebpf4jnsgd1na2vs0mg"},{"bike_id":"cfe2c71c-b661-4fd9-8212-8ec4657df34d","system_id":"levelo_inurba_marseille","lat":43.26208,"lon":5.37442,"is_reserved":false,"is_disabled":false,"rental_uris":{"android":"levelo://app?vid=cfe2c71c-b661-4fd9-8212-8ec4657df34d","ios":"levelo://app?vid=cfe2c71c-b661-4fd9-8212-8ec4657df34d"},"vehicle_type_id":"4","last_reported":1737558529,"current_range_meters":24800,"station_id":"ce4bhgp2rcd13ifvqfc0","pricing_plan_id":"cebpf4jnsgd1na2vs0mg"},{"bike_id":"4b766d21-35a9-4e2d-8535-3688332a270a","system_id":"levelo_inurba_marseille","lat":43.31085,"lon":5.42429,"is_reserved":false,"is_disabled":false,"rental_uris":{"android":"levelo://app?vid=4b766d21-35a9-4e2d-8535-3688332a270a","ios":"levelo://app?vid=4b766d21-35a9-4e2d-8535-3688332a270a"},"vehicle_type_id":"4","last_reported":1737558529,"current_range_meters":5600,"station_id":"ce4bhp92rcd13ifvqhag","pricing_plan_id":"cebpf4jnsgd1na2vs0mg"},{"bike_id":"ca231ad9-da2a-4434-a1d6-2ea5a619c307","system_id":"levelo_inurba_marseille","lat":43.2922,"lon":5.36031,"is_reserved":false,"is_disabled":false,"rental_uris":{"android":"levelo://app?vid=ca231ad9-da2a-4434-a1d6-2ea5a619c307","ios":"levelo://app?vid=ca231ad9-da2a-4434-a1d6-2ea5a619c307"},"vehicle_type_id":"4","last_reported":1737558529,"current_range_meters":28400,"station_id":"ce4bhbh2rcd13ifvqeqg","pricing_plan_id":"cebpf4jnsgd1na2vs0mg"},{"bike_id":"1365a734-02b9-46ba-b213-858bbb87496f","system_id":"levelo_inurba_marseille","lat":43.29523,"lon":5.37485,"is_reserved":false,"is_disabled":false,"rental_uris":{"android":"levelo://app?vid=1365a734-02b9-46ba-b213-858bbb87496f","ios":"levelo://app?vid=1365a734-02b9-46ba-b213-858bbb87496f"},"vehicle_type_id":"4","last_reported":1737558529,"current_range_meters":36800,"station_id":"ce4bgkp2rcd13ifvqbmg","pricing_plan_id":"cebpf4jnsgd1na2vs0mg"},{"bike_id":"a3758849-7346-4d83-b225-a78a3be78167","system_id":"levelo_inurba_marseille","lat":43.30592,"lon":5.372,"is_reserved":false,"is_disabled":false,"rental_uris":{"android":"levelo://app?vid=a3758849-7346-4d83-b225-a78a3be78167","ios":"levelo://app?vid=a3758849-7346-4d83-b225-a78a3be78167"},"vehicle_type_id":"4","last_reported":1737558529,"current_range_meters":26000,"station_id":"ce4bgqh2rcd13ifvqc4g","pricing_plan_id":"cebpf4jnsgd1na2vs0mg"},{"bike_id":"8a725843-205b-4bfa-b181-c5d4ae148cad","system_id":"levelo_inurba_marseille","lat":43.267,"lon":5.38297,"is_reserved":false,"is_disabled":false,"rental_uris":{"android":"levelo://app?vid=8a725843-205b-4bfa-b181-c5d4ae148cad","ios":"levelo://app?vid=8a725843-205b-4bfa-b181-c5d4ae148cad"},"vehicle_type_id":"4","last_reported":1737558529,"current_range_meters":38800,"station_id":"ce4bhg92rcd13ifvqf90","pricing_plan_id":"cebpf4jnsgd1na2vs0mg"},{"bike_id":"11864e56-3c6c-40e6-a2f3-a21fa722ad48","system_id":"levelo_inurba_marseille","lat":43.30552,"lon":5.36532,"is_reserved":false,"is_disabled":false,"rental_uris":{"android":"levelo://app?vid=11864e56-3c6c-40e6-a2f3-a21fa722ad48","ios":"levelo://app?vid=11864e56-3c6c-40e6-a2f3-a21fa722ad48"},"vehicle_type_id":"4","last_reported":1737558529,"current_range_meters":38400,"station_id":"ce4bgs12rcd13ifvqcag","pricing_plan_id":"cebpf4jnsgd1na2vs0mg"},{"bike_id":"7759c3a1-6d85-4733-b848-6bf3d51cd7f7","system_id":"levelo_inurba_marseille","lat":43.29369,"lon":5.37825,"is_reserved":false,"is_disabled":false,"rental_uris":{"android":"levelo://app?vid=7759c3a1-6d85-4733-b848-6bf3d51cd7f7","ios":"levelo://app?vid=7759c3a1-6d85-4733-b848-6bf3d51cd7f7"},"vehicle_type_id":"4","last_reported":1737558529,"current_range_meters":27200,"station_id":"ce4bgjh2rcd13ifvqbf0","pricing_plan_id":"cebpf4jnsgd1na2vs0mg"},{"bike_id":"f3735232-5d15-4e84-82f3-d2ea82b3c299","system_id":"levelo_inurba_marseille","lat":43.32355,"lon":5.36755,"is_reserved":false,"is_disabled":false,"rental_uris":{"android":"levelo://app?vid=f3735232-5d15-4e84-82f3-d2ea82b3c299","ios":"levelo://app?vid=f3735232-5d15-4e84-82f3-d2ea82b3c299"},"vehicle_type_id":"4","last_reported":1737558529,"current_range_meters":28000,"station_id":"ce4bhsh2rcd13ifvqi2g","pricing_plan_id":"cebpf4jnsgd1na2vs0mg"},{"bike_id":"61485cbb-b3f0-46e5-86b7-380910716314","system_id":"levelo_inurba_marseille","lat":43.28109,"lon":5.37829,"is_reserved":false,"is_disabled":false,"rental_uris":{"android":"levelo://app?vid=61485cbb-b3f0-46e5-86b7-380910716314","ios":"levelo://app?vid=61485cbb-b3f0-46e5-86b7-380910716314"},"vehicle_type_id":"4","last_reported":1737558529,"current_range_meters":39200,"station_id":"ce4bha12rcd13ifvqee0","pricing_plan_id":"cebpf4jnsgd1na2vs0mg"},{"bike_id":"9d094da5-5fa4-4358-a503-db0f0481f1cc","system_id":"levelo_inurba_marseille","lat":43.29079,"lon":5.35913,"is_reserved":false,"is_disabled":false,"rental_uris":{"android":"levelo://app?vid=9d094da5-5fa4-4358-a503-db0f0481f1cc","ios":"levelo://app?vid=9d094da5-5fa4-4358-a503-db0f0481f1cc"},"vehicle_type_id":"4","last_reported":1737558529,"current_range_meters":38800,"station_id":"ce4bha92rcd13ifvqeg0","pricing_plan_id":"cebpf4jnsgd1na2vs0mg"},{"bike_id":"88cee832-bfb0-4a5f-aff7-54ecdf930906","system_id":"levelo_inurba_marseille","lat":43.28939,"lon":5.36631,"is_reserved":false,"is_disabled":false,"rental_uris":{"android":"levelo://app?vid=88cee832-bfb0-4a5f-aff7-54ecdf930906","ios":"levelo://app?vid=88cee832-bfb0-4a5f-aff7-54ecdf930906"},"vehicle_type_id":"4","last_reported":1737558529,"current_range_meters":4400,"station_id":"ce4bhap2rcd13ifvqek0","pricing_plan_id":"cebpf4jnsgd1na2vs0mg"},{"bike_id":"07656937-ab32-4288-8757-0c43aa56903f","system_id":"levelo_inurba_marseille","lat":43.28456,"lon":5.35888,"is_reserved":false,"is_disabled":false,"rental_uris":{"android":"levelo://app?vid=07656937-ab32-4288-8757-0c43aa56903f","ios":"levelo://app?vid=07656937-ab32-4288-8757-0c43aa56903f"},"vehicle_type_id":"4","last_reported":1737558529,"current_range_meters":38800,"station_id":"ce4bhah2rcd13ifvqei0","pricing_plan_id":"cebpf4jnsgd1na2vs0mg"},{"bike_id":"b1ab1bd4-5cab-4639-9df6-ada6bfcc5075","system_id":"levelo_inurba_marseille","lat":43.30927,"lon":5.40153,"is_reserved":false,"is_disabled":false,"rental_uris":{"android":"levelo://app?vid=b1ab1bd4-5cab-4639-9df6-ada6bfcc5075","ios":"levelo://app?vid=b1ab1bd4-5cab-4639-9df6-ada6bfcc5075"},"vehicle_type_id":"4","last_reported":1737558529,"current_range_meters":26000,"station_id":"ce4bgvp2rcd13ifvqct0","pricing_plan_id":"cebpf4jnsgd1na2vs0mg"},{"bike_id":"fc7d0896-a0d9-4784-82a6-858cbf9807fe","system_id":"levelo_inurba_marseille","lat":43.307806,"lon":5.376546,"is_reserved":false,"is_disabled":false,"rental_uris":{"android":"levelo://app?vid=fc7d0896-a0d9-4784-82a6-858cbf9807fe","ios":"levelo://app?vid=fc7d0896-a0d9-4784-82a6-858cbf9807fe"},"vehicle_type_id":"4","last_reported":1737558529,"current_range_meters":27600,"station_id":"ce4bgv92rcd13ifvqcq0","pricing_plan_id":"cebpf4jnsgd1na2vs0mg"},{"bike_id":"be3d6874-6317-4fcf-9dea-1ddea32f7375","system_id":"levelo_inurba_marseille","lat":43.24663,"lon":5.38164,"is_reserved":false,"is_disabled":false,"rental_uris":{"android":"levelo://app?vid=be3d6874-6317-4fcf-9dea-1ddea32f7375","ios":"levelo://app?vid=be3d6874-6317-4fcf-9dea-1ddea32f7375"},"vehicle_type_id":"4","last_reported":1737558529,"current_range_meters":38800,"station_id":"ce4bhih2rcd13ifvqfr0","pricing_plan_id":"cebpf4jnsgd1na2vs0mg"},{"bike_id":"7e034d53-14af-4f50-9dca-08e722d3e1df","system_id":"levelo_inurba_marseille","lat":43.313473,"lon":5.367245,"is_reserved":false,"is_disabled":false,"rental_uris":{"android":"levelo://app?vid=7e034d53-14af-4f50-9dca-08e722d3e1df","ios":"levelo://app?vid=7e034d53-14af-4f50-9dca-08e722d3e1df"},"vehicle_type_id":"4","last_reported":1737558529,"current_range_meters":32000,"station_id":"ce4bgr92rcd13ifvqc6g","pricing_plan_id":"cebpf4jnsgd1na2vs0mg"},{"bike_id":"110f4d36-27c9-49b8-86bf-d85558408b80","system_id":"levelo_inurba_marseille","lat":43.3232,"lon":5.38902,"is_reserved":false,"is_disabled":false,"rental_uris":{"android":"levelo://app?vid=110f4d36-27c9-49b8-86bf-d85558408b80","ios":"levelo://app?vid=110f4d36-27c9-49b8-86bf-d85558408b80"},"vehicle_type_id":"4","last_reported":1737558529,"current_range_meters":24000,"station_id":"","pricing_plan_id":"cebpf4jnsgd1na2vs0mg"},{"bike_id":"e2151eb3-314b-404c-b259-cf12a3a3e0c6","system_id":"levelo_inurba_marseille","lat":43.31599,"lon":5.40226,"is_reserved":false,"is_disabled":false,"rental_uris":{"android":"levelo://app?vid=e2151eb3-314b-404c-b259-cf12a3a3e0c6","ios":"levelo://app?vid=e2151eb3-314b-404c-b259-cf12a3a3e0c6"},"vehicle_type_id":"4","last_reported":1737558529,"current_range_meters":25600,"station_id":"","pricing_plan_id":"cebpf4jnsgd1na2vs0mg"},{"bike_id":"cd94cc44-1306-4635-a7a5-07ce336e6bed","system_id":"levelo_inurba_marseille","lat":43.30925,"lon":5.40137,"is_reserved":false,"is_disabled":false,"rental_uris":{"android":"levelo://app?vid=cd94cc44-1306-4635-a7a5-07ce336e6bed","ios":"levelo://app?vid=cd94cc44-1306-4635-a7a5-07ce336e6bed"},"vehicle_type_id":"4","last_reported":1737558529,"current_range_meters":17200,"station_id":"ce4bgvp2rcd13ifvqct0","pricing_plan_id":"cebpf4jnsgd1na2vs0mg"},{"bike_id":"3bcd921d-810c-4845-87ab-d96c2ac5451e","system_id":"levelo_inurba_marseille","lat":43.27823,"lon":5.40704,"is_reserved":false,"is_disabled":false,"rental_uris":{"android":"levelo://app?vid=3bcd921d-810c-4845-87ab-d96c2ac5451e","ios":"levelo://app?vid=3bcd921d-810c-4845-87ab-d96c2ac5451e"},"vehicle_type_id":"4","last_reported":1737558529,"current_range_meters":12400,"station_id":"ce4bhnh2rcd13ifvqgtg","pricing_plan_id":"cebpf4jnsgd1na2vs0mg"},{"bike_id":"5c2a3127-f5f0-4b22-8737-4d44ebacc5f2","system_id":"levelo_inurba_marseille","lat":43.29624,"lon":5.37716,"is_reserved":false,"is_disabled":false,"rental_uris":{"android":"levelo://app?vid=5c2a3127-f5f0-4b22-8737-4d44ebacc5f2","ios":"levelo://app?vid=5c2a3127-f5f0-4b22-8737-4d44ebacc5f2"},"vehicle_type_id":"4","last_reported":1737558529,"current_range_meters":32000,"station_id":"ce4bgi92rcd13ifvqb90","pricing_plan_id":"cebpf4jnsgd1na2vs0mg"},{"bike_id":"c01ff322-934e-4fed-b8ab-096213fbdb3c","system_id":"levelo_inurba_marseille","lat":43.319961,"lon":5.381484,"is_reserved":false,"is_disabled":false,"rental_uris":{"android":"levelo://app?vid=c01ff322-934e-4fed-b8ab-096213fbdb3c","ios":"levelo://app?vid=c01ff322-934e-4fed-b8ab-096213fbdb3c"},"vehicle_type_id":"4","last_reported":1737558529,"current_range_meters":38800,"station_id":"ce4bhr12rcd13ifvqhpg","pricing_plan_id":"cebpf4jnsgd1na2vs0mg"},{"bike_id":"f1304b13-b59e-4eea-8d37-62bcf1793dfe","system_id":"levelo_inurba_marseille","lat":43.2679,"lon":5.39408,"is_reserved":false,"is_disabled":false,"rental_uris":{"android":"levelo://app?vid=f1304b13-b59e-4eea-8d37-62bcf1793dfe","ios":"levelo://app?vid=f1304b13-b59e-4eea-8d37-62bcf1793dfe"},"vehicle_type_id":"4","last_reported":1737558529,"current_range_meters":38400,"station_id":"ce4bhh12rcd13ifvqfg0","pricing_plan_id":"cebpf4jnsgd1na2vs0mg"},{"bike_id":"7609dbc7-d6aa-43d5-a20d-4d01e14a33dc","system_id":"levelo_inurba_marseille","lat":43.29972,"lon":5.38491,"is_reserved":false,"is_disabled":false,"rental_uris":{"android":"levelo://app?vid=7609dbc7-d6aa-43d5-a20d-4d01e14a33dc","ios":"levelo://app?vid=7609dbc7-d6aa-43d5-a20d-4d01e14a33dc"},"vehicle_type_id":"4","last_reported":1737558529,"current_range_meters":22000,"station_id":"ce4bgj92rcd13ifvqbd0","pricing_plan_id":"cebpf4jnsgd1na2vs0mg"},{"bike_id":"d4630071-5f36-4339-b427-5e1074fcca05","system_id":"levelo_inurba_marseille","lat":43.29579,"lon":5.37501,"is_reserved":false,"is_disabled":true,"rental_uris":{"android":"levelo://app?vid=d4630071-5f36-4339-b427-5e1074fcca05","ios":"levelo://app?vid=d4630071-5f36-4339-b427-5e1074fcca05"},"vehicle_type_id":"4","last_reported":1737558529,"current_range_meters":0,"station_id":"ce4bgh92rcd13ifvqb50","pricing_plan_id":"cebpf4jnsgd1na2vs0mg"},{"bike_id":"8cf72ef7-e99d-4251-a909-d1924caef0b7","system_id":"levelo_inurba_marseille","lat":43.29582,"lon":5.36741,"is_reserved":false,"is_disabled":false,"rental_uris":{"android":"levelo://app?vid=8cf72ef7-e99d-4251-a909-d1924caef0b7","ios":"levelo://app?vid=8cf72ef7-e99d-4251-a909-d1924caef0b7"},"vehicle_type_id":"4","last_reported":1737558529,"current_range_meters":38400,"station_id":"ce4bgph2rcd13ifvqc2g","pricing_plan_id":"cebpf4jnsgd1na2vs0mg"},{"bike_id":"6440f376-b0ac-4979-8b74-813c76d7599b","system_id":"levelo_inurba_marseille","lat":43.24163,"lon":5.39726,"is_reserved":false,"is_disabled":false,"rental_uris":{"android":"levelo://app?vid=6440f376-b0ac-4979-8b74-813c76d7599b","ios":"levelo://app?vid=6440f376-b0ac-4979-8b74-813c76d7599b"},"vehicle_type_id":"4","last_reported":1737558529,"current_range_meters":28400,"station_id":"ce4bhn12rcd13ifvqgpg","pricing_plan_id":"cebpf4jnsgd1na2vs0mg"},{"bike_id":"e10e69ad-231d-434b-b8e2-373669bddd29","system_id":"levelo_inurba_marseille","lat":43.28992,"lon":5.35588,"is_reserved":false,"is_disabled":false,"rental_uris":{"android":"levelo://app?vid=e10e69ad-231d-434b-b8e2-373669bddd29","ios":"levelo://app?vid=e10e69ad-231d-434b-b8e2-373669bddd29"},"vehicle_type_id":"4","last_reported":1737558529,"current_range_meters":17600,"station_id":"ce4bhb92rcd13ifvqen0","pricing_plan_id":"cebpf4jnsgd1na2vs0mg"},{"bike_id":"e7d74c75-f72e-4d03-9231-1982d9440a73","system_id":"levelo_inurba_marseille","lat":43.25497,"lon":5.37653,"is_reserved":false,"is_disabled":false,"rental_uris":{"android":"levelo://app?vid=e7d74c75-f72e-4d03-9231-1982d9440a73","ios":"levelo://app?vid=e7d74c75-f72e-4d03-9231-1982d9440a73"},"vehicle_type_id":"4","last_reported":1737558529,"current_range_meters":25200,"station_id":"ce4bhh12rcd13ifvqff0","pricing_plan_id":"cebpf4jnsgd1na2vs0mg"},{"bike_id":"06ef8b3b-76b6-417a-b738-faed7ce730fc","system_id":"levelo_inurba_marseille","lat":43.30327,"lon":5.36912,"is_reserved":false,"is_disabled":false,"rental_uris":{"android":"levelo://app?vid=06ef8b3b-76b6-417a-b738-faed7ce730fc","ios":"levelo://app?vid=06ef8b3b-76b6-417a-b738-faed7ce730fc"},"vehicle_type_id":"4","last_reported":1737558529,"current_range_meters":32000,"station_id":"ce4bgqh2rcd13ifvqc5g","pricing_plan_id":"cebpf4jnsgd1na2vs0mg"},{"bike_id":"8d687d01-0086-487a-a814-0afe95bbf5e0","system_id":"levelo_inurba_marseille","lat":43.2846,"lon":5.3589,"is_reserved":false,"is_disabled":false,"rental_uris":{"android":"levelo://app?vid=8d687d01-0086-487a-a814-0afe95bbf5e0","ios":"levelo://app?vid=8d687d01-0086-487a-a814-0afe95bbf5e0"},"vehicle_type_id":"4","last_reported":1737558529,"current_range_meters":28000,"station_id":"ce4bhah2rcd13ifvqei0","pricing_plan_id":"cebpf4jnsgd1na2vs0mg"},{"bike_id":"a1505b25-9bcc-4f0c-b98d-799653927cbc","system_id":"levelo_inurba_marseille","lat":43.28939,"lon":5.36639,"is_reserved":false,"is_disabled":false,"rental_uris":{"android":"levelo://app?vid=a1505b25-9bcc-4f0c-b98d-799653927cbc","ios":"levelo://app?vid=a1505b25-9bcc-4f0c-b98d-799653927cbc"},"vehicle_type_id":"4","last_reported":1737558529,"current_range_meters":20800,"station_id":"ce4bhap2rcd13ifvqek0","pricing_plan_id":"cebpf4jnsgd1na2vs0mg"},{"bike_id":"0cd05b59-24ef-4644-a8d9-7f4268641e56","system_id":"levelo_inurba_marseille","lat":43.27943,"lon":5.41047,"is_reserved":false,"is_disabled":false,"rental_uris":{"android":"levelo://app?vid=0cd05b59-24ef-4644-a8d9-7f4268641e56","ios":"levelo://app?vid=0cd05b59-24ef-4644-a8d9-7f4268641e56"},"vehicle_type_id":"4","last_reported":1737558529,"current_range_meters":17200,"station_id":"ce4bhnp2rcd13ifvqh0g","pricing_plan_id":"cebpf4jnsgd1na2vs0mg"},{"bike_id":"19736d4d-26c1-4d09-a409-61d53f5cd6d4","system_id":"levelo_inurba_marseille","lat":43.30467,"lon":5.37892,"is_reserved":false,"is_disabled":false,"rental_uris":{"android":"levelo://app?vid=19736d4d-26c1-4d09-a409-61d53f5cd6d4","ios":"levelo://app?vid=19736d4d-26c1-4d09-a409-61d53f5cd6d4"},"vehicle_type_id":"4","last_reported":1737558529,"current_range_meters":31200,"station_id":"ce4bgup2rcd13ifvqcn0","pricing_plan_id":"cebpf4jnsgd1na2vs0mg"},{"bike_id":"8ed55bc1-aa6f-4c6a-854b-088645f6fbe6","system_id":"levelo_inurba_marseille","lat":43.31113,"lon":5.37765,"is_reserved":false,"is_disabled":false,"rental_uris":{"android":"levelo://app?vid=8ed55bc1-aa6f-4c6a-854b-088645f6fbe6","ios":"levelo://app?vid=8ed55bc1-aa6f-4c6a-854b-088645f6fbe6"},"vehicle_type_id":"4","last_reported":1737558529,"current_range_meters":38800,"station_id":"ce4bgt92rcd13ifvqcg0","pricing_plan_id":"cebpf4jnsgd1na2vs0mg"},{"bike_id":"2a6a4225-a768-49ff-b39c-88b81eb205c0","system_id":"levelo_inurba_marseille","lat":43.27054,"lon":5.40259,"is_reserved":false,"is_disabled":true,"rental_uris":{"android":"levelo://app?vid=2a6a4225-a768-49ff-b39c-88b81eb205c0","ios":"levelo://app?vid=2a6a4225-a768-49ff-b39c-88b81eb205c0"},"vehicle_type_id":"4","last_reported":1737558529,"current_range_meters":1200,"station_id":"ce4bhk92rcd13ifvqgc0","pricing_plan_id":"cebpf4jnsgd1na2vs0mg"},{"bike_id":"2965a976-302f-43d1-97a6-16afd2455155","system_id":"levelo_inurba_marseille","lat":43.27366,"lon":5.36255,"is_reserved":false,"is_disabled":false,"rental_uris":{"android":"levelo://app?vid=2965a976-302f-43d1-97a6-16afd2455155","ios":"levelo://app?vid=2965a976-302f-43d1-97a6-16afd2455155"},"vehicle_type_id":"4","last_reported":1737558529,"current_range_meters":25600,"station_id":"ce4bhbh2rcd13ifvqeo0","pricing_plan_id":"cebpf4jnsgd1na2vs0mg"},{"bike_id":"53792794-8cf4-45fd-bbea-1c58be27c71e","system_id":"levelo_inurba_marseille","lat":43.28852,"lon":5.35852,"is_reserved":false,"is_disabled":false,"rental_uris":{"android":"levelo://app?vid=53792794-8cf4-45fd-bbea-1c58be27c71e","ios":"levelo://app?vid=53792794-8cf4-45fd-bbea-1c58be27c71e"},"vehicle_type_id":"4","last_reported":1737558529,"current_range_meters":27200,"station_id":"ce4bhb12rcd13ifvqem0","pricing_plan_id":"cebpf4jnsgd1na2vs0mg"},{"bike_id":"8ab0346c-8001-4067-8852-009244e2b53d","system_id":"levelo_inurba_marseille","lat":43.31087,"lon":5.42434,"is_reserved":false,"is_disabled":false,"rental_uris":{"android":"levelo://app?vid=8ab0346c-8001-4067-8852-009244e2b53d","ios":"levelo://app?vid=8ab0346c-8001-4067-8852-009244e2b53d"},"vehicle_type_id":"4","last_reported":1737558529,"current_range_meters":38800,"station_id":"ce4bhp92rcd13ifvqhag","pricing_plan_id":"cebpf4jnsgd1na2vs0mg"},{"bike_id":"4d861a27-31f4-48ed-b309-cbe0b7ba3a6e","system_id":"levelo_inurba_marseille","lat":43.29627,"lon":5.37712,"is_reserved":false,"is_disabled":false,"rental_uris":{"android":"levelo://app?vid=4d861a27-31f4-48ed-b309-cbe0b7ba3a6e","ios":"levelo://app?vid=4d861a27-31f4-48ed-b309-cbe0b7ba3a6e"},"vehicle_type_id":"4","last_reported":1737558529,"current_range_meters":16400,"station_id":"ce4bgi92rcd13ifvqb90","pricing_plan_id":"cebpf4jnsgd1na2vs0mg"},{"bike_id":"7c51546f-b721-4974-9e14-9db58b62159e","system_id":"levelo_inurba_marseille","lat":43.29849,"lon":5.36277,"is_reserved":false,"is_disabled":false,"rental_uris":{"android":"levelo://app?vid=7c51546f-b721-4974-9e14-9db58b62159e","ios":"levelo://app?vid=7c51546f-b721-4974-9e14-9db58b62159e"},"vehicle_type_id":"4","last_reported":1737558529,"current_range_meters":38400,"station_id":"ce4bgpp2rcd13ifvqc3g","pricing_plan_id":"cebpf4jnsgd1na2vs0mg"},{"bike_id":"ed22a13f-baff-4736-a13f-23aac7ea0b1d","system_id":"levelo_inurba_marseille","lat":43.28656,"lon":5.36365,"is_reserved":false,"is_disabled":false,"rental_uris":{"android":"levelo://app?vid=ed22a13f-baff-4736-a13f-23aac7ea0b1d","ios":"levelo://app?vid=ed22a13f-baff-4736-a13f-23aac7ea0b1d"},"vehicle_type_id":"4","last_reported":1737558529,"current_range_meters":38800,"station_id":"ce4bhah2rcd13ifvqej0","pricing_plan_id":"cebpf4jnsgd1na2vs0mg"},{"bike_id":"e4841a89-1dea-4411-a615-5634208ec83d","system_id":"levelo_inurba_marseille","lat":43.28463,"lon":5.35877,"is_reserved":false,"is_disabled":false,"rental_uris":{"android":"levelo://app?vid=e4841a89-1dea-4411-a615-5634208ec83d","ios":"levelo://app?vid=e4841a89-1dea-4411-a615-5634208ec83d"},"vehicle_type_id":"4","last_reported":1737558529,"current_range_meters":32000,"station_id":"ce4bhah2rcd13ifvqei0","pricing_plan_id":"cebpf4jnsgd1na2vs0mg"},{"bike_id":"06972292-308a-4300-9568-b134b5d9abbb","system_id":"levelo_inurba_marseille","lat":43.26812,"lon":5.40272,"is_reserved":false,"is_disabled":true,"rental_uris":{"android":"levelo://app?vid=06972292-308a-4300-9568-b134b5d9abbb","ios":"levelo://app?vid=06972292-308a-4300-9568-b134b5d9abbb"},"vehicle_type_id":"4","last_reported":1737558529,"current_range_meters":1200,"station_id":"ce501612rcd8frsf0b60","pricing_plan_id":"cebpf4jnsgd1na2vs0mg"},{"bike_id":"bb903e76-66e9-47a7-a21b-9c74eee3f530","system_id":"levelo_inurba_marseille","lat":43.24831,"lon":5.38926,"is_reserved":false,"is_disabled":false,"rental_uris":{"android":"levelo://app?vid=bb903e76-66e9-47a7-a21b-9c74eee3f530","ios":"levelo://app?vid=bb903e76-66e9-47a7-a21b-9c74eee3f530"},"vehicle_type_id":"4","last_reported":1737558529,"current_range_meters":39200,"station_id":"ce4bhgp2rcd13ifvqfd0","pricing_plan_id":"cebpf4jnsgd1na2vs0mg"},{"bike_id":"3c2852e8-3d8e-4b8c-9510-44a66e24c469","system_id":"levelo_inurba_marseille","lat":43.26193,"lon":5.37474,"is_reserved":false,"is_disabled":false,"rental_uris":{"android":"levelo://app?vid=3c2852e8-3d8e-4b8c-9510-44a66e24c469","ios":"levelo://app?vid=3c2852e8-3d8e-4b8c-9510-44a66e24c469"},"vehicle_type_id":"4","last_reported":1737558529,"current_range_meters":18800,"station_id":"ce4bhgp2rcd13ifvqfc0","pricing_plan_id":"cebpf4jnsgd1na2vs0mg"},{"bike_id":"525d083c-0f07-4e2f-a2dc-3766f409d272","system_id":"levelo_inurba_marseille","lat":43.26807,"lon":5.40271,"is_reserved":false,"is_disabled":false,"rental_uris":{"android":"levelo://app?vid=525d083c-0f07-4e2f-a2dc-3766f409d272","ios":"levelo://app?vid=525d083c-0f07-4e2f-a2dc-3766f409d272"},"vehicle_type_id":"4","last_reported":1737558529,"current_range_meters":26000,"station_id":"ce501612rcd8frsf0b60","pricing_plan_id":"cebpf4jnsgd1na2vs0mg"},{"bike_id":"ec37d0de-afcf-4de0-bf38-f6106210696d","system_id":"levelo_inurba_marseille","lat":43.28104,"lon":5.37832,"is_reserved":false,"is_disabled":false,"rental_uris":{"android":"levelo://app?vid=ec37d0de-afcf-4de0-bf38-f6106210696d","ios":"levelo://app?vid=ec37d0de-afcf-4de0-bf38-f6106210696d"},"vehicle_type_id":"4","last_reported":1737558529,"current_range_meters":27200,"station_id":"ce4bha12rcd13ifvqee0","pricing_plan_id":"cebpf4jnsgd1na2vs0mg"},{"bike_id":"c60fc13e-45dc-4e97-998d-bdb23058113e","system_id":"levelo_inurba_marseille","lat":43.28156,"lon":5.42643,"is_reserved":false,"is_disabled":false,"rental_uris":{"android":"levelo://app?vid=c60fc13e-45dc-4e97-998d-bdb23058113e","ios":"levelo://app?vid=c60fc13e-45dc-4e97-998d-bdb23058113e"},"vehicle_type_id":"4","last_reported":1737558529,"current_range_meters":30000,"station_id":"ce4bhnh2rcd13ifvqgug","pricing_plan_id":"cebpf4jnsgd1na2vs0mg"},{"bike_id":"18110634-8656-4425-868c-91f0e5cdb086","system_id":"levelo_inurba_marseille","lat":43.25085,"lon":5.39482,"is_reserved":false,"is_disabled":false,"rental_uris":{"android":"levelo://app?vid=18110634-8656-4425-868c-91f0e5cdb086","ios":"levelo://app?vid=18110634-8656-4425-868c-91f0e5cdb086"},"vehicle_type_id":"4","last_reported":1737558529,"current_range_meters":38800,"station_id":"ce4bhm12rcd13ifvqgkg","pricing_plan_id":"cebpf4jnsgd1na2vs0mg"},{"bike_id":"07855943-2dec-47e5-a523-171492e013a1","system_id":"levelo_inurba_marseille","lat":43.26192,"lon":5.37448,"is_reserved":false,"is_disabled":false,"rental_uris":{"android":"levelo://app?vid=07855943-2dec-47e5-a523-171492e013a1","ios":"levelo://app?vid=07855943-2dec-47e5-a523-171492e013a1"},"vehicle_type_id":"4","last_reported":1737558529,"current_range_meters":29600,"station_id":"ce4bhgp2rcd13ifvqfc0","pricing_plan_id":"cebpf4jnsgd1na2vs0mg"},{"bike_id":"c59e854e-b7e1-4dd9-951c-c12cf587190e","system_id":"levelo_inurba_marseille","lat":43.25528,"lon":5.37636,"is_reserved":false,"is_disabled":false,"rental_uris":{"android":"levelo://app?vid=c59e854e-b7e1-4dd9-951c-c12cf587190e","ios":"levelo://app?vid=c59e854e-b7e1-4dd9-951c-c12cf587190e"},"vehicle_type_id":"4","last_reported":1737558529,"current_range_meters":35600,"station_id":"ce4bhh12rcd13ifvqff0","pricing_plan_id":"cebpf4jnsgd1na2vs0mg"},{"bike_id":"13a838cb-bcc1-4b93-9552-c729c0d9b2f6","system_id":"levelo_inurba_marseille","lat":43.24811,"lon":5.37451,"is_reserved":false,"is_disabled":false,"rental_uris":{"android":"levelo://app?vid=13a838cb-bcc1-4b93-9552-c729c0d9b2f6","ios":"levelo://app?vid=13a838cb-bcc1-4b93-9552-c729c0d9b2f6"},"vehicle_type_id":"4","last_reported":1737558529,"current_range_meters":39200,"station_id":"ce4bhgh2rcd13ifvqfb0","pricing_plan_id":"cebpf4jnsgd1na2vs0mg"},{"bike_id":"8290cc61-9513-45c9-bc85-5811a1b0e775","system_id":"levelo_inurba_marseille","lat":43.29279,"lon":5.40145,"is_reserved":false,"is_disabled":true,"rental_uris":{"android":"levelo://app?vid=8290cc61-9513-45c9-bc85-5811a1b0e775","ios":"levelo://app?vid=8290cc61-9513-45c9-bc85-5811a1b0e775"},"vehicle_type_id":"4","last_reported":1737558529,"current_range_meters":0,"station_id":"ce4bh312rcd13ifvqdk0","pricing_plan_id":"cebpf4jnsgd1na2vs0mg"},{"bike_id":"9a42d232-900d-461b-9908-271fe1871499","system_id":"levelo_inurba_marseille","lat":43.27817,"lon":5.40715,"is_reserved":false,"is_disabled":false,"rental_uris":{"android":"levelo://app?vid=9a42d232-900d-461b-9908-271fe1871499","ios":"levelo://app?vid=9a42d232-900d-461b-9908-271fe1871499"},"vehicle_type_id":"4","last_reported":1737558529,"current_range_meters":34000,"station_id":"ce4bhnh2rcd13ifvqgtg","pricing_plan_id":"cebpf4jnsgd1na2vs0mg"},{"bike_id":"7cf3f378-5bb6-461a-9872-8bb605175883","system_id":"levelo_inurba_marseille","lat":43.29572,"lon":5.37511,"is_reserved":false,"is_disabled":false,"rental_uris":{"android":"levelo://app?vid=7cf3f378-5bb6-461a-9872-8bb605175883","ios":"levelo://app?vid=7cf3f378-5bb6-461a-9872-8bb605175883"},"vehicle_type_id":"4","last_reported":1737558529,"current_range_meters":13600,"station_id":"ce4bgh92rcd13ifvqb50","pricing_plan_id":"cebpf4jnsgd1na2vs0mg"},{"bike_id":"5cf44740-642a-4681-b736-5ce58e51920f","system_id":"levelo_inurba_marseille","lat":43.26231,"lon":5.4046,"is_reserved":false,"is_disabled":false,"rental_uris":{"android":"levelo://app?vid=5cf44740-642a-4681-b736-5ce58e51920f","ios":"levelo://app?vid=5cf44740-642a-4681-b736-5ce58e51920f"},"vehicle_type_id":"4","last_reported":1737558529,"current_range_meters":30000,"station_id":"","pricing_plan_id":"cebpf4jnsgd1na2vs0mg"},{"bike_id":"1450bd64-05c1-4364-83aa-daa0fb011f91","system_id":"levelo_inurba_marseille","lat":43.29956,"lon":5.41321,"is_reserved":false,"is_disabled":false,"rental_uris":{"android":"levelo://app?vid=1450bd64-05c1-4364-83aa-daa0fb011f91","ios":"levelo://app?vid=1450bd64-05c1-4364-83aa-daa0fb011f91"},"vehicle_type_id":"4","last_reported":1737558529,"current_range_meters":39200,"station_id":"ce4bhp12rcd13ifvqh9g","pricing_plan_id":"cebpf4jnsgd1na2vs0mg"},{"bike_id":"b626bcd0-a858-4d3b-beef-9635c8fc6579","system_id":"levelo_inurba_marseille","lat":43.31492,"lon":5.37306,"is_reserved":false,"is_disabled":false,"rental_uris":{"android":"levelo://app?vid=b626bcd0-a858-4d3b-beef-9635c8fc6579","ios":"levelo://app?vid=b626bcd0-a858-4d3b-beef-9635c8fc6579"},"vehicle_type_id":"4","last_reported":1737558529,"current_range_meters":18800,"station_id":"ce4bgt12rcd13ifvqcd0","pricing_plan_id":"cebpf4jnsgd1na2vs0mg"},{"bike_id":"6ceac495-b2ab-4483-a860-8c6875430e01","system_id":"levelo_inurba_marseille","lat":43.29884,"lon":5.3891,"is_reserved":false,"is_disabled":false,"rental_uris":{"android":"levelo://app?vid=6ceac495-b2ab-4483-a860-8c6875430e01","ios":"levelo://app?vid=6ceac495-b2ab-4483-a860-8c6875430e01"},"vehicle_type_id":"4","last_reported":1737558529,"current_range_meters":24400,"station_id":"ce4bh392rcd13ifvqdl0","pricing_plan_id":"cebpf4jnsgd1na2vs0mg"},{"bike_id":"e7ebdef9-55cf-4766-85b7-598a4a606e46","system_id":"levelo_inurba_marseille","lat":43.29652,"lon":5.37169,"is_reserved":false,"is_disabled":false,"rental_uris":{"android":"levelo://app?vid=e7ebdef9-55cf-4766-85b7-598a4a606e46","ios":"levelo://app?vid=e7ebdef9-55cf-4766-85b7-598a4a606e46"},"vehicle_type_id":"4","last_reported":1737558529,"current_range_meters":17200,"station_id":"ce4bgnh2rcd13ifvqc0g","pricing_plan_id":"cebpf4jnsgd1na2vs0mg"},{"bike_id":"280781e9-fa6e-4bc8-b42e-4972478cf13d","system_id":"levelo_inurba_marseille","lat":43.31538,"lon":5.38029,"is_reserved":false,"is_disabled":false,"rental_uris":{"android":"levelo://app?vid=280781e9-fa6e-4bc8-b42e-4972478cf13d","ios":"levelo://app?vid=280781e9-fa6e-4bc8-b42e-4972478cf13d"},"vehicle_type_id":"4","last_reported":1737558529,"current_range_meters":38800,"station_id":"ce4bhsp2rcd13ifvqi50","pricing_plan_id":"cebpf4jnsgd1na2vs0mg"},{"bike_id":"b72ddc83-3731-426e-9702-e3b97f9dddfa","system_id":"levelo_inurba_marseille","lat":43.29209,"lon":5.36059,"is_reserved":false,"is_disabled":false,"rental_uris":{"android":"levelo://app?vid=b72ddc83-3731-426e-9702-e3b97f9dddfa","ios":"levelo://app?vid=b72ddc83-3731-426e-9702-e3b97f9dddfa"},"vehicle_type_id":"4","last_reported":1737558529,"current_range_meters":4400,"station_id":"ce4bhbh2rcd13ifvqeqg","pricing_plan_id":"cebpf4jnsgd1na2vs0mg"},{"bike_id":"930435e4-6f25-435f-ae9f-b27fc3275853","system_id":"levelo_inurba_marseille","lat":43.30798,"lon":5.37334,"is_reserved":false,"is_disabled":true,"rental_uris":{"android":"levelo://app?vid=930435e4-6f25-435f-ae9f-b27fc3275853","ios":"levelo://app?vid=930435e4-6f25-435f-ae9f-b27fc3275853"},"vehicle_type_id":"4","last_reported":1737558529,"current_range_meters":1200,"station_id":"","pricing_plan_id":"cebpf4jnsgd1na2vs0mg"},{"bike_id":"27e80083-366b-4daa-89a1-00d558d14c86","system_id":"levelo_inurba_marseille","lat":43.32485,"lon":5.36549,"is_reserved":false,"is_disabled":false,"rental_uris":{"android":"levelo://app?vid=27e80083-366b-4daa-89a1-00d558d14c86","ios":"levelo://app?vid=27e80083-366b-4daa-89a1-00d558d14c86"},"vehicle_type_id":"4","last_reported":1737558529,"current_range_meters":22800,"station_id":"ce4bhs12rcd13ifvqhvg","pricing_plan_id":"cebpf4jnsgd1na2vs0mg"},{"bike_id":"65dccb82-e0d5-464f-9ab0-52b1f760eca6","system_id":"levelo_inurba_marseille","lat":43.2736,"lon":5.36236,"is_reserved":false,"is_disabled":false,"rental_uris":{"android":"levelo://app?vid=65dccb82-e0d5-464f-9ab0-52b1f760eca6","ios":"levelo://app?vid=65dccb82-e0d5-464f-9ab0-52b1f760eca6"},"vehicle_type_id":"4","last_reported":1737558529,"current_range_meters":37600,"station_id":"ce4bhbh2rcd13ifvqeo0","pricing_plan_id":"cebpf4jnsgd1na2vs0mg"},{"bike_id":"01a62aad-27ed-4a1b-9567-1dda5f235805","system_id":"levelo_inurba_marseille","lat":43.32362,"lon":5.3888,"is_reserved":false,"is_disabled":false,"rental_uris":{"android":"levelo://app?vid=01a62aad-27ed-4a1b-9567-1dda5f235805","ios":"levelo://app?vid=01a62aad-27ed-4a1b-9567-1dda5f235805"},"vehicle_type_id":"4","last_reported":1737558529,"current_range_meters":18000,"station_id":"ce4bhqp2rcd13ifvqhog","pricing_plan_id":"cebpf4jnsgd1na2vs0mg"},{"bike_id":"fe2089a7-9e7b-4a7a-8bc3-781431ea9568","system_id":"levelo_inurba_marseille","lat":43.25939,"lon":5.40904,"is_reserved":false,"is_disabled":false,"rental_uris":{"android":"levelo://app?vid=fe2089a7-9e7b-4a7a-8bc3-781431ea9568","ios":"levelo://app?vid=fe2089a7-9e7b-4a7a-8bc3-781431ea9568"},"vehicle_type_id":"4","last_reported":1737558529,"current_range_meters":38800,"station_id":"ce4bhm92rcd13ifvqglg","pricing_plan_id":"cebpf4jnsgd1na2vs0mg"},{"bike_id":"b1a4c214-5afb-4ae3-8bd7-40ade86c0caa","system_id":"levelo_inurba_marseille","lat":43.28667,"lon":5.38669,"is_reserved":false,"is_disabled":false,"rental_uris":{"android":"levelo://app?vid=b1a4c214-5afb-4ae3-8bd7-40ade86c0caa","ios":"levelo://app?vid=b1a4c214-5afb-4ae3-8bd7-40ade86c0caa"},"vehicle_type_id":"4","last_reported":1737558529,"current_range_meters":6000,"station_id":"ce4bh492rcd13ifvqdug","pricing_plan_id":"cebpf4jnsgd1na2vs0mg"},{"bike_id":"c8207e0e-f323-464e-b32f-58e506472352","system_id":"levelo_inurba_marseille","lat":43.26192,"lon":5.37453,"is_reserved":false,"is_disabled":false,"rental_uris":{"android":"levelo://app?vid=c8207e0e-f323-464e-b32f-58e506472352","ios":"levelo://app?vid=c8207e0e-f323-464e-b32f-58e506472352"},"vehicle_type_id":"4","last_reported":1737558529,"current_range_meters":38400,"station_id":"ce4bhgp2rcd13ifvqfc0","pricing_plan_id":"cebpf4jnsgd1na2vs0mg"},{"bike_id":"7d3a62e7-dc66-4cce-99b3-4d0e48129f5d","system_id":"levelo_inurba_marseille","lat":43.31344,"lon":5.36775,"is_reserved":false,"is_disabled":false,"rental_uris":{"android":"levelo://app?vid=7d3a62e7-dc66-4cce-99b3-4d0e48129f5d","ios":"levelo://app?vid=7d3a62e7-dc66-4cce-99b3-4d0e48129f5d"},"vehicle_type_id":"4","last_reported":1737558529,"current_range_meters":10800,"station_id":"","pricing_plan_id":"cebpf4jnsgd1na2vs0mg"},{"bike_id":"13a64475-e4c7-493c-900a-0bcfe86942ca","system_id":"levelo_inurba_marseille","lat":43.30799,"lon":5.43521,"is_reserved":false,"is_disabled":false,"rental_uris":{"android":"levelo://app?vid=13a64475-e4c7-493c-900a-0bcfe86942ca","ios":"levelo://app?vid=13a64475-e4c7-493c-900a-0bcfe86942ca"},"vehicle_type_id":"4","last_reported":1737558529,"current_range_meters":17200,"station_id":"ce4bhph2rcd13ifvqheg","pricing_plan_id":"cebpf4jnsgd1na2vs0mg"},{"bike_id":"28513575-b7c6-4140-bca2-6e6c02c6c39a","system_id":"levelo_inurba_marseille","lat":43.30285,"lon":5.37702,"is_reserved":false,"is_disabled":false,"rental_uris":{"android":"levelo://app?vid=28513575-b7c6-4140-bca2-6e6c02c6c39a","ios":"levelo://app?vid=28513575-b7c6-4140-bca2-6e6c02c6c39a"},"vehicle_type_id":"4","last_reported":1737558529,"current_range_meters":38800,"station_id":"ce4bguh2rcd13ifvqcj0","pricing_plan_id":"cebpf4jnsgd1na2vs0mg"},{"bike_id":"8662c7d5-3319-4ca7-979b-70f2a633bed5","system_id":"levelo_inurba_marseille","lat":43.29585,"lon":5.367348,"is_reserved":false,"is_disabled":false,"rental_uris":{"android":"levelo://app?vid=8662c7d5-3319-4ca7-979b-70f2a633bed5","ios":"levelo://app?vid=8662c7d5-3319-4ca7-979b-70f2a633bed5"},"vehicle_type_id":"4","last_reported":1737558529,"current_range_meters":38800,"station_id":"ce4bgph2rcd13ifvqc2g","pricing_plan_id":"cebpf4jnsgd1na2vs0mg"},{"bike_id":"31756acf-0fc0-49d4-8ecb-20ac331a3ae1","system_id":"levelo_inurba_marseille","lat":43.30323,"lon":5.40431,"is_reserved":false,"is_disabled":false,"rental_uris":{"android":"levelo://app?vid=31756acf-0fc0-49d4-8ecb-20ac331a3ae1","ios":"levelo://app?vid=31756acf-0fc0-49d4-8ecb-20ac331a3ae1"},"vehicle_type_id":"4","last_reported":1737558529,"current_range_meters":23200,"station_id":"ce4bh012rcd13ifvqd10","pricing_plan_id":"cebpf4jnsgd1na2vs0mg"},{"bike_id":"4784f4d0-8541-4160-ac19-b8ca95746303","system_id":"levelo_inurba_marseille","lat":43.25087,"lon":5.39483,"is_reserved":false,"is_disabled":false,"rental_uris":{"android":"levelo://app?vid=4784f4d0-8541-4160-ac19-b8ca95746303","ios":"levelo://app?vid=4784f4d0-8541-4160-ac19-b8ca95746303"},"vehicle_type_id":"4","last_reported":1737558529,"current_range_meters":38800,"station_id":"ce4bhm12rcd13ifvqgkg","pricing_plan_id":"cebpf4jnsgd1na2vs0mg"},{"bike_id":"2af600a2-a454-417e-b5af-b81f04566a2e","system_id":"levelo_inurba_marseille","lat":43.29973,"lon":5.38488,"is_reserved":false,"is_disabled":false,"rental_uris":{"android":"levelo://app?vid=2af600a2-a454-417e-b5af-b81f04566a2e","ios":"levelo://app?vid=2af600a2-a454-417e-b5af-b81f04566a2e"},"vehicle_type_id":"4","last_reported":1737558529,"current_range_meters":7200,"station_id":"ce4bgj92rcd13ifvqbd0","pricing_plan_id":"cebpf4jnsgd1na2vs0mg"},{"bike_id":"3660bb0b-7a95-4a10-8a29-db4bfeaccf89","system_id":"levelo_inurba_marseille","lat":43.29523,"lon":5.39059,"is_reserved":false,"is_disabled":false,"rental_uris":{"android":"levelo://app?vid=3660bb0b-7a95-4a10-8a29-db4bfeaccf89","ios":"levelo://app?vid=3660bb0b-7a95-4a10-8a29-db4bfeaccf89"},"vehicle_type_id":"4","last_reported":1737558529,"current_range_meters":8800,"station_id":"ce4bh3p2rcd13ifvqdp0","pricing_plan_id":"cebpf4jnsgd1na2vs0mg"},{"bike_id":"42421f21-1e00-4c2e-afae-876bac5982c0","system_id":"levelo_inurba_marseille","lat":43.30792,"lon":5.37642,"is_reserved":false,"is_disabled":false,"rental_uris":{"android":"levelo://app?vid=42421f21-1e00-4c2e-afae-876bac5982c0","ios":"levelo://app?vid=42421f21-1e00-4c2e-afae-876bac5982c0"},"vehicle_type_id":"4","last_reported":1737558529,"current_range_meters":17600,"station_id":"ce4bgv92rcd13ifvqcq0","pricing_plan_id":"cebpf4jnsgd1na2vs0mg"},{"bike_id":"2cc5b0cf-092b-4840-9d1f-9fa5d0d92dd7","system_id":"levelo_inurba_marseille","lat":43.26206,"lon":5.3792,"is_reserved":false,"is_disabled":false,"rental_uris":{"android":"levelo://app?vid=2cc5b0cf-092b-4840-9d1f-9fa5d0d92dd7","ios":"levelo://app?vid=2cc5b0cf-092b-4840-9d1f-9fa5d0d92dd7"},"vehicle_type_id":"4","last_reported":1737558529,"current_range_meters":34000,"station_id":"ce4bhjp2rcd13ifvqg90","pricing_plan_id":"cebpf4jnsgd1na2vs0mg"},{"bike_id":"e763fbba-b8cc-400e-9b8a-1db13f8509f9","system_id":"levelo_inurba_marseille","lat":43.29902,"lon":5.43672,"is_reserved":false,"is_disabled":false,"rental_uris":{"android":"levelo://app?vid=e763fbba-b8cc-400e-9b8a-1db13f8509f9","ios":"levelo://app?vid=e763fbba-b8cc-400e-9b8a-1db13f8509f9"},"vehicle_type_id":"4","last_reported":1737558529,"current_range_meters":10000,"station_id":"ce4bhpp2rcd13ifvqhfg","pricing_plan_id":"cebpf4jnsgd1na2vs0mg"},{"bike_id":"86fce387-d25e-46bb-928c-c6923257e7fb","system_id":"levelo_inurba_marseille","lat":43.28414,"lon":5.37513,"is_reserved":false,"is_disabled":false,"rental_uris":{"android":"levelo://app?vid=86fce387-d25e-46bb-928c-c6923257e7fb","ios":"levelo://app?vid=86fce387-d25e-46bb-928c-c6923257e7fb"},"vehicle_type_id":"4","last_reported":1737558529,"current_range_meters":38800,"station_id":"ce4bh412rcd13ifvqds0","pricing_plan_id":"cebpf4jnsgd1na2vs0mg"},{"bike_id":"f69be3dd-5c08-41a5-a494-c4d2892249c1","system_id":"levelo_inurba_marseille","lat":43.33733,"lon":5.39189,"is_reserved":false,"is_disabled":false,"rental_uris":{"android":"levelo://app?vid=f69be3dd-5c08-41a5-a494-c4d2892249c1","ios":"levelo://app?vid=f69be3dd-5c08-41a5-a494-c4d2892249c1"},"vehicle_type_id":"4","last_reported":1737558529,"current_range_meters":39200,"station_id":"ce4bhr92rcd13ifvqhsg","pricing_plan_id":"cebpf4jnsgd1na2vs0mg"},{"bike_id":"d7a28120-a7b4-4fe8-91f5-461f37dfeebd","system_id":"levelo_inurba_marseille","lat":43.30284,"lon":5.37724,"is_reserved":false,"is_disabled":false,"rental_uris":{"android":"levelo://app?vid=d7a28120-a7b4-4fe8-91f5-461f37dfeebd","ios":"levelo://app?vid=d7a28120-a7b4-4fe8-91f5-461f37dfeebd"},"vehicle_type_id":"4","last_reported":1737558529,"current_range_meters":16400,"station_id":"ce4bguh2rcd13ifvqcj0","pricing_plan_id":"cebpf4jnsgd1na2vs0mg"},{"bike_id":"f25b6234-b810-482a-97d2-96e88a0f1670","system_id":"levelo_inurba_marseille","lat":43.28454,"lon":5.3589,"is_reserved":false,"is_disabled":false,"rental_uris":{"android":"levelo://app?vid=f25b6234-b810-482a-97d2-96e88a0f1670","ios":"levelo://app?vid=f25b6234-b810-482a-97d2-96e88a0f1670"},"vehicle_type_id":"4","last_reported":1737558529,"current_range_meters":38800,"station_id":"ce4bhah2rcd13ifvqei0","pricing_plan_id":"cebpf4jnsgd1na2vs0mg"},{"bike_id":"e9e6cc9f-d1f4-4833-ac1e-33312476aaeb","system_id":"levelo_inurba_marseille","lat":43.30942,"lon":5.40147,"is_reserved":false,"is_disabled":false,"rental_uris":{"android":"levelo://app?vid=e9e6cc9f-d1f4-4833-ac1e-33312476aaeb","ios":"levelo://app?vid=e9e6cc9f-d1f4-4833-ac1e-33312476aaeb"},"vehicle_type_id":"4","last_reported":1737558529,"current_range_meters":38800,"station_id":"ce4bgvp2rcd13ifvqct0","pricing_plan_id":"cebpf4jnsgd1na2vs0mg"},{"bike_id":"5f99fe66-d114-411a-89bb-bf90daacf7be","system_id":"levelo_inurba_marseille","lat":43.29624,"lon":5.37733,"is_reserved":false,"is_disabled":false,"rental_uris":{"android":"levelo://app?vid=5f99fe66-d114-411a-89bb-bf90daacf7be","ios":"levelo://app?vid=5f99fe66-d114-411a-89bb-bf90daacf7be"},"vehicle_type_id":"4","last_reported":1737558529,"current_range_meters":2000,"station_id":"ce4bgi92rcd13ifvqb90","pricing_plan_id":"cebpf4jnsgd1na2vs0mg"},{"bike_id":"da03f92c-2cc3-4e46-babd-ad47286635c7","system_id":"levelo_inurba_marseille","lat":43.29009,"lon":5.35608,"is_reserved":false,"is_disabled":false,"rental_uris":{"android":"levelo://app?vid=da03f92c-2cc3-4e46-babd-ad47286635c7","ios":"levelo://app?vid=da03f92c-2cc3-4e46-babd-ad47286635c7"},"vehicle_type_id":"4","last_reported":1737558529,"current_range_meters":36000,"station_id":"ce4bhb92rcd13ifvqen0","pricing_plan_id":"cebpf4jnsgd1na2vs0mg"},{"bike_id":"9863b7f9-4316-4322-9f6c-3cc66b0448e2","system_id":"levelo_inurba_marseille","lat":43.279439,"lon":5.389008,"is_reserved":false,"is_disabled":true,"rental_uris":{"android":"levelo://app?vid=9863b7f9-4316-4322-9f6c-3cc66b0448e2","ios":"levelo://app?vid=9863b7f9-4316-4322-9f6c-3cc66b0448e2"},"vehicle_type_id":"4","last_reported":1737558529,"current_range_meters":28800,"station_id":"","pricing_plan_id":"cebpf4jnsgd1na2vs0mg"},{"bike_id":"51076e27-a44f-4efb-9601-fc066f94d5b3","system_id":"levelo_inurba_marseille","lat":43.28424,"lon":5.34975,"is_reserved":false,"is_disabled":false,"rental_uris":{"android":"levelo://app?vid=51076e27-a44f-4efb-9601-fc066f94d5b3","ios":"levelo://app?vid=51076e27-a44f-4efb-9601-fc066f94d5b3"},"vehicle_type_id":"4","last_reported":1737558529,"current_range_meters":19600,"station_id":"ce4bhbh2rcd13ifvqepg","pricing_plan_id":"cebpf4jnsgd1na2vs0mg"},{"bike_id":"eddb6b89-082b-479c-b34f-44c352a03897","system_id":"levelo_inurba_marseille","lat":43.25505,"lon":5.37653,"is_reserved":false,"is_disabled":false,"rental_uris":{"android":"levelo://app?vid=eddb6b89-082b-479c-b34f-44c352a03897","ios":"levelo://app?vid=eddb6b89-082b-479c-b34f-44c352a03897"},"vehicle_type_id":"4","last_reported":1737558529,"current_range_meters":38800,"station_id":"ce4bhh12rcd13ifvqff0","pricing_plan_id":"cebpf4jnsgd1na2vs0mg"},{"bike_id":"f315bc93-4512-466f-b8ea-ac633e98ac21","system_id":"levelo_inurba_marseille","lat":43.28438,"lon":5.34997,"is_reserved":false,"is_disabled":false,"rental_uris":{"android":"levelo://app?vid=f315bc93-4512-466f-b8ea-ac633e98ac21","ios":"levelo://app?vid=f315bc93-4512-466f-b8ea-ac633e98ac21"},"vehicle_type_id":"4","last_reported":1737558529,"current_range_meters":38800,"station_id":"ce4bhbh2rcd13ifvqepg","pricing_plan_id":"cebpf4jnsgd1na2vs0mg"},{"bike_id":"492818e2-100d-4b30-9fcd-4c77ba06218a","system_id":"levelo_inurba_marseille","lat":43.28003,"lon":5.40011,"is_reserved":false,"is_disabled":false,"rental_uris":{"android":"levelo://app?vid=492818e2-100d-4b30-9fcd-4c77ba06218a","ios":"levelo://app?vid=492818e2-100d-4b30-9fcd-4c77ba06218a"},"vehicle_type_id":"4","last_reported":1737558529,"current_range_meters":26800,"station_id":"ce4bho92rcd13ifvqh4g","pricing_plan_id":"cebpf4jnsgd1na2vs0mg"},{"bike_id":"318c67ca-f1b8-44a6-84c2-7620150f38ee","system_id":"levelo_inurba_marseille","lat":43.2902,"lon":5.38647,"is_reserved":false,"is_disabled":false,"rental_uris":{"android":"levelo://app?vid=318c67ca-f1b8-44a6-84c2-7620150f38ee","ios":"levelo://app?vid=318c67ca-f1b8-44a6-84c2-7620150f38ee"},"vehicle_type_id":"4","last_reported":1737558529,"current_range_meters":28800,"station_id":"ce4bh4p2rcd13ifvqe0g","pricing_plan_id":"cebpf4jnsgd1na2vs0mg"},{"bike_id":"876125d0-19d4-44f0-be69-c22330b8b710","system_id":"levelo_inurba_marseille","lat":43.28926,"lon":5.3839,"is_reserved":false,"is_disabled":false,"rental_uris":{"android":"levelo://app?vid=876125d0-19d4-44f0-be69-c22330b8b710","ios":"levelo://app?vid=876125d0-19d4-44f0-be69-c22330b8b710"},"vehicle_type_id":"4","last_reported":1737558529,"current_range_meters":36400,"station_id":"ce4bh612rcd13ifvqe6g","pricing_plan_id":"cebpf4jnsgd1na2vs0mg"},{"bike_id":"8e2fe138-ff09-4b92-834b-8fe11a686c0f","system_id":"levelo_inurba_marseille","lat":43.30139,"lon":5.39881,"is_reserved":false,"is_disabled":false,"rental_uris":{"android":"levelo://app?vid=8e2fe138-ff09-4b92-834b-8fe11a686c0f","ios":"levelo://app?vid=8e2fe138-ff09-4b92-834b-8fe11a686c0f"},"vehicle_type_id":"4","last_reported":1737558529,"current_range_meters":16400,"station_id":"ce4bh0h2rcd13ifvqd40","pricing_plan_id":"cebpf4jnsgd1na2vs0mg"},{"bike_id":"e1d0098d-4445-44de-8122-239d13e4b205","system_id":"levelo_inurba_marseille","lat":43.29223,"lon":5.3607,"is_reserved":false,"is_disabled":false,"rental_uris":{"android":"levelo://app?vid=e1d0098d-4445-44de-8122-239d13e4b205","ios":"levelo://app?vid=e1d0098d-4445-44de-8122-239d13e4b205"},"vehicle_type_id":"4","last_reported":1737558529,"current_range_meters":35200,"station_id":"ce4bhbh2rcd13ifvqeqg","pricing_plan_id":"cebpf4jnsgd1na2vs0mg"},{"bike_id":"0d555cab-a3ac-493c-97d1-05fb30170afc","system_id":"levelo_inurba_marseille","lat":43.27811,"lon":5.40707,"is_reserved":false,"is_disabled":false,"rental_uris":{"android":"levelo://app?vid=0d555cab-a3ac-493c-97d1-05fb30170afc","ios":"levelo://app?vid=0d555cab-a3ac-493c-97d1-05fb30170afc"},"vehicle_type_id":"4","last_reported":1737558529,"current_range_meters":10000,"station_id":"ce4bhnh2rcd13ifvqgtg","pricing_plan_id":"cebpf4jnsgd1na2vs0mg"},{"bike_id":"c1b3d17b-0f94-4f72-935a-18a42356c2df","system_id":"levelo_inurba_marseille","lat":43.27829,"lon":5.392,"is_reserved":false,"is_disabled":false,"rental_uris":{"android":"levelo://app?vid=c1b3d17b-0f94-4f72-935a-18a42356c2df","ios":"levelo://app?vid=c1b3d17b-0f94-4f72-935a-18a42356c2df"},"vehicle_type_id":"4","last_reported":1737558529,"current_range_meters":16400,"station_id":"ce4bhjp2rcd13ifvqga0","pricing_plan_id":"cebpf4jnsgd1na2vs0mg"},{"bike_id":"e4261134-4427-4663-a176-8c03fab09833","system_id":"levelo_inurba_marseille","lat":43.30157,"lon":5.38089,"is_reserved":false,"is_disabled":false,"rental_uris":{"android":"levelo://app?vid=e4261134-4427-4663-a176-8c03fab09833","ios":"levelo://app?vid=e4261134-4427-4663-a176-8c03fab09833"},"vehicle_type_id":"4","last_reported":1737558529,"current_range_meters":24400,"station_id":"ce4bgjp2rcd13ifvqbh0","pricing_plan_id":"cebpf4jnsgd1na2vs0mg"},{"bike_id":"b540a8f7-350e-4732-9f72-66da28e9b070","system_id":"levelo_inurba_marseille","lat":43.31886,"lon":5.40714,"is_reserved":false,"is_disabled":false,"rental_uris":{"android":"levelo://app?vid=b540a8f7-350e-4732-9f72-66da28e9b070","ios":"levelo://app?vid=b540a8f7-350e-4732-9f72-66da28e9b070"},"vehicle_type_id":"4","last_reported":1737558529,"current_range_meters":1600,"station_id":"ce4bhq12rcd13ifvqhig","pricing_plan_id":"cebpf4jnsgd1na2vs0mg"},{"bike_id":"fcd4837f-6e09-4786-bcf5-c3a686cbcfef","system_id":"levelo_inurba_marseille","lat":43.29896,"lon":5.43652,"is_reserved":false,"is_disabled":false,"rental_uris":{"android":"levelo://app?vid=fcd4837f-6e09-4786-bcf5-c3a686cbcfef","ios":"levelo://app?vid=fcd4837f-6e09-4786-bcf5-c3a686cbcfef"},"vehicle_type_id":"4","last_reported":1737558529,"current_range_meters":29600,"station_id":"ce4bhpp2rcd13ifvqhfg","pricing_plan_id":"cebpf4jnsgd1na2vs0mg"},{"bike_id":"7e30054b-a98f-4636-acb1-0772bfc040be","system_id":"levelo_inurba_marseille","lat":43.3113,"lon":5.42439,"is_reserved":false,"is_disabled":false,"rental_uris":{"android":"levelo://app?vid=7e30054b-a98f-4636-acb1-0772bfc040be","ios":"levelo://app?vid=7e30054b-a98f-4636-acb1-0772bfc040be"},"vehicle_type_id":"4","last_reported":1737558529,"current_range_meters":38800,"station_id":"ce4bhp92rcd13ifvqhag","pricing_plan_id":"cebpf4jnsgd1na2vs0mg"},{"bike_id":"8240d0ed-6e7f-4cac-935e-b1e9bab8bd24","system_id":"levelo_inurba_marseille","lat":43.2815,"lon":5.42637,"is_reserved":false,"is_disabled":false,"rental_uris":{"android":"levelo://app?vid=8240d0ed-6e7f-4cac-935e-b1e9bab8bd24","ios":"levelo://app?vid=8240d0ed-6e7f-4cac-935e-b1e9bab8bd24"},"vehicle_type_id":"4","last_reported":1737558529,"current_range_meters":38800,"station_id":"ce4bhnh2rcd13ifvqgug","pricing_plan_id":"cebpf4jnsgd1na2vs0mg"},{"bike_id":"720f1bd4-b805-4549-913b-58e0db646266","system_id":"levelo_inurba_marseille","lat":43.3236,"lon":5.36761,"is_reserved":false,"is_disabled":false,"rental_uris":{"android":"levelo://app?vid=720f1bd4-b805-4549-913b-58e0db646266","ios":"levelo://app?vid=720f1bd4-b805-4549-913b-58e0db646266"},"vehicle_type_id":"4","last_reported":1737558529,"current_range_meters":16000,"station_id":"ce4bhsh2rcd13ifvqi2g","pricing_plan_id":"cebpf4jnsgd1na2vs0mg"},{"bike_id":"391fdcee-38f3-4eec-8197-896e478821d3","system_id":"levelo_inurba_marseille","lat":43.33729,"lon":5.39184,"is_reserved":false,"is_disabled":false,"rental_uris":{"android":"levelo://app?vid=391fdcee-38f3-4eec-8197-896e478821d3","ios":"levelo://app?vid=391fdcee-38f3-4eec-8197-896e478821d3"},"vehicle_type_id":"4","last_reported":1737558529,"current_range_meters":28000,"station_id":"ce4bhr92rcd13ifvqhsg","pricing_plan_id":"cebpf4jnsgd1na2vs0mg"},{"bike_id":"f2d580fd-eeb3-4838-8e22-59723910edba","system_id":"levelo_inurba_marseille","lat":43.3199,"lon":5.38135,"is_reserved":false,"is_disabled":false,"rental_uris":{"android":"levelo://app?vid=f2d580fd-eeb3-4838-8e22-59723910edba","ios":"levelo://app?vid=f2d580fd-eeb3-4838-8e22-59723910edba"},"vehicle_type_id":"4","last_reported":1737558529,"current_range_meters":38800,"station_id":"ce4bhr12rcd13ifvqhpg","pricing_plan_id":"cebpf4jnsgd1na2vs0mg"},{"bike_id":"61f488de-0e8a-4294-8c12-0963029cf453","system_id":"levelo_inurba_marseille","lat":43.25721,"lon":5.41112,"is_reserved":false,"is_disabled":false,"rental_uris":{"android":"levelo://app?vid=61f488de-0e8a-4294-8c12-0963029cf453","ios":"levelo://app?vid=61f488de-0e8a-4294-8c12-0963029cf453"},"vehicle_type_id":"4","last_reported":1737558529,"current_range_meters":38800,"station_id":"ce4bhkp2rcd13ifvqgd0","pricing_plan_id":"cebpf4jnsgd1na2vs0mg"},{"bike_id":"f14dc71a-66db-4337-af73-af7f94ea4b53","system_id":"levelo_inurba_marseille","lat":43.23162,"lon":5.43708,"is_reserved":false,"is_disabled":false,"rental_uris":{"android":"levelo://app?vid=f14dc71a-66db-4337-af73-af7f94ea4b53","ios":"levelo://app?vid=f14dc71a-66db-4337-af73-af7f94ea4b53"},"vehicle_type_id":"4","last_reported":1737558529,"current_range_meters":39200,"station_id":"ce4bhmp2rcd13ifvqgog","pricing_plan_id":"cebpf4jnsgd1na2vs0mg"},{"bike_id":"c5e07b76-eade-45b3-8025-71274c97b4dc","system_id":"levelo_inurba_marseille","lat":43.30598,"lon":5.39345,"is_reserved":false,"is_disabled":false,"rental_uris":{"android":"levelo://app?vid=c5e07b76-eade-45b3-8025-71274c97b4dc","ios":"levelo://app?vid=c5e07b76-eade-45b3-8025-71274c97b4dc"},"vehicle_type_id":"4","last_reported":1737558529,"current_range_meters":30000,"station_id":"ce4bh0p2rcd13ifvqd80","pricing_plan_id":"cebpf4jnsgd1na2vs0mg"},{"bike_id":"394ab622-dd1e-4375-b0c1-42befc96f66f","system_id":"levelo_inurba_marseille","lat":43.27374,"lon":5.36262,"is_reserved":false,"is_disabled":false,"rental_uris":{"android":"levelo://app?vid=394ab622-dd1e-4375-b0c1-42befc96f66f","ios":"levelo://app?vid=394ab622-dd1e-4375-b0c1-42befc96f66f"},"vehicle_type_id":"4","last_reported":1737558529,"current_range_meters":8000,"station_id":"ce4bhbh2rcd13ifvqeo0","pricing_plan_id":"cebpf4jnsgd1na2vs0mg"},{"bike_id":"667d800f-65af-4e6c-a346-7ae21c36be76","system_id":"levelo_inurba_marseille","lat":43.2928,"lon":5.36854,"is_reserved":false,"is_disabled":false,"rental_uris":{"android":"levelo://app?vid=667d800f-65af-4e6c-a346-7ae21c36be76","ios":"levelo://app?vid=667d800f-65af-4e6c-a346-7ae21c36be76"},"vehicle_type_id":"4","last_reported":1737558529,"current_range_meters":38800,"station_id":"ce4bhbp2rcd13ifvqesg","pricing_plan_id":"cebpf4jnsgd1na2vs0mg"},{"bike_id":"a66cf5bd-00c3-49c3-8e5e-5a844074af6f","system_id":"levelo_inurba_marseille","lat":43.28438,"lon":5.392,"is_reserved":false,"is_disabled":false,"rental_uris":{"android":"levelo://app?vid=a66cf5bd-00c3-49c3-8e5e-5a844074af6f","ios":"levelo://app?vid=a66cf5bd-00c3-49c3-8e5e-5a844074af6f"},"vehicle_type_id":"4","last_reported":1737558529,"current_range_meters":38800,"station_id":"ce4bhoh2rcd13ifvqh5g","pricing_plan_id":"cebpf4jnsgd1na2vs0mg"},{"bike_id":"9741c905-f037-4851-af2d-c775e55110fd","system_id":"levelo_inurba_marseille","lat":43.29712,"lon":5.37692,"is_reserved":false,"is_disabled":false,"rental_uris":{"android":"levelo://app?vid=9741c905-f037-4851-af2d-c775e55110fd","ios":"levelo://app?vid=9741c905-f037-4851-af2d-c775e55110fd"},"vehicle_type_id":"4","last_reported":1737558529,"current_range_meters":14800,"station_id":"ce4bgkh2rcd13ifvqbl0","pricing_plan_id":"cebpf4jnsgd1na2vs0mg"},{"bike_id":"d57df6d5-c9eb-4edf-b9d1-caac82d2c136","system_id":"levelo_inurba_marseille","lat":43.25088,"lon":5.39527,"is_reserved":false,"is_disabled":false,"rental_uris":{"android":"levelo://app?vid=d57df6d5-c9eb-4edf-b9d1-caac82d2c136","ios":"levelo://app?vid=d57df6d5-c9eb-4edf-b9d1-caac82d2c136"},"vehicle_type_id":"4","last_reported":1737558529,"current_range_meters":10800,"station_id":"ce4bhm12rcd13ifvqgkg","pricing_plan_id":"cebpf4jnsgd1na2vs0mg"},{"bike_id":"298c42be-ec2d-4ea1-a639-d24a5cbdd049","system_id":"levelo_inurba_marseille","lat":43.3047,"lon":5.37904,"is_reserved":false,"is_disabled":false,"rental_uris":{"android":"levelo://app?vid=298c42be-ec2d-4ea1-a639-d24a5cbdd049","ios":"levelo://app?vid=298c42be-ec2d-4ea1-a639-d24a5cbdd049"},"vehicle_type_id":"4","last_reported":1737558529,"current_range_meters":38800,"station_id":"ce4bgup2rcd13ifvqcn0","pricing_plan_id":"cebpf4jnsgd1na2vs0mg"},{"bike_id":"816fb48d-2910-4e57-bdec-923f1a84e6bb","system_id":"levelo_inurba_marseille","lat":43.24667,"lon":5.38908,"is_reserved":false,"is_disabled":false,"rental_uris":{"android":"levelo://app?vid=816fb48d-2910-4e57-bdec-923f1a84e6bb","ios":"levelo://app?vid=816fb48d-2910-4e57-bdec-923f1a84e6bb"},"vehicle_type_id":"4","last_reported":1737558529,"current_range_meters":25600,"station_id":"ce4bhg12rcd13ifvqf60","pricing_plan_id":"cebpf4jnsgd1na2vs0mg"},{"bike_id":"cff1680f-636c-4c21-adec-aee2428512db","system_id":"levelo_inurba_marseille","lat":43.28613,"lon":5.37068,"is_reserved":false,"is_disabled":false,"rental_uris":{"android":"levelo://app?vid=cff1680f-636c-4c21-adec-aee2428512db","ios":"levelo://app?vid=cff1680f-636c-4c21-adec-aee2428512db"},"vehicle_type_id":"4","last_reported":1737558529,"current_range_meters":38000,"station_id":"ce4bht12rcd13ifvqi60","pricing_plan_id":"cebpf4jnsgd1na2vs0mg"},{"bike_id":"13ff516e-16cf-4543-8540-9030b8b296b4","system_id":"levelo_inurba_marseille","lat":43.23197,"lon":5.35545,"is_reserved":false,"is_disabled":false,"rental_uris":{"android":"levelo://app?vid=13ff516e-16cf-4543-8540-9030b8b296b4","ios":"levelo://app?vid=13ff516e-16cf-4543-8540-9030b8b296b4"},"vehicle_type_id":"4","last_reported":1737558529,"current_range_meters":33200,"station_id":"ce4bhu92rcd13ifvqi70","pricing_plan_id":"cebpf4jnsgd1na2vs0mg"},{"bike_id":"81f2072d-317e-4ceb-a4f5-594b967ebaaf","system_id":"levelo_inurba_marseille","lat":43.28434,"lon":5.37523,"is_reserved":false,"is_disabled":false,"rental_uris":{"android":"levelo://app?vid=81f2072d-317e-4ceb-a4f5-594b967ebaaf","ios":"levelo://app?vid=81f2072d-317e-4ceb-a4f5-594b967ebaaf"},"vehicle_type_id":"4","last_reported":1737558529,"current_range_meters":36000,"station_id":"ce4bh412rcd13ifvqds0","pricing_plan_id":"cebpf4jnsgd1na2vs0mg"},{"bike_id":"9984a19d-448e-4ed2-8c95-d1103fd0e167","system_id":"levelo_inurba_marseille","lat":43.31756,"lon":5.39006,"is_reserved":false,"is_disabled":false,"rental_uris":{"android":"levelo://app?vid=9984a19d-448e-4ed2-8c95-d1103fd0e167","ios":"levelo://app?vid=9984a19d-448e-4ed2-8c95-d1103fd0e167"},"vehicle_type_id":"4","last_reported":1737558529,"current_range_meters":38800,"station_id":"ce4bhqp2rcd13ifvqhng","pricing_plan_id":"cebpf4jnsgd1na2vs0mg"},{"bike_id":"dc9afc0d-d533-431b-a32f-6f6423d7880b","system_id":"levelo_inurba_marseille","lat":43.31726,"lon":5.42389,"is_reserved":false,"is_disabled":false,"rental_uris":{"android":"levelo://app?vid=dc9afc0d-d533-431b-a32f-6f6423d7880b","ios":"levelo://app?vid=dc9afc0d-d533-431b-a32f-6f6423d7880b"},"vehicle_type_id":"4","last_reported":1737558529,"current_range_meters":34800,"station_id":"ce4bhp92rcd13ifvqhbg","pricing_plan_id":"cebpf4jnsgd1na2vs0mg"},{"bike_id":"a7f3c160-c351-4b7c-85a7-03df9006e355","system_id":"levelo_inurba_marseille","lat":43.24169,"lon":5.3641,"is_reserved":false,"is_disabled":false,"rental_uris":{"android":"levelo://app?vid=a7f3c160-c351-4b7c-85a7-03df9006e355","ios":"levelo://app?vid=a7f3c160-c351-4b7c-85a7-03df9006e355"},"vehicle_type_id":"4","last_reported":1737558529,"current_range_meters":38800,"station_id":"cpo36qri1sfpv3e86is0","pricing_plan_id":"cebpf4jnsgd1na2vs0mg"},{"bike_id":"b1402210-527d-4c0c-945b-097215dbf794","system_id":"levelo_inurba_marseille","lat":43.29739,"lon":5.37679,"is_reserved":false,"is_disabled":false,"rental_uris":{"android":"levelo://app?vid=b1402210-527d-4c0c-945b-097215dbf794","ios":"levelo://app?vid=b1402210-527d-4c0c-945b-097215dbf794"},"vehicle_type_id":"4","last_reported":1737558529,"current_range_meters":37600,"station_id":"ce4bgkh2rcd13ifvqbl0","pricing_plan_id":"cebpf4jnsgd1na2vs0mg"},{"bike_id":"66f587b8-48e2-4c05-9d76-841b37cc2a79","system_id":"levelo_inurba_marseille","lat":43.33024,"lon":5.39049,"is_reserved":false,"is_disabled":false,"rental_uris":{"android":"levelo://app?vid=66f587b8-48e2-4c05-9d76-841b37cc2a79","ios":"levelo://app?vid=66f587b8-48e2-4c05-9d76-841b37cc2a79"},"vehicle_type_id":"4","last_reported":1737558529,"current_range_meters":38800,"station_id":"ce4bhr92rcd13ifvqhrg","pricing_plan_id":"cebpf4jnsgd1na2vs0mg"},{"bike_id":"4d9af5b4-ee36-40f8-bbc7-86fe7d035da6","system_id":"levelo_inurba_marseille","lat":43.2318,"lon":5.39991,"is_reserved":false,"is_disabled":false,"rental_uris":{"android":"levelo://app?vid=4d9af5b4-ee36-40f8-bbc7-86fe7d035da6","ios":"levelo://app?vid=4d9af5b4-ee36-40f8-bbc7-86fe7d035da6"},"vehicle_type_id":"4","last_reported":1737558529,"current_range_meters":20800,"station_id":"ce4bhn12rcd13ifvqgqg","pricing_plan_id":"cebpf4jnsgd1na2vs0mg"},{"bike_id":"48c7f86f-7751-4bac-8f1b-da80a3832ea9","system_id":"levelo_inurba_marseille","lat":43.30142,"lon":5.39875,"is_reserved":false,"is_disabled":false,"rental_uris":{"android":"levelo://app?vid=48c7f86f-7751-4bac-8f1b-da80a3832ea9","ios":"levelo://app?vid=48c7f86f-7751-4bac-8f1b-da80a3832ea9"},"vehicle_type_id":"4","last_reported":1737558529,"current_range_meters":16400,"station_id":"ce4bh0h2rcd13ifvqd40","pricing_plan_id":"cebpf4jnsgd1na2vs0mg"},{"bike_id":"2c41bf76-fc82-4efe-b7a3-989dd9b51b08","system_id":"levelo_inurba_marseille","lat":43.33732,"lon":5.39178,"is_reserved":false,"is_disabled":false,"rental_uris":{"android":"levelo://app?vid=2c41bf76-fc82-4efe-b7a3-989dd9b51b08","ios":"levelo://app?vid=2c41bf76-fc82-4efe-b7a3-989dd9b51b08"},"vehicle_type_id":"4","last_reported":1737558529,"current_range_meters":39200,"station_id":"ce4bhr92rcd13ifvqhsg","pricing_plan_id":"cebpf4jnsgd1na2vs0mg"},{"bike_id":"cd505ba2-d622-4fae-8506-9846633adab1","system_id":"levelo_inurba_marseille","lat":43.32358,"lon":5.36762,"is_reserved":false,"is_disabled":false,"rental_uris":{"android":"levelo://app?vid=cd505ba2-d622-4fae-8506-9846633adab1","ios":"levelo://app?vid=cd505ba2-d622-4fae-8506-9846633adab1"},"vehicle_type_id":"4","last_reported":1737558529,"current_range_meters":17600,"station_id":"ce4bhsh2rcd13ifvqi2g","pricing_plan_id":"cebpf4jnsgd1na2vs0mg"},{"bike_id":"bb3a4d64-44c2-4308-809d-a49952b6cb5e","system_id":"levelo_inurba_marseille","lat":43.29273,"lon":5.36853,"is_reserved":false,"is_disabled":false,"rental_uris":{"android":"levelo://app?vid=bb3a4d64-44c2-4308-809d-a49952b6cb5e","ios":"levelo://app?vid=bb3a4d64-44c2-4308-809d-a49952b6cb5e"},"vehicle_type_id":"4","last_reported":1737558529,"current_range_meters":12000,"station_id":"ce4bhbp2rcd13ifvqesg","pricing_plan_id":"cebpf4jnsgd1na2vs0mg"},{"bike_id":"0abf02e2-41cc-49b8-87bd-ffa2202a8883","system_id":"levelo_inurba_marseille","lat":43.30874,"lon":5.36873,"is_reserved":false,"is_disabled":false,"rental_uris":{"android":"levelo://app?vid=0abf02e2-41cc-49b8-87bd-ffa2202a8883","ios":"levelo://app?vid=0abf02e2-41cc-49b8-87bd-ffa2202a8883"},"vehicle_type_id":"4","last_reported":1737558529,"current_range_meters":36400,"station_id":"ce4bgn92rcd13ifvqbvg","pricing_plan_id":"cebpf4jnsgd1na2vs0mg"},{"bike_id":"28a3861b-e0de-454f-8a50-12803d628c43","system_id":"levelo_inurba_marseille","lat":43.31361,"lon":5.38499,"is_reserved":false,"is_disabled":false,"rental_uris":{"android":"levelo://app?vid=28a3861b-e0de-454f-8a50-12803d628c43","ios":"levelo://app?vid=28a3861b-e0de-454f-8a50-12803d628c43"},"vehicle_type_id":"4","last_reported":1737558529,"current_range_meters":36400,"station_id":"ce4bgt92rcd13ifvqcf0","pricing_plan_id":"cebpf4jnsgd1na2vs0mg"},{"bike_id":"23b4d82f-6045-4d97-adf5-3bc3d5274225","system_id":"levelo_inurba_marseille","lat":43.2801,"lon":5.40022,"is_reserved":false,"is_disabled":false,"rental_uris":{"android":"levelo://app?vid=23b4d82f-6045-4d97-adf5-3bc3d5274225","ios":"levelo://app?vid=23b4d82f-6045-4d97-adf5-3bc3d5274225"},"vehicle_type_id":"4","last_reported":1737558529,"current_range_meters":37600,"station_id":"ce4bho92rcd13ifvqh4g","pricing_plan_id":"cebpf4jnsgd1na2vs0mg"},{"bike_id":"d25bd425-6815-43e4-975a-24891a0a0ca0","system_id":"levelo_inurba_marseille","lat":43.30416,"lon":5.41283,"is_reserved":false,"is_disabled":true,"rental_uris":{"android":"levelo://app?vid=d25bd425-6815-43e4-975a-24891a0a0ca0","ios":"levelo://app?vid=d25bd425-6815-43e4-975a-24891a0a0ca0"},"vehicle_type_id":"4","last_reported":1737558529,"current_range_meters":400,"station_id":"ce4bhop2rcd13ifvqh8g","pricing_plan_id":"cebpf4jnsgd1na2vs0mg"},{"bike_id":"1fc174c7-67a6-45a8-a272-290faf925193","system_id":"levelo_inurba_marseille","lat":43.29619,"lon":5.3715,"is_reserved":false,"is_disabled":false,"rental_uris":{"android":"levelo://app?vid=1fc174c7-67a6-45a8-a272-290faf925193","ios":"levelo://app?vid=1fc174c7-67a6-45a8-a272-290faf925193"},"vehicle_type_id":"4","last_reported":1737558529,"current_range_meters":8800,"station_id":"ce4bgnh2rcd13ifvqc0g","pricing_plan_id":"cebpf4jnsgd1na2vs0mg"},{"bike_id":"9a2561dd-c3ae-43ed-b74a-e52cfb0a9d75","system_id":"levelo_inurba_marseille","lat":43.31084,"lon":5.42425,"is_reserved":false,"is_disabled":false,"rental_uris":{"android":"levelo://app?vid=9a2561dd-c3ae-43ed-b74a-e52cfb0a9d75","ios":"levelo://app?vid=9a2561dd-c3ae-43ed-b74a-e52cfb0a9d75"},"vehicle_type_id":"4","last_reported":1737558529,"current_range_meters":35600,"station_id":"ce4bhp92rcd13ifvqhag","pricing_plan_id":"cebpf4jnsgd1na2vs0mg"},{"bike_id":"6fcfbd13-8ead-42f2-9b8b-7049b25b5210","system_id":"levelo_inurba_marseille","lat":43.29583,"lon":5.36736,"is_reserved":false,"is_disabled":false,"rental_uris":{"android":"levelo://app?vid=6fcfbd13-8ead-42f2-9b8b-7049b25b5210","ios":"levelo://app?vid=6fcfbd13-8ead-42f2-9b8b-7049b25b5210"},"vehicle_type_id":"4","last_reported":1737558529,"current_range_meters":38000,"station_id":"ce4bgph2rcd13ifvqc2g","pricing_plan_id":"cebpf4jnsgd1na2vs0mg"},{"bike_id":"4d8cc416-8f5b-4cd2-86ba-0830c35a2055","system_id":"levelo_inurba_marseille","lat":43.24809,"lon":5.37448,"is_reserved":false,"is_disabled":false,"rental_uris":{"android":"levelo://app?vid=4d8cc416-8f5b-4cd2-86ba-0830c35a2055","ios":"levelo://app?vid=4d8cc416-8f5b-4cd2-86ba-0830c35a2055"},"vehicle_type_id":"4","last_reported":1737558529,"current_range_meters":17600,"station_id":"ce4bhgh2rcd13ifvqfb0","pricing_plan_id":"cebpf4jnsgd1na2vs0mg"},{"bike_id":"b8c90d4f-3f8a-4b55-b26b-474dd8938571","system_id":"levelo_inurba_marseille","lat":43.29533,"lon":5.37489,"is_reserved":false,"is_disabled":false,"rental_uris":{"android":"levelo://app?vid=b8c90d4f-3f8a-4b55-b26b-474dd8938571","ios":"levelo://app?vid=b8c90d4f-3f8a-4b55-b26b-474dd8938571"},"vehicle_type_id":"4","last_reported":1737558529,"current_range_meters":20800,"station_id":"ce4bgkp2rcd13ifvqbmg","pricing_plan_id":"cebpf4jnsgd1na2vs0mg"},{"bike_id":"4f929816-1215-4cb6-8a38-dc5d8ea77b2b","system_id":"levelo_inurba_marseille","lat":43.28936,"lon":5.36639,"is_reserved":false,"is_disabled":false,"rental_uris":{"android":"levelo://app?vid=4f929816-1215-4cb6-8a38-dc5d8ea77b2b","ios":"levelo://app?vid=4f929816-1215-4cb6-8a38-dc5d8ea77b2b"},"vehicle_type_id":"4","last_reported":1737558529,"current_range_meters":12000,"station_id":"ce4bhap2rcd13ifvqek0","pricing_plan_id":"cebpf4jnsgd1na2vs0mg"},{"bike_id":"adb26299-3e4f-4001-b2be-8fe3e3c1aef5","system_id":"levelo_inurba_marseille","lat":43.29222,"lon":5.36063,"is_reserved":false,"is_disabled":false,"rental_uris":{"android":"levelo://app?vid=adb26299-3e4f-4001-b2be-8fe3e3c1aef5","ios":"levelo://app?vid=adb26299-3e4f-4001-b2be-8fe3e3c1aef5"},"vehicle_type_id":"4","last_reported":1737558529,"current_range_meters":30800,"station_id":"ce4bhbh2rcd13ifvqeqg","pricing_plan_id":"cebpf4jnsgd1na2vs0mg"},{"bike_id":"d0c18880-14ec-4a21-83b7-d5b4457f5421","system_id":"levelo_inurba_marseille","lat":43.24653,"lon":5.38894,"is_reserved":false,"is_disabled":false,"rental_uris":{"android":"levelo://app?vid=d0c18880-14ec-4a21-83b7-d5b4457f5421","ios":"levelo://app?vid=d0c18880-14ec-4a21-83b7-d5b4457f5421"},"vehicle_type_id":"4","last_reported":1737558529,"current_range_meters":38000,"station_id":"ce4bhg12rcd13ifvqf60","pricing_plan_id":"cebpf4jnsgd1na2vs0mg"},{"bike_id":"d0f83ca8-9ae5-472a-a447-2229d84a32d1","system_id":"levelo_inurba_marseille","lat":43.32367,"lon":5.36744,"is_reserved":false,"is_disabled":false,"rental_uris":{"android":"levelo://app?vid=d0f83ca8-9ae5-472a-a447-2229d84a32d1","ios":"levelo://app?vid=d0f83ca8-9ae5-472a-a447-2229d84a32d1"},"vehicle_type_id":"4","last_reported":1737558529,"current_range_meters":28000,"station_id":"ce4bhsh2rcd13ifvqi2g","pricing_plan_id":"cebpf4jnsgd1na2vs0mg"},{"bike_id":"653b8cae-9adb-4985-b438-3765dee963ed","system_id":"levelo_inurba_marseille","lat":43.30156,"lon":5.38095,"is_reserved":false,"is_disabled":false,"rental_uris":{"android":"levelo://app?vid=653b8cae-9adb-4985-b438-3765dee963ed","ios":"levelo://app?vid=653b8cae-9adb-4985-b438-3765dee963ed"},"vehicle_type_id":"4","last_reported":1737558529,"current_range_meters":38400,"station_id":"ce4bgjp2rcd13ifvqbh0","pricing_plan_id":"cebpf4jnsgd1na2vs0mg"},{"bike_id":"6f824729-72f6-40e3-a22d-9f70ac2c6041","system_id":"levelo_inurba_marseille","lat":43.30528,"lon":5.36528,"is_reserved":false,"is_disabled":false,"rental_uris":{"android":"levelo://app?vid=6f824729-72f6-40e3-a22d-9f70ac2c6041","ios":"levelo://app?vid=6f824729-72f6-40e3-a22d-9f70ac2c6041"},"vehicle_type_id":"4","last_reported":1737558529,"current_range_meters":30400,"station_id":"ce4bgs12rcd13ifvqcag","pricing_plan_id":"cebpf4jnsgd1na2vs0mg"},{"bike_id":"f5b52696-dada-4db8-ac63-486420d431ea","system_id":"levelo_inurba_marseille","lat":43.24657,"lon":5.38891,"is_reserved":false,"is_disabled":false,"rental_uris":{"android":"levelo://app?vid=f5b52696-dada-4db8-ac63-486420d431ea","ios":"levelo://app?vid=f5b52696-dada-4db8-ac63-486420d431ea"},"vehicle_type_id":"4","last_reported":1737558529,"current_range_meters":38800,"station_id":"ce4bhg12rcd13ifvqf60","pricing_plan_id":"cebpf4jnsgd1na2vs0mg"},{"bike_id":"2cd3f28e-c4d5-46de-98f6-83e21f455f8f","system_id":"levelo_inurba_marseille","lat":43.29981,"lon":5.37165,"is_reserved":false,"is_disabled":false,"rental_uris":{"android":"levelo://app?vid=2cd3f28e-c4d5-46de-98f6-83e21f455f8f","ios":"levelo://app?vid=2cd3f28e-c4d5-46de-98f6-83e21f455f8f"},"vehicle_type_id":"4","last_reported":1737558529,"current_range_meters":28400,"station_id":"ce4bgr92rcd13ifvqc7g","pricing_plan_id":"cebpf4jnsgd1na2vs0mg"},{"bike_id":"67406dea-6b4a-4664-a7b5-eb12a6267ed8","system_id":"levelo_inurba_marseille","lat":43.32286,"lon":5.38268,"is_reserved":false,"is_disabled":false,"rental_uris":{"android":"levelo://app?vid=67406dea-6b4a-4664-a7b5-eb12a6267ed8","ios":"levelo://app?vid=67406dea-6b4a-4664-a7b5-eb12a6267ed8"},"vehicle_type_id":"4","last_reported":1737558529,"current_range_meters":24400,"station_id":"ce4bhr12rcd13ifvqhqg","pricing_plan_id":"cebpf4jnsgd1na2vs0mg"},{"bike_id":"f6af6aef-3841-40a7-9b6f-9e2ad2b736bf","system_id":"levelo_inurba_marseille","lat":43.29,"lon":5.35611,"is_reserved":false,"is_disabled":false,"rental_uris":{"android":"levelo://app?vid=f6af6aef-3841-40a7-9b6f-9e2ad2b736bf","ios":"levelo://app?vid=f6af6aef-3841-40a7-9b6f-9e2ad2b736bf"},"vehicle_type_id":"4","last_reported":1737558529,"current_range_meters":38800,"station_id":"ce4bhb92rcd13ifvqen0","pricing_plan_id":"cebpf4jnsgd1na2vs0mg"},{"bike_id":"3c0b504e-b419-450a-b009-0fc6540ef8fd","system_id":"levelo_inurba_marseille","lat":43.28468,"lon":5.35888,"is_reserved":false,"is_disabled":false,"rental_uris":{"android":"levelo://app?vid=3c0b504e-b419-450a-b009-0fc6540ef8fd","ios":"levelo://app?vid=3c0b504e-b419-450a-b009-0fc6540ef8fd"},"vehicle_type_id":"4","last_reported":1737558529,"current_range_meters":28000,"station_id":"ce4bhah2rcd13ifvqei0","pricing_plan_id":"cebpf4jnsgd1na2vs0mg"},{"bike_id":"7b9618e5-f073-41a0-b410-007d3084e088","system_id":"levelo_inurba_marseille","lat":43.30922,"lon":5.40132,"is_reserved":false,"is_disabled":false,"rental_uris":{"android":"levelo://app?vid=7b9618e5-f073-41a0-b410-007d3084e088","ios":"levelo://app?vid=7b9618e5-f073-41a0-b410-007d3084e088"},"vehicle_type_id":"4","last_reported":1737558529,"current_range_meters":36800,"station_id":"ce4bgvp2rcd13ifvqct0","pricing_plan_id":"cebpf4jnsgd1na2vs0mg"},{"bike_id":"8e8cf9d4-3de4-483c-8c04-15f30888aa7e","system_id":"levelo_inurba_marseille","lat":43.28456,"lon":5.35905,"is_reserved":false,"is_disabled":false,"rental_uris":{"android":"levelo://app?vid=8e8cf9d4-3de4-483c-8c04-15f30888aa7e","ios":"levelo://app?vid=8e8cf9d4-3de4-483c-8c04-15f30888aa7e"},"vehicle_type_id":"4","last_reported":1737558529,"current_range_meters":38800,"station_id":"ce4bhah2rcd13ifvqei0","pricing_plan_id":"cebpf4jnsgd1na2vs0mg"},{"bike_id":"9d897738-a396-404a-8b40-b317117a1268","system_id":"levelo_inurba_marseille","lat":43.28155,"lon":5.42639,"is_reserved":false,"is_disabled":false,"rental_uris":{"android":"levelo://app?vid=9d897738-a396-404a-8b40-b317117a1268","ios":"levelo://app?vid=9d897738-a396-404a-8b40-b317117a1268"},"vehicle_type_id":"4","last_reported":1737558529,"current_range_meters":38800,"station_id":"ce4bhnh2rcd13ifvqgug","pricing_plan_id":"cebpf4jnsgd1na2vs0mg"},{"bike_id":"61e5dd4a-7a03-4a39-ae3c-ee4450edfb42","system_id":"levelo_inurba_marseille","lat":43.29581,"lon":5.36744,"is_reserved":false,"is_disabled":false,"rental_uris":{"android":"levelo://app?vid=61e5dd4a-7a03-4a39-ae3c-ee4450edfb42","ios":"levelo://app?vid=61e5dd4a-7a03-4a39-ae3c-ee4450edfb42"},"vehicle_type_id":"4","last_reported":1737558529,"current_range_meters":25600,"station_id":"ce4bgph2rcd13ifvqc2g","pricing_plan_id":"cebpf4jnsgd1na2vs0mg"},{"bike_id":"28b6fa66-f2d8-4869-8ab1-6ea947dfe4ba","system_id":"levelo_inurba_marseille","lat":43.32366,"lon":5.38879,"is_reserved":false,"is_disabled":false,"rental_uris":{"android":"levelo://app?vid=28b6fa66-f2d8-4869-8ab1-6ea947dfe4ba","ios":"levelo://app?vid=28b6fa66-f2d8-4869-8ab1-6ea947dfe4ba"},"vehicle_type_id":"4","last_reported":1737558529,"current_range_meters":16800,"station_id":"ce4bhqp2rcd13ifvqhog","pricing_plan_id":"cebpf4jnsgd1na2vs0mg"},{"bike_id":"1cacc39b-8464-4517-8719-a5b46245be93","system_id":"levelo_inurba_marseille","lat":43.31093,"lon":5.42417,"is_reserved":false,"is_disabled":false,"rental_uris":{"android":"levelo://app?vid=1cacc39b-8464-4517-8719-a5b46245be93","ios":"levelo://app?vid=1cacc39b-8464-4517-8719-a5b46245be93"},"vehicle_type_id":"4","last_reported":1737558529,"current_range_meters":38800,"station_id":"ce4bhp92rcd13ifvqhag","pricing_plan_id":"cebpf4jnsgd1na2vs0mg"},{"bike_id":"cc8dd4d9-c41b-4e62-8f16-686e77afe1cc","system_id":"levelo_inurba_marseille","lat":43.278274,"lon":5.407174,"is_reserved":false,"is_disabled":false,"rental_uris":{"android":"levelo://app?vid=cc8dd4d9-c41b-4e62-8f16-686e77afe1cc","ios":"levelo://app?vid=cc8dd4d9-c41b-4e62-8f16-686e77afe1cc"},"vehicle_type_id":"4","last_reported":1737558529,"current_range_meters":39200,"station_id":"ce4bhnh2rcd13ifvqgtg","pricing_plan_id":"cebpf4jnsgd1na2vs0mg"},{"bike_id":"2094d673-56a1-4b76-a92d-894a34210788","system_id":"levelo_inurba_marseille","lat":43.29215,"lon":5.36045,"is_reserved":false,"is_disabled":false,"rental_uris":{"android":"levelo://app?vid=2094d673-56a1-4b76-a92d-894a34210788","ios":"levelo://app?vid=2094d673-56a1-4b76-a92d-894a34210788"},"vehicle_type_id":"4","last_reported":1737558529,"current_range_meters":20800,"station_id":"ce4bhbh2rcd13ifvqeqg","pricing_plan_id":"cebpf4jnsgd1na2vs0mg"},{"bike_id":"713b4e02-a459-45c2-8b7f-670ded946bdb","system_id":"levelo_inurba_marseille","lat":43.29619,"lon":5.37156,"is_reserved":false,"is_disabled":false,"rental_uris":{"android":"levelo://app?vid=713b4e02-a459-45c2-8b7f-670ded946bdb","ios":"levelo://app?vid=713b4e02-a459-45c2-8b7f-670ded946bdb"},"vehicle_type_id":"4","last_reported":1737558529,"current_range_meters":39200,"station_id":"ce4bgnh2rcd13ifvqc0g","pricing_plan_id":"cebpf4jnsgd1na2vs0mg"},{"bike_id":"cf975d2d-812a-43d4-a592-21891331e4f1","system_id":"levelo_inurba_marseille","lat":43.27178,"lon":5.40981,"is_reserved":false,"is_disabled":false,"rental_uris":{"android":"levelo://app?vid=cf975d2d-812a-43d4-a592-21891331e4f1","ios":"levelo://app?vid=cf975d2d-812a-43d4-a592-21891331e4f1"},"vehicle_type_id":"4","last_reported":1737558529,"current_range_meters":39200,"station_id":"ce4bhl12rcd13ifvqgf0","pricing_plan_id":"cebpf4jnsgd1na2vs0mg"},{"bike_id":"38a62f0f-5642-4b4d-ab65-8ce22514d290","system_id":"levelo_inurba_marseille","lat":43.24633,"lon":5.38917,"is_reserved":false,"is_disabled":false,"rental_uris":{"android":"levelo://app?vid=38a62f0f-5642-4b4d-ab65-8ce22514d290","ios":"levelo://app?vid=38a62f0f-5642-4b4d-ab65-8ce22514d290"},"vehicle_type_id":"4","last_reported":1737558529,"current_range_meters":38800,"station_id":"ce4bhg12rcd13ifvqf60","pricing_plan_id":"cebpf4jnsgd1na2vs0mg"},{"bike_id":"1e308d8c-3add-412f-bc54-093a5a9da309","system_id":"levelo_inurba_marseille","lat":43.27074,"lon":5.40251,"is_reserved":false,"is_disabled":false,"rental_uris":{"android":"levelo://app?vid=1e308d8c-3add-412f-bc54-093a5a9da309","ios":"levelo://app?vid=1e308d8c-3add-412f-bc54-093a5a9da309"},"vehicle_type_id":"4","last_reported":1737558529,"current_range_meters":6400,"station_id":"ce4bhk92rcd13ifvqgc0","pricing_plan_id":"cebpf4jnsgd1na2vs0mg"},{"bike_id":"ee9589a5-7a2d-41fe-8310-171561265f06","system_id":"levelo_inurba_marseille","lat":43.29034,"lon":5.38645,"is_reserved":false,"is_disabled":false,"rental_uris":{"android":"levelo://app?vid=ee9589a5-7a2d-41fe-8310-171561265f06","ios":"levelo://app?vid=ee9589a5-7a2d-41fe-8310-171561265f06"},"vehicle_type_id":"4","last_reported":1737558529,"current_range_meters":4400,"station_id":"ce4bh4p2rcd13ifvqe0g","pricing_plan_id":"cebpf4jnsgd1na2vs0mg"},{"bike_id":"746ee55c-b390-4265-9db0-51005abdb3fd","system_id":"levelo_inurba_marseille","lat":43.25923,"lon":5.40863,"is_reserved":false,"is_disabled":false,"rental_uris":{"android":"levelo://app?vid=746ee55c-b390-4265-9db0-51005abdb3fd","ios":"levelo://app?vid=746ee55c-b390-4265-9db0-51005abdb3fd"},"vehicle_type_id":"4","last_reported":1737558529,"current_range_meters":35600,"station_id":"ce4bhm92rcd13ifvqglg","pricing_plan_id":"cebpf4jnsgd1na2vs0mg"},{"bike_id":"1f7c87db-d399-4f13-923d-8a98a4f000e9","system_id":"levelo_inurba_marseille","lat":43.23975,"lon":5.36636,"is_reserved":false,"is_disabled":false,"rental_uris":{"android":"levelo://app?vid=1f7c87db-d399-4f13-923d-8a98a4f000e9","ios":"levelo://app?vid=1f7c87db-d399-4f13-923d-8a98a4f000e9"},"vehicle_type_id":"4","last_reported":1737558529,"current_range_meters":8800,"station_id":"ce4bhi12rcd13ifvqfp0","pricing_plan_id":"cebpf4jnsgd1na2vs0mg"},{"bike_id":"ec92db79-89db-4942-818d-4745cec120ea","system_id":"levelo_inurba_marseille","lat":43.28711,"lon":5.3609,"is_reserved":false,"is_disabled":false,"rental_uris":{"android":"levelo://app?vid=ec92db79-89db-4942-818d-4745cec120ea","ios":"levelo://app?vid=ec92db79-89db-4942-818d-4745cec120ea"},"vehicle_type_id":"4","last_reported":1737558529,"current_range_meters":25200,"station_id":"cki0cbj6b192h4jlfktg","pricing_plan_id":"cebpf4jnsgd1na2vs0mg"},{"bike_id":"cb7322b4-1ac1-4114-8157-c83aeac75b76","system_id":"levelo_inurba_marseille","lat":43.32118,"lon":5.36787,"is_reserved":false,"is_disabled":false,"rental_uris":{"android":"levelo://app?vid=cb7322b4-1ac1-4114-8157-c83aeac75b76","ios":"levelo://app?vid=cb7322b4-1ac1-4114-8157-c83aeac75b76"},"vehicle_type_id":"4","last_reported":1737558529,"current_range_meters":21600,"station_id":"ce4bhrh2rcd13ifvqhug","pricing_plan_id":"cebpf4jnsgd1na2vs0mg"},{"bike_id":"ac5e9094-6e01-4a43-8ee7-189da8fe965a","system_id":"levelo_inurba_marseille","lat":43.3266,"lon":5.4098,"is_reserved":false,"is_disabled":false,"rental_uris":{"android":"levelo://app?vid=ac5e9094-6e01-4a43-8ee7-189da8fe965a","ios":"levelo://app?vid=ac5e9094-6e01-4a43-8ee7-189da8fe965a"},"vehicle_type_id":"4","last_reported":1737558529,"current_range_meters":6400,"station_id":"ce4bhpp2rcd13ifvqhgg","pricing_plan_id":"cebpf4jnsgd1na2vs0mg"},{"bike_id":"2c115182-c42c-491c-9297-b7a7447bfbd5","system_id":"levelo_inurba_marseille","lat":43.29227,"lon":5.36062,"is_reserved":false,"is_disabled":false,"rental_uris":{"android":"levelo://app?vid=2c115182-c42c-491c-9297-b7a7447bfbd5","ios":"levelo://app?vid=2c115182-c42c-491c-9297-b7a7447bfbd5"},"vehicle_type_id":"4","last_reported":1737558529,"current_range_meters":34000,"station_id":"ce4bhbh2rcd13ifvqeqg","pricing_plan_id":"cebpf4jnsgd1na2vs0mg"},{"bike_id":"58d4fe39-be91-4520-9307-1adcc3a01557","system_id":"levelo_inurba_marseille","lat":43.2783,"lon":5.39211,"is_reserved":false,"is_disabled":false,"rental_uris":{"android":"levelo://app?vid=58d4fe39-be91-4520-9307-1adcc3a01557","ios":"levelo://app?vid=58d4fe39-be91-4520-9307-1adcc3a01557"},"vehicle_type_id":"4","last_reported":1737558529,"current_range_meters":25600,"station_id":"ce4bhjp2rcd13ifvqga0","pricing_plan_id":"cebpf4jnsgd1na2vs0mg"},