{"last_updated":1781492611,"ttl":60,"version":"2.2","data":{"bikes":[{"bike_id":"ec12d144-24c8-4071-abf6-197e520eae96","system_id":"levelo_inurba_marseille","lat":43.337444,"lon":5.374475,"is_reserved":false,"is_disabled":false,"rental_uris":{"android":"levelo://app?vid=ec12d144-24c8-4071-abf6-197e520eae96","ios":"levelo://app?vid=ec12d144-24c8-4071-abf6-197e520eae96"},"vehicle_type_id":"4","last_reported":1781492612,"current_range_meters":0,"station_id":"","pricing_plan_id":"cebpf4jnsgd1na2vs0mg"},{"bike_id":"7ab101d2-fd7e-47cf-982d-f85b01b5cea8","system_id":"levelo_inurba_marseille","lat":43.29016,"lon":5.36971,"is_reserved":false,"is_disabled":false,"rental_uris":{"android":"levelo://app?vid=7ab101d2-fd7e-47cf-982d-f85b01b5cea8","ios":"levelo://app?vid=7ab101d2-fd7e-47cf-982d-f85b01b5cea8"},"vehicle_type_id":"4","last_reported":1781492612,"current_range_meters":2800,"station_id":"","pricing_plan_id":"cebpf4jnsgd1na2vs0mg"},{"bike_id":"1a1ad63b-bf2d-4119-8f23-2b8341ecdf2b","system_id":"levelo_inurba_marseille","lat":43.31761,"lon":5.39009,"is_reserved":false,"is_disabled":false,"rental_uris":{"android":"levelo://app?vid=1a1ad63b-bf2d-4119-8f23-2b8341ecdf2b","ios":"levelo://app?vid=1a1ad63b-bf2d-4119-8f23-2b8341ecdf2b"},"vehicle_type_id":"4","last_reported":1781492612,"current_range_meters":2800,"station_id":"ce4bhqp2rcd13ifvqhng","pricing_plan_id":"cebpf4jnsgd1na2vs0mg"},{"bike_id":"d51ce86a-5b38-4b76-8e51-2a3373a4f2df","system_id":"levelo_inurba_marseille","lat":43.32052,"lon":5.36829,"is_reserved":false,"is_disabled":false,"rental_uris":{"android":"levelo://app?vid=d51ce86a-5b38-4b76-8e51-2a3373a4f2df","ios":"levelo://app?vid=d51ce86a-5b38-4b76-8e51-2a3373a4f2df"},"vehicle_type_id":"4","last_reported":1781492612,"current_range_meters":2800,"station_id":"","pricing_plan_id":"cebpf4jnsgd1na2vs0mg"},{"bike_id":"7bb9d837-8621-443d-b257-e306cb33cfa1","system_id":"levelo_inurba_marseille","lat":43.28668,"lon":5.37079,"is_reserved":false,"is_disabled":false,"rental_uris":{"android":"levelo://app?vid=7bb9d837-8621-443d-b257-e306cb33cfa1","ios":"levelo://app?vid=7bb9d837-8621-443d-b257-e306cb33cfa1"},"vehicle_type_id":"4","last_reported":1781492612,"current_range_meters":2800,"station_id":"","pricing_plan_id":"cebpf4jnsgd1na2vs0mg"},{"bike_id":"f57ddc5d-b3ad-43f3-bbc4-226ea7be866d","system_id":"levelo_inurba_marseille","lat":43.29854,"lon":5.4228,"is_reserved":false,"is_disabled":false,"rental_uris":{"android":"levelo://app?vid=f57ddc5d-b3ad-43f3-bbc4-226ea7be866d","ios":"levelo://app?vid=f57ddc5d-b3ad-43f3-bbc4-226ea7be866d"},"vehicle_type_id":"4","last_reported":1781492612,"current_range_meters":2800,"station_id":"","pricing_plan_id":"cebpf4jnsgd1na2vs0mg"},{"bike_id":"b00d8bd0-800e-45a7-ac0f-43138ef8f6fe","system_id":"levelo_inurba_marseille","lat":43.26794,"lon":5.39424,"is_reserved":false,"is_disabled":true,"rental_uris":{"android":"levelo://app?vid=b00d8bd0-800e-45a7-ac0f-43138ef8f6fe","ios":"levelo://app?vid=b00d8bd0-800e-45a7-ac0f-43138ef8f6fe"},"vehicle_type_id":"4","last_reported":1781492612,"current_range_meters":2800,"station_id":"ce4bhh12rcd13ifvqfg0","pricing_plan_id":"cebpf4jnsgd1na2vs0mg"},{"bike_id":"3f683387-f7ec-4b9f-9801-ff63896077b4","system_id":"levelo_inurba_marseille","lat":43.23919,"lon":5.36551,"is_reserved":false,"is_disabled":false,"rental_uris":{"android":"levelo://app?vid=3f683387-f7ec-4b9f-9801-ff63896077b4","ios":"levelo://app?vid=3f683387-f7ec-4b9f-9801-ff63896077b4"},"vehicle_type_id":"4","last_reported":1781492612,"current_range_meters":2800,"station_id":"","pricing_plan_id":"cebpf4jnsgd1na2vs0mg"},{"bike_id":"c7d65bc6-ba50-46db-890a-c53cacfe834d","system_id":"levelo_inurba_marseille","lat":43.29573,"lon":5.37725,"is_reserved":false,"is_disabled":false,"rental_uris":{"android":"levelo://app?vid=c7d65bc6-ba50-46db-890a-c53cacfe834d","ios":"levelo://app?vid=c7d65bc6-ba50-46db-890a-c53cacfe834d"},"vehicle_type_id":"4","last_reported":1781492612,"current_range_meters":2800,"station_id":"ce4bgi92rcd13ifvqb90","pricing_plan_id":"cebpf4jnsgd1na2vs0mg"},{"bike_id":"fec79bc6-11e1-43bd-89cb-65c9424ca8ca","system_id":"levelo_inurba_marseille","lat":43.31095,"lon":5.37769,"is_reserved":false,"is_disabled":false,"rental_uris":{"android":"levelo://app?vid=fec79bc6-11e1-43bd-89cb-65c9424ca8ca","ios":"levelo://app?vid=fec79bc6-11e1-43bd-89cb-65c9424ca8ca"},"vehicle_type_id":"4","last_reported":1781492612,"current_range_meters":2800,"station_id":"ce4bgt92rcd13ifvqcg0","pricing_plan_id":"cebpf4jnsgd1na2vs0mg"},{"bike_id":"7d3e68da-9502-42b3-989d-2ed32cc1c4e2","system_id":"levelo_inurba_marseille","lat":43.28345,"lon":5.38111,"is_reserved":false,"is_disabled":false,"rental_uris":{"android":"levelo://app?vid=7d3e68da-9502-42b3-989d-2ed32cc1c4e2","ios":"levelo://app?vid=7d3e68da-9502-42b3-989d-2ed32cc1c4e2"},"vehicle_type_id":"4","last_reported":1781492612,"current_range_meters":2800,"station_id":"ce4bh412rcd13ifvqdr0","pricing_plan_id":"cebpf4jnsgd1na2vs0mg"},{"bike_id":"3e191f2a-5a67-435f-87f8-984833f0c082","system_id":"levelo_inurba_marseille","lat":43.29447,"lon":5.39745,"is_reserved":false,"is_disabled":false,"rental_uris":{"android":"levelo://app?vid=3e191f2a-5a67-435f-87f8-984833f0c082","ios":"levelo://app?vid=3e191f2a-5a67-435f-87f8-984833f0c082"},"vehicle_type_id":"4","last_reported":1781492612,"current_range_meters":3200,"station_id":"ce4bh3h2rcd13ifvqdo0","pricing_plan_id":"cebpf4jnsgd1na2vs0mg"},{"bike_id":"a8118cf4-45dc-417e-9802-6deb8c918454","system_id":"levelo_inurba_marseille","lat":43.28022,"lon":5.36961,"is_reserved":false,"is_disabled":false,"rental_uris":{"android":"levelo://app?vid=a8118cf4-45dc-417e-9802-6deb8c918454","ios":"levelo://app?vid=a8118cf4-45dc-417e-9802-6deb8c918454"},"vehicle_type_id":"4","last_reported":1781492612,"current_range_meters":3200,"station_id":"ce4bha12rcd13ifvqef0","pricing_plan_id":"cebpf4jnsgd1na2vs0mg"},{"bike_id":"c2bfcf75-197f-4d0d-8b20-256d9aaad722","system_id":"levelo_inurba_marseille","lat":43.32113,"lon":5.36769,"is_reserved":false,"is_disabled":false,"rental_uris":{"android":"levelo://app?vid=c2bfcf75-197f-4d0d-8b20-256d9aaad722","ios":"levelo://app?vid=c2bfcf75-197f-4d0d-8b20-256d9aaad722"},"vehicle_type_id":"4","last_reported":1781492612,"current_range_meters":3200,"station_id":"ce4bhrh2rcd13ifvqhug","pricing_plan_id":"cebpf4jnsgd1na2vs0mg"},{"bike_id":"948e7dcf-c12b-4293-8ebe-ef6b71975867","system_id":"levelo_inurba_marseille","lat":43.24178,"lon":5.36398,"is_reserved":false,"is_disabled":true,"rental_uris":{"android":"levelo://app?vid=948e7dcf-c12b-4293-8ebe-ef6b71975867","ios":"levelo://app?vid=948e7dcf-c12b-4293-8ebe-ef6b71975867"},"vehicle_type_id":"4","last_reported":1781492612,"current_range_meters":3200,"station_id":"cpo36qri1sfpv3e86is0","pricing_plan_id":"cebpf4jnsgd1na2vs0mg"},{"bike_id":"ff183300-e381-4623-b20d-53a94b47ae87","system_id":"levelo_inurba_marseille","lat":43.32591,"lon":5.36521,"is_reserved":false,"is_disabled":false,"rental_uris":{"android":"levelo://app?vid=ff183300-e381-4623-b20d-53a94b47ae87","ios":"levelo://app?vid=ff183300-e381-4623-b20d-53a94b47ae87"},"vehicle_type_id":"4","last_reported":1781492612,"current_range_meters":3200,"station_id":"","pricing_plan_id":"cebpf4jnsgd1na2vs0mg"},{"bike_id":"d7b45157-9464-47e8-aeae-9f8dd6bf2c9c","system_id":"levelo_inurba_marseille","lat":43.30787,"lon":5.39224,"is_reserved":false,"is_disabled":false,"rental_uris":{"android":"levelo://app?vid=d7b45157-9464-47e8-aeae-9f8dd6bf2c9c","ios":"levelo://app?vid=d7b45157-9464-47e8-aeae-9f8dd6bf2c9c"},"vehicle_type_id":"4","last_reported":1781492612,"current_range_meters":3200,"station_id":"","pricing_plan_id":"cebpf4jnsgd1na2vs0mg"},{"bike_id":"11d443e6-9963-4610-80cb-0bed5c7b2bf6","system_id":"levelo_inurba_marseille","lat":43.31503,"lon":5.37307,"is_reserved":false,"is_disabled":false,"rental_uris":{"android":"levelo://app?vid=11d443e6-9963-4610-80cb-0bed5c7b2bf6","ios":"levelo://app?vid=11d443e6-9963-4610-80cb-0bed5c7b2bf6"},"vehicle_type_id":"4","last_reported":1781492612,"current_range_meters":3200,"station_id":"ce4bgt12rcd13ifvqcd0","pricing_plan_id":"cebpf4jnsgd1na2vs0mg"},{"bike_id":"7e4e4ff1-1823-463b-aa9f-ea7ce2e84c76","system_id":"levelo_inurba_marseille","lat":43.2253,"lon":5.34835,"is_reserved":false,"is_disabled":false,"rental_uris":{"android":"levelo://app?vid=7e4e4ff1-1823-463b-aa9f-ea7ce2e84c76","ios":"levelo://app?vid=7e4e4ff1-1823-463b-aa9f-ea7ce2e84c76"},"vehicle_type_id":"4","last_reported":1781492612,"current_range_meters":3200,"station_id":"st_cvj5dfep6f1abm77gieg","pricing_plan_id":"cebpf4jnsgd1na2vs0mg"},{"bike_id":"e53e5e7e-79b9-4f39-a0c9-9162fc1b1da1","system_id":"levelo_inurba_marseille","lat":43.29887,"lon":5.38143,"is_reserved":false,"is_disabled":false,"rental_uris":{"android":"levelo://app?vid=e53e5e7e-79b9-4f39-a0c9-9162fc1b1da1","ios":"levelo://app?vid=e53e5e7e-79b9-4f39-a0c9-9162fc1b1da1"},"vehicle_type_id":"4","last_reported":1781492612,"current_range_meters":3600,"station_id":"ce4bgj12rcd13ifvqbc0","pricing_plan_id":"cebpf4jnsgd1na2vs0mg"},{"bike_id":"207d34b6-3a83-4d90-938a-80aab0b6e29f","system_id":"levelo_inurba_marseille","lat":43.250042,"lon":5.389242,"is_reserved":false,"is_disabled":false,"rental_uris":{"android":"levelo://app?vid=207d34b6-3a83-4d90-938a-80aab0b6e29f","ios":"levelo://app?vid=207d34b6-3a83-4d90-938a-80aab0b6e29f"},"vehicle_type_id":"4","last_reported":1781492612,"current_range_meters":3600,"station_id":"ce4bhgp2rcd13ifvqfd0","pricing_plan_id":"cebpf4jnsgd1na2vs0mg"},{"bike_id":"a47f7ec5-339e-411f-a9f3-d5a489312e95","system_id":"levelo_inurba_marseille","lat":43.28057,"lon":5.3508,"is_reserved":false,"is_disabled":false,"rental_uris":{"android":"levelo://app?vid=a47f7ec5-339e-411f-a9f3-d5a489312e95","ios":"levelo://app?vid=a47f7ec5-339e-411f-a9f3-d5a489312e95"},"vehicle_type_id":"4","last_reported":1781492612,"current_range_meters":3600,"station_id":"","pricing_plan_id":"cebpf4jnsgd1na2vs0mg"},{"bike_id":"f2ba73c5-fc69-4601-a3f3-cbbbb5b9b11d","system_id":"levelo_inurba_marseille","lat":43.28345,"lon":5.38811,"is_reserved":false,"is_disabled":false,"rental_uris":{"android":"levelo://app?vid=f2ba73c5-fc69-4601-a3f3-cbbbb5b9b11d","ios":"levelo://app?vid=f2ba73c5-fc69-4601-a3f3-cbbbb5b9b11d"},"vehicle_type_id":"4","last_reported":1781492612,"current_range_meters":3600,"station_id":"","pricing_plan_id":"cebpf4jnsgd1na2vs0mg"},{"bike_id":"1aa69796-4597-4e19-90ef-464fe6857eba","system_id":"levelo_inurba_marseille","lat":43.29471,"lon":5.44523,"is_reserved":false,"is_disabled":false,"rental_uris":{"android":"levelo://app?vid=1aa69796-4597-4e19-90ef-464fe6857eba","ios":"levelo://app?vid=1aa69796-4597-4e19-90ef-464fe6857eba"},"vehicle_type_id":"4","last_reported":1781492612,"current_range_meters":3600,"station_id":"","pricing_plan_id":"cebpf4jnsgd1na2vs0mg"},{"bike_id":"1b5c7b8e-75a6-4e5b-a896-3aa61ed24deb","system_id":"levelo_inurba_marseille","lat":43.29488,"lon":5.39391,"is_reserved":false,"is_disabled":true,"rental_uris":{"android":"levelo://app?vid=1b5c7b8e-75a6-4e5b-a896-3aa61ed24deb","ios":"levelo://app?vid=1b5c7b8e-75a6-4e5b-a896-3aa61ed24deb"},"vehicle_type_id":"4","last_reported":1781492612,"current_range_meters":3600,"station_id":"ce4bh292rcd13ifvqdf0","pricing_plan_id":"cebpf4jnsgd1na2vs0mg"},{"bike_id":"e951097c-25bc-4ef7-97e6-1783eeefa1c0","system_id":"levelo_inurba_marseille","lat":43.33666,"lon":5.41935,"is_reserved":false,"is_disabled":false,"rental_uris":{"android":"levelo://app?vid=e951097c-25bc-4ef7-97e6-1783eeefa1c0","ios":"levelo://app?vid=e951097c-25bc-4ef7-97e6-1783eeefa1c0"},"vehicle_type_id":"4","last_reported":1781492612,"current_range_meters":3600,"station_id":"","pricing_plan_id":"cebpf4jnsgd1na2vs0mg"},{"bike_id":"67b5d997-f3d7-4ed9-aa45-e579b87e467a","system_id":"levelo_inurba_marseille","lat":43.33763,"lon":5.37419,"is_reserved":false,"is_disabled":false,"rental_uris":{"android":"levelo://app?vid=67b5d997-f3d7-4ed9-aa45-e579b87e467a","ios":"levelo://app?vid=67b5d997-f3d7-4ed9-aa45-e579b87e467a"},"vehicle_type_id":"4","last_reported":1781492612,"current_range_meters":3600,"station_id":"","pricing_plan_id":"cebpf4jnsgd1na2vs0mg"},{"bike_id":"61704817-1327-4008-824f-2bfba68820ec","system_id":"levelo_inurba_marseille","lat":43.23903,"lon":5.37464,"is_reserved":false,"is_disabled":false,"rental_uris":{"android":"levelo://app?vid=61704817-1327-4008-824f-2bfba68820ec","ios":"levelo://app?vid=61704817-1327-4008-824f-2bfba68820ec"},"vehicle_type_id":"4","last_reported":1781492612,"current_range_meters":3600,"station_id":"st_d6sm7csbq4hs73f8fpjg","pricing_plan_id":"cebpf4jnsgd1na2vs0mg"},{"bike_id":"9d5e43bc-0bf1-41b6-b34f-7bce4be45a87","system_id":"levelo_inurba_marseille","lat":43.27547,"lon":5.38435,"is_reserved":false,"is_disabled":false,"rental_uris":{"android":"levelo://app?vid=9d5e43bc-0bf1-41b6-b34f-7bce4be45a87","ios":"levelo://app?vid=9d5e43bc-0bf1-41b6-b34f-7bce4be45a87"},"vehicle_type_id":"4","last_reported":1781492612,"current_range_meters":3600,"station_id":"ce4bhh92rcd13ifvqfi0","pricing_plan_id":"cebpf4jnsgd1na2vs0mg"},{"bike_id":"644c35c5-da8b-45e4-8189-1a84ff37770e","system_id":"levelo_inurba_marseille","lat":43.26965,"lon":5.38668,"is_reserved":false,"is_disabled":true,"rental_uris":{"android":"levelo://app?vid=644c35c5-da8b-45e4-8189-1a84ff37770e","ios":"levelo://app?vid=644c35c5-da8b-45e4-8189-1a84ff37770e"},"vehicle_type_id":"4","last_reported":1781492612,"current_range_meters":3600,"station_id":"ce4bhh92rcd13ifvqfh0","pricing_plan_id":"cebpf4jnsgd1na2vs0mg"},{"bike_id":"4ac6d39a-8ab6-4b2d-80a5-3f0a26d9b5f6","system_id":"levelo_inurba_marseille","lat":43.24673,"lon":5.38162,"is_reserved":false,"is_disabled":false,"rental_uris":{"android":"levelo://app?vid=4ac6d39a-8ab6-4b2d-80a5-3f0a26d9b5f6","ios":"levelo://app?vid=4ac6d39a-8ab6-4b2d-80a5-3f0a26d9b5f6"},"vehicle_type_id":"4","last_reported":1781492612,"current_range_meters":3600,"station_id":"ce4bhih2rcd13ifvqfr0","pricing_plan_id":"cebpf4jnsgd1na2vs0mg"},{"bike_id":"2f5a2eb1-a60a-4fe8-a5aa-002259731410","system_id":"levelo_inurba_marseille","lat":43.3105,"lon":5.37192,"is_reserved":false,"is_disabled":true,"rental_uris":{"android":"levelo://app?vid=2f5a2eb1-a60a-4fe8-a5aa-002259731410","ios":"levelo://app?vid=2f5a2eb1-a60a-4fe8-a5aa-002259731410"},"vehicle_type_id":"4","last_reported":1781492612,"current_range_meters":3600,"station_id":"st_d4kl2rp97mjs73e7tdfg","pricing_plan_id":"cebpf4jnsgd1na2vs0mg"},{"bike_id":"85ff7ea8-5fb7-4bf1-8a5b-dee5e4773c13","system_id":"levelo_inurba_marseille","lat":43.31932,"lon":5.3945,"is_reserved":false,"is_disabled":false,"rental_uris":{"android":"levelo://app?vid=85ff7ea8-5fb7-4bf1-8a5b-dee5e4773c13","ios":"levelo://app?vid=85ff7ea8-5fb7-4bf1-8a5b-dee5e4773c13"},"vehicle_type_id":"4","last_reported":1781492612,"current_range_meters":3600,"station_id":"","pricing_plan_id":"cebpf4jnsgd1na2vs0mg"},{"bike_id":"52a0fe31-def0-4ed6-b002-3c708fe57ae8","system_id":"levelo_inurba_marseille","lat":43.30651,"lon":5.4008,"is_reserved":false,"is_disabled":false,"rental_uris":{"android":"levelo://app?vid=52a0fe31-def0-4ed6-b002-3c708fe57ae8","ios":"levelo://app?vid=52a0fe31-def0-4ed6-b002-3c708fe57ae8"},"vehicle_type_id":"4","last_reported":1781492612,"current_range_meters":3600,"station_id":"ce4bh112rcd13ifvqda0","pricing_plan_id":"cebpf4jnsgd1na2vs0mg"},{"bike_id":"628dfe28-699f-46b4-a571-f8adcc6b181e","system_id":"levelo_inurba_marseille","lat":43.29836,"lon":5.40565,"is_reserved":false,"is_disabled":false,"rental_uris":{"android":"levelo://app?vid=628dfe28-699f-46b4-a571-f8adcc6b181e","ios":"levelo://app?vid=628dfe28-699f-46b4-a571-f8adcc6b181e"},"vehicle_type_id":"4","last_reported":1781492612,"current_range_meters":3600,"station_id":"","pricing_plan_id":"cebpf4jnsgd1na2vs0mg"},{"bike_id":"8c35e00d-f145-4990-9075-f1452b27a592","system_id":"levelo_inurba_marseille","lat":43.21224,"lon":5.35047,"is_reserved":false,"is_disabled":false,"rental_uris":{"android":"levelo://app?vid=8c35e00d-f145-4990-9075-f1452b27a592","ios":"levelo://app?vid=8c35e00d-f145-4990-9075-f1452b27a592"},"vehicle_type_id":"4","last_reported":1781492612,"current_range_meters":4000,"station_id":"","pricing_plan_id":"cebpf4jnsgd1na2vs0mg"},{"bike_id":"18d3753c-9feb-4a72-9030-d19f09b8a97b","system_id":"levelo_inurba_marseille","lat":43.29843,"lon":5.37889,"is_reserved":false,"is_disabled":false,"rental_uris":{"android":"levelo://app?vid=18d3753c-9feb-4a72-9030-d19f09b8a97b","ios":"levelo://app?vid=18d3753c-9feb-4a72-9030-d19f09b8a97b"},"vehicle_type_id":"4","last_reported":1781492612,"current_range_meters":4000,"station_id":"","pricing_plan_id":"cebpf4jnsgd1na2vs0mg"},{"bike_id":"754494c3-997d-4030-a1b8-6e28b99a92ba","system_id":"levelo_inurba_marseille","lat":43.2309,"lon":5.43778,"is_reserved":false,"is_disabled":false,"rental_uris":{"android":"levelo://app?vid=754494c3-997d-4030-a1b8-6e28b99a92ba","ios":"levelo://app?vid=754494c3-997d-4030-a1b8-6e28b99a92ba"},"vehicle_type_id":"4","last_reported":1781492612,"current_range_meters":4000,"station_id":"ce4bhmp2rcd13ifvqgog","pricing_plan_id":"cebpf4jnsgd1na2vs0mg"},{"bike_id":"2efefc03-4edd-4e9c-8c65-243cf8199fbd","system_id":"levelo_inurba_marseille","lat":43.24458,"lon":5.42527,"is_reserved":false,"is_disabled":false,"rental_uris":{"android":"levelo://app?vid=2efefc03-4edd-4e9c-8c65-243cf8199fbd","ios":"levelo://app?vid=2efefc03-4edd-4e9c-8c65-243cf8199fbd"},"vehicle_type_id":"4","last_reported":1781492612,"current_range_meters":4000,"station_id":"st_d4a3vfp97mjs738cd8kg","pricing_plan_id":"cebpf4jnsgd1na2vs0mg"},{"bike_id":"333f976b-8b94-4e77-8fe8-133d43f32e35","system_id":"levelo_inurba_marseille","lat":43.29058,"lon":5.39202,"is_reserved":false,"is_disabled":false,"rental_uris":{"android":"levelo://app?vid=333f976b-8b94-4e77-8fe8-133d43f32e35","ios":"levelo://app?vid=333f976b-8b94-4e77-8fe8-133d43f32e35"},"vehicle_type_id":"4","last_reported":1781492612,"current_range_meters":4000,"station_id":"","pricing_plan_id":"cebpf4jnsgd1na2vs0mg"},{"bike_id":"d449936d-d988-4e53-8487-c06ead895141","system_id":"levelo_inurba_marseille","lat":43.29217,"lon":5.39324,"is_reserved":false,"is_disabled":false,"rental_uris":{"android":"levelo://app?vid=d449936d-d988-4e53-8487-c06ead895141","ios":"levelo://app?vid=d449936d-d988-4e53-8487-c06ead895141"},"vehicle_type_id":"4","last_reported":1781492612,"current_range_meters":4000,"station_id":"ce4bh192rcd13ifvqdd0","pricing_plan_id":"cebpf4jnsgd1na2vs0mg"},{"bike_id":"f61863b0-f767-44a6-8d35-21d2d9984309","system_id":"levelo_inurba_marseille","lat":43.28946,"lon":5.38845,"is_reserved":false,"is_disabled":false,"rental_uris":{"android":"levelo://app?vid=f61863b0-f767-44a6-8d35-21d2d9984309","ios":"levelo://app?vid=f61863b0-f767-44a6-8d35-21d2d9984309"},"vehicle_type_id":"4","last_reported":1781492612,"current_range_meters":4000,"station_id":"","pricing_plan_id":"cebpf4jnsgd1na2vs0mg"},{"bike_id":"f9d4d4c9-515a-4814-b837-f6e088dcafcb","system_id":"levelo_inurba_marseille","lat":43.33544,"lon":5.37464,"is_reserved":false,"is_disabled":false,"rental_uris":{"android":"levelo://app?vid=f9d4d4c9-515a-4814-b837-f6e088dcafcb","ios":"levelo://app?vid=f9d4d4c9-515a-4814-b837-f6e088dcafcb"},"vehicle_type_id":"4","last_reported":1781492612,"current_range_meters":4000,"station_id":"st_d46tts09ee8s73dlu43g","pricing_plan_id":"cebpf4jnsgd1na2vs0mg"},{"bike_id":"fcbdd51f-fa24-4cc6-b92f-f3288e2d1c12","system_id":"levelo_inurba_marseille","lat":43.28692,"lon":5.4668,"is_reserved":false,"is_disabled":false,"rental_uris":{"android":"levelo://app?vid=fcbdd51f-fa24-4cc6-b92f-f3288e2d1c12","ios":"levelo://app?vid=fcbdd51f-fa24-4cc6-b92f-f3288e2d1c12"},"vehicle_type_id":"4","last_reported":1781492612,"current_range_meters":4000,"station_id":"st_d6tc3vkotcvc738tfjhg","pricing_plan_id":"cebpf4jnsgd1na2vs0mg"},{"bike_id":"e85982d6-08c0-416c-b260-60a05253d689","system_id":"levelo_inurba_marseille","lat":43.3016,"lon":5.39125,"is_reserved":false,"is_disabled":false,"rental_uris":{"android":"levelo://app?vid=e85982d6-08c0-416c-b260-60a05253d689","ios":"levelo://app?vid=e85982d6-08c0-416c-b260-60a05253d689"},"vehicle_type_id":"4","last_reported":1781492612,"current_range_meters":4000,"station_id":"","pricing_plan_id":"cebpf4jnsgd1na2vs0mg"},{"bike_id":"9dd4f3a8-39d5-43f7-9f51-1797629b3584","system_id":"levelo_inurba_marseille","lat":43.22525,"lon":5.3484,"is_reserved":false,"is_disabled":false,"rental_uris":{"android":"levelo://app?vid=9dd4f3a8-39d5-43f7-9f51-1797629b3584","ios":"levelo://app?vid=9dd4f3a8-39d5-43f7-9f51-1797629b3584"},"vehicle_type_id":"4","last_reported":1781492612,"current_range_meters":4000,"station_id":"st_cvj5dfep6f1abm77gieg","pricing_plan_id":"cebpf4jnsgd1na2vs0mg"},{"bike_id":"7272f913-724d-4b58-b6a6-688b3e04b242","system_id":"levelo_inurba_marseille","lat":43.24711,"lon":5.41252,"is_reserved":false,"is_disabled":false,"rental_uris":{"android":"levelo://app?vid=7272f913-724d-4b58-b6a6-688b3e04b242","ios":"levelo://app?vid=7272f913-724d-4b58-b6a6-688b3e04b242"},"vehicle_type_id":"4","last_reported":1781492612,"current_range_meters":4000,"station_id":"","pricing_plan_id":"cebpf4jnsgd1na2vs0mg"},{"bike_id":"96b2ab90-d8d2-49df-9035-0467b0e6c086","system_id":"levelo_inurba_marseille","lat":43.29813,"lon":5.44074,"is_reserved":false,"is_disabled":false,"rental_uris":{"android":"levelo://app?vid=96b2ab90-d8d2-49df-9035-0467b0e6c086","ios":"levelo://app?vid=96b2ab90-d8d2-49df-9035-0467b0e6c086"},"vehicle_type_id":"4","last_reported":1781492612,"current_range_meters":4000,"station_id":"st_d3jp68qikq2c7381ktn0","pricing_plan_id":"cebpf4jnsgd1na2vs0mg"},{"bike_id":"2ee4cf04-ab65-4c70-b0b1-eddb2827dfdb","system_id":"levelo_inurba_marseille","lat":43.29856,"lon":5.38914,"is_reserved":false,"is_disabled":false,"rental_uris":{"android":"levelo://app?vid=2ee4cf04-ab65-4c70-b0b1-eddb2827dfdb","ios":"levelo://app?vid=2ee4cf04-ab65-4c70-b0b1-eddb2827dfdb"},"vehicle_type_id":"4","last_reported":1781492612,"current_range_meters":4000,"station_id":"ce4bh392rcd13ifvqdl0","pricing_plan_id":"cebpf4jnsgd1na2vs0mg"},{"bike_id":"0b3de9c1-5e8e-456d-a768-a4c1aa5a44f6","system_id":"levelo_inurba_marseille","lat":43.28469,"lon":5.38601,"is_reserved":false,"is_disabled":false,"rental_uris":{"android":"levelo://app?vid=0b3de9c1-5e8e-456d-a768-a4c1aa5a44f6","ios":"levelo://app?vid=0b3de9c1-5e8e-456d-a768-a4c1aa5a44f6"},"vehicle_type_id":"4","last_reported":1781492612,"current_range_meters":4000,"station_id":"ce4bh8p2rcd13ifvqeb0","pricing_plan_id":"cebpf4jnsgd1na2vs0mg"},{"bike_id":"d729573f-a86b-41d2-bc51-bd23c133868d","system_id":"levelo_inurba_marseille","lat":43.31514,"lon":5.38416,"is_reserved":false,"is_disabled":false,"rental_uris":{"android":"levelo://app?vid=d729573f-a86b-41d2-bc51-bd23c133868d","ios":"levelo://app?vid=d729573f-a86b-41d2-bc51-bd23c133868d"},"vehicle_type_id":"4","last_reported":1781492612,"current_range_meters":4000,"station_id":"","pricing_plan_id":"cebpf4jnsgd1na2vs0mg"},{"bike_id":"9104c3e6-6f18-4483-a672-0cbd74724a94","system_id":"levelo_inurba_marseille","lat":43.30783,"lon":5.37657,"is_reserved":false,"is_disabled":false,"rental_uris":{"android":"levelo://app?vid=9104c3e6-6f18-4483-a672-0cbd74724a94","ios":"levelo://app?vid=9104c3e6-6f18-4483-a672-0cbd74724a94"},"vehicle_type_id":"4","last_reported":1781492612,"current_range_meters":4400,"station_id":"ce4bgv92rcd13ifvqcq0","pricing_plan_id":"cebpf4jnsgd1na2vs0mg"},{"bike_id":"54e482a5-c534-4992-ad75-060a9850516b","system_id":"levelo_inurba_marseille","lat":43.32356,"lon":5.36724,"is_reserved":false,"is_disabled":false,"rental_uris":{"android":"levelo://app?vid=54e482a5-c534-4992-ad75-060a9850516b","ios":"levelo://app?vid=54e482a5-c534-4992-ad75-060a9850516b"},"vehicle_type_id":"4","last_reported":1781492612,"current_range_meters":4400,"station_id":"ce4bhsh2rcd13ifvqi2g","pricing_plan_id":"cebpf4jnsgd1na2vs0mg"},{"bike_id":"3a1af08e-c49c-4467-acd3-3cffaca7f0b0","system_id":"levelo_inurba_marseille","lat":43.30418,"lon":5.38895,"is_reserved":false,"is_disabled":false,"rental_uris":{"android":"levelo://app?vid=3a1af08e-c49c-4467-acd3-3cffaca7f0b0","ios":"levelo://app?vid=3a1af08e-c49c-4467-acd3-3cffaca7f0b0"},"vehicle_type_id":"4","last_reported":1781492612,"current_range_meters":4400,"station_id":"ce4bgk12rcd13ifvqbi0","pricing_plan_id":"cebpf4jnsgd1na2vs0mg"},{"bike_id":"4d8df8ec-f6c0-4c39-8cac-00a49ce6968d","system_id":"levelo_inurba_marseille","lat":43.29054,"lon":5.37165,"is_reserved":false,"is_disabled":true,"rental_uris":{"android":"levelo://app?vid=4d8df8ec-f6c0-4c39-8cac-00a49ce6968d","ios":"levelo://app?vid=4d8df8ec-f6c0-4c39-8cac-00a49ce6968d"},"vehicle_type_id":"4","last_reported":1781492612,"current_range_meters":4400,"station_id":"ce4bh5p2rcd13ifvqe4g","pricing_plan_id":"cebpf4jnsgd1na2vs0mg"},{"bike_id":"8fea25ca-fb48-4384-9778-a8089f84f9ac","system_id":"levelo_inurba_marseille","lat":43.29649,"lon":5.38027,"is_reserved":false,"is_disabled":false,"rental_uris":{"android":"levelo://app?vid=8fea25ca-fb48-4384-9778-a8089f84f9ac","ios":"levelo://app?vid=8fea25ca-fb48-4384-9778-a8089f84f9ac"},"vehicle_type_id":"4","last_reported":1781492612,"current_range_meters":4400,"station_id":"","pricing_plan_id":"cebpf4jnsgd1na2vs0mg"},{"bike_id":"d1800741-fac1-4624-b995-5a057797ea03","system_id":"levelo_inurba_marseille","lat":43.27214,"lon":5.42377,"is_reserved":false,"is_disabled":false,"rental_uris":{"android":"levelo://app?vid=d1800741-fac1-4624-b995-5a057797ea03","ios":"levelo://app?vid=d1800741-fac1-4624-b995-5a057797ea03"},"vehicle_type_id":"4","last_reported":1781492612,"current_range_meters":4400,"station_id":"","pricing_plan_id":"cebpf4jnsgd1na2vs0mg"},{"bike_id":"4b609346-acc2-44ea-9585-63329a0c2f32","system_id":"levelo_inurba_marseille","lat":43.287,"lon":5.46687,"is_reserved":false,"is_disabled":false,"rental_uris":{"android":"levelo://app?vid=4b609346-acc2-44ea-9585-63329a0c2f32","ios":"levelo://app?vid=4b609346-acc2-44ea-9585-63329a0c2f32"},"vehicle_type_id":"4","last_reported":1781492612,"current_range_meters":4400,"station_id":"st_d6tc3vkotcvc738tfjhg","pricing_plan_id":"cebpf4jnsgd1na2vs0mg"},{"bike_id":"72a68596-e19c-4a52-ba10-9bdae69e8aa7","system_id":"levelo_inurba_marseille","lat":43.26477,"lon":5.39561,"is_reserved":false,"is_disabled":true,"rental_uris":{"android":"levelo://app?vid=72a68596-e19c-4a52-ba10-9bdae69e8aa7","ios":"levelo://app?vid=72a68596-e19c-4a52-ba10-9bdae69e8aa7"},"vehicle_type_id":"4","last_reported":1781492612,"current_range_meters":4400,"station_id":"ce4bhi12rcd13ifvqfq0","pricing_plan_id":"cebpf4jnsgd1na2vs0mg"},{"bike_id":"627fb325-c02f-4f68-a9bf-4c9a19ec12b3","system_id":"levelo_inurba_marseille","lat":43.30118,"lon":5.39859,"is_reserved":false,"is_disabled":false,"rental_uris":{"android":"levelo://app?vid=627fb325-c02f-4f68-a9bf-4c9a19ec12b3","ios":"levelo://app?vid=627fb325-c02f-4f68-a9bf-4c9a19ec12b3"},"vehicle_type_id":"4","last_reported":1781492612,"current_range_meters":4400,"station_id":"ce4bh0h2rcd13ifvqd40","pricing_plan_id":"cebpf4jnsgd1na2vs0mg"},{"bike_id":"31a5c23d-40d4-417f-98b3-4241d25cf95b","system_id":"levelo_inurba_marseille","lat":43.33329,"lon":5.39293,"is_reserved":false,"is_disabled":false,"rental_uris":{"android":"levelo://app?vid=31a5c23d-40d4-417f-98b3-4241d25cf95b","ios":"levelo://app?vid=31a5c23d-40d4-417f-98b3-4241d25cf95b"},"vehicle_type_id":"4","last_reported":1781492612,"current_range_meters":4400,"station_id":"","pricing_plan_id":"cebpf4jnsgd1na2vs0mg"},{"bike_id":"e2298d1e-9f46-40e5-8442-06c6300e3b87","system_id":"levelo_inurba_marseille","lat":43.24597,"lon":5.39717,"is_reserved":false,"is_disabled":false,"rental_uris":{"android":"levelo://app?vid=e2298d1e-9f46-40e5-8442-06c6300e3b87","ios":"levelo://app?vid=e2298d1e-9f46-40e5-8442-06c6300e3b87"},"vehicle_type_id":"4","last_reported":1781492612,"current_range_meters":4400,"station_id":"","pricing_plan_id":"cebpf4jnsgd1na2vs0mg"},{"bike_id":"ce059822-03c1-4578-b9e3-bb0b69a47db9","system_id":"levelo_inurba_marseille","lat":43.25008,"lon":5.38916,"is_reserved":false,"is_disabled":false,"rental_uris":{"android":"levelo://app?vid=ce059822-03c1-4578-b9e3-bb0b69a47db9","ios":"levelo://app?vid=ce059822-03c1-4578-b9e3-bb0b69a47db9"},"vehicle_type_id":"4","last_reported":1781492612,"current_range_meters":4400,"station_id":"ce4bhgp2rcd13ifvqfd0","pricing_plan_id":"cebpf4jnsgd1na2vs0mg"},{"bike_id":"6b06b27e-58e8-4bac-b9fb-8ea422e47f54","system_id":"levelo_inurba_marseille","lat":43.30936,"lon":5.4013,"is_reserved":false,"is_disabled":false,"rental_uris":{"android":"levelo://app?vid=6b06b27e-58e8-4bac-b9fb-8ea422e47f54","ios":"levelo://app?vid=6b06b27e-58e8-4bac-b9fb-8ea422e47f54"},"vehicle_type_id":"4","last_reported":1781492612,"current_range_meters":4400,"station_id":"ce4bgvp2rcd13ifvqct0","pricing_plan_id":"cebpf4jnsgd1na2vs0mg"},{"bike_id":"24116e07-5929-4a08-b067-5f9237282074","system_id":"levelo_inurba_marseille","lat":43.29052,"lon":5.38662,"is_reserved":false,"is_disabled":false,"rental_uris":{"android":"levelo://app?vid=24116e07-5929-4a08-b067-5f9237282074","ios":"levelo://app?vid=24116e07-5929-4a08-b067-5f9237282074"},"vehicle_type_id":"4","last_reported":1781492612,"current_range_meters":4400,"station_id":"ce4bh4p2rcd13ifvqe0g","pricing_plan_id":"cebpf4jnsgd1na2vs0mg"},{"bike_id":"652fe3f3-b5e9-4ebc-a5a8-9acc8ff1e933","system_id":"levelo_inurba_marseille","lat":43.29128,"lon":5.38142,"is_reserved":false,"is_disabled":false,"rental_uris":{"android":"levelo://app?vid=652fe3f3-b5e9-4ebc-a5a8-9acc8ff1e933","ios":"levelo://app?vid=652fe3f3-b5e9-4ebc-a5a8-9acc8ff1e933"},"vehicle_type_id":"4","last_reported":1781492612,"current_range_meters":4400,"station_id":"ce4bh512rcd13ifvqe2g","pricing_plan_id":"cebpf4jnsgd1na2vs0mg"},{"bike_id":"29e46491-71df-440e-be7d-bc2523094027","system_id":"levelo_inurba_marseille","lat":43.2887,"lon":5.42529,"is_reserved":false,"is_disabled":false,"rental_uris":{"android":"levelo://app?vid=29e46491-71df-440e-be7d-bc2523094027","ios":"levelo://app?vid=29e46491-71df-440e-be7d-bc2523094027"},"vehicle_type_id":"4","last_reported":1781492612,"current_range_meters":4800,"station_id":"st_d3b462108ojc7389ooeg","pricing_plan_id":"cebpf4jnsgd1na2vs0mg"},{"bike_id":"4c78b6b3-2f8d-4f10-973f-a50992bad914","system_id":"levelo_inurba_marseille","lat":43.21227,"lon":5.35066,"is_reserved":false,"is_disabled":false,"rental_uris":{"android":"levelo://app?vid=4c78b6b3-2f8d-4f10-973f-a50992bad914","ios":"levelo://app?vid=4c78b6b3-2f8d-4f10-973f-a50992bad914"},"vehicle_type_id":"4","last_reported":1781492612,"current_range_meters":4800,"station_id":"","pricing_plan_id":"cebpf4jnsgd1na2vs0mg"},{"bike_id":"b15d8199-c3e8-454b-b79c-dceebaa5b442","system_id":"levelo_inurba_marseille","lat":43.25871,"lon":5.39905,"is_reserved":false,"is_disabled":false,"rental_uris":{"android":"levelo://app?vid=b15d8199-c3e8-454b-b79c-dceebaa5b442","ios":"levelo://app?vid=b15d8199-c3e8-454b-b79c-dceebaa5b442"},"vehicle_type_id":"4","last_reported":1781492612,"current_range_meters":4800,"station_id":"ce4bhl92rcd13ifvqghg","pricing_plan_id":"cebpf4jnsgd1na2vs0mg"},{"bike_id":"093d49c3-8e26-4175-84a0-de088e1e9274","system_id":"levelo_inurba_marseille","lat":43.22923,"lon":5.35373,"is_reserved":false,"is_disabled":false,"rental_uris":{"android":"levelo://app?vid=093d49c3-8e26-4175-84a0-de088e1e9274","ios":"levelo://app?vid=093d49c3-8e26-4175-84a0-de088e1e9274"},"vehicle_type_id":"4","last_reported":1781492612,"current_range_meters":4800,"station_id":"cpo3532slgdg3j2ikp40","pricing_plan_id":"cebpf4jnsgd1na2vs0mg"},{"bike_id":"42476eeb-04fa-4154-aab6-1b271148ab5e","system_id":"levelo_inurba_marseille","lat":43.29782,"lon":5.39356,"is_reserved":false,"is_disabled":false,"rental_uris":{"android":"levelo://app?vid=42476eeb-04fa-4154-aab6-1b271148ab5e","ios":"levelo://app?vid=42476eeb-04fa-4154-aab6-1b271148ab5e"},"vehicle_type_id":"4","last_reported":1781492612,"current_range_meters":4800,"station_id":"chh1huq6cuj3fo74tm60","pricing_plan_id":"cebpf4jnsgd1na2vs0mg"},{"bike_id":"49924376-8cc8-44b4-9eca-5c4ff4c899c1","system_id":"levelo_inurba_marseille","lat":43.26565,"lon":5.37301,"is_reserved":false,"is_disabled":false,"rental_uris":{"android":"levelo://app?vid=49924376-8cc8-44b4-9eca-5c4ff4c899c1","ios":"levelo://app?vid=49924376-8cc8-44b4-9eca-5c4ff4c899c1"},"vehicle_type_id":"4","last_reported":1781492612,"current_range_meters":4800,"station_id":"ce4bhg12rcd13ifvqf70","pricing_plan_id":"cebpf4jnsgd1na2vs0mg"},{"bike_id":"aff014c2-15fa-45d6-bb80-ee15e1a06979","system_id":"levelo_inurba_marseille","lat":43.23785,"lon":5.36641,"is_reserved":false,"is_disabled":false,"rental_uris":{"android":"levelo://app?vid=aff014c2-15fa-45d6-bb80-ee15e1a06979","ios":"levelo://app?vid=aff014c2-15fa-45d6-bb80-ee15e1a06979"},"vehicle_type_id":"4","last_reported":1781492612,"current_range_meters":4800,"station_id":"st_d3nk18o9ro0c73en2l3g","pricing_plan_id":"cebpf4jnsgd1na2vs0mg"},{"bike_id":"c800199a-5474-40e1-bb50-c25e031e8be6","system_id":"levelo_inurba_marseille","lat":43.2119,"lon":5.35067,"is_reserved":false,"is_disabled":false,"rental_uris":{"android":"levelo://app?vid=c800199a-5474-40e1-bb50-c25e031e8be6","ios":"levelo://app?vid=c800199a-5474-40e1-bb50-c25e031e8be6"},"vehicle_type_id":"4","last_reported":1781492612,"current_range_meters":4800,"station_id":"st_cvj6sg6p6f1abm77japg","pricing_plan_id":"cebpf4jnsgd1na2vs0mg"},{"bike_id":"54410e0e-88fe-44cb-9cd3-c20ab067986a","system_id":"levelo_inurba_marseille","lat":43.2823,"lon":5.34811,"is_reserved":false,"is_disabled":false,"rental_uris":{"android":"levelo://app?vid=54410e0e-88fe-44cb-9cd3-c20ab067986a","ios":"levelo://app?vid=54410e0e-88fe-44cb-9cd3-c20ab067986a"},"vehicle_type_id":"4","last_reported":1781492612,"current_range_meters":4800,"station_id":"","pricing_plan_id":"cebpf4jnsgd1na2vs0mg"},{"bike_id":"c0a9a0f2-ad84-4cc1-9889-f017a2e0692a","system_id":"levelo_inurba_marseille","lat":43.2918,"lon":5.39319,"is_reserved":false,"is_disabled":false,"rental_uris":{"android":"levelo://app?vid=c0a9a0f2-ad84-4cc1-9889-f017a2e0692a","ios":"levelo://app?vid=c0a9a0f2-ad84-4cc1-9889-f017a2e0692a"},"vehicle_type_id":"4","last_reported":1781492612,"current_range_meters":4800,"station_id":"ce4bh192rcd13ifvqdd0","pricing_plan_id":"cebpf4jnsgd1na2vs0mg"},{"bike_id":"64d1def8-2a5b-48eb-8ec4-f02e72a31395","system_id":"levelo_inurba_marseille","lat":43.28706,"lon":5.46686,"is_reserved":false,"is_disabled":false,"rental_uris":{"android":"levelo://app?vid=64d1def8-2a5b-48eb-8ec4-f02e72a31395","ios":"levelo://app?vid=64d1def8-2a5b-48eb-8ec4-f02e72a31395"},"vehicle_type_id":"4","last_reported":1781492612,"current_range_meters":4800,"station_id":"st_d6tc3vkotcvc738tfjhg","pricing_plan_id":"cebpf4jnsgd1na2vs0mg"},{"bike_id":"e6eda01b-4746-4a1b-b8bd-bc2e29bf1778","system_id":"levelo_inurba_marseille","lat":43.28479,"lon":5.48405,"is_reserved":false,"is_disabled":false,"rental_uris":{"android":"levelo://app?vid=e6eda01b-4746-4a1b-b8bd-bc2e29bf1778","ios":"levelo://app?vid=e6eda01b-4746-4a1b-b8bd-bc2e29bf1778"},"vehicle_type_id":"4","last_reported":1781492612,"current_range_meters":4800,"station_id":"st_d3svhcjqgbts73a3dn0g","pricing_plan_id":"cebpf4jnsgd1na2vs0mg"},{"bike_id":"56b376d5-9b28-4e92-ac45-b76b482244af","system_id":"levelo_inurba_marseille","lat":43.31877,"lon":5.36824,"is_reserved":false,"is_disabled":false,"rental_uris":{"android":"levelo://app?vid=56b376d5-9b28-4e92-ac45-b76b482244af","ios":"levelo://app?vid=56b376d5-9b28-4e92-ac45-b76b482244af"},"vehicle_type_id":"4","last_reported":1781492612,"current_range_meters":4800,"station_id":"st_d6o2h0d0559c73evc1b0","pricing_plan_id":"cebpf4jnsgd1na2vs0mg"},{"bike_id":"eb0c1c7f-47b8-4a10-8001-0064309e6c74","system_id":"levelo_inurba_marseille","lat":43.22535,"lon":5.34828,"is_reserved":false,"is_disabled":false,"rental_uris":{"android":"levelo://app?vid=eb0c1c7f-47b8-4a10-8001-0064309e6c74","ios":"levelo://app?vid=eb0c1c7f-47b8-4a10-8001-0064309e6c74"},"vehicle_type_id":"4","last_reported":1781492612,"current_range_meters":4800,"station_id":"st_cvj5dfep6f1abm77gieg","pricing_plan_id":"cebpf4jnsgd1na2vs0mg"},{"bike_id":"c01f6dec-89dd-472c-9d53-44f20e2f469d","system_id":"levelo_inurba_marseille","lat":43.28049,"lon":5.34823,"is_reserved":false,"is_disabled":false,"rental_uris":{"android":"levelo://app?vid=c01f6dec-89dd-472c-9d53-44f20e2f469d","ios":"levelo://app?vid=c01f6dec-89dd-472c-9d53-44f20e2f469d"},"vehicle_type_id":"4","last_reported":1781492612,"current_range_meters":4800,"station_id":"","pricing_plan_id":"cebpf4jnsgd1na2vs0mg"},{"bike_id":"ba29fa99-130d-4c77-8e6b-a3805c9e68c3","system_id":"levelo_inurba_marseille","lat":43.2255,"lon":5.41622,"is_reserved":false,"is_disabled":false,"rental_uris":{"android":"levelo://app?vid=ba29fa99-130d-4c77-8e6b-a3805c9e68c3","ios":"levelo://app?vid=ba29fa99-130d-4c77-8e6b-a3805c9e68c3"},"vehicle_type_id":"4","last_reported":1781492612,"current_range_meters":4800,"station_id":"st_d2o4gvlbi1j2169b742g","pricing_plan_id":"cebpf4jnsgd1na2vs0mg"},{"bike_id":"58df25d0-bd57-4415-b2e9-39adcdff72a1","system_id":"levelo_inurba_marseille","lat":43.29174,"lon":5.37141,"is_reserved":false,"is_disabled":true,"rental_uris":{"android":"levelo://app?vid=58df25d0-bd57-4415-b2e9-39adcdff72a1","ios":"levelo://app?vid=58df25d0-bd57-4415-b2e9-39adcdff72a1"},"vehicle_type_id":"4","last_reported":1781492612,"current_range_meters":4800,"station_id":"ce4bha92rcd13ifvqeh0","pricing_plan_id":"cebpf4jnsgd1na2vs0mg"},{"bike_id":"0a1696b3-e918-41d6-9f8f-45a2e8651268","system_id":"levelo_inurba_marseille","lat":43.3023,"lon":5.39455,"is_reserved":false,"is_disabled":false,"rental_uris":{"android":"levelo://app?vid=0a1696b3-e918-41d6-9f8f-45a2e8651268","ios":"levelo://app?vid=0a1696b3-e918-41d6-9f8f-45a2e8651268"},"vehicle_type_id":"4","last_reported":1781492612,"current_range_meters":4800,"station_id":"ce4bh0p2rcd13ifvqd70","pricing_plan_id":"cebpf4jnsgd1na2vs0mg"},{"bike_id":"081783e8-5da7-4fbf-b9b1-3d05ef7e49ce","system_id":"levelo_inurba_marseille","lat":43.28914,"lon":5.36648,"is_reserved":false,"is_disabled":true,"rental_uris":{"android":"levelo://app?vid=081783e8-5da7-4fbf-b9b1-3d05ef7e49ce","ios":"levelo://app?vid=081783e8-5da7-4fbf-b9b1-3d05ef7e49ce"},"vehicle_type_id":"4","last_reported":1781492612,"current_range_meters":4800,"station_id":"ce4bhap2rcd13ifvqek0","pricing_plan_id":"cebpf4jnsgd1na2vs0mg"},{"bike_id":"1cc1e854-a64b-4eaa-bd00-1c309caff36d","system_id":"levelo_inurba_marseille","lat":43.28627,"lon":5.35094,"is_reserved":false,"is_disabled":true,"rental_uris":{"android":"levelo://app?vid=1cc1e854-a64b-4eaa-bd00-1c309caff36d","ios":"levelo://app?vid=1cc1e854-a64b-4eaa-bd00-1c309caff36d"},"vehicle_type_id":"4","last_reported":1781492612,"current_range_meters":4800,"station_id":"ce4bhch2rcd13ifvqeug","pricing_plan_id":"cebpf4jnsgd1na2vs0mg"},{"bike_id":"ffbaca54-2b1d-410d-8e55-8741db34eede","system_id":"levelo_inurba_marseille","lat":43.26417,"lon":5.41081,"is_reserved":false,"is_disabled":false,"rental_uris":{"android":"levelo://app?vid=ffbaca54-2b1d-410d-8e55-8741db34eede","ios":"levelo://app?vid=ffbaca54-2b1d-410d-8e55-8741db34eede"},"vehicle_type_id":"4","last_reported":1781492612,"current_range_meters":4800,"station_id":"st_d4e5ca6na9uc73bfl5fg","pricing_plan_id":"cebpf4jnsgd1na2vs0mg"},{"bike_id":"31920b1a-0181-4f7c-8933-0866e74dfcf2","system_id":"levelo_inurba_marseille","lat":43.28443,"lon":5.35907,"is_reserved":false,"is_disabled":false,"rental_uris":{"android":"levelo://app?vid=31920b1a-0181-4f7c-8933-0866e74dfcf2","ios":"levelo://app?vid=31920b1a-0181-4f7c-8933-0866e74dfcf2"},"vehicle_type_id":"4","last_reported":1781492612,"current_range_meters":5600,"station_id":"ce4bhah2rcd13ifvqei0","pricing_plan_id":"cebpf4jnsgd1na2vs0mg"},{"bike_id":"2577ab9d-224a-4d47-9af8-1a2830b01511","system_id":"levelo_inurba_marseille","lat":43.30885,"lon":5.39639,"is_reserved":false,"is_disabled":false,"rental_uris":{"android":"levelo://app?vid=2577ab9d-224a-4d47-9af8-1a2830b01511","ios":"levelo://app?vid=2577ab9d-224a-4d47-9af8-1a2830b01511"},"vehicle_type_id":"4","last_reported":1781492612,"current_range_meters":5600,"station_id":"ce4bh012rcd13ifvqcv0","pricing_plan_id":"cebpf4jnsgd1na2vs0mg"},{"bike_id":"8abacfae-d2c2-4ea8-9278-19211876eac3","system_id":"levelo_inurba_marseille","lat":43.30319,"lon":5.40437,"is_reserved":false,"is_disabled":false,"rental_uris":{"android":"levelo://app?vid=8abacfae-d2c2-4ea8-9278-19211876eac3","ios":"levelo://app?vid=8abacfae-d2c2-4ea8-9278-19211876eac3"},"vehicle_type_id":"4","last_reported":1781492612,"current_range_meters":5600,"station_id":"ce4bh012rcd13ifvqd10","pricing_plan_id":"cebpf4jnsgd1na2vs0mg"},{"bike_id":"0b630a54-6497-4bc9-95e3-b953b5b38d75","system_id":"levelo_inurba_marseille","lat":43.24461,"lon":5.42533,"is_reserved":false,"is_disabled":false,"rental_uris":{"android":"levelo://app?vid=0b630a54-6497-4bc9-95e3-b953b5b38d75","ios":"levelo://app?vid=0b630a54-6497-4bc9-95e3-b953b5b38d75"},"vehicle_type_id":"4","last_reported":1781492612,"current_range_meters":5600,"station_id":"st_d4a3vfp97mjs738cd8kg","pricing_plan_id":"cebpf4jnsgd1na2vs0mg"},{"bike_id":"b0b204db-fbfc-47ab-b713-f2603ef9af44","system_id":"levelo_inurba_marseille","lat":43.29313,"lon":5.37185,"is_reserved":false,"is_disabled":true,"rental_uris":{"android":"levelo://app?vid=b0b204db-fbfc-47ab-b713-f2603ef9af44","ios":"levelo://app?vid=b0b204db-fbfc-47ab-b713-f2603ef9af44"},"vehicle_type_id":"4","last_reported":1781492612,"current_range_meters":5600,"station_id":"ce4bgh92rcd13ifvqb40","pricing_plan_id":"cebpf4jnsgd1na2vs0mg"},{"bike_id":"3a178be9-377a-4a25-b16e-746e76e3b7b2","system_id":"levelo_inurba_marseille","lat":43.26217,"lon":5.38846,"is_reserved":false,"is_disabled":false,"rental_uris":{"android":"levelo://app?vid=3a178be9-377a-4a25-b16e-746e76e3b7b2","ios":"levelo://app?vid=3a178be9-377a-4a25-b16e-746e76e3b7b2"},"vehicle_type_id":"4","last_reported":1781492612,"current_range_meters":5600,"station_id":"","pricing_plan_id":"cebpf4jnsgd1na2vs0mg"},{"bike_id":"3c083eda-f39f-489d-9ff8-7247b9ef239d","system_id":"levelo_inurba_marseille","lat":43.23055,"lon":5.35496,"is_reserved":false,"is_disabled":false,"rental_uris":{"android":"levelo://app?vid=3c083eda-f39f-489d-9ff8-7247b9ef239d","ios":"levelo://app?vid=3c083eda-f39f-489d-9ff8-7247b9ef239d"},"vehicle_type_id":"4","last_reported":1781492612,"current_range_meters":5600,"station_id":"cpo3342slgdg3j2ifvpg","pricing_plan_id":"cebpf4jnsgd1na2vs0mg"},{"bike_id":"cb7687bc-0140-4510-bde3-04f804726e4e","system_id":"levelo_inurba_marseille","lat":43.28948,"lon":5.36405,"is_reserved":false,"is_disabled":false,"rental_uris":{"android":"levelo://app?vid=cb7687bc-0140-4510-bde3-04f804726e4e","ios":"levelo://app?vid=cb7687bc-0140-4510-bde3-04f804726e4e"},"vehicle_type_id":"4","last_reported":1781492612,"current_range_meters":5600,"station_id":"ce4bhc92rcd13ifvqetg","pricing_plan_id":"cebpf4jnsgd1na2vs0mg"},{"bike_id":"f10274f0-d5a3-4847-854d-5e53c5520946","system_id":"levelo_inurba_marseille","lat":43.32365,"lon":5.3674,"is_reserved":false,"is_disabled":false,"rental_uris":{"android":"levelo://app?vid=f10274f0-d5a3-4847-854d-5e53c5520946","ios":"levelo://app?vid=f10274f0-d5a3-4847-854d-5e53c5520946"},"vehicle_type_id":"4","last_reported":1781492612,"current_range_meters":5600,"station_id":"ce4bhsh2rcd13ifvqi2g","pricing_plan_id":"cebpf4jnsgd1na2vs0mg"},{"bike_id":"e36f411b-fb6a-407c-a81f-c33a79618989","system_id":"levelo_inurba_marseille","lat":43.30936,"lon":5.40178,"is_reserved":false,"is_disabled":false,"rental_uris":{"android":"levelo://app?vid=e36f411b-fb6a-407c-a81f-c33a79618989","ios":"levelo://app?vid=e36f411b-fb6a-407c-a81f-c33a79618989"},"vehicle_type_id":"4","last_reported":1781492612,"current_range_meters":5600,"station_id":"ce4bgvp2rcd13ifvqct0","pricing_plan_id":"cebpf4jnsgd1na2vs0mg"},{"bike_id":"f07cb16b-abf4-43f6-aa1f-fd815a6b9501","system_id":"levelo_inurba_marseille","lat":43.29497,"lon":5.39414,"is_reserved":false,"is_disabled":false,"rental_uris":{"android":"levelo://app?vid=f07cb16b-abf4-43f6-aa1f-fd815a6b9501","ios":"levelo://app?vid=f07cb16b-abf4-43f6-aa1f-fd815a6b9501"},"vehicle_type_id":"4","last_reported":1781492612,"current_range_meters":5600,"station_id":"ce4bh292rcd13ifvqdf0","pricing_plan_id":"cebpf4jnsgd1na2vs0mg"},{"bike_id":"bc9bb278-9a3f-444c-9ee4-086e46a06286","system_id":"levelo_inurba_marseille","lat":43.22261,"lon":5.4049,"is_reserved":false,"is_disabled":false,"rental_uris":{"android":"levelo://app?vid=bc9bb278-9a3f-444c-9ee4-086e46a06286","ios":"levelo://app?vid=bc9bb278-9a3f-444c-9ee4-086e46a06286"},"vehicle_type_id":"4","last_reported":1781492612,"current_range_meters":5600,"station_id":"","pricing_plan_id":"cebpf4jnsgd1na2vs0mg"},{"bike_id":"246fd316-b8b1-47e4-b6c4-b6a9dfcfd9c9","system_id":"levelo_inurba_marseille","lat":43.30326,"lon":5.40433,"is_reserved":false,"is_disabled":false,"rental_uris":{"android":"levelo://app?vid=246fd316-b8b1-47e4-b6c4-b6a9dfcfd9c9","ios":"levelo://app?vid=246fd316-b8b1-47e4-b6c4-b6a9dfcfd9c9"},"vehicle_type_id":"4","last_reported":1781492612,"current_range_meters":5600,"station_id":"ce4bh012rcd13ifvqd10","pricing_plan_id":"cebpf4jnsgd1na2vs0mg"},{"bike_id":"8a01116d-ff03-4c95-9fb6-ae1544ed03d6","system_id":"levelo_inurba_marseille","lat":43.27494,"lon":5.43972,"is_reserved":false,"is_disabled":false,"rental_uris":{"android":"levelo://app?vid=8a01116d-ff03-4c95-9fb6-ae1544ed03d6","ios":"levelo://app?vid=8a01116d-ff03-4c95-9fb6-ae1544ed03d6"},"vehicle_type_id":"4","last_reported":1781492612,"current_range_meters":5600,"station_id":"","pricing_plan_id":"cebpf4jnsgd1na2vs0mg"},{"bike_id":"4e6d713d-5d98-4f27-9e30-016f10070add","system_id":"levelo_inurba_marseille","lat":43.24464,"lon":5.42539,"is_reserved":false,"is_disabled":false,"rental_uris":{"android":"levelo://app?vid=4e6d713d-5d98-4f27-9e30-016f10070add","ios":"levelo://app?vid=4e6d713d-5d98-4f27-9e30-016f10070add"},"vehicle_type_id":"4","last_reported":1781492612,"current_range_meters":5600,"station_id":"st_d4a3vfp97mjs738cd8kg","pricing_plan_id":"cebpf4jnsgd1na2vs0mg"},{"bike_id":"fcf4d312-9968-4443-82f2-b045268fd358","system_id":"levelo_inurba_marseille","lat":43.29909,"lon":5.41116,"is_reserved":false,"is_disabled":false,"rental_uris":{"android":"levelo://app?vid=fcf4d312-9968-4443-82f2-b045268fd358","ios":"levelo://app?vid=fcf4d312-9968-4443-82f2-b045268fd358"},"vehicle_type_id":"4","last_reported":1781492612,"current_range_meters":5600,"station_id":"","pricing_plan_id":"cebpf4jnsgd1na2vs0mg"},{"bike_id":"40f9fd1b-628e-484e-8a21-e0687f6fd82d","system_id":"levelo_inurba_marseille","lat":43.25188,"lon":5.3745,"is_reserved":false,"is_disabled":false,"rental_uris":{"android":"levelo://app?vid=40f9fd1b-628e-484e-8a21-e0687f6fd82d","ios":"levelo://app?vid=40f9fd1b-628e-484e-8a21-e0687f6fd82d"},"vehicle_type_id":"4","last_reported":1781492612,"current_range_meters":5600,"station_id":"","pricing_plan_id":"cebpf4jnsgd1na2vs0mg"},{"bike_id":"a0967682-704e-4097-9142-482a1f2d36c9","system_id":"levelo_inurba_marseille","lat":43.21259,"lon":5.35135,"is_reserved":false,"is_disabled":true,"rental_uris":{"android":"levelo://app?vid=a0967682-704e-4097-9142-482a1f2d36c9","ios":"levelo://app?vid=a0967682-704e-4097-9142-482a1f2d36c9"},"vehicle_type_id":"4","last_reported":1781492612,"current_range_meters":5600,"station_id":"","pricing_plan_id":"cebpf4jnsgd1na2vs0mg"},{"bike_id":"e07447ed-ccd1-43ce-9ba7-3ed6f5a26953","system_id":"levelo_inurba_marseille","lat":43.29626,"lon":5.38105,"is_reserved":false,"is_disabled":false,"rental_uris":{"android":"levelo://app?vid=e07447ed-ccd1-43ce-9ba7-3ed6f5a26953","ios":"levelo://app?vid=e07447ed-ccd1-43ce-9ba7-3ed6f5a26953"},"vehicle_type_id":"4","last_reported":1781492612,"current_range_meters":6000,"station_id":"ce4bgl12rcd13ifvqbo0","pricing_plan_id":"cebpf4jnsgd1na2vs0mg"},{"bike_id":"a0d1bf4d-a440-41ba-9adb-b6a33327b45c","system_id":"levelo_inurba_marseille","lat":43.244,"lon":5.37061,"is_reserved":false,"is_disabled":true,"rental_uris":{"android":"levelo://app?vid=a0d1bf4d-a440-41ba-9adb-b6a33327b45c","ios":"levelo://app?vid=a0d1bf4d-a440-41ba-9adb-b6a33327b45c"},"vehicle_type_id":"4","last_reported":1781492612,"current_range_meters":6000,"station_id":"ce4bhhh2rcd13ifvqfk0","pricing_plan_id":"cebpf4jnsgd1na2vs0mg"},{"bike_id":"7142d5c8-5d9a-4262-9275-62a797fe665f","system_id":"levelo_inurba_marseille","lat":43.26983,"lon":5.39281,"is_reserved":false,"is_disabled":false,"rental_uris":{"android":"levelo://app?vid=7142d5c8-5d9a-4262-9275-62a797fe665f","ios":"levelo://app?vid=7142d5c8-5d9a-4262-9275-62a797fe665f"},"vehicle_type_id":"4","last_reported":1781492612,"current_range_meters":6000,"station_id":"","pricing_plan_id":"cebpf4jnsgd1na2vs0mg"},{"bike_id":"520e7007-685d-436d-8d38-db025ae27a9c","system_id":"levelo_inurba_marseille","lat":43.33726,"lon":5.39179,"is_reserved":false,"is_disabled":false,"rental_uris":{"android":"levelo://app?vid=520e7007-685d-436d-8d38-db025ae27a9c","ios":"levelo://app?vid=520e7007-685d-436d-8d38-db025ae27a9c"},"vehicle_type_id":"4","last_reported":1781492612,"current_range_meters":6000,"station_id":"ce4bhr92rcd13ifvqhsg","pricing_plan_id":"cebpf4jnsgd1na2vs0mg"},{"bike_id":"5e28ac20-e09b-4d66-b728-523877a48875","system_id":"levelo_inurba_marseille","lat":43.25878,"lon":5.39904,"is_reserved":false,"is_disabled":true,"rental_uris":{"android":"levelo://app?vid=5e28ac20-e09b-4d66-b728-523877a48875","ios":"levelo://app?vid=5e28ac20-e09b-4d66-b728-523877a48875"},"vehicle_type_id":"4","last_reported":1781492612,"current_range_meters":6000,"station_id":"ce4bhl92rcd13ifvqghg","pricing_plan_id":"cebpf4jnsgd1na2vs0mg"},{"bike_id":"261f09ba-9b6a-4fea-8aef-dff94f408488","system_id":"levelo_inurba_marseille","lat":43.24728,"lon":5.3929,"is_reserved":false,"is_disabled":false,"rental_uris":{"android":"levelo://app?vid=261f09ba-9b6a-4fea-8aef-dff94f408488","ios":"levelo://app?vid=261f09ba-9b6a-4fea-8aef-dff94f408488"},"vehicle_type_id":"4","last_reported":1781492612,"current_range_meters":6000,"station_id":"","pricing_plan_id":"cebpf4jnsgd1na2vs0mg"},{"bike_id":"0d907e20-16f1-40bd-b155-a0f4876e2d69","system_id":"levelo_inurba_marseille","lat":43.2441,"lon":5.40072,"is_reserved":false,"is_disabled":false,"rental_uris":{"android":"levelo://app?vid=0d907e20-16f1-40bd-b155-a0f4876e2d69","ios":"levelo://app?vid=0d907e20-16f1-40bd-b155-a0f4876e2d69"},"vehicle_type_id":"4","last_reported":1781492612,"current_range_meters":6000,"station_id":"","pricing_plan_id":"cebpf4jnsgd1na2vs0mg"},{"bike_id":"a88b29eb-306e-48f7-9eec-a3658ccccaf8","system_id":"levelo_inurba_marseille","lat":43.3213,"lon":5.36773,"is_reserved":false,"is_disabled":false,"rental_uris":{"android":"levelo://app?vid=a88b29eb-306e-48f7-9eec-a3658ccccaf8","ios":"levelo://app?vid=a88b29eb-306e-48f7-9eec-a3658ccccaf8"},"vehicle_type_id":"4","last_reported":1781492612,"current_range_meters":6000,"station_id":"ce4bhrh2rcd13ifvqhug","pricing_plan_id":"cebpf4jnsgd1na2vs0mg"},{"bike_id":"f8de8b5b-5261-4890-9f15-57effedc57f9","system_id":"levelo_inurba_marseille","lat":43.24549,"lon":5.39535,"is_reserved":false,"is_disabled":false,"rental_uris":{"android":"levelo://app?vid=f8de8b5b-5261-4890-9f15-57effedc57f9","ios":"levelo://app?vid=f8de8b5b-5261-4890-9f15-57effedc57f9"},"vehicle_type_id":"4","last_reported":1781492612,"current_range_meters":6000,"station_id":"ce4bhlp2rcd13ifvqgjg","pricing_plan_id":"cebpf4jnsgd1na2vs0mg"},{"bike_id":"9253ff05-6c08-4bec-80c8-fbed30b5d6a4","system_id":"levelo_inurba_marseille","lat":43.24666,"lon":5.38876,"is_reserved":false,"is_disabled":false,"rental_uris":{"android":"levelo://app?vid=9253ff05-6c08-4bec-80c8-fbed30b5d6a4","ios":"levelo://app?vid=9253ff05-6c08-4bec-80c8-fbed30b5d6a4"},"vehicle_type_id":"4","last_reported":1781492612,"current_range_meters":6400,"station_id":"ce4bhg12rcd13ifvqf60","pricing_plan_id":"cebpf4jnsgd1na2vs0mg"},{"bike_id":"4a6c7b17-9396-4caa-8ad3-f71939d4b080","system_id":"levelo_inurba_marseille","lat":43.31329,"lon":5.36681,"is_reserved":false,"is_disabled":false,"rental_uris":{"android":"levelo://app?vid=4a6c7b17-9396-4caa-8ad3-f71939d4b080","ios":"levelo://app?vid=4a6c7b17-9396-4caa-8ad3-f71939d4b080"},"vehicle_type_id":"4","last_reported":1781492612,"current_range_meters":6400,"station_id":"ce4bgr92rcd13ifvqc6g","pricing_plan_id":"cebpf4jnsgd1na2vs0mg"},{"bike_id":"4f8b09fc-58d2-41ea-9589-37e83af69682","system_id":"levelo_inurba_marseille","lat":43.28613,"lon":5.39902,"is_reserved":false,"is_disabled":false,"rental_uris":{"android":"levelo://app?vid=4f8b09fc-58d2-41ea-9589-37e83af69682","ios":"levelo://app?vid=4f8b09fc-58d2-41ea-9589-37e83af69682"},"vehicle_type_id":"4","last_reported":1781492612,"current_range_meters":6400,"station_id":"st_d4a7ka997mjs738ck50g","pricing_plan_id":"cebpf4jnsgd1na2vs0mg"},{"bike_id":"83da615f-1562-4a35-a0af-fd9fc9c800b5","system_id":"levelo_inurba_marseille","lat":43.29985,"lon":5.37569,"is_reserved":false,"is_disabled":false,"rental_uris":{"android":"levelo://app?vid=83da615f-1562-4a35-a0af-fd9fc9c800b5","ios":"levelo://app?vid=83da615f-1562-4a35-a0af-fd9fc9c800b5"},"vehicle_type_id":"4","last_reported":1781492612,"current_range_meters":6400,"station_id":"","pricing_plan_id":"cebpf4jnsgd1na2vs0mg"},{"bike_id":"b6544458-dc78-49e9-9c67-04f6030fd736","system_id":"levelo_inurba_marseille","lat":43.24095,"lon":5.37728,"is_reserved":false,"is_disabled":false,"rental_uris":{"android":"levelo://app?vid=b6544458-dc78-49e9-9c67-04f6030fd736","ios":"levelo://app?vid=b6544458-dc78-49e9-9c67-04f6030fd736"},"vehicle_type_id":"4","last_reported":1781492612,"current_range_meters":6400,"station_id":"ce4bhnp2rcd13ifvqgvg","pricing_plan_id":"cebpf4jnsgd1na2vs0mg"},{"bike_id":"abc01caa-7e82-486b-ad5a-e31151d2d0fc","system_id":"levelo_inurba_marseille","lat":43.27742,"lon":5.39614,"is_reserved":false,"is_disabled":false,"rental_uris":{"android":"levelo://app?vid=abc01caa-7e82-486b-ad5a-e31151d2d0fc","ios":"levelo://app?vid=abc01caa-7e82-486b-ad5a-e31151d2d0fc"},"vehicle_type_id":"4","last_reported":1781492612,"current_range_meters":6400,"station_id":"","pricing_plan_id":"cebpf4jnsgd1na2vs0mg"},{"bike_id":"7eeaf6d7-2f5a-4a87-9b67-3e6261d765cb","system_id":"levelo_inurba_marseille","lat":43.29013,"lon":5.38131,"is_reserved":false,"is_disabled":false,"rental_uris":{"android":"levelo://app?vid=7eeaf6d7-2f5a-4a87-9b67-3e6261d765cb","ios":"levelo://app?vid=7eeaf6d7-2f5a-4a87-9b67-3e6261d765cb"},"vehicle_type_id":"4","last_reported":1781492612,"current_range_meters":6400,"station_id":"ce4bh4p2rcd13ifvqe1g","pricing_plan_id":"cebpf4jnsgd1na2vs0mg"},{"bike_id":"3f79f6bd-6890-498c-9016-7fee5e242811","system_id":"levelo_inurba_marseille","lat":43.23203,"lon":5.3555,"is_reserved":false,"is_disabled":false,"rental_uris":{"android":"levelo://app?vid=3f79f6bd-6890-498c-9016-7fee5e242811","ios":"levelo://app?vid=3f79f6bd-6890-498c-9016-7fee5e242811"},"vehicle_type_id":"4","last_reported":1781492612,"current_range_meters":6400,"station_id":"ce4bhu92rcd13ifvqi70","pricing_plan_id":"cebpf4jnsgd1na2vs0mg"},{"bike_id":"9292243b-0e6e-43af-a00f-e2b3cb8862f5","system_id":"levelo_inurba_marseille","lat":43.32359,"lon":5.36735,"is_reserved":false,"is_disabled":false,"rental_uris":{"android":"levelo://app?vid=9292243b-0e6e-43af-a00f-e2b3cb8862f5","ios":"levelo://app?vid=9292243b-0e6e-43af-a00f-e2b3cb8862f5"},"vehicle_type_id":"4","last_reported":1781492612,"current_range_meters":6400,"station_id":"ce4bhsh2rcd13ifvqi2g","pricing_plan_id":"cebpf4jnsgd1na2vs0mg"},{"bike_id":"65d9dd6a-f996-46b8-ace0-77611327209b","system_id":"levelo_inurba_marseille","lat":43.2253,"lon":5.34836,"is_reserved":false,"is_disabled":false,"rental_uris":{"android":"levelo://app?vid=65d9dd6a-f996-46b8-ace0-77611327209b","ios":"levelo://app?vid=65d9dd6a-f996-46b8-ace0-77611327209b"},"vehicle_type_id":"4","last_reported":1781492612,"current_range_meters":6400,"station_id":"st_cvj5dfep6f1abm77gieg","pricing_plan_id":"cebpf4jnsgd1na2vs0mg"},{"bike_id":"561af892-18b4-4831-b936-11b171641836","system_id":"levelo_inurba_marseille","lat":43.24409,"lon":5.37053,"is_reserved":false,"is_disabled":true,"rental_uris":{"android":"levelo://app?vid=561af892-18b4-4831-b936-11b171641836","ios":"levelo://app?vid=561af892-18b4-4831-b936-11b171641836"},"vehicle_type_id":"4","last_reported":1781492612,"current_range_meters":6400,"station_id":"ce4bhhh2rcd13ifvqfk0","pricing_plan_id":"cebpf4jnsgd1na2vs0mg"},{"bike_id":"8b3ccc27-371e-4897-b5d7-7688acb22644","system_id":"levelo_inurba_marseille","lat":43.25333,"lon":5.42178,"is_reserved":false,"is_disabled":false,"rental_uris":{"android":"levelo://app?vid=8b3ccc27-371e-4897-b5d7-7688acb22644","ios":"levelo://app?vid=8b3ccc27-371e-4897-b5d7-7688acb22644"},"vehicle_type_id":"4","last_reported":1781492612,"current_range_meters":6400,"station_id":"st_d2m65c5bi1j21697t3ng","pricing_plan_id":"cebpf4jnsgd1na2vs0mg"},{"bike_id":"c1d734fd-9377-400d-8dda-b844a392e7e1","system_id":"levelo_inurba_marseille","lat":43.28378,"lon":5.38654,"is_reserved":false,"is_disabled":true,"rental_uris":{"android":"levelo://app?vid=c1d734fd-9377-400d-8dda-b844a392e7e1","ios":"levelo://app?vid=c1d734fd-9377-400d-8dda-b844a392e7e1"},"vehicle_type_id":"4","last_reported":1781492612,"current_range_meters":6400,"station_id":"ce4bh492rcd13ifvqdvg","pricing_plan_id":"cebpf4jnsgd1na2vs0mg"},{"bike_id":"6829bcb2-03a6-4a8f-ba0b-0fe3c444ecff","system_id":"levelo_inurba_marseille","lat":43.2929,"lon":5.4089,"is_reserved":false,"is_disabled":false,"rental_uris":{"android":"levelo://app?vid=6829bcb2-03a6-4a8f-ba0b-0fe3c444ecff","ios":"levelo://app?vid=6829bcb2-03a6-4a8f-ba0b-0fe3c444ecff"},"vehicle_type_id":"4","last_reported":1781492612,"current_range_meters":6400,"station_id":"ce4bh192rcd13ifvqdc0","pricing_plan_id":"cebpf4jnsgd1na2vs0mg"},{"bike_id":"29d24c14-4210-41d6-8f11-e1e7bb655652","system_id":"levelo_inurba_marseille","lat":43.26685,"lon":5.38274,"is_reserved":false,"is_disabled":true,"rental_uris":{"android":"levelo://app?vid=29d24c14-4210-41d6-8f11-e1e7bb655652","ios":"levelo://app?vid=29d24c14-4210-41d6-8f11-e1e7bb655652"},"vehicle_type_id":"4","last_reported":1781492612,"current_range_meters":6400,"station_id":"ce4bhg92rcd13ifvqf90","pricing_plan_id":"cebpf4jnsgd1na2vs0mg"},{"bike_id":"ba60663c-4b53-4802-aaff-598aa4da9680","system_id":"levelo_inurba_marseille","lat":43.28083,"lon":5.39654,"is_reserved":false,"is_disabled":false,"rental_uris":{"android":"levelo://app?vid=ba60663c-4b53-4802-aaff-598aa4da9680","ios":"levelo://app?vid=ba60663c-4b53-4802-aaff-598aa4da9680"},"vehicle_type_id":"4","last_reported":1781492612,"current_range_meters":6400,"station_id":"ce4bho12rcd13ifvqh2g","pricing_plan_id":"cebpf4jnsgd1na2vs0mg"},{"bike_id":"489d9bc7-2008-4553-b96c-0501c55ee648","system_id":"levelo_inurba_marseille","lat":43.22919,"lon":5.35379,"is_reserved":false,"is_disabled":false,"rental_uris":{"android":"levelo://app?vid=489d9bc7-2008-4553-b96c-0501c55ee648","ios":"levelo://app?vid=489d9bc7-2008-4553-b96c-0501c55ee648"},"vehicle_type_id":"4","last_reported":1781492612,"current_range_meters":6400,"station_id":"cpo3532slgdg3j2ikp40","pricing_plan_id":"cebpf4jnsgd1na2vs0mg"},{"bike_id":"3218e180-a757-407d-8b1a-71cc1f6752de","system_id":"levelo_inurba_marseille","lat":43.29076,"lon":5.36563,"is_reserved":false,"is_disabled":false,"rental_uris":{"android":"levelo://app?vid=3218e180-a757-407d-8b1a-71cc1f6752de","ios":"levelo://app?vid=3218e180-a757-407d-8b1a-71cc1f6752de"},"vehicle_type_id":"4","last_reported":1781492612,"current_range_meters":6800,"station_id":"","pricing_plan_id":"cebpf4jnsgd1na2vs0mg"},{"bike_id":"bb2b8605-01de-4068-976a-c32a5cbafae1","system_id":"levelo_inurba_marseille","lat":43.28475,"lon":5.48387,"is_reserved":false,"is_disabled":false,"rental_uris":{"android":"levelo://app?vid=bb2b8605-01de-4068-976a-c32a5cbafae1","ios":"levelo://app?vid=bb2b8605-01de-4068-976a-c32a5cbafae1"},"vehicle_type_id":"4","last_reported":1781492612,"current_range_meters":6800,"station_id":"st_d3svhcjqgbts73a3dn0g","pricing_plan_id":"cebpf4jnsgd1na2vs0mg"},{"bike_id":"2d5036af-f9df-45c6-97e4-648868345309","system_id":"levelo_inurba_marseille","lat":43.32532,"lon":5.38755,"is_reserved":false,"is_disabled":false,"rental_uris":{"android":"levelo://app?vid=2d5036af-f9df-45c6-97e4-648868345309","ios":"levelo://app?vid=2d5036af-f9df-45c6-97e4-648868345309"},"vehicle_type_id":"4","last_reported":1781492612,"current_range_meters":6800,"station_id":"","pricing_plan_id":"cebpf4jnsgd1na2vs0mg"},{"bike_id":"0dd5c1b9-fadd-4730-a411-f5fc7e91b1b2","system_id":"levelo_inurba_marseille","lat":43.30103,"lon":5.39842,"is_reserved":false,"is_disabled":false,"rental_uris":{"android":"levelo://app?vid=0dd5c1b9-fadd-4730-a411-f5fc7e91b1b2","ios":"levelo://app?vid=0dd5c1b9-fadd-4730-a411-f5fc7e91b1b2"},"vehicle_type_id":"4","last_reported":1781492612,"current_range_meters":6800,"station_id":"ce4bh0h2rcd13ifvqd40","pricing_plan_id":"cebpf4jnsgd1na2vs0mg"},{"bike_id":"3797eecb-031b-4340-8c64-3529ac220875","system_id":"levelo_inurba_marseille","lat":43.29961,"lon":5.36511,"is_reserved":false,"is_disabled":false,"rental_uris":{"android":"levelo://app?vid=3797eecb-031b-4340-8c64-3529ac220875","ios":"levelo://app?vid=3797eecb-031b-4340-8c64-3529ac220875"},"vehicle_type_id":"4","last_reported":1781492612,"current_range_meters":6800,"station_id":"ce4bgm92rcd13ifvqbr0","pricing_plan_id":"cebpf4jnsgd1na2vs0mg"},{"bike_id":"a4e4e599-2abd-41d4-88f4-607197065c97","system_id":"levelo_inurba_marseille","lat":43.302,"lon":5.39456,"is_reserved":false,"is_disabled":false,"rental_uris":{"android":"levelo://app?vid=a4e4e599-2abd-41d4-88f4-607197065c97","ios":"levelo://app?vid=a4e4e599-2abd-41d4-88f4-607197065c97"},"vehicle_type_id":"4","last_reported":1781492612,"current_range_meters":6800,"station_id":"ce4bh0p2rcd13ifvqd70","pricing_plan_id":"cebpf4jnsgd1na2vs0mg"},{"bike_id":"448bca98-9164-49be-b666-5e533897ec97","system_id":"levelo_inurba_marseille","lat":43.27965,"lon":5.41049,"is_reserved":false,"is_disabled":false,"rental_uris":{"android":"levelo://app?vid=448bca98-9164-49be-b666-5e533897ec97","ios":"levelo://app?vid=448bca98-9164-49be-b666-5e533897ec97"},"vehicle_type_id":"4","last_reported":1781492612,"current_range_meters":6800,"station_id":"ce4bhnp2rcd13ifvqh0g","pricing_plan_id":"cebpf4jnsgd1na2vs0mg"},{"bike_id":"8d74834d-abdc-4778-9c21-5c33de17863c","system_id":"levelo_inurba_marseille","lat":43.31374,"lon":5.39014,"is_reserved":false,"is_disabled":false,"rental_uris":{"android":"levelo://app?vid=8d74834d-abdc-4778-9c21-5c33de17863c","ios":"levelo://app?vid=8d74834d-abdc-4778-9c21-5c33de17863c"},"vehicle_type_id":"4","last_reported":1781492612,"current_range_meters":6800,"station_id":"","pricing_plan_id":"cebpf4jnsgd1na2vs0mg"},{"bike_id":"b4d04f32-b6e2-40ff-8413-2619fd79dc7e","system_id":"levelo_inurba_marseille","lat":43.25583,"lon":5.38245,"is_reserved":false,"is_disabled":false,"rental_uris":{"android":"levelo://app?vid=b4d04f32-b6e2-40ff-8413-2619fd79dc7e","ios":"levelo://app?vid=b4d04f32-b6e2-40ff-8413-2619fd79dc7e"},"vehicle_type_id":"4","last_reported":1781492612,"current_range_meters":6800,"station_id":"ce4bhih2rcd13ifvqfs0","pricing_plan_id":"cebpf4jnsgd1na2vs0mg"},{"bike_id":"988a279b-92b2-47b2-8208-a7cf8025b295","system_id":"levelo_inurba_marseille","lat":43.24054,"lon":5.37747,"is_reserved":false,"is_disabled":true,"rental_uris":{"android":"levelo://app?vid=988a279b-92b2-47b2-8208-a7cf8025b295","ios":"levelo://app?vid=988a279b-92b2-47b2-8208-a7cf8025b295"},"vehicle_type_id":"4","last_reported":1781492612,"current_range_meters":6800,"station_id":"ce4bhnp2rcd13ifvqgvg","pricing_plan_id":"cebpf4jnsgd1na2vs0mg"},{"bike_id":"effa09d8-e60e-4c42-986b-ec5d5c9d73b2","system_id":"levelo_inurba_marseille","lat":43.28447,"lon":5.35916,"is_reserved":false,"is_disabled":false,"rental_uris":{"android":"levelo://app?vid=effa09d8-e60e-4c42-986b-ec5d5c9d73b2","ios":"levelo://app?vid=effa09d8-e60e-4c42-986b-ec5d5c9d73b2"},"vehicle_type_id":"4","last_reported":1781492612,"current_range_meters":6800,"station_id":"ce4bhah2rcd13ifvqei0","pricing_plan_id":"cebpf4jnsgd1na2vs0mg"},{"bike_id":"a04fcf34-c29d-4e73-8f0f-34af65586646","system_id":"levelo_inurba_marseille","lat":43.29963,"lon":5.38225,"is_reserved":false,"is_disabled":false,"rental_uris":{"android":"levelo://app?vid=a04fcf34-c29d-4e73-8f0f-34af65586646","ios":"levelo://app?vid=a04fcf34-c29d-4e73-8f0f-34af65586646"},"vehicle_type_id":"4","last_reported":1781492612,"current_range_meters":6800,"station_id":"","pricing_plan_id":"cebpf4jnsgd1na2vs0mg"},{"bike_id":"617b4109-ac17-4aab-aa21-1961a3d15ef8","system_id":"levelo_inurba_marseille","lat":43.29702,"lon":5.36608,"is_reserved":false,"is_disabled":true,"rental_uris":{"android":"levelo://app?vid=617b4109-ac17-4aab-aa21-1961a3d15ef8","ios":"levelo://app?vid=617b4109-ac17-4aab-aa21-1961a3d15ef8"},"vehicle_type_id":"4","last_reported":1781492612,"current_range_meters":6800,"station_id":"ce4bgn12rcd13ifvqbt0","pricing_plan_id":"cebpf4jnsgd1na2vs0mg"},{"bike_id":"423f6182-a443-4c34-a818-81a8277ac3c4","system_id":"levelo_inurba_marseille","lat":43.22528,"lon":5.34847,"is_reserved":false,"is_disabled":false,"rental_uris":{"android":"levelo://app?vid=423f6182-a443-4c34-a818-81a8277ac3c4","ios":"levelo://app?vid=423f6182-a443-4c34-a818-81a8277ac3c4"},"vehicle_type_id":"4","last_reported":1781492612,"current_range_meters":6800,"station_id":"st_cvj5dfep6f1abm77gieg","pricing_plan_id":"cebpf4jnsgd1na2vs0mg"},{"bike_id":"e386d0c8-e4b4-44d0-b548-8a70c615d57c","system_id":"levelo_inurba_marseille","lat":43.27051,"lon":5.40276,"is_reserved":false,"is_disabled":true,"rental_uris":{"android":"levelo://app?vid=e386d0c8-e4b4-44d0-b548-8a70c615d57c","ios":"levelo://app?vid=e386d0c8-e4b4-44d0-b548-8a70c615d57c"},"vehicle_type_id":"4","last_reported":1781492612,"current_range_meters":7200,"station_id":"ce4bhk92rcd13ifvqgc0","pricing_plan_id":"cebpf4jnsgd1na2vs0mg"},{"bike_id":"182d1bf5-086e-469e-a37a-df64c4d0603f","system_id":"levelo_inurba_marseille","lat":43.31518,"lon":5.38594,"is_reserved":false,"is_disabled":false,"rental_uris":{"android":"levelo://app?vid=182d1bf5-086e-469e-a37a-df64c4d0603f","ios":"levelo://app?vid=182d1bf5-086e-469e-a37a-df64c4d0603f"},"vehicle_type_id":"4","last_reported":1781492612,"current_range_meters":7200,"station_id":"","pricing_plan_id":"cebpf4jnsgd1na2vs0mg"},{"bike_id":"eecbdf4a-1256-4cd3-894b-717ff2614a24","system_id":"levelo_inurba_marseille","lat":43.2376,"lon":5.37762,"is_reserved":false,"is_disabled":false,"rental_uris":{"android":"levelo://app?vid=eecbdf4a-1256-4cd3-894b-717ff2614a24","ios":"levelo://app?vid=eecbdf4a-1256-4cd3-894b-717ff2614a24"},"vehicle_type_id":"4","last_reported":1781492612,"current_range_meters":7200,"station_id":"","pricing_plan_id":"cebpf4jnsgd1na2vs0mg"},{"bike_id":"c37d397e-b2f6-442e-acb6-1796657e2ba6","system_id":"levelo_inurba_marseille","lat":43.22572,"lon":5.41635,"is_reserved":false,"is_disabled":false,"rental_uris":{"android":"levelo://app?vid=c37d397e-b2f6-442e-acb6-1796657e2ba6","ios":"levelo://app?vid=c37d397e-b2f6-442e-acb6-1796657e2ba6"},"vehicle_type_id":"4","last_reported":1781492612,"current_range_meters":7200,"station_id":"st_d2o4gvlbi1j2169b742g","pricing_plan_id":"cebpf4jnsgd1na2vs0mg"},{"bike_id":"d02e5f84-94fe-4c7a-901b-47c3f5f28fe9","system_id":"levelo_inurba_marseille","lat":43.31899,"lon":5.36811,"is_reserved":false,"is_disabled":false,"rental_uris":{"android":"levelo://app?vid=d02e5f84-94fe-4c7a-901b-47c3f5f28fe9","ios":"levelo://app?vid=d02e5f84-94fe-4c7a-901b-47c3f5f28fe9"},"vehicle_type_id":"4","last_reported":1781492612,"current_range_meters":7200,"station_id":"st_d6o2h0d0559c73evc1b0","pricing_plan_id":"cebpf4jnsgd1na2vs0mg"},{"bike_id":"c1b158b5-fdc9-4eb0-8418-c97cbe8616d7","system_id":"levelo_inurba_marseille","lat":43.3144,"lon":5.3739,"is_reserved":false,"is_disabled":false,"rental_uris":{"android":"levelo://app?vid=c1b158b5-fdc9-4eb0-8418-c97cbe8616d7","ios":"levelo://app?vid=c1b158b5-fdc9-4eb0-8418-c97cbe8616d7"},"vehicle_type_id":"4","last_reported":1781492612,"current_range_meters":7200,"station_id":"","pricing_plan_id":"cebpf4jnsgd1na2vs0mg"},{"bike_id":"826c98bf-43c8-40ae-bc2b-01f101af256b","system_id":"levelo_inurba_marseille","lat":43.2483,"lon":5.37939,"is_reserved":false,"is_disabled":false,"rental_uris":{"android":"levelo://app?vid=826c98bf-43c8-40ae-bc2b-01f101af256b","ios":"levelo://app?vid=826c98bf-43c8-40ae-bc2b-01f101af256b"},"vehicle_type_id":"4","last_reported":1781492612,"current_range_meters":7200,"station_id":"","pricing_plan_id":"cebpf4jnsgd1na2vs0mg"},{"bike_id":"6d353a02-c0ef-47b6-887d-eae21d4b5810","system_id":"levelo_inurba_marseille","lat":43.25014,"lon":5.38939,"is_reserved":false,"is_disabled":false,"rental_uris":{"android":"levelo://app?vid=6d353a02-c0ef-47b6-887d-eae21d4b5810","ios":"levelo://app?vid=6d353a02-c0ef-47b6-887d-eae21d4b5810"},"vehicle_type_id":"4","last_reported":1781492612,"current_range_meters":7200,"station_id":"ce4bhgp2rcd13ifvqfd0","pricing_plan_id":"cebpf4jnsgd1na2vs0mg"},{"bike_id":"b8604cce-7d37-4161-9fa8-974b96b13dca","system_id":"levelo_inurba_marseille","lat":43.2624,"lon":5.38763,"is_reserved":false,"is_disabled":false,"rental_uris":{"android":"levelo://app?vid=b8604cce-7d37-4161-9fa8-974b96b13dca","ios":"levelo://app?vid=b8604cce-7d37-4161-9fa8-974b96b13dca"},"vehicle_type_id":"4","last_reported":1781492612,"current_range_meters":7200,"station_id":"st_d8gjfg747rts73coq3b0","pricing_plan_id":"cebpf4jnsgd1na2vs0mg"},{"bike_id":"33256d2c-5c01-45fe-af55-4a654f52e42a","system_id":"levelo_inurba_marseille","lat":43.23873,"lon":5.36511,"is_reserved":false,"is_disabled":false,"rental_uris":{"android":"levelo://app?vid=33256d2c-5c01-45fe-af55-4a654f52e42a","ios":"levelo://app?vid=33256d2c-5c01-45fe-af55-4a654f52e42a"},"vehicle_type_id":"4","last_reported":1781492612,"current_range_meters":7200,"station_id":"","pricing_plan_id":"cebpf4jnsgd1na2vs0mg"},{"bike_id":"f8cb73ac-3d9d-44c2-a350-75fbcb9e7e8a","system_id":"levelo_inurba_marseille","lat":43.26225,"lon":5.38771,"is_reserved":false,"is_disabled":false,"rental_uris":{"android":"levelo://app?vid=f8cb73ac-3d9d-44c2-a350-75fbcb9e7e8a","ios":"levelo://app?vid=f8cb73ac-3d9d-44c2-a350-75fbcb9e7e8a"},"vehicle_type_id":"4","last_reported":1781492612,"current_range_meters":7200,"station_id":"st_d8gjfg747rts73coq3b0","pricing_plan_id":"cebpf4jnsgd1na2vs0mg"},{"bike_id":"12822a3a-efd1-4d33-adc9-efcac0d15e50","system_id":"levelo_inurba_marseille","lat":43.30597,"lon":5.40066,"is_reserved":false,"is_disabled":false,"rental_uris":{"android":"levelo://app?vid=12822a3a-efd1-4d33-adc9-efcac0d15e50","ios":"levelo://app?vid=12822a3a-efd1-4d33-adc9-efcac0d15e50"},"vehicle_type_id":"4","last_reported":1781492612,"current_range_meters":7200,"station_id":"","pricing_plan_id":"cebpf4jnsgd1na2vs0mg"},{"bike_id":"0a237535-4706-4992-aa39-d6f055558c0d","system_id":"levelo_inurba_marseille","lat":43.29787,"lon":5.38088,"is_reserved":false,"is_disabled":false,"rental_uris":{"android":"levelo://app?vid=0a237535-4706-4992-aa39-d6f055558c0d","ios":"levelo://app?vid=0a237535-4706-4992-aa39-d6f055558c0d"},"vehicle_type_id":"4","last_reported":1781492612,"current_range_meters":7200,"station_id":"ce4bgip2rcd13ifvqbb0","pricing_plan_id":"cebpf4jnsgd1na2vs0mg"},{"bike_id":"1d717d14-c760-4699-84fb-7d7ead7f2865","system_id":"levelo_inurba_marseille","lat":43.28737,"lon":5.37942,"is_reserved":false,"is_disabled":false,"rental_uris":{"android":"levelo://app?vid=1d717d14-c760-4699-84fb-7d7ead7f2865","ios":"levelo://app?vid=1d717d14-c760-4699-84fb-7d7ead7f2865"},"vehicle_type_id":"4","last_reported":1781492612,"current_range_meters":7200,"station_id":"ce4bh9p2rcd13ifvqec0","pricing_plan_id":"cebpf4jnsgd1na2vs0mg"},{"bike_id":"285d6d33-3f58-4c7a-8eba-9d797909c446","system_id":"levelo_inurba_marseille","lat":43.25823,"lon":5.39418,"is_reserved":false,"is_disabled":false,"rental_uris":{"android":"levelo://app?vid=285d6d33-3f58-4c7a-8eba-9d797909c446","ios":"levelo://app?vid=285d6d33-3f58-4c7a-8eba-9d797909c446"},"vehicle_type_id":"4","last_reported":1781492612,"current_range_meters":7200,"station_id":"ce4bhip2rcd13ifvqft0","pricing_plan_id":"cebpf4jnsgd1na2vs0mg"},{"bike_id":"cd3c32d8-c396-4750-af84-f7673f6b6e95","system_id":"levelo_inurba_marseille","lat":43.303128,"lon":5.369038,"is_reserved":false,"is_disabled":true,"rental_uris":{"android":"levelo://app?vid=cd3c32d8-c396-4750-af84-f7673f6b6e95","ios":"levelo://app?vid=cd3c32d8-c396-4750-af84-f7673f6b6e95"},"vehicle_type_id":"4","last_reported":1781492612,"current_range_meters":7200,"station_id":"ce4bhgh2rcd13ifvqfb0","pricing_plan_id":"cebpf4jnsgd1na2vs0mg"},{"bike_id":"3b204500-5a73-4c6f-9440-97771f545bbe","system_id":"levelo_inurba_marseille","lat":43.28016,"lon":5.38684,"is_reserved":false,"is_disabled":false,"rental_uris":{"android":"levelo://app?vid=3b204500-5a73-4c6f-9440-97771f545bbe","ios":"levelo://app?vid=3b204500-5a73-4c6f-9440-97771f545bbe"},"vehicle_type_id":"4","last_reported":1781492612,"current_range_meters":7200,"station_id":"","pricing_plan_id":"cebpf4jnsgd1na2vs0mg"},{"bike_id":"f982f396-0580-440b-b504-6779aaf42347","system_id":"levelo_inurba_marseille","lat":43.24077,"lon":5.37742,"is_reserved":false,"is_disabled":true,"rental_uris":{"android":"levelo://app?vid=f982f396-0580-440b-b504-6779aaf42347","ios":"levelo://app?vid=f982f396-0580-440b-b504-6779aaf42347"},"vehicle_type_id":"4","last_reported":1781492612,"current_range_meters":7200,"station_id":"ce4bhnp2rcd13ifvqgvg","pricing_plan_id":"cebpf4jnsgd1na2vs0mg"},{"bike_id":"b2e58aa5-e409-4811-bd90-786eca4e05a9","system_id":"levelo_inurba_marseille","lat":43.31709,"lon":5.38975,"is_reserved":false,"is_disabled":false,"rental_uris":{"android":"levelo://app?vid=b2e58aa5-e409-4811-bd90-786eca4e05a9","ios":"levelo://app?vid=b2e58aa5-e409-4811-bd90-786eca4e05a9"},"vehicle_type_id":"4","last_reported":1781492612,"current_range_meters":7200,"station_id":"","pricing_plan_id":"cebpf4jnsgd1na2vs0mg"},{"bike_id":"b4ebf7f9-f8d2-4e6f-8020-78c729554510","system_id":"levelo_inurba_marseille","lat":43.28356,"lon":5.35937,"is_reserved":false,"is_disabled":false,"rental_uris":{"android":"levelo://app?vid=b4ebf7f9-f8d2-4e6f-8020-78c729554510","ios":"levelo://app?vid=b4ebf7f9-f8d2-4e6f-8020-78c729554510"},"vehicle_type_id":"4","last_reported":1781492612,"current_range_meters":7200,"station_id":"","pricing_plan_id":"cebpf4jnsgd1na2vs0mg"},{"bike_id":"1f8b513f-39f7-4564-bd35-c94b6aa193a8","system_id":"levelo_inurba_marseille","lat":43.31174,"lon":5.39358,"is_reserved":false,"is_disabled":false,"rental_uris":{"android":"levelo://app?vid=1f8b513f-39f7-4564-bd35-c94b6aa193a8","ios":"levelo://app?vid=1f8b513f-39f7-4564-bd35-c94b6aa193a8"},"vehicle_type_id":"4","last_reported":1781492612,"current_range_meters":7200,"station_id":"","pricing_plan_id":"cebpf4jnsgd1na2vs0mg"},{"bike_id":"a3d18a89-e830-406c-9dc5-a06f71a6c569","system_id":"levelo_inurba_marseille","lat":43.21194,"lon":5.35066,"is_reserved":false,"is_disabled":false,"rental_uris":{"android":"levelo://app?vid=a3d18a89-e830-406c-9dc5-a06f71a6c569","ios":"levelo://app?vid=a3d18a89-e830-406c-9dc5-a06f71a6c569"},"vehicle_type_id":"4","last_reported":1781492612,"current_range_meters":7200,"station_id":"st_cvj6sg6p6f1abm77japg","pricing_plan_id":"cebpf4jnsgd1na2vs0mg"},{"bike_id":"3441676e-19da-405f-ba89-e10b03a2b9ad","system_id":"levelo_inurba_marseille","lat":43.28699,"lon":5.37387,"is_reserved":false,"is_disabled":false,"rental_uris":{"android":"levelo://app?vid=3441676e-19da-405f-ba89-e10b03a2b9ad","ios":"levelo://app?vid=3441676e-19da-405f-ba89-e10b03a2b9ad"},"vehicle_type_id":"4","last_reported":1781492612,"current_range_meters":7200,"station_id":"ce4bh3p2rcd13ifvqdq0","pricing_plan_id":"cebpf4jnsgd1na2vs0mg"},{"bike_id":"ebcade89-fcc0-4f11-8d84-68edfb55df81","system_id":"levelo_inurba_marseille","lat":43.2923,"lon":5.40914,"is_reserved":false,"is_disabled":false,"rental_uris":{"android":"levelo://app?vid=ebcade89-fcc0-4f11-8d84-68edfb55df81","ios":"levelo://app?vid=ebcade89-fcc0-4f11-8d84-68edfb55df81"},"vehicle_type_id":"4","last_reported":1781492612,"current_range_meters":7200,"station_id":"ce4bh192rcd13ifvqdc0","pricing_plan_id":"cebpf4jnsgd1na2vs0mg"},{"bike_id":"eccb4ccb-bb4d-453f-9dff-5675c6aad1b1","system_id":"levelo_inurba_marseille","lat":43.30933,"lon":5.40155,"is_reserved":false,"is_disabled":false,"rental_uris":{"android":"levelo://app?vid=eccb4ccb-bb4d-453f-9dff-5675c6aad1b1","ios":"levelo://app?vid=eccb4ccb-bb4d-453f-9dff-5675c6aad1b1"},"vehicle_type_id":"4","last_reported":1781492612,"current_range_meters":7200,"station_id":"ce4bgvp2rcd13ifvqct0","pricing_plan_id":"cebpf4jnsgd1na2vs0mg"},{"bike_id":"e08ffaa2-25f1-40c6-a988-20824708e6a2","system_id":"levelo_inurba_marseille","lat":43.29228,"lon":5.40904,"is_reserved":false,"is_disabled":false,"rental_uris":{"android":"levelo://app?vid=e08ffaa2-25f1-40c6-a988-20824708e6a2","ios":"levelo://app?vid=e08ffaa2-25f1-40c6-a988-20824708e6a2"},"vehicle_type_id":"4","last_reported":1781492612,"current_range_meters":7200,"station_id":"ce4bh192rcd13ifvqdc0","pricing_plan_id":"cebpf4jnsgd1na2vs0mg"},{"bike_id":"f9f89192-66f1-4c65-8650-766521e2d06e","system_id":"levelo_inurba_marseille","lat":43.30326,"lon":5.39202,"is_reserved":false,"is_disabled":false,"rental_uris":{"android":"levelo://app?vid=f9f89192-66f1-4c65-8650-766521e2d06e","ios":"levelo://app?vid=f9f89192-66f1-4c65-8650-766521e2d06e"},"vehicle_type_id":"4","last_reported":1781492612,"current_range_meters":7200,"station_id":"ce4bgkh2rcd13ifvqbk0","pricing_plan_id":"cebpf4jnsgd1na2vs0mg"},{"bike_id":"25692fdd-8735-4ac1-befa-97e9aba2ff71","system_id":"levelo_inurba_marseille","lat":43.22536,"lon":5.3482,"is_reserved":false,"is_disabled":false,"rental_uris":{"android":"levelo://app?vid=25692fdd-8735-4ac1-befa-97e9aba2ff71","ios":"levelo://app?vid=25692fdd-8735-4ac1-befa-97e9aba2ff71"},"vehicle_type_id":"4","last_reported":1781492612,"current_range_meters":7200,"station_id":"st_cvj5dfep6f1abm77gieg","pricing_plan_id":"cebpf4jnsgd1na2vs0mg"},{"bike_id":"da9df8f6-577f-47bc-8d26-479b24566141","system_id":"levelo_inurba_marseille","lat":43.28643,"lon":5.36345,"is_reserved":false,"is_disabled":false,"rental_uris":{"android":"levelo://app?vid=da9df8f6-577f-47bc-8d26-479b24566141","ios":"levelo://app?vid=da9df8f6-577f-47bc-8d26-479b24566141"},"vehicle_type_id":"4","last_reported":1781492612,"current_range_meters":7200,"station_id":"ce4bhah2rcd13ifvqej0","pricing_plan_id":"cebpf4jnsgd1na2vs0mg"},{"bike_id":"68bb28fb-2951-4ad2-a465-98d8c2cd70df","system_id":"levelo_inurba_marseille","lat":43.29203,"lon":5.39326,"is_reserved":false,"is_disabled":false,"rental_uris":{"android":"levelo://app?vid=68bb28fb-2951-4ad2-a465-98d8c2cd70df","ios":"levelo://app?vid=68bb28fb-2951-4ad2-a465-98d8c2cd70df"},"vehicle_type_id":"4","last_reported":1781492612,"current_range_meters":8000,"station_id":"ce4bh192rcd13ifvqdd0","pricing_plan_id":"cebpf4jnsgd1na2vs0mg"},{"bike_id":"106f0fdb-a564-4efc-ac17-872f8836227c","system_id":"levelo_inurba_marseille","lat":43.26047,"lon":5.39405,"is_reserved":false,"is_disabled":true,"rental_uris":{"android":"levelo://app?vid=106f0fdb-a564-4efc-ac17-872f8836227c","ios":"levelo://app?vid=106f0fdb-a564-4efc-ac17-872f8836227c"},"vehicle_type_id":"4","last_reported":1781492612,"current_range_meters":8000,"station_id":"ce4bhh92rcd13ifvqfj0","pricing_plan_id":"cebpf4jnsgd1na2vs0mg"},{"bike_id":"79784559-9f7b-422b-bd1a-784e46b44f54","system_id":"levelo_inurba_marseille","lat":43.26242,"lon":5.39008,"is_reserved":false,"is_disabled":false,"rental_uris":{"android":"levelo://app?vid=79784559-9f7b-422b-bd1a-784e46b44f54","ios":"levelo://app?vid=79784559-9f7b-422b-bd1a-784e46b44f54"},"vehicle_type_id":"4","last_reported":1781492612,"current_range_meters":8000,"station_id":"","pricing_plan_id":"cebpf4jnsgd1na2vs0mg"},{"bike_id":"d5d2374f-099f-4916-90ad-b9b95ab33b61","system_id":"levelo_inurba_marseille","lat":43.31251,"lon":5.40182,"is_reserved":false,"is_disabled":false,"rental_uris":{"android":"levelo://app?vid=d5d2374f-099f-4916-90ad-b9b95ab33b61","ios":"levelo://app?vid=d5d2374f-099f-4916-90ad-b9b95ab33b61"},"vehicle_type_id":"4","last_reported":1781492612,"current_range_meters":8000,"station_id":"ce4bh092rcd13ifvqd30","pricing_plan_id":"cebpf4jnsgd1na2vs0mg"},{"bike_id":"88d11b5b-d371-4357-aa3d-0a1c295191f3","system_id":"levelo_inurba_marseille","lat":43.28732,"lon":5.39973,"is_reserved":false,"is_disabled":false,"rental_uris":{"android":"levelo://app?vid=88d11b5b-d371-4357-aa3d-0a1c295191f3","ios":"levelo://app?vid=88d11b5b-d371-4357-aa3d-0a1c295191f3"},"vehicle_type_id":"4","last_reported":1781492612,"current_range_meters":8000,"station_id":"ce4bho92rcd13ifvqh3g","pricing_plan_id":"cebpf4jnsgd1na2vs0mg"},{"bike_id":"06ead069-2d28-4671-82f8-cc455ee38a5f","system_id":"levelo_inurba_marseille","lat":43.29029,"lon":5.36646,"is_reserved":false,"is_disabled":false,"rental_uris":{"android":"levelo://app?vid=06ead069-2d28-4671-82f8-cc455ee38a5f","ios":"levelo://app?vid=06ead069-2d28-4671-82f8-cc455ee38a5f"},"vehicle_type_id":"4","last_reported":1781492612,"current_range_meters":8000,"station_id":"","pricing_plan_id":"cebpf4jnsgd1na2vs0mg"},{"bike_id":"52f53646-a8c6-467b-a085-982495434fda","system_id":"levelo_inurba_marseille","lat":43.24467,"lon":5.42544,"is_reserved":false,"is_disabled":true,"rental_uris":{"android":"levelo://app?vid=52f53646-a8c6-467b-a085-982495434fda","ios":"levelo://app?vid=52f53646-a8c6-467b-a085-982495434fda"},"vehicle_type_id":"4","last_reported":1781492612,"current_range_meters":8000,"station_id":"st_d4a3vfp97mjs738cd8kg","pricing_plan_id":"cebpf4jnsgd1na2vs0mg"},{"bike_id":"c9aabddb-8b5c-4663-930f-1f9cf614b6ce","system_id":"levelo_inurba_marseille","lat":43.21728,"lon":5.34601,"is_reserved":false,"is_disabled":true,"rental_uris":{"android":"levelo://app?vid=c9aabddb-8b5c-4663-930f-1f9cf614b6ce","ios":"levelo://app?vid=c9aabddb-8b5c-4663-930f-1f9cf614b6ce"},"vehicle_type_id":"4","last_reported":1781492612,"current_range_meters":8000,"station_id":"st_cvj6r9ubvosntc0bgbag","pricing_plan_id":"cebpf4jnsgd1na2vs0mg"},{"bike_id":"939774d9-587e-424d-9dd7-f4fab4a36444","system_id":"levelo_inurba_marseille","lat":43.27935,"lon":5.4098,"is_reserved":false,"is_disabled":false,"rental_uris":{"android":"levelo://app?vid=939774d9-587e-424d-9dd7-f4fab4a36444","ios":"levelo://app?vid=939774d9-587e-424d-9dd7-f4fab4a36444"},"vehicle_type_id":"4","last_reported":1781492612,"current_range_meters":8000,"station_id":"ce4bhnp2rcd13ifvqh0g","pricing_plan_id":"cebpf4jnsgd1na2vs0mg"},{"bike_id":"0da05e94-7d9e-4605-a8b5-1e34dc1b3e7e","system_id":"levelo_inurba_marseille","lat":43.38192,"lon":5.36713,"is_reserved":false,"is_disabled":false,"rental_uris":{"android":"levelo://app?vid=0da05e94-7d9e-4605-a8b5-1e34dc1b3e7e","ios":"levelo://app?vid=0da05e94-7d9e-4605-a8b5-1e34dc1b3e7e"},"vehicle_type_id":"4","last_reported":1781492612,"current_range_meters":8000,"station_id":"","pricing_plan_id":"cebpf4jnsgd1na2vs0mg"},{"bike_id":"119ee3e3-8912-41dc-9351-0ade13455b09","system_id":"levelo_inurba_marseille","lat":43.29567,"lon":5.42283,"is_reserved":false,"is_disabled":false,"rental_uris":{"android":"levelo://app?vid=119ee3e3-8912-41dc-9351-0ade13455b09","ios":"levelo://app?vid=119ee3e3-8912-41dc-9351-0ade13455b09"},"vehicle_type_id":"4","last_reported":1781492612,"current_range_meters":8000,"station_id":"ce4bhph2rcd13ifvqhdg","pricing_plan_id":"cebpf4jnsgd1na2vs0mg"},{"bike_id":"2689c794-8904-4061-8380-b12efc279d5b","system_id":"levelo_inurba_marseille","lat":43.29192,"lon":5.36767,"is_reserved":false,"is_disabled":false,"rental_uris":{"android":"levelo://app?vid=2689c794-8904-4061-8380-b12efc279d5b","ios":"levelo://app?vid=2689c794-8904-4061-8380-b12efc279d5b"},"vehicle_type_id":"4","last_reported":1781492612,"current_range_meters":8000,"station_id":"","pricing_plan_id":"cebpf4jnsgd1na2vs0mg"},{"bike_id":"bd3727eb-7c12-4366-9972-be7b68a65c0d","system_id":"levelo_inurba_marseille","lat":43.29349,"lon":5.37864,"is_reserved":false,"is_disabled":true,"rental_uris":{"android":"levelo://app?vid=bd3727eb-7c12-4366-9972-be7b68a65c0d","ios":"levelo://app?vid=bd3727eb-7c12-4366-9972-be7b68a65c0d"},"vehicle_type_id":"4","last_reported":1781492612,"current_range_meters":8000,"station_id":"ce4bgjh2rcd13ifvqbf0","pricing_plan_id":"cebpf4jnsgd1na2vs0mg"},{"bike_id":"e1f05f5c-7f75-45d3-8a44-3c5031f4c830","system_id":"levelo_inurba_marseille","lat":43.31114,"lon":5.37762,"is_reserved":false,"is_disabled":false,"rental_uris":{"android":"levelo://app?vid=e1f05f5c-7f75-45d3-8a44-3c5031f4c830","ios":"levelo://app?vid=e1f05f5c-7f75-45d3-8a44-3c5031f4c830"},"vehicle_type_id":"4","last_reported":1781492612,"current_range_meters":8000,"station_id":"ce4bgt92rcd13ifvqcg0","pricing_plan_id":"cebpf4jnsgd1na2vs0mg"},{"bike_id":"1973bbf3-d221-4703-829a-f8dd4b0dfd5d","system_id":"levelo_inurba_marseille","lat":43.28976,"lon":5.36635,"is_reserved":false,"is_disabled":false,"rental_uris":{"android":"levelo://app?vid=1973bbf3-d221-4703-829a-f8dd4b0dfd5d","ios":"levelo://app?vid=1973bbf3-d221-4703-829a-f8dd4b0dfd5d"},"vehicle_type_id":"4","last_reported":1781492612,"current_range_meters":8000,"station_id":"","pricing_plan_id":"cebpf4jnsgd1na2vs0mg"},{"bike_id":"19d8e4f5-dc7f-436b-bea8-863731d7c26c","system_id":"levelo_inurba_marseille","lat":43.25342,"lon":5.42169,"is_reserved":false,"is_disabled":false,"rental_uris":{"android":"levelo://app?vid=19d8e4f5-dc7f-436b-bea8-863731d7c26c","ios":"levelo://app?vid=19d8e4f5-dc7f-436b-bea8-863731d7c26c"},"vehicle_type_id":"4","last_reported":1781492612,"current_range_meters":8000,"station_id":"st_d2m65c5bi1j21697t3ng","pricing_plan_id":"cebpf4jnsgd1na2vs0mg"},{"bike_id":"9990f1f1-17f2-4ca8-9888-62cb20f5b6c3","system_id":"levelo_inurba_marseille","lat":43.32476,"lon":5.36557,"is_reserved":false,"is_disabled":false,"rental_uris":{"android":"levelo://app?vid=9990f1f1-17f2-4ca8-9888-62cb20f5b6c3","ios":"levelo://app?vid=9990f1f1-17f2-4ca8-9888-62cb20f5b6c3"},"vehicle_type_id":"4","last_reported":1781492612,"current_range_meters":8000,"station_id":"ce4bhs12rcd13ifvqhvg","pricing_plan_id":"cebpf4jnsgd1na2vs0mg"},{"bike_id":"d379456d-5abf-4a87-a0e1-236a18035146","system_id":"levelo_inurba_marseille","lat":43.30765,"lon":5.37659,"is_reserved":false,"is_disabled":false,"rental_uris":{"android":"levelo://app?vid=d379456d-5abf-4a87-a0e1-236a18035146","ios":"levelo://app?vid=d379456d-5abf-4a87-a0e1-236a18035146"},"vehicle_type_id":"4","last_reported":1781492612,"current_range_meters":8000,"station_id":"ce4bgv92rcd13ifvqcq0","pricing_plan_id":"cebpf4jnsgd1na2vs0mg"},{"bike_id":"8b213dc9-09e1-4ec4-b902-694c3aa7a0e5","system_id":"levelo_inurba_marseille","lat":43.30336,"lon":5.4044,"is_reserved":false,"is_disabled":false,"rental_uris":{"android":"levelo://app?vid=8b213dc9-09e1-4ec4-b902-694c3aa7a0e5","ios":"levelo://app?vid=8b213dc9-09e1-4ec4-b902-694c3aa7a0e5"},"vehicle_type_id":"4","last_reported":1781492612,"current_range_meters":8000,"station_id":"ce4bh012rcd13ifvqd10","pricing_plan_id":"cebpf4jnsgd1na2vs0mg"},{"bike_id":"d13781fd-bf3b-4afd-8dde-d01cb5a8e3a0","system_id":"levelo_inurba_marseille","lat":43.29284,"lon":5.3803,"is_reserved":false,"is_disabled":false,"rental_uris":{"android":"levelo://app?vid=d13781fd-bf3b-4afd-8dde-d01cb5a8e3a0","ios":"levelo://app?vid=d13781fd-bf3b-4afd-8dde-d01cb5a8e3a0"},"vehicle_type_id":"4","last_reported":1781492612,"current_range_meters":8000,"station_id":"","pricing_plan_id":"cebpf4jnsgd1na2vs0mg"},{"bike_id":"edc369f1-b5e9-4a1d-8d28-9bc902276a49","system_id":"levelo_inurba_marseille","lat":43.24801,"lon":5.37461,"is_reserved":false,"is_disabled":true,"rental_uris":{"android":"levelo://app?vid=edc369f1-b5e9-4a1d-8d28-9bc902276a49","ios":"levelo://app?vid=edc369f1-b5e9-4a1d-8d28-9bc902276a49"},"vehicle_type_id":"4","last_reported":1781492612,"current_range_meters":8400,"station_id":"ce4bhgh2rcd13ifvqfb0","pricing_plan_id":"cebpf4jnsgd1na2vs0mg"},{"bike_id":"f04fcc67-cc1b-449b-90dd-61f162ab6ff4","system_id":"levelo_inurba_marseille","lat":43.24648,"lon":5.38893,"is_reserved":false,"is_disabled":false,"rental_uris":{"android":"levelo://app?vid=f04fcc67-cc1b-449b-90dd-61f162ab6ff4","ios":"levelo://app?vid=f04fcc67-cc1b-449b-90dd-61f162ab6ff4"},"vehicle_type_id":"4","last_reported":1781492612,"current_range_meters":8400,"station_id":"ce4bhg12rcd13ifvqf60","pricing_plan_id":"cebpf4jnsgd1na2vs0mg"},{"bike_id":"50e006f0-edf8-4a73-a4be-64a19dcbdd96","system_id":"levelo_inurba_marseille","lat":43.30293,"lon":5.39196,"is_reserved":false,"is_disabled":true,"rental_uris":{"android":"levelo://app?vid=50e006f0-edf8-4a73-a4be-64a19dcbdd96","ios":"levelo://app?vid=50e006f0-edf8-4a73-a4be-64a19dcbdd96"},"vehicle_type_id":"4","last_reported":1781492612,"current_range_meters":8400,"station_id":"ce4bgkh2rcd13ifvqbk0","pricing_plan_id":"cebpf4jnsgd1na2vs0mg"},{"bike_id":"aea32488-dbd7-4def-801e-04620c97a0fe","system_id":"levelo_inurba_marseille","lat":43.21187,"lon":5.35074,"is_reserved":false,"is_disabled":false,"rental_uris":{"android":"levelo://app?vid=aea32488-dbd7-4def-801e-04620c97a0fe","ios":"levelo://app?vid=aea32488-dbd7-4def-801e-04620c97a0fe"},"vehicle_type_id":"4","last_reported":1781492612,"current_range_meters":8400,"station_id":"st_cvj6sg6p6f1abm77japg","pricing_plan_id":"cebpf4jnsgd1na2vs0mg"},{"bike_id":"098062f4-b28c-493f-ada1-4044b7fbd099","system_id":"levelo_inurba_marseille","lat":43.29034,"lon":5.38615,"is_reserved":false,"is_disabled":false,"rental_uris":{"android":"levelo://app?vid=098062f4-b28c-493f-ada1-4044b7fbd099","ios":"levelo://app?vid=098062f4-b28c-493f-ada1-4044b7fbd099"},"vehicle_type_id":"4","last_reported":1781492612,"current_range_meters":8400,"station_id":"ce4bh4p2rcd13ifvqe0g","pricing_plan_id":"cebpf4jnsgd1na2vs0mg"},{"bike_id":"1fed5617-a0ec-423a-9a18-b9dca8c1221b","system_id":"levelo_inurba_marseille","lat":43.23194,"lon":5.35537,"is_reserved":false,"is_disabled":false,"rental_uris":{"android":"levelo://app?vid=1fed5617-a0ec-423a-9a18-b9dca8c1221b","ios":"levelo://app?vid=1fed5617-a0ec-423a-9a18-b9dca8c1221b"},"vehicle_type_id":"4","last_reported":1781492612,"current_range_meters":8400,"station_id":"ce4bhu92rcd13ifvqi70","pricing_plan_id":"cebpf4jnsgd1na2vs0mg"},{"bike_id":"429db7a1-f3aa-4785-94c5-5bf97e571cbf","system_id":"levelo_inurba_marseille","lat":43.24615,"lon":5.43144,"is_reserved":false,"is_disabled":false,"rental_uris":{"android":"levelo://app?vid=429db7a1-f3aa-4785-94c5-5bf97e571cbf","ios":"levelo://app?vid=429db7a1-f3aa-4785-94c5-5bf97e571cbf"},"vehicle_type_id":"4","last_reported":1781492612,"current_range_meters":8400,"station_id":"st_d2m6c4gdas8pm72e190g","pricing_plan_id":"cebpf4jnsgd1na2vs0mg"},{"bike_id":"e487c7b8-3e5d-42e2-b585-07d2bc8f908f","system_id":"levelo_inurba_marseille","lat":43.2496,"lon":5.40499,"is_reserved":false,"is_disabled":false,"rental_uris":{"android":"levelo://app?vid=e487c7b8-3e5d-42e2-b585-07d2bc8f908f","ios":"levelo://app?vid=e487c7b8-3e5d-42e2-b585-07d2bc8f908f"},"vehicle_type_id":"4","last_reported":1781492612,"current_range_meters":8400,"station_id":"st_d2ngiaodas8pm72gd1h0","pricing_plan_id":"cebpf4jnsgd1na2vs0mg"},{"bike_id":"ca3c430a-c3ae-4878-b52f-8dd5fbed1646","system_id":"levelo_inurba_marseille","lat":43.32359,"lon":5.36731,"is_reserved":false,"is_disabled":false,"rental_uris":{"android":"levelo://app?vid=ca3c430a-c3ae-4878-b52f-8dd5fbed1646","ios":"levelo://app?vid=ca3c430a-c3ae-4878-b52f-8dd5fbed1646"},"vehicle_type_id":"4","last_reported":1781492612,"current_range_meters":8400,"station_id":"ce4bhsh2rcd13ifvqi2g","pricing_plan_id":"cebpf4jnsgd1na2vs0mg"},{"bike_id":"b8c29bfe-1254-4e7d-890c-66930afad4dd","system_id":"levelo_inurba_marseille","lat":43.29791,"lon":5.39346,"is_reserved":false,"is_disabled":false,"rental_uris":{"android":"levelo://app?vid=b8c29bfe-1254-4e7d-890c-66930afad4dd","ios":"levelo://app?vid=b8c29bfe-1254-4e7d-890c-66930afad4dd"},"vehicle_type_id":"4","last_reported":1781492612,"current_range_meters":8400,"station_id":"chh1huq6cuj3fo74tm60","pricing_plan_id":"cebpf4jnsgd1na2vs0mg"},{"bike_id":"a92f5016-5ebd-49d9-977d-3d5368454a5e","system_id":"levelo_inurba_marseille","lat":43.32479,"lon":5.38249,"is_reserved":false,"is_disabled":false,"rental_uris":{"android":"levelo://app?vid=a92f5016-5ebd-49d9-977d-3d5368454a5e","ios":"levelo://app?vid=a92f5016-5ebd-49d9-977d-3d5368454a5e"},"vehicle_type_id":"4","last_reported":1781492612,"current_range_meters":8400,"station_id":"st_d4asgbiv49dc73anf9m0","pricing_plan_id":"cebpf4jnsgd1na2vs0mg"},{"bike_id":"ef36c964-a3fa-4afb-9a60-003fd3c65d26","system_id":"levelo_inurba_marseille","lat":43.3147,"lon":5.37307,"is_reserved":false,"is_disabled":false,"rental_uris":{"android":"levelo://app?vid=ef36c964-a3fa-4afb-9a60-003fd3c65d26","ios":"levelo://app?vid=ef36c964-a3fa-4afb-9a60-003fd3c65d26"},"vehicle_type_id":"4","last_reported":1781492612,"current_range_meters":8400,"station_id":"ce4bgt12rcd13ifvqcd0","pricing_plan_id":"cebpf4jnsgd1na2vs0mg"},{"bike_id":"7fa90802-d64f-4457-b2c5-ef4469c1a29a","system_id":"levelo_inurba_marseille","lat":43.29292,"lon":5.37157,"is_reserved":false,"is_disabled":true,"rental_uris":{"android":"levelo://app?vid=7fa90802-d64f-4457-b2c5-ef4469c1a29a","ios":"levelo://app?vid=7fa90802-d64f-4457-b2c5-ef4469c1a29a"},"vehicle_type_id":"4","last_reported":1781492612,"current_range_meters":8400,"station_id":"ce4bgh92rcd13ifvqb40","pricing_plan_id":"cebpf4jnsgd1na2vs0mg"},{"bike_id":"af58319e-1d26-48ca-905d-65dfaddd8e4e","system_id":"levelo_inurba_marseille","lat":43.2988,"lon":5.39742,"is_reserved":false,"is_disabled":false,"rental_uris":{"android":"levelo://app?vid=af58319e-1d26-48ca-905d-65dfaddd8e4e","ios":"levelo://app?vid=af58319e-1d26-48ca-905d-65dfaddd8e4e"},"vehicle_type_id":"4","last_reported":1781492612,"current_range_meters":8400,"station_id":"ce4bh0h2rcd13ifvqd50","pricing_plan_id":"cebpf4jnsgd1na2vs0mg"},{"bike_id":"0d3ee69d-3dda-40fb-9e91-1a515c1050cc","system_id":"levelo_inurba_marseille","lat":43.28481,"lon":5.48395,"is_reserved":false,"is_disabled":false,"rental_uris":{"android":"levelo://app?vid=0d3ee69d-3dda-40fb-9e91-1a515c1050cc","ios":"levelo://app?vid=0d3ee69d-3dda-40fb-9e91-1a515c1050cc"},"vehicle_type_id":"4","last_reported":1781492612,"current_range_meters":8400,"station_id":"st_d3svhcjqgbts73a3dn0g","pricing_plan_id":"cebpf4jnsgd1na2vs0mg"},{"bike_id":"9c11606c-0c5b-4861-a795-534dec5f9d5d","system_id":"levelo_inurba_marseille","lat":43.2988,"lon":5.38863,"is_reserved":false,"is_disabled":false,"rental_uris":{"android":"levelo://app?vid=9c11606c-0c5b-4861-a795-534dec5f9d5d","ios":"levelo://app?vid=9c11606c-0c5b-4861-a795-534dec5f9d5d"},"vehicle_type_id":"4","last_reported":1781492612,"current_range_meters":8400,"station_id":"ce4bh392rcd13ifvqdl0","pricing_plan_id":"cebpf4jnsgd1na2vs0mg"},{"bike_id":"39dfa545-12db-4745-82c2-2724c73b5c4a","system_id":"levelo_inurba_marseille","lat":43.26015,"lon":5.37574,"is_reserved":false,"is_disabled":true,"rental_uris":{"android":"levelo://app?vid=39dfa545-12db-4745-82c2-2724c73b5c4a","ios":"levelo://app?vid=39dfa545-12db-4745-82c2-2724c73b5c4a"},"vehicle_type_id":"4","last_reported":1781492612,"current_range_meters":8400,"station_id":"ce4bhgh2rcd13ifvqfa0","pricing_plan_id":"cebpf4jnsgd1na2vs0mg"},{"bike_id":"035cd80f-c63b-44c7-9fa7-211fc8e2fbd5","system_id":"levelo_inurba_marseille","lat":43.30187,"lon":5.4178,"is_reserved":false,"is_disabled":false,"rental_uris":{"android":"levelo://app?vid=035cd80f-c63b-44c7-9fa7-211fc8e2fbd5","ios":"levelo://app?vid=035cd80f-c63b-44c7-9fa7-211fc8e2fbd5"},"vehicle_type_id":"4","last_reported":1781492612,"current_range_meters":8400,"station_id":"","pricing_plan_id":"cebpf4jnsgd1na2vs0mg"},{"bike_id":"d301638d-863f-455d-9570-d3fd4a04cb14","system_id":"levelo_inurba_marseille","lat":43.2583,"lon":5.39419,"is_reserved":false,"is_disabled":false,"rental_uris":{"android":"levelo://app?vid=d301638d-863f-455d-9570-d3fd4a04cb14","ios":"levelo://app?vid=d301638d-863f-455d-9570-d3fd4a04cb14"},"vehicle_type_id":"4","last_reported":1781492612,"current_range_meters":8400,"station_id":"ce4bhip2rcd13ifvqft0","pricing_plan_id":"cebpf4jnsgd1na2vs0mg"},{"bike_id":"025ae3e9-1183-4ffc-95ca-b8ce6f7c95d7","system_id":"levelo_inurba_marseille","lat":43.27959,"lon":5.38675,"is_reserved":false,"is_disabled":true,"rental_uris":{"android":"levelo://app?vid=025ae3e9-1183-4ffc-95ca-b8ce6f7c95d7","ios":"levelo://app?vid=025ae3e9-1183-4ffc-95ca-b8ce6f7c95d7"},"vehicle_type_id":"4","last_reported":1781492612,"current_range_meters":8400,"station_id":"","pricing_plan_id":"cebpf4jnsgd1na2vs0mg"},{"bike_id":"4084a454-f4dc-495c-a0e5-dc894c23f5d4","system_id":"levelo_inurba_marseille","lat":43.30804,"lon":5.38149,"is_reserved":false,"is_disabled":true,"rental_uris":{"android":"levelo://app?vid=4084a454-f4dc-495c-a0e5-dc894c23f5d4","ios":"levelo://app?vid=4084a454-f4dc-495c-a0e5-dc894c23f5d4"},"vehicle_type_id":"4","last_reported":1781492612,"current_range_meters":8400,"station_id":"ce4bgt12rcd13ifvqce0","pricing_plan_id":"cebpf4jnsgd1na2vs0mg"},{"bike_id":"f060f0b2-bb2e-42c4-9937-41f38cb60db3","system_id":"levelo_inurba_marseille","lat":43.28624,"lon":5.3511,"is_reserved":false,"is_disabled":false,"rental_uris":{"android":"levelo://app?vid=f060f0b2-bb2e-42c4-9937-41f38cb60db3","ios":"levelo://app?vid=f060f0b2-bb2e-42c4-9937-41f38cb60db3"},"vehicle_type_id":"4","last_reported":1781492612,"current_range_meters":8400,"station_id":"ce4bhch2rcd13ifvqeug","pricing_plan_id":"cebpf4jnsgd1na2vs0mg"},{"bike_id":"ca05e859-94fa-4044-8826-aff239396ce0","system_id":"levelo_inurba_marseille","lat":43.23916,"lon":5.4148,"is_reserved":false,"is_disabled":false,"rental_uris":{"android":"levelo://app?vid=ca05e859-94fa-4044-8826-aff239396ce0","ios":"levelo://app?vid=ca05e859-94fa-4044-8826-aff239396ce0"},"vehicle_type_id":"4","last_reported":1781492612,"current_range_meters":8400,"station_id":"","pricing_plan_id":"cebpf4jnsgd1na2vs0mg"},{"bike_id":"d1b2a1bb-5f3e-4dd9-b748-607e05d4203e","system_id":"levelo_inurba_marseille","lat":43.29501,"lon":5.39025,"is_reserved":false,"is_disabled":true,"rental_uris":{"android":"levelo://app?vid=d1b2a1bb-5f3e-4dd9-b748-607e05d4203e","ios":"levelo://app?vid=d1b2a1bb-5f3e-4dd9-b748-607e05d4203e"},"vehicle_type_id":"4","last_reported":1781492612,"current_range_meters":8400,"station_id":"ce4bh3p2rcd13ifvqdp0","pricing_plan_id":"cebpf4jnsgd1na2vs0mg"},{"bike_id":"a5cf2c1c-04b4-47f7-9978-0ad956934cfb","system_id":"levelo_inurba_marseille","lat":43.29679,"lon":5.36587,"is_reserved":false,"is_disabled":true,"rental_uris":{"android":"levelo://app?vid=a5cf2c1c-04b4-47f7-9978-0ad956934cfb","ios":"levelo://app?vid=a5cf2c1c-04b4-47f7-9978-0ad956934cfb"},"vehicle_type_id":"4","last_reported":1781492612,"current_range_meters":8400,"station_id":"ce4bgn12rcd13ifvqbt0","pricing_plan_id":"cebpf4jnsgd1na2vs0mg"},{"bike_id":"7cfe043d-d662-4502-8aee-12bf6835f5bf","system_id":"levelo_inurba_marseille","lat":43.24468,"lon":5.42555,"is_reserved":false,"is_disabled":false,"rental_uris":{"android":"levelo://app?vid=7cfe043d-d662-4502-8aee-12bf6835f5bf","ios":"levelo://app?vid=7cfe043d-d662-4502-8aee-12bf6835f5bf"},"vehicle_type_id":"4","last_reported":1781492612,"current_range_meters":8400,"station_id":"st_d4a3vfp97mjs738cd8kg","pricing_plan_id":"cebpf4jnsgd1na2vs0mg"},{"bike_id":"dd293bc6-b379-4dd5-9aa3-0b618446b7d3","system_id":"levelo_inurba_marseille","lat":43.225337,"lon":5.348388,"is_reserved":false,"is_disabled":false,"rental_uris":{"android":"levelo://app?vid=dd293bc6-b379-4dd5-9aa3-0b618446b7d3","ios":"levelo://app?vid=dd293bc6-b379-4dd5-9aa3-0b618446b7d3"},"vehicle_type_id":"4","last_reported":1781492612,"current_range_meters":8400,"station_id":"st_cvj5dfep6f1abm77gieg","pricing_plan_id":"cebpf4jnsgd1na2vs0mg"},{"bike_id":"b731dd91-d2e5-4c6b-b885-89074fae3642","system_id":"levelo_inurba_marseille","lat":43.25304,"lon":5.38019,"is_reserved":false,"is_disabled":false,"rental_uris":{"android":"levelo://app?vid=b731dd91-d2e5-4c6b-b885-89074fae3642","ios":"levelo://app?vid=b731dd91-d2e5-4c6b-b885-89074fae3642"},