{"last_updated":1737353605,"ttl":60,"version":"2.2","data":{"bikes":[{"bike_id":"34770209-2e0c-4f1c-a2f4-48b2d33e3b28","system_id":"levelo_inurba_marseille","lat":43.27988,"lon":5.40028,"is_reserved":false,"is_disabled":false,"rental_uris":{"android":"levelo://app?vid=34770209-2e0c-4f1c-a2f4-48b2d33e3b28","ios":"levelo://app?vid=34770209-2e0c-4f1c-a2f4-48b2d33e3b28"},"vehicle_type_id":"4","last_reported":1737353605,"current_range_meters":39200,"station_id":"ce4bho92rcd13ifvqh4g","pricing_plan_id":"cebpf4jnsgd1na2vs0mg"},{"bike_id":"8bface02-8741-4157-a2ca-4b8723bc93d9","system_id":"levelo_inurba_marseille","lat":43.3129,"lon":5.4016,"is_reserved":false,"is_disabled":false,"rental_uris":{"android":"levelo://app?vid=8bface02-8741-4157-a2ca-4b8723bc93d9","ios":"levelo://app?vid=8bface02-8741-4157-a2ca-4b8723bc93d9"},"vehicle_type_id":"4","last_reported":1737353605,"current_range_meters":38800,"station_id":"ce4bh092rcd13ifvqd30","pricing_plan_id":"cebpf4jnsgd1na2vs0mg"},{"bike_id":"17a6427c-4d22-4e4d-b3c0-28a1908aff44","system_id":"levelo_inurba_marseille","lat":43.24797,"lon":5.37453,"is_reserved":false,"is_disabled":false,"rental_uris":{"android":"levelo://app?vid=17a6427c-4d22-4e4d-b3c0-28a1908aff44","ios":"levelo://app?vid=17a6427c-4d22-4e4d-b3c0-28a1908aff44"},"vehicle_type_id":"4","last_reported":1737353605,"current_range_meters":38800,"station_id":"ce4bhgh2rcd13ifvqfb0","pricing_plan_id":"cebpf4jnsgd1na2vs0mg"},{"bike_id":"54699930-2dbc-4d91-ab1b-41cfe810e817","system_id":"levelo_inurba_marseille","lat":43.29186,"lon":5.39379,"is_reserved":false,"is_disabled":true,"rental_uris":{"android":"levelo://app?vid=54699930-2dbc-4d91-ab1b-41cfe810e817","ios":"levelo://app?vid=54699930-2dbc-4d91-ab1b-41cfe810e817"},"vehicle_type_id":"4","last_reported":1737353605,"current_range_meters":0,"station_id":"","pricing_plan_id":"cebpf4jnsgd1na2vs0mg"},{"bike_id":"d383b76c-b1c5-4112-bf95-e420a42ff72e","system_id":"levelo_inurba_marseille","lat":43.248189,"lon":5.374565,"is_reserved":false,"is_disabled":false,"rental_uris":{"android":"levelo://app?vid=d383b76c-b1c5-4112-bf95-e420a42ff72e","ios":"levelo://app?vid=d383b76c-b1c5-4112-bf95-e420a42ff72e"},"vehicle_type_id":"4","last_reported":1737353605,"current_range_meters":33600,"station_id":"ce4bhgh2rcd13ifvqfb0","pricing_plan_id":"cebpf4jnsgd1na2vs0mg"},{"bike_id":"e841df29-8d21-48cf-a019-18bc26b21d64","system_id":"levelo_inurba_marseille","lat":43.27375,"lon":5.36242,"is_reserved":false,"is_disabled":false,"rental_uris":{"android":"levelo://app?vid=e841df29-8d21-48cf-a019-18bc26b21d64","ios":"levelo://app?vid=e841df29-8d21-48cf-a019-18bc26b21d64"},"vehicle_type_id":"4","last_reported":1737353605,"current_range_meters":38000,"station_id":"ce4bhbh2rcd13ifvqeo0","pricing_plan_id":"cebpf4jnsgd1na2vs0mg"},{"bike_id":"016891d3-d48d-43ea-9d8d-aacd30510a50","system_id":"levelo_inurba_marseille","lat":43.23055,"lon":5.35485,"is_reserved":false,"is_disabled":false,"rental_uris":{"android":"levelo://app?vid=016891d3-d48d-43ea-9d8d-aacd30510a50","ios":"levelo://app?vid=016891d3-d48d-43ea-9d8d-aacd30510a50"},"vehicle_type_id":"4","last_reported":1737353605,"current_range_meters":20000,"station_id":"cpo3342slgdg3j2ifvpg","pricing_plan_id":"cebpf4jnsgd1na2vs0mg"},{"bike_id":"fa45cee9-f964-4ae4-b5e8-98187e4255e3","system_id":"levelo_inurba_marseille","lat":43.25114,"lon":5.40334,"is_reserved":false,"is_disabled":false,"rental_uris":{"android":"levelo://app?vid=fa45cee9-f964-4ae4-b5e8-98187e4255e3","ios":"levelo://app?vid=fa45cee9-f964-4ae4-b5e8-98187e4255e3"},"vehicle_type_id":"4","last_reported":1737353605,"current_range_meters":28400,"station_id":"ce4bhlh2rcd13ifvqgig","pricing_plan_id":"cebpf4jnsgd1na2vs0mg"},{"bike_id":"a5cfd84d-4cae-4412-b199-dcb982d64799","system_id":"levelo_inurba_marseille","lat":43.28448,"lon":5.39195,"is_reserved":false,"is_disabled":true,"rental_uris":{"android":"levelo://app?vid=a5cfd84d-4cae-4412-b199-dcb982d64799","ios":"levelo://app?vid=a5cfd84d-4cae-4412-b199-dcb982d64799"},"vehicle_type_id":"4","last_reported":1737353605,"current_range_meters":0,"station_id":"ce4bhoh2rcd13ifvqh5g","pricing_plan_id":"cebpf4jnsgd1na2vs0mg"},{"bike_id":"d957c2d8-61d0-4944-ac88-d531bf9a6e72","system_id":"levelo_inurba_marseille","lat":43.25704,"lon":5.41115,"is_reserved":false,"is_disabled":false,"rental_uris":{"android":"levelo://app?vid=d957c2d8-61d0-4944-ac88-d531bf9a6e72","ios":"levelo://app?vid=d957c2d8-61d0-4944-ac88-d531bf9a6e72"},"vehicle_type_id":"4","last_reported":1737353605,"current_range_meters":17200,"station_id":"ce4bhkp2rcd13ifvqgd0","pricing_plan_id":"cebpf4jnsgd1na2vs0mg"},{"bike_id":"2b085248-87cc-4c64-b31b-d47cccf2b2a5","system_id":"levelo_inurba_marseille","lat":43.29976,"lon":5.37198,"is_reserved":false,"is_disabled":false,"rental_uris":{"android":"levelo://app?vid=2b085248-87cc-4c64-b31b-d47cccf2b2a5","ios":"levelo://app?vid=2b085248-87cc-4c64-b31b-d47cccf2b2a5"},"vehicle_type_id":"4","last_reported":1737353605,"current_range_meters":38800,"station_id":"ce4bgr92rcd13ifvqc7g","pricing_plan_id":"cebpf4jnsgd1na2vs0mg"},{"bike_id":"7d825a03-ce25-4f10-8b74-9c41af3c3987","system_id":"levelo_inurba_marseille","lat":43.27996,"lon":5.40011,"is_reserved":false,"is_disabled":true,"rental_uris":{"android":"levelo://app?vid=7d825a03-ce25-4f10-8b74-9c41af3c3987","ios":"levelo://app?vid=7d825a03-ce25-4f10-8b74-9c41af3c3987"},"vehicle_type_id":"4","last_reported":1737353605,"current_range_meters":0,"station_id":"ce4bho92rcd13ifvqh4g","pricing_plan_id":"cebpf4jnsgd1na2vs0mg"},{"bike_id":"c981f361-a508-4553-8bc2-435b4c98d6fb","system_id":"levelo_inurba_marseille","lat":43.31502,"lon":5.37292,"is_reserved":false,"is_disabled":false,"rental_uris":{"android":"levelo://app?vid=c981f361-a508-4553-8bc2-435b4c98d6fb","ios":"levelo://app?vid=c981f361-a508-4553-8bc2-435b4c98d6fb"},"vehicle_type_id":"4","last_reported":1737353605,"current_range_meters":12800,"station_id":"ce4bgt12rcd13ifvqcd0","pricing_plan_id":"cebpf4jnsgd1na2vs0mg"},{"bike_id":"0df77782-f917-4e8b-8812-f4679a4fa790","system_id":"levelo_inurba_marseille","lat":43.287282,"lon":5.360822,"is_reserved":false,"is_disabled":false,"rental_uris":{"android":"levelo://app?vid=0df77782-f917-4e8b-8812-f4679a4fa790","ios":"levelo://app?vid=0df77782-f917-4e8b-8812-f4679a4fa790"},"vehicle_type_id":"4","last_reported":1737353605,"current_range_meters":38800,"station_id":"cki0cbj6b192h4jlfktg","pricing_plan_id":"cebpf4jnsgd1na2vs0mg"},{"bike_id":"e3d5a69f-7604-4ab5-bfce-dc9cf0dd7b56","system_id":"levelo_inurba_marseille","lat":43.29565,"lon":5.39965,"is_reserved":false,"is_disabled":true,"rental_uris":{"android":"levelo://app?vid=e3d5a69f-7604-4ab5-bfce-dc9cf0dd7b56","ios":"levelo://app?vid=e3d5a69f-7604-4ab5-bfce-dc9cf0dd7b56"},"vehicle_type_id":"4","last_reported":1737353605,"current_range_meters":26000,"station_id":"ce4bh312rcd13ifvqdj0","pricing_plan_id":"cebpf4jnsgd1na2vs0mg"},{"bike_id":"930e9475-df87-4888-8010-9820dc35fe15","system_id":"levelo_inurba_marseille","lat":43.29371,"lon":5.37833,"is_reserved":false,"is_disabled":false,"rental_uris":{"android":"levelo://app?vid=930e9475-df87-4888-8010-9820dc35fe15","ios":"levelo://app?vid=930e9475-df87-4888-8010-9820dc35fe15"},"vehicle_type_id":"4","last_reported":1737353605,"current_range_meters":30000,"station_id":"ce4bgjh2rcd13ifvqbf0","pricing_plan_id":"cebpf4jnsgd1na2vs0mg"},{"bike_id":"4379514a-276f-4575-9ef7-555d59752766","system_id":"levelo_inurba_marseille","lat":43.25107,"lon":5.40324,"is_reserved":false,"is_disabled":false,"rental_uris":{"android":"levelo://app?vid=4379514a-276f-4575-9ef7-555d59752766","ios":"levelo://app?vid=4379514a-276f-4575-9ef7-555d59752766"},"vehicle_type_id":"4","last_reported":1737353605,"current_range_meters":25600,"station_id":"ce4bhlh2rcd13ifvqgig","pricing_plan_id":"cebpf4jnsgd1na2vs0mg"},{"bike_id":"a15481fc-8117-47fa-8058-02c79ff5be87","system_id":"levelo_inurba_marseille","lat":43.25106,"lon":5.40326,"is_reserved":false,"is_disabled":false,"rental_uris":{"android":"levelo://app?vid=a15481fc-8117-47fa-8058-02c79ff5be87","ios":"levelo://app?vid=a15481fc-8117-47fa-8058-02c79ff5be87"},"vehicle_type_id":"4","last_reported":1737353605,"current_range_meters":37600,"station_id":"ce4bhlh2rcd13ifvqgig","pricing_plan_id":"cebpf4jnsgd1na2vs0mg"},{"bike_id":"c1c294be-9888-484f-b942-cb45ed177ba0","system_id":"levelo_inurba_marseille","lat":43.31722,"lon":5.424,"is_reserved":false,"is_disabled":false,"rental_uris":{"android":"levelo://app?vid=c1c294be-9888-484f-b942-cb45ed177ba0","ios":"levelo://app?vid=c1c294be-9888-484f-b942-cb45ed177ba0"},"vehicle_type_id":"4","last_reported":1737353605,"current_range_meters":38000,"station_id":"ce4bhp92rcd13ifvqhbg","pricing_plan_id":"cebpf4jnsgd1na2vs0mg"},{"bike_id":"df3e1778-276c-4428-8d4a-eb8cd48b560f","system_id":"levelo_inurba_marseille","lat":43.28437,"lon":5.39193,"is_reserved":false,"is_disabled":false,"rental_uris":{"android":"levelo://app?vid=df3e1778-276c-4428-8d4a-eb8cd48b560f","ios":"levelo://app?vid=df3e1778-276c-4428-8d4a-eb8cd48b560f"},"vehicle_type_id":"4","last_reported":1737353605,"current_range_meters":36800,"station_id":"ce4bhoh2rcd13ifvqh5g","pricing_plan_id":"cebpf4jnsgd1na2vs0mg"},{"bike_id":"365c623b-5ad5-47e2-a231-fb7961d1cced","system_id":"levelo_inurba_marseille","lat":43.30459,"lon":5.37903,"is_reserved":false,"is_disabled":false,"rental_uris":{"android":"levelo://app?vid=365c623b-5ad5-47e2-a231-fb7961d1cced","ios":"levelo://app?vid=365c623b-5ad5-47e2-a231-fb7961d1cced"},"vehicle_type_id":"4","last_reported":1737353605,"current_range_meters":31200,"station_id":"ce4bgup2rcd13ifvqcn0","pricing_plan_id":"cebpf4jnsgd1na2vs0mg"},{"bike_id":"763ed4fc-16fd-47a0-aedf-62c028daa66f","system_id":"levelo_inurba_marseille","lat":43.36392,"lon":5.35559,"is_reserved":false,"is_disabled":false,"rental_uris":{"android":"levelo://app?vid=763ed4fc-16fd-47a0-aedf-62c028daa66f","ios":"levelo://app?vid=763ed4fc-16fd-47a0-aedf-62c028daa66f"},"vehicle_type_id":"4","last_reported":1737353605,"current_range_meters":10000,"station_id":"","pricing_plan_id":"cebpf4jnsgd1na2vs0mg"},{"bike_id":"56855a2d-6aa0-43be-9bd4-39897b793621","system_id":"levelo_inurba_marseille","lat":43.23195,"lon":5.35549,"is_reserved":false,"is_disabled":false,"rental_uris":{"android":"levelo://app?vid=56855a2d-6aa0-43be-9bd4-39897b793621","ios":"levelo://app?vid=56855a2d-6aa0-43be-9bd4-39897b793621"},"vehicle_type_id":"4","last_reported":1737353605,"current_range_meters":4800,"station_id":"ce4bhu92rcd13ifvqi70","pricing_plan_id":"cebpf4jnsgd1na2vs0mg"},{"bike_id":"dd3e648d-0c8b-4027-a5f5-caba6b440753","system_id":"levelo_inurba_marseille","lat":43.23199,"lon":5.3998,"is_reserved":false,"is_disabled":false,"rental_uris":{"android":"levelo://app?vid=dd3e648d-0c8b-4027-a5f5-caba6b440753","ios":"levelo://app?vid=dd3e648d-0c8b-4027-a5f5-caba6b440753"},"vehicle_type_id":"4","last_reported":1737353605,"current_range_meters":38800,"station_id":"ce4bhn12rcd13ifvqgqg","pricing_plan_id":"cebpf4jnsgd1na2vs0mg"},{"bike_id":"9670fec8-d482-4754-899a-f18d6b72c3bf","system_id":"levelo_inurba_marseille","lat":43.31233,"lon":5.36884,"is_reserved":false,"is_disabled":false,"rental_uris":{"android":"levelo://app?vid=9670fec8-d482-4754-899a-f18d6b72c3bf","ios":"levelo://app?vid=9670fec8-d482-4754-899a-f18d6b72c3bf"},"vehicle_type_id":"4","last_reported":1737353605,"current_range_meters":24000,"station_id":"ce4bgl92rcd13ifvqbq0","pricing_plan_id":"cebpf4jnsgd1na2vs0mg"},{"bike_id":"7d0d7cb7-baf6-47c1-968d-e07d9324534d","system_id":"levelo_inurba_marseille","lat":43.30152,"lon":5.39879,"is_reserved":false,"is_disabled":false,"rental_uris":{"android":"levelo://app?vid=7d0d7cb7-baf6-47c1-968d-e07d9324534d","ios":"levelo://app?vid=7d0d7cb7-baf6-47c1-968d-e07d9324534d"},"vehicle_type_id":"4","last_reported":1737353605,"current_range_meters":38800,"station_id":"ce4bh0h2rcd13ifvqd40","pricing_plan_id":"cebpf4jnsgd1na2vs0mg"},{"bike_id":"f3c94274-f861-4c89-8bb1-1ebe1a531935","system_id":"levelo_inurba_marseille","lat":43.25001,"lon":5.38932,"is_reserved":false,"is_disabled":false,"rental_uris":{"android":"levelo://app?vid=f3c94274-f861-4c89-8bb1-1ebe1a531935","ios":"levelo://app?vid=f3c94274-f861-4c89-8bb1-1ebe1a531935"},"vehicle_type_id":"4","last_reported":1737353605,"current_range_meters":35600,"station_id":"ce4bhgp2rcd13ifvqfd0","pricing_plan_id":"cebpf4jnsgd1na2vs0mg"},{"bike_id":"adb118d6-cabd-484d-ac59-2e04d54bc02a","system_id":"levelo_inurba_marseille","lat":43.25718,"lon":5.41111,"is_reserved":false,"is_disabled":false,"rental_uris":{"android":"levelo://app?vid=adb118d6-cabd-484d-ac59-2e04d54bc02a","ios":"levelo://app?vid=adb118d6-cabd-484d-ac59-2e04d54bc02a"},"vehicle_type_id":"4","last_reported":1737353605,"current_range_meters":29600,"station_id":"ce4bhkp2rcd13ifvqgd0","pricing_plan_id":"cebpf4jnsgd1na2vs0mg"},{"bike_id":"ea820ade-d81d-428e-82b9-7f165f7e8e75","system_id":"levelo_inurba_marseille","lat":43.32367,"lon":5.3676,"is_reserved":false,"is_disabled":false,"rental_uris":{"android":"levelo://app?vid=ea820ade-d81d-428e-82b9-7f165f7e8e75","ios":"levelo://app?vid=ea820ade-d81d-428e-82b9-7f165f7e8e75"},"vehicle_type_id":"4","last_reported":1737353605,"current_range_meters":11600,"station_id":"ce4bhsh2rcd13ifvqi2g","pricing_plan_id":"cebpf4jnsgd1na2vs0mg"},{"bike_id":"c29020e0-83ef-4b06-ac4f-c4422257f84a","system_id":"levelo_inurba_marseille","lat":43.36401,"lon":5.35589,"is_reserved":false,"is_disabled":false,"rental_uris":{"android":"levelo://app?vid=c29020e0-83ef-4b06-ac4f-c4422257f84a","ios":"levelo://app?vid=c29020e0-83ef-4b06-ac4f-c4422257f84a"},"vehicle_type_id":"4","last_reported":1737353605,"current_range_meters":15200,"station_id":"","pricing_plan_id":"cebpf4jnsgd1na2vs0mg"},{"bike_id":"9a9f5094-96b5-4ffb-92ab-bc926b485321","system_id":"levelo_inurba_marseille","lat":43.231869,"lon":5.399822,"is_reserved":false,"is_disabled":false,"rental_uris":{"android":"levelo://app?vid=9a9f5094-96b5-4ffb-92ab-bc926b485321","ios":"levelo://app?vid=9a9f5094-96b5-4ffb-92ab-bc926b485321"},"vehicle_type_id":"4","last_reported":1737353605,"current_range_meters":38800,"station_id":"ce4bhn12rcd13ifvqgqg","pricing_plan_id":"cebpf4jnsgd1na2vs0mg"},{"bike_id":"59c9ffe5-1cb3-45ed-b650-582ed780df57","system_id":"levelo_inurba_marseille","lat":43.24074,"lon":5.37753,"is_reserved":false,"is_disabled":false,"rental_uris":{"android":"levelo://app?vid=59c9ffe5-1cb3-45ed-b650-582ed780df57","ios":"levelo://app?vid=59c9ffe5-1cb3-45ed-b650-582ed780df57"},"vehicle_type_id":"4","last_reported":1737353605,"current_range_meters":38800,"station_id":"ce4bhnp2rcd13ifvqgvg","pricing_plan_id":"cebpf4jnsgd1na2vs0mg"},{"bike_id":"61660d2a-110c-4fbd-9903-44dcd0164780","system_id":"levelo_inurba_marseille","lat":43.2894,"lon":5.36411,"is_reserved":false,"is_disabled":false,"rental_uris":{"android":"levelo://app?vid=61660d2a-110c-4fbd-9903-44dcd0164780","ios":"levelo://app?vid=61660d2a-110c-4fbd-9903-44dcd0164780"},"vehicle_type_id":"4","last_reported":1737353605,"current_range_meters":19200,"station_id":"ce4bhc92rcd13ifvqetg","pricing_plan_id":"cebpf4jnsgd1na2vs0mg"},{"bike_id":"6bf5bd29-3e54-437a-9020-86384919dc04","system_id":"levelo_inurba_marseille","lat":43.32278,"lon":5.3826,"is_reserved":false,"is_disabled":false,"rental_uris":{"android":"levelo://app?vid=6bf5bd29-3e54-437a-9020-86384919dc04","ios":"levelo://app?vid=6bf5bd29-3e54-437a-9020-86384919dc04"},"vehicle_type_id":"4","last_reported":1737353605,"current_range_meters":38800,"station_id":"ce4bhr12rcd13ifvqhqg","pricing_plan_id":"cebpf4jnsgd1na2vs0mg"},{"bike_id":"8038c4d5-2330-4f5f-9158-cd82e016484a","system_id":"levelo_inurba_marseille","lat":43.28441,"lon":5.35005,"is_reserved":false,"is_disabled":false,"rental_uris":{"android":"levelo://app?vid=8038c4d5-2330-4f5f-9158-cd82e016484a","ios":"levelo://app?vid=8038c4d5-2330-4f5f-9158-cd82e016484a"},"vehicle_type_id":"4","last_reported":1737353605,"current_range_meters":29600,"station_id":"ce4bhbh2rcd13ifvqepg","pricing_plan_id":"cebpf4jnsgd1na2vs0mg"},{"bike_id":"b672b566-ae6e-4181-a2cb-0155be334a04","system_id":"levelo_inurba_marseille","lat":43.28943,"lon":5.36621,"is_reserved":false,"is_disabled":true,"rental_uris":{"android":"levelo://app?vid=b672b566-ae6e-4181-a2cb-0155be334a04","ios":"levelo://app?vid=b672b566-ae6e-4181-a2cb-0155be334a04"},"vehicle_type_id":"4","last_reported":1737353605,"current_range_meters":30400,"station_id":"ce4bhap2rcd13ifvqek0","pricing_plan_id":"cebpf4jnsgd1na2vs0mg"},{"bike_id":"ca98431d-f14c-47d1-aeae-1690bca3c36e","system_id":"levelo_inurba_marseille","lat":43.26681,"lon":5.38267,"is_reserved":false,"is_disabled":false,"rental_uris":{"android":"levelo://app?vid=ca98431d-f14c-47d1-aeae-1690bca3c36e","ios":"levelo://app?vid=ca98431d-f14c-47d1-aeae-1690bca3c36e"},"vehicle_type_id":"4","last_reported":1737353605,"current_range_meters":27200,"station_id":"ce4bhg92rcd13ifvqf90","pricing_plan_id":"cebpf4jnsgd1na2vs0mg"},{"bike_id":"04e7f6b2-1170-476d-8eb7-54bc6ab7d23c","system_id":"levelo_inurba_marseille","lat":43.24388,"lon":5.37043,"is_reserved":false,"is_disabled":false,"rental_uris":{"android":"levelo://app?vid=04e7f6b2-1170-476d-8eb7-54bc6ab7d23c","ios":"levelo://app?vid=04e7f6b2-1170-476d-8eb7-54bc6ab7d23c"},"vehicle_type_id":"4","last_reported":1737353605,"current_range_meters":35600,"station_id":"ce4bhhh2rcd13ifvqfk0","pricing_plan_id":"cebpf4jnsgd1na2vs0mg"},{"bike_id":"804b6c9d-51d9-4f47-91cb-933644df06ba","system_id":"levelo_inurba_marseille","lat":43.30133,"lon":5.38791,"is_reserved":false,"is_disabled":false,"rental_uris":{"android":"levelo://app?vid=804b6c9d-51d9-4f47-91cb-933644df06ba","ios":"levelo://app?vid=804b6c9d-51d9-4f47-91cb-933644df06ba"},"vehicle_type_id":"4","last_reported":1737353605,"current_range_meters":38800,"station_id":"ce4bghh2rcd13ifvqb60","pricing_plan_id":"cebpf4jnsgd1na2vs0mg"},{"bike_id":"c2d5a3c7-fe23-4cfe-ad9f-493754cb0977","system_id":"levelo_inurba_marseille","lat":43.28703,"lon":5.37397,"is_reserved":false,"is_disabled":false,"rental_uris":{"android":"levelo://app?vid=c2d5a3c7-fe23-4cfe-ad9f-493754cb0977","ios":"levelo://app?vid=c2d5a3c7-fe23-4cfe-ad9f-493754cb0977"},"vehicle_type_id":"4","last_reported":1737353605,"current_range_meters":16000,"station_id":"ce4bh3p2rcd13ifvqdq0","pricing_plan_id":"cebpf4jnsgd1na2vs0mg"},{"bike_id":"6c2c807e-a3fb-4456-a97d-28ed8ddd6391","system_id":"levelo_inurba_marseille","lat":43.30102,"lon":5.39075,"is_reserved":false,"is_disabled":false,"rental_uris":{"android":"levelo://app?vid=6c2c807e-a3fb-4456-a97d-28ed8ddd6391","ios":"levelo://app?vid=6c2c807e-a3fb-4456-a97d-28ed8ddd6391"},"vehicle_type_id":"4","last_reported":1737353605,"current_range_meters":38400,"station_id":"ce4bh192rcd13ifvqdb0","pricing_plan_id":"cebpf4jnsgd1na2vs0mg"},{"bike_id":"c8fe6bd0-5be5-4ede-8e98-69d8c19fd7cf","system_id":"levelo_inurba_marseille","lat":43.23154,"lon":5.43707,"is_reserved":false,"is_disabled":false,"rental_uris":{"android":"levelo://app?vid=c8fe6bd0-5be5-4ede-8e98-69d8c19fd7cf","ios":"levelo://app?vid=c8fe6bd0-5be5-4ede-8e98-69d8c19fd7cf"},"vehicle_type_id":"4","last_reported":1737353605,"current_range_meters":38000,"station_id":"ce4bhmp2rcd13ifvqgog","pricing_plan_id":"cebpf4jnsgd1na2vs0mg"},{"bike_id":"a1268425-e1b2-45b1-8fbc-9391b8140126","system_id":"levelo_inurba_marseille","lat":43.24387,"lon":5.37047,"is_reserved":false,"is_disabled":false,"rental_uris":{"android":"levelo://app?vid=a1268425-e1b2-45b1-8fbc-9391b8140126","ios":"levelo://app?vid=a1268425-e1b2-45b1-8fbc-9391b8140126"},"vehicle_type_id":"4","last_reported":1737353605,"current_range_meters":26800,"station_id":"ce4bhhh2rcd13ifvqfk0","pricing_plan_id":"cebpf4jnsgd1na2vs0mg"},{"bike_id":"d6dda788-2ee0-45e5-a6fd-f8b98f248df1","system_id":"levelo_inurba_marseille","lat":43.231526,"lon":5.437062,"is_reserved":false,"is_disabled":false,"rental_uris":{"android":"levelo://app?vid=d6dda788-2ee0-45e5-a6fd-f8b98f248df1","ios":"levelo://app?vid=d6dda788-2ee0-45e5-a6fd-f8b98f248df1"},"vehicle_type_id":"4","last_reported":1737353605,"current_range_meters":38000,"station_id":"ce4bhmp2rcd13ifvqgog","pricing_plan_id":"cebpf4jnsgd1na2vs0mg"},{"bike_id":"ec7e801f-93e2-42d4-b442-daf467f8a6bc","system_id":"levelo_inurba_marseille","lat":43.30798,"lon":5.38166,"is_reserved":false,"is_disabled":false,"rental_uris":{"android":"levelo://app?vid=ec7e801f-93e2-42d4-b442-daf467f8a6bc","ios":"levelo://app?vid=ec7e801f-93e2-42d4-b442-daf467f8a6bc"},"vehicle_type_id":"4","last_reported":1737353605,"current_range_meters":37600,"station_id":"ce4bgt12rcd13ifvqce0","pricing_plan_id":"cebpf4jnsgd1na2vs0mg"},{"bike_id":"f64b4fe7-ccb7-4b45-8f0b-5be34f999283","system_id":"levelo_inurba_marseille","lat":43.32545,"lon":5.41477,"is_reserved":false,"is_disabled":false,"rental_uris":{"android":"levelo://app?vid=f64b4fe7-ccb7-4b45-8f0b-5be34f999283","ios":"levelo://app?vid=f64b4fe7-ccb7-4b45-8f0b-5be34f999283"},"vehicle_type_id":"4","last_reported":1737353605,"current_range_meters":38000,"station_id":"ce4bhq12rcd13ifvqhhg","pricing_plan_id":"cebpf4jnsgd1na2vs0mg"},{"bike_id":"529c5357-3139-4edd-85ea-52fbb21f95f1","system_id":"levelo_inurba_marseille","lat":43.291952,"lon":5.393295,"is_reserved":false,"is_disabled":false,"rental_uris":{"android":"levelo://app?vid=529c5357-3139-4edd-85ea-52fbb21f95f1","ios":"levelo://app?vid=529c5357-3139-4edd-85ea-52fbb21f95f1"},"vehicle_type_id":"4","last_reported":1737353605,"current_range_meters":38800,"station_id":"ce4bh192rcd13ifvqdd0","pricing_plan_id":"cebpf4jnsgd1na2vs0mg"},{"bike_id":"81112329-1dad-4775-ba9b-1357b51686d0","system_id":"levelo_inurba_marseille","lat":43.313287,"lon":5.373357,"is_reserved":false,"is_disabled":false,"rental_uris":{"android":"levelo://app?vid=81112329-1dad-4775-ba9b-1357b51686d0","ios":"levelo://app?vid=81112329-1dad-4775-ba9b-1357b51686d0"},"vehicle_type_id":"4","last_reported":1737353605,"current_range_meters":34000,"station_id":"","pricing_plan_id":"cebpf4jnsgd1na2vs0mg"},{"bike_id":"aa58a370-3dfc-419f-ac67-60fe6fa0a1a7","system_id":"levelo_inurba_marseille","lat":43.24672,"lon":5.38173,"is_reserved":false,"is_disabled":false,"rental_uris":{"android":"levelo://app?vid=aa58a370-3dfc-419f-ac67-60fe6fa0a1a7","ios":"levelo://app?vid=aa58a370-3dfc-419f-ac67-60fe6fa0a1a7"},"vehicle_type_id":"4","last_reported":1737353605,"current_range_meters":8000,"station_id":"ce4bhih2rcd13ifvqfr0","pricing_plan_id":"cebpf4jnsgd1na2vs0mg"},{"bike_id":"bdd38d2b-adb4-44c3-b80a-c393381aa23c","system_id":"levelo_inurba_marseille","lat":43.31113,"lon":5.37792,"is_reserved":false,"is_disabled":false,"rental_uris":{"android":"levelo://app?vid=bdd38d2b-adb4-44c3-b80a-c393381aa23c","ios":"levelo://app?vid=bdd38d2b-adb4-44c3-b80a-c393381aa23c"},"vehicle_type_id":"4","last_reported":1737353605,"current_range_meters":30800,"station_id":"ce4bgt92rcd13ifvqcg0","pricing_plan_id":"cebpf4jnsgd1na2vs0mg"},{"bike_id":"8faa58a5-25a4-4f60-9597-7886f361addd","system_id":"levelo_inurba_marseille","lat":43.250828,"lon":5.395211,"is_reserved":false,"is_disabled":false,"rental_uris":{"android":"levelo://app?vid=8faa58a5-25a4-4f60-9597-7886f361addd","ios":"levelo://app?vid=8faa58a5-25a4-4f60-9597-7886f361addd"},"vehicle_type_id":"4","last_reported":1737353605,"current_range_meters":27200,"station_id":"ce4bhm12rcd13ifvqgkg","pricing_plan_id":"cebpf4jnsgd1na2vs0mg"},{"bike_id":"25a1483f-1859-4f2a-a274-9eb2c53ccd4c","system_id":"levelo_inurba_marseille","lat":43.27497,"lon":5.424548,"is_reserved":false,"is_disabled":false,"rental_uris":{"android":"levelo://app?vid=25a1483f-1859-4f2a-a274-9eb2c53ccd4c","ios":"levelo://app?vid=25a1483f-1859-4f2a-a274-9eb2c53ccd4c"},"vehicle_type_id":"4","last_reported":1737353605,"current_range_meters":24800,"station_id":"ce4bhn92rcd13ifvqgrg","pricing_plan_id":"cebpf4jnsgd1na2vs0mg"},{"bike_id":"afa3b07f-a639-42dd-abf5-28cc00708042","system_id":"levelo_inurba_marseille","lat":43.2919,"lon":5.39317,"is_reserved":false,"is_disabled":false,"rental_uris":{"android":"levelo://app?vid=afa3b07f-a639-42dd-abf5-28cc00708042","ios":"levelo://app?vid=afa3b07f-a639-42dd-abf5-28cc00708042"},"vehicle_type_id":"4","last_reported":1737353605,"current_range_meters":24400,"station_id":"ce4bh192rcd13ifvqdd0","pricing_plan_id":"cebpf4jnsgd1na2vs0mg"},{"bike_id":"3860f79b-6390-4baa-9962-103869425bc6","system_id":"levelo_inurba_marseille","lat":43.29895,"lon":5.43665,"is_reserved":false,"is_disabled":false,"rental_uris":{"android":"levelo://app?vid=3860f79b-6390-4baa-9962-103869425bc6","ios":"levelo://app?vid=3860f79b-6390-4baa-9962-103869425bc6"},"vehicle_type_id":"4","last_reported":1737353605,"current_range_meters":18800,"station_id":"ce4bhpp2rcd13ifvqhfg","pricing_plan_id":"cebpf4jnsgd1na2vs0mg"},{"bike_id":"168460d7-c206-43d9-a198-e43a6cb51b01","system_id":"levelo_inurba_marseille","lat":43.33014,"lon":5.39042,"is_reserved":false,"is_disabled":false,"rental_uris":{"android":"levelo://app?vid=168460d7-c206-43d9-a198-e43a6cb51b01","ios":"levelo://app?vid=168460d7-c206-43d9-a198-e43a6cb51b01"},"vehicle_type_id":"4","last_reported":1737353605,"current_range_meters":38800,"station_id":"ce4bhr92rcd13ifvqhrg","pricing_plan_id":"cebpf4jnsgd1na2vs0mg"},{"bike_id":"64436c97-1ac3-47b1-8f21-ad5aef347e83","system_id":"levelo_inurba_marseille","lat":43.27621,"lon":5.36102,"is_reserved":false,"is_disabled":false,"rental_uris":{"android":"levelo://app?vid=64436c97-1ac3-47b1-8f21-ad5aef347e83","ios":"levelo://app?vid=64436c97-1ac3-47b1-8f21-ad5aef347e83"},"vehicle_type_id":"4","last_reported":1737353605,"current_range_meters":38800,"station_id":"ce4bgj92rcd13ifvqbe0","pricing_plan_id":"cebpf4jnsgd1na2vs0mg"},{"bike_id":"0002b331-2ee3-45b9-85ee-52f74ea24892","system_id":"levelo_inurba_marseille","lat":43.26032,"lon":5.37549,"is_reserved":false,"is_disabled":false,"rental_uris":{"android":"levelo://app?vid=0002b331-2ee3-45b9-85ee-52f74ea24892","ios":"levelo://app?vid=0002b331-2ee3-45b9-85ee-52f74ea24892"},"vehicle_type_id":"4","last_reported":1737353605,"current_range_meters":38400,"station_id":"ce4bhgh2rcd13ifvqfa0","pricing_plan_id":"cebpf4jnsgd1na2vs0mg"},{"bike_id":"4be05dc4-95ab-483a-85eb-9bdea3592913","system_id":"levelo_inurba_marseille","lat":43.25709,"lon":5.41102,"is_reserved":false,"is_disabled":false,"rental_uris":{"android":"levelo://app?vid=4be05dc4-95ab-483a-85eb-9bdea3592913","ios":"levelo://app?vid=4be05dc4-95ab-483a-85eb-9bdea3592913"},"vehicle_type_id":"4","last_reported":1737353605,"current_range_meters":36400,"station_id":"ce4bhkp2rcd13ifvqgd0","pricing_plan_id":"cebpf4jnsgd1na2vs0mg"},{"bike_id":"10b8da58-1f12-44b0-8c4c-eff01d48a146","system_id":"levelo_inurba_marseille","lat":43.30683,"lon":5.40096,"is_reserved":false,"is_disabled":true,"rental_uris":{"android":"levelo://app?vid=10b8da58-1f12-44b0-8c4c-eff01d48a146","ios":"levelo://app?vid=10b8da58-1f12-44b0-8c4c-eff01d48a146"},"vehicle_type_id":"4","last_reported":1737353605,"current_range_meters":25200,"station_id":"ce4bh112rcd13ifvqda0","pricing_plan_id":"cebpf4jnsgd1na2vs0mg"},{"bike_id":"018e6ec3-f68a-4719-8d6b-f169fbd23612","system_id":"levelo_inurba_marseille","lat":43.30041,"lon":5.37454,"is_reserved":false,"is_disabled":false,"rental_uris":{"android":"levelo://app?vid=018e6ec3-f68a-4719-8d6b-f169fbd23612","ios":"levelo://app?vid=018e6ec3-f68a-4719-8d6b-f169fbd23612"},"vehicle_type_id":"4","last_reported":1737353605,"current_range_meters":38000,"station_id":"","pricing_plan_id":"cebpf4jnsgd1na2vs0mg"},{"bike_id":"ca8aa51d-4833-4c77-8009-59b7c07323a3","system_id":"levelo_inurba_marseille","lat":43.32362,"lon":5.36759,"is_reserved":false,"is_disabled":false,"rental_uris":{"android":"levelo://app?vid=ca8aa51d-4833-4c77-8009-59b7c07323a3","ios":"levelo://app?vid=ca8aa51d-4833-4c77-8009-59b7c07323a3"},"vehicle_type_id":"4","last_reported":1737353605,"current_range_meters":33200,"station_id":"ce4bhsh2rcd13ifvqi2g","pricing_plan_id":"cebpf4jnsgd1na2vs0mg"},{"bike_id":"ad706739-0435-4fb3-ac63-fcde3e832697","system_id":"levelo_inurba_marseille","lat":43.25108,"lon":5.40331,"is_reserved":false,"is_disabled":false,"rental_uris":{"android":"levelo://app?vid=ad706739-0435-4fb3-ac63-fcde3e832697","ios":"levelo://app?vid=ad706739-0435-4fb3-ac63-fcde3e832697"},"vehicle_type_id":"4","last_reported":1737353605,"current_range_meters":38800,"station_id":"ce4bhlh2rcd13ifvqgig","pricing_plan_id":"cebpf4jnsgd1na2vs0mg"},{"bike_id":"ce0ee56d-180c-40a7-8ee4-1ff6fa737784","system_id":"levelo_inurba_marseille","lat":43.29887,"lon":5.43656,"is_reserved":false,"is_disabled":false,"rental_uris":{"android":"levelo://app?vid=ce0ee56d-180c-40a7-8ee4-1ff6fa737784","ios":"levelo://app?vid=ce0ee56d-180c-40a7-8ee4-1ff6fa737784"},"vehicle_type_id":"4","last_reported":1737353605,"current_range_meters":39200,"station_id":"ce4bhpp2rcd13ifvqhfg","pricing_plan_id":"cebpf4jnsgd1na2vs0mg"},{"bike_id":"49edd341-1744-445c-b1f6-ec80c4f617c5","system_id":"levelo_inurba_marseille","lat":43.27066,"lon":5.4228,"is_reserved":false,"is_disabled":false,"rental_uris":{"android":"levelo://app?vid=49edd341-1744-445c-b1f6-ec80c4f617c5","ios":"levelo://app?vid=49edd341-1744-445c-b1f6-ec80c4f617c5"},"vehicle_type_id":"4","last_reported":1737353605,"current_range_meters":38800,"station_id":"ce4bhk92rcd13ifvqgb0","pricing_plan_id":"cebpf4jnsgd1na2vs0mg"},{"bike_id":"51379e9f-1ebd-43ee-bd84-6927ab606473","system_id":"levelo_inurba_marseille","lat":43.24172,"lon":5.36384,"is_reserved":false,"is_disabled":false,"rental_uris":{"android":"levelo://app?vid=51379e9f-1ebd-43ee-bd84-6927ab606473","ios":"levelo://app?vid=51379e9f-1ebd-43ee-bd84-6927ab606473"},"vehicle_type_id":"4","last_reported":1737353605,"current_range_meters":24000,"station_id":"cpo36qri1sfpv3e86is0","pricing_plan_id":"cebpf4jnsgd1na2vs0mg"},{"bike_id":"57d9fa47-e597-4ea4-913f-9b45079bd718","system_id":"levelo_inurba_marseille","lat":43.33029,"lon":5.39032,"is_reserved":false,"is_disabled":false,"rental_uris":{"android":"levelo://app?vid=57d9fa47-e597-4ea4-913f-9b45079bd718","ios":"levelo://app?vid=57d9fa47-e597-4ea4-913f-9b45079bd718"},"vehicle_type_id":"4","last_reported":1737353605,"current_range_meters":38800,"station_id":"ce4bhr92rcd13ifvqhrg","pricing_plan_id":"cebpf4jnsgd1na2vs0mg"},{"bike_id":"fd3d30e7-fb0b-477b-97c3-b5d677a37ec5","system_id":"levelo_inurba_marseille","lat":43.28461,"lon":5.35892,"is_reserved":false,"is_disabled":false,"rental_uris":{"android":"levelo://app?vid=fd3d30e7-fb0b-477b-97c3-b5d677a37ec5","ios":"levelo://app?vid=fd3d30e7-fb0b-477b-97c3-b5d677a37ec5"},"vehicle_type_id":"4","last_reported":1737353605,"current_range_meters":38800,"station_id":"ce4bhah2rcd13ifvqei0","pricing_plan_id":"cebpf4jnsgd1na2vs0mg"},{"bike_id":"d7b57092-5089-4c4a-819e-bef9772d11d8","system_id":"levelo_inurba_marseille","lat":43.31798,"lon":5.37781,"is_reserved":false,"is_disabled":false,"rental_uris":{"android":"levelo://app?vid=d7b57092-5089-4c4a-819e-bef9772d11d8","ios":"levelo://app?vid=d7b57092-5089-4c4a-819e-bef9772d11d8"},"vehicle_type_id":"4","last_reported":1737353605,"current_range_meters":29600,"station_id":"","pricing_plan_id":"cebpf4jnsgd1na2vs0mg"},{"bike_id":"bd00f222-ce0c-4f81-a68c-0edabc3e5f6b","system_id":"levelo_inurba_marseille","lat":43.25086,"lon":5.39507,"is_reserved":false,"is_disabled":false,"rental_uris":{"android":"levelo://app?vid=bd00f222-ce0c-4f81-a68c-0edabc3e5f6b","ios":"levelo://app?vid=bd00f222-ce0c-4f81-a68c-0edabc3e5f6b"},"vehicle_type_id":"4","last_reported":1737353605,"current_range_meters":34000,"station_id":"ce4bhm12rcd13ifvqgkg","pricing_plan_id":"cebpf4jnsgd1na2vs0mg"},{"bike_id":"eb7ff8dd-e58b-426a-8a4e-2c42292bbdf4","system_id":"levelo_inurba_marseille","lat":43.28354,"lon":5.38622,"is_reserved":false,"is_disabled":false,"rental_uris":{"android":"levelo://app?vid=eb7ff8dd-e58b-426a-8a4e-2c42292bbdf4","ios":"levelo://app?vid=eb7ff8dd-e58b-426a-8a4e-2c42292bbdf4"},"vehicle_type_id":"4","last_reported":1737353605,"current_range_meters":37600,"station_id":"ce4bh492rcd13ifvqdvg","pricing_plan_id":"cebpf4jnsgd1na2vs0mg"},{"bike_id":"668c326b-f023-4c8e-8d10-efacd61b8026","system_id":"levelo_inurba_marseille","lat":43.30163,"lon":5.38085,"is_reserved":false,"is_disabled":false,"rental_uris":{"android":"levelo://app?vid=668c326b-f023-4c8e-8d10-efacd61b8026","ios":"levelo://app?vid=668c326b-f023-4c8e-8d10-efacd61b8026"},"vehicle_type_id":"4","last_reported":1737353605,"current_range_meters":26800,"station_id":"ce4bgjp2rcd13ifvqbh0","pricing_plan_id":"cebpf4jnsgd1na2vs0mg"},{"bike_id":"4104cbba-088f-4383-b2a0-261d17699731","system_id":"levelo_inurba_marseille","lat":43.23964,"lon":5.36639,"is_reserved":false,"is_disabled":false,"rental_uris":{"android":"levelo://app?vid=4104cbba-088f-4383-b2a0-261d17699731","ios":"levelo://app?vid=4104cbba-088f-4383-b2a0-261d17699731"},"vehicle_type_id":"4","last_reported":1737353605,"current_range_meters":33600,"station_id":"ce4bhi12rcd13ifvqfp0","pricing_plan_id":"cebpf4jnsgd1na2vs0mg"},{"bike_id":"7be810f6-d21f-44ca-8f08-d9a4a9e1b082","system_id":"levelo_inurba_marseille","lat":43.32367,"lon":5.36751,"is_reserved":false,"is_disabled":false,"rental_uris":{"android":"levelo://app?vid=7be810f6-d21f-44ca-8f08-d9a4a9e1b082","ios":"levelo://app?vid=7be810f6-d21f-44ca-8f08-d9a4a9e1b082"},"vehicle_type_id":"4","last_reported":1737353605,"current_range_meters":11600,"station_id":"ce4bhsh2rcd13ifvqi2g","pricing_plan_id":"cebpf4jnsgd1na2vs0mg"},{"bike_id":"dc0653db-bd28-4730-b2d3-60718110beda","system_id":"levelo_inurba_marseille","lat":43.30592,"lon":5.39352,"is_reserved":false,"is_disabled":false,"rental_uris":{"android":"levelo://app?vid=dc0653db-bd28-4730-b2d3-60718110beda","ios":"levelo://app?vid=dc0653db-bd28-4730-b2d3-60718110beda"},"vehicle_type_id":"4","last_reported":1737353605,"current_range_meters":34800,"station_id":"ce4bh0p2rcd13ifvqd80","pricing_plan_id":"cebpf4jnsgd1na2vs0mg"},{"bike_id":"e769477c-b503-4bb8-b7d3-b7f7ff9ddf2d","system_id":"levelo_inurba_marseille","lat":43.292042,"lon":5.369035,"is_reserved":false,"is_disabled":false,"rental_uris":{"android":"levelo://app?vid=e769477c-b503-4bb8-b7d3-b7f7ff9ddf2d","ios":"levelo://app?vid=e769477c-b503-4bb8-b7d3-b7f7ff9ddf2d"},"vehicle_type_id":"4","last_reported":1737353605,"current_range_meters":16800,"station_id":"","pricing_plan_id":"cebpf4jnsgd1na2vs0mg"},{"bike_id":"87f748ae-200c-46f9-a87e-58da3bbaecae","system_id":"levelo_inurba_marseille","lat":43.334,"lon":5.42966,"is_reserved":false,"is_disabled":false,"rental_uris":{"android":"levelo://app?vid=87f748ae-200c-46f9-a87e-58da3bbaecae","ios":"levelo://app?vid=87f748ae-200c-46f9-a87e-58da3bbaecae"},"vehicle_type_id":"4","last_reported":1737353605,"current_range_meters":24000,"station_id":"","pricing_plan_id":"cebpf4jnsgd1na2vs0mg"},{"bike_id":"28ef1c1e-dd89-43e8-817b-9b489831397b","system_id":"levelo_inurba_marseille","lat":43.27123,"lon":5.396192,"is_reserved":false,"is_disabled":true,"rental_uris":{"android":"levelo://app?vid=28ef1c1e-dd89-43e8-817b-9b489831397b","ios":"levelo://app?vid=28ef1c1e-dd89-43e8-817b-9b489831397b"},"vehicle_type_id":"4","last_reported":1737353605,"current_range_meters":0,"station_id":"","pricing_plan_id":"cebpf4jnsgd1na2vs0mg"},{"bike_id":"a090d58d-a1fb-4921-bd15-f1d1e2db9ea4","system_id":"levelo_inurba_marseille","lat":43.241712,"lon":5.397344,"is_reserved":false,"is_disabled":false,"rental_uris":{"android":"levelo://app?vid=a090d58d-a1fb-4921-bd15-f1d1e2db9ea4","ios":"levelo://app?vid=a090d58d-a1fb-4921-bd15-f1d1e2db9ea4"},"vehicle_type_id":"4","last_reported":1737353605,"current_range_meters":28000,"station_id":"ce4bhn12rcd13ifvqgpg","pricing_plan_id":"cebpf4jnsgd1na2vs0mg"},{"bike_id":"7d444872-3fb0-4536-9005-7a5b415b9ac8","system_id":"levelo_inurba_marseille","lat":43.24555,"lon":5.39505,"is_reserved":false,"is_disabled":false,"rental_uris":{"android":"levelo://app?vid=7d444872-3fb0-4536-9005-7a5b415b9ac8","ios":"levelo://app?vid=7d444872-3fb0-4536-9005-7a5b415b9ac8"},"vehicle_type_id":"4","last_reported":1737353605,"current_range_meters":32400,"station_id":"ce4bhlp2rcd13ifvqgjg","pricing_plan_id":"cebpf4jnsgd1na2vs0mg"},{"bike_id":"fd4d57d3-e476-4095-a9ce-e96d6483545c","system_id":"levelo_inurba_marseille","lat":43.28416,"lon":5.37506,"is_reserved":false,"is_disabled":false,"rental_uris":{"android":"levelo://app?vid=fd4d57d3-e476-4095-a9ce-e96d6483545c","ios":"levelo://app?vid=fd4d57d3-e476-4095-a9ce-e96d6483545c"},"vehicle_type_id":"4","last_reported":1737353605,"current_range_meters":27600,"station_id":"ce4bh412rcd13ifvqds0","pricing_plan_id":"cebpf4jnsgd1na2vs0mg"},{"bike_id":"bbd6e56f-1a5f-4813-a7fd-d882eb94346c","system_id":"levelo_inurba_marseille","lat":43.31714,"lon":5.43707,"is_reserved":false,"is_disabled":false,"rental_uris":{"android":"levelo://app?vid=bbd6e56f-1a5f-4813-a7fd-d882eb94346c","ios":"levelo://app?vid=bbd6e56f-1a5f-4813-a7fd-d882eb94346c"},"vehicle_type_id":"4","last_reported":1737353605,"current_range_meters":20800,"station_id":"ce4bhp92rcd13ifvqhcg","pricing_plan_id":"cebpf4jnsgd1na2vs0mg"},{"bike_id":"357eaeda-fef2-41f2-9ad0-621ae2cc5c09","system_id":"levelo_inurba_marseille","lat":43.33753,"lon":5.37518,"is_reserved":false,"is_disabled":false,"rental_uris":{"android":"levelo://app?vid=357eaeda-fef2-41f2-9ad0-621ae2cc5c09","ios":"levelo://app?vid=357eaeda-fef2-41f2-9ad0-621ae2cc5c09"},"vehicle_type_id":"4","last_reported":1737353605,"current_range_meters":29600,"station_id":"","pricing_plan_id":"cebpf4jnsgd1na2vs0mg"},{"bike_id":"9591e31e-6673-4bff-8f50-6b7e82a6b9d7","system_id":"levelo_inurba_marseille","lat":43.24076,"lon":5.377531,"is_reserved":false,"is_disabled":false,"rental_uris":{"android":"levelo://app?vid=9591e31e-6673-4bff-8f50-6b7e82a6b9d7","ios":"levelo://app?vid=9591e31e-6673-4bff-8f50-6b7e82a6b9d7"},"vehicle_type_id":"4","last_reported":1737353605,"current_range_meters":38000,"station_id":"ce4bhnp2rcd13ifvqgvg","pricing_plan_id":"cebpf4jnsgd1na2vs0mg"},{"bike_id":"ce27e413-df3d-41a0-b3b9-f2bea8802047","system_id":"levelo_inurba_marseille","lat":43.28701,"lon":5.37395,"is_reserved":false,"is_disabled":false,"rental_uris":{"android":"levelo://app?vid=ce27e413-df3d-41a0-b3b9-f2bea8802047","ios":"levelo://app?vid=ce27e413-df3d-41a0-b3b9-f2bea8802047"},"vehicle_type_id":"4","last_reported":1737353605,"current_range_meters":28400,"station_id":"ce4bh3p2rcd13ifvqdq0","pricing_plan_id":"cebpf4jnsgd1na2vs0mg"},{"bike_id":"4ca0c0a8-ebec-4495-a31b-51805b75ee6d","system_id":"levelo_inurba_marseille","lat":43.246457,"lon":5.388996,"is_reserved":false,"is_disabled":false,"rental_uris":{"android":"levelo://app?vid=4ca0c0a8-ebec-4495-a31b-51805b75ee6d","ios":"levelo://app?vid=4ca0c0a8-ebec-4495-a31b-51805b75ee6d"},"vehicle_type_id":"4","last_reported":1737353605,"current_range_meters":38800,"station_id":"ce4bhg12rcd13ifvqf60","pricing_plan_id":"cebpf4jnsgd1na2vs0mg"},{"bike_id":"59573d05-8b25-4d08-928a-2e522ea4e7a5","system_id":"levelo_inurba_marseille","lat":43.3117,"lon":5.38704,"is_reserved":false,"is_disabled":true,"rental_uris":{"android":"levelo://app?vid=59573d05-8b25-4d08-928a-2e522ea4e7a5","ios":"levelo://app?vid=59573d05-8b25-4d08-928a-2e522ea4e7a5"},"vehicle_type_id":"4","last_reported":1737353605,"current_range_meters":38800,"station_id":"ce4bgv12rcd13ifvqcp0","pricing_plan_id":"cebpf4jnsgd1na2vs0mg"},{"bike_id":"d714004e-0a5d-46dc-8f45-dcd4ee7c47a7","system_id":"levelo_inurba_marseille","lat":43.2953,"lon":5.37482,"is_reserved":false,"is_disabled":true,"rental_uris":{"android":"levelo://app?vid=d714004e-0a5d-46dc-8f45-dcd4ee7c47a7","ios":"levelo://app?vid=d714004e-0a5d-46dc-8f45-dcd4ee7c47a7"},"vehicle_type_id":"4","last_reported":1737353605,"current_range_meters":11600,"station_id":"ce4bgkp2rcd13ifvqbmg","pricing_plan_id":"cebpf4jnsgd1na2vs0mg"},{"bike_id":"2e17f29f-54df-4dd5-9c79-3e492bc558e1","system_id":"levelo_inurba_marseille","lat":43.30955,"lon":5.39041,"is_reserved":false,"is_disabled":false,"rental_uris":{"android":"levelo://app?vid=2e17f29f-54df-4dd5-9c79-3e492bc558e1","ios":"levelo://app?vid=2e17f29f-54df-4dd5-9c79-3e492bc558e1"},"vehicle_type_id":"4","last_reported":1737353605,"current_range_meters":38800,"station_id":"ce4bgup2rcd13ifvqco0","pricing_plan_id":"cebpf4jnsgd1na2vs0mg"},{"bike_id":"91f88346-ad8e-42f4-a85e-37bea7b39d74","system_id":"levelo_inurba_marseille","lat":43.28154,"lon":5.42643,"is_reserved":false,"is_disabled":false,"rental_uris":{"android":"levelo://app?vid=91f88346-ad8e-42f4-a85e-37bea7b39d74","ios":"levelo://app?vid=91f88346-ad8e-42f4-a85e-37bea7b39d74"},"vehicle_type_id":"4","last_reported":1737353605,"current_range_meters":26000,"station_id":"ce4bhnh2rcd13ifvqgug","pricing_plan_id":"cebpf4jnsgd1na2vs0mg"},{"bike_id":"bf4ba56d-720b-4966-9413-7e5dd41edd46","system_id":"levelo_inurba_marseille","lat":43.2467,"lon":5.38156,"is_reserved":false,"is_disabled":false,"rental_uris":{"android":"levelo://app?vid=bf4ba56d-720b-4966-9413-7e5dd41edd46","ios":"levelo://app?vid=bf4ba56d-720b-4966-9413-7e5dd41edd46"},"vehicle_type_id":"4","last_reported":1737353605,"current_range_meters":20000,"station_id":"ce4bhih2rcd13ifvqfr0","pricing_plan_id":"cebpf4jnsgd1na2vs0mg"},{"bike_id":"d7d80e2c-31a7-44d1-98a5-32da565c6a33","system_id":"levelo_inurba_marseille","lat":43.29227,"lon":5.36059,"is_reserved":false,"is_disabled":false,"rental_uris":{"android":"levelo://app?vid=d7d80e2c-31a7-44d1-98a5-32da565c6a33","ios":"levelo://app?vid=d7d80e2c-31a7-44d1-98a5-32da565c6a33"},"vehicle_type_id":"4","last_reported":1737353605,"current_range_meters":35600,"station_id":"ce4bhbh2rcd13ifvqeqg","pricing_plan_id":"cebpf4jnsgd1na2vs0mg"},{"bike_id":"01a07bd9-36a1-4c19-a88b-7c9e3a6ee490","system_id":"levelo_inurba_marseille","lat":43.25086,"lon":5.39507,"is_reserved":false,"is_disabled":false,"rental_uris":{"android":"levelo://app?vid=01a07bd9-36a1-4c19-a88b-7c9e3a6ee490","ios":"levelo://app?vid=01a07bd9-36a1-4c19-a88b-7c9e3a6ee490"},"vehicle_type_id":"4","last_reported":1737353605,"current_range_meters":30000,"station_id":"ce4bhm12rcd13ifvqgkg","pricing_plan_id":"cebpf4jnsgd1na2vs0mg"},{"bike_id":"9b0fa802-8be4-4b35-bfd1-0d3dcc5574fc","system_id":"levelo_inurba_marseille","lat":43.29884,"lon":5.38898,"is_reserved":false,"is_disabled":false,"rental_uris":{"android":"levelo://app?vid=9b0fa802-8be4-4b35-bfd1-0d3dcc5574fc","ios":"levelo://app?vid=9b0fa802-8be4-4b35-bfd1-0d3dcc5574fc"},"vehicle_type_id":"4","last_reported":1737353605,"current_range_meters":28800,"station_id":"ce4bh392rcd13ifvqdl0","pricing_plan_id":"cebpf4jnsgd1na2vs0mg"},{"bike_id":"3a226b53-772d-4831-aae6-679204abc709","system_id":"levelo_inurba_marseille","lat":43.25865,"lon":5.39899,"is_reserved":false,"is_disabled":false,"rental_uris":{"android":"levelo://app?vid=3a226b53-772d-4831-aae6-679204abc709","ios":"levelo://app?vid=3a226b53-772d-4831-aae6-679204abc709"},"vehicle_type_id":"4","last_reported":1737353605,"current_range_meters":37600,"station_id":"ce4bhl92rcd13ifvqghg","pricing_plan_id":"cebpf4jnsgd1na2vs0mg"},{"bike_id":"d751e749-afcd-4240-9c1e-54752c62ac8f","system_id":"levelo_inurba_marseille","lat":43.27486,"lon":5.4247,"is_reserved":false,"is_disabled":true,"rental_uris":{"android":"levelo://app?vid=d751e749-afcd-4240-9c1e-54752c62ac8f","ios":"levelo://app?vid=d751e749-afcd-4240-9c1e-54752c62ac8f"},"vehicle_type_id":"4","last_reported":1737353605,"current_range_meters":36800,"station_id":"ce4bhn92rcd13ifvqgrg","pricing_plan_id":"cebpf4jnsgd1na2vs0mg"},{"bike_id":"bc5500c8-ca8b-496e-a692-f431b9f16255","system_id":"levelo_inurba_marseille","lat":43.288463,"lon":5.393239,"is_reserved":false,"is_disabled":false,"rental_uris":{"android":"levelo://app?vid=bc5500c8-ca8b-496e-a692-f431b9f16255","ios":"levelo://app?vid=bc5500c8-ca8b-496e-a692-f431b9f16255"},"vehicle_type_id":"4","last_reported":1737353605,"current_range_meters":38000,"station_id":"ce4bh2p2rcd13ifvqdi0","pricing_plan_id":"cebpf4jnsgd1na2vs0mg"},{"bike_id":"1a531580-4efd-49f3-925f-81e7e3768874","system_id":"levelo_inurba_marseille","lat":43.25727,"lon":5.41098,"is_reserved":false,"is_disabled":false,"rental_uris":{"android":"levelo://app?vid=1a531580-4efd-49f3-925f-81e7e3768874","ios":"levelo://app?vid=1a531580-4efd-49f3-925f-81e7e3768874"},"vehicle_type_id":"4","last_reported":1737353605,"current_range_meters":38000,"station_id":"ce4bhkp2rcd13ifvqgd0","pricing_plan_id":"cebpf4jnsgd1na2vs0mg"},{"bike_id":"524072f1-ace1-43cc-8007-f91dc732b1f7","system_id":"levelo_inurba_marseille","lat":43.25084,"lon":5.39513,"is_reserved":false,"is_disabled":false,"rental_uris":{"android":"levelo://app?vid=524072f1-ace1-43cc-8007-f91dc732b1f7","ios":"levelo://app?vid=524072f1-ace1-43cc-8007-f91dc732b1f7"},"vehicle_type_id":"4","last_reported":1737353605,"current_range_meters":28000,"station_id":"ce4bhm12rcd13ifvqgkg","pricing_plan_id":"cebpf4jnsgd1na2vs0mg"},{"bike_id":"c42268c0-a5e0-42b8-b874-93ef21576df8","system_id":"levelo_inurba_marseille","lat":43.28141,"lon":5.42638,"is_reserved":false,"is_disabled":false,"rental_uris":{"android":"levelo://app?vid=c42268c0-a5e0-42b8-b874-93ef21576df8","ios":"levelo://app?vid=c42268c0-a5e0-42b8-b874-93ef21576df8"},"vehicle_type_id":"4","last_reported":1737353605,"current_range_meters":24800,"station_id":"ce4bhnh2rcd13ifvqgug","pricing_plan_id":"cebpf4jnsgd1na2vs0mg"},{"bike_id":"77192f79-2b12-4ff4-874e-f5cab7df388a","system_id":"levelo_inurba_marseille","lat":43.28419,"lon":5.3498,"is_reserved":false,"is_disabled":false,"rental_uris":{"android":"levelo://app?vid=77192f79-2b12-4ff4-874e-f5cab7df388a","ios":"levelo://app?vid=77192f79-2b12-4ff4-874e-f5cab7df388a"},"vehicle_type_id":"4","last_reported":1737353605,"current_range_meters":34800,"station_id":"ce4bhbh2rcd13ifvqepg","pricing_plan_id":"cebpf4jnsgd1na2vs0mg"},{"bike_id":"0f2743d1-4d5e-4f5d-80a9-2ff55d9ea33b","system_id":"levelo_inurba_marseille","lat":43.24075,"lon":5.37697,"is_reserved":false,"is_disabled":false,"rental_uris":{"android":"levelo://app?vid=0f2743d1-4d5e-4f5d-80a9-2ff55d9ea33b","ios":"levelo://app?vid=0f2743d1-4d5e-4f5d-80a9-2ff55d9ea33b"},"vehicle_type_id":"4","last_reported":1737353605,"current_range_meters":34000,"station_id":"","pricing_plan_id":"cebpf4jnsgd1na2vs0mg"},{"bike_id":"acf69f22-2db9-4064-bf9b-bc35baa40575","system_id":"levelo_inurba_marseille","lat":43.28262,"lon":5.35058,"is_reserved":false,"is_disabled":false,"rental_uris":{"android":"levelo://app?vid=acf69f22-2db9-4064-bf9b-bc35baa40575","ios":"levelo://app?vid=acf69f22-2db9-4064-bf9b-bc35baa40575"},"vehicle_type_id":"4","last_reported":1737353605,"current_range_meters":36400,"station_id":"ce4bhbp2rcd13ifvqerg","pricing_plan_id":"cebpf4jnsgd1na2vs0mg"},{"bike_id":"392d5c13-52e3-4447-bb35-77b670143dc4","system_id":"levelo_inurba_marseille","lat":43.23959,"lon":5.36622,"is_reserved":false,"is_disabled":false,"rental_uris":{"android":"levelo://app?vid=392d5c13-52e3-4447-bb35-77b670143dc4","ios":"levelo://app?vid=392d5c13-52e3-4447-bb35-77b670143dc4"},"vehicle_type_id":"4","last_reported":1737353605,"current_range_meters":30000,"station_id":"ce4bhi12rcd13ifvqfp0","pricing_plan_id":"cebpf4jnsgd1na2vs0mg"},{"bike_id":"97dc7bbb-af7c-432f-aee1-cb76edac8ebd","system_id":"levelo_inurba_marseille","lat":43.23193,"lon":5.39977,"is_reserved":false,"is_disabled":false,"rental_uris":{"android":"levelo://app?vid=97dc7bbb-af7c-432f-aee1-cb76edac8ebd","ios":"levelo://app?vid=97dc7bbb-af7c-432f-aee1-cb76edac8ebd"},"vehicle_type_id":"4","last_reported":1737353605,"current_range_meters":38800,"station_id":"ce4bhn12rcd13ifvqgqg","pricing_plan_id":"cebpf4jnsgd1na2vs0mg"},{"bike_id":"4291632b-b89c-4c47-8e03-1ac2c74e4815","system_id":"levelo_inurba_marseille","lat":43.241779,"lon":5.397275,"is_reserved":false,"is_disabled":false,"rental_uris":{"android":"levelo://app?vid=4291632b-b89c-4c47-8e03-1ac2c74e4815","ios":"levelo://app?vid=4291632b-b89c-4c47-8e03-1ac2c74e4815"},"vehicle_type_id":"4","last_reported":1737353605,"current_range_meters":36000,"station_id":"ce4bhn12rcd13ifvqgpg","pricing_plan_id":"cebpf4jnsgd1na2vs0mg"},{"bike_id":"ee73fa00-f9a6-49b4-893a-68a7f4e3a906","system_id":"levelo_inurba_marseille","lat":43.24667,"lon":5.38154,"is_reserved":false,"is_disabled":false,"rental_uris":{"android":"levelo://app?vid=ee73fa00-f9a6-49b4-893a-68a7f4e3a906","ios":"levelo://app?vid=ee73fa00-f9a6-49b4-893a-68a7f4e3a906"},"vehicle_type_id":"4","last_reported":1737353605,"current_range_meters":17200,"station_id":"ce4bhih2rcd13ifvqfr0","pricing_plan_id":"cebpf4jnsgd1na2vs0mg"},{"bike_id":"92107073-e558-49e0-80fa-a695a1e7387b","system_id":"levelo_inurba_marseille","lat":43.23186,"lon":5.39982,"is_reserved":false,"is_disabled":false,"rental_uris":{"android":"levelo://app?vid=92107073-e558-49e0-80fa-a695a1e7387b","ios":"levelo://app?vid=92107073-e558-49e0-80fa-a695a1e7387b"},"vehicle_type_id":"4","last_reported":1737353605,"current_range_meters":24000,"station_id":"ce4bhn12rcd13ifvqgqg","pricing_plan_id":"cebpf4jnsgd1na2vs0mg"},{"bike_id":"2c2f029b-75ba-4beb-9e9a-38c9bd9c6b19","system_id":"levelo_inurba_marseille","lat":43.29643,"lon":5.37132,"is_reserved":false,"is_disabled":false,"rental_uris":{"android":"levelo://app?vid=2c2f029b-75ba-4beb-9e9a-38c9bd9c6b19","ios":"levelo://app?vid=2c2f029b-75ba-4beb-9e9a-38c9bd9c6b19"},"vehicle_type_id":"4","last_reported":1737353605,"current_range_meters":25600,"station_id":"ce4bgnh2rcd13ifvqc0g","pricing_plan_id":"cebpf4jnsgd1na2vs0mg"},{"bike_id":"6afc6047-5f81-4177-8f50-e35ed8b1d031","system_id":"levelo_inurba_marseille","lat":43.29765,"lon":5.3935,"is_reserved":false,"is_disabled":false,"rental_uris":{"android":"levelo://app?vid=6afc6047-5f81-4177-8f50-e35ed8b1d031","ios":"levelo://app?vid=6afc6047-5f81-4177-8f50-e35ed8b1d031"},"vehicle_type_id":"4","last_reported":1737353605,"current_range_meters":13600,"station_id":"chh1huq6cuj3fo74tm60","pricing_plan_id":"cebpf4jnsgd1na2vs0mg"},{"bike_id":"7684d689-83b9-4d07-88b0-0ddf05bde835","system_id":"levelo_inurba_marseille","lat":43.29172,"lon":5.3716,"is_reserved":false,"is_disabled":false,"rental_uris":{"android":"levelo://app?vid=7684d689-83b9-4d07-88b0-0ddf05bde835","ios":"levelo://app?vid=7684d689-83b9-4d07-88b0-0ddf05bde835"},"vehicle_type_id":"4","last_reported":1737353605,"current_range_meters":37600,"station_id":"ce4bha92rcd13ifvqeh0","pricing_plan_id":"cebpf4jnsgd1na2vs0mg"},{"bike_id":"62444397-c396-4d27-94d0-9a36c839a478","system_id":"levelo_inurba_marseille","lat":43.28947,"lon":5.36385,"is_reserved":false,"is_disabled":false,"rental_uris":{"android":"levelo://app?vid=62444397-c396-4d27-94d0-9a36c839a478","ios":"levelo://app?vid=62444397-c396-4d27-94d0-9a36c839a478"},"vehicle_type_id":"4","last_reported":1737353605,"current_range_meters":25600,"station_id":"ce4bhc92rcd13ifvqetg","pricing_plan_id":"cebpf4jnsgd1na2vs0mg"},{"bike_id":"a928f3f8-500f-4949-9198-e59e77dfdb5f","system_id":"levelo_inurba_marseille","lat":43.25,"lon":5.38949,"is_reserved":false,"is_disabled":false,"rental_uris":{"android":"levelo://app?vid=a928f3f8-500f-4949-9198-e59e77dfdb5f","ios":"levelo://app?vid=a928f3f8-500f-4949-9198-e59e77dfdb5f"},"vehicle_type_id":"4","last_reported":1737353605,"current_range_meters":25600,"station_id":"ce4bhgp2rcd13ifvqfd0","pricing_plan_id":"cebpf4jnsgd1na2vs0mg"},{"bike_id":"0897e627-1690-4b1c-984d-29cb463c9770","system_id":"levelo_inurba_marseille","lat":43.31892,"lon":5.40728,"is_reserved":false,"is_disabled":true,"rental_uris":{"android":"levelo://app?vid=0897e627-1690-4b1c-984d-29cb463c9770","ios":"levelo://app?vid=0897e627-1690-4b1c-984d-29cb463c9770"},"vehicle_type_id":"4","last_reported":1737353605,"current_range_meters":0,"station_id":"ce4bhq12rcd13ifvqhig","pricing_plan_id":"cebpf4jnsgd1na2vs0mg"},{"bike_id":"80bcc3e7-77de-44a5-8965-f19acb6d7452","system_id":"levelo_inurba_marseille","lat":43.330251,"lon":5.390457,"is_reserved":false,"is_disabled":false,"rental_uris":{"android":"levelo://app?vid=80bcc3e7-77de-44a5-8965-f19acb6d7452","ios":"levelo://app?vid=80bcc3e7-77de-44a5-8965-f19acb6d7452"},"vehicle_type_id":"4","last_reported":1737353605,"current_range_meters":38800,"station_id":"ce4bhr92rcd13ifvqhrg","pricing_plan_id":"cebpf4jnsgd1na2vs0mg"},{"bike_id":"f36305a4-e7fe-4519-abcb-b370cb2331f6","system_id":"levelo_inurba_marseille","lat":43.27811,"lon":5.40714,"is_reserved":false,"is_disabled":false,"rental_uris":{"android":"levelo://app?vid=f36305a4-e7fe-4519-abcb-b370cb2331f6","ios":"levelo://app?vid=f36305a4-e7fe-4519-abcb-b370cb2331f6"},"vehicle_type_id":"4","last_reported":1737353605,"current_range_meters":27200,"station_id":"ce4bhnh2rcd13ifvqgtg","pricing_plan_id":"cebpf4jnsgd1na2vs0mg"},{"bike_id":"f4a4a406-b0a5-42fc-9236-32e93ac6f6b2","system_id":"levelo_inurba_marseille","lat":43.23156,"lon":5.43696,"is_reserved":false,"is_disabled":true,"rental_uris":{"android":"levelo://app?vid=f4a4a406-b0a5-42fc-9236-32e93ac6f6b2","ios":"levelo://app?vid=f4a4a406-b0a5-42fc-9236-32e93ac6f6b2"},"vehicle_type_id":"4","last_reported":1737353605,"current_range_meters":23200,"station_id":"ce4bhmp2rcd13ifvqgog","pricing_plan_id":"cebpf4jnsgd1na2vs0mg"},{"bike_id":"210ffe2d-27bf-471a-a897-ba0eb55d9e2b","system_id":"levelo_inurba_marseille","lat":43.27081,"lon":5.4228,"is_reserved":false,"is_disabled":false,"rental_uris":{"android":"levelo://app?vid=210ffe2d-27bf-471a-a897-ba0eb55d9e2b","ios":"levelo://app?vid=210ffe2d-27bf-471a-a897-ba0eb55d9e2b"},"vehicle_type_id":"4","last_reported":1737353605,"current_range_meters":31200,"station_id":"ce4bhk92rcd13ifvqgb0","pricing_plan_id":"cebpf4jnsgd1na2vs0mg"},{"bike_id":"e92167c4-8eec-4d98-bd40-64928b3a44a1","system_id":"levelo_inurba_marseille","lat":43.24804,"lon":5.37456,"is_reserved":false,"is_disabled":false,"rental_uris":{"android":"levelo://app?vid=e92167c4-8eec-4d98-bd40-64928b3a44a1","ios":"levelo://app?vid=e92167c4-8eec-4d98-bd40-64928b3a44a1"},"vehicle_type_id":"4","last_reported":1737353605,"current_range_meters":28800,"station_id":"ce4bhgh2rcd13ifvqfb0","pricing_plan_id":"cebpf4jnsgd1na2vs0mg"},{"bike_id":"bb43cd3c-ef38-43df-a7cf-4a21a55b896c","system_id":"levelo_inurba_marseille","lat":43.29572,"lon":5.39972,"is_reserved":false,"is_disabled":false,"rental_uris":{"android":"levelo://app?vid=bb43cd3c-ef38-43df-a7cf-4a21a55b896c","ios":"levelo://app?vid=bb43cd3c-ef38-43df-a7cf-4a21a55b896c"},"vehicle_type_id":"4","last_reported":1737353605,"current_range_meters":18000,"station_id":"ce4bh312rcd13ifvqdj0","pricing_plan_id":"cebpf4jnsgd1na2vs0mg"},{"bike_id":"e16bfad3-6e5c-42b6-90cd-e77c51d0ba6a","system_id":"levelo_inurba_marseille","lat":43.298991,"lon":5.381291,"is_reserved":false,"is_disabled":true,"rental_uris":{"android":"levelo://app?vid=e16bfad3-6e5c-42b6-90cd-e77c51d0ba6a","ios":"levelo://app?vid=e16bfad3-6e5c-42b6-90cd-e77c51d0ba6a"},"vehicle_type_id":"4","last_reported":1737353605,"current_range_meters":16000,"station_id":"ce4bgj12rcd13ifvqbc0","pricing_plan_id":"cebpf4jnsgd1na2vs0mg"},{"bike_id":"ed68907f-255c-459d-8b28-ef9a664d0ec1","system_id":"levelo_inurba_marseille","lat":43.27935,"lon":5.41032,"is_reserved":false,"is_disabled":false,"rental_uris":{"android":"levelo://app?vid=ed68907f-255c-459d-8b28-ef9a664d0ec1","ios":"levelo://app?vid=ed68907f-255c-459d-8b28-ef9a664d0ec1"},"vehicle_type_id":"4","last_reported":1737353605,"current_range_meters":33200,"station_id":"ce4bhnp2rcd13ifvqh0g","pricing_plan_id":"cebpf4jnsgd1na2vs0mg"},{"bike_id":"dcd222ef-bb9b-415a-819d-b50eb1e422d0","system_id":"levelo_inurba_marseille","lat":43.314945,"lon":5.372929,"is_reserved":false,"is_disabled":false,"rental_uris":{"android":"levelo://app?vid=dcd222ef-bb9b-415a-819d-b50eb1e422d0","ios":"levelo://app?vid=dcd222ef-bb9b-415a-819d-b50eb1e422d0"},"vehicle_type_id":"4","last_reported":1737353605,"current_range_meters":38400,"station_id":"ce4bgt12rcd13ifvqcd0","pricing_plan_id":"cebpf4jnsgd1na2vs0mg"},{"bike_id":"d90088bf-08e4-481f-8a3a-207373e035b4","system_id":"levelo_inurba_marseille","lat":43.31183,"lon":5.38718,"is_reserved":false,"is_disabled":false,"rental_uris":{"android":"levelo://app?vid=d90088bf-08e4-481f-8a3a-207373e035b4","ios":"levelo://app?vid=d90088bf-08e4-481f-8a3a-207373e035b4"},"vehicle_type_id":"4","last_reported":1737353605,"current_range_meters":36400,"station_id":"ce4bgv12rcd13ifvqcp0","pricing_plan_id":"cebpf4jnsgd1na2vs0mg"},{"bike_id":"8ebd3ffe-c0e4-4418-bd18-539994b1d92e","system_id":"levelo_inurba_marseille","lat":43.257134,"lon":5.41113,"is_reserved":false,"is_disabled":false,"rental_uris":{"android":"levelo://app?vid=8ebd3ffe-c0e4-4418-bd18-539994b1d92e","ios":"levelo://app?vid=8ebd3ffe-c0e4-4418-bd18-539994b1d92e"},"vehicle_type_id":"4","last_reported":1737353605,"current_range_meters":26000,"station_id":"ce4bhkp2rcd13ifvqgd0","pricing_plan_id":"cebpf4jnsgd1na2vs0mg"},{"bike_id":"50343fe7-b049-4115-b6cd-1d192f0464f8","system_id":"levelo_inurba_marseille","lat":43.25821,"lon":5.39446,"is_reserved":false,"is_disabled":false,"rental_uris":{"android":"levelo://app?vid=50343fe7-b049-4115-b6cd-1d192f0464f8","ios":"levelo://app?vid=50343fe7-b049-4115-b6cd-1d192f0464f8"},"vehicle_type_id":"4","last_reported":1737353605,"current_range_meters":38800,"station_id":"ce4bhip2rcd13ifvqft0","pricing_plan_id":"cebpf4jnsgd1na2vs0mg"},{"bike_id":"58fd76de-d702-4a23-90c8-9fc2cf637617","system_id":"levelo_inurba_marseille","lat":43.27997,"lon":5.40008,"is_reserved":false,"is_disabled":false,"rental_uris":{"android":"levelo://app?vid=58fd76de-d702-4a23-90c8-9fc2cf637617","ios":"levelo://app?vid=58fd76de-d702-4a23-90c8-9fc2cf637617"},"vehicle_type_id":"4","last_reported":1737353605,"current_range_meters":36400,"station_id":"ce4bho92rcd13ifvqh4g","pricing_plan_id":"cebpf4jnsgd1na2vs0mg"},{"bike_id":"af458128-3a15-449d-adc5-fecdf8732629","system_id":"levelo_inurba_marseille","lat":43.28352,"lon":5.38105,"is_reserved":false,"is_disabled":false,"rental_uris":{"android":"levelo://app?vid=af458128-3a15-449d-adc5-fecdf8732629","ios":"levelo://app?vid=af458128-3a15-449d-adc5-fecdf8732629"},"vehicle_type_id":"4","last_reported":1737353605,"current_range_meters":17200,"station_id":"ce4bh412rcd13ifvqdr0","pricing_plan_id":"cebpf4jnsgd1na2vs0mg"},{"bike_id":"28c5dac0-7f56-4120-8993-2baa3e59ebdd","system_id":"levelo_inurba_marseille","lat":43.30465,"lon":5.379,"is_reserved":false,"is_disabled":false,"rental_uris":{"android":"levelo://app?vid=28c5dac0-7f56-4120-8993-2baa3e59ebdd","ios":"levelo://app?vid=28c5dac0-7f56-4120-8993-2baa3e59ebdd"},"vehicle_type_id":"4","last_reported":1737353605,"current_range_meters":27600,"station_id":"ce4bgup2rcd13ifvqcn0","pricing_plan_id":"cebpf4jnsgd1na2vs0mg"},{"bike_id":"43ab6a6e-18b0-45a2-bdfd-26946078537a","system_id":"levelo_inurba_marseille","lat":43.24994,"lon":5.38921,"is_reserved":false,"is_disabled":false,"rental_uris":{"android":"levelo://app?vid=43ab6a6e-18b0-45a2-bdfd-26946078537a","ios":"levelo://app?vid=43ab6a6e-18b0-45a2-bdfd-26946078537a"},"vehicle_type_id":"4","last_reported":1737353605,"current_range_meters":38800,"station_id":"ce4bhgp2rcd13ifvqfd0","pricing_plan_id":"cebpf4jnsgd1na2vs0mg"},{"bike_id":"d4683e01-0f6f-47b0-860d-868ed8c055a6","system_id":"levelo_inurba_marseille","lat":43.30409,"lon":5.41297,"is_reserved":false,"is_disabled":false,"rental_uris":{"android":"levelo://app?vid=d4683e01-0f6f-47b0-860d-868ed8c055a6","ios":"levelo://app?vid=d4683e01-0f6f-47b0-860d-868ed8c055a6"},"vehicle_type_id":"4","last_reported":1737353605,"current_range_meters":38000,"station_id":"ce4bhop2rcd13ifvqh8g","pricing_plan_id":"cebpf4jnsgd1na2vs0mg"},{"bike_id":"7f209671-4b52-469b-973a-e7e6214e6acd","system_id":"levelo_inurba_marseille","lat":43.3022,"lon":5.394755,"is_reserved":false,"is_disabled":false,"rental_uris":{"android":"levelo://app?vid=7f209671-4b52-469b-973a-e7e6214e6acd","ios":"levelo://app?vid=7f209671-4b52-469b-973a-e7e6214e6acd"},"vehicle_type_id":"4","last_reported":1737353605,"current_range_meters":30400,"station_id":"ce4bh0p2rcd13ifvqd70","pricing_plan_id":"cebpf4jnsgd1na2vs0mg"},{"bike_id":"0fd27dae-4cc1-498a-a130-9a6d6c5178cc","system_id":"levelo_inurba_marseille","lat":43.309263,"lon":5.401506,"is_reserved":false,"is_disabled":false,"rental_uris":{"android":"levelo://app?vid=0fd27dae-4cc1-498a-a130-9a6d6c5178cc","ios":"levelo://app?vid=0fd27dae-4cc1-498a-a130-9a6d6c5178cc"},"vehicle_type_id":"4","last_reported":1737353605,"current_range_meters":3600,"station_id":"ce4bgvp2rcd13ifvqct0","pricing_plan_id":"cebpf4jnsgd1na2vs0mg"},{"bike_id":"8bf4fd84-f2b2-4ee1-81af-eb9d6053ac9e","system_id":"levelo_inurba_marseille","lat":43.27671,"lon":5.38894,"is_reserved":false,"is_disabled":false,"rental_uris":{"android":"levelo://app?vid=8bf4fd84-f2b2-4ee1-81af-eb9d6053ac9e","ios":"levelo://app?vid=8bf4fd84-f2b2-4ee1-81af-eb9d6053ac9e"},"vehicle_type_id":"4","last_reported":1737353605,"current_range_meters":37600,"station_id":"ce4bhi12rcd13ifvqfo0","pricing_plan_id":"cebpf4jnsgd1na2vs0mg"},{"bike_id":"427adfa9-113c-4817-9db8-65205ccf4edf","system_id":"levelo_inurba_marseille","lat":43.317,"lon":5.40458,"is_reserved":false,"is_disabled":false,"rental_uris":{"android":"levelo://app?vid=427adfa9-113c-4817-9db8-65205ccf4edf","ios":"levelo://app?vid=427adfa9-113c-4817-9db8-65205ccf4edf"},"vehicle_type_id":"4","last_reported":1737353605,"current_range_meters":38800,"station_id":"ce4bh012rcd13ifvqd00","pricing_plan_id":"cebpf4jnsgd1na2vs0mg"},{"bike_id":"a9e53682-22a7-43ee-b393-cfde71bc94b7","system_id":"levelo_inurba_marseille","lat":43.248091,"lon":5.374514,"is_reserved":false,"is_disabled":false,"rental_uris":{"android":"levelo://app?vid=a9e53682-22a7-43ee-b393-cfde71bc94b7","ios":"levelo://app?vid=a9e53682-22a7-43ee-b393-cfde71bc94b7"},"vehicle_type_id":"4","last_reported":1737353605,"current_range_meters":27200,"station_id":"ce4bhgh2rcd13ifvqfb0","pricing_plan_id":"cebpf4jnsgd1na2vs0mg"},{"bike_id":"c04816e9-3e80-46e9-9dc2-56d7c3f7cfcb","system_id":"levelo_inurba_marseille","lat":43.28688,"lon":5.38651,"is_reserved":false,"is_disabled":false,"rental_uris":{"android":"levelo://app?vid=c04816e9-3e80-46e9-9dc2-56d7c3f7cfcb","ios":"levelo://app?vid=c04816e9-3e80-46e9-9dc2-56d7c3f7cfcb"},"vehicle_type_id":"4","last_reported":1737353605,"current_range_meters":37600,"station_id":"ce4bh492rcd13ifvqdug","pricing_plan_id":"cebpf4jnsgd1na2vs0mg"},{"bike_id":"5df3d1f5-3cf8-42ec-baf4-6b4c2c5c5515","system_id":"levelo_inurba_marseille","lat":43.30164,"lon":5.3807,"is_reserved":false,"is_disabled":false,"rental_uris":{"android":"levelo://app?vid=5df3d1f5-3cf8-42ec-baf4-6b4c2c5c5515","ios":"levelo://app?vid=5df3d1f5-3cf8-42ec-baf4-6b4c2c5c5515"},"vehicle_type_id":"4","last_reported":1737353605,"current_range_meters":22000,"station_id":"ce4bgjp2rcd13ifvqbh0","pricing_plan_id":"cebpf4jnsgd1na2vs0mg"},{"bike_id":"5759774f-56fe-4ef4-9310-4288813407ac","system_id":"levelo_inurba_marseille","lat":43.240684,"lon":5.377629,"is_reserved":false,"is_disabled":false,"rental_uris":{"android":"levelo://app?vid=5759774f-56fe-4ef4-9310-4288813407ac","ios":"levelo://app?vid=5759774f-56fe-4ef4-9310-4288813407ac"},"vehicle_type_id":"4","last_reported":1737353605,"current_range_meters":11600,"station_id":"ce4bhnp2rcd13ifvqgvg","pricing_plan_id":"cebpf4jnsgd1na2vs0mg"},{"bike_id":"56b8e9bc-f750-4815-bc98-9098414d16db","system_id":"levelo_inurba_marseille","lat":43.23199,"lon":5.35546,"is_reserved":false,"is_disabled":true,"rental_uris":{"android":"levelo://app?vid=56b8e9bc-f750-4815-bc98-9098414d16db","ios":"levelo://app?vid=56b8e9bc-f750-4815-bc98-9098414d16db"},"vehicle_type_id":"4","last_reported":1737353605,"current_range_meters":0,"station_id":"ce4bhu92rcd13ifvqi70","pricing_plan_id":"cebpf4jnsgd1na2vs0mg"},{"bike_id":"0e91b70c-1e42-4d65-a90a-72cbd40954b0","system_id":"levelo_inurba_marseille","lat":43.32356,"lon":5.36751,"is_reserved":false,"is_disabled":false,"rental_uris":{"android":"levelo://app?vid=0e91b70c-1e42-4d65-a90a-72cbd40954b0","ios":"levelo://app?vid=0e91b70c-1e42-4d65-a90a-72cbd40954b0"},"vehicle_type_id":"4","last_reported":1737353605,"current_range_meters":38400,"station_id":"ce4bhsh2rcd13ifvqi2g","pricing_plan_id":"cebpf4jnsgd1na2vs0mg"},{"bike_id":"809cb738-c150-49d8-8dbb-7ac1d2ee4312","system_id":"levelo_inurba_marseille","lat":43.30182,"lon":5.36604,"is_reserved":false,"is_disabled":false,"rental_uris":{"android":"levelo://app?vid=809cb738-c150-49d8-8dbb-7ac1d2ee4312","ios":"levelo://app?vid=809cb738-c150-49d8-8dbb-7ac1d2ee4312"},"vehicle_type_id":"4","last_reported":1737353605,"current_range_meters":38000,"station_id":"ce4bgrh2rcd13ifvqc8g","pricing_plan_id":"cebpf4jnsgd1na2vs0mg"},{"bike_id":"fcff8b6e-6484-4e4c-8d98-9ab325ed2e27","system_id":"levelo_inurba_marseille","lat":43.324842,"lon":5.365659,"is_reserved":false,"is_disabled":false,"rental_uris":{"android":"levelo://app?vid=fcff8b6e-6484-4e4c-8d98-9ab325ed2e27","ios":"levelo://app?vid=fcff8b6e-6484-4e4c-8d98-9ab325ed2e27"},"vehicle_type_id":"4","last_reported":1737353605,"current_range_meters":36800,"station_id":"ce4bhs12rcd13ifvqhvg","pricing_plan_id":"cebpf4jnsgd1na2vs0mg"},{"bike_id":"7f6908f7-cfcb-4080-a4c3-d5b221bf885b","system_id":"levelo_inurba_marseille","lat":43.32047,"lon":5.41567,"is_reserved":false,"is_disabled":true,"rental_uris":{"android":"levelo://app?vid=7f6908f7-cfcb-4080-a4c3-d5b221bf885b","ios":"levelo://app?vid=7f6908f7-cfcb-4080-a4c3-d5b221bf885b"},"vehicle_type_id":"4","last_reported":1737353605,"current_range_meters":0,"station_id":"ce4bhq92rcd13ifvqhkg","pricing_plan_id":"cebpf4jnsgd1na2vs0mg"},{"bike_id":"868c71f5-dfc0-43aa-b72b-e302a3faa8af","system_id":"levelo_inurba_marseille","lat":43.27213,"lon":5.39185,"is_reserved":false,"is_disabled":false,"rental_uris":{"android":"levelo://app?vid=868c71f5-dfc0-43aa-b72b-e302a3faa8af","ios":"levelo://app?vid=868c71f5-dfc0-43aa-b72b-e302a3faa8af"},"vehicle_type_id":"4","last_reported":1737353605,"current_range_meters":38800,"station_id":"ce4bhhp2rcd13ifvqfm0","pricing_plan_id":"cebpf4jnsgd1na2vs0mg"},{"bike_id":"bdba7b53-e862-45bf-8c9e-57e9f9bc90fe","system_id":"levelo_inurba_marseille","lat":43.29569,"lon":5.39966,"is_reserved":false,"is_disabled":false,"rental_uris":{"android":"levelo://app?vid=bdba7b53-e862-45bf-8c9e-57e9f9bc90fe","ios":"levelo://app?vid=bdba7b53-e862-45bf-8c9e-57e9f9bc90fe"},"vehicle_type_id":"4","last_reported":1737353605,"current_range_meters":30000,"station_id":"ce4bh312rcd13ifvqdj0","pricing_plan_id":"cebpf4jnsgd1na2vs0mg"},{"bike_id":"02f25583-5bae-4143-b3b2-7b8d3f3e60d9","system_id":"levelo_inurba_marseille","lat":43.284741,"lon":5.384435,"is_reserved":false,"is_disabled":true,"rental_uris":{"android":"levelo://app?vid=02f25583-5bae-4143-b3b2-7b8d3f3e60d9","ios":"levelo://app?vid=02f25583-5bae-4143-b3b2-7b8d3f3e60d9"},"vehicle_type_id":"4","last_reported":1737353605,"current_range_meters":32800,"station_id":"ce4bh512rcd13ifvqe3g","pricing_plan_id":"cebpf4jnsgd1na2vs0mg"},{"bike_id":"eeb2f082-f78f-43fa-a144-a550973194f8","system_id":"levelo_inurba_marseille","lat":43.279,"lon":5.38002,"is_reserved":false,"is_disabled":false,"rental_uris":{"android":"levelo://app?vid=eeb2f082-f78f-43fa-a144-a550973194f8","ios":"levelo://app?vid=eeb2f082-f78f-43fa-a144-a550973194f8"},"vehicle_type_id":"4","last_reported":1737353605,"current_range_meters":32000,"station_id":"ce4bhf92rcd13ifvqf50","pricing_plan_id":"cebpf4jnsgd1na2vs0mg"},{"bike_id":"0966a8a8-2d5b-449d-8d62-52bfeeb2bcde","system_id":"levelo_inurba_marseille","lat":43.2975,"lon":5.37665,"is_reserved":false,"is_disabled":true,"rental_uris":{"android":"levelo://app?vid=0966a8a8-2d5b-449d-8d62-52bfeeb2bcde","ios":"levelo://app?vid=0966a8a8-2d5b-449d-8d62-52bfeeb2bcde"},"vehicle_type_id":"4","last_reported":1737353605,"current_range_meters":35600,"station_id":"ce4bgkh2rcd13ifvqbl0","pricing_plan_id":"cebpf4jnsgd1na2vs0mg"},{"bike_id":"22465212-93af-4e0b-b803-6ee82bba56d5","system_id":"levelo_inurba_marseille","lat":43.33759,"lon":5.3748,"is_reserved":false,"is_disabled":false,"rental_uris":{"android":"levelo://app?vid=22465212-93af-4e0b-b803-6ee82bba56d5","ios":"levelo://app?vid=22465212-93af-4e0b-b803-6ee82bba56d5"},"vehicle_type_id":"4","last_reported":1737353605,"current_range_meters":25200,"station_id":"","pricing_plan_id":"cebpf4jnsgd1na2vs0mg"},{"bike_id":"d6d1604c-c524-40c9-b4a5-227697805b64","system_id":"levelo_inurba_marseille","lat":43.29906,"lon":5.39752,"is_reserved":false,"is_disabled":true,"rental_uris":{"android":"levelo://app?vid=d6d1604c-c524-40c9-b4a5-227697805b64","ios":"levelo://app?vid=d6d1604c-c524-40c9-b4a5-227697805b64"},"vehicle_type_id":"4","last_reported":1737353605,"current_range_meters":0,"station_id":"ce4bh0h2rcd13ifvqd50","pricing_plan_id":"cebpf4jnsgd1na2vs0mg"},{"bike_id":"23ea6d41-ca5d-4645-ad59-5872d4b7f3f1","system_id":"levelo_inurba_marseille","lat":43.25863,"lon":5.39914,"is_reserved":false,"is_disabled":false,"rental_uris":{"android":"levelo://app?vid=23ea6d41-ca5d-4645-ad59-5872d4b7f3f1","ios":"levelo://app?vid=23ea6d41-ca5d-4645-ad59-5872d4b7f3f1"},"vehicle_type_id":"4","last_reported":1737353605,"current_range_meters":14000,"station_id":"ce4bhl92rcd13ifvqghg","pricing_plan_id":"cebpf4jnsgd1na2vs0mg"},{"bike_id":"867be5f4-977e-4702-858e-b796a2663ec3","system_id":"levelo_inurba_marseille","lat":43.28943,"lon":5.36403,"is_reserved":false,"is_disabled":false,"rental_uris":{"android":"levelo://app?vid=867be5f4-977e-4702-858e-b796a2663ec3","ios":"levelo://app?vid=867be5f4-977e-4702-858e-b796a2663ec3"},"vehicle_type_id":"4","last_reported":1737353605,"current_range_meters":16800,"station_id":"ce4bhc92rcd13ifvqetg","pricing_plan_id":"cebpf4jnsgd1na2vs0mg"},{"bike_id":"d0117632-84a4-4476-a9b5-f01284cefbeb","system_id":"levelo_inurba_marseille","lat":43.29912,"lon":5.38153,"is_reserved":false,"is_disabled":false,"rental_uris":{"android":"levelo://app?vid=d0117632-84a4-4476-a9b5-f01284cefbeb","ios":"levelo://app?vid=d0117632-84a4-4476-a9b5-f01284cefbeb"},"vehicle_type_id":"4","last_reported":1737353605,"current_range_meters":4000,"station_id":"ce4bgj12rcd13ifvqbc0","pricing_plan_id":"cebpf4jnsgd1na2vs0mg"},{"bike_id":"19fb1931-f075-402c-a076-088e72accb76","system_id":"levelo_inurba_marseille","lat":43.248168,"lon":5.37462,"is_reserved":false,"is_disabled":false,"rental_uris":{"android":"levelo://app?vid=19fb1931-f075-402c-a076-088e72accb76","ios":"levelo://app?vid=19fb1931-f075-402c-a076-088e72accb76"},"vehicle_type_id":"4","last_reported":1737353605,"current_range_meters":8400,"station_id":"ce4bhgh2rcd13ifvqfb0","pricing_plan_id":"cebpf4jnsgd1na2vs0mg"},{"bike_id":"5e2ed0b4-6212-477c-91dc-b88670debb7b","system_id":"levelo_inurba_marseille","lat":43.31753,"lon":5.38993,"is_reserved":false,"is_disabled":false,"rental_uris":{"android":"levelo://app?vid=5e2ed0b4-6212-477c-91dc-b88670debb7b","ios":"levelo://app?vid=5e2ed0b4-6212-477c-91dc-b88670debb7b"},"vehicle_type_id":"4","last_reported":1737353605,"current_range_meters":38800,"station_id":"ce4bhqp2rcd13ifvqhng","pricing_plan_id":"cebpf4jnsgd1na2vs0mg"},{"bike_id":"f50183e4-71ca-412a-b3a0-01a0e393ecef","system_id":"levelo_inurba_marseille","lat":43.28161,"lon":5.42654,"is_reserved":false,"is_disabled":false,"rental_uris":{"android":"levelo://app?vid=f50183e4-71ca-412a-b3a0-01a0e393ecef","ios":"levelo://app?vid=f50183e4-71ca-412a-b3a0-01a0e393ecef"},"vehicle_type_id":"4","last_reported":1737353605,"current_range_meters":27200,"station_id":"ce4bhnh2rcd13ifvqgug","pricing_plan_id":"cebpf4jnsgd1na2vs0mg"},{"bike_id":"dfe486c9-2a48-41c2-bfe3-68d04becb36f","system_id":"levelo_inurba_marseille","lat":43.28934,"lon":5.39626,"is_reserved":false,"is_disabled":false,"rental_uris":{"android":"levelo://app?vid=dfe486c9-2a48-41c2-bfe3-68d04becb36f","ios":"levelo://app?vid=dfe486c9-2a48-41c2-bfe3-68d04becb36f"},"vehicle_type_id":"4","last_reported":1737353605,"current_range_meters":38800,"station_id":"ce4bh3h2rcd13ifvqdn0","pricing_plan_id":"cebpf4jnsgd1na2vs0mg"},{"bike_id":"653980d2-ede5-41a5-8f42-6d0f337023a1","system_id":"levelo_inurba_marseille","lat":43.30178,"lon":5.3718,"is_reserved":false,"is_disabled":false,"rental_uris":{"android":"levelo://app?vid=653980d2-ede5-41a5-8f42-6d0f337023a1","ios":"levelo://app?vid=653980d2-ede5-41a5-8f42-6d0f337023a1"},"vehicle_type_id":"4","last_reported":1737353605,"current_range_meters":28400,"station_id":"ce4bgup2rcd13ifvqcn0","pricing_plan_id":"cebpf4jnsgd1na2vs0mg"},{"bike_id":"16a7176a-24c9-4d21-8155-eb4f5f1f837c","system_id":"levelo_inurba_marseille","lat":43.24667,"lon":5.38174,"is_reserved":false,"is_disabled":false,"rental_uris":{"android":"levelo://app?vid=16a7176a-24c9-4d21-8155-eb4f5f1f837c","ios":"levelo://app?vid=16a7176a-24c9-4d21-8155-eb4f5f1f837c"},"vehicle_type_id":"4","last_reported":1737353605,"current_range_meters":36400,"station_id":"ce4bhih2rcd13ifvqfr0","pricing_plan_id":"cebpf4jnsgd1na2vs0mg"},{"bike_id":"598f7c2a-7e85-4067-90c6-b3bc2d305999","system_id":"levelo_inurba_marseille","lat":43.30209,"lon":5.39466,"is_reserved":false,"is_disabled":false,"rental_uris":{"android":"levelo://app?vid=598f7c2a-7e85-4067-90c6-b3bc2d305999","ios":"levelo://app?vid=598f7c2a-7e85-4067-90c6-b3bc2d305999"},"vehicle_type_id":"4","last_reported":1737353605,"current_range_meters":38000,"station_id":"ce4bh0p2rcd13ifvqd70","pricing_plan_id":"cebpf4jnsgd1na2vs0mg"},{"bike_id":"97f8a860-e24b-427d-9140-b644ee3eda7f","system_id":"levelo_inurba_marseille","lat":43.29875,"lon":5.39728,"is_reserved":false,"is_disabled":false,"rental_uris":{"android":"levelo://app?vid=97f8a860-e24b-427d-9140-b644ee3eda7f","ios":"levelo://app?vid=97f8a860-e24b-427d-9140-b644ee3eda7f"},"vehicle_type_id":"4","last_reported":1737353605,"current_range_meters":3600,"station_id":"ce4bh0h2rcd13ifvqd50","pricing_plan_id":"cebpf4jnsgd1na2vs0mg"},{"bike_id":"b6266ca1-f670-469e-913b-183d4fe31096","system_id":"levelo_inurba_marseille","lat":43.23183,"lon":5.39982,"is_reserved":false,"is_disabled":false,"rental_uris":{"android":"levelo://app?vid=b6266ca1-f670-469e-913b-183d4fe31096","ios":"levelo://app?vid=b6266ca1-f670-469e-913b-183d4fe31096"},"vehicle_type_id":"4","last_reported":1737353605,"current_range_meters":38800,"station_id":"ce4bhn12rcd13ifvqgqg","pricing_plan_id":"cebpf4jnsgd1na2vs0mg"},{"bike_id":"45b46742-a62d-4855-9ae3-d6f0621cbfdc","system_id":"levelo_inurba_marseille","lat":43.25824,"lon":5.39418,"is_reserved":false,"is_disabled":true,"rental_uris":{"android":"levelo://app?vid=45b46742-a62d-4855-9ae3-d6f0621cbfdc","ios":"levelo://app?vid=45b46742-a62d-4855-9ae3-d6f0621cbfdc"},"vehicle_type_id":"4","last_reported":1737353605,"current_range_meters":38000,"station_id":"ce4bhip2rcd13ifvqft0","pricing_plan_id":"cebpf4jnsgd1na2vs0mg"},{"bike_id":"f04ef4a1-6cc3-4e98-9736-cf47ded0c8aa","system_id":"levelo_inurba_marseille","lat":43.32335,"lon":5.40629,"is_reserved":false,"is_disabled":false,"rental_uris":{"android":"levelo://app?vid=f04ef4a1-6cc3-4e98-9736-cf47ded0c8aa","ios":"levelo://app?vid=f04ef4a1-6cc3-4e98-9736-cf47ded0c8aa"},"vehicle_type_id":"4","last_reported":1737353605,"current_range_meters":18000,"station_id":"ce4bhq92rcd13ifvqhjg","pricing_plan_id":"cebpf4jnsgd1na2vs0mg"},{"bike_id":"12d313aa-68bf-4753-a0fb-a5e8c7c367a2","system_id":"levelo_inurba_marseille","lat":43.31519,"lon":5.37284,"is_reserved":false,"is_disabled":false,"rental_uris":{"android":"levelo://app?vid=12d313aa-68bf-4753-a0fb-a5e8c7c367a2","ios":"levelo://app?vid=12d313aa-68bf-4753-a0fb-a5e8c7c367a2"},"vehicle_type_id":"4","last_reported":1737353605,"current_range_meters":30800,"station_id":"ce4bgt12rcd13ifvqcd0","pricing_plan_id":"cebpf4jnsgd1na2vs0mg"},{"bike_id":"2386f17e-13c8-428f-9cc1-e36191fa62da","system_id":"levelo_inurba_marseille","lat":43.30877,"lon":5.37188,"is_reserved":false,"is_disabled":false,"rental_uris":{"android":"levelo://app?vid=2386f17e-13c8-428f-9cc1-e36191fa62da","ios":"levelo://app?vid=2386f17e-13c8-428f-9cc1-e36191fa62da"},"vehicle_type_id":"4","last_reported":1737353605,"current_range_meters":36800,"station_id":"ce4bguh2rcd13ifvqckg","pricing_plan_id":"cebpf4jnsgd1na2vs0mg"},{"bike_id":"4edb4155-9425-4edc-b0b4-ac393bd38450","system_id":"levelo_inurba_marseille","lat":43.24664,"lon":5.38889,"is_reserved":false,"is_disabled":false,"rental_uris":{"android":"levelo://app?vid=4edb4155-9425-4edc-b0b4-ac393bd38450","ios":"levelo://app?vid=4edb4155-9425-4edc-b0b4-ac393bd38450"},"vehicle_type_id":"4","last_reported":1737353605,"current_range_meters":24400,"station_id":"ce4bhg12rcd13ifvqf60","pricing_plan_id":"cebpf4jnsgd1na2vs0mg"},{"bike_id":"0cac629b-75c3-4b34-958c-967de5da496c","system_id":"levelo_inurba_marseille","lat":43.29717,"lon":5.37692,"is_reserved":false,"is_disabled":false,"rental_uris":{"android":"levelo://app?vid=0cac629b-75c3-4b34-958c-967de5da496c","ios":"levelo://app?vid=0cac629b-75c3-4b34-958c-967de5da496c"},"vehicle_type_id":"4","last_reported":1737353605,"current_range_meters":38800,"station_id":"ce4bgkh2rcd13ifvqbl0","pricing_plan_id":"cebpf4jnsgd1na2vs0mg"},{"bike_id":"92fa69bb-8d79-4a4e-8892-87ec90c4fac1","system_id":"levelo_inurba_marseille","lat":43.31487,"lon":5.38942,"is_reserved":false,"is_disabled":false,"rental_uris":{"android":"levelo://app?vid=92fa69bb-8d79-4a4e-8892-87ec90c4fac1","ios":"levelo://app?vid=92fa69bb-8d79-4a4e-8892-87ec90c4fac1"},"vehicle_type_id":"4","last_reported":1737353605,"current_range_meters":18800,"station_id":"","pricing_plan_id":"cebpf4jnsgd1na2vs0mg"},{"bike_id":"04fbd60e-0bd6-47df-b92b-b7260d5d087d","system_id":"levelo_inurba_marseille","lat":43.29872,"lon":5.38912,"is_reserved":false,"is_disabled":false,"rental_uris":{"android":"levelo://app?vid=04fbd60e-0bd6-47df-b92b-b7260d5d087d","ios":"levelo://app?vid=04fbd60e-0bd6-47df-b92b-b7260d5d087d"},"vehicle_type_id":"4","last_reported":1737353605,"current_range_meters":23200,"station_id":"ce4bh392rcd13ifvqdl0","pricing_plan_id":"cebpf4jnsgd1na2vs0mg"},{"bike_id":"f2390374-e060-4fe1-bcfa-cb2711193e58","system_id":"levelo_inurba_marseille","lat":43.25089,"lon":5.39526,"is_reserved":false,"is_disabled":false,"rental_uris":{"android":"levelo://app?vid=f2390374-e060-4fe1-bcfa-cb2711193e58","ios":"levelo://app?vid=f2390374-e060-4fe1-bcfa-cb2711193e58"},"vehicle_type_id":"4","last_reported":1737353605,"current_range_meters":36400,"station_id":"ce4bhm12rcd13ifvqgkg","pricing_plan_id":"cebpf4jnsgd1na2vs0mg"},{"bike_id":"f6eb4c2f-f488-49be-8b74-65ffb05f3c0f","system_id":"levelo_inurba_marseille","lat":43.287101,"lon":5.379364,"is_reserved":false,"is_disabled":false,"rental_uris":{"android":"levelo://app?vid=f6eb4c2f-f488-49be-8b74-65ffb05f3c0f","ios":"levelo://app?vid=f6eb4c2f-f488-49be-8b74-65ffb05f3c0f"},"vehicle_type_id":"4","last_reported":1737353605,"current_range_meters":38000,"station_id":"ce4bh9p2rcd13ifvqec0","pricing_plan_id":"cebpf4jnsgd1na2vs0mg"},{"bike_id":"701bbc68-3ef2-45d0-96cc-b2ce9e360073","system_id":"levelo_inurba_marseille","lat":43.30154,"lon":5.37408,"is_reserved":false,"is_disabled":false,"rental_uris":{"android":"levelo://app?vid=701bbc68-3ef2-45d0-96cc-b2ce9e360073","ios":"levelo://app?vid=701bbc68-3ef2-45d0-96cc-b2ce9e360073"},"vehicle_type_id":"4","last_reported":1737353605,"current_range_meters":32000,"station_id":"ce4bgs92rcd13ifvqcc0","pricing_plan_id":"cebpf4jnsgd1na2vs0mg"},{"bike_id":"591b3bd2-5685-4ec2-843e-e45d69c9aabd","system_id":"levelo_inurba_marseille","lat":43.26062,"lon":5.39396,"is_reserved":false,"is_disabled":false,"rental_uris":{"android":"levelo://app?vid=591b3bd2-5685-4ec2-843e-e45d69c9aabd","ios":"levelo://app?vid=591b3bd2-5685-4ec2-843e-e45d69c9aabd"},"vehicle_type_id":"4","last_reported":1737353605,"current_range_meters":38800,"station_id":"ce4bhh92rcd13ifvqfj0","pricing_plan_id":"cebpf4jnsgd1na2vs0mg"},{"bike_id":"1aa8eecf-96db-4dff-a694-3573ca799e03","system_id":"levelo_inurba_marseille","lat":43.28351,"lon":5.3811,"is_reserved":false,"is_disabled":false,"rental_uris":{"android":"levelo://app?vid=1aa8eecf-96db-4dff-a694-3573ca799e03","ios":"levelo://app?vid=1aa8eecf-96db-4dff-a694-3573ca799e03"},"vehicle_type_id":"4","last_reported":1737353605,"current_range_meters":25200,"station_id":"ce4bh412rcd13ifvqdr0","pricing_plan_id":"cebpf4jnsgd1na2vs0mg"},{"bike_id":"948a0d36-7930-4c83-89da-81f27ad60806","system_id":"levelo_inurba_marseille","lat":43.28844,"lon":5.393,"is_reserved":false,"is_disabled":true,"rental_uris":{"android":"levelo://app?vid=948a0d36-7930-4c83-89da-81f27ad60806","ios":"levelo://app?vid=948a0d36-7930-4c83-89da-81f27ad60806"},"vehicle_type_id":"4","last_reported":1737353605,"current_range_meters":6000,"station_id":"ce4bh2p2rcd13ifvqdi0","pricing_plan_id":"cebpf4jnsgd1na2vs0mg"},{"bike_id":"f64999f5-996d-4197-afe6-61b2936cb9bb","system_id":"levelo_inurba_marseille","lat":43.287056,"lon":5.373916,"is_reserved":false,"is_disabled":false,"rental_uris":{"android":"levelo://app?vid=f64999f5-996d-4197-afe6-61b2936cb9bb","ios":"levelo://app?vid=f64999f5-996d-4197-afe6-61b2936cb9bb"},"vehicle_type_id":"4","last_reported":1737353605,"current_range_meters":38400,"station_id":"ce4bh3p2rcd13ifvqdq0","pricing_plan_id":"cebpf4jnsgd1na2vs0mg"},{"bike_id":"4a4004a1-4ec4-47b7-b560-e1bbdd360c37","system_id":"levelo_inurba_marseille","lat":43.29568,"lon":5.39975,"is_reserved":false,"is_disabled":false,"rental_uris":{"android":"levelo://app?vid=4a4004a1-4ec4-47b7-b560-e1bbdd360c37","ios":"levelo://app?vid=4a4004a1-4ec4-47b7-b560-e1bbdd360c37"},"vehicle_type_id":"4","last_reported":1737353605,"current_range_meters":38800,"station_id":"ce4bh312rcd13ifvqdj0","pricing_plan_id":"cebpf4jnsgd1na2vs0mg"},{"bike_id":"0aa4a416-5ca3-4c2e-b222-394c6f697f31","system_id":"levelo_inurba_marseille","lat":43.31356,"lon":5.36695,"is_reserved":false,"is_disabled":false,"rental_uris":{"android":"levelo://app?vid=0aa4a416-5ca3-4c2e-b222-394c6f697f31","ios":"levelo://app?vid=0aa4a416-5ca3-4c2e-b222-394c6f697f31"},"vehicle_type_id":"4","last_reported":1737353605,"current_range_meters":38800,"station_id":"ce4bgr92rcd13ifvqc6g","pricing_plan_id":"cebpf4jnsgd1na2vs0mg"},{"bike_id":"e35adc8b-46ac-4fd6-913d-0ecf59dfb53f","system_id":"levelo_inurba_marseille","lat":43.26923,"lon":5.40257,"is_reserved":false,"is_disabled":false,"rental_uris":{"android":"levelo://app?vid=e35adc8b-46ac-4fd6-913d-0ecf59dfb53f","ios":"levelo://app?vid=e35adc8b-46ac-4fd6-913d-0ecf59dfb53f"},"vehicle_type_id":"4","last_reported":1737353605,"current_range_meters":37600,"station_id":"cjm6bp8fraef2m0cb0m0","pricing_plan_id":"cebpf4jnsgd1na2vs0mg"},{"bike_id":"95ec6b15-2e46-4625-8d78-8736fb8484e1","system_id":"levelo_inurba_marseille","lat":43.29936,"lon":5.3655,"is_reserved":false,"is_disabled":false,"rental_uris":{"android":"levelo://app?vid=95ec6b15-2e46-4625-8d78-8736fb8484e1","ios":"levelo://app?vid=95ec6b15-2e46-4625-8d78-8736fb8484e1"},"vehicle_type_id":"4","last_reported":1737353605,"current_range_meters":11200,"station_id":"ce4bgm92rcd13ifvqbr0","pricing_plan_id":"cebpf4jnsgd1na2vs0mg"},{"bike_id":"ac3f8308-d8f9-4013-b563-9f4a11898c86","system_id":"levelo_inurba_marseille","lat":43.29715,"lon":5.36598,"is_reserved":false,"is_disabled":false,"rental_uris":{"android":"levelo://app?vid=ac3f8308-d8f9-4013-b563-9f4a11898c86","ios":"levelo://app?vid=ac3f8308-d8f9-4013-b563-9f4a11898c86"},"vehicle_type_id":"4","last_reported":1737353605,"current_range_meters":38400,"station_id":"ce4bgn12rcd13ifvqbt0","pricing_plan_id":"cebpf4jnsgd1na2vs0mg"},{"bike_id":"a95248e8-7ba2-479e-9b5c-9fb4d8e98c2b","system_id":"levelo_inurba_marseille","lat":43.280982,"lon":5.421854,"is_reserved":false,"is_disabled":true,"rental_uris":{"android":"levelo://app?vid=a95248e8-7ba2-479e-9b5c-9fb4d8e98c2b","ios":"levelo://app?vid=a95248e8-7ba2-479e-9b5c-9fb4d8e98c2b"},"vehicle_type_id":"4","last_reported":1737353605,"current_range_meters":0,"station_id":"","pricing_plan_id":"cebpf4jnsgd1na2vs0mg"},{"bike_id":"246f2aa1-d855-40ee-b8e2-0e541013d632","system_id":"levelo_inurba_marseille","lat":43.27817,"lon":5.40717,"is_reserved":false,"is_disabled":true,"rental_uris":{"android":"levelo://app?vid=246f2aa1-d855-40ee-b8e2-0e541013d632","ios":"levelo://app?vid=246f2aa1-d855-40ee-b8e2-0e541013d632"},"vehicle_type_id":"4","last_reported":1737353605,"current_range_meters":0,"station_id":"ce4bhnh2rcd13ifvqgtg","pricing_plan_id":"cebpf4jnsgd1na2vs0mg"},{"bike_id":"1296c22a-fd06-464a-9422-375c040fd819","system_id":"levelo_inurba_marseille","lat":43.31505,"lon":5.37322,"is_reserved":false,"is_disabled":false,"rental_uris":{"android":"levelo://app?vid=1296c22a-fd06-464a-9422-375c040fd819","ios":"levelo://app?vid=1296c22a-fd06-464a-9422-375c040fd819"},"vehicle_type_id":"4","last_reported":1737353605,"current_range_meters":38800,"station_id":"ce4bgt12rcd13ifvqcd0","pricing_plan_id":"cebpf4jnsgd1na2vs0mg"},{"bike_id":"490838b6-f744-4b79-ac77-a247533aa296","system_id":"levelo_inurba_marseille","lat":43.31707,"lon":5.40482,"is_reserved":false,"is_disabled":false,"rental_uris":{"android":"levelo://app?vid=490838b6-f744-4b79-ac77-a247533aa296","ios":"levelo://app?vid=490838b6-f744-4b79-ac77-a247533aa296"},"vehicle_type_id":"4","last_reported":1737353605,"current_range_meters":38800,"station_id":"ce4bh012rcd13ifvqd00","pricing_plan_id":"cebpf4jnsgd1na2vs0mg"},{"bike_id":"c406e2bd-23ff-4e1f-a222-e3b1c1d85894","system_id":"levelo_inurba_marseille","lat":43.31704,"lon":5.37781,"is_reserved":false,"is_disabled":false,"rental_uris":{"android":"levelo://app?vid=c406e2bd-23ff-4e1f-a222-e3b1c1d85894","ios":"levelo://app?vid=c406e2bd-23ff-4e1f-a222-e3b1c1d85894"},"vehicle_type_id":"4","last_reported":1737353605,"current_range_meters":34800,"station_id":"ce4bgth2rcd13ifvqch0","pricing_plan_id":"cebpf4jnsgd1na2vs0mg"},{"bike_id":"88ce3a2b-343a-48fa-9bfd-c30ff1dbe4e5","system_id":"levelo_inurba_marseille","lat":43.25088,"lon":5.39538,"is_reserved":false,"is_disabled":false,"rental_uris":{"android":"levelo://app?vid=88ce3a2b-343a-48fa-9bfd-c30ff1dbe4e5","ios":"levelo://app?vid=88ce3a2b-343a-48fa-9bfd-c30ff1dbe4e5"},"vehicle_type_id":"4","last_reported":1737353605,"current_range_meters":10800,"station_id":"ce4bhm12rcd13ifvqgkg","pricing_plan_id":"cebpf4jnsgd1na2vs0mg"},{"bike_id":"47498706-46bc-43f6-b5ab-5cb37c042b81","system_id":"levelo_inurba_marseille","lat":43.32051,"lon":5.41566,"is_reserved":false,"is_disabled":false,"rental_uris":{"android":"levelo://app?vid=47498706-46bc-43f6-b5ab-5cb37c042b81","ios":"levelo://app?vid=47498706-46bc-43f6-b5ab-5cb37c042b81"},"vehicle_type_id":"4","last_reported":1737353605,"current_range_meters":38800,"station_id":"ce4bhq92rcd13ifvqhkg","pricing_plan_id":"cebpf4jnsgd1na2vs0mg"},{"bike_id":"5957b55c-bbf3-4d79-a9fa-182e34bda710","system_id":"levelo_inurba_marseille","lat":43.266766,"lon":5.402833,"is_reserved":false,"is_disabled":false,"rental_uris":{"android":"levelo://app?vid=5957b55c-bbf3-4d79-a9fa-182e34bda710","ios":"levelo://app?vid=5957b55c-bbf3-4d79-a9fa-182e34bda710"},"vehicle_type_id":"4","last_reported":1737353605,"current_range_meters":11600,"station_id":"","pricing_plan_id":"cebpf4jnsgd1na2vs0mg"},{"bike_id":"65d6acd5-ef07-4943-8032-d23249b972f0","system_id":"levelo_inurba_marseille","lat":43.27436,"lon":5.39404,"is_reserved":false,"is_disabled":false,"rental_uris":{"android":"levelo://app?vid=65d6acd5-ef07-4943-8032-d23249b972f0","ios":"levelo://app?vid=65d6acd5-ef07-4943-8032-d23249b972f0"},"vehicle_type_id":"4","last_reported":1737353605,"current_range_meters":38800,"station_id":"ce4bhdp2rcd13ifvqf20","pricing_plan_id":"cebpf4jnsgd1na2vs0mg"},{"bike_id":"2189f33e-4cfd-4f76-9d91-913095d551c4","system_id":"levelo_inurba_marseille","lat":43.30354,"lon":5.39095,"is_reserved":false,"is_disabled":true,"rental_uris":{"android":"levelo://app?vid=2189f33e-4cfd-4f76-9d91-913095d551c4","ios":"levelo://app?vid=2189f33e-4cfd-4f76-9d91-913095d551c4"},"vehicle_type_id":"4","last_reported":1737353605,"current_range_meters":0,"station_id":"","pricing_plan_id":"cebpf4jnsgd1na2vs0mg"},{"bike_id":"d1c19bad-0c9d-43e2-9a29-ac1a3220a1b9","system_id":"levelo_inurba_marseille","lat":43.32335,"lon":5.40615,"is_reserved":false,"is_disabled":false,"rental_uris":{"android":"levelo://app?vid=d1c19bad-0c9d-43e2-9a29-ac1a3220a1b9","ios":"levelo://app?vid=d1c19bad-0c9d-43e2-9a29-ac1a3220a1b9"},"vehicle_type_id":"4","last_reported":1737353605,"current_range_meters":24000,"station_id":"ce4bhq92rcd13ifvqhjg","pricing_plan_id":"cebpf4jnsgd1na2vs0mg"},{"bike_id":"20ef9b62-d698-4f47-b65d-e26cd9307540","system_id":"levelo_inurba_marseille","lat":43.30199,"lon":5.39921,"is_reserved":false,"is_disabled":false,"rental_uris":{"android":"levelo://app?vid=20ef9b62-d698-4f47-b65d-e26cd9307540","ios":"levelo://app?vid=20ef9b62-d698-4f47-b65d-e26cd9307540"},"vehicle_type_id":"4","last_reported":1737353605,"current_range_meters":38800,"station_id":"ce4bgvh2rcd13ifvqcs0","pricing_plan_id":"cebpf4jnsgd1na2vs0mg"},{"bike_id":"668f9767-c78d-438a-96bb-c0760f782967","system_id":"levelo_inurba_marseille","lat":43.26196,"lon":5.37873,"is_reserved":false,"is_disabled":false,"rental_uris":{"android":"levelo://app?vid=668f9767-c78d-438a-96bb-c0760f782967","ios":"levelo://app?vid=668f9767-c78d-438a-96bb-c0760f782967"},"vehicle_type_id":"4","last_reported":1737353605,"current_range_meters":33200,"station_id":"ce4bhjp2rcd13ifvqg90","pricing_plan_id":"cebpf4jnsgd1na2vs0mg"},{"bike_id":"43ced1e6-8482-4f2f-9ba1-9ca79b71ddfa","system_id":"levelo_inurba_marseille","lat":43.30141,"lon":5.39834,"is_reserved":false,"is_disabled":false,"rental_uris":{"android":"levelo://app?vid=43ced1e6-8482-4f2f-9ba1-9ca79b71ddfa","ios":"levelo://app?vid=43ced1e6-8482-4f2f-9ba1-9ca79b71ddfa"},"vehicle_type_id":"4","last_reported":1737353605,"current_range_meters":38800,"station_id":"ce4bh0h2rcd13ifvqd40","pricing_plan_id":"cebpf4jnsgd1na2vs0mg"},{"bike_id":"a32f8922-6942-48e0-b7e4-53d9b1d9ff52","system_id":"levelo_inurba_marseille","lat":43.32067,"lon":5.41577,"is_reserved":false,"is_disabled":false,"rental_uris":{"android":"levelo://app?vid=a32f8922-6942-48e0-b7e4-53d9b1d9ff52","ios":"levelo://app?vid=a32f8922-6942-48e0-b7e4-53d9b1d9ff52"},"vehicle_type_id":"4","last_reported":1737353605,"current_range_meters":38800,"station_id":"ce4bhq92rcd13ifvqhkg","pricing_plan_id":"cebpf4jnsgd1na2vs0mg"},{"bike_id":"f3fbc6dd-78ff-41bc-83b7-27fb617e51a7","system_id":"levelo_inurba_marseille","lat":43.30471,"lon":5.3792,"is_reserved":false,"is_disabled":false,"rental_uris":{"android":"levelo://app?vid=f3fbc6dd-78ff-41bc-83b7-27fb617e51a7","ios":"levelo://app?vid=f3fbc6dd-78ff-41bc-83b7-27fb617e51a7"},"vehicle_type_id":"4","last_reported":1737353605,"current_range_meters":13600,"station_id":"ce4bgup2rcd13ifvqcn0","pricing_plan_id":"cebpf4jnsgd1na2vs0mg"},{"bike_id":"e60bcc88-5ab6-40c5-af7a-e995b02098bd","system_id":"levelo_inurba_marseille","lat":43.24088,"lon":5.37745,"is_reserved":false,"is_disabled":false,"rental_uris":{"android":"levelo://app?vid=e60bcc88-5ab6-40c5-af7a-e995b02098bd","ios":"levelo://app?vid=e60bcc88-5ab6-40c5-af7a-e995b02098bd"},"vehicle_type_id":"4","last_reported":1737353605,"current_range_meters":38000,"station_id":"ce4bhnp2rcd13ifvqgvg","pricing_plan_id":"cebpf4jnsgd1na2vs0mg"},{"bike_id":"ef486e9a-ed3e-409a-8929-2de2bf47be56","system_id":"levelo_inurba_marseille","lat":43.28742,"lon":5.36075,"is_reserved":false,"is_disabled":false,"rental_uris":{"android":"levelo://app?vid=ef486e9a-ed3e-409a-8929-2de2bf47be56","ios":"levelo://app?vid=ef486e9a-ed3e-409a-8929-2de2bf47be56"},"vehicle_type_id":"4","last_reported":1737353605,"current_range_meters":38000,"station_id":"cki0cbj6b192h4jlfktg","pricing_plan_id":"cebpf4jnsgd1na2vs0mg"},{"bike_id":"0d5bf58b-8962-4322-87c4-754920ec04ac","system_id":"levelo_inurba_marseille","lat":43.311907,"lon":5.387126,"is_reserved":false,"is_disabled":true,"rental_uris":{"android":"levelo://app?vid=0d5bf58b-8962-4322-87c4-754920ec04ac","ios":"levelo://app?vid=0d5bf58b-8962-4322-87c4-754920ec04ac"},"vehicle_type_id":"4","last_reported":1737353605,"current_range_meters":28000,"station_id":"ce4bgv12rcd13ifvqcp0","pricing_plan_id":"cebpf4jnsgd1na2vs0mg"},{"bike_id":"c92cbb9f-5a8c-4f30-b00a-221ba31b944d","system_id":"levelo_inurba_marseille","lat":43.28429,"lon":5.34993,"is_reserved":false,"is_disabled":true,"rental_uris":{"android":"levelo://app?vid=c92cbb9f-5a8c-4f30-b00a-221ba31b944d","ios":"levelo://app?vid=c92cbb9f-5a8c-4f30-b00a-221ba31b944d"},"vehicle_type_id":"4","last_reported":1737353605,"current_range_meters":28000,"station_id":"ce4bhbh2rcd13ifvqepg","pricing_plan_id":"cebpf4jnsgd1na2vs0mg"},{"bike_id":"0959c4c1-584b-411b-b7bb-e592fadb6799","system_id":"levelo_inurba_marseille","lat":43.29195,"lon":5.39322,"is_reserved":false,"is_disabled":false,"rental_uris":{"android":"levelo://app?vid=0959c4c1-584b-411b-b7bb-e592fadb6799","ios":"levelo://app?vid=0959c4c1-584b-411b-b7bb-e592fadb6799"},"vehicle_type_id":"4","last_reported":1737353605,"current_range_meters":38800,"station_id":"ce4bh192rcd13ifvqdd0","pricing_plan_id":"cebpf4jnsgd1na2vs0mg"},{"bike_id":"8870bac2-3fef-4478-995a-8e5335fcca0d","system_id":"levelo_inurba_marseille","lat":43.30156,"lon":5.38083,"is_reserved":false,"is_disabled":false,"rental_uris":{"android":"levelo://app?vid=8870bac2-3fef-4478-995a-8e5335fcca0d","ios":"levelo://app?vid=8870bac2-3fef-4478-995a-8e5335fcca0d"},"vehicle_type_id":"4","last_reported":1737353605,"current_range_meters":39200,"station_id":"ce4bgjp2rcd13ifvqbh0","pricing_plan_id":"cebpf4jnsgd1na2vs0mg"},{"bike_id":"fe90f7a6-3920-456a-9451-50d213b7000f","system_id":"levelo_inurba_marseille","lat":43.28463,"lon":5.38467,"is_reserved":false,"is_disabled":true,"rental_uris":{"android":"levelo://app?vid=fe90f7a6-3920-456a-9451-50d213b7000f","ios":"levelo://app?vid=fe90f7a6-3920-456a-9451-50d213b7000f"},"vehicle_type_id":"4","last_reported":1737353605,"current_range_meters":28800,"station_id":"ce4bh512rcd13ifvqe3g","pricing_plan_id":"cebpf4jnsgd1na2vs0mg"},{"bike_id":"67fe5a2e-d8fb-4c79-a771-ee3875d3a660","system_id":"levelo_inurba_marseille","lat":43.33735,"lon":5.39184,"is_reserved":false,"is_disabled":false,"rental_uris":{"android":"levelo://app?vid=67fe5a2e-d8fb-4c79-a771-ee3875d3a660","ios":"levelo://app?vid=67fe5a2e-d8fb-4c79-a771-ee3875d3a660"},"vehicle_type_id":"4","last_reported":1737353605,"current_range_meters":38800,"station_id":"ce4bhr92rcd13ifvqhsg","pricing_plan_id":"cebpf4jnsgd1na2vs0mg"},{"bike_id":"a5e54fff-92da-48a5-b188-02794fc4460d","system_id":"levelo_inurba_marseille","lat":43.31271,"lon":5.40173,"is_reserved":false,"is_disabled":false,"rental_uris":{"android":"levelo://app?vid=a5e54fff-92da-48a5-b188-02794fc4460d","ios":"levelo://app?vid=a5e54fff-92da-48a5-b188-02794fc4460d"},"vehicle_type_id":"4","last_reported":1737353605,"current_range_meters":38800,"station_id":"ce4bh092rcd13ifvqd30","pricing_plan_id":"cebpf4jnsgd1na2vs0mg"},{"bike_id":"c325b89d-7c1c-484e-8736-db36d00deba2","system_id":"levelo_inurba_marseille","lat":43.28859,"lon":5.39302,"is_reserved":false,"is_disabled":false,"rental_uris":{"android":"levelo://app?vid=c325b89d-7c1c-484e-8736-db36d00deba2","ios":"levelo://app?vid=c325b89d-7c1c-484e-8736-db36d00deba2"},"vehicle_type_id":"4","last_reported":1737353605,"current_range_meters":38800,"station_id":"ce4bh2p2rcd13ifvqdi0","pricing_plan_id":"cebpf4jnsgd1na2vs0mg"},{"bike_id":"aeeb7245-8a7c-4b79-b9ac-efca69f7818a","system_id":"levelo_inurba_marseille","lat":43.32094,"lon":5.36785,"is_reserved":false,"is_disabled":false,"rental_uris":{"android":"levelo://app?vid=aeeb7245-8a7c-4b79-b9ac-efca69f7818a","ios":"levelo://app?vid=aeeb7245-8a7c-4b79-b9ac-efca69f7818a"},"vehicle_type_id":"4","last_reported":1737353605,"current_range_meters":17200,"station_id":"ce4bhrh2rcd13ifvqhug","pricing_plan_id":"cebpf4jnsgd1na2vs0mg"},{"bike_id":"78ace97a-e302-4ded-a1e2-7c549a356ef4","system_id":"levelo_inurba_marseille","lat":43.25101,"lon":5.40345,"is_reserved":false,"is_disabled":false,"rental_uris":{"android":"levelo://app?vid=78ace97a-e302-4ded-a1e2-7c549a356ef4","ios":"levelo://app?vid=78ace97a-e302-4ded-a1e2-7c549a356ef4"},"vehicle_type_id":"4","last_reported":1737353605,"current_range_meters":38400,"station_id":"ce4bhlh2rcd13ifvqgig","pricing_plan_id":"cebpf4jnsgd1na2vs0mg"},{"bike_id":"d7ebea74-ea94-4f72-85c3-775497bc315c","system_id":"levelo_inurba_marseille","lat":43.3228,"lon":5.38293,"is_reserved":false,"is_disabled":false,"rental_uris":{"android":"levelo://app?vid=d7ebea74-ea94-4f72-85c3-775497bc315c","ios":"levelo://app?vid=d7ebea74-ea94-4f72-85c3-775497bc315c"},"vehicle_type_id":"4","last_reported":1737353605,"current_range_meters":38800,"station_id":"ce4bhr12rcd13ifvqhqg","pricing_plan_id":"cebpf4jnsgd1na2vs0mg"},{"bike_id":"7b52e969-7498-42fb-aafb-034e09ca2f2a","system_id":"levelo_inurba_marseille","lat":43.30852,"lon":5.43587,"is_reserved":false,"is_disabled":false,"rental_uris":{"android":"levelo://app?vid=7b52e969-7498-42fb-aafb-034e09ca2f2a","ios":"levelo://app?vid=7b52e969-7498-42fb-aafb-034e09ca2f2a"},"vehicle_type_id":"4","last_reported":1737353605,"current_range_meters":27600,"station_id":"","pricing_plan_id":"cebpf4jnsgd1na2vs0mg"},{"bike_id":"88d594e1-1976-44d8-847e-b3661f65e82d","system_id":"levelo_inurba_marseille","lat":43.30581,"lon":5.39343,"is_reserved":false,"is_disabled":false,"rental_uris":{"android":"levelo://app?vid=88d594e1-1976-44d8-847e-b3661f65e82d","ios":"levelo://app?vid=88d594e1-1976-44d8-847e-b3661f65e82d"},"vehicle_type_id":"4","last_reported":1737353605,"current_range_meters":38000,"station_id":"ce4bh0p2rcd13ifvqd80","pricing_plan_id":"cebpf4jnsgd1na2vs0mg"},{"bike_id":"9eb335b9-be9e-4d87-ab11-b7aad1d486a4","system_id":"levelo_inurba_marseille","lat":43.23156,"lon":5.43707,"is_reserved":false,"is_disabled":false,"rental_uris":{"android":"levelo://app?vid=9eb335b9-be9e-4d87-ab11-b7aad1d486a4","ios":"levelo://app?vid=9eb335b9-be9e-4d87-ab11-b7aad1d486a4"},"vehicle_type_id":"4","last_reported":1737353605,"current_range_meters":38800,"station_id":"ce4bhmp2rcd13ifvqgog","pricing_plan_id":"cebpf4jnsgd1na2vs0mg"},{"bike_id":"af7a856b-270b-4bf7-8c2f-4b76a38948fa","system_id":"levelo_inurba_marseille","lat":43.23187,"lon":5.39986,"is_reserved":false,"is_disabled":false,"rental_uris":{"android":"levelo://app?vid=af7a856b-270b-4bf7-8c2f-4b76a38948fa","ios":"levelo://app?vid=af7a856b-270b-4bf7-8c2f-4b76a38948fa"},"vehicle_type_id":"4","last_reported":1737353605,"current_range_meters":38800,"station_id":"ce4bhn12rcd13ifvqgqg","pricing_plan_id":"cebpf4jnsgd1na2vs0mg"},{"bike_id":"c152fc79-1cd4-48b6-9683-75e37b136f35","system_id":"levelo_inurba_marseille","lat":43.250083,"lon":5.389214,"is_reserved":false,"is_disabled":false,"rental_uris":{"android":"levelo://app?vid=c152fc79-1cd4-48b6-9683-75e37b136f35","ios":"levelo://app?vid=c152fc79-1cd4-48b6-9683-75e37b136f35"},"vehicle_type_id":"4","last_reported":1737353605,"current_range_meters":38800,"station_id":"ce4bhgp2rcd13ifvqfd0","pricing_plan_id":"cebpf4jnsgd1na2vs0mg"},{"bike_id":"63a0c470-0e3d-4f46-a361-302d7a67e5d2","system_id":"levelo_inurba_marseille","lat":43.24816,"lon":5.37465,"is_reserved":false,"is_disabled":true,"rental_uris":{"android":"levelo://app?vid=63a0c470-0e3d-4f46-a361-302d7a67e5d2","ios":"levelo://app?vid=63a0c470-0e3d-4f46-a361-302d7a67e5d2"},"vehicle_type_id":"4","last_reported":1737353605,"current_range_meters":36400,"station_id":"ce4bhgh2rcd13ifvqfb0","pricing_plan_id":"cebpf4jnsgd1na2vs0mg"},{"bike_id":"d5a4b84a-471f-4edb-a016-4dd0af7e2137","system_id":"levelo_inurba_marseille","lat":43.25873,"lon":5.39913,"is_reserved":false,"is_disabled":false,"rental_uris":{"android":"levelo://app?vid=d5a4b84a-471f-4edb-a016-4dd0af7e2137","ios":"levelo://app?vid=d5a4b84a-471f-4edb-a016-4dd0af7e2137"},"vehicle_type_id":"4","last_reported":1737353605,"current_range_meters":35600,"station_id":"ce4bhl92rcd13ifvqghg","pricing_plan_id":"cebpf4jnsgd1na2vs0mg"},{"bike_id":"5434439c-80a7-45ef-8e7d-a897cb833684","system_id":"levelo_inurba_marseille","lat":43.324236,"lon":5.367566,"is_reserved":false,"is_disabled":false,"rental_uris":{"android":"levelo://app?vid=5434439c-80a7-45ef-8e7d-a897cb833684","ios":"levelo://app?vid=5434439c-80a7-45ef-8e7d-a897cb833684"},"vehicle_type_id":"4","last_reported":1737353605,"current_range_meters":8000,"station_id":"","pricing_plan_id":"cebpf4jnsgd1na2vs0mg"},