{"last_updated":1720973285,"ttl":30,"version":"2.2","data":{"bikes":[{"bike_id":"4e83928f-9da8-4731-8b1c-e1c9ac3ff597","system_id":"levelo_inurba_marseille","lat":43.312239,"lon":5.368562,"is_reserved":false,"is_disabled":false,"rental_uris":{"android":"levelo://app?vid=4e83928f-9da8-4731-8b1c-e1c9ac3ff597","ios":"levelo://app?vid=4e83928f-9da8-4731-8b1c-e1c9ac3ff597"},"vehicle_type_id":"4","last_reported":1720973285,"current_range_meters":22800,"station_id":"ce4bgl92rcd13ifvqbq0","pricing_plan_id":"cebpf4jnsgd1na2vs0mg"},{"bike_id":"209a1f9c-4567-4a04-b132-4ec758a02002","system_id":"levelo_inurba_marseille","lat":43.309076,"lon":5.368465,"is_reserved":false,"is_disabled":false,"rental_uris":{"android":"levelo://app?vid=209a1f9c-4567-4a04-b132-4ec758a02002","ios":"levelo://app?vid=209a1f9c-4567-4a04-b132-4ec758a02002"},"vehicle_type_id":"4","last_reported":1720973285,"current_range_meters":30000,"station_id":"ce4bgn92rcd13ifvqbvg","pricing_plan_id":"cebpf4jnsgd1na2vs0mg"},{"bike_id":"a72854da-5c92-4afc-94df-fe4c4b561d48","system_id":"levelo_inurba_marseille","lat":43.309076,"lon":5.368465,"is_reserved":false,"is_disabled":false,"rental_uris":{"android":"levelo://app?vid=a72854da-5c92-4afc-94df-fe4c4b561d48","ios":"levelo://app?vid=a72854da-5c92-4afc-94df-fe4c4b561d48"},"vehicle_type_id":"4","last_reported":1720973285,"current_range_meters":28000,"station_id":"ce4bgn92rcd13ifvqbvg","pricing_plan_id":"cebpf4jnsgd1na2vs0mg"},{"bike_id":"7cde1fb3-95ba-498e-8323-6867d8730ceb","system_id":"levelo_inurba_marseille","lat":43.31524,"lon":5.3725,"is_reserved":false,"is_disabled":false,"rental_uris":{"android":"levelo://app?vid=7cde1fb3-95ba-498e-8323-6867d8730ceb","ios":"levelo://app?vid=7cde1fb3-95ba-498e-8323-6867d8730ceb"},"vehicle_type_id":"4","last_reported":1720973285,"current_range_meters":6800,"station_id":"","pricing_plan_id":"cebpf4jnsgd1na2vs0mg"},{"bike_id":"c569701d-554a-4004-8a58-2b77ffcb81c8","system_id":"levelo_inurba_marseille","lat":43.31486,"lon":5.37307,"is_reserved":false,"is_disabled":false,"rental_uris":{"android":"levelo://app?vid=c569701d-554a-4004-8a58-2b77ffcb81c8","ios":"levelo://app?vid=c569701d-554a-4004-8a58-2b77ffcb81c8"},"vehicle_type_id":"4","last_reported":1720973285,"current_range_meters":29600,"station_id":"ce4bgt12rcd13ifvqcd0","pricing_plan_id":"cebpf4jnsgd1na2vs0mg"},{"bike_id":"3ec2f6d4-a6e4-4aa4-9407-2730438c4a0f","system_id":"levelo_inurba_marseille","lat":43.30887,"lon":5.37193,"is_reserved":false,"is_disabled":false,"rental_uris":{"android":"levelo://app?vid=3ec2f6d4-a6e4-4aa4-9407-2730438c4a0f","ios":"levelo://app?vid=3ec2f6d4-a6e4-4aa4-9407-2730438c4a0f"},"vehicle_type_id":"4","last_reported":1720973285,"current_range_meters":2000,"station_id":"","pricing_plan_id":"cebpf4jnsgd1na2vs0mg"},{"bike_id":"3bdfb30e-76c6-40ed-9e8c-400eaec51f24","system_id":"levelo_inurba_marseille","lat":43.30555,"lon":5.36697,"is_reserved":false,"is_disabled":false,"rental_uris":{"android":"levelo://app?vid=3bdfb30e-76c6-40ed-9e8c-400eaec51f24","ios":"levelo://app?vid=3bdfb30e-76c6-40ed-9e8c-400eaec51f24"},"vehicle_type_id":"4","last_reported":1720973285,"current_range_meters":0,"station_id":"ce4bgrp2rcd13ifvqc9g","pricing_plan_id":"cebpf4jnsgd1na2vs0mg"},{"bike_id":"52e74564-6585-4649-b706-6ee1009d299e","system_id":"levelo_inurba_marseille","lat":43.305989,"lon":5.37225,"is_reserved":false,"is_disabled":false,"rental_uris":{"android":"levelo://app?vid=52e74564-6585-4649-b706-6ee1009d299e","ios":"levelo://app?vid=52e74564-6585-4649-b706-6ee1009d299e"},"vehicle_type_id":"4","last_reported":1720973285,"current_range_meters":14400,"station_id":"ce4bgqh2rcd13ifvqc4g","pricing_plan_id":"cebpf4jnsgd1na2vs0mg"},{"bike_id":"69f224e3-ed26-49a8-9653-795f25dd435b","system_id":"levelo_inurba_marseille","lat":43.305989,"lon":5.37225,"is_reserved":false,"is_disabled":false,"rental_uris":{"android":"levelo://app?vid=69f224e3-ed26-49a8-9653-795f25dd435b","ios":"levelo://app?vid=69f224e3-ed26-49a8-9653-795f25dd435b"},"vehicle_type_id":"4","last_reported":1720973285,"current_range_meters":4000,"station_id":"ce4bgqh2rcd13ifvqc4g","pricing_plan_id":"cebpf4jnsgd1na2vs0mg"},{"bike_id":"8e0c0cb2-c941-4607-a055-3cf8790e7817","system_id":"levelo_inurba_marseille","lat":43.305989,"lon":5.37225,"is_reserved":false,"is_disabled":false,"rental_uris":{"android":"levelo://app?vid=8e0c0cb2-c941-4607-a055-3cf8790e7817","ios":"levelo://app?vid=8e0c0cb2-c941-4607-a055-3cf8790e7817"},"vehicle_type_id":"4","last_reported":1720973285,"current_range_meters":25200,"station_id":"ce4bgqh2rcd13ifvqc4g","pricing_plan_id":"cebpf4jnsgd1na2vs0mg"},{"bike_id":"9a3d5ab1-0086-4d19-8da7-30ceefa2b5da","system_id":"levelo_inurba_marseille","lat":43.311125,"lon":5.377624,"is_reserved":false,"is_disabled":false,"rental_uris":{"android":"levelo://app?vid=9a3d5ab1-0086-4d19-8da7-30ceefa2b5da","ios":"levelo://app?vid=9a3d5ab1-0086-4d19-8da7-30ceefa2b5da"},"vehicle_type_id":"4","last_reported":1720973285,"current_range_meters":22800,"station_id":"ce4bgt92rcd13ifvqcg0","pricing_plan_id":"cebpf4jnsgd1na2vs0mg"},{"bike_id":"9b1274ae-36e0-4610-a8b0-9a097804cd2b","system_id":"levelo_inurba_marseille","lat":43.315289,"lon":5.380349,"is_reserved":false,"is_disabled":false,"rental_uris":{"android":"levelo://app?vid=9b1274ae-36e0-4610-a8b0-9a097804cd2b","ios":"levelo://app?vid=9b1274ae-36e0-4610-a8b0-9a097804cd2b"},"vehicle_type_id":"4","last_reported":1720973285,"current_range_meters":14400,"station_id":"ce4bhsp2rcd13ifvqi50","pricing_plan_id":"cebpf4jnsgd1na2vs0mg"},{"bike_id":"2b4da476-2e26-40be-9aee-5dbf144bd864","system_id":"levelo_inurba_marseille","lat":43.31433,"lon":5.38167,"is_reserved":false,"is_disabled":false,"rental_uris":{"android":"levelo://app?vid=2b4da476-2e26-40be-9aee-5dbf144bd864","ios":"levelo://app?vid=2b4da476-2e26-40be-9aee-5dbf144bd864"},"vehicle_type_id":"4","last_reported":1720973285,"current_range_meters":10000,"station_id":"","pricing_plan_id":"cebpf4jnsgd1na2vs0mg"},{"bike_id":"c9a300e3-e0ca-4bbc-9c3c-dae39152c62f","system_id":"levelo_inurba_marseille","lat":43.301939,"lon":5.366286,"is_reserved":false,"is_disabled":false,"rental_uris":{"android":"levelo://app?vid=c9a300e3-e0ca-4bbc-9c3c-dae39152c62f","ios":"levelo://app?vid=c9a300e3-e0ca-4bbc-9c3c-dae39152c62f"},"vehicle_type_id":"4","last_reported":1720973285,"current_range_meters":400,"station_id":"ce4bgrh2rcd13ifvqc8g","pricing_plan_id":"cebpf4jnsgd1na2vs0mg"},{"bike_id":"45e1ba58-c084-45de-8509-c3a9c352616b","system_id":"levelo_inurba_marseille","lat":43.32291,"lon":5.37441,"is_reserved":false,"is_disabled":false,"rental_uris":{"android":"levelo://app?vid=45e1ba58-c084-45de-8509-c3a9c352616b","ios":"levelo://app?vid=45e1ba58-c084-45de-8509-c3a9c352616b"},"vehicle_type_id":"4","last_reported":1720973285,"current_range_meters":5200,"station_id":"","pricing_plan_id":"cebpf4jnsgd1na2vs0mg"},{"bike_id":"a54ac358-b7ed-417c-b57e-e83b5b1a5be3","system_id":"levelo_inurba_marseille","lat":43.308012,"lon":5.381511,"is_reserved":false,"is_disabled":false,"rental_uris":{"android":"levelo://app?vid=a54ac358-b7ed-417c-b57e-e83b5b1a5be3","ios":"levelo://app?vid=a54ac358-b7ed-417c-b57e-e83b5b1a5be3"},"vehicle_type_id":"4","last_reported":1720973285,"current_range_meters":5600,"station_id":"ce4bgt12rcd13ifvqce0","pricing_plan_id":"cebpf4jnsgd1na2vs0mg"},{"bike_id":"e446f89f-a2fc-496a-98a5-02b76da89a84","system_id":"levelo_inurba_marseille","lat":43.30464,"lon":5.37898,"is_reserved":false,"is_disabled":false,"rental_uris":{"android":"levelo://app?vid=e446f89f-a2fc-496a-98a5-02b76da89a84","ios":"levelo://app?vid=e446f89f-a2fc-496a-98a5-02b76da89a84"},"vehicle_type_id":"4","last_reported":1720973285,"current_range_meters":31200,"station_id":"ce4bgup2rcd13ifvqcn0","pricing_plan_id":"cebpf4jnsgd1na2vs0mg"},{"bike_id":"3f8f3329-cbfa-47ef-a96f-33a345d20fe2","system_id":"levelo_inurba_marseille","lat":43.30463,"lon":5.37902,"is_reserved":false,"is_disabled":false,"rental_uris":{"android":"levelo://app?vid=3f8f3329-cbfa-47ef-a96f-33a345d20fe2","ios":"levelo://app?vid=3f8f3329-cbfa-47ef-a96f-33a345d20fe2"},"vehicle_type_id":"4","last_reported":1720973285,"current_range_meters":0,"station_id":"ce4bgup2rcd13ifvqcn0","pricing_plan_id":"cebpf4jnsgd1na2vs0mg"},{"bike_id":"36db24ce-78b1-455c-bbd4-2c5ed13bae90","system_id":"levelo_inurba_marseille","lat":43.324771,"lon":5.36557,"is_reserved":false,"is_disabled":false,"rental_uris":{"android":"levelo://app?vid=36db24ce-78b1-455c-bbd4-2c5ed13bae90","ios":"levelo://app?vid=36db24ce-78b1-455c-bbd4-2c5ed13bae90"},"vehicle_type_id":"4","last_reported":1720973285,"current_range_meters":12400,"station_id":"ce4bhs12rcd13ifvqhvg","pricing_plan_id":"cebpf4jnsgd1na2vs0mg"},{"bike_id":"7e73aa4c-ea94-4d4e-ba2d-81421c5f4cb3","system_id":"levelo_inurba_marseille","lat":43.32479,"lon":5.36567,"is_reserved":false,"is_disabled":false,"rental_uris":{"android":"levelo://app?vid=7e73aa4c-ea94-4d4e-ba2d-81421c5f4cb3","ios":"levelo://app?vid=7e73aa4c-ea94-4d4e-ba2d-81421c5f4cb3"},"vehicle_type_id":"4","last_reported":1720973285,"current_range_meters":18400,"station_id":"","pricing_plan_id":"cebpf4jnsgd1na2vs0mg"},{"bike_id":"f556e72f-b7ee-4cfc-b84e-d4f18a6d7cfe","system_id":"levelo_inurba_marseille","lat":43.324771,"lon":5.36557,"is_reserved":false,"is_disabled":false,"rental_uris":{"android":"levelo://app?vid=f556e72f-b7ee-4cfc-b84e-d4f18a6d7cfe","ios":"levelo://app?vid=f556e72f-b7ee-4cfc-b84e-d4f18a6d7cfe"},"vehicle_type_id":"4","last_reported":1720973285,"current_range_meters":25200,"station_id":"ce4bhs12rcd13ifvqhvg","pricing_plan_id":"cebpf4jnsgd1na2vs0mg"},{"bike_id":"8cf15673-c7e0-43b5-a393-37588f82e238","system_id":"levelo_inurba_marseille","lat":43.324771,"lon":5.36557,"is_reserved":false,"is_disabled":false,"rental_uris":{"android":"levelo://app?vid=8cf15673-c7e0-43b5-a393-37588f82e238","ios":"levelo://app?vid=8cf15673-c7e0-43b5-a393-37588f82e238"},"vehicle_type_id":"4","last_reported":1720973285,"current_range_meters":14000,"station_id":"ce4bhs12rcd13ifvqhvg","pricing_plan_id":"cebpf4jnsgd1na2vs0mg"},{"bike_id":"dda3811c-3e32-4e51-ac1e-8f90a33e6dce","system_id":"levelo_inurba_marseille","lat":43.31374,"lon":5.38385,"is_reserved":false,"is_disabled":false,"rental_uris":{"android":"levelo://app?vid=dda3811c-3e32-4e51-ac1e-8f90a33e6dce","ios":"levelo://app?vid=dda3811c-3e32-4e51-ac1e-8f90a33e6dce"},"vehicle_type_id":"4","last_reported":1720973285,"current_range_meters":19200,"station_id":"","pricing_plan_id":"cebpf4jnsgd1na2vs0mg"},{"bike_id":"00804805-c03c-435a-b1bb-c33b35d8fb8f","system_id":"levelo_inurba_marseille","lat":43.302784,"lon":5.377158,"is_reserved":false,"is_disabled":false,"rental_uris":{"android":"levelo://app?vid=00804805-c03c-435a-b1bb-c33b35d8fb8f","ios":"levelo://app?vid=00804805-c03c-435a-b1bb-c33b35d8fb8f"},"vehicle_type_id":"4","last_reported":1720973285,"current_range_meters":12000,"station_id":"ce4bguh2rcd13ifvqcj0","pricing_plan_id":"cebpf4jnsgd1na2vs0mg"},{"bike_id":"5ef20e0f-ce2e-4378-88be-e43db69fb21e","system_id":"levelo_inurba_marseille","lat":43.301429,"lon":5.37413,"is_reserved":false,"is_disabled":false,"rental_uris":{"android":"levelo://app?vid=5ef20e0f-ce2e-4378-88be-e43db69fb21e","ios":"levelo://app?vid=5ef20e0f-ce2e-4378-88be-e43db69fb21e"},"vehicle_type_id":"4","last_reported":1720973285,"current_range_meters":16800,"station_id":"ce4bgs92rcd13ifvqcc0","pricing_plan_id":"cebpf4jnsgd1na2vs0mg"},{"bike_id":"2f17a59e-de16-447a-b1ed-316846db9cff","system_id":"levelo_inurba_marseille","lat":43.301429,"lon":5.37413,"is_reserved":false,"is_disabled":false,"rental_uris":{"android":"levelo://app?vid=2f17a59e-de16-447a-b1ed-316846db9cff","ios":"levelo://app?vid=2f17a59e-de16-447a-b1ed-316846db9cff"},"vehicle_type_id":"4","last_reported":1720973285,"current_range_meters":5600,"station_id":"ce4bgs92rcd13ifvqcc0","pricing_plan_id":"cebpf4jnsgd1na2vs0mg"},{"bike_id":"c459790a-f2e1-4c75-b2df-2684f181221e","system_id":"levelo_inurba_marseille","lat":43.319935,"lon":5.381699,"is_reserved":false,"is_disabled":false,"rental_uris":{"android":"levelo://app?vid=c459790a-f2e1-4c75-b2df-2684f181221e","ios":"levelo://app?vid=c459790a-f2e1-4c75-b2df-2684f181221e"},"vehicle_type_id":"4","last_reported":1720973285,"current_range_meters":17200,"station_id":"ce4bhr12rcd13ifvqhpg","pricing_plan_id":"cebpf4jnsgd1na2vs0mg"},{"bike_id":"2b816dd9-adcd-4d2d-a2bd-f1b4fa6149ba","system_id":"levelo_inurba_marseille","lat":43.313571,"lon":5.384829,"is_reserved":false,"is_disabled":false,"rental_uris":{"android":"levelo://app?vid=2b816dd9-adcd-4d2d-a2bd-f1b4fa6149ba","ios":"levelo://app?vid=2b816dd9-adcd-4d2d-a2bd-f1b4fa6149ba"},"vehicle_type_id":"4","last_reported":1720973285,"current_range_meters":13200,"station_id":"ce4bgt92rcd13ifvqcf0","pricing_plan_id":"cebpf4jnsgd1na2vs0mg"},{"bike_id":"e3c2cadc-9aa2-4266-9c2f-370abafa7222","system_id":"levelo_inurba_marseille","lat":43.299869,"lon":5.371814,"is_reserved":false,"is_disabled":false,"rental_uris":{"android":"levelo://app?vid=e3c2cadc-9aa2-4266-9c2f-370abafa7222","ios":"levelo://app?vid=e3c2cadc-9aa2-4266-9c2f-370abafa7222"},"vehicle_type_id":"4","last_reported":1720973285,"current_range_meters":0,"station_id":"ce4bgr92rcd13ifvqc7g","pricing_plan_id":"cebpf4jnsgd1na2vs0mg"},{"bike_id":"6d49c6c0-96f5-4359-94bd-ca2ab265066d","system_id":"levelo_inurba_marseille","lat":43.299222,"lon":5.365554,"is_reserved":false,"is_disabled":false,"rental_uris":{"android":"levelo://app?vid=6d49c6c0-96f5-4359-94bd-ca2ab265066d","ios":"levelo://app?vid=6d49c6c0-96f5-4359-94bd-ca2ab265066d"},"vehicle_type_id":"4","last_reported":1720973285,"current_range_meters":9600,"station_id":"ce4bgm92rcd13ifvqbr0","pricing_plan_id":"cebpf4jnsgd1na2vs0mg"},{"bike_id":"ff588a81-8d8b-43d8-8659-1cc9a93a5b21","system_id":"levelo_inurba_marseille","lat":43.311722,"lon":5.387247,"is_reserved":false,"is_disabled":false,"rental_uris":{"android":"levelo://app?vid=ff588a81-8d8b-43d8-8659-1cc9a93a5b21","ios":"levelo://app?vid=ff588a81-8d8b-43d8-8659-1cc9a93a5b21"},"vehicle_type_id":"4","last_reported":1720973285,"current_range_meters":7200,"station_id":"ce4bgv12rcd13ifvqcp0","pricing_plan_id":"cebpf4jnsgd1na2vs0mg"},{"bike_id":"f5c7aca5-09d0-4557-82f4-cacbb60026e2","system_id":"levelo_inurba_marseille","lat":43.311722,"lon":5.387247,"is_reserved":false,"is_disabled":false,"rental_uris":{"android":"levelo://app?vid=f5c7aca5-09d0-4557-82f4-cacbb60026e2","ios":"levelo://app?vid=f5c7aca5-09d0-4557-82f4-cacbb60026e2"},"vehicle_type_id":"4","last_reported":1720973285,"current_range_meters":7600,"station_id":"ce4bgv12rcd13ifvqcp0","pricing_plan_id":"cebpf4jnsgd1na2vs0mg"},{"bike_id":"b684ee2a-7444-4ab9-a49e-e09a2d5d6f83","system_id":"levelo_inurba_marseille","lat":43.297794,"lon":5.370888,"is_reserved":false,"is_disabled":false,"rental_uris":{"android":"levelo://app?vid=b684ee2a-7444-4ab9-a49e-e09a2d5d6f83","ios":"levelo://app?vid=b684ee2a-7444-4ab9-a49e-e09a2d5d6f83"},"vehicle_type_id":"4","last_reported":1720973285,"current_range_meters":18800,"station_id":"ce4bgop2rcd13ifvqc1g","pricing_plan_id":"cebpf4jnsgd1na2vs0mg"},{"bike_id":"729c2a8a-b899-4d67-ac44-060e04cca798","system_id":"levelo_inurba_marseille","lat":43.32291,"lon":5.38261,"is_reserved":false,"is_disabled":false,"rental_uris":{"android":"levelo://app?vid=729c2a8a-b899-4d67-ac44-060e04cca798","ios":"levelo://app?vid=729c2a8a-b899-4d67-ac44-060e04cca798"},"vehicle_type_id":"4","last_reported":1720973285,"current_range_meters":5200,"station_id":"ce4bhr12rcd13ifvqhqg","pricing_plan_id":"cebpf4jnsgd1na2vs0mg"},{"bike_id":"621a1240-dcf9-4073-bd49-41934f332358","system_id":"levelo_inurba_marseille","lat":43.32292,"lon":5.38264,"is_reserved":false,"is_disabled":false,"rental_uris":{"android":"levelo://app?vid=621a1240-dcf9-4073-bd49-41934f332358","ios":"levelo://app?vid=621a1240-dcf9-4073-bd49-41934f332358"},"vehicle_type_id":"4","last_reported":1720973285,"current_range_meters":20800,"station_id":"","pricing_plan_id":"cebpf4jnsgd1na2vs0mg"},{"bike_id":"0f80cbdc-9e8f-4d83-8f7d-7ea9d18e67e7","system_id":"levelo_inurba_marseille","lat":43.32287,"lon":5.3828,"is_reserved":false,"is_disabled":false,"rental_uris":{"android":"levelo://app?vid=0f80cbdc-9e8f-4d83-8f7d-7ea9d18e67e7","ios":"levelo://app?vid=0f80cbdc-9e8f-4d83-8f7d-7ea9d18e67e7"},"vehicle_type_id":"4","last_reported":1720973285,"current_range_meters":0,"station_id":"ce4bhr12rcd13ifvqhqg","pricing_plan_id":"cebpf4jnsgd1na2vs0mg"},{"bike_id":"32a276b2-93b2-4b0f-8707-bab4128ae904","system_id":"levelo_inurba_marseille","lat":43.32292,"lon":5.38276,"is_reserved":false,"is_disabled":false,"rental_uris":{"android":"levelo://app?vid=32a276b2-93b2-4b0f-8707-bab4128ae904","ios":"levelo://app?vid=32a276b2-93b2-4b0f-8707-bab4128ae904"},"vehicle_type_id":"4","last_reported":1720973285,"current_range_meters":2000,"station_id":"ce4bhr12rcd13ifvqhqg","pricing_plan_id":"cebpf4jnsgd1na2vs0mg"},{"bike_id":"b057971a-8042-40e6-8fa6-d723893c487c","system_id":"levelo_inurba_marseille","lat":43.322872,"lon":5.382756,"is_reserved":false,"is_disabled":false,"rental_uris":{"android":"levelo://app?vid=b057971a-8042-40e6-8fa6-d723893c487c","ios":"levelo://app?vid=b057971a-8042-40e6-8fa6-d723893c487c"},"vehicle_type_id":"4","last_reported":1720973285,"current_range_meters":4800,"station_id":"ce4bhr12rcd13ifvqhqg","pricing_plan_id":"cebpf4jnsgd1na2vs0mg"},{"bike_id":"6ad04db6-d313-421e-a653-ed7b92670c46","system_id":"levelo_inurba_marseille","lat":43.309589,"lon":5.390258,"is_reserved":false,"is_disabled":false,"rental_uris":{"android":"levelo://app?vid=6ad04db6-d313-421e-a653-ed7b92670c46","ios":"levelo://app?vid=6ad04db6-d313-421e-a653-ed7b92670c46"},"vehicle_type_id":"4","last_reported":1720973285,"current_range_meters":29600,"station_id":"ce4bgup2rcd13ifvqco0","pricing_plan_id":"cebpf4jnsgd1na2vs0mg"},{"bike_id":"92b72b0d-5ec9-4c24-b251-3119ba501885","system_id":"levelo_inurba_marseille","lat":43.309589,"lon":5.390258,"is_reserved":false,"is_disabled":false,"rental_uris":{"android":"levelo://app?vid=92b72b0d-5ec9-4c24-b251-3119ba501885","ios":"levelo://app?vid=92b72b0d-5ec9-4c24-b251-3119ba501885"},"vehicle_type_id":"4","last_reported":1720973285,"current_range_meters":0,"station_id":"ce4bgup2rcd13ifvqco0","pricing_plan_id":"cebpf4jnsgd1na2vs0mg"},{"bike_id":"a0a0e1e0-a153-4db7-9e10-298ebeb38149","system_id":"levelo_inurba_marseille","lat":43.32367,"lon":5.388836,"is_reserved":false,"is_disabled":false,"rental_uris":{"android":"levelo://app?vid=a0a0e1e0-a153-4db7-9e10-298ebeb38149","ios":"levelo://app?vid=a0a0e1e0-a153-4db7-9e10-298ebeb38149"},"vehicle_type_id":"4","last_reported":1720973285,"current_range_meters":14000,"station_id":"ce4bhqp2rcd13ifvqhog","pricing_plan_id":"cebpf4jnsgd1na2vs0mg"},{"bike_id":"ba58602d-21b4-4c8b-b7df-b4bf2c326140","system_id":"levelo_inurba_marseille","lat":43.2958,"lon":5.37543,"is_reserved":false,"is_disabled":false,"rental_uris":{"android":"levelo://app?vid=ba58602d-21b4-4c8b-b7df-b4bf2c326140","ios":"levelo://app?vid=ba58602d-21b4-4c8b-b7df-b4bf2c326140"},"vehicle_type_id":"4","last_reported":1720973285,"current_range_meters":8000,"station_id":"","pricing_plan_id":"cebpf4jnsgd1na2vs0mg"},{"bike_id":"e36fc1aa-720a-4726-ae14-cc4af8ab68c6","system_id":"levelo_inurba_marseille","lat":43.29575,"lon":5.37532,"is_reserved":false,"is_disabled":false,"rental_uris":{"android":"levelo://app?vid=e36fc1aa-720a-4726-ae14-cc4af8ab68c6","ios":"levelo://app?vid=e36fc1aa-720a-4726-ae14-cc4af8ab68c6"},"vehicle_type_id":"4","last_reported":1720973285,"current_range_meters":0,"station_id":"ce4bgh92rcd13ifvqb50","pricing_plan_id":"cebpf4jnsgd1na2vs0mg"},{"bike_id":"a35069f2-e732-451c-9a69-ea2cc37ed71b","system_id":"levelo_inurba_marseille","lat":43.304278,"lon":5.388868,"is_reserved":false,"is_disabled":false,"rental_uris":{"android":"levelo://app?vid=a35069f2-e732-451c-9a69-ea2cc37ed71b","ios":"levelo://app?vid=a35069f2-e732-451c-9a69-ea2cc37ed71b"},"vehicle_type_id":"4","last_reported":1720973285,"current_range_meters":13200,"station_id":"ce4bgk12rcd13ifvqbi0","pricing_plan_id":"cebpf4jnsgd1na2vs0mg"},{"bike_id":"48053250-3d71-4459-ac05-2f3628fb861f","system_id":"levelo_inurba_marseille","lat":43.299717,"lon":5.384845,"is_reserved":false,"is_disabled":false,"rental_uris":{"android":"levelo://app?vid=48053250-3d71-4459-ac05-2f3628fb861f","ios":"levelo://app?vid=48053250-3d71-4459-ac05-2f3628fb861f"},"vehicle_type_id":"4","last_reported":1720973285,"current_range_meters":0,"station_id":"ce4bgj92rcd13ifvqbd0","pricing_plan_id":"cebpf4jnsgd1na2vs0mg"},{"bike_id":"c6106bb7-6508-4892-9cd0-c155e91e890d","system_id":"levelo_inurba_marseille","lat":43.299724,"lon":5.384848,"is_reserved":false,"is_disabled":false,"rental_uris":{"android":"levelo://app?vid=c6106bb7-6508-4892-9cd0-c155e91e890d","ios":"levelo://app?vid=c6106bb7-6508-4892-9cd0-c155e91e890d"},"vehicle_type_id":"4","last_reported":1720973285,"current_range_meters":2400,"station_id":"ce4bgj92rcd13ifvqbd0","pricing_plan_id":"cebpf4jnsgd1na2vs0mg"},{"bike_id":"a51d0944-c33d-47c8-868f-1a7253e73770","system_id":"levelo_inurba_marseille","lat":43.29553,"lon":5.37723,"is_reserved":false,"is_disabled":false,"rental_uris":{"android":"levelo://app?vid=a51d0944-c33d-47c8-868f-1a7253e73770","ios":"levelo://app?vid=a51d0944-c33d-47c8-868f-1a7253e73770"},"vehicle_type_id":"4","last_reported":1720973285,"current_range_meters":14800,"station_id":"","pricing_plan_id":"cebpf4jnsgd1na2vs0mg"},{"bike_id":"405c7cae-430b-4608-89fe-4ab79e9a0192","system_id":"levelo_inurba_marseille","lat":43.301396,"lon":5.387812,"is_reserved":false,"is_disabled":false,"rental_uris":{"android":"levelo://app?vid=405c7cae-430b-4608-89fe-4ab79e9a0192","ios":"levelo://app?vid=405c7cae-430b-4608-89fe-4ab79e9a0192"},"vehicle_type_id":"4","last_reported":1720973285,"current_range_meters":0,"station_id":"ce4bghh2rcd13ifvqb60","pricing_plan_id":"cebpf4jnsgd1na2vs0mg"},{"bike_id":"a85b9530-e683-4938-9069-0aef1ecce18d","system_id":"levelo_inurba_marseille","lat":43.30137,"lon":5.38786,"is_reserved":false,"is_disabled":false,"rental_uris":{"android":"levelo://app?vid=a85b9530-e683-4938-9069-0aef1ecce18d","ios":"levelo://app?vid=a85b9530-e683-4938-9069-0aef1ecce18d"},"vehicle_type_id":"4","last_reported":1720973285,"current_range_meters":0,"station_id":"ce4bghh2rcd13ifvqb60","pricing_plan_id":"cebpf4jnsgd1na2vs0mg"},{"bike_id":"e8d87b07-b920-42dd-80a0-1f483968343e","system_id":"levelo_inurba_marseille","lat":43.301396,"lon":5.387812,"is_reserved":false,"is_disabled":false,"rental_uris":{"android":"levelo://app?vid=e8d87b07-b920-42dd-80a0-1f483968343e","ios":"levelo://app?vid=e8d87b07-b920-42dd-80a0-1f483968343e"},"vehicle_type_id":"4","last_reported":1720973285,"current_range_meters":12000,"station_id":"ce4bghh2rcd13ifvqb60","pricing_plan_id":"cebpf4jnsgd1na2vs0mg"},{"bike_id":"2ed3ce88-6d14-4297-80d9-6a5e4a20e3e3","system_id":"levelo_inurba_marseille","lat":43.301396,"lon":5.387812,"is_reserved":false,"is_disabled":false,"rental_uris":{"android":"levelo://app?vid=2ed3ce88-6d14-4297-80d9-6a5e4a20e3e3","ios":"levelo://app?vid=2ed3ce88-6d14-4297-80d9-6a5e4a20e3e3"},"vehicle_type_id":"4","last_reported":1720973285,"current_range_meters":0,"station_id":"ce4bghh2rcd13ifvqb60","pricing_plan_id":"cebpf4jnsgd1na2vs0mg"},{"bike_id":"6a71a23c-6448-463a-b8f4-0e4083b8ea3d","system_id":"levelo_inurba_marseille","lat":43.29405,"lon":5.37341,"is_reserved":false,"is_disabled":false,"rental_uris":{"android":"levelo://app?vid=6a71a23c-6448-463a-b8f4-0e4083b8ea3d","ios":"levelo://app?vid=6a71a23c-6448-463a-b8f4-0e4083b8ea3d"},"vehicle_type_id":"4","last_reported":1720973285,"current_range_meters":7200,"station_id":"","pricing_plan_id":"cebpf4jnsgd1na2vs0mg"},{"bike_id":"a52f5ef7-19ef-44d8-ba1d-17d5e90df0d8","system_id":"levelo_inurba_marseille","lat":43.32367,"lon":5.388836,"is_reserved":false,"is_disabled":false,"rental_uris":{"android":"levelo://app?vid=a52f5ef7-19ef-44d8-ba1d-17d5e90df0d8","ios":"levelo://app?vid=a52f5ef7-19ef-44d8-ba1d-17d5e90df0d8"},"vehicle_type_id":"4","last_reported":1720973285,"current_range_meters":0,"station_id":"ce4bhqp2rcd13ifvqhog","pricing_plan_id":"cebpf4jnsgd1na2vs0mg"},{"bike_id":"2102887d-dc4e-4ba8-82b8-ea579d9dc82e","system_id":"levelo_inurba_marseille","lat":43.32367,"lon":5.38885,"is_reserved":false,"is_disabled":false,"rental_uris":{"android":"levelo://app?vid=2102887d-dc4e-4ba8-82b8-ea579d9dc82e","ios":"levelo://app?vid=2102887d-dc4e-4ba8-82b8-ea579d9dc82e"},"vehicle_type_id":"4","last_reported":1720973285,"current_range_meters":3600,"station_id":"ce4bhqp2rcd13ifvqhog","pricing_plan_id":"cebpf4jnsgd1na2vs0mg"},{"bike_id":"003c4640-0828-492d-a308-183123b5c7ab","system_id":"levelo_inurba_marseille","lat":43.293249,"lon":5.371578,"is_reserved":false,"is_disabled":false,"rental_uris":{"android":"levelo://app?vid=003c4640-0828-492d-a308-183123b5c7ab","ios":"levelo://app?vid=003c4640-0828-492d-a308-183123b5c7ab"},"vehicle_type_id":"4","last_reported":1720973285,"current_range_meters":14400,"station_id":"ce4bgh92rcd13ifvqb40","pricing_plan_id":"cebpf4jnsgd1na2vs0mg"},{"bike_id":"311fc97f-8c62-4130-a0c1-1ef6481605d1","system_id":"levelo_inurba_marseille","lat":43.303002,"lon":5.392142,"is_reserved":false,"is_disabled":false,"rental_uris":{"android":"levelo://app?vid=311fc97f-8c62-4130-a0c1-1ef6481605d1","ios":"levelo://app?vid=311fc97f-8c62-4130-a0c1-1ef6481605d1"},"vehicle_type_id":"4","last_reported":1720973285,"current_range_meters":4000,"station_id":"ce4bgkh2rcd13ifvqbk0","pricing_plan_id":"cebpf4jnsgd1na2vs0mg"},{"bike_id":"25420953-a434-48e0-b1fe-054f59a9bb28","system_id":"levelo_inurba_marseille","lat":43.293009,"lon":5.374584,"is_reserved":false,"is_disabled":false,"rental_uris":{"android":"levelo://app?vid=25420953-a434-48e0-b1fe-054f59a9bb28","ios":"levelo://app?vid=25420953-a434-48e0-b1fe-054f59a9bb28"},"vehicle_type_id":"4","last_reported":1720973285,"current_range_meters":0,"station_id":"ce4bgi12rcd13ifvqb70","pricing_plan_id":"cebpf4jnsgd1na2vs0mg"},{"bike_id":"8d6bbe51-e75d-4142-b134-a269ef3abf57","system_id":"levelo_inurba_marseille","lat":43.29304,"lon":5.374433,"is_reserved":false,"is_disabled":false,"rental_uris":{"android":"levelo://app?vid=8d6bbe51-e75d-4142-b134-a269ef3abf57","ios":"levelo://app?vid=8d6bbe51-e75d-4142-b134-a269ef3abf57"},"vehicle_type_id":"4","last_reported":1720973285,"current_range_meters":0,"station_id":"ce4bgi12rcd13ifvqb70","pricing_plan_id":"cebpf4jnsgd1na2vs0mg"},{"bike_id":"ca204e83-cad6-42f1-9993-00eb1d78cf51","system_id":"levelo_inurba_marseille","lat":43.293009,"lon":5.374584,"is_reserved":false,"is_disabled":false,"rental_uris":{"android":"levelo://app?vid=ca204e83-cad6-42f1-9993-00eb1d78cf51","ios":"levelo://app?vid=ca204e83-cad6-42f1-9993-00eb1d78cf51"},"vehicle_type_id":"4","last_reported":1720973285,"current_range_meters":0,"station_id":"ce4bgi12rcd13ifvqb70","pricing_plan_id":"cebpf4jnsgd1na2vs0mg"},{"bike_id":"d4a9710a-2704-4dc1-ad0d-3f9c8ba5cac7","system_id":"levelo_inurba_marseille","lat":43.305994,"lon":5.393687,"is_reserved":false,"is_disabled":false,"rental_uris":{"android":"levelo://app?vid=d4a9710a-2704-4dc1-ad0d-3f9c8ba5cac7","ios":"levelo://app?vid=d4a9710a-2704-4dc1-ad0d-3f9c8ba5cac7"},"vehicle_type_id":"4","last_reported":1720973285,"current_range_meters":800,"station_id":"ce4bh0p2rcd13ifvqd80","pricing_plan_id":"cebpf4jnsgd1na2vs0mg"},{"bike_id":"46729711-9635-4bba-a279-5b8d63c8b7db","system_id":"levelo_inurba_marseille","lat":43.293009,"lon":5.374584,"is_reserved":false,"is_disabled":false,"rental_uris":{"android":"levelo://app?vid=46729711-9635-4bba-a279-5b8d63c8b7db","ios":"levelo://app?vid=46729711-9635-4bba-a279-5b8d63c8b7db"},"vehicle_type_id":"4","last_reported":1720973285,"current_range_meters":0,"station_id":"ce4bgi12rcd13ifvqb70","pricing_plan_id":"cebpf4jnsgd1na2vs0mg"},{"bike_id":"9b16beae-de88-41a6-b849-6c5244321c73","system_id":"levelo_inurba_marseille","lat":43.293009,"lon":5.374584,"is_reserved":false,"is_disabled":false,"rental_uris":{"android":"levelo://app?vid=9b16beae-de88-41a6-b849-6c5244321c73","ios":"levelo://app?vid=9b16beae-de88-41a6-b849-6c5244321c73"},"vehicle_type_id":"4","last_reported":1720973285,"current_range_meters":5600,"station_id":"ce4bgi12rcd13ifvqb70","pricing_plan_id":"cebpf4jnsgd1na2vs0mg"},{"bike_id":"d69025db-a233-44a6-b76e-806174de4907","system_id":"levelo_inurba_marseille","lat":43.2936,"lon":5.37835,"is_reserved":false,"is_disabled":false,"rental_uris":{"android":"levelo://app?vid=d69025db-a233-44a6-b76e-806174de4907","ios":"levelo://app?vid=d69025db-a233-44a6-b76e-806174de4907"},"vehicle_type_id":"4","last_reported":1720973285,"current_range_meters":2000,"station_id":"ce4bgjh2rcd13ifvqbf0","pricing_plan_id":"cebpf4jnsgd1na2vs0mg"},{"bike_id":"bac6efd1-18f3-48c3-83b4-2586e8071f95","system_id":"levelo_inurba_marseille","lat":43.302992,"lon":5.392136,"is_reserved":false,"is_disabled":false,"rental_uris":{"android":"levelo://app?vid=bac6efd1-18f3-48c3-83b4-2586e8071f95","ios":"levelo://app?vid=bac6efd1-18f3-48c3-83b4-2586e8071f95"},"vehicle_type_id":"4","last_reported":1720973285,"current_range_meters":10000,"station_id":"ce4bgkh2rcd13ifvqbk0","pricing_plan_id":"cebpf4jnsgd1na2vs0mg"},{"bike_id":"02d267c5-d441-4616-b7c1-72e1b6b160b2","system_id":"levelo_inurba_marseille","lat":43.2936,"lon":5.37835,"is_reserved":false,"is_disabled":false,"rental_uris":{"android":"levelo://app?vid=02d267c5-d441-4616-b7c1-72e1b6b160b2","ios":"levelo://app?vid=02d267c5-d441-4616-b7c1-72e1b6b160b2"},"vehicle_type_id":"4","last_reported":1720973285,"current_range_meters":0,"station_id":"ce4bgjh2rcd13ifvqbf0","pricing_plan_id":"cebpf4jnsgd1na2vs0mg"},{"bike_id":"d393a249-4b46-4177-a302-daf31cbd5750","system_id":"levelo_inurba_marseille","lat":43.29226,"lon":5.36068,"is_reserved":false,"is_disabled":false,"rental_uris":{"android":"levelo://app?vid=d393a249-4b46-4177-a302-daf31cbd5750","ios":"levelo://app?vid=d393a249-4b46-4177-a302-daf31cbd5750"},"vehicle_type_id":"4","last_reported":1720973285,"current_range_meters":0,"station_id":"ce4bhbh2rcd13ifvqeqg","pricing_plan_id":"cebpf4jnsgd1na2vs0mg"},{"bike_id":"99a23102-6f37-4316-a9b3-d2418991acd8","system_id":"levelo_inurba_marseille","lat":43.291675,"lon":5.371583,"is_reserved":false,"is_disabled":false,"rental_uris":{"android":"levelo://app?vid=99a23102-6f37-4316-a9b3-d2418991acd8","ios":"levelo://app?vid=99a23102-6f37-4316-a9b3-d2418991acd8"},"vehicle_type_id":"4","last_reported":1720973285,"current_range_meters":2000,"station_id":"ce4bha92rcd13ifvqeh0","pricing_plan_id":"cebpf4jnsgd1na2vs0mg"},{"bike_id":"a21a1a42-9471-4619-84e2-8087380750b9","system_id":"levelo_inurba_marseille","lat":43.291671,"lon":5.371575,"is_reserved":false,"is_disabled":false,"rental_uris":{"android":"levelo://app?vid=a21a1a42-9471-4619-84e2-8087380750b9","ios":"levelo://app?vid=a21a1a42-9471-4619-84e2-8087380750b9"},"vehicle_type_id":"4","last_reported":1720973285,"current_range_meters":0,"station_id":"ce4bha92rcd13ifvqeh0","pricing_plan_id":"cebpf4jnsgd1na2vs0mg"},{"bike_id":"f59c9bc5-9b6a-4e73-9419-bd9ccad7f2c1","system_id":"levelo_inurba_marseille","lat":43.292005,"lon":5.357875,"is_reserved":false,"is_disabled":false,"rental_uris":{"android":"levelo://app?vid=f59c9bc5-9b6a-4e73-9419-bd9ccad7f2c1","ios":"levelo://app?vid=f59c9bc5-9b6a-4e73-9419-bd9ccad7f2c1"},"vehicle_type_id":"4","last_reported":1720973285,"current_range_meters":13600,"station_id":"ce4bhb12rcd13ifvqel0","pricing_plan_id":"cebpf4jnsgd1na2vs0mg"},{"bike_id":"ce8c0654-6011-47d8-a86b-47da508cb546","system_id":"levelo_inurba_marseille","lat":43.292005,"lon":5.357875,"is_reserved":false,"is_disabled":false,"rental_uris":{"android":"levelo://app?vid=ce8c0654-6011-47d8-a86b-47da508cb546","ios":"levelo://app?vid=ce8c0654-6011-47d8-a86b-47da508cb546"},"vehicle_type_id":"4","last_reported":1720973285,"current_range_meters":0,"station_id":"ce4bhb12rcd13ifvqel0","pricing_plan_id":"cebpf4jnsgd1na2vs0mg"},{"bike_id":"eb9a06bc-a678-4517-897d-7d0740ddf251","system_id":"levelo_inurba_marseille","lat":43.292005,"lon":5.357875,"is_reserved":false,"is_disabled":false,"rental_uris":{"android":"levelo://app?vid=eb9a06bc-a678-4517-897d-7d0740ddf251","ios":"levelo://app?vid=eb9a06bc-a678-4517-897d-7d0740ddf251"},"vehicle_type_id":"4","last_reported":1720973285,"current_range_meters":0,"station_id":"ce4bhb12rcd13ifvqel0","pricing_plan_id":"cebpf4jnsgd1na2vs0mg"},{"bike_id":"d71bcba7-66b6-4db4-98ae-9725605d6099","system_id":"levelo_inurba_marseille","lat":43.292005,"lon":5.357875,"is_reserved":false,"is_disabled":false,"rental_uris":{"android":"levelo://app?vid=d71bcba7-66b6-4db4-98ae-9725605d6099","ios":"levelo://app?vid=d71bcba7-66b6-4db4-98ae-9725605d6099"},"vehicle_type_id":"4","last_reported":1720973285,"current_range_meters":12400,"station_id":"ce4bhb12rcd13ifvqel0","pricing_plan_id":"cebpf4jnsgd1na2vs0mg"},{"bike_id":"b7eeb2ad-da03-45cf-b0b0-b4ffea90844a","system_id":"levelo_inurba_marseille","lat":43.309038,"lon":5.396546,"is_reserved":false,"is_disabled":false,"rental_uris":{"android":"levelo://app?vid=b7eeb2ad-da03-45cf-b0b0-b4ffea90844a","ios":"levelo://app?vid=b7eeb2ad-da03-45cf-b0b0-b4ffea90844a"},"vehicle_type_id":"4","last_reported":1720973285,"current_range_meters":1200,"station_id":"ce4bh012rcd13ifvqcv0","pricing_plan_id":"cebpf4jnsgd1na2vs0mg"},{"bike_id":"eae6fe1b-11e5-4cfd-86b3-e66d4dc57f24","system_id":"levelo_inurba_marseille","lat":43.302008,"lon":5.394694,"is_reserved":false,"is_disabled":false,"rental_uris":{"android":"levelo://app?vid=eae6fe1b-11e5-4cfd-86b3-e66d4dc57f24","ios":"levelo://app?vid=eae6fe1b-11e5-4cfd-86b3-e66d4dc57f24"},"vehicle_type_id":"4","last_reported":1720973285,"current_range_meters":800,"station_id":"ce4bh0p2rcd13ifvqd70","pricing_plan_id":"cebpf4jnsgd1na2vs0mg"},{"bike_id":"7e28fd74-5a07-4c5c-8e39-ab92314f22a5","system_id":"levelo_inurba_marseille","lat":43.30213,"lon":5.39469,"is_reserved":false,"is_disabled":false,"rental_uris":{"android":"levelo://app?vid=7e28fd74-5a07-4c5c-8e39-ab92314f22a5","ios":"levelo://app?vid=7e28fd74-5a07-4c5c-8e39-ab92314f22a5"},"vehicle_type_id":"4","last_reported":1720973285,"current_range_meters":0,"station_id":"ce4bh0p2rcd13ifvqd70","pricing_plan_id":"cebpf4jnsgd1na2vs0mg"},{"bike_id":"487409e2-d06d-48c0-87c2-16fd4b35c80f","system_id":"levelo_inurba_marseille","lat":43.290624,"lon":5.359245,"is_reserved":false,"is_disabled":false,"rental_uris":{"android":"levelo://app?vid=487409e2-d06d-48c0-87c2-16fd4b35c80f","ios":"levelo://app?vid=487409e2-d06d-48c0-87c2-16fd4b35c80f"},"vehicle_type_id":"4","last_reported":1720973285,"current_range_meters":1600,"station_id":"ce4bha92rcd13ifvqeg0","pricing_plan_id":"cebpf4jnsgd1na2vs0mg"},{"bike_id":"7347d4d5-f493-466e-8535-7adc1ca70e48","system_id":"levelo_inurba_marseille","lat":43.290631,"lon":5.359244,"is_reserved":false,"is_disabled":false,"rental_uris":{"android":"levelo://app?vid=7347d4d5-f493-466e-8535-7adc1ca70e48","ios":"levelo://app?vid=7347d4d5-f493-466e-8535-7adc1ca70e48"},"vehicle_type_id":"4","last_reported":1720973285,"current_range_meters":23600,"station_id":"ce4bha92rcd13ifvqeg0","pricing_plan_id":"cebpf4jnsgd1na2vs0mg"},{"bike_id":"66053ed4-8d36-4240-9237-013632515709","system_id":"levelo_inurba_marseille","lat":43.294162,"lon":5.386292,"is_reserved":false,"is_disabled":false,"rental_uris":{"android":"levelo://app?vid=66053ed4-8d36-4240-9237-013632515709","ios":"levelo://app?vid=66053ed4-8d36-4240-9237-013632515709"},"vehicle_type_id":"4","last_reported":1720973285,"current_range_meters":2000,"station_id":"ce4bh2h2rcd13ifvqdh0","pricing_plan_id":"cebpf4jnsgd1na2vs0mg"},{"bike_id":"ffaeb555-d5de-4ea8-a635-3b8e7485deff","system_id":"levelo_inurba_marseille","lat":43.28946,"lon":5.36634,"is_reserved":false,"is_disabled":false,"rental_uris":{"android":"levelo://app?vid=ffaeb555-d5de-4ea8-a635-3b8e7485deff","ios":"levelo://app?vid=ffaeb555-d5de-4ea8-a635-3b8e7485deff"},"vehicle_type_id":"4","last_reported":1720973285,"current_range_meters":0,"station_id":"ce4bhap2rcd13ifvqek0","pricing_plan_id":"cebpf4jnsgd1na2vs0mg"},{"bike_id":"f40a0449-5d8b-4aa9-a78d-647f6b321c85","system_id":"levelo_inurba_marseille","lat":43.289184,"lon":5.366408,"is_reserved":false,"is_disabled":false,"rental_uris":{"android":"levelo://app?vid=f40a0449-5d8b-4aa9-a78d-647f6b321c85","ios":"levelo://app?vid=f40a0449-5d8b-4aa9-a78d-647f6b321c85"},"vehicle_type_id":"4","last_reported":1720973285,"current_range_meters":2000,"station_id":"ce4bhap2rcd13ifvqek0","pricing_plan_id":"cebpf4jnsgd1na2vs0mg"},{"bike_id":"73768afe-dd04-4ecc-83ef-aaf30944aa02","system_id":"levelo_inurba_marseille","lat":43.28941,"lon":5.36638,"is_reserved":false,"is_disabled":false,"rental_uris":{"android":"levelo://app?vid=73768afe-dd04-4ecc-83ef-aaf30944aa02","ios":"levelo://app?vid=73768afe-dd04-4ecc-83ef-aaf30944aa02"},"vehicle_type_id":"4","last_reported":1720973285,"current_range_meters":0,"station_id":"ce4bhap2rcd13ifvqek0","pricing_plan_id":"cebpf4jnsgd1na2vs0mg"},{"bike_id":"1b19575e-2c5a-483b-a7c7-dc0cda95a3a2","system_id":"levelo_inurba_marseille","lat":43.289184,"lon":5.366408,"is_reserved":false,"is_disabled":false,"rental_uris":{"android":"levelo://app?vid=1b19575e-2c5a-483b-a7c7-dc0cda95a3a2","ios":"levelo://app?vid=1b19575e-2c5a-483b-a7c7-dc0cda95a3a2"},"vehicle_type_id":"4","last_reported":1720973285,"current_range_meters":800,"station_id":"ce4bhap2rcd13ifvqek0","pricing_plan_id":"cebpf4jnsgd1na2vs0mg"},{"bike_id":"7183b491-2d7e-47f0-a566-6028a1aaacf4","system_id":"levelo_inurba_marseille","lat":43.289184,"lon":5.366408,"is_reserved":false,"is_disabled":false,"rental_uris":{"android":"levelo://app?vid=7183b491-2d7e-47f0-a566-6028a1aaacf4","ios":"levelo://app?vid=7183b491-2d7e-47f0-a566-6028a1aaacf4"},"vehicle_type_id":"4","last_reported":1720973285,"current_range_meters":15200,"station_id":"ce4bhap2rcd13ifvqek0","pricing_plan_id":"cebpf4jnsgd1na2vs0mg"},{"bike_id":"1be07747-3c2e-4f7a-8e94-0da564187892","system_id":"levelo_inurba_marseille","lat":43.289184,"lon":5.366408,"is_reserved":false,"is_disabled":false,"rental_uris":{"android":"levelo://app?vid=1be07747-3c2e-4f7a-8e94-0da564187892","ios":"levelo://app?vid=1be07747-3c2e-4f7a-8e94-0da564187892"},"vehicle_type_id":"4","last_reported":1720973285,"current_range_meters":0,"station_id":"ce4bhap2rcd13ifvqek0","pricing_plan_id":"cebpf4jnsgd1na2vs0mg"},{"bike_id":"677d832f-a0c6-4069-9196-71674be14b7e","system_id":"levelo_inurba_marseille","lat":43.289184,"lon":5.366408,"is_reserved":false,"is_disabled":false,"rental_uris":{"android":"levelo://app?vid=677d832f-a0c6-4069-9196-71674be14b7e","ios":"levelo://app?vid=677d832f-a0c6-4069-9196-71674be14b7e"},"vehicle_type_id":"4","last_reported":1720973285,"current_range_meters":0,"station_id":"ce4bhap2rcd13ifvqek0","pricing_plan_id":"cebpf4jnsgd1na2vs0mg"},{"bike_id":"97122ddc-6bed-46e6-ae72-4b6cc4ad7183","system_id":"levelo_inurba_marseille","lat":43.28938,"lon":5.363895,"is_reserved":false,"is_disabled":false,"rental_uris":{"android":"levelo://app?vid=97122ddc-6bed-46e6-ae72-4b6cc4ad7183","ios":"levelo://app?vid=97122ddc-6bed-46e6-ae72-4b6cc4ad7183"},"vehicle_type_id":"4","last_reported":1720973285,"current_range_meters":0,"station_id":"ce4bhc92rcd13ifvqetg","pricing_plan_id":"cebpf4jnsgd1na2vs0mg"},{"bike_id":"69057a13-5c4b-4af0-8d35-3c1d630c9e85","system_id":"levelo_inurba_marseille","lat":43.30433,"lon":5.397447,"is_reserved":false,"is_disabled":false,"rental_uris":{"android":"levelo://app?vid=69057a13-5c4b-4af0-8d35-3c1d630c9e85","ios":"levelo://app?vid=69057a13-5c4b-4af0-8d35-3c1d630c9e85"},"vehicle_type_id":"4","last_reported":1720973285,"current_range_meters":0,"station_id":"ce4bh092rcd13ifvqd20","pricing_plan_id":"cebpf4jnsgd1na2vs0mg"},{"bike_id":"473704c6-8ce8-4c62-a099-09776e5ed27b","system_id":"levelo_inurba_marseille","lat":43.29268,"lon":5.38441,"is_reserved":false,"is_disabled":false,"rental_uris":{"android":"levelo://app?vid=473704c6-8ce8-4c62-a099-09776e5ed27b","ios":"levelo://app?vid=473704c6-8ce8-4c62-a099-09776e5ed27b"},"vehicle_type_id":"4","last_reported":1720973285,"current_range_meters":0,"station_id":"ce4bh692rcd13ifvqea0","pricing_plan_id":"cebpf4jnsgd1na2vs0mg"},{"bike_id":"cf8983c8-6536-49d9-a545-d570b19d2f48","system_id":"levelo_inurba_marseille","lat":43.29265,"lon":5.38441,"is_reserved":false,"is_disabled":false,"rental_uris":{"android":"levelo://app?vid=cf8983c8-6536-49d9-a545-d570b19d2f48","ios":"levelo://app?vid=cf8983c8-6536-49d9-a545-d570b19d2f48"},"vehicle_type_id":"4","last_reported":1720973285,"current_range_meters":3600,"station_id":"ce4bh692rcd13ifvqea0","pricing_plan_id":"cebpf4jnsgd1na2vs0mg"},{"bike_id":"2371eb70-f297-4c1c-a8f2-6c9719a0b26b","system_id":"levelo_inurba_marseille","lat":43.29268,"lon":5.38448,"is_reserved":false,"is_disabled":false,"rental_uris":{"android":"levelo://app?vid=2371eb70-f297-4c1c-a8f2-6c9719a0b26b","ios":"levelo://app?vid=2371eb70-f297-4c1c-a8f2-6c9719a0b26b"},"vehicle_type_id":"4","last_reported":1720973285,"current_range_meters":12800,"station_id":"ce4bh692rcd13ifvqea0","pricing_plan_id":"cebpf4jnsgd1na2vs0mg"},{"bike_id":"8fe0f493-5387-484e-976f-e85e070cc061","system_id":"levelo_inurba_marseille","lat":43.2901,"lon":5.35617,"is_reserved":false,"is_disabled":false,"rental_uris":{"android":"levelo://app?vid=8fe0f493-5387-484e-976f-e85e070cc061","ios":"levelo://app?vid=8fe0f493-5387-484e-976f-e85e070cc061"},"vehicle_type_id":"4","last_reported":1720973285,"current_range_meters":0,"station_id":"ce4bhb92rcd13ifvqen0","pricing_plan_id":"cebpf4jnsgd1na2vs0mg"},{"bike_id":"2a8e9cbf-b9b1-4fa8-b388-d66d24c7de6a","system_id":"levelo_inurba_marseille","lat":43.290103,"lon":5.356114,"is_reserved":false,"is_disabled":false,"rental_uris":{"android":"levelo://app?vid=2a8e9cbf-b9b1-4fa8-b388-d66d24c7de6a","ios":"levelo://app?vid=2a8e9cbf-b9b1-4fa8-b388-d66d24c7de6a"},"vehicle_type_id":"4","last_reported":1720973285,"current_range_meters":0,"station_id":"ce4bhb92rcd13ifvqen0","pricing_plan_id":"cebpf4jnsgd1na2vs0mg"},{"bike_id":"d426a59e-4dde-499d-bcdb-2543f6eb79b1","system_id":"levelo_inurba_marseille","lat":43.290995,"lon":5.381361,"is_reserved":false,"is_disabled":false,"rental_uris":{"android":"levelo://app?vid=d426a59e-4dde-499d-bcdb-2543f6eb79b1","ios":"levelo://app?vid=d426a59e-4dde-499d-bcdb-2543f6eb79b1"},"vehicle_type_id":"4","last_reported":1720973285,"current_range_meters":0,"station_id":"ce4bh512rcd13ifvqe2g","pricing_plan_id":"cebpf4jnsgd1na2vs0mg"},{"bike_id":"e9701fb0-5df9-46f9-9da0-37166e0b7b06","system_id":"levelo_inurba_marseille","lat":43.32316,"lon":5.39697,"is_reserved":false,"is_disabled":false,"rental_uris":{"android":"levelo://app?vid=e9701fb0-5df9-46f9-9da0-37166e0b7b06","ios":"levelo://app?vid=e9701fb0-5df9-46f9-9da0-37166e0b7b06"},"vehicle_type_id":"4","last_reported":1720973285,"current_range_meters":4800,"station_id":"","pricing_plan_id":"cebpf4jnsgd1na2vs0mg"},{"bike_id":"0d5d90ed-9819-4743-bea8-85c0aa411155","system_id":"levelo_inurba_marseille","lat":43.295169,"lon":5.390426,"is_reserved":false,"is_disabled":false,"rental_uris":{"android":"levelo://app?vid=0d5d90ed-9819-4743-bea8-85c0aa411155","ios":"levelo://app?vid=0d5d90ed-9819-4743-bea8-85c0aa411155"},"vehicle_type_id":"4","last_reported":1720973285,"current_range_meters":24400,"station_id":"ce4bh3p2rcd13ifvqdp0","pricing_plan_id":"cebpf4jnsgd1na2vs0mg"},{"bike_id":"aedc07e8-70f0-4e43-998f-452909b9c90f","system_id":"levelo_inurba_marseille","lat":43.295169,"lon":5.390426,"is_reserved":false,"is_disabled":false,"rental_uris":{"android":"levelo://app?vid=aedc07e8-70f0-4e43-998f-452909b9c90f","ios":"levelo://app?vid=aedc07e8-70f0-4e43-998f-452909b9c90f"},"vehicle_type_id":"4","last_reported":1720973285,"current_range_meters":12400,"station_id":"ce4bh3p2rcd13ifvqdp0","pricing_plan_id":"cebpf4jnsgd1na2vs0mg"},{"bike_id":"542940b3-ae80-4fed-ada3-8ed41eb63afe","system_id":"levelo_inurba_marseille","lat":43.28993,"lon":5.35492,"is_reserved":false,"is_disabled":false,"rental_uris":{"android":"levelo://app?vid=542940b3-ae80-4fed-ada3-8ed41eb63afe","ios":"levelo://app?vid=542940b3-ae80-4fed-ada3-8ed41eb63afe"},"vehicle_type_id":"4","last_reported":1720973285,"current_range_meters":9600,"station_id":"","pricing_plan_id":"cebpf4jnsgd1na2vs0mg"},{"bike_id":"44577fb9-9ba5-41fb-84ae-55960d2f8fe3","system_id":"levelo_inurba_marseille","lat":43.289743,"lon":5.378304,"is_reserved":false,"is_disabled":false,"rental_uris":{"android":"levelo://app?vid=44577fb9-9ba5-41fb-84ae-55960d2f8fe3","ios":"levelo://app?vid=44577fb9-9ba5-41fb-84ae-55960d2f8fe3"},"vehicle_type_id":"4","last_reported":1720973285,"current_range_meters":0,"station_id":"ce4bh9p2rcd13ifvqed0","pricing_plan_id":"cebpf4jnsgd1na2vs0mg"},{"bike_id":"473727de-273e-43b5-b7bd-1e5210374075","system_id":"levelo_inurba_marseille","lat":43.330442,"lon":5.389148,"is_reserved":false,"is_disabled":false,"rental_uris":{"android":"levelo://app?vid=473727de-273e-43b5-b7bd-1e5210374075","ios":"levelo://app?vid=473727de-273e-43b5-b7bd-1e5210374075"},"vehicle_type_id":"4","last_reported":1720973285,"current_range_meters":10800,"station_id":"ce4bhr92rcd13ifvqhrg","pricing_plan_id":"cebpf4jnsgd1na2vs0mg"},{"bike_id":"6357fb50-c7cc-4151-81f3-a2fc3422a5d1","system_id":"levelo_inurba_marseille","lat":43.33029,"lon":5.39042,"is_reserved":false,"is_disabled":false,"rental_uris":{"android":"levelo://app?vid=6357fb50-c7cc-4151-81f3-a2fc3422a5d1","ios":"levelo://app?vid=6357fb50-c7cc-4151-81f3-a2fc3422a5d1"},"vehicle_type_id":"4","last_reported":1720973285,"current_range_meters":6000,"station_id":"ce4bhr92rcd13ifvqhrg","pricing_plan_id":"cebpf4jnsgd1na2vs0mg"},{"bike_id":"4e977fff-ad41-4542-afa2-97d0d9d7577b","system_id":"levelo_inurba_marseille","lat":43.3107,"lon":5.40081,"is_reserved":false,"is_disabled":false,"rental_uris":{"android":"levelo://app?vid=4e977fff-ad41-4542-afa2-97d0d9d7577b","ios":"levelo://app?vid=4e977fff-ad41-4542-afa2-97d0d9d7577b"},"vehicle_type_id":"4","last_reported":1720973285,"current_range_meters":20400,"station_id":"","pricing_plan_id":"cebpf4jnsgd1na2vs0mg"},{"bike_id":"6872b4be-82bb-4a27-aa8e-60e2e6f9572b","system_id":"levelo_inurba_marseille","lat":43.310667,"lon":5.400866,"is_reserved":false,"is_disabled":false,"rental_uris":{"android":"levelo://app?vid=6872b4be-82bb-4a27-aa8e-60e2e6f9572b","ios":"levelo://app?vid=6872b4be-82bb-4a27-aa8e-60e2e6f9572b"},"vehicle_type_id":"4","last_reported":1720973285,"current_range_meters":20800,"station_id":"","pricing_plan_id":"cebpf4jnsgd1na2vs0mg"},{"bike_id":"176f6c65-00d8-4243-8293-0812a950b525","system_id":"levelo_inurba_marseille","lat":43.28856,"lon":5.358371,"is_reserved":false,"is_disabled":false,"rental_uris":{"android":"levelo://app?vid=176f6c65-00d8-4243-8293-0812a950b525","ios":"levelo://app?vid=176f6c65-00d8-4243-8293-0812a950b525"},"vehicle_type_id":"4","last_reported":1720973285,"current_range_meters":5600,"station_id":"ce4bhb12rcd13ifvqem0","pricing_plan_id":"cebpf4jnsgd1na2vs0mg"},{"bike_id":"00b4e566-2d2a-4269-bebd-9f54c3e10594","system_id":"levelo_inurba_marseille","lat":43.295169,"lon":5.390426,"is_reserved":false,"is_disabled":false,"rental_uris":{"android":"levelo://app?vid=00b4e566-2d2a-4269-bebd-9f54c3e10594","ios":"levelo://app?vid=00b4e566-2d2a-4269-bebd-9f54c3e10594"},"vehicle_type_id":"4","last_reported":1720973285,"current_range_meters":14400,"station_id":"ce4bh3p2rcd13ifvqdp0","pricing_plan_id":"cebpf4jnsgd1na2vs0mg"},{"bike_id":"357ea68d-576e-4471-8ea5-09558cf44b69","system_id":"levelo_inurba_marseille","lat":43.31283,"lon":5.40169,"is_reserved":false,"is_disabled":false,"rental_uris":{"android":"levelo://app?vid=357ea68d-576e-4471-8ea5-09558cf44b69","ios":"levelo://app?vid=357ea68d-576e-4471-8ea5-09558cf44b69"},"vehicle_type_id":"4","last_reported":1720973285,"current_range_meters":6800,"station_id":"ce4bh092rcd13ifvqd30","pricing_plan_id":"cebpf4jnsgd1na2vs0mg"},{"bike_id":"d1fa93f0-1b30-4f03-beb2-0035e5f26cad","system_id":"levelo_inurba_marseille","lat":43.312609,"lon":5.401662,"is_reserved":false,"is_disabled":false,"rental_uris":{"android":"levelo://app?vid=d1fa93f0-1b30-4f03-beb2-0035e5f26cad","ios":"levelo://app?vid=d1fa93f0-1b30-4f03-beb2-0035e5f26cad"},"vehicle_type_id":"4","last_reported":1720973285,"current_range_meters":0,"station_id":"ce4bh092rcd13ifvqd30","pricing_plan_id":"cebpf4jnsgd1na2vs0mg"},{"bike_id":"894a7d6b-e489-44c1-b476-c900c1cf9be9","system_id":"levelo_inurba_marseille","lat":43.312609,"lon":5.401662,"is_reserved":false,"is_disabled":false,"rental_uris":{"android":"levelo://app?vid=894a7d6b-e489-44c1-b476-c900c1cf9be9","ios":"levelo://app?vid=894a7d6b-e489-44c1-b476-c900c1cf9be9"},"vehicle_type_id":"4","last_reported":1720973285,"current_range_meters":800,"station_id":"ce4bh092rcd13ifvqd30","pricing_plan_id":"cebpf4jnsgd1na2vs0mg"},{"bike_id":"7db14a83-5996-4107-aac5-8660c0fb36ae","system_id":"levelo_inurba_marseille","lat":43.337584,"lon":5.374721,"is_reserved":false,"is_disabled":false,"rental_uris":{"android":"levelo://app?vid=7db14a83-5996-4107-aac5-8660c0fb36ae","ios":"levelo://app?vid=7db14a83-5996-4107-aac5-8660c0fb36ae"},"vehicle_type_id":"4","last_reported":1720973285,"current_range_meters":17600,"station_id":"","pricing_plan_id":"cebpf4jnsgd1na2vs0mg"},{"bike_id":"c5e22e00-944b-4607-8f70-96d4a365c51a","system_id":"levelo_inurba_marseille","lat":43.306412,"lon":5.401035,"is_reserved":false,"is_disabled":false,"rental_uris":{"android":"levelo://app?vid=c5e22e00-944b-4607-8f70-96d4a365c51a","ios":"levelo://app?vid=c5e22e00-944b-4607-8f70-96d4a365c51a"},"vehicle_type_id":"4","last_reported":1720973285,"current_range_meters":15600,"station_id":"ce4bh112rcd13ifvqda0","pricing_plan_id":"cebpf4jnsgd1na2vs0mg"},{"bike_id":"2c101ebf-47bb-4075-9995-419fb34d5f57","system_id":"levelo_inurba_marseille","lat":43.33765,"lon":5.3747,"is_reserved":false,"is_disabled":false,"rental_uris":{"android":"levelo://app?vid=2c101ebf-47bb-4075-9995-419fb34d5f57","ios":"levelo://app?vid=2c101ebf-47bb-4075-9995-419fb34d5f57"},"vehicle_type_id":"4","last_reported":1720973285,"current_range_meters":29200,"station_id":"","pricing_plan_id":"cebpf4jnsgd1na2vs0mg"},{"bike_id":"e6537933-0eb1-41a8-b76a-584d0a7d4a3c","system_id":"levelo_inurba_marseille","lat":43.33766,"lon":5.37467,"is_reserved":false,"is_disabled":false,"rental_uris":{"android":"levelo://app?vid=e6537933-0eb1-41a8-b76a-584d0a7d4a3c","ios":"levelo://app?vid=e6537933-0eb1-41a8-b76a-584d0a7d4a3c"},"vehicle_type_id":"4","last_reported":1720973285,"current_range_meters":30400,"station_id":"","pricing_plan_id":"cebpf4jnsgd1na2vs0mg"},{"bike_id":"893b3f9e-8d19-4e89-b4e3-e6aa5e07ff06","system_id":"levelo_inurba_marseille","lat":43.33766,"lon":5.37471,"is_reserved":false,"is_disabled":false,"rental_uris":{"android":"levelo://app?vid=893b3f9e-8d19-4e89-b4e3-e6aa5e07ff06","ios":"levelo://app?vid=893b3f9e-8d19-4e89-b4e3-e6aa5e07ff06"},"vehicle_type_id":"4","last_reported":1720973285,"current_range_meters":26400,"station_id":"","pricing_plan_id":"cebpf4jnsgd1na2vs0mg"},{"bike_id":"37772fd2-0f82-4f52-ad98-1e17b9e6b7e2","system_id":"levelo_inurba_marseille","lat":43.33767,"lon":5.374711,"is_reserved":false,"is_disabled":false,"rental_uris":{"android":"levelo://app?vid=37772fd2-0f82-4f52-ad98-1e17b9e6b7e2","ios":"levelo://app?vid=37772fd2-0f82-4f52-ad98-1e17b9e6b7e2"},"vehicle_type_id":"4","last_reported":1720973285,"current_range_meters":20400,"station_id":"","pricing_plan_id":"cebpf4jnsgd1na2vs0mg"},{"bike_id":"cf958edf-a973-4ef8-838e-9cc8f1679483","system_id":"levelo_inurba_marseille","lat":43.33766,"lon":5.37478,"is_reserved":false,"is_disabled":false,"rental_uris":{"android":"levelo://app?vid=cf958edf-a973-4ef8-838e-9cc8f1679483","ios":"levelo://app?vid=cf958edf-a973-4ef8-838e-9cc8f1679483"},"vehicle_type_id":"4","last_reported":1720973285,"current_range_meters":14000,"station_id":"","pricing_plan_id":"cebpf4jnsgd1na2vs0mg"},{"bike_id":"5cd2f239-467e-4111-8850-d9782eca2470","system_id":"levelo_inurba_marseille","lat":43.33767,"lon":5.37472,"is_reserved":false,"is_disabled":false,"rental_uris":{"android":"levelo://app?vid=5cd2f239-467e-4111-8850-d9782eca2470","ios":"levelo://app?vid=5cd2f239-467e-4111-8850-d9782eca2470"},"vehicle_type_id":"4","last_reported":1720973285,"current_range_meters":29200,"station_id":"","pricing_plan_id":"cebpf4jnsgd1na2vs0mg"},{"bike_id":"bfbef46d-097c-4ecc-a4cf-db53c94b13b1","system_id":"levelo_inurba_marseille","lat":43.33767,"lon":5.37472,"is_reserved":false,"is_disabled":false,"rental_uris":{"android":"levelo://app?vid=bfbef46d-097c-4ecc-a4cf-db53c94b13b1","ios":"levelo://app?vid=bfbef46d-097c-4ecc-a4cf-db53c94b13b1"},"vehicle_type_id":"4","last_reported":1720973285,"current_range_meters":29200,"station_id":"","pricing_plan_id":"cebpf4jnsgd1na2vs0mg"},{"bike_id":"26f86cb7-ac0c-4cfd-84f1-3a9e9042360d","system_id":"levelo_inurba_marseille","lat":43.33767,"lon":5.37474,"is_reserved":false,"is_disabled":false,"rental_uris":{"android":"levelo://app?vid=26f86cb7-ac0c-4cfd-84f1-3a9e9042360d","ios":"levelo://app?vid=26f86cb7-ac0c-4cfd-84f1-3a9e9042360d"},"vehicle_type_id":"4","last_reported":1720973285,"current_range_meters":14400,"station_id":"","pricing_plan_id":"cebpf4jnsgd1na2vs0mg"},{"bike_id":"8f381f06-2b48-4b7f-9444-eca237a2fc44","system_id":"levelo_inurba_marseille","lat":43.291994,"lon":5.357886,"is_reserved":false,"is_disabled":false,"rental_uris":{"android":"levelo://app?vid=8f381f06-2b48-4b7f-9444-eca237a2fc44","ios":"levelo://app?vid=8f381f06-2b48-4b7f-9444-eca237a2fc44"},"vehicle_type_id":"4","last_reported":1720973285,"current_range_meters":24800,"station_id":"ce4bhb12rcd13ifvqel0","pricing_plan_id":"cebpf4jnsgd1na2vs0mg"},{"bike_id":"ecca751a-c24b-4d06-bee9-480915f9bb4a","system_id":"levelo_inurba_marseille","lat":43.337677,"lon":5.374704,"is_reserved":false,"is_disabled":false,"rental_uris":{"android":"levelo://app?vid=ecca751a-c24b-4d06-bee9-480915f9bb4a","ios":"levelo://app?vid=ecca751a-c24b-4d06-bee9-480915f9bb4a"},"vehicle_type_id":"4","last_reported":1720973285,"current_range_meters":0,"station_id":"","pricing_plan_id":"cebpf4jnsgd1na2vs0mg"},{"bike_id":"039a10e5-aed9-4f01-a151-04375f715c5b","system_id":"levelo_inurba_marseille","lat":43.33767,"lon":5.37478,"is_reserved":false,"is_disabled":false,"rental_uris":{"android":"levelo://app?vid=039a10e5-aed9-4f01-a151-04375f715c5b","ios":"levelo://app?vid=039a10e5-aed9-4f01-a151-04375f715c5b"},"vehicle_type_id":"4","last_reported":1720973285,"current_range_meters":24800,"station_id":"","pricing_plan_id":"cebpf4jnsgd1na2vs0mg"},{"bike_id":"6005b925-bbeb-43fb-9a4b-148f3086b364","system_id":"levelo_inurba_marseille","lat":43.33767,"lon":5.37481,"is_reserved":false,"is_disabled":false,"rental_uris":{"android":"levelo://app?vid=6005b925-bbeb-43fb-9a4b-148f3086b364","ios":"levelo://app?vid=6005b925-bbeb-43fb-9a4b-148f3086b364"},"vehicle_type_id":"4","last_reported":1720973285,"current_range_meters":1600,"station_id":"","pricing_plan_id":"cebpf4jnsgd1na2vs0mg"},{"bike_id":"9641f142-48bc-49b9-9b2a-634a9b288110","system_id":"levelo_inurba_marseille","lat":43.33768,"lon":5.37476,"is_reserved":false,"is_disabled":false,"rental_uris":{"android":"levelo://app?vid=9641f142-48bc-49b9-9b2a-634a9b288110","ios":"levelo://app?vid=9641f142-48bc-49b9-9b2a-634a9b288110"},"vehicle_type_id":"4","last_reported":1720973285,"current_range_meters":21200,"station_id":"","pricing_plan_id":"cebpf4jnsgd1na2vs0mg"},{"bike_id":"0dd06392-f63f-44b8-af4f-590dfd121b02","system_id":"levelo_inurba_marseille","lat":43.33769,"lon":5.3747,"is_reserved":false,"is_disabled":false,"rental_uris":{"android":"levelo://app?vid=0dd06392-f63f-44b8-af4f-590dfd121b02","ios":"levelo://app?vid=0dd06392-f63f-44b8-af4f-590dfd121b02"},"vehicle_type_id":"4","last_reported":1720973285,"current_range_meters":5600,"station_id":"","pricing_plan_id":"cebpf4jnsgd1na2vs0mg"},{"bike_id":"e880369d-9e45-4e17-b710-89d03f821f41","system_id":"levelo_inurba_marseille","lat":43.3377,"lon":5.3747,"is_reserved":false,"is_disabled":false,"rental_uris":{"android":"levelo://app?vid=e880369d-9e45-4e17-b710-89d03f821f41","ios":"levelo://app?vid=e880369d-9e45-4e17-b710-89d03f821f41"},"vehicle_type_id":"4","last_reported":1720973285,"current_range_meters":5600,"station_id":"","pricing_plan_id":"cebpf4jnsgd1na2vs0mg"},{"bike_id":"c67a12ba-5c42-41ae-847c-0956c8b147e5","system_id":"levelo_inurba_marseille","lat":43.3377,"lon":5.37471,"is_reserved":false,"is_disabled":false,"rental_uris":{"android":"levelo://app?vid=c67a12ba-5c42-41ae-847c-0956c8b147e5","ios":"levelo://app?vid=c67a12ba-5c42-41ae-847c-0956c8b147e5"},"vehicle_type_id":"4","last_reported":1720973285,"current_range_meters":14800,"station_id":"","pricing_plan_id":"cebpf4jnsgd1na2vs0mg"},{"bike_id":"cd48b539-8a8f-4ccd-a8aa-e74e2abaf1f5","system_id":"levelo_inurba_marseille","lat":43.3377,"lon":5.37472,"is_reserved":false,"is_disabled":false,"rental_uris":{"android":"levelo://app?vid=cd48b539-8a8f-4ccd-a8aa-e74e2abaf1f5","ios":"levelo://app?vid=cd48b539-8a8f-4ccd-a8aa-e74e2abaf1f5"},"vehicle_type_id":"4","last_reported":1720973285,"current_range_meters":24800,"station_id":"","pricing_plan_id":"cebpf4jnsgd1na2vs0mg"},{"bike_id":"02f0d131-963f-495a-beaf-edc5a91d6439","system_id":"levelo_inurba_marseille","lat":43.33771,"lon":5.37466,"is_reserved":false,"is_disabled":false,"rental_uris":{"android":"levelo://app?vid=02f0d131-963f-495a-beaf-edc5a91d6439","ios":"levelo://app?vid=02f0d131-963f-495a-beaf-edc5a91d6439"},"vehicle_type_id":"4","last_reported":1720973285,"current_range_meters":25600,"station_id":"","pricing_plan_id":"cebpf4jnsgd1na2vs0mg"},{"bike_id":"a005e922-b721-4196-b009-e1125dd6e3b2","system_id":"levelo_inurba_marseille","lat":43.33769,"lon":5.37479,"is_reserved":false,"is_disabled":false,"rental_uris":{"android":"levelo://app?vid=a005e922-b721-4196-b009-e1125dd6e3b2","ios":"levelo://app?vid=a005e922-b721-4196-b009-e1125dd6e3b2"},"vehicle_type_id":"4","last_reported":1720973285,"current_range_meters":29200,"station_id":"","pricing_plan_id":"cebpf4jnsgd1na2vs0mg"},{"bike_id":"5aae94a6-c440-4789-857e-46a54718fede","system_id":"levelo_inurba_marseille","lat":43.3377,"lon":5.37474,"is_reserved":false,"is_disabled":false,"rental_uris":{"android":"levelo://app?vid=5aae94a6-c440-4789-857e-46a54718fede","ios":"levelo://app?vid=5aae94a6-c440-4789-857e-46a54718fede"},"vehicle_type_id":"4","last_reported":1720973285,"current_range_meters":29200,"station_id":"","pricing_plan_id":"cebpf4jnsgd1na2vs0mg"},{"bike_id":"a7714764-2436-42f7-8089-0fc1ef357d42","system_id":"levelo_inurba_marseille","lat":43.3377,"lon":5.37474,"is_reserved":false,"is_disabled":false,"rental_uris":{"android":"levelo://app?vid=a7714764-2436-42f7-8089-0fc1ef357d42","ios":"levelo://app?vid=a7714764-2436-42f7-8089-0fc1ef357d42"},"vehicle_type_id":"4","last_reported":1720973285,"current_range_meters":0,"station_id":"","pricing_plan_id":"cebpf4jnsgd1na2vs0mg"},{"bike_id":"9c7b1f97-69ad-4cc5-8072-543f329e41d2","system_id":"levelo_inurba_marseille","lat":43.33772,"lon":5.37471,"is_reserved":false,"is_disabled":false,"rental_uris":{"android":"levelo://app?vid=9c7b1f97-69ad-4cc5-8072-543f329e41d2","ios":"levelo://app?vid=9c7b1f97-69ad-4cc5-8072-543f329e41d2"},"vehicle_type_id":"4","last_reported":1720973285,"current_range_meters":0,"station_id":"","pricing_plan_id":"cebpf4jnsgd1na2vs0mg"},{"bike_id":"9e13c9a5-7387-424a-b4fb-1dc4dce029b5","system_id":"levelo_inurba_marseille","lat":43.33772,"lon":5.37473,"is_reserved":false,"is_disabled":false,"rental_uris":{"android":"levelo://app?vid=9e13c9a5-7387-424a-b4fb-1dc4dce029b5","ios":"levelo://app?vid=9e13c9a5-7387-424a-b4fb-1dc4dce029b5"},"vehicle_type_id":"4","last_reported":1720973285,"current_range_meters":25200,"station_id":"","pricing_plan_id":"cebpf4jnsgd1na2vs0mg"},{"bike_id":"51544219-3a97-477c-9642-d66a5be4ade3","system_id":"levelo_inurba_marseille","lat":43.33772,"lon":5.37474,"is_reserved":false,"is_disabled":false,"rental_uris":{"android":"levelo://app?vid=51544219-3a97-477c-9642-d66a5be4ade3","ios":"levelo://app?vid=51544219-3a97-477c-9642-d66a5be4ade3"},"vehicle_type_id":"4","last_reported":1720973285,"current_range_meters":17200,"station_id":"","pricing_plan_id":"cebpf4jnsgd1na2vs0mg"},{"bike_id":"ac9d66fe-9bf5-4789-93e4-8c7d750a082c","system_id":"levelo_inurba_marseille","lat":43.33773,"lon":5.37468,"is_reserved":false,"is_disabled":false,"rental_uris":{"android":"levelo://app?vid=ac9d66fe-9bf5-4789-93e4-8c7d750a082c","ios":"levelo://app?vid=ac9d66fe-9bf5-4789-93e4-8c7d750a082c"},"vehicle_type_id":"4","last_reported":1720973285,"current_range_meters":20800,"station_id":"","pricing_plan_id":"cebpf4jnsgd1na2vs0mg"},{"bike_id":"38b57823-eda1-4e58-a521-74a065ade509","system_id":"levelo_inurba_marseille","lat":43.33773,"lon":5.37469,"is_reserved":false,"is_disabled":false,"rental_uris":{"android":"levelo://app?vid=38b57823-eda1-4e58-a521-74a065ade509","ios":"levelo://app?vid=38b57823-eda1-4e58-a521-74a065ade509"},"vehicle_type_id":"4","last_reported":1720973285,"current_range_meters":24000,"station_id":"","pricing_plan_id":"cebpf4jnsgd1na2vs0mg"},{"bike_id":"39abbf07-2729-49b9-a62e-e135ca141c9b","system_id":"levelo_inurba_marseille","lat":43.33773,"lon":5.37471,"is_reserved":false,"is_disabled":false,"rental_uris":{"android":"levelo://app?vid=39abbf07-2729-49b9-a62e-e135ca141c9b","ios":"levelo://app?vid=39abbf07-2729-49b9-a62e-e135ca141c9b"},"vehicle_type_id":"4","last_reported":1720973285,"current_range_meters":20400,"station_id":"","pricing_plan_id":"cebpf4jnsgd1na2vs0mg"},{"bike_id":"80ff1c69-9419-4f4b-9d57-bf214620b8b3","system_id":"levelo_inurba_marseille","lat":43.33773,"lon":5.374716,"is_reserved":false,"is_disabled":false,"rental_uris":{"android":"levelo://app?vid=80ff1c69-9419-4f4b-9d57-bf214620b8b3","ios":"levelo://app?vid=80ff1c69-9419-4f4b-9d57-bf214620b8b3"},"vehicle_type_id":"4","last_reported":1720973285,"current_range_meters":5200,"station_id":"","pricing_plan_id":"cebpf4jnsgd1na2vs0mg"},{"bike_id":"d77e79b4-bbcc-4fb4-abd6-01e5d49b13f4","system_id":"levelo_inurba_marseille","lat":43.33772,"lon":5.37479,"is_reserved":false,"is_disabled":false,"rental_uris":{"android":"levelo://app?vid=d77e79b4-bbcc-4fb4-abd6-01e5d49b13f4","ios":"levelo://app?vid=d77e79b4-bbcc-4fb4-abd6-01e5d49b13f4"},"vehicle_type_id":"4","last_reported":1720973285,"current_range_meters":15200,"station_id":"","pricing_plan_id":"cebpf4jnsgd1na2vs0mg"},{"bike_id":"b490573b-32d3-4854-ab3f-e801cde5a636","system_id":"levelo_inurba_marseille","lat":43.33771,"lon":5.37485,"is_reserved":false,"is_disabled":false,"rental_uris":{"android":"levelo://app?vid=b490573b-32d3-4854-ab3f-e801cde5a636","ios":"levelo://app?vid=b490573b-32d3-4854-ab3f-e801cde5a636"},"vehicle_type_id":"4","last_reported":1720973285,"current_range_meters":14800,"station_id":"","pricing_plan_id":"cebpf4jnsgd1na2vs0mg"},{"bike_id":"a4701b34-a47a-4547-9be9-b5a6ebb6ef0f","system_id":"levelo_inurba_marseille","lat":43.33774,"lon":5.3747,"is_reserved":false,"is_disabled":false,"rental_uris":{"android":"levelo://app?vid=a4701b34-a47a-4547-9be9-b5a6ebb6ef0f","ios":"levelo://app?vid=a4701b34-a47a-4547-9be9-b5a6ebb6ef0f"},"vehicle_type_id":"4","last_reported":1720973285,"current_range_meters":16400,"station_id":"","pricing_plan_id":"cebpf4jnsgd1na2vs0mg"},{"bike_id":"c761b19e-877d-432b-bfa8-ed72a86a6759","system_id":"levelo_inurba_marseille","lat":43.33775,"lon":5.37466,"is_reserved":false,"is_disabled":false,"rental_uris":{"android":"levelo://app?vid=c761b19e-877d-432b-bfa8-ed72a86a6759","ios":"levelo://app?vid=c761b19e-877d-432b-bfa8-ed72a86a6759"},"vehicle_type_id":"4","last_reported":1720973285,"current_range_meters":400,"station_id":"","pricing_plan_id":"cebpf4jnsgd1na2vs0mg"},{"bike_id":"0496dc13-34e3-45c2-af9a-f6e2516b223a","system_id":"levelo_inurba_marseille","lat":43.33773,"lon":5.37479,"is_reserved":false,"is_disabled":false,"rental_uris":{"android":"levelo://app?vid=0496dc13-34e3-45c2-af9a-f6e2516b223a","ios":"levelo://app?vid=0496dc13-34e3-45c2-af9a-f6e2516b223a"},"vehicle_type_id":"4","last_reported":1720973285,"current_range_meters":30000,"station_id":"","pricing_plan_id":"cebpf4jnsgd1na2vs0mg"},{"bike_id":"573b9d78-4adb-4e9e-b480-d279544660f2","system_id":"levelo_inurba_marseille","lat":43.33774,"lon":5.37474,"is_reserved":false,"is_disabled":false,"rental_uris":{"android":"levelo://app?vid=573b9d78-4adb-4e9e-b480-d279544660f2","ios":"levelo://app?vid=573b9d78-4adb-4e9e-b480-d279544660f2"},"vehicle_type_id":"4","last_reported":1720973285,"current_range_meters":8400,"station_id":"","pricing_plan_id":"cebpf4jnsgd1na2vs0mg"},{"bike_id":"45416cd9-028f-41b0-ac5a-269637c45e42","system_id":"levelo_inurba_marseille","lat":43.33774,"lon":5.37475,"is_reserved":false,"is_disabled":false,"rental_uris":{"android":"levelo://app?vid=45416cd9-028f-41b0-ac5a-269637c45e42","ios":"levelo://app?vid=45416cd9-028f-41b0-ac5a-269637c45e42"},"vehicle_type_id":"4","last_reported":1720973285,"current_range_meters":9600,"station_id":"","pricing_plan_id":"cebpf4jnsgd1na2vs0mg"},{"bike_id":"e951615b-5573-4435-a7b6-8167ff6ade63","system_id":"levelo_inurba_marseille","lat":43.33774,"lon":5.37477,"is_reserved":false,"is_disabled":false,"rental_uris":{"android":"levelo://app?vid=e951615b-5573-4435-a7b6-8167ff6ade63","ios":"levelo://app?vid=e951615b-5573-4435-a7b6-8167ff6ade63"},"vehicle_type_id":"4","last_reported":1720973285,"current_range_meters":14000,"station_id":"","pricing_plan_id":"cebpf4jnsgd1na2vs0mg"},{"bike_id":"215d24e0-7b63-49a8-aed8-8b8c5a53b355","system_id":"levelo_inurba_marseille","lat":43.33774,"lon":5.37478,"is_reserved":false,"is_disabled":false,"rental_uris":{"android":"levelo://app?vid=215d24e0-7b63-49a8-aed8-8b8c5a53b355","ios":"levelo://app?vid=215d24e0-7b63-49a8-aed8-8b8c5a53b355"},"vehicle_type_id":"4","last_reported":1720973285,"current_range_meters":13600,"station_id":"","pricing_plan_id":"cebpf4jnsgd1na2vs0mg"},{"bike_id":"0146c428-cfdd-4a76-a91e-317ac3b8cedc","system_id":"levelo_inurba_marseille","lat":43.33775,"lon":5.37472,"is_reserved":false,"is_disabled":false,"rental_uris":{"android":"levelo://app?vid=0146c428-cfdd-4a76-a91e-317ac3b8cedc","ios":"levelo://app?vid=0146c428-cfdd-4a76-a91e-317ac3b8cedc"},"vehicle_type_id":"4","last_reported":1720973285,"current_range_meters":0,"station_id":"","pricing_plan_id":"cebpf4jnsgd1na2vs0mg"},{"bike_id":"2fa411ed-3fa9-4268-b414-c8e45152bf4d","system_id":"levelo_inurba_marseille","lat":43.33775,"lon":5.37473,"is_reserved":false,"is_disabled":false,"rental_uris":{"android":"levelo://app?vid=2fa411ed-3fa9-4268-b414-c8e45152bf4d","ios":"levelo://app?vid=2fa411ed-3fa9-4268-b414-c8e45152bf4d"},"vehicle_type_id":"4","last_reported":1720973285,"current_range_meters":14400,"station_id":"","pricing_plan_id":"cebpf4jnsgd1na2vs0mg"},{"bike_id":"db8d58e3-38a2-4c75-ae4a-e4abfcab3724","system_id":"levelo_inurba_marseille","lat":43.33775,"lon":5.37475,"is_reserved":false,"is_disabled":false,"rental_uris":{"android":"levelo://app?vid=db8d58e3-38a2-4c75-ae4a-e4abfcab3724","ios":"levelo://app?vid=db8d58e3-38a2-4c75-ae4a-e4abfcab3724"},"vehicle_type_id":"4","last_reported":1720973285,"current_range_meters":28400,"station_id":"","pricing_plan_id":"cebpf4jnsgd1na2vs0mg"},{"bike_id":"a5b64c84-5508-41ed-bc97-8b733f293107","system_id":"levelo_inurba_marseille","lat":43.33776,"lon":5.37471,"is_reserved":false,"is_disabled":false,"rental_uris":{"android":"levelo://app?vid=a5b64c84-5508-41ed-bc97-8b733f293107","ios":"levelo://app?vid=a5b64c84-5508-41ed-bc97-8b733f293107"},"vehicle_type_id":"4","last_reported":1720973285,"current_range_meters":24400,"station_id":"","pricing_plan_id":"cebpf4jnsgd1na2vs0mg"},{"bike_id":"0c80325e-daf1-446d-8059-bffa294c7e3e","system_id":"levelo_inurba_marseille","lat":43.33777,"lon":5.37474,"is_reserved":false,"is_disabled":false,"rental_uris":{"android":"levelo://app?vid=0c80325e-daf1-446d-8059-bffa294c7e3e","ios":"levelo://app?vid=0c80325e-daf1-446d-8059-bffa294c7e3e"},"vehicle_type_id":"4","last_reported":1720973285,"current_range_meters":21200,"station_id":"","pricing_plan_id":"cebpf4jnsgd1na2vs0mg"},{"bike_id":"60014351-6980-43c2-9516-117e9bc87905","system_id":"levelo_inurba_marseille","lat":43.33777,"lon":5.37474,"is_reserved":false,"is_disabled":false,"rental_uris":{"android":"levelo://app?vid=60014351-6980-43c2-9516-117e9bc87905","ios":"levelo://app?vid=60014351-6980-43c2-9516-117e9bc87905"},"vehicle_type_id":"4","last_reported":1720973285,"current_range_meters":15200,"station_id":"","pricing_plan_id":"cebpf4jnsgd1na2vs0mg"},{"bike_id":"7fe8718f-2ce5-43ca-bf2f-4cadfbd7a814","system_id":"levelo_inurba_marseille","lat":43.33778,"lon":5.37476,"is_reserved":false,"is_disabled":false,"rental_uris":{"android":"levelo://app?vid=7fe8718f-2ce5-43ca-bf2f-4cadfbd7a814","ios":"levelo://app?vid=7fe8718f-2ce5-43ca-bf2f-4cadfbd7a814"},"vehicle_type_id":"4","last_reported":1720973285,"current_range_meters":16400,"station_id":"","pricing_plan_id":"cebpf4jnsgd1na2vs0mg"},{"bike_id":"0d58fd1b-f1d1-4fc6-a4e4-51a623e9a871","system_id":"levelo_inurba_marseille","lat":43.33778,"lon":5.37483,"is_reserved":false,"is_disabled":false,"rental_uris":{"android":"levelo://app?vid=0d58fd1b-f1d1-4fc6-a4e4-51a623e9a871","ios":"levelo://app?vid=0d58fd1b-f1d1-4fc6-a4e4-51a623e9a871"},"vehicle_type_id":"4","last_reported":1720973285,"current_range_meters":30800,"station_id":"","pricing_plan_id":"cebpf4jnsgd1na2vs0mg"},{"bike_id":"69cb3bdd-3dd6-455d-8023-672c354c1188","system_id":"levelo_inurba_marseille","lat":43.28726,"lon":5.36087,"is_reserved":false,"is_disabled":false,"rental_uris":{"android":"levelo://app?vid=69cb3bdd-3dd6-455d-8023-672c354c1188","ios":"levelo://app?vid=69cb3bdd-3dd6-455d-8023-672c354c1188"},"vehicle_type_id":"4","last_reported":1720973285,"current_range_meters":0,"station_id":"cki0cbj6b192h4jlfktg","pricing_plan_id":"cebpf4jnsgd1na2vs0mg"},{"bike_id":"22b9d399-07a5-4054-bbe5-98dfcb115c30","system_id":"levelo_inurba_marseille","lat":43.298681,"lon":5.397225,"is_reserved":false,"is_disabled":false,"rental_uris":{"android":"levelo://app?vid=22b9d399-07a5-4054-bbe5-98dfcb115c30","ios":"levelo://app?vid=22b9d399-07a5-4054-bbe5-98dfcb115c30"},"vehicle_type_id":"4","last_reported":1720973285,"current_range_meters":400,"station_id":"ce4bh0h2rcd13ifvqd50","pricing_plan_id":"cebpf4jnsgd1na2vs0mg"},{"bike_id":"66a035f3-e13c-4d96-9412-bec19c7de542","system_id":"levelo_inurba_marseille","lat":43.286591,"lon":5.363346,"is_reserved":false,"is_disabled":false,"rental_uris":{"android":"levelo://app?vid=66a035f3-e13c-4d96-9412-bec19c7de542","ios":"levelo://app?vid=66a035f3-e13c-4d96-9412-bec19c7de542"},"vehicle_type_id":"4","last_reported":1720973285,"current_range_meters":28000,"station_id":"ce4bhah2rcd13ifvqej0","pricing_plan_id":"cebpf4jnsgd1na2vs0mg"},{"bike_id":"41928128-10f5-4ce6-b33e-eb473e35a2d4","system_id":"levelo_inurba_marseille","lat":43.29204,"lon":5.39317,"is_reserved":false,"is_disabled":false,"rental_uris":{"android":"levelo://app?vid=41928128-10f5-4ce6-b33e-eb473e35a2d4","ios":"levelo://app?vid=41928128-10f5-4ce6-b33e-eb473e35a2d4"},"vehicle_type_id":"4","last_reported":1720973285,"current_range_meters":0,"station_id":"ce4bh192rcd13ifvqdd0","pricing_plan_id":"cebpf4jnsgd1na2vs0mg"},{"bike_id":"75af6df0-1db0-4c31-a73a-ea32e7d2e17f","system_id":"levelo_inurba_marseille","lat":43.291994,"lon":5.392907,"is_reserved":false,"is_disabled":false,"rental_uris":{"android":"levelo://app?vid=75af6df0-1db0-4c31-a73a-ea32e7d2e17f","ios":"levelo://app?vid=75af6df0-1db0-4c31-a73a-ea32e7d2e17f"},"vehicle_type_id":"4","last_reported":1720973285,"current_range_meters":2400,"station_id":"ce4bh192rcd13ifvqdd0","pricing_plan_id":"cebpf4jnsgd1na2vs0mg"},{"bike_id":"7c73b179-508a-4148-be7d-2aca861ef652","system_id":"levelo_inurba_marseille","lat":43.284538,"lon":5.358657,"is_reserved":false,"is_disabled":false,"rental_uris":{"android":"levelo://app?vid=7c73b179-508a-4148-be7d-2aca861ef652","ios":"levelo://app?vid=7c73b179-508a-4148-be7d-2aca861ef652"},"vehicle_type_id":"4","last_reported":1720973285,"current_range_meters":5200,"station_id":"ce4bhah2rcd13ifvqei0","pricing_plan_id":"cebpf4jnsgd1na2vs0mg"},{"bike_id":"12e65cd5-c2c9-4d07-9e80-92cfacc25f1b","system_id":"levelo_inurba_marseille","lat":43.284534,"lon":5.358662,"is_reserved":false,"is_disabled":false,"rental_uris":{"android":"levelo://app?vid=12e65cd5-c2c9-4d07-9e80-92cfacc25f1b","ios":"levelo://app?vid=12e65cd5-c2c9-4d07-9e80-92cfacc25f1b"},"vehicle_type_id":"4","last_reported":1720973285,"current_range_meters":1200,"station_id":"ce4bhah2rcd13ifvqei0","pricing_plan_id":"cebpf4jnsgd1na2vs0mg"},{"bike_id":"80e662ea-1434-4bfe-b35c-660f1becea22","system_id":"levelo_inurba_marseille","lat":43.284538,"lon":5.358657,"is_reserved":false,"is_disabled":false,"rental_uris":{"android":"levelo://app?vid=80e662ea-1434-4bfe-b35c-660f1becea22","ios":"levelo://app?vid=80e662ea-1434-4bfe-b35c-660f1becea22"},"vehicle_type_id":"4","last_reported":1720973285,"current_range_meters":800,"station_id":"ce4bhah2rcd13ifvqei0","pricing_plan_id":"cebpf4jnsgd1na2vs0mg"},{"bike_id":"eaaa4cc2-0cef-41c0-8cb5-fe7d669fef68","system_id":"levelo_inurba_marseille","lat":43.284538,"lon":5.358657,"is_reserved":false,"is_disabled":false,"rental_uris":{"android":"levelo://app?vid=eaaa4cc2-0cef-41c0-8cb5-fe7d669fef68","ios":"levelo://app?vid=eaaa4cc2-0cef-41c0-8cb5-fe7d669fef68"},"vehicle_type_id":"4","last_reported":1720973285,"current_range_meters":1600,"station_id":"ce4bhah2rcd13ifvqei0","pricing_plan_id":"cebpf4jnsgd1na2vs0mg"},{"bike_id":"eb5e5c49-2f2f-4759-b011-07292d7e0d95","system_id":"levelo_inurba_marseille","lat":43.285856,"lon":5.350771,"is_reserved":false,"is_disabled":false,"rental_uris":{"android":"levelo://app?vid=eb5e5c49-2f2f-4759-b011-07292d7e0d95","ios":"levelo://app?vid=eb5e5c49-2f2f-4759-b011-07292d7e0d95"},"vehicle_type_id":"4","last_reported":1720973285,"current_range_meters":0,"station_id":"ce4bhch2rcd13ifvqeug","pricing_plan_id":"cebpf4jnsgd1na2vs0mg"},{"bike_id":"051536f5-a3b3-4040-9b4e-926eb2bd473f","system_id":"levelo_inurba_marseille","lat":43.28621,"lon":5.35109,"is_reserved":false,"is_disabled":false,"rental_uris":{"android":"levelo://app?vid=051536f5-a3b3-4040-9b4e-926eb2bd473f","ios":"levelo://app?vid=051536f5-a3b3-4040-9b4e-926eb2bd473f"},"vehicle_type_id":"4","last_reported":1720973285,"current_range_meters":0,"station_id":"ce4bhch2rcd13ifvqeug","pricing_plan_id":"cebpf4jnsgd1na2vs0mg"},{"bike_id":"903b7c78-33e1-4574-83be-cf9e76064352","system_id":"levelo_inurba_marseille","lat":43.28619,"lon":5.35107,"is_reserved":false,"is_disabled":false,"rental_uris":{"android":"levelo://app?vid=903b7c78-33e1-4574-83be-cf9e76064352","ios":"levelo://app?vid=903b7c78-33e1-4574-83be-cf9e76064352"},"vehicle_type_id":"4","last_reported":1720973285,"current_range_meters":0,"station_id":"ce4bhch2rcd13ifvqeug","pricing_plan_id":"cebpf4jnsgd1na2vs0mg"},{"bike_id":"03618bab-862a-45e5-9a7a-0f5005c90c9e","system_id":"levelo_inurba_marseille","lat":43.285856,"lon":5.350771,"is_reserved":false,"is_disabled":false,"rental_uris":{"android":"levelo://app?vid=03618bab-862a-45e5-9a7a-0f5005c90c9e","ios":"levelo://app?vid=03618bab-862a-45e5-9a7a-0f5005c90c9e"},"vehicle_type_id":"4","last_reported":1720973285,"current_range_meters":9200,"station_id":"ce4bhch2rcd13ifvqeug","pricing_plan_id":"cebpf4jnsgd1na2vs0mg"},{"bike_id":"1a9f866a-f5ae-4ed2-a27d-b429638d1280","system_id":"levelo_inurba_marseille","lat":43.28617,"lon":5.35099,"is_reserved":false,"is_disabled":false,"rental_uris":{"android":"levelo://app?vid=1a9f866a-f5ae-4ed2-a27d-b429638d1280","ios":"levelo://app?vid=1a9f866a-f5ae-4ed2-a27d-b429638d1280"},"vehicle_type_id":"4","last_reported":1720973285,"current_range_meters":0,"station_id":"ce4bhch2rcd13ifvqeug","pricing_plan_id":"cebpf4jnsgd1na2vs0mg"},{"bike_id":"323a210a-8dcc-4405-a00f-c21b9e72afa1","system_id":"levelo_inurba_marseille","lat":43.283998,"lon":5.375062,"is_reserved":false,"is_disabled":false,"rental_uris":{"android":"levelo://app?vid=323a210a-8dcc-4405-a00f-c21b9e72afa1","ios":"levelo://app?vid=323a210a-8dcc-4405-a00f-c21b9e72afa1"},"vehicle_type_id":"4","last_reported":1720973285,"current_range_meters":18000,"station_id":"ce4bh412rcd13ifvqds0","pricing_plan_id":"cebpf4jnsgd1na2vs0mg"},{"bike_id":"280cf407-2214-44c2-8860-ee0bf50e0aff","system_id":"levelo_inurba_marseille","lat":43.286595,"lon":5.386795,"is_reserved":false,"is_disabled":false,"rental_uris":{"android":"levelo://app?vid=280cf407-2214-44c2-8860-ee0bf50e0aff","ios":"levelo://app?vid=280cf407-2214-44c2-8860-ee0bf50e0aff"},"vehicle_type_id":"4","last_reported":1720973285,"current_range_meters":9200,"station_id":"ce4bh492rcd13ifvqdug","pricing_plan_id":"cebpf4jnsgd1na2vs0mg"},{"bike_id":"b611ee00-a346-4419-9266-4aa6bed6eed5","system_id":"levelo_inurba_marseille","lat":43.286595,"lon":5.386795,"is_reserved":false,"is_disabled":false,"rental_uris":{"android":"levelo://app?vid=b611ee00-a346-4419-9266-4aa6bed6eed5","ios":"levelo://app?vid=b611ee00-a346-4419-9266-4aa6bed6eed5"},"vehicle_type_id":"4","last_reported":1720973285,"current_range_meters":1600,"station_id":"ce4bh492rcd13ifvqdug","pricing_plan_id":"cebpf4jnsgd1na2vs0mg"},{"bike_id":"9333b8c1-0385-4eed-8d6e-70036366fa3c","system_id":"levelo_inurba_marseille","lat":43.33717,"lon":5.391857,"is_reserved":false,"is_disabled":false,"rental_uris":{"android":"levelo://app?vid=9333b8c1-0385-4eed-8d6e-70036366fa3c","ios":"levelo://app?vid=9333b8c1-0385-4eed-8d6e-70036366fa3c"},"vehicle_type_id":"4","last_reported":1720973285,"current_range_meters":30400,"station_id":"ce4bhr92rcd13ifvqhsg","pricing_plan_id":"cebpf4jnsgd1na2vs0mg"},{"bike_id":"d8a53db4-479e-4511-bee3-cbcbb80ffb8a","system_id":"levelo_inurba_marseille","lat":43.33717,"lon":5.391857,"is_reserved":false,"is_disabled":false,"rental_uris":{"android":"levelo://app?vid=d8a53db4-479e-4511-bee3-cbcbb80ffb8a","ios":"levelo://app?vid=d8a53db4-479e-4511-bee3-cbcbb80ffb8a"},"vehicle_type_id":"4","last_reported":1720973285,"current_range_meters":29600,"station_id":"ce4bhr92rcd13ifvqhsg","pricing_plan_id":"cebpf4jnsgd1na2vs0mg"},{"bike_id":"ca370fc9-f07f-46ad-b105-ed3826d5870d","system_id":"levelo_inurba_marseille","lat":43.32342,"lon":5.40616,"is_reserved":false,"is_disabled":false,"rental_uris":{"android":"levelo://app?vid=ca370fc9-f07f-46ad-b105-ed3826d5870d","ios":"levelo://app?vid=ca370fc9-f07f-46ad-b105-ed3826d5870d"},"vehicle_type_id":"4","last_reported":1720973285,"current_range_meters":0,"station_id":"ce4bhq92rcd13ifvqhjg","pricing_plan_id":"cebpf4jnsgd1na2vs0mg"},{"bike_id":"3669a729-98c2-47c5-ba33-8fdbe8723a14","system_id":"levelo_inurba_marseille","lat":43.33717,"lon":5.391857,"is_reserved":false,"is_disabled":false,"rental_uris":{"android":"levelo://app?vid=3669a729-98c2-47c5-ba33-8fdbe8723a14","ios":"levelo://app?vid=3669a729-98c2-47c5-ba33-8fdbe8723a14"},"vehicle_type_id":"4","last_reported":1720973285,"current_range_meters":24000,"station_id":"ce4bhr92rcd13ifvqhsg","pricing_plan_id":"cebpf4jnsgd1na2vs0mg"},{"bike_id":"2a01f99a-97a0-464c-8483-805d98075a9b","system_id":"levelo_inurba_marseille","lat":43.337168,"lon":5.391825,"is_reserved":false,"is_disabled":false,"rental_uris":{"android":"levelo://app?vid=2a01f99a-97a0-464c-8483-805d98075a9b","ios":"levelo://app?vid=2a01f99a-97a0-464c-8483-805d98075a9b"},"vehicle_type_id":"4","last_reported":1720973285,"current_range_meters":22400,"station_id":"ce4bhr92rcd13ifvqhsg","pricing_plan_id":"cebpf4jnsgd1na2vs0mg"},{"bike_id":"21e4ef63-0a9d-476f-b956-f659d25c40c2","system_id":"levelo_inurba_marseille","lat":43.33725,"lon":5.39192,"is_reserved":false,"is_disabled":false,"rental_uris":{"android":"levelo://app?vid=21e4ef63-0a9d-476f-b956-f659d25c40c2","ios":"levelo://app?vid=21e4ef63-0a9d-476f-b956-f659d25c40c2"},"vehicle_type_id":"4","last_reported":1720973285,"current_range_meters":800,"station_id":"ce4bhr92rcd13ifvqhsg","pricing_plan_id":"cebpf4jnsgd1na2vs0mg"},{"bike_id":"1d754c0d-a43a-4748-a575-83208c3d0ff5","system_id":"levelo_inurba_marseille","lat":43.323464,"lon":5.406297,"is_reserved":false,"is_disabled":false,"rental_uris":{"android":"levelo://app?vid=1d754c0d-a43a-4748-a575-83208c3d0ff5","ios":"levelo://app?vid=1d754c0d-a43a-4748-a575-83208c3d0ff5"},"vehicle_type_id":"4","last_reported":1720973285,"current_range_meters":8400,"station_id":"ce4bhq92rcd13ifvqhjg","pricing_plan_id":"cebpf4jnsgd1na2vs0mg"},{"bike_id":"461c5ecb-46bf-4e4d-961b-415a2746ce7a","system_id":"levelo_inurba_marseille","lat":43.323464,"lon":5.406297,"is_reserved":false,"is_disabled":false,"rental_uris":{"android":"levelo://app?vid=461c5ecb-46bf-4e4d-961b-415a2746ce7a","ios":"levelo://app?vid=461c5ecb-46bf-4e4d-961b-415a2746ce7a"},"vehicle_type_id":"4","last_reported":1720973285,"current_range_meters":0,"station_id":"ce4bhq92rcd13ifvqhjg","pricing_plan_id":"cebpf4jnsgd1na2vs0mg"},{"bike_id":"2d940ee5-88e2-47e7-becf-8a2178e98459","system_id":"levelo_inurba_marseille","lat":43.33724,"lon":5.392,"is_reserved":false,"is_disabled":false,"rental_uris":{"android":"levelo://app?vid=2d940ee5-88e2-47e7-becf-8a2178e98459","ios":"levelo://app?vid=2d940ee5-88e2-47e7-becf-8a2178e98459"},"vehicle_type_id":"4","last_reported":1720973285,"current_range_meters":17600,"station_id":"ce4bhr92rcd13ifvqhsg","pricing_plan_id":"cebpf4jnsgd1na2vs0mg"},{"bike_id":"5746439f-abc6-489d-95f9-c91e5aadfcf9","system_id":"levelo_inurba_marseille","lat":43.284787,"lon":5.384116,"is_reserved":false,"is_disabled":false,"rental_uris":{"android":"levelo://app?vid=5746439f-abc6-489d-95f9-c91e5aadfcf9","ios":"levelo://app?vid=5746439f-abc6-489d-95f9-c91e5aadfcf9"},"vehicle_type_id":"4","last_reported":1720973285,"current_range_meters":0,"station_id":"ce4bh512rcd13ifvqe3g","pricing_plan_id":"cebpf4jnsgd1na2vs0mg"},{"bike_id":"e7e20134-7df9-44cb-b465-86075d18b35d","system_id":"levelo_inurba_marseille","lat":43.284793,"lon":5.384119,"is_reserved":false,"is_disabled":false,"rental_uris":{"android":"levelo://app?vid=e7e20134-7df9-44cb-b465-86075d18b35d","ios":"levelo://app?vid=e7e20134-7df9-44cb-b465-86075d18b35d"},"vehicle_type_id":"4","last_reported":1720973285,"current_range_meters":800,"station_id":"ce4bh512rcd13ifvqe3g","pricing_plan_id":"cebpf4jnsgd1na2vs0mg"},{"bike_id":"cc7c0a84-cd7d-4c85-9954-4a1bf9e7ae3c","system_id":"levelo_inurba_marseille","lat":43.288501,"lon":5.393087,"is_reserved":false,"is_disabled":false,"rental_uris":{"android":"levelo://app?vid=cc7c0a84-cd7d-4c85-9954-4a1bf9e7ae3c","ios":"levelo://app?vid=cc7c0a84-cd7d-4c85-9954-4a1bf9e7ae3c"},"vehicle_type_id":"4","last_reported":1720973285,"current_range_meters":15200,"station_id":"ce4bh2p2rcd13ifvqdi0","pricing_plan_id":"cebpf4jnsgd1na2vs0mg"},{"bike_id":"5a84ac08-7ceb-4e85-b47f-bfe7a757153a","system_id":"levelo_inurba_marseille","lat":43.284246,"lon":5.349998,"is_reserved":false,"is_disabled":false,"rental_uris":{"android":"levelo://app?vid=5a84ac08-7ceb-4e85-b47f-bfe7a757153a","ios":"levelo://app?vid=5a84ac08-7ceb-4e85-b47f-bfe7a757153a"},"vehicle_type_id":"4","last_reported":1720973285,"current_range_meters":0,"station_id":"ce4bhbh2rcd13ifvqepg","pricing_plan_id":"cebpf4jnsgd1na2vs0mg"},{"bike_id":"90a17226-1beb-40ee-bfdf-7be8f946e9ca","system_id":"levelo_inurba_marseille","lat":43.284214,"lon":5.349706,"is_reserved":false,"is_disabled":false,"rental_uris":{"android":"levelo://app?vid=90a17226-1beb-40ee-bfdf-7be8f946e9ca","ios":"levelo://app?vid=90a17226-1beb-40ee-bfdf-7be8f946e9ca"},"vehicle_type_id":"4","last_reported":1720973285,"current_range_meters":13600,"station_id":"ce4bhbh2rcd13ifvqepg","pricing_plan_id":"cebpf4jnsgd1na2vs0mg"},{"bike_id":"38b724ae-2a4a-4095-98bc-55c29b9c9cac","system_id":"levelo_inurba_marseille","lat":43.28421,"lon":5.34992,"is_reserved":false,"is_disabled":false,"rental_uris":{"android":"levelo://app?vid=38b724ae-2a4a-4095-98bc-55c29b9c9cac","ios":"levelo://app?vid=38b724ae-2a4a-4095-98bc-55c29b9c9cac"},"vehicle_type_id":"4","last_reported":1720973285,"current_range_meters":0,"station_id":"ce4bhbh2rcd13ifvqepg","pricing_plan_id":"cebpf4jnsgd1na2vs0mg"},{"bike_id":"95cae070-be2e-4dab-a480-92239297be99","system_id":"levelo_inurba_marseille","lat":43.28421,"lon":5.34985,"is_reserved":false,"is_disabled":false,"rental_uris":{"android":"levelo://app?vid=95cae070-be2e-4dab-a480-92239297be99","ios":"levelo://app?vid=95cae070-be2e-4dab-a480-92239297be99"},"vehicle_type_id":"4","last_reported":1720973285,"current_range_meters":0,"station_id":"ce4bhbh2rcd13ifvqepg","pricing_plan_id":"cebpf4jnsgd1na2vs0mg"},{"bike_id":"1362670b-cdf0-49df-923b-d7a04731a861","system_id":"levelo_inurba_marseille","lat":43.28417,"lon":5.34985,"is_reserved":false,"is_disabled":false,"rental_uris":{"android":"levelo://app?vid=1362670b-cdf0-49df-923b-d7a04731a861","ios":"levelo://app?vid=1362670b-cdf0-49df-923b-d7a04731a861"},"vehicle_type_id":"4","last_reported":1720973285,"current_range_meters":0,"station_id":"ce4bhbh2rcd13ifvqepg","pricing_plan_id":"cebpf4jnsgd1na2vs0mg"},{"bike_id":"48621775-8b53-4dbd-9cd2-385e1d1ebd02","system_id":"levelo_inurba_marseille","lat":43.28417,"lon":5.34984,"is_reserved":false,"is_disabled":false,"rental_uris":{"android":"levelo://app?vid=48621775-8b53-4dbd-9cd2-385e1d1ebd02","ios":"levelo://app?vid=48621775-8b53-4dbd-9cd2-385e1d1ebd02"},"vehicle_type_id":"4","last_reported":1720973285,"current_range_meters":10000,"station_id":"ce4bhbh2rcd13ifvqepg","pricing_plan_id":"cebpf4jnsgd1na2vs0mg"},{"bike_id":"cce7bcc5-4077-4637-b583-0ac93c0b1117","system_id":"levelo_inurba_marseille","lat":43.284129,"lon":5.349909,"is_reserved":false,"is_disabled":false,"rental_uris":{"android":"levelo://app?vid=cce7bcc5-4077-4637-b583-0ac93c0b1117","ios":"levelo://app?vid=cce7bcc5-4077-4637-b583-0ac93c0b1117"},"vehicle_type_id":"4","last_reported":1720973285,"current_range_meters":0,"station_id":"ce4bhbh2rcd13ifvqepg","pricing_plan_id":"cebpf4jnsgd1na2vs0mg"},{"bike_id":"9c312f6a-47aa-47da-bab4-a83b984702ed","system_id":"levelo_inurba_marseille","lat":43.28415,"lon":5.34978,"is_reserved":false,"is_disabled":false,"rental_uris":{"android":"levelo://app?vid=9c312f6a-47aa-47da-bab4-a83b984702ed","ios":"levelo://app?vid=9c312f6a-47aa-47da-bab4-a83b984702ed"},"vehicle_type_id":"4","last_reported":1720973285,"current_range_meters":0,"station_id":"ce4bhbh2rcd13ifvqepg","pricing_plan_id":"cebpf4jnsgd1na2vs0mg"},{"bike_id":"bf9dc351-cda9-48ad-98c1-214739826340","system_id":"levelo_inurba_marseille","lat":43.28953,"lon":5.39635,"is_reserved":false,"is_disabled":false,"rental_uris":{"android":"levelo://app?vid=bf9dc351-cda9-48ad-98c1-214739826340","ios":"levelo://app?vid=bf9dc351-cda9-48ad-98c1-214739826340"},"vehicle_type_id":"4","last_reported":1720973285,"current_range_meters":0,"station_id":"ce4bh3h2rcd13ifvqdn0","pricing_plan_id":"cebpf4jnsgd1na2vs0mg"},{"bike_id":"6dcf0e40-1f8a-4cdd-a4be-3747e8ecd99c","system_id":"levelo_inurba_marseille","lat":43.29149,"lon":5.39971,"is_reserved":false,"is_disabled":false,"rental_uris":{"android":"levelo://app?vid=6dcf0e40-1f8a-4cdd-a4be-3747e8ecd99c","ios":"levelo://app?vid=6dcf0e40-1f8a-4cdd-a4be-3747e8ecd99c"},"vehicle_type_id":"4","last_reported":1720973285,"current_range_meters":0,"station_id":"","pricing_plan_id":"cebpf4jnsgd1na2vs0mg"},{"bike_id":"eb8e153a-24be-4b99-97dd-a025b2d17c8d","system_id":"levelo_inurba_marseille","lat":43.28274,"lon":5.35071,"is_reserved":false,"is_disabled":false,"rental_uris":{"android":"levelo://app?vid=eb8e153a-24be-4b99-97dd-a025b2d17c8d","ios":"levelo://app?vid=eb8e153a-24be-4b99-97dd-a025b2d17c8d"},"vehicle_type_id":"4","last_reported":1720973285,"current_range_meters":0,"station_id":"ce4bhbp2rcd13ifvqerg","pricing_plan_id":"cebpf4jnsgd1na2vs0mg"},{"bike_id":"3a7f313e-137d-488c-81a9-86ca6f01e973","system_id":"levelo_inurba_marseille","lat":43.28272,"lon":5.35077,"is_reserved":false,"is_disabled":false,"rental_uris":{"android":"levelo://app?vid=3a7f313e-137d-488c-81a9-86ca6f01e973","ios":"levelo://app?vid=3a7f313e-137d-488c-81a9-86ca6f01e973"},"vehicle_type_id":"4","last_reported":1720973285,"current_range_meters":0,"station_id":"ce4bhbp2rcd13ifvqerg","pricing_plan_id":"cebpf4jnsgd1na2vs0mg"},{"bike_id":"c9ffcf11-948b-4c65-bcf9-425ebd52f025","system_id":"levelo_inurba_marseille","lat":43.283502,"lon":5.386471,"is_reserved":false,"is_disabled":false,"rental_uris":{"android":"levelo://app?vid=c9ffcf11-948b-4c65-bcf9-425ebd52f025","ios":"levelo://app?vid=c9ffcf11-948b-4c65-bcf9-425ebd52f025"},"vehicle_type_id":"4","last_reported":1720973285,"current_range_meters":0,"station_id":"ce4bh492rcd13ifvqdvg","pricing_plan_id":"cebpf4jnsgd1na2vs0mg"},{"bike_id":"07ffb264-5d01-41e5-a363-bf1fb6cc04ef","system_id":"levelo_inurba_marseille","lat":43.2827,"lon":5.35079,"is_reserved":false,"is_disabled":false,"rental_uris":{"android":"levelo://app?vid=07ffb264-5d01-41e5-a363-bf1fb6cc04ef","ios":"levelo://app?vid=07ffb264-5d01-41e5-a363-bf1fb6cc04ef"},"vehicle_type_id":"4","last_reported":1720973285,"current_range_meters":0,"station_id":"ce4bhbp2rcd13ifvqerg","pricing_plan_id":"cebpf4jnsgd1na2vs0mg"},{"bike_id":"57d03745-5d44-4852-a520-fed69c575a3e","system_id":"levelo_inurba_marseille","lat":43.28267,"lon":5.35071,"is_reserved":false,"is_disabled":false,"rental_uris":{"android":"levelo://app?vid=57d03745-5d44-4852-a520-fed69c575a3e","ios":"levelo://app?vid=57d03745-5d44-4852-a520-fed69c575a3e"},"vehicle_type_id":"4","last_reported":1720973285,"current_range_meters":0,"station_id":"ce4bhbp2rcd13ifvqerg","pricing_plan_id":"cebpf4jnsgd1na2vs0mg"},{"bike_id":"b78b1310-4a3c-4f61-96c3-4902e32a6657","system_id":"levelo_inurba_marseille","lat":43.282664,"lon":5.35072,"is_reserved":false,"is_disabled":false,"rental_uris":{"android":"levelo://app?vid=b78b1310-4a3c-4f61-96c3-4902e32a6657","ios":"levelo://app?vid=b78b1310-4a3c-4f61-96c3-4902e32a6657"},"vehicle_type_id":"4","last_reported":1720973285,"current_range_meters":2400,"station_id":"ce4bhbp2rcd13ifvqerg","pricing_plan_id":"cebpf4jnsgd1na2vs0mg"},{"bike_id":"70190ae9-df6a-48c9-a1b3-56387cc1a543","system_id":"levelo_inurba_marseille","lat":43.28266,"lon":5.35065,"is_reserved":false,"is_disabled":false,"rental_uris":{"android":"levelo://app?vid=70190ae9-df6a-48c9-a1b3-56387cc1a543","ios":"levelo://app?vid=70190ae9-df6a-48c9-a1b3-56387cc1a543"},"vehicle_type_id":"4","last_reported":1720973285,"current_range_meters":0,"station_id":"ce4bhbp2rcd13ifvqerg","pricing_plan_id":"cebpf4jnsgd1na2vs0mg"},{"bike_id":"42c86f43-9a41-4060-bf23-6f5c04353e70","system_id":"levelo_inurba_marseille","lat":43.28266,"lon":5.35064,"is_reserved":false,"is_disabled":false,"rental_uris":{"android":"levelo://app?vid=42c86f43-9a41-4060-bf23-6f5c04353e70","ios":"levelo://app?vid=42c86f43-9a41-4060-bf23-6f5c04353e70"},"vehicle_type_id":"4","last_reported":1720973285,"current_range_meters":0,"station_id":"ce4bhbp2rcd13ifvqerg","pricing_plan_id":"cebpf4jnsgd1na2vs0mg"},{"bike_id":"2466a04b-fda2-42c8-a0e7-1800c5c97e6b","system_id":"levelo_inurba_marseille","lat":43.28264,"lon":5.35067,"is_reserved":false,"is_disabled":false,"rental_uris":{"android":"levelo://app?vid=2466a04b-fda2-42c8-a0e7-1800c5c97e6b","ios":"levelo://app?vid=2466a04b-fda2-42c8-a0e7-1800c5c97e6b"},"vehicle_type_id":"4","last_reported":1720973285,"current_range_meters":0,"station_id":"ce4bhbp2rcd13ifvqerg","pricing_plan_id":"cebpf4jnsgd1na2vs0mg"},{"bike_id":"e3a4fea9-de80-48a1-b019-dc03d75f668d","system_id":"levelo_inurba_marseille","lat":43.28263,"lon":5.35069,"is_reserved":false,"is_disabled":false,"rental_uris":{"android":"levelo://app?vid=e3a4fea9-de80-48a1-b019-dc03d75f668d","ios":"levelo://app?vid=e3a4fea9-de80-48a1-b019-dc03d75f668d"},"vehicle_type_id":"4","last_reported":1720973285,"current_range_meters":0,"station_id":"ce4bhbp2rcd13ifvqerg","pricing_plan_id":"cebpf4jnsgd1na2vs0mg"},{"bike_id":"716eb6d8-7c19-4486-ad25-3f4d9f1a2ea0","system_id":"levelo_inurba_marseille","lat":43.283502,"lon":5.386471,"is_reserved":false,"is_disabled":false,"rental_uris":{"android":"levelo://app?vid=716eb6d8-7c19-4486-ad25-3f4d9f1a2ea0","ios":"levelo://app?vid=716eb6d8-7c19-4486-ad25-3f4d9f1a2ea0"},"vehicle_type_id":"4","last_reported":1720973285,"current_range_meters":14000,"station_id":"ce4bh492rcd13ifvqdvg","pricing_plan_id":"cebpf4jnsgd1na2vs0mg"},{"bike_id":"274a8a45-27eb-436a-b094-59c976d64779","system_id":"levelo_inurba_marseille","lat":43.28039,"lon":5.369297,"is_reserved":false,"is_disabled":false,"rental_uris":{"android":"levelo://app?vid=274a8a45-27eb-436a-b094-59c976d64779","ios":"levelo://app?vid=274a8a45-27eb-436a-b094-59c976d64779"},"vehicle_type_id":"4","last_reported":1720973285,"current_range_meters":24000,"station_id":"ce4bha12rcd13ifvqef0","pricing_plan_id":"cebpf4jnsgd1na2vs0mg"},{"bike_id":"6c9508c6-6fe9-4923-bbe8-f78e363c9689","system_id":"levelo_inurba_marseille","lat":43.28262,"lon":5.35062,"is_reserved":false,"is_disabled":false,"rental_uris":{"android":"levelo://app?vid=6c9508c6-6fe9-4923-bbe8-f78e363c9689","ios":"levelo://app?vid=6c9508c6-6fe9-4923-bbe8-f78e363c9689"},"vehicle_type_id":"4","last_reported":1720973285,"current_range_meters":0,"station_id":"ce4bhbp2rcd13ifvqerg","pricing_plan_id":"cebpf4jnsgd1na2vs0mg"},{"bike_id":"475522fe-dc15-49b9-9a01-297776d2a366","system_id":"levelo_inurba_marseille","lat":43.28258,"lon":5.35069,"is_reserved":false,"is_disabled":false,"rental_uris":{"android":"levelo://app?vid=475522fe-dc15-49b9-9a01-297776d2a366","ios":"levelo://app?vid=475522fe-dc15-49b9-9a01-297776d2a366"},"vehicle_type_id":"4","last_reported":1720973285,"current_range_meters":0,"station_id":"ce4bhbp2rcd13ifvqerg","pricing_plan_id":"cebpf4jnsgd1na2vs0mg"},{"bike_id":"bd88d20d-c07c-4653-98db-7d23af5e0318","system_id":"levelo_inurba_marseille","lat":43.28039,"lon":5.369297,"is_reserved":false,"is_disabled":false,"rental_uris":{"android":"levelo://app?vid=bd88d20d-c07c-4653-98db-7d23af5e0318","ios":"levelo://app?vid=bd88d20d-c07c-4653-98db-7d23af5e0318"},"vehicle_type_id":"4","last_reported":1720973285,"current_range_meters":0,"station_id":"ce4bha12rcd13ifvqef0","pricing_plan_id":"cebpf4jnsgd1na2vs0mg"},{"bike_id":"458cbab6-7624-4ac7-bac8-138fbf2b0d8a","system_id":"levelo_inurba_marseille","lat":43.282586,"lon":5.350639,"is_reserved":false,"is_disabled":false,"rental_uris":{"android":"levelo://app?vid=458cbab6-7624-4ac7-bac8-138fbf2b0d8a","ios":"levelo://app?vid=458cbab6-7624-4ac7-bac8-138fbf2b0d8a"},"vehicle_type_id":"4","last_reported":1720973285,"current_range_meters":0,"station_id":"ce4bhbp2rcd13ifvqerg","pricing_plan_id":"cebpf4jnsgd1na2vs0mg"},{"bike_id":"93254b76-3968-4143-bb8c-b4405713d336","system_id":"levelo_inurba_marseille","lat":43.28039,"lon":5.369297,"is_reserved":false,"is_disabled":false,"rental_uris":{"android":"levelo://app?vid=93254b76-3968-4143-bb8c-b4405713d336","ios":"levelo://app?vid=93254b76-3968-4143-bb8c-b4405713d336"},"vehicle_type_id":"4","last_reported":1720973285,"current_range_meters":4000,"station_id":"ce4bha12rcd13ifvqef0","pricing_plan_id":"cebpf4jnsgd1na2vs0mg"},{"bike_id":"5f0435cc-55d4-4e6a-875c-9090800f97ec","system_id":"levelo_inurba_marseille","lat":43.281044,"lon":5.378308,"is_reserved":false,"is_disabled":false,"rental_uris":{"android":"levelo://app?vid=5f0435cc-55d4-4e6a-875c-9090800f97ec","ios":"levelo://app?vid=5f0435cc-55d4-4e6a-875c-9090800f97ec"},"vehicle_type_id":"4","last_reported":1720973285,"current_range_meters":15600,"station_id":"ce4bha12rcd13ifvqee0","pricing_plan_id":"cebpf4jnsgd1na2vs0mg"},{"bike_id":"daaeb4d5-542b-4881-a835-b7f951cbf892","system_id":"levelo_inurba_marseille","lat":43.296263,"lon":5.40601,"is_reserved":false,"is_disabled":false,"rental_uris":{"android":"levelo://app?vid=daaeb4d5-542b-4881-a835-b7f951cbf892","ios":"levelo://app?vid=daaeb4d5-542b-4881-a835-b7f951cbf892"},"vehicle_type_id":"4","last_reported":1720973285,"current_range_meters":13600,"station_id":"ce4bh0h2rcd13ifvqd60","pricing_plan_id":"cebpf4jnsgd1na2vs0mg"},{"bike_id":"5fed059e-1f69-4f48-92a7-f6b4f5eb6dc3","system_id":"levelo_inurba_marseille","lat":43.340715,"lon":5.390888,"is_reserved":false,"is_disabled":false,"rental_uris":{"android":"levelo://app?vid=5fed059e-1f69-4f48-92a7-f6b4f5eb6dc3","ios":"levelo://app?vid=5fed059e-1f69-4f48-92a7-f6b4f5eb6dc3"},"vehicle_type_id":"4","last_reported":1720973285,"current_range_meters":14400,"station_id":"","pricing_plan_id":"cebpf4jnsgd1na2vs0mg"},{"bike_id":"80c3aed6-65df-474b-8af8-b8076a14b59b","system_id":"levelo_inurba_marseille","lat":43.284462,"lon":5.392121,"is_reserved":false,"is_disabled":false,"rental_uris":{"android":"levelo://app?vid=80c3aed6-65df-474b-8af8-b8076a14b59b","ios":"levelo://app?vid=80c3aed6-65df-474b-8af8-b8076a14b59b"},"vehicle_type_id":"4","last_reported":1720973285,"current_range_meters":22000,"station_id":"ce4bhoh2rcd13ifvqh5g","pricing_plan_id":"cebpf4jnsgd1na2vs0mg"},{"bike_id":"43a0147d-60c1-40a3-ae9a-834940ff7628","system_id":"levelo_inurba_marseille","lat":43.285742,"lon":5.395004,"is_reserved":false,"is_disabled":false,"rental_uris":{"android":"levelo://app?vid=43a0147d-60c1-40a3-ae9a-834940ff7628","ios":"levelo://app?vid=43a0147d-60c1-40a3-ae9a-834940ff7628"},"vehicle_type_id":"4","last_reported":1720973285,"current_range_meters":3600,"station_id":"ce4bh292rcd13ifvqdg0","pricing_plan_id":"cebpf4jnsgd1na2vs0mg"},{"bike_id":"b1100bf4-37f6-474d-8567-831256cb410d","system_id":"levelo_inurba_marseille","lat":43.326605,"lon":5.409903,"is_reserved":false,"is_disabled":false,"rental_uris":{"android":"levelo://app?vid=b1100bf4-37f6-474d-8567-831256cb410d","ios":"levelo://app?vid=b1100bf4-37f6-474d-8567-831256cb410d"},"vehicle_type_id":"4","last_reported":1720973285,"current_range_meters":0,"station_id":"ce4bhpp2rcd13ifvqhgg","pricing_plan_id":"cebpf4jnsgd1na2vs0mg"},{"bike_id":"d3ff4a27-a638-44cb-8f41-2f1c57ba44c2","system_id":"levelo_inurba_marseille","lat":43.326605,"lon":5.409903,"is_reserved":false,"is_disabled":false,"rental_uris":{"android":"levelo://app?vid=d3ff4a27-a638-44cb-8f41-2f1c57ba44c2","ios":"levelo://app?vid=d3ff4a27-a638-44cb-8f41-2f1c57ba44c2"},"vehicle_type_id":"4","last_reported":1720973285,"current_range_meters":27600,"station_id":"ce4bhpp2rcd13ifvqhgg","pricing_plan_id":"cebpf4jnsgd1na2vs0mg"},{"bike_id":"075192ec-400a-4527-a25a-21761af2906d","system_id":"levelo_inurba_marseille","lat":43.32658,"lon":5.40994,"is_reserved":false,"is_disabled":false,"rental_uris":{"android":"levelo://app?vid=075192ec-400a-4527-a25a-21761af2906d","ios":"levelo://app?vid=075192ec-400a-4527-a25a-21761af2906d"},"vehicle_type_id":"4","last_reported":1720973285,"current_range_meters":0,"station_id":"ce4bhpp2rcd13ifvqhgg","pricing_plan_id":"cebpf4jnsgd1na2vs0mg"},{"bike_id":"d9957ba7-624a-4ca9-be14-ac08d8fc0c4e","system_id":"levelo_inurba_marseille","lat":43.279087,"lon":5.380114,"is_reserved":false,"is_disabled":false,"rental_uris":{"android":"levelo://app?vid=d9957ba7-624a-4ca9-be14-ac08d8fc0c4e","ios":"levelo://app?vid=d9957ba7-624a-4ca9-be14-ac08d8fc0c4e"},"vehicle_type_id":"4","last_reported":1720973285,"current_range_meters":2000,"station_id":"ce4bhf92rcd13ifvqf50","pricing_plan_id":"cebpf4jnsgd1na2vs0mg"},{"bike_id":"fcf90474-6953-42aa-9fec-a7cde6a59839","system_id":"levelo_inurba_marseille","lat":43.320604,"lon":5.415443,"is_reserved":false,"is_disabled":false,"rental_uris":{"android":"levelo://app?vid=fcf90474-6953-42aa-9fec-a7cde6a59839","ios":"levelo://app?vid=fcf90474-6953-42aa-9fec-a7cde6a59839"},"vehicle_type_id":"4","last_reported":1720973285,"current_range_meters":400,"station_id":"ce4bhq92rcd13ifvqhkg","pricing_plan_id":"cebpf4jnsgd1na2vs0mg"},{"bike_id":"17af066b-23f3-4797-824a-57cddcb4f6e9","system_id":"levelo_inurba_marseille","lat":43.320045,"lon":5.415046,"is_reserved":false,"is_disabled":false,"rental_uris":{"android":"levelo://app?vid=17af066b-23f3-4797-824a-57cddcb4f6e9","ios":"levelo://app?vid=17af066b-23f3-4797-824a-57cddcb4f6e9"},"vehicle_type_id":"4","last_reported":1720973285,"current_range_meters":29600,"station_id":"ce4bhq92rcd13ifvqhkg","pricing_plan_id":"cebpf4jnsgd1na2vs0mg"},{"bike_id":"40c2b573-c52b-4392-925a-b68ba2c35784","system_id":"levelo_inurba_marseille","lat":43.28108,"lon":5.39101,"is_reserved":false,"is_disabled":false,"rental_uris":{"android":"levelo://app?vid=40c2b573-c52b-4392-925a-b68ba2c35784","ios":"levelo://app?vid=40c2b573-c52b-4392-925a-b68ba2c35784"},