{"last_updated":1706465249,"ttl":30,"version":"2.2","data":{"bikes":[{"bike_id":"26eb7c4c-d820-4609-a57f-4739d1caec33","system_id":"levelo_inurba_marseille","lat":43.31341,"lon":5.367098,"is_reserved":false,"is_disabled":false,"rental_uris":{"android":"levelo://app?vid=26eb7c4c-d820-4609-a57f-4739d1caec33","ios":"levelo://app?vid=26eb7c4c-d820-4609-a57f-4739d1caec33"},"vehicle_type_id":"4","last_reported":1706465249,"current_range_meters":29600,"station_id":"ce4bgr92rcd13ifvqc6g","pricing_plan_id":"free"},{"bike_id":"c30aa6a0-4388-407a-aa5a-ad5e70411a1b","system_id":"levelo_inurba_marseille","lat":43.312239,"lon":5.368562,"is_reserved":false,"is_disabled":false,"rental_uris":{"android":"levelo://app?vid=c30aa6a0-4388-407a-aa5a-ad5e70411a1b","ios":"levelo://app?vid=c30aa6a0-4388-407a-aa5a-ad5e70411a1b"},"vehicle_type_id":"4","last_reported":1706465249,"current_range_meters":10400,"station_id":"ce4bgl92rcd13ifvqbq0","pricing_plan_id":"free"},{"bike_id":"405bc2a4-b300-47da-aac0-92d6a74d222b","system_id":"levelo_inurba_marseille","lat":43.312239,"lon":5.368562,"is_reserved":false,"is_disabled":false,"rental_uris":{"android":"levelo://app?vid=405bc2a4-b300-47da-aac0-92d6a74d222b","ios":"levelo://app?vid=405bc2a4-b300-47da-aac0-92d6a74d222b"},"vehicle_type_id":"4","last_reported":1706465249,"current_range_meters":18400,"station_id":"ce4bgl92rcd13ifvqbq0","pricing_plan_id":"free"},{"bike_id":"95a70667-a9aa-4756-b96b-4b7177a64521","system_id":"levelo_inurba_marseille","lat":43.312239,"lon":5.368562,"is_reserved":false,"is_disabled":false,"rental_uris":{"android":"levelo://app?vid=95a70667-a9aa-4756-b96b-4b7177a64521","ios":"levelo://app?vid=95a70667-a9aa-4756-b96b-4b7177a64521"},"vehicle_type_id":"4","last_reported":1706465249,"current_range_meters":19600,"station_id":"ce4bgl92rcd13ifvqbq0","pricing_plan_id":"free"},{"bike_id":"b5c87cb0-8b67-483c-b86a-6297eb440102","system_id":"levelo_inurba_marseille","lat":43.312239,"lon":5.368562,"is_reserved":false,"is_disabled":false,"rental_uris":{"android":"levelo://app?vid=b5c87cb0-8b67-483c-b86a-6297eb440102","ios":"levelo://app?vid=b5c87cb0-8b67-483c-b86a-6297eb440102"},"vehicle_type_id":"4","last_reported":1706465249,"current_range_meters":7200,"station_id":"ce4bgl92rcd13ifvqbq0","pricing_plan_id":"free"},{"bike_id":"735165c4-64c4-4b08-bb51-409503b731c5","system_id":"levelo_inurba_marseille","lat":43.312239,"lon":5.368562,"is_reserved":false,"is_disabled":false,"rental_uris":{"android":"levelo://app?vid=735165c4-64c4-4b08-bb51-409503b731c5","ios":"levelo://app?vid=735165c4-64c4-4b08-bb51-409503b731c5"},"vehicle_type_id":"4","last_reported":1706465249,"current_range_meters":29600,"station_id":"ce4bgl92rcd13ifvqbq0","pricing_plan_id":"free"},{"bike_id":"7dd3ff27-4e87-4cff-859a-d94a428d0541","system_id":"levelo_inurba_marseille","lat":43.31211,"lon":5.36859,"is_reserved":false,"is_disabled":false,"rental_uris":{"android":"levelo://app?vid=7dd3ff27-4e87-4cff-859a-d94a428d0541","ios":"levelo://app?vid=7dd3ff27-4e87-4cff-859a-d94a428d0541"},"vehicle_type_id":"4","last_reported":1706465249,"current_range_meters":19200,"station_id":"ce4bgl92rcd13ifvqbq0","pricing_plan_id":"free"},{"bike_id":"87969482-ecf5-4667-ab16-c7284f59cc23","system_id":"levelo_inurba_marseille","lat":43.309076,"lon":5.368465,"is_reserved":false,"is_disabled":false,"rental_uris":{"android":"levelo://app?vid=87969482-ecf5-4667-ab16-c7284f59cc23","ios":"levelo://app?vid=87969482-ecf5-4667-ab16-c7284f59cc23"},"vehicle_type_id":"4","last_reported":1706465249,"current_range_meters":14000,"station_id":"ce4bgn92rcd13ifvqbvg","pricing_plan_id":"free"},{"bike_id":"8459d3f1-3b3b-4465-9b5e-90b85a407091","system_id":"levelo_inurba_marseille","lat":43.31494,"lon":5.37295,"is_reserved":false,"is_disabled":false,"rental_uris":{"android":"levelo://app?vid=8459d3f1-3b3b-4465-9b5e-90b85a407091","ios":"levelo://app?vid=8459d3f1-3b3b-4465-9b5e-90b85a407091"},"vehicle_type_id":"4","last_reported":1706465249,"current_range_meters":0,"station_id":"ce4bgt12rcd13ifvqcd0","pricing_plan_id":"free"},{"bike_id":"e1a2642b-bdbe-4842-908f-44aea2784812","system_id":"levelo_inurba_marseille","lat":43.314811,"lon":5.373103,"is_reserved":false,"is_disabled":false,"rental_uris":{"android":"levelo://app?vid=e1a2642b-bdbe-4842-908f-44aea2784812","ios":"levelo://app?vid=e1a2642b-bdbe-4842-908f-44aea2784812"},"vehicle_type_id":"4","last_reported":1706465249,"current_range_meters":18000,"station_id":"ce4bgt12rcd13ifvqcd0","pricing_plan_id":"free"},{"bike_id":"9bd95e53-94dd-4ba3-88c0-8c8188e6465b","system_id":"levelo_inurba_marseille","lat":43.31864,"lon":5.36887,"is_reserved":false,"is_disabled":false,"rental_uris":{"android":"levelo://app?vid=9bd95e53-94dd-4ba3-88c0-8c8188e6465b","ios":"levelo://app?vid=9bd95e53-94dd-4ba3-88c0-8c8188e6465b"},"vehicle_type_id":"4","last_reported":1706465249,"current_range_meters":17200,"station_id":"","pricing_plan_id":"free"},{"bike_id":"446711bf-db18-40cd-8452-7f624eed7464","system_id":"levelo_inurba_marseille","lat":43.305368,"lon":5.367343,"is_reserved":false,"is_disabled":false,"rental_uris":{"android":"levelo://app?vid=446711bf-db18-40cd-8452-7f624eed7464","ios":"levelo://app?vid=446711bf-db18-40cd-8452-7f624eed7464"},"vehicle_type_id":"4","last_reported":1706465249,"current_range_meters":7600,"station_id":"ce4bgrp2rcd13ifvqc9g","pricing_plan_id":"free"},{"bike_id":"e31190af-aaa7-4596-b45c-0493d171ac18","system_id":"levelo_inurba_marseille","lat":43.305989,"lon":5.37225,"is_reserved":false,"is_disabled":false,"rental_uris":{"android":"levelo://app?vid=e31190af-aaa7-4596-b45c-0493d171ac18","ios":"levelo://app?vid=e31190af-aaa7-4596-b45c-0493d171ac18"},"vehicle_type_id":"4","last_reported":1706465249,"current_range_meters":13600,"station_id":"ce4bgqh2rcd13ifvqc4g","pricing_plan_id":"free"},{"bike_id":"6f36cedb-349e-4a0e-b16b-800ff6153d47","system_id":"levelo_inurba_marseille","lat":43.305989,"lon":5.37225,"is_reserved":false,"is_disabled":false,"rental_uris":{"android":"levelo://app?vid=6f36cedb-349e-4a0e-b16b-800ff6153d47","ios":"levelo://app?vid=6f36cedb-349e-4a0e-b16b-800ff6153d47"},"vehicle_type_id":"4","last_reported":1706465249,"current_range_meters":15600,"station_id":"ce4bgqh2rcd13ifvqc4g","pricing_plan_id":"free"},{"bike_id":"0bfd7e52-23db-4c25-94ac-f5e16c0edd46","system_id":"levelo_inurba_marseille","lat":43.305989,"lon":5.37225,"is_reserved":false,"is_disabled":false,"rental_uris":{"android":"levelo://app?vid=0bfd7e52-23db-4c25-94ac-f5e16c0edd46","ios":"levelo://app?vid=0bfd7e52-23db-4c25-94ac-f5e16c0edd46"},"vehicle_type_id":"4","last_reported":1706465249,"current_range_meters":11600,"station_id":"ce4bgqh2rcd13ifvqc4g","pricing_plan_id":"free"},{"bike_id":"5ad5d930-f70a-47bc-bd5c-c5fa923bcb09","system_id":"levelo_inurba_marseille","lat":43.305989,"lon":5.37225,"is_reserved":false,"is_disabled":false,"rental_uris":{"android":"levelo://app?vid=5ad5d930-f70a-47bc-bd5c-c5fa923bcb09","ios":"levelo://app?vid=5ad5d930-f70a-47bc-bd5c-c5fa923bcb09"},"vehicle_type_id":"4","last_reported":1706465249,"current_range_meters":8400,"station_id":"ce4bgqh2rcd13ifvqc4g","pricing_plan_id":"free"},{"bike_id":"96e1ab46-776f-4470-80d9-8769522d71d4","system_id":"levelo_inurba_marseille","lat":43.305989,"lon":5.37225,"is_reserved":false,"is_disabled":false,"rental_uris":{"android":"levelo://app?vid=96e1ab46-776f-4470-80d9-8769522d71d4","ios":"levelo://app?vid=96e1ab46-776f-4470-80d9-8769522d71d4"},"vehicle_type_id":"4","last_reported":1706465249,"current_range_meters":28800,"station_id":"ce4bgqh2rcd13ifvqc4g","pricing_plan_id":"free"},{"bike_id":"d7871c13-b812-4ed2-b2b7-223d52bcd80b","system_id":"levelo_inurba_marseille","lat":43.305989,"lon":5.37225,"is_reserved":false,"is_disabled":false,"rental_uris":{"android":"levelo://app?vid=d7871c13-b812-4ed2-b2b7-223d52bcd80b","ios":"levelo://app?vid=d7871c13-b812-4ed2-b2b7-223d52bcd80b"},"vehicle_type_id":"4","last_reported":1706465249,"current_range_meters":21200,"station_id":"ce4bgqh2rcd13ifvqc4g","pricing_plan_id":"free"},{"bike_id":"39a2f88b-4cde-4b0b-97d6-8abbe4e6d936","system_id":"levelo_inurba_marseille","lat":43.305989,"lon":5.37225,"is_reserved":false,"is_disabled":false,"rental_uris":{"android":"levelo://app?vid=39a2f88b-4cde-4b0b-97d6-8abbe4e6d936","ios":"levelo://app?vid=39a2f88b-4cde-4b0b-97d6-8abbe4e6d936"},"vehicle_type_id":"4","last_reported":1706465249,"current_range_meters":29200,"station_id":"ce4bgqh2rcd13ifvqc4g","pricing_plan_id":"free"},{"bike_id":"8751b475-3c5e-47a4-8e18-6674f1f367eb","system_id":"levelo_inurba_marseille","lat":43.305989,"lon":5.37225,"is_reserved":false,"is_disabled":false,"rental_uris":{"android":"levelo://app?vid=8751b475-3c5e-47a4-8e18-6674f1f367eb","ios":"levelo://app?vid=8751b475-3c5e-47a4-8e18-6674f1f367eb"},"vehicle_type_id":"4","last_reported":1706465249,"current_range_meters":6000,"station_id":"ce4bgqh2rcd13ifvqc4g","pricing_plan_id":"free"},{"bike_id":"efe6323a-a422-45a9-a0d3-237bd7ae51ef","system_id":"levelo_inurba_marseille","lat":43.307785,"lon":5.376445,"is_reserved":false,"is_disabled":false,"rental_uris":{"android":"levelo://app?vid=efe6323a-a422-45a9-a0d3-237bd7ae51ef","ios":"levelo://app?vid=efe6323a-a422-45a9-a0d3-237bd7ae51ef"},"vehicle_type_id":"4","last_reported":1706465249,"current_range_meters":5200,"station_id":"ce4bgv92rcd13ifvqcq0","pricing_plan_id":"free"},{"bike_id":"dd76c2e5-a3fa-4485-925d-b52a2f624e9a","system_id":"levelo_inurba_marseille","lat":43.317075,"lon":5.377367,"is_reserved":false,"is_disabled":false,"rental_uris":{"android":"levelo://app?vid=dd76c2e5-a3fa-4485-925d-b52a2f624e9a","ios":"levelo://app?vid=dd76c2e5-a3fa-4485-925d-b52a2f624e9a"},"vehicle_type_id":"4","last_reported":1706465249,"current_range_meters":0,"station_id":"ce4bgth2rcd13ifvqch0","pricing_plan_id":"free"},{"bike_id":"6156a903-1c6b-4db5-a0fa-e24965dd5f29","system_id":"levelo_inurba_marseille","lat":43.317075,"lon":5.377367,"is_reserved":false,"is_disabled":false,"rental_uris":{"android":"levelo://app?vid=6156a903-1c6b-4db5-a0fa-e24965dd5f29","ios":"levelo://app?vid=6156a903-1c6b-4db5-a0fa-e24965dd5f29"},"vehicle_type_id":"4","last_reported":1706465249,"current_range_meters":22400,"station_id":"ce4bgth2rcd13ifvqch0","pricing_plan_id":"free"},{"bike_id":"6fff0b7d-2514-4e0c-a138-b6e9cb85be95","system_id":"levelo_inurba_marseille","lat":43.317075,"lon":5.377367,"is_reserved":false,"is_disabled":false,"rental_uris":{"android":"levelo://app?vid=6fff0b7d-2514-4e0c-a138-b6e9cb85be95","ios":"levelo://app?vid=6fff0b7d-2514-4e0c-a138-b6e9cb85be95"},"vehicle_type_id":"4","last_reported":1706465249,"current_range_meters":31600,"station_id":"ce4bgth2rcd13ifvqch0","pricing_plan_id":"free"},{"bike_id":"bf70306f-e475-47ca-8724-a7e42b25d923","system_id":"levelo_inurba_marseille","lat":43.317075,"lon":5.377367,"is_reserved":false,"is_disabled":false,"rental_uris":{"android":"levelo://app?vid=bf70306f-e475-47ca-8724-a7e42b25d923","ios":"levelo://app?vid=bf70306f-e475-47ca-8724-a7e42b25d923"},"vehicle_type_id":"4","last_reported":1706465249,"current_range_meters":31200,"station_id":"ce4bgth2rcd13ifvqch0","pricing_plan_id":"free"},{"bike_id":"b83daeb9-a39c-4884-86e2-16a37c651f7f","system_id":"levelo_inurba_marseille","lat":43.31999,"lon":5.37626,"is_reserved":false,"is_disabled":false,"rental_uris":{"android":"levelo://app?vid=b83daeb9-a39c-4884-86e2-16a37c651f7f","ios":"levelo://app?vid=b83daeb9-a39c-4884-86e2-16a37c651f7f"},"vehicle_type_id":"4","last_reported":1706465249,"current_range_meters":5200,"station_id":"","pricing_plan_id":"free"},{"bike_id":"8d33dfa5-b21c-4793-abd9-67d093c9b10e","system_id":"levelo_inurba_marseille","lat":43.31528,"lon":5.38034,"is_reserved":false,"is_disabled":false,"rental_uris":{"android":"levelo://app?vid=8d33dfa5-b21c-4793-abd9-67d093c9b10e","ios":"levelo://app?vid=8d33dfa5-b21c-4793-abd9-67d093c9b10e"},"vehicle_type_id":"4","last_reported":1706465249,"current_range_meters":12400,"station_id":"ce4bhsp2rcd13ifvqi50","pricing_plan_id":"free"},{"bike_id":"5433676f-7486-459e-a119-0d57b95846ab","system_id":"levelo_inurba_marseille","lat":43.30155,"lon":5.36974,"is_reserved":false,"is_disabled":false,"rental_uris":{"android":"levelo://app?vid=5433676f-7486-459e-a119-0d57b95846ab","ios":"levelo://app?vid=5433676f-7486-459e-a119-0d57b95846ab"},"vehicle_type_id":"4","last_reported":1706465249,"current_range_meters":8400,"station_id":"","pricing_plan_id":"free"},{"bike_id":"4c4b8ab9-5ef1-420c-9390-c3e236e87d90","system_id":"levelo_inurba_marseille","lat":43.324771,"lon":5.36557,"is_reserved":false,"is_disabled":false,"rental_uris":{"android":"levelo://app?vid=4c4b8ab9-5ef1-420c-9390-c3e236e87d90","ios":"levelo://app?vid=4c4b8ab9-5ef1-420c-9390-c3e236e87d90"},"vehicle_type_id":"4","last_reported":1706465249,"current_range_meters":4800,"station_id":"ce4bhs12rcd13ifvqhvg","pricing_plan_id":"free"},{"bike_id":"dc00bdf8-dc57-4b02-8d44-8ea4906debe3","system_id":"levelo_inurba_marseille","lat":43.324771,"lon":5.36557,"is_reserved":false,"is_disabled":false,"rental_uris":{"android":"levelo://app?vid=dc00bdf8-dc57-4b02-8d44-8ea4906debe3","ios":"levelo://app?vid=dc00bdf8-dc57-4b02-8d44-8ea4906debe3"},"vehicle_type_id":"4","last_reported":1706465249,"current_range_meters":16800,"station_id":"ce4bhs12rcd13ifvqhvg","pricing_plan_id":"free"},{"bike_id":"4e8e7e9f-0e12-415e-9f8a-232c8717aa9d","system_id":"levelo_inurba_marseille","lat":43.319935,"lon":5.381699,"is_reserved":false,"is_disabled":false,"rental_uris":{"android":"levelo://app?vid=4e8e7e9f-0e12-415e-9f8a-232c8717aa9d","ios":"levelo://app?vid=4e8e7e9f-0e12-415e-9f8a-232c8717aa9d"},"vehicle_type_id":"4","last_reported":1706465249,"current_range_meters":23200,"station_id":"ce4bhr12rcd13ifvqhpg","pricing_plan_id":"free"},{"bike_id":"62ed45dc-d563-4611-b75b-b1cc2271bbf9","system_id":"levelo_inurba_marseille","lat":43.313571,"lon":5.384829,"is_reserved":false,"is_disabled":false,"rental_uris":{"android":"levelo://app?vid=62ed45dc-d563-4611-b75b-b1cc2271bbf9","ios":"levelo://app?vid=62ed45dc-d563-4611-b75b-b1cc2271bbf9"},"vehicle_type_id":"4","last_reported":1706465249,"current_range_meters":21200,"station_id":"ce4bgt92rcd13ifvqcf0","pricing_plan_id":"free"},{"bike_id":"cccb1fd7-ca71-4e08-aba9-a15673b3a3b4","system_id":"levelo_inurba_marseille","lat":43.313571,"lon":5.384829,"is_reserved":false,"is_disabled":false,"rental_uris":{"android":"levelo://app?vid=cccb1fd7-ca71-4e08-aba9-a15673b3a3b4","ios":"levelo://app?vid=cccb1fd7-ca71-4e08-aba9-a15673b3a3b4"},"vehicle_type_id":"4","last_reported":1706465249,"current_range_meters":20800,"station_id":"ce4bgt92rcd13ifvqcf0","pricing_plan_id":"free"},{"bike_id":"59ccad5a-9ac7-4472-a0c3-a6d8d3d2dfc0","system_id":"levelo_inurba_marseille","lat":43.299222,"lon":5.365554,"is_reserved":false,"is_disabled":false,"rental_uris":{"android":"levelo://app?vid=59ccad5a-9ac7-4472-a0c3-a6d8d3d2dfc0","ios":"levelo://app?vid=59ccad5a-9ac7-4472-a0c3-a6d8d3d2dfc0"},"vehicle_type_id":"4","last_reported":1706465249,"current_range_meters":800,"station_id":"ce4bgm92rcd13ifvqbr0","pricing_plan_id":"free"},{"bike_id":"c0df3c0a-296c-4b38-a34c-185f8e157311","system_id":"levelo_inurba_marseille","lat":43.311722,"lon":5.387247,"is_reserved":false,"is_disabled":false,"rental_uris":{"android":"levelo://app?vid=c0df3c0a-296c-4b38-a34c-185f8e157311","ios":"levelo://app?vid=c0df3c0a-296c-4b38-a34c-185f8e157311"},"vehicle_type_id":"4","last_reported":1706465249,"current_range_meters":21600,"station_id":"ce4bgv12rcd13ifvqcp0","pricing_plan_id":"free"},{"bike_id":"2a8bd778-12ff-4720-99f0-52a6b48afc01","system_id":"levelo_inurba_marseille","lat":43.298433,"lon":5.362774,"is_reserved":false,"is_disabled":false,"rental_uris":{"android":"levelo://app?vid=2a8bd778-12ff-4720-99f0-52a6b48afc01","ios":"levelo://app?vid=2a8bd778-12ff-4720-99f0-52a6b48afc01"},"vehicle_type_id":"4","last_reported":1706465249,"current_range_meters":800,"station_id":"ce4bgpp2rcd13ifvqc3g","pricing_plan_id":"free"},{"bike_id":"f2bcc877-0e3d-4ce0-b0bf-a0f5f9302046","system_id":"levelo_inurba_marseille","lat":43.311722,"lon":5.387247,"is_reserved":false,"is_disabled":false,"rental_uris":{"android":"levelo://app?vid=f2bcc877-0e3d-4ce0-b0bf-a0f5f9302046","ios":"levelo://app?vid=f2bcc877-0e3d-4ce0-b0bf-a0f5f9302046"},"vehicle_type_id":"4","last_reported":1706465249,"current_range_meters":4800,"station_id":"ce4bgv12rcd13ifvqcp0","pricing_plan_id":"free"},{"bike_id":"e9167fff-615c-4fd4-a7ed-ddeeb623a256","system_id":"levelo_inurba_marseille","lat":43.297794,"lon":5.370888,"is_reserved":false,"is_disabled":false,"rental_uris":{"android":"levelo://app?vid=e9167fff-615c-4fd4-a7ed-ddeeb623a256","ios":"levelo://app?vid=e9167fff-615c-4fd4-a7ed-ddeeb623a256"},"vehicle_type_id":"4","last_reported":1706465249,"current_range_meters":26400,"station_id":"ce4bgop2rcd13ifvqc1g","pricing_plan_id":"free"},{"bike_id":"e1539f0d-02e3-46ca-8fd2-b115fd55a782","system_id":"levelo_inurba_marseille","lat":43.322872,"lon":5.382756,"is_reserved":false,"is_disabled":false,"rental_uris":{"android":"levelo://app?vid=e1539f0d-02e3-46ca-8fd2-b115fd55a782","ios":"levelo://app?vid=e1539f0d-02e3-46ca-8fd2-b115fd55a782"},"vehicle_type_id":"4","last_reported":1706465249,"current_range_meters":24000,"station_id":"ce4bhr12rcd13ifvqhqg","pricing_plan_id":"free"},{"bike_id":"9f9b4b90-bdbb-4ce1-adb6-03f6c8f005be","system_id":"levelo_inurba_marseille","lat":43.32823,"lon":5.3665,"is_reserved":false,"is_disabled":false,"rental_uris":{"android":"levelo://app?vid=9f9b4b90-bdbb-4ce1-adb6-03f6c8f005be","ios":"levelo://app?vid=9f9b4b90-bdbb-4ce1-adb6-03f6c8f005be"},"vehicle_type_id":"4","last_reported":1706465249,"current_range_meters":13600,"station_id":"ce4bhs92rcd13ifvqi0g","pricing_plan_id":"free"},{"bike_id":"af1c8fc0-8183-4d68-848c-9159b1d2bf45","system_id":"levelo_inurba_marseille","lat":43.328371,"lon":5.366909,"is_reserved":false,"is_disabled":false,"rental_uris":{"android":"levelo://app?vid=af1c8fc0-8183-4d68-848c-9159b1d2bf45","ios":"levelo://app?vid=af1c8fc0-8183-4d68-848c-9159b1d2bf45"},"vehicle_type_id":"4","last_reported":1706465249,"current_range_meters":9200,"station_id":"ce4bhs92rcd13ifvqi0g","pricing_plan_id":"free"},{"bike_id":"bc53ba99-b807-415f-909d-56f38a2b6d95","system_id":"levelo_inurba_marseille","lat":43.32826,"lon":5.36683,"is_reserved":false,"is_disabled":false,"rental_uris":{"android":"levelo://app?vid=bc53ba99-b807-415f-909d-56f38a2b6d95","ios":"levelo://app?vid=bc53ba99-b807-415f-909d-56f38a2b6d95"},"vehicle_type_id":"4","last_reported":1706465249,"current_range_meters":1200,"station_id":"ce4bhs92rcd13ifvqi0g","pricing_plan_id":"free"},{"bike_id":"0f7b98a3-6434-4866-adac-ccd99f91e009","system_id":"levelo_inurba_marseille","lat":43.32827,"lon":5.36678,"is_reserved":false,"is_disabled":false,"rental_uris":{"android":"levelo://app?vid=0f7b98a3-6434-4866-adac-ccd99f91e009","ios":"levelo://app?vid=0f7b98a3-6434-4866-adac-ccd99f91e009"},"vehicle_type_id":"4","last_reported":1706465249,"current_range_meters":400,"station_id":"ce4bhs92rcd13ifvqi0g","pricing_plan_id":"free"},{"bike_id":"12edd8fe-ac42-424b-86a0-ddbc64b4f114","system_id":"levelo_inurba_marseille","lat":43.328371,"lon":5.366909,"is_reserved":false,"is_disabled":false,"rental_uris":{"android":"levelo://app?vid=12edd8fe-ac42-424b-86a0-ddbc64b4f114","ios":"levelo://app?vid=12edd8fe-ac42-424b-86a0-ddbc64b4f114"},"vehicle_type_id":"4","last_reported":1706465249,"current_range_meters":12800,"station_id":"ce4bhs92rcd13ifvqi0g","pricing_plan_id":"free"},{"bike_id":"1e3dac1e-79bb-416e-9a25-92222494a4ee","system_id":"levelo_inurba_marseille","lat":43.328371,"lon":5.366912,"is_reserved":false,"is_disabled":false,"rental_uris":{"android":"levelo://app?vid=1e3dac1e-79bb-416e-9a25-92222494a4ee","ios":"levelo://app?vid=1e3dac1e-79bb-416e-9a25-92222494a4ee"},"vehicle_type_id":"4","last_reported":1706465249,"current_range_meters":17200,"station_id":"ce4bhs92rcd13ifvqi0g","pricing_plan_id":"free"},{"bike_id":"2b97c703-cf63-4b23-a996-db82423f5a39","system_id":"levelo_inurba_marseille","lat":43.32466,"lon":5.38289,"is_reserved":false,"is_disabled":false,"rental_uris":{"android":"levelo://app?vid=2b97c703-cf63-4b23-a996-db82423f5a39","ios":"levelo://app?vid=2b97c703-cf63-4b23-a996-db82423f5a39"},"vehicle_type_id":"4","last_reported":1706465249,"current_range_meters":0,"station_id":"","pricing_plan_id":"free"},{"bike_id":"6cc52e6e-fee6-490a-b7c1-e0a71ddaef2e","system_id":"levelo_inurba_marseille","lat":43.29573,"lon":5.367355,"is_reserved":false,"is_disabled":false,"rental_uris":{"android":"levelo://app?vid=6cc52e6e-fee6-490a-b7c1-e0a71ddaef2e","ios":"levelo://app?vid=6cc52e6e-fee6-490a-b7c1-e0a71ddaef2e"},"vehicle_type_id":"4","last_reported":1706465249,"current_range_meters":2800,"station_id":"ce4bgph2rcd13ifvqc2g","pricing_plan_id":"free"},{"bike_id":"3f143d99-e792-41ee-9446-7d9c207b4029","system_id":"levelo_inurba_marseille","lat":43.296935,"lon":5.376544,"is_reserved":false,"is_disabled":false,"rental_uris":{"android":"levelo://app?vid=3f143d99-e792-41ee-9446-7d9c207b4029","ios":"levelo://app?vid=3f143d99-e792-41ee-9446-7d9c207b4029"},"vehicle_type_id":"4","last_reported":1706465249,"current_range_meters":27200,"station_id":"ce4bgkh2rcd13ifvqbl0","pricing_plan_id":"free"},{"bike_id":"f064ccb4-217f-45c2-96c9-0c7db8a4e390","system_id":"levelo_inurba_marseille","lat":43.317557,"lon":5.390173,"is_reserved":false,"is_disabled":false,"rental_uris":{"android":"levelo://app?vid=f064ccb4-217f-45c2-96c9-0c7db8a4e390","ios":"levelo://app?vid=f064ccb4-217f-45c2-96c9-0c7db8a4e390"},"vehicle_type_id":"4","last_reported":1706465249,"current_range_meters":18800,"station_id":"ce4bhqp2rcd13ifvqhng","pricing_plan_id":"free"},{"bike_id":"bd0185d1-5a8b-4c25-a3d9-29101dd852ef","system_id":"levelo_inurba_marseille","lat":43.298037,"lon":5.381066,"is_reserved":false,"is_disabled":false,"rental_uris":{"android":"levelo://app?vid=bd0185d1-5a8b-4c25-a3d9-29101dd852ef","ios":"levelo://app?vid=bd0185d1-5a8b-4c25-a3d9-29101dd852ef"},"vehicle_type_id":"4","last_reported":1706465249,"current_range_meters":17600,"station_id":"ce4bgip2rcd13ifvqbb0","pricing_plan_id":"free"},{"bike_id":"2db8a80a-27bb-4a0a-a898-b8c0e951ff0b","system_id":"levelo_inurba_marseille","lat":43.298037,"lon":5.381066,"is_reserved":false,"is_disabled":false,"rental_uris":{"android":"levelo://app?vid=2db8a80a-27bb-4a0a-a898-b8c0e951ff0b","ios":"levelo://app?vid=2db8a80a-27bb-4a0a-a898-b8c0e951ff0b"},"vehicle_type_id":"4","last_reported":1706465249,"current_range_meters":6800,"station_id":"ce4bgip2rcd13ifvqbb0","pricing_plan_id":"free"},{"bike_id":"8dfa1e91-6be8-45ce-adda-cde2e30db97d","system_id":"levelo_inurba_marseille","lat":43.298,"lon":5.38086,"is_reserved":false,"is_disabled":false,"rental_uris":{"android":"levelo://app?vid=8dfa1e91-6be8-45ce-adda-cde2e30db97d","ios":"levelo://app?vid=8dfa1e91-6be8-45ce-adda-cde2e30db97d"},"vehicle_type_id":"4","last_reported":1706465249,"current_range_meters":0,"station_id":"ce4bgip2rcd13ifvqbb0","pricing_plan_id":"free"},{"bike_id":"b217b1f4-8742-4098-aa11-4f3ddfa57840","system_id":"levelo_inurba_marseille","lat":43.304274,"lon":5.388873,"is_reserved":false,"is_disabled":false,"rental_uris":{"android":"levelo://app?vid=b217b1f4-8742-4098-aa11-4f3ddfa57840","ios":"levelo://app?vid=b217b1f4-8742-4098-aa11-4f3ddfa57840"},"vehicle_type_id":"4","last_reported":1706465249,"current_range_meters":4400,"station_id":"ce4bgk12rcd13ifvqbi0","pricing_plan_id":"free"},{"bike_id":"acf3d172-8376-44d8-9e44-dc30b9f3863a","system_id":"levelo_inurba_marseille","lat":43.304274,"lon":5.388873,"is_reserved":false,"is_disabled":false,"rental_uris":{"android":"levelo://app?vid=acf3d172-8376-44d8-9e44-dc30b9f3863a","ios":"levelo://app?vid=acf3d172-8376-44d8-9e44-dc30b9f3863a"},"vehicle_type_id":"4","last_reported":1706465249,"current_range_meters":8000,"station_id":"ce4bgk12rcd13ifvqbi0","pricing_plan_id":"free"},{"bike_id":"7fe957ab-cf2c-4b5a-849c-9eed23ef4e96","system_id":"levelo_inurba_marseille","lat":43.298037,"lon":5.381066,"is_reserved":false,"is_disabled":false,"rental_uris":{"android":"levelo://app?vid=7fe957ab-cf2c-4b5a-849c-9eed23ef4e96","ios":"levelo://app?vid=7fe957ab-cf2c-4b5a-849c-9eed23ef4e96"},"vehicle_type_id":"4","last_reported":1706465249,"current_range_meters":1600,"station_id":"ce4bgip2rcd13ifvqbb0","pricing_plan_id":"free"},{"bike_id":"b34b7087-dfa4-4b8f-a532-1b6298c656e3","system_id":"levelo_inurba_marseille","lat":43.295748,"lon":5.37522,"is_reserved":false,"is_disabled":false,"rental_uris":{"android":"levelo://app?vid=b34b7087-dfa4-4b8f-a532-1b6298c656e3","ios":"levelo://app?vid=b34b7087-dfa4-4b8f-a532-1b6298c656e3"},"vehicle_type_id":"4","last_reported":1706465249,"current_range_meters":0,"station_id":"ce4bgh92rcd13ifvqb50","pricing_plan_id":"free"},{"bike_id":"4f79fff0-b31c-4003-92bb-1a2aec2b5890","system_id":"levelo_inurba_marseille","lat":43.296277,"lon":5.377108,"is_reserved":false,"is_disabled":false,"rental_uris":{"android":"levelo://app?vid=4f79fff0-b31c-4003-92bb-1a2aec2b5890","ios":"levelo://app?vid=4f79fff0-b31c-4003-92bb-1a2aec2b5890"},"vehicle_type_id":"4","last_reported":1706465249,"current_range_meters":5600,"station_id":"ce4bgi92rcd13ifvqb90","pricing_plan_id":"free"},{"bike_id":"56e65bd8-1d01-4639-be14-bb650af4223f","system_id":"levelo_inurba_marseille","lat":43.296277,"lon":5.377108,"is_reserved":false,"is_disabled":false,"rental_uris":{"android":"levelo://app?vid=56e65bd8-1d01-4639-be14-bb650af4223f","ios":"levelo://app?vid=56e65bd8-1d01-4639-be14-bb650af4223f"},"vehicle_type_id":"4","last_reported":1706465249,"current_range_meters":3600,"station_id":"ce4bgi92rcd13ifvqb90","pricing_plan_id":"free"},{"bike_id":"47150dd3-6b5c-454b-afe6-e8126ef5ae21","system_id":"levelo_inurba_marseille","lat":43.298037,"lon":5.381066,"is_reserved":false,"is_disabled":false,"rental_uris":{"android":"levelo://app?vid=47150dd3-6b5c-454b-afe6-e8126ef5ae21","ios":"levelo://app?vid=47150dd3-6b5c-454b-afe6-e8126ef5ae21"},"vehicle_type_id":"4","last_reported":1706465249,"current_range_meters":4800,"station_id":"ce4bgip2rcd13ifvqbb0","pricing_plan_id":"free"},{"bike_id":"aec863e0-4973-4db7-a18b-a6d6833516f3","system_id":"levelo_inurba_marseille","lat":43.296277,"lon":5.377108,"is_reserved":false,"is_disabled":false,"rental_uris":{"android":"levelo://app?vid=aec863e0-4973-4db7-a18b-a6d6833516f3","ios":"levelo://app?vid=aec863e0-4973-4db7-a18b-a6d6833516f3"},"vehicle_type_id":"4","last_reported":1706465249,"current_range_meters":400,"station_id":"ce4bgi92rcd13ifvqb90","pricing_plan_id":"free"},{"bike_id":"205e0287-4813-4771-b07d-2a2697e9a32b","system_id":"levelo_inurba_marseille","lat":43.299707,"lon":5.384859,"is_reserved":false,"is_disabled":false,"rental_uris":{"android":"levelo://app?vid=205e0287-4813-4771-b07d-2a2697e9a32b","ios":"levelo://app?vid=205e0287-4813-4771-b07d-2a2697e9a32b"},"vehicle_type_id":"4","last_reported":1706465249,"current_range_meters":11600,"station_id":"ce4bgj92rcd13ifvqbd0","pricing_plan_id":"free"},{"bike_id":"f99f3912-16dd-40db-bc05-80d28b14cd4b","system_id":"levelo_inurba_marseille","lat":43.299724,"lon":5.384848,"is_reserved":false,"is_disabled":false,"rental_uris":{"android":"levelo://app?vid=f99f3912-16dd-40db-bc05-80d28b14cd4b","ios":"levelo://app?vid=f99f3912-16dd-40db-bc05-80d28b14cd4b"},"vehicle_type_id":"4","last_reported":1706465249,"current_range_meters":1200,"station_id":"ce4bgj92rcd13ifvqbd0","pricing_plan_id":"free"},{"bike_id":"2e6b54fa-385f-4865-a02a-a9db39a77a62","system_id":"levelo_inurba_marseille","lat":43.29962,"lon":5.3849,"is_reserved":false,"is_disabled":false,"rental_uris":{"android":"levelo://app?vid=2e6b54fa-385f-4865-a02a-a9db39a77a62","ios":"levelo://app?vid=2e6b54fa-385f-4865-a02a-a9db39a77a62"},"vehicle_type_id":"4","last_reported":1706465249,"current_range_meters":1200,"station_id":"ce4bgj92rcd13ifvqbd0","pricing_plan_id":"free"},{"bike_id":"9042522d-43b0-4660-863a-2bd248ca3aa6","system_id":"levelo_inurba_marseille","lat":43.32367,"lon":5.388836,"is_reserved":false,"is_disabled":false,"rental_uris":{"android":"levelo://app?vid=9042522d-43b0-4660-863a-2bd248ca3aa6","ios":"levelo://app?vid=9042522d-43b0-4660-863a-2bd248ca3aa6"},"vehicle_type_id":"4","last_reported":1706465249,"current_range_meters":400,"station_id":"ce4bhqp2rcd13ifvqhog","pricing_plan_id":"free"},{"bike_id":"d68e21e0-f101-4fe4-adad-3edc99116a12","system_id":"levelo_inurba_marseille","lat":43.32367,"lon":5.388836,"is_reserved":false,"is_disabled":false,"rental_uris":{"android":"levelo://app?vid=d68e21e0-f101-4fe4-adad-3edc99116a12","ios":"levelo://app?vid=d68e21e0-f101-4fe4-adad-3edc99116a12"},"vehicle_type_id":"4","last_reported":1706465249,"current_range_meters":18400,"station_id":"ce4bhqp2rcd13ifvqhog","pricing_plan_id":"free"},{"bike_id":"a77a42bf-2105-4bfb-81c4-b4136610031c","system_id":"levelo_inurba_marseille","lat":43.29602,"lon":5.381084,"is_reserved":false,"is_disabled":false,"rental_uris":{"android":"levelo://app?vid=a77a42bf-2105-4bfb-81c4-b4136610031c","ios":"levelo://app?vid=a77a42bf-2105-4bfb-81c4-b4136610031c"},"vehicle_type_id":"4","last_reported":1706465249,"current_range_meters":26800,"station_id":"ce4bgl12rcd13ifvqbo0","pricing_plan_id":"free"},{"bike_id":"5784f68a-a96f-4468-9ac1-98fa0a6f03b7","system_id":"levelo_inurba_marseille","lat":43.29592,"lon":5.38094,"is_reserved":false,"is_disabled":false,"rental_uris":{"android":"levelo://app?vid=5784f68a-a96f-4468-9ac1-98fa0a6f03b7","ios":"levelo://app?vid=5784f68a-a96f-4468-9ac1-98fa0a6f03b7"},"vehicle_type_id":"4","last_reported":1706465249,"current_range_meters":0,"station_id":"ce4bgl12rcd13ifvqbo0","pricing_plan_id":"free"},{"bike_id":"993d0c26-4e7f-4ebb-8e28-03b180830e0d","system_id":"levelo_inurba_marseille","lat":43.293259,"lon":5.371586,"is_reserved":false,"is_disabled":false,"rental_uris":{"android":"levelo://app?vid=993d0c26-4e7f-4ebb-8e28-03b180830e0d","ios":"levelo://app?vid=993d0c26-4e7f-4ebb-8e28-03b180830e0d"},"vehicle_type_id":"4","last_reported":1706465249,"current_range_meters":6800,"station_id":"ce4bgh92rcd13ifvqb40","pricing_plan_id":"free"},{"bike_id":"96c97a9f-74fa-495f-87d2-a34b29706f6b","system_id":"levelo_inurba_marseille","lat":43.29302,"lon":5.37173,"is_reserved":false,"is_disabled":false,"rental_uris":{"android":"levelo://app?vid=96c97a9f-74fa-495f-87d2-a34b29706f6b","ios":"levelo://app?vid=96c97a9f-74fa-495f-87d2-a34b29706f6b"},"vehicle_type_id":"4","last_reported":1706465249,"current_range_meters":0,"station_id":"ce4bgh92rcd13ifvqb40","pricing_plan_id":"free"},{"bike_id":"c371fec0-cb9b-4827-9df9-eb8025e2cb8d","system_id":"levelo_inurba_marseille","lat":43.293009,"lon":5.374584,"is_reserved":false,"is_disabled":false,"rental_uris":{"android":"levelo://app?vid=c371fec0-cb9b-4827-9df9-eb8025e2cb8d","ios":"levelo://app?vid=c371fec0-cb9b-4827-9df9-eb8025e2cb8d"},"vehicle_type_id":"4","last_reported":1706465249,"current_range_meters":12400,"station_id":"ce4bgi12rcd13ifvqb70","pricing_plan_id":"free"},{"bike_id":"47e493c3-aadb-49cb-9e88-d0170ab61875","system_id":"levelo_inurba_marseille","lat":43.293009,"lon":5.374584,"is_reserved":false,"is_disabled":false,"rental_uris":{"android":"levelo://app?vid=47e493c3-aadb-49cb-9e88-d0170ab61875","ios":"levelo://app?vid=47e493c3-aadb-49cb-9e88-d0170ab61875"},"vehicle_type_id":"4","last_reported":1706465249,"current_range_meters":1200,"station_id":"ce4bgi12rcd13ifvqb70","pricing_plan_id":"free"},{"bike_id":"bf4fac92-fd73-4902-98b9-8039201ac607","system_id":"levelo_inurba_marseille","lat":43.29293,"lon":5.374517,"is_reserved":false,"is_disabled":false,"rental_uris":{"android":"levelo://app?vid=bf4fac92-fd73-4902-98b9-8039201ac607","ios":"levelo://app?vid=bf4fac92-fd73-4902-98b9-8039201ac607"},"vehicle_type_id":"4","last_reported":1706465249,"current_range_meters":0,"station_id":"ce4bgi12rcd13ifvqb70","pricing_plan_id":"free"},{"bike_id":"88ae2bf5-ee62-439d-9d9f-84bd8fe06cc9","system_id":"levelo_inurba_marseille","lat":43.30595,"lon":5.39361,"is_reserved":false,"is_disabled":false,"rental_uris":{"android":"levelo://app?vid=88ae2bf5-ee62-439d-9d9f-84bd8fe06cc9","ios":"levelo://app?vid=88ae2bf5-ee62-439d-9d9f-84bd8fe06cc9"},"vehicle_type_id":"4","last_reported":1706465249,"current_range_meters":400,"station_id":"ce4bh0p2rcd13ifvqd80","pricing_plan_id":"free"},{"bike_id":"25ba45b1-f3d1-4901-bdc6-b4c7c3ad3c1f","system_id":"levelo_inurba_marseille","lat":43.29289,"lon":5.37454,"is_reserved":false,"is_disabled":false,"rental_uris":{"android":"levelo://app?vid=25ba45b1-f3d1-4901-bdc6-b4c7c3ad3c1f","ios":"levelo://app?vid=25ba45b1-f3d1-4901-bdc6-b4c7c3ad3c1f"},"vehicle_type_id":"4","last_reported":1706465249,"current_range_meters":0,"station_id":"ce4bgi12rcd13ifvqb70","pricing_plan_id":"free"},{"bike_id":"adc1bea7-4090-4c2f-a33a-2a9bcf4dae6c","system_id":"levelo_inurba_marseille","lat":43.303002,"lon":5.392142,"is_reserved":false,"is_disabled":false,"rental_uris":{"android":"levelo://app?vid=adc1bea7-4090-4c2f-a33a-2a9bcf4dae6c","ios":"levelo://app?vid=adc1bea7-4090-4c2f-a33a-2a9bcf4dae6c"},"vehicle_type_id":"4","last_reported":1706465249,"current_range_meters":11200,"station_id":"ce4bgkh2rcd13ifvqbk0","pricing_plan_id":"free"},{"bike_id":"b42c37f3-1faa-4e66-a798-9953853eeb1d","system_id":"levelo_inurba_marseille","lat":43.303002,"lon":5.392142,"is_reserved":false,"is_disabled":false,"rental_uris":{"android":"levelo://app?vid=b42c37f3-1faa-4e66-a798-9953853eeb1d","ios":"levelo://app?vid=b42c37f3-1faa-4e66-a798-9953853eeb1d"},"vehicle_type_id":"4","last_reported":1706465249,"current_range_meters":0,"station_id":"ce4bgkh2rcd13ifvqbk0","pricing_plan_id":"free"},{"bike_id":"132b0cb1-c2fa-4b68-afa2-941219582eda","system_id":"levelo_inurba_marseille","lat":43.30085,"lon":5.390856,"is_reserved":false,"is_disabled":false,"rental_uris":{"android":"levelo://app?vid=132b0cb1-c2fa-4b68-afa2-941219582eda","ios":"levelo://app?vid=132b0cb1-c2fa-4b68-afa2-941219582eda"},"vehicle_type_id":"4","last_reported":1706465249,"current_range_meters":24400,"station_id":"ce4bh192rcd13ifvqdb0","pricing_plan_id":"free"},{"bike_id":"e0e086dc-6a1a-4908-8175-199ec081b2d8","system_id":"levelo_inurba_marseille","lat":43.313291,"lon":5.396838,"is_reserved":false,"is_disabled":false,"rental_uris":{"android":"levelo://app?vid=e0e086dc-6a1a-4908-8175-199ec081b2d8","ios":"levelo://app?vid=e0e086dc-6a1a-4908-8175-199ec081b2d8"},"vehicle_type_id":"4","last_reported":1706465249,"current_range_meters":23200,"station_id":"ce4bgvp2rcd13ifvqcu0","pricing_plan_id":"free"},{"bike_id":"61a2c138-5c8c-4aa4-bd9f-e56a7f5b37fb","system_id":"levelo_inurba_marseille","lat":43.29888,"lon":5.38903,"is_reserved":false,"is_disabled":false,"rental_uris":{"android":"levelo://app?vid=61a2c138-5c8c-4aa4-bd9f-e56a7f5b37fb","ios":"levelo://app?vid=61a2c138-5c8c-4aa4-bd9f-e56a7f5b37fb"},"vehicle_type_id":"4","last_reported":1706465249,"current_range_meters":8800,"station_id":"ce4bh392rcd13ifvqdl0","pricing_plan_id":"free"},{"bike_id":"a62acf9b-704b-4fd2-a0ff-49e012dd180e","system_id":"levelo_inurba_marseille","lat":43.291671,"lon":5.371575,"is_reserved":false,"is_disabled":false,"rental_uris":{"android":"levelo://app?vid=a62acf9b-704b-4fd2-a0ff-49e012dd180e","ios":"levelo://app?vid=a62acf9b-704b-4fd2-a0ff-49e012dd180e"},"vehicle_type_id":"4","last_reported":1706465249,"current_range_meters":13200,"station_id":"ce4bha92rcd13ifvqeh0","pricing_plan_id":"free"},{"bike_id":"9d82056b-8986-4d29-b073-565376f5489a","system_id":"levelo_inurba_marseille","lat":43.291675,"lon":5.371583,"is_reserved":false,"is_disabled":false,"rental_uris":{"android":"levelo://app?vid=9d82056b-8986-4d29-b073-565376f5489a","ios":"levelo://app?vid=9d82056b-8986-4d29-b073-565376f5489a"},"vehicle_type_id":"4","last_reported":1706465249,"current_range_meters":400,"station_id":"ce4bha92rcd13ifvqeh0","pricing_plan_id":"free"},{"bike_id":"032270cd-25ea-44d9-ac2a-63f932d40349","system_id":"levelo_inurba_marseille","lat":43.298764,"lon":5.388973,"is_reserved":false,"is_disabled":false,"rental_uris":{"android":"levelo://app?vid=032270cd-25ea-44d9-ac2a-63f932d40349","ios":"levelo://app?vid=032270cd-25ea-44d9-ac2a-63f932d40349"},"vehicle_type_id":"4","last_reported":1706465249,"current_range_meters":17200,"station_id":"ce4bh392rcd13ifvqdl0","pricing_plan_id":"free"},{"bike_id":"d5d0194d-5d77-4b68-bfd6-903b22b0362d","system_id":"levelo_inurba_marseille","lat":43.298764,"lon":5.388973,"is_reserved":false,"is_disabled":false,"rental_uris":{"android":"levelo://app?vid=d5d0194d-5d77-4b68-bfd6-903b22b0362d","ios":"levelo://app?vid=d5d0194d-5d77-4b68-bfd6-903b22b0362d"},"vehicle_type_id":"4","last_reported":1706465249,"current_range_meters":13200,"station_id":"ce4bh392rcd13ifvqdl0","pricing_plan_id":"free"},{"bike_id":"19a98a3e-6f28-4940-921f-3bd049ca887f","system_id":"levelo_inurba_marseille","lat":43.298764,"lon":5.388973,"is_reserved":false,"is_disabled":false,"rental_uris":{"android":"levelo://app?vid=19a98a3e-6f28-4940-921f-3bd049ca887f","ios":"levelo://app?vid=19a98a3e-6f28-4940-921f-3bd049ca887f"},"vehicle_type_id":"4","last_reported":1706465249,"current_range_meters":0,"station_id":"ce4bh392rcd13ifvqdl0","pricing_plan_id":"free"},{"bike_id":"d297f22c-8d2f-44cd-9784-16a5c254a4d3","system_id":"levelo_inurba_marseille","lat":43.313291,"lon":5.396838,"is_reserved":false,"is_disabled":false,"rental_uris":{"android":"levelo://app?vid=d297f22c-8d2f-44cd-9784-16a5c254a4d3","ios":"levelo://app?vid=d297f22c-8d2f-44cd-9784-16a5c254a4d3"},"vehicle_type_id":"4","last_reported":1706465249,"current_range_meters":0,"station_id":"ce4bgvp2rcd13ifvqcu0","pricing_plan_id":"free"},{"bike_id":"7f3ecc81-79cb-4d9e-908c-7ece63af5067","system_id":"levelo_inurba_marseille","lat":43.313291,"lon":5.396838,"is_reserved":false,"is_disabled":false,"rental_uris":{"android":"levelo://app?vid=7f3ecc81-79cb-4d9e-908c-7ece63af5067","ios":"levelo://app?vid=7f3ecc81-79cb-4d9e-908c-7ece63af5067"},"vehicle_type_id":"4","last_reported":1706465249,"current_range_meters":19200,"station_id":"ce4bgvp2rcd13ifvqcu0","pricing_plan_id":"free"},{"bike_id":"77145b42-5b3c-420d-9f11-4126cbf163da","system_id":"levelo_inurba_marseille","lat":43.30891,"lon":5.39645,"is_reserved":false,"is_disabled":false,"rental_uris":{"android":"levelo://app?vid=77145b42-5b3c-420d-9f11-4126cbf163da","ios":"levelo://app?vid=77145b42-5b3c-420d-9f11-4126cbf163da"},"vehicle_type_id":"4","last_reported":1706465249,"current_range_meters":8000,"station_id":"ce4bh012rcd13ifvqcv0","pricing_plan_id":"free"},{"bike_id":"c0dd02ca-8874-4437-bf2f-dbbecac6bed8","system_id":"levelo_inurba_marseille","lat":43.29185,"lon":5.35799,"is_reserved":false,"is_disabled":false,"rental_uris":{"android":"levelo://app?vid=c0dd02ca-8874-4437-bf2f-dbbecac6bed8","ios":"levelo://app?vid=c0dd02ca-8874-4437-bf2f-dbbecac6bed8"},"vehicle_type_id":"4","last_reported":1706465249,"current_range_meters":0,"station_id":"ce4bhb12rcd13ifvqel0","pricing_plan_id":"free"},{"bike_id":"5fae8a1e-088f-4b90-b22e-4d591ea4bab5","system_id":"levelo_inurba_marseille","lat":43.309038,"lon":5.396546,"is_reserved":false,"is_disabled":false,"rental_uris":{"android":"levelo://app?vid=5fae8a1e-088f-4b90-b22e-4d591ea4bab5","ios":"levelo://app?vid=5fae8a1e-088f-4b90-b22e-4d591ea4bab5"},"vehicle_type_id":"4","last_reported":1706465249,"current_range_meters":6800,"station_id":"ce4bh012rcd13ifvqcv0","pricing_plan_id":"free"},{"bike_id":"6a77941e-7c02-420b-baa8-2d432e94731e","system_id":"levelo_inurba_marseille","lat":43.309038,"lon":5.396546,"is_reserved":false,"is_disabled":false,"rental_uris":{"android":"levelo://app?vid=6a77941e-7c02-420b-baa8-2d432e94731e","ios":"levelo://app?vid=6a77941e-7c02-420b-baa8-2d432e94731e"},"vehicle_type_id":"4","last_reported":1706465249,"current_range_meters":20400,"station_id":"ce4bh012rcd13ifvqcv0","pricing_plan_id":"free"},{"bike_id":"796f7b0c-7a9e-41e2-998f-60854310039c","system_id":"levelo_inurba_marseille","lat":43.29529,"lon":5.385581,"is_reserved":false,"is_disabled":false,"rental_uris":{"android":"levelo://app?vid=796f7b0c-7a9e-41e2-998f-60854310039c","ios":"levelo://app?vid=796f7b0c-7a9e-41e2-998f-60854310039c"},"vehicle_type_id":"4","last_reported":1706465249,"current_range_meters":8400,"station_id":"ce4bgih2rcd13ifvqba0","pricing_plan_id":"free"},{"bike_id":"435f210d-e3ac-426c-930a-adca79a0b00a","system_id":"levelo_inurba_marseille","lat":43.295303,"lon":5.385433,"is_reserved":false,"is_disabled":false,"rental_uris":{"android":"levelo://app?vid=435f210d-e3ac-426c-930a-adca79a0b00a","ios":"levelo://app?vid=435f210d-e3ac-426c-930a-adca79a0b00a"},"vehicle_type_id":"4","last_reported":1706465249,"current_range_meters":6000,"station_id":"ce4bgih2rcd13ifvqba0","pricing_plan_id":"free"},{"bike_id":"3b9c0e9b-fa5a-4cef-8e26-ef02b00137a5","system_id":"levelo_inurba_marseille","lat":43.29529,"lon":5.385581,"is_reserved":false,"is_disabled":false,"rental_uris":{"android":"levelo://app?vid=3b9c0e9b-fa5a-4cef-8e26-ef02b00137a5","ios":"levelo://app?vid=3b9c0e9b-fa5a-4cef-8e26-ef02b00137a5"},"vehicle_type_id":"4","last_reported":1706465249,"current_range_meters":11200,"station_id":"ce4bgih2rcd13ifvqba0","pricing_plan_id":"free"},{"bike_id":"2f79faa5-0fa9-4332-8330-c6ef42ad0025","system_id":"levelo_inurba_marseille","lat":43.29529,"lon":5.385581,"is_reserved":false,"is_disabled":false,"rental_uris":{"android":"levelo://app?vid=2f79faa5-0fa9-4332-8330-c6ef42ad0025","ios":"levelo://app?vid=2f79faa5-0fa9-4332-8330-c6ef42ad0025"},"vehicle_type_id":"4","last_reported":1706465249,"current_range_meters":17600,"station_id":"ce4bgih2rcd13ifvqba0","pricing_plan_id":"free"},{"bike_id":"8d819cf8-2285-47a3-bd24-ccf149429c83","system_id":"levelo_inurba_marseille","lat":43.29529,"lon":5.385581,"is_reserved":false,"is_disabled":false,"rental_uris":{"android":"levelo://app?vid=8d819cf8-2285-47a3-bd24-ccf149429c83","ios":"levelo://app?vid=8d819cf8-2285-47a3-bd24-ccf149429c83"},"vehicle_type_id":"4","last_reported":1706465249,"current_range_meters":8000,"station_id":"ce4bgih2rcd13ifvqba0","pricing_plan_id":"free"},{"bike_id":"6cb1ee70-e149-4d94-aa56-da5d3c151d55","system_id":"levelo_inurba_marseille","lat":43.290779,"lon":5.371482,"is_reserved":false,"is_disabled":false,"rental_uris":{"android":"levelo://app?vid=6cb1ee70-e149-4d94-aa56-da5d3c151d55","ios":"levelo://app?vid=6cb1ee70-e149-4d94-aa56-da5d3c151d55"},"vehicle_type_id":"4","last_reported":1706465249,"current_range_meters":15600,"station_id":"ce4bh5p2rcd13ifvqe4g","pricing_plan_id":"free"},{"bike_id":"b9d6ee85-2e6b-4e06-90dd-616edebd68b6","system_id":"levelo_inurba_marseille","lat":43.290613,"lon":5.371527,"is_reserved":false,"is_disabled":false,"rental_uris":{"android":"levelo://app?vid=b9d6ee85-2e6b-4e06-90dd-616edebd68b6","ios":"levelo://app?vid=b9d6ee85-2e6b-4e06-90dd-616edebd68b6"},"vehicle_type_id":"4","last_reported":1706465249,"current_range_meters":0,"station_id":"ce4bh5p2rcd13ifvqe4g","pricing_plan_id":"free"},{"bike_id":"6232e7b6-451f-4a8c-a4ba-ae338a5cd9b9","system_id":"levelo_inurba_marseille","lat":43.302008,"lon":5.394694,"is_reserved":false,"is_disabled":false,"rental_uris":{"android":"levelo://app?vid=6232e7b6-451f-4a8c-a4ba-ae338a5cd9b9","ios":"levelo://app?vid=6232e7b6-451f-4a8c-a4ba-ae338a5cd9b9"},"vehicle_type_id":"4","last_reported":1706465249,"current_range_meters":19200,"station_id":"ce4bh0p2rcd13ifvqd70","pricing_plan_id":"free"},{"bike_id":"c6c725ae-1b96-41e7-9859-1281692637c9","system_id":"levelo_inurba_marseille","lat":43.30197,"lon":5.394695,"is_reserved":false,"is_disabled":false,"rental_uris":{"android":"levelo://app?vid=c6c725ae-1b96-41e7-9859-1281692637c9","ios":"levelo://app?vid=c6c725ae-1b96-41e7-9859-1281692637c9"},"vehicle_type_id":"4","last_reported":1706465249,"current_range_meters":0,"station_id":"ce4bh0p2rcd13ifvqd70","pricing_plan_id":"free"},{"bike_id":"5f52db8b-4ef9-406b-82e3-396d05e46403","system_id":"levelo_inurba_marseille","lat":43.290631,"lon":5.359244,"is_reserved":false,"is_disabled":false,"rental_uris":{"android":"levelo://app?vid=5f52db8b-4ef9-406b-82e3-396d05e46403","ios":"levelo://app?vid=5f52db8b-4ef9-406b-82e3-396d05e46403"},"vehicle_type_id":"4","last_reported":1706465249,"current_range_meters":7200,"station_id":"ce4bha92rcd13ifvqeg0","pricing_plan_id":"free"},{"bike_id":"10f32b91-37d2-4234-8574-4ef8e6ebcdd4","system_id":"levelo_inurba_marseille","lat":43.294153,"lon":5.386305,"is_reserved":false,"is_disabled":false,"rental_uris":{"android":"levelo://app?vid=10f32b91-37d2-4234-8574-4ef8e6ebcdd4","ios":"levelo://app?vid=10f32b91-37d2-4234-8574-4ef8e6ebcdd4"},"vehicle_type_id":"4","last_reported":1706465249,"current_range_meters":0,"station_id":"ce4bh2h2rcd13ifvqdh0","pricing_plan_id":"free"},{"bike_id":"39e4e026-2672-43a1-a55a-85e8457538c7","system_id":"levelo_inurba_marseille","lat":43.294153,"lon":5.386305,"is_reserved":false,"is_disabled":false,"rental_uris":{"android":"levelo://app?vid=39e4e026-2672-43a1-a55a-85e8457538c7","ios":"levelo://app?vid=39e4e026-2672-43a1-a55a-85e8457538c7"},"vehicle_type_id":"4","last_reported":1706465249,"current_range_meters":0,"station_id":"ce4bh2h2rcd13ifvqdh0","pricing_plan_id":"free"},{"bike_id":"5f97d851-0e62-4bb1-82b7-eaeb59c322f5","system_id":"levelo_inurba_marseille","lat":43.290327,"lon":5.375711,"is_reserved":false,"is_disabled":false,"rental_uris":{"android":"levelo://app?vid=5f97d851-0e62-4bb1-82b7-eaeb59c322f5","ios":"levelo://app?vid=5f97d851-0e62-4bb1-82b7-eaeb59c322f5"},"vehicle_type_id":"4","last_reported":1706465249,"current_range_meters":4000,"station_id":"ce4bh692rcd13ifvqe90","pricing_plan_id":"free"},{"bike_id":"54df3b3a-a0fa-43da-b8d7-05153ef1c5a0","system_id":"levelo_inurba_marseille","lat":43.294162,"lon":5.386292,"is_reserved":false,"is_disabled":false,"rental_uris":{"android":"levelo://app?vid=54df3b3a-a0fa-43da-b8d7-05153ef1c5a0","ios":"levelo://app?vid=54df3b3a-a0fa-43da-b8d7-05153ef1c5a0"},"vehicle_type_id":"4","last_reported":1706465249,"current_range_meters":11200,"station_id":"ce4bh2h2rcd13ifvqdh0","pricing_plan_id":"free"},{"bike_id":"1a74c4c5-f4fc-47c8-84a0-cf51c955e753","system_id":"levelo_inurba_marseille","lat":43.294153,"lon":5.386305,"is_reserved":false,"is_disabled":false,"rental_uris":{"android":"levelo://app?vid=1a74c4c5-f4fc-47c8-84a0-cf51c955e753","ios":"levelo://app?vid=1a74c4c5-f4fc-47c8-84a0-cf51c955e753"},"vehicle_type_id":"4","last_reported":1706465249,"current_range_meters":16000,"station_id":"ce4bh2h2rcd13ifvqdh0","pricing_plan_id":"free"},{"bike_id":"bfaff501-5598-4da7-a486-ed549d99ba55","system_id":"levelo_inurba_marseille","lat":43.29415,"lon":5.38632,"is_reserved":false,"is_disabled":false,"rental_uris":{"android":"levelo://app?vid=bfaff501-5598-4da7-a486-ed549d99ba55","ios":"levelo://app?vid=bfaff501-5598-4da7-a486-ed549d99ba55"},"vehicle_type_id":"4","last_reported":1706465249,"current_range_meters":0,"station_id":"ce4bh2h2rcd13ifvqdh0","pricing_plan_id":"free"},{"bike_id":"ce2d928f-26bf-486d-a79f-c58d55268c8d","system_id":"levelo_inurba_marseille","lat":43.289184,"lon":5.366408,"is_reserved":false,"is_disabled":false,"rental_uris":{"android":"levelo://app?vid=ce2d928f-26bf-486d-a79f-c58d55268c8d","ios":"levelo://app?vid=ce2d928f-26bf-486d-a79f-c58d55268c8d"},"vehicle_type_id":"4","last_reported":1706465249,"current_range_meters":31600,"station_id":"ce4bhap2rcd13ifvqek0","pricing_plan_id":"free"},{"bike_id":"0b1cd15f-1bc8-4556-b5af-3e9bbb6ea19b","system_id":"levelo_inurba_marseille","lat":43.292642,"lon":5.384254,"is_reserved":false,"is_disabled":false,"rental_uris":{"android":"levelo://app?vid=0b1cd15f-1bc8-4556-b5af-3e9bbb6ea19b","ios":"levelo://app?vid=0b1cd15f-1bc8-4556-b5af-3e9bbb6ea19b"},"vehicle_type_id":"4","last_reported":1706465249,"current_range_meters":17200,"station_id":"ce4bh692rcd13ifvqea0","pricing_plan_id":"free"},{"bike_id":"a61afb59-8b86-4d7d-b5fc-89855782eef4","system_id":"levelo_inurba_marseille","lat":43.292642,"lon":5.384254,"is_reserved":false,"is_disabled":false,"rental_uris":{"android":"levelo://app?vid=a61afb59-8b86-4d7d-b5fc-89855782eef4","ios":"levelo://app?vid=a61afb59-8b86-4d7d-b5fc-89855782eef4"},"vehicle_type_id":"4","last_reported":1706465249,"current_range_meters":2800,"station_id":"ce4bh692rcd13ifvqea0","pricing_plan_id":"free"},{"bike_id":"b61913bf-3a5d-42eb-94aa-ba33e6d916a0","system_id":"levelo_inurba_marseille","lat":43.292642,"lon":5.384254,"is_reserved":false,"is_disabled":false,"rental_uris":{"android":"levelo://app?vid=b61913bf-3a5d-42eb-94aa-ba33e6d916a0","ios":"levelo://app?vid=b61913bf-3a5d-42eb-94aa-ba33e6d916a0"},"vehicle_type_id":"4","last_reported":1706465249,"current_range_meters":2400,"station_id":"ce4bh692rcd13ifvqea0","pricing_plan_id":"free"},{"bike_id":"193e71c9-86f0-45e7-a132-3caf8ca4dd17","system_id":"levelo_inurba_marseille","lat":43.292644,"lon":5.384257,"is_reserved":false,"is_disabled":false,"rental_uris":{"android":"levelo://app?vid=193e71c9-86f0-45e7-a132-3caf8ca4dd17","ios":"levelo://app?vid=193e71c9-86f0-45e7-a132-3caf8ca4dd17"},"vehicle_type_id":"4","last_reported":1706465249,"current_range_meters":12400,"station_id":"ce4bh692rcd13ifvqea0","pricing_plan_id":"free"},{"bike_id":"07a60945-29a4-4a98-9f9d-498254f6e98c","system_id":"levelo_inurba_marseille","lat":43.29007,"lon":5.35623,"is_reserved":false,"is_disabled":false,"rental_uris":{"android":"levelo://app?vid=07a60945-29a4-4a98-9f9d-498254f6e98c","ios":"levelo://app?vid=07a60945-29a4-4a98-9f9d-498254f6e98c"},"vehicle_type_id":"4","last_reported":1706465249,"current_range_meters":0,"station_id":"ce4bhb92rcd13ifvqen0","pricing_plan_id":"free"},{"bike_id":"e1434698-a0a0-4465-9b25-15c319170cfe","system_id":"levelo_inurba_marseille","lat":43.290103,"lon":5.356114,"is_reserved":false,"is_disabled":false,"rental_uris":{"android":"levelo://app?vid=e1434698-a0a0-4465-9b25-15c319170cfe","ios":"levelo://app?vid=e1434698-a0a0-4465-9b25-15c319170cfe"},"vehicle_type_id":"4","last_reported":1706465249,"current_range_meters":2800,"station_id":"ce4bhb92rcd13ifvqen0","pricing_plan_id":"free"},{"bike_id":"f6265580-8ccb-4d53-be3e-423be5252496","system_id":"levelo_inurba_marseille","lat":43.290995,"lon":5.381361,"is_reserved":false,"is_disabled":false,"rental_uris":{"android":"levelo://app?vid=f6265580-8ccb-4d53-be3e-423be5252496","ios":"levelo://app?vid=f6265580-8ccb-4d53-be3e-423be5252496"},"vehicle_type_id":"4","last_reported":1706465249,"current_range_meters":7200,"station_id":"ce4bh512rcd13ifvqe2g","pricing_plan_id":"free"},{"bike_id":"c5d58d85-2597-42cd-93d0-1fc53668a47d","system_id":"levelo_inurba_marseille","lat":43.290995,"lon":5.381361,"is_reserved":false,"is_disabled":false,"rental_uris":{"android":"levelo://app?vid=c5d58d85-2597-42cd-93d0-1fc53668a47d","ios":"levelo://app?vid=c5d58d85-2597-42cd-93d0-1fc53668a47d"},"vehicle_type_id":"4","last_reported":1706465249,"current_range_meters":25200,"station_id":"ce4bh512rcd13ifvqe2g","pricing_plan_id":"free"},{"bike_id":"a74dda44-83bc-4ba9-ac5a-56a67ad4311c","system_id":"levelo_inurba_marseille","lat":43.290995,"lon":5.381361,"is_reserved":false,"is_disabled":false,"rental_uris":{"android":"levelo://app?vid=a74dda44-83bc-4ba9-ac5a-56a67ad4311c","ios":"levelo://app?vid=a74dda44-83bc-4ba9-ac5a-56a67ad4311c"},"vehicle_type_id":"4","last_reported":1706465249,"current_range_meters":20000,"station_id":"ce4bh512rcd13ifvqe2g","pricing_plan_id":"free"},{"bike_id":"8720cb3e-2099-4fbc-b5f4-e26ec7b8ca65","system_id":"levelo_inurba_marseille","lat":43.297938,"lon":5.393403,"is_reserved":false,"is_disabled":false,"rental_uris":{"android":"levelo://app?vid=8720cb3e-2099-4fbc-b5f4-e26ec7b8ca65","ios":"levelo://app?vid=8720cb3e-2099-4fbc-b5f4-e26ec7b8ca65"},"vehicle_type_id":"4","last_reported":1706465249,"current_range_meters":4800,"station_id":"chh1huq6cuj3fo74tm60","pricing_plan_id":"free"},{"bike_id":"ca448a4d-d5f3-4655-9a83-02d05a02e944","system_id":"levelo_inurba_marseille","lat":43.297865,"lon":5.393335,"is_reserved":false,"is_disabled":false,"rental_uris":{"android":"levelo://app?vid=ca448a4d-d5f3-4655-9a83-02d05a02e944","ios":"levelo://app?vid=ca448a4d-d5f3-4655-9a83-02d05a02e944"},"vehicle_type_id":"4","last_reported":1706465249,"current_range_meters":11200,"station_id":"chh1huq6cuj3fo74tm60","pricing_plan_id":"free"},{"bike_id":"4d64b4b1-158d-4a82-9fff-bad52e8040f8","system_id":"levelo_inurba_marseille","lat":43.297843,"lon":5.393423,"is_reserved":false,"is_disabled":false,"rental_uris":{"android":"levelo://app?vid=4d64b4b1-158d-4a82-9fff-bad52e8040f8","ios":"levelo://app?vid=4d64b4b1-158d-4a82-9fff-bad52e8040f8"},"vehicle_type_id":"4","last_reported":1706465249,"current_range_meters":6000,"station_id":"chh1huq6cuj3fo74tm60","pricing_plan_id":"free"},{"bike_id":"7853e5ee-9eaf-4789-b0fe-72da1ecc1f71","system_id":"levelo_inurba_marseille","lat":43.295169,"lon":5.390426,"is_reserved":false,"is_disabled":false,"rental_uris":{"android":"levelo://app?vid=7853e5ee-9eaf-4789-b0fe-72da1ecc1f71","ios":"levelo://app?vid=7853e5ee-9eaf-4789-b0fe-72da1ecc1f71"},"vehicle_type_id":"4","last_reported":1706465249,"current_range_meters":400,"station_id":"ce4bh3p2rcd13ifvqdp0","pricing_plan_id":"free"},{"bike_id":"f5297f88-03d1-4b62-bcf2-d3a50d4eba0a","system_id":"levelo_inurba_marseille","lat":43.297755,"lon":5.393395,"is_reserved":false,"is_disabled":false,"rental_uris":{"android":"levelo://app?vid=f5297f88-03d1-4b62-bcf2-d3a50d4eba0a","ios":"levelo://app?vid=f5297f88-03d1-4b62-bcf2-d3a50d4eba0a"},"vehicle_type_id":"4","last_reported":1706465249,"current_range_meters":20400,"station_id":"chh1huq6cuj3fo74tm60","pricing_plan_id":"free"},{"bike_id":"c466d33f-03ef-4c19-a614-00f3badefca1","system_id":"levelo_inurba_marseille","lat":43.295169,"lon":5.390426,"is_reserved":false,"is_disabled":false,"rental_uris":{"android":"levelo://app?vid=c466d33f-03ef-4c19-a614-00f3badefca1","ios":"levelo://app?vid=c466d33f-03ef-4c19-a614-00f3badefca1"},"vehicle_type_id":"4","last_reported":1706465249,"current_range_meters":24000,"station_id":"ce4bh3p2rcd13ifvqdp0","pricing_plan_id":"free"},{"bike_id":"2b9ede53-73e1-46be-b0b8-c7474e7c57dd","system_id":"levelo_inurba_marseille","lat":43.295169,"lon":5.390426,"is_reserved":false,"is_disabled":false,"rental_uris":{"android":"levelo://app?vid=2b9ede53-73e1-46be-b0b8-c7474e7c57dd","ios":"levelo://app?vid=2b9ede53-73e1-46be-b0b8-c7474e7c57dd"},"vehicle_type_id":"4","last_reported":1706465249,"current_range_meters":0,"station_id":"ce4bh3p2rcd13ifvqdp0","pricing_plan_id":"free"},{"bike_id":"f38d6f48-1662-4a93-8339-84c69e2a7ec6","system_id":"levelo_inurba_marseille","lat":43.29523,"lon":5.39036,"is_reserved":false,"is_disabled":false,"rental_uris":{"android":"levelo://app?vid=f38d6f48-1662-4a93-8339-84c69e2a7ec6","ios":"levelo://app?vid=f38d6f48-1662-4a93-8339-84c69e2a7ec6"},"vehicle_type_id":"4","last_reported":1706465249,"current_range_meters":0,"station_id":"ce4bh3p2rcd13ifvqdp0","pricing_plan_id":"free"},{"bike_id":"efdf2999-ef6e-4b21-a733-3b593c0bc81d","system_id":"levelo_inurba_marseille","lat":43.295247,"lon":5.390451,"is_reserved":false,"is_disabled":false,"rental_uris":{"android":"levelo://app?vid=efdf2999-ef6e-4b21-a733-3b593c0bc81d","ios":"levelo://app?vid=efdf2999-ef6e-4b21-a733-3b593c0bc81d"},"vehicle_type_id":"4","last_reported":1706465249,"current_range_meters":8800,"station_id":"ce4bh3p2rcd13ifvqdp0","pricing_plan_id":"free"},{"bike_id":"01d0f14a-f067-4f27-97b5-c906871d77c2","system_id":"levelo_inurba_marseille","lat":43.2901,"lon":5.381269,"is_reserved":false,"is_disabled":false,"rental_uris":{"android":"levelo://app?vid=01d0f14a-f067-4f27-97b5-c906871d77c2","ios":"levelo://app?vid=01d0f14a-f067-4f27-97b5-c906871d77c2"},"vehicle_type_id":"4","last_reported":1706465249,"current_range_meters":26000,"station_id":"ce4bh4p2rcd13ifvqe1g","pricing_plan_id":"free"},{"bike_id":"d61c6fe5-95e0-4dd4-bbb7-4bcda9afedec","system_id":"levelo_inurba_marseille","lat":43.2901,"lon":5.381269,"is_reserved":false,"is_disabled":false,"rental_uris":{"android":"levelo://app?vid=d61c6fe5-95e0-4dd4-bbb7-4bcda9afedec","ios":"levelo://app?vid=d61c6fe5-95e0-4dd4-bbb7-4bcda9afedec"},"vehicle_type_id":"4","last_reported":1706465249,"current_range_meters":17600,"station_id":"ce4bh4p2rcd13ifvqe1g","pricing_plan_id":"free"},{"bike_id":"d69e0e7c-1274-4c9f-b35e-24c5e2ccdc2d","system_id":"levelo_inurba_marseille","lat":43.28856,"lon":5.358371,"is_reserved":false,"is_disabled":false,"rental_uris":{"android":"levelo://app?vid=d69e0e7c-1274-4c9f-b35e-24c5e2ccdc2d","ios":"levelo://app?vid=d69e0e7c-1274-4c9f-b35e-24c5e2ccdc2d"},"vehicle_type_id":"4","last_reported":1706465249,"current_range_meters":7600,"station_id":"ce4bhb12rcd13ifvqem0","pricing_plan_id":"free"},{"bike_id":"b44add22-381f-4738-b3df-83b5d32e6cca","system_id":"levelo_inurba_marseille","lat":43.309371,"lon":5.401449,"is_reserved":false,"is_disabled":false,"rental_uris":{"android":"levelo://app?vid=b44add22-381f-4738-b3df-83b5d32e6cca","ios":"levelo://app?vid=b44add22-381f-4738-b3df-83b5d32e6cca"},"vehicle_type_id":"4","last_reported":1706465249,"current_range_meters":0,"station_id":"ce4bgvp2rcd13ifvqct0","pricing_plan_id":"free"},{"bike_id":"0f2c1b5b-2255-427d-8e1c-a2e4920df7dd","system_id":"levelo_inurba_marseille","lat":43.337468,"lon":5.374418,"is_reserved":false,"is_disabled":false,"rental_uris":{"android":"levelo://app?vid=0f2c1b5b-2255-427d-8e1c-a2e4920df7dd","ios":"levelo://app?vid=0f2c1b5b-2255-427d-8e1c-a2e4920df7dd"},"vehicle_type_id":"4","last_reported":1706465249,"current_range_meters":26000,"station_id":"","pricing_plan_id":"free"},{"bike_id":"a563cdbf-78b8-441c-8dce-8da1c3325b92","system_id":"levelo_inurba_marseille","lat":43.337516,"lon":5.374556,"is_reserved":false,"is_disabled":false,"rental_uris":{"android":"levelo://app?vid=a563cdbf-78b8-441c-8dce-8da1c3325b92","ios":"levelo://app?vid=a563cdbf-78b8-441c-8dce-8da1c3325b92"},"vehicle_type_id":"4","last_reported":1706465249,"current_range_meters":19200,"station_id":"","pricing_plan_id":"free"},{"bike_id":"b7f12eab-e0a6-499e-87ec-2b4381c4602a","system_id":"levelo_inurba_marseille","lat":43.337528,"lon":5.374573,"is_reserved":false,"is_disabled":false,"rental_uris":{"android":"levelo://app?vid=b7f12eab-e0a6-499e-87ec-2b4381c4602a","ios":"levelo://app?vid=b7f12eab-e0a6-499e-87ec-2b4381c4602a"},"vehicle_type_id":"4","last_reported":1706465249,"current_range_meters":24000,"station_id":"","pricing_plan_id":"free"},{"bike_id":"ce5cd671-7274-4c76-9ee7-e22a8ce37c17","system_id":"levelo_inurba_marseille","lat":43.337621,"lon":5.374534,"is_reserved":false,"is_disabled":false,"rental_uris":{"android":"levelo://app?vid=ce5cd671-7274-4c76-9ee7-e22a8ce37c17","ios":"levelo://app?vid=ce5cd671-7274-4c76-9ee7-e22a8ce37c17"},"vehicle_type_id":"4","last_reported":1706465249,"current_range_meters":20000,"station_id":"","pricing_plan_id":"free"},{"bike_id":"2fe24097-b1c2-4583-ba1f-cf8501171a4c","system_id":"levelo_inurba_marseille","lat":43.33758,"lon":5.37489,"is_reserved":false,"is_disabled":false,"rental_uris":{"android":"levelo://app?vid=2fe24097-b1c2-4583-ba1f-cf8501171a4c","ios":"levelo://app?vid=2fe24097-b1c2-4583-ba1f-cf8501171a4c"},"vehicle_type_id":"4","last_reported":1706465249,"current_range_meters":10800,"station_id":"","pricing_plan_id":"free"},{"bike_id":"be00ed06-6b3d-4e64-98e6-176eb0bc97d0","system_id":"levelo_inurba_marseille","lat":43.309371,"lon":5.401449,"is_reserved":false,"is_disabled":false,"rental_uris":{"android":"levelo://app?vid=be00ed06-6b3d-4e64-98e6-176eb0bc97d0","ios":"levelo://app?vid=be00ed06-6b3d-4e64-98e6-176eb0bc97d0"},"vehicle_type_id":"4","last_reported":1706465249,"current_range_meters":400,"station_id":"ce4bgvp2rcd13ifvqct0","pricing_plan_id":"free"},{"bike_id":"7264bd3f-a700-48ff-b5eb-6212ffbcf439","system_id":"levelo_inurba_marseille","lat":43.30642,"lon":5.401031,"is_reserved":false,"is_disabled":false,"rental_uris":{"android":"levelo://app?vid=7264bd3f-a700-48ff-b5eb-6212ffbcf439","ios":"levelo://app?vid=7264bd3f-a700-48ff-b5eb-6212ffbcf439"},"vehicle_type_id":"4","last_reported":1706465249,"current_range_meters":11600,"station_id":"ce4bh112rcd13ifvqda0","pricing_plan_id":"free"},{"bike_id":"1facbbf3-baac-42f8-85eb-cb1e36f3e4b9","system_id":"levelo_inurba_marseille","lat":43.3376,"lon":5.3749,"is_reserved":false,"is_disabled":false,"rental_uris":{"android":"levelo://app?vid=1facbbf3-baac-42f8-85eb-cb1e36f3e4b9","ios":"levelo://app?vid=1facbbf3-baac-42f8-85eb-cb1e36f3e4b9"},"vehicle_type_id":"4","last_reported":1706465249,"current_range_meters":13200,"station_id":"","pricing_plan_id":"free"},{"bike_id":"b7d3b81d-d85a-44b5-a0c7-8f9c9f74639e","system_id":"levelo_inurba_marseille","lat":43.33765,"lon":5.374672,"is_reserved":false,"is_disabled":false,"rental_uris":{"android":"levelo://app?vid=b7d3b81d-d85a-44b5-a0c7-8f9c9f74639e","ios":"levelo://app?vid=b7d3b81d-d85a-44b5-a0c7-8f9c9f74639e"},"vehicle_type_id":"4","last_reported":1706465249,"current_range_meters":26000,"station_id":"","pricing_plan_id":"free"},{"bike_id":"40fa4522-1e63-4109-b1ab-9778342875a3","system_id":"levelo_inurba_marseille","lat":43.298681,"lon":5.397225,"is_reserved":false,"is_disabled":false,"rental_uris":{"android":"levelo://app?vid=40fa4522-1e63-4109-b1ab-9778342875a3","ios":"levelo://app?vid=40fa4522-1e63-4109-b1ab-9778342875a3"},"vehicle_type_id":"4","last_reported":1706465249,"current_range_meters":28800,"station_id":"ce4bh0h2rcd13ifvqd50","pricing_plan_id":"free"},{"bike_id":"06aa807f-111e-44d9-aeac-36eb37a776dc","system_id":"levelo_inurba_marseille","lat":43.298681,"lon":5.397225,"is_reserved":false,"is_disabled":false,"rental_uris":{"android":"levelo://app?vid=06aa807f-111e-44d9-aeac-36eb37a776dc","ios":"levelo://app?vid=06aa807f-111e-44d9-aeac-36eb37a776dc"},"vehicle_type_id":"4","last_reported":1706465249,"current_range_meters":27600,"station_id":"ce4bh0h2rcd13ifvqd50","pricing_plan_id":"free"},{"bike_id":"b16167e3-1052-43da-9c08-d441a37aa492","system_id":"levelo_inurba_marseille","lat":43.298681,"lon":5.397225,"is_reserved":false,"is_disabled":false,"rental_uris":{"android":"levelo://app?vid=b16167e3-1052-43da-9c08-d441a37aa492","ios":"levelo://app?vid=b16167e3-1052-43da-9c08-d441a37aa492"},"vehicle_type_id":"4","last_reported":1706465249,"current_range_meters":6800,"station_id":"ce4bh0h2rcd13ifvqd50","pricing_plan_id":"free"},{"bike_id":"85e0314b-d799-4d0f-88ee-9aa0b7a6a525","system_id":"levelo_inurba_marseille","lat":43.286961,"lon":5.373785,"is_reserved":false,"is_disabled":false,"rental_uris":{"android":"levelo://app?vid=85e0314b-d799-4d0f-88ee-9aa0b7a6a525","ios":"levelo://app?vid=85e0314b-d799-4d0f-88ee-9aa0b7a6a525"},"vehicle_type_id":"4","last_reported":1706465249,"current_range_meters":800,"station_id":"ce4bh3p2rcd13ifvqdq0","pricing_plan_id":"free"},{"bike_id":"8522c18f-708c-4b10-9b22-57d49e31bd08","system_id":"levelo_inurba_marseille","lat":43.295194,"lon":5.39397,"is_reserved":false,"is_disabled":false,"rental_uris":{"android":"levelo://app?vid=8522c18f-708c-4b10-9b22-57d49e31bd08","ios":"levelo://app?vid=8522c18f-708c-4b10-9b22-57d49e31bd08"},"vehicle_type_id":"4","last_reported":1706465249,"current_range_meters":17200,"station_id":"ce4bh292rcd13ifvqdf0","pricing_plan_id":"free"},{"bike_id":"2fd6249d-582f-4c1a-80e9-eed91193e373","system_id":"levelo_inurba_marseille","lat":43.298681,"lon":5.397225,"is_reserved":false,"is_disabled":false,"rental_uris":{"android":"levelo://app?vid=2fd6249d-582f-4c1a-80e9-eed91193e373","ios":"levelo://app?vid=2fd6249d-582f-4c1a-80e9-eed91193e373"},"vehicle_type_id":"4","last_reported":1706465249,"current_range_meters":19200,"station_id":"ce4bh0h2rcd13ifvqd50","pricing_plan_id":"free"},{"bike_id":"8cc9efb3-b18a-4d7d-9d36-943d3f1426b0","system_id":"levelo_inurba_marseille","lat":43.286961,"lon":5.373785,"is_reserved":false,"is_disabled":false,"rental_uris":{"android":"levelo://app?vid=8cc9efb3-b18a-4d7d-9d36-943d3f1426b0","ios":"levelo://app?vid=8cc9efb3-b18a-4d7d-9d36-943d3f1426b0"},"vehicle_type_id":"4","last_reported":1706465249,"current_range_meters":0,"station_id":"ce4bh3p2rcd13ifvqdq0","pricing_plan_id":"free"},{"bike_id":"94c712f0-2471-4cbf-b779-4b1642f80194","system_id":"levelo_inurba_marseille","lat":43.286961,"lon":5.373785,"is_reserved":false,"is_disabled":false,"rental_uris":{"android":"levelo://app?vid=94c712f0-2471-4cbf-b779-4b1642f80194","ios":"levelo://app?vid=94c712f0-2471-4cbf-b779-4b1642f80194"},"vehicle_type_id":"4","last_reported":1706465249,"current_range_meters":9200,"station_id":"ce4bh3p2rcd13ifvqdq0","pricing_plan_id":"free"},{"bike_id":"cc644acb-1160-442c-b5b0-55a4344a662a","system_id":"levelo_inurba_marseille","lat":43.295196,"lon":5.39397,"is_reserved":false,"is_disabled":false,"rental_uris":{"android":"levelo://app?vid=cc644acb-1160-442c-b5b0-55a4344a662a","ios":"levelo://app?vid=cc644acb-1160-442c-b5b0-55a4344a662a"},"vehicle_type_id":"4","last_reported":1706465249,"current_range_meters":8000,"station_id":"ce4bh292rcd13ifvqdf0","pricing_plan_id":"free"},{"bike_id":"a9b48578-3791-4c55-85fe-aa12232acf92","system_id":"levelo_inurba_marseille","lat":43.295196,"lon":5.39397,"is_reserved":false,"is_disabled":false,"rental_uris":{"android":"levelo://app?vid=a9b48578-3791-4c55-85fe-aa12232acf92","ios":"levelo://app?vid=a9b48578-3791-4c55-85fe-aa12232acf92"},"vehicle_type_id":"4","last_reported":1706465249,"current_range_meters":19600,"station_id":"ce4bh292rcd13ifvqdf0","pricing_plan_id":"free"},{"bike_id":"11d28009-b60b-43bf-a1da-d2e8fd5739e5","system_id":"levelo_inurba_marseille","lat":43.289307,"lon":5.38406,"is_reserved":false,"is_disabled":false,"rental_uris":{"android":"levelo://app?vid=11d28009-b60b-43bf-a1da-d2e8fd5739e5","ios":"levelo://app?vid=11d28009-b60b-43bf-a1da-d2e8fd5739e5"},"vehicle_type_id":"4","last_reported":1706465249,"current_range_meters":12800,"station_id":"ce4bh612rcd13ifvqe6g","pricing_plan_id":"free"},{"bike_id":"45a44a0e-89e6-41e9-9d4d-5c4e2fee89bf","system_id":"levelo_inurba_marseille","lat":43.302759,"lon":5.400793,"is_reserved":false,"is_disabled":false,"rental_uris":{"android":"levelo://app?vid=45a44a0e-89e6-41e9-9d4d-5c4e2fee89bf","ios":"levelo://app?vid=45a44a0e-89e6-41e9-9d4d-5c4e2fee89bf"},"vehicle_type_id":"4","last_reported":1706465249,"current_range_meters":800,"station_id":"ce4bgvh2rcd13ifvqcs0","pricing_plan_id":"free"},{"bike_id":"ce168945-edaa-4e78-9084-bfcb24fe8d86","system_id":"levelo_inurba_marseille","lat":43.289307,"lon":5.38406,"is_reserved":false,"is_disabled":false,"rental_uris":{"android":"levelo://app?vid=ce168945-edaa-4e78-9084-bfcb24fe8d86","ios":"levelo://app?vid=ce168945-edaa-4e78-9084-bfcb24fe8d86"},"vehicle_type_id":"4","last_reported":1706465249,"current_range_meters":8800,"station_id":"ce4bh612rcd13ifvqe6g","pricing_plan_id":"free"},{"bike_id":"5cff1730-97ae-4213-9d8c-63d4436b03c9","system_id":"levelo_inurba_marseille","lat":43.302759,"lon":5.400793,"is_reserved":false,"is_disabled":false,"rental_uris":{"android":"levelo://app?vid=5cff1730-97ae-4213-9d8c-63d4436b03c9","ios":"levelo://app?vid=5cff1730-97ae-4213-9d8c-63d4436b03c9"},"vehicle_type_id":"4","last_reported":1706465249,"current_range_meters":4800,"station_id":"ce4bgvh2rcd13ifvqcs0","pricing_plan_id":"free"},{"bike_id":"183bb1c1-398f-466c-b05d-327ac4efc436","system_id":"levelo_inurba_marseille","lat":43.302511,"lon":5.400653,"is_reserved":false,"is_disabled":false,"rental_uris":{"android":"levelo://app?vid=183bb1c1-398f-466c-b05d-327ac4efc436","ios":"levelo://app?vid=183bb1c1-398f-466c-b05d-327ac4efc436"},"vehicle_type_id":"4","last_reported":1706465249,"current_range_meters":10400,"station_id":"ce4bgth2rcd13ifvqch0","pricing_plan_id":"free"},{"bike_id":"f35acf26-0068-4375-969f-0b27048f9dee","system_id":"levelo_inurba_marseille","lat":43.290336,"lon":5.386425,"is_reserved":false,"is_disabled":false,"rental_uris":{"android":"levelo://app?vid=f35acf26-0068-4375-969f-0b27048f9dee","ios":"levelo://app?vid=f35acf26-0068-4375-969f-0b27048f9dee"},"vehicle_type_id":"4","last_reported":1706465249,"current_range_meters":12000,"station_id":"ce4bh4p2rcd13ifvqe0g","pricing_plan_id":"free"},{"bike_id":"b71b50f9-144d-46ef-9389-ff2bce9d374a","system_id":"levelo_inurba_marseille","lat":43.302759,"lon":5.400793,"is_reserved":false,"is_disabled":false,"rental_uris":{"android":"levelo://app?vid=b71b50f9-144d-46ef-9389-ff2bce9d374a","ios":"levelo://app?vid=b71b50f9-144d-46ef-9389-ff2bce9d374a"},"vehicle_type_id":"4","last_reported":1706465249,"current_range_meters":10000,"station_id":"ce4bgvh2rcd13ifvqcs0","pricing_plan_id":"free"},{"bike_id":"7363e69e-a431-40a5-a32b-6cc163f0b718","system_id":"levelo_inurba_marseille","lat":43.302759,"lon":5.400793,"is_reserved":false,"is_disabled":false,"rental_uris":{"android":"levelo://app?vid=7363e69e-a431-40a5-a32b-6cc163f0b718","ios":"levelo://app?vid=7363e69e-a431-40a5-a32b-6cc163f0b718"},"vehicle_type_id":"4","last_reported":1706465249,"current_range_meters":24400,"station_id":"ce4bgvh2rcd13ifvqcs0","pricing_plan_id":"free"},{"bike_id":"deb75980-30f4-417e-83b6-8625ec2a9b71","system_id":"levelo_inurba_marseille","lat":43.28602,"lon":5.37064,"is_reserved":false,"is_disabled":false,"rental_uris":{"android":"levelo://app?vid=deb75980-30f4-417e-83b6-8625ec2a9b71","ios":"levelo://app?vid=deb75980-30f4-417e-83b6-8625ec2a9b71"},"vehicle_type_id":"4","last_reported":1706465249,"current_range_meters":0,"station_id":"","pricing_plan_id":"free"},{"bike_id":"d070d35c-b770-4b69-8349-cf734a6d42bc","system_id":"levelo_inurba_marseille","lat":43.287184,"lon":5.37937,"is_reserved":false,"is_disabled":false,"rental_uris":{"android":"levelo://app?vid=d070d35c-b770-4b69-8349-cf734a6d42bc","ios":"levelo://app?vid=d070d35c-b770-4b69-8349-cf734a6d42bc"},"vehicle_type_id":"4","last_reported":1706465249,"current_range_meters":21200,"station_id":"ce4bh9p2rcd13ifvqec0","pricing_plan_id":"free"},{"bike_id":"a63f7f36-aecb-4167-8e7f-47b580f58475","system_id":"levelo_inurba_marseille","lat":43.2886,"lon":5.38701,"is_reserved":false,"is_disabled":false,"rental_uris":{"android":"levelo://app?vid=a63f7f36-aecb-4167-8e7f-47b580f58475","ios":"levelo://app?vid=a63f7f36-aecb-4167-8e7f-47b580f58475"},"vehicle_type_id":"4","last_reported":1706465249,"current_range_meters":4000,"station_id":"","pricing_plan_id":"free"},{"bike_id":"2863b70f-13b7-4ab0-a780-06b5ac335a0b","system_id":"levelo_inurba_marseille","lat":43.284534,"lon":5.358662,"is_reserved":false,"is_disabled":false,"rental_uris":{"android":"levelo://app?vid=2863b70f-13b7-4ab0-a780-06b5ac335a0b","ios":"levelo://app?vid=2863b70f-13b7-4ab0-a780-06b5ac335a0b"},"vehicle_type_id":"4","last_reported":1706465249,"current_range_meters":12800,"station_id":"ce4bhah2rcd13ifvqei0","pricing_plan_id":"free"},{"bike_id":"c2cbb6bf-fb59-48e2-84fb-d1346cec9d80","system_id":"levelo_inurba_marseille","lat":43.28459,"lon":5.35904,"is_reserved":false,"is_disabled":false,"rental_uris":{"android":"levelo://app?vid=c2cbb6bf-fb59-48e2-84fb-d1346cec9d80","ios":"levelo://app?vid=c2cbb6bf-fb59-48e2-84fb-d1346cec9d80"},"vehicle_type_id":"4","last_reported":1706465249,"current_range_meters":31200,"station_id":"ce4bhah2rcd13ifvqei0","pricing_plan_id":"free"},{"bike_id":"3fdb14ed-4452-42e6-9659-7a0cdecb06ce","system_id":"levelo_inurba_marseille","lat":43.284538,"lon":5.358657,"is_reserved":false,"is_disabled":false,"rental_uris":{"android":"levelo://app?vid=3fdb14ed-4452-42e6-9659-7a0cdecb06ce","ios":"levelo://app?vid=3fdb14ed-4452-42e6-9659-7a0cdecb06ce"},"vehicle_type_id":"4","last_reported":1706465249,"current_range_meters":22400,"station_id":"ce4bhah2rcd13ifvqei0","pricing_plan_id":"free"},{"bike_id":"fedc2199-7bfa-40f7-87d0-67abb886fa5c","system_id":"levelo_inurba_marseille","lat":43.294314,"lon":5.397498,"is_reserved":false,"is_disabled":false,"rental_uris":{"android":"levelo://app?vid=fedc2199-7bfa-40f7-87d0-67abb886fa5c","ios":"levelo://app?vid=fedc2199-7bfa-40f7-87d0-67abb886fa5c"},"vehicle_type_id":"4","last_reported":1706465249,"current_range_meters":14400,"station_id":"ce4bh3h2rcd13ifvqdo0","pricing_plan_id":"free"},{"bike_id":"0c787554-3de1-4b7e-9363-ec271e02f991","system_id":"levelo_inurba_marseille","lat":43.285856,"lon":5.350771,"is_reserved":false,"is_disabled":false,"rental_uris":{"android":"levelo://app?vid=0c787554-3de1-4b7e-9363-ec271e02f991","ios":"levelo://app?vid=0c787554-3de1-4b7e-9363-ec271e02f991"},"vehicle_type_id":"4","last_reported":1706465249,"current_range_meters":10000,"station_id":"ce4bhch2rcd13ifvqeug","pricing_plan_id":"free"},{"bike_id":"bb525bcb-9107-4eda-9abe-64546f563d30","system_id":"levelo_inurba_marseille","lat":43.295713,"lon":5.399639,"is_reserved":false,"is_disabled":false,"rental_uris":{"android":"levelo://app?vid=bb525bcb-9107-4eda-9abe-64546f563d30","ios":"levelo://app?vid=bb525bcb-9107-4eda-9abe-64546f563d30"},"vehicle_type_id":"4","last_reported":1706465249,"current_range_meters":5600,"station_id":"ce4bh312rcd13ifvqdj0","pricing_plan_id":"free"},{"bike_id":"e7ef916e-56db-4738-a6ee-e86a487e64d4","system_id":"levelo_inurba_marseille","lat":43.295713,"lon":5.399639,"is_reserved":false,"is_disabled":false,"rental_uris":{"android":"levelo://app?vid=e7ef916e-56db-4738-a6ee-e86a487e64d4","ios":"levelo://app?vid=e7ef916e-56db-4738-a6ee-e86a487e64d4"},"vehicle_type_id":"4","last_reported":1706465249,"current_range_meters":2400,"station_id":"ce4bh312rcd13ifvqdj0","pricing_plan_id":"free"},{"bike_id":"6493c0c8-a154-4aa1-b5e5-3e78be95af6f","system_id":"levelo_inurba_marseille","lat":43.28404,"lon":5.37526,"is_reserved":false,"is_disabled":false,"rental_uris":{"android":"levelo://app?vid=6493c0c8-a154-4aa1-b5e5-3e78be95af6f","ios":"levelo://app?vid=6493c0c8-a154-4aa1-b5e5-3e78be95af6f"},"vehicle_type_id":"4","last_reported":1706465249,"current_range_meters":0,"station_id":"ce4bh412rcd13ifvqds0","pricing_plan_id":"free"},{"bike_id":"8f8d91d9-585f-48ba-9111-1b7140a6f671","system_id":"levelo_inurba_marseille","lat":43.283998,"lon":5.375062,"is_reserved":false,"is_disabled":false,"rental_uris":{"android":"levelo://app?vid=8f8d91d9-585f-48ba-9111-1b7140a6f671","ios":"levelo://app?vid=8f8d91d9-585f-48ba-9111-1b7140a6f671"},"vehicle_type_id":"4","last_reported":1706465249,"current_range_meters":14800,"station_id":"ce4bh412rcd13ifvqds0","pricing_plan_id":"free"},{"bike_id":"5dfd4493-cfb8-4129-8628-9955aa7c8e72","system_id":"levelo_inurba_marseille","lat":43.283998,"lon":5.375062,"is_reserved":false,"is_disabled":false,"rental_uris":{"android":"levelo://app?vid=5dfd4493-cfb8-4129-8628-9955aa7c8e72","ios":"levelo://app?vid=5dfd4493-cfb8-4129-8628-9955aa7c8e72"},"vehicle_type_id":"4","last_reported":1706465249,"current_range_meters":6400,"station_id":"ce4bh412rcd13ifvqds0","pricing_plan_id":"free"},{"bike_id":"230c2a70-6391-44a1-9143-17dbaed5b682","system_id":"levelo_inurba_marseille","lat":43.28687,"lon":5.38649,"is_reserved":false,"is_disabled":false,"rental_uris":{"android":"levelo://app?vid=230c2a70-6391-44a1-9143-17dbaed5b682","ios":"levelo://app?vid=230c2a70-6391-44a1-9143-17dbaed5b682"},"vehicle_type_id":"4","last_reported":1706465249,"current_range_meters":2400,"station_id":"ce4bh492rcd13ifvqdug","pricing_plan_id":"free"},{"bike_id":"a6e949ec-b37c-40d1-a5e8-778446982eae","system_id":"levelo_inurba_marseille","lat":43.286595,"lon":5.386795,"is_reserved":false,"is_disabled":false,"rental_uris":{"android":"levelo://app?vid=a6e949ec-b37c-40d1-a5e8-778446982eae","ios":"levelo://app?vid=a6e949ec-b37c-40d1-a5e8-778446982eae"},"vehicle_type_id":"4","last_reported":1706465249,"current_range_meters":26400,"station_id":"ce4bh492rcd13ifvqdug","pricing_plan_id":"free"},{"bike_id":"add788c3-7705-4383-a15b-58a05905e1e5","system_id":"levelo_inurba_marseille","lat":43.286595,"lon":5.386795,"is_reserved":false,"is_disabled":false,"rental_uris":{"android":"levelo://app?vid=add788c3-7705-4383-a15b-58a05905e1e5","ios":"levelo://app?vid=add788c3-7705-4383-a15b-58a05905e1e5"},"vehicle_type_id":"4","last_reported":1706465249,"current_range_meters":24400,"station_id":"ce4bh492rcd13ifvqdug","pricing_plan_id":"free"},{"bike_id":"50b1af7f-697c-456a-b2c0-aaf507c51a13","system_id":"levelo_inurba_marseille","lat":43.33717,"lon":5.391857,"is_reserved":false,"is_disabled":false,"rental_uris":{"android":"levelo://app?vid=50b1af7f-697c-456a-b2c0-aaf507c51a13","ios":"levelo://app?vid=50b1af7f-697c-456a-b2c0-aaf507c51a13"},"vehicle_type_id":"4","last_reported":1706465249,"current_range_meters":28000,"station_id":"ce4bhr92rcd13ifvqhsg","pricing_plan_id":"free"},{"bike_id":"1f91e2c7-8dae-4511-9796-b6a4370a466f","system_id":"levelo_inurba_marseille","lat":43.284793,"lon":5.384113,"is_reserved":false,"is_disabled":false,"rental_uris":{"android":"levelo://app?vid=1f91e2c7-8dae-4511-9796-b6a4370a466f","ios":"levelo://app?vid=1f91e2c7-8dae-4511-9796-b6a4370a466f"},"vehicle_type_id":"4","last_reported":1706465249,"current_range_meters":2400,"station_id":"ce4bh512rcd13ifvqe3g","pricing_plan_id":"free"},{"bike_id":"be2f8caa-6ad1-4a16-a5d8-44b9fe6f840d","system_id":"levelo_inurba_marseille","lat":43.284793,"lon":5.384113,"is_reserved":false,"is_disabled":false,"rental_uris":{"android":"levelo://app?vid=be2f8caa-6ad1-4a16-a5d8-44b9fe6f840d","ios":"levelo://app?vid=be2f8caa-6ad1-4a16-a5d8-44b9fe6f840d"},"vehicle_type_id":"4","last_reported":1706465249,"current_range_meters":0,"station_id":"ce4bh512rcd13ifvqe3g","pricing_plan_id":"free"},{"bike_id":"f98f60a8-bc26-4cd9-abc1-e43b5f9e7251","system_id":"levelo_inurba_marseille","lat":43.284793,"lon":5.384113,"is_reserved":false,"is_disabled":false,"rental_uris":{"android":"levelo://app?vid=f98f60a8-bc26-4cd9-abc1-e43b5f9e7251","ios":"levelo://app?vid=f98f60a8-bc26-4cd9-abc1-e43b5f9e7251"},"vehicle_type_id":"4","last_reported":1706465249,"current_range_meters":0,"station_id":"ce4bh512rcd13ifvqe3g","pricing_plan_id":"free"},{"bike_id":"84a7c586-531c-4501-aa08-fa5e17f3ad8e","system_id":"levelo_inurba_marseille","lat":43.28475,"lon":5.38428,"is_reserved":false,"is_disabled":false,"rental_uris":{"android":"levelo://app?vid=84a7c586-531c-4501-aa08-fa5e17f3ad8e","ios":"levelo://app?vid=84a7c586-531c-4501-aa08-fa5e17f3ad8e"},"vehicle_type_id":"4","last_reported":1706465249,"current_range_meters":0,"station_id":"ce4bh512rcd13ifvqe3g","pricing_plan_id":"free"},{"bike_id":"80298316-9ccd-4755-b431-b696a6cd1a37","system_id":"levelo_inurba_marseille","lat":43.288497,"lon":5.393089,"is_reserved":false,"is_disabled":false,"rental_uris":{"android":"levelo://app?vid=80298316-9ccd-4755-b431-b696a6cd1a37","ios":"levelo://app?vid=80298316-9ccd-4755-b431-b696a6cd1a37"},"vehicle_type_id":"4","last_reported":1706465249,"current_range_meters":0,"station_id":"ce4bh2p2rcd13ifvqdi0","pricing_plan_id":"free"},{"bike_id":"025768fc-953e-4e1f-bc47-2e76895221ff","system_id":"levelo_inurba_marseille","lat":43.283494,"lon":5.380945,"is_reserved":false,"is_disabled":false,"rental_uris":{"android":"levelo://app?vid=025768fc-953e-4e1f-bc47-2e76895221ff","ios":"levelo://app?vid=025768fc-953e-4e1f-bc47-2e76895221ff"},"vehicle_type_id":"4","last_reported":1706465249,"current_range_meters":12000,"station_id":"ce4bh412rcd13ifvqdr0","pricing_plan_id":"free"},{"bike_id":"24d96dcf-d1eb-4995-8bfa-13d71ac46fe7","system_id":"levelo_inurba_marseille","lat":43.283494,"lon":5.380945,"is_reserved":false,"is_disabled":false,"rental_uris":{"android":"levelo://app?vid=24d96dcf-d1eb-4995-8bfa-13d71ac46fe7","ios":"levelo://app?vid=24d96dcf-d1eb-4995-8bfa-13d71ac46fe7"},"vehicle_type_id":"4","last_reported":1706465249,"current_range_meters":15600,"station_id":"ce4bh412rcd13ifvqdr0","pricing_plan_id":"free"},{"bike_id":"b41bcd76-cb12-4b33-95cd-9444d1e23578","system_id":"levelo_inurba_marseille","lat":43.293556,"lon":5.401561,"is_reserved":false,"is_disabled":false,"rental_uris":{"android":"levelo://app?vid=b41bcd76-cb12-4b33-95cd-9444d1e23578","ios":"levelo://app?vid=b41bcd76-cb12-4b33-95cd-9444d1e23578"},"vehicle_type_id":"4","last_reported":1706465249,"current_range_meters":5200,"station_id":"","pricing_plan_id":"free"},{"bike_id":"6d191f29-0d73-4ff1-8c43-c6f61b09ce5e","system_id":"levelo_inurba_marseille","lat":43.33717,"lon":5.391857,"is_reserved":false,"is_disabled":false,"rental_uris":{"android":"levelo://app?vid=6d191f29-0d73-4ff1-8c43-c6f61b09ce5e","ios":"levelo://app?vid=6d191f29-0d73-4ff1-8c43-c6f61b09ce5e"},"vehicle_type_id":"4","last_reported":1706465249,"current_range_meters":24800,"station_id":"ce4bhr92rcd13ifvqhsg","pricing_plan_id":"free"},{"bike_id":"56b4511b-ed76-4308-8be3-5a37ca6a056c","system_id":"levelo_inurba_marseille","lat":43.292724,"lon":5.401131,"is_reserved":false,"is_disabled":false,"rental_uris":{"android":"levelo://app?vid=56b4511b-ed76-4308-8be3-5a37ca6a056c","ios":"levelo://app?vid=56b4511b-ed76-4308-8be3-5a37ca6a056c"},"vehicle_type_id":"4","last_reported":1706465249,"current_range_meters":4000,"station_id":"ce4bh312rcd13ifvqdk0","pricing_plan_id":"free"},{"bike_id":"8484ba83-2533-4c28-b2ea-4d918b72d954","system_id":"levelo_inurba_marseille","lat":43.292724,"lon":5.401131,"is_reserved":false,"is_disabled":false,"rental_uris":{"android":"levelo://app?vid=8484ba83-2533-4c28-b2ea-4d918b72d954","ios":"levelo://app?vid=8484ba83-2533-4c28-b2ea-4d918b72d954"},"vehicle_type_id":"4","last_reported":1706465249,"current_range_meters":24000,"station_id":"ce4bh312rcd13ifvqdk0","pricing_plan_id":"free"},{"bike_id":"ebc081b3-d9eb-43e8-9994-accb1a1dd961","system_id":"levelo_inurba_marseille","lat":43.282821,"lon":5.350437,"is_reserved":false,"is_disabled":false,"rental_uris":{"android":"levelo://app?vid=ebc081b3-d9eb-43e8-9994-accb1a1dd961","ios":"levelo://app?vid=ebc081b3-d9eb-43e8-9994-accb1a1dd961"},"vehicle_type_id":"4","last_reported":1706465249,"current_range_meters":17200,"station_id":"ce4bhbp2rcd13ifvqerg","pricing_plan_id":"free"},{"bike_id":"2d863ebb-b666-44e7-9155-d60af5b5d4c7","system_id":"levelo_inurba_marseille","lat":43.280382,"lon":5.369291,"is_reserved":false,"is_disabled":false,"rental_uris":{"android":"levelo://app?vid=2d863ebb-b666-44e7-9155-d60af5b5d4c7","ios":"levelo://app?vid=2d863ebb-b666-44e7-9155-d60af5b5d4c7"},"vehicle_type_id":"4","last_reported":1706465249,"current_range_meters":0,"station_id":"ce4bha12rcd13ifvqef0","pricing_plan_id":"free"},{"bike_id":"a7963451-5119-43fa-bc11-3be522aa835c","system_id":"levelo_inurba_marseille","lat":43.280328,"lon":5.369454,"is_reserved":false,"is_disabled":false,"rental_uris":{"android":"levelo://app?vid=a7963451-5119-43fa-bc11-3be522aa835c","ios":"levelo://app?vid=a7963451-5119-43fa-bc11-3be522aa835c"},"vehicle_type_id":"4","last_reported":1706465249,"current_range_meters":0,"station_id":"ce4bha12rcd13ifvqef0","pricing_plan_id":"free"},{"bike_id":"657e433f-7ab9-4e3f-9d86-eb3ca3de1fae","system_id":"levelo_inurba_marseille","lat":43.290412,"lon":5.399633,"is_reserved":false,"is_disabled":false,"rental_uris":{"android":"levelo://app?vid=657e433f-7ab9-4e3f-9d86-eb3ca3de1fae","ios":"levelo://app?vid=657e433f-7ab9-4e3f-9d86-eb3ca3de1fae"},"vehicle_type_id":"4","last_reported":1706465249,"current_range_meters":24800,"station_id":"ce4bh392rcd13ifvqdm0","pricing_plan_id":"free"},{"bike_id":"3deb0238-d67a-4e2a-9fc0-e02c13638bb3","system_id":"levelo_inurba_marseille","lat":43.281044,"lon":5.378308,"is_reserved":false,"is_disabled":false,"rental_uris":{"android":"levelo://app?vid=3deb0238-d67a-4e2a-9fc0-e02c13638bb3","ios":"levelo://app?vid=3deb0238-d67a-4e2a-9fc0-e02c13638bb3"},"vehicle_type_id":"4","last_reported":1706465249,"current_range_meters":9200,"station_id":"ce4bha12rcd13ifvqee0","pricing_plan_id":"free"},{"bike_id":"6e13a1b2-f7c8-4d5f-8b26-ec5e1fb54eeb","system_id":"levelo_inurba_marseille","lat":43.281044,"lon":5.378308,"is_reserved":false,"is_disabled":false,"rental_uris":{"android":"levelo://app?vid=6e13a1b2-f7c8-4d5f-8b26-ec5e1fb54eeb","ios":"levelo://app?vid=6e13a1b2-f7c8-4d5f-8b26-ec5e1fb54eeb"},"vehicle_type_id":"4","last_reported":1706465249,"current_range_meters":24800,"station_id":"ce4bha12rcd13ifvqee0","pricing_plan_id":"free"},{"bike_id":"ab3db00c-e8f9-47b9-a334-9ae608f7ecb5","system_id":"levelo_inurba_marseille","lat":43.284462,"lon":5.392121,"is_reserved":false,"is_disabled":false,"rental_uris":{"android":"levelo://app?vid=ab3db00c-e8f9-47b9-a334-9ae608f7ecb5","ios":"levelo://app?vid=ab3db00c-e8f9-47b9-a334-9ae608f7ecb5"},"vehicle_type_id":"4","last_reported":1706465249,"current_range_meters":14800,"station_id":"ce4bhoh2rcd13ifvqh5g","pricing_plan_id":"free"},{"bike_id":"ce359fb6-e3d5-45fc-9e26-757bf9375f27","system_id":"levelo_inurba_marseille","lat":43.326605,"lon":5.409903,"is_reserved":false,"is_disabled":false,"rental_uris":{"android":"levelo://app?vid=ce359fb6-e3d5-45fc-9e26-757bf9375f27","ios":"levelo://app?vid=ce359fb6-e3d5-45fc-9e26-757bf9375f27"},"vehicle_type_id":"4","last_reported":1706465249,"current_range_meters":16000,"station_id":"ce4bhpp2rcd13ifvqhgg","pricing_plan_id":"free"},{"bike_id":"490774a6-4917-468e-ac2f-aabcb381f604","system_id":"levelo_inurba_marseille","lat":43.326605,"lon":5.409903,"is_reserved":false,"is_disabled":false,"rental_uris":{"android":"levelo://app?vid=490774a6-4917-468e-ac2f-aabcb381f604","ios":"levelo://app?vid=490774a6-4917-468e-ac2f-aabcb381f604"},"vehicle_type_id":"4","last_reported":1706465249,"current_range_meters":24000,"station_id":"ce4bhpp2rcd13ifvqhgg","pricing_plan_id":"free"},{"bike_id":"2c926ab0-aed6-4205-8c65-298650d00cdd","system_id":"levelo_inurba_marseille","lat":43.279087,"lon":5.380114,"is_reserved":false,"is_disabled":false,"rental_uris":{"android":"levelo://app?vid=2c926ab0-aed6-4205-8c65-298650d00cdd","ios":"levelo://app?vid=2c926ab0-aed6-4205-8c65-298650d00cdd"},"vehicle_type_id":"4","last_reported":1706465249,"current_range_meters":8400,"station_id":"ce4bhf92rcd13ifvqf50","pricing_plan_id":"free"},{"bike_id":"7604bed5-4bb4-430a-8585-8a987d14ddaa","system_id":"levelo_inurba_marseille","lat":43.287154,"lon":5.399979,"is_reserved":false,"is_disabled":false,"rental_uris":{"android":"levelo://app?vid=7604bed5-4bb4-430a-8585-8a987d14ddaa","ios":"levelo://app?vid=7604bed5-4bb4-430a-8585-8a987d14ddaa"},"vehicle_type_id":"4","last_reported":1706465249,"current_range_meters":0,"station_id":"ce4bho92rcd13ifvqh3g","pricing_plan_id":"free"},{"bike_id":"f8c57730-41d1-425b-93fe-d45534c53841","system_id":"levelo_inurba_marseille","lat":43.287154,"lon":5.399979,"is_reserved":false,"is_disabled":false,"rental_uris":{"android":"levelo://app?vid=f8c57730-41d1-425b-93fe-d45534c53841","ios":"levelo://app?vid=f8c57730-41d1-425b-93fe-d45534c53841"},"vehicle_type_id":"4","last_reported":1706465249,"current_range_meters":23600,"station_id":"ce4bho92rcd13ifvqh3g","pricing_plan_id":"free"},{"bike_id":"a539d426-9e55-4e9c-b7bf-13cd28eecf36","system_id":"levelo_inurba_marseille","lat":43.27819,"lon":5.35483,"is_reserved":false,"is_disabled":false,"rental_uris":{"android":"levelo://app?vid=a539d426-9e55-4e9c-b7bf-13cd28eecf36","ios":"levelo://app?vid=a539d426-9e55-4e9c-b7bf-13cd28eecf36"},"vehicle_type_id":"4","last_reported":1706465249,"current_range_meters":7600,"station_id":"","pricing_plan_id":"free"},{"bike_id":"1ead6f12-39a9-44d5-bf44-8e0be8bb24d6","system_id":"levelo_inurba_marseille","lat":43.290345,"lon":5.38646,"is_reserved":false,"is_disabled":false,"rental_uris":{"android":"levelo://app?vid=1ead6f12-39a9-44d5-bf44-8e0be8bb24d6","ios":"levelo://app?vid=1ead6f12-39a9-44d5-bf44-8e0be8bb24d6"},"vehicle_type_id":"4","last_reported":1706465249,"current_range_meters":7600,"station_id":"ce4bh4p2rcd13ifvqe0g","pricing_plan_id":"free"},{"bike_id":"805920db-e4e4-4be8-a13d-b20a53b79471","system_id":"levelo_inurba_marseille","lat":43.279742,"lon":5.38744,"is_reserved":false,"is_disabled":false,"rental_uris":{"android":"levelo://app?vid=805920db-e4e4-4be8-a13d-b20a53b79471","ios":"levelo://app?vid=805920db-e4e4-4be8-a13d-b20a53b79471"},"vehicle_type_id":"4","last_reported":1706465249,"current_range_meters":26400,"station_id":"ce4bhg12rcd13ifvqf80","pricing_plan_id":"free"},{"bike_id":"e3857913-55b6-4640-b3fe-173f84b2621f","system_id":"levelo_inurba_marseille","lat":43.279742,"lon":5.38744,"is_reserved":false,"is_disabled":false,"rental_uris":{"android":"levelo://app?vid=e3857913-55b6-4640-b3fe-173f84b2621f","ios":"levelo://app?vid=e3857913-55b6-4640-b3fe-173f84b2621f"},"vehicle_type_id":"4","last_reported":1706465249,"current_range_meters":4800,"station_id":"ce4bhg12rcd13ifvqf80","pricing_plan_id":"free"},{"bike_id":"90f6c9e0-0bef-460f-a63b-a207468229f3","system_id":"levelo_inurba_marseille","lat":43.292571,"lon":5.409107,"is_reserved":false,"is_disabled":false,"rental_uris":{"android":"levelo://app?vid=90f6c9e0-0bef-460f-a63b-a207468229f3","ios":"levelo://app?vid=90f6c9e0-0bef-460f-a63b-a207468229f3"},"vehicle_type_id":"4","last_reported":1706465249,"current_range_meters":6800,"station_id":"ce4bh192rcd13ifvqdc0","pricing_plan_id":"free"},{"bike_id":"94c15e1b-2a80-4a50-a250-d2c3bc4acb40","system_id":"levelo_inurba_marseille","lat":43.292571,"lon":5.409107,"is_reserved":false,"is_disabled":false,"rental_uris":{"android":"levelo://app?vid=94c15e1b-2a80-4a50-a250-d2c3bc4acb40","ios":"levelo://app?vid=94c15e1b-2a80-4a50-a250-d2c3bc4acb40"},"vehicle_type_id":"4","last_reported":1706465249,"current_range_meters":1600,"station_id":"ce4bh192rcd13ifvqdc0","pricing_plan_id":"free"},{"bike_id":"c7ff393f-b210-44aa-b6a8-8df578cda838","system_id":"levelo_inurba_marseille","lat":43.325233,"lon":5.414318,"is_reserved":false,"is_disabled":false,"rental_uris":{"android":"levelo://app?vid=c7ff393f-b210-44aa-b6a8-8df578cda838","ios":"levelo://app?vid=c7ff393f-b210-44aa-b6a8-8df578cda838"},"vehicle_type_id":"4","last_reported":1706465249,"current_range_meters":18000,"station_id":"ce4bhq12rcd13ifvqhhg","pricing_plan_id":"free"},{"bike_id":"a41ae808-4eee-4985-bc8a-d09a9154c012","system_id":"levelo_inurba_marseille","lat":43.325233,"lon":5.414318,"is_reserved":false,"is_disabled":false,"rental_uris":{"android":"levelo://app?vid=a41ae808-4eee-4985-bc8a-d09a9154c012","ios":"levelo://app?vid=a41ae808-4eee-4985-bc8a-d09a9154c012"},"vehicle_type_id":"4","last_reported":1706465249,"current_range_meters":22400,"station_id":"ce4bhq12rcd13ifvqhhg","pricing_plan_id":"free"},{"bike_id":"6a31b307-756f-4fb4-944b-78d4430bc38b","system_id":"levelo_inurba_marseille","lat":43.280784,"lon":5.396622,"is_reserved":false,"is_disabled":false,"rental_uris":{"android":"levelo://app?vid=6a31b307-756f-4fb4-944b-78d4430bc38b","ios":"levelo://app?vid=6a31b307-756f-4fb4-944b-78d4430bc38b"},"vehicle_type_id":"4","last_reported":1706465249,"current_range_meters":24000,"station_id":"ce4bho12rcd13ifvqh2g","pricing_plan_id":"free"},{"bike_id":"65f27ffa-9b8d-47b7-ae2b-c5091910c286","system_id":"levelo_inurba_marseille","lat":43.280784,"lon":5.396622,"is_reserved":false,"is_disabled":false,"rental_uris":{"android":"levelo://app?vid=65f27ffa-9b8d-47b7-ae2b-c5091910c286","ios":"levelo://app?vid=65f27ffa-9b8d-47b7-ae2b-c5091910c286"},"vehicle_type_id":"4","last_reported":1706465249,"current_range_meters":6800,"station_id":"ce4bho12rcd13ifvqh2g","pricing_plan_id":"free"},{"bike_id":"0d94a6e4-8726-429b-96ab-4a57348364bf","system_id":"levelo_inurba_marseille","lat":43.303837,"lon":5.418724,"is_reserved":false,"is_disabled":false,"rental_uris":{"android":"levelo://app?vid=0d94a6e4-8726-429b-96ab-4a57348364bf","ios":"levelo://app?vid=0d94a6e4-8726-429b-96ab-4a57348364bf"},"vehicle_type_id":"4","last_reported":1706465249,"current_range_meters":19200,"station_id":"ce4bhop2rcd13ifvqh7g","pricing_plan_id":"free"},{"bike_id":"e7218d62-7ac0-49da-8e89-131756f5795c","system_id":"levelo_inurba_marseille","lat":43.303837,"lon":5.418724,"is_reserved":false,"is_disabled":false,"rental_uris":{"android":"levelo://app?vid=e7218d62-7ac0-49da-8e89-131756f5795c","ios":"levelo://app?vid=e7218d62-7ac0-49da-8e89-131756f5795c"},"vehicle_type_id":"4","last_reported":1706465249,"current_range_meters":10000,"station_id":"ce4bhop2rcd13ifvqh7g","pricing_plan_id":"free"},{"bike_id":"13c05d1d-b7ad-460f-99d4-f43b6449833d","system_id":"levelo_inurba_marseille","lat":43.278401,"lon":5.392152,"is_reserved":false,"is_disabled":false,"rental_uris":{"android":"levelo://app?vid=13c05d1d-b7ad-460f-99d4-f43b6449833d","ios":"levelo://app?vid=13c05d1d-b7ad-460f-99d4-f43b6449833d"},"vehicle_type_id":"4","last_reported":1706465249,"current_range_meters":18400,"station_id":"ce4bhjp2rcd13ifvqga0","pricing_plan_id":"free"},{"bike_id":"ec8feff8-6ccb-4ca8-9b6c-3b6901aa6b55","system_id":"levelo_inurba_marseille","lat":43.278399,"lon":5.392139,"is_reserved":false,"is_disabled":false,"rental_uris":{"android":"levelo://app?vid=ec8feff8-6ccb-4ca8-9b6c-3b6901aa6b55","ios":"levelo://app?vid=ec8feff8-6ccb-4ca8-9b6c-3b6901aa6b55"},"vehicle_type_id":"4","last_reported":1706465249,"current_range_meters":0,"station_id":"ce4bhjp2rcd13ifvqga0","pricing_plan_id":"free"},{"bike_id":"f9cb9b62-1b98-4f72-8008-414e93638f04","system_id":"levelo_inurba_marseille","lat":43.278399,"lon":5.392139,"is_reserved":false,"is_disabled":false,"rental_uris":{"android":"levelo://app?vid=f9cb9b62-1b98-4f72-8008-414e93638f04","ios":"levelo://app?vid=f9cb9b62-1b98-4f72-8008-414e93638f04"},"vehicle_type_id":"4","last_reported":1706465249,"current_range_meters":20400,"station_id":"ce4bhjp2rcd13ifvqga0","pricing_plan_id":"free"},{"bike_id":"b4b91133-f6c7-45e1-8f83-5844421d35b0","system_id":"levelo_inurba_marseille","lat":43.27574,"lon":5.38415,"is_reserved":false,"is_disabled":false,"rental_uris":{"android":"levelo://app?vid=b4b91133-f6c7-45e1-8f83-5844421d35b0","ios":"levelo://app?vid=b4b91133-f6c7-45e1-8f83-5844421d35b0"},"vehicle_type_id":"4","last_reported":1706465249,"current_range_meters":17600,"station_id":"ce4bhh92rcd13ifvqfi0","pricing_plan_id":"free"},{"bike_id":"447b3785-12b0-46da-a297-728b04251308","system_id":"levelo_inurba_marseille","lat":43.273609,"lon":5.362708,"is_reserved":false,"is_disabled":false,"rental_uris":{"android":"levelo://app?vid=447b3785-12b0-46da-a297-728b04251308","ios":"levelo://app?vid=447b3785-12b0-46da-a297-728b04251308"},"vehicle_type_id":"4","last_reported":1706465249,"current_range_meters":1200,"station_id":"ce4bhbh2rcd13ifvqeo0","pricing_plan_id":"free"},{"bike_id":"85d2acc1-c05e-4659-a7ec-aa596d3fb459","system_id":"levelo_inurba_marseille","lat":43.292571,"lon":5.409107,"is_reserved":false,"is_disabled":false,"rental_uris":{"android":"levelo://app?vid=85d2acc1-c05e-4659-a7ec-aa596d3fb459","ios":"levelo://app?vid=85d2acc1-c05e-4659-a7ec-aa596d3fb459"},"vehicle_type_id":"4","last_reported":1706465249,"current_range_meters":9600,"station_id":"ce4bh192rcd13ifvqdc0","pricing_plan_id":"free"},{"bike_id":"e0f37a4b-61ed-48ae-8e76-1df84d402b25","system_id":"levelo_inurba_marseille","lat":43.273613,"lon":5.362705,"is_reserved":false,"is_disabled":false,"rental_uris":{"android":"levelo://app?vid=e0f37a4b-61ed-48ae-8e76-1df84d402b25","ios":"levelo://app?vid=e0f37a4b-61ed-48ae-8e76-1df84d402b25"},"vehicle_type_id":"4","last_reported":1706465249,"current_range_meters":20400,"station_id":"ce4bhbh2rcd13ifvqeo0","pricing_plan_id":"free"},{"bike_id":"19054497-89d9-4681-8148-8d1e6c508475","system_id":"levelo_inurba_marseille","lat":43.273613,"lon":5.362705,"is_reserved":false,"is_disabled":false,"rental_uris":{"android":"levelo://app?vid=19054497-89d9-4681-8148-8d1e6c508475","ios":"levelo://app?vid=19054497-89d9-4681-8148-8d1e6c508475"},"vehicle_type_id":"4","last_reported":1706465249,"current_range_meters":7200,"station_id":"ce4bhbh2rcd13ifvqeo0","pricing_plan_id":"free"},{"bike_id":"a21ba42d-6d86-4b50-a826-fe88e9fd009d","system_id":"levelo_inurba_marseille","lat":43.273609,"lon":5.362708,"is_reserved":false,"is_disabled":false,"rental_uris":{"android":"levelo://app?vid=a21ba42d-6d86-4b50-a826-fe88e9fd009d","ios":"levelo://app?vid=a21ba42d-6d86-4b50-a826-fe88e9fd009d"},"vehicle_type_id":"4","last_reported":1706465249,"current_range_meters":0,"station_id":"ce4bhbh2rcd13ifvqeo0","pricing_plan_id":"free"},{"bike_id":"683f5e07-8574-43b4-b819-f0fdbd7dba25","system_id":"levelo_inurba_marseille","lat":43.27564,"lon":5.384155,"is_reserved":false,"is_disabled":false,"rental_uris":{"android":"levelo://app?vid=683f5e07-8574-43b4-b819-f0fdbd7dba25","ios":"levelo://app?vid=683f5e07-8574-43b4-b819-f0fdbd7dba25"},"vehicle_type_id":"4","last_reported":1706465249,"current_range_meters":9600,"station_id":"ce4bhh92rcd13ifvqfi0","pricing_plan_id":"free"},{"bike_id":"e18ffe0e-2b9b-43f8-8865-cc49ffbed68c","system_id":"levelo_inurba_marseille","lat":43.275623,"lon":5.384248,"is_reserved":false,"is_disabled":false,"rental_uris":{"android":"levelo://app?vid=e18ffe0e-2b9b-43f8-8865-cc49ffbed68c","ios":"levelo://app?vid=e18ffe0e-2b9b-43f8-8865-cc49ffbed68c"},"vehicle_type_id":"4","last_reported":1706465249,"current_range_meters":7600,"station_id":"ce4bhh92rcd13ifvqfi0","pricing_plan_id":"free"},{"bike_id":"68f9efc5-0b9d-4030-9388-49c870df6756","system_id":"levelo_inurba_marseille","lat":43.336148,"lon":5.410349,"is_reserved":false,"is_disabled":false,"rental_uris":{"android":"levelo://app?vid=68f9efc5-0b9d-4030-9388-49c870df6756","ios":"levelo://app?vid=68f9efc5-0b9d-4030-9388-49c870df6756"},"vehicle_type_id":"4","last_reported":1706465249,"current_range_meters":26000,"station_id":"ce4bhqh2rcd13ifvqhmg","pricing_plan_id":"free"},{"bike_id":"81e9e01e-1e29-4467-aff8-992019661ef1","system_id":"levelo_inurba_marseille","lat":43.33585,"lon":5.4105,"is_reserved":false,"is_disabled":false,"rental_uris":{"android":"levelo://app?vid=81e9e01e-1e29-4467-aff8-992019661ef1","ios":"levelo://app?vid=81e9e01e-1e29-4467-aff8-992019661ef1"},"vehicle_type_id":"4","last_reported":1706465249,"current_range_meters":0,"station_id":"ce4bhqh2rcd13ifvqhmg","pricing_plan_id":"free"},{"bike_id":"4dafd09a-2426-4120-967b-9d41302cc18c","system_id":"levelo_inurba_marseille","lat":43.336134,"lon":5.410341,"is_reserved":false,"is_disabled":false,"rental_uris":{"android":"levelo://app?vid=4dafd09a-2426-4120-967b-9d41302cc18c","ios":"levelo://app?vid=4dafd09a-2426-4120-967b-9d41302cc18c"},"vehicle_type_id":"4","last_reported":1706465249,"current_range_meters":28000,"station_id":"ce4bhqh2rcd13ifvqhmg","pricing_plan_id":"free"},{"bike_id":"639bb861-3483-4f29-8168-6ef9dd062f10","system_id":"levelo_inurba_marseille","lat":43.336134,"lon":5.410341,"is_reserved":false,"is_disabled":false,"rental_uris":{"android":"levelo://app?vid=639bb861-3483-4f29-8168-6ef9dd062f10","ios":"levelo://app?vid=639bb861-3483-4f29-8168-6ef9dd062f10"},"vehicle_type_id":"4","last_reported":1706465249,"current_range_meters":6400,"station_id":"ce4bhqh2rcd13ifvqhmg","pricing_plan_id":"free"},{"bike_id":"f59124bc-77d9-4c22-9653-b95ed12e9b5c","system_id":"levelo_inurba_marseille","lat":43.27651,"lon":5.38887,"is_reserved":false,"is_disabled":false,"rental_uris":{"android":"levelo://app?vid=f59124bc-77d9-4c22-9653-b95ed12e9b5c","ios":"levelo://app?vid=f59124bc-77d9-4c22-9653-b95ed12e9b5c"},"vehicle_type_id":"4","last_reported":1706465249,"current_range_meters":21600,"station_id":"ce4bhi12rcd13ifvqfo0","pricing_plan_id":"free"},{"bike_id":"4bd60dd4-cfca-4c6e-9ae5-6093bc166708","system_id":"levelo_inurba_marseille","lat":43.279952,"lon":5.400085,"is_reserved":false,"is_disabled":false,"rental_uris":{"android":"levelo://app?vid=4bd60dd4-cfca-4c6e-9ae5-6093bc166708","ios":"levelo://app?vid=4bd60dd4-cfca-4c6e-9ae5-6093bc166708"},"vehicle_type_id":"4","last_reported":1706465249,"current_range_meters":8000,"station_id":"ce4bho92rcd13ifvqh4g","pricing_plan_id":"free"},{"bike_id":"e7a76d3a-92f2-422c-bc73-60f55b998b55","system_id":"levelo_inurba_marseille","lat":43.279952,"lon":5.400085,"is_reserved":false,"is_disabled":false,"rental_uris":{"android":"levelo://app?vid=e7a76d3a-92f2-422c-bc73-60f55b998b55","ios":"levelo://app?vid=e7a76d3a-92f2-422c-bc73-60f55b998b55"},"vehicle_type_id":"4","last_reported":1706465249,"current_range_meters":18000,"station_id":"ce4bho92rcd13ifvqh4g","pricing_plan_id":"free"},{"bike_id":"a7506168-c975-42c6-ae45-1d3a52a4b248","system_id":"levelo_inurba_marseille","lat":43.279952,"lon":5.400085,"is_reserved":false,"is_disabled":false,"rental_uris":{"android":"levelo://app?vid=a7506168-c975-42c6-ae45-1d3a52a4b248","ios":"levelo://app?vid=a7506168-c975-42c6-ae45-1d3a52a4b248"},"vehicle_type_id":"4","last_reported":1706465249,"current_range_meters":22000,"station_id":"ce4bho92rcd13ifvqh4g","pricing_plan_id":"free"},