{"last_updated":1728465005,"ttl":60,"version":"2.2","data":{"bikes":[{"bike_id":"1a861de8-dd78-49a1-9d51-dcd6ec0e8840","system_id":"levelo_inurba_marseille","lat":43.337444,"lon":5.374475,"is_reserved":false,"is_disabled":false,"rental_uris":{"android":"levelo://app?vid=1a861de8-dd78-49a1-9d51-dcd6ec0e8840","ios":"levelo://app?vid=1a861de8-dd78-49a1-9d51-dcd6ec0e8840"},"vehicle_type_id":"4","last_reported":1728465005,"current_range_meters":23200,"station_id":"","pricing_plan_id":"cebpf4jnsgd1na2vs0mg"},{"bike_id":"c60da232-2931-445e-9832-6a7c4cbdbe4f","system_id":"levelo_inurba_marseille","lat":43.25939,"lon":5.40909,"is_reserved":false,"is_disabled":false,"rental_uris":{"android":"levelo://app?vid=c60da232-2931-445e-9832-6a7c4cbdbe4f","ios":"levelo://app?vid=c60da232-2931-445e-9832-6a7c4cbdbe4f"},"vehicle_type_id":"4","last_reported":1728465005,"current_range_meters":28800,"station_id":"ce4bhm92rcd13ifvqglg","pricing_plan_id":"cebpf4jnsgd1na2vs0mg"},{"bike_id":"74a2bc47-bf20-4183-badc-92f3c0344910","system_id":"levelo_inurba_marseille","lat":43.28151,"lon":5.42635,"is_reserved":false,"is_disabled":false,"rental_uris":{"android":"levelo://app?vid=74a2bc47-bf20-4183-badc-92f3c0344910","ios":"levelo://app?vid=74a2bc47-bf20-4183-badc-92f3c0344910"},"vehicle_type_id":"4","last_reported":1728465005,"current_range_meters":26000,"station_id":"ce4bhnh2rcd13ifvqgug","pricing_plan_id":"cebpf4jnsgd1na2vs0mg"},{"bike_id":"4d05d63f-111c-4b0a-b626-f412071e31cd","system_id":"levelo_inurba_marseille","lat":43.26692,"lon":5.38275,"is_reserved":false,"is_disabled":false,"rental_uris":{"android":"levelo://app?vid=4d05d63f-111c-4b0a-b626-f412071e31cd","ios":"levelo://app?vid=4d05d63f-111c-4b0a-b626-f412071e31cd"},"vehicle_type_id":"4","last_reported":1728465005,"current_range_meters":26000,"station_id":"ce4bhg92rcd13ifvqf90","pricing_plan_id":"cebpf4jnsgd1na2vs0mg"},{"bike_id":"64401e11-82c8-4b90-a932-63d1fc0345c9","system_id":"levelo_inurba_marseille","lat":43.3055,"lon":5.3671,"is_reserved":false,"is_disabled":false,"rental_uris":{"android":"levelo://app?vid=64401e11-82c8-4b90-a932-63d1fc0345c9","ios":"levelo://app?vid=64401e11-82c8-4b90-a932-63d1fc0345c9"},"vehicle_type_id":"4","last_reported":1728465005,"current_range_meters":19200,"station_id":"ce4bgrp2rcd13ifvqc9g","pricing_plan_id":"cebpf4jnsgd1na2vs0mg"},{"bike_id":"62d9e195-f719-4690-a78c-ff33746a6f51","system_id":"levelo_inurba_marseille","lat":43.27373,"lon":5.36256,"is_reserved":false,"is_disabled":false,"rental_uris":{"android":"levelo://app?vid=62d9e195-f719-4690-a78c-ff33746a6f51","ios":"levelo://app?vid=62d9e195-f719-4690-a78c-ff33746a6f51"},"vehicle_type_id":"4","last_reported":1728465005,"current_range_meters":38800,"station_id":"ce4bhbh2rcd13ifvqeo0","pricing_plan_id":"cebpf4jnsgd1na2vs0mg"},{"bike_id":"6b8918a4-396b-43e5-9a7f-f056357bf660","system_id":"levelo_inurba_marseille","lat":43.23068,"lon":5.35491,"is_reserved":false,"is_disabled":false,"rental_uris":{"android":"levelo://app?vid=6b8918a4-396b-43e5-9a7f-f056357bf660","ios":"levelo://app?vid=6b8918a4-396b-43e5-9a7f-f056357bf660"},"vehicle_type_id":"4","last_reported":1728465005,"current_range_meters":9200,"station_id":"cpo3342slgdg3j2ifvpg","pricing_plan_id":"cebpf4jnsgd1na2vs0mg"},{"bike_id":"c39bd4ea-d0b9-445c-9199-64009e72621f","system_id":"levelo_inurba_marseille","lat":43.29035,"lon":5.38634,"is_reserved":false,"is_disabled":false,"rental_uris":{"android":"levelo://app?vid=c39bd4ea-d0b9-445c-9199-64009e72621f","ios":"levelo://app?vid=c39bd4ea-d0b9-445c-9199-64009e72621f"},"vehicle_type_id":"4","last_reported":1728465005,"current_range_meters":24000,"station_id":"ce4bh4p2rcd13ifvqe0g","pricing_plan_id":"cebpf4jnsgd1na2vs0mg"},{"bike_id":"cf59e4b6-bb89-4907-afbb-b0b6682b6e0c","system_id":"levelo_inurba_marseille","lat":43.33607,"lon":5.41035,"is_reserved":false,"is_disabled":false,"rental_uris":{"android":"levelo://app?vid=cf59e4b6-bb89-4907-afbb-b0b6682b6e0c","ios":"levelo://app?vid=cf59e4b6-bb89-4907-afbb-b0b6682b6e0c"},"vehicle_type_id":"4","last_reported":1728465005,"current_range_meters":28400,"station_id":"ce4bhqh2rcd13ifvqhmg","pricing_plan_id":"cebpf4jnsgd1na2vs0mg"},{"bike_id":"64524fe4-6e16-4d18-8e90-00b089a26f5f","system_id":"levelo_inurba_marseille","lat":43.27834,"lon":5.38466,"is_reserved":false,"is_disabled":false,"rental_uris":{"android":"levelo://app?vid=64524fe4-6e16-4d18-8e90-00b089a26f5f","ios":"levelo://app?vid=64524fe4-6e16-4d18-8e90-00b089a26f5f"},"vehicle_type_id":"4","last_reported":1728465005,"current_range_meters":34800,"station_id":"ce4bgvp2rcd13ifvqct0","pricing_plan_id":"cebpf4jnsgd1na2vs0mg"},{"bike_id":"a4319151-307a-4f45-87df-6ed5817f7510","system_id":"levelo_inurba_marseille","lat":43.2407,"lon":5.37768,"is_reserved":false,"is_disabled":false,"rental_uris":{"android":"levelo://app?vid=a4319151-307a-4f45-87df-6ed5817f7510","ios":"levelo://app?vid=a4319151-307a-4f45-87df-6ed5817f7510"},"vehicle_type_id":"4","last_reported":1728465005,"current_range_meters":36400,"station_id":"ce4bhnp2rcd13ifvqgvg","pricing_plan_id":"cebpf4jnsgd1na2vs0mg"},{"bike_id":"ce0d1df2-0f5e-45d4-b6cd-cfd20e68ecfe","system_id":"levelo_inurba_marseille","lat":43.23964,"lon":5.36631,"is_reserved":false,"is_disabled":false,"rental_uris":{"android":"levelo://app?vid=ce0d1df2-0f5e-45d4-b6cd-cfd20e68ecfe","ios":"levelo://app?vid=ce0d1df2-0f5e-45d4-b6cd-cfd20e68ecfe"},"vehicle_type_id":"4","last_reported":1728465005,"current_range_meters":4000,"station_id":"ce4bhi12rcd13ifvqfp0","pricing_plan_id":"cebpf4jnsgd1na2vs0mg"},{"bike_id":"171e25ce-52b9-41e4-8289-d435cb9ebcfe","system_id":"levelo_inurba_marseille","lat":43.26487,"lon":5.39548,"is_reserved":false,"is_disabled":false,"rental_uris":{"android":"levelo://app?vid=171e25ce-52b9-41e4-8289-d435cb9ebcfe","ios":"levelo://app?vid=171e25ce-52b9-41e4-8289-d435cb9ebcfe"},"vehicle_type_id":"4","last_reported":1728465005,"current_range_meters":4000,"station_id":"ce4bhi12rcd13ifvqfq0","pricing_plan_id":"cebpf4jnsgd1na2vs0mg"},{"bike_id":"0942f772-31be-4eb1-b669-63d390169f0e","system_id":"levelo_inurba_marseille","lat":43.33603,"lon":5.41024,"is_reserved":false,"is_disabled":false,"rental_uris":{"android":"levelo://app?vid=0942f772-31be-4eb1-b669-63d390169f0e","ios":"levelo://app?vid=0942f772-31be-4eb1-b669-63d390169f0e"},"vehicle_type_id":"4","last_reported":1728465005,"current_range_meters":39200,"station_id":"ce4bhqh2rcd13ifvqhmg","pricing_plan_id":"cebpf4jnsgd1na2vs0mg"},{"bike_id":"d5ba9f47-4343-4d12-a9d2-0fadfddd5f19","system_id":"levelo_inurba_marseille","lat":43.27624,"lon":5.36106,"is_reserved":false,"is_disabled":false,"rental_uris":{"android":"levelo://app?vid=d5ba9f47-4343-4d12-a9d2-0fadfddd5f19","ios":"levelo://app?vid=d5ba9f47-4343-4d12-a9d2-0fadfddd5f19"},"vehicle_type_id":"4","last_reported":1728465005,"current_range_meters":37600,"station_id":"ce4bgj92rcd13ifvqbe0","pricing_plan_id":"cebpf4jnsgd1na2vs0mg"},{"bike_id":"39889ba0-0431-4056-b70a-688defafb58c","system_id":"levelo_inurba_marseille","lat":43.27497,"lon":5.4245,"is_reserved":false,"is_disabled":false,"rental_uris":{"android":"levelo://app?vid=39889ba0-0431-4056-b70a-688defafb58c","ios":"levelo://app?vid=39889ba0-0431-4056-b70a-688defafb58c"},"vehicle_type_id":"4","last_reported":1728465005,"current_range_meters":35600,"station_id":"ce4bhn92rcd13ifvqgrg","pricing_plan_id":"cebpf4jnsgd1na2vs0mg"},{"bike_id":"cdc79e65-a131-479a-baf9-3a3916c6e704","system_id":"levelo_inurba_marseille","lat":43.26788,"lon":5.39413,"is_reserved":false,"is_disabled":false,"rental_uris":{"android":"levelo://app?vid=cdc79e65-a131-479a-baf9-3a3916c6e704","ios":"levelo://app?vid=cdc79e65-a131-479a-baf9-3a3916c6e704"},"vehicle_type_id":"4","last_reported":1728465005,"current_range_meters":38800,"station_id":"ce4bhh12rcd13ifvqfg0","pricing_plan_id":"cebpf4jnsgd1na2vs0mg"},{"bike_id":"9c709414-cd8a-41e6-ae90-60041eeb3db8","system_id":"levelo_inurba_marseille","lat":43.31365,"lon":5.38482,"is_reserved":false,"is_disabled":false,"rental_uris":{"android":"levelo://app?vid=9c709414-cd8a-41e6-ae90-60041eeb3db8","ios":"levelo://app?vid=9c709414-cd8a-41e6-ae90-60041eeb3db8"},"vehicle_type_id":"4","last_reported":1728465005,"current_range_meters":16000,"station_id":"ce4bgt92rcd13ifvqcf0","pricing_plan_id":"cebpf4jnsgd1na2vs0mg"},{"bike_id":"ff03c6de-5238-4465-9ffb-70574cc7d519","system_id":"levelo_inurba_marseille","lat":43.266809,"lon":5.382636,"is_reserved":false,"is_disabled":false,"rental_uris":{"android":"levelo://app?vid=ff03c6de-5238-4465-9ffb-70574cc7d519","ios":"levelo://app?vid=ff03c6de-5238-4465-9ffb-70574cc7d519"},"vehicle_type_id":"4","last_reported":1728465005,"current_range_meters":9200,"station_id":"","pricing_plan_id":"cebpf4jnsgd1na2vs0mg"},{"bike_id":"a7db8d57-39dc-4df7-b4dc-ffdc3d278a56","system_id":"levelo_inurba_marseille","lat":43.30291,"lon":5.3771,"is_reserved":false,"is_disabled":false,"rental_uris":{"android":"levelo://app?vid=a7db8d57-39dc-4df7-b4dc-ffdc3d278a56","ios":"levelo://app?vid=a7db8d57-39dc-4df7-b4dc-ffdc3d278a56"},"vehicle_type_id":"4","last_reported":1728465005,"current_range_meters":31200,"station_id":"ce4bguh2rcd13ifvqcj0","pricing_plan_id":"cebpf4jnsgd1na2vs0mg"},{"bike_id":"56b75d07-f390-46ea-9b78-b6b919489f0f","system_id":"levelo_inurba_marseille","lat":43.2594,"lon":5.40894,"is_reserved":false,"is_disabled":false,"rental_uris":{"android":"levelo://app?vid=56b75d07-f390-46ea-9b78-b6b919489f0f","ios":"levelo://app?vid=56b75d07-f390-46ea-9b78-b6b919489f0f"},"vehicle_type_id":"4","last_reported":1728465005,"current_range_meters":22800,"station_id":"ce4bhm92rcd13ifvqglg","pricing_plan_id":"cebpf4jnsgd1na2vs0mg"},{"bike_id":"64c9abdc-a744-4b43-9856-a64e8ee5db15","system_id":"levelo_inurba_marseille","lat":43.23066,"lon":5.35499,"is_reserved":false,"is_disabled":false,"rental_uris":{"android":"levelo://app?vid=64c9abdc-a744-4b43-9856-a64e8ee5db15","ios":"levelo://app?vid=64c9abdc-a744-4b43-9856-a64e8ee5db15"},"vehicle_type_id":"4","last_reported":1728465005,"current_range_meters":38000,"station_id":"cpo3342slgdg3j2ifvpg","pricing_plan_id":"cebpf4jnsgd1na2vs0mg"},{"bike_id":"9594c7e7-376b-49a0-9d1e-b187f3d8291e","system_id":"levelo_inurba_marseille","lat":43.23968,"lon":5.36622,"is_reserved":false,"is_disabled":false,"rental_uris":{"android":"levelo://app?vid=9594c7e7-376b-49a0-9d1e-b187f3d8291e","ios":"levelo://app?vid=9594c7e7-376b-49a0-9d1e-b187f3d8291e"},"vehicle_type_id":"4","last_reported":1728465005,"current_range_meters":33200,"station_id":"ce4bhi12rcd13ifvqfp0","pricing_plan_id":"cebpf4jnsgd1na2vs0mg"},{"bike_id":"aebe4de8-b2bc-4e90-8aff-3c0b9ec5f5ba","system_id":"levelo_inurba_marseille","lat":43.23156,"lon":5.43706,"is_reserved":false,"is_disabled":false,"rental_uris":{"android":"levelo://app?vid=aebe4de8-b2bc-4e90-8aff-3c0b9ec5f5ba","ios":"levelo://app?vid=aebe4de8-b2bc-4e90-8aff-3c0b9ec5f5ba"},"vehicle_type_id":"4","last_reported":1728465005,"current_range_meters":16000,"station_id":"ce4bhmp2rcd13ifvqgog","pricing_plan_id":"cebpf4jnsgd1na2vs0mg"},{"bike_id":"b7d77f27-3b54-4d89-a15a-fd1faaf3bc87","system_id":"levelo_inurba_marseille","lat":43.30465,"lon":5.37912,"is_reserved":false,"is_disabled":false,"rental_uris":{"android":"levelo://app?vid=b7d77f27-3b54-4d89-a15a-fd1faaf3bc87","ios":"levelo://app?vid=b7d77f27-3b54-4d89-a15a-fd1faaf3bc87"},"vehicle_type_id":"4","last_reported":1728465005,"current_range_meters":25200,"station_id":"ce4bgup2rcd13ifvqcn0","pricing_plan_id":"cebpf4jnsgd1na2vs0mg"},{"bike_id":"1cb227bb-10da-4dd4-955c-3aa9cc47f8ec","system_id":"levelo_inurba_marseille","lat":43.28474,"lon":5.38414,"is_reserved":false,"is_disabled":false,"rental_uris":{"android":"levelo://app?vid=1cb227bb-10da-4dd4-955c-3aa9cc47f8ec","ios":"levelo://app?vid=1cb227bb-10da-4dd4-955c-3aa9cc47f8ec"},"vehicle_type_id":"4","last_reported":1728465005,"current_range_meters":24000,"station_id":"ce4bh512rcd13ifvqe3g","pricing_plan_id":"cebpf4jnsgd1na2vs0mg"},{"bike_id":"7028d899-9984-4000-a689-483b691fc9e5","system_id":"levelo_inurba_marseille","lat":43.29561,"lon":5.42281,"is_reserved":false,"is_disabled":false,"rental_uris":{"android":"levelo://app?vid=7028d899-9984-4000-a689-483b691fc9e5","ios":"levelo://app?vid=7028d899-9984-4000-a689-483b691fc9e5"},"vehicle_type_id":"4","last_reported":1728465005,"current_range_meters":38800,"station_id":"ce4bhph2rcd13ifvqhdg","pricing_plan_id":"cebpf4jnsgd1na2vs0mg"},{"bike_id":"9317a6b1-66d0-42a0-be00-5938eab65e01","system_id":"levelo_inurba_marseille","lat":43.29442,"lon":5.39754,"is_reserved":false,"is_disabled":false,"rental_uris":{"android":"levelo://app?vid=9317a6b1-66d0-42a0-be00-5938eab65e01","ios":"levelo://app?vid=9317a6b1-66d0-42a0-be00-5938eab65e01"},"vehicle_type_id":"4","last_reported":1728465005,"current_range_meters":18000,"station_id":"ce4bh3h2rcd13ifvqdo0","pricing_plan_id":"cebpf4jnsgd1na2vs0mg"},{"bike_id":"838b16dd-9eac-4c3f-b799-083241b130de","system_id":"levelo_inurba_marseille","lat":43.31346,"lon":5.36705,"is_reserved":false,"is_disabled":false,"rental_uris":{"android":"levelo://app?vid=838b16dd-9eac-4c3f-b799-083241b130de","ios":"levelo://app?vid=838b16dd-9eac-4c3f-b799-083241b130de"},"vehicle_type_id":"4","last_reported":1728465005,"current_range_meters":39200,"station_id":"ce4bgr92rcd13ifvqc6g","pricing_plan_id":"cebpf4jnsgd1na2vs0mg"},{"bike_id":"51ee61eb-9054-4c7a-bca3-706a1a65ec35","system_id":"levelo_inurba_marseille","lat":43.28158,"lon":5.42632,"is_reserved":false,"is_disabled":false,"rental_uris":{"android":"levelo://app?vid=51ee61eb-9054-4c7a-bca3-706a1a65ec35","ios":"levelo://app?vid=51ee61eb-9054-4c7a-bca3-706a1a65ec35"},"vehicle_type_id":"4","last_reported":1728465005,"current_range_meters":34000,"station_id":"ce4bhnh2rcd13ifvqgug","pricing_plan_id":"cebpf4jnsgd1na2vs0mg"},{"bike_id":"4fa502e2-4d40-48c1-98ca-6dd4a84d9830","system_id":"levelo_inurba_marseille","lat":43.29585,"lon":5.36734,"is_reserved":false,"is_disabled":false,"rental_uris":{"android":"levelo://app?vid=4fa502e2-4d40-48c1-98ca-6dd4a84d9830","ios":"levelo://app?vid=4fa502e2-4d40-48c1-98ca-6dd4a84d9830"},"vehicle_type_id":"4","last_reported":1728465005,"current_range_meters":30000,"station_id":"ce4bgph2rcd13ifvqc2g","pricing_plan_id":"cebpf4jnsgd1na2vs0mg"},{"bike_id":"d614cd51-e7d7-4b27-a15a-045ea3a97dc4","system_id":"levelo_inurba_marseille","lat":43.27213,"lon":5.39188,"is_reserved":false,"is_disabled":false,"rental_uris":{"android":"levelo://app?vid=d614cd51-e7d7-4b27-a15a-045ea3a97dc4","ios":"levelo://app?vid=d614cd51-e7d7-4b27-a15a-045ea3a97dc4"},"vehicle_type_id":"4","last_reported":1728465005,"current_range_meters":24400,"station_id":"ce4bhhp2rcd13ifvqfm0","pricing_plan_id":"cebpf4jnsgd1na2vs0mg"},{"bike_id":"8b1fbf19-b297-4076-84ee-eae96b76bb0e","system_id":"levelo_inurba_marseille","lat":43.27491,"lon":5.42455,"is_reserved":false,"is_disabled":false,"rental_uris":{"android":"levelo://app?vid=8b1fbf19-b297-4076-84ee-eae96b76bb0e","ios":"levelo://app?vid=8b1fbf19-b297-4076-84ee-eae96b76bb0e"},"vehicle_type_id":"4","last_reported":1728465005,"current_range_meters":29600,"station_id":"ce4bhn92rcd13ifvqgrg","pricing_plan_id":"cebpf4jnsgd1na2vs0mg"},{"bike_id":"31dd5b26-a07e-4b38-901d-cc34ea3ba2d5","system_id":"levelo_inurba_marseille","lat":43.28416,"lon":5.34991,"is_reserved":false,"is_disabled":false,"rental_uris":{"android":"levelo://app?vid=31dd5b26-a07e-4b38-901d-cc34ea3ba2d5","ios":"levelo://app?vid=31dd5b26-a07e-4b38-901d-cc34ea3ba2d5"},"vehicle_type_id":"4","last_reported":1728465005,"current_range_meters":38800,"station_id":"ce4bhbh2rcd13ifvqepg","pricing_plan_id":"cebpf4jnsgd1na2vs0mg"},{"bike_id":"0f21128f-2cd6-4779-8b8b-00ba634cf7e3","system_id":"levelo_inurba_marseille","lat":43.25116,"lon":5.403131,"is_reserved":false,"is_disabled":false,"rental_uris":{"android":"levelo://app?vid=0f21128f-2cd6-4779-8b8b-00ba634cf7e3","ios":"levelo://app?vid=0f21128f-2cd6-4779-8b8b-00ba634cf7e3"},"vehicle_type_id":"4","last_reported":1728465005,"current_range_meters":4400,"station_id":"ce4bhlh2rcd13ifvqgig","pricing_plan_id":"cebpf4jnsgd1na2vs0mg"},{"bike_id":"6bb73c89-014f-4a5d-817b-0696f2e56a9d","system_id":"levelo_inurba_marseille","lat":43.24073,"lon":5.37763,"is_reserved":false,"is_disabled":false,"rental_uris":{"android":"levelo://app?vid=6bb73c89-014f-4a5d-817b-0696f2e56a9d","ios":"levelo://app?vid=6bb73c89-014f-4a5d-817b-0696f2e56a9d"},"vehicle_type_id":"4","last_reported":1728465005,"current_range_meters":12800,"station_id":"ce4bhnp2rcd13ifvqgvg","pricing_plan_id":"cebpf4jnsgd1na2vs0mg"},{"bike_id":"b892291a-213d-4c61-a828-f5b8d1d4d15d","system_id":"levelo_inurba_marseille","lat":43.29844,"lon":5.36269,"is_reserved":false,"is_disabled":false,"rental_uris":{"android":"levelo://app?vid=b892291a-213d-4c61-a828-f5b8d1d4d15d","ios":"levelo://app?vid=b892291a-213d-4c61-a828-f5b8d1d4d15d"},"vehicle_type_id":"4","last_reported":1728465005,"current_range_meters":10000,"station_id":"ce4bgpp2rcd13ifvqc3g","pricing_plan_id":"cebpf4jnsgd1na2vs0mg"},{"bike_id":"59a20882-e884-470e-b111-32ed424e7cc3","system_id":"levelo_inurba_marseille","lat":43.337236,"lon":5.391919,"is_reserved":false,"is_disabled":false,"rental_uris":{"android":"levelo://app?vid=59a20882-e884-470e-b111-32ed424e7cc3","ios":"levelo://app?vid=59a20882-e884-470e-b111-32ed424e7cc3"},"vehicle_type_id":"4","last_reported":1728465005,"current_range_meters":32000,"station_id":"ce4bhr92rcd13ifvqhsg","pricing_plan_id":"cebpf4jnsgd1na2vs0mg"},{"bike_id":"441d3405-bac8-4cb8-86f5-78555d149014","system_id":"levelo_inurba_marseille","lat":43.29582,"lon":5.37514,"is_reserved":false,"is_disabled":false,"rental_uris":{"android":"levelo://app?vid=441d3405-bac8-4cb8-86f5-78555d149014","ios":"levelo://app?vid=441d3405-bac8-4cb8-86f5-78555d149014"},"vehicle_type_id":"4","last_reported":1728465005,"current_range_meters":38800,"station_id":"ce4bgh92rcd13ifvqb50","pricing_plan_id":"cebpf4jnsgd1na2vs0mg"},{"bike_id":"9ed272e2-1a9d-49cf-8f57-b4c6c6d52ed4","system_id":"levelo_inurba_marseille","lat":43.30557,"lon":5.36533,"is_reserved":false,"is_disabled":false,"rental_uris":{"android":"levelo://app?vid=9ed272e2-1a9d-49cf-8f57-b4c6c6d52ed4","ios":"levelo://app?vid=9ed272e2-1a9d-49cf-8f57-b4c6c6d52ed4"},"vehicle_type_id":"4","last_reported":1728465005,"current_range_meters":26800,"station_id":"ce4bgs12rcd13ifvqcag","pricing_plan_id":"cebpf4jnsgd1na2vs0mg"},{"bike_id":"c2c697a5-1f78-4f8d-b2a7-f7db1f56eb5d","system_id":"levelo_inurba_marseille","lat":43.33613,"lon":5.41028,"is_reserved":false,"is_disabled":false,"rental_uris":{"android":"levelo://app?vid=c2c697a5-1f78-4f8d-b2a7-f7db1f56eb5d","ios":"levelo://app?vid=c2c697a5-1f78-4f8d-b2a7-f7db1f56eb5d"},"vehicle_type_id":"4","last_reported":1728465005,"current_range_meters":39200,"station_id":"ce4bhqh2rcd13ifvqhmg","pricing_plan_id":"cebpf4jnsgd1na2vs0mg"},{"bike_id":"72078f29-e154-4c5b-836a-c7e362ba1f09","system_id":"levelo_inurba_marseille","lat":43.33758,"lon":5.37449,"is_reserved":false,"is_disabled":false,"rental_uris":{"android":"levelo://app?vid=72078f29-e154-4c5b-836a-c7e362ba1f09","ios":"levelo://app?vid=72078f29-e154-4c5b-836a-c7e362ba1f09"},"vehicle_type_id":"4","last_reported":1728465005,"current_range_meters":16000,"station_id":"","pricing_plan_id":"cebpf4jnsgd1na2vs0mg"},{"bike_id":"7d7ab187-9965-49a4-bf26-b6ade39671fc","system_id":"levelo_inurba_marseille","lat":43.23195,"lon":5.3555,"is_reserved":false,"is_disabled":false,"rental_uris":{"android":"levelo://app?vid=7d7ab187-9965-49a4-bf26-b6ade39671fc","ios":"levelo://app?vid=7d7ab187-9965-49a4-bf26-b6ade39671fc"},"vehicle_type_id":"4","last_reported":1728465005,"current_range_meters":25600,"station_id":"ce4bhu92rcd13ifvqi70","pricing_plan_id":"cebpf4jnsgd1na2vs0mg"},{"bike_id":"2c1208fb-8268-462c-aaec-dd051b728262","system_id":"levelo_inurba_marseille","lat":43.31883,"lon":5.40734,"is_reserved":false,"is_disabled":false,"rental_uris":{"android":"levelo://app?vid=2c1208fb-8268-462c-aaec-dd051b728262","ios":"levelo://app?vid=2c1208fb-8268-462c-aaec-dd051b728262"},"vehicle_type_id":"4","last_reported":1728465005,"current_range_meters":16400,"station_id":"ce4bhq12rcd13ifvqhig","pricing_plan_id":"cebpf4jnsgd1na2vs0mg"},{"bike_id":"8cf62a81-b430-4c46-9b02-ae2d97422b61","system_id":"levelo_inurba_marseille","lat":43.32538,"lon":5.41449,"is_reserved":false,"is_disabled":false,"rental_uris":{"android":"levelo://app?vid=8cf62a81-b430-4c46-9b02-ae2d97422b61","ios":"levelo://app?vid=8cf62a81-b430-4c46-9b02-ae2d97422b61"},"vehicle_type_id":"4","last_reported":1728465005,"current_range_meters":27200,"station_id":"ce4bhq12rcd13ifvqhhg","pricing_plan_id":"cebpf4jnsgd1na2vs0mg"},{"bike_id":"64cbf5ad-210a-4eed-8035-947870e47e4b","system_id":"levelo_inurba_marseille","lat":43.23198,"lon":5.39969,"is_reserved":false,"is_disabled":false,"rental_uris":{"android":"levelo://app?vid=64cbf5ad-210a-4eed-8035-947870e47e4b","ios":"levelo://app?vid=64cbf5ad-210a-4eed-8035-947870e47e4b"},"vehicle_type_id":"4","last_reported":1728465005,"current_range_meters":4000,"station_id":"ce4bhn12rcd13ifvqgqg","pricing_plan_id":"cebpf4jnsgd1na2vs0mg"},{"bike_id":"c5f7625c-379d-4acc-9b19-ae14ae4eac31","system_id":"levelo_inurba_marseille","lat":43.30182,"lon":5.36619,"is_reserved":false,"is_disabled":false,"rental_uris":{"android":"levelo://app?vid=c5f7625c-379d-4acc-9b19-ae14ae4eac31","ios":"levelo://app?vid=c5f7625c-379d-4acc-9b19-ae14ae4eac31"},"vehicle_type_id":"4","last_reported":1728465005,"current_range_meters":38800,"station_id":"ce4bgrh2rcd13ifvqc8g","pricing_plan_id":"cebpf4jnsgd1na2vs0mg"},{"bike_id":"35019b92-5087-40a5-9241-2bcb3e2dc08b","system_id":"levelo_inurba_marseille","lat":43.3091,"lon":5.36858,"is_reserved":false,"is_disabled":false,"rental_uris":{"android":"levelo://app?vid=35019b92-5087-40a5-9241-2bcb3e2dc08b","ios":"levelo://app?vid=35019b92-5087-40a5-9241-2bcb3e2dc08b"},"vehicle_type_id":"4","last_reported":1728465005,"current_range_meters":36400,"station_id":"ce4bgn92rcd13ifvqbvg","pricing_plan_id":"cebpf4jnsgd1na2vs0mg"},{"bike_id":"6643f858-dd84-44b8-8dd4-5b4fbe728828","system_id":"levelo_inurba_marseille","lat":43.2811,"lon":5.37828,"is_reserved":false,"is_disabled":false,"rental_uris":{"android":"levelo://app?vid=6643f858-dd84-44b8-8dd4-5b4fbe728828","ios":"levelo://app?vid=6643f858-dd84-44b8-8dd4-5b4fbe728828"},"vehicle_type_id":"4","last_reported":1728465005,"current_range_meters":38400,"station_id":"ce4bha12rcd13ifvqee0","pricing_plan_id":"cebpf4jnsgd1na2vs0mg"},{"bike_id":"3ebb579f-18fb-44f5-b0b3-804bd56371c5","system_id":"levelo_inurba_marseille","lat":43.24074,"lon":5.37744,"is_reserved":false,"is_disabled":false,"rental_uris":{"android":"levelo://app?vid=3ebb579f-18fb-44f5-b0b3-804bd56371c5","ios":"levelo://app?vid=3ebb579f-18fb-44f5-b0b3-804bd56371c5"},"vehicle_type_id":"4","last_reported":1728465005,"current_range_meters":36800,"station_id":"ce4bhnp2rcd13ifvqgvg","pricing_plan_id":"cebpf4jnsgd1na2vs0mg"},{"bike_id":"0c141340-7add-4d6e-b13b-9500891d966c","system_id":"levelo_inurba_marseille","lat":43.24084,"lon":5.37741,"is_reserved":false,"is_disabled":false,"rental_uris":{"android":"levelo://app?vid=0c141340-7add-4d6e-b13b-9500891d966c","ios":"levelo://app?vid=0c141340-7add-4d6e-b13b-9500891d966c"},"vehicle_type_id":"4","last_reported":1728465005,"current_range_meters":14400,"station_id":"ce4bhnp2rcd13ifvqgvg","pricing_plan_id":"cebpf4jnsgd1na2vs0mg"},{"bike_id":"545098e4-e294-48fc-a59c-e7010da63158","system_id":"levelo_inurba_marseille","lat":43.27073,"lon":5.42279,"is_reserved":false,"is_disabled":false,"rental_uris":{"android":"levelo://app?vid=545098e4-e294-48fc-a59c-e7010da63158","ios":"levelo://app?vid=545098e4-e294-48fc-a59c-e7010da63158"},"vehicle_type_id":"4","last_reported":1728465005,"current_range_meters":25200,"station_id":"ce4bhk92rcd13ifvqgb0","pricing_plan_id":"cebpf4jnsgd1na2vs0mg"},{"bike_id":"cfeb45ab-cab0-43fd-82c7-0283af45cf07","system_id":"levelo_inurba_marseille","lat":43.27493,"lon":5.42451,"is_reserved":false,"is_disabled":false,"rental_uris":{"android":"levelo://app?vid=cfeb45ab-cab0-43fd-82c7-0283af45cf07","ios":"levelo://app?vid=cfeb45ab-cab0-43fd-82c7-0283af45cf07"},"vehicle_type_id":"4","last_reported":1728465005,"current_range_meters":35600,"station_id":"ce4bhn92rcd13ifvqgrg","pricing_plan_id":"cebpf4jnsgd1na2vs0mg"},{"bike_id":"2c4c3de7-36cc-49ba-89f4-420d8d550649","system_id":"levelo_inurba_marseille","lat":43.25936,"lon":5.40908,"is_reserved":false,"is_disabled":false,"rental_uris":{"android":"levelo://app?vid=2c4c3de7-36cc-49ba-89f4-420d8d550649","ios":"levelo://app?vid=2c4c3de7-36cc-49ba-89f4-420d8d550649"},"vehicle_type_id":"4","last_reported":1728465005,"current_range_meters":26000,"station_id":"ce4bhm92rcd13ifvqglg","pricing_plan_id":"cebpf4jnsgd1na2vs0mg"},{"bike_id":"74e9ce9d-9e9f-4c6b-92fb-2f9a88c1f0f4","system_id":"levelo_inurba_marseille","lat":43.2417,"lon":5.36399,"is_reserved":false,"is_disabled":false,"rental_uris":{"android":"levelo://app?vid=74e9ce9d-9e9f-4c6b-92fb-2f9a88c1f0f4","ios":"levelo://app?vid=74e9ce9d-9e9f-4c6b-92fb-2f9a88c1f0f4"},"vehicle_type_id":"4","last_reported":1728465005,"current_range_meters":37600,"station_id":"cpo36qri1sfpv3e86is0","pricing_plan_id":"cebpf4jnsgd1na2vs0mg"},{"bike_id":"b015213c-a50b-49c6-a35a-d4427020f6a6","system_id":"levelo_inurba_marseille","lat":43.31341,"lon":5.36721,"is_reserved":false,"is_disabled":false,"rental_uris":{"android":"levelo://app?vid=b015213c-a50b-49c6-a35a-d4427020f6a6","ios":"levelo://app?vid=b015213c-a50b-49c6-a35a-d4427020f6a6"},"vehicle_type_id":"4","last_reported":1728465005,"current_range_meters":22800,"station_id":"ce4bgr92rcd13ifvqc6g","pricing_plan_id":"cebpf4jnsgd1na2vs0mg"},{"bike_id":"4d50a537-cf2c-4691-85aa-6267c2e6e978","system_id":"levelo_inurba_marseille","lat":43.29447,"lon":5.39753,"is_reserved":false,"is_disabled":false,"rental_uris":{"android":"levelo://app?vid=4d50a537-cf2c-4691-85aa-6267c2e6e978","ios":"levelo://app?vid=4d50a537-cf2c-4691-85aa-6267c2e6e978"},"vehicle_type_id":"4","last_reported":1728465005,"current_range_meters":38800,"station_id":"ce4bh3h2rcd13ifvqdo0","pricing_plan_id":"cebpf4jnsgd1na2vs0mg"},{"bike_id":"8f7f4295-f0a5-4e77-8354-c6827c156889","system_id":"levelo_inurba_marseille","lat":43.27495,"lon":5.42455,"is_reserved":false,"is_disabled":false,"rental_uris":{"android":"levelo://app?vid=8f7f4295-f0a5-4e77-8354-c6827c156889","ios":"levelo://app?vid=8f7f4295-f0a5-4e77-8354-c6827c156889"},"vehicle_type_id":"4","last_reported":1728465005,"current_range_meters":10800,"station_id":"ce4bhn92rcd13ifvqgrg","pricing_plan_id":"cebpf4jnsgd1na2vs0mg"},{"bike_id":"75273b7d-f888-4b7a-91cb-fe25f4a9e94f","system_id":"levelo_inurba_marseille","lat":43.29704,"lon":5.36608,"is_reserved":false,"is_disabled":false,"rental_uris":{"android":"levelo://app?vid=75273b7d-f888-4b7a-91cb-fe25f4a9e94f","ios":"levelo://app?vid=75273b7d-f888-4b7a-91cb-fe25f4a9e94f"},"vehicle_type_id":"4","last_reported":1728465005,"current_range_meters":23200,"station_id":"ce4bgn12rcd13ifvqbt0","pricing_plan_id":"cebpf4jnsgd1na2vs0mg"},{"bike_id":"7bc48729-6a36-4a88-874a-c23256dab9e1","system_id":"levelo_inurba_marseille","lat":43.2749,"lon":5.42462,"is_reserved":false,"is_disabled":false,"rental_uris":{"android":"levelo://app?vid=7bc48729-6a36-4a88-874a-c23256dab9e1","ios":"levelo://app?vid=7bc48729-6a36-4a88-874a-c23256dab9e1"},"vehicle_type_id":"4","last_reported":1728465005,"current_range_meters":13600,"station_id":"ce4bhn92rcd13ifvqgrg","pricing_plan_id":"cebpf4jnsgd1na2vs0mg"},{"bike_id":"792577a6-685a-43bd-bdfe-2ef41696d1e8","system_id":"levelo_inurba_marseille","lat":43.23192,"lon":5.39992,"is_reserved":false,"is_disabled":false,"rental_uris":{"android":"levelo://app?vid=792577a6-685a-43bd-bdfe-2ef41696d1e8","ios":"levelo://app?vid=792577a6-685a-43bd-bdfe-2ef41696d1e8"},"vehicle_type_id":"4","last_reported":1728465005,"current_range_meters":33200,"station_id":"ce4bhn12rcd13ifvqgqg","pricing_plan_id":"cebpf4jnsgd1na2vs0mg"},{"bike_id":"9dd4f340-8a1e-4769-8cdc-2919ddd55db2","system_id":"levelo_inurba_marseille","lat":43.24804,"lon":5.37453,"is_reserved":false,"is_disabled":false,"rental_uris":{"android":"levelo://app?vid=9dd4f340-8a1e-4769-8cdc-2919ddd55db2","ios":"levelo://app?vid=9dd4f340-8a1e-4769-8cdc-2919ddd55db2"},"vehicle_type_id":"4","last_reported":1728465005,"current_range_meters":39200,"station_id":"ce4bhgh2rcd13ifvqfb0","pricing_plan_id":"cebpf4jnsgd1na2vs0mg"},{"bike_id":"4e6700a4-9eaa-4883-b595-cfa877cac3c2","system_id":"levelo_inurba_marseille","lat":43.22934,"lon":5.35371,"is_reserved":false,"is_disabled":false,"rental_uris":{"android":"levelo://app?vid=4e6700a4-9eaa-4883-b595-cfa877cac3c2","ios":"levelo://app?vid=4e6700a4-9eaa-4883-b595-cfa877cac3c2"},"vehicle_type_id":"4","last_reported":1728465005,"current_range_meters":16800,"station_id":"cpo3532slgdg3j2ikp40","pricing_plan_id":"cebpf4jnsgd1na2vs0mg"},{"bike_id":"15076557-340d-41fc-a13c-2001a5da6496","system_id":"levelo_inurba_marseille","lat":43.26209,"lon":5.37921,"is_reserved":false,"is_disabled":false,"rental_uris":{"android":"levelo://app?vid=15076557-340d-41fc-a13c-2001a5da6496","ios":"levelo://app?vid=15076557-340d-41fc-a13c-2001a5da6496"},"vehicle_type_id":"4","last_reported":1728465005,"current_range_meters":30400,"station_id":"ce4bhjp2rcd13ifvqg90","pricing_plan_id":"cebpf4jnsgd1na2vs0mg"},{"bike_id":"d0797665-6ef2-4471-9f17-aaa74175c83c","system_id":"levelo_inurba_marseille","lat":43.28424,"lon":5.34985,"is_reserved":false,"is_disabled":false,"rental_uris":{"android":"levelo://app?vid=d0797665-6ef2-4471-9f17-aaa74175c83c","ios":"levelo://app?vid=d0797665-6ef2-4471-9f17-aaa74175c83c"},"vehicle_type_id":"4","last_reported":1728465005,"current_range_meters":32800,"station_id":"ce4bhbh2rcd13ifvqepg","pricing_plan_id":"cebpf4jnsgd1na2vs0mg"},{"bike_id":"94775af8-d27b-430a-9eca-3e8949f61c98","system_id":"levelo_inurba_marseille","lat":43.26196,"lon":5.3745,"is_reserved":false,"is_disabled":false,"rental_uris":{"android":"levelo://app?vid=94775af8-d27b-430a-9eca-3e8949f61c98","ios":"levelo://app?vid=94775af8-d27b-430a-9eca-3e8949f61c98"},"vehicle_type_id":"4","last_reported":1728465005,"current_range_meters":27200,"station_id":"ce4bhgp2rcd13ifvqfc0","pricing_plan_id":"cebpf4jnsgd1na2vs0mg"},{"bike_id":"8bea543b-214d-40ec-9431-9caab1e0e5b3","system_id":"levelo_inurba_marseille","lat":43.23156,"lon":5.43713,"is_reserved":false,"is_disabled":false,"rental_uris":{"android":"levelo://app?vid=8bea543b-214d-40ec-9431-9caab1e0e5b3","ios":"levelo://app?vid=8bea543b-214d-40ec-9431-9caab1e0e5b3"},"vehicle_type_id":"4","last_reported":1728465005,"current_range_meters":14400,"station_id":"ce4bhmp2rcd13ifvqgog","pricing_plan_id":"cebpf4jnsgd1na2vs0mg"},{"bike_id":"d3d56830-8710-450a-9311-63319fc341ac","system_id":"levelo_inurba_marseille","lat":43.32539,"lon":5.41441,"is_reserved":false,"is_disabled":false,"rental_uris":{"android":"levelo://app?vid=d3d56830-8710-450a-9311-63319fc341ac","ios":"levelo://app?vid=d3d56830-8710-450a-9311-63319fc341ac"},"vehicle_type_id":"4","last_reported":1728465005,"current_range_meters":22800,"station_id":"ce4bhq12rcd13ifvqhhg","pricing_plan_id":"cebpf4jnsgd1na2vs0mg"},{"bike_id":"28870c61-52ad-4627-bd08-d12e58cefbc6","system_id":"levelo_inurba_marseille","lat":43.27489,"lon":5.42462,"is_reserved":false,"is_disabled":false,"rental_uris":{"android":"levelo://app?vid=28870c61-52ad-4627-bd08-d12e58cefbc6","ios":"levelo://app?vid=28870c61-52ad-4627-bd08-d12e58cefbc6"},"vehicle_type_id":"4","last_reported":1728465005,"current_range_meters":30400,"station_id":"ce4bhn92rcd13ifvqgrg","pricing_plan_id":"cebpf4jnsgd1na2vs0mg"},{"bike_id":"051133e1-617d-4246-9be9-4d946642f690","system_id":"levelo_inurba_marseille","lat":43.33603,"lon":5.41021,"is_reserved":false,"is_disabled":false,"rental_uris":{"android":"levelo://app?vid=051133e1-617d-4246-9be9-4d946642f690","ios":"levelo://app?vid=051133e1-617d-4246-9be9-4d946642f690"},"vehicle_type_id":"4","last_reported":1728465005,"current_range_meters":39200,"station_id":"ce4bhqh2rcd13ifvqhmg","pricing_plan_id":"cebpf4jnsgd1na2vs0mg"},{"bike_id":"0b04b87f-751c-4f17-bc30-8ba6df17289e","system_id":"levelo_inurba_marseille","lat":43.25941,"lon":5.40903,"is_reserved":false,"is_disabled":false,"rental_uris":{"android":"levelo://app?vid=0b04b87f-751c-4f17-bc30-8ba6df17289e","ios":"levelo://app?vid=0b04b87f-751c-4f17-bc30-8ba6df17289e"},"vehicle_type_id":"4","last_reported":1728465005,"current_range_meters":35200,"station_id":"ce4bhm92rcd13ifvqglg","pricing_plan_id":"cebpf4jnsgd1na2vs0mg"},{"bike_id":"7a69c486-4f63-454b-9987-08a4b93a50b7","system_id":"levelo_inurba_marseille","lat":43.30465,"lon":5.379,"is_reserved":false,"is_disabled":false,"rental_uris":{"android":"levelo://app?vid=7a69c486-4f63-454b-9987-08a4b93a50b7","ios":"levelo://app?vid=7a69c486-4f63-454b-9987-08a4b93a50b7"},"vehicle_type_id":"4","last_reported":1728465005,"current_range_meters":14400,"station_id":"ce4bgup2rcd13ifvqcn0","pricing_plan_id":"cebpf4jnsgd1na2vs0mg"},{"bike_id":"6b8fcc45-61e1-419f-9759-e47323739c4e","system_id":"levelo_inurba_marseille","lat":43.2941,"lon":5.37649,"is_reserved":false,"is_disabled":false,"rental_uris":{"android":"levelo://app?vid=6b8fcc45-61e1-419f-9759-e47323739c4e","ios":"levelo://app?vid=6b8fcc45-61e1-419f-9759-e47323739c4e"},"vehicle_type_id":"4","last_reported":1728465005,"current_range_meters":14800,"station_id":"ce4bgs12rcd13ifvqcag","pricing_plan_id":"cebpf4jnsgd1na2vs0mg"},{"bike_id":"cafc5d0d-bfd6-4e89-b0ce-06672e1c10fc","system_id":"levelo_inurba_marseille","lat":43.29968,"lon":5.38495,"is_reserved":false,"is_disabled":false,"rental_uris":{"android":"levelo://app?vid=cafc5d0d-bfd6-4e89-b0ce-06672e1c10fc","ios":"levelo://app?vid=cafc5d0d-bfd6-4e89-b0ce-06672e1c10fc"},"vehicle_type_id":"4","last_reported":1728465005,"current_range_meters":8400,"station_id":"ce4bgj92rcd13ifvqbd0","pricing_plan_id":"cebpf4jnsgd1na2vs0mg"},{"bike_id":"2969d5d4-65a5-43a1-95dd-f1611fda7cca","system_id":"levelo_inurba_marseille","lat":43.24683,"lon":5.38159,"is_reserved":false,"is_disabled":false,"rental_uris":{"android":"levelo://app?vid=2969d5d4-65a5-43a1-95dd-f1611fda7cca","ios":"levelo://app?vid=2969d5d4-65a5-43a1-95dd-f1611fda7cca"},"vehicle_type_id":"4","last_reported":1728465005,"current_range_meters":28000,"station_id":"ce4bhih2rcd13ifvqfr0","pricing_plan_id":"cebpf4jnsgd1na2vs0mg"},{"bike_id":"dd382cb1-ec89-4b92-9e9b-dffa8b745e61","system_id":"levelo_inurba_marseille","lat":43.28376,"lon":5.38624,"is_reserved":false,"is_disabled":false,"rental_uris":{"android":"levelo://app?vid=dd382cb1-ec89-4b92-9e9b-dffa8b745e61","ios":"levelo://app?vid=dd382cb1-ec89-4b92-9e9b-dffa8b745e61"},"vehicle_type_id":"4","last_reported":1728465005,"current_range_meters":28400,"station_id":"ce4bh492rcd13ifvqdvg","pricing_plan_id":"cebpf4jnsgd1na2vs0mg"},{"bike_id":"8513be67-a978-4cfc-9563-19285ed6fe5a","system_id":"levelo_inurba_marseille","lat":43.23205,"lon":5.35543,"is_reserved":false,"is_disabled":false,"rental_uris":{"android":"levelo://app?vid=8513be67-a978-4cfc-9563-19285ed6fe5a","ios":"levelo://app?vid=8513be67-a978-4cfc-9563-19285ed6fe5a"},"vehicle_type_id":"4","last_reported":1728465005,"current_range_meters":12800,"station_id":"ce4bhu92rcd13ifvqi70","pricing_plan_id":"cebpf4jnsgd1na2vs0mg"},{"bike_id":"2b5e4de4-9cb1-4421-9de2-f0f75bebc61a","system_id":"levelo_inurba_marseille","lat":43.25088,"lon":5.3952,"is_reserved":false,"is_disabled":false,"rental_uris":{"android":"levelo://app?vid=2b5e4de4-9cb1-4421-9de2-f0f75bebc61a","ios":"levelo://app?vid=2b5e4de4-9cb1-4421-9de2-f0f75bebc61a"},"vehicle_type_id":"4","last_reported":1728465005,"current_range_meters":8000,"station_id":"ce4bhm12rcd13ifvqgkg","pricing_plan_id":"cebpf4jnsgd1na2vs0mg"},{"bike_id":"2a4b0908-4e77-4799-8060-09003f4eaecb","system_id":"levelo_inurba_marseille","lat":43.2811,"lon":5.37842,"is_reserved":false,"is_disabled":false,"rental_uris":{"android":"levelo://app?vid=2a4b0908-4e77-4799-8060-09003f4eaecb","ios":"levelo://app?vid=2a4b0908-4e77-4799-8060-09003f4eaecb"},"vehicle_type_id":"4","last_reported":1728465005,"current_range_meters":38400,"station_id":"ce4bha12rcd13ifvqee0","pricing_plan_id":"cebpf4jnsgd1na2vs0mg"},{"bike_id":"922252e8-02c2-4987-8eed-1d6d69073568","system_id":"levelo_inurba_marseille","lat":43.26693,"lon":5.38271,"is_reserved":false,"is_disabled":false,"rental_uris":{"android":"levelo://app?vid=922252e8-02c2-4987-8eed-1d6d69073568","ios":"levelo://app?vid=922252e8-02c2-4987-8eed-1d6d69073568"},"vehicle_type_id":"4","last_reported":1728465005,"current_range_meters":32800,"station_id":"ce4bhg92rcd13ifvqf90","pricing_plan_id":"cebpf4jnsgd1na2vs0mg"},{"bike_id":"c283bee0-b392-40e1-b183-58fab03c3b3d","system_id":"levelo_inurba_marseille","lat":43.28429,"lon":5.34993,"is_reserved":false,"is_disabled":false,"rental_uris":{"android":"levelo://app?vid=c283bee0-b392-40e1-b183-58fab03c3b3d","ios":"levelo://app?vid=c283bee0-b392-40e1-b183-58fab03c3b3d"},"vehicle_type_id":"4","last_reported":1728465005,"current_range_meters":22000,"station_id":"ce4bhbh2rcd13ifvqepg","pricing_plan_id":"cebpf4jnsgd1na2vs0mg"},{"bike_id":"a367c20e-6b4a-4c12-9fa3-28fd273ce20a","system_id":"levelo_inurba_marseille","lat":43.28113,"lon":5.37824,"is_reserved":false,"is_disabled":false,"rental_uris":{"android":"levelo://app?vid=a367c20e-6b4a-4c12-9fa3-28fd273ce20a","ios":"levelo://app?vid=a367c20e-6b4a-4c12-9fa3-28fd273ce20a"},"vehicle_type_id":"4","last_reported":1728465005,"current_range_meters":26800,"station_id":"ce4bha12rcd13ifvqee0","pricing_plan_id":"cebpf4jnsgd1na2vs0mg"},{"bike_id":"2e2eded2-ac3e-4b23-8162-ffa573264863","system_id":"levelo_inurba_marseille","lat":43.26571,"lon":5.3901,"is_reserved":false,"is_disabled":false,"rental_uris":{"android":"levelo://app?vid=2e2eded2-ac3e-4b23-8162-ffa573264863","ios":"levelo://app?vid=2e2eded2-ac3e-4b23-8162-ffa573264863"},"vehicle_type_id":"4","last_reported":1728465005,"current_range_meters":23200,"station_id":"ce4bhe12rcd13ifvqf30","pricing_plan_id":"cebpf4jnsgd1na2vs0mg"},{"bike_id":"34e08900-b916-4801-afa5-3d39020bb929","system_id":"levelo_inurba_marseille","lat":43.337444,"lon":5.374475,"is_reserved":false,"is_disabled":false,"rental_uris":{"android":"levelo://app?vid=34e08900-b916-4801-afa5-3d39020bb929","ios":"levelo://app?vid=34e08900-b916-4801-afa5-3d39020bb929"},"vehicle_type_id":"4","last_reported":1728465005,"current_range_meters":24400,"station_id":"ce4bh3h2rcd13ifvqdo0","pricing_plan_id":"cebpf4jnsgd1na2vs0mg"},{"bike_id":"a6b3d3c3-66cf-4ef9-93fa-38e21f9a6c77","system_id":"levelo_inurba_marseille","lat":43.26686,"lon":5.38275,"is_reserved":false,"is_disabled":false,"rental_uris":{"android":"levelo://app?vid=a6b3d3c3-66cf-4ef9-93fa-38e21f9a6c77","ios":"levelo://app?vid=a6b3d3c3-66cf-4ef9-93fa-38e21f9a6c77"},"vehicle_type_id":"4","last_reported":1728465005,"current_range_meters":38800,"station_id":"ce4bhg92rcd13ifvqf90","pricing_plan_id":"cebpf4jnsgd1na2vs0mg"},{"bike_id":"75a564f4-5e6a-41a2-ad07-e72169ba4347","system_id":"levelo_inurba_marseille","lat":43.289398,"lon":5.396295,"is_reserved":false,"is_disabled":false,"rental_uris":{"android":"levelo://app?vid=75a564f4-5e6a-41a2-ad07-e72169ba4347","ios":"levelo://app?vid=75a564f4-5e6a-41a2-ad07-e72169ba4347"},"vehicle_type_id":"4","last_reported":1728465005,"current_range_meters":36400,"station_id":"ce4bh3h2rcd13ifvqdn0","pricing_plan_id":"cebpf4jnsgd1na2vs0mg"},{"bike_id":"604d15ec-8a74-4600-9234-5e2d48eeff51","system_id":"levelo_inurba_marseille","lat":43.33615,"lon":5.41033,"is_reserved":false,"is_disabled":false,"rental_uris":{"android":"levelo://app?vid=604d15ec-8a74-4600-9234-5e2d48eeff51","ios":"levelo://app?vid=604d15ec-8a74-4600-9234-5e2d48eeff51"},"vehicle_type_id":"4","last_reported":1728465005,"current_range_meters":19600,"station_id":"ce4bhqh2rcd13ifvqhmg","pricing_plan_id":"cebpf4jnsgd1na2vs0mg"},{"bike_id":"37179ce0-7715-48b0-b011-e98af070d224","system_id":"levelo_inurba_marseille","lat":43.31328,"lon":5.39696,"is_reserved":false,"is_disabled":false,"rental_uris":{"android":"levelo://app?vid=37179ce0-7715-48b0-b011-e98af070d224","ios":"levelo://app?vid=37179ce0-7715-48b0-b011-e98af070d224"},"vehicle_type_id":"4","last_reported":1728465005,"current_range_meters":28000,"station_id":"ce4bgvp2rcd13ifvqcu0","pricing_plan_id":"cebpf4jnsgd1na2vs0mg"},{"bike_id":"f6cc445f-adc8-48aa-8069-82c02cb21379","system_id":"levelo_inurba_marseille","lat":43.2797,"lon":5.38728,"is_reserved":false,"is_disabled":false,"rental_uris":{"android":"levelo://app?vid=f6cc445f-adc8-48aa-8069-82c02cb21379","ios":"levelo://app?vid=f6cc445f-adc8-48aa-8069-82c02cb21379"},"vehicle_type_id":"4","last_reported":1728465005,"current_range_meters":38800,"station_id":"ce4bhg12rcd13ifvqf80","pricing_plan_id":"cebpf4jnsgd1na2vs0mg"},{"bike_id":"4a0c4a80-24ca-4117-82f0-18bb156d4aec","system_id":"levelo_inurba_marseille","lat":43.30902,"lon":5.36851,"is_reserved":false,"is_disabled":false,"rental_uris":{"android":"levelo://app?vid=4a0c4a80-24ca-4117-82f0-18bb156d4aec","ios":"levelo://app?vid=4a0c4a80-24ca-4117-82f0-18bb156d4aec"},"vehicle_type_id":"4","last_reported":1728465005,"current_range_meters":5600,"station_id":"ce4bgn92rcd13ifvqbvg","pricing_plan_id":"cebpf4jnsgd1na2vs0mg"},{"bike_id":"3159ba03-34d0-49a0-8ced-00febf3edf9e","system_id":"levelo_inurba_marseille","lat":43.27579,"lon":5.38444,"is_reserved":false,"is_disabled":false,"rental_uris":{"android":"levelo://app?vid=3159ba03-34d0-49a0-8ced-00febf3edf9e","ios":"levelo://app?vid=3159ba03-34d0-49a0-8ced-00febf3edf9e"},"vehicle_type_id":"4","last_reported":1728465005,"current_range_meters":33600,"station_id":"ce4bhh92rcd13ifvqfi0","pricing_plan_id":"cebpf4jnsgd1na2vs0mg"},{"bike_id":"2c326297-c07d-45b1-b66c-b2717a12f1b8","system_id":"levelo_inurba_marseille","lat":43.24076,"lon":5.37755,"is_reserved":false,"is_disabled":false,"rental_uris":{"android":"levelo://app?vid=2c326297-c07d-45b1-b66c-b2717a12f1b8","ios":"levelo://app?vid=2c326297-c07d-45b1-b66c-b2717a12f1b8"},"vehicle_type_id":"4","last_reported":1728465005,"current_range_meters":27200,"station_id":"ce4bhnp2rcd13ifvqgvg","pricing_plan_id":"cebpf4jnsgd1na2vs0mg"},{"bike_id":"d1d729c1-7adb-492b-9c95-9015a1ed2807","system_id":"levelo_inurba_marseille","lat":43.23152,"lon":5.43716,"is_reserved":false,"is_disabled":false,"rental_uris":{"android":"levelo://app?vid=d1d729c1-7adb-492b-9c95-9015a1ed2807","ios":"levelo://app?vid=d1d729c1-7adb-492b-9c95-9015a1ed2807"},"vehicle_type_id":"4","last_reported":1728465005,"current_range_meters":12000,"station_id":"ce4bhmp2rcd13ifvqgog","pricing_plan_id":"cebpf4jnsgd1na2vs0mg"},{"bike_id":"87e68dea-feef-453c-ba20-e367ae80224a","system_id":"levelo_inurba_marseille","lat":43.3031,"lon":5.3689,"is_reserved":false,"is_disabled":false,"rental_uris":{"android":"levelo://app?vid=87e68dea-feef-453c-ba20-e367ae80224a","ios":"levelo://app?vid=87e68dea-feef-453c-ba20-e367ae80224a"},"vehicle_type_id":"4","last_reported":1728465005,"current_range_meters":36400,"station_id":"ce4bgqh2rcd13ifvqc5g","pricing_plan_id":"cebpf4jnsgd1na2vs0mg"},{"bike_id":"92980d07-1a59-4b52-84bb-a67135d91f57","system_id":"levelo_inurba_marseille","lat":43.29629,"lon":5.37715,"is_reserved":false,"is_disabled":false,"rental_uris":{"android":"levelo://app?vid=92980d07-1a59-4b52-84bb-a67135d91f57","ios":"levelo://app?vid=92980d07-1a59-4b52-84bb-a67135d91f57"},"vehicle_type_id":"4","last_reported":1728465005,"current_range_meters":18000,"station_id":"ce4bgi92rcd13ifvqb90","pricing_plan_id":"cebpf4jnsgd1na2vs0mg"},{"bike_id":"96d80047-32d2-45f4-bd41-195cf5cb8e0c","system_id":"levelo_inurba_marseille","lat":43.23053,"lon":5.35493,"is_reserved":false,"is_disabled":false,"rental_uris":{"android":"levelo://app?vid=96d80047-32d2-45f4-bd41-195cf5cb8e0c","ios":"levelo://app?vid=96d80047-32d2-45f4-bd41-195cf5cb8e0c"},"vehicle_type_id":"4","last_reported":1728465005,"current_range_meters":37600,"station_id":"cpo3342slgdg3j2ifvpg","pricing_plan_id":"cebpf4jnsgd1na2vs0mg"},{"bike_id":"aea59b95-40ec-4ce5-adc4-1af61b5d68b5","system_id":"levelo_inurba_marseille","lat":43.30284,"lon":5.37696,"is_reserved":false,"is_disabled":false,"rental_uris":{"android":"levelo://app?vid=aea59b95-40ec-4ce5-adc4-1af61b5d68b5","ios":"levelo://app?vid=aea59b95-40ec-4ce5-adc4-1af61b5d68b5"},"vehicle_type_id":"4","last_reported":1728465005,"current_range_meters":39200,"station_id":"ce4bguh2rcd13ifvqcj0","pricing_plan_id":"cebpf4jnsgd1na2vs0mg"},{"bike_id":"67b3e5a0-78c0-410b-bf97-b86ba86cad40","system_id":"levelo_inurba_marseille","lat":43.29032,"lon":5.37571,"is_reserved":false,"is_disabled":false,"rental_uris":{"android":"levelo://app?vid=67b3e5a0-78c0-410b-bf97-b86ba86cad40","ios":"levelo://app?vid=67b3e5a0-78c0-410b-bf97-b86ba86cad40"},"vehicle_type_id":"4","last_reported":1728465005,"current_range_meters":30800,"station_id":"ce4bh692rcd13ifvqe90","pricing_plan_id":"cebpf4jnsgd1na2vs0mg"},{"bike_id":"0f70adbe-ee9d-46bd-9883-74567fc4748c","system_id":"levelo_inurba_marseille","lat":43.31228,"lon":5.36853,"is_reserved":false,"is_disabled":false,"rental_uris":{"android":"levelo://app?vid=0f70adbe-ee9d-46bd-9883-74567fc4748c","ios":"levelo://app?vid=0f70adbe-ee9d-46bd-9883-74567fc4748c"},"vehicle_type_id":"4","last_reported":1728465005,"current_range_meters":38800,"station_id":"ce4bgl92rcd13ifvqbq0","pricing_plan_id":"cebpf4jnsgd1na2vs0mg"},{"bike_id":"15b3d48c-d3ab-4f46-b0e4-4d717b5ca59b","system_id":"levelo_inurba_marseille","lat":43.28938,"lon":5.3962,"is_reserved":false,"is_disabled":false,"rental_uris":{"android":"levelo://app?vid=15b3d48c-d3ab-4f46-b0e4-4d717b5ca59b","ios":"levelo://app?vid=15b3d48c-d3ab-4f46-b0e4-4d717b5ca59b"},"vehicle_type_id":"4","last_reported":1728465005,"current_range_meters":24400,"station_id":"ce4bh3h2rcd13ifvqdn0","pricing_plan_id":"cebpf4jnsgd1na2vs0mg"},{"bike_id":"4527bfc5-c904-4845-895d-1c7c8e77151f","system_id":"levelo_inurba_marseille","lat":43.31995,"lon":5.3814,"is_reserved":false,"is_disabled":false,"rental_uris":{"android":"levelo://app?vid=4527bfc5-c904-4845-895d-1c7c8e77151f","ios":"levelo://app?vid=4527bfc5-c904-4845-895d-1c7c8e77151f"},"vehicle_type_id":"4","last_reported":1728465005,"current_range_meters":36800,"station_id":"ce4bhr12rcd13ifvqhpg","pricing_plan_id":"cebpf4jnsgd1na2vs0mg"},{"bike_id":"dd8be093-2e8e-496a-b2d0-3f39f21fc70d","system_id":"levelo_inurba_marseille","lat":43.30422,"lon":5.41279,"is_reserved":false,"is_disabled":false,"rental_uris":{"android":"levelo://app?vid=dd8be093-2e8e-496a-b2d0-3f39f21fc70d","ios":"levelo://app?vid=dd8be093-2e8e-496a-b2d0-3f39f21fc70d"},"vehicle_type_id":"4","last_reported":1728465005,"current_range_meters":37600,"station_id":"ce4bhop2rcd13ifvqh8g","pricing_plan_id":"cebpf4jnsgd1na2vs0mg"},{"bike_id":"45051c07-a864-41b8-be9f-d6bc8c6d0047","system_id":"levelo_inurba_marseille","lat":43.23151,"lon":5.4372,"is_reserved":false,"is_disabled":false,"rental_uris":{"android":"levelo://app?vid=45051c07-a864-41b8-be9f-d6bc8c6d0047","ios":"levelo://app?vid=45051c07-a864-41b8-be9f-d6bc8c6d0047"},"vehicle_type_id":"4","last_reported":1728465005,"current_range_meters":31200,"station_id":"ce4bhmp2rcd13ifvqgog","pricing_plan_id":"cebpf4jnsgd1na2vs0mg"},{"bike_id":"928fae15-fd53-4b25-baa8-01b9b68645a8","system_id":"levelo_inurba_marseille","lat":43.26932,"lon":5.38917,"is_reserved":false,"is_disabled":false,"rental_uris":{"android":"levelo://app?vid=928fae15-fd53-4b25-baa8-01b9b68645a8","ios":"levelo://app?vid=928fae15-fd53-4b25-baa8-01b9b68645a8"},"vehicle_type_id":"4","last_reported":1728465005,"current_range_meters":38800,"station_id":"ce4bhhh2rcd13ifvqfl0","pricing_plan_id":"cebpf4jnsgd1na2vs0mg"},{"bike_id":"6ecc9958-aaeb-4210-8091-0a1a55ff425f","system_id":"levelo_inurba_marseille","lat":43.23149,"lon":5.43721,"is_reserved":false,"is_disabled":false,"rental_uris":{"android":"levelo://app?vid=6ecc9958-aaeb-4210-8091-0a1a55ff425f","ios":"levelo://app?vid=6ecc9958-aaeb-4210-8091-0a1a55ff425f"},"vehicle_type_id":"4","last_reported":1728465005,"current_range_meters":12400,"station_id":"ce4bhmp2rcd13ifvqgog","pricing_plan_id":"cebpf4jnsgd1na2vs0mg"},{"bike_id":"ada37d34-4ee5-4635-86c3-8cd6f90efc16","system_id":"levelo_inurba_marseille","lat":43.26208,"lon":5.37929,"is_reserved":false,"is_disabled":false,"rental_uris":{"android":"levelo://app?vid=ada37d34-4ee5-4635-86c3-8cd6f90efc16","ios":"levelo://app?vid=ada37d34-4ee5-4635-86c3-8cd6f90efc16"},"vehicle_type_id":"4","last_reported":1728465005,"current_range_meters":5600,"station_id":"ce4bhjp2rcd13ifvqg90","pricing_plan_id":"cebpf4jnsgd1na2vs0mg"},{"bike_id":"9fe78430-11e7-47f8-baac-bd725566a90b","system_id":"levelo_inurba_marseille","lat":43.23195,"lon":5.35559,"is_reserved":false,"is_disabled":false,"rental_uris":{"android":"levelo://app?vid=9fe78430-11e7-47f8-baac-bd725566a90b","ios":"levelo://app?vid=9fe78430-11e7-47f8-baac-bd725566a90b"},"vehicle_type_id":"4","last_reported":1728465005,"current_range_meters":4000,"station_id":"ce4bhu92rcd13ifvqi70","pricing_plan_id":"cebpf4jnsgd1na2vs0mg"},{"bike_id":"3c47709e-cce9-4829-a61a-1beb95b597d3","system_id":"levelo_inurba_marseille","lat":43.27493,"lon":5.42461,"is_reserved":false,"is_disabled":false,"rental_uris":{"android":"levelo://app?vid=3c47709e-cce9-4829-a61a-1beb95b597d3","ios":"levelo://app?vid=3c47709e-cce9-4829-a61a-1beb95b597d3"},"vehicle_type_id":"4","last_reported":1728465005,"current_range_meters":31200,"station_id":"ce4bhn92rcd13ifvqgrg","pricing_plan_id":"cebpf4jnsgd1na2vs0mg"},{"bike_id":"158c735d-765f-459c-89f5-d54d747df691","system_id":"levelo_inurba_marseille","lat":43.25933,"lon":5.4091,"is_reserved":false,"is_disabled":false,"rental_uris":{"android":"levelo://app?vid=158c735d-765f-459c-89f5-d54d747df691","ios":"levelo://app?vid=158c735d-765f-459c-89f5-d54d747df691"},"vehicle_type_id":"4","last_reported":1728465005,"current_range_meters":38400,"station_id":"ce4bhm92rcd13ifvqglg","pricing_plan_id":"cebpf4jnsgd1na2vs0mg"},{"bike_id":"da4a30f9-9ac5-49b6-a719-4d62f8e54519","system_id":"levelo_inurba_marseille","lat":43.30165,"lon":5.3808,"is_reserved":false,"is_disabled":false,"rental_uris":{"android":"levelo://app?vid=da4a30f9-9ac5-49b6-a719-4d62f8e54519","ios":"levelo://app?vid=da4a30f9-9ac5-49b6-a719-4d62f8e54519"},"vehicle_type_id":"4","last_reported":1728465005,"current_range_meters":20400,"station_id":"ce4bgjp2rcd13ifvqbh0","pricing_plan_id":"cebpf4jnsgd1na2vs0mg"},{"bike_id":"32a47555-5b90-4e71-acec-5d7469e9cc0c","system_id":"levelo_inurba_marseille","lat":43.3249,"lon":5.36562,"is_reserved":false,"is_disabled":false,"rental_uris":{"android":"levelo://app?vid=32a47555-5b90-4e71-acec-5d7469e9cc0c","ios":"levelo://app?vid=32a47555-5b90-4e71-acec-5d7469e9cc0c"},"vehicle_type_id":"4","last_reported":1728465005,"current_range_meters":39200,"station_id":"ce4bhs12rcd13ifvqhvg","pricing_plan_id":"cebpf4jnsgd1na2vs0mg"},{"bike_id":"6b85a3ee-4da3-449d-ad78-2a214e188956","system_id":"levelo_inurba_marseille","lat":43.30152,"lon":5.3808,"is_reserved":false,"is_disabled":false,"rental_uris":{"android":"levelo://app?vid=6b85a3ee-4da3-449d-ad78-2a214e188956","ios":"levelo://app?vid=6b85a3ee-4da3-449d-ad78-2a214e188956"},"vehicle_type_id":"4","last_reported":1728465005,"current_range_meters":18000,"station_id":"ce4bgjp2rcd13ifvqbh0","pricing_plan_id":"cebpf4jnsgd1na2vs0mg"},{"bike_id":"d90712d7-c141-4692-95f9-dd71034a00eb","system_id":"levelo_inurba_marseille","lat":43.29851,"lon":5.36273,"is_reserved":false,"is_disabled":false,"rental_uris":{"android":"levelo://app?vid=d90712d7-c141-4692-95f9-dd71034a00eb","ios":"levelo://app?vid=d90712d7-c141-4692-95f9-dd71034a00eb"},"vehicle_type_id":"4","last_reported":1728465005,"current_range_meters":22800,"station_id":"ce4bgpp2rcd13ifvqc3g","pricing_plan_id":"cebpf4jnsgd1na2vs0mg"},{"bike_id":"e8d49da1-808d-4177-b5ed-e1c34b4c7611","system_id":"levelo_inurba_marseille","lat":43.33028,"lon":5.39043,"is_reserved":false,"is_disabled":false,"rental_uris":{"android":"levelo://app?vid=e8d49da1-808d-4177-b5ed-e1c34b4c7611","ios":"levelo://app?vid=e8d49da1-808d-4177-b5ed-e1c34b4c7611"},"vehicle_type_id":"4","last_reported":1728465005,"current_range_meters":30000,"station_id":"ce4bhr92rcd13ifvqhrg","pricing_plan_id":"cebpf4jnsgd1na2vs0mg"},{"bike_id":"e893287e-c33c-4e65-a9e0-b26d0de48a78","system_id":"levelo_inurba_marseille","lat":43.31356,"lon":5.36707,"is_reserved":false,"is_disabled":false,"rental_uris":{"android":"levelo://app?vid=e893287e-c33c-4e65-a9e0-b26d0de48a78","ios":"levelo://app?vid=e893287e-c33c-4e65-a9e0-b26d0de48a78"},"vehicle_type_id":"4","last_reported":1728465005,"current_range_meters":35200,"station_id":"ce4bgr92rcd13ifvqc6g","pricing_plan_id":"cebpf4jnsgd1na2vs0mg"},{"bike_id":"50ef921f-8164-4244-9313-5f8319da057e","system_id":"levelo_inurba_marseille","lat":43.30651,"lon":5.40105,"is_reserved":false,"is_disabled":false,"rental_uris":{"android":"levelo://app?vid=50ef921f-8164-4244-9313-5f8319da057e","ios":"levelo://app?vid=50ef921f-8164-4244-9313-5f8319da057e"},"vehicle_type_id":"4","last_reported":1728465005,"current_range_meters":38000,"station_id":"ce4bh112rcd13ifvqda0","pricing_plan_id":"cebpf4jnsgd1na2vs0mg"},{"bike_id":"f5bd0055-90f6-4036-b18d-9cb67f28454a","system_id":"levelo_inurba_marseille","lat":43.33608,"lon":5.4104,"is_reserved":false,"is_disabled":false,"rental_uris":{"android":"levelo://app?vid=f5bd0055-90f6-4036-b18d-9cb67f28454a","ios":"levelo://app?vid=f5bd0055-90f6-4036-b18d-9cb67f28454a"},"vehicle_type_id":"4","last_reported":1728465005,"current_range_meters":13600,"station_id":"ce4bhqh2rcd13ifvqhmg","pricing_plan_id":"cebpf4jnsgd1na2vs0mg"},{"bike_id":"42331874-00d9-42da-8ade-186b4ef1581a","system_id":"levelo_inurba_marseille","lat":43.26213,"lon":5.37452,"is_reserved":false,"is_disabled":false,"rental_uris":{"android":"levelo://app?vid=42331874-00d9-42da-8ade-186b4ef1581a","ios":"levelo://app?vid=42331874-00d9-42da-8ade-186b4ef1581a"},"vehicle_type_id":"4","last_reported":1728465005,"current_range_meters":26000,"station_id":"ce4bhgp2rcd13ifvqfc0","pricing_plan_id":"cebpf4jnsgd1na2vs0mg"},{"bike_id":"70579604-fe31-4626-8ce5-732c300fd65a","system_id":"levelo_inurba_marseille","lat":43.3054,"lon":5.36545,"is_reserved":false,"is_disabled":false,"rental_uris":{"android":"levelo://app?vid=70579604-fe31-4626-8ce5-732c300fd65a","ios":"levelo://app?vid=70579604-fe31-4626-8ce5-732c300fd65a"},"vehicle_type_id":"4","last_reported":1728465005,"current_range_meters":9200,"station_id":"ce4bgs12rcd13ifvqcag","pricing_plan_id":"cebpf4jnsgd1na2vs0mg"},{"bike_id":"88267538-d6a0-4053-8085-f063fb54cc2b","system_id":"levelo_inurba_marseille","lat":43.27494,"lon":5.42458,"is_reserved":false,"is_disabled":false,"rental_uris":{"android":"levelo://app?vid=88267538-d6a0-4053-8085-f063fb54cc2b","ios":"levelo://app?vid=88267538-d6a0-4053-8085-f063fb54cc2b"},"vehicle_type_id":"4","last_reported":1728465005,"current_range_meters":25600,"station_id":"ce4bhn92rcd13ifvqgrg","pricing_plan_id":"cebpf4jnsgd1na2vs0mg"},{"bike_id":"b4827499-060b-4d29-866e-571ac00645e9","system_id":"levelo_inurba_marseille","lat":43.27061,"lon":5.40261,"is_reserved":false,"is_disabled":false,"rental_uris":{"android":"levelo://app?vid=b4827499-060b-4d29-866e-571ac00645e9","ios":"levelo://app?vid=b4827499-060b-4d29-866e-571ac00645e9"},"vehicle_type_id":"4","last_reported":1728465005,"current_range_meters":23200,"station_id":"ce4bhk92rcd13ifvqgc0","pricing_plan_id":"cebpf4jnsgd1na2vs0mg"},{"bike_id":"e9382f8d-1f95-4545-9102-5455bd90168a","system_id":"levelo_inurba_marseille","lat":43.28484,"lon":5.38543,"is_reserved":false,"is_disabled":false,"rental_uris":{"android":"levelo://app?vid=e9382f8d-1f95-4545-9102-5455bd90168a","ios":"levelo://app?vid=e9382f8d-1f95-4545-9102-5455bd90168a"},"vehicle_type_id":"4","last_reported":1728465005,"current_range_meters":32000,"station_id":"ce4bh8p2rcd13ifvqeb0","pricing_plan_id":"cebpf4jnsgd1na2vs0mg"},{"bike_id":"baba3ddf-e747-4095-9a9c-078163c7026f","system_id":"levelo_inurba_marseille","lat":43.25932,"lon":5.40904,"is_reserved":false,"is_disabled":false,"rental_uris":{"android":"levelo://app?vid=baba3ddf-e747-4095-9a9c-078163c7026f","ios":"levelo://app?vid=baba3ddf-e747-4095-9a9c-078163c7026f"},"vehicle_type_id":"4","last_reported":1728465005,"current_range_meters":7200,"station_id":"ce4bhm92rcd13ifvqglg","pricing_plan_id":"cebpf4jnsgd1na2vs0mg"},{"bike_id":"1debd3bb-f306-433d-a2ae-f9f685bbbbc9","system_id":"levelo_inurba_marseille","lat":43.33729,"lon":5.39187,"is_reserved":false,"is_disabled":false,"rental_uris":{"android":"levelo://app?vid=1debd3bb-f306-433d-a2ae-f9f685bbbbc9","ios":"levelo://app?vid=1debd3bb-f306-433d-a2ae-f9f685bbbbc9"},"vehicle_type_id":"4","last_reported":1728465005,"current_range_meters":14800,"station_id":"ce4bhr92rcd13ifvqhsg","pricing_plan_id":"cebpf4jnsgd1na2vs0mg"},{"bike_id":"6217f0d4-29aa-4911-a3f9-c02e45328700","system_id":"levelo_inurba_marseille","lat":43.23203,"lon":5.35544,"is_reserved":false,"is_disabled":false,"rental_uris":{"android":"levelo://app?vid=6217f0d4-29aa-4911-a3f9-c02e45328700","ios":"levelo://app?vid=6217f0d4-29aa-4911-a3f9-c02e45328700"},"vehicle_type_id":"4","last_reported":1728465005,"current_range_meters":33600,"station_id":"ce4bhu92rcd13ifvqi70","pricing_plan_id":"cebpf4jnsgd1na2vs0mg"},{"bike_id":"1145eb87-1288-424a-ab77-43ca4155ee56","system_id":"levelo_inurba_marseille","lat":43.33694,"lon":5.37328,"is_reserved":false,"is_disabled":false,"rental_uris":{"android":"levelo://app?vid=1145eb87-1288-424a-ab77-43ca4155ee56","ios":"levelo://app?vid=1145eb87-1288-424a-ab77-43ca4155ee56"},"vehicle_type_id":"4","last_reported":1728465005,"current_range_meters":37600,"station_id":"","pricing_plan_id":"cebpf4jnsgd1na2vs0mg"},{"bike_id":"a335f677-574f-4c1e-836f-24ac52969147","system_id":"levelo_inurba_marseille","lat":43.28267,"lon":5.35062,"is_reserved":false,"is_disabled":false,"rental_uris":{"android":"levelo://app?vid=a335f677-574f-4c1e-836f-24ac52969147","ios":"levelo://app?vid=a335f677-574f-4c1e-836f-24ac52969147"},"vehicle_type_id":"4","last_reported":1728465005,"current_range_meters":38800,"station_id":"ce4bhbp2rcd13ifvqerg","pricing_plan_id":"cebpf4jnsgd1na2vs0mg"},{"bike_id":"c838499d-2521-4da9-9c26-7455419ac261","system_id":"levelo_inurba_marseille","lat":43.3065,"lon":5.40082,"is_reserved":false,"is_disabled":false,"rental_uris":{"android":"levelo://app?vid=c838499d-2521-4da9-9c26-7455419ac261","ios":"levelo://app?vid=c838499d-2521-4da9-9c26-7455419ac261"},"vehicle_type_id":"4","last_reported":1728465005,"current_range_meters":8400,"station_id":"ce4bh112rcd13ifvqda0","pricing_plan_id":"cebpf4jnsgd1na2vs0mg"},{"bike_id":"141df06e-113e-44c6-8129-a25fe376a60a","system_id":"levelo_inurba_marseille","lat":43.29551,"lon":5.42285,"is_reserved":false,"is_disabled":false,"rental_uris":{"android":"levelo://app?vid=141df06e-113e-44c6-8129-a25fe376a60a","ios":"levelo://app?vid=141df06e-113e-44c6-8129-a25fe376a60a"},"vehicle_type_id":"4","last_reported":1728465005,"current_range_meters":38400,"station_id":"ce4bhph2rcd13ifvqhdg","pricing_plan_id":"cebpf4jnsgd1na2vs0mg"},{"bike_id":"c8ebc7d1-6943-4044-ad6c-3252fb6dd74b","system_id":"levelo_inurba_marseille","lat":43.26209,"lon":5.37446,"is_reserved":false,"is_disabled":false,"rental_uris":{"android":"levelo://app?vid=c8ebc7d1-6943-4044-ad6c-3252fb6dd74b","ios":"levelo://app?vid=c8ebc7d1-6943-4044-ad6c-3252fb6dd74b"},"vehicle_type_id":"4","last_reported":1728465005,"current_range_meters":28400,"station_id":"ce4bhgp2rcd13ifvqfc0","pricing_plan_id":"cebpf4jnsgd1na2vs0mg"},{"bike_id":"5e6b6150-a47e-402c-adfd-73ccaed8f7d2","system_id":"levelo_inurba_marseille","lat":43.26945,"lon":5.40254,"is_reserved":false,"is_disabled":false,"rental_uris":{"android":"levelo://app?vid=5e6b6150-a47e-402c-adfd-73ccaed8f7d2","ios":"levelo://app?vid=5e6b6150-a47e-402c-adfd-73ccaed8f7d2"},"vehicle_type_id":"4","last_reported":1728465005,"current_range_meters":37600,"station_id":"cjm6bp8fraef2m0cb0m0","pricing_plan_id":"cebpf4jnsgd1na2vs0mg"},{"bike_id":"fde7cf76-2bbb-462c-878e-7256af82b32b","system_id":"levelo_inurba_marseille","lat":43.23206,"lon":5.35544,"is_reserved":false,"is_disabled":false,"rental_uris":{"android":"levelo://app?vid=fde7cf76-2bbb-462c-878e-7256af82b32b","ios":"levelo://app?vid=fde7cf76-2bbb-462c-878e-7256af82b32b"},"vehicle_type_id":"4","last_reported":1728465005,"current_range_meters":38800,"station_id":"ce4bhu92rcd13ifvqi70","pricing_plan_id":"cebpf4jnsgd1na2vs0mg"},{"bike_id":"fd4dd0b0-9f29-4283-b0a3-caf50dd2be11","system_id":"levelo_inurba_marseille","lat":43.33024,"lon":5.39037,"is_reserved":false,"is_disabled":false,"rental_uris":{"android":"levelo://app?vid=fd4dd0b0-9f29-4283-b0a3-caf50dd2be11","ios":"levelo://app?vid=fd4dd0b0-9f29-4283-b0a3-caf50dd2be11"},"vehicle_type_id":"4","last_reported":1728465005,"current_range_meters":38000,"station_id":"ce4bhr92rcd13ifvqhrg","pricing_plan_id":"cebpf4jnsgd1na2vs0mg"},{"bike_id":"94789da6-c358-4643-9e11-f938e8d07ecf","system_id":"levelo_inurba_marseille","lat":43.25585,"lon":5.3823,"is_reserved":false,"is_disabled":false,"rental_uris":{"android":"levelo://app?vid=94789da6-c358-4643-9e11-f938e8d07ecf","ios":"levelo://app?vid=94789da6-c358-4643-9e11-f938e8d07ecf"},"vehicle_type_id":"4","last_reported":1728465005,"current_range_meters":30000,"station_id":"ce4bhih2rcd13ifvqfs0","pricing_plan_id":"cebpf4jnsgd1na2vs0mg"},{"bike_id":"2b6677d5-7b62-4a07-b6c3-7bf77f5bcd5c","system_id":"levelo_inurba_marseille","lat":43.28446,"lon":5.39185,"is_reserved":false,"is_disabled":false,"rental_uris":{"android":"levelo://app?vid=2b6677d5-7b62-4a07-b6c3-7bf77f5bcd5c","ios":"levelo://app?vid=2b6677d5-7b62-4a07-b6c3-7bf77f5bcd5c"},"vehicle_type_id":"4","last_reported":1728465005,"current_range_meters":38000,"station_id":"ce4bhoh2rcd13ifvqh5g","pricing_plan_id":"cebpf4jnsgd1na2vs0mg"},{"bike_id":"ff34ef8c-35ba-4599-8a65-98fd950e650d","system_id":"levelo_inurba_marseille","lat":43.24667,"lon":5.38161,"is_reserved":false,"is_disabled":false,"rental_uris":{"android":"levelo://app?vid=ff34ef8c-35ba-4599-8a65-98fd950e650d","ios":"levelo://app?vid=ff34ef8c-35ba-4599-8a65-98fd950e650d"},"vehicle_type_id":"4","last_reported":1728465005,"current_range_meters":38800,"station_id":"ce4bhih2rcd13ifvqfr0","pricing_plan_id":"cebpf4jnsgd1na2vs0mg"},{"bike_id":"c699fd16-9892-4b85-880b-6596e781d4a3","system_id":"levelo_inurba_marseille","lat":43.30418,"lon":5.41285,"is_reserved":false,"is_disabled":false,"rental_uris":{"android":"levelo://app?vid=c699fd16-9892-4b85-880b-6596e781d4a3","ios":"levelo://app?vid=c699fd16-9892-4b85-880b-6596e781d4a3"},"vehicle_type_id":"4","last_reported":1728465005,"current_range_meters":28800,"station_id":"ce4bhop2rcd13ifvqh8g","pricing_plan_id":"cebpf4jnsgd1na2vs0mg"},{"bike_id":"84e1676e-bfa5-461b-8a0c-7bbfe307106f","system_id":"levelo_inurba_marseille","lat":43.25584,"lon":5.38237,"is_reserved":false,"is_disabled":false,"rental_uris":{"android":"levelo://app?vid=84e1676e-bfa5-461b-8a0c-7bbfe307106f","ios":"levelo://app?vid=84e1676e-bfa5-461b-8a0c-7bbfe307106f"},"vehicle_type_id":"4","last_reported":1728465005,"current_range_meters":38800,"station_id":"ce4bhih2rcd13ifvqfs0","pricing_plan_id":"cebpf4jnsgd1na2vs0mg"},{"bike_id":"0639ec70-43dc-420c-a1af-257ee376cffc","system_id":"levelo_inurba_marseille","lat":43.29554,"lon":5.4229,"is_reserved":false,"is_disabled":false,"rental_uris":{"android":"levelo://app?vid=0639ec70-43dc-420c-a1af-257ee376cffc","ios":"levelo://app?vid=0639ec70-43dc-420c-a1af-257ee376cffc"},"vehicle_type_id":"4","last_reported":1728465005,"current_range_meters":30400,"station_id":"ce4bhph2rcd13ifvqhdg","pricing_plan_id":"cebpf4jnsgd1na2vs0mg"},{"bike_id":"998d1276-2de6-498b-bcd8-db7577be04dd","system_id":"levelo_inurba_marseille","lat":43.29283,"lon":5.36846,"is_reserved":false,"is_disabled":false,"rental_uris":{"android":"levelo://app?vid=998d1276-2de6-498b-bcd8-db7577be04dd","ios":"levelo://app?vid=998d1276-2de6-498b-bcd8-db7577be04dd"},"vehicle_type_id":"4","last_reported":1728465005,"current_range_meters":22000,"station_id":"ce4bhbp2rcd13ifvqesg","pricing_plan_id":"cebpf4jnsgd1na2vs0mg"},{"bike_id":"2250666e-2423-4ec9-a242-d1f6b184ebc2","system_id":"levelo_inurba_marseille","lat":43.30146,"lon":5.37411,"is_reserved":false,"is_disabled":false,"rental_uris":{"android":"levelo://app?vid=2250666e-2423-4ec9-a242-d1f6b184ebc2","ios":"levelo://app?vid=2250666e-2423-4ec9-a242-d1f6b184ebc2"},"vehicle_type_id":"4","last_reported":1728465005,"current_range_meters":27600,"station_id":"ce4bgs92rcd13ifvqcc0","pricing_plan_id":"cebpf4jnsgd1na2vs0mg"},{"bike_id":"22d650dc-a27f-4ed2-8de1-6b863e472295","system_id":"levelo_inurba_marseille","lat":43.3248,"lon":5.36559,"is_reserved":false,"is_disabled":false,"rental_uris":{"android":"levelo://app?vid=22d650dc-a27f-4ed2-8de1-6b863e472295","ios":"levelo://app?vid=22d650dc-a27f-4ed2-8de1-6b863e472295"},"vehicle_type_id":"4","last_reported":1728465005,"current_range_meters":20800,"station_id":"ce4bhs12rcd13ifvqhvg","pricing_plan_id":"cebpf4jnsgd1na2vs0mg"},{"bike_id":"40ce2d9d-e920-4ff5-a7be-f7e9fddaed2e","system_id":"levelo_inurba_marseille","lat":43.3054,"lon":5.36704,"is_reserved":false,"is_disabled":false,"rental_uris":{"android":"levelo://app?vid=40ce2d9d-e920-4ff5-a7be-f7e9fddaed2e","ios":"levelo://app?vid=40ce2d9d-e920-4ff5-a7be-f7e9fddaed2e"},"vehicle_type_id":"4","last_reported":1728465005,"current_range_meters":34800,"station_id":"ce4bgrp2rcd13ifvqc9g","pricing_plan_id":"cebpf4jnsgd1na2vs0mg"},{"bike_id":"9585b128-808e-47c7-9424-277be5a508ad","system_id":"levelo_inurba_marseille","lat":43.304169,"lon":5.41292,"is_reserved":false,"is_disabled":false,"rental_uris":{"android":"levelo://app?vid=9585b128-808e-47c7-9424-277be5a508ad","ios":"levelo://app?vid=9585b128-808e-47c7-9424-277be5a508ad"},"vehicle_type_id":"4","last_reported":1728465005,"current_range_meters":8400,"station_id":"ce4bhop2rcd13ifvqh8g","pricing_plan_id":"cebpf4jnsgd1na2vs0mg"},{"bike_id":"4fae162a-77df-4f18-b131-3329cc3ef84b","system_id":"levelo_inurba_marseille","lat":43.26064,"lon":5.39393,"is_reserved":false,"is_disabled":false,"rental_uris":{"android":"levelo://app?vid=4fae162a-77df-4f18-b131-3329cc3ef84b","ios":"levelo://app?vid=4fae162a-77df-4f18-b131-3329cc3ef84b"},"vehicle_type_id":"4","last_reported":1728465005,"current_range_meters":16800,"station_id":"ce4bhh92rcd13ifvqfj0","pricing_plan_id":"cebpf4jnsgd1na2vs0mg"},{"bike_id":"675329d3-d4b5-480a-8465-4dd45ad44409","system_id":"levelo_inurba_marseille","lat":43.28105,"lon":5.37838,"is_reserved":false,"is_disabled":false,"rental_uris":{"android":"levelo://app?vid=675329d3-d4b5-480a-8465-4dd45ad44409","ios":"levelo://app?vid=675329d3-d4b5-480a-8465-4dd45ad44409"},"vehicle_type_id":"4","last_reported":1728465005,"current_range_meters":6000,"station_id":"ce4bha12rcd13ifvqee0","pricing_plan_id":"cebpf4jnsgd1na2vs0mg"},{"bike_id":"8a67907a-4e1b-4251-b4a4-c980df6fc77b","system_id":"levelo_inurba_marseille","lat":43.3029,"lon":5.37705,"is_reserved":false,"is_disabled":false,"rental_uris":{"android":"levelo://app?vid=8a67907a-4e1b-4251-b4a4-c980df6fc77b","ios":"levelo://app?vid=8a67907a-4e1b-4251-b4a4-c980df6fc77b"},"vehicle_type_id":"4","last_reported":1728465005,"current_range_meters":36000,"station_id":"ce4bguh2rcd13ifvqcj0","pricing_plan_id":"cebpf4jnsgd1na2vs0mg"},{"bike_id":"8f195e73-56cf-4dbf-97df-c620bbc300b1","system_id":"levelo_inurba_marseille","lat":43.23157,"lon":5.43703,"is_reserved":false,"is_disabled":false,"rental_uris":{"android":"levelo://app?vid=8f195e73-56cf-4dbf-97df-c620bbc300b1","ios":"levelo://app?vid=8f195e73-56cf-4dbf-97df-c620bbc300b1"},"vehicle_type_id":"4","last_reported":1728465005,"current_range_meters":17600,"station_id":"ce4bhmp2rcd13ifvqgog","pricing_plan_id":"cebpf4jnsgd1na2vs0mg"},{"bike_id":"09fa8933-188c-463c-b655-4d048fac928d","system_id":"levelo_inurba_marseille","lat":43.30152,"lon":5.38089,"is_reserved":false,"is_disabled":false,"rental_uris":{"android":"levelo://app?vid=09fa8933-188c-463c-b655-4d048fac928d","ios":"levelo://app?vid=09fa8933-188c-463c-b655-4d048fac928d"},"vehicle_type_id":"4","last_reported":1728465005,"current_range_meters":36000,"station_id":"ce4bgjp2rcd13ifvqbh0","pricing_plan_id":"cebpf4jnsgd1na2vs0mg"},{"bike_id":"25afecff-8faf-4ca5-beb4-ce74280dcb13","system_id":"levelo_inurba_marseille","lat":43.23193,"lon":5.35545,"is_reserved":false,"is_disabled":false,"rental_uris":{"android":"levelo://app?vid=25afecff-8faf-4ca5-beb4-ce74280dcb13","ios":"levelo://app?vid=25afecff-8faf-4ca5-beb4-ce74280dcb13"},"vehicle_type_id":"4","last_reported":1728465005,"current_range_meters":4400,"station_id":"ce4bhu92rcd13ifvqi70","pricing_plan_id":"cebpf4jnsgd1na2vs0mg"},{"bike_id":"df25d8f5-cea4-4065-8f82-c466c3471200","system_id":"levelo_inurba_marseille","lat":43.299164,"lon":5.374836,"is_reserved":false,"is_disabled":false,"rental_uris":{"android":"levelo://app?vid=df25d8f5-cea4-4065-8f82-c466c3471200","ios":"levelo://app?vid=df25d8f5-cea4-4065-8f82-c466c3471200"},"vehicle_type_id":"4","last_reported":1728465005,"current_range_meters":28000,"station_id":"ce4bgjh2rcd13ifvqbg0","pricing_plan_id":"cebpf4jnsgd1na2vs0mg"},{"bike_id":"8241d75d-6298-4142-9fd6-f55383c6d382","system_id":"levelo_inurba_marseille","lat":43.29289,"lon":5.40118,"is_reserved":false,"is_disabled":false,"rental_uris":{"android":"levelo://app?vid=8241d75d-6298-4142-9fd6-f55383c6d382","ios":"levelo://app?vid=8241d75d-6298-4142-9fd6-f55383c6d382"},"vehicle_type_id":"4","last_reported":1728465005,"current_range_meters":38800,"station_id":"ce4bh312rcd13ifvqdk0","pricing_plan_id":"cebpf4jnsgd1na2vs0mg"},{"bike_id":"7219fee0-219f-4cfa-8633-b620db7597ae","system_id":"levelo_inurba_marseille","lat":43.29829,"lon":5.37107,"is_reserved":false,"is_disabled":false,"rental_uris":{"android":"levelo://app?vid=7219fee0-219f-4cfa-8633-b620db7597ae","ios":"levelo://app?vid=7219fee0-219f-4cfa-8633-b620db7597ae"},"vehicle_type_id":"4","last_reported":1728465005,"current_range_meters":15200,"station_id":"","pricing_plan_id":"cebpf4jnsgd1na2vs0mg"},{"bike_id":"57004cda-5a37-44e3-92c7-c1efbc8fa188","system_id":"levelo_inurba_marseille","lat":43.29578,"lon":5.37521,"is_reserved":false,"is_disabled":false,"rental_uris":{"android":"levelo://app?vid=57004cda-5a37-44e3-92c7-c1efbc8fa188","ios":"levelo://app?vid=57004cda-5a37-44e3-92c7-c1efbc8fa188"},"vehicle_type_id":"4","last_reported":1728465005,"current_range_meters":22400,"station_id":"ce4bgh92rcd13ifvqb50","pricing_plan_id":"cebpf4jnsgd1na2vs0mg"},{"bike_id":"715b55bf-f4a7-418c-82c3-68a5f2dbe98c","system_id":"levelo_inurba_marseille","lat":43.29631,"lon":5.40588,"is_reserved":false,"is_disabled":false,"rental_uris":{"android":"levelo://app?vid=715b55bf-f4a7-418c-82c3-68a5f2dbe98c","ios":"levelo://app?vid=715b55bf-f4a7-418c-82c3-68a5f2dbe98c"},"vehicle_type_id":"4","last_reported":1728465005,"current_range_meters":38400,"station_id":"ce4bh0h2rcd13ifvqd60","pricing_plan_id":"cebpf4jnsgd1na2vs0mg"},{"bike_id":"3555ba24-83db-490c-a575-eb5af60736ac","system_id":"levelo_inurba_marseille","lat":43.24081,"lon":5.37751,"is_reserved":false,"is_disabled":false,"rental_uris":{"android":"levelo://app?vid=3555ba24-83db-490c-a575-eb5af60736ac","ios":"levelo://app?vid=3555ba24-83db-490c-a575-eb5af60736ac"},"vehicle_type_id":"4","last_reported":1728465005,"current_range_meters":28400,"station_id":"ce4bhnp2rcd13ifvqgvg","pricing_plan_id":"cebpf4jnsgd1na2vs0mg"},{"bike_id":"a17e56e3-da23-46c2-83b0-178515e4d9c4","system_id":"levelo_inurba_marseille","lat":43.305475,"lon":5.367272,"is_reserved":false,"is_disabled":false,"rental_uris":{"android":"levelo://app?vid=a17e56e3-da23-46c2-83b0-178515e4d9c4","ios":"levelo://app?vid=a17e56e3-da23-46c2-83b0-178515e4d9c4"},"vehicle_type_id":"4","last_reported":1728465005,"current_range_meters":32400,"station_id":"ce4bgrp2rcd13ifvqc9g","pricing_plan_id":"cebpf4jnsgd1na2vs0mg"},{"bike_id":"ff2bc075-1eed-446f-8c5d-3787577c599f","system_id":"levelo_inurba_marseille","lat":43.29788,"lon":5.39347,"is_reserved":false,"is_disabled":false,"rental_uris":{"android":"levelo://app?vid=ff2bc075-1eed-446f-8c5d-3787577c599f","ios":"levelo://app?vid=ff2bc075-1eed-446f-8c5d-3787577c599f"},"vehicle_type_id":"4","last_reported":1728465005,"current_range_meters":34000,"station_id":"chh1huq6cuj3fo74tm60","pricing_plan_id":"cebpf4jnsgd1na2vs0mg"},{"bike_id":"9058ccd9-5646-4986-9cb0-98865f3d0b28","system_id":"levelo_inurba_marseille","lat":43.23974,"lon":5.36618,"is_reserved":false,"is_disabled":false,"rental_uris":{"android":"levelo://app?vid=9058ccd9-5646-4986-9cb0-98865f3d0b28","ios":"levelo://app?vid=9058ccd9-5646-4986-9cb0-98865f3d0b28"},"vehicle_type_id":"4","last_reported":1728465005,"current_range_meters":24000,"station_id":"ce4bhi12rcd13ifvqfp0","pricing_plan_id":"cebpf4jnsgd1na2vs0mg"},{"bike_id":"e2d3bf15-6bc4-4545-bc67-a271e3dd6038","system_id":"levelo_inurba_marseille","lat":43.29557,"lon":5.42276,"is_reserved":false,"is_disabled":false,"rental_uris":{"android":"levelo://app?vid=e2d3bf15-6bc4-4545-bc67-a271e3dd6038","ios":"levelo://app?vid=e2d3bf15-6bc4-4545-bc67-a271e3dd6038"},"vehicle_type_id":"4","last_reported":1728465005,"current_range_meters":38800,"station_id":"ce4bhph2rcd13ifvqhdg","pricing_plan_id":"cebpf4jnsgd1na2vs0mg"},{"bike_id":"3732d06a-ec1c-4a8c-9a03-2b481dd2191f","system_id":"levelo_inurba_marseille","lat":43.337444,"lon":5.374475,"is_reserved":false,"is_disabled":false,"rental_uris":{"android":"levelo://app?vid=3732d06a-ec1c-4a8c-9a03-2b481dd2191f","ios":"levelo://app?vid=3732d06a-ec1c-4a8c-9a03-2b481dd2191f"},"vehicle_type_id":"4","last_reported":1728465005,"current_range_meters":39200,"station_id":"","pricing_plan_id":"cebpf4jnsgd1na2vs0mg"},{"bike_id":"d3fae20f-19d6-4a79-9521-98cdd103ffa5","system_id":"levelo_inurba_marseille","lat":43.28113,"lon":5.3783,"is_reserved":false,"is_disabled":false,"rental_uris":{"android":"levelo://app?vid=d3fae20f-19d6-4a79-9521-98cdd103ffa5","ios":"levelo://app?vid=d3fae20f-19d6-4a79-9521-98cdd103ffa5"},"vehicle_type_id":"4","last_reported":1728465005,"current_range_meters":27200,"station_id":"ce4bha12rcd13ifvqee0","pricing_plan_id":"cebpf4jnsgd1na2vs0mg"},{"bike_id":"71250cb0-c748-47e9-a0b5-268da76a0664","system_id":"levelo_inurba_marseille","lat":43.30907,"lon":5.36854,"is_reserved":false,"is_disabled":false,"rental_uris":{"android":"levelo://app?vid=71250cb0-c748-47e9-a0b5-268da76a0664","ios":"levelo://app?vid=71250cb0-c748-47e9-a0b5-268da76a0664"},"vehicle_type_id":"4","last_reported":1728465005,"current_range_meters":25200,"station_id":"ce4bgn92rcd13ifvqbvg","pricing_plan_id":"cebpf4jnsgd1na2vs0mg"},{"bike_id":"49e74dee-8cba-4b09-8380-03c6c3b2ccb7","system_id":"levelo_inurba_marseille","lat":43.33611,"lon":5.41028,"is_reserved":false,"is_disabled":false,"rental_uris":{"android":"levelo://app?vid=49e74dee-8cba-4b09-8380-03c6c3b2ccb7","ios":"levelo://app?vid=49e74dee-8cba-4b09-8380-03c6c3b2ccb7"},"vehicle_type_id":"4","last_reported":1728465005,"current_range_meters":38800,"station_id":"ce4bhqh2rcd13ifvqhmg","pricing_plan_id":"cebpf4jnsgd1na2vs0mg"},{"bike_id":"c5f9d7b5-095c-44ea-b18e-09fa3f124b58","system_id":"levelo_inurba_marseille","lat":43.33761,"lon":5.37438,"is_reserved":false,"is_disabled":false,"rental_uris":{"android":"levelo://app?vid=c5f9d7b5-095c-44ea-b18e-09fa3f124b58","ios":"levelo://app?vid=c5f9d7b5-095c-44ea-b18e-09fa3f124b58"},"vehicle_type_id":"4","last_reported":1728465005,"current_range_meters":36800,"station_id":"","pricing_plan_id":"cebpf4jnsgd1na2vs0mg"},{"bike_id":"f57fbb46-e38d-4439-843a-bf0ed5a88b0e","system_id":"levelo_inurba_marseille","lat":43.30147,"lon":5.37417,"is_reserved":false,"is_disabled":false,"rental_uris":{"android":"levelo://app?vid=f57fbb46-e38d-4439-843a-bf0ed5a88b0e","ios":"levelo://app?vid=f57fbb46-e38d-4439-843a-bf0ed5a88b0e"},"vehicle_type_id":"4","last_reported":1728465005,"current_range_meters":24400,"station_id":"ce4bgs92rcd13ifvqcc0","pricing_plan_id":"cebpf4jnsgd1na2vs0mg"},{"bike_id":"045ace5c-b2a3-426f-8ab8-2dde56e1fe43","system_id":"levelo_inurba_marseille","lat":43.30353,"lon":5.41876,"is_reserved":false,"is_disabled":false,"rental_uris":{"android":"levelo://app?vid=045ace5c-b2a3-426f-8ab8-2dde56e1fe43","ios":"levelo://app?vid=045ace5c-b2a3-426f-8ab8-2dde56e1fe43"},"vehicle_type_id":"4","last_reported":1728465005,"current_range_meters":31200,"station_id":"ce4bhop2rcd13ifvqh7g","pricing_plan_id":"cebpf4jnsgd1na2vs0mg"},{"bike_id":"166a39f5-db64-4701-9c1e-3e028fdca3cf","system_id":"levelo_inurba_marseille","lat":43.28615,"lon":5.35104,"is_reserved":false,"is_disabled":false,"rental_uris":{"android":"levelo://app?vid=166a39f5-db64-4701-9c1e-3e028fdca3cf","ios":"levelo://app?vid=166a39f5-db64-4701-9c1e-3e028fdca3cf"},"vehicle_type_id":"4","last_reported":1728465005,"current_range_meters":16400,"station_id":"ce4bhch2rcd13ifvqeug","pricing_plan_id":"cebpf4jnsgd1na2vs0mg"},{"bike_id":"cd5db413-cd84-47e8-8776-565b7138cca3","system_id":"levelo_inurba_marseille","lat":43.32485,"lon":5.36573,"is_reserved":false,"is_disabled":false,"rental_uris":{"android":"levelo://app?vid=cd5db413-cd84-47e8-8776-565b7138cca3","ios":"levelo://app?vid=cd5db413-cd84-47e8-8776-565b7138cca3"},"vehicle_type_id":"4","last_reported":1728465005,"current_range_meters":21600,"station_id":"ce4bhs12rcd13ifvqhvg","pricing_plan_id":"cebpf4jnsgd1na2vs0mg"},{"bike_id":"06971ff2-9e3f-427f-9afb-e2db59fd3490","system_id":"levelo_inurba_marseille","lat":43.30152,"lon":5.38087,"is_reserved":false,"is_disabled":false,"rental_uris":{"android":"levelo://app?vid=06971ff2-9e3f-427f-9afb-e2db59fd3490","ios":"levelo://app?vid=06971ff2-9e3f-427f-9afb-e2db59fd3490"},"vehicle_type_id":"4","last_reported":1728465005,"current_range_meters":29600,"station_id":"ce4bgjp2rcd13ifvqbh0","pricing_plan_id":"cebpf4jnsgd1na2vs0mg"},{"bike_id":"98abc9c5-0288-48da-819f-005a5cd3a454","system_id":"levelo_inurba_marseille","lat":43.26789,"lon":5.39405,"is_reserved":false,"is_disabled":false,"rental_uris":{"android":"levelo://app?vid=98abc9c5-0288-48da-819f-005a5cd3a454","ios":"levelo://app?vid=98abc9c5-0288-48da-819f-005a5cd3a454"},"vehicle_type_id":"4","last_reported":1728465005,"current_range_meters":14800,"station_id":"ce4bhh12rcd13ifvqfg0","pricing_plan_id":"cebpf4jnsgd1na2vs0mg"},{"bike_id":"952bbccd-3bcf-47ed-bb76-25090a9e5e75","system_id":"levelo_inurba_marseille","lat":43.30912,"lon":5.36854,"is_reserved":false,"is_disabled":false,"rental_uris":{"android":"levelo://app?vid=952bbccd-3bcf-47ed-bb76-25090a9e5e75","ios":"levelo://app?vid=952bbccd-3bcf-47ed-bb76-25090a9e5e75"},"vehicle_type_id":"4","last_reported":1728465005,"current_range_meters":28400,"station_id":"ce4bgn92rcd13ifvqbvg","pricing_plan_id":"cebpf4jnsgd1na2vs0mg"},{"bike_id":"6a930237-624b-4cde-ad52-27a0343c1393","system_id":"levelo_inurba_marseille","lat":43.2315,"lon":5.43713,"is_reserved":false,"is_disabled":false,"rental_uris":{"android":"levelo://app?vid=6a930237-624b-4cde-ad52-27a0343c1393","ios":"levelo://app?vid=6a930237-624b-4cde-ad52-27a0343c1393"},"vehicle_type_id":"4","last_reported":1728465005,"current_range_meters":38000,"station_id":"ce4bhmp2rcd13ifvqgog","pricing_plan_id":"cebpf4jnsgd1na2vs0mg"},{"bike_id":"57213181-e2de-406e-b457-dc0983595062","system_id":"levelo_inurba_marseille","lat":43.29281,"lon":5.36832,"is_reserved":false,"is_disabled":false,"rental_uris":{"android":"levelo://app?vid=57213181-e2de-406e-b457-dc0983595062","ios":"levelo://app?vid=57213181-e2de-406e-b457-dc0983595062"},"vehicle_type_id":"4","last_reported":1728465005,"current_range_meters":38800,"station_id":"ce4bhbp2rcd13ifvqesg","pricing_plan_id":"cebpf4jnsgd1na2vs0mg"},{"bike_id":"74e99172-b562-4180-88ef-777a20d65b0b","system_id":"levelo_inurba_marseille","lat":43.24081,"lon":5.37744,"is_reserved":false,"is_disabled":false,"rental_uris":{"android":"levelo://app?vid=74e99172-b562-4180-88ef-777a20d65b0b","ios":"levelo://app?vid=74e99172-b562-4180-88ef-777a20d65b0b"},"vehicle_type_id":"4","last_reported":1728465005,"current_range_meters":36000,"station_id":"ce4bhnp2rcd13ifvqgvg","pricing_plan_id":"cebpf4jnsgd1na2vs0mg"},{"bike_id":"de9c1657-bcf9-4800-b27f-d9f88895cc32","system_id":"levelo_inurba_marseille","lat":43.26207,"lon":5.37932,"is_reserved":false,"is_disabled":false,"rental_uris":{"android":"levelo://app?vid=de9c1657-bcf9-4800-b27f-d9f88895cc32","ios":"levelo://app?vid=de9c1657-bcf9-4800-b27f-d9f88895cc32"},"vehicle_type_id":"4","last_reported":1728465005,"current_range_meters":23200,"station_id":"ce4bhjp2rcd13ifvqg90","pricing_plan_id":"cebpf4jnsgd1na2vs0mg"},{"bike_id":"74637494-39b2-4d45-8059-bbc9298d0213","system_id":"levelo_inurba_marseille","lat":43.27371,"lon":5.36257,"is_reserved":false,"is_disabled":false,"rental_uris":{"android":"levelo://app?vid=74637494-39b2-4d45-8059-bbc9298d0213","ios":"levelo://app?vid=74637494-39b2-4d45-8059-bbc9298d0213"},"vehicle_type_id":"4","last_reported":1728465005,"current_range_meters":38000,"station_id":"ce4bhbh2rcd13ifvqeo0","pricing_plan_id":"cebpf4jnsgd1na2vs0mg"},{"bike_id":"a508a0be-8149-4eba-833f-274a220c57d7","system_id":"levelo_inurba_marseille","lat":43.289367,"lon":5.366359,"is_reserved":false,"is_disabled":false,"rental_uris":{"android":"levelo://app?vid=a508a0be-8149-4eba-833f-274a220c57d7","ios":"levelo://app?vid=a508a0be-8149-4eba-833f-274a220c57d7"},"vehicle_type_id":"4","last_reported":1728465005,"current_range_meters":24000,"station_id":"ce4bhap2rcd13ifvqek0","pricing_plan_id":"cebpf4jnsgd1na2vs0mg"},{"bike_id":"c3d12d9f-d4dc-44b9-be41-aff54f1f26ab","system_id":"levelo_inurba_marseille","lat":43.26568,"lon":5.39015,"is_reserved":false,"is_disabled":false,"rental_uris":{"android":"levelo://app?vid=c3d12d9f-d4dc-44b9-be41-aff54f1f26ab","ios":"levelo://app?vid=c3d12d9f-d4dc-44b9-be41-aff54f1f26ab"},"vehicle_type_id":"4","last_reported":1728465005,"current_range_meters":24800,"station_id":"ce4bhe12rcd13ifvqf30","pricing_plan_id":"cebpf4jnsgd1na2vs0mg"},{"bike_id":"51491273-5357-4f4d-8e48-72ab9f02f73b","system_id":"levelo_inurba_marseille","lat":43.26064,"lon":5.39396,"is_reserved":false,"is_disabled":false,"rental_uris":{"android":"levelo://app?vid=51491273-5357-4f4d-8e48-72ab9f02f73b","ios":"levelo://app?vid=51491273-5357-4f4d-8e48-72ab9f02f73b"},"vehicle_type_id":"4","last_reported":1728465005,"current_range_meters":38000,"station_id":"ce4bhh92rcd13ifvqfj0","pricing_plan_id":"cebpf4jnsgd1na2vs0mg"},{"bike_id":"e72fa7c9-6357-4d3c-946f-994459110c8a","system_id":"levelo_inurba_marseille","lat":43.27492,"lon":5.42455,"is_reserved":false,"is_disabled":false,"rental_uris":{"android":"levelo://app?vid=e72fa7c9-6357-4d3c-946f-994459110c8a","ios":"levelo://app?vid=e72fa7c9-6357-4d3c-946f-994459110c8a"},"vehicle_type_id":"4","last_reported":1728465005,"current_range_meters":38000,"station_id":"ce4bhn92rcd13ifvqgrg","pricing_plan_id":"cebpf4jnsgd1na2vs0mg"},{"bike_id":"2ed31331-8d4b-4cc9-a6d5-cb863be87dba","system_id":"levelo_inurba_marseille","lat":43.275,"lon":5.42448,"is_reserved":false,"is_disabled":false,"rental_uris":{"android":"levelo://app?vid=2ed31331-8d4b-4cc9-a6d5-cb863be87dba","ios":"levelo://app?vid=2ed31331-8d4b-4cc9-a6d5-cb863be87dba"},"vehicle_type_id":"4","last_reported":1728465005,"current_range_meters":38800,"station_id":"ce4bhn92rcd13ifvqgrg","pricing_plan_id":"cebpf4jnsgd1na2vs0mg"},{"bike_id":"41de4b65-c36e-43a8-8d43-2a8dc0b30342","system_id":"levelo_inurba_marseille","lat":43.34146,"lon":5.40903,"is_reserved":false,"is_disabled":false,"rental_uris":{"android":"levelo://app?vid=41de4b65-c36e-43a8-8d43-2a8dc0b30342","ios":"levelo://app?vid=41de4b65-c36e-43a8-8d43-2a8dc0b30342"},"vehicle_type_id":"4","last_reported":1728465005,"current_range_meters":19600,"station_id":"ce4bhqh2rcd13ifvqhlg","pricing_plan_id":"cebpf4jnsgd1na2vs0mg"},{"bike_id":"9d0e75bf-b07f-4e50-a949-6eacbfcf162a","system_id":"levelo_inurba_marseille","lat":43.2467,"lon":5.38156,"is_reserved":false,"is_disabled":false,"rental_uris":{"android":"levelo://app?vid=9d0e75bf-b07f-4e50-a949-6eacbfcf162a","ios":"levelo://app?vid=9d0e75bf-b07f-4e50-a949-6eacbfcf162a"},"vehicle_type_id":"4","last_reported":1728465005,"current_range_meters":38000,"station_id":"ce4bhih2rcd13ifvqfr0","pricing_plan_id":"cebpf4jnsgd1na2vs0mg"},{"bike_id":"35ba4d1a-5c0b-4a5d-bfa0-3327d1ad3382","system_id":"levelo_inurba_marseille","lat":43.297133,"lon":5.376824,"is_reserved":false,"is_disabled":false,"rental_uris":{"android":"levelo://app?vid=35ba4d1a-5c0b-4a5d-bfa0-3327d1ad3382","ios":"levelo://app?vid=35ba4d1a-5c0b-4a5d-bfa0-3327d1ad3382"},"vehicle_type_id":"4","last_reported":1728465005,"current_range_meters":17600,"station_id":"ce4bgkh2rcd13ifvqbl0","pricing_plan_id":"cebpf4jnsgd1na2vs0mg"},{"bike_id":"a714a3c1-06c3-43a2-912a-b55d5557352f","system_id":"levelo_inurba_marseille","lat":43.299784,"lon":5.371774,"is_reserved":false,"is_disabled":false,"rental_uris":{"android":"levelo://app?vid=a714a3c1-06c3-43a2-912a-b55d5557352f","ios":"levelo://app?vid=a714a3c1-06c3-43a2-912a-b55d5557352f"},"vehicle_type_id":"4","last_reported":1728465005,"current_range_meters":25600,"station_id":"ce4bgrp2rcd13ifvqc9g","pricing_plan_id":"cebpf4jnsgd1na2vs0mg"},{"bike_id":"03ab50e8-f08a-4560-84c0-8046061c1f13","system_id":"levelo_inurba_marseille","lat":43.33606,"lon":5.41026,"is_reserved":false,"is_disabled":false,"rental_uris":{"android":"levelo://app?vid=03ab50e8-f08a-4560-84c0-8046061c1f13","ios":"levelo://app?vid=03ab50e8-f08a-4560-84c0-8046061c1f13"},"vehicle_type_id":"4","last_reported":1728465005,"current_range_meters":9600,"station_id":"ce4bhqh2rcd13ifvqhmg","pricing_plan_id":"cebpf4jnsgd1na2vs0mg"},{"bike_id":"981417f7-3650-4686-9c01-f3fca65dc77f","system_id":"levelo_inurba_marseille","lat":43.2307,"lon":5.35493,"is_reserved":false,"is_disabled":false,"rental_uris":{"android":"levelo://app?vid=981417f7-3650-4686-9c01-f3fca65dc77f","ios":"levelo://app?vid=981417f7-3650-4686-9c01-f3fca65dc77f"},"vehicle_type_id":"4","last_reported":1728465005,"current_range_meters":19200,"station_id":"cpo3342slgdg3j2ifvpg","pricing_plan_id":"cebpf4jnsgd1na2vs0mg"},{"bike_id":"b910cbc1-a115-459f-8c0b-1f2acacdc404","system_id":"levelo_inurba_marseille","lat":43.31365,"lon":5.36706,"is_reserved":false,"is_disabled":false,"rental_uris":{"android":"levelo://app?vid=b910cbc1-a115-459f-8c0b-1f2acacdc404","ios":"levelo://app?vid=b910cbc1-a115-459f-8c0b-1f2acacdc404"},"vehicle_type_id":"4","last_reported":1728465005,"current_range_meters":18000,"station_id":"ce4bgr92rcd13ifvqc6g","pricing_plan_id":"cebpf4jnsgd1na2vs0mg"},{"bike_id":"d9e78638-d819-4cce-8dbf-1fa89d7a43c2","system_id":"levelo_inurba_marseille","lat":43.2558,"lon":5.38241,"is_reserved":false,"is_disabled":false,"rental_uris":{"android":"levelo://app?vid=d9e78638-d819-4cce-8dbf-1fa89d7a43c2","ios":"levelo://app?vid=d9e78638-d819-4cce-8dbf-1fa89d7a43c2"},"vehicle_type_id":"4","last_reported":1728465005,"current_range_meters":33600,"station_id":"ce4bhih2rcd13ifvqfs0","pricing_plan_id":"cebpf4jnsgd1na2vs0mg"},{"bike_id":"a7fc21fc-96fb-4603-843c-267888a20c03","system_id":"levelo_inurba_marseille","lat":43.30539,"lon":5.36713,"is_reserved":false,"is_disabled":false,"rental_uris":{"android":"levelo://app?vid=a7fc21fc-96fb-4603-843c-267888a20c03","ios":"levelo://app?vid=a7fc21fc-96fb-4603-843c-267888a20c03"},"vehicle_type_id":"4","last_reported":1728465005,"current_range_meters":39200,"station_id":"ce4bgrp2rcd13ifvqc9g","pricing_plan_id":"cebpf4jnsgd1na2vs0mg"},{"bike_id":"8da5691c-3094-48f0-8d65-347643e78d67","system_id":"levelo_inurba_marseille","lat":43.25936,"lon":5.40912,"is_reserved":false,"is_disabled":false,"rental_uris":{"android":"levelo://app?vid=8da5691c-3094-48f0-8d65-347643e78d67","ios":"levelo://app?vid=8da5691c-3094-48f0-8d65-347643e78d67"},"vehicle_type_id":"4","last_reported":1728465005,"current_range_meters":38800,"station_id":"ce4bhm92rcd13ifvqglg","pricing_plan_id":"cebpf4jnsgd1na2vs0mg"},{"bike_id":"99e69392-4aa5-4ec1-9971-49ae93d3fb11","system_id":"levelo_inurba_marseille","lat":43.29971,"lon":5.38485,"is_reserved":false,"is_disabled":false,"rental_uris":{"android":"levelo://app?vid=99e69392-4aa5-4ec1-9971-49ae93d3fb11","ios":"levelo://app?vid=99e69392-4aa5-4ec1-9971-49ae93d3fb11"},"vehicle_type_id":"4","last_reported":1728465005,"current_range_meters":24000,"station_id":"ce4bgj92rcd13ifvqbd0","pricing_plan_id":"cebpf4jnsgd1na2vs0mg"},{"bike_id":"ede68b2f-f53f-4ad5-a3f5-950bc936b5eb","system_id":"levelo_inurba_marseille","lat":43.33774,"lon":5.37437,"is_reserved":false,"is_disabled":false,"rental_uris":{"android":"levelo://app?vid=ede68b2f-f53f-4ad5-a3f5-950bc936b5eb","ios":"levelo://app?vid=ede68b2f-f53f-4ad5-a3f5-950bc936b5eb"},"vehicle_type_id":"4","last_reported":1728465005,"current_range_meters":35600,"station_id":"","pricing_plan_id":"cebpf4jnsgd1na2vs0mg"},{"bike_id":"6713b4eb-a1a3-4451-b704-591eca0f8b5a","system_id":"levelo_inurba_marseille","lat":43.281586,"lon":5.42643,"is_reserved":false,"is_disabled":false,"rental_uris":{"android":"levelo://app?vid=6713b4eb-a1a3-4451-b704-591eca0f8b5a","ios":"levelo://app?vid=6713b4eb-a1a3-4451-b704-591eca0f8b5a"},"vehicle_type_id":"4","last_reported":1728465005,"current_range_meters":26000,"station_id":"ce4bhnh2rcd13ifvqgug","pricing_plan_id":"cebpf4jnsgd1na2vs0mg"},{"bike_id":"5d19a48f-4ecb-4a04-8593-e3ad4a8266a2","system_id":"levelo_inurba_marseille","lat":43.29846,"lon":5.36272,"is_reserved":false,"is_disabled":false,"rental_uris":{"android":"levelo://app?vid=5d19a48f-4ecb-4a04-8593-e3ad4a8266a2","ios":"levelo://app?vid=5d19a48f-4ecb-4a04-8593-e3ad4a8266a2"},"vehicle_type_id":"4","last_reported":1728465005,"current_range_meters":38800,"station_id":"ce4bgpp2rcd13ifvqc3g","pricing_plan_id":"cebpf4jnsgd1na2vs0mg"},{"bike_id":"e302c9e8-c83d-489d-916e-90bbbfdd581b","system_id":"levelo_inurba_marseille","lat":43.25937,"lon":5.40912,"is_reserved":false,"is_disabled":false,"rental_uris":{"android":"levelo://app?vid=e302c9e8-c83d-489d-916e-90bbbfdd581b","ios":"levelo://app?vid=e302c9e8-c83d-489d-916e-90bbbfdd581b"},"vehicle_type_id":"4","last_reported":1728465005,"current_range_meters":3200,"station_id":"ce4bhm92rcd13ifvqglg","pricing_plan_id":"cebpf4jnsgd1na2vs0mg"},{"bike_id":"7f7dad92-4ef0-45e6-9e53-415048c30267","system_id":"levelo_inurba_marseille","lat":43.30308,"lon":5.36901,"is_reserved":false,"is_disabled":false,"rental_uris":{"android":"levelo://app?vid=7f7dad92-4ef0-45e6-9e53-415048c30267","ios":"levelo://app?vid=7f7dad92-4ef0-45e6-9e53-415048c30267"},"vehicle_type_id":"4","last_reported":1728465005,"current_range_meters":22800,"station_id":"ce4bgqh2rcd13ifvqc5g","pricing_plan_id":"cebpf4jnsgd1na2vs0mg"},{"bike_id":"6cf4c7b7-ea8a-449b-91fc-dc63ed356073","system_id":"levelo_inurba_marseille","lat":43.303141,"lon":5.369096,"is_reserved":false,"is_disabled":false,"rental_uris":{"android":"levelo://app?vid=6cf4c7b7-ea8a-449b-91fc-dc63ed356073","ios":"levelo://app?vid=6cf4c7b7-ea8a-449b-91fc-dc63ed356073"},"vehicle_type_id":"4","last_reported":1728465005,"current_range_meters":36800,"station_id":"ce4bgi12rcd13ifvqb70","pricing_plan_id":"cebpf4jnsgd1na2vs0mg"},{"bike_id":"e226b3a7-249b-44b7-a0e1-46b927ae12e4","system_id":"levelo_inurba_marseille","lat":43.31717,"lon":5.43707,"is_reserved":false,"is_disabled":false,"rental_uris":{"android":"levelo://app?vid=e226b3a7-249b-44b7-a0e1-46b927ae12e4","ios":"levelo://app?vid=e226b3a7-249b-44b7-a0e1-46b927ae12e4"},"vehicle_type_id":"4","last_reported":1728465005,"current_range_meters":38800,"station_id":"ce4bhp92rcd13ifvqhcg","pricing_plan_id":"cebpf4jnsgd1na2vs0mg"},{"bike_id":"b4cdd3cc-cc3c-48ad-ac9d-4120e6f711f5","system_id":"levelo_inurba_marseille","lat":43.30154,"lon":5.38082,"is_reserved":false,"is_disabled":false,"rental_uris":{"android":"levelo://app?vid=b4cdd3cc-cc3c-48ad-ac9d-4120e6f711f5","ios":"levelo://app?vid=b4cdd3cc-cc3c-48ad-ac9d-4120e6f711f5"},"vehicle_type_id":"4","last_reported":1728465005,"current_range_meters":22000,"station_id":"ce4bgjp2rcd13ifvqbh0","pricing_plan_id":"cebpf4jnsgd1na2vs0mg"},{"bike_id":"acc85f39-3b29-4d55-ac95-b906b13e8eef","system_id":"levelo_inurba_marseille","lat":43.30559,"lon":5.36539,"is_reserved":false,"is_disabled":false,"rental_uris":{"android":"levelo://app?vid=acc85f39-3b29-4d55-ac95-b906b13e8eef","ios":"levelo://app?vid=acc85f39-3b29-4d55-ac95-b906b13e8eef"},"vehicle_type_id":"4","last_reported":1728465005,"current_range_meters":38800,"station_id":"ce4bgs12rcd13ifvqcag","pricing_plan_id":"cebpf4jnsgd1na2vs0mg"},{"bike_id":"bf95273f-62ba-4176-b69f-2e879358a833","system_id":"levelo_inurba_marseille","lat":43.31235,"lon":5.36854,"is_reserved":false,"is_disabled":false,"rental_uris":{"android":"levelo://app?vid=bf95273f-62ba-4176-b69f-2e879358a833","ios":"levelo://app?vid=bf95273f-62ba-4176-b69f-2e879358a833"},"vehicle_type_id":"4","last_reported":1728465005,"current_range_meters":38800,"station_id":"ce4bgl92rcd13ifvqbq0","pricing_plan_id":"cebpf4jnsgd1na2vs0mg"},{"bike_id":"105cc977-34ae-489d-8857-680e2a567ac9","system_id":"levelo_inurba_marseille","lat":43.2558,"lon":5.38242,"is_reserved":false,"is_disabled":false,"rental_uris":{"android":"levelo://app?vid=105cc977-34ae-489d-8857-680e2a567ac9","ios":"levelo://app?vid=105cc977-34ae-489d-8857-680e2a567ac9"},"vehicle_type_id":"4","last_reported":1728465005,"current_range_meters":27200,"station_id":"ce4bhih2rcd13ifvqfs0","pricing_plan_id":"cebpf4jnsgd1na2vs0mg"},{"bike_id":"3b824c89-cf15-4e04-8271-2c0fef868aed","system_id":"levelo_inurba_marseille","lat":43.30547,"lon":5.36535,"is_reserved":false,"is_disabled":false,"rental_uris":{"android":"levelo://app?vid=3b824c89-cf15-4e04-8271-2c0fef868aed","ios":"levelo://app?vid=3b824c89-cf15-4e04-8271-2c0fef868aed"},"vehicle_type_id":"4","last_reported":1728465005,"current_range_meters":22400,"station_id":"ce4bgs12rcd13ifvqcag","pricing_plan_id":"cebpf4jnsgd1na2vs0mg"},{"bike_id":"810b32d6-b30c-480b-a6ee-5bd54d112eb8","system_id":"levelo_inurba_marseille","lat":43.33749,"lon":5.37442,"is_reserved":false,"is_disabled":false,"rental_uris":{"android":"levelo://app?vid=810b32d6-b30c-480b-a6ee-5bd54d112eb8","ios":"levelo://app?vid=810b32d6-b30c-480b-a6ee-5bd54d112eb8"},"vehicle_type_id":"4","last_reported":1728465005,"current_range_meters":28400,"station_id":"ce4rr2p2rcd13i802rgg","pricing_plan_id":"cebpf4jnsgd1na2vs0mg"},{"bike_id":"fe85d2a3-5312-465f-98f1-901fadb4b4d5","system_id":"levelo_inurba_marseille","lat":43.24075,"lon":5.37758,"is_reserved":false,"is_disabled":false,"rental_uris":{"android":"levelo://app?vid=fe85d2a3-5312-465f-98f1-901fadb4b4d5","ios":"levelo://app?vid=fe85d2a3-5312-465f-98f1-901fadb4b4d5"},"vehicle_type_id":"4","last_reported":1728465005,"current_range_meters":27200,"station_id":"ce4bhnp2rcd13ifvqgvg","pricing_plan_id":"cebpf4jnsgd1na2vs0mg"},{"bike_id":"131dc033-13a9-49c8-bf85-2f51c5628f4e","system_id":"levelo_inurba_marseille","lat":43.28158,"lon":5.42635,"is_reserved":false,"is_disabled":false,"rental_uris":{"android":"levelo://app?vid=131dc033-13a9-49c8-bf85-2f51c5628f4e","ios":"levelo://app?vid=131dc033-13a9-49c8-bf85-2f51c5628f4e"},"vehicle_type_id":"4","last_reported":1728465005,"current_range_meters":37600,"station_id":"ce4bhnh2rcd13ifvqgug","pricing_plan_id":"cebpf4jnsgd1na2vs0mg"},{"bike_id":"76b7d355-cd89-4f7d-87c1-626a09ac661e","system_id":"levelo_inurba_marseille","lat":43.29914,"lon":5.37474,"is_reserved":false,"is_disabled":false,"rental_uris":{"android":"levelo://app?vid=76b7d355-cd89-4f7d-87c1-626a09ac661e","ios":"levelo://app?vid=76b7d355-cd89-4f7d-87c1-626a09ac661e"},"vehicle_type_id":"4","last_reported":1728465005,"current_range_meters":16400,"station_id":"ce4bgjh2rcd13ifvqbg0","pricing_plan_id":"cebpf4jnsgd1na2vs0mg"},{"bike_id":"566f124d-d2dc-44d6-baaa-cd99b0a92098","system_id":"levelo_inurba_marseille","lat":43.23149,"lon":5.43717,"is_reserved":false,"is_disabled":false,"rental_uris":{"android":"levelo://app?vid=566f124d-d2dc-44d6-baaa-cd99b0a92098","ios":"levelo://app?vid=566f124d-d2dc-44d6-baaa-cd99b0a92098"},"vehicle_type_id":"4","last_reported":1728465005,"current_range_meters":38800,"station_id":"ce4bhmp2rcd13ifvqgog","pricing_plan_id":"cebpf4jnsgd1na2vs0mg"},{"bike_id":"e23cc5b4-7f8e-43a3-abef-22376120f23a","system_id":"levelo_inurba_marseille","lat":43.25936,"lon":5.40903,"is_reserved":false,"is_disabled":false,"rental_uris":{"android":"levelo://app?vid=e23cc5b4-7f8e-43a3-abef-22376120f23a","ios":"levelo://app?vid=e23cc5b4-7f8e-43a3-abef-22376120f23a"},"vehicle_type_id":"4","last_reported":1728465005,"current_range_meters":23200,"station_id":"ce4bhm92rcd13ifvqglg","pricing_plan_id":"cebpf4jnsgd1na2vs0mg"},{"bike_id":"909b693f-c27a-4061-8aad-d890caa1fb05","system_id":"levelo_inurba_marseille","lat":43.30538,"lon":5.36695,"is_reserved":false,"is_disabled":false,"rental_uris":{"android":"levelo://app?vid=909b693f-c27a-4061-8aad-d890caa1fb05","ios":"levelo://app?vid=909b693f-c27a-4061-8aad-d890caa1fb05"},"vehicle_type_id":"4","last_reported":1728465005,"current_range_meters":30000,"station_id":"ce4bgrp2rcd13ifvqc9g","pricing_plan_id":"cebpf4jnsgd1na2vs0mg"},{"bike_id":"b7f49b05-5d71-44d0-b1a9-4f91f809b61f","system_id":"levelo_inurba_marseille","lat":43.30562,"lon":5.36542,"is_reserved":false,"is_disabled":false,"rental_uris":{"android":"levelo://app?vid=b7f49b05-5d71-44d0-b1a9-4f91f809b61f","ios":"levelo://app?vid=b7f49b05-5d71-44d0-b1a9-4f91f809b61f"},"vehicle_type_id":"4","last_reported":1728465005,"current_range_meters":26800,"station_id":"ce4bgs12rcd13ifvqcag","pricing_plan_id":"cebpf4jnsgd1na2vs0mg"},{"bike_id":"483c9ef4-466c-4084-a6f5-16648aecb604","system_id":"levelo_inurba_marseille","lat":43.32538,"lon":5.41443,"is_reserved":false,"is_disabled":false,"rental_uris":{"android":"levelo://app?vid=483c9ef4-466c-4084-a6f5-16648aecb604","ios":"levelo://app?vid=483c9ef4-466c-4084-a6f5-16648aecb604"},"vehicle_type_id":"4","last_reported":1728465005,"current_range_meters":38800,"station_id":"ce4bhq12rcd13ifvqhhg","pricing_plan_id":"cebpf4jnsgd1na2vs0mg"},{"bike_id":"92f0f563-ea16-4c02-b287-b0ed88c8eb9d","system_id":"levelo_inurba_marseille","lat":43.26679,"lon":5.38268,"is_reserved":false,"is_disabled":false,"rental_uris":{"android":"levelo://app?vid=92f0f563-ea16-4c02-b287-b0ed88c8eb9d","ios":"levelo://app?vid=92f0f563-ea16-4c02-b287-b0ed88c8eb9d"},"vehicle_type_id":"4","last_reported":1728465005,"current_range_meters":18000,"station_id":"ce4bhg92rcd13ifvqf90","pricing_plan_id":"cebpf4jnsgd1na2vs0mg"},{"bike_id":"82a18fc1-88b8-4667-95f7-2f97f9704a3c","system_id":"levelo_inurba_marseille","lat":43.3375,"lon":5.37451,"is_reserved":false,"is_disabled":false,"rental_uris":{"android":"levelo://app?vid=82a18fc1-88b8-4667-95f7-2f97f9704a3c","ios":"levelo://app?vid=82a18fc1-88b8-4667-95f7-2f97f9704a3c"},"vehicle_type_id":"4","last_reported":1728465005,"current_range_meters":38400,"station_id":"","pricing_plan_id":"cebpf4jnsgd1na2vs0mg"},{"bike_id":"07543eb7-0c52-49fd-bb4c-36125be9ad9b","system_id":"levelo_inurba_marseille","lat":43.31351,"lon":5.36709,"is_reserved":false,"is_disabled":false,"rental_uris":{"android":"levelo://app?vid=07543eb7-0c52-49fd-bb4c-36125be9ad9b","ios":"levelo://app?vid=07543eb7-0c52-49fd-bb4c-36125be9ad9b"},"vehicle_type_id":"4","last_reported":1728465005,"current_range_meters":2800,"station_id":"ce4bgr92rcd13ifvqc6g","pricing_plan_id":"cebpf4jnsgd1na2vs0mg"},{"bike_id":"e3a82d8f-2188-4152-b040-5b5cb1d61e46","system_id":"levelo_inurba_marseille","lat":43.3055,"lon":5.36536,"is_reserved":false,"is_disabled":false,"rental_uris":{"android":"levelo://app?vid=e3a82d8f-2188-4152-b040-5b5cb1d61e46","ios":"levelo://app?vid=e3a82d8f-2188-4152-b040-5b5cb1d61e46"},"vehicle_type_id":"4","last_reported":1728465005,"current_range_meters":38000,"station_id":"ce4bgs12rcd13ifvqcag","pricing_plan_id":"cebpf4jnsgd1na2vs0mg"},{"bike_id":"e1a5c79b-b669-4f11-8eb4-af5513c136c6","system_id":"levelo_inurba_marseille","lat":43.30291,"lon":5.37709,"is_reserved":false,"is_disabled":false,"rental_uris":{"android":"levelo://app?vid=e1a5c79b-b669-4f11-8eb4-af5513c136c6","ios":"levelo://app?vid=e1a5c79b-b669-4f11-8eb4-af5513c136c6"},"vehicle_type_id":"4","last_reported":1728465005,"current_range_meters":35600,"station_id":"ce4bguh2rcd13ifvqcj0","pricing_plan_id":"cebpf4jnsgd1na2vs0mg"},