{"last_updated":1729491214,"ttl":60,"version":"2.2","data":{"bikes":[{"bike_id":"9184e00a-b6ec-4bae-bf55-7db7d1efed40","system_id":"levelo_inurba_marseille","lat":43.28369,"lon":5.38638,"is_reserved":false,"is_disabled":false,"rental_uris":{"android":"levelo://app?vid=9184e00a-b6ec-4bae-bf55-7db7d1efed40","ios":"levelo://app?vid=9184e00a-b6ec-4bae-bf55-7db7d1efed40"},"vehicle_type_id":"4","last_reported":1729491215,"current_range_meters":38800,"station_id":"ce4bh492rcd13ifvqdvg","pricing_plan_id":"cebpf4jnsgd1na2vs0mg"},{"bike_id":"cb249f5a-6e8c-4049-a8f4-dec96f9bad2c","system_id":"levelo_inurba_marseille","lat":43.30804,"lon":5.38142,"is_reserved":false,"is_disabled":false,"rental_uris":{"android":"levelo://app?vid=cb249f5a-6e8c-4049-a8f4-dec96f9bad2c","ios":"levelo://app?vid=cb249f5a-6e8c-4049-a8f4-dec96f9bad2c"},"vehicle_type_id":"4","last_reported":1729491215,"current_range_meters":12000,"station_id":"","pricing_plan_id":"cebpf4jnsgd1na2vs0mg"},{"bike_id":"afd73e4f-6c41-4ebc-b410-8a9047307941","system_id":"levelo_inurba_marseille","lat":43.289215,"lon":5.383929,"is_reserved":false,"is_disabled":false,"rental_uris":{"android":"levelo://app?vid=afd73e4f-6c41-4ebc-b410-8a9047307941","ios":"levelo://app?vid=afd73e4f-6c41-4ebc-b410-8a9047307941"},"vehicle_type_id":"4","last_reported":1729491215,"current_range_meters":18800,"station_id":"ce4bh612rcd13ifvqe6g","pricing_plan_id":"cebpf4jnsgd1na2vs0mg"},{"bike_id":"45e39af7-2318-411e-bd12-f66a360408d2","system_id":"levelo_inurba_marseille","lat":43.30474,"lon":5.37906,"is_reserved":false,"is_disabled":false,"rental_uris":{"android":"levelo://app?vid=45e39af7-2318-411e-bd12-f66a360408d2","ios":"levelo://app?vid=45e39af7-2318-411e-bd12-f66a360408d2"},"vehicle_type_id":"4","last_reported":1729491215,"current_range_meters":20400,"station_id":"ce4bgup2rcd13ifvqcn0","pricing_plan_id":"cebpf4jnsgd1na2vs0mg"},{"bike_id":"f2cf55f4-aa83-4a41-8c86-05d88bb3727e","system_id":"levelo_inurba_marseille","lat":43.3113,"lon":5.37752,"is_reserved":false,"is_disabled":false,"rental_uris":{"android":"levelo://app?vid=f2cf55f4-aa83-4a41-8c86-05d88bb3727e","ios":"levelo://app?vid=f2cf55f4-aa83-4a41-8c86-05d88bb3727e"},"vehicle_type_id":"4","last_reported":1729491215,"current_range_meters":19600,"station_id":"ce4bgt92rcd13ifvqcg0","pricing_plan_id":"cebpf4jnsgd1na2vs0mg"},{"bike_id":"2aae6609-bf72-4b69-8776-85ccbbd9b0e5","system_id":"levelo_inurba_marseille","lat":43.22931,"lon":5.35368,"is_reserved":false,"is_disabled":false,"rental_uris":{"android":"levelo://app?vid=2aae6609-bf72-4b69-8776-85ccbbd9b0e5","ios":"levelo://app?vid=2aae6609-bf72-4b69-8776-85ccbbd9b0e5"},"vehicle_type_id":"4","last_reported":1729491215,"current_range_meters":36800,"station_id":"cpo3532slgdg3j2ikp40","pricing_plan_id":"cebpf4jnsgd1na2vs0mg"},{"bike_id":"0980b067-eeb6-4695-9029-1f3c3b962ddf","system_id":"levelo_inurba_marseille","lat":43.269381,"lon":5.389927,"is_reserved":false,"is_disabled":false,"rental_uris":{"android":"levelo://app?vid=0980b067-eeb6-4695-9029-1f3c3b962ddf","ios":"levelo://app?vid=0980b067-eeb6-4695-9029-1f3c3b962ddf"},"vehicle_type_id":"4","last_reported":1729491215,"current_range_meters":23200,"station_id":"ce4bhhh2rcd13ifvqfl0","pricing_plan_id":"cebpf4jnsgd1na2vs0mg"},{"bike_id":"685a354f-ff49-4ca8-a6ba-515d8049af7f","system_id":"levelo_inurba_marseille","lat":43.276172,"lon":5.361145,"is_reserved":false,"is_disabled":false,"rental_uris":{"android":"levelo://app?vid=685a354f-ff49-4ca8-a6ba-515d8049af7f","ios":"levelo://app?vid=685a354f-ff49-4ca8-a6ba-515d8049af7f"},"vehicle_type_id":"4","last_reported":1729491215,"current_range_meters":38800,"station_id":"ce4bgj92rcd13ifvqbe0","pricing_plan_id":"cebpf4jnsgd1na2vs0mg"},{"bike_id":"60ebfcc0-79d3-466d-9eb1-d46fa9900c2b","system_id":"levelo_inurba_marseille","lat":43.23186,"lon":5.39983,"is_reserved":false,"is_disabled":false,"rental_uris":{"android":"levelo://app?vid=60ebfcc0-79d3-466d-9eb1-d46fa9900c2b","ios":"levelo://app?vid=60ebfcc0-79d3-466d-9eb1-d46fa9900c2b"},"vehicle_type_id":"4","last_reported":1729491215,"current_range_meters":27200,"station_id":"ce4bhn12rcd13ifvqgqg","pricing_plan_id":"cebpf4jnsgd1na2vs0mg"},{"bike_id":"f069a0dc-5a55-4e02-b8d3-b52288048f52","system_id":"levelo_inurba_marseille","lat":43.30909,"lon":5.36856,"is_reserved":false,"is_disabled":false,"rental_uris":{"android":"levelo://app?vid=f069a0dc-5a55-4e02-b8d3-b52288048f52","ios":"levelo://app?vid=f069a0dc-5a55-4e02-b8d3-b52288048f52"},"vehicle_type_id":"4","last_reported":1729491215,"current_range_meters":39200,"station_id":"ce4bgn92rcd13ifvqbvg","pricing_plan_id":"cebpf4jnsgd1na2vs0mg"},{"bike_id":"e87b7e43-d266-42f2-bb17-a0593f82e999","system_id":"levelo_inurba_marseille","lat":43.31994,"lon":5.38151,"is_reserved":false,"is_disabled":false,"rental_uris":{"android":"levelo://app?vid=e87b7e43-d266-42f2-bb17-a0593f82e999","ios":"levelo://app?vid=e87b7e43-d266-42f2-bb17-a0593f82e999"},"vehicle_type_id":"4","last_reported":1729491215,"current_range_meters":15200,"station_id":"ce4bhr12rcd13ifvqhpg","pricing_plan_id":"cebpf4jnsgd1na2vs0mg"},{"bike_id":"e8cdddde-2ff7-466e-9c0e-b90328d5cd56","system_id":"levelo_inurba_marseille","lat":43.29628,"lon":5.37723,"is_reserved":false,"is_disabled":false,"rental_uris":{"android":"levelo://app?vid=e8cdddde-2ff7-466e-9c0e-b90328d5cd56","ios":"levelo://app?vid=e8cdddde-2ff7-466e-9c0e-b90328d5cd56"},"vehicle_type_id":"4","last_reported":1729491215,"current_range_meters":37600,"station_id":"ce4bgi92rcd13ifvqb90","pricing_plan_id":"cebpf4jnsgd1na2vs0mg"},{"bike_id":"72e6fb60-d778-411e-9e01-a9876116da05","system_id":"levelo_inurba_marseille","lat":43.278385,"lon":5.392096,"is_reserved":false,"is_disabled":false,"rental_uris":{"android":"levelo://app?vid=72e6fb60-d778-411e-9e01-a9876116da05","ios":"levelo://app?vid=72e6fb60-d778-411e-9e01-a9876116da05"},"vehicle_type_id":"4","last_reported":1729491215,"current_range_meters":36000,"station_id":"ce4bhjp2rcd13ifvqga0","pricing_plan_id":"cebpf4jnsgd1na2vs0mg"},{"bike_id":"7a6ba3d7-846e-45d3-92b4-25ce5cda8a53","system_id":"levelo_inurba_marseille","lat":43.33722,"lon":5.39188,"is_reserved":false,"is_disabled":false,"rental_uris":{"android":"levelo://app?vid=7a6ba3d7-846e-45d3-92b4-25ce5cda8a53","ios":"levelo://app?vid=7a6ba3d7-846e-45d3-92b4-25ce5cda8a53"},"vehicle_type_id":"4","last_reported":1729491215,"current_range_meters":38800,"station_id":"ce4bhr92rcd13ifvqhsg","pricing_plan_id":"cebpf4jnsgd1na2vs0mg"},{"bike_id":"29dc69ab-e0fe-4b96-9cff-bca8448603d4","system_id":"levelo_inurba_marseille","lat":43.31754,"lon":5.39023,"is_reserved":false,"is_disabled":false,"rental_uris":{"android":"levelo://app?vid=29dc69ab-e0fe-4b96-9cff-bca8448603d4","ios":"levelo://app?vid=29dc69ab-e0fe-4b96-9cff-bca8448603d4"},"vehicle_type_id":"4","last_reported":1729491215,"current_range_meters":24400,"station_id":"ce4bhqp2rcd13ifvqhng","pricing_plan_id":"cebpf4jnsgd1na2vs0mg"},{"bike_id":"75103d1e-a081-468d-94f9-30d9db95203e","system_id":"levelo_inurba_marseille","lat":43.2815,"lon":5.42653,"is_reserved":false,"is_disabled":false,"rental_uris":{"android":"levelo://app?vid=75103d1e-a081-468d-94f9-30d9db95203e","ios":"levelo://app?vid=75103d1e-a081-468d-94f9-30d9db95203e"},"vehicle_type_id":"4","last_reported":1729491215,"current_range_meters":26000,"station_id":"ce4bhnh2rcd13ifvqgug","pricing_plan_id":"cebpf4jnsgd1na2vs0mg"},{"bike_id":"465d277d-c8de-4a34-9875-808758c00c7a","system_id":"levelo_inurba_marseille","lat":43.34139,"lon":5.40908,"is_reserved":false,"is_disabled":false,"rental_uris":{"android":"levelo://app?vid=465d277d-c8de-4a34-9875-808758c00c7a","ios":"levelo://app?vid=465d277d-c8de-4a34-9875-808758c00c7a"},"vehicle_type_id":"4","last_reported":1729491215,"current_range_meters":22400,"station_id":"ce4bhqh2rcd13ifvqhlg","pricing_plan_id":"cebpf4jnsgd1na2vs0mg"},{"bike_id":"569ba533-b414-4a02-a4ad-8ad967319b45","system_id":"levelo_inurba_marseille","lat":43.29981,"lon":5.37193,"is_reserved":false,"is_disabled":false,"rental_uris":{"android":"levelo://app?vid=569ba533-b414-4a02-a4ad-8ad967319b45","ios":"levelo://app?vid=569ba533-b414-4a02-a4ad-8ad967319b45"},"vehicle_type_id":"4","last_reported":1729491215,"current_range_meters":38000,"station_id":"ce4bgr92rcd13ifvqc7g","pricing_plan_id":"cebpf4jnsgd1na2vs0mg"},{"bike_id":"acac83a8-fed1-425d-ac64-915647c0af64","system_id":"levelo_inurba_marseille","lat":43.30138,"lon":5.38076,"is_reserved":false,"is_disabled":false,"rental_uris":{"android":"levelo://app?vid=acac83a8-fed1-425d-ac64-915647c0af64","ios":"levelo://app?vid=acac83a8-fed1-425d-ac64-915647c0af64"},"vehicle_type_id":"4","last_reported":1729491215,"current_range_meters":28400,"station_id":"ce4bgjp2rcd13ifvqbh0","pricing_plan_id":"cebpf4jnsgd1na2vs0mg"},{"bike_id":"0f491606-ac20-4a1f-8f30-46b9fbdf2c51","system_id":"levelo_inurba_marseille","lat":43.23178,"lon":5.39988,"is_reserved":false,"is_disabled":false,"rental_uris":{"android":"levelo://app?vid=0f491606-ac20-4a1f-8f30-46b9fbdf2c51","ios":"levelo://app?vid=0f491606-ac20-4a1f-8f30-46b9fbdf2c51"},"vehicle_type_id":"4","last_reported":1729491215,"current_range_meters":16000,"station_id":"ce4bhn12rcd13ifvqgqg","pricing_plan_id":"cebpf4jnsgd1na2vs0mg"},{"bike_id":"074dd1c2-6676-4bc7-ab6b-c1f14392c6f0","system_id":"levelo_inurba_marseille","lat":43.30145,"lon":5.38062,"is_reserved":false,"is_disabled":false,"rental_uris":{"android":"levelo://app?vid=074dd1c2-6676-4bc7-ab6b-c1f14392c6f0","ios":"levelo://app?vid=074dd1c2-6676-4bc7-ab6b-c1f14392c6f0"},"vehicle_type_id":"4","last_reported":1729491215,"current_range_meters":38000,"station_id":"ce4bgjp2rcd13ifvqbh0","pricing_plan_id":"cebpf4jnsgd1na2vs0mg"},{"bike_id":"007b32f2-d55b-454a-941e-fca8801044b6","system_id":"levelo_inurba_marseille","lat":43.26191,"lon":5.37924,"is_reserved":false,"is_disabled":false,"rental_uris":{"android":"levelo://app?vid=007b32f2-d55b-454a-941e-fca8801044b6","ios":"levelo://app?vid=007b32f2-d55b-454a-941e-fca8801044b6"},"vehicle_type_id":"4","last_reported":1729491215,"current_range_meters":37600,"station_id":"ce4bhjp2rcd13ifvqg90","pricing_plan_id":"cebpf4jnsgd1na2vs0mg"},{"bike_id":"8e45225c-4772-4a88-b2e0-e37c273a9609","system_id":"levelo_inurba_marseille","lat":43.23152,"lon":5.43721,"is_reserved":false,"is_disabled":false,"rental_uris":{"android":"levelo://app?vid=8e45225c-4772-4a88-b2e0-e37c273a9609","ios":"levelo://app?vid=8e45225c-4772-4a88-b2e0-e37c273a9609"},"vehicle_type_id":"4","last_reported":1729491215,"current_range_meters":18000,"station_id":"ce4bhmp2rcd13ifvqgog","pricing_plan_id":"cebpf4jnsgd1na2vs0mg"},{"bike_id":"4385264a-fc92-4c3e-958e-a25b26129730","system_id":"levelo_inurba_marseille","lat":43.28688,"lon":5.39957,"is_reserved":false,"is_disabled":false,"rental_uris":{"android":"levelo://app?vid=4385264a-fc92-4c3e-958e-a25b26129730","ios":"levelo://app?vid=4385264a-fc92-4c3e-958e-a25b26129730"},"vehicle_type_id":"4","last_reported":1729491215,"current_range_meters":38800,"station_id":"ce4bho92rcd13ifvqh3g","pricing_plan_id":"cebpf4jnsgd1na2vs0mg"},{"bike_id":"368ca1bd-3c1f-411f-904d-549ddd088aaf","system_id":"levelo_inurba_marseille","lat":43.3266,"lon":5.40992,"is_reserved":false,"is_disabled":false,"rental_uris":{"android":"levelo://app?vid=368ca1bd-3c1f-411f-904d-549ddd088aaf","ios":"levelo://app?vid=368ca1bd-3c1f-411f-904d-549ddd088aaf"},"vehicle_type_id":"4","last_reported":1729491215,"current_range_meters":11200,"station_id":"ce4bhpp2rcd13ifvqhgg","pricing_plan_id":"cebpf4jnsgd1na2vs0mg"},{"bike_id":"cffc72a1-9762-4ffa-83d6-8b9856072bf4","system_id":"levelo_inurba_marseille","lat":43.31715,"lon":5.42408,"is_reserved":false,"is_disabled":false,"rental_uris":{"android":"levelo://app?vid=cffc72a1-9762-4ffa-83d6-8b9856072bf4","ios":"levelo://app?vid=cffc72a1-9762-4ffa-83d6-8b9856072bf4"},"vehicle_type_id":"4","last_reported":1729491215,"current_range_meters":38800,"station_id":"ce4bhp92rcd13ifvqhbg","pricing_plan_id":"cebpf4jnsgd1na2vs0mg"},{"bike_id":"bda848a9-9c0f-4e86-b399-a0580de506e0","system_id":"levelo_inurba_marseille","lat":43.27622,"lon":5.36108,"is_reserved":false,"is_disabled":false,"rental_uris":{"android":"levelo://app?vid=bda848a9-9c0f-4e86-b399-a0580de506e0","ios":"levelo://app?vid=bda848a9-9c0f-4e86-b399-a0580de506e0"},"vehicle_type_id":"4","last_reported":1729491215,"current_range_meters":37600,"station_id":"ce4bgj92rcd13ifvqbe0","pricing_plan_id":"cebpf4jnsgd1na2vs0mg"},{"bike_id":"37a4f9f2-5f27-41f6-8e49-92d6bbb82296","system_id":"levelo_inurba_marseille","lat":43.23191,"lon":5.35549,"is_reserved":false,"is_disabled":false,"rental_uris":{"android":"levelo://app?vid=37a4f9f2-5f27-41f6-8e49-92d6bbb82296","ios":"levelo://app?vid=37a4f9f2-5f27-41f6-8e49-92d6bbb82296"},"vehicle_type_id":"4","last_reported":1729491215,"current_range_meters":36400,"station_id":"ce4bhu92rcd13ifvqi70","pricing_plan_id":"cebpf4jnsgd1na2vs0mg"},{"bike_id":"2c5fb27c-9f9e-4ad7-bc06-0210267d7e20","system_id":"levelo_inurba_marseille","lat":43.30158,"lon":5.38093,"is_reserved":false,"is_disabled":false,"rental_uris":{"android":"levelo://app?vid=2c5fb27c-9f9e-4ad7-bc06-0210267d7e20","ios":"levelo://app?vid=2c5fb27c-9f9e-4ad7-bc06-0210267d7e20"},"vehicle_type_id":"4","last_reported":1729491215,"current_range_meters":38000,"station_id":"ce4bgjp2rcd13ifvqbh0","pricing_plan_id":"cebpf4jnsgd1na2vs0mg"},{"bike_id":"311eff32-0a14-4335-8cf9-f332a267ac52","system_id":"levelo_inurba_marseille","lat":43.24074,"lon":5.37764,"is_reserved":false,"is_disabled":false,"rental_uris":{"android":"levelo://app?vid=311eff32-0a14-4335-8cf9-f332a267ac52","ios":"levelo://app?vid=311eff32-0a14-4335-8cf9-f332a267ac52"},"vehicle_type_id":"4","last_reported":1729491215,"current_range_meters":30800,"station_id":"ce4bhnp2rcd13ifvqgvg","pricing_plan_id":"cebpf4jnsgd1na2vs0mg"},{"bike_id":"f982a2ea-0271-43f3-b22e-ea172281f0ed","system_id":"levelo_inurba_marseille","lat":43.30468,"lon":5.378983,"is_reserved":false,"is_disabled":false,"rental_uris":{"android":"levelo://app?vid=f982a2ea-0271-43f3-b22e-ea172281f0ed","ios":"levelo://app?vid=f982a2ea-0271-43f3-b22e-ea172281f0ed"},"vehicle_type_id":"4","last_reported":1729491215,"current_range_meters":24800,"station_id":"ce4bgup2rcd13ifvqcn0","pricing_plan_id":"cebpf4jnsgd1na2vs0mg"},{"bike_id":"95b594b4-cc17-43e6-b358-6f2adf8d0775","system_id":"levelo_inurba_marseille","lat":43.29033,"lon":5.39954,"is_reserved":false,"is_disabled":false,"rental_uris":{"android":"levelo://app?vid=95b594b4-cc17-43e6-b358-6f2adf8d0775","ios":"levelo://app?vid=95b594b4-cc17-43e6-b358-6f2adf8d0775"},"vehicle_type_id":"4","last_reported":1729491215,"current_range_meters":36400,"station_id":"ce4bh392rcd13ifvqdm0","pricing_plan_id":"cebpf4jnsgd1na2vs0mg"},{"bike_id":"367a7833-4300-445d-9e62-34e6dc1aeeb1","system_id":"levelo_inurba_marseille","lat":43.33612,"lon":5.41035,"is_reserved":false,"is_disabled":false,"rental_uris":{"android":"levelo://app?vid=367a7833-4300-445d-9e62-34e6dc1aeeb1","ios":"levelo://app?vid=367a7833-4300-445d-9e62-34e6dc1aeeb1"},"vehicle_type_id":"4","last_reported":1729491215,"current_range_meters":35600,"station_id":"ce4bhqh2rcd13ifvqhmg","pricing_plan_id":"cebpf4jnsgd1na2vs0mg"},{"bike_id":"5b47cbfd-3740-4a35-b9bd-478cf093a87d","system_id":"levelo_inurba_marseille","lat":43.23952,"lon":5.36639,"is_reserved":false,"is_disabled":false,"rental_uris":{"android":"levelo://app?vid=5b47cbfd-3740-4a35-b9bd-478cf093a87d","ios":"levelo://app?vid=5b47cbfd-3740-4a35-b9bd-478cf093a87d"},"vehicle_type_id":"4","last_reported":1729491215,"current_range_meters":24400,"station_id":"ce4bhi12rcd13ifvqfp0","pricing_plan_id":"cebpf4jnsgd1na2vs0mg"},{"bike_id":"9cdd8dd9-b29f-454d-ae53-de682a959e62","system_id":"levelo_inurba_marseille","lat":43.32367,"lon":5.38884,"is_reserved":false,"is_disabled":false,"rental_uris":{"android":"levelo://app?vid=9cdd8dd9-b29f-454d-ae53-de682a959e62","ios":"levelo://app?vid=9cdd8dd9-b29f-454d-ae53-de682a959e62"},"vehicle_type_id":"4","last_reported":1729491215,"current_range_meters":38400,"station_id":"ce4bhqp2rcd13ifvqhog","pricing_plan_id":"cebpf4jnsgd1na2vs0mg"},{"bike_id":"6a239e90-1da0-443e-a751-9621878cc664","system_id":"levelo_inurba_marseille","lat":43.28415,"lon":5.34984,"is_reserved":false,"is_disabled":false,"rental_uris":{"android":"levelo://app?vid=6a239e90-1da0-443e-a751-9621878cc664","ios":"levelo://app?vid=6a239e90-1da0-443e-a751-9621878cc664"},"vehicle_type_id":"4","last_reported":1729491215,"current_range_meters":38800,"station_id":"ce4bhbh2rcd13ifvqepg","pricing_plan_id":"cebpf4jnsgd1na2vs0mg"},{"bike_id":"4eeaf0c9-1610-4ecb-acbf-9d8b7b9f4f98","system_id":"levelo_inurba_marseille","lat":43.30814,"lon":5.38164,"is_reserved":false,"is_disabled":false,"rental_uris":{"android":"levelo://app?vid=4eeaf0c9-1610-4ecb-acbf-9d8b7b9f4f98","ios":"levelo://app?vid=4eeaf0c9-1610-4ecb-acbf-9d8b7b9f4f98"},"vehicle_type_id":"4","last_reported":1729491215,"current_range_meters":3200,"station_id":"ce4bgt12rcd13ifvqce0","pricing_plan_id":"cebpf4jnsgd1na2vs0mg"},{"bike_id":"58342ce2-48b6-4554-b620-09ec4681a912","system_id":"levelo_inurba_marseille","lat":43.23955,"lon":5.36621,"is_reserved":false,"is_disabled":false,"rental_uris":{"android":"levelo://app?vid=58342ce2-48b6-4554-b620-09ec4681a912","ios":"levelo://app?vid=58342ce2-48b6-4554-b620-09ec4681a912"},"vehicle_type_id":"4","last_reported":1729491215,"current_range_meters":36800,"station_id":"ce4bhi12rcd13ifvqfp0","pricing_plan_id":"cebpf4jnsgd1na2vs0mg"},{"bike_id":"58590122-4e76-4aff-81b2-eb9b3dab309a","system_id":"levelo_inurba_marseille","lat":43.27062,"lon":5.40272,"is_reserved":false,"is_disabled":false,"rental_uris":{"android":"levelo://app?vid=58590122-4e76-4aff-81b2-eb9b3dab309a","ios":"levelo://app?vid=58590122-4e76-4aff-81b2-eb9b3dab309a"},"vehicle_type_id":"4","last_reported":1729491215,"current_range_meters":28000,"station_id":"ce4bhk92rcd13ifvqgc0","pricing_plan_id":"cebpf4jnsgd1na2vs0mg"},{"bike_id":"ed56807b-c98e-4c13-b324-7b6dc4b81ac2","system_id":"levelo_inurba_marseille","lat":43.32343,"lon":5.40622,"is_reserved":false,"is_disabled":false,"rental_uris":{"android":"levelo://app?vid=ed56807b-c98e-4c13-b324-7b6dc4b81ac2","ios":"levelo://app?vid=ed56807b-c98e-4c13-b324-7b6dc4b81ac2"},"vehicle_type_id":"4","last_reported":1729491215,"current_range_meters":18800,"station_id":"ce4bhq92rcd13ifvqhjg","pricing_plan_id":"cebpf4jnsgd1na2vs0mg"},{"bike_id":"17c2e2b5-4d41-40ee-9ac7-27f2fafea751","system_id":"levelo_inurba_marseille","lat":43.28031,"lon":5.36951,"is_reserved":false,"is_disabled":false,"rental_uris":{"android":"levelo://app?vid=17c2e2b5-4d41-40ee-9ac7-27f2fafea751","ios":"levelo://app?vid=17c2e2b5-4d41-40ee-9ac7-27f2fafea751"},"vehicle_type_id":"4","last_reported":1729491215,"current_range_meters":28000,"station_id":"ce4bha12rcd13ifvqef0","pricing_plan_id":"cebpf4jnsgd1na2vs0mg"},{"bike_id":"57dd0012-e7c2-43e3-90a1-087125ac63fa","system_id":"levelo_inurba_marseille","lat":43.33753,"lon":5.37454,"is_reserved":false,"is_disabled":false,"rental_uris":{"android":"levelo://app?vid=57dd0012-e7c2-43e3-90a1-087125ac63fa","ios":"levelo://app?vid=57dd0012-e7c2-43e3-90a1-087125ac63fa"},"vehicle_type_id":"4","last_reported":1729491215,"current_range_meters":32000,"station_id":"","pricing_plan_id":"cebpf4jnsgd1na2vs0mg"},{"bike_id":"23979fde-7ad2-41ab-aa25-c45675b4aab8","system_id":"levelo_inurba_marseille","lat":43.27996,"lon":5.40011,"is_reserved":false,"is_disabled":false,"rental_uris":{"android":"levelo://app?vid=23979fde-7ad2-41ab-aa25-c45675b4aab8","ios":"levelo://app?vid=23979fde-7ad2-41ab-aa25-c45675b4aab8"},"vehicle_type_id":"4","last_reported":1729491215,"current_range_meters":25200,"station_id":"ce4bho92rcd13ifvqh4g","pricing_plan_id":"cebpf4jnsgd1na2vs0mg"},{"bike_id":"7a0ab312-b352-44c4-87a1-5a8ea290c2b1","system_id":"levelo_inurba_marseille","lat":43.28158,"lon":5.42639,"is_reserved":false,"is_disabled":false,"rental_uris":{"android":"levelo://app?vid=7a0ab312-b352-44c4-87a1-5a8ea290c2b1","ios":"levelo://app?vid=7a0ab312-b352-44c4-87a1-5a8ea290c2b1"},"vehicle_type_id":"4","last_reported":1729491215,"current_range_meters":28400,"station_id":"ce4bhnh2rcd13ifvqgug","pricing_plan_id":"cebpf4jnsgd1na2vs0mg"},{"bike_id":"0a6df673-e856-4343-b24f-084796475cea","system_id":"levelo_inurba_marseille","lat":43.31481,"lon":5.37295,"is_reserved":false,"is_disabled":false,"rental_uris":{"android":"levelo://app?vid=0a6df673-e856-4343-b24f-084796475cea","ios":"levelo://app?vid=0a6df673-e856-4343-b24f-084796475cea"},"vehicle_type_id":"4","last_reported":1729491215,"current_range_meters":30800,"station_id":"ce4bgt12rcd13ifvqcd0","pricing_plan_id":"cebpf4jnsgd1na2vs0mg"},{"bike_id":"3ff2fe13-7f66-4616-9269-605b392adebf","system_id":"levelo_inurba_marseille","lat":43.29221,"lon":5.36059,"is_reserved":false,"is_disabled":false,"rental_uris":{"android":"levelo://app?vid=3ff2fe13-7f66-4616-9269-605b392adebf","ios":"levelo://app?vid=3ff2fe13-7f66-4616-9269-605b392adebf"},"vehicle_type_id":"4","last_reported":1729491215,"current_range_meters":29600,"station_id":"ce4bhbh2rcd13ifvqeqg","pricing_plan_id":"cebpf4jnsgd1na2vs0mg"},{"bike_id":"857aeaa3-f42d-415a-bff6-2ba6bdcfff42","system_id":"levelo_inurba_marseille","lat":43.27425,"lon":5.39419,"is_reserved":false,"is_disabled":false,"rental_uris":{"android":"levelo://app?vid=857aeaa3-f42d-415a-bff6-2ba6bdcfff42","ios":"levelo://app?vid=857aeaa3-f42d-415a-bff6-2ba6bdcfff42"},"vehicle_type_id":"4","last_reported":1729491215,"current_range_meters":10800,"station_id":"ce4bhdp2rcd13ifvqf20","pricing_plan_id":"cebpf4jnsgd1na2vs0mg"},{"bike_id":"6fc5767c-7409-405d-8c24-4a08a7e916fc","system_id":"levelo_inurba_marseille","lat":43.240798,"lon":5.377555,"is_reserved":false,"is_disabled":false,"rental_uris":{"android":"levelo://app?vid=6fc5767c-7409-405d-8c24-4a08a7e916fc","ios":"levelo://app?vid=6fc5767c-7409-405d-8c24-4a08a7e916fc"},"vehicle_type_id":"4","last_reported":1729491215,"current_range_meters":38400,"station_id":"ce4bhnp2rcd13ifvqgvg","pricing_plan_id":"cebpf4jnsgd1na2vs0mg"},{"bike_id":"55b5a12a-379a-4c23-893f-3f78d13818d9","system_id":"levelo_inurba_marseille","lat":43.30191,"lon":5.38129,"is_reserved":false,"is_disabled":false,"rental_uris":{"android":"levelo://app?vid=55b5a12a-379a-4c23-893f-3f78d13818d9","ios":"levelo://app?vid=55b5a12a-379a-4c23-893f-3f78d13818d9"},"vehicle_type_id":"4","last_reported":1729491215,"current_range_meters":30000,"station_id":"ce4bgjp2rcd13ifvqbh0","pricing_plan_id":"cebpf4jnsgd1na2vs0mg"},{"bike_id":"e5e11fd8-f6f0-4663-b21c-76a39acf6bd5","system_id":"levelo_inurba_marseille","lat":43.30933,"lon":5.40139,"is_reserved":false,"is_disabled":false,"rental_uris":{"android":"levelo://app?vid=e5e11fd8-f6f0-4663-b21c-76a39acf6bd5","ios":"levelo://app?vid=e5e11fd8-f6f0-4663-b21c-76a39acf6bd5"},"vehicle_type_id":"4","last_reported":1729491215,"current_range_meters":36000,"station_id":"ce4bgvp2rcd13ifvqct0","pricing_plan_id":"cebpf4jnsgd1na2vs0mg"},{"bike_id":"7baafccc-f243-4381-9dc7-cb5a4f2816d8","system_id":"levelo_inurba_marseille","lat":43.26415,"lon":5.38679,"is_reserved":false,"is_disabled":false,"rental_uris":{"android":"levelo://app?vid=7baafccc-f243-4381-9dc7-cb5a4f2816d8","ios":"levelo://app?vid=7baafccc-f243-4381-9dc7-cb5a4f2816d8"},"vehicle_type_id":"4","last_reported":1729491215,"current_range_meters":16000,"station_id":"","pricing_plan_id":"cebpf4jnsgd1na2vs0mg"},{"bike_id":"541c4793-0686-4664-9a51-6e30e93cf10b","system_id":"levelo_inurba_marseille","lat":43.33751,"lon":5.37472,"is_reserved":false,"is_disabled":false,"rental_uris":{"android":"levelo://app?vid=541c4793-0686-4664-9a51-6e30e93cf10b","ios":"levelo://app?vid=541c4793-0686-4664-9a51-6e30e93cf10b"},"vehicle_type_id":"4","last_reported":1729491215,"current_range_meters":9200,"station_id":"","pricing_plan_id":"cebpf4jnsgd1na2vs0mg"},{"bike_id":"f649ba29-fbd0-4bfe-89f9-8f962a7e95e5","system_id":"levelo_inurba_marseille","lat":43.31491,"lon":5.37299,"is_reserved":false,"is_disabled":false,"rental_uris":{"android":"levelo://app?vid=f649ba29-fbd0-4bfe-89f9-8f962a7e95e5","ios":"levelo://app?vid=f649ba29-fbd0-4bfe-89f9-8f962a7e95e5"},"vehicle_type_id":"4","last_reported":1729491215,"current_range_meters":36400,"station_id":"ce4bgt12rcd13ifvqcd0","pricing_plan_id":"cebpf4jnsgd1na2vs0mg"},{"bike_id":"e36e8b70-cdbc-4b6c-9fe9-c4fbf657cc2e","system_id":"levelo_inurba_marseille","lat":43.31507,"lon":5.3896,"is_reserved":false,"is_disabled":false,"rental_uris":{"android":"levelo://app?vid=e36e8b70-cdbc-4b6c-9fe9-c4fbf657cc2e","ios":"levelo://app?vid=e36e8b70-cdbc-4b6c-9fe9-c4fbf657cc2e"},"vehicle_type_id":"4","last_reported":1729491215,"current_range_meters":24000,"station_id":"","pricing_plan_id":"cebpf4jnsgd1na2vs0mg"},{"bike_id":"7e605af5-c60e-4a9b-9de8-ee2e98e36337","system_id":"levelo_inurba_marseille","lat":43.290238,"lon":5.39964,"is_reserved":false,"is_disabled":false,"rental_uris":{"android":"levelo://app?vid=7e605af5-c60e-4a9b-9de8-ee2e98e36337","ios":"levelo://app?vid=7e605af5-c60e-4a9b-9de8-ee2e98e36337"},"vehicle_type_id":"4","last_reported":1729491215,"current_range_meters":36400,"station_id":"ce4bh392rcd13ifvqdm0","pricing_plan_id":"cebpf4jnsgd1na2vs0mg"},{"bike_id":"1af5b995-94d1-41c5-a11e-19af38f6420d","system_id":"levelo_inurba_marseille","lat":43.26486,"lon":5.39538,"is_reserved":false,"is_disabled":false,"rental_uris":{"android":"levelo://app?vid=1af5b995-94d1-41c5-a11e-19af38f6420d","ios":"levelo://app?vid=1af5b995-94d1-41c5-a11e-19af38f6420d"},"vehicle_type_id":"4","last_reported":1729491215,"current_range_meters":37600,"station_id":"ce4bhi12rcd13ifvqfq0","pricing_plan_id":"cebpf4jnsgd1na2vs0mg"},{"bike_id":"4a2ffb07-7201-4457-9b19-5cbb54853d15","system_id":"levelo_inurba_marseille","lat":43.26216,"lon":5.37439,"is_reserved":false,"is_disabled":false,"rental_uris":{"android":"levelo://app?vid=4a2ffb07-7201-4457-9b19-5cbb54853d15","ios":"levelo://app?vid=4a2ffb07-7201-4457-9b19-5cbb54853d15"},"vehicle_type_id":"4","last_reported":1729491215,"current_range_meters":22000,"station_id":"ce4bhgp2rcd13ifvqfc0","pricing_plan_id":"cebpf4jnsgd1na2vs0mg"},{"bike_id":"cd0dce23-200f-416c-916b-7be9d153fea3","system_id":"levelo_inurba_marseille","lat":43.26058,"lon":5.3855,"is_reserved":false,"is_disabled":false,"rental_uris":{"android":"levelo://app?vid=cd0dce23-200f-416c-916b-7be9d153fea3","ios":"levelo://app?vid=cd0dce23-200f-416c-916b-7be9d153fea3"},"vehicle_type_id":"4","last_reported":1729491215,"current_range_meters":16000,"station_id":"","pricing_plan_id":"cebpf4jnsgd1na2vs0mg"},{"bike_id":"2a70a4ef-06e2-4c25-840b-e62a87183d1e","system_id":"levelo_inurba_marseille","lat":43.3122,"lon":5.36858,"is_reserved":false,"is_disabled":false,"rental_uris":{"android":"levelo://app?vid=2a70a4ef-06e2-4c25-840b-e62a87183d1e","ios":"levelo://app?vid=2a70a4ef-06e2-4c25-840b-e62a87183d1e"},"vehicle_type_id":"4","last_reported":1729491215,"current_range_meters":32000,"station_id":"ce4bgl92rcd13ifvqbq0","pricing_plan_id":"cebpf4jnsgd1na2vs0mg"},{"bike_id":"23115ac6-aff5-45af-87d0-ffdacdb28fd5","system_id":"levelo_inurba_marseille","lat":43.22929,"lon":5.35376,"is_reserved":false,"is_disabled":false,"rental_uris":{"android":"levelo://app?vid=23115ac6-aff5-45af-87d0-ffdacdb28fd5","ios":"levelo://app?vid=23115ac6-aff5-45af-87d0-ffdacdb28fd5"},"vehicle_type_id":"4","last_reported":1729491215,"current_range_meters":37600,"station_id":"cpo3532slgdg3j2ikp40","pricing_plan_id":"cebpf4jnsgd1na2vs0mg"},{"bike_id":"4baa99ae-2e1a-436a-bb1d-886404f1cc4d","system_id":"levelo_inurba_marseille","lat":43.28263,"lon":5.35056,"is_reserved":false,"is_disabled":false,"rental_uris":{"android":"levelo://app?vid=4baa99ae-2e1a-436a-bb1d-886404f1cc4d","ios":"levelo://app?vid=4baa99ae-2e1a-436a-bb1d-886404f1cc4d"},"vehicle_type_id":"4","last_reported":1729491215,"current_range_meters":38400,"station_id":"ce4bhbp2rcd13ifvqerg","pricing_plan_id":"cebpf4jnsgd1na2vs0mg"},{"bike_id":"3074eab9-5df2-4549-8df7-c8447d4f5d38","system_id":"levelo_inurba_marseille","lat":43.23175,"lon":5.39981,"is_reserved":false,"is_disabled":false,"rental_uris":{"android":"levelo://app?vid=3074eab9-5df2-4549-8df7-c8447d4f5d38","ios":"levelo://app?vid=3074eab9-5df2-4549-8df7-c8447d4f5d38"},"vehicle_type_id":"4","last_reported":1729491215,"current_range_meters":28400,"station_id":"ce4bhn12rcd13ifvqgqg","pricing_plan_id":"cebpf4jnsgd1na2vs0mg"},{"bike_id":"5fb83cb5-1b9e-44dc-ad82-fe8e448bfa99","system_id":"levelo_inurba_marseille","lat":43.32098,"lon":5.36775,"is_reserved":false,"is_disabled":false,"rental_uris":{"android":"levelo://app?vid=5fb83cb5-1b9e-44dc-ad82-fe8e448bfa99","ios":"levelo://app?vid=5fb83cb5-1b9e-44dc-ad82-fe8e448bfa99"},"vehicle_type_id":"4","last_reported":1729491215,"current_range_meters":37600,"station_id":"ce4bhrh2rcd13ifvqhug","pricing_plan_id":"cebpf4jnsgd1na2vs0mg"},{"bike_id":"1c46af18-9fa9-4b20-aa2c-36f4cc2ac30e","system_id":"levelo_inurba_marseille","lat":43.31165,"lon":5.38714,"is_reserved":false,"is_disabled":false,"rental_uris":{"android":"levelo://app?vid=1c46af18-9fa9-4b20-aa2c-36f4cc2ac30e","ios":"levelo://app?vid=1c46af18-9fa9-4b20-aa2c-36f4cc2ac30e"},"vehicle_type_id":"4","last_reported":1729491215,"current_range_meters":38800,"station_id":"ce4bgv12rcd13ifvqcp0","pricing_plan_id":"cebpf4jnsgd1na2vs0mg"},{"bike_id":"f77d75a0-21c8-4ccc-bba5-f5d7d460aa1d","system_id":"levelo_inurba_marseille","lat":43.2955,"lon":5.42273,"is_reserved":false,"is_disabled":false,"rental_uris":{"android":"levelo://app?vid=f77d75a0-21c8-4ccc-bba5-f5d7d460aa1d","ios":"levelo://app?vid=f77d75a0-21c8-4ccc-bba5-f5d7d460aa1d"},"vehicle_type_id":"4","last_reported":1729491215,"current_range_meters":35600,"station_id":"ce4bhph2rcd13ifvqhdg","pricing_plan_id":"cebpf4jnsgd1na2vs0mg"},{"bike_id":"62fd7cdc-db5e-4748-af81-779d11dfffce","system_id":"levelo_inurba_marseille","lat":43.29048,"lon":5.3997,"is_reserved":false,"is_disabled":false,"rental_uris":{"android":"levelo://app?vid=62fd7cdc-db5e-4748-af81-779d11dfffce","ios":"levelo://app?vid=62fd7cdc-db5e-4748-af81-779d11dfffce"},"vehicle_type_id":"4","last_reported":1729491215,"current_range_meters":38000,"station_id":"ce4bh392rcd13ifvqdm0","pricing_plan_id":"cebpf4jnsgd1na2vs0mg"},{"bike_id":"8c200195-ede1-4fb3-807b-bc1aa9b03582","system_id":"levelo_inurba_marseille","lat":43.29033,"lon":5.3997,"is_reserved":false,"is_disabled":false,"rental_uris":{"android":"levelo://app?vid=8c200195-ede1-4fb3-807b-bc1aa9b03582","ios":"levelo://app?vid=8c200195-ede1-4fb3-807b-bc1aa9b03582"},"vehicle_type_id":"4","last_reported":1729491215,"current_range_meters":23200,"station_id":"ce4bh392rcd13ifvqdm0","pricing_plan_id":"cebpf4jnsgd1na2vs0mg"},{"bike_id":"fb4c1f40-f843-4a8a-8dc9-8cb92e4b3334","system_id":"levelo_inurba_marseille","lat":43.26947,"lon":5.4024,"is_reserved":false,"is_disabled":false,"rental_uris":{"android":"levelo://app?vid=fb4c1f40-f843-4a8a-8dc9-8cb92e4b3334","ios":"levelo://app?vid=fb4c1f40-f843-4a8a-8dc9-8cb92e4b3334"},"vehicle_type_id":"4","last_reported":1729491215,"current_range_meters":28400,"station_id":"cjm6bp8fraef2m0cb0m0","pricing_plan_id":"cebpf4jnsgd1na2vs0mg"},{"bike_id":"340f36fd-050f-4231-8780-720f243965cd","system_id":"levelo_inurba_marseille","lat":43.314428,"lon":5.373342,"is_reserved":false,"is_disabled":false,"rental_uris":{"android":"levelo://app?vid=340f36fd-050f-4231-8780-720f243965cd","ios":"levelo://app?vid=340f36fd-050f-4231-8780-720f243965cd"},"vehicle_type_id":"4","last_reported":1729491215,"current_range_meters":20800,"station_id":"ce4bgt12rcd13ifvqcd0","pricing_plan_id":"cebpf4jnsgd1na2vs0mg"},{"bike_id":"6c389916-dedb-420b-8fbd-5618f7e63567","system_id":"levelo_inurba_marseille","lat":43.29031,"lon":5.39958,"is_reserved":false,"is_disabled":false,"rental_uris":{"android":"levelo://app?vid=6c389916-dedb-420b-8fbd-5618f7e63567","ios":"levelo://app?vid=6c389916-dedb-420b-8fbd-5618f7e63567"},"vehicle_type_id":"4","last_reported":1729491215,"current_range_meters":21600,"station_id":"ce4bh392rcd13ifvqdm0","pricing_plan_id":"cebpf4jnsgd1na2vs0mg"},{"bike_id":"d10421cc-75da-4e5d-b214-b21e8b093140","system_id":"levelo_inurba_marseille","lat":43.29165,"lon":5.37155,"is_reserved":false,"is_disabled":false,"rental_uris":{"android":"levelo://app?vid=d10421cc-75da-4e5d-b214-b21e8b093140","ios":"levelo://app?vid=d10421cc-75da-4e5d-b214-b21e8b093140"},"vehicle_type_id":"4","last_reported":1729491215,"current_range_meters":38800,"station_id":"ce4bha92rcd13ifvqeh0","pricing_plan_id":"cebpf4jnsgd1na2vs0mg"},{"bike_id":"d06a881c-f80d-48b8-9719-6afcceb956d7","system_id":"levelo_inurba_marseille","lat":43.33026,"lon":5.39037,"is_reserved":false,"is_disabled":false,"rental_uris":{"android":"levelo://app?vid=d06a881c-f80d-48b8-9719-6afcceb956d7","ios":"levelo://app?vid=d06a881c-f80d-48b8-9719-6afcceb956d7"},"vehicle_type_id":"4","last_reported":1729491215,"current_range_meters":38800,"station_id":"ce4bhr92rcd13ifvqhrg","pricing_plan_id":"cebpf4jnsgd1na2vs0mg"},{"bike_id":"f4d3038a-f2d7-4f1c-b878-63b80a4d48a1","system_id":"levelo_inurba_marseille","lat":43.270786,"lon":5.422891,"is_reserved":false,"is_disabled":false,"rental_uris":{"android":"levelo://app?vid=f4d3038a-f2d7-4f1c-b878-63b80a4d48a1","ios":"levelo://app?vid=f4d3038a-f2d7-4f1c-b878-63b80a4d48a1"},"vehicle_type_id":"4","last_reported":1729491215,"current_range_meters":33600,"station_id":"ce4bhk92rcd13ifvqgb0","pricing_plan_id":"cebpf4jnsgd1na2vs0mg"},{"bike_id":"3701adb6-e87b-44e7-b5b8-a659a9565d5b","system_id":"levelo_inurba_marseille","lat":43.24072,"lon":5.3776,"is_reserved":false,"is_disabled":false,"rental_uris":{"android":"levelo://app?vid=3701adb6-e87b-44e7-b5b8-a659a9565d5b","ios":"levelo://app?vid=3701adb6-e87b-44e7-b5b8-a659a9565d5b"},"vehicle_type_id":"4","last_reported":1729491215,"current_range_meters":6400,"station_id":"ce4bhnp2rcd13ifvqgvg","pricing_plan_id":"cebpf4jnsgd1na2vs0mg"},{"bike_id":"1e18c599-6c40-4c34-805b-3e674da0ddd0","system_id":"levelo_inurba_marseille","lat":43.2841,"lon":5.34985,"is_reserved":false,"is_disabled":false,"rental_uris":{"android":"levelo://app?vid=1e18c599-6c40-4c34-805b-3e674da0ddd0","ios":"levelo://app?vid=1e18c599-6c40-4c34-805b-3e674da0ddd0"},"vehicle_type_id":"4","last_reported":1729491215,"current_range_meters":38800,"station_id":"ce4bhbh2rcd13ifvqepg","pricing_plan_id":"cebpf4jnsgd1na2vs0mg"},{"bike_id":"766da900-471d-42f5-8cfa-8db494f945d7","system_id":"levelo_inurba_marseille","lat":43.28939,"lon":5.46087,"is_reserved":false,"is_disabled":false,"rental_uris":{"android":"levelo://app?vid=766da900-471d-42f5-8cfa-8db494f945d7","ios":"levelo://app?vid=766da900-471d-42f5-8cfa-8db494f945d7"},"vehicle_type_id":"4","last_reported":1729491215,"current_range_meters":20400,"station_id":"","pricing_plan_id":"cebpf4jnsgd1na2vs0mg"},{"bike_id":"2fdf444c-bdb9-478f-ad75-22e42eee449c","system_id":"levelo_inurba_marseille","lat":43.31338,"lon":5.36717,"is_reserved":false,"is_disabled":false,"rental_uris":{"android":"levelo://app?vid=2fdf444c-bdb9-478f-ad75-22e42eee449c","ios":"levelo://app?vid=2fdf444c-bdb9-478f-ad75-22e42eee449c"},"vehicle_type_id":"4","last_reported":1729491215,"current_range_meters":31200,"station_id":"ce4bgr92rcd13ifvqc6g","pricing_plan_id":"cebpf4jnsgd1na2vs0mg"},{"bike_id":"2b732e07-d55f-46d2-9872-de0a6a9ddc8d","system_id":"levelo_inurba_marseille","lat":43.27612,"lon":5.36114,"is_reserved":false,"is_disabled":false,"rental_uris":{"android":"levelo://app?vid=2b732e07-d55f-46d2-9872-de0a6a9ddc8d","ios":"levelo://app?vid=2b732e07-d55f-46d2-9872-de0a6a9ddc8d"},"vehicle_type_id":"4","last_reported":1729491215,"current_range_meters":38800,"station_id":"ce4bgj92rcd13ifvqbe0","pricing_plan_id":"cebpf4jnsgd1na2vs0mg"},{"bike_id":"97b3151a-beeb-4204-b70d-b8d1a0c99d9e","system_id":"levelo_inurba_marseille","lat":43.30471,"lon":5.37899,"is_reserved":false,"is_disabled":false,"rental_uris":{"android":"levelo://app?vid=97b3151a-beeb-4204-b70d-b8d1a0c99d9e","ios":"levelo://app?vid=97b3151a-beeb-4204-b70d-b8d1a0c99d9e"},"vehicle_type_id":"4","last_reported":1729491215,"current_range_meters":39200,"station_id":"ce4bgup2rcd13ifvqcn0","pricing_plan_id":"cebpf4jnsgd1na2vs0mg"},{"bike_id":"4a5dc7f8-2f34-473f-9ce7-f2a853f522d2","system_id":"levelo_inurba_marseille","lat":43.30471,"lon":5.37899,"is_reserved":false,"is_disabled":false,"rental_uris":{"android":"levelo://app?vid=4a5dc7f8-2f34-473f-9ce7-f2a853f522d2","ios":"levelo://app?vid=4a5dc7f8-2f34-473f-9ce7-f2a853f522d2"},"vehicle_type_id":"4","last_reported":1729491215,"current_range_meters":38800,"station_id":"ce4bgup2rcd13ifvqcn0","pricing_plan_id":"cebpf4jnsgd1na2vs0mg"},{"bike_id":"0b923dd1-548c-4e5f-8039-71a30a1aa65f","system_id":"levelo_inurba_marseille","lat":43.34144,"lon":5.40902,"is_reserved":false,"is_disabled":false,"rental_uris":{"android":"levelo://app?vid=0b923dd1-548c-4e5f-8039-71a30a1aa65f","ios":"levelo://app?vid=0b923dd1-548c-4e5f-8039-71a30a1aa65f"},"vehicle_type_id":"4","last_reported":1729491215,"current_range_meters":23200,"station_id":"ce4bhqh2rcd13ifvqhlg","pricing_plan_id":"cebpf4jnsgd1na2vs0mg"},{"bike_id":"d1d1a053-caf5-4039-8ccb-3ddbb1660832","system_id":"levelo_inurba_marseille","lat":43.29548,"lon":5.42278,"is_reserved":false,"is_disabled":false,"rental_uris":{"android":"levelo://app?vid=d1d1a053-caf5-4039-8ccb-3ddbb1660832","ios":"levelo://app?vid=d1d1a053-caf5-4039-8ccb-3ddbb1660832"},"vehicle_type_id":"4","last_reported":1729491215,"current_range_meters":24800,"station_id":"ce4bhph2rcd13ifvqhdg","pricing_plan_id":"cebpf4jnsgd1na2vs0mg"},{"bike_id":"9e60be9c-69dc-4607-807f-1ed6c0572a77","system_id":"levelo_inurba_marseille","lat":43.25503,"lon":5.37649,"is_reserved":false,"is_disabled":false,"rental_uris":{"android":"levelo://app?vid=9e60be9c-69dc-4607-807f-1ed6c0572a77","ios":"levelo://app?vid=9e60be9c-69dc-4607-807f-1ed6c0572a77"},"vehicle_type_id":"4","last_reported":1729491215,"current_range_meters":25200,"station_id":"ce4bhh12rcd13ifvqff0","pricing_plan_id":"cebpf4jnsgd1na2vs0mg"},{"bike_id":"65db23c8-2056-41f4-90ff-cc47fb7ff295","system_id":"levelo_inurba_marseille","lat":43.29001,"lon":5.35621,"is_reserved":false,"is_disabled":false,"rental_uris":{"android":"levelo://app?vid=65db23c8-2056-41f4-90ff-cc47fb7ff295","ios":"levelo://app?vid=65db23c8-2056-41f4-90ff-cc47fb7ff295"},"vehicle_type_id":"4","last_reported":1729491215,"current_range_meters":38800,"station_id":"ce4bhb92rcd13ifvqen0","pricing_plan_id":"cebpf4jnsgd1na2vs0mg"},{"bike_id":"1efb9666-beff-47cf-bb72-621f1683d3cb","system_id":"levelo_inurba_marseille","lat":43.29294,"lon":5.37459,"is_reserved":false,"is_disabled":false,"rental_uris":{"android":"levelo://app?vid=1efb9666-beff-47cf-bb72-621f1683d3cb","ios":"levelo://app?vid=1efb9666-beff-47cf-bb72-621f1683d3cb"},"vehicle_type_id":"4","last_reported":1729491215,"current_range_meters":37600,"station_id":"ce4bgi12rcd13ifvqb70","pricing_plan_id":"cebpf4jnsgd1na2vs0mg"},{"bike_id":"25c35cf0-65a5-4961-8ec1-50b65efdba69","system_id":"levelo_inurba_marseille","lat":43.29513,"lon":5.37495,"is_reserved":false,"is_disabled":false,"rental_uris":{"android":"levelo://app?vid=25c35cf0-65a5-4961-8ec1-50b65efdba69","ios":"levelo://app?vid=25c35cf0-65a5-4961-8ec1-50b65efdba69"},"vehicle_type_id":"4","last_reported":1729491215,"current_range_meters":38800,"station_id":"ce4bgkp2rcd13ifvqbmg","pricing_plan_id":"cebpf4jnsgd1na2vs0mg"},{"bike_id":"752433ac-24fe-4b73-9348-5fd1df9c30c3","system_id":"levelo_inurba_marseille","lat":43.24072,"lon":5.37761,"is_reserved":false,"is_disabled":false,"rental_uris":{"android":"levelo://app?vid=752433ac-24fe-4b73-9348-5fd1df9c30c3","ios":"levelo://app?vid=752433ac-24fe-4b73-9348-5fd1df9c30c3"},"vehicle_type_id":"4","last_reported":1729491215,"current_range_meters":19200,"station_id":"ce4bhnp2rcd13ifvqgvg","pricing_plan_id":"cebpf4jnsgd1na2vs0mg"},{"bike_id":"3a90cd5a-8d84-4a1f-9da8-3547bb5d20c1","system_id":"levelo_inurba_marseille","lat":43.23186,"lon":5.35548,"is_reserved":false,"is_disabled":false,"rental_uris":{"android":"levelo://app?vid=3a90cd5a-8d84-4a1f-9da8-3547bb5d20c1","ios":"levelo://app?vid=3a90cd5a-8d84-4a1f-9da8-3547bb5d20c1"},"vehicle_type_id":"4","last_reported":1729491215,"current_range_meters":38800,"station_id":"ce4bhu92rcd13ifvqi70","pricing_plan_id":"cebpf4jnsgd1na2vs0mg"},{"bike_id":"aeb578f8-3a7a-4af4-9492-b73dd75e65e6","system_id":"levelo_inurba_marseille","lat":43.32658,"lon":5.40987,"is_reserved":false,"is_disabled":false,"rental_uris":{"android":"levelo://app?vid=aeb578f8-3a7a-4af4-9492-b73dd75e65e6","ios":"levelo://app?vid=aeb578f8-3a7a-4af4-9492-b73dd75e65e6"},"vehicle_type_id":"4","last_reported":1729491215,"current_range_meters":38800,"station_id":"ce4bhpp2rcd13ifvqhgg","pricing_plan_id":"cebpf4jnsgd1na2vs0mg"},{"bike_id":"bddf1334-d888-40f8-b6e9-18b5529cf0f4","system_id":"levelo_inurba_marseille","lat":43.316773,"lon":5.375433,"is_reserved":false,"is_disabled":false,"rental_uris":{"android":"levelo://app?vid=bddf1334-d888-40f8-b6e9-18b5529cf0f4","ios":"levelo://app?vid=bddf1334-d888-40f8-b6e9-18b5529cf0f4"},"vehicle_type_id":"4","last_reported":1729491215,"current_range_meters":18000,"station_id":"","pricing_plan_id":"cebpf4jnsgd1na2vs0mg"},{"bike_id":"27d7397b-3a64-4c8d-985f-c89fa0625145","system_id":"levelo_inurba_marseille","lat":43.2319,"lon":5.35543,"is_reserved":false,"is_disabled":false,"rental_uris":{"android":"levelo://app?vid=27d7397b-3a64-4c8d-985f-c89fa0625145","ios":"levelo://app?vid=27d7397b-3a64-4c8d-985f-c89fa0625145"},"vehicle_type_id":"4","last_reported":1729491215,"current_range_meters":38800,"station_id":"ce4bhu92rcd13ifvqi70","pricing_plan_id":"cebpf4jnsgd1na2vs0mg"},{"bike_id":"b44c6a61-a5d4-4c2f-9be5-a3d9a073e825","system_id":"levelo_inurba_marseille","lat":43.27666,"lon":5.38892,"is_reserved":false,"is_disabled":false,"rental_uris":{"android":"levelo://app?vid=b44c6a61-a5d4-4c2f-9be5-a3d9a073e825","ios":"levelo://app?vid=b44c6a61-a5d4-4c2f-9be5-a3d9a073e825"},"vehicle_type_id":"4","last_reported":1729491215,"current_range_meters":38400,"station_id":"ce4bhi12rcd13ifvqfo0","pricing_plan_id":"cebpf4jnsgd1na2vs0mg"},{"bike_id":"cbf145e1-2758-47f3-95c7-e39a9d77f7fc","system_id":"levelo_inurba_marseille","lat":43.29027,"lon":5.39975,"is_reserved":false,"is_disabled":false,"rental_uris":{"android":"levelo://app?vid=cbf145e1-2758-47f3-95c7-e39a9d77f7fc","ios":"levelo://app?vid=cbf145e1-2758-47f3-95c7-e39a9d77f7fc"},"vehicle_type_id":"4","last_reported":1729491215,"current_range_meters":35600,"station_id":"ce4bh392rcd13ifvqdm0","pricing_plan_id":"cebpf4jnsgd1na2vs0mg"},{"bike_id":"4b0e1ae9-90da-4b3c-97a7-9fcaa6ea9192","system_id":"levelo_inurba_marseille","lat":43.281056,"lon":5.378438,"is_reserved":false,"is_disabled":false,"rental_uris":{"android":"levelo://app?vid=4b0e1ae9-90da-4b3c-97a7-9fcaa6ea9192","ios":"levelo://app?vid=4b0e1ae9-90da-4b3c-97a7-9fcaa6ea9192"},"vehicle_type_id":"4","last_reported":1729491215,"current_range_meters":38800,"station_id":"ce4bha12rcd13ifvqee0","pricing_plan_id":"cebpf4jnsgd1na2vs0mg"},{"bike_id":"af523a7d-a7f5-43ba-9add-2b4205d5856a","system_id":"levelo_inurba_marseille","lat":43.30155,"lon":5.38089,"is_reserved":false,"is_disabled":false,"rental_uris":{"android":"levelo://app?vid=af523a7d-a7f5-43ba-9add-2b4205d5856a","ios":"levelo://app?vid=af523a7d-a7f5-43ba-9add-2b4205d5856a"},"vehicle_type_id":"4","last_reported":1729491215,"current_range_meters":24400,"station_id":"ce4bgjp2rcd13ifvqbh0","pricing_plan_id":"cebpf4jnsgd1na2vs0mg"},{"bike_id":"b7a735d7-f1dd-4ee6-9916-5d65507bb1f6","system_id":"levelo_inurba_marseille","lat":43.33608,"lon":5.41032,"is_reserved":false,"is_disabled":false,"rental_uris":{"android":"levelo://app?vid=b7a735d7-f1dd-4ee6-9916-5d65507bb1f6","ios":"levelo://app?vid=b7a735d7-f1dd-4ee6-9916-5d65507bb1f6"},"vehicle_type_id":"4","last_reported":1729491215,"current_range_meters":32400,"station_id":"ce4bhqh2rcd13ifvqhmg","pricing_plan_id":"cebpf4jnsgd1na2vs0mg"},{"bike_id":"3213665e-989c-4d22-9f5a-31c8522597dd","system_id":"levelo_inurba_marseille","lat":43.296,"lon":5.36142,"is_reserved":false,"is_disabled":false,"rental_uris":{"android":"levelo://app?vid=3213665e-989c-4d22-9f5a-31c8522597dd","ios":"levelo://app?vid=3213665e-989c-4d22-9f5a-31c8522597dd"},"vehicle_type_id":"4","last_reported":1729491215,"current_range_meters":11600,"station_id":"","pricing_plan_id":"cebpf4jnsgd1na2vs0mg"},{"bike_id":"4546d267-cf99-417e-9f1c-03a8c7b874d3","system_id":"levelo_inurba_marseille","lat":43.30151,"lon":5.38075,"is_reserved":false,"is_disabled":false,"rental_uris":{"android":"levelo://app?vid=4546d267-cf99-417e-9f1c-03a8c7b874d3","ios":"levelo://app?vid=4546d267-cf99-417e-9f1c-03a8c7b874d3"},"vehicle_type_id":"4","last_reported":1729491215,"current_range_meters":32400,"station_id":"ce4bgjp2rcd13ifvqbh0","pricing_plan_id":"cebpf4jnsgd1na2vs0mg"},{"bike_id":"584f6c19-9858-4b93-836c-f01a970b5e91","system_id":"levelo_inurba_marseille","lat":43.30463,"lon":5.37892,"is_reserved":false,"is_disabled":false,"rental_uris":{"android":"levelo://app?vid=584f6c19-9858-4b93-836c-f01a970b5e91","ios":"levelo://app?vid=584f6c19-9858-4b93-836c-f01a970b5e91"},"vehicle_type_id":"4","last_reported":1729491215,"current_range_meters":26000,"station_id":"ce4bgup2rcd13ifvqcn0","pricing_plan_id":"cebpf4jnsgd1na2vs0mg"},{"bike_id":"e0f52fbe-2799-4b21-adf4-9f6f2a2a4a15","system_id":"levelo_inurba_marseille","lat":43.31348,"lon":5.36708,"is_reserved":false,"is_disabled":false,"rental_uris":{"android":"levelo://app?vid=e0f52fbe-2799-4b21-adf4-9f6f2a2a4a15","ios":"levelo://app?vid=e0f52fbe-2799-4b21-adf4-9f6f2a2a4a15"},"vehicle_type_id":"4","last_reported":1729491215,"current_range_meters":39200,"station_id":"ce4bgr92rcd13ifvqc6g","pricing_plan_id":"cebpf4jnsgd1na2vs0mg"},{"bike_id":"9a2117f0-c5b0-4dc2-891b-026a24af23f1","system_id":"levelo_inurba_marseille","lat":43.3105,"lon":5.40092,"is_reserved":false,"is_disabled":false,"rental_uris":{"android":"levelo://app?vid=9a2117f0-c5b0-4dc2-891b-026a24af23f1","ios":"levelo://app?vid=9a2117f0-c5b0-4dc2-891b-026a24af23f1"},"vehicle_type_id":"4","last_reported":1729491215,"current_range_meters":32400,"station_id":"","pricing_plan_id":"cebpf4jnsgd1na2vs0mg"},{"bike_id":"150b2076-fa3d-4436-b76f-3b9f9d8be659","system_id":"levelo_inurba_marseille","lat":43.33603,"lon":5.4103,"is_reserved":false,"is_disabled":false,"rental_uris":{"android":"levelo://app?vid=150b2076-fa3d-4436-b76f-3b9f9d8be659","ios":"levelo://app?vid=150b2076-fa3d-4436-b76f-3b9f9d8be659"},"vehicle_type_id":"4","last_reported":1729491215,"current_range_meters":38800,"station_id":"ce4bhqh2rcd13ifvqhmg","pricing_plan_id":"cebpf4jnsgd1na2vs0mg"},{"bike_id":"2cfc7470-0924-496d-a1c3-b7271900a5b5","system_id":"levelo_inurba_marseille","lat":43.23196,"lon":5.3555,"is_reserved":false,"is_disabled":false,"rental_uris":{"android":"levelo://app?vid=2cfc7470-0924-496d-a1c3-b7271900a5b5","ios":"levelo://app?vid=2cfc7470-0924-496d-a1c3-b7271900a5b5"},"vehicle_type_id":"4","last_reported":1729491215,"current_range_meters":17600,"station_id":"ce4bhu92rcd13ifvqi70","pricing_plan_id":"cebpf4jnsgd1na2vs0mg"},{"bike_id":"aff3f06a-2b37-4af9-b818-32fc77ae61ee","system_id":"levelo_inurba_marseille","lat":43.29006,"lon":5.35612,"is_reserved":false,"is_disabled":false,"rental_uris":{"android":"levelo://app?vid=aff3f06a-2b37-4af9-b818-32fc77ae61ee","ios":"levelo://app?vid=aff3f06a-2b37-4af9-b818-32fc77ae61ee"},"vehicle_type_id":"4","last_reported":1729491215,"current_range_meters":39200,"station_id":"ce4bhb92rcd13ifvqen0","pricing_plan_id":"cebpf4jnsgd1na2vs0mg"},{"bike_id":"4c1d2f6a-1a95-4141-8232-9b31cb9bf249","system_id":"levelo_inurba_marseille","lat":43.2694,"lon":5.40251,"is_reserved":false,"is_disabled":false,"rental_uris":{"android":"levelo://app?vid=4c1d2f6a-1a95-4141-8232-9b31cb9bf249","ios":"levelo://app?vid=4c1d2f6a-1a95-4141-8232-9b31cb9bf249"},"vehicle_type_id":"4","last_reported":1729491215,"current_range_meters":28400,"station_id":"cjm6bp8fraef2m0cb0m0","pricing_plan_id":"cebpf4jnsgd1na2vs0mg"},{"bike_id":"c294329c-67d3-4719-8415-ae0d1f00af5d","system_id":"levelo_inurba_marseille","lat":43.25574,"lon":5.38231,"is_reserved":false,"is_disabled":false,"rental_uris":{"android":"levelo://app?vid=c294329c-67d3-4719-8415-ae0d1f00af5d","ios":"levelo://app?vid=c294329c-67d3-4719-8415-ae0d1f00af5d"},"vehicle_type_id":"4","last_reported":1729491215,"current_range_meters":24000,"station_id":"ce4bhih2rcd13ifvqfs0","pricing_plan_id":"cebpf4jnsgd1na2vs0mg"},{"bike_id":"5d5ca3e6-06a9-4ef4-88f8-e8d21bffc448","system_id":"levelo_inurba_marseille","lat":43.32341,"lon":5.40614,"is_reserved":false,"is_disabled":false,"rental_uris":{"android":"levelo://app?vid=5d5ca3e6-06a9-4ef4-88f8-e8d21bffc448","ios":"levelo://app?vid=5d5ca3e6-06a9-4ef4-88f8-e8d21bffc448"},"vehicle_type_id":"4","last_reported":1729491215,"current_range_meters":38400,"station_id":"ce4bhq92rcd13ifvqhjg","pricing_plan_id":"cebpf4jnsgd1na2vs0mg"},{"bike_id":"e9b0811a-76ac-4495-b381-390cc9f46d09","system_id":"levelo_inurba_marseille","lat":43.28481,"lon":5.38541,"is_reserved":false,"is_disabled":false,"rental_uris":{"android":"levelo://app?vid=e9b0811a-76ac-4495-b381-390cc9f46d09","ios":"levelo://app?vid=e9b0811a-76ac-4495-b381-390cc9f46d09"},"vehicle_type_id":"4","last_reported":1729491215,"current_range_meters":14000,"station_id":"ce4bh8p2rcd13ifvqeb0","pricing_plan_id":"cebpf4jnsgd1na2vs0mg"},{"bike_id":"ac69515a-2b4c-4f03-b511-e10ff5d0241f","system_id":"levelo_inurba_marseille","lat":43.30883,"lon":5.37189,"is_reserved":false,"is_disabled":false,"rental_uris":{"android":"levelo://app?vid=ac69515a-2b4c-4f03-b511-e10ff5d0241f","ios":"levelo://app?vid=ac69515a-2b4c-4f03-b511-e10ff5d0241f"},"vehicle_type_id":"4","last_reported":1729491215,"current_range_meters":12800,"station_id":"ce4bguh2rcd13ifvqckg","pricing_plan_id":"cebpf4jnsgd1na2vs0mg"},{"bike_id":"9b0cae09-aed8-4c2a-872b-df83b11d6d51","system_id":"levelo_inurba_marseille","lat":43.29966,"lon":5.37171,"is_reserved":false,"is_disabled":false,"rental_uris":{"android":"levelo://app?vid=9b0cae09-aed8-4c2a-872b-df83b11d6d51","ios":"levelo://app?vid=9b0cae09-aed8-4c2a-872b-df83b11d6d51"},"vehicle_type_id":"4","last_reported":1729491215,"current_range_meters":38000,"station_id":"ce4bgr92rcd13ifvqc7g","pricing_plan_id":"cebpf4jnsgd1na2vs0mg"},{"bike_id":"12bd3036-1eeb-409e-83a9-f84f7c98205c","system_id":"levelo_inurba_marseille","lat":43.27617,"lon":5.36111,"is_reserved":false,"is_disabled":false,"rental_uris":{"android":"levelo://app?vid=12bd3036-1eeb-409e-83a9-f84f7c98205c","ios":"levelo://app?vid=12bd3036-1eeb-409e-83a9-f84f7c98205c"},"vehicle_type_id":"4","last_reported":1729491215,"current_range_meters":38800,"station_id":"ce4bgj92rcd13ifvqbe0","pricing_plan_id":"cebpf4jnsgd1na2vs0mg"},{"bike_id":"e034a4d4-a638-4801-9cff-fe6d11104dae","system_id":"levelo_inurba_marseille","lat":43.26788,"lon":5.39414,"is_reserved":false,"is_disabled":false,"rental_uris":{"android":"levelo://app?vid=e034a4d4-a638-4801-9cff-fe6d11104dae","ios":"levelo://app?vid=e034a4d4-a638-4801-9cff-fe6d11104dae"},"vehicle_type_id":"4","last_reported":1729491215,"current_range_meters":33200,"station_id":"ce4bhh12rcd13ifvqfg0","pricing_plan_id":"cebpf4jnsgd1na2vs0mg"},{"bike_id":"ea82cfc6-cba1-4fcf-b8f5-432977656f1d","system_id":"levelo_inurba_marseille","lat":43.26569,"lon":5.39004,"is_reserved":false,"is_disabled":false,"rental_uris":{"android":"levelo://app?vid=ea82cfc6-cba1-4fcf-b8f5-432977656f1d","ios":"levelo://app?vid=ea82cfc6-cba1-4fcf-b8f5-432977656f1d"},"vehicle_type_id":"4","last_reported":1729491215,"current_range_meters":38800,"station_id":"ce4bhe12rcd13ifvqf30","pricing_plan_id":"cebpf4jnsgd1na2vs0mg"},{"bike_id":"51b24f27-87bf-4aa0-8ef2-4826c2e4b254","system_id":"levelo_inurba_marseille","lat":43.30476,"lon":5.37917,"is_reserved":false,"is_disabled":false,"rental_uris":{"android":"levelo://app?vid=51b24f27-87bf-4aa0-8ef2-4826c2e4b254","ios":"levelo://app?vid=51b24f27-87bf-4aa0-8ef2-4826c2e4b254"},"vehicle_type_id":"4","last_reported":1729491215,"current_range_meters":12400,"station_id":"ce4bgup2rcd13ifvqcn0","pricing_plan_id":"cebpf4jnsgd1na2vs0mg"},{"bike_id":"94c753d5-5c6c-452e-a079-005102ca8c45","system_id":"levelo_inurba_marseille","lat":43.29034,"lon":5.35912,"is_reserved":false,"is_disabled":false,"rental_uris":{"android":"levelo://app?vid=94c753d5-5c6c-452e-a079-005102ca8c45","ios":"levelo://app?vid=94c753d5-5c6c-452e-a079-005102ca8c45"},"vehicle_type_id":"4","last_reported":1729491215,"current_range_meters":38400,"station_id":"ce4bha92rcd13ifvqeg0","pricing_plan_id":"cebpf4jnsgd1na2vs0mg"},{"bike_id":"b757ec7d-c9c3-4702-8fa8-c98c7b47e823","system_id":"levelo_inurba_marseille","lat":43.30467,"lon":5.37914,"is_reserved":false,"is_disabled":false,"rental_uris":{"android":"levelo://app?vid=b757ec7d-c9c3-4702-8fa8-c98c7b47e823","ios":"levelo://app?vid=b757ec7d-c9c3-4702-8fa8-c98c7b47e823"},"vehicle_type_id":"4","last_reported":1729491215,"current_range_meters":36400,"station_id":"ce4bgup2rcd13ifvqcn0","pricing_plan_id":"cebpf4jnsgd1na2vs0mg"},{"bike_id":"eaaa5fbc-63f7-46b3-b6d4-fd6dc86ad4e8","system_id":"levelo_inurba_marseille","lat":43.2395,"lon":5.36638,"is_reserved":false,"is_disabled":false,"rental_uris":{"android":"levelo://app?vid=eaaa5fbc-63f7-46b3-b6d4-fd6dc86ad4e8","ios":"levelo://app?vid=eaaa5fbc-63f7-46b3-b6d4-fd6dc86ad4e8"},"vehicle_type_id":"4","last_reported":1729491215,"current_range_meters":38000,"station_id":"ce4bhi12rcd13ifvqfp0","pricing_plan_id":"cebpf4jnsgd1na2vs0mg"},{"bike_id":"2a8cfce5-93d5-4a5e-832b-148482060dca","system_id":"levelo_inurba_marseille","lat":43.32366,"lon":5.38881,"is_reserved":false,"is_disabled":false,"rental_uris":{"android":"levelo://app?vid=2a8cfce5-93d5-4a5e-832b-148482060dca","ios":"levelo://app?vid=2a8cfce5-93d5-4a5e-832b-148482060dca"},"vehicle_type_id":"4","last_reported":1729491215,"current_range_meters":22400,"station_id":"ce4bhqp2rcd13ifvqhog","pricing_plan_id":"cebpf4jnsgd1na2vs0mg"},{"bike_id":"e75139cd-0b24-45ea-9021-32b59ec58ebd","system_id":"levelo_inurba_marseille","lat":43.24802,"lon":5.37454,"is_reserved":false,"is_disabled":false,"rental_uris":{"android":"levelo://app?vid=e75139cd-0b24-45ea-9021-32b59ec58ebd","ios":"levelo://app?vid=e75139cd-0b24-45ea-9021-32b59ec58ebd"},"vehicle_type_id":"4","last_reported":1729491215,"current_range_meters":38800,"station_id":"ce4bhgh2rcd13ifvqfb0","pricing_plan_id":"cebpf4jnsgd1na2vs0mg"},{"bike_id":"7687bc4e-3700-4f62-8b3c-d51151c2d9f9","system_id":"levelo_inurba_marseille","lat":43.26775,"lon":5.39428,"is_reserved":false,"is_disabled":false,"rental_uris":{"android":"levelo://app?vid=7687bc4e-3700-4f62-8b3c-d51151c2d9f9","ios":"levelo://app?vid=7687bc4e-3700-4f62-8b3c-d51151c2d9f9"},"vehicle_type_id":"4","last_reported":1729491215,"current_range_meters":33200,"station_id":"ce4bhh12rcd13ifvqfg0","pricing_plan_id":"cebpf4jnsgd1na2vs0mg"},{"bike_id":"61cba914-9de4-45fa-a44c-7eab6d365012","system_id":"levelo_inurba_marseille","lat":43.30922,"lon":5.40139,"is_reserved":false,"is_disabled":false,"rental_uris":{"android":"levelo://app?vid=61cba914-9de4-45fa-a44c-7eab6d365012","ios":"levelo://app?vid=61cba914-9de4-45fa-a44c-7eab6d365012"},"vehicle_type_id":"4","last_reported":1729491215,"current_range_meters":28800,"station_id":"ce4bgvp2rcd13ifvqct0","pricing_plan_id":"cebpf4jnsgd1na2vs0mg"},{"bike_id":"fccb27b3-90f4-4411-a56b-003b7acda73c","system_id":"levelo_inurba_marseille","lat":43.2815,"lon":5.4264,"is_reserved":false,"is_disabled":false,"rental_uris":{"android":"levelo://app?vid=fccb27b3-90f4-4411-a56b-003b7acda73c","ios":"levelo://app?vid=fccb27b3-90f4-4411-a56b-003b7acda73c"},"vehicle_type_id":"4","last_reported":1729491215,"current_range_meters":28800,"station_id":"ce4bhnh2rcd13ifvqgug","pricing_plan_id":"cebpf4jnsgd1na2vs0mg"},{"bike_id":"af00502d-b5af-402e-bab9-2b06b78e3677","system_id":"levelo_inurba_marseille","lat":43.31118,"lon":5.37767,"is_reserved":false,"is_disabled":false,"rental_uris":{"android":"levelo://app?vid=af00502d-b5af-402e-bab9-2b06b78e3677","ios":"levelo://app?vid=af00502d-b5af-402e-bab9-2b06b78e3677"},"vehicle_type_id":"4","last_reported":1729491215,"current_range_meters":4400,"station_id":"ce4bgt92rcd13ifvqcg0","pricing_plan_id":"cebpf4jnsgd1na2vs0mg"},{"bike_id":"d863885c-9de8-4c1e-b0fe-4dac0fde31c8","system_id":"levelo_inurba_marseille","lat":43.26195,"lon":5.37448,"is_reserved":false,"is_disabled":false,"rental_uris":{"android":"levelo://app?vid=d863885c-9de8-4c1e-b0fe-4dac0fde31c8","ios":"levelo://app?vid=d863885c-9de8-4c1e-b0fe-4dac0fde31c8"},"vehicle_type_id":"4","last_reported":1729491215,"current_range_meters":35600,"station_id":"ce4bhgp2rcd13ifvqfc0","pricing_plan_id":"cebpf4jnsgd1na2vs0mg"},{"bike_id":"1683d216-d715-408c-8da1-7acbf6f7c18e","system_id":"levelo_inurba_marseille","lat":43.28691,"lon":5.39991,"is_reserved":false,"is_disabled":false,"rental_uris":{"android":"levelo://app?vid=1683d216-d715-408c-8da1-7acbf6f7c18e","ios":"levelo://app?vid=1683d216-d715-408c-8da1-7acbf6f7c18e"},"vehicle_type_id":"4","last_reported":1729491215,"current_range_meters":39200,"station_id":"ce4bho92rcd13ifvqh3g","pricing_plan_id":"cebpf4jnsgd1na2vs0mg"},{"bike_id":"29fcf195-d13c-43e9-8902-02523acd71ab","system_id":"levelo_inurba_marseille","lat":43.3054,"lon":5.36561,"is_reserved":false,"is_disabled":false,"rental_uris":{"android":"levelo://app?vid=29fcf195-d13c-43e9-8902-02523acd71ab","ios":"levelo://app?vid=29fcf195-d13c-43e9-8902-02523acd71ab"},"vehicle_type_id":"4","last_reported":1729491215,"current_range_meters":36800,"station_id":"ce4bgs12rcd13ifvqcag","pricing_plan_id":"cebpf4jnsgd1na2vs0mg"},{"bike_id":"16efb756-7204-417a-ac94-79592a12c81c","system_id":"levelo_inurba_marseille","lat":43.33607,"lon":5.41014,"is_reserved":false,"is_disabled":false,"rental_uris":{"android":"levelo://app?vid=16efb756-7204-417a-ac94-79592a12c81c","ios":"levelo://app?vid=16efb756-7204-417a-ac94-79592a12c81c"},"vehicle_type_id":"4","last_reported":1729491215,"current_range_meters":23200,"station_id":"ce4bhqh2rcd13ifvqhmg","pricing_plan_id":"cebpf4jnsgd1na2vs0mg"},{"bike_id":"12ab2eec-9b4d-4c0c-95e5-7efc9d2928b4","system_id":"levelo_inurba_marseille","lat":43.29794,"lon":5.38095,"is_reserved":false,"is_disabled":false,"rental_uris":{"android":"levelo://app?vid=12ab2eec-9b4d-4c0c-95e5-7efc9d2928b4","ios":"levelo://app?vid=12ab2eec-9b4d-4c0c-95e5-7efc9d2928b4"},"vehicle_type_id":"4","last_reported":1729491215,"current_range_meters":10000,"station_id":"ce4bgip2rcd13ifvqbb0","pricing_plan_id":"cebpf4jnsgd1na2vs0mg"},{"bike_id":"b43d79bf-0af7-43fb-9ffa-924a1287f99d","system_id":"levelo_inurba_marseille","lat":43.290222,"lon":5.399762,"is_reserved":false,"is_disabled":false,"rental_uris":{"android":"levelo://app?vid=b43d79bf-0af7-43fb-9ffa-924a1287f99d","ios":"levelo://app?vid=b43d79bf-0af7-43fb-9ffa-924a1287f99d"},"vehicle_type_id":"4","last_reported":1729491215,"current_range_meters":37600,"station_id":"ce4bh392rcd13ifvqdm0","pricing_plan_id":"cebpf4jnsgd1na2vs0mg"},{"bike_id":"adea3a59-bfe3-4359-9707-8838ade5bc09","system_id":"levelo_inurba_marseille","lat":43.28407,"lon":5.37585,"is_reserved":false,"is_disabled":false,"rental_uris":{"android":"levelo://app?vid=adea3a59-bfe3-4359-9707-8838ade5bc09","ios":"levelo://app?vid=adea3a59-bfe3-4359-9707-8838ade5bc09"},"vehicle_type_id":"4","last_reported":1729491215,"current_range_meters":32800,"station_id":"","pricing_plan_id":"cebpf4jnsgd1na2vs0mg"},{"bike_id":"4cf3e5d8-4f9a-4007-b965-622ecd99339e","system_id":"levelo_inurba_marseille","lat":43.31074,"lon":5.40085,"is_reserved":false,"is_disabled":false,"rental_uris":{"android":"levelo://app?vid=4cf3e5d8-4f9a-4007-b965-622ecd99339e","ios":"levelo://app?vid=4cf3e5d8-4f9a-4007-b965-622ecd99339e"},"vehicle_type_id":"4","last_reported":1729491215,"current_range_meters":5600,"station_id":"","pricing_plan_id":"cebpf4jnsgd1na2vs0mg"},{"bike_id":"3de5f9c6-824d-4fba-b9de-50e1c84c4cf7","system_id":"levelo_inurba_marseille","lat":43.28694,"lon":5.39992,"is_reserved":false,"is_disabled":false,"rental_uris":{"android":"levelo://app?vid=3de5f9c6-824d-4fba-b9de-50e1c84c4cf7","ios":"levelo://app?vid=3de5f9c6-824d-4fba-b9de-50e1c84c4cf7"},"vehicle_type_id":"4","last_reported":1729491215,"current_range_meters":39200,"station_id":"ce4bho92rcd13ifvqh3g","pricing_plan_id":"cebpf4jnsgd1na2vs0mg"},{"bike_id":"eb28c191-e5cc-4e35-8818-10ea0b1447e3","system_id":"levelo_inurba_marseille","lat":43.303108,"lon":5.369108,"is_reserved":false,"is_disabled":false,"rental_uris":{"android":"levelo://app?vid=eb28c191-e5cc-4e35-8818-10ea0b1447e3","ios":"levelo://app?vid=eb28c191-e5cc-4e35-8818-10ea0b1447e3"},"vehicle_type_id":"4","last_reported":1729491215,"current_range_meters":38000,"station_id":"ce4bgqh2rcd13ifvqc5g","pricing_plan_id":"cebpf4jnsgd1na2vs0mg"},{"bike_id":"2afa9398-54a2-4161-bdfe-0b17240da32e","system_id":"levelo_inurba_marseille","lat":43.28701,"lon":5.39984,"is_reserved":false,"is_disabled":false,"rental_uris":{"android":"levelo://app?vid=2afa9398-54a2-4161-bdfe-0b17240da32e","ios":"levelo://app?vid=2afa9398-54a2-4161-bdfe-0b17240da32e"},"vehicle_type_id":"4","last_reported":1729491215,"current_range_meters":37600,"station_id":"ce4bho92rcd13ifvqh3g","pricing_plan_id":"cebpf4jnsgd1na2vs0mg"},{"bike_id":"a9497fe1-bc20-4783-aa3c-fbb63f514484","system_id":"levelo_inurba_marseille","lat":43.30531,"lon":5.36537,"is_reserved":false,"is_disabled":false,"rental_uris":{"android":"levelo://app?vid=a9497fe1-bc20-4783-aa3c-fbb63f514484","ios":"levelo://app?vid=a9497fe1-bc20-4783-aa3c-fbb63f514484"},"vehicle_type_id":"4","last_reported":1729491215,"current_range_meters":38400,"station_id":"ce4bgs12rcd13ifvqcag","pricing_plan_id":"cebpf4jnsgd1na2vs0mg"},{"bike_id":"f3da7b3f-3977-4bde-ae1c-49e2e6f4d1fd","system_id":"levelo_inurba_marseille","lat":43.24997,"lon":5.38932,"is_reserved":false,"is_disabled":false,"rental_uris":{"android":"levelo://app?vid=f3da7b3f-3977-4bde-ae1c-49e2e6f4d1fd","ios":"levelo://app?vid=f3da7b3f-3977-4bde-ae1c-49e2e6f4d1fd"},"vehicle_type_id":"4","last_reported":1729491215,"current_range_meters":30000,"station_id":"ce4bhgp2rcd13ifvqfd0","pricing_plan_id":"cebpf4jnsgd1na2vs0mg"},{"bike_id":"e76cac2c-c290-4d17-9cd1-18f79aafb7b3","system_id":"levelo_inurba_marseille","lat":43.28362,"lon":5.38625,"is_reserved":false,"is_disabled":false,"rental_uris":{"android":"levelo://app?vid=e76cac2c-c290-4d17-9cd1-18f79aafb7b3","ios":"levelo://app?vid=e76cac2c-c290-4d17-9cd1-18f79aafb7b3"},"vehicle_type_id":"4","last_reported":1729491215,"current_range_meters":38800,"station_id":"ce4bh492rcd13ifvqdvg","pricing_plan_id":"cebpf4jnsgd1na2vs0mg"},{"bike_id":"0ed5e6b9-11e8-474d-83d8-ff3c014d00a9","system_id":"levelo_inurba_marseille","lat":43.31702,"lon":5.37763,"is_reserved":false,"is_disabled":false,"rental_uris":{"android":"levelo://app?vid=0ed5e6b9-11e8-474d-83d8-ff3c014d00a9","ios":"levelo://app?vid=0ed5e6b9-11e8-474d-83d8-ff3c014d00a9"},"vehicle_type_id":"4","last_reported":1729491215,"current_range_meters":24400,"station_id":"ce4bgth2rcd13ifvqch0","pricing_plan_id":"cebpf4jnsgd1na2vs0mg"},{"bike_id":"1a8c6dc3-114a-42a6-9675-a3da6921c3f3","system_id":"levelo_inurba_marseille","lat":43.29676,"lon":5.37296,"is_reserved":false,"is_disabled":false,"rental_uris":{"android":"levelo://app?vid=1a8c6dc3-114a-42a6-9675-a3da6921c3f3","ios":"levelo://app?vid=1a8c6dc3-114a-42a6-9675-a3da6921c3f3"},"vehicle_type_id":"4","last_reported":1729491215,"current_range_meters":37600,"station_id":"ce4bgk12rcd13ifvqbj0","pricing_plan_id":"cebpf4jnsgd1na2vs0mg"},{"bike_id":"02b237b1-0dfb-4a98-a4a8-937cb6460521","system_id":"levelo_inurba_marseille","lat":43.284877,"lon":5.384179,"is_reserved":false,"is_disabled":false,"rental_uris":{"android":"levelo://app?vid=02b237b1-0dfb-4a98-a4a8-937cb6460521","ios":"levelo://app?vid=02b237b1-0dfb-4a98-a4a8-937cb6460521"},"vehicle_type_id":"4","last_reported":1729491215,"current_range_meters":36400,"station_id":"ce4bh512rcd13ifvqe3g","pricing_plan_id":"cebpf4jnsgd1na2vs0mg"},{"bike_id":"931da876-d0ed-4146-82c7-6d132f483c10","system_id":"levelo_inurba_marseille","lat":43.32097,"lon":5.36773,"is_reserved":false,"is_disabled":false,"rental_uris":{"android":"levelo://app?vid=931da876-d0ed-4146-82c7-6d132f483c10","ios":"levelo://app?vid=931da876-d0ed-4146-82c7-6d132f483c10"},"vehicle_type_id":"4","last_reported":1729491215,"current_range_meters":37600,"station_id":"ce4bhrh2rcd13ifvqhug","pricing_plan_id":"cebpf4jnsgd1na2vs0mg"},{"bike_id":"68bb16cf-3232-4389-967e-55bb18f1f996","system_id":"levelo_inurba_marseille","lat":43.31361,"lon":5.36699,"is_reserved":false,"is_disabled":false,"rental_uris":{"android":"levelo://app?vid=68bb16cf-3232-4389-967e-55bb18f1f996","ios":"levelo://app?vid=68bb16cf-3232-4389-967e-55bb18f1f996"},"vehicle_type_id":"4","last_reported":1729491215,"current_range_meters":31200,"station_id":"ce4bgr92rcd13ifvqc6g","pricing_plan_id":"cebpf4jnsgd1na2vs0mg"},{"bike_id":"e92cc37a-98d2-4b52-9e72-c0f3eeef8cad","system_id":"levelo_inurba_marseille","lat":43.2407,"lon":5.37761,"is_reserved":false,"is_disabled":false,"rental_uris":{"android":"levelo://app?vid=e92cc37a-98d2-4b52-9e72-c0f3eeef8cad","ios":"levelo://app?vid=e92cc37a-98d2-4b52-9e72-c0f3eeef8cad"},"vehicle_type_id":"4","last_reported":1729491215,"current_range_meters":20800,"station_id":"ce4bhnp2rcd13ifvqgvg","pricing_plan_id":"cebpf4jnsgd1na2vs0mg"},{"bike_id":"d41009ae-427d-49a5-b6d1-5b9be93b98ce","system_id":"levelo_inurba_marseille","lat":43.32659,"lon":5.40996,"is_reserved":false,"is_disabled":false,"rental_uris":{"android":"levelo://app?vid=d41009ae-427d-49a5-b6d1-5b9be93b98ce","ios":"levelo://app?vid=d41009ae-427d-49a5-b6d1-5b9be93b98ce"},"vehicle_type_id":"4","last_reported":1729491215,"current_range_meters":36000,"station_id":"ce4bhpp2rcd13ifvqhgg","pricing_plan_id":"cebpf4jnsgd1na2vs0mg"},{"bike_id":"37893e43-d71c-4002-a446-8814b8815307","system_id":"levelo_inurba_marseille","lat":43.29003,"lon":5.35618,"is_reserved":false,"is_disabled":false,"rental_uris":{"android":"levelo://app?vid=37893e43-d71c-4002-a446-8814b8815307","ios":"levelo://app?vid=37893e43-d71c-4002-a446-8814b8815307"},"vehicle_type_id":"4","last_reported":1729491215,"current_range_meters":23200,"station_id":"ce4bhb92rcd13ifvqen0","pricing_plan_id":"cebpf4jnsgd1na2vs0mg"},{"bike_id":"b122dc9a-f1c9-4551-b961-b2f3ff369bcc","system_id":"levelo_inurba_marseille","lat":43.32335,"lon":5.40619,"is_reserved":false,"is_disabled":false,"rental_uris":{"android":"levelo://app?vid=b122dc9a-f1c9-4551-b961-b2f3ff369bcc","ios":"levelo://app?vid=b122dc9a-f1c9-4551-b961-b2f3ff369bcc"},"vehicle_type_id":"4","last_reported":1729491215,"current_range_meters":6000,"station_id":"ce4bhq92rcd13ifvqhjg","pricing_plan_id":"cebpf4jnsgd1na2vs0mg"},{"bike_id":"0c1c7708-b979-4d7e-982d-190e9148b9a6","system_id":"levelo_inurba_marseille","lat":43.26679,"lon":5.38271,"is_reserved":false,"is_disabled":false,"rental_uris":{"android":"levelo://app?vid=0c1c7708-b979-4d7e-982d-190e9148b9a6","ios":"levelo://app?vid=0c1c7708-b979-4d7e-982d-190e9148b9a6"},"vehicle_type_id":"4","last_reported":1729491215,"current_range_meters":36000,"station_id":"ce4bhg92rcd13ifvqf90","pricing_plan_id":"cebpf4jnsgd1na2vs0mg"},{"bike_id":"724c3898-fa40-46b5-a6ca-5091666cabb4","system_id":"levelo_inurba_marseille","lat":43.23192,"lon":5.35547,"is_reserved":false,"is_disabled":false,"rental_uris":{"android":"levelo://app?vid=724c3898-fa40-46b5-a6ca-5091666cabb4","ios":"levelo://app?vid=724c3898-fa40-46b5-a6ca-5091666cabb4"},"vehicle_type_id":"4","last_reported":1729491215,"current_range_meters":38400,"station_id":"ce4bhu92rcd13ifvqi70","pricing_plan_id":"cebpf4jnsgd1na2vs0mg"},{"bike_id":"fb574375-21a3-4cc9-b093-05167f9899a8","system_id":"levelo_inurba_marseille","lat":43.31358,"lon":5.3672,"is_reserved":false,"is_disabled":false,"rental_uris":{"android":"levelo://app?vid=fb574375-21a3-4cc9-b093-05167f9899a8","ios":"levelo://app?vid=fb574375-21a3-4cc9-b093-05167f9899a8"},"vehicle_type_id":"4","last_reported":1729491215,"current_range_meters":39200,"station_id":"ce4bgr92rcd13ifvqc6g","pricing_plan_id":"cebpf4jnsgd1na2vs0mg"},{"bike_id":"d42a1cda-c737-4eb5-91d5-b7c860f3f1bb","system_id":"levelo_inurba_marseille","lat":43.28939,"lon":5.39626,"is_reserved":false,"is_disabled":false,"rental_uris":{"android":"levelo://app?vid=d42a1cda-c737-4eb5-91d5-b7c860f3f1bb","ios":"levelo://app?vid=d42a1cda-c737-4eb5-91d5-b7c860f3f1bb"},"vehicle_type_id":"4","last_reported":1729491215,"current_range_meters":32800,"station_id":"ce4bh3h2rcd13ifvqdn0","pricing_plan_id":"cebpf4jnsgd1na2vs0mg"},{"bike_id":"6eb7f113-4148-4f61-9e40-8cc06e179ba9","system_id":"levelo_inurba_marseille","lat":43.30308,"lon":5.369,"is_reserved":false,"is_disabled":false,"rental_uris":{"android":"levelo://app?vid=6eb7f113-4148-4f61-9e40-8cc06e179ba9","ios":"levelo://app?vid=6eb7f113-4148-4f61-9e40-8cc06e179ba9"},"vehicle_type_id":"4","last_reported":1729491215,"current_range_meters":12400,"station_id":"ce4bgqh2rcd13ifvqc5g","pricing_plan_id":"cebpf4jnsgd1na2vs0mg"},{"bike_id":"83341eed-4a77-4ec8-936f-2be77f1d3b59","system_id":"levelo_inurba_marseille","lat":43.302089,"lon":5.394609,"is_reserved":false,"is_disabled":false,"rental_uris":{"android":"levelo://app?vid=83341eed-4a77-4ec8-936f-2be77f1d3b59","ios":"levelo://app?vid=83341eed-4a77-4ec8-936f-2be77f1d3b59"},"vehicle_type_id":"4","last_reported":1729491215,"current_range_meters":34000,"station_id":"ce4bh0p2rcd13ifvqd70","pricing_plan_id":"cebpf4jnsgd1na2vs0mg"},{"bike_id":"e6fe4940-a098-49cc-8d38-77b9bd14611a","system_id":"levelo_inurba_marseille","lat":43.321,"lon":5.36774,"is_reserved":false,"is_disabled":false,"rental_uris":{"android":"levelo://app?vid=e6fe4940-a098-49cc-8d38-77b9bd14611a","ios":"levelo://app?vid=e6fe4940-a098-49cc-8d38-77b9bd14611a"},"vehicle_type_id":"4","last_reported":1729491215,"current_range_meters":18000,"station_id":"ce4bhrh2rcd13ifvqhug","pricing_plan_id":"cebpf4jnsgd1na2vs0mg"},{"bike_id":"d6b5672e-6ab7-45f1-8ca8-706a4885b1b2","system_id":"levelo_inurba_marseille","lat":43.30553,"lon":5.38415,"is_reserved":false,"is_disabled":false,"rental_uris":{"android":"levelo://app?vid=d6b5672e-6ab7-45f1-8ca8-706a4885b1b2","ios":"levelo://app?vid=d6b5672e-6ab7-45f1-8ca8-706a4885b1b2"},"vehicle_type_id":"4","last_reported":1729491215,"current_range_meters":5600,"station_id":"ce4bgg92rcd13ifvqb30","pricing_plan_id":"cebpf4jnsgd1na2vs0mg"},{"bike_id":"b04178a6-d042-42f4-8b2c-3a5f2470013b","system_id":"levelo_inurba_marseille","lat":43.28713,"lon":5.37939,"is_reserved":false,"is_disabled":false,"rental_uris":{"android":"levelo://app?vid=b04178a6-d042-42f4-8b2c-3a5f2470013b","ios":"levelo://app?vid=b04178a6-d042-42f4-8b2c-3a5f2470013b"},"vehicle_type_id":"4","last_reported":1729491215,"current_range_meters":38000,"station_id":"ce4bh9p2rcd13ifvqec0","pricing_plan_id":"cebpf4jnsgd1na2vs0mg"},{"bike_id":"8bb60c49-8ed3-4f9b-891c-0805c36ed3e1","system_id":"levelo_inurba_marseille","lat":43.29552,"lon":5.42274,"is_reserved":false,"is_disabled":false,"rental_uris":{"android":"levelo://app?vid=8bb60c49-8ed3-4f9b-891c-0805c36ed3e1","ios":"levelo://app?vid=8bb60c49-8ed3-4f9b-891c-0805c36ed3e1"},"vehicle_type_id":"4","last_reported":1729491215,"current_range_meters":40000,"station_id":"ce4bhph2rcd13ifvqhdg","pricing_plan_id":"cebpf4jnsgd1na2vs0mg"},{"bike_id":"f3b18d4c-688e-4e02-9104-7f1d559134af","system_id":"levelo_inurba_marseille","lat":43.32065,"lon":5.36761,"is_reserved":false,"is_disabled":false,"rental_uris":{"android":"levelo://app?vid=f3b18d4c-688e-4e02-9104-7f1d559134af","ios":"levelo://app?vid=f3b18d4c-688e-4e02-9104-7f1d559134af"},"vehicle_type_id":"4","last_reported":1729491215,"current_range_meters":32000,"station_id":"ce4bhrh2rcd13ifvqhug","pricing_plan_id":"cebpf4jnsgd1na2vs0mg"},{"bike_id":"5c427ec6-b3e2-4bcb-bf5e-ebf0118ba7b9","system_id":"levelo_inurba_marseille","lat":43.30472,"lon":5.37898,"is_reserved":false,"is_disabled":false,"rental_uris":{"android":"levelo://app?vid=5c427ec6-b3e2-4bcb-bf5e-ebf0118ba7b9","ios":"levelo://app?vid=5c427ec6-b3e2-4bcb-bf5e-ebf0118ba7b9"},"vehicle_type_id":"4","last_reported":1729491215,"current_range_meters":28400,"station_id":"ce4bgup2rcd13ifvqcn0","pricing_plan_id":"cebpf4jnsgd1na2vs0mg"},{"bike_id":"55b42e44-e6a8-482c-887c-775307e27ba4","system_id":"levelo_inurba_marseille","lat":43.30145,"lon":5.38067,"is_reserved":false,"is_disabled":false,"rental_uris":{"android":"levelo://app?vid=55b42e44-e6a8-482c-887c-775307e27ba4","ios":"levelo://app?vid=55b42e44-e6a8-482c-887c-775307e27ba4"},"vehicle_type_id":"4","last_reported":1729491215,"current_range_meters":36800,"station_id":"ce4bgjp2rcd13ifvqbh0","pricing_plan_id":"cebpf4jnsgd1na2vs0mg"},{"bike_id":"6d5f23d5-0f13-413f-be9d-b69e691fdf41","system_id":"levelo_inurba_marseille","lat":43.30151,"lon":5.38076,"is_reserved":false,"is_disabled":false,"rental_uris":{"android":"levelo://app?vid=6d5f23d5-0f13-413f-be9d-b69e691fdf41","ios":"levelo://app?vid=6d5f23d5-0f13-413f-be9d-b69e691fdf41"},"vehicle_type_id":"4","last_reported":1729491215,"current_range_meters":32000,"station_id":"ce4bgjp2rcd13ifvqbh0","pricing_plan_id":"cebpf4jnsgd1na2vs0mg"},{"bike_id":"ca33b17e-2aed-4795-91d7-6d4346001afc","system_id":"levelo_inurba_marseille","lat":43.29033,"lon":5.39965,"is_reserved":false,"is_disabled":false,"rental_uris":{"android":"levelo://app?vid=ca33b17e-2aed-4795-91d7-6d4346001afc","ios":"levelo://app?vid=ca33b17e-2aed-4795-91d7-6d4346001afc"},"vehicle_type_id":"4","last_reported":1729491215,"current_range_meters":29600,"station_id":"ce4bh392rcd13ifvqdm0","pricing_plan_id":"cebpf4jnsgd1na2vs0mg"},{"bike_id":"378e0953-03aa-4cc5-9f61-adcae672138a","system_id":"levelo_inurba_marseille","lat":43.29522,"lon":5.37514,"is_reserved":false,"is_disabled":false,"rental_uris":{"android":"levelo://app?vid=378e0953-03aa-4cc5-9f61-adcae672138a","ios":"levelo://app?vid=378e0953-03aa-4cc5-9f61-adcae672138a"},"vehicle_type_id":"4","last_reported":1729491215,"current_range_meters":36000,"station_id":"ce4bgkp2rcd13ifvqbmg","pricing_plan_id":"cebpf4jnsgd1na2vs0mg"},{"bike_id":"3bf2ae1c-49b2-4936-93d0-295eb17bee45","system_id":"levelo_inurba_marseille","lat":43.230621,"lon":5.354889,"is_reserved":false,"is_disabled":false,"rental_uris":{"android":"levelo://app?vid=3bf2ae1c-49b2-4936-93d0-295eb17bee45","ios":"levelo://app?vid=3bf2ae1c-49b2-4936-93d0-295eb17bee45"},"vehicle_type_id":"4","last_reported":1729491215,"current_range_meters":38000,"station_id":"cpo3342slgdg3j2ifvpg","pricing_plan_id":"cebpf4jnsgd1na2vs0mg"},{"bike_id":"a4bf4c37-492b-43fb-8327-d4e18ba08dac","system_id":"levelo_inurba_marseille","lat":43.28261,"lon":5.35056,"is_reserved":false,"is_disabled":false,"rental_uris":{"android":"levelo://app?vid=a4bf4c37-492b-43fb-8327-d4e18ba08dac","ios":"levelo://app?vid=a4bf4c37-492b-43fb-8327-d4e18ba08dac"},"vehicle_type_id":"4","last_reported":1729491215,"current_range_meters":35200,"station_id":"ce4bhbp2rcd13ifvqerg","pricing_plan_id":"cebpf4jnsgd1na2vs0mg"},{"bike_id":"6b6baa2c-542e-44ca-ac36-9508fb23c030","system_id":"levelo_inurba_marseille","lat":43.26934,"lon":5.40239,"is_reserved":false,"is_disabled":false,"rental_uris":{"android":"levelo://app?vid=6b6baa2c-542e-44ca-ac36-9508fb23c030","ios":"levelo://app?vid=6b6baa2c-542e-44ca-ac36-9508fb23c030"},"vehicle_type_id":"4","last_reported":1729491215,"current_range_meters":38800,"station_id":"cjm6bp8fraef2m0cb0m0","pricing_plan_id":"cebpf4jnsgd1na2vs0mg"},{"bike_id":"01edebeb-e9df-4db9-8e23-851a215d3d7f","system_id":"levelo_inurba_marseille","lat":43.30526,"lon":5.36714,"is_reserved":false,"is_disabled":false,"rental_uris":{"android":"levelo://app?vid=01edebeb-e9df-4db9-8e23-851a215d3d7f","ios":"levelo://app?vid=01edebeb-e9df-4db9-8e23-851a215d3d7f"},"vehicle_type_id":"4","last_reported":1729491215,"current_range_meters":38800,"station_id":"ce4bgrp2rcd13ifvqc9g","pricing_plan_id":"cebpf4jnsgd1na2vs0mg"},{"bike_id":"684997cb-a782-4cca-a670-ca233ed67c97","system_id":"levelo_inurba_marseille","lat":43.265484,"lon":5.372888,"is_reserved":false,"is_disabled":false,"rental_uris":{"android":"levelo://app?vid=684997cb-a782-4cca-a670-ca233ed67c97","ios":"levelo://app?vid=684997cb-a782-4cca-a670-ca233ed67c97"},"vehicle_type_id":"4","last_reported":1729491215,"current_range_meters":38800,"station_id":"ce4bhg12rcd13ifvqf70","pricing_plan_id":"cebpf4jnsgd1na2vs0mg"},{"bike_id":"62738b42-4d14-4992-87b3-65556f57f437","system_id":"levelo_inurba_marseille","lat":43.24392,"lon":5.37063,"is_reserved":false,"is_disabled":false,"rental_uris":{"android":"levelo://app?vid=62738b42-4d14-4992-87b3-65556f57f437","ios":"levelo://app?vid=62738b42-4d14-4992-87b3-65556f57f437"},"vehicle_type_id":"4","last_reported":1729491215,"current_range_meters":30000,"station_id":"ce4bhhh2rcd13ifvqfk0","pricing_plan_id":"cebpf4jnsgd1na2vs0mg"},{"bike_id":"f8079d22-9fb9-4399-b6b0-6703f510a776","system_id":"levelo_inurba_marseille","lat":43.29227,"lon":5.36075,"is_reserved":false,"is_disabled":false,"rental_uris":{"android":"levelo://app?vid=f8079d22-9fb9-4399-b6b0-6703f510a776","ios":"levelo://app?vid=f8079d22-9fb9-4399-b6b0-6703f510a776"},"vehicle_type_id":"4","last_reported":1729491215,"current_range_meters":38400,"station_id":"ce4bhbh2rcd13ifvqeqg","pricing_plan_id":"cebpf4jnsgd1na2vs0mg"},{"bike_id":"4517af98-c83a-4c45-a9db-642c066330ca","system_id":"levelo_inurba_marseille","lat":43.30445,"lon":5.37909,"is_reserved":false,"is_disabled":false,"rental_uris":{"android":"levelo://app?vid=4517af98-c83a-4c45-a9db-642c066330ca","ios":"levelo://app?vid=4517af98-c83a-4c45-a9db-642c066330ca"},"vehicle_type_id":"4","last_reported":1729491215,"current_range_meters":36800,"station_id":"ce4bgup2rcd13ifvqcn0","pricing_plan_id":"cebpf4jnsgd1na2vs0mg"},{"bike_id":"50c75046-fa69-4073-a06d-eb673377455f","system_id":"levelo_inurba_marseille","lat":43.27827,"lon":5.40732,"is_reserved":false,"is_disabled":false,"rental_uris":{"android":"levelo://app?vid=50c75046-fa69-4073-a06d-eb673377455f","ios":"levelo://app?vid=50c75046-fa69-4073-a06d-eb673377455f"},"vehicle_type_id":"4","last_reported":1729491215,"current_range_meters":36800,"station_id":"ce4bhnh2rcd13ifvqgtg","pricing_plan_id":"cebpf4jnsgd1na2vs0mg"},{"bike_id":"1e489223-3fd9-4459-a32e-233b3b82752f","system_id":"levelo_inurba_marseille","lat":43.26941,"lon":5.40248,"is_reserved":false,"is_disabled":false,"rental_uris":{"android":"levelo://app?vid=1e489223-3fd9-4459-a32e-233b3b82752f","ios":"levelo://app?vid=1e489223-3fd9-4459-a32e-233b3b82752f"},"vehicle_type_id":"4","last_reported":1729491215,"current_range_meters":38800,"station_id":"cjm6bp8fraef2m0cb0m0","pricing_plan_id":"cebpf4jnsgd1na2vs0mg"},{"bike_id":"342bb506-8e82-4fe8-8123-2298181f1aa1","system_id":"levelo_inurba_marseille","lat":43.30797,"lon":5.38167,"is_reserved":false,"is_disabled":false,"rental_uris":{"android":"levelo://app?vid=342bb506-8e82-4fe8-8123-2298181f1aa1","ios":"levelo://app?vid=342bb506-8e82-4fe8-8123-2298181f1aa1"},"vehicle_type_id":"4","last_reported":1729491215,"current_range_meters":33200,"station_id":"","pricing_plan_id":"cebpf4jnsgd1na2vs0mg"},{"bike_id":"49f034c7-bcc2-44a1-a2c0-c64d1cae1fa9","system_id":"levelo_inurba_marseille","lat":43.27613,"lon":5.36115,"is_reserved":false,"is_disabled":false,"rental_uris":{"android":"levelo://app?vid=49f034c7-bcc2-44a1-a2c0-c64d1cae1fa9","ios":"levelo://app?vid=49f034c7-bcc2-44a1-a2c0-c64d1cae1fa9"},"vehicle_type_id":"4","last_reported":1729491215,"current_range_meters":38800,"station_id":"ce4bgj92rcd13ifvqbe0","pricing_plan_id":"cebpf4jnsgd1na2vs0mg"},{"bike_id":"8f4e6959-3abf-4fd4-8664-0804824d18bd","system_id":"levelo_inurba_marseille","lat":43.24393,"lon":5.37051,"is_reserved":false,"is_disabled":false,"rental_uris":{"android":"levelo://app?vid=8f4e6959-3abf-4fd4-8664-0804824d18bd","ios":"levelo://app?vid=8f4e6959-3abf-4fd4-8664-0804824d18bd"},"vehicle_type_id":"4","last_reported":1729491215,"current_range_meters":6400,"station_id":"ce4bhhh2rcd13ifvqfk0","pricing_plan_id":"cebpf4jnsgd1na2vs0mg"},{"bike_id":"62fbe90b-a9cf-4737-96e1-249789b420f5","system_id":"levelo_inurba_marseille","lat":43.30349,"lon":5.41874,"is_reserved":false,"is_disabled":false,"rental_uris":{"android":"levelo://app?vid=62fbe90b-a9cf-4737-96e1-249789b420f5","ios":"levelo://app?vid=62fbe90b-a9cf-4737-96e1-249789b420f5"},"vehicle_type_id":"4","last_reported":1729491215,"current_range_meters":38800,"station_id":"ce4bhop2rcd13ifvqh7g","pricing_plan_id":"cebpf4jnsgd1na2vs0mg"},{"bike_id":"853e5a75-12df-4da3-b732-9bae6a398629","system_id":"levelo_inurba_marseille","lat":43.27942,"lon":5.41059,"is_reserved":false,"is_disabled":false,"rental_uris":{"android":"levelo://app?vid=853e5a75-12df-4da3-b732-9bae6a398629","ios":"levelo://app?vid=853e5a75-12df-4da3-b732-9bae6a398629"},"vehicle_type_id":"4","last_reported":1729491215,"current_range_meters":30000,"station_id":"ce4bhnp2rcd13ifvqh0g","pricing_plan_id":"cebpf4jnsgd1na2vs0mg"},{"bike_id":"d4737b1b-bef4-40f3-bd0e-6adb89b5843c","system_id":"levelo_inurba_marseille","lat":43.30309,"lon":5.3689,"is_reserved":false,"is_disabled":false,"rental_uris":{"android":"levelo://app?vid=d4737b1b-bef4-40f3-bd0e-6adb89b5843c","ios":"levelo://app?vid=d4737b1b-bef4-40f3-bd0e-6adb89b5843c"},"vehicle_type_id":"4","last_reported":1729491215,"current_range_meters":16400,"station_id":"ce4bgqh2rcd13ifvqc5g","pricing_plan_id":"cebpf4jnsgd1na2vs0mg"},{"bike_id":"8e26877b-8569-470b-a8dc-f5052775f940","system_id":"levelo_inurba_marseille","lat":43.290313,"lon":5.386489,"is_reserved":false,"is_disabled":false,"rental_uris":{"android":"levelo://app?vid=8e26877b-8569-470b-a8dc-f5052775f940","ios":"levelo://app?vid=8e26877b-8569-470b-a8dc-f5052775f940"},"vehicle_type_id":"4","last_reported":1729491215,"current_range_meters":11600,"station_id":"ce4bh4p2rcd13ifvqe0g","pricing_plan_id":"cebpf4jnsgd1na2vs0mg"},{"bike_id":"f4461b20-658d-429a-8ae4-eb3cfde84765","system_id":"levelo_inurba_marseille","lat":43.31344,"lon":5.36732,"is_reserved":false,"is_disabled":false,"rental_uris":{"android":"levelo://app?vid=f4461b20-658d-429a-8ae4-eb3cfde84765","ios":"levelo://app?vid=f4461b20-658d-429a-8ae4-eb3cfde84765"},"vehicle_type_id":"4","last_reported":1729491215,"current_range_meters":26800,"station_id":"ce4bgr92rcd13ifvqc6g","pricing_plan_id":"cebpf4jnsgd1na2vs0mg"},{"bike_id":"45e7f899-f5f3-4e50-a9bb-17b358a1f073","system_id":"levelo_inurba_marseille","lat":43.30453,"lon":5.37895,"is_reserved":false,"is_disabled":false,"rental_uris":{"android":"levelo://app?vid=45e7f899-f5f3-4e50-a9bb-17b358a1f073","ios":"levelo://app?vid=45e7f899-f5f3-4e50-a9bb-17b358a1f073"},"vehicle_type_id":"4","last_reported":1729491215,"current_range_meters":38400,"station_id":"ce4bgup2rcd13ifvqcn0","pricing_plan_id":"cebpf4jnsgd1na2vs0mg"},{"bike_id":"418bd683-b6c0-4394-90d1-454d0664a04c","system_id":"levelo_inurba_marseille","lat":43.33609,"lon":5.41022,"is_reserved":false,"is_disabled":false,"rental_uris":{"android":"levelo://app?vid=418bd683-b6c0-4394-90d1-454d0664a04c","ios":"levelo://app?vid=418bd683-b6c0-4394-90d1-454d0664a04c"},"vehicle_type_id":"4","last_reported":1729491215,"current_range_meters":39200,"station_id":"ce4bhqh2rcd13ifvqhmg","pricing_plan_id":"cebpf4jnsgd1na2vs0mg"},{"bike_id":"aaf6b3b0-6fb9-4153-bb37-57af18ec9484","system_id":"levelo_inurba_marseille","lat":43.27654,"lon":5.38893,"is_reserved":false,"is_disabled":false,"rental_uris":{"android":"levelo://app?vid=aaf6b3b0-6fb9-4153-bb37-57af18ec9484","ios":"levelo://app?vid=aaf6b3b0-6fb9-4153-bb37-57af18ec9484"},"vehicle_type_id":"4","last_reported":1729491215,"current_range_meters":28000,"station_id":"ce4bhi12rcd13ifvqfo0","pricing_plan_id":"cebpf4jnsgd1na2vs0mg"},{"bike_id":"f59a9b71-873d-44f4-891e-235d78219f75","system_id":"levelo_inurba_marseille","lat":43.28704,"lon":5.39985,"is_reserved":false,"is_disabled":false,"rental_uris":{"android":"levelo://app?vid=f59a9b71-873d-44f4-891e-235d78219f75","ios":"levelo://app?vid=f59a9b71-873d-44f4-891e-235d78219f75"},"vehicle_type_id":"4","last_reported":1729491215,"current_range_meters":37600,"station_id":"ce4bho92rcd13ifvqh3g","pricing_plan_id":"cebpf4jnsgd1na2vs0mg"},{"bike_id":"04c86d4a-62fb-453f-808b-a915cc1e702c","system_id":"levelo_inurba_marseille","lat":43.29617,"lon":5.37727,"is_reserved":false,"is_disabled":false,"rental_uris":{"android":"levelo://app?vid=04c86d4a-62fb-453f-808b-a915cc1e702c","ios":"levelo://app?vid=04c86d4a-62fb-453f-808b-a915cc1e702c"},"vehicle_type_id":"4","last_reported":1729491215,"current_range_meters":30400,"station_id":"ce4bgi92rcd13ifvqb90","pricing_plan_id":"cebpf4jnsgd1na2vs0mg"},{"bike_id":"3cc23142-ca7d-4852-9da1-bbfe10687010","system_id":"levelo_inurba_marseille","lat":43.28418,"lon":5.34981,"is_reserved":false,"is_disabled":false,"rental_uris":{"android":"levelo://app?vid=3cc23142-ca7d-4852-9da1-bbfe10687010","ios":"levelo://app?vid=3cc23142-ca7d-4852-9da1-bbfe10687010"},"vehicle_type_id":"4","last_reported":1729491215,"current_range_meters":38000,"station_id":"ce4bhbh2rcd13ifvqepg","pricing_plan_id":"cebpf4jnsgd1na2vs0mg"},{"bike_id":"92d49266-4e64-4017-8b59-4b1b0cb8630d","system_id":"levelo_inurba_marseille","lat":43.31706,"lon":5.37774,"is_reserved":false,"is_disabled":false,"rental_uris":{"android":"levelo://app?vid=92d49266-4e64-4017-8b59-4b1b0cb8630d","ios":"levelo://app?vid=92d49266-4e64-4017-8b59-4b1b0cb8630d"},"vehicle_type_id":"4","last_reported":1729491215,"current_range_meters":38800,"station_id":"ce4bgth2rcd13ifvqch0","pricing_plan_id":"cebpf4jnsgd1na2vs0mg"},{"bike_id":"ca9652e1-b360-4039-a82c-ba9272ccce60","system_id":"levelo_inurba_marseille","lat":43.3175,"lon":5.39014,"is_reserved":false,"is_disabled":false,"rental_uris":{"android":"levelo://app?vid=ca9652e1-b360-4039-a82c-ba9272ccce60","ios":"levelo://app?vid=ca9652e1-b360-4039-a82c-ba9272ccce60"},"vehicle_type_id":"4","last_reported":1729491215,"current_range_meters":34800,"station_id":"ce4bhqp2rcd13ifvqhng","pricing_plan_id":"cebpf4jnsgd1na2vs0mg"},{"bike_id":"47b63cd4-9b71-4444-9b1f-7f87e780eac4","system_id":"levelo_inurba_marseille","lat":43.27945,"lon":5.41052,"is_reserved":false,"is_disabled":false,"rental_uris":{"android":"levelo://app?vid=47b63cd4-9b71-4444-9b1f-7f87e780eac4","ios":"levelo://app?vid=47b63cd4-9b71-4444-9b1f-7f87e780eac4"},"vehicle_type_id":"4","last_reported":1729491215,"current_range_meters":36800,"station_id":"ce4bhnp2rcd13ifvqh0g","pricing_plan_id":"cebpf4jnsgd1na2vs0mg"},{"bike_id":"c0f84289-33c8-4b55-a781-e66f1d1b3cf4","system_id":"levelo_inurba_marseille","lat":43.28473,"lon":5.38414,"is_reserved":false,"is_disabled":false,"rental_uris":{"android":"levelo://app?vid=c0f84289-33c8-4b55-a781-e66f1d1b3cf4","ios":"levelo://app?vid=c0f84289-33c8-4b55-a781-e66f1d1b3cf4"},"vehicle_type_id":"4","last_reported":1729491215,"current_range_meters":38800,"station_id":"ce4bh512rcd13ifvqe3g","pricing_plan_id":"cebpf4jnsgd1na2vs0mg"},{"bike_id":"bcd13f45-d4b3-4408-b277-a2e019e044b9","system_id":"levelo_inurba_marseille","lat":43.32478,"lon":5.3656,"is_reserved":false,"is_disabled":false,"rental_uris":{"android":"levelo://app?vid=bcd13f45-d4b3-4408-b277-a2e019e044b9","ios":"levelo://app?vid=bcd13f45-d4b3-4408-b277-a2e019e044b9"},"vehicle_type_id":"4","last_reported":1729491215,"current_range_meters":30800,"station_id":"ce4bhs12rcd13ifvqhvg","pricing_plan_id":"cebpf4jnsgd1na2vs0mg"},{"bike_id":"0582a7ba-f920-4c06-be63-feebf472884c","system_id":"levelo_inurba_marseille","lat":43.29568,"lon":5.37501,"is_reserved":false,"is_disabled":false,"rental_uris":{"android":"levelo://app?vid=0582a7ba-f920-4c06-be63-feebf472884c","ios":"levelo://app?vid=0582a7ba-f920-4c06-be63-feebf472884c"},"vehicle_type_id":"4","last_reported":1729491215,"current_range_meters":38800,"station_id":"ce4bgh92rcd13ifvqb50","pricing_plan_id":"cebpf4jnsgd1na2vs0mg"},{"bike_id":"8c489d6a-8c5d-4ace-8ce1-8ade01fdb678","system_id":"levelo_inurba_marseille","lat":43.26688,"lon":5.38272,"is_reserved":false,"is_disabled":false,"rental_uris":{"android":"levelo://app?vid=8c489d6a-8c5d-4ace-8ce1-8ade01fdb678","ios":"levelo://app?vid=8c489d6a-8c5d-4ace-8ce1-8ade01fdb678"},"vehicle_type_id":"4","last_reported":1729491215,"current_range_meters":38000,"station_id":"ce4bhg92rcd13ifvqf90","pricing_plan_id":"cebpf4jnsgd1na2vs0mg"},{"bike_id":"af78bee4-9a36-415e-bd11-17b22a92df7a","system_id":"levelo_inurba_marseille","lat":43.29303,"lon":5.37455,"is_reserved":false,"is_disabled":false,"rental_uris":{"android":"levelo://app?vid=af78bee4-9a36-415e-bd11-17b22a92df7a","ios":"levelo://app?vid=af78bee4-9a36-415e-bd11-17b22a92df7a"},"vehicle_type_id":"4","last_reported":1729491215,"current_range_meters":37600,"station_id":"ce4bgi12rcd13ifvqb70","pricing_plan_id":"cebpf4jnsgd1na2vs0mg"},{"bike_id":"4eeca87a-2d31-457e-ab85-83a25ab497de","system_id":"levelo_inurba_marseille","lat":43.28838,"lon":5.39324,"is_reserved":false,"is_disabled":false,"rental_uris":{"android":"levelo://app?vid=4eeca87a-2d31-457e-ab85-83a25ab497de","ios":"levelo://app?vid=4eeca87a-2d31-457e-ab85-83a25ab497de"},"vehicle_type_id":"4","last_reported":1729491215,"current_range_meters":38800,"station_id":"ce4bh2p2rcd13ifvqdi0","pricing_plan_id":"cebpf4jnsgd1na2vs0mg"},{"bike_id":"13a9ca34-f47b-4bac-bc4b-8ad80399645b","system_id":"levelo_inurba_marseille","lat":43.33724,"lon":5.3918,"is_reserved":false,"is_disabled":false,"rental_uris":{"android":"levelo://app?vid=13a9ca34-f47b-4bac-bc4b-8ad80399645b","ios":"levelo://app?vid=13a9ca34-f47b-4bac-bc4b-8ad80399645b"},"vehicle_type_id":"4","last_reported":1729491215,"current_range_meters":38400,"station_id":"ce4bhr92rcd13ifvqhsg","pricing_plan_id":"cebpf4jnsgd1na2vs0mg"},{"bike_id":"2e03f4fe-b964-41c0-b585-2a6fe4a2e513","system_id":"levelo_inurba_marseille","lat":43.31062,"lon":5.40082,"is_reserved":false,"is_disabled":false,"rental_uris":{"android":"levelo://app?vid=2e03f4fe-b964-41c0-b585-2a6fe4a2e513","ios":"levelo://app?vid=2e03f4fe-b964-41c0-b585-2a6fe4a2e513"},"vehicle_type_id":"4","last_reported":1729491215,"current_range_meters":38000,"station_id":"","pricing_plan_id":"cebpf4jnsgd1na2vs0mg"},{"bike_id":"93a94103-19a0-447f-ad9d-6cb5f148a9ff","system_id":"levelo_inurba_marseille","lat":43.31338,"lon":5.36714,"is_reserved":false,"is_disabled":false,"rental_uris":{"android":"levelo://app?vid=93a94103-19a0-447f-ad9d-6cb5f148a9ff","ios":"levelo://app?vid=93a94103-19a0-447f-ad9d-6cb5f148a9ff"},"vehicle_type_id":"4","last_reported":1729491215,"current_range_meters":19200,"station_id":"ce4bgr92rcd13ifvqc6g","pricing_plan_id":"cebpf4jnsgd1na2vs0mg"},{"bike_id":"c10692c8-3db6-40f0-8688-319564c72c72","system_id":"levelo_inurba_marseille","lat":43.29137,"lon":5.380378,"is_reserved":false,"is_disabled":false,"rental_uris":{"android":"levelo://app?vid=c10692c8-3db6-40f0-8688-319564c72c72","ios":"levelo://app?vid=c10692c8-3db6-40f0-8688-319564c72c72"},"vehicle_type_id":"4","last_reported":1729491215,"current_range_meters":25600,"station_id":"ce4bh4p2rcd13ifvqe1g","pricing_plan_id":"cebpf4jnsgd1na2vs0mg"},{"bike_id":"09c742b9-67aa-44f1-b833-7cf3d42021e8","system_id":"levelo_inurba_marseille","lat":43.2557,"lon":5.38225,"is_reserved":false,"is_disabled":false,"rental_uris":{"android":"levelo://app?vid=09c742b9-67aa-44f1-b833-7cf3d42021e8","ios":"levelo://app?vid=09c742b9-67aa-44f1-b833-7cf3d42021e8"},"vehicle_type_id":"4","last_reported":1729491215,"current_range_meters":33600,"station_id":"ce4bhih2rcd13ifvqfs0","pricing_plan_id":"cebpf4jnsgd1na2vs0mg"},{"bike_id":"1f29e96e-683e-467b-bb06-4f743ae4dcdf","system_id":"levelo_inurba_marseille","lat":43.31484,"lon":5.37292,"is_reserved":false,"is_disabled":false,"rental_uris":{"android":"levelo://app?vid=1f29e96e-683e-467b-bb06-4f743ae4dcdf","ios":"levelo://app?vid=1f29e96e-683e-467b-bb06-4f743ae4dcdf"},"vehicle_type_id":"4","last_reported":1729491215,"current_range_meters":39200,"station_id":"ce4bgt12rcd13ifvqcd0","pricing_plan_id":"cebpf4jnsgd1na2vs0mg"},{"bike_id":"47a66de3-f83f-4960-b274-89d7e6705640","system_id":"levelo_inurba_marseille","lat":43.29038,"lon":5.39962,"is_reserved":false,"is_disabled":false,"rental_uris":{"android":"levelo://app?vid=47a66de3-f83f-4960-b274-89d7e6705640","ios":"levelo://app?vid=47a66de3-f83f-4960-b274-89d7e6705640"},"vehicle_type_id":"4","last_reported":1729491215,"current_range_meters":38400,"station_id":"ce4bh392rcd13ifvqdm0","pricing_plan_id":"cebpf4jnsgd1na2vs0mg"},{"bike_id":"a4988356-8192-430a-8cc6-0d4d4957e38b","system_id":"levelo_inurba_marseille","lat":43.30794,"lon":5.43521,"is_reserved":false,"is_disabled":false,"rental_uris":{"android":"levelo://app?vid=a4988356-8192-430a-8cc6-0d4d4957e38b","ios":"levelo://app?vid=a4988356-8192-430a-8cc6-0d4d4957e38b"},"vehicle_type_id":"4","last_reported":1729491215,"current_range_meters":28000,"station_id":"ce4bhph2rcd13ifvqheg","pricing_plan_id":"cebpf4jnsgd1na2vs0mg"},{"bike_id":"304e116c-22b7-4fec-8df3-5316f5ceb0f4","system_id":"levelo_inurba_marseille","lat":43.33726,"lon":5.39179,"is_reserved":false,"is_disabled":false,"rental_uris":{"android":"levelo://app?vid=304e116c-22b7-4fec-8df3-5316f5ceb0f4","ios":"levelo://app?vid=304e116c-22b7-4fec-8df3-5316f5ceb0f4"},"vehicle_type_id":"4","last_reported":1729491215,"current_range_meters":38800,"station_id":"ce4bhr92rcd13ifvqhsg","pricing_plan_id":"cebpf4jnsgd1na2vs0mg"},{"bike_id":"8146dc5b-11ba-4228-80a8-1d4f45ec3197","system_id":"levelo_inurba_marseille","lat":43.30143,"lon":5.3808,"is_reserved":false,"is_disabled":false,"rental_uris":{"android":"levelo://app?vid=8146dc5b-11ba-4228-80a8-1d4f45ec3197","ios":"levelo://app?vid=8146dc5b-11ba-4228-80a8-1d4f45ec3197"},"vehicle_type_id":"4","last_reported":1729491215,"current_range_meters":35600,"station_id":"ce4bgjp2rcd13ifvqbh0","pricing_plan_id":"cebpf4jnsgd1na2vs0mg"},{"bike_id":"1d1c9d6e-8229-48fa-bac0-60ce590ad3cb","system_id":"levelo_inurba_marseille","lat":43.30144,"lon":5.38075,"is_reserved":false,"is_disabled":false,"rental_uris":{"android":"levelo://app?vid=1d1c9d6e-8229-48fa-bac0-60ce590ad3cb","ios":"levelo://app?vid=1d1c9d6e-8229-48fa-bac0-60ce590ad3cb"},"vehicle_type_id":"4","last_reported":1729491215,"current_range_meters":38000,"station_id":"ce4bgjp2rcd13ifvqbh0","pricing_plan_id":"cebpf4jnsgd1na2vs0mg"},{"bike_id":"625f83c5-1526-4ec4-b204-6de1b5e62742","system_id":"levelo_inurba_marseille","lat":43.337444,"lon":5.374475,"is_reserved":false,"is_disabled":false,"rental_uris":{"android":"levelo://app?vid=625f83c5-1526-4ec4-b204-6de1b5e62742","ios":"levelo://app?vid=625f83c5-1526-4ec4-b204-6de1b5e62742"},"vehicle_type_id":"4","last_reported":1729491215,"current_range_meters":31200,"station_id":"","pricing_plan_id":"cebpf4jnsgd1na2vs0mg"},{"bike_id":"f1d0119e-3fe3-411c-ac9b-3f7a6a4fa987","system_id":"levelo_inurba_marseille","lat":43.33601,"lon":5.41012,"is_reserved":false,"is_disabled":false,"rental_uris":{"android":"levelo://app?vid=f1d0119e-3fe3-411c-ac9b-3f7a6a4fa987","ios":"levelo://app?vid=f1d0119e-3fe3-411c-ac9b-3f7a6a4fa987"},"vehicle_type_id":"4","last_reported":1729491215,"current_range_meters":38800,"station_id":"ce4bhqh2rcd13ifvqhmg","pricing_plan_id":"cebpf4jnsgd1na2vs0mg"},{"bike_id":"8682c74e-eb4a-4a10-81a7-668f58678ba5","system_id":"levelo_inurba_marseille","lat":43.31107,"lon":5.37776,"is_reserved":false,"is_disabled":false,"rental_uris":{"android":"levelo://app?vid=8682c74e-eb4a-4a10-81a7-668f58678ba5","ios":"levelo://app?vid=8682c74e-eb4a-4a10-81a7-668f58678ba5"},"vehicle_type_id":"4","last_reported":1729491215,"current_range_meters":28400,"station_id":"ce4bgt92rcd13ifvqcg0","pricing_plan_id":"cebpf4jnsgd1na2vs0mg"},{"bike_id":"de334b2b-313d-4140-be56-b302303a5bb6","system_id":"levelo_inurba_marseille","lat":43.30538,"lon":5.36554,"is_reserved":false,"is_disabled":false,"rental_uris":{"android":"levelo://app?vid=de334b2b-313d-4140-be56-b302303a5bb6","ios":"levelo://app?vid=de334b2b-313d-4140-be56-b302303a5bb6"},"vehicle_type_id":"4","last_reported":1729491215,"current_range_meters":38800,"station_id":"ce4bgs12rcd13ifvqcag","pricing_plan_id":"cebpf4jnsgd1na2vs0mg"},{"bike_id":"be50e200-7523-4429-ad85-273908308ab7","system_id":"levelo_inurba_marseille","lat":43.23954,"lon":5.36634,"is_reserved":false,"is_disabled":false,"rental_uris":{"android":"levelo://app?vid=be50e200-7523-4429-ad85-273908308ab7","ios":"levelo://app?vid=be50e200-7523-4429-ad85-273908308ab7"},"vehicle_type_id":"4","last_reported":1729491215,"current_range_meters":37600,"station_id":"ce4bhi12rcd13ifvqfp0","pricing_plan_id":"cebpf4jnsgd1na2vs0mg"},{"bike_id":"5d9d5d04-1e50-4f13-be2b-e2cf713ca5b6","system_id":"levelo_inurba_marseille","lat":43.2869,"lon":5.39988,"is_reserved":false,"is_disabled":false,"rental_uris":{"android":"levelo://app?vid=5d9d5d04-1e50-4f13-be2b-e2cf713ca5b6","ios":"levelo://app?vid=5d9d5d04-1e50-4f13-be2b-e2cf713ca5b6"},"vehicle_type_id":"4","last_reported":1729491215,"current_range_meters":17600,"station_id":"ce4bho92rcd13ifvqh3g","pricing_plan_id":"cebpf4jnsgd1na2vs0mg"},{"bike_id":"513e3b19-d94c-4fbd-a1c5-c3226b509c4e","system_id":"levelo_inurba_marseille","lat":43.27382,"lon":5.3626,"is_reserved":false,"is_disabled":false,"rental_uris":{"android":"levelo://app?vid=513e3b19-d94c-4fbd-a1c5-c3226b509c4e","ios":"levelo://app?vid=513e3b19-d94c-4fbd-a1c5-c3226b509c4e"},"vehicle_type_id":"4","last_reported":1729491215,"current_range_meters":38800,"station_id":"ce4bhbh2rcd13ifvqeo0","pricing_plan_id":"cebpf4jnsgd1na2vs0mg"},{"bike_id":"18bc1f48-905d-4d2d-86f8-88e34df522af","system_id":"levelo_inurba_marseille","lat":43.3136,"lon":5.38492,"is_reserved":false,"is_disabled":false,"rental_uris":{"android":"levelo://app?vid=18bc1f48-905d-4d2d-86f8-88e34df522af","ios":"levelo://app?vid=18bc1f48-905d-4d2d-86f8-88e34df522af"},"vehicle_type_id":"4","last_reported":1729491215,"current_range_meters":38800,"station_id":"ce4bgt92rcd13ifvqcf0","pricing_plan_id":"cebpf4jnsgd1na2vs0mg"},{"bike_id":"ec410b17-864e-49b1-89fa-4c6d52662be9","system_id":"levelo_inurba_marseille","lat":43.30538,"lon":5.36709,"is_reserved":false,"is_disabled":false,"rental_uris":{"android":"levelo://app?vid=ec410b17-864e-49b1-89fa-4c6d52662be9","ios":"levelo://app?vid=ec410b17-864e-49b1-89fa-4c6d52662be9"},"vehicle_type_id":"4","last_reported":1729491215,"current_range_meters":38800,"station_id":"ce4bgrp2rcd13ifvqc9g","pricing_plan_id":"cebpf4jnsgd1na2vs0mg"},{"bike_id":"056484fe-5a6c-4f7d-86b8-9b977e1e6184","system_id":"levelo_inurba_marseille","lat":43.29552,"lon":5.42285,"is_reserved":false,"is_disabled":false,"rental_uris":{"android":"levelo://app?vid=056484fe-5a6c-4f7d-86b8-9b977e1e6184","ios":"levelo://app?vid=056484fe-5a6c-4f7d-86b8-9b977e1e6184"},"vehicle_type_id":"4","last_reported":1729491215,"current_range_meters":38800,"station_id":"ce4bhph2rcd13ifvqhdg","pricing_plan_id":"cebpf4jnsgd1na2vs0mg"},{"bike_id":"63b34904-8ec1-4ffa-976c-451501ab1d43","system_id":"levelo_inurba_marseille","lat":43.3066,"lon":5.4009,"is_reserved":false,"is_disabled":false,"rental_uris":{"android":"levelo://app?vid=63b34904-8ec1-4ffa-976c-451501ab1d43","ios":"levelo://app?vid=63b34904-8ec1-4ffa-976c-451501ab1d43"},"vehicle_type_id":"4","last_reported":1729491215,"current_range_meters":38400,"station_id":"ce4bh112rcd13ifvqda0","pricing_plan_id":"cebpf4jnsgd1na2vs0mg"},{"bike_id":"02fa61ee-e395-4958-ad39-ec7ce54ae98f","system_id":"levelo_inurba_marseille","lat":43.2987,"lon":5.38919,"is_reserved":false,"is_disabled":false,"rental_uris":{"android":"levelo://app?vid=02fa61ee-e395-4958-ad39-ec7ce54ae98f","ios":"levelo://app?vid=02fa61ee-e395-4958-ad39-ec7ce54ae98f"},"vehicle_type_id":"4","last_reported":1729491215,"current_range_meters":17200,"station_id":"","pricing_plan_id":"cebpf4jnsgd1na2vs0mg"},{"bike_id":"b9fc0a82-df3c-4ed5-9778-4d11b961e3ff","system_id":"levelo_inurba_marseille","lat":43.326591,"lon":5.409936,"is_reserved":false,"is_disabled":false,"rental_uris":{"android":"levelo://app?vid=b9fc0a82-df3c-4ed5-9778-4d11b961e3ff","ios":"levelo://app?vid=b9fc0a82-df3c-4ed5-9778-4d11b961e3ff"},"vehicle_type_id":"4","last_reported":1729491215,"current_range_meters":18000,"station_id":"ce4bhpp2rcd13ifvqhgg","pricing_plan_id":"cebpf4jnsgd1na2vs0mg"},