{"last_updated":1732601629,"ttl":60,"version":"2.2","data":{"bikes":[{"bike_id":"d9c28aa4-81a4-4d13-8fc9-100bb4e3d7e2","system_id":"levelo_inurba_marseille","lat":43.27411,"lon":5.389583,"is_reserved":false,"is_disabled":true,"rental_uris":{"android":"levelo://app?vid=d9c28aa4-81a4-4d13-8fc9-100bb4e3d7e2","ios":"levelo://app?vid=d9c28aa4-81a4-4d13-8fc9-100bb4e3d7e2"},"vehicle_type_id":"4","last_reported":1732601629,"current_range_meters":1200,"station_id":"","pricing_plan_id":"cebpf4jnsgd1na2vs0mg"},{"bike_id":"b6977ecb-487d-42db-872e-554aa500f415","system_id":"levelo_inurba_marseille","lat":43.307809,"lon":5.37649,"is_reserved":false,"is_disabled":false,"rental_uris":{"android":"levelo://app?vid=b6977ecb-487d-42db-872e-554aa500f415","ios":"levelo://app?vid=b6977ecb-487d-42db-872e-554aa500f415"},"vehicle_type_id":"4","last_reported":1732601629,"current_range_meters":19600,"station_id":"ce4bgv92rcd13ifvqcq0","pricing_plan_id":"cebpf4jnsgd1na2vs0mg"},{"bike_id":"151bf565-f6f9-433d-b59b-0475e2cec808","system_id":"levelo_inurba_marseille","lat":43.279981,"lon":5.400245,"is_reserved":false,"is_disabled":false,"rental_uris":{"android":"levelo://app?vid=151bf565-f6f9-433d-b59b-0475e2cec808","ios":"levelo://app?vid=151bf565-f6f9-433d-b59b-0475e2cec808"},"vehicle_type_id":"4","last_reported":1732601629,"current_range_meters":38000,"station_id":"ce4bho92rcd13ifvqh4g","pricing_plan_id":"cebpf4jnsgd1na2vs0mg"},{"bike_id":"0cdb76ca-4f28-47de-a451-d6d1d0a7e5d7","system_id":"levelo_inurba_marseille","lat":43.34142,"lon":5.4092,"is_reserved":false,"is_disabled":false,"rental_uris":{"android":"levelo://app?vid=0cdb76ca-4f28-47de-a451-d6d1d0a7e5d7","ios":"levelo://app?vid=0cdb76ca-4f28-47de-a451-d6d1d0a7e5d7"},"vehicle_type_id":"4","last_reported":1732601629,"current_range_meters":14400,"station_id":"ce4bhqh2rcd13ifvqhlg","pricing_plan_id":"cebpf4jnsgd1na2vs0mg"},{"bike_id":"752eed5e-603d-4f74-9a33-0e32f2d79f14","system_id":"levelo_inurba_marseille","lat":43.30554,"lon":5.36728,"is_reserved":false,"is_disabled":false,"rental_uris":{"android":"levelo://app?vid=752eed5e-603d-4f74-9a33-0e32f2d79f14","ios":"levelo://app?vid=752eed5e-603d-4f74-9a33-0e32f2d79f14"},"vehicle_type_id":"4","last_reported":1732601629,"current_range_meters":33600,"station_id":"ce4bgrp2rcd13ifvqc9g","pricing_plan_id":"cebpf4jnsgd1na2vs0mg"},{"bike_id":"3b5d359f-2177-47e3-8926-ad81c70bf5cf","system_id":"levelo_inurba_marseille","lat":43.32545,"lon":5.41446,"is_reserved":false,"is_disabled":false,"rental_uris":{"android":"levelo://app?vid=3b5d359f-2177-47e3-8926-ad81c70bf5cf","ios":"levelo://app?vid=3b5d359f-2177-47e3-8926-ad81c70bf5cf"},"vehicle_type_id":"4","last_reported":1732601629,"current_range_meters":37600,"station_id":"ce4bhq12rcd13ifvqhhg","pricing_plan_id":"cebpf4jnsgd1na2vs0mg"},{"bike_id":"a3cf36da-4a50-4873-9af4-6c5c10fd4957","system_id":"levelo_inurba_marseille","lat":43.28612,"lon":5.35107,"is_reserved":false,"is_disabled":false,"rental_uris":{"android":"levelo://app?vid=a3cf36da-4a50-4873-9af4-6c5c10fd4957","ios":"levelo://app?vid=a3cf36da-4a50-4873-9af4-6c5c10fd4957"},"vehicle_type_id":"4","last_reported":1732601629,"current_range_meters":12800,"station_id":"ce4bhch2rcd13ifvqeug","pricing_plan_id":"cebpf4jnsgd1na2vs0mg"},{"bike_id":"df684e51-aa3f-4e9e-a9c3-f93d8795ee2b","system_id":"levelo_inurba_marseille","lat":43.28667,"lon":5.36355,"is_reserved":false,"is_disabled":false,"rental_uris":{"android":"levelo://app?vid=df684e51-aa3f-4e9e-a9c3-f93d8795ee2b","ios":"levelo://app?vid=df684e51-aa3f-4e9e-a9c3-f93d8795ee2b"},"vehicle_type_id":"4","last_reported":1732601629,"current_range_meters":38000,"station_id":"ce4bhah2rcd13ifvqej0","pricing_plan_id":"cebpf4jnsgd1na2vs0mg"},{"bike_id":"9e57b5e8-8713-4e07-97e4-b11e1067565f","system_id":"levelo_inurba_marseille","lat":43.2886,"lon":5.35841,"is_reserved":false,"is_disabled":false,"rental_uris":{"android":"levelo://app?vid=9e57b5e8-8713-4e07-97e4-b11e1067565f","ios":"levelo://app?vid=9e57b5e8-8713-4e07-97e4-b11e1067565f"},"vehicle_type_id":"4","last_reported":1732601629,"current_range_meters":9600,"station_id":"ce4bhb12rcd13ifvqem0","pricing_plan_id":"cebpf4jnsgd1na2vs0mg"},{"bike_id":"573a48ed-5c69-476f-8216-366227186e18","system_id":"levelo_inurba_marseille","lat":43.23544,"lon":5.39899,"is_reserved":false,"is_disabled":true,"rental_uris":{"android":"levelo://app?vid=573a48ed-5c69-476f-8216-366227186e18","ios":"levelo://app?vid=573a48ed-5c69-476f-8216-366227186e18"},"vehicle_type_id":"4","last_reported":1732601629,"current_range_meters":400,"station_id":"","pricing_plan_id":"cebpf4jnsgd1na2vs0mg"},{"bike_id":"aff4222d-4134-4457-90df-b3debcb75bce","system_id":"levelo_inurba_marseille","lat":43.29532,"lon":5.37504,"is_reserved":false,"is_disabled":true,"rental_uris":{"android":"levelo://app?vid=aff4222d-4134-4457-90df-b3debcb75bce","ios":"levelo://app?vid=aff4222d-4134-4457-90df-b3debcb75bce"},"vehicle_type_id":"4","last_reported":1732601629,"current_range_meters":36400,"station_id":"ce4bgkp2rcd13ifvqbmg","pricing_plan_id":"cebpf4jnsgd1na2vs0mg"},{"bike_id":"cdfca92b-e20a-48b9-97eb-ccd390476149","system_id":"levelo_inurba_marseille","lat":43.30153,"lon":5.3808,"is_reserved":false,"is_disabled":false,"rental_uris":{"android":"levelo://app?vid=cdfca92b-e20a-48b9-97eb-ccd390476149","ios":"levelo://app?vid=cdfca92b-e20a-48b9-97eb-ccd390476149"},"vehicle_type_id":"4","last_reported":1732601629,"current_range_meters":34000,"station_id":"ce4bgjp2rcd13ifvqbh0","pricing_plan_id":"cebpf4jnsgd1na2vs0mg"},{"bike_id":"61ae9948-e0e5-4ce3-b06a-504522b4bbcc","system_id":"levelo_inurba_marseille","lat":43.32362,"lon":5.38886,"is_reserved":false,"is_disabled":false,"rental_uris":{"android":"levelo://app?vid=61ae9948-e0e5-4ce3-b06a-504522b4bbcc","ios":"levelo://app?vid=61ae9948-e0e5-4ce3-b06a-504522b4bbcc"},"vehicle_type_id":"4","last_reported":1732601629,"current_range_meters":22000,"station_id":"ce4bhqp2rcd13ifvqhog","pricing_plan_id":"cebpf4jnsgd1na2vs0mg"},{"bike_id":"646edd92-95b3-4512-9884-e642daa122c9","system_id":"levelo_inurba_marseille","lat":43.28456,"lon":5.3591,"is_reserved":false,"is_disabled":false,"rental_uris":{"android":"levelo://app?vid=646edd92-95b3-4512-9884-e642daa122c9","ios":"levelo://app?vid=646edd92-95b3-4512-9884-e642daa122c9"},"vehicle_type_id":"4","last_reported":1732601629,"current_range_meters":16800,"station_id":"ce4bhah2rcd13ifvqei0","pricing_plan_id":"cebpf4jnsgd1na2vs0mg"},{"bike_id":"d193aa86-0135-484f-939b-44f4ef009b37","system_id":"levelo_inurba_marseille","lat":43.25868,"lon":5.39901,"is_reserved":false,"is_disabled":false,"rental_uris":{"android":"levelo://app?vid=d193aa86-0135-484f-939b-44f4ef009b37","ios":"levelo://app?vid=d193aa86-0135-484f-939b-44f4ef009b37"},"vehicle_type_id":"4","last_reported":1732601629,"current_range_meters":38800,"station_id":"ce4bhl92rcd13ifvqghg","pricing_plan_id":"cebpf4jnsgd1na2vs0mg"},{"bike_id":"75245aba-bdc7-40ee-bff8-ee295fc88ef3","system_id":"levelo_inurba_marseille","lat":43.30141,"lon":5.38079,"is_reserved":false,"is_disabled":false,"rental_uris":{"android":"levelo://app?vid=75245aba-bdc7-40ee-bff8-ee295fc88ef3","ios":"levelo://app?vid=75245aba-bdc7-40ee-bff8-ee295fc88ef3"},"vehicle_type_id":"4","last_reported":1732601629,"current_range_meters":30000,"station_id":"ce4bgjp2rcd13ifvqbh0","pricing_plan_id":"cebpf4jnsgd1na2vs0mg"},{"bike_id":"2c523655-0fb4-48b1-8ebe-e68817f5cb10","system_id":"levelo_inurba_marseille","lat":43.23195,"lon":5.35562,"is_reserved":false,"is_disabled":false,"rental_uris":{"android":"levelo://app?vid=2c523655-0fb4-48b1-8ebe-e68817f5cb10","ios":"levelo://app?vid=2c523655-0fb4-48b1-8ebe-e68817f5cb10"},"vehicle_type_id":"4","last_reported":1732601629,"current_range_meters":15200,"station_id":"ce4bhu92rcd13ifvqi70","pricing_plan_id":"cebpf4jnsgd1na2vs0mg"},{"bike_id":"59735367-1cdb-4821-a42a-d45ca06004e9","system_id":"levelo_inurba_marseille","lat":43.27947,"lon":5.41038,"is_reserved":false,"is_disabled":false,"rental_uris":{"android":"levelo://app?vid=59735367-1cdb-4821-a42a-d45ca06004e9","ios":"levelo://app?vid=59735367-1cdb-4821-a42a-d45ca06004e9"},"vehicle_type_id":"4","last_reported":1732601629,"current_range_meters":8400,"station_id":"ce4bhnp2rcd13ifvqh0g","pricing_plan_id":"cebpf4jnsgd1na2vs0mg"},{"bike_id":"8584c482-b16b-4a75-9bff-7f120e841ad3","system_id":"levelo_inurba_marseille","lat":43.2781,"lon":5.40711,"is_reserved":false,"is_disabled":false,"rental_uris":{"android":"levelo://app?vid=8584c482-b16b-4a75-9bff-7f120e841ad3","ios":"levelo://app?vid=8584c482-b16b-4a75-9bff-7f120e841ad3"},"vehicle_type_id":"4","last_reported":1732601629,"current_range_meters":30400,"station_id":"ce4bhnh2rcd13ifvqgtg","pricing_plan_id":"cebpf4jnsgd1na2vs0mg"},{"bike_id":"9ba7fbc2-67dd-47f3-b9f0-2830fbc63bb7","system_id":"levelo_inurba_marseille","lat":43.280833,"lon":5.396583,"is_reserved":false,"is_disabled":false,"rental_uris":{"android":"levelo://app?vid=9ba7fbc2-67dd-47f3-b9f0-2830fbc63bb7","ios":"levelo://app?vid=9ba7fbc2-67dd-47f3-b9f0-2830fbc63bb7"},"vehicle_type_id":"4","last_reported":1732601629,"current_range_meters":38400,"station_id":"ce4bho12rcd13ifvqh2g","pricing_plan_id":"cebpf4jnsgd1na2vs0mg"},{"bike_id":"38e5dd59-c780-4856-8550-b20273f4e496","system_id":"levelo_inurba_marseille","lat":43.30426,"lon":5.38907,"is_reserved":false,"is_disabled":true,"rental_uris":{"android":"levelo://app?vid=38e5dd59-c780-4856-8550-b20273f4e496","ios":"levelo://app?vid=38e5dd59-c780-4856-8550-b20273f4e496"},"vehicle_type_id":"4","last_reported":1732601629,"current_range_meters":27200,"station_id":"ce4bgk12rcd13ifvqbi0","pricing_plan_id":"cebpf4jnsgd1na2vs0mg"},{"bike_id":"13b9cb9d-56fe-4b04-9eff-e823147a3b91","system_id":"levelo_inurba_marseille","lat":43.31991,"lon":5.38155,"is_reserved":false,"is_disabled":false,"rental_uris":{"android":"levelo://app?vid=13b9cb9d-56fe-4b04-9eff-e823147a3b91","ios":"levelo://app?vid=13b9cb9d-56fe-4b04-9eff-e823147a3b91"},"vehicle_type_id":"4","last_reported":1732601629,"current_range_meters":38000,"station_id":"ce4bhr12rcd13ifvqhpg","pricing_plan_id":"cebpf4jnsgd1na2vs0mg"},{"bike_id":"39b11e64-2962-470f-8250-90fe18d4a5f4","system_id":"levelo_inurba_marseille","lat":43.247449,"lon":5.392372,"is_reserved":false,"is_disabled":true,"rental_uris":{"android":"levelo://app?vid=39b11e64-2962-470f-8250-90fe18d4a5f4","ios":"levelo://app?vid=39b11e64-2962-470f-8250-90fe18d4a5f4"},"vehicle_type_id":"4","last_reported":1732601629,"current_range_meters":0,"station_id":"","pricing_plan_id":"cebpf4jnsgd1na2vs0mg"},{"bike_id":"0c3072bf-5ba2-43f9-b8e1-a21d07ab5883","system_id":"levelo_inurba_marseille","lat":43.23189,"lon":5.39981,"is_reserved":false,"is_disabled":false,"rental_uris":{"android":"levelo://app?vid=0c3072bf-5ba2-43f9-b8e1-a21d07ab5883","ios":"levelo://app?vid=0c3072bf-5ba2-43f9-b8e1-a21d07ab5883"},"vehicle_type_id":"4","last_reported":1732601629,"current_range_meters":38000,"station_id":"ce4bhn12rcd13ifvqgqg","pricing_plan_id":"cebpf4jnsgd1na2vs0mg"},{"bike_id":"2afa3bd9-75ff-494d-92c0-06bc4a273d97","system_id":"levelo_inurba_marseille","lat":43.284809,"lon":5.384247,"is_reserved":false,"is_disabled":true,"rental_uris":{"android":"levelo://app?vid=2afa3bd9-75ff-494d-92c0-06bc4a273d97","ios":"levelo://app?vid=2afa3bd9-75ff-494d-92c0-06bc4a273d97"},"vehicle_type_id":"4","last_reported":1732601629,"current_range_meters":2000,"station_id":"ce4bh512rcd13ifvqe3g","pricing_plan_id":"cebpf4jnsgd1na2vs0mg"},{"bike_id":"a6a25f36-b0ae-4164-84db-db959750c696","system_id":"levelo_inurba_marseille","lat":43.24539,"lon":5.37342,"is_reserved":false,"is_disabled":true,"rental_uris":{"android":"levelo://app?vid=a6a25f36-b0ae-4164-84db-db959750c696","ios":"levelo://app?vid=a6a25f36-b0ae-4164-84db-db959750c696"},"vehicle_type_id":"4","last_reported":1732601629,"current_range_meters":25200,"station_id":"","pricing_plan_id":"cebpf4jnsgd1na2vs0mg"},{"bike_id":"16e1ec9a-67a5-4d62-9832-b3c1ce9ebe56","system_id":"levelo_inurba_marseille","lat":43.28869,"lon":5.35837,"is_reserved":false,"is_disabled":false,"rental_uris":{"android":"levelo://app?vid=16e1ec9a-67a5-4d62-9832-b3c1ce9ebe56","ios":"levelo://app?vid=16e1ec9a-67a5-4d62-9832-b3c1ce9ebe56"},"vehicle_type_id":"4","last_reported":1732601629,"current_range_meters":25200,"station_id":"ce4bhb12rcd13ifvqem0","pricing_plan_id":"cebpf4jnsgd1na2vs0mg"},{"bike_id":"5857cce5-6372-4852-894b-f3738389bfc8","system_id":"levelo_inurba_marseille","lat":43.3016,"lon":5.38075,"is_reserved":false,"is_disabled":false,"rental_uris":{"android":"levelo://app?vid=5857cce5-6372-4852-894b-f3738389bfc8","ios":"levelo://app?vid=5857cce5-6372-4852-894b-f3738389bfc8"},"vehicle_type_id":"4","last_reported":1732601629,"current_range_meters":28000,"station_id":"ce4bgjp2rcd13ifvqbh0","pricing_plan_id":"cebpf4jnsgd1na2vs0mg"},{"bike_id":"436dd976-416d-469e-afba-0c5538b79c29","system_id":"levelo_inurba_marseille","lat":43.25197,"lon":5.39133,"is_reserved":false,"is_disabled":true,"rental_uris":{"android":"levelo://app?vid=436dd976-416d-469e-afba-0c5538b79c29","ios":"levelo://app?vid=436dd976-416d-469e-afba-0c5538b79c29"},"vehicle_type_id":"4","last_reported":1732601629,"current_range_meters":0,"station_id":"","pricing_plan_id":"cebpf4jnsgd1na2vs0mg"},{"bike_id":"82586064-cbcb-4a47-a1f0-a253bb543dcc","system_id":"levelo_inurba_marseille","lat":43.24671,"lon":5.38184,"is_reserved":false,"is_disabled":false,"rental_uris":{"android":"levelo://app?vid=82586064-cbcb-4a47-a1f0-a253bb543dcc","ios":"levelo://app?vid=82586064-cbcb-4a47-a1f0-a253bb543dcc"},"vehicle_type_id":"4","last_reported":1732601629,"current_range_meters":12000,"station_id":"ce4bhih2rcd13ifvqfr0","pricing_plan_id":"cebpf4jnsgd1na2vs0mg"},{"bike_id":"119f8df6-9087-457a-86a8-486b1b871827","system_id":"levelo_inurba_marseille","lat":43.306,"lon":5.37227,"is_reserved":false,"is_disabled":false,"rental_uris":{"android":"levelo://app?vid=119f8df6-9087-457a-86a8-486b1b871827","ios":"levelo://app?vid=119f8df6-9087-457a-86a8-486b1b871827"},"vehicle_type_id":"4","last_reported":1732601629,"current_range_meters":38800,"station_id":"ce4bgqh2rcd13ifvqc4g","pricing_plan_id":"cebpf4jnsgd1na2vs0mg"},{"bike_id":"94ed416d-5b57-424c-8487-a26cc4673a7e","system_id":"levelo_inurba_marseille","lat":43.30613,"lon":5.37235,"is_reserved":false,"is_disabled":false,"rental_uris":{"android":"levelo://app?vid=94ed416d-5b57-424c-8487-a26cc4673a7e","ios":"levelo://app?vid=94ed416d-5b57-424c-8487-a26cc4673a7e"},"vehicle_type_id":"4","last_reported":1732601629,"current_range_meters":39200,"station_id":"ce4bgqh2rcd13ifvqc4g","pricing_plan_id":"cebpf4jnsgd1na2vs0mg"},{"bike_id":"f42dcf9b-16ab-40c7-9a17-1509929eb3ba","system_id":"levelo_inurba_marseille","lat":43.30305,"lon":5.39706,"is_reserved":false,"is_disabled":true,"rental_uris":{"android":"levelo://app?vid=f42dcf9b-16ab-40c7-9a17-1509929eb3ba","ios":"levelo://app?vid=f42dcf9b-16ab-40c7-9a17-1509929eb3ba"},"vehicle_type_id":"4","last_reported":1732601629,"current_range_meters":1600,"station_id":"","pricing_plan_id":"cebpf4jnsgd1na2vs0mg"},{"bike_id":"26ec1a22-5020-45e4-ab45-512c7f67d5dd","system_id":"levelo_inurba_marseille","lat":43.32073,"lon":5.415627,"is_reserved":false,"is_disabled":true,"rental_uris":{"android":"levelo://app?vid=26ec1a22-5020-45e4-ab45-512c7f67d5dd","ios":"levelo://app?vid=26ec1a22-5020-45e4-ab45-512c7f67d5dd"},"vehicle_type_id":"4","last_reported":1732601629,"current_range_meters":38800,"station_id":"ce4bhq92rcd13ifvqhkg","pricing_plan_id":"cebpf4jnsgd1na2vs0mg"},{"bike_id":"1fc99fd9-d0a1-477c-925f-11a1dbbbef42","system_id":"levelo_inurba_marseille","lat":43.30926,"lon":5.40153,"is_reserved":false,"is_disabled":false,"rental_uris":{"android":"levelo://app?vid=1fc99fd9-d0a1-477c-925f-11a1dbbbef42","ios":"levelo://app?vid=1fc99fd9-d0a1-477c-925f-11a1dbbbef42"},"vehicle_type_id":"4","last_reported":1732601629,"current_range_meters":31200,"station_id":"ce4bgvp2rcd13ifvqct0","pricing_plan_id":"cebpf4jnsgd1na2vs0mg"},{"bike_id":"ff30c9b2-e67f-4645-ad05-c5b92b8d6d32","system_id":"levelo_inurba_marseille","lat":43.25869,"lon":5.39896,"is_reserved":false,"is_disabled":false,"rental_uris":{"android":"levelo://app?vid=ff30c9b2-e67f-4645-ad05-c5b92b8d6d32","ios":"levelo://app?vid=ff30c9b2-e67f-4645-ad05-c5b92b8d6d32"},"vehicle_type_id":"4","last_reported":1732601629,"current_range_meters":38800,"station_id":"ce4bhl92rcd13ifvqghg","pricing_plan_id":"cebpf4jnsgd1na2vs0mg"},{"bike_id":"9ce3e3c1-0349-4011-bfbc-e3195ad72626","system_id":"levelo_inurba_marseille","lat":43.323632,"lon":5.388798,"is_reserved":false,"is_disabled":false,"rental_uris":{"android":"levelo://app?vid=9ce3e3c1-0349-4011-bfbc-e3195ad72626","ios":"levelo://app?vid=9ce3e3c1-0349-4011-bfbc-e3195ad72626"},"vehicle_type_id":"4","last_reported":1732601629,"current_range_meters":17600,"station_id":"ce4bhqp2rcd13ifvqhog","pricing_plan_id":"cebpf4jnsgd1na2vs0mg"},{"bike_id":"9f8aea45-6317-46b2-bfdf-12486e5e39e0","system_id":"levelo_inurba_marseille","lat":43.31267,"lon":5.36756,"is_reserved":false,"is_disabled":true,"rental_uris":{"android":"levelo://app?vid=9f8aea45-6317-46b2-bfdf-12486e5e39e0","ios":"levelo://app?vid=9f8aea45-6317-46b2-bfdf-12486e5e39e0"},"vehicle_type_id":"4","last_reported":1732601629,"current_range_meters":0,"station_id":"","pricing_plan_id":"cebpf4jnsgd1na2vs0mg"},{"bike_id":"ca82005c-3223-4bf3-8660-20ed33f49393","system_id":"levelo_inurba_marseille","lat":43.28729,"lon":5.36091,"is_reserved":false,"is_disabled":false,"rental_uris":{"android":"levelo://app?vid=ca82005c-3223-4bf3-8660-20ed33f49393","ios":"levelo://app?vid=ca82005c-3223-4bf3-8660-20ed33f49393"},"vehicle_type_id":"4","last_reported":1732601629,"current_range_meters":38800,"station_id":"cki0cbj6b192h4jlfktg","pricing_plan_id":"cebpf4jnsgd1na2vs0mg"},{"bike_id":"4de3f7a9-dede-421a-9310-d6c21fee1591","system_id":"levelo_inurba_marseille","lat":43.25938,"lon":5.40898,"is_reserved":false,"is_disabled":false,"rental_uris":{"android":"levelo://app?vid=4de3f7a9-dede-421a-9310-d6c21fee1591","ios":"levelo://app?vid=4de3f7a9-dede-421a-9310-d6c21fee1591"},"vehicle_type_id":"4","last_reported":1732601629,"current_range_meters":32400,"station_id":"ce4bhm92rcd13ifvqglg","pricing_plan_id":"cebpf4jnsgd1na2vs0mg"},{"bike_id":"513f4943-119b-4be9-8aa0-f82305c6b413","system_id":"levelo_inurba_marseille","lat":43.27677,"lon":5.38898,"is_reserved":false,"is_disabled":false,"rental_uris":{"android":"levelo://app?vid=513f4943-119b-4be9-8aa0-f82305c6b413","ios":"levelo://app?vid=513f4943-119b-4be9-8aa0-f82305c6b413"},"vehicle_type_id":"4","last_reported":1732601629,"current_range_meters":38000,"station_id":"ce4bhi12rcd13ifvqfo0","pricing_plan_id":"cebpf4jnsgd1na2vs0mg"},{"bike_id":"1e126baa-22b4-4cf7-a05e-1c0611873009","system_id":"levelo_inurba_marseille","lat":43.311192,"lon":5.377708,"is_reserved":false,"is_disabled":true,"rental_uris":{"android":"levelo://app?vid=1e126baa-22b4-4cf7-a05e-1c0611873009","ios":"levelo://app?vid=1e126baa-22b4-4cf7-a05e-1c0611873009"},"vehicle_type_id":"4","last_reported":1732601629,"current_range_meters":0,"station_id":"","pricing_plan_id":"cebpf4jnsgd1na2vs0mg"},{"bike_id":"d82e34c9-9513-4c36-8829-60c6b1f53adb","system_id":"levelo_inurba_marseille","lat":43.29734,"lon":5.37678,"is_reserved":false,"is_disabled":false,"rental_uris":{"android":"levelo://app?vid=d82e34c9-9513-4c36-8829-60c6b1f53adb","ios":"levelo://app?vid=d82e34c9-9513-4c36-8829-60c6b1f53adb"},"vehicle_type_id":"4","last_reported":1732601629,"current_range_meters":38800,"station_id":"ce4bgkh2rcd13ifvqbl0","pricing_plan_id":"cebpf4jnsgd1na2vs0mg"},{"bike_id":"88bd7da5-67ce-4e4d-a53b-fd892db2a7b8","system_id":"levelo_inurba_marseille","lat":43.29026,"lon":5.38146,"is_reserved":false,"is_disabled":true,"rental_uris":{"android":"levelo://app?vid=88bd7da5-67ce-4e4d-a53b-fd892db2a7b8","ios":"levelo://app?vid=88bd7da5-67ce-4e4d-a53b-fd892db2a7b8"},"vehicle_type_id":"4","last_reported":1732601629,"current_range_meters":38400,"station_id":"ce4bh4p2rcd13ifvqe1g","pricing_plan_id":"cebpf4jnsgd1na2vs0mg"},{"bike_id":"07373730-ba45-4ca8-b6a6-6db65250f6a1","system_id":"levelo_inurba_marseille","lat":43.29856,"lon":5.36294,"is_reserved":false,"is_disabled":true,"rental_uris":{"android":"levelo://app?vid=07373730-ba45-4ca8-b6a6-6db65250f6a1","ios":"levelo://app?vid=07373730-ba45-4ca8-b6a6-6db65250f6a1"},"vehicle_type_id":"4","last_reported":1732601629,"current_range_meters":17600,"station_id":"ce4bgpp2rcd13ifvqc3g","pricing_plan_id":"cebpf4jnsgd1na2vs0mg"},{"bike_id":"1aa157d2-2b13-49ae-a1ca-2010410cc0c1","system_id":"levelo_inurba_marseille","lat":43.24391,"lon":5.37064,"is_reserved":false,"is_disabled":false,"rental_uris":{"android":"levelo://app?vid=1aa157d2-2b13-49ae-a1ca-2010410cc0c1","ios":"levelo://app?vid=1aa157d2-2b13-49ae-a1ca-2010410cc0c1"},"vehicle_type_id":"4","last_reported":1732601629,"current_range_meters":3200,"station_id":"ce4bhhh2rcd13ifvqfk0","pricing_plan_id":"cebpf4jnsgd1na2vs0mg"},{"bike_id":"91056e33-984f-4967-a410-97e1eb3fb96d","system_id":"levelo_inurba_marseille","lat":43.285,"lon":5.38569,"is_reserved":false,"is_disabled":false,"rental_uris":{"android":"levelo://app?vid=91056e33-984f-4967-a410-97e1eb3fb96d","ios":"levelo://app?vid=91056e33-984f-4967-a410-97e1eb3fb96d"},"vehicle_type_id":"4","last_reported":1732601629,"current_range_meters":34800,"station_id":"ce4bh8p2rcd13ifvqeb0","pricing_plan_id":"cebpf4jnsgd1na2vs0mg"},{"bike_id":"67143d8e-e66e-42c7-ac82-4a20541642d4","system_id":"levelo_inurba_marseille","lat":43.29638,"lon":5.3716,"is_reserved":false,"is_disabled":true,"rental_uris":{"android":"levelo://app?vid=67143d8e-e66e-42c7-ac82-4a20541642d4","ios":"levelo://app?vid=67143d8e-e66e-42c7-ac82-4a20541642d4"},"vehicle_type_id":"4","last_reported":1732601629,"current_range_meters":38400,"station_id":"ce4bgnh2rcd13ifvqc0g","pricing_plan_id":"cebpf4jnsgd1na2vs0mg"},{"bike_id":"dd08285a-8132-430d-a8bf-2aee58c7534b","system_id":"levelo_inurba_marseille","lat":43.24049,"lon":5.37766,"is_reserved":false,"is_disabled":false,"rental_uris":{"android":"levelo://app?vid=dd08285a-8132-430d-a8bf-2aee58c7534b","ios":"levelo://app?vid=dd08285a-8132-430d-a8bf-2aee58c7534b"},"vehicle_type_id":"4","last_reported":1732601629,"current_range_meters":25600,"station_id":"ce4bhnp2rcd13ifvqgvg","pricing_plan_id":"cebpf4jnsgd1na2vs0mg"},{"bike_id":"9ed71e0e-d6be-48c3-a363-10fbba982394","system_id":"levelo_inurba_marseille","lat":43.28479,"lon":5.38403,"is_reserved":false,"is_disabled":false,"rental_uris":{"android":"levelo://app?vid=9ed71e0e-d6be-48c3-a363-10fbba982394","ios":"levelo://app?vid=9ed71e0e-d6be-48c3-a363-10fbba982394"},"vehicle_type_id":"4","last_reported":1732601629,"current_range_meters":36800,"station_id":"ce4bh512rcd13ifvqe3g","pricing_plan_id":"cebpf4jnsgd1na2vs0mg"},{"bike_id":"a014c88b-7ede-480d-8ad7-4c15e739fb68","system_id":"levelo_inurba_marseille","lat":43.26925,"lon":5.38924,"is_reserved":false,"is_disabled":false,"rental_uris":{"android":"levelo://app?vid=a014c88b-7ede-480d-8ad7-4c15e739fb68","ios":"levelo://app?vid=a014c88b-7ede-480d-8ad7-4c15e739fb68"},"vehicle_type_id":"4","last_reported":1732601629,"current_range_meters":38400,"station_id":"ce4bhhh2rcd13ifvqfl0","pricing_plan_id":"cebpf4jnsgd1na2vs0mg"},{"bike_id":"f7f7fd06-4983-4658-b605-e86318567bab","system_id":"levelo_inurba_marseille","lat":43.27563,"lon":5.38427,"is_reserved":false,"is_disabled":false,"rental_uris":{"android":"levelo://app?vid=f7f7fd06-4983-4658-b605-e86318567bab","ios":"levelo://app?vid=f7f7fd06-4983-4658-b605-e86318567bab"},"vehicle_type_id":"4","last_reported":1732601629,"current_range_meters":38800,"station_id":"ce4bhh92rcd13ifvqfi0","pricing_plan_id":"cebpf4jnsgd1na2vs0mg"},{"bike_id":"83f442cf-579e-46be-91e9-63bdc8bc05b6","system_id":"levelo_inurba_marseille","lat":43.25925,"lon":5.40905,"is_reserved":false,"is_disabled":true,"rental_uris":{"android":"levelo://app?vid=83f442cf-579e-46be-91e9-63bdc8bc05b6","ios":"levelo://app?vid=83f442cf-579e-46be-91e9-63bdc8bc05b6"},"vehicle_type_id":"4","last_reported":1732601629,"current_range_meters":36800,"station_id":"ce4bhm92rcd13ifvqglg","pricing_plan_id":"cebpf4jnsgd1na2vs0mg"},{"bike_id":"1e3d2aed-a3f4-4aef-8605-9a4732190938","system_id":"levelo_inurba_marseille","lat":43.26066,"lon":5.39396,"is_reserved":false,"is_disabled":false,"rental_uris":{"android":"levelo://app?vid=1e3d2aed-a3f4-4aef-8605-9a4732190938","ios":"levelo://app?vid=1e3d2aed-a3f4-4aef-8605-9a4732190938"},"vehicle_type_id":"4","last_reported":1732601629,"current_range_meters":36000,"station_id":"ce4bhh92rcd13ifvqfj0","pricing_plan_id":"cebpf4jnsgd1na2vs0mg"},{"bike_id":"820f12a0-cf28-488c-8a74-3f1b9d2e4db5","system_id":"levelo_inurba_marseille","lat":43.23059,"lon":5.35486,"is_reserved":false,"is_disabled":false,"rental_uris":{"android":"levelo://app?vid=820f12a0-cf28-488c-8a74-3f1b9d2e4db5","ios":"levelo://app?vid=820f12a0-cf28-488c-8a74-3f1b9d2e4db5"},"vehicle_type_id":"4","last_reported":1732601629,"current_range_meters":25200,"station_id":"cpo3342slgdg3j2ifvpg","pricing_plan_id":"cebpf4jnsgd1na2vs0mg"},{"bike_id":"cd81ab52-14e5-4171-a5e9-9803c96891de","system_id":"levelo_inurba_marseille","lat":43.29962,"lon":5.37168,"is_reserved":false,"is_disabled":false,"rental_uris":{"android":"levelo://app?vid=cd81ab52-14e5-4171-a5e9-9803c96891de","ios":"levelo://app?vid=cd81ab52-14e5-4171-a5e9-9803c96891de"},"vehicle_type_id":"4","last_reported":1732601629,"current_range_meters":26000,"station_id":"ce4bgr92rcd13ifvqc7g","pricing_plan_id":"cebpf4jnsgd1na2vs0mg"},{"bike_id":"15fc089d-02f4-477d-b696-5f029621754e","system_id":"levelo_inurba_marseille","lat":43.30779,"lon":5.37654,"is_reserved":false,"is_disabled":false,"rental_uris":{"android":"levelo://app?vid=15fc089d-02f4-477d-b696-5f029621754e","ios":"levelo://app?vid=15fc089d-02f4-477d-b696-5f029621754e"},"vehicle_type_id":"4","last_reported":1732601629,"current_range_meters":38800,"station_id":"ce4bgv92rcd13ifvqcq0","pricing_plan_id":"cebpf4jnsgd1na2vs0mg"},{"bike_id":"a59b41fe-1604-402e-b5f5-83680998aa14","system_id":"levelo_inurba_marseille","lat":43.28708,"lon":5.39991,"is_reserved":false,"is_disabled":true,"rental_uris":{"android":"levelo://app?vid=a59b41fe-1604-402e-b5f5-83680998aa14","ios":"levelo://app?vid=a59b41fe-1604-402e-b5f5-83680998aa14"},"vehicle_type_id":"4","last_reported":1732601629,"current_range_meters":0,"station_id":"ce4bho92rcd13ifvqh3g","pricing_plan_id":"cebpf4jnsgd1na2vs0mg"},{"bike_id":"9465545f-af87-4599-bf7e-091832e32b7b","system_id":"levelo_inurba_marseille","lat":43.29536,"lon":5.38551,"is_reserved":false,"is_disabled":true,"rental_uris":{"android":"levelo://app?vid=9465545f-af87-4599-bf7e-091832e32b7b","ios":"levelo://app?vid=9465545f-af87-4599-bf7e-091832e32b7b"},"vehicle_type_id":"4","last_reported":1732601629,"current_range_meters":22000,"station_id":"ce4bgih2rcd13ifvqba0","pricing_plan_id":"cebpf4jnsgd1na2vs0mg"},{"bike_id":"f09fe728-31ed-4325-a972-cbb1a8d6e347","system_id":"levelo_inurba_marseille","lat":43.28267,"lon":5.35056,"is_reserved":false,"is_disabled":false,"rental_uris":{"android":"levelo://app?vid=f09fe728-31ed-4325-a972-cbb1a8d6e347","ios":"levelo://app?vid=f09fe728-31ed-4325-a972-cbb1a8d6e347"},"vehicle_type_id":"4","last_reported":1732601629,"current_range_meters":32000,"station_id":"ce4bhbp2rcd13ifvqerg","pricing_plan_id":"cebpf4jnsgd1na2vs0mg"},{"bike_id":"1ea63947-abab-4a62-970d-2e53c115e398","system_id":"levelo_inurba_marseille","lat":43.3106,"lon":5.38353,"is_reserved":false,"is_disabled":false,"rental_uris":{"android":"levelo://app?vid=1ea63947-abab-4a62-970d-2e53c115e398","ios":"levelo://app?vid=1ea63947-abab-4a62-970d-2e53c115e398"},"vehicle_type_id":"4","last_reported":1732601629,"current_range_meters":28000,"station_id":"ce4bgv92rcd13ifvqcr0","pricing_plan_id":"cebpf4jnsgd1na2vs0mg"},{"bike_id":"b4e302cc-2f73-4eef-ba95-dd939c6ec2d8","system_id":"levelo_inurba_marseille","lat":43.246673,"lon":5.381589,"is_reserved":false,"is_disabled":false,"rental_uris":{"android":"levelo://app?vid=b4e302cc-2f73-4eef-ba95-dd939c6ec2d8","ios":"levelo://app?vid=b4e302cc-2f73-4eef-ba95-dd939c6ec2d8"},"vehicle_type_id":"4","last_reported":1732601629,"current_range_meters":38400,"station_id":"ce4bhih2rcd13ifvqfr0","pricing_plan_id":"cebpf4jnsgd1na2vs0mg"},{"bike_id":"f5728544-28b4-436b-9f11-8df13ee7ad0f","system_id":"levelo_inurba_marseille","lat":43.25583,"lon":5.38232,"is_reserved":false,"is_disabled":false,"rental_uris":{"android":"levelo://app?vid=f5728544-28b4-436b-9f11-8df13ee7ad0f","ios":"levelo://app?vid=f5728544-28b4-436b-9f11-8df13ee7ad0f"},"vehicle_type_id":"4","last_reported":1732601629,"current_range_meters":38000,"station_id":"ce4bhih2rcd13ifvqfs0","pricing_plan_id":"cebpf4jnsgd1na2vs0mg"},{"bike_id":"835b00c2-64c0-4cbe-82bb-c78dd70919e3","system_id":"levelo_inurba_marseille","lat":43.27969,"lon":5.40789,"is_reserved":false,"is_disabled":false,"rental_uris":{"android":"levelo://app?vid=835b00c2-64c0-4cbe-82bb-c78dd70919e3","ios":"levelo://app?vid=835b00c2-64c0-4cbe-82bb-c78dd70919e3"},"vehicle_type_id":"4","last_reported":1732601629,"current_range_meters":4000,"station_id":"","pricing_plan_id":"cebpf4jnsgd1na2vs0mg"},{"bike_id":"2c911db6-6411-45c0-a9aa-43b079601db1","system_id":"levelo_inurba_marseille","lat":43.29569,"lon":5.39964,"is_reserved":false,"is_disabled":false,"rental_uris":{"android":"levelo://app?vid=2c911db6-6411-45c0-a9aa-43b079601db1","ios":"levelo://app?vid=2c911db6-6411-45c0-a9aa-43b079601db1"},"vehicle_type_id":"4","last_reported":1732601629,"current_range_meters":33200,"station_id":"ce4bh312rcd13ifvqdj0","pricing_plan_id":"cebpf4jnsgd1na2vs0mg"},{"bike_id":"89b6780b-49bf-480d-be31-e081c192075f","system_id":"levelo_inurba_marseille","lat":43.260598,"lon":5.393937,"is_reserved":false,"is_disabled":false,"rental_uris":{"android":"levelo://app?vid=89b6780b-49bf-480d-be31-e081c192075f","ios":"levelo://app?vid=89b6780b-49bf-480d-be31-e081c192075f"},"vehicle_type_id":"4","last_reported":1732601629,"current_range_meters":4000,"station_id":"ce4bhh92rcd13ifvqfj0","pricing_plan_id":"cebpf4jnsgd1na2vs0mg"},{"bike_id":"b164993a-11c9-40a7-831f-57a76ca20c93","system_id":"levelo_inurba_marseille","lat":43.2894,"lon":5.39625,"is_reserved":false,"is_disabled":false,"rental_uris":{"android":"levelo://app?vid=b164993a-11c9-40a7-831f-57a76ca20c93","ios":"levelo://app?vid=b164993a-11c9-40a7-831f-57a76ca20c93"},"vehicle_type_id":"4","last_reported":1732601629,"current_range_meters":37600,"station_id":"ce4bh3h2rcd13ifvqdn0","pricing_plan_id":"cebpf4jnsgd1na2vs0mg"},{"bike_id":"cde6615c-4e8d-4fb4-aa62-8ba20a37aaeb","system_id":"levelo_inurba_marseille","lat":43.28946,"lon":5.39626,"is_reserved":false,"is_disabled":false,"rental_uris":{"android":"levelo://app?vid=cde6615c-4e8d-4fb4-aa62-8ba20a37aaeb","ios":"levelo://app?vid=cde6615c-4e8d-4fb4-aa62-8ba20a37aaeb"},"vehicle_type_id":"4","last_reported":1732601629,"current_range_meters":38800,"station_id":"ce4bh3h2rcd13ifvqdn0","pricing_plan_id":"cebpf4jnsgd1na2vs0mg"},{"bike_id":"754501a0-613d-4706-8af3-47f1ca670c6e","system_id":"levelo_inurba_marseille","lat":43.317027,"lon":5.377464,"is_reserved":false,"is_disabled":false,"rental_uris":{"android":"levelo://app?vid=754501a0-613d-4706-8af3-47f1ca670c6e","ios":"levelo://app?vid=754501a0-613d-4706-8af3-47f1ca670c6e"},"vehicle_type_id":"4","last_reported":1732601629,"current_range_meters":27600,"station_id":"ce4bgth2rcd13ifvqch0","pricing_plan_id":"cebpf4jnsgd1na2vs0mg"},{"bike_id":"ba40495b-db19-44e7-929f-6d91e7f96b53","system_id":"levelo_inurba_marseille","lat":43.30785,"lon":5.3765,"is_reserved":false,"is_disabled":false,"rental_uris":{"android":"levelo://app?vid=ba40495b-db19-44e7-929f-6d91e7f96b53","ios":"levelo://app?vid=ba40495b-db19-44e7-929f-6d91e7f96b53"},"vehicle_type_id":"4","last_reported":1732601629,"current_range_meters":38400,"station_id":"ce4bgv92rcd13ifvqcq0","pricing_plan_id":"cebpf4jnsgd1na2vs0mg"},{"bike_id":"e14b5adf-0d96-4bcf-bd3f-55710d2413d7","system_id":"levelo_inurba_marseille","lat":43.29041,"lon":5.39945,"is_reserved":false,"is_disabled":false,"rental_uris":{"android":"levelo://app?vid=e14b5adf-0d96-4bcf-bd3f-55710d2413d7","ios":"levelo://app?vid=e14b5adf-0d96-4bcf-bd3f-55710d2413d7"},"vehicle_type_id":"4","last_reported":1732601629,"current_range_meters":36400,"station_id":"ce4bh392rcd13ifvqdm0","pricing_plan_id":"cebpf4jnsgd1na2vs0mg"},{"bike_id":"2dcc9ff5-e761-4d89-89e1-f55629775683","system_id":"levelo_inurba_marseille","lat":43.28724,"lon":5.36092,"is_reserved":false,"is_disabled":false,"rental_uris":{"android":"levelo://app?vid=2dcc9ff5-e761-4d89-89e1-f55629775683","ios":"levelo://app?vid=2dcc9ff5-e761-4d89-89e1-f55629775683"},"vehicle_type_id":"4","last_reported":1732601629,"current_range_meters":12000,"station_id":"cki0cbj6b192h4jlfktg","pricing_plan_id":"cebpf4jnsgd1na2vs0mg"},{"bike_id":"37d586da-a7a4-40c1-b6cf-fff1e4da8813","system_id":"levelo_inurba_marseille","lat":43.29444,"lon":5.3976,"is_reserved":false,"is_disabled":false,"rental_uris":{"android":"levelo://app?vid=37d586da-a7a4-40c1-b6cf-fff1e4da8813","ios":"levelo://app?vid=37d586da-a7a4-40c1-b6cf-fff1e4da8813"},"vehicle_type_id":"4","last_reported":1732601629,"current_range_meters":26000,"station_id":"ce4bh3h2rcd13ifvqdo0","pricing_plan_id":"cebpf4jnsgd1na2vs0mg"},{"bike_id":"996eaa45-b0c7-46cb-8925-64784aabecef","system_id":"levelo_inurba_marseille","lat":43.25567,"lon":5.38233,"is_reserved":false,"is_disabled":false,"rental_uris":{"android":"levelo://app?vid=996eaa45-b0c7-46cb-8925-64784aabecef","ios":"levelo://app?vid=996eaa45-b0c7-46cb-8925-64784aabecef"},"vehicle_type_id":"4","last_reported":1732601629,"current_range_meters":38400,"station_id":"ce4bhih2rcd13ifvqfs0","pricing_plan_id":"cebpf4jnsgd1na2vs0mg"},{"bike_id":"5b8cd3b4-e243-4fba-aaf5-11d686fcd3e4","system_id":"levelo_inurba_marseille","lat":43.29007,"lon":5.356098,"is_reserved":false,"is_disabled":true,"rental_uris":{"android":"levelo://app?vid=5b8cd3b4-e243-4fba-aaf5-11d686fcd3e4","ios":"levelo://app?vid=5b8cd3b4-e243-4fba-aaf5-11d686fcd3e4"},"vehicle_type_id":"4","last_reported":1732601629,"current_range_meters":25600,"station_id":"ce4bhb92rcd13ifvqen0","pricing_plan_id":"cebpf4jnsgd1na2vs0mg"},{"bike_id":"1b07003e-cc73-4485-a4bd-21adb5308083","system_id":"levelo_inurba_marseille","lat":43.27426,"lon":5.39412,"is_reserved":false,"is_disabled":true,"rental_uris":{"android":"levelo://app?vid=1b07003e-cc73-4485-a4bd-21adb5308083","ios":"levelo://app?vid=1b07003e-cc73-4485-a4bd-21adb5308083"},"vehicle_type_id":"4","last_reported":1732601629,"current_range_meters":0,"station_id":"ce4bhdp2rcd13ifvqf20","pricing_plan_id":"cebpf4jnsgd1na2vs0mg"},{"bike_id":"7483dbe9-720a-4813-bc54-3b872e01dd72","system_id":"levelo_inurba_marseille","lat":43.28467,"lon":5.3587,"is_reserved":false,"is_disabled":false,"rental_uris":{"android":"levelo://app?vid=7483dbe9-720a-4813-bc54-3b872e01dd72","ios":"levelo://app?vid=7483dbe9-720a-4813-bc54-3b872e01dd72"},"vehicle_type_id":"4","last_reported":1732601629,"current_range_meters":12400,"station_id":"ce4bhah2rcd13ifvqei0","pricing_plan_id":"cebpf4jnsgd1na2vs0mg"},{"bike_id":"a89e4133-9c3e-400b-b449-778c86ce8142","system_id":"levelo_inurba_marseille","lat":43.28871,"lon":5.35869,"is_reserved":false,"is_disabled":false,"rental_uris":{"android":"levelo://app?vid=a89e4133-9c3e-400b-b449-778c86ce8142","ios":"levelo://app?vid=a89e4133-9c3e-400b-b449-778c86ce8142"},"vehicle_type_id":"4","last_reported":1732601629,"current_range_meters":38400,"station_id":"ce4bhb12rcd13ifvqem0","pricing_plan_id":"cebpf4jnsgd1na2vs0mg"},{"bike_id":"cf7c9153-0dc8-430f-83bc-b3f293869575","system_id":"levelo_inurba_marseille","lat":43.337266,"lon":5.391852,"is_reserved":false,"is_disabled":false,"rental_uris":{"android":"levelo://app?vid=cf7c9153-0dc8-430f-83bc-b3f293869575","ios":"levelo://app?vid=cf7c9153-0dc8-430f-83bc-b3f293869575"},"vehicle_type_id":"4","last_reported":1732601629,"current_range_meters":11200,"station_id":"ce4bhr92rcd13ifvqhsg","pricing_plan_id":"cebpf4jnsgd1na2vs0mg"},{"bike_id":"9d530394-be3d-4c71-9510-5b34b26651ef","system_id":"levelo_inurba_marseille","lat":43.30356,"lon":5.41884,"is_reserved":false,"is_disabled":false,"rental_uris":{"android":"levelo://app?vid=9d530394-be3d-4c71-9510-5b34b26651ef","ios":"levelo://app?vid=9d530394-be3d-4c71-9510-5b34b26651ef"},"vehicle_type_id":"4","last_reported":1732601629,"current_range_meters":33600,"station_id":"ce4bhop2rcd13ifvqh7g","pricing_plan_id":"cebpf4jnsgd1na2vs0mg"},{"bike_id":"884a62b9-6871-40d2-9e68-265443f59c5c","system_id":"levelo_inurba_marseille","lat":43.29786,"lon":5.39361,"is_reserved":false,"is_disabled":true,"rental_uris":{"android":"levelo://app?vid=884a62b9-6871-40d2-9e68-265443f59c5c","ios":"levelo://app?vid=884a62b9-6871-40d2-9e68-265443f59c5c"},"vehicle_type_id":"4","last_reported":1732601629,"current_range_meters":37600,"station_id":"chh1huq6cuj3fo74tm60","pricing_plan_id":"cebpf4jnsgd1na2vs0mg"},{"bike_id":"cbaaa1fd-d950-41d1-869d-073e52b6c025","system_id":"levelo_inurba_marseille","lat":43.30948,"lon":5.3904,"is_reserved":false,"is_disabled":false,"rental_uris":{"android":"levelo://app?vid=cbaaa1fd-d950-41d1-869d-073e52b6c025","ios":"levelo://app?vid=cbaaa1fd-d950-41d1-869d-073e52b6c025"},"vehicle_type_id":"4","last_reported":1732601629,"current_range_meters":9600,"station_id":"ce4bgup2rcd13ifvqco0","pricing_plan_id":"cebpf4jnsgd1na2vs0mg"},{"bike_id":"57c3c4ba-b894-444a-a5cc-16a89b256859","system_id":"levelo_inurba_marseille","lat":43.2781,"lon":5.40712,"is_reserved":false,"is_disabled":false,"rental_uris":{"android":"levelo://app?vid=57c3c4ba-b894-444a-a5cc-16a89b256859","ios":"levelo://app?vid=57c3c4ba-b894-444a-a5cc-16a89b256859"},"vehicle_type_id":"4","last_reported":1732601629,"current_range_meters":37600,"station_id":"ce4bhnh2rcd13ifvqgtg","pricing_plan_id":"cebpf4jnsgd1na2vs0mg"},{"bike_id":"4d809776-4d2b-4bf5-8aa6-666b5b1fd18f","system_id":"levelo_inurba_marseille","lat":43.337209,"lon":5.391829,"is_reserved":false,"is_disabled":false,"rental_uris":{"android":"levelo://app?vid=4d809776-4d2b-4bf5-8aa6-666b5b1fd18f","ios":"levelo://app?vid=4d809776-4d2b-4bf5-8aa6-666b5b1fd18f"},"vehicle_type_id":"4","last_reported":1732601629,"current_range_meters":38800,"station_id":"ce4bhr92rcd13ifvqhsg","pricing_plan_id":"cebpf4jnsgd1na2vs0mg"},{"bike_id":"a6637c9a-69e8-4477-aded-320f987a4dc2","system_id":"levelo_inurba_marseille","lat":43.28728,"lon":5.36087,"is_reserved":false,"is_disabled":false,"rental_uris":{"android":"levelo://app?vid=a6637c9a-69e8-4477-aded-320f987a4dc2","ios":"levelo://app?vid=a6637c9a-69e8-4477-aded-320f987a4dc2"},"vehicle_type_id":"4","last_reported":1732601629,"current_range_meters":32000,"station_id":"cki0cbj6b192h4jlfktg","pricing_plan_id":"cebpf4jnsgd1na2vs0mg"},{"bike_id":"1b5bfab3-8645-4d4a-9e61-6920c30f757e","system_id":"levelo_inurba_marseille","lat":43.231886,"lon":5.399825,"is_reserved":false,"is_disabled":false,"rental_uris":{"android":"levelo://app?vid=1b5bfab3-8645-4d4a-9e61-6920c30f757e","ios":"levelo://app?vid=1b5bfab3-8645-4d4a-9e61-6920c30f757e"},"vehicle_type_id":"4","last_reported":1732601629,"current_range_meters":38800,"station_id":"ce4bhn12rcd13ifvqgqg","pricing_plan_id":"cebpf4jnsgd1na2vs0mg"},{"bike_id":"bdfbede1-ca18-49de-8a74-102341c24197","system_id":"levelo_inurba_marseille","lat":43.29039,"lon":5.39971,"is_reserved":false,"is_disabled":false,"rental_uris":{"android":"levelo://app?vid=bdfbede1-ca18-49de-8a74-102341c24197","ios":"levelo://app?vid=bdfbede1-ca18-49de-8a74-102341c24197"},"vehicle_type_id":"4","last_reported":1732601629,"current_range_meters":30000,"station_id":"ce4bh392rcd13ifvqdm0","pricing_plan_id":"cebpf4jnsgd1na2vs0mg"},{"bike_id":"d67d525c-d464-4f2c-91ff-d32e793da4df","system_id":"levelo_inurba_marseille","lat":43.29039,"lon":5.37826,"is_reserved":false,"is_disabled":false,"rental_uris":{"android":"levelo://app?vid=d67d525c-d464-4f2c-91ff-d32e793da4df","ios":"levelo://app?vid=d67d525c-d464-4f2c-91ff-d32e793da4df"},"vehicle_type_id":"4","last_reported":1732601629,"current_range_meters":12800,"station_id":"","pricing_plan_id":"cebpf4jnsgd1na2vs0mg"},{"bike_id":"ea94669e-1402-4144-b9c9-64418fa2ce05","system_id":"levelo_inurba_marseille","lat":43.296188,"lon":5.381542,"is_reserved":false,"is_disabled":true,"rental_uris":{"android":"levelo://app?vid=ea94669e-1402-4144-b9c9-64418fa2ce05","ios":"levelo://app?vid=ea94669e-1402-4144-b9c9-64418fa2ce05"},"vehicle_type_id":"4","last_reported":1732601629,"current_range_meters":28800,"station_id":"ce4bgl12rcd13ifvqbo0","pricing_plan_id":"cebpf4jnsgd1na2vs0mg"},{"bike_id":"127fc0da-8027-43dd-9119-0f77deb5530e","system_id":"levelo_inurba_marseille","lat":43.3095,"lon":5.39037,"is_reserved":false,"is_disabled":false,"rental_uris":{"android":"levelo://app?vid=127fc0da-8027-43dd-9119-0f77deb5530e","ios":"levelo://app?vid=127fc0da-8027-43dd-9119-0f77deb5530e"},"vehicle_type_id":"4","last_reported":1732601629,"current_range_meters":38800,"station_id":"ce4bgup2rcd13ifvqco0","pricing_plan_id":"cebpf4jnsgd1na2vs0mg"},{"bike_id":"3396bff9-f585-49ae-8817-80d5664a6b74","system_id":"levelo_inurba_marseille","lat":43.28856,"lon":5.39304,"is_reserved":false,"is_disabled":false,"rental_uris":{"android":"levelo://app?vid=3396bff9-f585-49ae-8817-80d5664a6b74","ios":"levelo://app?vid=3396bff9-f585-49ae-8817-80d5664a6b74"},"vehicle_type_id":"4","last_reported":1732601629,"current_range_meters":37600,"station_id":"ce4bh2p2rcd13ifvqdi0","pricing_plan_id":"cebpf4jnsgd1na2vs0mg"},{"bike_id":"511bde3c-2812-4591-83db-5db1f033e445","system_id":"levelo_inurba_marseille","lat":43.32362,"lon":5.38883,"is_reserved":false,"is_disabled":false,"rental_uris":{"android":"levelo://app?vid=511bde3c-2812-4591-83db-5db1f033e445","ios":"levelo://app?vid=511bde3c-2812-4591-83db-5db1f033e445"},"vehicle_type_id":"4","last_reported":1732601629,"current_range_meters":23200,"station_id":"ce4bhqp2rcd13ifvqhog","pricing_plan_id":"cebpf4jnsgd1na2vs0mg"},{"bike_id":"c20e63ff-9343-4668-bac3-1054be8872b3","system_id":"levelo_inurba_marseille","lat":43.28827,"lon":5.35863,"is_reserved":false,"is_disabled":false,"rental_uris":{"android":"levelo://app?vid=c20e63ff-9343-4668-bac3-1054be8872b3","ios":"levelo://app?vid=c20e63ff-9343-4668-bac3-1054be8872b3"},"vehicle_type_id":"4","last_reported":1732601629,"current_range_meters":33600,"station_id":"ce4bhb12rcd13ifvqem0","pricing_plan_id":"cebpf4jnsgd1na2vs0mg"},{"bike_id":"aa717be1-dcce-416b-90e1-180e376a1e41","system_id":"levelo_inurba_marseille","lat":43.337444,"lon":5.374475,"is_reserved":false,"is_disabled":false,"rental_uris":{"android":"levelo://app?vid=aa717be1-dcce-416b-90e1-180e376a1e41","ios":"levelo://app?vid=aa717be1-dcce-416b-90e1-180e376a1e41"},"vehicle_type_id":"4","last_reported":1732601629,"current_range_meters":35200,"station_id":"","pricing_plan_id":"cebpf4jnsgd1na2vs0mg"},{"bike_id":"2a09209b-9e53-4e93-a4c9-9ab475d29893","system_id":"levelo_inurba_marseille","lat":43.30223,"lon":5.37426,"is_reserved":false,"is_disabled":true,"rental_uris":{"android":"levelo://app?vid=2a09209b-9e53-4e93-a4c9-9ab475d29893","ios":"levelo://app?vid=2a09209b-9e53-4e93-a4c9-9ab475d29893"},"vehicle_type_id":"4","last_reported":1732601629,"current_range_meters":18000,"station_id":"","pricing_plan_id":"cebpf4jnsgd1na2vs0mg"},{"bike_id":"294eeb79-af1b-495a-909f-216801ae6b41","system_id":"levelo_inurba_marseille","lat":43.33744,"lon":5.37456,"is_reserved":false,"is_disabled":false,"rental_uris":{"android":"levelo://app?vid=294eeb79-af1b-495a-909f-216801ae6b41","ios":"levelo://app?vid=294eeb79-af1b-495a-909f-216801ae6b41"},"vehicle_type_id":"4","last_reported":1732601629,"current_range_meters":9600,"station_id":"","pricing_plan_id":"cebpf4jnsgd1na2vs0mg"},{"bike_id":"537560b4-9094-4fb6-af68-76134d66b81a","system_id":"levelo_inurba_marseille","lat":43.29895,"lon":5.39765,"is_reserved":false,"is_disabled":true,"rental_uris":{"android":"levelo://app?vid=537560b4-9094-4fb6-af68-76134d66b81a","ios":"levelo://app?vid=537560b4-9094-4fb6-af68-76134d66b81a"},"vehicle_type_id":"4","last_reported":1732601629,"current_range_meters":29600,"station_id":"ce4bh0h2rcd13ifvqd50","pricing_plan_id":"cebpf4jnsgd1na2vs0mg"},{"bike_id":"ccee9fd6-a635-40bf-b86e-293becb623e6","system_id":"levelo_inurba_marseille","lat":43.30945,"lon":5.39038,"is_reserved":false,"is_disabled":false,"rental_uris":{"android":"levelo://app?vid=ccee9fd6-a635-40bf-b86e-293becb623e6","ios":"levelo://app?vid=ccee9fd6-a635-40bf-b86e-293becb623e6"},"vehicle_type_id":"4","last_reported":1732601629,"current_range_meters":22000,"station_id":"ce4bgup2rcd13ifvqco0","pricing_plan_id":"cebpf4jnsgd1na2vs0mg"},{"bike_id":"a6fe28e1-3f1c-4b05-9f9d-7416dac1d1e4","system_id":"levelo_inurba_marseille","lat":43.29,"lon":5.35616,"is_reserved":false,"is_disabled":false,"rental_uris":{"android":"levelo://app?vid=a6fe28e1-3f1c-4b05-9f9d-7416dac1d1e4","ios":"levelo://app?vid=a6fe28e1-3f1c-4b05-9f9d-7416dac1d1e4"},"vehicle_type_id":"4","last_reported":1732601629,"current_range_meters":36400,"station_id":"ce4bhb92rcd13ifvqen0","pricing_plan_id":"cebpf4jnsgd1na2vs0mg"},{"bike_id":"9fa237e5-c1df-41be-b8b9-e3d0d586410d","system_id":"levelo_inurba_marseille","lat":43.295914,"lon":5.403458,"is_reserved":false,"is_disabled":true,"rental_uris":{"android":"levelo://app?vid=9fa237e5-c1df-41be-b8b9-e3d0d586410d","ios":"levelo://app?vid=9fa237e5-c1df-41be-b8b9-e3d0d586410d"},"vehicle_type_id":"4","last_reported":1732601629,"current_range_meters":0,"station_id":"","pricing_plan_id":"cebpf4jnsgd1na2vs0mg"},{"bike_id":"56b8eb93-a222-483a-a74b-85d0552dba91","system_id":"levelo_inurba_marseille","lat":43.29005,"lon":5.3562,"is_reserved":false,"is_disabled":false,"rental_uris":{"android":"levelo://app?vid=56b8eb93-a222-483a-a74b-85d0552dba91","ios":"levelo://app?vid=56b8eb93-a222-483a-a74b-85d0552dba91"},"vehicle_type_id":"4","last_reported":1732601629,"current_range_meters":35600,"station_id":"ce4bhb92rcd13ifvqen0","pricing_plan_id":"cebpf4jnsgd1na2vs0mg"},{"bike_id":"8e9d21a9-ac1c-4861-b0c0-a8b006245f43","system_id":"levelo_inurba_marseille","lat":43.27913,"lon":5.39576,"is_reserved":false,"is_disabled":false,"rental_uris":{"android":"levelo://app?vid=8e9d21a9-ac1c-4861-b0c0-a8b006245f43","ios":"levelo://app?vid=8e9d21a9-ac1c-4861-b0c0-a8b006245f43"},"vehicle_type_id":"4","last_reported":1732601629,"current_range_meters":30000,"station_id":"ce4bhf92rcd13ifvqf40","pricing_plan_id":"cebpf4jnsgd1na2vs0mg"},{"bike_id":"bf464be4-f60f-49d4-8648-88925a2d7f59","system_id":"levelo_inurba_marseille","lat":43.26679,"lon":5.38276,"is_reserved":false,"is_disabled":false,"rental_uris":{"android":"levelo://app?vid=bf464be4-f60f-49d4-8648-88925a2d7f59","ios":"levelo://app?vid=bf464be4-f60f-49d4-8648-88925a2d7f59"},"vehicle_type_id":"4","last_reported":1732601629,"current_range_meters":25600,"station_id":"ce4bhg92rcd13ifvqf90","pricing_plan_id":"cebpf4jnsgd1na2vs0mg"},{"bike_id":"777b7fed-d395-4c97-b504-dee7c3479d4f","system_id":"levelo_inurba_marseille","lat":43.29836,"lon":5.3785,"is_reserved":false,"is_disabled":true,"rental_uris":{"android":"levelo://app?vid=777b7fed-d395-4c97-b504-dee7c3479d4f","ios":"levelo://app?vid=777b7fed-d395-4c97-b504-dee7c3479d4f"},"vehicle_type_id":"4","last_reported":1732601629,"current_range_meters":0,"station_id":"","pricing_plan_id":"cebpf4jnsgd1na2vs0mg"},{"bike_id":"bb84ba39-3d9f-4387-a9cf-6107da53da77","system_id":"levelo_inurba_marseille","lat":43.284066,"lon":5.375094,"is_reserved":false,"is_disabled":false,"rental_uris":{"android":"levelo://app?vid=bb84ba39-3d9f-4387-a9cf-6107da53da77","ios":"levelo://app?vid=bb84ba39-3d9f-4387-a9cf-6107da53da77"},"vehicle_type_id":"4","last_reported":1732601629,"current_range_meters":38800,"station_id":"ce4bh412rcd13ifvqds0","pricing_plan_id":"cebpf4jnsgd1na2vs0mg"},{"bike_id":"cd78312a-142a-42d0-92e1-dbc654bf8bb4","system_id":"levelo_inurba_marseille","lat":43.24184,"lon":5.39723,"is_reserved":false,"is_disabled":true,"rental_uris":{"android":"levelo://app?vid=cd78312a-142a-42d0-92e1-dbc654bf8bb4","ios":"levelo://app?vid=cd78312a-142a-42d0-92e1-dbc654bf8bb4"},"vehicle_type_id":"4","last_reported":1732601629,"current_range_meters":0,"station_id":"ce4bhn12rcd13ifvqgpg","pricing_plan_id":"cebpf4jnsgd1na2vs0mg"},{"bike_id":"0f9ffc56-d320-450b-b546-01b81dd8a639","system_id":"levelo_inurba_marseille","lat":43.26778,"lon":5.39414,"is_reserved":false,"is_disabled":false,"rental_uris":{"android":"levelo://app?vid=0f9ffc56-d320-450b-b546-01b81dd8a639","ios":"levelo://app?vid=0f9ffc56-d320-450b-b546-01b81dd8a639"},"vehicle_type_id":"4","last_reported":1732601629,"current_range_meters":38800,"station_id":"ce4bhh12rcd13ifvqfg0","pricing_plan_id":"cebpf4jnsgd1na2vs0mg"},{"bike_id":"8d9b5eca-df1e-45d2-aa96-e86919344716","system_id":"levelo_inurba_marseille","lat":43.245479,"lon":5.395212,"is_reserved":false,"is_disabled":false,"rental_uris":{"android":"levelo://app?vid=8d9b5eca-df1e-45d2-aa96-e86919344716","ios":"levelo://app?vid=8d9b5eca-df1e-45d2-aa96-e86919344716"},"vehicle_type_id":"4","last_reported":1732601629,"current_range_meters":39200,"station_id":"ce4bhlp2rcd13ifvqgjg","pricing_plan_id":"cebpf4jnsgd1na2vs0mg"},{"bike_id":"dd5ab154-647e-4dfa-88f1-0f781c7552f5","system_id":"levelo_inurba_marseille","lat":43.255833,"lon":5.382335,"is_reserved":false,"is_disabled":false,"rental_uris":{"android":"levelo://app?vid=dd5ab154-647e-4dfa-88f1-0f781c7552f5","ios":"levelo://app?vid=dd5ab154-647e-4dfa-88f1-0f781c7552f5"},"vehicle_type_id":"4","last_reported":1732601629,"current_range_meters":38800,"station_id":"ce4bhih2rcd13ifvqfs0","pricing_plan_id":"cebpf4jnsgd1na2vs0mg"},{"bike_id":"f90b5ae0-d91c-4007-bac3-1bc86ce63375","system_id":"levelo_inurba_marseille","lat":43.258216,"lon":5.394259,"is_reserved":false,"is_disabled":false,"rental_uris":{"android":"levelo://app?vid=f90b5ae0-d91c-4007-bac3-1bc86ce63375","ios":"levelo://app?vid=f90b5ae0-d91c-4007-bac3-1bc86ce63375"},"vehicle_type_id":"4","last_reported":1732601629,"current_range_meters":38800,"station_id":"ce4bhip2rcd13ifvqft0","pricing_plan_id":"cebpf4jnsgd1na2vs0mg"},{"bike_id":"39b04c21-6a6a-40a7-a489-741c2b67c9bd","system_id":"levelo_inurba_marseille","lat":43.337203,"lon":5.391881,"is_reserved":false,"is_disabled":false,"rental_uris":{"android":"levelo://app?vid=39b04c21-6a6a-40a7-a489-741c2b67c9bd","ios":"levelo://app?vid=39b04c21-6a6a-40a7-a489-741c2b67c9bd"},"vehicle_type_id":"4","last_reported":1732601629,"current_range_meters":18000,"station_id":"ce4bhr92rcd13ifvqhsg","pricing_plan_id":"cebpf4jnsgd1na2vs0mg"},{"bike_id":"286e3948-07ae-4802-8804-293973ad1f43","system_id":"levelo_inurba_marseille","lat":43.31123,"lon":5.37775,"is_reserved":false,"is_disabled":true,"rental_uris":{"android":"levelo://app?vid=286e3948-07ae-4802-8804-293973ad1f43","ios":"levelo://app?vid=286e3948-07ae-4802-8804-293973ad1f43"},"vehicle_type_id":"4","last_reported":1732601629,"current_range_meters":28800,"station_id":"ce4bgt92rcd13ifvqcg0","pricing_plan_id":"cebpf4jnsgd1na2vs0mg"},{"bike_id":"24fc129a-3a98-4f25-9554-234fc3a2dc8d","system_id":"levelo_inurba_marseille","lat":43.30423,"lon":5.41274,"is_reserved":false,"is_disabled":true,"rental_uris":{"android":"levelo://app?vid=24fc129a-3a98-4f25-9554-234fc3a2dc8d","ios":"levelo://app?vid=24fc129a-3a98-4f25-9554-234fc3a2dc8d"},"vehicle_type_id":"4","last_reported":1732601629,"current_range_meters":21600,"station_id":"ce4bhop2rcd13ifvqh8g","pricing_plan_id":"cebpf4jnsgd1na2vs0mg"},{"bike_id":"96f7e818-f358-41c0-9e01-a616d91d2d69","system_id":"levelo_inurba_marseille","lat":43.23965,"lon":5.36625,"is_reserved":false,"is_disabled":false,"rental_uris":{"android":"levelo://app?vid=96f7e818-f358-41c0-9e01-a616d91d2d69","ios":"levelo://app?vid=96f7e818-f358-41c0-9e01-a616d91d2d69"},"vehicle_type_id":"4","last_reported":1732601629,"current_range_meters":6000,"station_id":"ce4bhi12rcd13ifvqfp0","pricing_plan_id":"cebpf4jnsgd1na2vs0mg"},{"bike_id":"07f55eb1-e7a7-41f5-921e-ee62144bbb7b","system_id":"levelo_inurba_marseille","lat":43.27811,"lon":5.40712,"is_reserved":false,"is_disabled":false,"rental_uris":{"android":"levelo://app?vid=07f55eb1-e7a7-41f5-921e-ee62144bbb7b","ios":"levelo://app?vid=07f55eb1-e7a7-41f5-921e-ee62144bbb7b"},"vehicle_type_id":"4","last_reported":1732601629,"current_range_meters":38800,"station_id":"ce4bhnh2rcd13ifvqgtg","pricing_plan_id":"cebpf4jnsgd1na2vs0mg"},{"bike_id":"30d48eab-0554-4d16-9da5-23e9d3407833","system_id":"levelo_inurba_marseille","lat":43.255755,"lon":5.382304,"is_reserved":false,"is_disabled":false,"rental_uris":{"android":"levelo://app?vid=30d48eab-0554-4d16-9da5-23e9d3407833","ios":"levelo://app?vid=30d48eab-0554-4d16-9da5-23e9d3407833"},"vehicle_type_id":"4","last_reported":1732601629,"current_range_meters":38800,"station_id":"ce4bhih2rcd13ifvqfs0","pricing_plan_id":"cebpf4jnsgd1na2vs0mg"},{"bike_id":"45df81e2-5062-4d6c-8f6a-4bcb4627b44a","system_id":"levelo_inurba_marseille","lat":43.284616,"lon":5.35894,"is_reserved":false,"is_disabled":true,"rental_uris":{"android":"levelo://app?vid=45df81e2-5062-4d6c-8f6a-4bcb4627b44a","ios":"levelo://app?vid=45df81e2-5062-4d6c-8f6a-4bcb4627b44a"},"vehicle_type_id":"4","last_reported":1732601629,"current_range_meters":5600,"station_id":"ce4bhah2rcd13ifvqei0","pricing_plan_id":"cebpf4jnsgd1na2vs0mg"},{"bike_id":"120383cf-2453-4786-bbb8-39853ee211c7","system_id":"levelo_inurba_marseille","lat":43.24067,"lon":5.37754,"is_reserved":false,"is_disabled":false,"rental_uris":{"android":"levelo://app?vid=120383cf-2453-4786-bbb8-39853ee211c7","ios":"levelo://app?vid=120383cf-2453-4786-bbb8-39853ee211c7"},"vehicle_type_id":"4","last_reported":1732601629,"current_range_meters":38800,"station_id":"ce4bhnp2rcd13ifvqgvg","pricing_plan_id":"cebpf4jnsgd1na2vs0mg"},{"bike_id":"99a2afdc-f816-4e36-bd15-33e921cb1899","system_id":"levelo_inurba_marseille","lat":43.25821,"lon":5.39435,"is_reserved":false,"is_disabled":false,"rental_uris":{"android":"levelo://app?vid=99a2afdc-f816-4e36-bd15-33e921cb1899","ios":"levelo://app?vid=99a2afdc-f816-4e36-bd15-33e921cb1899"},"vehicle_type_id":"4","last_reported":1732601629,"current_range_meters":38000,"station_id":"ce4bhip2rcd13ifvqft0","pricing_plan_id":"cebpf4jnsgd1na2vs0mg"},{"bike_id":"f4fc953c-25f6-4372-8b70-e26ecd996c79","system_id":"levelo_inurba_marseille","lat":43.28433,"lon":5.39194,"is_reserved":false,"is_disabled":false,"rental_uris":{"android":"levelo://app?vid=f4fc953c-25f6-4372-8b70-e26ecd996c79","ios":"levelo://app?vid=f4fc953c-25f6-4372-8b70-e26ecd996c79"},"vehicle_type_id":"4","last_reported":1732601629,"current_range_meters":38800,"station_id":"ce4bhoh2rcd13ifvqh5g","pricing_plan_id":"cebpf4jnsgd1na2vs0mg"},{"bike_id":"62bcad95-d3e2-434c-81f4-127757d19c4c","system_id":"levelo_inurba_marseille","lat":43.2922,"lon":5.39595,"is_reserved":false,"is_disabled":true,"rental_uris":{"android":"levelo://app?vid=62bcad95-d3e2-434c-81f4-127757d19c4c","ios":"levelo://app?vid=62bcad95-d3e2-434c-81f4-127757d19c4c"},"vehicle_type_id":"4","last_reported":1732601629,"current_range_meters":0,"station_id":"","pricing_plan_id":"cebpf4jnsgd1na2vs0mg"},{"bike_id":"e0acdd45-da0a-4770-a2d8-6e0fcfd38f9d","system_id":"levelo_inurba_marseille","lat":43.28665,"lon":5.36356,"is_reserved":false,"is_disabled":false,"rental_uris":{"android":"levelo://app?vid=e0acdd45-da0a-4770-a2d8-6e0fcfd38f9d","ios":"levelo://app?vid=e0acdd45-da0a-4770-a2d8-6e0fcfd38f9d"},"vehicle_type_id":"4","last_reported":1732601629,"current_range_meters":38800,"station_id":"ce4bhah2rcd13ifvqej0","pricing_plan_id":"cebpf4jnsgd1na2vs0mg"},{"bike_id":"36e7a4a3-3b46-4cd6-a343-82123920ae91","system_id":"levelo_inurba_marseille","lat":43.30889,"lon":5.39634,"is_reserved":false,"is_disabled":false,"rental_uris":{"android":"levelo://app?vid=36e7a4a3-3b46-4cd6-a343-82123920ae91","ios":"levelo://app?vid=36e7a4a3-3b46-4cd6-a343-82123920ae91"},"vehicle_type_id":"4","last_reported":1732601629,"current_range_meters":24000,"station_id":"ce4bh012rcd13ifvqcv0","pricing_plan_id":"cebpf4jnsgd1na2vs0mg"},{"bike_id":"6675df3d-5e20-4072-be99-5a5eddd40672","system_id":"levelo_inurba_marseille","lat":43.232016,"lon":5.35551,"is_reserved":false,"is_disabled":false,"rental_uris":{"android":"levelo://app?vid=6675df3d-5e20-4072-be99-5a5eddd40672","ios":"levelo://app?vid=6675df3d-5e20-4072-be99-5a5eddd40672"},"vehicle_type_id":"4","last_reported":1732601629,"current_range_meters":10800,"station_id":"ce4bhu92rcd13ifvqi70","pricing_plan_id":"cebpf4jnsgd1na2vs0mg"},{"bike_id":"36296f5c-0176-4be0-97c8-7930cda9c369","system_id":"levelo_inurba_marseille","lat":43.32106,"lon":5.3677,"is_reserved":false,"is_disabled":false,"rental_uris":{"android":"levelo://app?vid=36296f5c-0176-4be0-97c8-7930cda9c369","ios":"levelo://app?vid=36296f5c-0176-4be0-97c8-7930cda9c369"},"vehicle_type_id":"4","last_reported":1732601629,"current_range_meters":24000,"station_id":"ce4bhrh2rcd13ifvqhug","pricing_plan_id":"cebpf4jnsgd1na2vs0mg"},{"bike_id":"ed10f4d3-afff-436a-ab5f-5037a2840d0c","system_id":"levelo_inurba_marseille","lat":43.299695,"lon":5.371769,"is_reserved":false,"is_disabled":false,"rental_uris":{"android":"levelo://app?vid=ed10f4d3-afff-436a-ab5f-5037a2840d0c","ios":"levelo://app?vid=ed10f4d3-afff-436a-ab5f-5037a2840d0c"},"vehicle_type_id":"4","last_reported":1732601629,"current_range_meters":38800,"station_id":"ce4bgr92rcd13ifvqc7g","pricing_plan_id":"cebpf4jnsgd1na2vs0mg"},{"bike_id":"87703e69-e2dd-47ca-ac7c-d25cc03900f2","system_id":"levelo_inurba_marseille","lat":43.31058,"lon":5.40099,"is_reserved":false,"is_disabled":false,"rental_uris":{"android":"levelo://app?vid=87703e69-e2dd-47ca-ac7c-d25cc03900f2","ios":"levelo://app?vid=87703e69-e2dd-47ca-ac7c-d25cc03900f2"},"vehicle_type_id":"4","last_reported":1732601629,"current_range_meters":38800,"station_id":"","pricing_plan_id":"cebpf4jnsgd1na2vs0mg"},{"bike_id":"64c786a7-a675-46ef-b76d-dc675abe702f","system_id":"levelo_inurba_marseille","lat":43.23182,"lon":5.3999,"is_reserved":false,"is_disabled":false,"rental_uris":{"android":"levelo://app?vid=64c786a7-a675-46ef-b76d-dc675abe702f","ios":"levelo://app?vid=64c786a7-a675-46ef-b76d-dc675abe702f"},"vehicle_type_id":"4","last_reported":1732601629,"current_range_meters":6400,"station_id":"ce4bhn12rcd13ifvqgqg","pricing_plan_id":"cebpf4jnsgd1na2vs0mg"},{"bike_id":"49639baf-51ff-4566-b031-b73f0b3eb811","system_id":"levelo_inurba_marseille","lat":43.31756,"lon":5.39013,"is_reserved":false,"is_disabled":false,"rental_uris":{"android":"levelo://app?vid=49639baf-51ff-4566-b031-b73f0b3eb811","ios":"levelo://app?vid=49639baf-51ff-4566-b031-b73f0b3eb811"},"vehicle_type_id":"4","last_reported":1732601629,"current_range_meters":26800,"station_id":"ce4bhqp2rcd13ifvqhng","pricing_plan_id":"cebpf4jnsgd1na2vs0mg"},{"bike_id":"91e84777-21c5-45fb-a8cf-2d0f109b233e","system_id":"levelo_inurba_marseille","lat":43.289344,"lon":5.396175,"is_reserved":false,"is_disabled":false,"rental_uris":{"android":"levelo://app?vid=91e84777-21c5-45fb-a8cf-2d0f109b233e","ios":"levelo://app?vid=91e84777-21c5-45fb-a8cf-2d0f109b233e"},"vehicle_type_id":"4","last_reported":1732601629,"current_range_meters":25600,"station_id":"ce4bh3h2rcd13ifvqdn0","pricing_plan_id":"cebpf4jnsgd1na2vs0mg"},{"bike_id":"1ebc2642-599e-41e5-89df-308a45bbfcfb","system_id":"levelo_inurba_marseille","lat":43.32102,"lon":5.36778,"is_reserved":false,"is_disabled":false,"rental_uris":{"android":"levelo://app?vid=1ebc2642-599e-41e5-89df-308a45bbfcfb","ios":"levelo://app?vid=1ebc2642-599e-41e5-89df-308a45bbfcfb"},"vehicle_type_id":"4","last_reported":1732601629,"current_range_meters":16400,"station_id":"ce4bhrh2rcd13ifvqhug","pricing_plan_id":"cebpf4jnsgd1na2vs0mg"},{"bike_id":"4977775d-5ef3-4b61-b436-18a2d0b15418","system_id":"levelo_inurba_marseille","lat":43.25868,"lon":5.39908,"is_reserved":false,"is_disabled":false,"rental_uris":{"android":"levelo://app?vid=4977775d-5ef3-4b61-b436-18a2d0b15418","ios":"levelo://app?vid=4977775d-5ef3-4b61-b436-18a2d0b15418"},"vehicle_type_id":"4","last_reported":1732601629,"current_range_meters":20400,"station_id":"ce4bhl92rcd13ifvqghg","pricing_plan_id":"cebpf4jnsgd1na2vs0mg"},{"bike_id":"4b94ccf5-6846-4a3f-b392-e508bd02fc54","system_id":"levelo_inurba_marseille","lat":43.308908,"lon":5.371945,"is_reserved":false,"is_disabled":false,"rental_uris":{"android":"levelo://app?vid=4b94ccf5-6846-4a3f-b392-e508bd02fc54","ios":"levelo://app?vid=4b94ccf5-6846-4a3f-b392-e508bd02fc54"},"vehicle_type_id":"4","last_reported":1732601629,"current_range_meters":38400,"station_id":"ce4bguh2rcd13ifvqckg","pricing_plan_id":"cebpf4jnsgd1na2vs0mg"},{"bike_id":"baa6b116-33e8-4eeb-949d-8ad46185256a","system_id":"levelo_inurba_marseille","lat":43.32539,"lon":5.41439,"is_reserved":false,"is_disabled":false,"rental_uris":{"android":"levelo://app?vid=baa6b116-33e8-4eeb-949d-8ad46185256a","ios":"levelo://app?vid=baa6b116-33e8-4eeb-949d-8ad46185256a"},"vehicle_type_id":"4","last_reported":1732601629,"current_range_meters":38400,"station_id":"ce4bhq12rcd13ifvqhhg","pricing_plan_id":"cebpf4jnsgd1na2vs0mg"},{"bike_id":"e8a12a11-eb94-43a1-89dc-1a990d2d11f4","system_id":"levelo_inurba_marseille","lat":43.23146,"lon":5.43722,"is_reserved":false,"is_disabled":false,"rental_uris":{"android":"levelo://app?vid=e8a12a11-eb94-43a1-89dc-1a990d2d11f4","ios":"levelo://app?vid=e8a12a11-eb94-43a1-89dc-1a990d2d11f4"},"vehicle_type_id":"4","last_reported":1732601629,"current_range_meters":38800,"station_id":"ce4bhmp2rcd13ifvqgog","pricing_plan_id":"cebpf4jnsgd1na2vs0mg"},{"bike_id":"4bda66df-ca57-4b1d-9f82-654d7b0e75b5","system_id":"levelo_inurba_marseille","lat":43.2508,"lon":5.39522,"is_reserved":false,"is_disabled":false,"rental_uris":{"android":"levelo://app?vid=4bda66df-ca57-4b1d-9f82-654d7b0e75b5","ios":"levelo://app?vid=4bda66df-ca57-4b1d-9f82-654d7b0e75b5"},"vehicle_type_id":"4","last_reported":1732601629,"current_range_meters":27200,"station_id":"ce4bhm12rcd13ifvqgkg","pricing_plan_id":"cebpf4jnsgd1na2vs0mg"},{"bike_id":"3eaa6b4c-f768-4870-822c-5d2fe940ceb3","system_id":"levelo_inurba_marseille","lat":43.27176,"lon":5.41003,"is_reserved":false,"is_disabled":false,"rental_uris":{"android":"levelo://app?vid=3eaa6b4c-f768-4870-822c-5d2fe940ceb3","ios":"levelo://app?vid=3eaa6b4c-f768-4870-822c-5d2fe940ceb3"},"vehicle_type_id":"4","last_reported":1732601629,"current_range_meters":9200,"station_id":"ce4bhl12rcd13ifvqgf0","pricing_plan_id":"cebpf4jnsgd1na2vs0mg"},{"bike_id":"a0671414-075f-4c51-afa3-8a0544e0da0e","system_id":"levelo_inurba_marseille","lat":43.2407,"lon":5.3776,"is_reserved":false,"is_disabled":false,"rental_uris":{"android":"levelo://app?vid=a0671414-075f-4c51-afa3-8a0544e0da0e","ios":"levelo://app?vid=a0671414-075f-4c51-afa3-8a0544e0da0e"},"vehicle_type_id":"4","last_reported":1732601629,"current_range_meters":14800,"station_id":"ce4bhnp2rcd13ifvqgvg","pricing_plan_id":"cebpf4jnsgd1na2vs0mg"},{"bike_id":"5bf94cec-5d70-4fe6-850b-65fe88c67777","system_id":"levelo_inurba_marseille","lat":43.30558,"lon":5.36549,"is_reserved":false,"is_disabled":true,"rental_uris":{"android":"levelo://app?vid=5bf94cec-5d70-4fe6-850b-65fe88c67777","ios":"levelo://app?vid=5bf94cec-5d70-4fe6-850b-65fe88c67777"},"vehicle_type_id":"4","last_reported":1732601629,"current_range_meters":4000,"station_id":"ce4bgs12rcd13ifvqcag","pricing_plan_id":"cebpf4jnsgd1na2vs0mg"},{"bike_id":"129784fe-5192-4f91-b228-a5c5da2a1e5c","system_id":"levelo_inurba_marseille","lat":43.26203,"lon":5.37918,"is_reserved":false,"is_disabled":true,"rental_uris":{"android":"levelo://app?vid=129784fe-5192-4f91-b228-a5c5da2a1e5c","ios":"levelo://app?vid=129784fe-5192-4f91-b228-a5c5da2a1e5c"},"vehicle_type_id":"4","last_reported":1732601629,"current_range_meters":6800,"station_id":"ce4bhjp2rcd13ifvqg90","pricing_plan_id":"cebpf4jnsgd1na2vs0mg"},{"bike_id":"de9e3783-4df1-4bb8-b21c-29b191ed820e","system_id":"levelo_inurba_marseille","lat":43.28605,"lon":5.35103,"is_reserved":false,"is_disabled":false,"rental_uris":{"android":"levelo://app?vid=de9e3783-4df1-4bb8-b21c-29b191ed820e","ios":"levelo://app?vid=de9e3783-4df1-4bb8-b21c-29b191ed820e"},"vehicle_type_id":"4","last_reported":1732601629,"current_range_meters":18000,"station_id":"ce4bhch2rcd13ifvqeug","pricing_plan_id":"cebpf4jnsgd1na2vs0mg"},{"bike_id":"b1fbba4e-1994-4439-9d18-322628017ed9","system_id":"levelo_inurba_marseille","lat":43.279416,"lon":5.41038,"is_reserved":false,"is_disabled":false,"rental_uris":{"android":"levelo://app?vid=b1fbba4e-1994-4439-9d18-322628017ed9","ios":"levelo://app?vid=b1fbba4e-1994-4439-9d18-322628017ed9"},"vehicle_type_id":"4","last_reported":1732601629,"current_range_meters":29600,"station_id":"ce4bhnp2rcd13ifvqh0g","pricing_plan_id":"cebpf4jnsgd1na2vs0mg"},{"bike_id":"ebef973d-7d44-4caa-ab42-6ba80a45b9d6","system_id":"levelo_inurba_marseille","lat":43.30781,"lon":5.37654,"is_reserved":false,"is_disabled":false,"rental_uris":{"android":"levelo://app?vid=ebef973d-7d44-4caa-ab42-6ba80a45b9d6","ios":"levelo://app?vid=ebef973d-7d44-4caa-ab42-6ba80a45b9d6"},"vehicle_type_id":"4","last_reported":1732601629,"current_range_meters":38800,"station_id":"ce4bgv92rcd13ifvqcq0","pricing_plan_id":"cebpf4jnsgd1na2vs0mg"},{"bike_id":"2495b441-39ff-4d05-9add-5c136ffeb4ba","system_id":"levelo_inurba_marseille","lat":43.29297,"lon":5.40501,"is_reserved":false,"is_disabled":false,"rental_uris":{"android":"levelo://app?vid=2495b441-39ff-4d05-9add-5c136ffeb4ba","ios":"levelo://app?vid=2495b441-39ff-4d05-9add-5c136ffeb4ba"},"vehicle_type_id":"4","last_reported":1732601629,"current_range_meters":24400,"station_id":"","pricing_plan_id":"cebpf4jnsgd1na2vs0mg"},{"bike_id":"6c03a6e6-5201-4f36-ac54-dc619c2a1897","system_id":"levelo_inurba_marseille","lat":43.31358,"lon":5.38502,"is_reserved":false,"is_disabled":false,"rental_uris":{"android":"levelo://app?vid=6c03a6e6-5201-4f36-ac54-dc619c2a1897","ios":"levelo://app?vid=6c03a6e6-5201-4f36-ac54-dc619c2a1897"},"vehicle_type_id":"4","last_reported":1732601629,"current_range_meters":35600,"station_id":"ce4bgt92rcd13ifvqcf0","pricing_plan_id":"cebpf4jnsgd1na2vs0mg"},{"bike_id":"bbb73ab9-d811-43f0-9f4c-10f596fcd1ce","system_id":"levelo_inurba_marseille","lat":43.31714,"lon":5.42402,"is_reserved":false,"is_disabled":false,"rental_uris":{"android":"levelo://app?vid=bbb73ab9-d811-43f0-9f4c-10f596fcd1ce","ios":"levelo://app?vid=bbb73ab9-d811-43f0-9f4c-10f596fcd1ce"},"vehicle_type_id":"4","last_reported":1732601629,"current_range_meters":22400,"station_id":"ce4bhp92rcd13ifvqhbg","pricing_plan_id":"cebpf4jnsgd1na2vs0mg"},{"bike_id":"f222c98c-ad3d-4c4b-926d-1850479d7cef","system_id":"levelo_inurba_marseille","lat":43.28451,"lon":5.35913,"is_reserved":false,"is_disabled":false,"rental_uris":{"android":"levelo://app?vid=f222c98c-ad3d-4c4b-926d-1850479d7cef","ios":"levelo://app?vid=f222c98c-ad3d-4c4b-926d-1850479d7cef"},"vehicle_type_id":"4","last_reported":1732601629,"current_range_meters":38000,"station_id":"ce4bhah2rcd13ifvqei0","pricing_plan_id":"cebpf4jnsgd1na2vs0mg"},{"bike_id":"cbc2167d-639d-4b33-b914-3ad6f36f2868","system_id":"levelo_inurba_marseille","lat":43.22925,"lon":5.35374,"is_reserved":false,"is_disabled":false,"rental_uris":{"android":"levelo://app?vid=cbc2167d-639d-4b33-b914-3ad6f36f2868","ios":"levelo://app?vid=cbc2167d-639d-4b33-b914-3ad6f36f2868"},"vehicle_type_id":"4","last_reported":1732601629,"current_range_meters":27200,"station_id":"cpo3532slgdg3j2ikp40","pricing_plan_id":"cebpf4jnsgd1na2vs0mg"},{"bike_id":"331a6872-6d04-4b0d-aa25-bf379c4bfa68","system_id":"levelo_inurba_marseille","lat":43.28348,"lon":5.38117,"is_reserved":false,"is_disabled":false,"rental_uris":{"android":"levelo://app?vid=331a6872-6d04-4b0d-aa25-bf379c4bfa68","ios":"levelo://app?vid=331a6872-6d04-4b0d-aa25-bf379c4bfa68"},"vehicle_type_id":"4","last_reported":1732601629,"current_range_meters":38800,"station_id":"ce4bh412rcd13ifvqdr0","pricing_plan_id":"cebpf4jnsgd1na2vs0mg"},{"bike_id":"cfbf7fa3-0615-4700-9b2b-aaa13ae7357c","system_id":"levelo_inurba_marseille","lat":43.27822,"lon":5.39199,"is_reserved":false,"is_disabled":false,"rental_uris":{"android":"levelo://app?vid=cfbf7fa3-0615-4700-9b2b-aaa13ae7357c","ios":"levelo://app?vid=cfbf7fa3-0615-4700-9b2b-aaa13ae7357c"},"vehicle_type_id":"4","last_reported":1732601629,"current_range_meters":38800,"station_id":"ce4bhjp2rcd13ifvqga0","pricing_plan_id":"cebpf4jnsgd1na2vs0mg"},{"bike_id":"64d99805-5c2f-4296-94ac-5ea41a4650e3","system_id":"levelo_inurba_marseille","lat":43.2815,"lon":5.42649,"is_reserved":false,"is_disabled":false,"rental_uris":{"android":"levelo://app?vid=64d99805-5c2f-4296-94ac-5ea41a4650e3","ios":"levelo://app?vid=64d99805-5c2f-4296-94ac-5ea41a4650e3"},"vehicle_type_id":"4","last_reported":1732601629,"current_range_meters":17600,"station_id":"ce4bhnh2rcd13ifvqgug","pricing_plan_id":"cebpf4jnsgd1na2vs0mg"},{"bike_id":"efa0ed00-6534-4e7c-8d71-07bb629caa92","system_id":"levelo_inurba_marseille","lat":43.288502,"lon":5.358364,"is_reserved":false,"is_disabled":false,"rental_uris":{"android":"levelo://app?vid=efa0ed00-6534-4e7c-8d71-07bb629caa92","ios":"levelo://app?vid=efa0ed00-6534-4e7c-8d71-07bb629caa92"},"vehicle_type_id":"4","last_reported":1732601629,"current_range_meters":32800,"station_id":"ce4bhb12rcd13ifvqem0","pricing_plan_id":"cebpf4jnsgd1na2vs0mg"},{"bike_id":"7cdba1e0-37e6-4aeb-962b-9fb9570dfeff","system_id":"levelo_inurba_marseille","lat":43.24811,"lon":5.37461,"is_reserved":false,"is_disabled":false,"rental_uris":{"android":"levelo://app?vid=7cdba1e0-37e6-4aeb-962b-9fb9570dfeff","ios":"levelo://app?vid=7cdba1e0-37e6-4aeb-962b-9fb9570dfeff"},"vehicle_type_id":"4","last_reported":1732601629,"current_range_meters":38000,"station_id":"ce4bhgh2rcd13ifvqfb0","pricing_plan_id":"cebpf4jnsgd1na2vs0mg"},{"bike_id":"abcc7733-24ca-40e7-bed8-88a154357983","system_id":"levelo_inurba_marseille","lat":43.337444,"lon":5.374475,"is_reserved":false,"is_disabled":false,"rental_uris":{"android":"levelo://app?vid=abcc7733-24ca-40e7-bed8-88a154357983","ios":"levelo://app?vid=abcc7733-24ca-40e7-bed8-88a154357983"},"vehicle_type_id":"4","last_reported":1732601629,"current_range_meters":9600,"station_id":"","pricing_plan_id":"cebpf4jnsgd1na2vs0mg"},{"bike_id":"d0b8d481-6f4e-47a6-8c5b-ee06770e49a6","system_id":"levelo_inurba_marseille","lat":43.31753,"lon":5.39014,"is_reserved":false,"is_disabled":false,"rental_uris":{"android":"levelo://app?vid=d0b8d481-6f4e-47a6-8c5b-ee06770e49a6","ios":"levelo://app?vid=d0b8d481-6f4e-47a6-8c5b-ee06770e49a6"},"vehicle_type_id":"4","last_reported":1732601629,"current_range_meters":38800,"station_id":"ce4bhqp2rcd13ifvqhng","pricing_plan_id":"cebpf4jnsgd1na2vs0mg"},{"bike_id":"7ae5f3da-849c-4700-9dc8-b50463cbb5f1","system_id":"levelo_inurba_marseille","lat":43.27189,"lon":5.39204,"is_reserved":false,"is_disabled":false,"rental_uris":{"android":"levelo://app?vid=7ae5f3da-849c-4700-9dc8-b50463cbb5f1","ios":"levelo://app?vid=7ae5f3da-849c-4700-9dc8-b50463cbb5f1"},"vehicle_type_id":"4","last_reported":1732601629,"current_range_meters":20400,"station_id":"ce4bhhp2rcd13ifvqfm0","pricing_plan_id":"cebpf4jnsgd1na2vs0mg"},{"bike_id":"706196de-0e8a-423e-9353-6d21b7d25ec5","system_id":"levelo_inurba_marseille","lat":43.28735,"lon":5.36083,"is_reserved":false,"is_disabled":false,"rental_uris":{"android":"levelo://app?vid=706196de-0e8a-423e-9353-6d21b7d25ec5","ios":"levelo://app?vid=706196de-0e8a-423e-9353-6d21b7d25ec5"},"vehicle_type_id":"4","last_reported":1732601629,"current_range_meters":38800,"station_id":"cki0cbj6b192h4jlfktg","pricing_plan_id":"cebpf4jnsgd1na2vs0mg"},{"bike_id":"0920fd8c-3809-4cef-81d9-980c6d92994d","system_id":"levelo_inurba_marseille","lat":43.2319,"lon":5.39978,"is_reserved":false,"is_disabled":false,"rental_uris":{"android":"levelo://app?vid=0920fd8c-3809-4cef-81d9-980c6d92994d","ios":"levelo://app?vid=0920fd8c-3809-4cef-81d9-980c6d92994d"},"vehicle_type_id":"4","last_reported":1732601629,"current_range_meters":10000,"station_id":"ce4bhn12rcd13ifvqgqg","pricing_plan_id":"cebpf4jnsgd1na2vs0mg"},{"bike_id":"d5bf9026-055a-467f-ae99-9edb45b9fca3","system_id":"levelo_inurba_marseille","lat":43.287011,"lon":5.399698,"is_reserved":false,"is_disabled":false,"rental_uris":{"android":"levelo://app?vid=d5bf9026-055a-467f-ae99-9edb45b9fca3","ios":"levelo://app?vid=d5bf9026-055a-467f-ae99-9edb45b9fca3"},"vehicle_type_id":"4","last_reported":1732601629,"current_range_meters":38800,"station_id":"ce4bho92rcd13ifvqh3g","pricing_plan_id":"cebpf4jnsgd1na2vs0mg"},{"bike_id":"ee30cd3d-5334-4fc1-b8ac-a6fbd9bc84d3","system_id":"levelo_inurba_marseille","lat":43.24653,"lon":5.38901,"is_reserved":false,"is_disabled":false,"rental_uris":{"android":"levelo://app?vid=ee30cd3d-5334-4fc1-b8ac-a6fbd9bc84d3","ios":"levelo://app?vid=ee30cd3d-5334-4fc1-b8ac-a6fbd9bc84d3"},"vehicle_type_id":"4","last_reported":1732601629,"current_range_meters":38400,"station_id":"ce4bhg12rcd13ifvqf60","pricing_plan_id":"cebpf4jnsgd1na2vs0mg"},{"bike_id":"86031664-e533-44f9-bca1-2d611f2f18b6","system_id":"levelo_inurba_marseille","lat":43.30781,"lon":5.37654,"is_reserved":false,"is_disabled":false,"rental_uris":{"android":"levelo://app?vid=86031664-e533-44f9-bca1-2d611f2f18b6","ios":"levelo://app?vid=86031664-e533-44f9-bca1-2d611f2f18b6"},"vehicle_type_id":"4","last_reported":1732601629,"current_range_meters":16400,"station_id":"ce4bgv92rcd13ifvqcq0","pricing_plan_id":"cebpf4jnsgd1na2vs0mg"},{"bike_id":"ed00ff1c-a428-4ce5-a455-260378e65da7","system_id":"levelo_inurba_marseille","lat":43.288004,"lon":5.400209,"is_reserved":false,"is_disabled":true,"rental_uris":{"android":"levelo://app?vid=ed00ff1c-a428-4ce5-a455-260378e65da7","ios":"levelo://app?vid=ed00ff1c-a428-4ce5-a455-260378e65da7"},"vehicle_type_id":"4","last_reported":1732601629,"current_range_meters":0,"station_id":"","pricing_plan_id":"cebpf4jnsgd1na2vs0mg"},{"bike_id":"9c9cda8c-65de-41ec-a6f6-ab7be57b8d59","system_id":"levelo_inurba_marseille","lat":43.27559,"lon":5.38432,"is_reserved":false,"is_disabled":true,"rental_uris":{"android":"levelo://app?vid=9c9cda8c-65de-41ec-a6f6-ab7be57b8d59","ios":"levelo://app?vid=9c9cda8c-65de-41ec-a6f6-ab7be57b8d59"},"vehicle_type_id":"4","last_reported":1732601629,"current_range_meters":22400,"station_id":"ce4bhh92rcd13ifvqfi0","pricing_plan_id":"cebpf4jnsgd1na2vs0mg"},{"bike_id":"f34380b3-8c2f-432f-bdd6-f96c1bd640b7","system_id":"levelo_inurba_marseille","lat":43.28564,"lon":5.39465,"is_reserved":false,"is_disabled":false,"rental_uris":{"android":"levelo://app?vid=f34380b3-8c2f-432f-bdd6-f96c1bd640b7","ios":"levelo://app?vid=f34380b3-8c2f-432f-bdd6-f96c1bd640b7"},"vehicle_type_id":"4","last_reported":1732601629,"current_range_meters":20800,"station_id":"ce4bh292rcd13ifvqdg0","pricing_plan_id":"cebpf4jnsgd1na2vs0mg"},{"bike_id":"858b65e1-94fc-4151-a71e-8b168cb19dcb","system_id":"levelo_inurba_marseille","lat":43.32249,"lon":5.39241,"is_reserved":false,"is_disabled":true,"rental_uris":{"android":"levelo://app?vid=858b65e1-94fc-4151-a71e-8b168cb19dcb","ios":"levelo://app?vid=858b65e1-94fc-4151-a71e-8b168cb19dcb"},"vehicle_type_id":"4","last_reported":1732601629,"current_range_meters":0,"station_id":"","pricing_plan_id":"cebpf4jnsgd1na2vs0mg"},{"bike_id":"4fe7f579-5ded-4da8-8ade-844ae89b74fd","system_id":"levelo_inurba_marseille","lat":43.31332,"lon":5.39696,"is_reserved":false,"is_disabled":false,"rental_uris":{"android":"levelo://app?vid=4fe7f579-5ded-4da8-8ade-844ae89b74fd","ios":"levelo://app?vid=4fe7f579-5ded-4da8-8ade-844ae89b74fd"},"vehicle_type_id":"4","last_reported":1732601629,"current_range_meters":18800,"station_id":"ce4bgvp2rcd13ifvqcu0","pricing_plan_id":"cebpf4jnsgd1na2vs0mg"},{"bike_id":"067fd522-8aa7-423b-9a73-f6378f6e6c9b","system_id":"levelo_inurba_marseille","lat":43.28944,"lon":5.39631,"is_reserved":false,"is_disabled":false,"rental_uris":{"android":"levelo://app?vid=067fd522-8aa7-423b-9a73-f6378f6e6c9b","ios":"levelo://app?vid=067fd522-8aa7-423b-9a73-f6378f6e6c9b"},"vehicle_type_id":"4","last_reported":1732601629,"current_range_meters":20000,"station_id":"ce4bh3h2rcd13ifvqdn0","pricing_plan_id":"cebpf4jnsgd1na2vs0mg"},{"bike_id":"a0dfc274-3c6e-4730-92e2-37648accc5ec","system_id":"levelo_inurba_marseille","lat":43.29185,"lon":5.39358,"is_reserved":false,"is_disabled":false,"rental_uris":{"android":"levelo://app?vid=a0dfc274-3c6e-4730-92e2-37648accc5ec","ios":"levelo://app?vid=a0dfc274-3c6e-4730-92e2-37648accc5ec"},"vehicle_type_id":"4","last_reported":1732601629,"current_range_meters":32400,"station_id":"","pricing_plan_id":"cebpf4jnsgd1na2vs0mg"},{"bike_id":"fb6f267e-8f2f-4000-94c2-2899cf721536","system_id":"levelo_inurba_marseille","lat":43.30973,"lon":5.40588,"is_reserved":false,"is_disabled":false,"rental_uris":{"android":"levelo://app?vid=fb6f267e-8f2f-4000-94c2-2899cf721536","ios":"levelo://app?vid=fb6f267e-8f2f-4000-94c2-2899cf721536"},"vehicle_type_id":"4","last_reported":1732601629,"current_range_meters":8400,"station_id":"","pricing_plan_id":"cebpf4jnsgd1na2vs0mg"},{"bike_id":"a83da327-cc6e-409f-b844-cdcc6cb802d0","system_id":"levelo_inurba_marseille","lat":43.31357,"lon":5.38497,"is_reserved":false,"is_disabled":true,"rental_uris":{"android":"levelo://app?vid=a83da327-cc6e-409f-b844-cdcc6cb802d0","ios":"levelo://app?vid=a83da327-cc6e-409f-b844-cdcc6cb802d0"},"vehicle_type_id":"4","last_reported":1732601629,"current_range_meters":0,"station_id":"ce4bgt92rcd13ifvqcf0","pricing_plan_id":"cebpf4jnsgd1na2vs0mg"},{"bike_id":"2b076fd7-7460-4f2e-836d-531982b1a050","system_id":"levelo_inurba_marseille","lat":43.296285,"lon":5.371485,"is_reserved":false,"is_disabled":true,"rental_uris":{"android":"levelo://app?vid=2b076fd7-7460-4f2e-836d-531982b1a050","ios":"levelo://app?vid=2b076fd7-7460-4f2e-836d-531982b1a050"},"vehicle_type_id":"4","last_reported":1732601629,"current_range_meters":33600,"station_id":"ce4bgnh2rcd13ifvqc0g","pricing_plan_id":"cebpf4jnsgd1na2vs0mg"},{"bike_id":"3a027b97-13d4-4577-ae45-ae29359a0976","system_id":"levelo_inurba_marseille","lat":43.27561,"lon":5.3842,"is_reserved":false,"is_disabled":false,"rental_uris":{"android":"levelo://app?vid=3a027b97-13d4-4577-ae45-ae29359a0976","ios":"levelo://app?vid=3a027b97-13d4-4577-ae45-ae29359a0976"},"vehicle_type_id":"4","last_reported":1732601629,"current_range_meters":38800,"station_id":"ce4bhh92rcd13ifvqfi0","pricing_plan_id":"cebpf4jnsgd1na2vs0mg"},{"bike_id":"f12c4fe4-6f68-4124-bfb2-25229f191867","system_id":"levelo_inurba_marseille","lat":43.30604,"lon":5.37271,"is_reserved":false,"is_disabled":false,"rental_uris":{"android":"levelo://app?vid=f12c4fe4-6f68-4124-bfb2-25229f191867","ios":"levelo://app?vid=f12c4fe4-6f68-4124-bfb2-25229f191867"},"vehicle_type_id":"4","last_reported":1732601629,"current_range_meters":39200,"station_id":"ce4bgqh2rcd13ifvqc4g","pricing_plan_id":"cebpf4jnsgd1na2vs0mg"},{"bike_id":"498bf59c-2312-4322-b7ce-eec243c6f86b","system_id":"levelo_inurba_marseille","lat":43.30785,"lon":5.37639,"is_reserved":false,"is_disabled":false,"rental_uris":{"android":"levelo://app?vid=498bf59c-2312-4322-b7ce-eec243c6f86b","ios":"levelo://app?vid=498bf59c-2312-4322-b7ce-eec243c6f86b"},"vehicle_type_id":"4","last_reported":1732601629,"current_range_meters":28800,"station_id":"ce4bgv92rcd13ifvqcq0","pricing_plan_id":"cebpf4jnsgd1na2vs0mg"},{"bike_id":"3bd4e758-1aa1-43e4-bf3f-c7c2dd799e60","system_id":"levelo_inurba_marseille","lat":43.23145,"lon":5.43729,"is_reserved":false,"is_disabled":false,"rental_uris":{"android":"levelo://app?vid=3bd4e758-1aa1-43e4-bf3f-c7c2dd799e60","ios":"levelo://app?vid=3bd4e758-1aa1-43e4-bf3f-c7c2dd799e60"},"vehicle_type_id":"4","last_reported":1732601629,"current_range_meters":38000,"station_id":"ce4bhmp2rcd13ifvqgog","pricing_plan_id":"cebpf4jnsgd1na2vs0mg"},{"bike_id":"f4916991-c85f-4b7f-b703-7d2e6b8efcdf","system_id":"levelo_inurba_marseille","lat":43.33749,"lon":5.37461,"is_reserved":false,"is_disabled":false,"rental_uris":{"android":"levelo://app?vid=f4916991-c85f-4b7f-b703-7d2e6b8efcdf","ios":"levelo://app?vid=f4916991-c85f-4b7f-b703-7d2e6b8efcdf"},"vehicle_type_id":"4","last_reported":1732601629,"current_range_meters":35200,"station_id":"","pricing_plan_id":"cebpf4jnsgd1na2vs0mg"},{"bike_id":"bc0c529a-a8e3-4d1e-b42d-04fd73268cf8","system_id":"levelo_inurba_marseille","lat":43.31704,"lon":5.3775,"is_reserved":false,"is_disabled":false,"rental_uris":{"android":"levelo://app?vid=bc0c529a-a8e3-4d1e-b42d-04fd73268cf8","ios":"levelo://app?vid=bc0c529a-a8e3-4d1e-b42d-04fd73268cf8"},"vehicle_type_id":"4","last_reported":1732601629,"current_range_meters":36800,"station_id":"ce4bgth2rcd13ifvqch0","pricing_plan_id":"cebpf4jnsgd1na2vs0mg"},{"bike_id":"292c1a26-ae28-4908-a339-5aa23b093de3","system_id":"levelo_inurba_marseille","lat":43.33729,"lon":5.39188,"is_reserved":false,"is_disabled":false,"rental_uris":{"android":"levelo://app?vid=292c1a26-ae28-4908-a339-5aa23b093de3","ios":"levelo://app?vid=292c1a26-ae28-4908-a339-5aa23b093de3"},"vehicle_type_id":"4","last_reported":1732601629,"current_range_meters":38400,"station_id":"ce4bhr92rcd13ifvqhsg","pricing_plan_id":"cebpf4jnsgd1na2vs0mg"},{"bike_id":"f7f3756c-1ec7-4782-9c87-6273f87b6774","system_id":"levelo_inurba_marseille","lat":43.337444,"lon":5.374475,"is_reserved":false,"is_disabled":true,"rental_uris":{"android":"levelo://app?vid=f7f3756c-1ec7-4782-9c87-6273f87b6774","ios":"levelo://app?vid=f7f3756c-1ec7-4782-9c87-6273f87b6774"},"vehicle_type_id":"4","last_reported":1732601629,"current_range_meters":20400,"station_id":"","pricing_plan_id":"cebpf4jnsgd1na2vs0mg"},{"bike_id":"ad7bd4c1-8ad2-40d2-9490-ece3eee957e6","system_id":"levelo_inurba_marseille","lat":43.27856,"lon":5.38079,"is_reserved":false,"is_disabled":true,"rental_uris":{"android":"levelo://app?vid=ad7bd4c1-8ad2-40d2-9490-ece3eee957e6","ios":"levelo://app?vid=ad7bd4c1-8ad2-40d2-9490-ece3eee957e6"},"vehicle_type_id":"4","last_reported":1732601629,"current_range_meters":28800,"station_id":"","pricing_plan_id":"cebpf4jnsgd1na2vs0mg"},{"bike_id":"ae78cd95-0524-4346-8c3e-35a78db9a346","system_id":"levelo_inurba_marseille","lat":43.26064,"lon":5.39396,"is_reserved":false,"is_disabled":false,"rental_uris":{"android":"levelo://app?vid=ae78cd95-0524-4346-8c3e-35a78db9a346","ios":"levelo://app?vid=ae78cd95-0524-4346-8c3e-35a78db9a346"},"vehicle_type_id":"4","last_reported":1732601629,"current_range_meters":16800,"station_id":"ce4bhh92rcd13ifvqfj0","pricing_plan_id":"cebpf4jnsgd1na2vs0mg"},{"bike_id":"680cf68f-607d-4868-8d73-d69c72e4287d","system_id":"levelo_inurba_marseille","lat":43.279682,"lon":5.38748,"is_reserved":false,"is_disabled":false,"rental_uris":{"android":"levelo://app?vid=680cf68f-607d-4868-8d73-d69c72e4287d","ios":"levelo://app?vid=680cf68f-607d-4868-8d73-d69c72e4287d"},"vehicle_type_id":"4","last_reported":1732601629,"current_range_meters":20000,"station_id":"ce4bhg12rcd13ifvqf80","pricing_plan_id":"cebpf4jnsgd1na2vs0mg"},{"bike_id":"a97e4d1b-4f4a-48fc-882e-058099634779","system_id":"levelo_inurba_marseille","lat":43.254919,"lon":5.376501,"is_reserved":false,"is_disabled":false,"rental_uris":{"android":"levelo://app?vid=a97e4d1b-4f4a-48fc-882e-058099634779","ios":"levelo://app?vid=a97e4d1b-4f4a-48fc-882e-058099634779"},"vehicle_type_id":"4","last_reported":1732601629,"current_range_meters":37600,"station_id":"ce4bhh12rcd13ifvqff0","pricing_plan_id":"cebpf4jnsgd1na2vs0mg"},{"bike_id":"348c7932-c38e-4401-9c08-aab87ce18ed7","system_id":"levelo_inurba_marseille","lat":43.31367,"lon":5.38503,"is_reserved":false,"is_disabled":false,"rental_uris":{"android":"levelo://app?vid=348c7932-c38e-4401-9c08-aab87ce18ed7","ios":"levelo://app?vid=348c7932-c38e-4401-9c08-aab87ce18ed7"},"vehicle_type_id":"4","last_reported":1732601629,"current_range_meters":33200,"station_id":"ce4bgt92rcd13ifvqcf0","pricing_plan_id":"cebpf4jnsgd1na2vs0mg"},{"bike_id":"14f3c269-ea7b-4aeb-9a6e-2af7df033998","system_id":"levelo_inurba_marseille","lat":43.26058,"lon":5.39396,"is_reserved":false,"is_disabled":false,"rental_uris":{"android":"levelo://app?vid=14f3c269-ea7b-4aeb-9a6e-2af7df033998","ios":"levelo://app?vid=14f3c269-ea7b-4aeb-9a6e-2af7df033998"},"vehicle_type_id":"4","last_reported":1732601629,"current_range_meters":39200,"station_id":"ce4bhh92rcd13ifvqfj0","pricing_plan_id":"cebpf4jnsgd1na2vs0mg"},{"bike_id":"08a198d7-556c-4248-9fbd-1c21aaf2dd82","system_id":"levelo_inurba_marseille","lat":43.29269,"lon":5.36839,"is_reserved":false,"is_disabled":true,"rental_uris":{"android":"levelo://app?vid=08a198d7-556c-4248-9fbd-1c21aaf2dd82","ios":"levelo://app?vid=08a198d7-556c-4248-9fbd-1c21aaf2dd82"},"vehicle_type_id":"4","last_reported":1732601629,"current_range_meters":30800,"station_id":"ce4bhbp2rcd13ifvqesg","pricing_plan_id":"cebpf4jnsgd1na2vs0mg"},{"bike_id":"7f89b812-16cb-4135-bc5f-efa2b244ec26","system_id":"levelo_inurba_marseille","lat":43.2655,"lon":5.37284,"is_reserved":false,"is_disabled":true,"rental_uris":{"android":"levelo://app?vid=7f89b812-16cb-4135-bc5f-efa2b244ec26","ios":"levelo://app?vid=7f89b812-16cb-4135-bc5f-efa2b244ec26"},"vehicle_type_id":"4","last_reported":1732601629,"current_range_meters":33200,"station_id":"ce4bhg12rcd13ifvqf70","pricing_plan_id":"cebpf4jnsgd1na2vs0mg"},{"bike_id":"fe673777-1b5b-4648-8037-3fe2b4fb3020","system_id":"levelo_inurba_marseille","lat":43.30886,"lon":5.39642,"is_reserved":false,"is_disabled":false,"rental_uris":{"android":"levelo://app?vid=fe673777-1b5b-4648-8037-3fe2b4fb3020","ios":"levelo://app?vid=fe673777-1b5b-4648-8037-3fe2b4fb3020"},"vehicle_type_id":"4","last_reported":1732601629,"current_range_meters":36800,"station_id":"ce4bh012rcd13ifvqcv0","pricing_plan_id":"cebpf4jnsgd1na2vs0mg"},{"bike_id":"f5658b6b-05db-4270-b5a2-b12a283db2c3","system_id":"levelo_inurba_marseille","lat":43.3226,"lon":5.38317,"is_reserved":false,"is_disabled":false,"rental_uris":{"android":"levelo://app?vid=f5658b6b-05db-4270-b5a2-b12a283db2c3","ios":"levelo://app?vid=f5658b6b-05db-4270-b5a2-b12a283db2c3"},"vehicle_type_id":"4","last_reported":1732601629,"current_range_meters":38800,"station_id":"ce4bhr12rcd13ifvqhqg","pricing_plan_id":"cebpf4jnsgd1na2vs0mg"},{"bike_id":"0cee1e36-52f5-4acb-ad26-846b4b450c43","system_id":"levelo_inurba_marseille","lat":43.25732,"lon":5.41104,"is_reserved":false,"is_disabled":false,"rental_uris":{"android":"levelo://app?vid=0cee1e36-52f5-4acb-ad26-846b4b450c43","ios":"levelo://app?vid=0cee1e36-52f5-4acb-ad26-846b4b450c43"},"vehicle_type_id":"4","last_reported":1732601629,"current_range_meters":11600,"station_id":"ce4bhkp2rcd13ifvqgd0","pricing_plan_id":"cebpf4jnsgd1na2vs0mg"},{"bike_id":"4ec0cf9e-acec-42dc-a4d1-2aeda856a839","system_id":"levelo_inurba_marseille","lat":43.26043,"lon":5.39836,"is_reserved":false,"is_disabled":false,"rental_uris":{"android":"levelo://app?vid=4ec0cf9e-acec-42dc-a4d1-2aeda856a839","ios":"levelo://app?vid=4ec0cf9e-acec-42dc-a4d1-2aeda856a839"},"vehicle_type_id":"4","last_reported":1732601629,"current_range_meters":32400,"station_id":"ce4bgn92rcd13ifvqbvg","pricing_plan_id":"cebpf4jnsgd1na2vs0mg"},{"bike_id":"a5909545-3e09-4859-9fda-9ffe4e6e4883","system_id":"levelo_inurba_marseille","lat":43.230652,"lon":5.354909,"is_reserved":false,"is_disabled":false,"rental_uris":{"android":"levelo://app?vid=a5909545-3e09-4859-9fda-9ffe4e6e4883","ios":"levelo://app?vid=a5909545-3e09-4859-9fda-9ffe4e6e4883"},"vehicle_type_id":"4","last_reported":1732601629,"current_range_meters":33200,"station_id":"cpo3342slgdg3j2ifvpg","pricing_plan_id":"cebpf4jnsgd1na2vs0mg"},{"bike_id":"804360f3-16fe-457c-ba2e-1997512a3bab","system_id":"levelo_inurba_marseille","lat":43.27981,"lon":5.3875,"is_reserved":false,"is_disabled":false,"rental_uris":{"android":"levelo://app?vid=804360f3-16fe-457c-ba2e-1997512a3bab","ios":"levelo://app?vid=804360f3-16fe-457c-ba2e-1997512a3bab"},"vehicle_type_id":"4","last_reported":1732601629,"current_range_meters":35600,"station_id":"ce4bhg12rcd13ifvqf80","pricing_plan_id":"cebpf4jnsgd1na2vs0mg"},{"bike_id":"70c3ee7d-a381-4c18-bd1a-20f27c8a88ed","system_id":"levelo_inurba_marseille","lat":43.27319,"lon":5.39102,"is_reserved":false,"is_disabled":false,"rental_uris":{"android":"levelo://app?vid=70c3ee7d-a381-4c18-bd1a-20f27c8a88ed","ios":"levelo://app?vid=70c3ee7d-a381-4c18-bd1a-20f27c8a88ed"},"vehicle_type_id":"4","last_reported":1732601629,"current_range_meters":35600,"station_id":"ce4bhgp2rcd13ifvqfe0","pricing_plan_id":"cebpf4jnsgd1na2vs0mg"},{"bike_id":"17b75900-f488-4de2-9e90-fbc8595d61ee","system_id":"levelo_inurba_marseille","lat":43.30469,"lon":5.37917,"is_reserved":false,"is_disabled":false,"rental_uris":{"android":"levelo://app?vid=17b75900-f488-4de2-9e90-fbc8595d61ee","ios":"levelo://app?vid=17b75900-f488-4de2-9e90-fbc8595d61ee"},"vehicle_type_id":"4","last_reported":1732601629,"current_range_meters":38400,"station_id":"ce4bgup2rcd13ifvqcn0","pricing_plan_id":"cebpf4jnsgd1na2vs0mg"},{"bike_id":"0e3841e7-049e-435a-ba83-2b896bfdb681","system_id":"levelo_inurba_marseille","lat":43.27913,"lon":5.41066,"is_reserved":false,"is_disabled":false,"rental_uris":{"android":"levelo://app?vid=0e3841e7-049e-435a-ba83-2b896bfdb681","ios":"levelo://app?vid=0e3841e7-049e-435a-ba83-2b896bfdb681"},"vehicle_type_id":"4","last_reported":1732601629,"current_range_meters":36400,"station_id":"ce4bhnp2rcd13ifvqh0g","pricing_plan_id":"cebpf4jnsgd1na2vs0mg"},{"bike_id":"180ea579-2742-49ec-b146-86e37413e735","system_id":"levelo_inurba_marseille","lat":43.317564,"lon":5.390184,"is_reserved":false,"is_disabled":false,"rental_uris":{"android":"levelo://app?vid=180ea579-2742-49ec-b146-86e37413e735","ios":"levelo://app?vid=180ea579-2742-49ec-b146-86e37413e735"},"vehicle_type_id":"4","last_reported":1732601629,"current_range_meters":34000,"station_id":"ce4bhqp2rcd13ifvqhng","pricing_plan_id":"cebpf4jnsgd1na2vs0mg"},{"bike_id":"d32e419a-46a3-4050-be6a-d2a299ac411f","system_id":"levelo_inurba_marseille","lat":43.293054,"lon":5.371815,"is_reserved":false,"is_disabled":true,"rental_uris":{"android":"levelo://app?vid=d32e419a-46a3-4050-be6a-d2a299ac411f","ios":"levelo://app?vid=d32e419a-46a3-4050-be6a-d2a299ac411f"},"vehicle_type_id":"4","last_reported":1732601629,"current_range_meters":23200,"station_id":"ce4bgh92rcd13ifvqb40","pricing_plan_id":"cebpf4jnsgd1na2vs0mg"},{"bike_id":"e55cb847-ae27-4fbd-b24c-f65df0e27256","system_id":"levelo_inurba_marseille","lat":43.28035,"lon":5.36939,"is_reserved":false,"is_disabled":true,"rental_uris":{"android":"levelo://app?vid=e55cb847-ae27-4fbd-b24c-f65df0e27256","ios":"levelo://app?vid=e55cb847-ae27-4fbd-b24c-f65df0e27256"},"vehicle_type_id":"4","last_reported":1732601629,"current_range_meters":26800,"station_id":"ce4bha12rcd13ifvqef0","pricing_plan_id":"cebpf4jnsgd1na2vs0mg"},{"bike_id":"7506d40e-ace0-4e59-98f4-df0391211c40","system_id":"levelo_inurba_marseille","lat":43.31369,"lon":5.38499,"is_reserved":false,"is_disabled":false,"rental_uris":{"android":"levelo://app?vid=7506d40e-ace0-4e59-98f4-df0391211c40","ios":"levelo://app?vid=7506d40e-ace0-4e59-98f4-df0391211c40"},"vehicle_type_id":"4","last_reported":1732601629,"current_range_meters":38800,"station_id":"ce4bgt92rcd13ifvqcf0","pricing_plan_id":"cebpf4jnsgd1na2vs0mg"},{"bike_id":"e5951ee3-4a5a-4ebb-b469-096c5188dfa3","system_id":"levelo_inurba_marseille","lat":43.23189,"lon":5.35559,"is_reserved":false,"is_disabled":false,"rental_uris":{"android":"levelo://app?vid=e5951ee3-4a5a-4ebb-b469-096c5188dfa3","ios":"levelo://app?vid=e5951ee3-4a5a-4ebb-b469-096c5188dfa3"},"vehicle_type_id":"4","last_reported":1732601629,"current_range_meters":36800,"station_id":"ce4bhu92rcd13ifvqi70","pricing_plan_id":"cebpf4jnsgd1na2vs0mg"},{"bike_id":"7cc15e67-b417-41c4-a7c4-8bc768e18862","system_id":"levelo_inurba_marseille","lat":43.30665,"lon":5.4008,"is_reserved":false,"is_disabled":false,"rental_uris":{"android":"levelo://app?vid=7cc15e67-b417-41c4-a7c4-8bc768e18862","ios":"levelo://app?vid=7cc15e67-b417-41c4-a7c4-8bc768e18862"},"vehicle_type_id":"4","last_reported":1732601629,"current_range_meters":13600,"station_id":"ce4bh112rcd13ifvqda0","pricing_plan_id":"cebpf4jnsgd1na2vs0mg"},{"bike_id":"4d0053b2-2b9d-4b9e-9f87-e7b7afa3ab62","system_id":"levelo_inurba_marseille","lat":43.30422,"lon":5.41289,"is_reserved":false,"is_disabled":false,"rental_uris":{"android":"levelo://app?vid=4d0053b2-2b9d-4b9e-9f87-e7b7afa3ab62","ios":"levelo://app?vid=4d0053b2-2b9d-4b9e-9f87-e7b7afa3ab62"},"vehicle_type_id":"4","last_reported":1732601629,"current_range_meters":35600,"station_id":"ce4bhop2rcd13ifvqh8g","pricing_plan_id":"cebpf4jnsgd1na2vs0mg"},{"bike_id":"ec2784af-2a59-4a4b-9888-bc06c45e7d3e","system_id":"levelo_inurba_marseille","lat":43.251097,"lon":5.403272,"is_reserved":false,"is_disabled":true,"rental_uris":{"android":"levelo://app?vid=ec2784af-2a59-4a4b-9888-bc06c45e7d3e","ios":"levelo://app?vid=ec2784af-2a59-4a4b-9888-bc06c45e7d3e"},"vehicle_type_id":"4","last_reported":1732601629,"current_range_meters":9200,"station_id":"ce4bhlh2rcd13ifvqgig","pricing_plan_id":"cebpf4jnsgd1na2vs0mg"},{"bike_id":"f960203b-2812-45ea-87dc-fdcf497b1e15","system_id":"levelo_inurba_marseille","lat":43.281559,"lon":5.426366,"is_reserved":false,"is_disabled":false,"rental_uris":{"android":"levelo://app?vid=f960203b-2812-45ea-87dc-fdcf497b1e15","ios":"levelo://app?vid=f960203b-2812-45ea-87dc-fdcf497b1e15"},"vehicle_type_id":"4","last_reported":1732601629,"current_range_meters":27200,"station_id":"ce4bhnh2rcd13ifvqgug","pricing_plan_id":"cebpf4jnsgd1na2vs0mg"},{"bike_id":"66aad5d7-efa9-4543-8e11-bbf0af584fcf","system_id":"levelo_inurba_marseille","lat":43.278143,"lon":5.407057,"is_reserved":false,"is_disabled":true,"rental_uris":{"android":"levelo://app?vid=66aad5d7-efa9-4543-8e11-bbf0af584fcf","ios":"levelo://app?vid=66aad5d7-efa9-4543-8e11-bbf0af584fcf"},"vehicle_type_id":"4","last_reported":1732601629,"current_range_meters":38800,"station_id":"ce4bhnh2rcd13ifvqgtg","pricing_plan_id":"cebpf4jnsgd1na2vs0mg"},{"bike_id":"ef06ed7d-8d56-4313-905a-43712677992f","system_id":"levelo_inurba_marseille","lat":43.29899,"lon":5.43667,"is_reserved":false,"is_disabled":false,"rental_uris":{"android":"levelo://app?vid=ef06ed7d-8d56-4313-905a-43712677992f","ios":"levelo://app?vid=ef06ed7d-8d56-4313-905a-43712677992f"},"vehicle_type_id":"4","last_reported":1732601629,"current_range_meters":24400,"station_id":"ce4bhpp2rcd13ifvqhfg","pricing_plan_id":"cebpf4jnsgd1na2vs0mg"},{"bike_id":"6c948e9c-d5b3-4fe5-a918-1bd2f7c83b02","system_id":"levelo_inurba_marseille","lat":43.321076,"lon":5.367732,"is_reserved":false,"is_disabled":false,"rental_uris":{"android":"levelo://app?vid=6c948e9c-d5b3-4fe5-a918-1bd2f7c83b02","ios":"levelo://app?vid=6c948e9c-d5b3-4fe5-a918-1bd2f7c83b02"},"vehicle_type_id":"4","last_reported":1732601629,"current_range_meters":20000,"station_id":"ce4bhrh2rcd13ifvqhug","pricing_plan_id":"cebpf4jnsgd1na2vs0mg"},{"bike_id":"9e620abf-d324-4f99-84fc-d67e71109f2a","system_id":"levelo_inurba_marseille","lat":43.31077,"lon":5.42435,"is_reserved":false,"is_disabled":true,"rental_uris":{"android":"levelo://app?vid=9e620abf-d324-4f99-84fc-d67e71109f2a","ios":"levelo://app?vid=9e620abf-d324-4f99-84fc-d67e71109f2a"},"vehicle_type_id":"4","last_reported":1732601629,"current_range_meters":0,"station_id":"ce4bhp92rcd13ifvqhag","pricing_plan_id":"cebpf4jnsgd1na2vs0mg"},{"bike_id":"de7004a3-b7db-49aa-9067-0b6ed2338314","system_id":"levelo_inurba_marseille","lat":43.312263,"lon":5.368517,"is_reserved":false,"is_disabled":true,"rental_uris":{"android":"levelo://app?vid=de7004a3-b7db-49aa-9067-0b6ed2338314","ios":"levelo://app?vid=de7004a3-b7db-49aa-9067-0b6ed2338314"},"vehicle_type_id":"4","last_reported":1732601629,"current_range_meters":27600,"station_id":"ce4bgl92rcd13ifvqbq0","pricing_plan_id":"cebpf4jnsgd1na2vs0mg"},{"bike_id":"7c91f2ac-1dd3-428c-aafd-49def36e722e","system_id":"levelo_inurba_marseille","lat":43.337444,"lon":5.374475,"is_reserved":false,"is_disabled":false,"rental_uris":{"android":"levelo://app?vid=7c91f2ac-1dd3-428c-aafd-49def36e722e","ios":"levelo://app?vid=7c91f2ac-1dd3-428c-aafd-49def36e722e"},"vehicle_type_id":"4","last_reported":1732601629,"current_range_meters":30800,"station_id":"","pricing_plan_id":"cebpf4jnsgd1na2vs0mg"},{"bike_id":"f0754b1b-2581-469b-867d-b6b48e1c5261","system_id":"levelo_inurba_marseille","lat":43.28078,"lon":5.39658,"is_reserved":false,"is_disabled":false,"rental_uris":{"android":"levelo://app?vid=f0754b1b-2581-469b-867d-b6b48e1c5261","ios":"levelo://app?vid=f0754b1b-2581-469b-867d-b6b48e1c5261"},"vehicle_type_id":"4","last_reported":1732601629,"current_range_meters":38800,"station_id":"ce4bho12rcd13ifvqh2g","pricing_plan_id":"cebpf4jnsgd1na2vs0mg"},{"bike_id":"13d988c3-60ef-4c84-b6c8-785ba41cd034","system_id":"levelo_inurba_marseille","lat":43.323636,"lon":5.388755,"is_reserved":false,"is_disabled":false,"rental_uris":{"android":"levelo://app?vid=13d988c3-60ef-4c84-b6c8-785ba41cd034","ios":"levelo://app?vid=13d988c3-60ef-4c84-b6c8-785ba41cd034"},"vehicle_type_id":"4","last_reported":1732601629,"current_range_meters":28400,"station_id":"ce4bhqp2rcd13ifvqhog","pricing_plan_id":"cebpf4jnsgd1na2vs0mg"},{"bike_id":"c690c0ba-322b-4f22-88ff-fa7952950584","system_id":"levelo_inurba_marseille","lat":43.28458,"lon":5.35887,"is_reserved":false,"is_disabled":false,"rental_uris":{"android":"levelo://app?vid=c690c0ba-322b-4f22-88ff-fa7952950584","ios":"levelo://app?vid=c690c0ba-322b-4f22-88ff-fa7952950584"},"vehicle_type_id":"4","last_reported":1732601629,"current_range_meters":33200,"station_id":"ce4bhah2rcd13ifvqei0","pricing_plan_id":"cebpf4jnsgd1na2vs0mg"},{"bike_id":"5c53cfbd-2547-413a-b79a-f8cc3b1ca992","system_id":"levelo_inurba_marseille","lat":43.32114,"lon":5.36773,"is_reserved":false,"is_disabled":false,"rental_uris":{"android":"levelo://app?vid=5c53cfbd-2547-413a-b79a-f8cc3b1ca992","ios":"levelo://app?vid=5c53cfbd-2547-413a-b79a-f8cc3b1ca992"},"vehicle_type_id":"4","last_reported":1732601629,"current_range_meters":33600,"station_id":"ce4bhrh2rcd13ifvqhug","pricing_plan_id":"cebpf4jnsgd1na2vs0mg"},{"bike_id":"cd3a9d89-9aba-40cd-a79b-ac70cf696430","system_id":"levelo_inurba_marseille","lat":43.29896,"lon":5.436656,"is_reserved":false,"is_disabled":false,"rental_uris":{"android":"levelo://app?vid=cd3a9d89-9aba-40cd-a79b-ac70cf696430","ios":"levelo://app?vid=cd3a9d89-9aba-40cd-a79b-ac70cf696430"},"vehicle_type_id":"4","last_reported":1732601629,"current_range_meters":38000,"station_id":"ce4bhpp2rcd13ifvqhfg","pricing_plan_id":"cebpf4jnsgd1na2vs0mg"},{"bike_id":"05f71b4c-9698-4216-bddf-307b5243d0ef","system_id":"levelo_inurba_marseille","lat":43.28933,"lon":5.39637,"is_reserved":false,"is_disabled":false,"rental_uris":{"android":"levelo://app?vid=05f71b4c-9698-4216-bddf-307b5243d0ef","ios":"levelo://app?vid=05f71b4c-9698-4216-bddf-307b5243d0ef"},"vehicle_type_id":"4","last_reported":1732601629,"current_range_meters":17200,"station_id":"ce4bh3h2rcd13ifvqdn0","pricing_plan_id":"cebpf4jnsgd1na2vs0mg"},{"bike_id":"c7587902-89ee-4c85-a4a9-66fe4652eeba","system_id":"levelo_inurba_marseille","lat":43.30019,"lon":5.40054,"is_reserved":false,"is_disabled":false,"rental_uris":{"android":"levelo://app?vid=c7587902-89ee-4c85-a4a9-66fe4652eeba","ios":"levelo://app?vid=c7587902-89ee-4c85-a4a9-66fe4652eeba"},"vehicle_type_id":"4","last_reported":1732601629,"current_range_meters":32800,"station_id":"","pricing_plan_id":"cebpf4jnsgd1na2vs0mg"},{"bike_id":"3ec54d4b-93cb-44e0-b80a-46869a7a8626","system_id":"levelo_inurba_marseille","lat":43.317606,"lon":5.390116,"is_reserved":false,"is_disabled":false,"rental_uris":{"android":"levelo://app?vid=3ec54d4b-93cb-44e0-b80a-46869a7a8626","ios":"levelo://app?vid=3ec54d4b-93cb-44e0-b80a-46869a7a8626"},"vehicle_type_id":"4","last_reported":1732601629,"current_range_meters":38800,"station_id":"ce4bhqp2rcd13ifvqhng","pricing_plan_id":"cebpf4jnsgd1na2vs0mg"},{"bike_id":"20f2c7b1-09d1-4c6b-b1ed-c2b10cb98683","system_id":"levelo_inurba_marseille","lat":43.30147,"lon":5.37414,"is_reserved":false,"is_disabled":false,"rental_uris":{"android":"levelo://app?vid=20f2c7b1-09d1-4c6b-b1ed-c2b10cb98683","ios":"levelo://app?vid=20f2c7b1-09d1-4c6b-b1ed-c2b10cb98683"},"vehicle_type_id":"4","last_reported":1732601629,"current_range_meters":37600,"station_id":"ce4bgs92rcd13ifvqcc0","pricing_plan_id":"cebpf4jnsgd1na2vs0mg"},