{"last_updated":1731881278,"ttl":60,"version":"2.2","data":{"bikes":[{"bike_id":"73806b4b-3409-4fe7-9bac-cc9da7355bda","system_id":"levelo_inurba_marseille","lat":43.3103,"lon":5.4,"is_reserved":false,"is_disabled":false,"rental_uris":{"android":"levelo://app?vid=73806b4b-3409-4fe7-9bac-cc9da7355bda","ios":"levelo://app?vid=73806b4b-3409-4fe7-9bac-cc9da7355bda"},"vehicle_type_id":"4","last_reported":1731881278,"current_range_meters":27600,"station_id":"","pricing_plan_id":"cebpf4jnsgd1na2vs0mg"},{"bike_id":"5a5cda28-413a-466c-b416-640a2c5260a6","system_id":"levelo_inurba_marseille","lat":43.29791,"lon":5.39349,"is_reserved":false,"is_disabled":false,"rental_uris":{"android":"levelo://app?vid=5a5cda28-413a-466c-b416-640a2c5260a6","ios":"levelo://app?vid=5a5cda28-413a-466c-b416-640a2c5260a6"},"vehicle_type_id":"4","last_reported":1731881278,"current_range_meters":25600,"station_id":"chh1huq6cuj3fo74tm60","pricing_plan_id":"cebpf4jnsgd1na2vs0mg"},{"bike_id":"db2b91a4-d5c9-49a3-9079-d94c82ff95d7","system_id":"levelo_inurba_marseille","lat":43.30045,"lon":5.40931,"is_reserved":false,"is_disabled":false,"rental_uris":{"android":"levelo://app?vid=db2b91a4-d5c9-49a3-9079-d94c82ff95d7","ios":"levelo://app?vid=db2b91a4-d5c9-49a3-9079-d94c82ff95d7"},"vehicle_type_id":"4","last_reported":1731881278,"current_range_meters":8400,"station_id":"","pricing_plan_id":"cebpf4jnsgd1na2vs0mg"},{"bike_id":"07f44c2d-6d0b-41f2-ba11-0031c4dea411","system_id":"levelo_inurba_marseille","lat":43.24662,"lon":5.38159,"is_reserved":false,"is_disabled":false,"rental_uris":{"android":"levelo://app?vid=07f44c2d-6d0b-41f2-ba11-0031c4dea411","ios":"levelo://app?vid=07f44c2d-6d0b-41f2-ba11-0031c4dea411"},"vehicle_type_id":"4","last_reported":1731881278,"current_range_meters":9600,"station_id":"ce4bhih2rcd13ifvqfr0","pricing_plan_id":"cebpf4jnsgd1na2vs0mg"},{"bike_id":"21b61ede-e062-4fe8-a6bc-6c449d2ab9c7","system_id":"levelo_inurba_marseille","lat":43.30267,"lon":5.40072,"is_reserved":false,"is_disabled":false,"rental_uris":{"android":"levelo://app?vid=21b61ede-e062-4fe8-a6bc-6c449d2ab9c7","ios":"levelo://app?vid=21b61ede-e062-4fe8-a6bc-6c449d2ab9c7"},"vehicle_type_id":"4","last_reported":1731881278,"current_range_meters":12800,"station_id":"ce4bgvh2rcd13ifvqcs0","pricing_plan_id":"cebpf4jnsgd1na2vs0mg"},{"bike_id":"5919b4a2-8e29-4aea-b761-94728798d366","system_id":"levelo_inurba_marseille","lat":43.30817,"lon":5.38155,"is_reserved":false,"is_disabled":false,"rental_uris":{"android":"levelo://app?vid=5919b4a2-8e29-4aea-b761-94728798d366","ios":"levelo://app?vid=5919b4a2-8e29-4aea-b761-94728798d366"},"vehicle_type_id":"4","last_reported":1731881278,"current_range_meters":27600,"station_id":"ce4bgt12rcd13ifvqce0","pricing_plan_id":"cebpf4jnsgd1na2vs0mg"},{"bike_id":"9196a10b-4329-4cc1-8f2d-fbffd30cb04c","system_id":"levelo_inurba_marseille","lat":43.31325,"lon":5.39693,"is_reserved":false,"is_disabled":false,"rental_uris":{"android":"levelo://app?vid=9196a10b-4329-4cc1-8f2d-fbffd30cb04c","ios":"levelo://app?vid=9196a10b-4329-4cc1-8f2d-fbffd30cb04c"},"vehicle_type_id":"4","last_reported":1731881278,"current_range_meters":27600,"station_id":"ce4bgvp2rcd13ifvqcu0","pricing_plan_id":"cebpf4jnsgd1na2vs0mg"},{"bike_id":"0672d165-d197-4474-bbec-2df95543fd2f","system_id":"levelo_inurba_marseille","lat":43.299,"lon":5.43662,"is_reserved":false,"is_disabled":false,"rental_uris":{"android":"levelo://app?vid=0672d165-d197-4474-bbec-2df95543fd2f","ios":"levelo://app?vid=0672d165-d197-4474-bbec-2df95543fd2f"},"vehicle_type_id":"4","last_reported":1731881278,"current_range_meters":6400,"station_id":"ce4bhpp2rcd13ifvqhfg","pricing_plan_id":"cebpf4jnsgd1na2vs0mg"},{"bike_id":"0abafd50-d6f0-4ae1-8b2e-e1936ed5039b","system_id":"levelo_inurba_marseille","lat":43.29637,"lon":5.40975,"is_reserved":false,"is_disabled":false,"rental_uris":{"android":"levelo://app?vid=0abafd50-d6f0-4ae1-8b2e-e1936ed5039b","ios":"levelo://app?vid=0abafd50-d6f0-4ae1-8b2e-e1936ed5039b"},"vehicle_type_id":"4","last_reported":1731881278,"current_range_meters":12400,"station_id":"","pricing_plan_id":"cebpf4jnsgd1na2vs0mg"},{"bike_id":"9f9eff5e-4633-4f86-8cdc-5509372a6217","system_id":"levelo_inurba_marseille","lat":43.2797,"lon":5.38742,"is_reserved":false,"is_disabled":false,"rental_uris":{"android":"levelo://app?vid=9f9eff5e-4633-4f86-8cdc-5509372a6217","ios":"levelo://app?vid=9f9eff5e-4633-4f86-8cdc-5509372a6217"},"vehicle_type_id":"4","last_reported":1731881278,"current_range_meters":13600,"station_id":"ce4bhg12rcd13ifvqf80","pricing_plan_id":"cebpf4jnsgd1na2vs0mg"},{"bike_id":"57a98b7e-d9e9-4148-9444-379bf13e50eb","system_id":"levelo_inurba_marseille","lat":43.27948,"lon":5.41053,"is_reserved":false,"is_disabled":false,"rental_uris":{"android":"levelo://app?vid=57a98b7e-d9e9-4148-9444-379bf13e50eb","ios":"levelo://app?vid=57a98b7e-d9e9-4148-9444-379bf13e50eb"},"vehicle_type_id":"4","last_reported":1731881278,"current_range_meters":24000,"station_id":"ce4bhnp2rcd13ifvqh0g","pricing_plan_id":"cebpf4jnsgd1na2vs0mg"},{"bike_id":"bd187281-d318-4ef3-a751-fcd35f67a3e2","system_id":"levelo_inurba_marseille","lat":43.28859,"lon":5.35862,"is_reserved":false,"is_disabled":false,"rental_uris":{"android":"levelo://app?vid=bd187281-d318-4ef3-a751-fcd35f67a3e2","ios":"levelo://app?vid=bd187281-d318-4ef3-a751-fcd35f67a3e2"},"vehicle_type_id":"4","last_reported":1731881278,"current_range_meters":22800,"station_id":"ce4bhb12rcd13ifvqem0","pricing_plan_id":"cebpf4jnsgd1na2vs0mg"},{"bike_id":"319d47b2-c7ed-49fc-a78d-3600206a6bb0","system_id":"levelo_inurba_marseille","lat":43.30954,"lon":5.39047,"is_reserved":false,"is_disabled":false,"rental_uris":{"android":"levelo://app?vid=319d47b2-c7ed-49fc-a78d-3600206a6bb0","ios":"levelo://app?vid=319d47b2-c7ed-49fc-a78d-3600206a6bb0"},"vehicle_type_id":"4","last_reported":1731881278,"current_range_meters":38800,"station_id":"ce4bgup2rcd13ifvqco0","pricing_plan_id":"cebpf4jnsgd1na2vs0mg"},{"bike_id":"c54ace73-7fe9-4545-948e-f93a958c6393","system_id":"levelo_inurba_marseille","lat":43.28458,"lon":5.35879,"is_reserved":false,"is_disabled":false,"rental_uris":{"android":"levelo://app?vid=c54ace73-7fe9-4545-948e-f93a958c6393","ios":"levelo://app?vid=c54ace73-7fe9-4545-948e-f93a958c6393"},"vehicle_type_id":"4","last_reported":1731881278,"current_range_meters":27200,"station_id":"ce4bhah2rcd13ifvqei0","pricing_plan_id":"cebpf4jnsgd1na2vs0mg"},{"bike_id":"4c167bc3-2964-4625-adc0-c92e539ad80f","system_id":"levelo_inurba_marseille","lat":43.28302,"lon":5.40772,"is_reserved":false,"is_disabled":false,"rental_uris":{"android":"levelo://app?vid=4c167bc3-2964-4625-adc0-c92e539ad80f","ios":"levelo://app?vid=4c167bc3-2964-4625-adc0-c92e539ad80f"},"vehicle_type_id":"4","last_reported":1731881278,"current_range_meters":32800,"station_id":"","pricing_plan_id":"cebpf4jnsgd1na2vs0mg"},{"bike_id":"3203c545-8816-47a4-ae40-21487a89e084","system_id":"levelo_inurba_marseille","lat":43.306027,"lon":5.372227,"is_reserved":false,"is_disabled":false,"rental_uris":{"android":"levelo://app?vid=3203c545-8816-47a4-ae40-21487a89e084","ios":"levelo://app?vid=3203c545-8816-47a4-ae40-21487a89e084"},"vehicle_type_id":"4","last_reported":1731881278,"current_range_meters":36000,"station_id":"ce4bgqh2rcd13ifvqc4g","pricing_plan_id":"cebpf4jnsgd1na2vs0mg"},{"bike_id":"91089654-3498-4d52-975f-3e50b134cfcc","system_id":"levelo_inurba_marseille","lat":43.32479,"lon":5.36575,"is_reserved":false,"is_disabled":false,"rental_uris":{"android":"levelo://app?vid=91089654-3498-4d52-975f-3e50b134cfcc","ios":"levelo://app?vid=91089654-3498-4d52-975f-3e50b134cfcc"},"vehicle_type_id":"4","last_reported":1731881278,"current_range_meters":8400,"station_id":"ce4bhs12rcd13ifvqhvg","pricing_plan_id":"cebpf4jnsgd1na2vs0mg"},{"bike_id":"853a1166-61cc-42b2-9e7f-3b747ea4f57f","system_id":"levelo_inurba_marseille","lat":43.295508,"lon":5.422665,"is_reserved":false,"is_disabled":false,"rental_uris":{"android":"levelo://app?vid=853a1166-61cc-42b2-9e7f-3b747ea4f57f","ios":"levelo://app?vid=853a1166-61cc-42b2-9e7f-3b747ea4f57f"},"vehicle_type_id":"4","last_reported":1731881278,"current_range_meters":39200,"station_id":"ce4bhph2rcd13ifvqhdg","pricing_plan_id":"cebpf4jnsgd1na2vs0mg"},{"bike_id":"0e8c23e3-7db1-4d68-bf25-967522db9f08","system_id":"levelo_inurba_marseille","lat":43.28852,"lon":5.39326,"is_reserved":false,"is_disabled":false,"rental_uris":{"android":"levelo://app?vid=0e8c23e3-7db1-4d68-bf25-967522db9f08","ios":"levelo://app?vid=0e8c23e3-7db1-4d68-bf25-967522db9f08"},"vehicle_type_id":"4","last_reported":1731881278,"current_range_meters":28400,"station_id":"ce4bh2p2rcd13ifvqdi0","pricing_plan_id":"cebpf4jnsgd1na2vs0mg"},{"bike_id":"6b0ea79e-cb12-4a50-9845-e4686b3cacc8","system_id":"levelo_inurba_marseille","lat":43.295751,"lon":5.399791,"is_reserved":false,"is_disabled":false,"rental_uris":{"android":"levelo://app?vid=6b0ea79e-cb12-4a50-9845-e4686b3cacc8","ios":"levelo://app?vid=6b0ea79e-cb12-4a50-9845-e4686b3cacc8"},"vehicle_type_id":"4","last_reported":1731881278,"current_range_meters":8000,"station_id":"","pricing_plan_id":"cebpf4jnsgd1na2vs0mg"},{"bike_id":"f4b49472-97d3-4805-999e-d80bf1b16d13","system_id":"levelo_inurba_marseille","lat":43.29789,"lon":5.3933,"is_reserved":false,"is_disabled":false,"rental_uris":{"android":"levelo://app?vid=f4b49472-97d3-4805-999e-d80bf1b16d13","ios":"levelo://app?vid=f4b49472-97d3-4805-999e-d80bf1b16d13"},"vehicle_type_id":"4","last_reported":1731881278,"current_range_meters":21600,"station_id":"chh1huq6cuj3fo74tm60","pricing_plan_id":"cebpf4jnsgd1na2vs0mg"},{"bike_id":"225566f2-8521-4eac-bc8f-0baee111d8d3","system_id":"levelo_inurba_marseille","lat":43.3065,"lon":5.40079,"is_reserved":false,"is_disabled":false,"rental_uris":{"android":"levelo://app?vid=225566f2-8521-4eac-bc8f-0baee111d8d3","ios":"levelo://app?vid=225566f2-8521-4eac-bc8f-0baee111d8d3"},"vehicle_type_id":"4","last_reported":1731881278,"current_range_meters":15200,"station_id":"ce4bh112rcd13ifvqda0","pricing_plan_id":"cebpf4jnsgd1na2vs0mg"},{"bike_id":"e0b967c0-b35f-4934-9248-f55c41b4f08b","system_id":"levelo_inurba_marseille","lat":43.28154,"lon":5.44223,"is_reserved":false,"is_disabled":false,"rental_uris":{"android":"levelo://app?vid=e0b967c0-b35f-4934-9248-f55c41b4f08b","ios":"levelo://app?vid=e0b967c0-b35f-4934-9248-f55c41b4f08b"},"vehicle_type_id":"4","last_reported":1731881278,"current_range_meters":6800,"station_id":"","pricing_plan_id":"cebpf4jnsgd1na2vs0mg"},{"bike_id":"d61c8a52-528d-46d9-b1fb-db8c6ca71e05","system_id":"levelo_inurba_marseille","lat":43.24167,"lon":5.36392,"is_reserved":false,"is_disabled":false,"rental_uris":{"android":"levelo://app?vid=d61c8a52-528d-46d9-b1fb-db8c6ca71e05","ios":"levelo://app?vid=d61c8a52-528d-46d9-b1fb-db8c6ca71e05"},"vehicle_type_id":"4","last_reported":1731881278,"current_range_meters":19600,"station_id":"cpo36qri1sfpv3e86is0","pricing_plan_id":"cebpf4jnsgd1na2vs0mg"},{"bike_id":"fd5dd092-f218-4ee9-8566-83eb35688117","system_id":"levelo_inurba_marseille","lat":43.30419,"lon":5.41287,"is_reserved":false,"is_disabled":false,"rental_uris":{"android":"levelo://app?vid=fd5dd092-f218-4ee9-8566-83eb35688117","ios":"levelo://app?vid=fd5dd092-f218-4ee9-8566-83eb35688117"},"vehicle_type_id":"4","last_reported":1731881278,"current_range_meters":26000,"station_id":"ce4bhop2rcd13ifvqh8g","pricing_plan_id":"cebpf4jnsgd1na2vs0mg"},{"bike_id":"0e1d2e7a-8318-45fe-af1b-31857eb1aac8","system_id":"levelo_inurba_marseille","lat":43.23951,"lon":5.36633,"is_reserved":false,"is_disabled":false,"rental_uris":{"android":"levelo://app?vid=0e1d2e7a-8318-45fe-af1b-31857eb1aac8","ios":"levelo://app?vid=0e1d2e7a-8318-45fe-af1b-31857eb1aac8"},"vehicle_type_id":"4","last_reported":1731881278,"current_range_meters":22400,"station_id":"ce4bhi12rcd13ifvqfp0","pricing_plan_id":"cebpf4jnsgd1na2vs0mg"},{"bike_id":"4305c1d1-ca62-4e47-ac96-b9970d6e957d","system_id":"levelo_inurba_marseille","lat":43.23196,"lon":5.35551,"is_reserved":false,"is_disabled":false,"rental_uris":{"android":"levelo://app?vid=4305c1d1-ca62-4e47-ac96-b9970d6e957d","ios":"levelo://app?vid=4305c1d1-ca62-4e47-ac96-b9970d6e957d"},"vehicle_type_id":"4","last_reported":1731881278,"current_range_meters":31200,"station_id":"ce4bhu92rcd13ifvqi70","pricing_plan_id":"cebpf4jnsgd1na2vs0mg"},{"bike_id":"2bd3ae1c-22d2-4b0f-9fd7-42d6b84fc3a3","system_id":"levelo_inurba_marseille","lat":43.33599,"lon":5.41036,"is_reserved":false,"is_disabled":false,"rental_uris":{"android":"levelo://app?vid=2bd3ae1c-22d2-4b0f-9fd7-42d6b84fc3a3","ios":"levelo://app?vid=2bd3ae1c-22d2-4b0f-9fd7-42d6b84fc3a3"},"vehicle_type_id":"4","last_reported":1731881278,"current_range_meters":16000,"station_id":"ce4bhqh2rcd13ifvqhmg","pricing_plan_id":"cebpf4jnsgd1na2vs0mg"},{"bike_id":"79b76398-f4aa-422b-b325-2360d07a8784","system_id":"levelo_inurba_marseille","lat":43.33719,"lon":5.39187,"is_reserved":false,"is_disabled":false,"rental_uris":{"android":"levelo://app?vid=79b76398-f4aa-422b-b325-2360d07a8784","ios":"levelo://app?vid=79b76398-f4aa-422b-b325-2360d07a8784"},"vehicle_type_id":"4","last_reported":1731881278,"current_range_meters":38800,"station_id":"ce4bhr92rcd13ifvqhsg","pricing_plan_id":"cebpf4jnsgd1na2vs0mg"},{"bike_id":"a7081911-a624-4ede-9084-31328e822934","system_id":"levelo_inurba_marseille","lat":43.28462,"lon":5.359,"is_reserved":false,"is_disabled":false,"rental_uris":{"android":"levelo://app?vid=a7081911-a624-4ede-9084-31328e822934","ios":"levelo://app?vid=a7081911-a624-4ede-9084-31328e822934"},"vehicle_type_id":"4","last_reported":1731881278,"current_range_meters":24400,"station_id":"ce4bhah2rcd13ifvqei0","pricing_plan_id":"cebpf4jnsgd1na2vs0mg"},{"bike_id":"e5a40c09-f3b5-4397-915d-91914292716d","system_id":"levelo_inurba_marseille","lat":43.31079,"lon":5.38371,"is_reserved":false,"is_disabled":false,"rental_uris":{"android":"levelo://app?vid=e5a40c09-f3b5-4397-915d-91914292716d","ios":"levelo://app?vid=e5a40c09-f3b5-4397-915d-91914292716d"},"vehicle_type_id":"4","last_reported":1731881278,"current_range_meters":3600,"station_id":"ce4bgv92rcd13ifvqcr0","pricing_plan_id":"cebpf4jnsgd1na2vs0mg"},{"bike_id":"100937a9-9046-4fa5-80a9-fe089467ae94","system_id":"levelo_inurba_marseille","lat":43.25866,"lon":5.39908,"is_reserved":false,"is_disabled":false,"rental_uris":{"android":"levelo://app?vid=100937a9-9046-4fa5-80a9-fe089467ae94","ios":"levelo://app?vid=100937a9-9046-4fa5-80a9-fe089467ae94"},"vehicle_type_id":"4","last_reported":1731881278,"current_range_meters":31200,"station_id":"ce4bhl92rcd13ifvqghg","pricing_plan_id":"cebpf4jnsgd1na2vs0mg"},{"bike_id":"6aed2e34-3f25-46f8-91c1-76749758b357","system_id":"levelo_inurba_marseille","lat":43.3033,"lon":5.40434,"is_reserved":false,"is_disabled":false,"rental_uris":{"android":"levelo://app?vid=6aed2e34-3f25-46f8-91c1-76749758b357","ios":"levelo://app?vid=6aed2e34-3f25-46f8-91c1-76749758b357"},"vehicle_type_id":"4","last_reported":1731881278,"current_range_meters":38400,"station_id":"ce4bh012rcd13ifvqd10","pricing_plan_id":"cebpf4jnsgd1na2vs0mg"},{"bike_id":"6e000560-3094-4389-8ca5-fea3f83cab13","system_id":"levelo_inurba_marseille","lat":43.26684,"lon":5.38268,"is_reserved":false,"is_disabled":false,"rental_uris":{"android":"levelo://app?vid=6e000560-3094-4389-8ca5-fea3f83cab13","ios":"levelo://app?vid=6e000560-3094-4389-8ca5-fea3f83cab13"},"vehicle_type_id":"4","last_reported":1731881278,"current_range_meters":37600,"station_id":"ce4bhg92rcd13ifvqf90","pricing_plan_id":"cebpf4jnsgd1na2vs0mg"},{"bike_id":"41395472-e7d0-4a5a-9b35-9fde62bfc4e4","system_id":"levelo_inurba_marseille","lat":43.30431,"lon":5.38894,"is_reserved":false,"is_disabled":false,"rental_uris":{"android":"levelo://app?vid=41395472-e7d0-4a5a-9b35-9fde62bfc4e4","ios":"levelo://app?vid=41395472-e7d0-4a5a-9b35-9fde62bfc4e4"},"vehicle_type_id":"4","last_reported":1731881278,"current_range_meters":35200,"station_id":"ce4bgk12rcd13ifvqbi0","pricing_plan_id":"cebpf4jnsgd1na2vs0mg"},{"bike_id":"cafc8ba8-d30a-40df-b38b-fdc1fb11dbe2","system_id":"levelo_inurba_marseille","lat":43.25103,"lon":5.40328,"is_reserved":false,"is_disabled":false,"rental_uris":{"android":"levelo://app?vid=cafc8ba8-d30a-40df-b38b-fdc1fb11dbe2","ios":"levelo://app?vid=cafc8ba8-d30a-40df-b38b-fdc1fb11dbe2"},"vehicle_type_id":"4","last_reported":1731881278,"current_range_meters":10000,"station_id":"ce4bhlh2rcd13ifvqgig","pricing_plan_id":"cebpf4jnsgd1na2vs0mg"},{"bike_id":"6d963061-1c58-4842-a70f-52b352d49730","system_id":"levelo_inurba_marseille","lat":43.25112,"lon":5.40322,"is_reserved":false,"is_disabled":false,"rental_uris":{"android":"levelo://app?vid=6d963061-1c58-4842-a70f-52b352d49730","ios":"levelo://app?vid=6d963061-1c58-4842-a70f-52b352d49730"},"vehicle_type_id":"4","last_reported":1731881278,"current_range_meters":30800,"station_id":"ce4bhlh2rcd13ifvqgig","pricing_plan_id":"cebpf4jnsgd1na2vs0mg"},{"bike_id":"9a8deacf-94c3-4f35-b4f7-2b656c66bda7","system_id":"levelo_inurba_marseille","lat":43.29028,"lon":5.38649,"is_reserved":false,"is_disabled":false,"rental_uris":{"android":"levelo://app?vid=9a8deacf-94c3-4f35-b4f7-2b656c66bda7","ios":"levelo://app?vid=9a8deacf-94c3-4f35-b4f7-2b656c66bda7"},"vehicle_type_id":"4","last_reported":1731881278,"current_range_meters":24800,"station_id":"ce4bh4p2rcd13ifvqe0g","pricing_plan_id":"cebpf4jnsgd1na2vs0mg"},{"bike_id":"fba520cc-f329-4810-9165-4d26d33cbe71","system_id":"levelo_inurba_marseille","lat":43.2866,"lon":5.3635,"is_reserved":false,"is_disabled":false,"rental_uris":{"android":"levelo://app?vid=fba520cc-f329-4810-9165-4d26d33cbe71","ios":"levelo://app?vid=fba520cc-f329-4810-9165-4d26d33cbe71"},"vehicle_type_id":"4","last_reported":1731881278,"current_range_meters":37600,"station_id":"ce4bhah2rcd13ifvqej0","pricing_plan_id":"cebpf4jnsgd1na2vs0mg"},{"bike_id":"d3778717-e10d-4535-8cba-3bf85ea8d84a","system_id":"levelo_inurba_marseille","lat":43.28473,"lon":5.38419,"is_reserved":false,"is_disabled":false,"rental_uris":{"android":"levelo://app?vid=d3778717-e10d-4535-8cba-3bf85ea8d84a","ios":"levelo://app?vid=d3778717-e10d-4535-8cba-3bf85ea8d84a"},"vehicle_type_id":"4","last_reported":1731881278,"current_range_meters":29600,"station_id":"ce4bh512rcd13ifvqe3g","pricing_plan_id":"cebpf4jnsgd1na2vs0mg"},{"bike_id":"2459f503-6e83-43a2-8e1d-8dc2645bc27d","system_id":"levelo_inurba_marseille","lat":43.30892,"lon":5.39657,"is_reserved":false,"is_disabled":false,"rental_uris":{"android":"levelo://app?vid=2459f503-6e83-43a2-8e1d-8dc2645bc27d","ios":"levelo://app?vid=2459f503-6e83-43a2-8e1d-8dc2645bc27d"},"vehicle_type_id":"4","last_reported":1731881278,"current_range_meters":30400,"station_id":"ce4bh012rcd13ifvqcv0","pricing_plan_id":"cebpf4jnsgd1na2vs0mg"},{"bike_id":"d69a917e-f2d6-4ead-8fe4-e1c217bba902","system_id":"levelo_inurba_marseille","lat":43.28423,"lon":5.34987,"is_reserved":false,"is_disabled":false,"rental_uris":{"android":"levelo://app?vid=d69a917e-f2d6-4ead-8fe4-e1c217bba902","ios":"levelo://app?vid=d69a917e-f2d6-4ead-8fe4-e1c217bba902"},"vehicle_type_id":"4","last_reported":1731881278,"current_range_meters":37600,"station_id":"ce4bhbh2rcd13ifvqepg","pricing_plan_id":"cebpf4jnsgd1na2vs0mg"},{"bike_id":"d2fe990b-e82c-427d-8072-64d25cdb2c73","system_id":"levelo_inurba_marseille","lat":43.30643,"lon":5.40085,"is_reserved":false,"is_disabled":false,"rental_uris":{"android":"levelo://app?vid=d2fe990b-e82c-427d-8072-64d25cdb2c73","ios":"levelo://app?vid=d2fe990b-e82c-427d-8072-64d25cdb2c73"},"vehicle_type_id":"4","last_reported":1731881278,"current_range_meters":19200,"station_id":"ce4bh112rcd13ifvqda0","pricing_plan_id":"cebpf4jnsgd1na2vs0mg"},{"bike_id":"8941979a-5de7-42e9-b06c-41102be99d30","system_id":"levelo_inurba_marseille","lat":43.26567,"lon":5.39012,"is_reserved":false,"is_disabled":false,"rental_uris":{"android":"levelo://app?vid=8941979a-5de7-42e9-b06c-41102be99d30","ios":"levelo://app?vid=8941979a-5de7-42e9-b06c-41102be99d30"},"vehicle_type_id":"4","last_reported":1731881278,"current_range_meters":14400,"station_id":"ce4bhe12rcd13ifvqf30","pricing_plan_id":"cebpf4jnsgd1na2vs0mg"},{"bike_id":"a5cac038-6c56-41c3-b564-50afefa20827","system_id":"levelo_inurba_marseille","lat":43.30784,"lon":5.37653,"is_reserved":false,"is_disabled":false,"rental_uris":{"android":"levelo://app?vid=a5cac038-6c56-41c3-b564-50afefa20827","ios":"levelo://app?vid=a5cac038-6c56-41c3-b564-50afefa20827"},"vehicle_type_id":"4","last_reported":1731881278,"current_range_meters":24400,"station_id":"ce4bgv92rcd13ifvqcq0","pricing_plan_id":"cebpf4jnsgd1na2vs0mg"},{"bike_id":"8a9f823e-baf2-4d03-b304-e7d0af967984","system_id":"levelo_inurba_marseille","lat":43.279079,"lon":5.380017,"is_reserved":false,"is_disabled":false,"rental_uris":{"android":"levelo://app?vid=8a9f823e-baf2-4d03-b304-e7d0af967984","ios":"levelo://app?vid=8a9f823e-baf2-4d03-b304-e7d0af967984"},"vehicle_type_id":"4","last_reported":1731881278,"current_range_meters":3200,"station_id":"ce4bhf92rcd13ifvqf50","pricing_plan_id":"cebpf4jnsgd1na2vs0mg"},{"bike_id":"a8564ab8-45dd-44af-a2ae-f304d3814047","system_id":"levelo_inurba_marseille","lat":43.32663,"lon":5.40988,"is_reserved":false,"is_disabled":false,"rental_uris":{"android":"levelo://app?vid=a8564ab8-45dd-44af-a2ae-f304d3814047","ios":"levelo://app?vid=a8564ab8-45dd-44af-a2ae-f304d3814047"},"vehicle_type_id":"4","last_reported":1731881278,"current_range_meters":36000,"station_id":"ce4bhpp2rcd13ifvqhgg","pricing_plan_id":"cebpf4jnsgd1na2vs0mg"},{"bike_id":"74c37457-d54d-454c-848d-3e859a50fe09","system_id":"levelo_inurba_marseille","lat":43.30425,"lon":5.39757,"is_reserved":false,"is_disabled":false,"rental_uris":{"android":"levelo://app?vid=74c37457-d54d-454c-848d-3e859a50fe09","ios":"levelo://app?vid=74c37457-d54d-454c-848d-3e859a50fe09"},"vehicle_type_id":"4","last_reported":1731881278,"current_range_meters":38400,"station_id":"ce4bh092rcd13ifvqd20","pricing_plan_id":"cebpf4jnsgd1na2vs0mg"},{"bike_id":"0b1b1a56-d86d-40f1-af42-c826bd38a215","system_id":"levelo_inurba_marseille","lat":43.31759,"lon":5.39019,"is_reserved":false,"is_disabled":false,"rental_uris":{"android":"levelo://app?vid=0b1b1a56-d86d-40f1-af42-c826bd38a215","ios":"levelo://app?vid=0b1b1a56-d86d-40f1-af42-c826bd38a215"},"vehicle_type_id":"4","last_reported":1731881278,"current_range_meters":34000,"station_id":"ce4bhqp2rcd13ifvqhng","pricing_plan_id":"cebpf4jnsgd1na2vs0mg"},{"bike_id":"ebd7151d-8c07-4fe1-b085-1e0f4a488ad8","system_id":"levelo_inurba_marseille","lat":43.31892,"lon":5.40736,"is_reserved":false,"is_disabled":false,"rental_uris":{"android":"levelo://app?vid=ebd7151d-8c07-4fe1-b085-1e0f4a488ad8","ios":"levelo://app?vid=ebd7151d-8c07-4fe1-b085-1e0f4a488ad8"},"vehicle_type_id":"4","last_reported":1731881278,"current_range_meters":38800,"station_id":"ce4bhq12rcd13ifvqhig","pricing_plan_id":"cebpf4jnsgd1na2vs0mg"},{"bike_id":"0777fa14-82ef-4160-971f-e65af9fff72b","system_id":"levelo_inurba_marseille","lat":43.28468,"lon":5.35899,"is_reserved":false,"is_disabled":false,"rental_uris":{"android":"levelo://app?vid=0777fa14-82ef-4160-971f-e65af9fff72b","ios":"levelo://app?vid=0777fa14-82ef-4160-971f-e65af9fff72b"},"vehicle_type_id":"4","last_reported":1731881278,"current_range_meters":32000,"station_id":"ce4bhah2rcd13ifvqei0","pricing_plan_id":"cebpf4jnsgd1na2vs0mg"},{"bike_id":"449ad6af-8dda-49da-bd92-112f0e899ac4","system_id":"levelo_inurba_marseille","lat":43.31333,"lon":5.39698,"is_reserved":false,"is_disabled":false,"rental_uris":{"android":"levelo://app?vid=449ad6af-8dda-49da-bd92-112f0e899ac4","ios":"levelo://app?vid=449ad6af-8dda-49da-bd92-112f0e899ac4"},"vehicle_type_id":"4","last_reported":1731881278,"current_range_meters":38800,"station_id":"ce4bgvp2rcd13ifvqcu0","pricing_plan_id":"cebpf4jnsgd1na2vs0mg"},{"bike_id":"c1435150-7b10-4549-95bb-6de8b18fb0d1","system_id":"levelo_inurba_marseille","lat":43.30594,"lon":5.39366,"is_reserved":false,"is_disabled":false,"rental_uris":{"android":"levelo://app?vid=c1435150-7b10-4549-95bb-6de8b18fb0d1","ios":"levelo://app?vid=c1435150-7b10-4549-95bb-6de8b18fb0d1"},"vehicle_type_id":"4","last_reported":1731881278,"current_range_meters":6800,"station_id":"ce4bh0p2rcd13ifvqd80","pricing_plan_id":"cebpf4jnsgd1na2vs0mg"},{"bike_id":"2ec1af66-e169-44bc-a010-344e103ae32b","system_id":"levelo_inurba_marseille","lat":43.27839,"lon":5.39205,"is_reserved":false,"is_disabled":false,"rental_uris":{"android":"levelo://app?vid=2ec1af66-e169-44bc-a010-344e103ae32b","ios":"levelo://app?vid=2ec1af66-e169-44bc-a010-344e103ae32b"},"vehicle_type_id":"4","last_reported":1731881278,"current_range_meters":38800,"station_id":"ce4bhjp2rcd13ifvqga0","pricing_plan_id":"cebpf4jnsgd1na2vs0mg"},{"bike_id":"eef859fe-6cbe-43db-9bd6-dedd68a5d4ff","system_id":"levelo_inurba_marseille","lat":43.27071,"lon":5.42276,"is_reserved":false,"is_disabled":false,"rental_uris":{"android":"levelo://app?vid=eef859fe-6cbe-43db-9bd6-dedd68a5d4ff","ios":"levelo://app?vid=eef859fe-6cbe-43db-9bd6-dedd68a5d4ff"},"vehicle_type_id":"4","last_reported":1731881278,"current_range_meters":38800,"station_id":"ce4bhk92rcd13ifvqgb0","pricing_plan_id":"cebpf4jnsgd1na2vs0mg"},{"bike_id":"ac0dd881-c557-4a0b-b0b2-aef727564c09","system_id":"levelo_inurba_marseille","lat":43.281,"lon":5.37854,"is_reserved":false,"is_disabled":false,"rental_uris":{"android":"levelo://app?vid=ac0dd881-c557-4a0b-b0b2-aef727564c09","ios":"levelo://app?vid=ac0dd881-c557-4a0b-b0b2-aef727564c09"},"vehicle_type_id":"4","last_reported":1731881278,"current_range_meters":19200,"station_id":"ce4bha12rcd13ifvqee0","pricing_plan_id":"cebpf4jnsgd1na2vs0mg"},{"bike_id":"0ce3c42e-a8b6-4365-a23a-7e3e3036ddac","system_id":"levelo_inurba_marseille","lat":43.25115,"lon":5.40321,"is_reserved":false,"is_disabled":false,"rental_uris":{"android":"levelo://app?vid=0ce3c42e-a8b6-4365-a23a-7e3e3036ddac","ios":"levelo://app?vid=0ce3c42e-a8b6-4365-a23a-7e3e3036ddac"},"vehicle_type_id":"4","last_reported":1731881278,"current_range_meters":33200,"station_id":"ce4bhlh2rcd13ifvqgig","pricing_plan_id":"cebpf4jnsgd1na2vs0mg"},{"bike_id":"cd7e3420-4506-40b3-8f82-5b3bd525fcbd","system_id":"levelo_inurba_marseille","lat":43.28695,"lon":5.39984,"is_reserved":false,"is_disabled":false,"rental_uris":{"android":"levelo://app?vid=cd7e3420-4506-40b3-8f82-5b3bd525fcbd","ios":"levelo://app?vid=cd7e3420-4506-40b3-8f82-5b3bd525fcbd"},"vehicle_type_id":"4","last_reported":1731881278,"current_range_meters":38800,"station_id":"ce4bho92rcd13ifvqh3g","pricing_plan_id":"cebpf4jnsgd1na2vs0mg"},{"bike_id":"8c73c003-28b1-462f-8475-f67eb8e70b2a","system_id":"levelo_inurba_marseille","lat":43.32662,"lon":5.40993,"is_reserved":false,"is_disabled":false,"rental_uris":{"android":"levelo://app?vid=8c73c003-28b1-462f-8475-f67eb8e70b2a","ios":"levelo://app?vid=8c73c003-28b1-462f-8475-f67eb8e70b2a"},"vehicle_type_id":"4","last_reported":1731881278,"current_range_meters":8000,"station_id":"ce4bhpp2rcd13ifvqhgg","pricing_plan_id":"cebpf4jnsgd1na2vs0mg"},{"bike_id":"b651c1a1-4876-4b4a-95e3-202eeee791d1","system_id":"levelo_inurba_marseille","lat":43.29256,"lon":5.40911,"is_reserved":false,"is_disabled":false,"rental_uris":{"android":"levelo://app?vid=b651c1a1-4876-4b4a-95e3-202eeee791d1","ios":"levelo://app?vid=b651c1a1-4876-4b4a-95e3-202eeee791d1"},"vehicle_type_id":"4","last_reported":1731881278,"current_range_meters":25200,"station_id":"ce4bh192rcd13ifvqdc0","pricing_plan_id":"cebpf4jnsgd1na2vs0mg"},{"bike_id":"e1cbbc39-b3d6-45a9-b7e5-8900bdc53898","system_id":"levelo_inurba_marseille","lat":43.27904,"lon":5.39576,"is_reserved":false,"is_disabled":false,"rental_uris":{"android":"levelo://app?vid=e1cbbc39-b3d6-45a9-b7e5-8900bdc53898","ios":"levelo://app?vid=e1cbbc39-b3d6-45a9-b7e5-8900bdc53898"},"vehicle_type_id":"4","last_reported":1731881278,"current_range_meters":30800,"station_id":"ce4bhf92rcd13ifvqf40","pricing_plan_id":"cebpf4jnsgd1na2vs0mg"},{"bike_id":"01272bd5-a2c0-44b6-b76e-87cd305d9451","system_id":"levelo_inurba_marseille","lat":43.33023,"lon":5.39047,"is_reserved":false,"is_disabled":false,"rental_uris":{"android":"levelo://app?vid=01272bd5-a2c0-44b6-b76e-87cd305d9451","ios":"levelo://app?vid=01272bd5-a2c0-44b6-b76e-87cd305d9451"},"vehicle_type_id":"4","last_reported":1731881278,"current_range_meters":12800,"station_id":"ce4bhr92rcd13ifvqhrg","pricing_plan_id":"cebpf4jnsgd1na2vs0mg"},{"bike_id":"e1f6415b-e101-43e7-9b1b-480b213c11b4","system_id":"levelo_inurba_marseille","lat":43.29513,"lon":5.39403,"is_reserved":false,"is_disabled":false,"rental_uris":{"android":"levelo://app?vid=e1f6415b-e101-43e7-9b1b-480b213c11b4","ios":"levelo://app?vid=e1f6415b-e101-43e7-9b1b-480b213c11b4"},"vehicle_type_id":"4","last_reported":1731881278,"current_range_meters":32000,"station_id":"ce4bh292rcd13ifvqdf0","pricing_plan_id":"cebpf4jnsgd1na2vs0mg"},{"bike_id":"7694d120-882b-4df8-9318-0f76e5aee323","system_id":"levelo_inurba_marseille","lat":43.298117,"lon":5.377367,"is_reserved":false,"is_disabled":false,"rental_uris":{"android":"levelo://app?vid=7694d120-882b-4df8-9318-0f76e5aee323","ios":"levelo://app?vid=7694d120-882b-4df8-9318-0f76e5aee323"},"vehicle_type_id":"4","last_reported":1731881278,"current_range_meters":33200,"station_id":"","pricing_plan_id":"cebpf4jnsgd1na2vs0mg"},{"bike_id":"b3daf5c5-2c70-4b50-b0c0-26454236441d","system_id":"levelo_inurba_marseille","lat":43.25729,"lon":5.41111,"is_reserved":false,"is_disabled":false,"rental_uris":{"android":"levelo://app?vid=b3daf5c5-2c70-4b50-b0c0-26454236441d","ios":"levelo://app?vid=b3daf5c5-2c70-4b50-b0c0-26454236441d"},"vehicle_type_id":"4","last_reported":1731881278,"current_range_meters":20000,"station_id":"ce4bhkp2rcd13ifvqgd0","pricing_plan_id":"cebpf4jnsgd1na2vs0mg"},{"bike_id":"e3574f03-886a-44de-928f-da92eaa5df20","system_id":"levelo_inurba_marseille","lat":43.28855,"lon":5.39316,"is_reserved":false,"is_disabled":false,"rental_uris":{"android":"levelo://app?vid=e3574f03-886a-44de-928f-da92eaa5df20","ios":"levelo://app?vid=e3574f03-886a-44de-928f-da92eaa5df20"},"vehicle_type_id":"4","last_reported":1731881278,"current_range_meters":30800,"station_id":"ce4bh2p2rcd13ifvqdi0","pricing_plan_id":"cebpf4jnsgd1na2vs0mg"},{"bike_id":"8300deb3-1fed-4359-9d2f-62192a22298f","system_id":"levelo_inurba_marseille","lat":43.30197,"lon":5.38781,"is_reserved":false,"is_disabled":false,"rental_uris":{"android":"levelo://app?vid=8300deb3-1fed-4359-9d2f-62192a22298f","ios":"levelo://app?vid=8300deb3-1fed-4359-9d2f-62192a22298f"},"vehicle_type_id":"4","last_reported":1731881278,"current_range_meters":30400,"station_id":"ce4bht12rcd13ifvqi60","pricing_plan_id":"cebpf4jnsgd1na2vs0mg"},{"bike_id":"b219a1c1-2cb4-4ae1-8e3f-102f1db645df","system_id":"levelo_inurba_marseille","lat":43.30882,"lon":5.39643,"is_reserved":false,"is_disabled":false,"rental_uris":{"android":"levelo://app?vid=b219a1c1-2cb4-4ae1-8e3f-102f1db645df","ios":"levelo://app?vid=b219a1c1-2cb4-4ae1-8e3f-102f1db645df"},"vehicle_type_id":"4","last_reported":1731881278,"current_range_meters":38800,"station_id":"ce4bh012rcd13ifvqcv0","pricing_plan_id":"cebpf4jnsgd1na2vs0mg"},{"bike_id":"9981c636-3878-494b-95dc-15d318c997a5","system_id":"levelo_inurba_marseille","lat":43.29442,"lon":5.3975,"is_reserved":false,"is_disabled":false,"rental_uris":{"android":"levelo://app?vid=9981c636-3878-494b-95dc-15d318c997a5","ios":"levelo://app?vid=9981c636-3878-494b-95dc-15d318c997a5"},"vehicle_type_id":"4","last_reported":1731881278,"current_range_meters":27200,"station_id":"ce4bh3h2rcd13ifvqdo0","pricing_plan_id":"cebpf4jnsgd1na2vs0mg"},{"bike_id":"cb3165b9-4890-480d-ae63-784fba188dfc","system_id":"levelo_inurba_marseille","lat":43.27069,"lon":5.42277,"is_reserved":false,"is_disabled":false,"rental_uris":{"android":"levelo://app?vid=cb3165b9-4890-480d-ae63-784fba188dfc","ios":"levelo://app?vid=cb3165b9-4890-480d-ae63-784fba188dfc"},"vehicle_type_id":"4","last_reported":1731881278,"current_range_meters":39200,"station_id":"ce4bhk92rcd13ifvqgb0","pricing_plan_id":"cebpf4jnsgd1na2vs0mg"},{"bike_id":"e255a41c-fb0d-4289-92d3-782765fbd7ee","system_id":"levelo_inurba_marseille","lat":43.31534,"lon":5.38016,"is_reserved":false,"is_disabled":false,"rental_uris":{"android":"levelo://app?vid=e255a41c-fb0d-4289-92d3-782765fbd7ee","ios":"levelo://app?vid=e255a41c-fb0d-4289-92d3-782765fbd7ee"},"vehicle_type_id":"4","last_reported":1731881278,"current_range_meters":24000,"station_id":"ce4bhsp2rcd13ifvqi50","pricing_plan_id":"cebpf4jnsgd1na2vs0mg"},{"bike_id":"5938f129-0be9-4612-acac-86791f6673ad","system_id":"levelo_inurba_marseille","lat":43.282,"lon":5.44379,"is_reserved":false,"is_disabled":false,"rental_uris":{"android":"levelo://app?vid=5938f129-0be9-4612-acac-86791f6673ad","ios":"levelo://app?vid=5938f129-0be9-4612-acac-86791f6673ad"},"vehicle_type_id":"4","last_reported":1731881278,"current_range_meters":10800,"station_id":"","pricing_plan_id":"cebpf4jnsgd1na2vs0mg"},{"bike_id":"fd179809-e6fa-4118-bc5c-b276cfa9228c","system_id":"levelo_inurba_marseille","lat":43.27624,"lon":5.3612,"is_reserved":false,"is_disabled":false,"rental_uris":{"android":"levelo://app?vid=fd179809-e6fa-4118-bc5c-b276cfa9228c","ios":"levelo://app?vid=fd179809-e6fa-4118-bc5c-b276cfa9228c"},"vehicle_type_id":"4","last_reported":1731881278,"current_range_meters":36000,"station_id":"ce4bgj92rcd13ifvqbe0","pricing_plan_id":"cebpf4jnsgd1na2vs0mg"},{"bike_id":"e9c95dd5-afb3-4df6-8ea4-96bbc6bd78de","system_id":"levelo_inurba_marseille","lat":43.33024,"lon":5.39041,"is_reserved":false,"is_disabled":false,"rental_uris":{"android":"levelo://app?vid=e9c95dd5-afb3-4df6-8ea4-96bbc6bd78de","ios":"levelo://app?vid=e9c95dd5-afb3-4df6-8ea4-96bbc6bd78de"},"vehicle_type_id":"4","last_reported":1731881278,"current_range_meters":36800,"station_id":"ce4bhr92rcd13ifvqhrg","pricing_plan_id":"cebpf4jnsgd1na2vs0mg"},{"bike_id":"eda5f5d6-66aa-4b3a-bca5-bf9d1afb6cce","system_id":"levelo_inurba_marseille","lat":43.30421,"lon":5.39748,"is_reserved":false,"is_disabled":false,"rental_uris":{"android":"levelo://app?vid=eda5f5d6-66aa-4b3a-bca5-bf9d1afb6cce","ios":"levelo://app?vid=eda5f5d6-66aa-4b3a-bca5-bf9d1afb6cce"},"vehicle_type_id":"4","last_reported":1731881278,"current_range_meters":38800,"station_id":"ce4bh092rcd13ifvqd20","pricing_plan_id":"cebpf4jnsgd1na2vs0mg"},{"bike_id":"3de61345-366f-4f92-b607-4e5e6f7dd6dc","system_id":"levelo_inurba_marseille","lat":43.25106,"lon":5.40324,"is_reserved":false,"is_disabled":false,"rental_uris":{"android":"levelo://app?vid=3de61345-366f-4f92-b607-4e5e6f7dd6dc","ios":"levelo://app?vid=3de61345-366f-4f92-b607-4e5e6f7dd6dc"},"vehicle_type_id":"4","last_reported":1731881278,"current_range_meters":34000,"station_id":"ce4bhlh2rcd13ifvqgig","pricing_plan_id":"cebpf4jnsgd1na2vs0mg"},{"bike_id":"157c9958-9e83-4d13-9bb0-2f78eb9720a7","system_id":"levelo_inurba_marseille","lat":43.28476,"lon":5.38406,"is_reserved":false,"is_disabled":false,"rental_uris":{"android":"levelo://app?vid=157c9958-9e83-4d13-9bb0-2f78eb9720a7","ios":"levelo://app?vid=157c9958-9e83-4d13-9bb0-2f78eb9720a7"},"vehicle_type_id":"4","last_reported":1731881278,"current_range_meters":28800,"station_id":"ce4bh512rcd13ifvqe3g","pricing_plan_id":"cebpf4jnsgd1na2vs0mg"},{"bike_id":"88a6fc2c-cbf5-49bb-92b4-8f6aed2214e8","system_id":"levelo_inurba_marseille","lat":43.29274,"lon":5.40111,"is_reserved":false,"is_disabled":false,"rental_uris":{"android":"levelo://app?vid=88a6fc2c-cbf5-49bb-92b4-8f6aed2214e8","ios":"levelo://app?vid=88a6fc2c-cbf5-49bb-92b4-8f6aed2214e8"},"vehicle_type_id":"4","last_reported":1731881278,"current_range_meters":32000,"station_id":"ce4bh312rcd13ifvqdk0","pricing_plan_id":"cebpf4jnsgd1na2vs0mg"},{"bike_id":"12867844-fa2a-41b2-8d74-706d4ef15909","system_id":"levelo_inurba_marseille","lat":43.33765,"lon":5.37453,"is_reserved":false,"is_disabled":false,"rental_uris":{"android":"levelo://app?vid=12867844-fa2a-41b2-8d74-706d4ef15909","ios":"levelo://app?vid=12867844-fa2a-41b2-8d74-706d4ef15909"},"vehicle_type_id":"4","last_reported":1731881278,"current_range_meters":31200,"station_id":"","pricing_plan_id":"cebpf4jnsgd1na2vs0mg"},{"bike_id":"08bebddc-2f83-4060-9f6d-3a473ed2bb45","system_id":"levelo_inurba_marseille","lat":43.30534,"lon":5.38425,"is_reserved":false,"is_disabled":false,"rental_uris":{"android":"levelo://app?vid=08bebddc-2f83-4060-9f6d-3a473ed2bb45","ios":"levelo://app?vid=08bebddc-2f83-4060-9f6d-3a473ed2bb45"},"vehicle_type_id":"4","last_reported":1731881278,"current_range_meters":33200,"station_id":"ce4bgg92rcd13ifvqb30","pricing_plan_id":"cebpf4jnsgd1na2vs0mg"},{"bike_id":"a336ee14-58f3-4199-a15a-797b15af1e0f","system_id":"levelo_inurba_marseille","lat":43.30412,"lon":5.41301,"is_reserved":false,"is_disabled":false,"rental_uris":{"android":"levelo://app?vid=a336ee14-58f3-4199-a15a-797b15af1e0f","ios":"levelo://app?vid=a336ee14-58f3-4199-a15a-797b15af1e0f"},"vehicle_type_id":"4","last_reported":1731881278,"current_range_meters":32000,"station_id":"ce4bhop2rcd13ifvqh8g","pricing_plan_id":"cebpf4jnsgd1na2vs0mg"},{"bike_id":"23f7e7bd-3c70-44bb-943b-2505231e7297","system_id":"levelo_inurba_marseille","lat":43.28456,"lon":5.35893,"is_reserved":false,"is_disabled":false,"rental_uris":{"android":"levelo://app?vid=23f7e7bd-3c70-44bb-943b-2505231e7297","ios":"levelo://app?vid=23f7e7bd-3c70-44bb-943b-2505231e7297"},"vehicle_type_id":"4","last_reported":1731881278,"current_range_meters":39200,"station_id":"ce4bhah2rcd13ifvqei0","pricing_plan_id":"cebpf4jnsgd1na2vs0mg"},{"bike_id":"5a9704f3-fb36-482c-9b5e-70977a2c766e","system_id":"levelo_inurba_marseille","lat":43.30784,"lon":5.37657,"is_reserved":false,"is_disabled":false,"rental_uris":{"android":"levelo://app?vid=5a9704f3-fb36-482c-9b5e-70977a2c766e","ios":"levelo://app?vid=5a9704f3-fb36-482c-9b5e-70977a2c766e"},"vehicle_type_id":"4","last_reported":1731881278,"current_range_meters":30800,"station_id":"ce4bgv92rcd13ifvqcq0","pricing_plan_id":"cebpf4jnsgd1na2vs0mg"},{"bike_id":"29805b00-7c0a-4e6a-9e25-4043a0fff472","system_id":"levelo_inurba_marseille","lat":43.3129,"lon":5.40175,"is_reserved":false,"is_disabled":false,"rental_uris":{"android":"levelo://app?vid=29805b00-7c0a-4e6a-9e25-4043a0fff472","ios":"levelo://app?vid=29805b00-7c0a-4e6a-9e25-4043a0fff472"},"vehicle_type_id":"4","last_reported":1731881278,"current_range_meters":28400,"station_id":"ce4bh092rcd13ifvqd30","pricing_plan_id":"cebpf4jnsgd1na2vs0mg"},{"bike_id":"31e4d655-cf0c-4e30-a369-4e33235b51b8","system_id":"levelo_inurba_marseille","lat":43.29557,"lon":5.42295,"is_reserved":false,"is_disabled":false,"rental_uris":{"android":"levelo://app?vid=31e4d655-cf0c-4e30-a369-4e33235b51b8","ios":"levelo://app?vid=31e4d655-cf0c-4e30-a369-4e33235b51b8"},"vehicle_type_id":"4","last_reported":1731881278,"current_range_meters":8000,"station_id":"ce4bhph2rcd13ifvqhdg","pricing_plan_id":"cebpf4jnsgd1na2vs0mg"},{"bike_id":"b5fb00ba-41fd-4089-ab0e-06c0cb08cd4a","system_id":"levelo_inurba_marseille","lat":43.29874,"lon":5.39737,"is_reserved":false,"is_disabled":false,"rental_uris":{"android":"levelo://app?vid=b5fb00ba-41fd-4089-ab0e-06c0cb08cd4a","ios":"levelo://app?vid=b5fb00ba-41fd-4089-ab0e-06c0cb08cd4a"},"vehicle_type_id":"4","last_reported":1731881278,"current_range_meters":20400,"station_id":"ce4bh0h2rcd13ifvqd50","pricing_plan_id":"cebpf4jnsgd1na2vs0mg"},{"bike_id":"9890365d-4a8e-4a8b-b19d-4d51e42d5a47","system_id":"levelo_inurba_marseille","lat":43.30593,"lon":5.37227,"is_reserved":false,"is_disabled":false,"rental_uris":{"android":"levelo://app?vid=9890365d-4a8e-4a8b-b19d-4d51e42d5a47","ios":"levelo://app?vid=9890365d-4a8e-4a8b-b19d-4d51e42d5a47"},"vehicle_type_id":"4","last_reported":1731881278,"current_range_meters":33600,"station_id":"ce4bgqh2rcd13ifvqc4g","pricing_plan_id":"cebpf4jnsgd1na2vs0mg"},{"bike_id":"10808265-c82e-4663-ad34-00454e769817","system_id":"levelo_inurba_marseille","lat":43.23189,"lon":5.39994,"is_reserved":false,"is_disabled":false,"rental_uris":{"android":"levelo://app?vid=10808265-c82e-4663-ad34-00454e769817","ios":"levelo://app?vid=10808265-c82e-4663-ad34-00454e769817"},"vehicle_type_id":"4","last_reported":1731881278,"current_range_meters":28800,"station_id":"ce4bhn12rcd13ifvqgqg","pricing_plan_id":"cebpf4jnsgd1na2vs0mg"},{"bike_id":"8bcea2eb-873a-48a8-83fc-0ac9c052e180","system_id":"levelo_inurba_marseille","lat":43.32337,"lon":5.40624,"is_reserved":false,"is_disabled":false,"rental_uris":{"android":"levelo://app?vid=8bcea2eb-873a-48a8-83fc-0ac9c052e180","ios":"levelo://app?vid=8bcea2eb-873a-48a8-83fc-0ac9c052e180"},"vehicle_type_id":"4","last_reported":1731881278,"current_range_meters":34800,"station_id":"ce4bhq92rcd13ifvqhjg","pricing_plan_id":"cebpf4jnsgd1na2vs0mg"},{"bike_id":"f86d1405-ab23-4ac0-85a6-f6aed059b230","system_id":"levelo_inurba_marseille","lat":43.30645,"lon":5.40105,"is_reserved":false,"is_disabled":false,"rental_uris":{"android":"levelo://app?vid=f86d1405-ab23-4ac0-85a6-f6aed059b230","ios":"levelo://app?vid=f86d1405-ab23-4ac0-85a6-f6aed059b230"},"vehicle_type_id":"4","last_reported":1731881278,"current_range_meters":16000,"station_id":"ce4bh112rcd13ifvqda0","pricing_plan_id":"cebpf4jnsgd1na2vs0mg"},{"bike_id":"cfae3b87-2e8a-4f0d-8576-6e06c4572642","system_id":"levelo_inurba_marseille","lat":43.27943,"lon":5.41048,"is_reserved":false,"is_disabled":false,"rental_uris":{"android":"levelo://app?vid=cfae3b87-2e8a-4f0d-8576-6e06c4572642","ios":"levelo://app?vid=cfae3b87-2e8a-4f0d-8576-6e06c4572642"},"vehicle_type_id":"4","last_reported":1731881278,"current_range_meters":6800,"station_id":"ce4bhnp2rcd13ifvqh0g","pricing_plan_id":"cebpf4jnsgd1na2vs0mg"},{"bike_id":"780d4ee5-1ebe-409e-9dbf-654bac15441c","system_id":"levelo_inurba_marseille","lat":43.32367,"lon":5.3888,"is_reserved":false,"is_disabled":false,"rental_uris":{"android":"levelo://app?vid=780d4ee5-1ebe-409e-9dbf-654bac15441c","ios":"levelo://app?vid=780d4ee5-1ebe-409e-9dbf-654bac15441c"},"vehicle_type_id":"4","last_reported":1731881278,"current_range_meters":38800,"station_id":"ce4bhqp2rcd13ifvqhog","pricing_plan_id":"cebpf4jnsgd1na2vs0mg"},{"bike_id":"8f019a78-c493-4f9d-a72d-a75fc0e36210","system_id":"levelo_inurba_marseille","lat":43.2407,"lon":5.37764,"is_reserved":false,"is_disabled":false,"rental_uris":{"android":"levelo://app?vid=8f019a78-c493-4f9d-a72d-a75fc0e36210","ios":"levelo://app?vid=8f019a78-c493-4f9d-a72d-a75fc0e36210"},"vehicle_type_id":"4","last_reported":1731881278,"current_range_meters":28800,"station_id":"ce4bhnp2rcd13ifvqgvg","pricing_plan_id":"cebpf4jnsgd1na2vs0mg"},{"bike_id":"6cd218c9-4ddf-48c0-9806-336b71a616a5","system_id":"levelo_inurba_marseille","lat":43.31228,"lon":5.36866,"is_reserved":false,"is_disabled":false,"rental_uris":{"android":"levelo://app?vid=6cd218c9-4ddf-48c0-9806-336b71a616a5","ios":"levelo://app?vid=6cd218c9-4ddf-48c0-9806-336b71a616a5"},"vehicle_type_id":"4","last_reported":1731881278,"current_range_meters":38800,"station_id":"ce4bgl92rcd13ifvqbq0","pricing_plan_id":"cebpf4jnsgd1na2vs0mg"},{"bike_id":"1d3f3920-9c9f-4326-a5fd-bfc13eab8c1b","system_id":"levelo_inurba_marseille","lat":43.29794,"lon":5.39355,"is_reserved":false,"is_disabled":false,"rental_uris":{"android":"levelo://app?vid=1d3f3920-9c9f-4326-a5fd-bfc13eab8c1b","ios":"levelo://app?vid=1d3f3920-9c9f-4326-a5fd-bfc13eab8c1b"},"vehicle_type_id":"4","last_reported":1731881278,"current_range_meters":27600,"station_id":"chh1huq6cuj3fo74tm60","pricing_plan_id":"cebpf4jnsgd1na2vs0mg"},{"bike_id":"d71f75d9-74a3-482d-b92e-14976a4ffea0","system_id":"levelo_inurba_marseille","lat":43.28722,"lon":5.3795,"is_reserved":false,"is_disabled":false,"rental_uris":{"android":"levelo://app?vid=d71f75d9-74a3-482d-b92e-14976a4ffea0","ios":"levelo://app?vid=d71f75d9-74a3-482d-b92e-14976a4ffea0"},"vehicle_type_id":"4","last_reported":1731881278,"current_range_meters":11600,"station_id":"ce4bh9p2rcd13ifvqec0","pricing_plan_id":"cebpf4jnsgd1na2vs0mg"},{"bike_id":"bec56b94-4d7b-4994-859b-bb682d5c422a","system_id":"levelo_inurba_marseille","lat":43.30607,"lon":5.3937,"is_reserved":false,"is_disabled":false,"rental_uris":{"android":"levelo://app?vid=bec56b94-4d7b-4994-859b-bb682d5c422a","ios":"levelo://app?vid=bec56b94-4d7b-4994-859b-bb682d5c422a"},"vehicle_type_id":"4","last_reported":1731881278,"current_range_meters":38000,"station_id":"ce4bh0p2rcd13ifvqd80","pricing_plan_id":"cebpf4jnsgd1na2vs0mg"},{"bike_id":"a3a50842-12fb-436f-a1a6-082e2b162372","system_id":"levelo_inurba_marseille","lat":43.29191,"lon":5.39312,"is_reserved":false,"is_disabled":false,"rental_uris":{"android":"levelo://app?vid=a3a50842-12fb-436f-a1a6-082e2b162372","ios":"levelo://app?vid=a3a50842-12fb-436f-a1a6-082e2b162372"},"vehicle_type_id":"4","last_reported":1731881278,"current_range_meters":16000,"station_id":"ce4bh192rcd13ifvqdd0","pricing_plan_id":"cebpf4jnsgd1na2vs0mg"},{"bike_id":"304847a3-3e07-4fb8-955c-861fbc7ac28f","system_id":"levelo_inurba_marseille","lat":43.25726,"lon":5.41116,"is_reserved":false,"is_disabled":false,"rental_uris":{"android":"levelo://app?vid=304847a3-3e07-4fb8-955c-861fbc7ac28f","ios":"levelo://app?vid=304847a3-3e07-4fb8-955c-861fbc7ac28f"},"vehicle_type_id":"4","last_reported":1731881278,"current_range_meters":39200,"station_id":"ce4bhkp2rcd13ifvqgd0","pricing_plan_id":"cebpf4jnsgd1na2vs0mg"},{"bike_id":"2557ed8f-3867-4350-b6d5-b00629f71d38","system_id":"levelo_inurba_marseille","lat":43.27911,"lon":5.38029,"is_reserved":false,"is_disabled":false,"rental_uris":{"android":"levelo://app?vid=2557ed8f-3867-4350-b6d5-b00629f71d38","ios":"levelo://app?vid=2557ed8f-3867-4350-b6d5-b00629f71d38"},"vehicle_type_id":"4","last_reported":1731881278,"current_range_meters":37600,"station_id":"ce4bhf92rcd13ifvqf50","pricing_plan_id":"cebpf4jnsgd1na2vs0mg"},{"bike_id":"bfbc2b2b-7068-4fab-9a65-f7be18644268","system_id":"levelo_inurba_marseille","lat":43.27808,"lon":5.40714,"is_reserved":false,"is_disabled":false,"rental_uris":{"android":"levelo://app?vid=bfbc2b2b-7068-4fab-9a65-f7be18644268","ios":"levelo://app?vid=bfbc2b2b-7068-4fab-9a65-f7be18644268"},"vehicle_type_id":"4","last_reported":1731881278,"current_range_meters":30800,"station_id":"ce4bhnh2rcd13ifvqgtg","pricing_plan_id":"cebpf4jnsgd1na2vs0mg"},{"bike_id":"e97c3a2f-bff1-4458-8624-bdaf47013ce6","system_id":"levelo_inurba_marseille","lat":43.28942,"lon":5.39635,"is_reserved":false,"is_disabled":false,"rental_uris":{"android":"levelo://app?vid=e97c3a2f-bff1-4458-8624-bdaf47013ce6","ios":"levelo://app?vid=e97c3a2f-bff1-4458-8624-bdaf47013ce6"},"vehicle_type_id":"4","last_reported":1731881278,"current_range_meters":4800,"station_id":"ce4bh3h2rcd13ifvqdn0","pricing_plan_id":"cebpf4jnsgd1na2vs0mg"},{"bike_id":"2b754c48-bf72-4e88-a569-49c168e62a76","system_id":"levelo_inurba_marseille","lat":43.28075,"lon":5.3966,"is_reserved":false,"is_disabled":false,"rental_uris":{"android":"levelo://app?vid=2b754c48-bf72-4e88-a569-49c168e62a76","ios":"levelo://app?vid=2b754c48-bf72-4e88-a569-49c168e62a76"},"vehicle_type_id":"4","last_reported":1731881278,"current_range_meters":36000,"station_id":"ce4bho12rcd13ifvqh2g","pricing_plan_id":"cebpf4jnsgd1na2vs0mg"},{"bike_id":"a3471b01-d347-453f-9107-802a928d4193","system_id":"levelo_inurba_marseille","lat":43.2846,"lon":5.35898,"is_reserved":false,"is_disabled":false,"rental_uris":{"android":"levelo://app?vid=a3471b01-d347-453f-9107-802a928d4193","ios":"levelo://app?vid=a3471b01-d347-453f-9107-802a928d4193"},"vehicle_type_id":"4","last_reported":1731881278,"current_range_meters":39200,"station_id":"ce4bhah2rcd13ifvqei0","pricing_plan_id":"cebpf4jnsgd1na2vs0mg"},{"bike_id":"e05e1457-2f6d-4bcd-91c4-bf68c794eddb","system_id":"levelo_inurba_marseille","lat":43.29863,"lon":5.39732,"is_reserved":false,"is_disabled":false,"rental_uris":{"android":"levelo://app?vid=e05e1457-2f6d-4bcd-91c4-bf68c794eddb","ios":"levelo://app?vid=e05e1457-2f6d-4bcd-91c4-bf68c794eddb"},"vehicle_type_id":"4","last_reported":1731881278,"current_range_meters":17600,"station_id":"ce4bh0h2rcd13ifvqd50","pricing_plan_id":"cebpf4jnsgd1na2vs0mg"},{"bike_id":"cf945979-904b-41b5-8482-198035004c2e","system_id":"levelo_inurba_marseille","lat":43.33022,"lon":5.39049,"is_reserved":false,"is_disabled":false,"rental_uris":{"android":"levelo://app?vid=cf945979-904b-41b5-8482-198035004c2e","ios":"levelo://app?vid=cf945979-904b-41b5-8482-198035004c2e"},"vehicle_type_id":"4","last_reported":1731881278,"current_range_meters":38400,"station_id":"ce4bhr92rcd13ifvqhrg","pricing_plan_id":"cebpf4jnsgd1na2vs0mg"},{"bike_id":"fc9ffa41-3ad0-472d-8cbd-b06e4af7cd1e","system_id":"levelo_inurba_marseille","lat":43.28407,"lon":5.37522,"is_reserved":false,"is_disabled":false,"rental_uris":{"android":"levelo://app?vid=fc9ffa41-3ad0-472d-8cbd-b06e4af7cd1e","ios":"levelo://app?vid=fc9ffa41-3ad0-472d-8cbd-b06e4af7cd1e"},"vehicle_type_id":"4","last_reported":1731881278,"current_range_meters":38800,"station_id":"ce4bh412rcd13ifvqds0","pricing_plan_id":"cebpf4jnsgd1na2vs0mg"},{"bike_id":"3368b5ef-1d3a-4ea6-ae1b-b7ea13ec07ad","system_id":"levelo_inurba_marseille","lat":43.30785,"lon":5.37653,"is_reserved":false,"is_disabled":false,"rental_uris":{"android":"levelo://app?vid=3368b5ef-1d3a-4ea6-ae1b-b7ea13ec07ad","ios":"levelo://app?vid=3368b5ef-1d3a-4ea6-ae1b-b7ea13ec07ad"},"vehicle_type_id":"4","last_reported":1731881278,"current_range_meters":30000,"station_id":"ce4bgv92rcd13ifvqcq0","pricing_plan_id":"cebpf4jnsgd1na2vs0mg"},{"bike_id":"d87f6f92-00ca-48a6-b48d-18553faed056","system_id":"levelo_inurba_marseille","lat":43.27997,"lon":5.41661,"is_reserved":false,"is_disabled":false,"rental_uris":{"android":"levelo://app?vid=d87f6f92-00ca-48a6-b48d-18553faed056","ios":"levelo://app?vid=d87f6f92-00ca-48a6-b48d-18553faed056"},"vehicle_type_id":"4","last_reported":1731881278,"current_range_meters":29600,"station_id":"ce4bho12rcd13ifvqh1g","pricing_plan_id":"cebpf4jnsgd1na2vs0mg"},{"bike_id":"8cdbbb9d-e54c-4963-8b6c-ba5d001805cc","system_id":"levelo_inurba_marseille","lat":43.28148,"lon":5.44223,"is_reserved":false,"is_disabled":false,"rental_uris":{"android":"levelo://app?vid=8cdbbb9d-e54c-4963-8b6c-ba5d001805cc","ios":"levelo://app?vid=8cdbbb9d-e54c-4963-8b6c-ba5d001805cc"},"vehicle_type_id":"4","last_reported":1731881278,"current_range_meters":33600,"station_id":"","pricing_plan_id":"cebpf4jnsgd1na2vs0mg"},{"bike_id":"88fbcddc-fc1e-4412-b0ae-ec12ac073173","system_id":"levelo_inurba_marseille","lat":43.28076,"lon":5.39659,"is_reserved":false,"is_disabled":false,"rental_uris":{"android":"levelo://app?vid=88fbcddc-fc1e-4412-b0ae-ec12ac073173","ios":"levelo://app?vid=88fbcddc-fc1e-4412-b0ae-ec12ac073173"},"vehicle_type_id":"4","last_reported":1731881278,"current_range_meters":39200,"station_id":"ce4bho12rcd13ifvqh2g","pricing_plan_id":"cebpf4jnsgd1na2vs0mg"},{"bike_id":"62bf7f9f-0570-4538-99ac-1d7a8eab4b3c","system_id":"levelo_inurba_marseille","lat":43.31175,"lon":5.38711,"is_reserved":false,"is_disabled":false,"rental_uris":{"android":"levelo://app?vid=62bf7f9f-0570-4538-99ac-1d7a8eab4b3c","ios":"levelo://app?vid=62bf7f9f-0570-4538-99ac-1d7a8eab4b3c"},"vehicle_type_id":"4","last_reported":1731881278,"current_range_meters":36400,"station_id":"ce4bgv12rcd13ifvqcp0","pricing_plan_id":"cebpf4jnsgd1na2vs0mg"},{"bike_id":"b5ff0f25-c5aa-4dd0-9022-63d731c1cb70","system_id":"levelo_inurba_marseille","lat":43.28856,"lon":5.39326,"is_reserved":false,"is_disabled":false,"rental_uris":{"android":"levelo://app?vid=b5ff0f25-c5aa-4dd0-9022-63d731c1cb70","ios":"levelo://app?vid=b5ff0f25-c5aa-4dd0-9022-63d731c1cb70"},"vehicle_type_id":"4","last_reported":1731881278,"current_range_meters":38800,"station_id":"ce4bh2p2rcd13ifvqdi0","pricing_plan_id":"cebpf4jnsgd1na2vs0mg"},{"bike_id":"dfd7157d-33e6-4fbf-8b66-dc6456f86ee9","system_id":"levelo_inurba_marseille","lat":43.28463,"lon":5.35892,"is_reserved":false,"is_disabled":false,"rental_uris":{"android":"levelo://app?vid=dfd7157d-33e6-4fbf-8b66-dc6456f86ee9","ios":"levelo://app?vid=dfd7157d-33e6-4fbf-8b66-dc6456f86ee9"},"vehicle_type_id":"4","last_reported":1731881278,"current_range_meters":18800,"station_id":"ce4bhah2rcd13ifvqei0","pricing_plan_id":"cebpf4jnsgd1na2vs0mg"},{"bike_id":"e3efa226-e890-4e99-8232-237e6bc0db33","system_id":"levelo_inurba_marseille","lat":43.29303,"lon":5.37453,"is_reserved":false,"is_disabled":false,"rental_uris":{"android":"levelo://app?vid=e3efa226-e890-4e99-8232-237e6bc0db33","ios":"levelo://app?vid=e3efa226-e890-4e99-8232-237e6bc0db33"},"vehicle_type_id":"4","last_reported":1731881278,"current_range_meters":35200,"station_id":"ce4bgi12rcd13ifvqb70","pricing_plan_id":"cebpf4jnsgd1na2vs0mg"},{"bike_id":"43bd4bef-3b33-439f-b25a-a64f4077558e","system_id":"levelo_inurba_marseille","lat":43.30277,"lon":5.37714,"is_reserved":false,"is_disabled":false,"rental_uris":{"android":"levelo://app?vid=43bd4bef-3b33-439f-b25a-a64f4077558e","ios":"levelo://app?vid=43bd4bef-3b33-439f-b25a-a64f4077558e"},"vehicle_type_id":"4","last_reported":1731881278,"current_range_meters":38000,"station_id":"ce4bguh2rcd13ifvqcj0","pricing_plan_id":"cebpf4jnsgd1na2vs0mg"},{"bike_id":"5182db36-2a90-44fe-b81c-43203f4be9df","system_id":"levelo_inurba_marseille","lat":43.30589,"lon":5.39366,"is_reserved":false,"is_disabled":false,"rental_uris":{"android":"levelo://app?vid=5182db36-2a90-44fe-b81c-43203f4be9df","ios":"levelo://app?vid=5182db36-2a90-44fe-b81c-43203f4be9df"},"vehicle_type_id":"4","last_reported":1731881278,"current_range_meters":20800,"station_id":"ce4bh0p2rcd13ifvqd80","pricing_plan_id":"cebpf4jnsgd1na2vs0mg"},{"bike_id":"c789f843-6a8e-473f-8e7e-4886ff8f1b02","system_id":"levelo_inurba_marseille","lat":43.23184,"lon":5.3998,"is_reserved":false,"is_disabled":false,"rental_uris":{"android":"levelo://app?vid=c789f843-6a8e-473f-8e7e-4886ff8f1b02","ios":"levelo://app?vid=c789f843-6a8e-473f-8e7e-4886ff8f1b02"},"vehicle_type_id":"4","last_reported":1731881278,"current_range_meters":38800,"station_id":"ce4bhn12rcd13ifvqgqg","pricing_plan_id":"cebpf4jnsgd1na2vs0mg"},{"bike_id":"76f17f04-f739-43db-843c-2a9c5eb70c12","system_id":"levelo_inurba_marseille","lat":43.31121,"lon":5.37761,"is_reserved":false,"is_disabled":false,"rental_uris":{"android":"levelo://app?vid=76f17f04-f739-43db-843c-2a9c5eb70c12","ios":"levelo://app?vid=76f17f04-f739-43db-843c-2a9c5eb70c12"},"vehicle_type_id":"4","last_reported":1731881278,"current_range_meters":38800,"station_id":"ce4bgt92rcd13ifvqcg0","pricing_plan_id":"cebpf4jnsgd1na2vs0mg"},{"bike_id":"25e8af85-9a67-438e-bf92-99314951acd2","system_id":"levelo_inurba_marseille","lat":43.30117,"lon":5.39077,"is_reserved":false,"is_disabled":false,"rental_uris":{"android":"levelo://app?vid=25e8af85-9a67-438e-bf92-99314951acd2","ios":"levelo://app?vid=25e8af85-9a67-438e-bf92-99314951acd2"},"vehicle_type_id":"4","last_reported":1731881278,"current_range_meters":30800,"station_id":"ce4bh192rcd13ifvqdb0","pricing_plan_id":"cebpf4jnsgd1na2vs0mg"},{"bike_id":"2340cb86-c374-404b-8be0-bf4efc611cee","system_id":"levelo_inurba_marseille","lat":43.33605,"lon":5.4104,"is_reserved":false,"is_disabled":false,"rental_uris":{"android":"levelo://app?vid=2340cb86-c374-404b-8be0-bf4efc611cee","ios":"levelo://app?vid=2340cb86-c374-404b-8be0-bf4efc611cee"},"vehicle_type_id":"4","last_reported":1731881278,"current_range_meters":18800,"station_id":"ce4bhqh2rcd13ifvqhmg","pricing_plan_id":"cebpf4jnsgd1na2vs0mg"},{"bike_id":"61532233-7c94-48c6-8d42-2974a985b8a2","system_id":"levelo_inurba_marseille","lat":43.25078,"lon":5.39513,"is_reserved":false,"is_disabled":false,"rental_uris":{"android":"levelo://app?vid=61532233-7c94-48c6-8d42-2974a985b8a2","ios":"levelo://app?vid=61532233-7c94-48c6-8d42-2974a985b8a2"},"vehicle_type_id":"4","last_reported":1731881278,"current_range_meters":38800,"station_id":"ce4bhm12rcd13ifvqgkg","pricing_plan_id":"cebpf4jnsgd1na2vs0mg"},{"bike_id":"6544d345-32fa-47a7-a827-79b43947b8d4","system_id":"levelo_inurba_marseille","lat":43.26493,"lon":5.39547,"is_reserved":false,"is_disabled":false,"rental_uris":{"android":"levelo://app?vid=6544d345-32fa-47a7-a827-79b43947b8d4","ios":"levelo://app?vid=6544d345-32fa-47a7-a827-79b43947b8d4"},"vehicle_type_id":"4","last_reported":1731881278,"current_range_meters":23200,"station_id":"ce4bhi12rcd13ifvqfq0","pricing_plan_id":"cebpf4jnsgd1na2vs0mg"},{"bike_id":"4f01fa73-c9c0-4fc0-986b-b2a94d270e4a","system_id":"levelo_inurba_marseille","lat":43.302519,"lon":5.400883,"is_reserved":false,"is_disabled":false,"rental_uris":{"android":"levelo://app?vid=4f01fa73-c9c0-4fc0-986b-b2a94d270e4a","ios":"levelo://app?vid=4f01fa73-c9c0-4fc0-986b-b2a94d270e4a"},"vehicle_type_id":"4","last_reported":1731881278,"current_range_meters":8400,"station_id":"ce4bgvh2rcd13ifvqcs0","pricing_plan_id":"cebpf4jnsgd1na2vs0mg"},{"bike_id":"6d757fef-4f26-43f9-ac2c-ffab39bf7dae","system_id":"levelo_inurba_marseille","lat":43.32249,"lon":5.36901,"is_reserved":false,"is_disabled":false,"rental_uris":{"android":"levelo://app?vid=6d757fef-4f26-43f9-ac2c-ffab39bf7dae","ios":"levelo://app?vid=6d757fef-4f26-43f9-ac2c-ffab39bf7dae"},"vehicle_type_id":"4","last_reported":1731881278,"current_range_meters":13600,"station_id":"","pricing_plan_id":"cebpf4jnsgd1na2vs0mg"},{"bike_id":"d14c1b93-5193-4c76-88bb-4329772f8656","system_id":"levelo_inurba_marseille","lat":43.28458,"lon":5.3588,"is_reserved":false,"is_disabled":false,"rental_uris":{"android":"levelo://app?vid=d14c1b93-5193-4c76-88bb-4329772f8656","ios":"levelo://app?vid=d14c1b93-5193-4c76-88bb-4329772f8656"},"vehicle_type_id":"4","last_reported":1731881278,"current_range_meters":31200,"station_id":"ce4bhah2rcd13ifvqei0","pricing_plan_id":"cebpf4jnsgd1na2vs0mg"},{"bike_id":"4a851098-0d4c-481f-8ec2-d29f76466c9e","system_id":"levelo_inurba_marseille","lat":43.31709,"lon":5.37764,"is_reserved":false,"is_disabled":false,"rental_uris":{"android":"levelo://app?vid=4a851098-0d4c-481f-8ec2-d29f76466c9e","ios":"levelo://app?vid=4a851098-0d4c-481f-8ec2-d29f76466c9e"},"vehicle_type_id":"4","last_reported":1731881278,"current_range_meters":38800,"station_id":"ce4bgth2rcd13ifvqch0","pricing_plan_id":"cebpf4jnsgd1na2vs0mg"},{"bike_id":"250baacc-16ca-4248-a285-691ee29a779c","system_id":"levelo_inurba_marseille","lat":43.28143,"lon":5.4265,"is_reserved":false,"is_disabled":false,"rental_uris":{"android":"levelo://app?vid=250baacc-16ca-4248-a285-691ee29a779c","ios":"levelo://app?vid=250baacc-16ca-4248-a285-691ee29a779c"},"vehicle_type_id":"4","last_reported":1731881278,"current_range_meters":25600,"station_id":"ce4bhnh2rcd13ifvqgug","pricing_plan_id":"cebpf4jnsgd1na2vs0mg"},{"bike_id":"22079bec-21a8-4663-b8a3-bc67abf67751","system_id":"levelo_inurba_marseille","lat":43.25118,"lon":5.4032,"is_reserved":false,"is_disabled":false,"rental_uris":{"android":"levelo://app?vid=22079bec-21a8-4663-b8a3-bc67abf67751","ios":"levelo://app?vid=22079bec-21a8-4663-b8a3-bc67abf67751"},"vehicle_type_id":"4","last_reported":1731881278,"current_range_meters":38800,"station_id":"ce4bhlh2rcd13ifvqgig","pricing_plan_id":"cebpf4jnsgd1na2vs0mg"},{"bike_id":"d2f42cf5-8801-43db-acf5-b3c9c3015ac2","system_id":"levelo_inurba_marseille","lat":43.27908,"lon":5.39585,"is_reserved":false,"is_disabled":false,"rental_uris":{"android":"levelo://app?vid=d2f42cf5-8801-43db-acf5-b3c9c3015ac2","ios":"levelo://app?vid=d2f42cf5-8801-43db-acf5-b3c9c3015ac2"},"vehicle_type_id":"4","last_reported":1731881278,"current_range_meters":31200,"station_id":"ce4bhf92rcd13ifvqf40","pricing_plan_id":"cebpf4jnsgd1na2vs0mg"},{"bike_id":"21149293-2e22-4027-a46e-7ffce10910cc","system_id":"levelo_inurba_marseille","lat":43.28004,"lon":5.41669,"is_reserved":false,"is_disabled":false,"rental_uris":{"android":"levelo://app?vid=21149293-2e22-4027-a46e-7ffce10910cc","ios":"levelo://app?vid=21149293-2e22-4027-a46e-7ffce10910cc"},"vehicle_type_id":"4","last_reported":1731881278,"current_range_meters":38000,"station_id":"ce4bho12rcd13ifvqh1g","pricing_plan_id":"cebpf4jnsgd1na2vs0mg"},{"bike_id":"e46c9e43-82bd-42fa-9189-a835c8b13d00","system_id":"levelo_inurba_marseille","lat":43.24806,"lon":5.37457,"is_reserved":false,"is_disabled":false,"rental_uris":{"android":"levelo://app?vid=e46c9e43-82bd-42fa-9189-a835c8b13d00","ios":"levelo://app?vid=e46c9e43-82bd-42fa-9189-a835c8b13d00"},"vehicle_type_id":"4","last_reported":1731881278,"current_range_meters":35600,"station_id":"ce4bhgh2rcd13ifvqfb0","pricing_plan_id":"cebpf4jnsgd1na2vs0mg"},{"bike_id":"b9fc396b-fc8a-4bf2-950a-0f536c8cb697","system_id":"levelo_inurba_marseille","lat":43.29519,"lon":5.39419,"is_reserved":false,"is_disabled":false,"rental_uris":{"android":"levelo://app?vid=b9fc396b-fc8a-4bf2-950a-0f536c8cb697","ios":"levelo://app?vid=b9fc396b-fc8a-4bf2-950a-0f536c8cb697"},"vehicle_type_id":"4","last_reported":1731881278,"current_range_meters":33200,"station_id":"ce4bh292rcd13ifvqdf0","pricing_plan_id":"cebpf4jnsgd1na2vs0mg"},{"bike_id":"0915b3ed-9c74-407d-8c35-25f6d5470718","system_id":"levelo_inurba_marseille","lat":43.25721,"lon":5.41116,"is_reserved":false,"is_disabled":false,"rental_uris":{"android":"levelo://app?vid=0915b3ed-9c74-407d-8c35-25f6d5470718","ios":"levelo://app?vid=0915b3ed-9c74-407d-8c35-25f6d5470718"},"vehicle_type_id":"4","last_reported":1731881278,"current_range_meters":38000,"station_id":"ce4bhkp2rcd13ifvqgd0","pricing_plan_id":"cebpf4jnsgd1na2vs0mg"},{"bike_id":"87c41b04-0f90-457a-b3fc-37e9ffccd964","system_id":"levelo_inurba_marseille","lat":43.28924,"lon":5.38413,"is_reserved":false,"is_disabled":false,"rental_uris":{"android":"levelo://app?vid=87c41b04-0f90-457a-b3fc-37e9ffccd964","ios":"levelo://app?vid=87c41b04-0f90-457a-b3fc-37e9ffccd964"},"vehicle_type_id":"4","last_reported":1731881278,"current_range_meters":38400,"station_id":"ce4bh612rcd13ifvqe6g","pricing_plan_id":"cebpf4jnsgd1na2vs0mg"},{"bike_id":"f9e50a29-65aa-464d-89e3-9f7ac82c689d","system_id":"levelo_inurba_marseille","lat":43.292532,"lon":5.409117,"is_reserved":false,"is_disabled":false,"rental_uris":{"android":"levelo://app?vid=f9e50a29-65aa-464d-89e3-9f7ac82c689d","ios":"levelo://app?vid=f9e50a29-65aa-464d-89e3-9f7ac82c689d"},"vehicle_type_id":"4","last_reported":1731881278,"current_range_meters":38800,"station_id":"ce4bh192rcd13ifvqdc0","pricing_plan_id":"cebpf4jnsgd1na2vs0mg"},{"bike_id":"65117ac2-3858-4ac9-82ee-bf7c29a75fc3","system_id":"levelo_inurba_marseille","lat":43.29188,"lon":5.39334,"is_reserved":false,"is_disabled":false,"rental_uris":{"android":"levelo://app?vid=65117ac2-3858-4ac9-82ee-bf7c29a75fc3","ios":"levelo://app?vid=65117ac2-3858-4ac9-82ee-bf7c29a75fc3"},"vehicle_type_id":"4","last_reported":1731881278,"current_range_meters":12800,"station_id":"ce4bh192rcd13ifvqdd0","pricing_plan_id":"cebpf4jnsgd1na2vs0mg"},{"bike_id":"317e92af-9225-454b-8a3f-5d43c75a1b9d","system_id":"levelo_inurba_marseille","lat":43.29277,"lon":5.40117,"is_reserved":false,"is_disabled":false,"rental_uris":{"android":"levelo://app?vid=317e92af-9225-454b-8a3f-5d43c75a1b9d","ios":"levelo://app?vid=317e92af-9225-454b-8a3f-5d43c75a1b9d"},"vehicle_type_id":"4","last_reported":1731881278,"current_range_meters":25200,"station_id":"ce4bh312rcd13ifvqdk0","pricing_plan_id":"cebpf4jnsgd1na2vs0mg"},{"bike_id":"bce6b1ad-1716-472e-b942-46c470014632","system_id":"levelo_inurba_marseille","lat":43.23189,"lon":5.39987,"is_reserved":false,"is_disabled":false,"rental_uris":{"android":"levelo://app?vid=bce6b1ad-1716-472e-b942-46c470014632","ios":"levelo://app?vid=bce6b1ad-1716-472e-b942-46c470014632"},"vehicle_type_id":"4","last_reported":1731881278,"current_range_meters":31200,"station_id":"ce4bhn12rcd13ifvqgqg","pricing_plan_id":"cebpf4jnsgd1na2vs0mg"},{"bike_id":"a337ef6e-fe9c-4e21-a11c-6b699778dd56","system_id":"levelo_inurba_marseille","lat":43.31075,"lon":5.3836,"is_reserved":false,"is_disabled":false,"rental_uris":{"android":"levelo://app?vid=a337ef6e-fe9c-4e21-a11c-6b699778dd56","ios":"levelo://app?vid=a337ef6e-fe9c-4e21-a11c-6b699778dd56"},"vehicle_type_id":"4","last_reported":1731881278,"current_range_meters":27200,"station_id":"ce4bgv92rcd13ifvqcr0","pricing_plan_id":"cebpf4jnsgd1na2vs0mg"},{"bike_id":"65ad3404-ca16-4ff6-a3da-345d3f802f80","system_id":"levelo_inurba_marseille","lat":43.24176,"lon":5.3973,"is_reserved":false,"is_disabled":false,"rental_uris":{"android":"levelo://app?vid=65ad3404-ca16-4ff6-a3da-345d3f802f80","ios":"levelo://app?vid=65ad3404-ca16-4ff6-a3da-345d3f802f80"},"vehicle_type_id":"4","last_reported":1731881278,"current_range_meters":30000,"station_id":"ce4bhn12rcd13ifvqgpg","pricing_plan_id":"cebpf4jnsgd1na2vs0mg"},{"bike_id":"560057b5-38ed-41d2-8363-c423745ab422","system_id":"levelo_inurba_marseille","lat":43.28154,"lon":5.42642,"is_reserved":false,"is_disabled":false,"rental_uris":{"android":"levelo://app?vid=560057b5-38ed-41d2-8363-c423745ab422","ios":"levelo://app?vid=560057b5-38ed-41d2-8363-c423745ab422"},"vehicle_type_id":"4","last_reported":1731881278,"current_range_meters":38800,"station_id":"ce4bhnh2rcd13ifvqgug","pricing_plan_id":"cebpf4jnsgd1na2vs0mg"},{"bike_id":"b3c8f588-6c68-4be5-8417-3eb50ad07ca0","system_id":"levelo_inurba_marseille","lat":43.25088,"lon":5.3952,"is_reserved":false,"is_disabled":false,"rental_uris":{"android":"levelo://app?vid=b3c8f588-6c68-4be5-8417-3eb50ad07ca0","ios":"levelo://app?vid=b3c8f588-6c68-4be5-8417-3eb50ad07ca0"},"vehicle_type_id":"4","last_reported":1731881278,"current_range_meters":36000,"station_id":"ce4bhm12rcd13ifvqgkg","pricing_plan_id":"cebpf4jnsgd1na2vs0mg"},{"bike_id":"93b28b0d-4448-49b0-a659-1076ec8f95aa","system_id":"levelo_inurba_marseille","lat":43.31073,"lon":5.38354,"is_reserved":false,"is_disabled":false,"rental_uris":{"android":"levelo://app?vid=93b28b0d-4448-49b0-a659-1076ec8f95aa","ios":"levelo://app?vid=93b28b0d-4448-49b0-a659-1076ec8f95aa"},"vehicle_type_id":"4","last_reported":1731881278,"current_range_meters":9600,"station_id":"ce4bgv92rcd13ifvqcr0","pricing_plan_id":"cebpf4jnsgd1na2vs0mg"},{"bike_id":"756e6efe-a3c3-44a4-afb4-9b895a088a93","system_id":"levelo_inurba_marseille","lat":43.30805,"lon":5.43534,"is_reserved":false,"is_disabled":false,"rental_uris":{"android":"levelo://app?vid=756e6efe-a3c3-44a4-afb4-9b895a088a93","ios":"levelo://app?vid=756e6efe-a3c3-44a4-afb4-9b895a088a93"},"vehicle_type_id":"4","last_reported":1731881278,"current_range_meters":38000,"station_id":"ce4bhph2rcd13ifvqheg","pricing_plan_id":"cebpf4jnsgd1na2vs0mg"},{"bike_id":"2ed17fb3-d4dc-4d23-86b8-87846dc96e6f","system_id":"levelo_inurba_marseille","lat":43.30595,"lon":5.39363,"is_reserved":false,"is_disabled":false,"rental_uris":{"android":"levelo://app?vid=2ed17fb3-d4dc-4d23-86b8-87846dc96e6f","ios":"levelo://app?vid=2ed17fb3-d4dc-4d23-86b8-87846dc96e6f"},"vehicle_type_id":"4","last_reported":1731881278,"current_range_meters":38800,"station_id":"ce4bh0p2rcd13ifvqd80","pricing_plan_id":"cebpf4jnsgd1na2vs0mg"},{"bike_id":"7c4762ad-f49d-4eef-9d08-9dfd4b66a9ca","system_id":"levelo_inurba_marseille","lat":43.28954,"lon":5.36635,"is_reserved":false,"is_disabled":false,"rental_uris":{"android":"levelo://app?vid=7c4762ad-f49d-4eef-9d08-9dfd4b66a9ca","ios":"levelo://app?vid=7c4762ad-f49d-4eef-9d08-9dfd4b66a9ca"},"vehicle_type_id":"4","last_reported":1731881278,"current_range_meters":29600,"station_id":"ce4bhap2rcd13ifvqek0","pricing_plan_id":"cebpf4jnsgd1na2vs0mg"},{"bike_id":"927d2a74-e5a2-442a-9486-2af398843ebf","system_id":"levelo_inurba_marseille","lat":43.32369,"lon":5.38882,"is_reserved":false,"is_disabled":false,"rental_uris":{"android":"levelo://app?vid=927d2a74-e5a2-442a-9486-2af398843ebf","ios":"levelo://app?vid=927d2a74-e5a2-442a-9486-2af398843ebf"},"vehicle_type_id":"4","last_reported":1731881278,"current_range_meters":29600,"station_id":"ce4bhqp2rcd13ifvqhog","pricing_plan_id":"cebpf4jnsgd1na2vs0mg"},{"bike_id":"ad982bfa-78ad-414d-a23f-0f0b04b06fc8","system_id":"levelo_inurba_marseille","lat":43.31756,"lon":5.39021,"is_reserved":false,"is_disabled":false,"rental_uris":{"android":"levelo://app?vid=ad982bfa-78ad-414d-a23f-0f0b04b06fc8","ios":"levelo://app?vid=ad982bfa-78ad-414d-a23f-0f0b04b06fc8"},"vehicle_type_id":"4","last_reported":1731881278,"current_range_meters":39200,"station_id":"ce4bhqp2rcd13ifvqhng","pricing_plan_id":"cebpf4jnsgd1na2vs0mg"},{"bike_id":"3188bb0a-f569-4b99-911a-c4f8931a5d08","system_id":"levelo_inurba_marseille","lat":43.28459,"lon":5.35892,"is_reserved":false,"is_disabled":false,"rental_uris":{"android":"levelo://app?vid=3188bb0a-f569-4b99-911a-c4f8931a5d08","ios":"levelo://app?vid=3188bb0a-f569-4b99-911a-c4f8931a5d08"},"vehicle_type_id":"4","last_reported":1731881278,"current_range_meters":22400,"station_id":"ce4bhah2rcd13ifvqei0","pricing_plan_id":"cebpf4jnsgd1na2vs0mg"},{"bike_id":"0be92811-2ea3-4ef7-9959-f0d40183d31b","system_id":"levelo_inurba_marseille","lat":43.28942,"lon":5.39636,"is_reserved":false,"is_disabled":false,"rental_uris":{"android":"levelo://app?vid=0be92811-2ea3-4ef7-9959-f0d40183d31b","ios":"levelo://app?vid=0be92811-2ea3-4ef7-9959-f0d40183d31b"},"vehicle_type_id":"4","last_reported":1731881278,"current_range_meters":30000,"station_id":"ce4bh3h2rcd13ifvqdn0","pricing_plan_id":"cebpf4jnsgd1na2vs0mg"},{"bike_id":"aa1298a1-2453-4873-ab0e-6f99dd6e96bb","system_id":"levelo_inurba_marseille","lat":43.33026,"lon":5.39038,"is_reserved":false,"is_disabled":false,"rental_uris":{"android":"levelo://app?vid=aa1298a1-2453-4873-ab0e-6f99dd6e96bb","ios":"levelo://app?vid=aa1298a1-2453-4873-ab0e-6f99dd6e96bb"},"vehicle_type_id":"4","last_reported":1731881278,"current_range_meters":12000,"station_id":"ce4bhr92rcd13ifvqhrg","pricing_plan_id":"cebpf4jnsgd1na2vs0mg"},{"bike_id":"aedf0c89-1e5d-42d2-9af3-32999bc8bda5","system_id":"levelo_inurba_marseille","lat":43.29872,"lon":5.39737,"is_reserved":false,"is_disabled":false,"rental_uris":{"android":"levelo://app?vid=aedf0c89-1e5d-42d2-9af3-32999bc8bda5","ios":"levelo://app?vid=aedf0c89-1e5d-42d2-9af3-32999bc8bda5"},"vehicle_type_id":"4","last_reported":1731881278,"current_range_meters":38800,"station_id":"ce4bh0h2rcd13ifvqd50","pricing_plan_id":"cebpf4jnsgd1na2vs0mg"},{"bike_id":"7c98e0a9-8a05-4c51-84e1-8e2ad06176a0","system_id":"levelo_inurba_marseille","lat":43.32548,"lon":5.41427,"is_reserved":false,"is_disabled":false,"rental_uris":{"android":"levelo://app?vid=7c98e0a9-8a05-4c51-84e1-8e2ad06176a0","ios":"levelo://app?vid=7c98e0a9-8a05-4c51-84e1-8e2ad06176a0"},"vehicle_type_id":"4","last_reported":1731881278,"current_range_meters":38800,"station_id":"ce4bhq12rcd13ifvqhhg","pricing_plan_id":"cebpf4jnsgd1na2vs0mg"},{"bike_id":"cdfc78e3-0d7a-42a8-a81c-3a6e816d2c3c","system_id":"levelo_inurba_marseille","lat":43.3088,"lon":5.39652,"is_reserved":false,"is_disabled":false,"rental_uris":{"android":"levelo://app?vid=cdfc78e3-0d7a-42a8-a81c-3a6e816d2c3c","ios":"levelo://app?vid=cdfc78e3-0d7a-42a8-a81c-3a6e816d2c3c"},"vehicle_type_id":"4","last_reported":1731881278,"current_range_meters":36000,"station_id":"ce4bh012rcd13ifvqcv0","pricing_plan_id":"cebpf4jnsgd1na2vs0mg"},{"bike_id":"dbf4a046-ec4b-42a2-89d2-1a2f6e4b54e9","system_id":"levelo_inurba_marseille","lat":43.31311,"lon":5.40135,"is_reserved":false,"is_disabled":false,"rental_uris":{"android":"levelo://app?vid=dbf4a046-ec4b-42a2-89d2-1a2f6e4b54e9","ios":"levelo://app?vid=dbf4a046-ec4b-42a2-89d2-1a2f6e4b54e9"},"vehicle_type_id":"4","last_reported":1731881278,"current_range_meters":39200,"station_id":"ce4bh092rcd13ifvqd30","pricing_plan_id":"cebpf4jnsgd1na2vs0mg"},{"bike_id":"1df51f2b-5127-4202-ba3d-7d9979942409","system_id":"levelo_inurba_marseille","lat":43.31073,"lon":5.38357,"is_reserved":false,"is_disabled":false,"rental_uris":{"android":"levelo://app?vid=1df51f2b-5127-4202-ba3d-7d9979942409","ios":"levelo://app?vid=1df51f2b-5127-4202-ba3d-7d9979942409"},"vehicle_type_id":"4","last_reported":1731881278,"current_range_meters":38800,"station_id":"ce4bgv92rcd13ifvqcr0","pricing_plan_id":"cebpf4jnsgd1na2vs0mg"},{"bike_id":"adba1b3c-6bab-4b09-9e8e-9992e2e12fa1","system_id":"levelo_inurba_marseille","lat":43.3043,"lon":5.38882,"is_reserved":false,"is_disabled":false,"rental_uris":{"android":"levelo://app?vid=adba1b3c-6bab-4b09-9e8e-9992e2e12fa1","ios":"levelo://app?vid=adba1b3c-6bab-4b09-9e8e-9992e2e12fa1"},"vehicle_type_id":"4","last_reported":1731881278,"current_range_meters":38800,"station_id":"ce4bgk12rcd13ifvqbi0","pricing_plan_id":"cebpf4jnsgd1na2vs0mg"},{"bike_id":"eb9a84f5-6092-4dc4-a3c0-a07efb437c77","system_id":"levelo_inurba_marseille","lat":43.33749,"lon":5.3745,"is_reserved":false,"is_disabled":false,"rental_uris":{"android":"levelo://app?vid=eb9a84f5-6092-4dc4-a3c0-a07efb437c77","ios":"levelo://app?vid=eb9a84f5-6092-4dc4-a3c0-a07efb437c77"},"vehicle_type_id":"4","last_reported":1731881278,"current_range_meters":3600,"station_id":"","pricing_plan_id":"cebpf4jnsgd1na2vs0mg"},{"bike_id":"cb184dc7-86d0-4cb3-b9cc-3695c19a1b8e","system_id":"levelo_inurba_marseille","lat":43.29872,"lon":5.3973,"is_reserved":false,"is_disabled":false,"rental_uris":{"android":"levelo://app?vid=cb184dc7-86d0-4cb3-b9cc-3695c19a1b8e","ios":"levelo://app?vid=cb184dc7-86d0-4cb3-b9cc-3695c19a1b8e"},"vehicle_type_id":"4","last_reported":1731881278,"current_range_meters":32800,"station_id":"ce4bh0h2rcd13ifvqd50","pricing_plan_id":"cebpf4jnsgd1na2vs0mg"},{"bike_id":"4476c238-863e-4579-84d1-8569a100e887","system_id":"levelo_inurba_marseille","lat":43.31221,"lon":5.36871,"is_reserved":false,"is_disabled":false,"rental_uris":{"android":"levelo://app?vid=4476c238-863e-4579-84d1-8569a100e887","ios":"levelo://app?vid=4476c238-863e-4579-84d1-8569a100e887"},"vehicle_type_id":"4","last_reported":1731881278,"current_range_meters":38800,"station_id":"ce4bgl92rcd13ifvqbq0","pricing_plan_id":"cebpf4jnsgd1na2vs0mg"},{"bike_id":"cd7ea6ad-5c09-4d44-b698-5463beb60b5d","system_id":"levelo_inurba_marseille","lat":43.30254,"lon":5.4008,"is_reserved":false,"is_disabled":false,"rental_uris":{"android":"levelo://app?vid=cd7ea6ad-5c09-4d44-b698-5463beb60b5d","ios":"levelo://app?vid=cd7ea6ad-5c09-4d44-b698-5463beb60b5d"},"vehicle_type_id":"4","last_reported":1731881278,"current_range_meters":30800,"station_id":"ce4bgvh2rcd13ifvqcs0","pricing_plan_id":"cebpf4jnsgd1na2vs0mg"},{"bike_id":"22ea48db-755d-43c3-a7d2-0beff01815d8","system_id":"levelo_inurba_marseille","lat":43.3379,"lon":5.37434,"is_reserved":false,"is_disabled":false,"rental_uris":{"android":"levelo://app?vid=22ea48db-755d-43c3-a7d2-0beff01815d8","ios":"levelo://app?vid=22ea48db-755d-43c3-a7d2-0beff01815d8"},"vehicle_type_id":"4","last_reported":1731881278,"current_range_meters":7200,"station_id":"","pricing_plan_id":"cebpf4jnsgd1na2vs0mg"},{"bike_id":"f9c1573b-7a87-4762-9e78-59eb93cb4c0a","system_id":"levelo_inurba_marseille","lat":43.25115,"lon":5.40327,"is_reserved":false,"is_disabled":false,"rental_uris":{"android":"levelo://app?vid=f9c1573b-7a87-4762-9e78-59eb93cb4c0a","ios":"levelo://app?vid=f9c1573b-7a87-4762-9e78-59eb93cb4c0a"},"vehicle_type_id":"4","last_reported":1731881278,"current_range_meters":38800,"station_id":"ce4bhlh2rcd13ifvqgig","pricing_plan_id":"cebpf4jnsgd1na2vs0mg"},{"bike_id":"15fcc8f8-48f4-4ee0-b8d1-4b8952c9848d","system_id":"levelo_inurba_marseille","lat":43.2885,"lon":5.35859,"is_reserved":false,"is_disabled":false,"rental_uris":{"android":"levelo://app?vid=15fcc8f8-48f4-4ee0-b8d1-4b8952c9848d","ios":"levelo://app?vid=15fcc8f8-48f4-4ee0-b8d1-4b8952c9848d"},"vehicle_type_id":"4","last_reported":1731881278,"current_range_meters":27600,"station_id":"ce4bhb12rcd13ifvqem0","pricing_plan_id":"cebpf4jnsgd1na2vs0mg"},{"bike_id":"f1bde73f-d4a0-4638-b576-2d712be40fe5","system_id":"levelo_inurba_marseille","lat":43.30436,"lon":5.389,"is_reserved":false,"is_disabled":false,"rental_uris":{"android":"levelo://app?vid=f1bde73f-d4a0-4638-b576-2d712be40fe5","ios":"levelo://app?vid=f1bde73f-d4a0-4638-b576-2d712be40fe5"},"vehicle_type_id":"4","last_reported":1731881278,"current_range_meters":39200,"station_id":"ce4bgk12rcd13ifvqbi0","pricing_plan_id":"cebpf4jnsgd1na2vs0mg"},{"bike_id":"afb02f26-d4fb-42e6-ba22-385a408e0fb1","system_id":"levelo_inurba_marseille","lat":43.306403,"lon":5.400732,"is_reserved":false,"is_disabled":false,"rental_uris":{"android":"levelo://app?vid=afb02f26-d4fb-42e6-ba22-385a408e0fb1","ios":"levelo://app?vid=afb02f26-d4fb-42e6-ba22-385a408e0fb1"},"vehicle_type_id":"4","last_reported":1731881278,"current_range_meters":16400,"station_id":"ce4bh112rcd13ifvqda0","pricing_plan_id":"cebpf4jnsgd1na2vs0mg"},{"bike_id":"954d95d3-7c94-42d6-a089-d5d03c19dd28","system_id":"levelo_inurba_marseille","lat":43.26935,"lon":5.38915,"is_reserved":false,"is_disabled":false,"rental_uris":{"android":"levelo://app?vid=954d95d3-7c94-42d6-a089-d5d03c19dd28","ios":"levelo://app?vid=954d95d3-7c94-42d6-a089-d5d03c19dd28"},"vehicle_type_id":"4","last_reported":1731881278,"current_range_meters":38800,"station_id":"ce4bhhh2rcd13ifvqfl0","pricing_plan_id":"cebpf4jnsgd1na2vs0mg"},{"bike_id":"ca655f3b-8380-4045-b3f8-8acaa0e83ede","system_id":"levelo_inurba_marseille","lat":43.33739,"lon":5.37423,"is_reserved":false,"is_disabled":false,"rental_uris":{"android":"levelo://app?vid=ca655f3b-8380-4045-b3f8-8acaa0e83ede","ios":"levelo://app?vid=ca655f3b-8380-4045-b3f8-8acaa0e83ede"},"vehicle_type_id":"4","last_reported":1731881278,"current_range_meters":31200,"station_id":"","pricing_plan_id":"cebpf4jnsgd1na2vs0mg"},{"bike_id":"5f4a3ad8-dd77-4a7e-89b6-bb792badcc22","system_id":"levelo_inurba_marseille","lat":43.31334,"lon":5.39697,"is_reserved":false,"is_disabled":false,"rental_uris":{"android":"levelo://app?vid=5f4a3ad8-dd77-4a7e-89b6-bb792badcc22","ios":"levelo://app?vid=5f4a3ad8-dd77-4a7e-89b6-bb792badcc22"},"vehicle_type_id":"4","last_reported":1731881278,"current_range_meters":25600,"station_id":"ce4bgvp2rcd13ifvqcu0","pricing_plan_id":"cebpf4jnsgd1na2vs0mg"},{"bike_id":"bfcd3afd-435f-4d8f-9734-2a0e9ce62ac0","system_id":"levelo_inurba_marseille","lat":43.30441,"lon":5.38888,"is_reserved":false,"is_disabled":false,"rental_uris":{"android":"levelo://app?vid=bfcd3afd-435f-4d8f-9734-2a0e9ce62ac0","ios":"levelo://app?vid=bfcd3afd-435f-4d8f-9734-2a0e9ce62ac0"},"vehicle_type_id":"4","last_reported":1731881278,"current_range_meters":36000,"station_id":"ce4bgk12rcd13ifvqbi0","pricing_plan_id":"cebpf4jnsgd1na2vs0mg"},{"bike_id":"a6b8c285-acc9-4039-9531-1aae39136a33","system_id":"levelo_inurba_marseille","lat":43.312042,"lon":5.367348,"is_reserved":false,"is_disabled":false,"rental_uris":{"android":"levelo://app?vid=a6b8c285-acc9-4039-9531-1aae39136a33","ios":"levelo://app?vid=a6b8c285-acc9-4039-9531-1aae39136a33"},"vehicle_type_id":"4","last_reported":1731881278,"current_range_meters":8800,"station_id":"","pricing_plan_id":"cebpf4jnsgd1na2vs0mg"},{"bike_id":"8732dc48-0ead-4fbf-abd3-bc444cb9a620","system_id":"levelo_inurba_marseille","lat":43.32627,"lon":5.35654,"is_reserved":false,"is_disabled":false,"rental_uris":{"android":"levelo://app?vid=8732dc48-0ead-4fbf-abd3-bc444cb9a620","ios":"levelo://app?vid=8732dc48-0ead-4fbf-abd3-bc444cb9a620"},"vehicle_type_id":"4","last_reported":1731881278,"current_range_meters":38800,"station_id":"ce4bhrh2rcd13ifvqhug","pricing_plan_id":"cebpf4jnsgd1na2vs0mg"},{"bike_id":"6c7173dc-f348-4f7f-a701-bb5f0e890cee","system_id":"levelo_inurba_marseille","lat":43.23963,"lon":5.3663,"is_reserved":false,"is_disabled":false,"rental_uris":{"android":"levelo://app?vid=6c7173dc-f348-4f7f-a701-bb5f0e890cee","ios":"levelo://app?vid=6c7173dc-f348-4f7f-a701-bb5f0e890cee"},"vehicle_type_id":"4","last_reported":1731881278,"current_range_meters":17200,"station_id":"ce4bhi12rcd13ifvqfp0","pricing_plan_id":"cebpf4jnsgd1na2vs0mg"},{"bike_id":"4bd27c08-a147-407e-adf1-13a0b0271287","system_id":"levelo_inurba_marseille","lat":43.28437,"lon":5.392,"is_reserved":false,"is_disabled":false,"rental_uris":{"android":"levelo://app?vid=4bd27c08-a147-407e-adf1-13a0b0271287","ios":"levelo://app?vid=4bd27c08-a147-407e-adf1-13a0b0271287"},"vehicle_type_id":"4","last_reported":1731881278,"current_range_meters":38800,"station_id":"ce4bhoh2rcd13ifvqh5g","pricing_plan_id":"cebpf4jnsgd1na2vs0mg"},{"bike_id":"3e8f8de7-3ee6-4a31-b72b-08490f801121","system_id":"levelo_inurba_marseille","lat":43.278154,"lon":5.407154,"is_reserved":false,"is_disabled":false,"rental_uris":{"android":"levelo://app?vid=3e8f8de7-3ee6-4a31-b72b-08490f801121","ios":"levelo://app?vid=3e8f8de7-3ee6-4a31-b72b-08490f801121"},"vehicle_type_id":"4","last_reported":1731881278,"current_range_meters":38400,"station_id":"ce4bhnh2rcd13ifvqgtg","pricing_plan_id":"cebpf4jnsgd1na2vs0mg"},{"bike_id":"9af3cdec-4f63-4439-b320-1cf5e6351989","system_id":"levelo_inurba_marseille","lat":43.26303,"lon":5.37394,"is_reserved":false,"is_disabled":false,"rental_uris":{"android":"levelo://app?vid=9af3cdec-4f63-4439-b320-1cf5e6351989","ios":"levelo://app?vid=9af3cdec-4f63-4439-b320-1cf5e6351989"},"vehicle_type_id":"4","last_reported":1731881278,"current_range_meters":28800,"station_id":"","pricing_plan_id":"cebpf4jnsgd1na2vs0mg"},{"bike_id":"8c19b2d4-a3cd-45ab-a3d3-1f5f9c12afc6","system_id":"levelo_inurba_marseille","lat":43.30339,"lon":5.38608,"is_reserved":false,"is_disabled":false,"rental_uris":{"android":"levelo://app?vid=8c19b2d4-a3cd-45ab-a3d3-1f5f9c12afc6","ios":"levelo://app?vid=8c19b2d4-a3cd-45ab-a3d3-1f5f9c12afc6"},"vehicle_type_id":"4","last_reported":1731881278,"current_range_meters":36800,"station_id":"","pricing_plan_id":"cebpf4jnsgd1na2vs0mg"},{"bike_id":"3522119d-16dd-4b56-b32b-308c731895a5","system_id":"levelo_inurba_marseille","lat":43.27817,"lon":5.40733,"is_reserved":false,"is_disabled":false,"rental_uris":{"android":"levelo://app?vid=3522119d-16dd-4b56-b32b-308c731895a5","ios":"levelo://app?vid=3522119d-16dd-4b56-b32b-308c731895a5"},"vehicle_type_id":"4","last_reported":1731881278,"current_range_meters":5600,"station_id":"ce4bhnh2rcd13ifvqgtg","pricing_plan_id":"cebpf4jnsgd1na2vs0mg"},{"bike_id":"de7343c2-973c-4525-a649-403a680a16c5","system_id":"levelo_inurba_marseille","lat":43.30098,"lon":5.39078,"is_reserved":false,"is_disabled":false,"rental_uris":{"android":"levelo://app?vid=de7343c2-973c-4525-a649-403a680a16c5","ios":"levelo://app?vid=de7343c2-973c-4525-a649-403a680a16c5"},"vehicle_type_id":"4","last_reported":1731881278,"current_range_meters":29600,"station_id":"ce4bh192rcd13ifvqdb0","pricing_plan_id":"cebpf4jnsgd1na2vs0mg"},{"bike_id":"05ccbef7-43cf-4daa-af4c-483d919c0c14","system_id":"levelo_inurba_marseille","lat":43.24172,"lon":5.36399,"is_reserved":false,"is_disabled":false,"rental_uris":{"android":"levelo://app?vid=05ccbef7-43cf-4daa-af4c-483d919c0c14","ios":"levelo://app?vid=05ccbef7-43cf-4daa-af4c-483d919c0c14"},"vehicle_type_id":"4","last_reported":1731881278,"current_range_meters":34800,"station_id":"cpo36qri1sfpv3e86is0","pricing_plan_id":"cebpf4jnsgd1na2vs0mg"},{"bike_id":"ca7617af-2622-45bc-99bb-641ef41ab610","system_id":"levelo_inurba_marseille","lat":43.29571,"lon":5.38211,"is_reserved":false,"is_disabled":false,"rental_uris":{"android":"levelo://app?vid=ca7617af-2622-45bc-99bb-641ef41ab610","ios":"levelo://app?vid=ca7617af-2622-45bc-99bb-641ef41ab610"},"vehicle_type_id":"4","last_reported":1731881278,"current_range_meters":30800,"station_id":"ce4bho92rcd13ifvqh3g","pricing_plan_id":"cebpf4jnsgd1na2vs0mg"},{"bike_id":"493b2083-a7a4-46d2-bc93-1724c5bd01cb","system_id":"levelo_inurba_marseille","lat":43.3064,"lon":5.40068,"is_reserved":false,"is_disabled":false,"rental_uris":{"android":"levelo://app?vid=493b2083-a7a4-46d2-bc93-1724c5bd01cb","ios":"levelo://app?vid=493b2083-a7a4-46d2-bc93-1724c5bd01cb"},"vehicle_type_id":"4","last_reported":1731881278,"current_range_meters":21600,"station_id":"ce4bh112rcd13ifvqda0","pricing_plan_id":"cebpf4jnsgd1na2vs0mg"},{"bike_id":"92ac4858-87d6-4ceb-8f6e-004635a816a8","system_id":"levelo_inurba_marseille","lat":43.27786,"lon":5.40732,"is_reserved":false,"is_disabled":false,"rental_uris":{"android":"levelo://app?vid=92ac4858-87d6-4ceb-8f6e-004635a816a8","ios":"levelo://app?vid=92ac4858-87d6-4ceb-8f6e-004635a816a8"},"vehicle_type_id":"4","last_reported":1731881278,"current_range_meters":25200,"station_id":"ce4bhnh2rcd13ifvqgtg","pricing_plan_id":"cebpf4jnsgd1na2vs0mg"},{"bike_id":"2b0ff95a-3fbc-4264-9c8f-0a3734e035cc","system_id":"levelo_inurba_marseille","lat":43.31758,"lon":5.3902,"is_reserved":false,"is_disabled":false,"rental_uris":{"android":"levelo://app?vid=2b0ff95a-3fbc-4264-9c8f-0a3734e035cc","ios":"levelo://app?vid=2b0ff95a-3fbc-4264-9c8f-0a3734e035cc"},"vehicle_type_id":"4","last_reported":1731881278,"current_range_meters":39200,"station_id":"ce4bhqp2rcd13ifvqhng","pricing_plan_id":"cebpf4jnsgd1na2vs0mg"},{"bike_id":"25a9be2d-adf9-4893-a334-7b3ca0d1fec3","system_id":"levelo_inurba_marseille","lat":43.30646,"lon":5.40073,"is_reserved":false,"is_disabled":false,"rental_uris":{"android":"levelo://app?vid=25a9be2d-adf9-4893-a334-7b3ca0d1fec3","ios":"levelo://app?vid=25a9be2d-adf9-4893-a334-7b3ca0d1fec3"},"vehicle_type_id":"4","last_reported":1731881278,"current_range_meters":37600,"station_id":"ce4bh112rcd13ifvqda0","pricing_plan_id":"cebpf4jnsgd1na2vs0mg"},{"bike_id":"d7ea65f4-c363-4361-bca9-7b8470b6547a","system_id":"levelo_inurba_marseille","lat":43.24645,"lon":5.38895,"is_reserved":false,"is_disabled":false,"rental_uris":{"android":"levelo://app?vid=d7ea65f4-c363-4361-bca9-7b8470b6547a","ios":"levelo://app?vid=d7ea65f4-c363-4361-bca9-7b8470b6547a"},"vehicle_type_id":"4","last_reported":1731881278,"current_range_meters":34800,"station_id":"ce4bhg12rcd13ifvqf60","pricing_plan_id":"cebpf4jnsgd1na2vs0mg"},{"bike_id":"143df917-e46c-4ede-ace7-3394b01236b7","system_id":"levelo_inurba_marseille","lat":43.31271,"lon":5.40174,"is_reserved":false,"is_disabled":false,"rental_uris":{"android":"levelo://app?vid=143df917-e46c-4ede-ace7-3394b01236b7","ios":"levelo://app?vid=143df917-e46c-4ede-ace7-3394b01236b7"},"vehicle_type_id":"4","last_reported":1731881278,"current_range_meters":12800,"station_id":"ce4bh092rcd13ifvqd30","pricing_plan_id":"cebpf4jnsgd1na2vs0mg"},{"bike_id":"4d95d7d5-cf64-4669-a821-05f5597e1d87","system_id":"levelo_inurba_marseille","lat":43.275643,"lon":5.384313,"is_reserved":false,"is_disabled":false,"rental_uris":{"android":"levelo://app?vid=4d95d7d5-cf64-4669-a821-05f5597e1d87","ios":"levelo://app?vid=4d95d7d5-cf64-4669-a821-05f5597e1d87"},"vehicle_type_id":"4","last_reported":1731881278,"current_range_meters":35600,"station_id":"ce4bhh92rcd13ifvqfi0","pricing_plan_id":"cebpf4jnsgd1na2vs0mg"},{"bike_id":"31dddf60-0702-4f9f-8219-0ef701219338","system_id":"levelo_inurba_marseille","lat":43.31287,"lon":5.40172,"is_reserved":false,"is_disabled":false,"rental_uris":{"android":"levelo://app?vid=31dddf60-0702-4f9f-8219-0ef701219338","ios":"levelo://app?vid=31dddf60-0702-4f9f-8219-0ef701219338"},"vehicle_type_id":"4","last_reported":1731881278,"current_range_meters":10000,"station_id":"ce4bh092rcd13ifvqd30","pricing_plan_id":"cebpf4jnsgd1na2vs0mg"},{"bike_id":"7465bc4b-7341-47ef-959d-45c0a1d37e4c","system_id":"levelo_inurba_marseille","lat":43.24082,"lon":5.3774,"is_reserved":false,"is_disabled":false,"rental_uris":{"android":"levelo://app?vid=7465bc4b-7341-47ef-959d-45c0a1d37e4c","ios":"levelo://app?vid=7465bc4b-7341-47ef-959d-45c0a1d37e4c"},"vehicle_type_id":"4","last_reported":1731881278,"current_range_meters":27200,"station_id":"ce4bhnp2rcd13ifvqgvg","pricing_plan_id":"cebpf4jnsgd1na2vs0mg"},{"bike_id":"ed47ee70-605c-4ebe-b492-11cf3d5ceed1","system_id":"levelo_inurba_marseille","lat":43.3172,"lon":5.43726,"is_reserved":false,"is_disabled":false,"rental_uris":{"android":"levelo://app?vid=ed47ee70-605c-4ebe-b492-11cf3d5ceed1","ios":"levelo://app?vid=ed47ee70-605c-4ebe-b492-11cf3d5ceed1"},"vehicle_type_id":"4","last_reported":1731881278,"current_range_meters":36400,"station_id":"ce4bhp92rcd13ifvqhcg","pricing_plan_id":"cebpf4jnsgd1na2vs0mg"},{"bike_id":"a84f5389-258d-4508-9c0f-32ee5d326b43","system_id":"levelo_inurba_marseille","lat":43.33767,"lon":5.37475,"is_reserved":false,"is_disabled":false,"rental_uris":{"android":"levelo://app?vid=a84f5389-258d-4508-9c0f-32ee5d326b43","ios":"levelo://app?vid=a84f5389-258d-4508-9c0f-32ee5d326b43"},"vehicle_type_id":"4","last_reported":1731881278,"current_range_meters":28000,"station_id":"","pricing_plan_id":"cebpf4jnsgd1na2vs0mg"},{"bike_id":"d7581bdc-1067-4621-8fe2-daf34c28df75","system_id":"levelo_inurba_marseille","lat":43.24544,"lon":5.39529,"is_reserved":false,"is_disabled":false,"rental_uris":{"android":"levelo://app?vid=d7581bdc-1067-4621-8fe2-daf34c28df75","ios":"levelo://app?vid=d7581bdc-1067-4621-8fe2-daf34c28df75"},"vehicle_type_id":"4","last_reported":1731881278,"current_range_meters":28000,"station_id":"ce4bhlp2rcd13ifvqgjg","pricing_plan_id":"cebpf4jnsgd1na2vs0mg"},{"bike_id":"04158c1a-fd46-49c3-a56e-df452be93304","system_id":"levelo_inurba_marseille","lat":43.29518,"lon":5.39411,"is_reserved":false,"is_disabled":false,"rental_uris":{"android":"levelo://app?vid=04158c1a-fd46-49c3-a56e-df452be93304","ios":"levelo://app?vid=04158c1a-fd46-49c3-a56e-df452be93304"},"vehicle_type_id":"4","last_reported":1731881278,"current_range_meters":34800,"station_id":"ce4bh292rcd13ifvqdf0","pricing_plan_id":"cebpf4jnsgd1na2vs0mg"},{"bike_id":"8f426890-14c3-4f84-af0e-ede85f28b7aa","system_id":"levelo_inurba_marseille","lat":43.23149,"lon":5.43726,"is_reserved":false,"is_disabled":false,"rental_uris":{"android":"levelo://app?vid=8f426890-14c3-4f84-af0e-ede85f28b7aa","ios":"levelo://app?vid=8f426890-14c3-4f84-af0e-ede85f28b7aa"},"vehicle_type_id":"4","last_reported":1731881278,"current_range_meters":22800,"station_id":"ce4bhmp2rcd13ifvqgog","pricing_plan_id":"cebpf4jnsgd1na2vs0mg"},{"bike_id":"719862df-eb31-4da6-8f57-20e84f6c29b5","system_id":"levelo_inurba_marseille","lat":43.32368,"lon":5.38885,"is_reserved":false,"is_disabled":false,"rental_uris":{"android":"levelo://app?vid=719862df-eb31-4da6-8f57-20e84f6c29b5","ios":"levelo://app?vid=719862df-eb31-4da6-8f57-20e84f6c29b5"},"vehicle_type_id":"4","last_reported":1731881278,"current_range_meters":8400,"station_id":"ce4bhqp2rcd13ifvqhog","pricing_plan_id":"cebpf4jnsgd1na2vs0mg"},{"bike_id":"ba4cfa6b-d262-4c5f-ad80-f1c569b77562","system_id":"levelo_inurba_marseille","lat":43.25711,"lon":5.41123,"is_reserved":false,"is_disabled":false,"rental_uris":{"android":"levelo://app?vid=ba4cfa6b-d262-4c5f-ad80-f1c569b77562","ios":"levelo://app?vid=ba4cfa6b-d262-4c5f-ad80-f1c569b77562"},"vehicle_type_id":"4","last_reported":1731881278,"current_range_meters":37600,"station_id":"ce4bhkp2rcd13ifvqgd0","pricing_plan_id":"cebpf4jnsgd1na2vs0mg"},{"bike_id":"95b7222f-eb18-4b6a-8fe7-103e91bfc300","system_id":"levelo_inurba_marseille","lat":43.32657,"lon":5.40997,"is_reserved":false,"is_disabled":false,"rental_uris":{"android":"levelo://app?vid=95b7222f-eb18-4b6a-8fe7-103e91bfc300","ios":"levelo://app?vid=95b7222f-eb18-4b6a-8fe7-103e91bfc300"},"vehicle_type_id":"4","last_reported":1731881278,"current_range_meters":38800,"station_id":"ce4bhpp2rcd13ifvqhgg","pricing_plan_id":"cebpf4jnsgd1na2vs0mg"},{"bike_id":"2278ff27-67f2-4840-a242-2d6ee755536b","system_id":"levelo_inurba_marseille","lat":43.32489,"lon":5.36594,"is_reserved":false,"is_disabled":false,"rental_uris":{"android":"levelo://app?vid=2278ff27-67f2-4840-a242-2d6ee755536b","ios":"levelo://app?vid=2278ff27-67f2-4840-a242-2d6ee755536b"},"vehicle_type_id":"4","last_reported":1731881278,"current_range_meters":20400,"station_id":"ce4bhs12rcd13ifvqhvg","pricing_plan_id":"cebpf4jnsgd1na2vs0mg"},{"bike_id":"70bce780-771f-4c17-812f-060c6d1434d0","system_id":"levelo_inurba_marseille","lat":43.32653,"lon":5.40986,"is_reserved":false,"is_disabled":false,"rental_uris":{"android":"levelo://app?vid=70bce780-771f-4c17-812f-060c6d1434d0","ios":"levelo://app?vid=70bce780-771f-4c17-812f-060c6d1434d0"},"vehicle_type_id":"4","last_reported":1731881278,"current_range_meters":38800,"station_id":"ce4bhpp2rcd13ifvqhgg","pricing_plan_id":"cebpf4jnsgd1na2vs0mg"},{"bike_id":"7c0a99b0-2291-4a5e-b431-d5d68272736a","system_id":"levelo_inurba_marseille","lat":43.24069,"lon":5.37758,"is_reserved":false,"is_disabled":false,"rental_uris":{"android":"levelo://app?vid=7c0a99b0-2291-4a5e-b431-d5d68272736a","ios":"levelo://app?vid=7c0a99b0-2291-4a5e-b431-d5d68272736a"},"vehicle_type_id":"4","last_reported":1731881278,"current_range_meters":18000,"station_id":"ce4bhnp2rcd13ifvqgvg","pricing_plan_id":"cebpf4jnsgd1na2vs0mg"},{"bike_id":"2d0c69ee-5bbd-4523-995a-0e315f06df51","system_id":"levelo_inurba_marseille","lat":43.30877,"lon":5.39624,"is_reserved":false,"is_disabled":false,"rental_uris":{"android":"levelo://app?vid=2d0c69ee-5bbd-4523-995a-0e315f06df51","ios":"levelo://app?vid=2d0c69ee-5bbd-4523-995a-0e315f06df51"},"vehicle_type_id":"4","last_reported":1731881278,"current_range_meters":38800,"station_id":"ce4bh012rcd13ifvqcv0","pricing_plan_id":"cebpf4jnsgd1na2vs0mg"},{"bike_id":"fdf215e7-1bcb-42ff-a0ad-7cf067638477","system_id":"levelo_inurba_marseille","lat":43.31279,"lon":5.40165,"is_reserved":false,"is_disabled":false,"rental_uris":{"android":"levelo://app?vid=fdf215e7-1bcb-42ff-a0ad-7cf067638477","ios":"levelo://app?vid=fdf215e7-1bcb-42ff-a0ad-7cf067638477"},"vehicle_type_id":"4","last_reported":1731881278,"current_range_meters":38800,"station_id":"ce4bh092rcd13ifvqd30","pricing_plan_id":"cebpf4jnsgd1na2vs0mg"},{"bike_id":"522e9503-b872-48f2-8fb5-d8348a9df819","system_id":"levelo_inurba_marseille","lat":43.31689,"lon":5.40467,"is_reserved":false,"is_disabled":false,"rental_uris":{"android":"levelo://app?vid=522e9503-b872-48f2-8fb5-d8348a9df819","ios":"levelo://app?vid=522e9503-b872-48f2-8fb5-d8348a9df819"},"vehicle_type_id":"4","last_reported":1731881278,"current_range_meters":27600,"station_id":"ce4bh012rcd13ifvqd00","pricing_plan_id":"cebpf4jnsgd1na2vs0mg"},{"bike_id":"4613b1e7-5d1e-4f96-a8f8-a72d771306c2","system_id":"levelo_inurba_marseille","lat":43.28717,"lon":5.37942,"is_reserved":false,"is_disabled":false,"rental_uris":{"android":"levelo://app?vid=4613b1e7-5d1e-4f96-a8f8-a72d771306c2","ios":"levelo://app?vid=4613b1e7-5d1e-4f96-a8f8-a72d771306c2"},"vehicle_type_id":"4","last_reported":1731881278,"current_range_meters":26800,"station_id":"ce4bh9p2rcd13ifvqec0","pricing_plan_id":"cebpf4jnsgd1na2vs0mg"},{"bike_id":"d8ff7016-7c55-4606-aab8-a3d9f747663b","system_id":"levelo_inurba_marseille","lat":43.27972,"lon":5.38739,"is_reserved":false,"is_disabled":false,"rental_uris":{"android":"levelo://app?vid=d8ff7016-7c55-4606-aab8-a3d9f747663b","ios":"levelo://app?vid=d8ff7016-7c55-4606-aab8-a3d9f747663b"},"vehicle_type_id":"4","last_reported":1731881278,"current_range_meters":8800,"station_id":"ce4bhg12rcd13ifvqf80","pricing_plan_id":"cebpf4jnsgd1na2vs0mg"},{"bike_id":"ba50291b-d645-48f9-8257-e05ca76851b0","system_id":"levelo_inurba_marseille","lat":43.27185,"lon":5.40988,"is_reserved":false,"is_disabled":false,"rental_uris":{"android":"levelo://app?vid=ba50291b-d645-48f9-8257-e05ca76851b0","ios":"levelo://app?vid=ba50291b-d645-48f9-8257-e05ca76851b0"},"vehicle_type_id":"4","last_reported":1731881278,"current_range_meters":37600,"station_id":"ce4bhl12rcd13ifvqgf0","pricing_plan_id":"cebpf4jnsgd1na2vs0mg"},{"bike_id":"57eff8be-4cd3-4378-9c07-d24b3136b3a2","system_id":"levelo_inurba_marseille","lat":43.30459,"lon":5.38879,"is_reserved":false,"is_disabled":false,"rental_uris":{"android":"levelo://app?vid=57eff8be-4cd3-4378-9c07-d24b3136b3a2","ios":"levelo://app?vid=57eff8be-4cd3-4378-9c07-d24b3136b3a2"},"vehicle_type_id":"4","last_reported":1731881278,"current_range_meters":39200,"station_id":"ce4bgk12rcd13ifvqbi0","pricing_plan_id":"cebpf4jnsgd1na2vs0mg"},{"bike_id":"75c940bb-8f3b-4138-8bf1-e4d9d9772f24","system_id":"levelo_inurba_marseille","lat":43.3136,"lon":5.38494,"is_reserved":false,"is_disabled":false,"rental_uris":{"android":"levelo://app?vid=75c940bb-8f3b-4138-8bf1-e4d9d9772f24","ios":"levelo://app?vid=75c940bb-8f3b-4138-8bf1-e4d9d9772f24"},"vehicle_type_id":"4","last_reported":1731881278,"current_range_meters":19200,"station_id":"ce4bgt92rcd13ifvqcf0","pricing_plan_id":"cebpf4jnsgd1na2vs0mg"},{"bike_id":"eefbbc11-0cd0-4b14-84cb-111fddd0715f","system_id":"levelo_inurba_marseille","lat":43.304321,"lon":5.388869,"is_reserved":false,"is_disabled":false,"rental_uris":{"android":"levelo://app?vid=eefbbc11-0cd0-4b14-84cb-111fddd0715f","ios":"levelo://app?vid=eefbbc11-0cd0-4b14-84cb-111fddd0715f"},"vehicle_type_id":"4","last_reported":1731881278,"current_range_meters":38800,"station_id":"ce4bgk12rcd13ifvqbi0","pricing_plan_id":"cebpf4jnsgd1na2vs0mg"},{"bike_id":"c5462199-7932-4eef-a617-53d36b699976","system_id":"levelo_inurba_marseille","lat":43.295235,"lon":5.394016,"is_reserved":false,"is_disabled":false,"rental_uris":{"android":"levelo://app?vid=c5462199-7932-4eef-a617-53d36b699976","ios":"levelo://app?vid=c5462199-7932-4eef-a617-53d36b699976"},"vehicle_type_id":"4","last_reported":1731881278,"current_range_meters":26800,"station_id":"ce4bh292rcd13ifvqdf0","pricing_plan_id":"cebpf4jnsgd1na2vs0mg"},{"bike_id":"f772544f-7ef4-4aa3-a920-7c3eddfd2b9c","system_id":"levelo_inurba_marseille","lat":43.26564,"lon":5.39009,"is_reserved":false,"is_disabled":false,"rental_uris":{"android":"levelo://app?vid=f772544f-7ef4-4aa3-a920-7c3eddfd2b9c","ios":"levelo://app?vid=f772544f-7ef4-4aa3-a920-7c3eddfd2b9c"},"vehicle_type_id":"4","last_reported":1731881278,"current_range_meters":12400,"station_id":"ce4bhe12rcd13ifvqf30","pricing_plan_id":"cebpf4jnsgd1na2vs0mg"},{"bike_id":"cb748eee-36fc-425b-bffb-e7ab2e92cba5","system_id":"levelo_inurba_marseille","lat":43.23184,"lon":5.39983,"is_reserved":false,"is_disabled":false,"rental_uris":{"android":"levelo://app?vid=cb748eee-36fc-425b-bffb-e7ab2e92cba5","ios":"levelo://app?vid=cb748eee-36fc-425b-bffb-e7ab2e92cba5"},"vehicle_type_id":"4","last_reported":1731881278,"current_range_meters":38000,"station_id":"ce4bhn12rcd13ifvqgqg","pricing_plan_id":"cebpf4jnsgd1na2vs0mg"},{"bike_id":"5b353820-1979-40ea-91c9-bd6613794dbc","system_id":"levelo_inurba_marseille","lat":43.25829,"lon":5.39439,"is_reserved":false,"is_disabled":false,"rental_uris":{"android":"levelo://app?vid=5b353820-1979-40ea-91c9-bd6613794dbc","ios":"levelo://app?vid=5b353820-1979-40ea-91c9-bd6613794dbc"},"vehicle_type_id":"4","last_reported":1731881278,"current_range_meters":27600,"station_id":"ce4bhip2rcd13ifvqft0","pricing_plan_id":"cebpf4jnsgd1na2vs0mg"},{"bike_id":"6fe8590f-e391-4325-bdde-177e28f31a3e","system_id":"levelo_inurba_marseille","lat":43.33714,"lon":5.39195,"is_reserved":false,"is_disabled":false,"rental_uris":{"android":"levelo://app?vid=6fe8590f-e391-4325-bdde-177e28f31a3e","ios":"levelo://app?vid=6fe8590f-e391-4325-bdde-177e28f31a3e"},"vehicle_type_id":"4","last_reported":1731881278,"current_range_meters":38400,"station_id":"ce4bhr92rcd13ifvqhsg","pricing_plan_id":"cebpf4jnsgd1na2vs0mg"},{"bike_id":"66d4648c-c850-4362-8563-955b8bddab04","system_id":"levelo_inurba_marseille","lat":43.29577,"lon":5.36739,"is_reserved":false,"is_disabled":false,"rental_uris":{"android":"levelo://app?vid=66d4648c-c850-4362-8563-955b8bddab04","ios":"levelo://app?vid=66d4648c-c850-4362-8563-955b8bddab04"},"vehicle_type_id":"4","last_reported":1731881278,"current_range_meters":30400,"station_id":"ce4bgph2rcd13ifvqc2g","pricing_plan_id":"cebpf4jnsgd1na2vs0mg"},{"bike_id":"0faa5a28-d7ee-4cce-b83f-319adb23245c","system_id":"levelo_inurba_marseille","lat":43.30948,"lon":5.39036,"is_reserved":false,"is_disabled":false,"rental_uris":{"android":"levelo://app?vid=0faa5a28-d7ee-4cce-b83f-319adb23245c","ios":"levelo://app?vid=0faa5a28-d7ee-4cce-b83f-319adb23245c"},"vehicle_type_id":"4","last_reported":1731881278,"current_range_meters":38800,"station_id":"ce4bgup2rcd13ifvqco0","pricing_plan_id":"cebpf4jnsgd1na2vs0mg"},{"bike_id":"022f478e-da93-4eda-9d1b-2d0e36905c07","system_id":"levelo_inurba_marseille","lat":43.33752,"lon":5.37427,"is_reserved":false,"is_disabled":false,"rental_uris":{"android":"levelo://app?vid=022f478e-da93-4eda-9d1b-2d0e36905c07","ios":"levelo://app?vid=022f478e-da93-4eda-9d1b-2d0e36905c07"},"vehicle_type_id":"4","last_reported":1731881278,"current_range_meters":9200,"station_id":"","pricing_plan_id":"cebpf4jnsgd1na2vs0mg"},