{"last_updated":1740730362,"ttl":60,"version":"2.2","data":{"bikes":[{"bike_id":"23aedf73-ef62-4d29-8662-d09c061e3b39","system_id":"levelo_inurba_marseille","lat":43.310687,"lon":5.38197,"is_reserved":false,"is_disabled":true,"rental_uris":{"android":"levelo://app?vid=23aedf73-ef62-4d29-8662-d09c061e3b39","ios":"levelo://app?vid=23aedf73-ef62-4d29-8662-d09c061e3b39"},"vehicle_type_id":"4","last_reported":1740730362,"current_range_meters":0,"station_id":"","pricing_plan_id":"cebpf4jnsgd1na2vs0mg"},{"bike_id":"32d39ccd-0c40-4cda-a0e5-98cc976b3566","system_id":"levelo_inurba_marseille","lat":43.23702,"lon":5.43595,"is_reserved":false,"is_disabled":true,"rental_uris":{"android":"levelo://app?vid=32d39ccd-0c40-4cda-a0e5-98cc976b3566","ios":"levelo://app?vid=32d39ccd-0c40-4cda-a0e5-98cc976b3566"},"vehicle_type_id":"4","last_reported":1740730362,"current_range_meters":0,"station_id":"","pricing_plan_id":"cebpf4jnsgd1na2vs0mg"},{"bike_id":"603921e0-6044-49e8-9b03-4e16114fa47a","system_id":"levelo_inurba_marseille","lat":43.27746,"lon":5.38892,"is_reserved":false,"is_disabled":true,"rental_uris":{"android":"levelo://app?vid=603921e0-6044-49e8-9b03-4e16114fa47a","ios":"levelo://app?vid=603921e0-6044-49e8-9b03-4e16114fa47a"},"vehicle_type_id":"4","last_reported":1740730362,"current_range_meters":0,"station_id":"","pricing_plan_id":"cebpf4jnsgd1na2vs0mg"},{"bike_id":"b82fe2fa-9f23-4f27-ad25-9ad37cf7aa53","system_id":"levelo_inurba_marseille","lat":43.28356,"lon":5.41379,"is_reserved":false,"is_disabled":true,"rental_uris":{"android":"levelo://app?vid=b82fe2fa-9f23-4f27-ad25-9ad37cf7aa53","ios":"levelo://app?vid=b82fe2fa-9f23-4f27-ad25-9ad37cf7aa53"},"vehicle_type_id":"4","last_reported":1740730362,"current_range_meters":0,"station_id":"","pricing_plan_id":"cebpf4jnsgd1na2vs0mg"},{"bike_id":"b5368874-e19e-4e33-8e44-b3ac25e43af6","system_id":"levelo_inurba_marseille","lat":43.31314,"lon":5.37082,"is_reserved":false,"is_disabled":true,"rental_uris":{"android":"levelo://app?vid=b5368874-e19e-4e33-8e44-b3ac25e43af6","ios":"levelo://app?vid=b5368874-e19e-4e33-8e44-b3ac25e43af6"},"vehicle_type_id":"4","last_reported":1740730362,"current_range_meters":0,"station_id":"","pricing_plan_id":"cebpf4jnsgd1na2vs0mg"},{"bike_id":"63aaeff2-04ac-41c6-b91a-ac051892a521","system_id":"levelo_inurba_marseille","lat":43.27839,"lon":5.37959,"is_reserved":false,"is_disabled":true,"rental_uris":{"android":"levelo://app?vid=63aaeff2-04ac-41c6-b91a-ac051892a521","ios":"levelo://app?vid=63aaeff2-04ac-41c6-b91a-ac051892a521"},"vehicle_type_id":"4","last_reported":1740730362,"current_range_meters":0,"station_id":"","pricing_plan_id":"cebpf4jnsgd1na2vs0mg"},{"bike_id":"13a2d3e9-8b93-4966-9b3e-92a29a5a031b","system_id":"levelo_inurba_marseille","lat":43.323,"lon":5.3749,"is_reserved":false,"is_disabled":true,"rental_uris":{"android":"levelo://app?vid=13a2d3e9-8b93-4966-9b3e-92a29a5a031b","ios":"levelo://app?vid=13a2d3e9-8b93-4966-9b3e-92a29a5a031b"},"vehicle_type_id":"4","last_reported":1740730362,"current_range_meters":0,"station_id":"","pricing_plan_id":"cebpf4jnsgd1na2vs0mg"},{"bike_id":"dfd28267-4641-428f-ab88-e7c2b843bb49","system_id":"levelo_inurba_marseille","lat":43.2961,"lon":5.3811,"is_reserved":false,"is_disabled":true,"rental_uris":{"android":"levelo://app?vid=dfd28267-4641-428f-ab88-e7c2b843bb49","ios":"levelo://app?vid=dfd28267-4641-428f-ab88-e7c2b843bb49"},"vehicle_type_id":"4","last_reported":1740730362,"current_range_meters":0,"station_id":"ce4bgl12rcd13ifvqbo0","pricing_plan_id":"cebpf4jnsgd1na2vs0mg"},{"bike_id":"645fa58a-4157-4e61-8ee9-7cbcf5c8cdaa","system_id":"levelo_inurba_marseille","lat":43.30894,"lon":5.3719,"is_reserved":false,"is_disabled":false,"rental_uris":{"android":"levelo://app?vid=645fa58a-4157-4e61-8ee9-7cbcf5c8cdaa","ios":"levelo://app?vid=645fa58a-4157-4e61-8ee9-7cbcf5c8cdaa"},"vehicle_type_id":"4","last_reported":1740730362,"current_range_meters":0,"station_id":"ce4bguh2rcd13ifvqckg","pricing_plan_id":"cebpf4jnsgd1na2vs0mg"},{"bike_id":"ac5cc2c5-103b-497b-b0dd-7c11d191e22d","system_id":"levelo_inurba_marseille","lat":43.30082,"lon":5.39076,"is_reserved":false,"is_disabled":false,"rental_uris":{"android":"levelo://app?vid=ac5cc2c5-103b-497b-b0dd-7c11d191e22d","ios":"levelo://app?vid=ac5cc2c5-103b-497b-b0dd-7c11d191e22d"},"vehicle_type_id":"4","last_reported":1740730362,"current_range_meters":0,"station_id":"ce4bh192rcd13ifvqdb0","pricing_plan_id":"cebpf4jnsgd1na2vs0mg"},{"bike_id":"0dc32ec3-4fe6-4aff-9074-665fa0019546","system_id":"levelo_inurba_marseille","lat":43.28565,"lon":5.39504,"is_reserved":false,"is_disabled":true,"rental_uris":{"android":"levelo://app?vid=0dc32ec3-4fe6-4aff-9074-665fa0019546","ios":"levelo://app?vid=0dc32ec3-4fe6-4aff-9074-665fa0019546"},"vehicle_type_id":"4","last_reported":1740730362,"current_range_meters":0,"station_id":"ce4bh292rcd13ifvqdg0","pricing_plan_id":"cebpf4jnsgd1na2vs0mg"},{"bike_id":"9bd765d5-d948-4dfc-bb31-57d7cd989d1d","system_id":"levelo_inurba_marseille","lat":43.28473,"lon":5.38435,"is_reserved":false,"is_disabled":true,"rental_uris":{"android":"levelo://app?vid=9bd765d5-d948-4dfc-bb31-57d7cd989d1d","ios":"levelo://app?vid=9bd765d5-d948-4dfc-bb31-57d7cd989d1d"},"vehicle_type_id":"4","last_reported":1740730362,"current_range_meters":0,"station_id":"ce4bh512rcd13ifvqe3g","pricing_plan_id":"cebpf4jnsgd1na2vs0mg"},{"bike_id":"d0fc13d0-562a-4a5e-8bba-915d7b359729","system_id":"levelo_inurba_marseille","lat":43.27909,"lon":5.39558,"is_reserved":false,"is_disabled":true,"rental_uris":{"android":"levelo://app?vid=d0fc13d0-562a-4a5e-8bba-915d7b359729","ios":"levelo://app?vid=d0fc13d0-562a-4a5e-8bba-915d7b359729"},"vehicle_type_id":"4","last_reported":1740730362,"current_range_meters":0,"station_id":"ce4bhf92rcd13ifvqf40","pricing_plan_id":"cebpf4jnsgd1na2vs0mg"},{"bike_id":"7a942d66-8230-4c3e-9853-0ea3fd12b0b2","system_id":"levelo_inurba_marseille","lat":43.26556,"lon":5.37289,"is_reserved":false,"is_disabled":true,"rental_uris":{"android":"levelo://app?vid=7a942d66-8230-4c3e-9853-0ea3fd12b0b2","ios":"levelo://app?vid=7a942d66-8230-4c3e-9853-0ea3fd12b0b2"},"vehicle_type_id":"4","last_reported":1740730362,"current_range_meters":0,"station_id":"ce4bhg12rcd13ifvqf70","pricing_plan_id":"cebpf4jnsgd1na2vs0mg"},{"bike_id":"02eb9008-abd0-404c-bc19-3633963a8bd8","system_id":"levelo_inurba_marseille","lat":43.26007,"lon":5.37572,"is_reserved":false,"is_disabled":true,"rental_uris":{"android":"levelo://app?vid=02eb9008-abd0-404c-bc19-3633963a8bd8","ios":"levelo://app?vid=02eb9008-abd0-404c-bc19-3633963a8bd8"},"vehicle_type_id":"4","last_reported":1740730362,"current_range_meters":0,"station_id":"ce4bhgh2rcd13ifvqfa0","pricing_plan_id":"cebpf4jnsgd1na2vs0mg"},{"bike_id":"a36f438d-41ea-4c6f-a7cf-dd49e3c39f61","system_id":"levelo_inurba_marseille","lat":43.24545,"lon":5.39539,"is_reserved":false,"is_disabled":true,"rental_uris":{"android":"levelo://app?vid=a36f438d-41ea-4c6f-a7cf-dd49e3c39f61","ios":"levelo://app?vid=a36f438d-41ea-4c6f-a7cf-dd49e3c39f61"},"vehicle_type_id":"4","last_reported":1740730362,"current_range_meters":0,"station_id":"ce4bhlp2rcd13ifvqgjg","pricing_plan_id":"cebpf4jnsgd1na2vs0mg"},{"bike_id":"b52203d4-daac-4360-9c3b-95b10a591045","system_id":"levelo_inurba_marseille","lat":43.25903,"lon":5.40871,"is_reserved":false,"is_disabled":false,"rental_uris":{"android":"levelo://app?vid=b52203d4-daac-4360-9c3b-95b10a591045","ios":"levelo://app?vid=b52203d4-daac-4360-9c3b-95b10a591045"},"vehicle_type_id":"4","last_reported":1740730362,"current_range_meters":0,"station_id":"ce4bhm92rcd13ifvqglg","pricing_plan_id":"cebpf4jnsgd1na2vs0mg"},{"bike_id":"d2671798-7b93-4c88-907b-83713a1dd0ce","system_id":"levelo_inurba_marseille","lat":43.26229,"lon":5.40456,"is_reserved":false,"is_disabled":true,"rental_uris":{"android":"levelo://app?vid=d2671798-7b93-4c88-907b-83713a1dd0ce","ios":"levelo://app?vid=d2671798-7b93-4c88-907b-83713a1dd0ce"},"vehicle_type_id":"4","last_reported":1740730362,"current_range_meters":0,"station_id":"ce4bhmh2rcd13ifvqgmg","pricing_plan_id":"cebpf4jnsgd1na2vs0mg"},{"bike_id":"00efb403-bc89-40ef-9eb8-a5083651b47c","system_id":"levelo_inurba_marseille","lat":43.24069,"lon":5.3776,"is_reserved":false,"is_disabled":true,"rental_uris":{"android":"levelo://app?vid=00efb403-bc89-40ef-9eb8-a5083651b47c","ios":"levelo://app?vid=00efb403-bc89-40ef-9eb8-a5083651b47c"},"vehicle_type_id":"4","last_reported":1740730362,"current_range_meters":0,"station_id":"ce4bhnp2rcd13ifvqgvg","pricing_plan_id":"cebpf4jnsgd1na2vs0mg"},{"bike_id":"8f4785bc-a900-4204-b94e-732da3ccfae1","system_id":"levelo_inurba_marseille","lat":43.30889,"lon":5.37188,"is_reserved":false,"is_disabled":true,"rental_uris":{"android":"levelo://app?vid=8f4785bc-a900-4204-b94e-732da3ccfae1","ios":"levelo://app?vid=8f4785bc-a900-4204-b94e-732da3ccfae1"},"vehicle_type_id":"4","last_reported":1740730362,"current_range_meters":400,"station_id":"ce4bguh2rcd13ifvqckg","pricing_plan_id":"cebpf4jnsgd1na2vs0mg"},{"bike_id":"2b48f4d4-f336-4ca7-a21c-b62b1ac5d67e","system_id":"levelo_inurba_marseille","lat":43.29139,"lon":5.38106,"is_reserved":false,"is_disabled":true,"rental_uris":{"android":"levelo://app?vid=2b48f4d4-f336-4ca7-a21c-b62b1ac5d67e","ios":"levelo://app?vid=2b48f4d4-f336-4ca7-a21c-b62b1ac5d67e"},"vehicle_type_id":"4","last_reported":1740730362,"current_range_meters":800,"station_id":"","pricing_plan_id":"cebpf4jnsgd1na2vs0mg"},{"bike_id":"78818920-c449-4aa1-974e-b3a873ee76c8","system_id":"levelo_inurba_marseille","lat":43.29908,"lon":5.38139,"is_reserved":false,"is_disabled":true,"rental_uris":{"android":"levelo://app?vid=78818920-c449-4aa1-974e-b3a873ee76c8","ios":"levelo://app?vid=78818920-c449-4aa1-974e-b3a873ee76c8"},"vehicle_type_id":"4","last_reported":1740730362,"current_range_meters":1200,"station_id":"ce4bgj12rcd13ifvqbc0","pricing_plan_id":"cebpf4jnsgd1na2vs0mg"},{"bike_id":"0bba5172-7198-499d-88ee-89f82dbe4f9a","system_id":"levelo_inurba_marseille","lat":43.30464,"lon":5.37919,"is_reserved":false,"is_disabled":false,"rental_uris":{"android":"levelo://app?vid=0bba5172-7198-499d-88ee-89f82dbe4f9a","ios":"levelo://app?vid=0bba5172-7198-499d-88ee-89f82dbe4f9a"},"vehicle_type_id":"4","last_reported":1740730362,"current_range_meters":1200,"station_id":"ce4bgup2rcd13ifvqcn0","pricing_plan_id":"cebpf4jnsgd1na2vs0mg"},{"bike_id":"f98a804c-537c-41bb-9782-3da5bcf6e43a","system_id":"levelo_inurba_marseille","lat":43.27945,"lon":5.41065,"is_reserved":false,"is_disabled":true,"rental_uris":{"android":"levelo://app?vid=f98a804c-537c-41bb-9782-3da5bcf6e43a","ios":"levelo://app?vid=f98a804c-537c-41bb-9782-3da5bcf6e43a"},"vehicle_type_id":"4","last_reported":1740730362,"current_range_meters":1200,"station_id":"ce4bhnp2rcd13ifvqh0g","pricing_plan_id":"cebpf4jnsgd1na2vs0mg"},{"bike_id":"05fc489b-1230-440e-82a2-d59fc0cb10f4","system_id":"levelo_inurba_marseille","lat":43.28607,"lon":5.37069,"is_reserved":false,"is_disabled":true,"rental_uris":{"android":"levelo://app?vid=05fc489b-1230-440e-82a2-d59fc0cb10f4","ios":"levelo://app?vid=05fc489b-1230-440e-82a2-d59fc0cb10f4"},"vehicle_type_id":"4","last_reported":1740730362,"current_range_meters":1200,"station_id":"ce4bht12rcd13ifvqi60","pricing_plan_id":"cebpf4jnsgd1na2vs0mg"},{"bike_id":"bf14c57e-cba8-4c58-881e-e7335f366b53","system_id":"levelo_inurba_marseille","lat":43.29333,"lon":5.37387,"is_reserved":false,"is_disabled":true,"rental_uris":{"android":"levelo://app?vid=bf14c57e-cba8-4c58-881e-e7335f366b53","ios":"levelo://app?vid=bf14c57e-cba8-4c58-881e-e7335f366b53"},"vehicle_type_id":"4","last_reported":1740730362,"current_range_meters":1600,"station_id":"","pricing_plan_id":"cebpf4jnsgd1na2vs0mg"},{"bike_id":"ca15472c-30de-4bd5-b7d1-99c7ffb5bbe4","system_id":"levelo_inurba_marseille","lat":43.30135,"lon":5.37414,"is_reserved":false,"is_disabled":true,"rental_uris":{"android":"levelo://app?vid=ca15472c-30de-4bd5-b7d1-99c7ffb5bbe4","ios":"levelo://app?vid=ca15472c-30de-4bd5-b7d1-99c7ffb5bbe4"},"vehicle_type_id":"4","last_reported":1740730362,"current_range_meters":1600,"station_id":"ce4bgs92rcd13ifvqcc0","pricing_plan_id":"cebpf4jnsgd1na2vs0mg"},{"bike_id":"369eaa0b-f227-4bcc-a98c-083abb843236","system_id":"levelo_inurba_marseille","lat":43.29045,"lon":5.39971,"is_reserved":false,"is_disabled":true,"rental_uris":{"android":"levelo://app?vid=369eaa0b-f227-4bcc-a98c-083abb843236","ios":"levelo://app?vid=369eaa0b-f227-4bcc-a98c-083abb843236"},"vehicle_type_id":"4","last_reported":1740730362,"current_range_meters":1600,"station_id":"ce4bh392rcd13ifvqdm0","pricing_plan_id":"cebpf4jnsgd1na2vs0mg"},{"bike_id":"df3becdc-efe5-428b-ad3b-9a5b04af2ecf","system_id":"levelo_inurba_marseille","lat":43.2803,"lon":5.36943,"is_reserved":false,"is_disabled":true,"rental_uris":{"android":"levelo://app?vid=df3becdc-efe5-428b-ad3b-9a5b04af2ecf","ios":"levelo://app?vid=df3becdc-efe5-428b-ad3b-9a5b04af2ecf"},"vehicle_type_id":"4","last_reported":1740730362,"current_range_meters":1600,"station_id":"ce4bha12rcd13ifvqef0","pricing_plan_id":"cebpf4jnsgd1na2vs0mg"},{"bike_id":"ae23d63f-1813-4ce3-9f00-de91edb6a690","system_id":"levelo_inurba_marseille","lat":43.29234,"lon":5.36085,"is_reserved":false,"is_disabled":true,"rental_uris":{"android":"levelo://app?vid=ae23d63f-1813-4ce3-9f00-de91edb6a690","ios":"levelo://app?vid=ae23d63f-1813-4ce3-9f00-de91edb6a690"},"vehicle_type_id":"4","last_reported":1740730362,"current_range_meters":1600,"station_id":"ce4bhbh2rcd13ifvqeqg","pricing_plan_id":"cebpf4jnsgd1na2vs0mg"},{"bike_id":"4e54e29d-6c93-4c36-bd44-db087d0457f2","system_id":"levelo_inurba_marseille","lat":43.29876,"lon":5.39794,"is_reserved":false,"is_disabled":true,"rental_uris":{"android":"levelo://app?vid=4e54e29d-6c93-4c36-bd44-db087d0457f2","ios":"levelo://app?vid=4e54e29d-6c93-4c36-bd44-db087d0457f2"},"vehicle_type_id":"4","last_reported":1740730362,"current_range_meters":2000,"station_id":"","pricing_plan_id":"cebpf4jnsgd1na2vs0mg"},{"bike_id":"8324e96e-3135-44ce-afe4-d1d1eaee0ecf","system_id":"levelo_inurba_marseille","lat":43.28616,"lon":5.35112,"is_reserved":false,"is_disabled":true,"rental_uris":{"android":"levelo://app?vid=8324e96e-3135-44ce-afe4-d1d1eaee0ecf","ios":"levelo://app?vid=8324e96e-3135-44ce-afe4-d1d1eaee0ecf"},"vehicle_type_id":"4","last_reported":1740730362,"current_range_meters":2000,"station_id":"ce4bhch2rcd13ifvqeug","pricing_plan_id":"cebpf4jnsgd1na2vs0mg"},{"bike_id":"dee04613-fbaa-4eb6-911c-d41130b55850","system_id":"levelo_inurba_marseille","lat":43.26688,"lon":5.38275,"is_reserved":false,"is_disabled":true,"rental_uris":{"android":"levelo://app?vid=dee04613-fbaa-4eb6-911c-d41130b55850","ios":"levelo://app?vid=dee04613-fbaa-4eb6-911c-d41130b55850"},"vehicle_type_id":"4","last_reported":1740730362,"current_range_meters":2000,"station_id":"ce4bhg92rcd13ifvqf90","pricing_plan_id":"cebpf4jnsgd1na2vs0mg"},{"bike_id":"c12f832d-f2a6-42ae-aee3-1ca32634dc9a","system_id":"levelo_inurba_marseille","lat":43.23968,"lon":5.36633,"is_reserved":false,"is_disabled":false,"rental_uris":{"android":"levelo://app?vid=c12f832d-f2a6-42ae-aee3-1ca32634dc9a","ios":"levelo://app?vid=c12f832d-f2a6-42ae-aee3-1ca32634dc9a"},"vehicle_type_id":"4","last_reported":1740730362,"current_range_meters":2000,"station_id":"ce4bhi12rcd13ifvqfp0","pricing_plan_id":"cebpf4jnsgd1na2vs0mg"},{"bike_id":"6dc1176f-52cc-4459-b930-6395db0a51d4","system_id":"levelo_inurba_marseille","lat":43.25575,"lon":5.38242,"is_reserved":false,"is_disabled":true,"rental_uris":{"android":"levelo://app?vid=6dc1176f-52cc-4459-b930-6395db0a51d4","ios":"levelo://app?vid=6dc1176f-52cc-4459-b930-6395db0a51d4"},"vehicle_type_id":"4","last_reported":1740730362,"current_range_meters":2000,"station_id":"ce4bhih2rcd13ifvqfs0","pricing_plan_id":"cebpf4jnsgd1na2vs0mg"},{"bike_id":"6b8e4789-ad27-4ba4-a558-50bf06ff5c2e","system_id":"levelo_inurba_marseille","lat":43.23179,"lon":5.39985,"is_reserved":false,"is_disabled":true,"rental_uris":{"android":"levelo://app?vid=6b8e4789-ad27-4ba4-a558-50bf06ff5c2e","ios":"levelo://app?vid=6b8e4789-ad27-4ba4-a558-50bf06ff5c2e"},"vehicle_type_id":"4","last_reported":1740730362,"current_range_meters":2000,"station_id":"ce4bhn12rcd13ifvqgqg","pricing_plan_id":"cebpf4jnsgd1na2vs0mg"},{"bike_id":"09afcaae-99a4-4d9d-937e-295eef654cd5","system_id":"levelo_inurba_marseille","lat":43.29627,"lon":5.37158,"is_reserved":false,"is_disabled":false,"rental_uris":{"android":"levelo://app?vid=09afcaae-99a4-4d9d-937e-295eef654cd5","ios":"levelo://app?vid=09afcaae-99a4-4d9d-937e-295eef654cd5"},"vehicle_type_id":"4","last_reported":1740730362,"current_range_meters":2800,"station_id":"ce4bgnh2rcd13ifvqc0g","pricing_plan_id":"cebpf4jnsgd1na2vs0mg"},{"bike_id":"8a1dd4b5-06fb-40ee-8c89-fa4818499822","system_id":"levelo_inurba_marseille","lat":43.31334,"lon":5.36726,"is_reserved":false,"is_disabled":false,"rental_uris":{"android":"levelo://app?vid=8a1dd4b5-06fb-40ee-8c89-fa4818499822","ios":"levelo://app?vid=8a1dd4b5-06fb-40ee-8c89-fa4818499822"},"vehicle_type_id":"4","last_reported":1740730362,"current_range_meters":2800,"station_id":"ce4bgr92rcd13ifvqc6g","pricing_plan_id":"cebpf4jnsgd1na2vs0mg"},{"bike_id":"490ba0fd-c202-4f7b-a0cb-a4a495b2d1fd","system_id":"levelo_inurba_marseille","lat":43.31358,"lon":5.3671,"is_reserved":false,"is_disabled":false,"rental_uris":{"android":"levelo://app?vid=490ba0fd-c202-4f7b-a0cb-a4a495b2d1fd","ios":"levelo://app?vid=490ba0fd-c202-4f7b-a0cb-a4a495b2d1fd"},"vehicle_type_id":"4","last_reported":1740730362,"current_range_meters":2800,"station_id":"ce4bgr92rcd13ifvqc6g","pricing_plan_id":"cebpf4jnsgd1na2vs0mg"},{"bike_id":"e146f593-5173-4ee7-8ed3-4c1d83b058ef","system_id":"levelo_inurba_marseille","lat":43.2315,"lon":5.43723,"is_reserved":false,"is_disabled":false,"rental_uris":{"android":"levelo://app?vid=e146f593-5173-4ee7-8ed3-4c1d83b058ef","ios":"levelo://app?vid=e146f593-5173-4ee7-8ed3-4c1d83b058ef"},"vehicle_type_id":"4","last_reported":1740730362,"current_range_meters":2800,"station_id":"ce4bhmp2rcd13ifvqgog","pricing_plan_id":"cebpf4jnsgd1na2vs0mg"},{"bike_id":"3acd54d7-7328-406a-a41a-79b49c778114","system_id":"levelo_inurba_marseille","lat":43.326906,"lon":5.3955,"is_reserved":false,"is_disabled":false,"rental_uris":{"android":"levelo://app?vid=3acd54d7-7328-406a-a41a-79b49c778114","ios":"levelo://app?vid=3acd54d7-7328-406a-a41a-79b49c778114"},"vehicle_type_id":"4","last_reported":1740730362,"current_range_meters":3200,"station_id":"","pricing_plan_id":"cebpf4jnsgd1na2vs0mg"},{"bike_id":"0093cb83-a560-478e-b53c-d01a12d0eb86","system_id":"levelo_inurba_marseille","lat":43.31221,"lon":5.36855,"is_reserved":false,"is_disabled":false,"rental_uris":{"android":"levelo://app?vid=0093cb83-a560-478e-b53c-d01a12d0eb86","ios":"levelo://app?vid=0093cb83-a560-478e-b53c-d01a12d0eb86"},"vehicle_type_id":"4","last_reported":1740730362,"current_range_meters":3200,"station_id":"ce4bgl92rcd13ifvqbq0","pricing_plan_id":"cebpf4jnsgd1na2vs0mg"},{"bike_id":"d440d18c-f813-4254-b851-fbe74cf9f883","system_id":"levelo_inurba_marseille","lat":43.31336,"lon":5.36702,"is_reserved":false,"is_disabled":false,"rental_uris":{"android":"levelo://app?vid=d440d18c-f813-4254-b851-fbe74cf9f883","ios":"levelo://app?vid=d440d18c-f813-4254-b851-fbe74cf9f883"},"vehicle_type_id":"4","last_reported":1740730362,"current_range_meters":3200,"station_id":"ce4bgr92rcd13ifvqc6g","pricing_plan_id":"cebpf4jnsgd1na2vs0mg"},{"bike_id":"4a6ef6f7-a71d-40f3-9674-fe42f64fd354","system_id":"levelo_inurba_marseille","lat":43.31345,"lon":5.36719,"is_reserved":false,"is_disabled":false,"rental_uris":{"android":"levelo://app?vid=4a6ef6f7-a71d-40f3-9674-fe42f64fd354","ios":"levelo://app?vid=4a6ef6f7-a71d-40f3-9674-fe42f64fd354"},"vehicle_type_id":"4","last_reported":1740730362,"current_range_meters":3200,"station_id":"ce4bgr92rcd13ifvqc6g","pricing_plan_id":"cebpf4jnsgd1na2vs0mg"},{"bike_id":"2fdd39f2-9a2f-41ba-8304-cb79c7a187c6","system_id":"levelo_inurba_marseille","lat":43.337444,"lon":5.374475,"is_reserved":false,"is_disabled":false,"rental_uris":{"android":"levelo://app?vid=2fdd39f2-9a2f-41ba-8304-cb79c7a187c6","ios":"levelo://app?vid=2fdd39f2-9a2f-41ba-8304-cb79c7a187c6"},"vehicle_type_id":"4","last_reported":1740730362,"current_range_meters":3600,"station_id":"","pricing_plan_id":"cebpf4jnsgd1na2vs0mg"},{"bike_id":"29f5e715-c213-4b05-9847-aac4a393f838","system_id":"levelo_inurba_marseille","lat":43.28724,"lon":5.37943,"is_reserved":false,"is_disabled":false,"rental_uris":{"android":"levelo://app?vid=29f5e715-c213-4b05-9847-aac4a393f838","ios":"levelo://app?vid=29f5e715-c213-4b05-9847-aac4a393f838"},"vehicle_type_id":"4","last_reported":1740730362,"current_range_meters":3600,"station_id":"ce4bh9p2rcd13ifvqec0","pricing_plan_id":"cebpf4jnsgd1na2vs0mg"},{"bike_id":"ee926e95-5f82-49c1-83af-829ec68536cc","system_id":"levelo_inurba_marseille","lat":43.26951,"lon":5.38624,"is_reserved":false,"is_disabled":false,"rental_uris":{"android":"levelo://app?vid=ee926e95-5f82-49c1-83af-829ec68536cc","ios":"levelo://app?vid=ee926e95-5f82-49c1-83af-829ec68536cc"},"vehicle_type_id":"4","last_reported":1740730362,"current_range_meters":3600,"station_id":"ce4bhh92rcd13ifvqfh0","pricing_plan_id":"cebpf4jnsgd1na2vs0mg"},{"bike_id":"3aed6401-30fa-417b-b1f4-fed91c185d13","system_id":"levelo_inurba_marseille","lat":43.27943,"lon":5.41049,"is_reserved":false,"is_disabled":false,"rental_uris":{"android":"levelo://app?vid=3aed6401-30fa-417b-b1f4-fed91c185d13","ios":"levelo://app?vid=3aed6401-30fa-417b-b1f4-fed91c185d13"},"vehicle_type_id":"4","last_reported":1740730362,"current_range_meters":3600,"station_id":"ce4bhnp2rcd13ifvqh0g","pricing_plan_id":"cebpf4jnsgd1na2vs0mg"},{"bike_id":"9aedf4dc-065d-4d30-a867-58a6cc888bc7","system_id":"levelo_inurba_marseille","lat":43.32468,"lon":5.36571,"is_reserved":false,"is_disabled":false,"rental_uris":{"android":"levelo://app?vid=9aedf4dc-065d-4d30-a867-58a6cc888bc7","ios":"levelo://app?vid=9aedf4dc-065d-4d30-a867-58a6cc888bc7"},"vehicle_type_id":"4","last_reported":1740730362,"current_range_meters":3600,"station_id":"ce4bhs12rcd13ifvqhvg","pricing_plan_id":"cebpf4jnsgd1na2vs0mg"},{"bike_id":"e8edc58d-690e-41f1-aeeb-cdbd898c3c46","system_id":"levelo_inurba_marseille","lat":43.29811,"lon":5.38094,"is_reserved":false,"is_disabled":false,"rental_uris":{"android":"levelo://app?vid=e8edc58d-690e-41f1-aeeb-cdbd898c3c46","ios":"levelo://app?vid=e8edc58d-690e-41f1-aeeb-cdbd898c3c46"},"vehicle_type_id":"4","last_reported":1740730362,"current_range_meters":4000,"station_id":"ce4bgip2rcd13ifvqbb0","pricing_plan_id":"cebpf4jnsgd1na2vs0mg"},{"bike_id":"61339448-5750-45d0-a837-36a4e88704a6","system_id":"levelo_inurba_marseille","lat":43.30519,"lon":5.36723,"is_reserved":false,"is_disabled":true,"rental_uris":{"android":"levelo://app?vid=61339448-5750-45d0-a837-36a4e88704a6","ios":"levelo://app?vid=61339448-5750-45d0-a837-36a4e88704a6"},"vehicle_type_id":"4","last_reported":1740730362,"current_range_meters":4000,"station_id":"ce4bgrp2rcd13ifvqc9g","pricing_plan_id":"cebpf4jnsgd1na2vs0mg"},{"bike_id":"aef582c7-9f57-48fe-b3dc-5df4aabd7a59","system_id":"levelo_inurba_marseille","lat":43.3042,"lon":5.39752,"is_reserved":false,"is_disabled":false,"rental_uris":{"android":"levelo://app?vid=aef582c7-9f57-48fe-b3dc-5df4aabd7a59","ios":"levelo://app?vid=aef582c7-9f57-48fe-b3dc-5df4aabd7a59"},"vehicle_type_id":"4","last_reported":1740730362,"current_range_meters":4000,"station_id":"ce4bh092rcd13ifvqd20","pricing_plan_id":"cebpf4jnsgd1na2vs0mg"},{"bike_id":"88ea99a6-57ad-437f-80a1-a7f10087ab0a","system_id":"levelo_inurba_marseille","lat":43.26602,"lon":5.37311,"is_reserved":false,"is_disabled":false,"rental_uris":{"android":"levelo://app?vid=88ea99a6-57ad-437f-80a1-a7f10087ab0a","ios":"levelo://app?vid=88ea99a6-57ad-437f-80a1-a7f10087ab0a"},"vehicle_type_id":"4","last_reported":1740730362,"current_range_meters":4000,"station_id":"ce4bhg12rcd13ifvqf70","pricing_plan_id":"cebpf4jnsgd1na2vs0mg"},{"bike_id":"a6cd9bc3-710c-4a44-b321-3cc519e7f319","system_id":"levelo_inurba_marseille","lat":43.27937,"lon":5.41048,"is_reserved":false,"is_disabled":false,"rental_uris":{"android":"levelo://app?vid=a6cd9bc3-710c-4a44-b321-3cc519e7f319","ios":"levelo://app?vid=a6cd9bc3-710c-4a44-b321-3cc519e7f319"},"vehicle_type_id":"4","last_reported":1740730362,"current_range_meters":4000,"station_id":"ce4bhnp2rcd13ifvqh0g","pricing_plan_id":"cebpf4jnsgd1na2vs0mg"},{"bike_id":"42ffa0be-71d6-481f-be5a-693b9179eec7","system_id":"levelo_inurba_marseille","lat":43.30084,"lon":5.39095,"is_reserved":false,"is_disabled":false,"rental_uris":{"android":"levelo://app?vid=42ffa0be-71d6-481f-be5a-693b9179eec7","ios":"levelo://app?vid=42ffa0be-71d6-481f-be5a-693b9179eec7"},"vehicle_type_id":"4","last_reported":1740730362,"current_range_meters":4400,"station_id":"ce4bh192rcd13ifvqdb0","pricing_plan_id":"cebpf4jnsgd1na2vs0mg"},{"bike_id":"36fc0ac6-ee57-4711-92af-dc4dc17477a6","system_id":"levelo_inurba_marseille","lat":43.27498,"lon":5.42456,"is_reserved":false,"is_disabled":false,"rental_uris":{"android":"levelo://app?vid=36fc0ac6-ee57-4711-92af-dc4dc17477a6","ios":"levelo://app?vid=36fc0ac6-ee57-4711-92af-dc4dc17477a6"},"vehicle_type_id":"4","last_reported":1740730362,"current_range_meters":4400,"station_id":"ce4bhn92rcd13ifvqgrg","pricing_plan_id":"cebpf4jnsgd1na2vs0mg"},{"bike_id":"929226ff-7fc9-4872-9d9f-fe75326c6eed","system_id":"levelo_inurba_marseille","lat":43.2958,"lon":5.36736,"is_reserved":false,"is_disabled":false,"rental_uris":{"android":"levelo://app?vid=929226ff-7fc9-4872-9d9f-fe75326c6eed","ios":"levelo://app?vid=929226ff-7fc9-4872-9d9f-fe75326c6eed"},"vehicle_type_id":"4","last_reported":1740730362,"current_range_meters":4800,"station_id":"ce4bgph2rcd13ifvqc2g","pricing_plan_id":"cebpf4jnsgd1na2vs0mg"},{"bike_id":"b8b5a57c-8dde-4019-bb6a-ae49adc55d76","system_id":"levelo_inurba_marseille","lat":43.26956,"lon":5.38633,"is_reserved":false,"is_disabled":false,"rental_uris":{"android":"levelo://app?vid=b8b5a57c-8dde-4019-bb6a-ae49adc55d76","ios":"levelo://app?vid=b8b5a57c-8dde-4019-bb6a-ae49adc55d76"},"vehicle_type_id":"4","last_reported":1740730362,"current_range_meters":4800,"station_id":"ce4bhh92rcd13ifvqfh0","pricing_plan_id":"cebpf4jnsgd1na2vs0mg"},{"bike_id":"44638bcc-7326-4386-9d40-f7f4ed3a50f8","system_id":"levelo_inurba_marseille","lat":43.30541,"lon":5.36545,"is_reserved":false,"is_disabled":true,"rental_uris":{"android":"levelo://app?vid=44638bcc-7326-4386-9d40-f7f4ed3a50f8","ios":"levelo://app?vid=44638bcc-7326-4386-9d40-f7f4ed3a50f8"},"vehicle_type_id":"4","last_reported":1740730362,"current_range_meters":5600,"station_id":"ce4bgs12rcd13ifvqcag","pricing_plan_id":"cebpf4jnsgd1na2vs0mg"},{"bike_id":"20a78921-74af-450b-85bf-3bbe80845632","system_id":"levelo_inurba_marseille","lat":43.30287,"lon":5.37707,"is_reserved":false,"is_disabled":false,"rental_uris":{"android":"levelo://app?vid=20a78921-74af-450b-85bf-3bbe80845632","ios":"levelo://app?vid=20a78921-74af-450b-85bf-3bbe80845632"},"vehicle_type_id":"4","last_reported":1740730362,"current_range_meters":5600,"station_id":"ce4bguh2rcd13ifvqcj0","pricing_plan_id":"cebpf4jnsgd1na2vs0mg"},{"bike_id":"3fd888b1-ffc1-499c-b11d-f1d31524ee4f","system_id":"levelo_inurba_marseille","lat":43.26557,"lon":5.37284,"is_reserved":false,"is_disabled":false,"rental_uris":{"android":"levelo://app?vid=3fd888b1-ffc1-499c-b11d-f1d31524ee4f","ios":"levelo://app?vid=3fd888b1-ffc1-499c-b11d-f1d31524ee4f"},"vehicle_type_id":"4","last_reported":1740730362,"current_range_meters":5600,"station_id":"ce4bhg12rcd13ifvqf70","pricing_plan_id":"cebpf4jnsgd1na2vs0mg"},{"bike_id":"35f54448-cfcd-415c-b857-096572fa4966","system_id":"levelo_inurba_marseille","lat":43.27493,"lon":5.42457,"is_reserved":false,"is_disabled":false,"rental_uris":{"android":"levelo://app?vid=35f54448-cfcd-415c-b857-096572fa4966","ios":"levelo://app?vid=35f54448-cfcd-415c-b857-096572fa4966"},"vehicle_type_id":"4","last_reported":1740730362,"current_range_meters":5600,"station_id":"ce4bhn92rcd13ifvqgrg","pricing_plan_id":"cebpf4jnsgd1na2vs0mg"},{"bike_id":"0c7e77c4-775f-4634-bb7d-e6dc5881f29b","system_id":"levelo_inurba_marseille","lat":43.24387,"lon":5.38552,"is_reserved":false,"is_disabled":false,"rental_uris":{"android":"levelo://app?vid=0c7e77c4-775f-4634-bb7d-e6dc5881f29b","ios":"levelo://app?vid=0c7e77c4-775f-4634-bb7d-e6dc5881f29b"},"vehicle_type_id":"4","last_reported":1740730362,"current_range_meters":6000,"station_id":"","pricing_plan_id":"cebpf4jnsgd1na2vs0mg"},{"bike_id":"8b12f042-66ff-4f72-8110-b87f1cf65c0b","system_id":"levelo_inurba_marseille","lat":43.334126,"lon":5.400335,"is_reserved":false,"is_disabled":false,"rental_uris":{"android":"levelo://app?vid=8b12f042-66ff-4f72-8110-b87f1cf65c0b","ios":"levelo://app?vid=8b12f042-66ff-4f72-8110-b87f1cf65c0b"},"vehicle_type_id":"4","last_reported":1740730362,"current_range_meters":6000,"station_id":"","pricing_plan_id":"cebpf4jnsgd1na2vs0mg"},{"bike_id":"701f56c0-6e5d-4627-82cc-e63130117601","system_id":"levelo_inurba_marseille","lat":43.29365,"lon":5.37855,"is_reserved":false,"is_disabled":false,"rental_uris":{"android":"levelo://app?vid=701f56c0-6e5d-4627-82cc-e63130117601","ios":"levelo://app?vid=701f56c0-6e5d-4627-82cc-e63130117601"},"vehicle_type_id":"4","last_reported":1740730362,"current_range_meters":6000,"station_id":"ce4bgjh2rcd13ifvqbf0","pricing_plan_id":"cebpf4jnsgd1na2vs0mg"},{"bike_id":"1d9ccda3-c9c9-4863-8380-6cfc5f38a2a3","system_id":"levelo_inurba_marseille","lat":43.30135,"lon":5.37417,"is_reserved":false,"is_disabled":true,"rental_uris":{"android":"levelo://app?vid=1d9ccda3-c9c9-4863-8380-6cfc5f38a2a3","ios":"levelo://app?vid=1d9ccda3-c9c9-4863-8380-6cfc5f38a2a3"},"vehicle_type_id":"4","last_reported":1740730362,"current_range_meters":6000,"station_id":"ce4bgs92rcd13ifvqcc0","pricing_plan_id":"cebpf4jnsgd1na2vs0mg"},{"bike_id":"9c63494f-db11-40bb-91e8-2d85369eb2a5","system_id":"levelo_inurba_marseille","lat":43.28267,"lon":5.35061,"is_reserved":false,"is_disabled":false,"rental_uris":{"android":"levelo://app?vid=9c63494f-db11-40bb-91e8-2d85369eb2a5","ios":"levelo://app?vid=9c63494f-db11-40bb-91e8-2d85369eb2a5"},"vehicle_type_id":"4","last_reported":1740730362,"current_range_meters":6000,"station_id":"ce4bhbp2rcd13ifvqerg","pricing_plan_id":"cebpf4jnsgd1na2vs0mg"},{"bike_id":"d79dd98a-c114-42ea-a8f6-898b6431d133","system_id":"levelo_inurba_marseille","lat":43.28137,"lon":5.42649,"is_reserved":false,"is_disabled":false,"rental_uris":{"android":"levelo://app?vid=d79dd98a-c114-42ea-a8f6-898b6431d133","ios":"levelo://app?vid=d79dd98a-c114-42ea-a8f6-898b6431d133"},"vehicle_type_id":"4","last_reported":1740730362,"current_range_meters":6000,"station_id":"ce4bhnh2rcd13ifvqgug","pricing_plan_id":"cebpf4jnsgd1na2vs0mg"},{"bike_id":"156d43f7-93cf-4af6-9cfe-5571ff46365a","system_id":"levelo_inurba_marseille","lat":43.307795,"lon":5.428204,"is_reserved":false,"is_disabled":false,"rental_uris":{"android":"levelo://app?vid=156d43f7-93cf-4af6-9cfe-5571ff46365a","ios":"levelo://app?vid=156d43f7-93cf-4af6-9cfe-5571ff46365a"},"vehicle_type_id":"4","last_reported":1740730362,"current_range_meters":6400,"station_id":"","pricing_plan_id":"cebpf4jnsgd1na2vs0mg"},{"bike_id":"ea8cb564-d405-42e3-911c-0afdd772ee76","system_id":"levelo_inurba_marseille","lat":43.32774,"lon":5.39221,"is_reserved":false,"is_disabled":false,"rental_uris":{"android":"levelo://app?vid=ea8cb564-d405-42e3-911c-0afdd772ee76","ios":"levelo://app?vid=ea8cb564-d405-42e3-911c-0afdd772ee76"},"vehicle_type_id":"4","last_reported":1740730362,"current_range_meters":6400,"station_id":"","pricing_plan_id":"cebpf4jnsgd1na2vs0mg"},{"bike_id":"91f909e9-358e-43ed-a45f-822af931a978","system_id":"levelo_inurba_marseille","lat":43.23213,"lon":5.40374,"is_reserved":false,"is_disabled":false,"rental_uris":{"android":"levelo://app?vid=91f909e9-358e-43ed-a45f-822af931a978","ios":"levelo://app?vid=91f909e9-358e-43ed-a45f-822af931a978"},"vehicle_type_id":"4","last_reported":1740730362,"current_range_meters":6400,"station_id":"","pricing_plan_id":"cebpf4jnsgd1na2vs0mg"},{"bike_id":"2d9f61c9-e0f5-4f12-b607-14e0cef3a7fb","system_id":"levelo_inurba_marseille","lat":43.29259,"lon":5.37626,"is_reserved":false,"is_disabled":false,"rental_uris":{"android":"levelo://app?vid=2d9f61c9-e0f5-4f12-b607-14e0cef3a7fb","ios":"levelo://app?vid=2d9f61c9-e0f5-4f12-b607-14e0cef3a7fb"},"vehicle_type_id":"4","last_reported":1740730362,"current_range_meters":6400,"station_id":"ce4bgi12rcd13ifvqb80","pricing_plan_id":"cebpf4jnsgd1na2vs0mg"},{"bike_id":"9b248e51-0fda-4940-8ed0-96a89e850bab","system_id":"levelo_inurba_marseille","lat":43.2952,"lon":5.3751,"is_reserved":false,"is_disabled":false,"rental_uris":{"android":"levelo://app?vid=9b248e51-0fda-4940-8ed0-96a89e850bab","ios":"levelo://app?vid=9b248e51-0fda-4940-8ed0-96a89e850bab"},"vehicle_type_id":"4","last_reported":1740730362,"current_range_meters":6400,"station_id":"ce4bgkp2rcd13ifvqbmg","pricing_plan_id":"cebpf4jnsgd1na2vs0mg"},{"bike_id":"58734ddf-a6a1-4aa4-933a-9e18fdd8a769","system_id":"levelo_inurba_marseille","lat":43.30544,"lon":5.36558,"is_reserved":false,"is_disabled":false,"rental_uris":{"android":"levelo://app?vid=58734ddf-a6a1-4aa4-933a-9e18fdd8a769","ios":"levelo://app?vid=58734ddf-a6a1-4aa4-933a-9e18fdd8a769"},"vehicle_type_id":"4","last_reported":1740730362,"current_range_meters":6400,"station_id":"ce4bgs12rcd13ifvqcag","pricing_plan_id":"cebpf4jnsgd1na2vs0mg"},{"bike_id":"5839b453-9e1a-4b27-8e2d-a7a00303e707","system_id":"levelo_inurba_marseille","lat":43.284695,"lon":5.384315,"is_reserved":false,"is_disabled":false,"rental_uris":{"android":"levelo://app?vid=5839b453-9e1a-4b27-8e2d-a7a00303e707","ios":"levelo://app?vid=5839b453-9e1a-4b27-8e2d-a7a00303e707"},"vehicle_type_id":"4","last_reported":1740730362,"current_range_meters":6400,"station_id":"ce4bh512rcd13ifvqe3g","pricing_plan_id":"cebpf4jnsgd1na2vs0mg"},{"bike_id":"8cdabaf2-c7f9-4516-aa5a-9f8282da6d51","system_id":"levelo_inurba_marseille","lat":43.28469,"lon":5.38425,"is_reserved":false,"is_disabled":false,"rental_uris":{"android":"levelo://app?vid=8cdabaf2-c7f9-4516-aa5a-9f8282da6d51","ios":"levelo://app?vid=8cdabaf2-c7f9-4516-aa5a-9f8282da6d51"},"vehicle_type_id":"4","last_reported":1740730362,"current_range_meters":6400,"station_id":"ce4bh512rcd13ifvqe3g","pricing_plan_id":"cebpf4jnsgd1na2vs0mg"},{"bike_id":"33062305-f0dc-4541-96a3-ce40729727a3","system_id":"levelo_inurba_marseille","lat":43.25939,"lon":5.40902,"is_reserved":false,"is_disabled":false,"rental_uris":{"android":"levelo://app?vid=33062305-f0dc-4541-96a3-ce40729727a3","ios":"levelo://app?vid=33062305-f0dc-4541-96a3-ce40729727a3"},"vehicle_type_id":"4","last_reported":1740730362,"current_range_meters":6400,"station_id":"ce4bhm92rcd13ifvqglg","pricing_plan_id":"cebpf4jnsgd1na2vs0mg"},{"bike_id":"b5c04338-71b5-40e7-914f-5f1200a51a92","system_id":"levelo_inurba_marseille","lat":43.2591,"lon":5.40906,"is_reserved":false,"is_disabled":false,"rental_uris":{"android":"levelo://app?vid=b5c04338-71b5-40e7-914f-5f1200a51a92","ios":"levelo://app?vid=b5c04338-71b5-40e7-914f-5f1200a51a92"},"vehicle_type_id":"4","last_reported":1740730362,"current_range_meters":6400,"station_id":"ce4bhm92rcd13ifvqglg","pricing_plan_id":"cebpf4jnsgd1na2vs0mg"},{"bike_id":"9647918c-d815-4482-8c45-927333bd2450","system_id":"levelo_inurba_marseille","lat":43.27794,"lon":5.40751,"is_reserved":false,"is_disabled":false,"rental_uris":{"android":"levelo://app?vid=9647918c-d815-4482-8c45-927333bd2450","ios":"levelo://app?vid=9647918c-d815-4482-8c45-927333bd2450"},"vehicle_type_id":"4","last_reported":1740730362,"current_range_meters":6400,"station_id":"ce4bhnh2rcd13ifvqgtg","pricing_plan_id":"cebpf4jnsgd1na2vs0mg"},{"bike_id":"c997b30a-bd84-4943-809c-ccf6d5b32c4f","system_id":"levelo_inurba_marseille","lat":43.27624,"lon":5.36136,"is_reserved":false,"is_disabled":false,"rental_uris":{"android":"levelo://app?vid=c997b30a-bd84-4943-809c-ccf6d5b32c4f","ios":"levelo://app?vid=c997b30a-bd84-4943-809c-ccf6d5b32c4f"},"vehicle_type_id":"4","last_reported":1740730362,"current_range_meters":6800,"station_id":"ce4bgj92rcd13ifvqbe0","pricing_plan_id":"cebpf4jnsgd1na2vs0mg"},{"bike_id":"f9388ae3-2d2a-4410-b354-e2817fb1f005","system_id":"levelo_inurba_marseille","lat":43.30875,"lon":5.37199,"is_reserved":false,"is_disabled":false,"rental_uris":{"android":"levelo://app?vid=f9388ae3-2d2a-4410-b354-e2817fb1f005","ios":"levelo://app?vid=f9388ae3-2d2a-4410-b354-e2817fb1f005"},"vehicle_type_id":"4","last_reported":1740730362,"current_range_meters":6800,"station_id":"ce4bguh2rcd13ifvqckg","pricing_plan_id":"cebpf4jnsgd1na2vs0mg"},{"bike_id":"745c5d38-332d-426b-8e7b-acb525d1c540","system_id":"levelo_inurba_marseille","lat":43.25091,"lon":5.39529,"is_reserved":false,"is_disabled":false,"rental_uris":{"android":"levelo://app?vid=745c5d38-332d-426b-8e7b-acb525d1c540","ios":"levelo://app?vid=745c5d38-332d-426b-8e7b-acb525d1c540"},"vehicle_type_id":"4","last_reported":1740730362,"current_range_meters":6800,"station_id":"ce4bhm12rcd13ifvqgkg","pricing_plan_id":"cebpf4jnsgd1na2vs0mg"},{"bike_id":"dbdb7887-88cb-41f9-ad73-5fbab2a239c1","system_id":"levelo_inurba_marseille","lat":43.2315,"lon":5.43726,"is_reserved":false,"is_disabled":false,"rental_uris":{"android":"levelo://app?vid=dbdb7887-88cb-41f9-ad73-5fbab2a239c1","ios":"levelo://app?vid=dbdb7887-88cb-41f9-ad73-5fbab2a239c1"},"vehicle_type_id":"4","last_reported":1740730362,"current_range_meters":6800,"station_id":"ce4bhmp2rcd13ifvqgog","pricing_plan_id":"cebpf4jnsgd1na2vs0mg"},{"bike_id":"a402dcb0-63b6-4569-b9e8-ad825500c3f8","system_id":"levelo_inurba_marseille","lat":43.28994,"lon":5.3593,"is_reserved":false,"is_disabled":false,"rental_uris":{"android":"levelo://app?vid=a402dcb0-63b6-4569-b9e8-ad825500c3f8","ios":"levelo://app?vid=a402dcb0-63b6-4569-b9e8-ad825500c3f8"},"vehicle_type_id":"4","last_reported":1740730362,"current_range_meters":7200,"station_id":"","pricing_plan_id":"cebpf4jnsgd1na2vs0mg"},{"bike_id":"dc79eb89-53eb-4e17-9fb3-f39e629492b8","system_id":"levelo_inurba_marseille","lat":43.29966,"lon":5.38497,"is_reserved":false,"is_disabled":false,"rental_uris":{"android":"levelo://app?vid=dc79eb89-53eb-4e17-9fb3-f39e629492b8","ios":"levelo://app?vid=dc79eb89-53eb-4e17-9fb3-f39e629492b8"},"vehicle_type_id":"4","last_reported":1740730362,"current_range_meters":7200,"station_id":"ce4bgj92rcd13ifvqbd0","pricing_plan_id":"cebpf4jnsgd1na2vs0mg"},{"bike_id":"c2cd62fa-5421-4d8d-83f3-aa1ab92d9420","system_id":"levelo_inurba_marseille","lat":43.31351,"lon":5.36705,"is_reserved":false,"is_disabled":false,"rental_uris":{"android":"levelo://app?vid=c2cd62fa-5421-4d8d-83f3-aa1ab92d9420","ios":"levelo://app?vid=c2cd62fa-5421-4d8d-83f3-aa1ab92d9420"},"vehicle_type_id":"4","last_reported":1740730362,"current_range_meters":7200,"station_id":"ce4bgr92rcd13ifvqc6g","pricing_plan_id":"cebpf4jnsgd1na2vs0mg"},{"bike_id":"2dd0b1c3-027e-4495-9e06-3cacc0e371ef","system_id":"levelo_inurba_marseille","lat":43.30274,"lon":5.37697,"is_reserved":false,"is_disabled":false,"rental_uris":{"android":"levelo://app?vid=2dd0b1c3-027e-4495-9e06-3cacc0e371ef","ios":"levelo://app?vid=2dd0b1c3-027e-4495-9e06-3cacc0e371ef"},"vehicle_type_id":"4","last_reported":1740730362,"current_range_meters":7200,"station_id":"ce4bguh2rcd13ifvqcj0","pricing_plan_id":"cebpf4jnsgd1na2vs0mg"},{"bike_id":"9679a3d6-a9cc-4cf2-88df-c54d1c1b4959","system_id":"levelo_inurba_marseille","lat":43.30471,"lon":5.37906,"is_reserved":false,"is_disabled":false,"rental_uris":{"android":"levelo://app?vid=9679a3d6-a9cc-4cf2-88df-c54d1c1b4959","ios":"levelo://app?vid=9679a3d6-a9cc-4cf2-88df-c54d1c1b4959"},"vehicle_type_id":"4","last_reported":1740730362,"current_range_meters":7200,"station_id":"ce4bgup2rcd13ifvqcn0","pricing_plan_id":"cebpf4jnsgd1na2vs0mg"},{"bike_id":"ea3487ed-d7b8-4023-bb22-d2dd44155fb1","system_id":"levelo_inurba_marseille","lat":43.28359,"lon":5.38114,"is_reserved":false,"is_disabled":false,"rental_uris":{"android":"levelo://app?vid=ea3487ed-d7b8-4023-bb22-d2dd44155fb1","ios":"levelo://app?vid=ea3487ed-d7b8-4023-bb22-d2dd44155fb1"},"vehicle_type_id":"4","last_reported":1740730362,"current_range_meters":7200,"station_id":"ce4bh412rcd13ifvqdr0","pricing_plan_id":"cebpf4jnsgd1na2vs0mg"},{"bike_id":"d4a9e247-3299-4d7f-9acb-0d092544b505","system_id":"levelo_inurba_marseille","lat":43.27892,"lon":5.37973,"is_reserved":false,"is_disabled":false,"rental_uris":{"android":"levelo://app?vid=d4a9e247-3299-4d7f-9acb-0d092544b505","ios":"levelo://app?vid=d4a9e247-3299-4d7f-9acb-0d092544b505"},"vehicle_type_id":"4","last_reported":1740730362,"current_range_meters":7200,"station_id":"ce4bhf92rcd13ifvqf50","pricing_plan_id":"cebpf4jnsgd1na2vs0mg"},{"bike_id":"ab41809d-0839-4146-9c11-f9e1d5038ec6","system_id":"levelo_inurba_marseille","lat":43.25587,"lon":5.38229,"is_reserved":false,"is_disabled":false,"rental_uris":{"android":"levelo://app?vid=ab41809d-0839-4146-9c11-f9e1d5038ec6","ios":"levelo://app?vid=ab41809d-0839-4146-9c11-f9e1d5038ec6"},"vehicle_type_id":"4","last_reported":1740730362,"current_range_meters":7200,"station_id":"ce4bhih2rcd13ifvqfs0","pricing_plan_id":"cebpf4jnsgd1na2vs0mg"},{"bike_id":"87adfc83-cc22-48dc-a30a-20fe3366ef4f","system_id":"levelo_inurba_marseille","lat":43.25933,"lon":5.40912,"is_reserved":false,"is_disabled":false,"rental_uris":{"android":"levelo://app?vid=87adfc83-cc22-48dc-a30a-20fe3366ef4f","ios":"levelo://app?vid=87adfc83-cc22-48dc-a30a-20fe3366ef4f"},"vehicle_type_id":"4","last_reported":1740730362,"current_range_meters":7200,"station_id":"ce4bhm92rcd13ifvqglg","pricing_plan_id":"cebpf4jnsgd1na2vs0mg"},{"bike_id":"e01c4764-850a-4950-98a6-f7763ee410cb","system_id":"levelo_inurba_marseille","lat":43.33601,"lon":5.40985,"is_reserved":false,"is_disabled":false,"rental_uris":{"android":"levelo://app?vid=e01c4764-850a-4950-98a6-f7763ee410cb","ios":"levelo://app?vid=e01c4764-850a-4950-98a6-f7763ee410cb"},"vehicle_type_id":"4","last_reported":1740730362,"current_range_meters":7200,"station_id":"ce4bhqh2rcd13ifvqhmg","pricing_plan_id":"cebpf4jnsgd1na2vs0mg"},{"bike_id":"92aa08e6-2e89-486d-8a98-06adf146e806","system_id":"levelo_inurba_marseille","lat":43.32367,"lon":5.38883,"is_reserved":false,"is_disabled":false,"rental_uris":{"android":"levelo://app?vid=92aa08e6-2e89-486d-8a98-06adf146e806","ios":"levelo://app?vid=92aa08e6-2e89-486d-8a98-06adf146e806"},"vehicle_type_id":"4","last_reported":1740730362,"current_range_meters":7200,"station_id":"ce4bhqp2rcd13ifvqhog","pricing_plan_id":"cebpf4jnsgd1na2vs0mg"},{"bike_id":"3f0907b3-da2b-41a5-8662-a0489e1a0f25","system_id":"levelo_inurba_marseille","lat":43.32094,"lon":5.3681,"is_reserved":false,"is_disabled":false,"rental_uris":{"android":"levelo://app?vid=3f0907b3-da2b-41a5-8662-a0489e1a0f25","ios":"levelo://app?vid=3f0907b3-da2b-41a5-8662-a0489e1a0f25"},"vehicle_type_id":"4","last_reported":1740730362,"current_range_meters":7200,"station_id":"ce4bhrh2rcd13ifvqhug","pricing_plan_id":"cebpf4jnsgd1na2vs0mg"},{"bike_id":"54d46a8b-8314-471a-98f9-6d86686fc605","system_id":"levelo_inurba_marseille","lat":43.25791,"lon":5.39502,"is_reserved":false,"is_disabled":false,"rental_uris":{"android":"levelo://app?vid=54d46a8b-8314-471a-98f9-6d86686fc605","ios":"levelo://app?vid=54d46a8b-8314-471a-98f9-6d86686fc605"},"vehicle_type_id":"4","last_reported":1740730362,"current_range_meters":8000,"station_id":"","pricing_plan_id":"cebpf4jnsgd1na2vs0mg"},{"bike_id":"fd68577c-ebdd-4705-971c-a07beadfedc0","system_id":"levelo_inurba_marseille","lat":43.29964,"lon":5.37163,"is_reserved":false,"is_disabled":false,"rental_uris":{"android":"levelo://app?vid=fd68577c-ebdd-4705-971c-a07beadfedc0","ios":"levelo://app?vid=fd68577c-ebdd-4705-971c-a07beadfedc0"},"vehicle_type_id":"4","last_reported":1740730362,"current_range_meters":8000,"station_id":"ce4bgr92rcd13ifvqc7g","pricing_plan_id":"cebpf4jnsgd1na2vs0mg"},{"bike_id":"6d089ed0-f5f5-41ed-a214-bcbffad42ae0","system_id":"levelo_inurba_marseille","lat":43.30095,"lon":5.39084,"is_reserved":false,"is_disabled":false,"rental_uris":{"android":"levelo://app?vid=6d089ed0-f5f5-41ed-a214-bcbffad42ae0","ios":"levelo://app?vid=6d089ed0-f5f5-41ed-a214-bcbffad42ae0"},"vehicle_type_id":"4","last_reported":1740730362,"current_range_meters":8000,"station_id":"ce4bh192rcd13ifvqdb0","pricing_plan_id":"cebpf4jnsgd1na2vs0mg"},{"bike_id":"b05d0e60-2baf-4e2b-b04c-50a57967503a","system_id":"levelo_inurba_marseille","lat":43.29039,"lon":5.39956,"is_reserved":false,"is_disabled":false,"rental_uris":{"android":"levelo://app?vid=b05d0e60-2baf-4e2b-b04c-50a57967503a","ios":"levelo://app?vid=b05d0e60-2baf-4e2b-b04c-50a57967503a"},"vehicle_type_id":"4","last_reported":1740730362,"current_range_meters":8000,"station_id":"ce4bh392rcd13ifvqdm0","pricing_plan_id":"cebpf4jnsgd1na2vs0mg"},{"bike_id":"4ce26a99-af03-483d-b48c-23c47fea208e","system_id":"levelo_inurba_marseille","lat":43.28888,"lon":5.35813,"is_reserved":false,"is_disabled":false,"rental_uris":{"android":"levelo://app?vid=4ce26a99-af03-483d-b48c-23c47fea208e","ios":"levelo://app?vid=4ce26a99-af03-483d-b48c-23c47fea208e"},"vehicle_type_id":"4","last_reported":1740730362,"current_range_meters":8000,"station_id":"ce4bhb12rcd13ifvqem0","pricing_plan_id":"cebpf4jnsgd1na2vs0mg"},{"bike_id":"5e0e22b0-e973-48d0-8bed-a771273f721a","system_id":"levelo_inurba_marseille","lat":43.273792,"lon":5.362562,"is_reserved":false,"is_disabled":false,"rental_uris":{"android":"levelo://app?vid=5e0e22b0-e973-48d0-8bed-a771273f721a","ios":"levelo://app?vid=5e0e22b0-e973-48d0-8bed-a771273f721a"},"vehicle_type_id":"4","last_reported":1740730362,"current_range_meters":8000,"station_id":"ce4bhbh2rcd13ifvqeo0","pricing_plan_id":"cebpf4jnsgd1na2vs0mg"},{"bike_id":"c6b23046-3dbb-4c24-b439-362e9ad2c23a","system_id":"levelo_inurba_marseille","lat":43.24991,"lon":5.38943,"is_reserved":false,"is_disabled":false,"rental_uris":{"android":"levelo://app?vid=c6b23046-3dbb-4c24-b439-362e9ad2c23a","ios":"levelo://app?vid=c6b23046-3dbb-4c24-b439-362e9ad2c23a"},"vehicle_type_id":"4","last_reported":1740730362,"current_range_meters":8000,"station_id":"ce4bhgp2rcd13ifvqfd0","pricing_plan_id":"cebpf4jnsgd1na2vs0mg"},{"bike_id":"67ed2ec6-9a93-403a-9e9b-df29702e6329","system_id":"levelo_inurba_marseille","lat":43.27304,"lon":5.39094,"is_reserved":false,"is_disabled":false,"rental_uris":{"android":"levelo://app?vid=67ed2ec6-9a93-403a-9e9b-df29702e6329","ios":"levelo://app?vid=67ed2ec6-9a93-403a-9e9b-df29702e6329"},"vehicle_type_id":"4","last_reported":1740730362,"current_range_meters":8000,"station_id":"ce4bhgp2rcd13ifvqfe0","pricing_plan_id":"cebpf4jnsgd1na2vs0mg"},{"bike_id":"34e68194-02ad-4b9d-937e-a86ce2cf3d83","system_id":"levelo_inurba_marseille","lat":43.27945,"lon":5.41062,"is_reserved":false,"is_disabled":false,"rental_uris":{"android":"levelo://app?vid=34e68194-02ad-4b9d-937e-a86ce2cf3d83","ios":"levelo://app?vid=34e68194-02ad-4b9d-937e-a86ce2cf3d83"},"vehicle_type_id":"4","last_reported":1740730362,"current_range_meters":8000,"station_id":"ce4bhnp2rcd13ifvqh0g","pricing_plan_id":"cebpf4jnsgd1na2vs0mg"},{"bike_id":"6d965f28-9c57-45ec-85ba-e157948f121b","system_id":"levelo_inurba_marseille","lat":43.3236,"lon":5.38891,"is_reserved":false,"is_disabled":false,"rental_uris":{"android":"levelo://app?vid=6d965f28-9c57-45ec-85ba-e157948f121b","ios":"levelo://app?vid=6d965f28-9c57-45ec-85ba-e157948f121b"},"vehicle_type_id":"4","last_reported":1740730362,"current_range_meters":8000,"station_id":"ce4bhqp2rcd13ifvqhog","pricing_plan_id":"cebpf4jnsgd1na2vs0mg"},{"bike_id":"74d4a88d-ad3a-4128-a926-23a749e3d79b","system_id":"levelo_inurba_marseille","lat":43.23189,"lon":5.35564,"is_reserved":false,"is_disabled":false,"rental_uris":{"android":"levelo://app?vid=74d4a88d-ad3a-4128-a926-23a749e3d79b","ios":"levelo://app?vid=74d4a88d-ad3a-4128-a926-23a749e3d79b"},"vehicle_type_id":"4","last_reported":1740730362,"current_range_meters":8000,"station_id":"ce4bhu92rcd13ifvqi70","pricing_plan_id":"cebpf4jnsgd1na2vs0mg"},{"bike_id":"29b9c545-0bf2-42ea-b7bc-37698fb30edc","system_id":"levelo_inurba_marseille","lat":43.33781,"lon":5.37437,"is_reserved":false,"is_disabled":false,"rental_uris":{"android":"levelo://app?vid=29b9c545-0bf2-42ea-b7bc-37698fb30edc","ios":"levelo://app?vid=29b9c545-0bf2-42ea-b7bc-37698fb30edc"},"vehicle_type_id":"4","last_reported":1740730362,"current_range_meters":8400,"station_id":"","pricing_plan_id":"cebpf4jnsgd1na2vs0mg"},{"bike_id":"3f86c3d0-e163-428e-a9fe-f6b1bce5a044","system_id":"levelo_inurba_marseille","lat":43.30989,"lon":5.38465,"is_reserved":false,"is_disabled":false,"rental_uris":{"android":"levelo://app?vid=3f86c3d0-e163-428e-a9fe-f6b1bce5a044","ios":"levelo://app?vid=3f86c3d0-e163-428e-a9fe-f6b1bce5a044"},"vehicle_type_id":"4","last_reported":1740730362,"current_range_meters":8400,"station_id":"","pricing_plan_id":"cebpf4jnsgd1na2vs0mg"},{"bike_id":"6a08a79c-d9fe-4cf4-8b8f-d5efa5e3274b","system_id":"levelo_inurba_marseille","lat":43.30173,"lon":5.36616,"is_reserved":false,"is_disabled":false,"rental_uris":{"android":"levelo://app?vid=6a08a79c-d9fe-4cf4-8b8f-d5efa5e3274b","ios":"levelo://app?vid=6a08a79c-d9fe-4cf4-8b8f-d5efa5e3274b"},"vehicle_type_id":"4","last_reported":1740730362,"current_range_meters":8400,"station_id":"ce4bgrh2rcd13ifvqc8g","pricing_plan_id":"cebpf4jnsgd1na2vs0mg"},{"bike_id":"18c4ef66-f03b-49c5-b620-cb564a8d5f51","system_id":"levelo_inurba_marseille","lat":43.3053,"lon":5.36705,"is_reserved":false,"is_disabled":false,"rental_uris":{"android":"levelo://app?vid=18c4ef66-f03b-49c5-b620-cb564a8d5f51","ios":"levelo://app?vid=18c4ef66-f03b-49c5-b620-cb564a8d5f51"},"vehicle_type_id":"4","last_reported":1740730362,"current_range_meters":8400,"station_id":"ce4bgrp2rcd13ifvqc9g","pricing_plan_id":"cebpf4jnsgd1na2vs0mg"},{"bike_id":"9bcc1ea5-412b-46e1-8f75-2f70a798a887","system_id":"levelo_inurba_marseille","lat":43.28935,"lon":5.36635,"is_reserved":false,"is_disabled":false,"rental_uris":{"android":"levelo://app?vid=9bcc1ea5-412b-46e1-8f75-2f70a798a887","ios":"levelo://app?vid=9bcc1ea5-412b-46e1-8f75-2f70a798a887"},"vehicle_type_id":"4","last_reported":1740730362,"current_range_meters":8400,"station_id":"ce4bhap2rcd13ifvqek0","pricing_plan_id":"cebpf4jnsgd1na2vs0mg"},{"bike_id":"d8994050-39f7-4aaa-af77-5e87c12121df","system_id":"levelo_inurba_marseille","lat":43.29007,"lon":5.35632,"is_reserved":false,"is_disabled":false,"rental_uris":{"android":"levelo://app?vid=d8994050-39f7-4aaa-af77-5e87c12121df","ios":"levelo://app?vid=d8994050-39f7-4aaa-af77-5e87c12121df"},"vehicle_type_id":"4","last_reported":1740730362,"current_range_meters":8400,"station_id":"ce4bhb92rcd13ifvqen0","pricing_plan_id":"cebpf4jnsgd1na2vs0mg"},{"bike_id":"5cdf1157-258e-4dbe-9eac-97f9742be378","system_id":"levelo_inurba_marseille","lat":43.27384,"lon":5.36266,"is_reserved":false,"is_disabled":false,"rental_uris":{"android":"levelo://app?vid=5cdf1157-258e-4dbe-9eac-97f9742be378","ios":"levelo://app?vid=5cdf1157-258e-4dbe-9eac-97f9742be378"},"vehicle_type_id":"4","last_reported":1740730362,"current_range_meters":8400,"station_id":"ce4bhbh2rcd13ifvqeo0","pricing_plan_id":"cebpf4jnsgd1na2vs0mg"},{"bike_id":"95cfff75-c056-4c87-ad51-cbb1e2e44c62","system_id":"levelo_inurba_marseille","lat":43.270358,"lon":5.392377,"is_reserved":false,"is_disabled":false,"rental_uris":{"android":"levelo://app?vid=95cfff75-c056-4c87-ad51-cbb1e2e44c62","ios":"levelo://app?vid=95cfff75-c056-4c87-ad51-cbb1e2e44c62"},"vehicle_type_id":"4","last_reported":1740730362,"current_range_meters":8400,"station_id":"ce4bhhh2rcd13ifvqfl0","pricing_plan_id":"cebpf4jnsgd1na2vs0mg"},{"bike_id":"939a9ff9-4492-432c-a94c-2ec6a0647161","system_id":"levelo_inurba_marseille","lat":43.30534,"lon":5.3673,"is_reserved":false,"is_disabled":false,"rental_uris":{"android":"levelo://app?vid=939a9ff9-4492-432c-a94c-2ec6a0647161","ios":"levelo://app?vid=939a9ff9-4492-432c-a94c-2ec6a0647161"},"vehicle_type_id":"4","last_reported":1740730362,"current_range_meters":8800,"station_id":"ce4bgrp2rcd13ifvqc9g","pricing_plan_id":"cebpf4jnsgd1na2vs0mg"},{"bike_id":"0c4f2a2b-49ea-4f67-bc39-aa17095e543d","system_id":"levelo_inurba_marseille","lat":43.290397,"lon":5.39955,"is_reserved":false,"is_disabled":false,"rental_uris":{"android":"levelo://app?vid=0c4f2a2b-49ea-4f67-bc39-aa17095e543d","ios":"levelo://app?vid=0c4f2a2b-49ea-4f67-bc39-aa17095e543d"},"vehicle_type_id":"4","last_reported":1740730362,"current_range_meters":8800,"station_id":"ce4bh392rcd13ifvqdm0","pricing_plan_id":"cebpf4jnsgd1na2vs0mg"},{"bike_id":"fcb19544-b24b-426b-ac82-c6ec3938cffa","system_id":"levelo_inurba_marseille","lat":43.28929,"lon":5.36399,"is_reserved":false,"is_disabled":false,"rental_uris":{"android":"levelo://app?vid=fcb19544-b24b-426b-ac82-c6ec3938cffa","ios":"levelo://app?vid=fcb19544-b24b-426b-ac82-c6ec3938cffa"},"vehicle_type_id":"4","last_reported":1740730362,"current_range_meters":8800,"station_id":"ce4bhc92rcd13ifvqetg","pricing_plan_id":"cebpf4jnsgd1na2vs0mg"},{"bike_id":"27b96f0c-2d44-4965-a997-c4bf8fa73e44","system_id":"levelo_inurba_marseille","lat":43.26201,"lon":5.37931,"is_reserved":false,"is_disabled":false,"rental_uris":{"android":"levelo://app?vid=27b96f0c-2d44-4965-a997-c4bf8fa73e44","ios":"levelo://app?vid=27b96f0c-2d44-4965-a997-c4bf8fa73e44"},"vehicle_type_id":"4","last_reported":1740730362,"current_range_meters":8800,"station_id":"ce4bhjp2rcd13ifvqg90","pricing_plan_id":"cebpf4jnsgd1na2vs0mg"},{"bike_id":"9c16f73b-d883-4318-9d54-d8eb1fe44c91","system_id":"levelo_inurba_marseille","lat":43.27812,"lon":5.40725,"is_reserved":false,"is_disabled":false,"rental_uris":{"android":"levelo://app?vid=9c16f73b-d883-4318-9d54-d8eb1fe44c91","ios":"levelo://app?vid=9c16f73b-d883-4318-9d54-d8eb1fe44c91"},"vehicle_type_id":"4","last_reported":1740730362,"current_range_meters":8800,"station_id":"ce4bhnh2rcd13ifvqgtg","pricing_plan_id":"cebpf4jnsgd1na2vs0mg"},{"bike_id":"026e178e-412a-49e0-9772-e5f6d0abaab4","system_id":"levelo_inurba_marseille","lat":43.30861,"lon":5.3708,"is_reserved":false,"is_disabled":false,"rental_uris":{"android":"levelo://app?vid=026e178e-412a-49e0-9772-e5f6d0abaab4","ios":"levelo://app?vid=026e178e-412a-49e0-9772-e5f6d0abaab4"},"vehicle_type_id":"4","last_reported":1740730362,"current_range_meters":9200,"station_id":"","pricing_plan_id":"cebpf4jnsgd1na2vs0mg"},{"bike_id":"f86558ae-7403-42cf-8f86-3321d1245dd7","system_id":"levelo_inurba_marseille","lat":43.25931,"lon":5.40911,"is_reserved":false,"is_disabled":false,"rental_uris":{"android":"levelo://app?vid=f86558ae-7403-42cf-8f86-3321d1245dd7","ios":"levelo://app?vid=f86558ae-7403-42cf-8f86-3321d1245dd7"},"vehicle_type_id":"4","last_reported":1740730362,"current_range_meters":9200,"station_id":"ce4bhm92rcd13ifvqglg","pricing_plan_id":"cebpf4jnsgd1na2vs0mg"},{"bike_id":"9fe1686b-87f4-4090-857d-b2cad3d05448","system_id":"levelo_inurba_marseille","lat":43.25939,"lon":5.40908,"is_reserved":false,"is_disabled":false,"rental_uris":{"android":"levelo://app?vid=9fe1686b-87f4-4090-857d-b2cad3d05448","ios":"levelo://app?vid=9fe1686b-87f4-4090-857d-b2cad3d05448"},"vehicle_type_id":"4","last_reported":1740730362,"current_range_meters":9200,"station_id":"ce4bhm92rcd13ifvqglg","pricing_plan_id":"cebpf4jnsgd1na2vs0mg"},{"bike_id":"1720127d-b111-4d3d-95d3-75d9d265dc26","system_id":"levelo_inurba_marseille","lat":43.2315,"lon":5.43723,"is_reserved":false,"is_disabled":false,"rental_uris":{"android":"levelo://app?vid=1720127d-b111-4d3d-95d3-75d9d265dc26","ios":"levelo://app?vid=1720127d-b111-4d3d-95d3-75d9d265dc26"},"vehicle_type_id":"4","last_reported":1740730362,"current_range_meters":9200,"station_id":"ce4bhmp2rcd13ifvqgog","pricing_plan_id":"cebpf4jnsgd1na2vs0mg"},{"bike_id":"738790dd-10dd-4ca0-b799-c7e96fb84b4b","system_id":"levelo_inurba_marseille","lat":43.32056,"lon":5.36824,"is_reserved":false,"is_disabled":false,"rental_uris":{"android":"levelo://app?vid=738790dd-10dd-4ca0-b799-c7e96fb84b4b","ios":"levelo://app?vid=738790dd-10dd-4ca0-b799-c7e96fb84b4b"},"vehicle_type_id":"4","last_reported":1740730362,"current_range_meters":9200,"station_id":"ce4bhrh2rcd13ifvqhug","pricing_plan_id":"cebpf4jnsgd1na2vs0mg"},{"bike_id":"a7a49217-b3d4-4933-8273-9dda3c403bf1","system_id":"levelo_inurba_marseille","lat":43.316584,"lon":5.396075,"is_reserved":false,"is_disabled":false,"rental_uris":{"android":"levelo://app?vid=a7a49217-b3d4-4933-8273-9dda3c403bf1","ios":"levelo://app?vid=a7a49217-b3d4-4933-8273-9dda3c403bf1"},"vehicle_type_id":"4","last_reported":1740730362,"current_range_meters":9600,"station_id":"","pricing_plan_id":"cebpf4jnsgd1na2vs0mg"},{"bike_id":"477e7770-5906-4cdc-a047-08af60219101","system_id":"levelo_inurba_marseille","lat":43.30545,"lon":5.36728,"is_reserved":false,"is_disabled":false,"rental_uris":{"android":"levelo://app?vid=477e7770-5906-4cdc-a047-08af60219101","ios":"levelo://app?vid=477e7770-5906-4cdc-a047-08af60219101"},"vehicle_type_id":"4","last_reported":1740730362,"current_range_meters":9600,"station_id":"ce4bgrp2rcd13ifvqc9g","pricing_plan_id":"cebpf4jnsgd1na2vs0mg"},{"bike_id":"04940e4c-c43d-4a7a-803e-4a959ace185d","system_id":"levelo_inurba_marseille","lat":43.304626,"lon":5.379107,"is_reserved":false,"is_disabled":false,"rental_uris":{"android":"levelo://app?vid=04940e4c-c43d-4a7a-803e-4a959ace185d","ios":"levelo://app?vid=04940e4c-c43d-4a7a-803e-4a959ace185d"},"vehicle_type_id":"4","last_reported":1740730362,"current_range_meters":9600,"station_id":"ce4bgup2rcd13ifvqcn0","pricing_plan_id":"cebpf4jnsgd1na2vs0mg"},{"bike_id":"408241af-5876-4026-9a18-d99251ad3f63","system_id":"levelo_inurba_marseille","lat":43.29036,"lon":5.39958,"is_reserved":false,"is_disabled":false,"rental_uris":{"android":"levelo://app?vid=408241af-5876-4026-9a18-d99251ad3f63","ios":"levelo://app?vid=408241af-5876-4026-9a18-d99251ad3f63"},"vehicle_type_id":"4","last_reported":1740730362,"current_range_meters":9600,"station_id":"ce4bh392rcd13ifvqdm0","pricing_plan_id":"cebpf4jnsgd1na2vs0mg"},{"bike_id":"e89404bc-b67d-4aa0-b5b9-0d5adc52fc30","system_id":"levelo_inurba_marseille","lat":43.28612,"lon":5.35132,"is_reserved":false,"is_disabled":false,"rental_uris":{"android":"levelo://app?vid=e89404bc-b67d-4aa0-b5b9-0d5adc52fc30","ios":"levelo://app?vid=e89404bc-b67d-4aa0-b5b9-0d5adc52fc30"},"vehicle_type_id":"4","last_reported":1740730362,"current_range_meters":9600,"station_id":"ce4bhch2rcd13ifvqeug","pricing_plan_id":"cebpf4jnsgd1na2vs0mg"},{"bike_id":"443370dd-f8b8-457a-b6f8-389b804ff6fc","system_id":"levelo_inurba_marseille","lat":43.32364,"lon":5.38884,"is_reserved":false,"is_disabled":false,"rental_uris":{"android":"levelo://app?vid=443370dd-f8b8-457a-b6f8-389b804ff6fc","ios":"levelo://app?vid=443370dd-f8b8-457a-b6f8-389b804ff6fc"},"vehicle_type_id":"4","last_reported":1740730362,"current_range_meters":9600,"station_id":"ce4bhqp2rcd13ifvqhog","pricing_plan_id":"cebpf4jnsgd1na2vs0mg"},{"bike_id":"3de9aeda-1f9a-4bbc-8b90-e02a49e56ca9","system_id":"levelo_inurba_marseille","lat":43.23193,"lon":5.35565,"is_reserved":false,"is_disabled":false,"rental_uris":{"android":"levelo://app?vid=3de9aeda-1f9a-4bbc-8b90-e02a49e56ca9","ios":"levelo://app?vid=3de9aeda-1f9a-4bbc-8b90-e02a49e56ca9"},"vehicle_type_id":"4","last_reported":1740730362,"current_range_meters":9600,"station_id":"ce4bhu92rcd13ifvqi70","pricing_plan_id":"cebpf4jnsgd1na2vs0mg"},{"bike_id":"06b91644-fcc8-46ff-8717-fd99f2ee51d4","system_id":"levelo_inurba_marseille","lat":43.30905,"lon":5.36864,"is_reserved":false,"is_disabled":false,"rental_uris":{"android":"levelo://app?vid=06b91644-fcc8-46ff-8717-fd99f2ee51d4","ios":"levelo://app?vid=06b91644-fcc8-46ff-8717-fd99f2ee51d4"},"vehicle_type_id":"4","last_reported":1740730362,"current_range_meters":10000,"station_id":"ce4bgn92rcd13ifvqbvg","pricing_plan_id":"cebpf4jnsgd1na2vs0mg"},{"bike_id":"cb583085-206e-4fef-9b07-1eeeefad272a","system_id":"levelo_inurba_marseille","lat":43.30521,"lon":5.36719,"is_reserved":false,"is_disabled":false,"rental_uris":{"android":"levelo://app?vid=cb583085-206e-4fef-9b07-1eeeefad272a","ios":"levelo://app?vid=cb583085-206e-4fef-9b07-1eeeefad272a"},"vehicle_type_id":"4","last_reported":1740730362,"current_range_meters":10000,"station_id":"ce4bgrp2rcd13ifvqc9g","pricing_plan_id":"cebpf4jnsgd1na2vs0mg"},{"bike_id":"4f27def9-9f4b-46d5-98cd-ff33f940bcfa","system_id":"levelo_inurba_marseille","lat":43.26945,"lon":5.38651,"is_reserved":false,"is_disabled":false,"rental_uris":{"android":"levelo://app?vid=4f27def9-9f4b-46d5-98cd-ff33f940bcfa","ios":"levelo://app?vid=4f27def9-9f4b-46d5-98cd-ff33f940bcfa"},"vehicle_type_id":"4","last_reported":1740730362,"current_range_meters":10000,"station_id":"ce4bhh92rcd13ifvqfh0","pricing_plan_id":"cebpf4jnsgd1na2vs0mg"},{"bike_id":"1393e48a-5096-48c2-8ef4-ef737b7b43ae","system_id":"levelo_inurba_marseille","lat":43.25087,"lon":5.39543,"is_reserved":false,"is_disabled":false,"rental_uris":{"android":"levelo://app?vid=1393e48a-5096-48c2-8ef4-ef737b7b43ae","ios":"levelo://app?vid=1393e48a-5096-48c2-8ef4-ef737b7b43ae"},"vehicle_type_id":"4","last_reported":1740730362,"current_range_meters":10000,"station_id":"ce4bhm12rcd13ifvqgkg","pricing_plan_id":"cebpf4jnsgd1na2vs0mg"},{"bike_id":"9670f666-656d-443d-bf4b-8643c21df7f0","system_id":"levelo_inurba_marseille","lat":43.274958,"lon":5.424508,"is_reserved":false,"is_disabled":false,"rental_uris":{"android":"levelo://app?vid=9670f666-656d-443d-bf4b-8643c21df7f0","ios":"levelo://app?vid=9670f666-656d-443d-bf4b-8643c21df7f0"},"vehicle_type_id":"4","last_reported":1740730362,"current_range_meters":10000,"station_id":"ce4bhn92rcd13ifvqgrg","pricing_plan_id":"cebpf4jnsgd1na2vs0mg"},{"bike_id":"ef77bf7f-5b88-41c9-8d3b-c8c9c0447dd9","system_id":"levelo_inurba_marseille","lat":43.28117,"lon":5.34957,"is_reserved":false,"is_disabled":false,"rental_uris":{"android":"levelo://app?vid=ef77bf7f-5b88-41c9-8d3b-c8c9c0447dd9","ios":"levelo://app?vid=ef77bf7f-5b88-41c9-8d3b-c8c9c0447dd9"},"vehicle_type_id":"4","last_reported":1740730362,"current_range_meters":10800,"station_id":"","pricing_plan_id":"cebpf4jnsgd1na2vs0mg"},{"bike_id":"cad7f672-d7ee-46fb-a8d1-7a17203cc80e","system_id":"levelo_inurba_marseille","lat":43.29627,"lon":5.37166,"is_reserved":false,"is_disabled":false,"rental_uris":{"android":"levelo://app?vid=cad7f672-d7ee-46fb-a8d1-7a17203cc80e","ios":"levelo://app?vid=cad7f672-d7ee-46fb-a8d1-7a17203cc80e"},"vehicle_type_id":"4","last_reported":1740730362,"current_range_meters":10800,"station_id":"ce4bgnh2rcd13ifvqc0g","pricing_plan_id":"cebpf4jnsgd1na2vs0mg"},{"bike_id":"ca720b38-d6dc-408e-b2d2-63ccb38ad786","system_id":"levelo_inurba_marseille","lat":43.30976,"lon":5.39048,"is_reserved":false,"is_disabled":false,"rental_uris":{"android":"levelo://app?vid=ca720b38-d6dc-408e-b2d2-63ccb38ad786","ios":"levelo://app?vid=ca720b38-d6dc-408e-b2d2-63ccb38ad786"},"vehicle_type_id":"4","last_reported":1740730362,"current_range_meters":10800,"station_id":"ce4bgup2rcd13ifvqco0","pricing_plan_id":"cebpf4jnsgd1na2vs0mg"},{"bike_id":"10b6c0d0-a3ef-460e-ad30-22fe050ad6b8","system_id":"levelo_inurba_marseille","lat":43.28865,"lon":5.35834,"is_reserved":false,"is_disabled":false,"rental_uris":{"android":"levelo://app?vid=10b6c0d0-a3ef-460e-ad30-22fe050ad6b8","ios":"levelo://app?vid=10b6c0d0-a3ef-460e-ad30-22fe050ad6b8"},"vehicle_type_id":"4","last_reported":1740730362,"current_range_meters":10800,"station_id":"ce4bhb12rcd13ifvqem0","pricing_plan_id":"cebpf4jnsgd1na2vs0mg"},{"bike_id":"061c1e57-eb32-458e-8ced-cc98750c3caf","system_id":"levelo_inurba_marseille","lat":43.27371,"lon":5.36257,"is_reserved":false,"is_disabled":false,"rental_uris":{"android":"levelo://app?vid=061c1e57-eb32-458e-8ced-cc98750c3caf","ios":"levelo://app?vid=061c1e57-eb32-458e-8ced-cc98750c3caf"},"vehicle_type_id":"4","last_reported":1740730362,"current_range_meters":10800,"station_id":"ce4bhbh2rcd13ifvqeo0","pricing_plan_id":"cebpf4jnsgd1na2vs0mg"},{"bike_id":"52d182f1-5b35-456e-b120-700ad9b9c06b","system_id":"levelo_inurba_marseille","lat":43.24996,"lon":5.38934,"is_reserved":false,"is_disabled":false,"rental_uris":{"android":"levelo://app?vid=52d182f1-5b35-456e-b120-700ad9b9c06b","ios":"levelo://app?vid=52d182f1-5b35-456e-b120-700ad9b9c06b"},"vehicle_type_id":"4","last_reported":1740730362,"current_range_meters":10800,"station_id":"ce4bhgp2rcd13ifvqfd0","pricing_plan_id":"cebpf4jnsgd1na2vs0mg"},{"bike_id":"07a70f40-d064-434b-83aa-228acdf7dd53","system_id":"levelo_inurba_marseille","lat":43.23178,"lon":5.39993,"is_reserved":false,"is_disabled":false,"rental_uris":{"android":"levelo://app?vid=07a70f40-d064-434b-83aa-228acdf7dd53","ios":"levelo://app?vid=07a70f40-d064-434b-83aa-228acdf7dd53"},"vehicle_type_id":"4","last_reported":1740730362,"current_range_meters":10800,"station_id":"ce4bhn12rcd13ifvqgqg","pricing_plan_id":"cebpf4jnsgd1na2vs0mg"},{"bike_id":"94dc094b-e528-48cb-9927-c0d224136f8c","system_id":"levelo_inurba_marseille","lat":43.32475,"lon":5.36561,"is_reserved":false,"is_disabled":false,"rental_uris":{"android":"levelo://app?vid=94dc094b-e528-48cb-9927-c0d224136f8c","ios":"levelo://app?vid=94dc094b-e528-48cb-9927-c0d224136f8c"},"vehicle_type_id":"4","last_reported":1740730362,"current_range_meters":10800,"station_id":"ce4bhs12rcd13ifvqhvg","pricing_plan_id":"cebpf4jnsgd1na2vs0mg"},{"bike_id":"d4918d6a-5525-4be8-b0c4-7af64b54343d","system_id":"levelo_inurba_marseille","lat":43.24156,"lon":5.36417,"is_reserved":false,"is_disabled":false,"rental_uris":{"android":"levelo://app?vid=d4918d6a-5525-4be8-b0c4-7af64b54343d","ios":"levelo://app?vid=d4918d6a-5525-4be8-b0c4-7af64b54343d"},"vehicle_type_id":"4","last_reported":1740730362,"current_range_meters":10800,"station_id":"cpo36qri1sfpv3e86is0","pricing_plan_id":"cebpf4jnsgd1na2vs0mg"},{"bike_id":"a64b84c6-dd5d-47e0-8684-2986abf052ed","system_id":"levelo_inurba_marseille","lat":43.30142,"lon":5.37426,"is_reserved":false,"is_disabled":false,"rental_uris":{"android":"levelo://app?vid=a64b84c6-dd5d-47e0-8684-2986abf052ed","ios":"levelo://app?vid=a64b84c6-dd5d-47e0-8684-2986abf052ed"},"vehicle_type_id":"4","last_reported":1740730362,"current_range_meters":11200,"station_id":"ce4bgs92rcd13ifvqcc0","pricing_plan_id":"cebpf4jnsgd1na2vs0mg"},{"bike_id":"0771be02-e3e2-47da-b3c9-86df7888c832","system_id":"levelo_inurba_marseille","lat":43.29215,"lon":5.36054,"is_reserved":false,"is_disabled":false,"rental_uris":{"android":"levelo://app?vid=0771be02-e3e2-47da-b3c9-86df7888c832","ios":"levelo://app?vid=0771be02-e3e2-47da-b3c9-86df7888c832"},"vehicle_type_id":"4","last_reported":1740730362,"current_range_meters":11200,"station_id":"ce4bhbh2rcd13ifvqeqg","pricing_plan_id":"cebpf4jnsgd1na2vs0mg"},{"bike_id":"c3d5e0ae-4e1a-4e6a-aa2e-022e75c23631","system_id":"levelo_inurba_marseille","lat":43.27485,"lon":5.42459,"is_reserved":false,"is_disabled":false,"rental_uris":{"android":"levelo://app?vid=c3d5e0ae-4e1a-4e6a-aa2e-022e75c23631","ios":"levelo://app?vid=c3d5e0ae-4e1a-4e6a-aa2e-022e75c23631"},"vehicle_type_id":"4","last_reported":1740730362,"current_range_meters":11200,"station_id":"ce4bhn92rcd13ifvqgrg","pricing_plan_id":"cebpf4jnsgd1na2vs0mg"},{"bike_id":"20d08730-d04f-482a-9ed2-1d3e29b92784","system_id":"levelo_inurba_marseille","lat":43.32371,"lon":5.389,"is_reserved":false,"is_disabled":false,"rental_uris":{"android":"levelo://app?vid=20d08730-d04f-482a-9ed2-1d3e29b92784","ios":"levelo://app?vid=20d08730-d04f-482a-9ed2-1d3e29b92784"},"vehicle_type_id":"4","last_reported":1740730362,"current_range_meters":11200,"station_id":"ce4bhqp2rcd13ifvqhog","pricing_plan_id":"cebpf4jnsgd1na2vs0mg"},{"bike_id":"189df1b4-397a-424a-8e86-0555da07e984","system_id":"levelo_inurba_marseille","lat":43.30114,"lon":5.39064,"is_reserved":false,"is_disabled":false,"rental_uris":{"android":"levelo://app?vid=189df1b4-397a-424a-8e86-0555da07e984","ios":"levelo://app?vid=189df1b4-397a-424a-8e86-0555da07e984"},"vehicle_type_id":"4","last_reported":1740730362,"current_range_meters":11600,"station_id":"ce4bh192rcd13ifvqdb0","pricing_plan_id":"cebpf4jnsgd1na2vs0mg"},{"bike_id":"2f9f99a2-13fd-4e67-b6f6-cde754ec372e","system_id":"levelo_inurba_marseille","lat":43.29003,"lon":5.35598,"is_reserved":false,"is_disabled":false,"rental_uris":{"android":"levelo://app?vid=2f9f99a2-13fd-4e67-b6f6-cde754ec372e","ios":"levelo://app?vid=2f9f99a2-13fd-4e67-b6f6-cde754ec372e"},"vehicle_type_id":"4","last_reported":1740730362,"current_range_meters":11600,"station_id":"ce4bhb92rcd13ifvqen0","pricing_plan_id":"cebpf4jnsgd1na2vs0mg"},{"bike_id":"8c29effd-bee7-4c95-a28f-5237662f8169","system_id":"levelo_inurba_marseille","lat":43.24388,"lon":5.37062,"is_reserved":false,"is_disabled":false,"rental_uris":{"android":"levelo://app?vid=8c29effd-bee7-4c95-a28f-5237662f8169","ios":"levelo://app?vid=8c29effd-bee7-4c95-a28f-5237662f8169"},"vehicle_type_id":"4","last_reported":1740730362,"current_range_meters":11600,"station_id":"ce4bhhh2rcd13ifvqfk0","pricing_plan_id":"cebpf4jnsgd1na2vs0mg"},{"bike_id":"199d096e-ca37-47f9-963f-1f0656cac9e4","system_id":"levelo_inurba_marseille","lat":43.25831,"lon":5.3943,"is_reserved":false,"is_disabled":false,"rental_uris":{"android":"levelo://app?vid=199d096e-ca37-47f9-963f-1f0656cac9e4","ios":"levelo://app?vid=199d096e-ca37-47f9-963f-1f0656cac9e4"},"vehicle_type_id":"4","last_reported":1740730362,"current_range_meters":11600,"station_id":"ce4bhip2rcd13ifvqft0","pricing_plan_id":"cebpf4jnsgd1na2vs0mg"},{"bike_id":"827eba54-b9d4-485a-8eba-7cdc66cfc117","system_id":"levelo_inurba_marseille","lat":43.27492,"lon":5.42462,"is_reserved":false,"is_disabled":false,"rental_uris":{"android":"levelo://app?vid=827eba54-b9d4-485a-8eba-7cdc66cfc117","ios":"levelo://app?vid=827eba54-b9d4-485a-8eba-7cdc66cfc117"},"vehicle_type_id":"4","last_reported":1740730362,"current_range_meters":11600,"station_id":"ce4bhn92rcd13ifvqgrg","pricing_plan_id":"cebpf4jnsgd1na2vs0mg"},{"bike_id":"d02aabfa-cf11-4e8c-afae-e75fbab4027c","system_id":"levelo_inurba_marseille","lat":43.32483,"lon":5.36566,"is_reserved":false,"is_disabled":false,"rental_uris":{"android":"levelo://app?vid=d02aabfa-cf11-4e8c-afae-e75fbab4027c","ios":"levelo://app?vid=d02aabfa-cf11-4e8c-afae-e75fbab4027c"},"vehicle_type_id":"4","last_reported":1740730362,"current_range_meters":11600,"station_id":"ce4bhs12rcd13ifvqhvg","pricing_plan_id":"cebpf4jnsgd1na2vs0mg"},{"bike_id":"7a3d9249-c570-4ba0-aa14-bea30a2f2bcb","system_id":"levelo_inurba_marseille","lat":43.29158,"lon":5.37175,"is_reserved":false,"is_disabled":false,"rental_uris":{"android":"levelo://app?vid=7a3d9249-c570-4ba0-aa14-bea30a2f2bcb","ios":"levelo://app?vid=7a3d9249-c570-4ba0-aa14-bea30a2f2bcb"},"vehicle_type_id":"4","last_reported":1740730362,"current_range_meters":12000,"station_id":"ce4bha92rcd13ifvqeh0","pricing_plan_id":"cebpf4jnsgd1na2vs0mg"},{"bike_id":"2a15582d-8ec7-4491-b977-3b2a0c07f0d5","system_id":"levelo_inurba_marseille","lat":43.26937,"lon":5.38657,"is_reserved":false,"is_disabled":false,"rental_uris":{"android":"levelo://app?vid=2a15582d-8ec7-4491-b977-3b2a0c07f0d5","ios":"levelo://app?vid=2a15582d-8ec7-4491-b977-3b2a0c07f0d5"},"vehicle_type_id":"4","last_reported":1740730362,"current_range_meters":12000,"station_id":"ce4bhh92rcd13ifvqfh0","pricing_plan_id":"cebpf4jnsgd1na2vs0mg"},{"bike_id":"61281301-5196-4e98-838e-5323ff1006de","system_id":"levelo_inurba_marseille","lat":43.29572,"lon":5.42255,"is_reserved":false,"is_disabled":false,"rental_uris":{"android":"levelo://app?vid=61281301-5196-4e98-838e-5323ff1006de","ios":"levelo://app?vid=61281301-5196-4e98-838e-5323ff1006de"},"vehicle_type_id":"4","last_reported":1740730362,"current_range_meters":12000,"station_id":"ce4bhph2rcd13ifvqhdg","pricing_plan_id":"cebpf4jnsgd1na2vs0mg"},{"bike_id":"f1242fdf-4613-4d03-8c82-365b084e8c93","system_id":"levelo_inurba_marseille","lat":43.30281,"lon":5.37696,"is_reserved":false,"is_disabled":false,"rental_uris":{"android":"levelo://app?vid=f1242fdf-4613-4d03-8c82-365b084e8c93","ios":"levelo://app?vid=f1242fdf-4613-4d03-8c82-365b084e8c93"},"vehicle_type_id":"4","last_reported":1740730362,"current_range_meters":12400,"station_id":"ce4bguh2rcd13ifvqcj0","pricing_plan_id":"cebpf4jnsgd1na2vs0mg"},{"bike_id":"2693addf-6b0f-4d5b-aba4-c55b84237091","system_id":"levelo_inurba_marseille","lat":43.30465,"lon":5.37913,"is_reserved":false,"is_disabled":false,"rental_uris":{"android":"levelo://app?vid=2693addf-6b0f-4d5b-aba4-c55b84237091","ios":"levelo://app?vid=2693addf-6b0f-4d5b-aba4-c55b84237091"},"vehicle_type_id":"4","last_reported":1740730362,"current_range_meters":12400,"station_id":"ce4bgup2rcd13ifvqcn0","pricing_plan_id":"cebpf4jnsgd1na2vs0mg"},{"bike_id":"6019f491-5557-4416-9bd1-b2bb55d267d5","system_id":"levelo_inurba_marseille","lat":43.29202,"lon":5.35795,"is_reserved":false,"is_disabled":false,"rental_uris":{"android":"levelo://app?vid=6019f491-5557-4416-9bd1-b2bb55d267d5","ios":"levelo://app?vid=6019f491-5557-4416-9bd1-b2bb55d267d5"},"vehicle_type_id":"4","last_reported":1740730362,"current_range_meters":12400,"station_id":"ce4bhb12rcd13ifvqel0","pricing_plan_id":"cebpf4jnsgd1na2vs0mg"},{"bike_id":"43d6aa6f-20c7-4a1b-bcb8-31b660876567","system_id":"levelo_inurba_marseille","lat":43.26544,"lon":5.37298,"is_reserved":false,"is_disabled":false,"rental_uris":{"android":"levelo://app?vid=43d6aa6f-20c7-4a1b-bcb8-31b660876567","ios":"levelo://app?vid=43d6aa6f-20c7-4a1b-bcb8-31b660876567"},"vehicle_type_id":"4","last_reported":1740730362,"current_range_meters":12400,"station_id":"ce4bhg12rcd13ifvqf70","pricing_plan_id":"cebpf4jnsgd1na2vs0mg"},{"bike_id":"721a04ed-b000-4322-94d8-505662eb0074","system_id":"levelo_inurba_marseille","lat":43.25909,"lon":5.40883,"is_reserved":false,"is_disabled":false,"rental_uris":{"android":"levelo://app?vid=721a04ed-b000-4322-94d8-505662eb0074","ios":"levelo://app?vid=721a04ed-b000-4322-94d8-505662eb0074"},"vehicle_type_id":"4","last_reported":1740730362,"current_range_meters":12400,"station_id":"ce4bhm92rcd13ifvqglg","pricing_plan_id":"cebpf4jnsgd1na2vs0mg"},{"bike_id":"3f5e4c77-943b-4a46-b257-614bf13afec4","system_id":"levelo_inurba_marseille","lat":43.241655,"lon":5.364004,"is_reserved":false,"is_disabled":false,"rental_uris":{"android":"levelo://app?vid=3f5e4c77-943b-4a46-b257-614bf13afec4","ios":"levelo://app?vid=3f5e4c77-943b-4a46-b257-614bf13afec4"},"vehicle_type_id":"4","last_reported":1740730362,"current_range_meters":12400,"station_id":"cpo36qri1sfpv3e86is0","pricing_plan_id":"cebpf4jnsgd1na2vs0mg"},{"bike_id":"f2884d92-1bc7-4629-abf9-eae9086cc4a9","system_id":"levelo_inurba_marseille","lat":43.30137,"lon":5.38798,"is_reserved":false,"is_disabled":false,"rental_uris":{"android":"levelo://app?vid=f2884d92-1bc7-4629-abf9-eae9086cc4a9","ios":"levelo://app?vid=f2884d92-1bc7-4629-abf9-eae9086cc4a9"},"vehicle_type_id":"4","last_reported":1740730362,"current_range_meters":12800,"station_id":"ce4bghh2rcd13ifvqb60","pricing_plan_id":"cebpf4jnsgd1na2vs0mg"},{"bike_id":"15204670-483e-4adc-adc6-2fb8bc37754c","system_id":"levelo_inurba_marseille","lat":43.25808,"lon":5.39462,"is_reserved":false,"is_disabled":false,"rental_uris":{"android":"levelo://app?vid=15204670-483e-4adc-adc6-2fb8bc37754c","ios":"levelo://app?vid=15204670-483e-4adc-adc6-2fb8bc37754c"},"vehicle_type_id":"4","last_reported":1740730362,"current_range_meters":12800,"station_id":"ce4bhip2rcd13ifvqft0","pricing_plan_id":"cebpf4jnsgd1na2vs0mg"},{"bike_id":"06a2da58-3ae4-43ed-be99-99758ed898df","system_id":"levelo_inurba_marseille","lat":43.24189,"lon":5.39736,"is_reserved":false,"is_disabled":false,"rental_uris":{"android":"levelo://app?vid=06a2da58-3ae4-43ed-be99-99758ed898df","ios":"levelo://app?vid=06a2da58-3ae4-43ed-be99-99758ed898df"},"vehicle_type_id":"4","last_reported":1740730362,"current_range_meters":13600,"station_id":"ce4bhn12rcd13ifvqgpg","pricing_plan_id":"cebpf4jnsgd1na2vs0mg"},{"bike_id":"7d54b79d-a80a-4fa9-a911-c9017b4c6924","system_id":"levelo_inurba_marseille","lat":43.33583,"lon":5.41031,"is_reserved":false,"is_disabled":false,"rental_uris":{"android":"levelo://app?vid=7d54b79d-a80a-4fa9-a911-c9017b4c6924","ios":"levelo://app?vid=7d54b79d-a80a-4fa9-a911-c9017b4c6924"},"vehicle_type_id":"4","last_reported":1740730362,"current_range_meters":13600,"station_id":"ce4bhqh2rcd13ifvqhmg","pricing_plan_id":"cebpf4jnsgd1na2vs0mg"},{"bike_id":"727d560b-02da-47e4-b634-bf70468d1d85","system_id":"levelo_inurba_marseille","lat":43.292945,"lon":5.379688,"is_reserved":false,"is_disabled":false,"rental_uris":{"android":"levelo://app?vid=727d560b-02da-47e4-b634-bf70468d1d85","ios":"levelo://app?vid=727d560b-02da-47e4-b634-bf70468d1d85"},"vehicle_type_id":"4","last_reported":1740730362,"current_range_meters":14000,"station_id":"ce4bgjh2rcd13ifvqbf0","pricing_plan_id":"cebpf4jnsgd1na2vs0mg"},{"bike_id":"89774688-1674-4d33-bd0d-3570d34d3d9b","system_id":"levelo_inurba_marseille","lat":43.29227,"lon":5.36062,"is_reserved":false,"is_disabled":false,"rental_uris":{"android":"levelo://app?vid=89774688-1674-4d33-bd0d-3570d34d3d9b","ios":"levelo://app?vid=89774688-1674-4d33-bd0d-3570d34d3d9b"},"vehicle_type_id":"4","last_reported":1740730362,"current_range_meters":14000,"station_id":"ce4bhbh2rcd13ifvqeqg","pricing_plan_id":"cebpf4jnsgd1na2vs0mg"},{"bike_id":"1ec95ae8-47b1-46be-ab6f-633627e7d180","system_id":"levelo_inurba_marseille","lat":43.25091,"lon":5.39532,"is_reserved":false,"is_disabled":false,"rental_uris":{"android":"levelo://app?vid=1ec95ae8-47b1-46be-ab6f-633627e7d180","ios":"levelo://app?vid=1ec95ae8-47b1-46be-ab6f-633627e7d180"},"vehicle_type_id":"4","last_reported":1740730362,"current_range_meters":14000,"station_id":"ce4bhm12rcd13ifvqgkg","pricing_plan_id":"cebpf4jnsgd1na2vs0mg"},{"bike_id":"439cfb5b-9d57-4c1f-8652-4d751602929c","system_id":"levelo_inurba_marseille","lat":43.24061,"lon":5.3773,"is_reserved":false,"is_disabled":false,"rental_uris":{"android":"levelo://app?vid=439cfb5b-9d57-4c1f-8652-4d751602929c","ios":"levelo://app?vid=439cfb5b-9d57-4c1f-8652-4d751602929c"},"vehicle_type_id":"4","last_reported":1740730362,"current_range_meters":14000,"station_id":"ce4bhnp2rcd13ifvqgvg","pricing_plan_id":"cebpf4jnsgd1na2vs0mg"},{"bike_id":"9b87516d-fe86-469d-9eec-59ccc9879f66","system_id":"levelo_inurba_marseille","lat":43.306175,"lon":5.393589,"is_reserved":false,"is_disabled":false,"rental_uris":{"android":"levelo://app?vid=9b87516d-fe86-469d-9eec-59ccc9879f66","ios":"levelo://app?vid=9b87516d-fe86-469d-9eec-59ccc9879f66"},"vehicle_type_id":"4","last_reported":1740730362,"current_range_meters":14400,"station_id":"ce4bh0p2rcd13ifvqd80","pricing_plan_id":"cebpf4jnsgd1na2vs0mg"},{"bike_id":"24476cb6-9c12-4997-ab8d-8cfe9d8b4bb4","system_id":"levelo_inurba_marseille","lat":43.28626,"lon":5.35137,"is_reserved":false,"is_disabled":false,"rental_uris":{"android":"levelo://app?vid=24476cb6-9c12-4997-ab8d-8cfe9d8b4bb4","ios":"levelo://app?vid=24476cb6-9c12-4997-ab8d-8cfe9d8b4bb4"},"vehicle_type_id":"4","last_reported":1740730362,"current_range_meters":14400,"station_id":"ce4bhch2rcd13ifvqeug","pricing_plan_id":"cebpf4jnsgd1na2vs0mg"},{"bike_id":"fde9784a-1db5-483a-850f-1d9e4b4a7afd","system_id":"levelo_inurba_marseille","lat":43.25937,"lon":5.4091,"is_reserved":false,"is_disabled":false,"rental_uris":{"android":"levelo://app?vid=fde9784a-1db5-483a-850f-1d9e4b4a7afd","ios":"levelo://app?vid=fde9784a-1db5-483a-850f-1d9e4b4a7afd"},"vehicle_type_id":"4","last_reported":1740730362,"current_range_meters":14400,"station_id":"ce4bhm92rcd13ifvqglg","pricing_plan_id":"cebpf4jnsgd1na2vs0mg"},{"bike_id":"0ca3762a-72de-42a2-b6ac-f14be1a9578b","system_id":"levelo_inurba_marseille","lat":43.25939,"lon":5.40889,"is_reserved":false,"is_disabled":false,"rental_uris":{"android":"levelo://app?vid=0ca3762a-72de-42a2-b6ac-f14be1a9578b","ios":"levelo://app?vid=0ca3762a-72de-42a2-b6ac-f14be1a9578b"},"vehicle_type_id":"4","last_reported":1740730362,"current_range_meters":14400,"station_id":"ce4bhm92rcd13ifvqglg","pricing_plan_id":"cebpf4jnsgd1na2vs0mg"},{"bike_id":"b4f1c498-5c3f-4907-bdfa-6b4e5dbdb3b3","system_id":"levelo_inurba_marseille","lat":43.28457,"lon":5.35904,"is_reserved":false,"is_disabled":false,"rental_uris":{"android":"levelo://app?vid=b4f1c498-5c3f-4907-bdfa-6b4e5dbdb3b3","ios":"levelo://app?vid=b4f1c498-5c3f-4907-bdfa-6b4e5dbdb3b3"},"vehicle_type_id":"4","last_reported":1740730362,"current_range_meters":14800,"station_id":"ce4bhah2rcd13ifvqei0","pricing_plan_id":"cebpf4jnsgd1na2vs0mg"},{"bike_id":"7b3525f3-ae9d-4439-8e01-20359a15714e","system_id":"levelo_inurba_marseille","lat":43.28928,"lon":5.36645,"is_reserved":false,"is_disabled":false,"rental_uris":{"android":"levelo://app?vid=7b3525f3-ae9d-4439-8e01-20359a15714e","ios":"levelo://app?vid=7b3525f3-ae9d-4439-8e01-20359a15714e"},"vehicle_type_id":"4","last_reported":1740730362,"current_range_meters":14800,"station_id":"ce4bhap2rcd13ifvqek0","pricing_plan_id":"cebpf4jnsgd1na2vs0mg"},{"bike_id":"382d557d-8024-4f45-8140-482a40d06b19","system_id":"levelo_inurba_marseille","lat":43.27808,"lon":5.40708,"is_reserved":false,"is_disabled":false,"rental_uris":{"android":"levelo://app?vid=382d557d-8024-4f45-8140-482a40d06b19","ios":"levelo://app?vid=382d557d-8024-4f45-8140-482a40d06b19"},"vehicle_type_id":"4","last_reported":1740730362,"current_range_meters":14800,"station_id":"ce4bhnh2rcd13ifvqgtg","pricing_plan_id":"cebpf4jnsgd1na2vs0mg"},{"bike_id":"ed0a7ddd-a0d0-4e14-93e4-4a5540c1f9fd","system_id":"levelo_inurba_marseille","lat":43.307999,"lon":5.435302,"is_reserved":false,"is_disabled":false,"rental_uris":{"android":"levelo://app?vid=ed0a7ddd-a0d0-4e14-93e4-4a5540c1f9fd","ios":"levelo://app?vid=ed0a7ddd-a0d0-4e14-93e4-4a5540c1f9fd"},"vehicle_type_id":"4","last_reported":1740730362,"current_range_meters":14800,"station_id":"ce4bhph2rcd13ifvqheg","pricing_plan_id":"cebpf4jnsgd1na2vs0mg"},{"bike_id":"1aea0dde-a7bb-4730-8e2c-695419b49399","system_id":"levelo_inurba_marseille","lat":43.32352,"lon":5.38897,"is_reserved":false,"is_disabled":false,"rental_uris":{"android":"levelo://app?vid=1aea0dde-a7bb-4730-8e2c-695419b49399","ios":"levelo://app?vid=1aea0dde-a7bb-4730-8e2c-695419b49399"},"vehicle_type_id":"4","last_reported":1740730362,"current_range_meters":14800,"station_id":"ce4bhqp2rcd13ifvqhog","pricing_plan_id":"cebpf4jnsgd1na2vs0mg"},{"bike_id":"ce551a5b-3efe-4b9e-805e-ebfeb44ad77c","system_id":"levelo_inurba_marseille","lat":43.31082,"lon":5.38342,"is_reserved":false,"is_disabled":false,"rental_uris":{"android":"levelo://app?vid=ce551a5b-3efe-4b9e-805e-ebfeb44ad77c","ios":"levelo://app?vid=ce551a5b-3efe-4b9e-805e-ebfeb44ad77c"},"vehicle_type_id":"4","last_reported":1740730362,"current_range_meters":15200,"station_id":"ce4bgv92rcd13ifvqcr0","pricing_plan_id":"cebpf4jnsgd1na2vs0mg"},{"bike_id":"c152e81a-999f-49d2-a9c5-6e90858d5d00","system_id":"levelo_inurba_marseille","lat":43.2871,"lon":5.37937,"is_reserved":false,"is_disabled":false,"rental_uris":{"android":"levelo://app?vid=c152e81a-999f-49d2-a9c5-6e90858d5d00","ios":"levelo://app?vid=c152e81a-999f-49d2-a9c5-6e90858d5d00"},"vehicle_type_id":"4","last_reported":1740730362,"current_range_meters":15200,"station_id":"ce4bh9p2rcd13ifvqec0","pricing_plan_id":"cebpf4jnsgd1na2vs0mg"},{"bike_id":"4b44108a-8e7f-4c84-84e4-f03279ec8094","system_id":"levelo_inurba_marseille","lat":43.28982,"lon":5.37839,"is_reserved":false,"is_disabled":false,"rental_uris":{"android":"levelo://app?vid=4b44108a-8e7f-4c84-84e4-f03279ec8094","ios":"levelo://app?vid=4b44108a-8e7f-4c84-84e4-f03279ec8094"},"vehicle_type_id":"4","last_reported":1740730362,"current_range_meters":15200,"station_id":"ce4bh9p2rcd13ifvqed0","pricing_plan_id":"cebpf4jnsgd1na2vs0mg"},{"bike_id":"101b8521-5589-443f-a64b-8ef83a8cc365","system_id":"levelo_inurba_marseille","lat":43.26969,"lon":5.38624,"is_reserved":false,"is_disabled":false,"rental_uris":{"android":"levelo://app?vid=101b8521-5589-443f-a64b-8ef83a8cc365","ios":"levelo://app?vid=101b8521-5589-443f-a64b-8ef83a8cc365"},"vehicle_type_id":"4","last_reported":1740730362,"current_range_meters":15200,"station_id":"ce4bhh92rcd13ifvqfh0","pricing_plan_id":"cebpf4jnsgd1na2vs0mg"},{"bike_id":"7f460228-eaa7-4070-8c4f-3c84b0229773","system_id":"levelo_inurba_marseille","lat":43.255766,"lon":5.382362,"is_reserved":false,"is_disabled":false,"rental_uris":{"android":"levelo://app?vid=7f460228-eaa7-4070-8c4f-3c84b0229773","ios":"levelo://app?vid=7f460228-eaa7-4070-8c4f-3c84b0229773"},"vehicle_type_id":"4","last_reported":1740730362,"current_range_meters":15200,"station_id":"ce4bhih2rcd13ifvqfs0","pricing_plan_id":"cebpf4jnsgd1na2vs0mg"},{"bike_id":"cb2765a4-8835-4bc4-a4ee-79d998fd2722","system_id":"levelo_inurba_marseille","lat":43.26224,"lon":5.40452,"is_reserved":false,"is_disabled":false,"rental_uris":{"android":"levelo://app?vid=cb2765a4-8835-4bc4-a4ee-79d998fd2722","ios":"levelo://app?vid=cb2765a4-8835-4bc4-a4ee-79d998fd2722"},"vehicle_type_id":"4","last_reported":1740730362,"current_range_meters":15200,"station_id":"ce4bhmh2rcd13ifvqgmg","pricing_plan_id":"cebpf4jnsgd1na2vs0mg"},{"bike_id":"9d243c69-16e2-4c3b-a7dc-6c83c9c0968d","system_id":"levelo_inurba_marseille","lat":43.24076,"lon":5.37752,"is_reserved":false,"is_disabled":false,"rental_uris":{"android":"levelo://app?vid=9d243c69-16e2-4c3b-a7dc-6c83c9c0968d","ios":"levelo://app?vid=9d243c69-16e2-4c3b-a7dc-6c83c9c0968d"},"vehicle_type_id":"4","last_reported":1740730362,"current_range_meters":15200,"station_id":"ce4bhnp2rcd13ifvqgvg","pricing_plan_id":"cebpf4jnsgd1na2vs0mg"},{"bike_id":"f5fe4361-1d3d-4314-a7e8-95ca49fcf6f9","system_id":"levelo_inurba_marseille","lat":43.31958,"lon":5.36847,"is_reserved":false,"is_disabled":false,"rental_uris":{"android":"levelo://app?vid=f5fe4361-1d3d-4314-a7e8-95ca49fcf6f9","ios":"levelo://app?vid=f5fe4361-1d3d-4314-a7e8-95ca49fcf6f9"},"vehicle_type_id":"4","last_reported":1740730362,"current_range_meters":16000,"station_id":"","pricing_plan_id":"cebpf4jnsgd1na2vs0mg"},{"bike_id":"f919809d-dd9d-4e14-85ef-be2db1b8dd2e","system_id":"levelo_inurba_marseille","lat":43.284449,"lon":5.358203,"is_reserved":false,"is_disabled":false,"rental_uris":{"android":"levelo://app?vid=f919809d-dd9d-4e14-85ef-be2db1b8dd2e","ios":"levelo://app?vid=f919809d-dd9d-4e14-85ef-be2db1b8dd2e"},"vehicle_type_id":"4","last_reported":1740730362,"current_range_meters":16000,"station_id":"ce4bhah2rcd13ifvqei0","pricing_plan_id":"cebpf4jnsgd1na2vs0mg"},{"bike_id":"22b5d680-2f4f-4b29-9786-c72d42c3fe5d","system_id":"levelo_inurba_marseille","lat":43.27322,"lon":5.39068,"is_reserved":false,"is_disabled":false,"rental_uris":{"android":"levelo://app?vid=22b5d680-2f4f-4b29-9786-c72d42c3fe5d","ios":"levelo://app?vid=22b5d680-2f4f-4b29-9786-c72d42c3fe5d"},"vehicle_type_id":"4","last_reported":1740730362,"current_range_meters":16000,"station_id":"ce4bhgp2rcd13ifvqfe0","pricing_plan_id":"cebpf4jnsgd1na2vs0mg"},{"bike_id":"d79774a6-7426-41ac-b7c6-85789974d608","system_id":"levelo_inurba_marseille","lat":43.25591,"lon":5.38237,"is_reserved":false,"is_disabled":false,"rental_uris":{"android":"levelo://app?vid=d79774a6-7426-41ac-b7c6-85789974d608","ios":"levelo://app?vid=d79774a6-7426-41ac-b7c6-85789974d608"},"vehicle_type_id":"4","last_reported":1740730362,"current_range_meters":16000,"station_id":"ce4bhih2rcd13ifvqfs0","pricing_plan_id":"cebpf4jnsgd1na2vs0mg"},{"bike_id":"9b443045-c036-496e-8da8-b27cd4386d41","system_id":"levelo_inurba_marseille","lat":43.32478,"lon":5.36568,"is_reserved":false,"is_disabled":false,"rental_uris":{"android":"levelo://app?vid=9b443045-c036-496e-8da8-b27cd4386d41","ios":"levelo://app?vid=9b443045-c036-496e-8da8-b27cd4386d41"},"vehicle_type_id":"4","last_reported":1740730362,"current_range_meters":16000,"station_id":"ce4bhs12rcd13ifvqhvg","pricing_plan_id":"cebpf4jnsgd1na2vs0mg"},{"bike_id":"364b209e-752e-45ea-b26c-06b2552c1833","system_id":"levelo_inurba_marseille","lat":43.23186,"lon":5.35568,"is_reserved":false,"is_disabled":false,"rental_uris":{"android":"levelo://app?vid=364b209e-752e-45ea-b26c-06b2552c1833","ios":"levelo://app?vid=364b209e-752e-45ea-b26c-06b2552c1833"},"vehicle_type_id":"4","last_reported":1740730362,"current_range_meters":16000,"station_id":"ce4bhu92rcd13ifvqi70","pricing_plan_id":"cebpf4jnsgd1na2vs0mg"},{"bike_id":"49e9cdc7-76a5-4b66-ae2d-61c73beb73a8","system_id":"levelo_inurba_marseille","lat":43.24176,"lon":5.36403,"is_reserved":false,"is_disabled":false,"rental_uris":{"android":"levelo://app?vid=49e9cdc7-76a5-4b66-ae2d-61c73beb73a8","ios":"levelo://app?vid=49e9cdc7-76a5-4b66-ae2d-61c73beb73a8"},"vehicle_type_id":"4","last_reported":1740730362,"current_range_meters":16000,"station_id":"cpo36qri1sfpv3e86is0","pricing_plan_id":"cebpf4jnsgd1na2vs0mg"},{"bike_id":"6efc8275-ffc8-4f10-bbf2-20ae75df181c","system_id":"levelo_inurba_marseille","lat":43.31341,"lon":5.3672,"is_reserved":false,"is_disabled":false,"rental_uris":{"android":"levelo://app?vid=6efc8275-ffc8-4f10-bbf2-20ae75df181c","ios":"levelo://app?vid=6efc8275-ffc8-4f10-bbf2-20ae75df181c"},"vehicle_type_id":"4","last_reported":1740730362,"current_range_meters":16400,"station_id":"ce4bgr92rcd13ifvqc6g","pricing_plan_id":"cebpf4jnsgd1na2vs0mg"},{"bike_id":"25e89ac1-d6d0-41be-86e5-48f8b7f864e8","system_id":"levelo_inurba_marseille","lat":43.31338,"lon":5.36718,"is_reserved":false,"is_disabled":false,"rental_uris":{"android":"levelo://app?vid=25e89ac1-d6d0-41be-86e5-48f8b7f864e8","ios":"levelo://app?vid=25e89ac1-d6d0-41be-86e5-48f8b7f864e8"},"vehicle_type_id":"4","last_reported":1740730362,"current_range_meters":16400,"station_id":"ce4bgr92rcd13ifvqc6g","pricing_plan_id":"cebpf4jnsgd1na2vs0mg"},{"bike_id":"51ed1bd1-2ce5-469f-92e0-70acc6da1c1a","system_id":"levelo_inurba_marseille","lat":43.29056,"lon":5.39911,"is_reserved":false,"is_disabled":false,"rental_uris":{"android":"levelo://app?vid=51ed1bd1-2ce5-469f-92e0-70acc6da1c1a","ios":"levelo://app?vid=51ed1bd1-2ce5-469f-92e0-70acc6da1c1a"},"vehicle_type_id":"4","last_reported":1740730362,"current_range_meters":16400,"station_id":"ce4bh392rcd13ifvqdm0","pricing_plan_id":"cebpf4jnsgd1na2vs0mg"},{"bike_id":"e903bee4-681f-4ec9-af4e-4c7beebf2a8c","system_id":"levelo_inurba_marseille","lat":43.28724,"lon":5.37939,"is_reserved":false,"is_disabled":false,"rental_uris":{"android":"levelo://app?vid=e903bee4-681f-4ec9-af4e-4c7beebf2a8c","ios":"levelo://app?vid=e903bee4-681f-4ec9-af4e-4c7beebf2a8c"},"vehicle_type_id":"4","last_reported":1740730362,"current_range_meters":16400,"station_id":"ce4bh9p2rcd13ifvqec0","pricing_plan_id":"cebpf4jnsgd1na2vs0mg"},{"bike_id":"ca6d2864-4a09-458d-b6fc-3ab7de56dcc4","system_id":"levelo_inurba_marseille","lat":43.27322,"lon":5.39073,"is_reserved":false,"is_disabled":false,"rental_uris":{"android":"levelo://app?vid=ca6d2864-4a09-458d-b6fc-3ab7de56dcc4","ios":"levelo://app?vid=ca6d2864-4a09-458d-b6fc-3ab7de56dcc4"},"vehicle_type_id":"4","last_reported":1740730362,"current_range_meters":16400,"station_id":"ce4bhgp2rcd13ifvqfe0","pricing_plan_id":"cebpf4jnsgd1na2vs0mg"},{"bike_id":"4073f445-2819-4ce0-9646-9d1bcfda99f1","system_id":"levelo_inurba_marseille","lat":43.23149,"lon":5.43725,"is_reserved":false,"is_disabled":false,"rental_uris":{"android":"levelo://app?vid=4073f445-2819-4ce0-9646-9d1bcfda99f1","ios":"levelo://app?vid=4073f445-2819-4ce0-9646-9d1bcfda99f1"},"vehicle_type_id":"4","last_reported":1740730362,"current_range_meters":16400,"station_id":"ce4bhmp2rcd13ifvqgog","pricing_plan_id":"cebpf4jnsgd1na2vs0mg"},{"bike_id":"aed560ed-e2d8-4498-900a-6e4848710d0c","system_id":"levelo_inurba_marseille","lat":43.23183,"lon":5.39984,"is_reserved":false,"is_disabled":false,"rental_uris":{"android":"levelo://app?vid=aed560ed-e2d8-4498-900a-6e4848710d0c","ios":"levelo://app?vid=aed560ed-e2d8-4498-900a-6e4848710d0c"},"vehicle_type_id":"4","last_reported":1740730362,"current_range_meters":16400,"station_id":"ce4bhn12rcd13ifvqgqg","pricing_plan_id":"cebpf4jnsgd1na2vs0mg"},{"bike_id":"0f485d89-f28f-4ae5-b6fa-44f8a8ad7289","system_id":"levelo_inurba_marseille","lat":43.27496,"lon":5.42453,"is_reserved":false,"is_disabled":false,"rental_uris":{"android":"levelo://app?vid=0f485d89-f28f-4ae5-b6fa-44f8a8ad7289","ios":"levelo://app?vid=0f485d89-f28f-4ae5-b6fa-44f8a8ad7289"},"vehicle_type_id":"4","last_reported":1740730362,"current_range_meters":16400,"station_id":"ce4bhn92rcd13ifvqgrg","pricing_plan_id":"cebpf4jnsgd1na2vs0mg"},{"bike_id":"597c78d8-1097-48db-b3be-fafc8754eab9","system_id":"levelo_inurba_marseille","lat":43.24169,"lon":5.36396,"is_reserved":false,"is_disabled":false,"rental_uris":{"android":"levelo://app?vid=597c78d8-1097-48db-b3be-fafc8754eab9","ios":"levelo://app?vid=597c78d8-1097-48db-b3be-fafc8754eab9"},"vehicle_type_id":"4","last_reported":1740730362,"current_range_meters":16400,"station_id":"cpo36qri1sfpv3e86is0","pricing_plan_id":"cebpf4jnsgd1na2vs0mg"},{"bike_id":"57ec8465-c3c9-4132-bf64-41992c2bd7c6","system_id":"levelo_inurba_marseille","lat":43.31258,"lon":5.36772,"is_reserved":false,"is_disabled":false,"rental_uris":{"android":"levelo://app?vid=57ec8465-c3c9-4132-bf64-41992c2bd7c6","ios":"levelo://app?vid=57ec8465-c3c9-4132-bf64-41992c2bd7c6"},"vehicle_type_id":"4","last_reported":1740730362,"current_range_meters":16800,"station_id":"ce4bgl92rcd13ifvqbq0","pricing_plan_id":"cebpf4jnsgd1na2vs0mg"},{"bike_id":"8b5f610d-1c0d-4b45-9dff-e5e34b4c5f65","system_id":"levelo_inurba_marseille","lat":43.29838,"lon":5.36266,"is_reserved":false,"is_disabled":false,"rental_uris":{"android":"levelo://app?vid=8b5f610d-1c0d-4b45-9dff-e5e34b4c5f65","ios":"levelo://app?vid=8b5f610d-1c0d-4b45-9dff-e5e34b4c5f65"},"vehicle_type_id":"4","last_reported":1740730362,"current_range_meters":16800,"station_id":"ce4bgpp2rcd13ifvqc3g","pricing_plan_id":"cebpf4jnsgd1na2vs0mg"},{"bike_id":"c98ea86c-7c4c-4a1e-80b7-432a5e8772c7","system_id":"levelo_inurba_marseille","lat":43.30857,"lon":5.37223,"is_reserved":false,"is_disabled":false,"rental_uris":{"android":"levelo://app?vid=c98ea86c-7c4c-4a1e-80b7-432a5e8772c7","ios":"levelo://app?vid=c98ea86c-7c4c-4a1e-80b7-432a5e8772c7"},"vehicle_type_id":"4","last_reported":1740730362,"current_range_meters":16800,"station_id":"ce4bguh2rcd13ifvqckg","pricing_plan_id":"cebpf4jnsgd1na2vs0mg"},{"bike_id":"34a5d592-e030-4e59-b074-a28ba3a07566","system_id":"levelo_inurba_marseille","lat":43.231413,"lon":5.437268,"is_reserved":false,"is_disabled":false,"rental_uris":{"android":"levelo://app?vid=34a5d592-e030-4e59-b074-a28ba3a07566","ios":"levelo://app?vid=34a5d592-e030-4e59-b074-a28ba3a07566"},"vehicle_type_id":"4","last_reported":1740730362,"current_range_meters":16800,"station_id":"ce4bhmp2rcd13ifvqgog","pricing_plan_id":"cebpf4jnsgd1na2vs0mg"},{"bike_id":"f05e3088-a939-40ea-90da-83c01e639f5e","system_id":"levelo_inurba_marseille","lat":43.24072,"lon":5.37764,"is_reserved":false,"is_disabled":false,"rental_uris":{"android":"levelo://app?vid=f05e3088-a939-40ea-90da-83c01e639f5e","ios":"levelo://app?vid=f05e3088-a939-40ea-90da-83c01e639f5e"},"vehicle_type_id":"4","last_reported":1740730362,"current_range_meters":16800,"station_id":"ce4bhnp2rcd13ifvqgvg","pricing_plan_id":"cebpf4jnsgd1na2vs0mg"},{"bike_id":"c84f47e5-27b1-47a9-a2d2-ba104cc1f39a","system_id":"levelo_inurba_marseille","lat":43.32353,"lon":5.36759,"is_reserved":false,"is_disabled":false,"rental_uris":{"android":"levelo://app?vid=c84f47e5-27b1-47a9-a2d2-ba104cc1f39a","ios":"levelo://app?vid=c84f47e5-27b1-47a9-a2d2-ba104cc1f39a"},"vehicle_type_id":"4","last_reported":1740730362,"current_range_meters":16800,"station_id":"ce4bhsh2rcd13ifvqi2g","pricing_plan_id":"cebpf4jnsgd1na2vs0mg"},{"bike_id":"a8230ba2-3669-49a7-8df5-8010aa177021","system_id":"levelo_inurba_marseille","lat":43.29043,"lon":5.39976,"is_reserved":false,"is_disabled":false,"rental_uris":{"android":"levelo://app?vid=a8230ba2-3669-49a7-8df5-8010aa177021","ios":"levelo://app?vid=a8230ba2-3669-49a7-8df5-8010aa177021"},"vehicle_type_id":"4","last_reported":1740730362,"current_range_meters":17200,"station_id":"ce4bh392rcd13ifvqdm0","pricing_plan_id":"cebpf4jnsgd1na2vs0mg"},{"bike_id":"766f9252-76ba-4151-9194-6d162e66f1d3","system_id":"levelo_inurba_marseille","lat":43.24807,"lon":5.37459,"is_reserved":false,"is_disabled":false,"rental_uris":{"android":"levelo://app?vid=766f9252-76ba-4151-9194-6d162e66f1d3","ios":"levelo://app?vid=766f9252-76ba-4151-9194-6d162e66f1d3"},"vehicle_type_id":"4","last_reported":1740730362,"current_range_meters":17200,"station_id":"ce4bhgh2rcd13ifvqfb0","pricing_plan_id":"cebpf4jnsgd1na2vs0mg"},{"bike_id":"e14b89e4-e594-48d5-8dbd-a72d8c597903","system_id":"levelo_inurba_marseille","lat":43.2621,"lon":5.37443,"is_reserved":false,"is_disabled":false,"rental_uris":{"android":"levelo://app?vid=e14b89e4-e594-48d5-8dbd-a72d8c597903","ios":"levelo://app?vid=e14b89e4-e594-48d5-8dbd-a72d8c597903"},"vehicle_type_id":"4","last_reported":1740730362,"current_range_meters":17200,"station_id":"ce4bhgp2rcd13ifvqfc0","pricing_plan_id":"cebpf4jnsgd1na2vs0mg"},{"bike_id":"7a6c2761-e238-46fb-9b01-90b69aa5a7e9","system_id":"levelo_inurba_marseille","lat":43.23154,"lon":5.43707,"is_reserved":false,"is_disabled":false,"rental_uris":{"android":"levelo://app?vid=7a6c2761-e238-46fb-9b01-90b69aa5a7e9","ios":"levelo://app?vid=7a6c2761-e238-46fb-9b01-90b69aa5a7e9"},"vehicle_type_id":"4","last_reported":1740730362,"current_range_meters":17200,"station_id":"ce4bhmp2rcd13ifvqgog","pricing_plan_id":"cebpf4jnsgd1na2vs0mg"},{"bike_id":"695e9a27-d903-4bbc-b050-bcc463be80aa","system_id":"levelo_inurba_marseille","lat":43.24161,"lon":5.36421,"is_reserved":false,"is_disabled":false,"rental_uris":{"android":"levelo://app?vid=695e9a27-d903-4bbc-b050-bcc463be80aa","ios":"levelo://app?vid=695e9a27-d903-4bbc-b050-bcc463be80aa"},"vehicle_type_id":"4","last_reported":1740730362,"current_range_meters":17200,"station_id":"cpo36qri1sfpv3e86is0","pricing_plan_id":"cebpf4jnsgd1na2vs0mg"},{"bike_id":"4015c440-7267-44b4-8be2-f4b87cb51aa9","system_id":"levelo_inurba_marseille","lat":43.25498,"lon":5.38332,"is_reserved":false,"is_disabled":false,"rental_uris":{"android":"levelo://app?vid=4015c440-7267-44b4-8be2-f4b87cb51aa9","ios":"levelo://app?vid=4015c440-7267-44b4-8be2-f4b87cb51aa9"},"vehicle_type_id":"4","last_reported":1740730362,"current_range_meters":17600,"station_id":"","pricing_plan_id":"cebpf4jnsgd1na2vs0mg"},{"bike_id":"3b51f321-7860-478d-8dcb-446f467539e5","system_id":"levelo_inurba_marseille","lat":43.3143,"lon":5.36728,"is_reserved":false,"is_disabled":false,"rental_uris":{"android":"levelo://app?vid=3b51f321-7860-478d-8dcb-446f467539e5","ios":"levelo://app?vid=3b51f321-7860-478d-8dcb-446f467539e5"},"vehicle_type_id":"4","last_reported":1740730362,"current_range_meters":17600,"station_id":"","pricing_plan_id":"cebpf4jnsgd1na2vs0mg"},{"bike_id":"b9286100-9f76-4cd7-8e5c-52eab453158d","system_id":"levelo_inurba_marseille","lat":43.3134,"lon":5.36716,"is_reserved":false,"is_disabled":false,"rental_uris":{"android":"levelo://app?vid=b9286100-9f76-4cd7-8e5c-52eab453158d","ios":"levelo://app?vid=b9286100-9f76-4cd7-8e5c-52eab453158d"},"vehicle_type_id":"4","last_reported":1740730362,"current_range_meters":17600,"station_id":"ce4bgr92rcd13ifvqc6g","pricing_plan_id":"cebpf4jnsgd1na2vs0mg"},{"bike_id":"0ac48b88-9575-480a-b741-fa50c320253c","system_id":"levelo_inurba_marseille","lat":43.30467,"lon":5.37904,"is_reserved":false,"is_disabled":false,"rental_uris":{"android":"levelo://app?vid=0ac48b88-9575-480a-b741-fa50c320253c","ios":"levelo://app?vid=0ac48b88-9575-480a-b741-fa50c320253c"},"vehicle_type_id":"4","last_reported":1740730362,"current_range_meters":17600,"station_id":"ce4bgup2rcd13ifvqcn0","pricing_plan_id":"cebpf4jnsgd1na2vs0mg"},{"bike_id":"251e8133-9fad-4e15-8c43-054b20a1a32c","system_id":"levelo_inurba_marseille","lat":43.30477,"lon":5.37904,"is_reserved":false,"is_disabled":false,"rental_uris":{"android":"levelo://app?vid=251e8133-9fad-4e15-8c43-054b20a1a32c","ios":"levelo://app?vid=251e8133-9fad-4e15-8c43-054b20a1a32c"},"vehicle_type_id":"4","last_reported":1740730362,"current_range_meters":17600,"station_id":"ce4bgup2rcd13ifvqcn0","pricing_plan_id":"cebpf4jnsgd1na2vs0mg"},