{"last_updated":1762967468,"ttl":60,"version":"2.2","data":{"bikes":[{"bike_id":"d7db12ce-11cc-4c98-8751-ac59baa5d7aa","system_id":"levelo_inurba_marseille","lat":43.337444,"lon":5.374475,"is_reserved":false,"is_disabled":false,"rental_uris":{"android":"levelo://app?vid=d7db12ce-11cc-4c98-8751-ac59baa5d7aa","ios":"levelo://app?vid=d7db12ce-11cc-4c98-8751-ac59baa5d7aa"},"vehicle_type_id":"4","last_reported":1762967468,"current_range_meters":0,"station_id":"","pricing_plan_id":"cebpf4jnsgd1na2vs0mg"},{"bike_id":"e9dc6395-99e9-4a13-b655-cf6375e7ba3f","system_id":"levelo_inurba_marseille","lat":43.26945,"lon":5.40264,"is_reserved":false,"is_disabled":false,"rental_uris":{"android":"levelo://app?vid=e9dc6395-99e9-4a13-b655-cf6375e7ba3f","ios":"levelo://app?vid=e9dc6395-99e9-4a13-b655-cf6375e7ba3f"},"vehicle_type_id":"4","last_reported":1762967468,"current_range_meters":2800,"station_id":"cjm6bp8fraef2m0cb0m0","pricing_plan_id":"cebpf4jnsgd1na2vs0mg"},{"bike_id":"9b63db5e-8795-4b9e-88a1-77abe94effbd","system_id":"levelo_inurba_marseille","lat":43.28477,"lon":5.48391,"is_reserved":false,"is_disabled":false,"rental_uris":{"android":"levelo://app?vid=9b63db5e-8795-4b9e-88a1-77abe94effbd","ios":"levelo://app?vid=9b63db5e-8795-4b9e-88a1-77abe94effbd"},"vehicle_type_id":"4","last_reported":1762967468,"current_range_meters":2800,"station_id":"st_d3svhcjqgbts73a3dn0g","pricing_plan_id":"cebpf4jnsgd1na2vs0mg"},{"bike_id":"cc29f600-7683-4a5a-a06d-b0b3491d3956","system_id":"levelo_inurba_marseille","lat":43.249497,"lon":5.404803,"is_reserved":false,"is_disabled":false,"rental_uris":{"android":"levelo://app?vid=cc29f600-7683-4a5a-a06d-b0b3491d3956","ios":"levelo://app?vid=cc29f600-7683-4a5a-a06d-b0b3491d3956"},"vehicle_type_id":"4","last_reported":1762967468,"current_range_meters":2800,"station_id":"st_d2ngiaodas8pm72gd1h0","pricing_plan_id":"cebpf4jnsgd1na2vs0mg"},{"bike_id":"fe2eac4b-44c9-4162-a1db-efda30c27bb9","system_id":"levelo_inurba_marseille","lat":43.25825,"lon":5.39437,"is_reserved":false,"is_disabled":false,"rental_uris":{"android":"levelo://app?vid=fe2eac4b-44c9-4162-a1db-efda30c27bb9","ios":"levelo://app?vid=fe2eac4b-44c9-4162-a1db-efda30c27bb9"},"vehicle_type_id":"4","last_reported":1762967468,"current_range_meters":3200,"station_id":"ce4bhip2rcd13ifvqft0","pricing_plan_id":"cebpf4jnsgd1na2vs0mg"},{"bike_id":"7d4f02dc-1b13-47a6-b728-a1d525cbeef0","system_id":"levelo_inurba_marseille","lat":43.29434,"lon":5.39755,"is_reserved":false,"is_disabled":false,"rental_uris":{"android":"levelo://app?vid=7d4f02dc-1b13-47a6-b728-a1d525cbeef0","ios":"levelo://app?vid=7d4f02dc-1b13-47a6-b728-a1d525cbeef0"},"vehicle_type_id":"4","last_reported":1762967468,"current_range_meters":3200,"station_id":"ce4bh3h2rcd13ifvqdo0","pricing_plan_id":"cebpf4jnsgd1na2vs0mg"},{"bike_id":"a338c5ea-c5dd-4d8c-9977-ceccec9d3f3a","system_id":"levelo_inurba_marseille","lat":43.251077,"lon":5.403224,"is_reserved":false,"is_disabled":false,"rental_uris":{"android":"levelo://app?vid=a338c5ea-c5dd-4d8c-9977-ceccec9d3f3a","ios":"levelo://app?vid=a338c5ea-c5dd-4d8c-9977-ceccec9d3f3a"},"vehicle_type_id":"4","last_reported":1762967468,"current_range_meters":3200,"station_id":"ce4bhlh2rcd13ifvqgig","pricing_plan_id":"cebpf4jnsgd1na2vs0mg"},{"bike_id":"ef02c019-dd61-46fb-80e5-5341c8356fd7","system_id":"levelo_inurba_marseille","lat":43.30137,"lon":5.39864,"is_reserved":false,"is_disabled":false,"rental_uris":{"android":"levelo://app?vid=ef02c019-dd61-46fb-80e5-5341c8356fd7","ios":"levelo://app?vid=ef02c019-dd61-46fb-80e5-5341c8356fd7"},"vehicle_type_id":"4","last_reported":1762967468,"current_range_meters":3200,"station_id":"ce4bh0h2rcd13ifvqd40","pricing_plan_id":"cebpf4jnsgd1na2vs0mg"},{"bike_id":"89b7f424-aa57-41f8-b9ff-91cba508fd25","system_id":"levelo_inurba_marseille","lat":43.28149,"lon":5.4264,"is_reserved":false,"is_disabled":false,"rental_uris":{"android":"levelo://app?vid=89b7f424-aa57-41f8-b9ff-91cba508fd25","ios":"levelo://app?vid=89b7f424-aa57-41f8-b9ff-91cba508fd25"},"vehicle_type_id":"4","last_reported":1762967468,"current_range_meters":3200,"station_id":"ce4bhnh2rcd13ifvqgug","pricing_plan_id":"cebpf4jnsgd1na2vs0mg"},{"bike_id":"349b2ad9-adea-4dd9-9ac9-fffb121b5424","system_id":"levelo_inurba_marseille","lat":43.29892,"lon":5.37537,"is_reserved":false,"is_disabled":false,"rental_uris":{"android":"levelo://app?vid=349b2ad9-adea-4dd9-9ac9-fffb121b5424","ios":"levelo://app?vid=349b2ad9-adea-4dd9-9ac9-fffb121b5424"},"vehicle_type_id":"4","last_reported":1762967468,"current_range_meters":3600,"station_id":"","pricing_plan_id":"cebpf4jnsgd1na2vs0mg"},{"bike_id":"802138df-7e08-4b45-9638-453677775711","system_id":"levelo_inurba_marseille","lat":43.25585,"lon":5.38229,"is_reserved":false,"is_disabled":false,"rental_uris":{"android":"levelo://app?vid=802138df-7e08-4b45-9638-453677775711","ios":"levelo://app?vid=802138df-7e08-4b45-9638-453677775711"},"vehicle_type_id":"4","last_reported":1762967468,"current_range_meters":3600,"station_id":"ce4bhih2rcd13ifvqfs0","pricing_plan_id":"cebpf4jnsgd1na2vs0mg"},{"bike_id":"078e743d-1e79-4e44-b55b-a25e1bf21687","system_id":"levelo_inurba_marseille","lat":43.30885,"lon":5.39655,"is_reserved":false,"is_disabled":false,"rental_uris":{"android":"levelo://app?vid=078e743d-1e79-4e44-b55b-a25e1bf21687","ios":"levelo://app?vid=078e743d-1e79-4e44-b55b-a25e1bf21687"},"vehicle_type_id":"4","last_reported":1762967468,"current_range_meters":3600,"station_id":"ce4bh012rcd13ifvqcv0","pricing_plan_id":"cebpf4jnsgd1na2vs0mg"},{"bike_id":"89535730-1e58-4e5d-948e-f8af6f9d7e31","system_id":"levelo_inurba_marseille","lat":43.293671,"lon":5.37843,"is_reserved":false,"is_disabled":false,"rental_uris":{"android":"levelo://app?vid=89535730-1e58-4e5d-948e-f8af6f9d7e31","ios":"levelo://app?vid=89535730-1e58-4e5d-948e-f8af6f9d7e31"},"vehicle_type_id":"4","last_reported":1762967468,"current_range_meters":3600,"station_id":"ce4bgjh2rcd13ifvqbf0","pricing_plan_id":"cebpf4jnsgd1na2vs0mg"},{"bike_id":"f539c423-d958-4cea-91a2-cfb13f39c26d","system_id":"levelo_inurba_marseille","lat":43.29445,"lon":5.39754,"is_reserved":false,"is_disabled":false,"rental_uris":{"android":"levelo://app?vid=f539c423-d958-4cea-91a2-cfb13f39c26d","ios":"levelo://app?vid=f539c423-d958-4cea-91a2-cfb13f39c26d"},"vehicle_type_id":"4","last_reported":1762967468,"current_range_meters":3600,"station_id":"ce4bh3h2rcd13ifvqdo0","pricing_plan_id":"cebpf4jnsgd1na2vs0mg"},{"bike_id":"4ac0b8d2-a557-4b7b-a887-0ebde746680e","system_id":"levelo_inurba_marseille","lat":43.23779,"lon":5.36633,"is_reserved":false,"is_disabled":false,"rental_uris":{"android":"levelo://app?vid=4ac0b8d2-a557-4b7b-a887-0ebde746680e","ios":"levelo://app?vid=4ac0b8d2-a557-4b7b-a887-0ebde746680e"},"vehicle_type_id":"4","last_reported":1762967468,"current_range_meters":3600,"station_id":"st_d3nk18o9ro0c73en2l3g","pricing_plan_id":"cebpf4jnsgd1na2vs0mg"},{"bike_id":"f434bd96-9b74-42a1-bdd0-4dcf131836cb","system_id":"levelo_inurba_marseille","lat":43.28229,"lon":5.39071,"is_reserved":false,"is_disabled":false,"rental_uris":{"android":"levelo://app?vid=f434bd96-9b74-42a1-bdd0-4dcf131836cb","ios":"levelo://app?vid=f434bd96-9b74-42a1-bdd0-4dcf131836cb"},"vehicle_type_id":"4","last_reported":1762967468,"current_range_meters":4000,"station_id":"ce4bhn92rcd13ifvqgsg","pricing_plan_id":"cebpf4jnsgd1na2vs0mg"},{"bike_id":"32786e20-c93d-406d-b060-f4b7be44b2b3","system_id":"levelo_inurba_marseille","lat":43.28436,"lon":5.39168,"is_reserved":false,"is_disabled":false,"rental_uris":{"android":"levelo://app?vid=32786e20-c93d-406d-b060-f4b7be44b2b3","ios":"levelo://app?vid=32786e20-c93d-406d-b060-f4b7be44b2b3"},"vehicle_type_id":"4","last_reported":1762967468,"current_range_meters":4000,"station_id":"ce4bh412rcd13ifvqds0","pricing_plan_id":"cebpf4jnsgd1na2vs0mg"},{"bike_id":"62da84d0-7b33-4437-9377-83a424aee13a","system_id":"levelo_inurba_marseille","lat":43.308021,"lon":5.43532,"is_reserved":false,"is_disabled":false,"rental_uris":{"android":"levelo://app?vid=62da84d0-7b33-4437-9377-83a424aee13a","ios":"levelo://app?vid=62da84d0-7b33-4437-9377-83a424aee13a"},"vehicle_type_id":"4","last_reported":1762967468,"current_range_meters":4000,"station_id":"","pricing_plan_id":"cebpf4jnsgd1na2vs0mg"},{"bike_id":"0cd08fe1-a389-4cf8-a5fd-8aa8151f14b9","system_id":"levelo_inurba_marseille","lat":43.27544,"lon":5.38442,"is_reserved":false,"is_disabled":false,"rental_uris":{"android":"levelo://app?vid=0cd08fe1-a389-4cf8-a5fd-8aa8151f14b9","ios":"levelo://app?vid=0cd08fe1-a389-4cf8-a5fd-8aa8151f14b9"},"vehicle_type_id":"4","last_reported":1762967468,"current_range_meters":4000,"station_id":"ce4bhh92rcd13ifvqfi0","pricing_plan_id":"cebpf4jnsgd1na2vs0mg"},{"bike_id":"f86bf3ee-33fc-43ec-8951-0e53c52e0400","system_id":"levelo_inurba_marseille","lat":43.29222,"lon":5.35807,"is_reserved":false,"is_disabled":false,"rental_uris":{"android":"levelo://app?vid=f86bf3ee-33fc-43ec-8951-0e53c52e0400","ios":"levelo://app?vid=f86bf3ee-33fc-43ec-8951-0e53c52e0400"},"vehicle_type_id":"4","last_reported":1762967468,"current_range_meters":4000,"station_id":"ce4bhb12rcd13ifvqel0","pricing_plan_id":"cebpf4jnsgd1na2vs0mg"},{"bike_id":"04168dba-a497-4554-9d64-2b6d136c8288","system_id":"levelo_inurba_marseille","lat":43.28083,"lon":5.39658,"is_reserved":false,"is_disabled":false,"rental_uris":{"android":"levelo://app?vid=04168dba-a497-4554-9d64-2b6d136c8288","ios":"levelo://app?vid=04168dba-a497-4554-9d64-2b6d136c8288"},"vehicle_type_id":"4","last_reported":1762967468,"current_range_meters":4400,"station_id":"ce4bho12rcd13ifvqh2g","pricing_plan_id":"cebpf4jnsgd1na2vs0mg"},{"bike_id":"78c02fc6-e82d-47d7-9878-3e48a9dafbc2","system_id":"levelo_inurba_marseille","lat":43.28546,"lon":5.44081,"is_reserved":false,"is_disabled":false,"rental_uris":{"android":"levelo://app?vid=78c02fc6-e82d-47d7-9878-3e48a9dafbc2","ios":"levelo://app?vid=78c02fc6-e82d-47d7-9878-3e48a9dafbc2"},"vehicle_type_id":"4","last_reported":1762967468,"current_range_meters":4400,"station_id":"st_d3j3df2ikq2c7380ej80","pricing_plan_id":"cebpf4jnsgd1na2vs0mg"},{"bike_id":"ac6f324a-8bad-4e21-8e38-6807d6a983da","system_id":"levelo_inurba_marseille","lat":43.24182,"lon":5.39728,"is_reserved":false,"is_disabled":false,"rental_uris":{"android":"levelo://app?vid=ac6f324a-8bad-4e21-8e38-6807d6a983da","ios":"levelo://app?vid=ac6f324a-8bad-4e21-8e38-6807d6a983da"},"vehicle_type_id":"4","last_reported":1762967468,"current_range_meters":4400,"station_id":"ce4bhn12rcd13ifvqgpg","pricing_plan_id":"cebpf4jnsgd1na2vs0mg"},{"bike_id":"b49ac03c-5f87-4813-95b2-5853c2d60fe5","system_id":"levelo_inurba_marseille","lat":43.283465,"lon":5.381062,"is_reserved":false,"is_disabled":false,"rental_uris":{"android":"levelo://app?vid=b49ac03c-5f87-4813-95b2-5853c2d60fe5","ios":"levelo://app?vid=b49ac03c-5f87-4813-95b2-5853c2d60fe5"},"vehicle_type_id":"4","last_reported":1762967468,"current_range_meters":4400,"station_id":"ce4bh412rcd13ifvqdr0","pricing_plan_id":"cebpf4jnsgd1na2vs0mg"},{"bike_id":"81c14aa1-d6aa-45a6-be36-b8aff42a9b37","system_id":"levelo_inurba_marseille","lat":43.30139,"lon":5.38764,"is_reserved":false,"is_disabled":false,"rental_uris":{"android":"levelo://app?vid=81c14aa1-d6aa-45a6-be36-b8aff42a9b37","ios":"levelo://app?vid=81c14aa1-d6aa-45a6-be36-b8aff42a9b37"},"vehicle_type_id":"4","last_reported":1762967468,"current_range_meters":4800,"station_id":"ce4bghh2rcd13ifvqb60","pricing_plan_id":"cebpf4jnsgd1na2vs0mg"},{"bike_id":"16352e7f-c034-4ef1-8a6e-b54abc767aa3","system_id":"levelo_inurba_marseille","lat":43.31341,"lon":5.37471,"is_reserved":false,"is_disabled":false,"rental_uris":{"android":"levelo://app?vid=16352e7f-c034-4ef1-8a6e-b54abc767aa3","ios":"levelo://app?vid=16352e7f-c034-4ef1-8a6e-b54abc767aa3"},"vehicle_type_id":"4","last_reported":1762967468,"current_range_meters":4800,"station_id":"","pricing_plan_id":"cebpf4jnsgd1na2vs0mg"},{"bike_id":"983630a6-1f46-4c8d-be72-6809c5239003","system_id":"levelo_inurba_marseille","lat":43.297846,"lon":5.393421,"is_reserved":false,"is_disabled":false,"rental_uris":{"android":"levelo://app?vid=983630a6-1f46-4c8d-be72-6809c5239003","ios":"levelo://app?vid=983630a6-1f46-4c8d-be72-6809c5239003"},"vehicle_type_id":"4","last_reported":1762967468,"current_range_meters":4800,"station_id":"chh1huq6cuj3fo74tm60","pricing_plan_id":"cebpf4jnsgd1na2vs0mg"},{"bike_id":"cfb02c17-8471-466a-8bbc-4f722e7da503","system_id":"levelo_inurba_marseille","lat":43.290278,"lon":5.37553,"is_reserved":false,"is_disabled":false,"rental_uris":{"android":"levelo://app?vid=cfb02c17-8471-466a-8bbc-4f722e7da503","ios":"levelo://app?vid=cfb02c17-8471-466a-8bbc-4f722e7da503"},"vehicle_type_id":"4","last_reported":1762967468,"current_range_meters":4800,"station_id":"ce4bh692rcd13ifvqe90","pricing_plan_id":"cebpf4jnsgd1na2vs0mg"},{"bike_id":"d7026fc3-a346-49bd-8209-179291ba2736","system_id":"levelo_inurba_marseille","lat":43.29884,"lon":5.38432,"is_reserved":false,"is_disabled":false,"rental_uris":{"android":"levelo://app?vid=d7026fc3-a346-49bd-8209-179291ba2736","ios":"levelo://app?vid=d7026fc3-a346-49bd-8209-179291ba2736"},"vehicle_type_id":"4","last_reported":1762967468,"current_range_meters":4800,"station_id":"","pricing_plan_id":"cebpf4jnsgd1na2vs0mg"},{"bike_id":"a71e59d7-e0b1-4a09-85d4-bc5a8b5d893c","system_id":"levelo_inurba_marseille","lat":43.29452,"lon":5.3754,"is_reserved":false,"is_disabled":false,"rental_uris":{"android":"levelo://app?vid=a71e59d7-e0b1-4a09-85d4-bc5a8b5d893c","ios":"levelo://app?vid=a71e59d7-e0b1-4a09-85d4-bc5a8b5d893c"},"vehicle_type_id":"4","last_reported":1762967468,"current_range_meters":5600,"station_id":"","pricing_plan_id":"cebpf4jnsgd1na2vs0mg"},{"bike_id":"258cfa4a-e37c-4553-bf93-53421e2a9ec2","system_id":"levelo_inurba_marseille","lat":43.30199,"lon":5.36624,"is_reserved":false,"is_disabled":false,"rental_uris":{"android":"levelo://app?vid=258cfa4a-e37c-4553-bf93-53421e2a9ec2","ios":"levelo://app?vid=258cfa4a-e37c-4553-bf93-53421e2a9ec2"},"vehicle_type_id":"4","last_reported":1762967468,"current_range_meters":6000,"station_id":"ce4bgrh2rcd13ifvqc8g","pricing_plan_id":"cebpf4jnsgd1na2vs0mg"},{"bike_id":"79f1830c-498e-42c7-b4bc-6b0f7ba6308a","system_id":"levelo_inurba_marseille","lat":43.2952,"lon":5.37514,"is_reserved":false,"is_disabled":false,"rental_uris":{"android":"levelo://app?vid=79f1830c-498e-42c7-b4bc-6b0f7ba6308a","ios":"levelo://app?vid=79f1830c-498e-42c7-b4bc-6b0f7ba6308a"},"vehicle_type_id":"4","last_reported":1762967468,"current_range_meters":6000,"station_id":"ce4bgkp2rcd13ifvqbmg","pricing_plan_id":"cebpf4jnsgd1na2vs0mg"},{"bike_id":"47676d4b-98fb-4816-9bed-05a999b3f22e","system_id":"levelo_inurba_marseille","lat":43.3133,"lon":5.39693,"is_reserved":false,"is_disabled":false,"rental_uris":{"android":"levelo://app?vid=47676d4b-98fb-4816-9bed-05a999b3f22e","ios":"levelo://app?vid=47676d4b-98fb-4816-9bed-05a999b3f22e"},"vehicle_type_id":"4","last_reported":1762967468,"current_range_meters":6000,"station_id":"ce4bgvp2rcd13ifvqcu0","pricing_plan_id":"cebpf4jnsgd1na2vs0mg"},{"bike_id":"d0a36946-44f0-4ebc-a416-e9b8bf95aa85","system_id":"levelo_inurba_marseille","lat":43.3248,"lon":5.36562,"is_reserved":false,"is_disabled":false,"rental_uris":{"android":"levelo://app?vid=d0a36946-44f0-4ebc-a416-e9b8bf95aa85","ios":"levelo://app?vid=d0a36946-44f0-4ebc-a416-e9b8bf95aa85"},"vehicle_type_id":"4","last_reported":1762967468,"current_range_meters":6000,"station_id":"ce4bhs12rcd13ifvqhvg","pricing_plan_id":"cebpf4jnsgd1na2vs0mg"},{"bike_id":"e0467342-2ee8-4c36-aeb9-27d25d94ead5","system_id":"levelo_inurba_marseille","lat":43.28162,"lon":5.42656,"is_reserved":false,"is_disabled":true,"rental_uris":{"android":"levelo://app?vid=e0467342-2ee8-4c36-aeb9-27d25d94ead5","ios":"levelo://app?vid=e0467342-2ee8-4c36-aeb9-27d25d94ead5"},"vehicle_type_id":"4","last_reported":1762967468,"current_range_meters":6000,"station_id":"ce4bhnh2rcd13ifvqgug","pricing_plan_id":"cebpf4jnsgd1na2vs0mg"},{"bike_id":"f210c5d9-e6c9-4a47-a92c-7d32d99c058f","system_id":"levelo_inurba_marseille","lat":43.303512,"lon":5.39697,"is_reserved":false,"is_disabled":false,"rental_uris":{"android":"levelo://app?vid=f210c5d9-e6c9-4a47-a92c-7d32d99c058f","ios":"levelo://app?vid=f210c5d9-e6c9-4a47-a92c-7d32d99c058f"},"vehicle_type_id":"4","last_reported":1762967468,"current_range_meters":6400,"station_id":"","pricing_plan_id":"cebpf4jnsgd1na2vs0mg"},{"bike_id":"9aab732d-99d8-458a-aff5-1ef833353481","system_id":"levelo_inurba_marseille","lat":43.29814,"lon":5.37794,"is_reserved":false,"is_disabled":false,"rental_uris":{"android":"levelo://app?vid=9aab732d-99d8-458a-aff5-1ef833353481","ios":"levelo://app?vid=9aab732d-99d8-458a-aff5-1ef833353481"},"vehicle_type_id":"4","last_reported":1762967468,"current_range_meters":6400,"station_id":"","pricing_plan_id":"cebpf4jnsgd1na2vs0mg"},{"bike_id":"cd05a308-9dd6-4c40-b17f-e7ce6fce676b","system_id":"levelo_inurba_marseille","lat":43.30779,"lon":5.37656,"is_reserved":false,"is_disabled":false,"rental_uris":{"android":"levelo://app?vid=cd05a308-9dd6-4c40-b17f-e7ce6fce676b","ios":"levelo://app?vid=cd05a308-9dd6-4c40-b17f-e7ce6fce676b"},"vehicle_type_id":"4","last_reported":1762967468,"current_range_meters":6400,"station_id":"ce4bgv92rcd13ifvqcq0","pricing_plan_id":"cebpf4jnsgd1na2vs0mg"},{"bike_id":"1f60d560-4ab5-4346-baf2-47d1d4e44cb9","system_id":"levelo_inurba_marseille","lat":43.255175,"lon":5.376544,"is_reserved":false,"is_disabled":false,"rental_uris":{"android":"levelo://app?vid=1f60d560-4ab5-4346-baf2-47d1d4e44cb9","ios":"levelo://app?vid=1f60d560-4ab5-4346-baf2-47d1d4e44cb9"},"vehicle_type_id":"4","last_reported":1762967468,"current_range_meters":6400,"station_id":"ce4bhh12rcd13ifvqff0","pricing_plan_id":"cebpf4jnsgd1na2vs0mg"},{"bike_id":"861892f2-0af0-40fe-b698-191d9906341b","system_id":"levelo_inurba_marseille","lat":43.30886,"lon":5.3719,"is_reserved":false,"is_disabled":true,"rental_uris":{"android":"levelo://app?vid=861892f2-0af0-40fe-b698-191d9906341b","ios":"levelo://app?vid=861892f2-0af0-40fe-b698-191d9906341b"},"vehicle_type_id":"4","last_reported":1762967468,"current_range_meters":6400,"station_id":"ce4bguh2rcd13ifvqckg","pricing_plan_id":"cebpf4jnsgd1na2vs0mg"},{"bike_id":"f903084c-25d4-4e46-a0d9-3626ad51e688","system_id":"levelo_inurba_marseille","lat":43.2844,"lon":5.39197,"is_reserved":false,"is_disabled":false,"rental_uris":{"android":"levelo://app?vid=f903084c-25d4-4e46-a0d9-3626ad51e688","ios":"levelo://app?vid=f903084c-25d4-4e46-a0d9-3626ad51e688"},"vehicle_type_id":"4","last_reported":1762967468,"current_range_meters":6400,"station_id":"ce4bhoh2rcd13ifvqh5g","pricing_plan_id":"cebpf4jnsgd1na2vs0mg"},{"bike_id":"062309fe-d670-4a5b-aeb7-bdb1d7ecdc50","system_id":"levelo_inurba_marseille","lat":43.31687,"lon":5.40476,"is_reserved":false,"is_disabled":false,"rental_uris":{"android":"levelo://app?vid=062309fe-d670-4a5b-aeb7-bdb1d7ecdc50","ios":"levelo://app?vid=062309fe-d670-4a5b-aeb7-bdb1d7ecdc50"},"vehicle_type_id":"4","last_reported":1762967468,"current_range_meters":6400,"station_id":"ce4bh012rcd13ifvqd00","pricing_plan_id":"cebpf4jnsgd1na2vs0mg"},{"bike_id":"2fc78f48-5f57-44c8-8ebe-e2499d280ac3","system_id":"levelo_inurba_marseille","lat":43.28219,"lon":5.39066,"is_reserved":false,"is_disabled":false,"rental_uris":{"android":"levelo://app?vid=2fc78f48-5f57-44c8-8ebe-e2499d280ac3","ios":"levelo://app?vid=2fc78f48-5f57-44c8-8ebe-e2499d280ac3"},"vehicle_type_id":"4","last_reported":1762967468,"current_range_meters":6400,"station_id":"ce4bhn92rcd13ifvqgsg","pricing_plan_id":"cebpf4jnsgd1na2vs0mg"},{"bike_id":"2a361e53-132b-41a8-b762-e9c019f9118b","system_id":"levelo_inurba_marseille","lat":43.301453,"lon":5.374203,"is_reserved":false,"is_disabled":false,"rental_uris":{"android":"levelo://app?vid=2a361e53-132b-41a8-b762-e9c019f9118b","ios":"levelo://app?vid=2a361e53-132b-41a8-b762-e9c019f9118b"},"vehicle_type_id":"4","last_reported":1762967468,"current_range_meters":6400,"station_id":"ce4bgs92rcd13ifvqcc0","pricing_plan_id":"cebpf4jnsgd1na2vs0mg"},{"bike_id":"eebd3c1f-9919-4c6f-b090-50b34bf4b306","system_id":"levelo_inurba_marseille","lat":43.29029,"lon":5.38648,"is_reserved":false,"is_disabled":false,"rental_uris":{"android":"levelo://app?vid=eebd3c1f-9919-4c6f-b090-50b34bf4b306","ios":"levelo://app?vid=eebd3c1f-9919-4c6f-b090-50b34bf4b306"},"vehicle_type_id":"4","last_reported":1762967468,"current_range_meters":6800,"station_id":"ce4bh4p2rcd13ifvqe0g","pricing_plan_id":"cebpf4jnsgd1na2vs0mg"},{"bike_id":"3d679e32-4c43-4ac5-a3b8-30a8151ac7d7","system_id":"levelo_inurba_marseille","lat":43.28836,"lon":5.3932,"is_reserved":false,"is_disabled":false,"rental_uris":{"android":"levelo://app?vid=3d679e32-4c43-4ac5-a3b8-30a8151ac7d7","ios":"levelo://app?vid=3d679e32-4c43-4ac5-a3b8-30a8151ac7d7"},"vehicle_type_id":"4","last_reported":1762967468,"current_range_meters":6800,"station_id":"ce4bh2p2rcd13ifvqdi0","pricing_plan_id":"cebpf4jnsgd1na2vs0mg"},{"bike_id":"73e6d42c-c423-492f-aa80-2acd500dc493","system_id":"levelo_inurba_marseille","lat":43.28363,"lon":5.386186,"is_reserved":false,"is_disabled":false,"rental_uris":{"android":"levelo://app?vid=73e6d42c-c423-492f-aa80-2acd500dc493","ios":"levelo://app?vid=73e6d42c-c423-492f-aa80-2acd500dc493"},"vehicle_type_id":"4","last_reported":1762967468,"current_range_meters":6800,"station_id":"ce4bh492rcd13ifvqdvg","pricing_plan_id":"cebpf4jnsgd1na2vs0mg"},{"bike_id":"62a14efb-5f7a-4e0d-bbfa-d4a60d07f475","system_id":"levelo_inurba_marseille","lat":43.297551,"lon":5.373138,"is_reserved":false,"is_disabled":false,"rental_uris":{"android":"levelo://app?vid=62a14efb-5f7a-4e0d-bbfa-d4a60d07f475","ios":"levelo://app?vid=62a14efb-5f7a-4e0d-bbfa-d4a60d07f475"},"vehicle_type_id":"4","last_reported":1762967468,"current_range_meters":6800,"station_id":"","pricing_plan_id":"cebpf4jnsgd1na2vs0mg"},{"bike_id":"e0ed7929-20a1-4d5c-ab67-3994c5a84870","system_id":"levelo_inurba_marseille","lat":43.252316,"lon":5.406327,"is_reserved":false,"is_disabled":false,"rental_uris":{"android":"levelo://app?vid=e0ed7929-20a1-4d5c-ab67-3994c5a84870","ios":"levelo://app?vid=e0ed7929-20a1-4d5c-ab67-3994c5a84870"},"vehicle_type_id":"4","last_reported":1762967468,"current_range_meters":6800,"station_id":"","pricing_plan_id":"cebpf4jnsgd1na2vs0mg"},{"bike_id":"b1912dc6-562a-409a-b346-1626d61f3a69","system_id":"levelo_inurba_marseille","lat":43.25581,"lon":5.38241,"is_reserved":false,"is_disabled":true,"rental_uris":{"android":"levelo://app?vid=b1912dc6-562a-409a-b346-1626d61f3a69","ios":"levelo://app?vid=b1912dc6-562a-409a-b346-1626d61f3a69"},"vehicle_type_id":"4","last_reported":1762967468,"current_range_meters":6800,"station_id":"ce4bhih2rcd13ifvqfs0","pricing_plan_id":"cebpf4jnsgd1na2vs0mg"},{"bike_id":"3bf2d211-0a01-41b9-b051-8f097fb0b555","system_id":"levelo_inurba_marseille","lat":43.28436,"lon":5.39196,"is_reserved":false,"is_disabled":false,"rental_uris":{"android":"levelo://app?vid=3bf2d211-0a01-41b9-b051-8f097fb0b555","ios":"levelo://app?vid=3bf2d211-0a01-41b9-b051-8f097fb0b555"},"vehicle_type_id":"4","last_reported":1762967468,"current_range_meters":6800,"station_id":"ce4bhoh2rcd13ifvqh5g","pricing_plan_id":"cebpf4jnsgd1na2vs0mg"},{"bike_id":"487ea418-8ddb-4133-9586-f99af9eb9949","system_id":"levelo_inurba_marseille","lat":43.23783,"lon":5.36632,"is_reserved":false,"is_disabled":false,"rental_uris":{"android":"levelo://app?vid=487ea418-8ddb-4133-9586-f99af9eb9949","ios":"levelo://app?vid=487ea418-8ddb-4133-9586-f99af9eb9949"},"vehicle_type_id":"4","last_reported":1762967468,"current_range_meters":7200,"station_id":"st_d3nk18o9ro0c73en2l3g","pricing_plan_id":"cebpf4jnsgd1na2vs0mg"},{"bike_id":"1a7d3907-5777-4ba9-8c01-d248f0b42b87","system_id":"levelo_inurba_marseille","lat":43.24658,"lon":5.38157,"is_reserved":false,"is_disabled":false,"rental_uris":{"android":"levelo://app?vid=1a7d3907-5777-4ba9-8c01-d248f0b42b87","ios":"levelo://app?vid=1a7d3907-5777-4ba9-8c01-d248f0b42b87"},"vehicle_type_id":"4","last_reported":1762967468,"current_range_meters":7200,"station_id":"ce4bhih2rcd13ifvqfr0","pricing_plan_id":"cebpf4jnsgd1na2vs0mg"},{"bike_id":"0ca56e2e-a42a-4db1-865a-15136587df02","system_id":"levelo_inurba_marseille","lat":43.28443,"lon":5.39194,"is_reserved":false,"is_disabled":false,"rental_uris":{"android":"levelo://app?vid=0ca56e2e-a42a-4db1-865a-15136587df02","ios":"levelo://app?vid=0ca56e2e-a42a-4db1-865a-15136587df02"},"vehicle_type_id":"4","last_reported":1762967468,"current_range_meters":7200,"station_id":"ce4bhoh2rcd13ifvqh5g","pricing_plan_id":"cebpf4jnsgd1na2vs0mg"},{"bike_id":"48d5f346-64ec-4e03-944c-9ed3f48cbecc","system_id":"levelo_inurba_marseille","lat":43.27557,"lon":5.38452,"is_reserved":false,"is_disabled":true,"rental_uris":{"android":"levelo://app?vid=48d5f346-64ec-4e03-944c-9ed3f48cbecc","ios":"levelo://app?vid=48d5f346-64ec-4e03-944c-9ed3f48cbecc"},"vehicle_type_id":"4","last_reported":1762967468,"current_range_meters":7200,"station_id":"ce4bhh92rcd13ifvqfi0","pricing_plan_id":"cebpf4jnsgd1na2vs0mg"},{"bike_id":"dd8cd4f7-6784-409a-b847-594fd3b1da92","system_id":"levelo_inurba_marseille","lat":43.28621,"lon":5.35105,"is_reserved":false,"is_disabled":false,"rental_uris":{"android":"levelo://app?vid=dd8cd4f7-6784-409a-b847-594fd3b1da92","ios":"levelo://app?vid=dd8cd4f7-6784-409a-b847-594fd3b1da92"},"vehicle_type_id":"4","last_reported":1762967468,"current_range_meters":7200,"station_id":"ce4bhch2rcd13ifvqeug","pricing_plan_id":"cebpf4jnsgd1na2vs0mg"},{"bike_id":"44dc8dbb-d470-467e-9a1c-88c5d11bfece","system_id":"levelo_inurba_marseille","lat":43.301375,"lon":5.387733,"is_reserved":false,"is_disabled":false,"rental_uris":{"android":"levelo://app?vid=44dc8dbb-d470-467e-9a1c-88c5d11bfece","ios":"levelo://app?vid=44dc8dbb-d470-467e-9a1c-88c5d11bfece"},"vehicle_type_id":"4","last_reported":1762967468,"current_range_meters":8000,"station_id":"","pricing_plan_id":"cebpf4jnsgd1na2vs0mg"},{"bike_id":"c80c1c01-368c-46ce-95fa-baee6c258882","system_id":"levelo_inurba_marseille","lat":43.29897,"lon":5.4367,"is_reserved":false,"is_disabled":false,"rental_uris":{"android":"levelo://app?vid=c80c1c01-368c-46ce-95fa-baee6c258882","ios":"levelo://app?vid=c80c1c01-368c-46ce-95fa-baee6c258882"},"vehicle_type_id":"4","last_reported":1762967468,"current_range_meters":8000,"station_id":"ce4bhpp2rcd13ifvqhfg","pricing_plan_id":"cebpf4jnsgd1na2vs0mg"},{"bike_id":"985bd4b1-2e11-42ff-b656-c65d63845b46","system_id":"levelo_inurba_marseille","lat":43.22567,"lon":5.41629,"is_reserved":false,"is_disabled":false,"rental_uris":{"android":"levelo://app?vid=985bd4b1-2e11-42ff-b656-c65d63845b46","ios":"levelo://app?vid=985bd4b1-2e11-42ff-b656-c65d63845b46"},"vehicle_type_id":"4","last_reported":1762967468,"current_range_meters":8000,"station_id":"st_d2o4gvlbi1j2169b742g","pricing_plan_id":"cebpf4jnsgd1na2vs0mg"},{"bike_id":"413c8f99-7950-4964-890d-b38954f7db0b","system_id":"levelo_inurba_marseille","lat":43.30418,"lon":5.41292,"is_reserved":false,"is_disabled":false,"rental_uris":{"android":"levelo://app?vid=413c8f99-7950-4964-890d-b38954f7db0b","ios":"levelo://app?vid=413c8f99-7950-4964-890d-b38954f7db0b"},"vehicle_type_id":"4","last_reported":1762967468,"current_range_meters":8000,"station_id":"ce4bhop2rcd13ifvqh8g","pricing_plan_id":"cebpf4jnsgd1na2vs0mg"},{"bike_id":"66b13d43-0096-47fd-9d50-82b5d2f4a714","system_id":"levelo_inurba_marseille","lat":43.28148,"lon":5.4262,"is_reserved":false,"is_disabled":false,"rental_uris":{"android":"levelo://app?vid=66b13d43-0096-47fd-9d50-82b5d2f4a714","ios":"levelo://app?vid=66b13d43-0096-47fd-9d50-82b5d2f4a714"},"vehicle_type_id":"4","last_reported":1762967468,"current_range_meters":8000,"station_id":"ce4bhnh2rcd13ifvqgug","pricing_plan_id":"cebpf4jnsgd1na2vs0mg"},{"bike_id":"dc4d38c1-818c-4c5a-a26f-5856e01d71bf","system_id":"levelo_inurba_marseille","lat":43.2843,"lon":5.39169,"is_reserved":false,"is_disabled":false,"rental_uris":{"android":"levelo://app?vid=dc4d38c1-818c-4c5a-a26f-5856e01d71bf","ios":"levelo://app?vid=dc4d38c1-818c-4c5a-a26f-5856e01d71bf"},"vehicle_type_id":"4","last_reported":1762967468,"current_range_meters":8000,"station_id":"ce4bhoh2rcd13ifvqh5g","pricing_plan_id":"cebpf4jnsgd1na2vs0mg"},{"bike_id":"84154495-874f-4020-9d68-f82ffdb2871a","system_id":"levelo_inurba_marseille","lat":43.284067,"lon":5.349852,"is_reserved":false,"is_disabled":false,"rental_uris":{"android":"levelo://app?vid=84154495-874f-4020-9d68-f82ffdb2871a","ios":"levelo://app?vid=84154495-874f-4020-9d68-f82ffdb2871a"},"vehicle_type_id":"4","last_reported":1762967468,"current_range_meters":8400,"station_id":"ce4bhbh2rcd13ifvqepg","pricing_plan_id":"cebpf4jnsgd1na2vs0mg"},{"bike_id":"ae494409-c305-4a73-8985-57a6b30dba8e","system_id":"levelo_inurba_marseille","lat":43.31991,"lon":5.38144,"is_reserved":false,"is_disabled":false,"rental_uris":{"android":"levelo://app?vid=ae494409-c305-4a73-8985-57a6b30dba8e","ios":"levelo://app?vid=ae494409-c305-4a73-8985-57a6b30dba8e"},"vehicle_type_id":"4","last_reported":1762967468,"current_range_meters":8400,"station_id":"ce4bhr12rcd13ifvqhpg","pricing_plan_id":"cebpf4jnsgd1na2vs0mg"},{"bike_id":"df139fe3-6d5a-40da-bb4c-52101be75b26","system_id":"levelo_inurba_marseille","lat":43.29041,"lon":5.38645,"is_reserved":false,"is_disabled":false,"rental_uris":{"android":"levelo://app?vid=df139fe3-6d5a-40da-bb4c-52101be75b26","ios":"levelo://app?vid=df139fe3-6d5a-40da-bb4c-52101be75b26"},"vehicle_type_id":"4","last_reported":1762967468,"current_range_meters":8400,"station_id":"ce4bh4p2rcd13ifvqe0g","pricing_plan_id":"cebpf4jnsgd1na2vs0mg"},{"bike_id":"0a519a0c-2009-4da9-8c56-32b85503cc06","system_id":"levelo_inurba_marseille","lat":43.28531,"lon":5.44096,"is_reserved":false,"is_disabled":false,"rental_uris":{"android":"levelo://app?vid=0a519a0c-2009-4da9-8c56-32b85503cc06","ios":"levelo://app?vid=0a519a0c-2009-4da9-8c56-32b85503cc06"},"vehicle_type_id":"4","last_reported":1762967468,"current_range_meters":8400,"station_id":"st_d3j3df2ikq2c7380ej80","pricing_plan_id":"cebpf4jnsgd1na2vs0mg"},{"bike_id":"ac6ab44c-e825-4598-b735-1343c4378912","system_id":"levelo_inurba_marseille","lat":43.25333,"lon":5.42179,"is_reserved":false,"is_disabled":false,"rental_uris":{"android":"levelo://app?vid=ac6ab44c-e825-4598-b735-1343c4378912","ios":"levelo://app?vid=ac6ab44c-e825-4598-b735-1343c4378912"},"vehicle_type_id":"4","last_reported":1762967468,"current_range_meters":8400,"station_id":"st_d2m65c5bi1j21697t3ng","pricing_plan_id":"cebpf4jnsgd1na2vs0mg"},{"bike_id":"4dd0600a-35f2-4168-984d-8522370772ef","system_id":"levelo_inurba_marseille","lat":43.278138,"lon":5.407155,"is_reserved":false,"is_disabled":false,"rental_uris":{"android":"levelo://app?vid=4dd0600a-35f2-4168-984d-8522370772ef","ios":"levelo://app?vid=4dd0600a-35f2-4168-984d-8522370772ef"},"vehicle_type_id":"4","last_reported":1762967468,"current_range_meters":8800,"station_id":"ce4bhnh2rcd13ifvqgtg","pricing_plan_id":"cebpf4jnsgd1na2vs0mg"},{"bike_id":"3323d668-9537-4895-893c-63a33f216756","system_id":"levelo_inurba_marseille","lat":43.291992,"lon":5.39321,"is_reserved":false,"is_disabled":false,"rental_uris":{"android":"levelo://app?vid=3323d668-9537-4895-893c-63a33f216756","ios":"levelo://app?vid=3323d668-9537-4895-893c-63a33f216756"},"vehicle_type_id":"4","last_reported":1762967468,"current_range_meters":8800,"station_id":"","pricing_plan_id":"cebpf4jnsgd1na2vs0mg"},{"bike_id":"31557b47-36b2-4147-aeb9-f6037d9c930d","system_id":"levelo_inurba_marseille","lat":43.29308,"lon":5.37174,"is_reserved":false,"is_disabled":false,"rental_uris":{"android":"levelo://app?vid=31557b47-36b2-4147-aeb9-f6037d9c930d","ios":"levelo://app?vid=31557b47-36b2-4147-aeb9-f6037d9c930d"},"vehicle_type_id":"4","last_reported":1762967468,"current_range_meters":8800,"station_id":"ce4bgh92rcd13ifvqb40","pricing_plan_id":"cebpf4jnsgd1na2vs0mg"},{"bike_id":"5ed48720-7574-4d36-8385-43ec3a2037fe","system_id":"levelo_inurba_marseille","lat":43.29459,"lon":5.39614,"is_reserved":false,"is_disabled":false,"rental_uris":{"android":"levelo://app?vid=5ed48720-7574-4d36-8385-43ec3a2037fe","ios":"levelo://app?vid=5ed48720-7574-4d36-8385-43ec3a2037fe"},"vehicle_type_id":"4","last_reported":1762967468,"current_range_meters":8800,"station_id":"","pricing_plan_id":"cebpf4jnsgd1na2vs0mg"},{"bike_id":"249d34f0-8ed6-40cf-aacb-269841b57b3b","system_id":"levelo_inurba_marseille","lat":43.2837,"lon":5.38626,"is_reserved":false,"is_disabled":false,"rental_uris":{"android":"levelo://app?vid=249d34f0-8ed6-40cf-aacb-269841b57b3b","ios":"levelo://app?vid=249d34f0-8ed6-40cf-aacb-269841b57b3b"},"vehicle_type_id":"4","last_reported":1762967468,"current_range_meters":8800,"station_id":"ce4bh492rcd13ifvqdvg","pricing_plan_id":"cebpf4jnsgd1na2vs0mg"},{"bike_id":"84aade2c-4b39-4bce-814f-cfa3d6ed46f7","system_id":"levelo_inurba_marseille","lat":43.28476,"lon":5.48386,"is_reserved":false,"is_disabled":false,"rental_uris":{"android":"levelo://app?vid=84aade2c-4b39-4bce-814f-cfa3d6ed46f7","ios":"levelo://app?vid=84aade2c-4b39-4bce-814f-cfa3d6ed46f7"},"vehicle_type_id":"4","last_reported":1762967468,"current_range_meters":8800,"station_id":"st_d3svhcjqgbts73a3dn0g","pricing_plan_id":"cebpf4jnsgd1na2vs0mg"},{"bike_id":"bcbee31c-95c0-40d6-a980-b7dd4432ee0c","system_id":"levelo_inurba_marseille","lat":43.30293,"lon":5.39211,"is_reserved":false,"is_disabled":false,"rental_uris":{"android":"levelo://app?vid=bcbee31c-95c0-40d6-a980-b7dd4432ee0c","ios":"levelo://app?vid=bcbee31c-95c0-40d6-a980-b7dd4432ee0c"},"vehicle_type_id":"4","last_reported":1762967468,"current_range_meters":8800,"station_id":"ce4bgkh2rcd13ifvqbk0","pricing_plan_id":"cebpf4jnsgd1na2vs0mg"},{"bike_id":"9b69bd07-33d4-4031-a628-dfb3edcc0b22","system_id":"levelo_inurba_marseille","lat":43.25727,"lon":5.4111,"is_reserved":false,"is_disabled":false,"rental_uris":{"android":"levelo://app?vid=9b69bd07-33d4-4031-a628-dfb3edcc0b22","ios":"levelo://app?vid=9b69bd07-33d4-4031-a628-dfb3edcc0b22"},"vehicle_type_id":"4","last_reported":1762967468,"current_range_meters":8800,"station_id":"ce4bhkp2rcd13ifvqgd0","pricing_plan_id":"cebpf4jnsgd1na2vs0mg"},{"bike_id":"6a058831-b6fb-478e-9554-f25cd6905dab","system_id":"levelo_inurba_marseille","lat":43.25495,"lon":5.37668,"is_reserved":false,"is_disabled":false,"rental_uris":{"android":"levelo://app?vid=6a058831-b6fb-478e-9554-f25cd6905dab","ios":"levelo://app?vid=6a058831-b6fb-478e-9554-f25cd6905dab"},"vehicle_type_id":"4","last_reported":1762967468,"current_range_meters":8800,"station_id":"ce4bhh12rcd13ifvqff0","pricing_plan_id":"cebpf4jnsgd1na2vs0mg"},{"bike_id":"883f1861-53d5-48b1-8605-b9733601f1b1","system_id":"levelo_inurba_marseille","lat":43.31325,"lon":5.39693,"is_reserved":false,"is_disabled":false,"rental_uris":{"android":"levelo://app?vid=883f1861-53d5-48b1-8605-b9733601f1b1","ios":"levelo://app?vid=883f1861-53d5-48b1-8605-b9733601f1b1"},"vehicle_type_id":"4","last_reported":1762967468,"current_range_meters":9200,"station_id":"ce4bgvp2rcd13ifvqcu0","pricing_plan_id":"cebpf4jnsgd1na2vs0mg"},{"bike_id":"adcd569f-e147-41f5-b250-8591dc48ba5f","system_id":"levelo_inurba_marseille","lat":43.25086,"lon":5.39527,"is_reserved":false,"is_disabled":false,"rental_uris":{"android":"levelo://app?vid=adcd569f-e147-41f5-b250-8591dc48ba5f","ios":"levelo://app?vid=adcd569f-e147-41f5-b250-8591dc48ba5f"},"vehicle_type_id":"4","last_reported":1762967468,"current_range_meters":9200,"station_id":"ce4bhm12rcd13ifvqgkg","pricing_plan_id":"cebpf4jnsgd1na2vs0mg"},{"bike_id":"eea72cab-583d-4d51-9d23-22ddc388a40f","system_id":"levelo_inurba_marseille","lat":43.28869,"lon":5.42513,"is_reserved":false,"is_disabled":false,"rental_uris":{"android":"levelo://app?vid=eea72cab-583d-4d51-9d23-22ddc388a40f","ios":"levelo://app?vid=eea72cab-583d-4d51-9d23-22ddc388a40f"},"vehicle_type_id":"4","last_reported":1762967468,"current_range_meters":9200,"station_id":"st_d3b462108ojc7389ooeg","pricing_plan_id":"cebpf4jnsgd1na2vs0mg"},{"bike_id":"c579f82c-4d6b-43ae-8487-bd523337f73b","system_id":"levelo_inurba_marseille","lat":43.29034,"lon":5.39965,"is_reserved":false,"is_disabled":false,"rental_uris":{"android":"levelo://app?vid=c579f82c-4d6b-43ae-8487-bd523337f73b","ios":"levelo://app?vid=c579f82c-4d6b-43ae-8487-bd523337f73b"},"vehicle_type_id":"4","last_reported":1762967468,"current_range_meters":9600,"station_id":"ce4bh392rcd13ifvqdm0","pricing_plan_id":"cebpf4jnsgd1na2vs0mg"},{"bike_id":"7e932733-dc78-408b-8ae6-a3e07d1f1255","system_id":"levelo_inurba_marseille","lat":43.29006,"lon":5.35614,"is_reserved":false,"is_disabled":false,"rental_uris":{"android":"levelo://app?vid=7e932733-dc78-408b-8ae6-a3e07d1f1255","ios":"levelo://app?vid=7e932733-dc78-408b-8ae6-a3e07d1f1255"},"vehicle_type_id":"4","last_reported":1762967468,"current_range_meters":9600,"station_id":"ce4bhb92rcd13ifvqen0","pricing_plan_id":"cebpf4jnsgd1na2vs0mg"},{"bike_id":"c47023ab-2905-4a00-af93-ffd0b768cdc9","system_id":"levelo_inurba_marseille","lat":43.28877,"lon":5.42518,"is_reserved":false,"is_disabled":false,"rental_uris":{"android":"levelo://app?vid=c47023ab-2905-4a00-af93-ffd0b768cdc9","ios":"levelo://app?vid=c47023ab-2905-4a00-af93-ffd0b768cdc9"},"vehicle_type_id":"4","last_reported":1762967468,"current_range_meters":9600,"station_id":"st_d3b462108ojc7389ooeg","pricing_plan_id":"cebpf4jnsgd1na2vs0mg"},{"bike_id":"35879002-14a8-49e2-b035-6faedfd1cfe6","system_id":"levelo_inurba_marseille","lat":43.24629,"lon":5.43148,"is_reserved":false,"is_disabled":false,"rental_uris":{"android":"levelo://app?vid=35879002-14a8-49e2-b035-6faedfd1cfe6","ios":"levelo://app?vid=35879002-14a8-49e2-b035-6faedfd1cfe6"},"vehicle_type_id":"4","last_reported":1762967468,"current_range_meters":9600,"station_id":"st_d2m6c4gdas8pm72e190g","pricing_plan_id":"cebpf4jnsgd1na2vs0mg"},{"bike_id":"e4e5699a-c85e-434b-9197-5ad3b25e94dc","system_id":"levelo_inurba_marseille","lat":43.29575,"lon":5.39957,"is_reserved":false,"is_disabled":false,"rental_uris":{"android":"levelo://app?vid=e4e5699a-c85e-434b-9197-5ad3b25e94dc","ios":"levelo://app?vid=e4e5699a-c85e-434b-9197-5ad3b25e94dc"},"vehicle_type_id":"4","last_reported":1762967468,"current_range_meters":10000,"station_id":"ce4bh312rcd13ifvqdj0","pricing_plan_id":"cebpf4jnsgd1na2vs0mg"},{"bike_id":"df121c05-c382-46ba-8446-984610008786","system_id":"levelo_inurba_marseille","lat":43.33609,"lon":5.41037,"is_reserved":false,"is_disabled":false,"rental_uris":{"android":"levelo://app?vid=df121c05-c382-46ba-8446-984610008786","ios":"levelo://app?vid=df121c05-c382-46ba-8446-984610008786"},"vehicle_type_id":"4","last_reported":1762967468,"current_range_meters":10000,"station_id":"ce4bhqh2rcd13ifvqhmg","pricing_plan_id":"cebpf4jnsgd1na2vs0mg"},{"bike_id":"a3ac74ff-5528-40e7-9510-0e602e237f40","system_id":"levelo_inurba_marseille","lat":43.26809,"lon":5.4027,"is_reserved":false,"is_disabled":false,"rental_uris":{"android":"levelo://app?vid=a3ac74ff-5528-40e7-9510-0e602e237f40","ios":"levelo://app?vid=a3ac74ff-5528-40e7-9510-0e602e237f40"},"vehicle_type_id":"4","last_reported":1762967468,"current_range_meters":10000,"station_id":"ce501612rcd8frsf0b60","pricing_plan_id":"cebpf4jnsgd1na2vs0mg"},{"bike_id":"8ce98e58-dba6-45fb-9bb4-adf1140c698d","system_id":"levelo_inurba_marseille","lat":43.30248,"lon":5.40055,"is_reserved":false,"is_disabled":false,"rental_uris":{"android":"levelo://app?vid=8ce98e58-dba6-45fb-9bb4-adf1140c698d","ios":"levelo://app?vid=8ce98e58-dba6-45fb-9bb4-adf1140c698d"},"vehicle_type_id":"4","last_reported":1762967468,"current_range_meters":10000,"station_id":"ce4bgvh2rcd13ifvqcs0","pricing_plan_id":"cebpf4jnsgd1na2vs0mg"},{"bike_id":"01e8cce2-ff84-43ff-914a-c0c695f60ca4","system_id":"levelo_inurba_marseille","lat":43.29447,"lon":5.38019,"is_reserved":false,"is_disabled":false,"rental_uris":{"android":"levelo://app?vid=01e8cce2-ff84-43ff-914a-c0c695f60ca4","ios":"levelo://app?vid=01e8cce2-ff84-43ff-914a-c0c695f60ca4"},"vehicle_type_id":"4","last_reported":1762967468,"current_range_meters":10800,"station_id":"","pricing_plan_id":"cebpf4jnsgd1na2vs0mg"},{"bike_id":"62dcc0f9-3d2c-49ba-bfbc-29d73ac49326","system_id":"levelo_inurba_marseille","lat":43.28613,"lon":5.35098,"is_reserved":false,"is_disabled":false,"rental_uris":{"android":"levelo://app?vid=62dcc0f9-3d2c-49ba-bfbc-29d73ac49326","ios":"levelo://app?vid=62dcc0f9-3d2c-49ba-bfbc-29d73ac49326"},"vehicle_type_id":"4","last_reported":1762967468,"current_range_meters":10800,"station_id":"ce4bhch2rcd13ifvqeug","pricing_plan_id":"cebpf4jnsgd1na2vs0mg"},{"bike_id":"f09b69fd-4220-4b51-8365-9a85828617f1","system_id":"levelo_inurba_marseille","lat":43.330268,"lon":5.390397,"is_reserved":false,"is_disabled":false,"rental_uris":{"android":"levelo://app?vid=f09b69fd-4220-4b51-8365-9a85828617f1","ios":"levelo://app?vid=f09b69fd-4220-4b51-8365-9a85828617f1"},"vehicle_type_id":"4","last_reported":1762967468,"current_range_meters":11200,"station_id":"ce4bhr92rcd13ifvqhrg","pricing_plan_id":"cebpf4jnsgd1na2vs0mg"},{"bike_id":"5804ac99-3bd4-4091-bff1-7487e9285e0c","system_id":"levelo_inurba_marseille","lat":43.29187,"lon":5.37584,"is_reserved":false,"is_disabled":false,"rental_uris":{"android":"levelo://app?vid=5804ac99-3bd4-4091-bff1-7487e9285e0c","ios":"levelo://app?vid=5804ac99-3bd4-4091-bff1-7487e9285e0c"},"vehicle_type_id":"4","last_reported":1762967468,"current_range_meters":11200,"station_id":"","pricing_plan_id":"cebpf4jnsgd1na2vs0mg"},{"bike_id":"f0b85e76-bdbf-4a49-805f-c57dae3bf18a","system_id":"levelo_inurba_marseille","lat":43.257247,"lon":5.381408,"is_reserved":false,"is_disabled":false,"rental_uris":{"android":"levelo://app?vid=f0b85e76-bdbf-4a49-805f-c57dae3bf18a","ios":"levelo://app?vid=f0b85e76-bdbf-4a49-805f-c57dae3bf18a"},"vehicle_type_id":"4","last_reported":1762967468,"current_range_meters":11200,"station_id":"ce4bhh92rcd13ifvqfi0","pricing_plan_id":"cebpf4jnsgd1na2vs0mg"},{"bike_id":"9ede9794-ff39-4757-9058-7b1d5e1b1004","system_id":"levelo_inurba_marseille","lat":43.306366,"lon":5.401027,"is_reserved":false,"is_disabled":false,"rental_uris":{"android":"levelo://app?vid=9ede9794-ff39-4757-9058-7b1d5e1b1004","ios":"levelo://app?vid=9ede9794-ff39-4757-9058-7b1d5e1b1004"},"vehicle_type_id":"4","last_reported":1762967468,"current_range_meters":11200,"station_id":"ce4bh112rcd13ifvqda0","pricing_plan_id":"cebpf4jnsgd1na2vs0mg"},{"bike_id":"138acbc8-a44a-45ec-9d4e-f41258a8778e","system_id":"levelo_inurba_marseille","lat":43.29828,"lon":5.44068,"is_reserved":false,"is_disabled":false,"rental_uris":{"android":"levelo://app?vid=138acbc8-a44a-45ec-9d4e-f41258a8778e","ios":"levelo://app?vid=138acbc8-a44a-45ec-9d4e-f41258a8778e"},"vehicle_type_id":"4","last_reported":1762967468,"current_range_meters":11200,"station_id":"st_d3jp68qikq2c7381ktn0","pricing_plan_id":"cebpf4jnsgd1na2vs0mg"},{"bike_id":"544754e4-8a79-4e36-bc0a-06ac2420e779","system_id":"levelo_inurba_marseille","lat":43.282273,"lon":5.390662,"is_reserved":false,"is_disabled":false,"rental_uris":{"android":"levelo://app?vid=544754e4-8a79-4e36-bc0a-06ac2420e779","ios":"levelo://app?vid=544754e4-8a79-4e36-bc0a-06ac2420e779"},"vehicle_type_id":"4","last_reported":1762967468,"current_range_meters":11200,"station_id":"ce4bh9p2rcd13ifvqec0","pricing_plan_id":"cebpf4jnsgd1na2vs0mg"},{"bike_id":"deb22c28-c17d-4812-a479-8c21fcb2162c","system_id":"levelo_inurba_marseille","lat":43.2925,"lon":5.40915,"is_reserved":false,"is_disabled":true,"rental_uris":{"android":"levelo://app?vid=deb22c28-c17d-4812-a479-8c21fcb2162c","ios":"levelo://app?vid=deb22c28-c17d-4812-a479-8c21fcb2162c"},"vehicle_type_id":"4","last_reported":1762967468,"current_range_meters":11600,"station_id":"ce4bh192rcd13ifvqdc0","pricing_plan_id":"cebpf4jnsgd1na2vs0mg"},{"bike_id":"fb7f0c6d-52e0-4477-a9a7-b0d2b59fa016","system_id":"levelo_inurba_marseille","lat":43.291902,"lon":5.393217,"is_reserved":false,"is_disabled":false,"rental_uris":{"android":"levelo://app?vid=fb7f0c6d-52e0-4477-a9a7-b0d2b59fa016","ios":"levelo://app?vid=fb7f0c6d-52e0-4477-a9a7-b0d2b59fa016"},"vehicle_type_id":"4","last_reported":1762967468,"current_range_meters":11600,"station_id":"ce4bh192rcd13ifvqdd0","pricing_plan_id":"cebpf4jnsgd1na2vs0mg"},{"bike_id":"8b027115-1a9e-4312-923f-dbf5aec10ee4","system_id":"levelo_inurba_marseille","lat":43.30245,"lon":5.36502,"is_reserved":false,"is_disabled":false,"rental_uris":{"android":"levelo://app?vid=8b027115-1a9e-4312-923f-dbf5aec10ee4","ios":"levelo://app?vid=8b027115-1a9e-4312-923f-dbf5aec10ee4"},"vehicle_type_id":"4","last_reported":1762967468,"current_range_meters":11600,"station_id":"","pricing_plan_id":"cebpf4jnsgd1na2vs0mg"},{"bike_id":"0df7d3e2-c846-4326-b3e7-c99b617514c8","system_id":"levelo_inurba_marseille","lat":43.33023,"lon":5.39039,"is_reserved":false,"is_disabled":false,"rental_uris":{"android":"levelo://app?vid=0df7d3e2-c846-4326-b3e7-c99b617514c8","ios":"levelo://app?vid=0df7d3e2-c846-4326-b3e7-c99b617514c8"},"vehicle_type_id":"4","last_reported":1762967468,"current_range_meters":12000,"station_id":"ce4bhr92rcd13ifvqhrg","pricing_plan_id":"cebpf4jnsgd1na2vs0mg"},{"bike_id":"841cb1e3-d7ff-4e82-a83c-eaf5e87abdbe","system_id":"levelo_inurba_marseille","lat":43.25586,"lon":5.38247,"is_reserved":false,"is_disabled":false,"rental_uris":{"android":"levelo://app?vid=841cb1e3-d7ff-4e82-a83c-eaf5e87abdbe","ios":"levelo://app?vid=841cb1e3-d7ff-4e82-a83c-eaf5e87abdbe"},"vehicle_type_id":"4","last_reported":1762967468,"current_range_meters":12000,"station_id":"ce4bhih2rcd13ifvqfs0","pricing_plan_id":"cebpf4jnsgd1na2vs0mg"},{"bike_id":"2134425e-782d-4741-88be-50ffcbcd4bf3","system_id":"levelo_inurba_marseille","lat":43.30524,"lon":5.3673,"is_reserved":false,"is_disabled":false,"rental_uris":{"android":"levelo://app?vid=2134425e-782d-4741-88be-50ffcbcd4bf3","ios":"levelo://app?vid=2134425e-782d-4741-88be-50ffcbcd4bf3"},"vehicle_type_id":"4","last_reported":1762967468,"current_range_meters":12400,"station_id":"ce4bgrp2rcd13ifvqc9g","pricing_plan_id":"cebpf4jnsgd1na2vs0mg"},{"bike_id":"426d09ca-a359-4bc0-bbc2-ddb59fe526d3","system_id":"levelo_inurba_marseille","lat":43.30594,"lon":5.39352,"is_reserved":false,"is_disabled":false,"rental_uris":{"android":"levelo://app?vid=426d09ca-a359-4bc0-bbc2-ddb59fe526d3","ios":"levelo://app?vid=426d09ca-a359-4bc0-bbc2-ddb59fe526d3"},"vehicle_type_id":"4","last_reported":1762967468,"current_range_meters":12400,"station_id":"ce4bh0p2rcd13ifvqd80","pricing_plan_id":"cebpf4jnsgd1na2vs0mg"},{"bike_id":"115d0332-351c-4a33-b848-e8bae3783ee1","system_id":"levelo_inurba_marseille","lat":43.28238,"lon":5.39046,"is_reserved":false,"is_disabled":false,"rental_uris":{"android":"levelo://app?vid=115d0332-351c-4a33-b848-e8bae3783ee1","ios":"levelo://app?vid=115d0332-351c-4a33-b848-e8bae3783ee1"},"vehicle_type_id":"4","last_reported":1762967468,"current_range_meters":12400,"station_id":"ce4bhn92rcd13ifvqgsg","pricing_plan_id":"cebpf4jnsgd1na2vs0mg"},{"bike_id":"2c246494-89a4-40b1-98df-e8b6d58ba8ea","system_id":"levelo_inurba_marseille","lat":43.30213,"lon":5.3947,"is_reserved":false,"is_disabled":false,"rental_uris":{"android":"levelo://app?vid=2c246494-89a4-40b1-98df-e8b6d58ba8ea","ios":"levelo://app?vid=2c246494-89a4-40b1-98df-e8b6d58ba8ea"},"vehicle_type_id":"4","last_reported":1762967468,"current_range_meters":12400,"station_id":"ce4bh0p2rcd13ifvqd70","pricing_plan_id":"cebpf4jnsgd1na2vs0mg"},{"bike_id":"21874392-bda1-4af9-a254-ce2f71833ff6","system_id":"levelo_inurba_marseille","lat":43.2621,"lon":5.37443,"is_reserved":false,"is_disabled":false,"rental_uris":{"android":"levelo://app?vid=21874392-bda1-4af9-a254-ce2f71833ff6","ios":"levelo://app?vid=21874392-bda1-4af9-a254-ce2f71833ff6"},"vehicle_type_id":"4","last_reported":1762967468,"current_range_meters":12400,"station_id":"ce4bhgp2rcd13ifvqfc0","pricing_plan_id":"cebpf4jnsgd1na2vs0mg"},{"bike_id":"c2ec2713-73cd-4598-9f85-9169c08f502e","system_id":"levelo_inurba_marseille","lat":43.29718,"lon":5.37686,"is_reserved":false,"is_disabled":false,"rental_uris":{"android":"levelo://app?vid=c2ec2713-73cd-4598-9f85-9169c08f502e","ios":"levelo://app?vid=c2ec2713-73cd-4598-9f85-9169c08f502e"},"vehicle_type_id":"4","last_reported":1762967468,"current_range_meters":12800,"station_id":"ce4bgkh2rcd13ifvqbl0","pricing_plan_id":"cebpf4jnsgd1na2vs0mg"},{"bike_id":"23cf5617-2a8e-4b86-b9b4-9b049dde7593","system_id":"levelo_inurba_marseille","lat":43.32359,"lon":5.36732,"is_reserved":false,"is_disabled":false,"rental_uris":{"android":"levelo://app?vid=23cf5617-2a8e-4b86-b9b4-9b049dde7593","ios":"levelo://app?vid=23cf5617-2a8e-4b86-b9b4-9b049dde7593"},"vehicle_type_id":"4","last_reported":1762967468,"current_range_meters":12800,"station_id":"ce4bhsh2rcd13ifvqi2g","pricing_plan_id":"cebpf4jnsgd1na2vs0mg"},{"bike_id":"e13b78db-2231-48a0-b9e0-a153f32a43f4","system_id":"levelo_inurba_marseille","lat":43.23059,"lon":5.35492,"is_reserved":false,"is_disabled":false,"rental_uris":{"android":"levelo://app?vid=e13b78db-2231-48a0-b9e0-a153f32a43f4","ios":"levelo://app?vid=e13b78db-2231-48a0-b9e0-a153f32a43f4"},"vehicle_type_id":"4","last_reported":1762967468,"current_range_meters":12800,"station_id":"cpo3342slgdg3j2ifvpg","pricing_plan_id":"cebpf4jnsgd1na2vs0mg"},{"bike_id":"f19a854d-96e9-4cf0-92aa-d357813dc143","system_id":"levelo_inurba_marseille","lat":43.28478,"lon":5.38426,"is_reserved":false,"is_disabled":true,"rental_uris":{"android":"levelo://app?vid=f19a854d-96e9-4cf0-92aa-d357813dc143","ios":"levelo://app?vid=f19a854d-96e9-4cf0-92aa-d357813dc143"},"vehicle_type_id":"4","last_reported":1762967468,"current_range_meters":12800,"station_id":"ce4bh512rcd13ifvqe3g","pricing_plan_id":"cebpf4jnsgd1na2vs0mg"},{"bike_id":"0528378f-1b50-41df-b328-6686306ee922","system_id":"levelo_inurba_marseille","lat":43.21627,"lon":5.34452,"is_reserved":false,"is_disabled":false,"rental_uris":{"android":"levelo://app?vid=0528378f-1b50-41df-b328-6686306ee922","ios":"levelo://app?vid=0528378f-1b50-41df-b328-6686306ee922"},"vehicle_type_id":"4","last_reported":1762967468,"current_range_meters":12800,"station_id":"","pricing_plan_id":"cebpf4jnsgd1na2vs0mg"},{"bike_id":"48ff0507-2b30-41bb-a9a7-9ca258421729","system_id":"levelo_inurba_marseille","lat":43.31065,"lon":5.38491,"is_reserved":false,"is_disabled":false,"rental_uris":{"android":"levelo://app?vid=48ff0507-2b30-41bb-a9a7-9ca258421729","ios":"levelo://app?vid=48ff0507-2b30-41bb-a9a7-9ca258421729"},"vehicle_type_id":"4","last_reported":1762967468,"current_range_meters":12800,"station_id":"","pricing_plan_id":"cebpf4jnsgd1na2vs0mg"},{"bike_id":"1606ac5d-fc4e-4053-b244-468fd87a6f65","system_id":"levelo_inurba_marseille","lat":43.28107,"lon":5.37837,"is_reserved":false,"is_disabled":false,"rental_uris":{"android":"levelo://app?vid=1606ac5d-fc4e-4053-b244-468fd87a6f65","ios":"levelo://app?vid=1606ac5d-fc4e-4053-b244-468fd87a6f65"},"vehicle_type_id":"4","last_reported":1762967468,"current_range_meters":12800,"station_id":"ce4bha12rcd13ifvqee0","pricing_plan_id":"cebpf4jnsgd1na2vs0mg"},{"bike_id":"affe9c10-29f9-444b-9b35-5a1c3f448617","system_id":"levelo_inurba_marseille","lat":43.29252,"lon":5.40907,"is_reserved":false,"is_disabled":false,"rental_uris":{"android":"levelo://app?vid=affe9c10-29f9-444b-9b35-5a1c3f448617","ios":"levelo://app?vid=affe9c10-29f9-444b-9b35-5a1c3f448617"},"vehicle_type_id":"4","last_reported":1762967468,"current_range_meters":12800,"station_id":"ce4bh192rcd13ifvqdc0","pricing_plan_id":"cebpf4jnsgd1na2vs0mg"},{"bike_id":"7cd3fc91-8b4e-4cc9-a97a-8aec9cd4160c","system_id":"levelo_inurba_marseille","lat":43.29869,"lon":5.37191,"is_reserved":false,"is_disabled":true,"rental_uris":{"android":"levelo://app?vid=7cd3fc91-8b4e-4cc9-a97a-8aec9cd4160c","ios":"levelo://app?vid=7cd3fc91-8b4e-4cc9-a97a-8aec9cd4160c"},"vehicle_type_id":"4","last_reported":1762967468,"current_range_meters":13600,"station_id":"","pricing_plan_id":"cebpf4jnsgd1na2vs0mg"},{"bike_id":"11b1f2fb-31ef-43d0-b332-a2e24816c8b6","system_id":"levelo_inurba_marseille","lat":43.29516,"lon":5.39041,"is_reserved":false,"is_disabled":false,"rental_uris":{"android":"levelo://app?vid=11b1f2fb-31ef-43d0-b332-a2e24816c8b6","ios":"levelo://app?vid=11b1f2fb-31ef-43d0-b332-a2e24816c8b6"},"vehicle_type_id":"4","last_reported":1762967468,"current_range_meters":13600,"station_id":"ce4bh3p2rcd13ifvqdp0","pricing_plan_id":"cebpf4jnsgd1na2vs0mg"},{"bike_id":"e3df63a1-f3d2-4d82-8bf6-df212c4e8b69","system_id":"levelo_inurba_marseille","lat":43.28485,"lon":5.48403,"is_reserved":false,"is_disabled":false,"rental_uris":{"android":"levelo://app?vid=e3df63a1-f3d2-4d82-8bf6-df212c4e8b69","ios":"levelo://app?vid=e3df63a1-f3d2-4d82-8bf6-df212c4e8b69"},"vehicle_type_id":"4","last_reported":1762967468,"current_range_meters":13600,"station_id":"st_d3svhcjqgbts73a3dn0g","pricing_plan_id":"cebpf4jnsgd1na2vs0mg"},{"bike_id":"548496fe-dae7-41f0-a60c-d13cdf0a3ffe","system_id":"levelo_inurba_marseille","lat":43.29916,"lon":5.37489,"is_reserved":false,"is_disabled":false,"rental_uris":{"android":"levelo://app?vid=548496fe-dae7-41f0-a60c-d13cdf0a3ffe","ios":"levelo://app?vid=548496fe-dae7-41f0-a60c-d13cdf0a3ffe"},"vehicle_type_id":"4","last_reported":1762967468,"current_range_meters":13600,"station_id":"ce4bgjh2rcd13ifvqbg0","pricing_plan_id":"cebpf4jnsgd1na2vs0mg"},{"bike_id":"e8ae9154-04f3-4461-8276-0739d1e853ea","system_id":"levelo_inurba_marseille","lat":43.26548,"lon":5.39052,"is_reserved":false,"is_disabled":false,"rental_uris":{"android":"levelo://app?vid=e8ae9154-04f3-4461-8276-0739d1e853ea","ios":"levelo://app?vid=e8ae9154-04f3-4461-8276-0739d1e853ea"},"vehicle_type_id":"4","last_reported":1762967468,"current_range_meters":13600,"station_id":"ce4bhe12rcd13ifvqf30","pricing_plan_id":"cebpf4jnsgd1na2vs0mg"},{"bike_id":"a2f7640d-87c8-4b57-8a70-96bb3011c777","system_id":"levelo_inurba_marseille","lat":43.29014,"lon":5.38118,"is_reserved":false,"is_disabled":false,"rental_uris":{"android":"levelo://app?vid=a2f7640d-87c8-4b57-8a70-96bb3011c777","ios":"levelo://app?vid=a2f7640d-87c8-4b57-8a70-96bb3011c777"},"vehicle_type_id":"4","last_reported":1762967468,"current_range_meters":13600,"station_id":"ce4bh4p2rcd13ifvqe1g","pricing_plan_id":"cebpf4jnsgd1na2vs0mg"},{"bike_id":"a24d1ed3-7d2a-4935-9058-4a4ebef3dc61","system_id":"levelo_inurba_marseille","lat":43.26548,"lon":5.37292,"is_reserved":false,"is_disabled":false,"rental_uris":{"android":"levelo://app?vid=a24d1ed3-7d2a-4935-9058-4a4ebef3dc61","ios":"levelo://app?vid=a24d1ed3-7d2a-4935-9058-4a4ebef3dc61"},"vehicle_type_id":"4","last_reported":1762967468,"current_range_meters":13600,"station_id":"ce4bhg12rcd13ifvqf70","pricing_plan_id":"cebpf4jnsgd1na2vs0mg"},{"bike_id":"18bd7a88-ab6f-4bb5-981d-4251930787db","system_id":"levelo_inurba_marseille","lat":43.2657,"lon":5.3901,"is_reserved":false,"is_disabled":false,"rental_uris":{"android":"levelo://app?vid=18bd7a88-ab6f-4bb5-981d-4251930787db","ios":"levelo://app?vid=18bd7a88-ab6f-4bb5-981d-4251930787db"},"vehicle_type_id":"4","last_reported":1762967468,"current_range_meters":13600,"station_id":"ce4bhe12rcd13ifvqf30","pricing_plan_id":"cebpf4jnsgd1na2vs0mg"},{"bike_id":"1e836408-7194-4b6a-981d-23440edf49f4","system_id":"levelo_inurba_marseille","lat":43.28039,"lon":5.36949,"is_reserved":false,"is_disabled":false,"rental_uris":{"android":"levelo://app?vid=1e836408-7194-4b6a-981d-23440edf49f4","ios":"levelo://app?vid=1e836408-7194-4b6a-981d-23440edf49f4"},"vehicle_type_id":"4","last_reported":1762967468,"current_range_meters":13600,"station_id":"ce4bha12rcd13ifvqef0","pricing_plan_id":"cebpf4jnsgd1na2vs0mg"},{"bike_id":"aa2142ce-a08b-44b3-8171-8094f79ea02c","system_id":"levelo_inurba_marseille","lat":43.27798,"lon":5.405291,"is_reserved":false,"is_disabled":false,"rental_uris":{"android":"levelo://app?vid=aa2142ce-a08b-44b3-8171-8094f79ea02c","ios":"levelo://app?vid=aa2142ce-a08b-44b3-8171-8094f79ea02c"},"vehicle_type_id":"4","last_reported":1762967468,"current_range_meters":13600,"station_id":"ce4bhnh2rcd13ifvqgtg","pricing_plan_id":"cebpf4jnsgd1na2vs0mg"},{"bike_id":"705659d6-db3a-41c7-9d91-46787bc39ab6","system_id":"levelo_inurba_marseille","lat":43.286941,"lon":5.373866,"is_reserved":false,"is_disabled":false,"rental_uris":{"android":"levelo://app?vid=705659d6-db3a-41c7-9d91-46787bc39ab6","ios":"levelo://app?vid=705659d6-db3a-41c7-9d91-46787bc39ab6"},"vehicle_type_id":"4","last_reported":1762967468,"current_range_meters":13600,"station_id":"ce4bh3p2rcd13ifvqdq0","pricing_plan_id":"cebpf4jnsgd1na2vs0mg"},{"bike_id":"afec848b-17b6-4312-b07a-31e80ca0e855","system_id":"levelo_inurba_marseille","lat":43.26499,"lon":5.39552,"is_reserved":false,"is_disabled":false,"rental_uris":{"android":"levelo://app?vid=afec848b-17b6-4312-b07a-31e80ca0e855","ios":"levelo://app?vid=afec848b-17b6-4312-b07a-31e80ca0e855"},"vehicle_type_id":"4","last_reported":1762967468,"current_range_meters":14000,"station_id":"ce4bhi12rcd13ifvqfq0","pricing_plan_id":"cebpf4jnsgd1na2vs0mg"},{"bike_id":"7405fff1-54cb-4441-8d3b-98a0b2f0eb43","system_id":"levelo_inurba_marseille","lat":43.273281,"lon":5.390523,"is_reserved":false,"is_disabled":false,"rental_uris":{"android":"levelo://app?vid=7405fff1-54cb-4441-8d3b-98a0b2f0eb43","ios":"levelo://app?vid=7405fff1-54cb-4441-8d3b-98a0b2f0eb43"},"vehicle_type_id":"4","last_reported":1762967468,"current_range_meters":14000,"station_id":"","pricing_plan_id":"cebpf4jnsgd1na2vs0mg"},{"bike_id":"82babfb8-001e-445f-9975-58db4136042d","system_id":"levelo_inurba_marseille","lat":43.281561,"lon":5.426361,"is_reserved":false,"is_disabled":true,"rental_uris":{"android":"levelo://app?vid=82babfb8-001e-445f-9975-58db4136042d","ios":"levelo://app?vid=82babfb8-001e-445f-9975-58db4136042d"},"vehicle_type_id":"4","last_reported":1762967468,"current_range_meters":14000,"station_id":"ce4bhnh2rcd13ifvqgug","pricing_plan_id":"cebpf4jnsgd1na2vs0mg"},{"bike_id":"c01ee74c-0907-4ca7-82d0-a92efd488ad9","system_id":"levelo_inurba_marseille","lat":43.22565,"lon":5.41633,"is_reserved":false,"is_disabled":false,"rental_uris":{"android":"levelo://app?vid=c01ee74c-0907-4ca7-82d0-a92efd488ad9","ios":"levelo://app?vid=c01ee74c-0907-4ca7-82d0-a92efd488ad9"},"vehicle_type_id":"4","last_reported":1762967468,"current_range_meters":14000,"station_id":"st_d2o4gvlbi1j2169b742g","pricing_plan_id":"cebpf4jnsgd1na2vs0mg"},{"bike_id":"afea9fd1-3ef1-486a-a22c-22a9fd730f8b","system_id":"levelo_inurba_marseille","lat":43.316553,"lon":5.423847,"is_reserved":false,"is_disabled":false,"rental_uris":{"android":"levelo://app?vid=afea9fd1-3ef1-486a-a22c-22a9fd730f8b","ios":"levelo://app?vid=afea9fd1-3ef1-486a-a22c-22a9fd730f8b"},"vehicle_type_id":"4","last_reported":1762967468,"current_range_meters":14000,"station_id":"ce4bhp92rcd13ifvqhbg","pricing_plan_id":"cebpf4jnsgd1na2vs0mg"},{"bike_id":"acf5cc75-aefa-4fc0-b0a2-711dc01d8eda","system_id":"levelo_inurba_marseille","lat":43.30661,"lon":5.40072,"is_reserved":false,"is_disabled":false,"rental_uris":{"android":"levelo://app?vid=acf5cc75-aefa-4fc0-b0a2-711dc01d8eda","ios":"levelo://app?vid=acf5cc75-aefa-4fc0-b0a2-711dc01d8eda"},"vehicle_type_id":"4","last_reported":1762967468,"current_range_meters":14400,"station_id":"ce4bh112rcd13ifvqda0","pricing_plan_id":"cebpf4jnsgd1na2vs0mg"},{"bike_id":"9a89ce11-7d22-4244-b358-9d9ec78ec1ea","system_id":"levelo_inurba_marseille","lat":43.28698,"lon":5.39992,"is_reserved":false,"is_disabled":false,"rental_uris":{"android":"levelo://app?vid=9a89ce11-7d22-4244-b358-9d9ec78ec1ea","ios":"levelo://app?vid=9a89ce11-7d22-4244-b358-9d9ec78ec1ea"},"vehicle_type_id":"4","last_reported":1762967468,"current_range_meters":14400,"station_id":"ce4bho92rcd13ifvqh3g","pricing_plan_id":"cebpf4jnsgd1na2vs0mg"},{"bike_id":"188ac4cb-1cd9-4343-832f-c83a52a1a7a4","system_id":"levelo_inurba_marseille","lat":43.28698,"lon":5.39983,"is_reserved":false,"is_disabled":false,"rental_uris":{"android":"levelo://app?vid=188ac4cb-1cd9-4343-832f-c83a52a1a7a4","ios":"levelo://app?vid=188ac4cb-1cd9-4343-832f-c83a52a1a7a4"},"vehicle_type_id":"4","last_reported":1762967468,"current_range_meters":14400,"station_id":"ce4bho92rcd13ifvqh3g","pricing_plan_id":"cebpf4jnsgd1na2vs0mg"},{"bike_id":"60e7fa8d-04e1-4bde-9e50-96c18d1e42a2","system_id":"levelo_inurba_marseille","lat":43.33159,"lon":5.36478,"is_reserved":false,"is_disabled":false,"rental_uris":{"android":"levelo://app?vid=60e7fa8d-04e1-4bde-9e50-96c18d1e42a2","ios":"levelo://app?vid=60e7fa8d-04e1-4bde-9e50-96c18d1e42a2"},"vehicle_type_id":"4","last_reported":1762967468,"current_range_meters":14400,"station_id":"","pricing_plan_id":"cebpf4jnsgd1na2vs0mg"},{"bike_id":"9a8ec229-2a02-411c-921b-0d94ee2289e6","system_id":"levelo_inurba_marseille","lat":43.30562,"lon":5.36728,"is_reserved":false,"is_disabled":false,"rental_uris":{"android":"levelo://app?vid=9a8ec229-2a02-411c-921b-0d94ee2289e6","ios":"levelo://app?vid=9a8ec229-2a02-411c-921b-0d94ee2289e6"},"vehicle_type_id":"4","last_reported":1762967468,"current_range_meters":14400,"station_id":"ce4bgrp2rcd13ifvqc9g","pricing_plan_id":"cebpf4jnsgd1na2vs0mg"},{"bike_id":"773e1174-a6d8-4557-aecf-23ea0bb72d04","system_id":"levelo_inurba_marseille","lat":43.27927,"lon":5.41055,"is_reserved":false,"is_disabled":false,"rental_uris":{"android":"levelo://app?vid=773e1174-a6d8-4557-aecf-23ea0bb72d04","ios":"levelo://app?vid=773e1174-a6d8-4557-aecf-23ea0bb72d04"},"vehicle_type_id":"4","last_reported":1762967468,"current_range_meters":14400,"station_id":"ce4bhnp2rcd13ifvqh0g","pricing_plan_id":"cebpf4jnsgd1na2vs0mg"},{"bike_id":"2a2ec83a-2b84-4bf4-b19a-cd864bece9fd","system_id":"levelo_inurba_marseille","lat":43.24644,"lon":5.43144,"is_reserved":false,"is_disabled":false,"rental_uris":{"android":"levelo://app?vid=2a2ec83a-2b84-4bf4-b19a-cd864bece9fd","ios":"levelo://app?vid=2a2ec83a-2b84-4bf4-b19a-cd864bece9fd"},"vehicle_type_id":"4","last_reported":1762967468,"current_range_meters":14400,"station_id":"st_d2m6c4gdas8pm72e190g","pricing_plan_id":"cebpf4jnsgd1na2vs0mg"},{"bike_id":"07cdd6c0-c821-469a-9a6b-e067fa27bb41","system_id":"levelo_inurba_marseille","lat":43.21198,"lon":5.35074,"is_reserved":false,"is_disabled":true,"rental_uris":{"android":"levelo://app?vid=07cdd6c0-c821-469a-9a6b-e067fa27bb41","ios":"levelo://app?vid=07cdd6c0-c821-469a-9a6b-e067fa27bb41"},"vehicle_type_id":"4","last_reported":1762967468,"current_range_meters":14400,"station_id":"","pricing_plan_id":"cebpf4jnsgd1na2vs0mg"},{"bike_id":"04a6edf3-cc28-447f-a97c-4bedb0ba724e","system_id":"levelo_inurba_marseille","lat":43.282553,"lon":5.351021,"is_reserved":false,"is_disabled":false,"rental_uris":{"android":"levelo://app?vid=04a6edf3-cc28-447f-a97c-4bedb0ba724e","ios":"levelo://app?vid=04a6edf3-cc28-447f-a97c-4bedb0ba724e"},"vehicle_type_id":"4","last_reported":1762967468,"current_range_meters":14800,"station_id":"","pricing_plan_id":"cebpf4jnsgd1na2vs0mg"},{"bike_id":"a26712ac-c4dc-4d7c-9767-877ec57b4780","system_id":"levelo_inurba_marseille","lat":43.28489,"lon":5.48399,"is_reserved":false,"is_disabled":false,"rental_uris":{"android":"levelo://app?vid=a26712ac-c4dc-4d7c-9767-877ec57b4780","ios":"levelo://app?vid=a26712ac-c4dc-4d7c-9767-877ec57b4780"},"vehicle_type_id":"4","last_reported":1762967468,"current_range_meters":14800,"station_id":"st_d3svhcjqgbts73a3dn0g","pricing_plan_id":"cebpf4jnsgd1na2vs0mg"},{"bike_id":"fcf8b1fd-5d5d-4cc0-aabd-7adbce1e3c61","system_id":"levelo_inurba_marseille","lat":43.23192,"lon":5.35554,"is_reserved":false,"is_disabled":false,"rental_uris":{"android":"levelo://app?vid=fcf8b1fd-5d5d-4cc0-aabd-7adbce1e3c61","ios":"levelo://app?vid=fcf8b1fd-5d5d-4cc0-aabd-7adbce1e3c61"},"vehicle_type_id":"4","last_reported":1762967468,"current_range_meters":14800,"station_id":"ce4bhu92rcd13ifvqi70","pricing_plan_id":"cebpf4jnsgd1na2vs0mg"},{"bike_id":"323532d5-0f25-48b2-a9b2-a2e7c91ba05d","system_id":"levelo_inurba_marseille","lat":43.2885,"lon":5.39324,"is_reserved":false,"is_disabled":false,"rental_uris":{"android":"levelo://app?vid=323532d5-0f25-48b2-a9b2-a2e7c91ba05d","ios":"levelo://app?vid=323532d5-0f25-48b2-a9b2-a2e7c91ba05d"},"vehicle_type_id":"4","last_reported":1762967468,"current_range_meters":14800,"station_id":"ce4bh2p2rcd13ifvqdi0","pricing_plan_id":"cebpf4jnsgd1na2vs0mg"},{"bike_id":"9f77fce6-b576-455d-a43d-b1e175676c28","system_id":"levelo_inurba_marseille","lat":43.33773,"lon":5.37473,"is_reserved":false,"is_disabled":false,"rental_uris":{"android":"levelo://app?vid=9f77fce6-b576-455d-a43d-b1e175676c28","ios":"levelo://app?vid=9f77fce6-b576-455d-a43d-b1e175676c28"},"vehicle_type_id":"4","last_reported":1762967468,"current_range_meters":14800,"station_id":"","pricing_plan_id":"cebpf4jnsgd1na2vs0mg"},{"bike_id":"be034de0-8676-42c1-8c9a-08a577c2f672","system_id":"levelo_inurba_marseille","lat":43.28932,"lon":5.38388,"is_reserved":false,"is_disabled":false,"rental_uris":{"android":"levelo://app?vid=be034de0-8676-42c1-8c9a-08a577c2f672","ios":"levelo://app?vid=be034de0-8676-42c1-8c9a-08a577c2f672"},"vehicle_type_id":"4","last_reported":1762967468,"current_range_meters":14800,"station_id":"ce4bh612rcd13ifvqe6g","pricing_plan_id":"cebpf4jnsgd1na2vs0mg"},{"bike_id":"a80ca023-74d7-4c07-bf1f-ffcfc0540306","system_id":"levelo_inurba_marseille","lat":43.28032,"lon":5.36948,"is_reserved":false,"is_disabled":false,"rental_uris":{"android":"levelo://app?vid=a80ca023-74d7-4c07-bf1f-ffcfc0540306","ios":"levelo://app?vid=a80ca023-74d7-4c07-bf1f-ffcfc0540306"},"vehicle_type_id":"4","last_reported":1762967468,"current_range_meters":14800,"station_id":"ce4bha12rcd13ifvqef0","pricing_plan_id":"cebpf4jnsgd1na2vs0mg"},{"bike_id":"2380415b-651d-4cb4-9936-c30499ae6b46","system_id":"levelo_inurba_marseille","lat":43.21743,"lon":5.34603,"is_reserved":false,"is_disabled":true,"rental_uris":{"android":"levelo://app?vid=2380415b-651d-4cb4-9936-c30499ae6b46","ios":"levelo://app?vid=2380415b-651d-4cb4-9936-c30499ae6b46"},"vehicle_type_id":"4","last_reported":1762967468,"current_range_meters":14800,"station_id":"st_cvj6r9ubvosntc0bgbag","pricing_plan_id":"cebpf4jnsgd1na2vs0mg"},{"bike_id":"f0413c71-e0c3-427b-98cb-cdf950c219e3","system_id":"levelo_inurba_marseille","lat":43.31017,"lon":5.40057,"is_reserved":false,"is_disabled":false,"rental_uris":{"android":"levelo://app?vid=f0413c71-e0c3-427b-98cb-cdf950c219e3","ios":"levelo://app?vid=f0413c71-e0c3-427b-98cb-cdf950c219e3"},"vehicle_type_id":"4","last_reported":1762967468,"current_range_meters":15200,"station_id":"","pricing_plan_id":"cebpf4jnsgd1na2vs0mg"},{"bike_id":"502a8213-e2c5-4509-8429-9fded9cb3d0a","system_id":"levelo_inurba_marseille","lat":43.292729,"lon":5.368348,"is_reserved":false,"is_disabled":true,"rental_uris":{"android":"levelo://app?vid=502a8213-e2c5-4509-8429-9fded9cb3d0a","ios":"levelo://app?vid=502a8213-e2c5-4509-8429-9fded9cb3d0a"},"vehicle_type_id":"4","last_reported":1762967468,"current_range_meters":15200,"station_id":"ce4bhbp2rcd13ifvqesg","pricing_plan_id":"cebpf4jnsgd1na2vs0mg"},{"bike_id":"1b0b7981-696f-4ec5-932c-764cd2899c70","system_id":"levelo_inurba_marseille","lat":43.28474,"lon":5.48395,"is_reserved":false,"is_disabled":false,"rental_uris":{"android":"levelo://app?vid=1b0b7981-696f-4ec5-932c-764cd2899c70","ios":"levelo://app?vid=1b0b7981-696f-4ec5-932c-764cd2899c70"},"vehicle_type_id":"4","last_reported":1762967468,"current_range_meters":15200,"station_id":"","pricing_plan_id":"cebpf4jnsgd1na2vs0mg"},{"bike_id":"0a398ce3-1397-4e7a-8138-ed7bb4559e86","system_id":"levelo_inurba_marseille","lat":43.26231,"lon":5.40453,"is_reserved":false,"is_disabled":false,"rental_uris":{"android":"levelo://app?vid=0a398ce3-1397-4e7a-8138-ed7bb4559e86","ios":"levelo://app?vid=0a398ce3-1397-4e7a-8138-ed7bb4559e86"},"vehicle_type_id":"4","last_reported":1762967468,"current_range_meters":15200,"station_id":"ce4bhmh2rcd13ifvqgmg","pricing_plan_id":"cebpf4jnsgd1na2vs0mg"},{"bike_id":"2894d131-0c4e-4172-8946-b392527d0b3a","system_id":"levelo_inurba_marseille","lat":43.28098,"lon":5.37838,"is_reserved":false,"is_disabled":false,"rental_uris":{"android":"levelo://app?vid=2894d131-0c4e-4172-8946-b392527d0b3a","ios":"levelo://app?vid=2894d131-0c4e-4172-8946-b392527d0b3a"},"vehicle_type_id":"4","last_reported":1762967468,"current_range_meters":15200,"station_id":"ce4bha12rcd13ifvqee0","pricing_plan_id":"cebpf4jnsgd1na2vs0mg"},{"bike_id":"7fdb0343-e3f4-4268-bb2b-f58cb211fd6d","system_id":"levelo_inurba_marseille","lat":43.28154,"lon":5.42635,"is_reserved":false,"is_disabled":false,"rental_uris":{"android":"levelo://app?vid=7fdb0343-e3f4-4268-bb2b-f58cb211fd6d","ios":"levelo://app?vid=7fdb0343-e3f4-4268-bb2b-f58cb211fd6d"},"vehicle_type_id":"4","last_reported":1762967468,"current_range_meters":15200,"station_id":"ce4bhnh2rcd13ifvqgug","pricing_plan_id":"cebpf4jnsgd1na2vs0mg"},{"bike_id":"e0940536-8e97-445f-9fc3-1d0cc2c2fe80","system_id":"levelo_inurba_marseille","lat":43.28859,"lon":5.42512,"is_reserved":false,"is_disabled":false,"rental_uris":{"android":"levelo://app?vid=e0940536-8e97-445f-9fc3-1d0cc2c2fe80","ios":"levelo://app?vid=e0940536-8e97-445f-9fc3-1d0cc2c2fe80"},"vehicle_type_id":"4","last_reported":1762967468,"current_range_meters":15200,"station_id":"st_d3b462108ojc7389ooeg","pricing_plan_id":"cebpf4jnsgd1na2vs0mg"},{"bike_id":"fb2d799c-a882-490e-92fb-bc08b2901f56","system_id":"levelo_inurba_marseille","lat":43.284039,"lon":5.375,"is_reserved":false,"is_disabled":false,"rental_uris":{"android":"levelo://app?vid=fb2d799c-a882-490e-92fb-bc08b2901f56","ios":"levelo://app?vid=fb2d799c-a882-490e-92fb-bc08b2901f56"},"vehicle_type_id":"4","last_reported":1762967468,"current_range_meters":15200,"station_id":"ce4bh412rcd13ifvqds0","pricing_plan_id":"cebpf4jnsgd1na2vs0mg"},{"bike_id":"1826021c-78d5-4bf7-9950-ab922f7cd7e0","system_id":"levelo_inurba_marseille","lat":43.32348,"lon":5.36753,"is_reserved":false,"is_disabled":false,"rental_uris":{"android":"levelo://app?vid=1826021c-78d5-4bf7-9950-ab922f7cd7e0","ios":"levelo://app?vid=1826021c-78d5-4bf7-9950-ab922f7cd7e0"},"vehicle_type_id":"4","last_reported":1762967468,"current_range_meters":16000,"station_id":"ce4bhsh2rcd13ifvqi2g","pricing_plan_id":"cebpf4jnsgd1na2vs0mg"},{"bike_id":"21a3ffe1-5d48-49c5-9424-07f82728f037","system_id":"levelo_inurba_marseille","lat":43.31325,"lon":5.39691,"is_reserved":false,"is_disabled":false,"rental_uris":{"android":"levelo://app?vid=21a3ffe1-5d48-49c5-9424-07f82728f037","ios":"levelo://app?vid=21a3ffe1-5d48-49c5-9424-07f82728f037"},"vehicle_type_id":"4","last_reported":1762967468,"current_range_meters":16000,"station_id":"ce4bgvp2rcd13ifvqcu0","pricing_plan_id":"cebpf4jnsgd1na2vs0mg"},{"bike_id":"fb697cb6-79f8-4eca-8f11-47b5467e9ca9","system_id":"levelo_inurba_marseille","lat":43.29977,"lon":5.37166,"is_reserved":false,"is_disabled":false,"rental_uris":{"android":"levelo://app?vid=fb697cb6-79f8-4eca-8f11-47b5467e9ca9","ios":"levelo://app?vid=fb697cb6-79f8-4eca-8f11-47b5467e9ca9"},"vehicle_type_id":"4","last_reported":1762967468,"current_range_meters":16000,"station_id":"ce4bgr92rcd13ifvqc7g","pricing_plan_id":"cebpf4jnsgd1na2vs0mg"},{"bike_id":"9f687ab8-6f7a-4497-a1c3-bc245d8f5b1a","system_id":"levelo_inurba_marseille","lat":43.34142,"lon":5.4091,"is_reserved":false,"is_disabled":false,"rental_uris":{"android":"levelo://app?vid=9f687ab8-6f7a-4497-a1c3-bc245d8f5b1a","ios":"levelo://app?vid=9f687ab8-6f7a-4497-a1c3-bc245d8f5b1a"},"vehicle_type_id":"4","last_reported":1762967468,"current_range_meters":16000,"station_id":"ce4bhqh2rcd13ifvqhlg","pricing_plan_id":"cebpf4jnsgd1na2vs0mg"},{"bike_id":"adb7842d-cc39-4b4a-8650-c6ab9d886021","system_id":"levelo_inurba_marseille","lat":43.295816,"lon":5.423088,"is_reserved":false,"is_disabled":false,"rental_uris":{"android":"levelo://app?vid=adb7842d-cc39-4b4a-8650-c6ab9d886021","ios":"levelo://app?vid=adb7842d-cc39-4b4a-8650-c6ab9d886021"},"vehicle_type_id":"4","last_reported":1762967468,"current_range_meters":16000,"station_id":"st_d3md5207bmas73dh9klg","pricing_plan_id":"cebpf4jnsgd1na2vs0mg"},{"bike_id":"87b2ef88-27d3-45ad-b375-3418795e8580","system_id":"levelo_inurba_marseille","lat":43.21745,"lon":5.34607,"is_reserved":false,"is_disabled":false,"rental_uris":{"android":"levelo://app?vid=87b2ef88-27d3-45ad-b375-3418795e8580","ios":"levelo://app?vid=87b2ef88-27d3-45ad-b375-3418795e8580"},"vehicle_type_id":"4","last_reported":1762967468,"current_range_meters":16000,"station_id":"st_cvj6r9ubvosntc0bgbag","pricing_plan_id":"cebpf4jnsgd1na2vs0mg"},{"bike_id":"d3c09af1-4011-4dfe-a4a5-36787e14f339","system_id":"levelo_inurba_marseille","lat":43.32366,"lon":5.38881,"is_reserved":false,"is_disabled":false,"rental_uris":{"android":"levelo://app?vid=d3c09af1-4011-4dfe-a4a5-36787e14f339","ios":"levelo://app?vid=d3c09af1-4011-4dfe-a4a5-36787e14f339"},"vehicle_type_id":"4","last_reported":1762967468,"current_range_meters":16000,"station_id":"ce4bhqp2rcd13ifvqhog","pricing_plan_id":"cebpf4jnsgd1na2vs0mg"},{"bike_id":"9f257429-210e-4187-b310-fa3b4c5c3978","system_id":"levelo_inurba_marseille","lat":43.27318,"lon":5.40172,"is_reserved":false,"is_disabled":false,"rental_uris":{"android":"levelo://app?vid=9f257429-210e-4187-b310-fa3b4c5c3978","ios":"levelo://app?vid=9f257429-210e-4187-b310-fa3b4c5c3978"},"vehicle_type_id":"4","last_reported":1762967468,"current_range_meters":16400,"station_id":"","pricing_plan_id":"cebpf4jnsgd1na2vs0mg"},{"bike_id":"a76ed384-8adb-4855-8ea9-608b64e9d92b","system_id":"levelo_inurba_marseille","lat":43.32276,"lon":5.37,"is_reserved":false,"is_disabled":false,"rental_uris":{"android":"levelo://app?vid=a76ed384-8adb-4855-8ea9-608b64e9d92b","ios":"levelo://app?vid=a76ed384-8adb-4855-8ea9-608b64e9d92b"},"vehicle_type_id":"4","last_reported":1762967468,"current_range_meters":16400,"station_id":"","pricing_plan_id":"cebpf4jnsgd1na2vs0mg"},{"bike_id":"3acb1f87-c62f-4be0-9535-d92c7de9d85a","system_id":"levelo_inurba_marseille","lat":43.28409,"lon":5.37517,"is_reserved":false,"is_disabled":false,"rental_uris":{"android":"levelo://app?vid=3acb1f87-c62f-4be0-9535-d92c7de9d85a","ios":"levelo://app?vid=3acb1f87-c62f-4be0-9535-d92c7de9d85a"},"vehicle_type_id":"4","last_reported":1762967468,"current_range_meters":16400,"station_id":"ce4bh412rcd13ifvqds0","pricing_plan_id":"cebpf4jnsgd1na2vs0mg"},{"bike_id":"ef3787f7-4815-49ad-b8f4-4132eb78b8f9","system_id":"levelo_inurba_marseille","lat":43.30529,"lon":5.36554,"is_reserved":false,"is_disabled":false,"rental_uris":{"android":"levelo://app?vid=ef3787f7-4815-49ad-b8f4-4132eb78b8f9","ios":"levelo://app?vid=ef3787f7-4815-49ad-b8f4-4132eb78b8f9"},"vehicle_type_id":"4","last_reported":1762967468,"current_range_meters":16800,"station_id":"ce4bgs12rcd13ifvqcag","pricing_plan_id":"cebpf4jnsgd1na2vs0mg"},{"bike_id":"5a1a0488-169c-4229-99cb-d2ad1b73503d","system_id":"levelo_inurba_marseille","lat":43.29532,"lon":5.3854,"is_reserved":false,"is_disabled":false,"rental_uris":{"android":"levelo://app?vid=5a1a0488-169c-4229-99cb-d2ad1b73503d","ios":"levelo://app?vid=5a1a0488-169c-4229-99cb-d2ad1b73503d"},"vehicle_type_id":"4","last_reported":1762967468,"current_range_meters":16800,"station_id":"ce4bgih2rcd13ifvqba0","pricing_plan_id":"cebpf4jnsgd1na2vs0mg"},{"bike_id":"0397b4ec-d020-4836-b028-74af56a95975","system_id":"levelo_inurba_marseille","lat":43.28153,"lon":5.42644,"is_reserved":false,"is_disabled":false,"rental_uris":{"android":"levelo://app?vid=0397b4ec-d020-4836-b028-74af56a95975","ios":"levelo://app?vid=0397b4ec-d020-4836-b028-74af56a95975"},"vehicle_type_id":"4","last_reported":1762967468,"current_range_meters":16800,"station_id":"ce4bhnh2rcd13ifvqgug","pricing_plan_id":"cebpf4jnsgd1na2vs0mg"},{"bike_id":"23f9c78c-ca0a-48be-8a9d-156c748920c2","system_id":"levelo_inurba_marseille","lat":43.27927,"lon":5.41028,"is_reserved":false,"is_disabled":false,"rental_uris":{"android":"levelo://app?vid=23f9c78c-ca0a-48be-8a9d-156c748920c2","ios":"levelo://app?vid=23f9c78c-ca0a-48be-8a9d-156c748920c2"},"vehicle_type_id":"4","last_reported":1762967468,"current_range_meters":16800,"station_id":"ce4bhnp2rcd13ifvqh0g","pricing_plan_id":"cebpf4jnsgd1na2vs0mg"},{"bike_id":"9106d1e6-c848-4688-b917-d0e5e79fb4b2","system_id":"levelo_inurba_marseille","lat":43.29755,"lon":5.42779,"is_reserved":false,"is_disabled":false,"rental_uris":{"android":"levelo://app?vid=9106d1e6-c848-4688-b917-d0e5e79fb4b2","ios":"levelo://app?vid=9106d1e6-c848-4688-b917-d0e5e79fb4b2"},"vehicle_type_id":"4","last_reported":1762967468,"current_range_meters":16800,"station_id":"st_d3md5207bmas73dh9klg","pricing_plan_id":"cebpf4jnsgd1na2vs0mg"},{"bike_id":"98d9ed27-1c51-4232-bb05-142a9e7f98db","system_id":"levelo_inurba_marseille","lat":43.31075,"lon":5.38351,"is_reserved":false,"is_disabled":true,"rental_uris":{"android":"levelo://app?vid=98d9ed27-1c51-4232-bb05-142a9e7f98db","ios":"levelo://app?vid=98d9ed27-1c51-4232-bb05-142a9e7f98db"},"vehicle_type_id":"4","last_reported":1762967468,"current_range_meters":16800,"station_id":"ce4bgv92rcd13ifvqcr0","pricing_plan_id":"cebpf4jnsgd1na2vs0mg"},{"bike_id":"4f27c235-11df-4df2-bfdf-8938c3d9c6ba","system_id":"levelo_inurba_marseille","lat":43.33781,"lon":5.37431,"is_reserved":false,"is_disabled":false,"rental_uris":{"android":"levelo://app?vid=4f27c235-11df-4df2-bfdf-8938c3d9c6ba","ios":"levelo://app?vid=4f27c235-11df-4df2-bfdf-8938c3d9c6ba"},"vehicle_type_id":"4","last_reported":1762967468,"current_range_meters":16800,"station_id":"","pricing_plan_id":"cebpf4jnsgd1na2vs0mg"},{"bike_id":"b973542d-88ff-4253-9b4e-a75517007190","system_id":"levelo_inurba_marseille","lat":43.29649,"lon":5.37593,"is_reserved":false,"is_disabled":false,"rental_uris":{"android":"levelo://app?vid=b973542d-88ff-4253-9b4e-a75517007190","ios":"levelo://app?vid=b973542d-88ff-4253-9b4e-a75517007190"},"vehicle_type_id":"4","last_reported":1762967468,"current_range_meters":16800,"station_id":"","pricing_plan_id":"cebpf4jnsgd1na2vs0mg"},{"bike_id":"a755c155-92e5-4d3a-949b-5c3d492d93cb","system_id":"levelo_inurba_marseille","lat":43.26954,"lon":5.38631,"is_reserved":false,"is_disabled":false,"rental_uris":{"android":"levelo://app?vid=a755c155-92e5-4d3a-949b-5c3d492d93cb","ios":"levelo://app?vid=a755c155-92e5-4d3a-949b-5c3d492d93cb"},"vehicle_type_id":"4","last_reported":1762967468,"current_range_meters":16800,"station_id":"ce4bhh92rcd13ifvqfh0","pricing_plan_id":"cebpf4jnsgd1na2vs0mg"},{"bike_id":"c9a41f20-861a-4d32-91b1-292791b535f8","system_id":"levelo_inurba_marseille","lat":43.30558,"lon":5.36523,"is_reserved":false,"is_disabled":false,"rental_uris":{"android":"levelo://app?vid=c9a41f20-861a-4d32-91b1-292791b535f8","ios":"levelo://app?vid=c9a41f20-861a-4d32-91b1-292791b535f8"},"vehicle_type_id":"4","last_reported":1762967468,"current_range_meters":17200,"station_id":"ce4bgs12rcd13ifvqcag","pricing_plan_id":"cebpf4jnsgd1na2vs0mg"},{"bike_id":"bc1f94c4-0012-4f42-8860-de0e6f3dfdc4","system_id":"levelo_inurba_marseille","lat":43.27813,"lon":5.40717,"is_reserved":false,"is_disabled":false,"rental_uris":{"android":"levelo://app?vid=bc1f94c4-0012-4f42-8860-de0e6f3dfdc4","ios":"levelo://app?vid=bc1f94c4-0012-4f42-8860-de0e6f3dfdc4"},"vehicle_type_id":"4","last_reported":1762967468,"current_range_meters":17200,"station_id":"ce4bhnh2rcd13ifvqgtg","pricing_plan_id":"cebpf4jnsgd1na2vs0mg"},{"bike_id":"45e3d3b1-6cdc-41db-92d6-0148f0659a26","system_id":"levelo_inurba_marseille","lat":43.2871,"lon":5.3883,"is_reserved":false,"is_disabled":false,"rental_uris":{"android":"levelo://app?vid=45e3d3b1-6cdc-41db-92d6-0148f0659a26","ios":"levelo://app?vid=45e3d3b1-6cdc-41db-92d6-0148f0659a26"},"vehicle_type_id":"4","last_reported":1762967468,"current_range_meters":17200,"station_id":"ce4bh492rcd13ifvqdug","pricing_plan_id":"cebpf4jnsgd1na2vs0mg"},{"bike_id":"cf03037b-7a59-4ddf-bdd3-e82611d9a11e","system_id":"levelo_inurba_marseille","lat":43.25335,"lon":5.42176,"is_reserved":false,"is_disabled":false,"rental_uris":{"android":"levelo://app?vid=cf03037b-7a59-4ddf-bdd3-e82611d9a11e","ios":"levelo://app?vid=cf03037b-7a59-4ddf-bdd3-e82611d9a11e"},"vehicle_type_id":"4","last_reported":1762967468,"current_range_meters":17200,"station_id":"st_d2m65c5bi1j21697t3ng","pricing_plan_id":"cebpf4jnsgd1na2vs0mg"},{"bike_id":"62784dbd-a584-468d-9df8-48fcebdc4f95","system_id":"levelo_inurba_marseille","lat":43.30125,"lon":5.38781,"is_reserved":false,"is_disabled":false,"rental_uris":{"android":"levelo://app?vid=62784dbd-a584-468d-9df8-48fcebdc4f95","ios":"levelo://app?vid=62784dbd-a584-468d-9df8-48fcebdc4f95"},"vehicle_type_id":"4","last_reported":1762967468,"current_range_meters":17200,"station_id":"ce4bghh2rcd13ifvqb60","pricing_plan_id":"cebpf4jnsgd1na2vs0mg"},{"bike_id":"9eeb35db-e9eb-449a-aae0-70ebf1eea0ca","system_id":"levelo_inurba_marseille","lat":43.30884,"lon":5.39634,"is_reserved":false,"is_disabled":false,"rental_uris":{"android":"levelo://app?vid=9eeb35db-e9eb-449a-aae0-70ebf1eea0ca","ios":"levelo://app?vid=9eeb35db-e9eb-449a-aae0-70ebf1eea0ca"},"vehicle_type_id":"4","last_reported":1762967468,"current_range_meters":17200,"station_id":"ce4bh012rcd13ifvqcv0","pricing_plan_id":"cebpf4jnsgd1na2vs0mg"},{"bike_id":"983eb4c5-b42b-4c15-9109-dc39dc115009","system_id":"levelo_inurba_marseille","lat":43.28425,"lon":5.375,"is_reserved":false,"is_disabled":false,"rental_uris":{"android":"levelo://app?vid=983eb4c5-b42b-4c15-9109-dc39dc115009","ios":"levelo://app?vid=983eb4c5-b42b-4c15-9109-dc39dc115009"},"vehicle_type_id":"4","last_reported":1762967468,"current_range_meters":17200,"station_id":"ce4bh412rcd13ifvqds0","pricing_plan_id":"cebpf4jnsgd1na2vs0mg"},{"bike_id":"e690290b-b188-4bf4-9457-b92ed6970cb4","system_id":"levelo_inurba_marseille","lat":43.21189,"lon":5.35083,"is_reserved":false,"is_disabled":true,"rental_uris":{"android":"levelo://app?vid=e690290b-b188-4bf4-9457-b92ed6970cb4","ios":"levelo://app?vid=e690290b-b188-4bf4-9457-b92ed6970cb4"},"vehicle_type_id":"4","last_reported":1762967468,"current_range_meters":17200,"station_id":"st_cvj6sg6p6f1abm77japg","pricing_plan_id":"cebpf4jnsgd1na2vs0mg"},{"bike_id":"08b14b0c-b993-4b4b-9464-75ba8796b4e7","system_id":"levelo_inurba_marseille","lat":43.278555,"lon":5.395566,"is_reserved":false,"is_disabled":false,"rental_uris":{"android":"levelo://app?vid=08b14b0c-b993-4b4b-9464-75ba8796b4e7","ios":"levelo://app?vid=08b14b0c-b993-4b4b-9464-75ba8796b4e7"},"vehicle_type_id":"4","last_reported":1762967468,"current_range_meters":17200,"station_id":"ce4bhf92rcd13ifvqf40","pricing_plan_id":"cebpf4jnsgd1na2vs0mg"},{"bike_id":"6456e69b-1a5e-4ad6-9ace-abe8f5c52db8","system_id":"levelo_inurba_marseille","lat":43.27949,"lon":5.41046,"is_reserved":false,"is_disabled":false,"rental_uris":{"android":"levelo://app?vid=6456e69b-1a5e-4ad6-9ace-abe8f5c52db8","ios":"levelo://app?vid=6456e69b-1a5e-4ad6-9ace-abe8f5c52db8"},"vehicle_type_id":"4","last_reported":1762967468,"current_range_meters":17600,"station_id":"ce4bhnp2rcd13ifvqh0g","pricing_plan_id":"cebpf4jnsgd1na2vs0mg"},{"bike_id":"3f3db3e0-8786-462c-9790-1156703a5fd2","system_id":"levelo_inurba_marseille","lat":43.22917,"lon":5.35385,"is_reserved":false,"is_disabled":false,"rental_uris":{"android":"levelo://app?vid=3f3db3e0-8786-462c-9790-1156703a5fd2","ios":"levelo://app?vid=3f3db3e0-8786-462c-9790-1156703a5fd2"},"vehicle_type_id":"4","last_reported":1762967468,"current_range_meters":17600,"station_id":"cpo3532slgdg3j2ikp40","pricing_plan_id":"cebpf4jnsgd1na2vs0mg"},{"bike_id":"4a758c08-28b2-4a1a-8416-9f1b5c31d6d7","system_id":"levelo_inurba_marseille","lat":43.26578,"lon":5.39033,"is_reserved":false,"is_disabled":false,"rental_uris":{"android":"levelo://app?vid=4a758c08-28b2-4a1a-8416-9f1b5c31d6d7","ios":"levelo://app?vid=4a758c08-28b2-4a1a-8416-9f1b5c31d6d7"},"vehicle_type_id":"4","last_reported":1762967468,"current_range_meters":17600,"station_id":"ce4bhe12rcd13ifvqf30","pricing_plan_id":"cebpf4jnsgd1na2vs0mg"},{"bike_id":"a68809aa-d0e6-461c-a5e6-8fdb1f2108c8","system_id":"levelo_inurba_marseille","lat":43.28305,"lon":5.35047,"is_reserved":false,"is_disabled":false,"rental_uris":{"android":"levelo://app?vid=a68809aa-d0e6-461c-a5e6-8fdb1f2108c8","ios":"levelo://app?vid=a68809aa-d0e6-461c-a5e6-8fdb1f2108c8"},"vehicle_type_id":"4","last_reported":1762967468,"current_range_meters":17600,"station_id":"ce4bhbp2rcd13ifvqerg","pricing_plan_id":"cebpf4jnsgd1na2vs0mg"},{"bike_id":"408cb803-32a9-4c3f-b39b-59b4e651ace1","system_id":"levelo_inurba_marseille","lat":43.28612,"lon":5.39873,"is_reserved":false,"is_disabled":false,"rental_uris":{"android":"levelo://app?vid=408cb803-32a9-4c3f-b39b-59b4e651ace1","ios":"levelo://app?vid=408cb803-32a9-4c3f-b39b-59b4e651ace1"},"vehicle_type_id":"4","last_reported":1762967468,"current_range_meters":17600,"station_id":"st_d4a7ka997mjs738ck50g","pricing_plan_id":"cebpf4jnsgd1na2vs0mg"},{"bike_id":"86437639-cdec-400c-95c4-1ca6a884093c","system_id":"levelo_inurba_marseille","lat":43.28703,"lon":5.39987,"is_reserved":false,"is_disabled":false,"rental_uris":{"android":"levelo://app?vid=86437639-cdec-400c-95c4-1ca6a884093c","ios":"levelo://app?vid=86437639-cdec-400c-95c4-1ca6a884093c"},"vehicle_type_id":"4","last_reported":1762967468,"current_range_meters":17600,"station_id":"ce4bho92rcd13ifvqh3g","pricing_plan_id":"cebpf4jnsgd1na2vs0mg"},{"bike_id":"39c57f92-c6be-4ef9-aa76-197019620266","system_id":"levelo_inurba_marseille","lat":43.29532,"lon":5.38546,"is_reserved":false,"is_disabled":false,"rental_uris":{"android":"levelo://app?vid=39c57f92-c6be-4ef9-aa76-197019620266","ios":"levelo://app?vid=39c57f92-c6be-4ef9-aa76-197019620266"},"vehicle_type_id":"4","last_reported":1762967468,"current_range_meters":17600,"station_id":"ce4bgih2rcd13ifvqba0","pricing_plan_id":"cebpf4jnsgd1na2vs0mg"},{"bike_id":"676ebf71-b20b-4050-aa07-653abe4fc568","system_id":"levelo_inurba_marseille","lat":43.27815,"lon":5.40703,"is_reserved":false,"is_disabled":false,"rental_uris":{"android":"levelo://app?vid=676ebf71-b20b-4050-aa07-653abe4fc568","ios":"levelo://app?vid=676ebf71-b20b-4050-aa07-653abe4fc568"},"vehicle_type_id":"4","last_reported":1762967468,"current_range_meters":18000,"station_id":"ce4bhnh2rcd13ifvqgtg","pricing_plan_id":"cebpf4jnsgd1na2vs0mg"},{"bike_id":"b646e2f2-b071-4c6f-89d2-eff54f20a17e","system_id":"levelo_inurba_marseille","lat":43.31316,"lon":5.39711,"is_reserved":false,"is_disabled":false,"rental_uris":{"android":"levelo://app?vid=b646e2f2-b071-4c6f-89d2-eff54f20a17e","ios":"levelo://app?vid=b646e2f2-b071-4c6f-89d2-eff54f20a17e"},"vehicle_type_id":"4","last_reported":1762967468,"current_range_meters":18000,"station_id":"ce4bgvp2rcd13ifvqcu0","pricing_plan_id":"cebpf4jnsgd1na2vs0mg"},{"bike_id":"6458fed3-f8d7-40bd-bdfb-b30d64cc4043","system_id":"levelo_inurba_marseille","lat":43.290405,"lon":5.375548,"is_reserved":false,"is_disabled":false,"rental_uris":{"android":"levelo://app?vid=6458fed3-f8d7-40bd-bdfb-b30d64cc4043","ios":"levelo://app?vid=6458fed3-f8d7-40bd-bdfb-b30d64cc4043"},"vehicle_type_id":"4","last_reported":1762967468,"current_range_meters":18000,"station_id":"ce4bh692rcd13ifvqe90","pricing_plan_id":"cebpf4jnsgd1na2vs0mg"},{"bike_id":"4930e871-eeac-40ca-b4ee-36ddc8ee3366","system_id":"levelo_inurba_marseille","lat":43.23192,"lon":5.35558,"is_reserved":false,"is_disabled":false,"rental_uris":{"android":"levelo://app?vid=4930e871-eeac-40ca-b4ee-36ddc8ee3366","ios":"levelo://app?vid=4930e871-eeac-40ca-b4ee-36ddc8ee3366"},"vehicle_type_id":"4","last_reported":1762967468,"current_range_meters":18000,"station_id":"ce4bhu92rcd13ifvqi70","pricing_plan_id":"cebpf4jnsgd1na2vs0mg"},{"bike_id":"ed394533-6036-4179-b08b-7605a5470b80","system_id":"levelo_inurba_marseille","lat":43.28357,"lon":5.38649,"is_reserved":false,"is_disabled":false,"rental_uris":{"android":"levelo://app?vid=ed394533-6036-4179-b08b-7605a5470b80","ios":"levelo://app?vid=ed394533-6036-4179-b08b-7605a5470b80"},"vehicle_type_id":"4","last_reported":1762967468,"current_range_meters":18000,"station_id":"ce4bh492rcd13ifvqdvg","pricing_plan_id":"cebpf4jnsgd1na2vs0mg"},{"bike_id":"dc440a23-ac6f-4d15-a0a1-ad52f66d24a2","system_id":"levelo_inurba_marseille","lat":43.289559,"lon":5.378418,"is_reserved":false,"is_disabled":false,"rental_uris":{"android":"levelo://app?vid=dc440a23-ac6f-4d15-a0a1-ad52f66d24a2","ios":"levelo://app?vid=dc440a23-ac6f-4d15-a0a1-ad52f66d24a2"},"vehicle_type_id":"4","last_reported":1762967468,"current_range_meters":18000,"station_id":"ce4bh9p2rcd13ifvqed0","pricing_plan_id":"cebpf4jnsgd1na2vs0mg"},{"bike_id":"c83b5c1b-edab-4bfb-a2f2-d3468c55c2ba","system_id":"levelo_inurba_marseille","lat":43.29166,"lon":5.44874,"is_reserved":false,"is_disabled":false,"rental_uris":{"android":"levelo://app?vid=c83b5c1b-edab-4bfb-a2f2-d3468c55c2ba","ios":"levelo://app?vid=c83b5c1b-edab-4bfb-a2f2-d3468c55c2ba"},"vehicle_type_id":"4","last_reported":1762967468,"current_range_meters":18800,"station_id":"","pricing_plan_id":"cebpf4jnsgd1na2vs0mg"},{"bike_id":"7a1ef263-c216-402e-bafc-92d8214c104a","system_id":"levelo_inurba_marseille","lat":43.337444,"lon":5.374475,"is_reserved":false,"is_disabled":false,"rental_uris":{"android":"levelo://app?vid=7a1ef263-c216-402e-bafc-92d8214c104a","ios":"levelo://app?vid=7a1ef263-c216-402e-bafc-92d8214c104a"},"vehicle_type_id":"4","last_reported":1762967468,"current_range_meters":18800,"station_id":"","pricing_plan_id":"cebpf4jnsgd1na2vs0mg"},{"bike_id":"33112738-bd15-41d4-aae1-465688929b4c","system_id":"levelo_inurba_marseille","lat":43.30684,"lon":5.3953,"is_reserved":false,"is_disabled":false,"rental_uris":{"android":"levelo://app?vid=33112738-bd15-41d4-aae1-465688929b4c","ios":"levelo://app?vid=33112738-bd15-41d4-aae1-465688929b4c"},"vehicle_type_id":"4","last_reported":1762967468,"current_range_meters":18800,"station_id":"","pricing_plan_id":"cebpf4jnsgd1na2vs0mg"},{"bike_id":"af54c478-9567-441c-8802-eb3d7c9ad5d5","system_id":"levelo_inurba_marseille","lat":43.30027,"lon":5.38886,"is_reserved":false,"is_disabled":false,"rental_uris":{"android":"levelo://app?vid=af54c478-9567-441c-8802-eb3d7c9ad5d5","ios":"levelo://app?vid=af54c478-9567-441c-8802-eb3d7c9ad5d5"},"vehicle_type_id":"4","last_reported":1762967468,"current_range_meters":18800,"station_id":"","pricing_plan_id":"cebpf4jnsgd1na2vs0mg"},{"bike_id":"30b41e82-9b75-44bc-b241-bf93939ebc74","system_id":"levelo_inurba_marseille","lat":43.28865,"lon":5.42509,"is_reserved":false,"is_disabled":false,"rental_uris":{"android":"levelo://app?vid=30b41e82-9b75-44bc-b241-bf93939ebc74","ios":"levelo://app?vid=30b41e82-9b75-44bc-b241-bf93939ebc74"},"vehicle_type_id":"4","last_reported":1762967468,"current_range_meters":18800,"station_id":"st_d3b462108ojc7389ooeg","pricing_plan_id":"cebpf4jnsgd1na2vs0mg"},{"bike_id":"b076923e-4c2f-4d3c-a23e-452a1ab98ffd","system_id":"levelo_inurba_marseille","lat":43.287018,"lon":5.399883,"is_reserved":false,"is_disabled":false,"rental_uris":{"android":"levelo://app?vid=b076923e-4c2f-4d3c-a23e-452a1ab98ffd","ios":"levelo://app?vid=b076923e-4c2f-4d3c-a23e-452a1ab98ffd"},"vehicle_type_id":"4","last_reported":1762967468,"current_range_meters":18800,"station_id":"ce4bho92rcd13ifvqh3g","pricing_plan_id":"cebpf4jnsgd1na2vs0mg"},{"bike_id":"9d2f71f3-d678-47da-be48-e00d2db52536","system_id":"levelo_inurba_marseille","lat":43.27581,"lon":5.38421,"is_reserved":false,"is_disabled":false,"rental_uris":{"android":"levelo://app?vid=9d2f71f3-d678-47da-be48-e00d2db52536","ios":"levelo://app?vid=9d2f71f3-d678-47da-be48-e00d2db52536"},"vehicle_type_id":"4","last_reported":1762967468,"current_range_meters":18800,"station_id":"ce4bhh92rcd13ifvqfi0","pricing_plan_id":"cebpf4jnsgd1na2vs0mg"},{"bike_id":"8a61ae17-4752-4052-817f-7efd2235dbaa","system_id":"levelo_inurba_marseille","lat":43.26805,"lon":5.40268,"is_reserved":false,"is_disabled":false,"rental_uris":{"android":"levelo://app?vid=8a61ae17-4752-4052-817f-7efd2235dbaa","ios":"levelo://app?vid=8a61ae17-4752-4052-817f-7efd2235dbaa"},"vehicle_type_id":"4","last_reported":1762967468,"current_range_meters":18800,"station_id":"ce501612rcd8frsf0b60","pricing_plan_id":"cebpf4jnsgd1na2vs0mg"},{"bike_id":"cc0f8ca4-ae33-432c-aefe-5c00c9e85faf","system_id":"levelo_inurba_marseille","lat":43.2888,"lon":5.42529,"is_reserved":false,"is_disabled":false,"rental_uris":{"android":"levelo://app?vid=cc0f8ca4-ae33-432c-aefe-5c00c9e85faf","ios":"levelo://app?vid=cc0f8ca4-ae33-432c-aefe-5c00c9e85faf"},"vehicle_type_id":"4","last_reported":1762967468,"current_range_meters":18800,"station_id":"st_d3b462108ojc7389ooeg","pricing_plan_id":"cebpf4jnsgd1na2vs0mg"},{"bike_id":"b9c2c41e-21e5-42d9-b52f-7bee059bb9fe","system_id":"levelo_inurba_marseille","lat":43.25107,"lon":5.40302,"is_reserved":false,"is_disabled":false,"rental_uris":{"android":"levelo://app?vid=b9c2c41e-21e5-42d9-b52f-7bee059bb9fe","ios":"levelo://app?vid=b9c2c41e-21e5-42d9-b52f-7bee059bb9fe"},"vehicle_type_id":"4","last_reported":1762967468,"current_range_meters":19200,"station_id":"ce4bhi12rcd13ifvqfq0","pricing_plan_id":"cebpf4jnsgd1na2vs0mg"},{"bike_id":"b7e51f3d-e5b2-4b43-8a4f-5f5b271bb10b","system_id":"levelo_inurba_marseille","lat":43.290139,"lon":5.386681,"is_reserved":false,"is_disabled":false,"rental_uris":{"android":"levelo://app?vid=b7e51f3d-e5b2-4b43-8a4f-5f5b271bb10b","ios":"levelo://app?vid=b7e51f3d-e5b2-4b43-8a4f-5f5b271bb10b"},"vehicle_type_id":"4","last_reported":1762967468,"current_range_meters":19200,"station_id":"ce4bh4p2rcd13ifvqe0g","pricing_plan_id":"cebpf4jnsgd1na2vs0mg"},{"bike_id":"7e3116fb-7f5d-4f48-bf2a-bdaeadb211c6","system_id":"levelo_inurba_marseille","lat":43.30303,"lon":5.36919,"is_reserved":false,"is_disabled":false,"rental_uris":{"android":"levelo://app?vid=7e3116fb-7f5d-4f48-bf2a-bdaeadb211c6","ios":"levelo://app?vid=7e3116fb-7f5d-4f48-bf2a-bdaeadb211c6"},"vehicle_type_id":"4","last_reported":1762967468,"current_range_meters":19200,"station_id":"ce4bgqh2rcd13ifvqc5g","pricing_plan_id":"cebpf4jnsgd1na2vs0mg"},{"bike_id":"3d618044-dd40-4bc4-ba33-d00d350a6857","system_id":"levelo_inurba_marseille","lat":43.30796,"lon":5.38145,"is_reserved":false,"is_disabled":false,"rental_uris":{"android":"levelo://app?vid=3d618044-dd40-4bc4-ba33-d00d350a6857","ios":"levelo://app?vid=3d618044-dd40-4bc4-ba33-d00d350a6857"},"vehicle_type_id":"4","last_reported":1762967468,"current_range_meters":19200,"station_id":"ce4bgt12rcd13ifvqce0","pricing_plan_id":"cebpf4jnsgd1na2vs0mg"},{"bike_id":"f5b7b94a-ada4-4f44-a92f-1ec774ba84d9","system_id":"levelo_inurba_marseille","lat":43.28026,"lon":5.36947,"is_reserved":false,"is_disabled":false,"rental_uris":{"android":"levelo://app?vid=f5b7b94a-ada4-4f44-a92f-1ec774ba84d9","ios":"levelo://app?vid=f5b7b94a-ada4-4f44-a92f-1ec774ba84d9"},"vehicle_type_id":"4","last_reported":1762967468,"current_range_meters":19200,"station_id":"ce4bha12rcd13ifvqef0","pricing_plan_id":"cebpf4jnsgd1na2vs0mg"},{"bike_id":"7ddb6f62-0ee8-49ee-84a8-95bb4f4c5de3","system_id":"levelo_inurba_marseille","lat":43.25576,"lon":5.38239,"is_reserved":false,"is_disabled":false,"rental_uris":{"android":"levelo://app?vid=7ddb6f62-0ee8-49ee-84a8-95bb4f4c5de3","ios":"levelo://app?vid=7ddb6f62-0ee8-49ee-84a8-95bb4f4c5de3"},"vehicle_type_id":"4","last_reported":1762967468,"current_range_meters":19200,"station_id":"ce4bhih2rcd13ifvqfs0","pricing_plan_id":"cebpf4jnsgd1na2vs0mg"},{"bike_id":"ba323dff-b9db-46a6-9b3d-234c2e5f91d5","system_id":"levelo_inurba_marseille","lat":43.27812,"lon":5.40705,"is_reserved":false,"is_disabled":false,"rental_uris":{"android":"levelo://app?vid=ba323dff-b9db-46a6-9b3d-234c2e5f91d5","ios":"levelo://app?vid=ba323dff-b9db-46a6-9b3d-234c2e5f91d5"},"vehicle_type_id":"4","last_reported":1762967468,"current_range_meters":19200,"station_id":"ce4bhnh2rcd13ifvqgtg","pricing_plan_id":"cebpf4jnsgd1na2vs0mg"},{"bike_id":"e82f3b49-ba15-4b72-a163-8697e61eb6ab","system_id":"levelo_inurba_marseille","lat":43.315308,"lon":5.380332,"is_reserved":false,"is_disabled":false,"rental_uris":{"android":"levelo://app?vid=e82f3b49-ba15-4b72-a163-8697e61eb6ab","ios":"levelo://app?vid=e82f3b49-ba15-4b72-a163-8697e61eb6ab"},"vehicle_type_id":"4","last_reported":1762967468,"current_range_meters":19200,"station_id":"ce4bhsp2rcd13ifvqi50","pricing_plan_id":"cebpf4jnsgd1na2vs0mg"},{"bike_id":"fc49e022-916b-4364-8aae-868a9613aae0","system_id":"levelo_inurba_marseille","lat":43.27823,"lon":5.40764,"is_reserved":false,"is_disabled":false,"rental_uris":{"android":"levelo://app?vid=fc49e022-916b-4364-8aae-868a9613aae0","ios":"levelo://app?vid=fc49e022-916b-4364-8aae-868a9613aae0"},"vehicle_type_id":"4","last_reported":1762967468,"current_range_meters":19200,"station_id":"ce4bhnh2rcd13ifvqgtg","pricing_plan_id":"cebpf4jnsgd1na2vs0mg"},{"bike_id":"3c044412-cb78-40bc-afc2-12c02ba92b7c","system_id":"levelo_inurba_marseille","lat":43.33016,"lon":5.39027,"is_reserved":false,"is_disabled":false,"rental_uris":{"android":"levelo://app?vid=3c044412-cb78-40bc-afc2-12c02ba92b7c","ios":"levelo://app?vid=3c044412-cb78-40bc-afc2-12c02ba92b7c"},"vehicle_type_id":"4","last_reported":1762967468,"current_range_meters":19200,"station_id":"ce4bhr92rcd13ifvqhrg","pricing_plan_id":"cebpf4jnsgd1na2vs0mg"},{"bike_id":"afd25705-08c3-4557-ae45-67a1fe0a4dd3","system_id":"levelo_inurba_marseille","lat":43.29917,"lon":5.38832,"is_reserved":false,"is_disabled":false,"rental_uris":{"android":"levelo://app?vid=afd25705-08c3-4557-ae45-67a1fe0a4dd3","ios":"levelo://app?vid=afd25705-08c3-4557-ae45-67a1fe0a4dd3"},"vehicle_type_id":"4","last_reported":1762967468,"current_range_meters":19200,"station_id":"","pricing_plan_id":"cebpf4jnsgd1na2vs0mg"},{"bike_id":"2bc239ac-afa0-4408-a7c7-f88caa6a6553","system_id":"levelo_inurba_marseille","lat":43.3078,"lon":5.37652,"is_reserved":false,"is_disabled":false,"rental_uris":{"android":"levelo://app?vid=2bc239ac-afa0-4408-a7c7-f88caa6a6553","ios":"levelo://app?vid=2bc239ac-afa0-4408-a7c7-f88caa6a6553"},"vehicle_type_id":"4","last_reported":1762967468,"current_range_meters":19200,"station_id":"ce4bgv92rcd13ifvqcq0","pricing_plan_id":"cebpf4jnsgd1na2vs0mg"},{"bike_id":"06eb574a-64cf-47d8-af69-ac973ce42a77","system_id":"levelo_inurba_marseille","lat":43.25575,"lon":5.38237,"is_reserved":false,"is_disabled":false,"rental_uris":{"android":"levelo://app?vid=06eb574a-64cf-47d8-af69-ac973ce42a77","ios":"levelo://app?vid=06eb574a-64cf-47d8-af69-ac973ce42a77"},"vehicle_type_id":"4","last_reported":1762967468,"current_range_meters":19600,"station_id":"ce4bhih2rcd13ifvqfs0","pricing_plan_id":"cebpf4jnsgd1na2vs0mg"},{"bike_id":"e48d2a9f-cf51-43e4-a8d1-0cfd1e16ba5c","system_id":"levelo_inurba_marseille","lat":43.26785,"lon":5.39416,"is_reserved":false,"is_disabled":false,"rental_uris":{"android":"levelo://app?vid=e48d2a9f-cf51-43e4-a8d1-0cfd1e16ba5c","ios":"levelo://app?vid=e48d2a9f-cf51-43e4-a8d1-0cfd1e16ba5c"},"vehicle_type_id":"4","last_reported":1762967468,"current_range_meters":19600,"station_id":"ce4bhh12rcd13ifvqfg0","pricing_plan_id":"cebpf4jnsgd1na2vs0mg"},{"bike_id":"6d5524ad-0000-4dd3-a9b1-0d0005c5d550","system_id":"levelo_inurba_marseille","lat":43.330336,"lon":5.390177,"is_reserved":false,"is_disabled":false,"rental_uris":{"android":"levelo://app?vid=6d5524ad-0000-4dd3-a9b1-0d0005c5d550","ios":"levelo://app?vid=6d5524ad-0000-4dd3-a9b1-0d0005c5d550"},"vehicle_type_id":"4","last_reported":1762967468,"current_range_meters":19600,"station_id":"ce4bhr92rcd13ifvqhrg","pricing_plan_id":"cebpf4jnsgd1na2vs0mg"},{"bike_id":"102b23dc-55e9-45a4-b397-3aaefdf8d65a","system_id":"levelo_inurba_marseille","lat":43.27941,"lon":5.42214,"is_reserved":false,"is_disabled":false,"rental_uris":{"android":"levelo://app?vid=102b23dc-55e9-45a4-b397-3aaefdf8d65a","ios":"levelo://app?vid=102b23dc-55e9-45a4-b397-3aaefdf8d65a"},"vehicle_type_id":"4","last_reported":1762967468,"current_range_meters":19600,"station_id":"","pricing_plan_id":"cebpf4jnsgd1na2vs0mg"},{"bike_id":"c8c6e7f1-0948-465f-ad3d-fbaf8bf4a6aa","system_id":"levelo_inurba_marseille","lat":43.295552,"lon":5.422954,"is_reserved":false,"is_disabled":false,"rental_uris":{"android":"levelo://app?vid=c8c6e7f1-0948-465f-ad3d-fbaf8bf4a6aa","ios":"levelo://app?vid=c8c6e7f1-0948-465f-ad3d-fbaf8bf4a6aa"},"vehicle_type_id":"4","last_reported":1762967468,"current_range_meters":19600,"station_id":"ce4bhph2rcd13ifvqhdg","pricing_plan_id":"cebpf4jnsgd1na2vs0mg"},