{"last_updated":1720714179,"ttl":30,"version":"2.2","data":{"bikes":[{"bike_id":"737b4a9f-eca1-4f4f-9509-bd3ddc92a32a","system_id":"levelo_inurba_marseille","lat":43.312393,"lon":5.368227,"is_reserved":false,"is_disabled":false,"rental_uris":{"android":"levelo://app?vid=737b4a9f-eca1-4f4f-9509-bd3ddc92a32a","ios":"levelo://app?vid=737b4a9f-eca1-4f4f-9509-bd3ddc92a32a"},"vehicle_type_id":"4","last_reported":1720714179,"current_range_meters":20000,"station_id":"ce4bgl92rcd13ifvqbq0","pricing_plan_id":"cebpf4jnsgd1na2vs0mg"},{"bike_id":"edce1782-9a5c-4822-98d3-5677b9127d92","system_id":"levelo_inurba_marseille","lat":43.305714,"lon":5.365633,"is_reserved":false,"is_disabled":false,"rental_uris":{"android":"levelo://app?vid=edce1782-9a5c-4822-98d3-5677b9127d92","ios":"levelo://app?vid=edce1782-9a5c-4822-98d3-5677b9127d92"},"vehicle_type_id":"4","last_reported":1720714179,"current_range_meters":0,"station_id":"ce4bgs12rcd13ifvqcag","pricing_plan_id":"cebpf4jnsgd1na2vs0mg"},{"bike_id":"81e6812f-894b-4836-b095-9f2f6a156685","system_id":"levelo_inurba_marseille","lat":43.30535,"lon":5.36664,"is_reserved":false,"is_disabled":false,"rental_uris":{"android":"levelo://app?vid=81e6812f-894b-4836-b095-9f2f6a156685","ios":"levelo://app?vid=81e6812f-894b-4836-b095-9f2f6a156685"},"vehicle_type_id":"4","last_reported":1720714179,"current_range_meters":21200,"station_id":"","pricing_plan_id":"cebpf4jnsgd1na2vs0mg"},{"bike_id":"522c3c13-49f0-45fe-bc41-eb3babc0337f","system_id":"levelo_inurba_marseille","lat":43.30608,"lon":5.3723,"is_reserved":false,"is_disabled":false,"rental_uris":{"android":"levelo://app?vid=522c3c13-49f0-45fe-bc41-eb3babc0337f","ios":"levelo://app?vid=522c3c13-49f0-45fe-bc41-eb3babc0337f"},"vehicle_type_id":"4","last_reported":1720714179,"current_range_meters":0,"station_id":"ce4bgqh2rcd13ifvqc4g","pricing_plan_id":"cebpf4jnsgd1na2vs0mg"},{"bike_id":"8323e6e8-cb3d-42fe-975f-f08e9545fc94","system_id":"levelo_inurba_marseille","lat":43.311125,"lon":5.377624,"is_reserved":false,"is_disabled":false,"rental_uris":{"android":"levelo://app?vid=8323e6e8-cb3d-42fe-975f-f08e9545fc94","ios":"levelo://app?vid=8323e6e8-cb3d-42fe-975f-f08e9545fc94"},"vehicle_type_id":"4","last_reported":1720714179,"current_range_meters":4400,"station_id":"ce4bgt92rcd13ifvqcg0","pricing_plan_id":"cebpf4jnsgd1na2vs0mg"},{"bike_id":"cc845df9-40e7-48eb-a44d-6cab987cbdfb","system_id":"levelo_inurba_marseille","lat":43.307945,"lon":5.376487,"is_reserved":false,"is_disabled":false,"rental_uris":{"android":"levelo://app?vid=cc845df9-40e7-48eb-a44d-6cab987cbdfb","ios":"levelo://app?vid=cc845df9-40e7-48eb-a44d-6cab987cbdfb"},"vehicle_type_id":"4","last_reported":1720714179,"current_range_meters":23600,"station_id":"ce4bgv92rcd13ifvqcq0","pricing_plan_id":"cebpf4jnsgd1na2vs0mg"},{"bike_id":"b1c44b07-3750-48fd-9104-ffe87b54bb3b","system_id":"levelo_inurba_marseille","lat":43.30426,"lon":5.36745,"is_reserved":false,"is_disabled":false,"rental_uris":{"android":"levelo://app?vid=b1c44b07-3750-48fd-9104-ffe87b54bb3b","ios":"levelo://app?vid=b1c44b07-3750-48fd-9104-ffe87b54bb3b"},"vehicle_type_id":"4","last_reported":1720714179,"current_range_meters":21200,"station_id":"","pricing_plan_id":"cebpf4jnsgd1na2vs0mg"},{"bike_id":"d8e625a3-dc09-4d76-9bca-a8a26200d2b9","system_id":"levelo_inurba_marseille","lat":43.307945,"lon":5.376487,"is_reserved":false,"is_disabled":false,"rental_uris":{"android":"levelo://app?vid=d8e625a3-dc09-4d76-9bca-a8a26200d2b9","ios":"levelo://app?vid=d8e625a3-dc09-4d76-9bca-a8a26200d2b9"},"vehicle_type_id":"4","last_reported":1720714179,"current_range_meters":16800,"station_id":"ce4bgv92rcd13ifvqcq0","pricing_plan_id":"cebpf4jnsgd1na2vs0mg"},{"bike_id":"48e556bc-e75b-4145-b8fd-a67194013425","system_id":"levelo_inurba_marseille","lat":43.307945,"lon":5.376487,"is_reserved":false,"is_disabled":false,"rental_uris":{"android":"levelo://app?vid=48e556bc-e75b-4145-b8fd-a67194013425","ios":"levelo://app?vid=48e556bc-e75b-4145-b8fd-a67194013425"},"vehicle_type_id":"4","last_reported":1720714179,"current_range_meters":29200,"station_id":"ce4bgv92rcd13ifvqcq0","pricing_plan_id":"cebpf4jnsgd1na2vs0mg"},{"bike_id":"73db8d3f-8695-412b-9ab4-e56590633c87","system_id":"levelo_inurba_marseille","lat":43.31699,"lon":5.37736,"is_reserved":false,"is_disabled":false,"rental_uris":{"android":"levelo://app?vid=73db8d3f-8695-412b-9ab4-e56590633c87","ios":"levelo://app?vid=73db8d3f-8695-412b-9ab4-e56590633c87"},"vehicle_type_id":"4","last_reported":1720714179,"current_range_meters":8800,"station_id":"ce4bgth2rcd13ifvqch0","pricing_plan_id":"cebpf4jnsgd1na2vs0mg"},{"bike_id":"ef915fd7-d8e4-4e48-8395-6ca8d47169e0","system_id":"levelo_inurba_marseille","lat":43.317075,"lon":5.377367,"is_reserved":false,"is_disabled":false,"rental_uris":{"android":"levelo://app?vid=ef915fd7-d8e4-4e48-8395-6ca8d47169e0","ios":"levelo://app?vid=ef915fd7-d8e4-4e48-8395-6ca8d47169e0"},"vehicle_type_id":"4","last_reported":1720714179,"current_range_meters":0,"station_id":"ce4bgth2rcd13ifvqch0","pricing_plan_id":"cebpf4jnsgd1na2vs0mg"},{"bike_id":"4934d0ca-1e3a-4b71-ba4f-f64b4d8579b4","system_id":"levelo_inurba_marseille","lat":43.315289,"lon":5.380349,"is_reserved":false,"is_disabled":false,"rental_uris":{"android":"levelo://app?vid=4934d0ca-1e3a-4b71-ba4f-f64b4d8579b4","ios":"levelo://app?vid=4934d0ca-1e3a-4b71-ba4f-f64b4d8579b4"},"vehicle_type_id":"4","last_reported":1720714179,"current_range_meters":2400,"station_id":"ce4bhsp2rcd13ifvqi50","pricing_plan_id":"cebpf4jnsgd1na2vs0mg"},{"bike_id":"69254f75-0299-4ccd-94f4-f0332f55af0f","system_id":"levelo_inurba_marseille","lat":43.31531,"lon":5.38031,"is_reserved":false,"is_disabled":false,"rental_uris":{"android":"levelo://app?vid=69254f75-0299-4ccd-94f4-f0332f55af0f","ios":"levelo://app?vid=69254f75-0299-4ccd-94f4-f0332f55af0f"},"vehicle_type_id":"4","last_reported":1720714179,"current_range_meters":2800,"station_id":"ce4bhsp2rcd13ifvqi50","pricing_plan_id":"cebpf4jnsgd1na2vs0mg"},{"bike_id":"62e524d3-1f85-4d2a-99ba-7b717dde3c88","system_id":"levelo_inurba_marseille","lat":43.31529,"lon":5.38033,"is_reserved":false,"is_disabled":false,"rental_uris":{"android":"levelo://app?vid=62e524d3-1f85-4d2a-99ba-7b717dde3c88","ios":"levelo://app?vid=62e524d3-1f85-4d2a-99ba-7b717dde3c88"},"vehicle_type_id":"4","last_reported":1720714179,"current_range_meters":3200,"station_id":"ce4bhsp2rcd13ifvqi50","pricing_plan_id":"cebpf4jnsgd1na2vs0mg"},{"bike_id":"e88551ad-84d1-4278-bebf-7c67f3c42dc7","system_id":"levelo_inurba_marseille","lat":43.315289,"lon":5.380349,"is_reserved":false,"is_disabled":false,"rental_uris":{"android":"levelo://app?vid=e88551ad-84d1-4278-bebf-7c67f3c42dc7","ios":"levelo://app?vid=e88551ad-84d1-4278-bebf-7c67f3c42dc7"},"vehicle_type_id":"4","last_reported":1720714179,"current_range_meters":4800,"station_id":"ce4bhsp2rcd13ifvqi50","pricing_plan_id":"cebpf4jnsgd1na2vs0mg"},{"bike_id":"68e0d0ac-f9a1-4a8b-9c4d-ff9c1bab990c","system_id":"levelo_inurba_marseille","lat":43.315289,"lon":5.380349,"is_reserved":false,"is_disabled":false,"rental_uris":{"android":"levelo://app?vid=68e0d0ac-f9a1-4a8b-9c4d-ff9c1bab990c","ios":"levelo://app?vid=68e0d0ac-f9a1-4a8b-9c4d-ff9c1bab990c"},"vehicle_type_id":"4","last_reported":1720714179,"current_range_meters":3600,"station_id":"ce4bhsp2rcd13ifvqi50","pricing_plan_id":"cebpf4jnsgd1na2vs0mg"},{"bike_id":"a12fd13c-4ad9-4e8b-a72a-4c51721868d4","system_id":"levelo_inurba_marseille","lat":43.3033,"lon":5.37319,"is_reserved":false,"is_disabled":false,"rental_uris":{"android":"levelo://app?vid=a12fd13c-4ad9-4e8b-a72a-4c51721868d4","ios":"levelo://app?vid=a12fd13c-4ad9-4e8b-a72a-4c51721868d4"},"vehicle_type_id":"4","last_reported":1720714179,"current_range_meters":22400,"station_id":"","pricing_plan_id":"cebpf4jnsgd1na2vs0mg"},{"bike_id":"9c425441-78ae-4eb1-8f00-b415f2533bfe","system_id":"levelo_inurba_marseille","lat":43.310695,"lon":5.38111,"is_reserved":false,"is_disabled":false,"rental_uris":{"android":"levelo://app?vid=9c425441-78ae-4eb1-8f00-b415f2533bfe","ios":"levelo://app?vid=9c425441-78ae-4eb1-8f00-b415f2533bfe"},"vehicle_type_id":"4","last_reported":1720714179,"current_range_meters":10800,"station_id":"","pricing_plan_id":"cebpf4jnsgd1na2vs0mg"},{"bike_id":"655a0518-f4e4-4009-929f-e8bc77c7437d","system_id":"levelo_inurba_marseille","lat":43.301939,"lon":5.366286,"is_reserved":false,"is_disabled":false,"rental_uris":{"android":"levelo://app?vid=655a0518-f4e4-4009-929f-e8bc77c7437d","ios":"levelo://app?vid=655a0518-f4e4-4009-929f-e8bc77c7437d"},"vehicle_type_id":"4","last_reported":1720714179,"current_range_meters":2000,"station_id":"ce4bgrh2rcd13ifvqc8g","pricing_plan_id":"cebpf4jnsgd1na2vs0mg"},{"bike_id":"37a5aca5-215d-4ef7-9b6e-77baaec80cde","system_id":"levelo_inurba_marseille","lat":43.30398,"lon":5.37772,"is_reserved":false,"is_disabled":false,"rental_uris":{"android":"levelo://app?vid=37a5aca5-215d-4ef7-9b6e-77baaec80cde","ios":"levelo://app?vid=37a5aca5-215d-4ef7-9b6e-77baaec80cde"},"vehicle_type_id":"4","last_reported":1720714179,"current_range_meters":0,"station_id":"","pricing_plan_id":"cebpf4jnsgd1na2vs0mg"},{"bike_id":"dca97893-7377-438b-89a3-2ec529af07bf","system_id":"levelo_inurba_marseille","lat":43.302084,"lon":5.374268,"is_reserved":false,"is_disabled":false,"rental_uris":{"android":"levelo://app?vid=dca97893-7377-438b-89a3-2ec529af07bf","ios":"levelo://app?vid=dca97893-7377-438b-89a3-2ec529af07bf"},"vehicle_type_id":"4","last_reported":1720714179,"current_range_meters":0,"station_id":"","pricing_plan_id":"cebpf4jnsgd1na2vs0mg"},{"bike_id":"07bbd5f5-5b73-46a5-bbef-81ecd64fbe24","system_id":"levelo_inurba_marseille","lat":43.30665,"lon":5.38115,"is_reserved":false,"is_disabled":false,"rental_uris":{"android":"levelo://app?vid=07bbd5f5-5b73-46a5-bbef-81ecd64fbe24","ios":"levelo://app?vid=07bbd5f5-5b73-46a5-bbef-81ecd64fbe24"},"vehicle_type_id":"4","last_reported":1720714179,"current_range_meters":4400,"station_id":"","pricing_plan_id":"cebpf4jnsgd1na2vs0mg"},{"bike_id":"122627aa-5889-42de-b5ff-45cf3df1a29f","system_id":"levelo_inurba_marseille","lat":43.3248,"lon":5.365741,"is_reserved":false,"is_disabled":false,"rental_uris":{"android":"levelo://app?vid=122627aa-5889-42de-b5ff-45cf3df1a29f","ios":"levelo://app?vid=122627aa-5889-42de-b5ff-45cf3df1a29f"},"vehicle_type_id":"4","last_reported":1720714179,"current_range_meters":11200,"station_id":"ce4bhs12rcd13ifvqhvg","pricing_plan_id":"cebpf4jnsgd1na2vs0mg"},{"bike_id":"2a3faeb0-d04f-4355-8759-a8666b370b14","system_id":"levelo_inurba_marseille","lat":43.324771,"lon":5.36557,"is_reserved":false,"is_disabled":false,"rental_uris":{"android":"levelo://app?vid=2a3faeb0-d04f-4355-8759-a8666b370b14","ios":"levelo://app?vid=2a3faeb0-d04f-4355-8759-a8666b370b14"},"vehicle_type_id":"4","last_reported":1720714179,"current_range_meters":29600,"station_id":"ce4bhs12rcd13ifvqhvg","pricing_plan_id":"cebpf4jnsgd1na2vs0mg"},{"bike_id":"cda51581-678f-49fe-a31d-316d946d7d99","system_id":"levelo_inurba_marseille","lat":43.324837,"lon":5.365808,"is_reserved":false,"is_disabled":false,"rental_uris":{"android":"levelo://app?vid=cda51581-678f-49fe-a31d-316d946d7d99","ios":"levelo://app?vid=cda51581-678f-49fe-a31d-316d946d7d99"},"vehicle_type_id":"4","last_reported":1720714179,"current_range_meters":6800,"station_id":"ce4bhs12rcd13ifvqhvg","pricing_plan_id":"cebpf4jnsgd1na2vs0mg"},{"bike_id":"c980c8ab-acca-4a90-92d3-2536426ec534","system_id":"levelo_inurba_marseille","lat":43.324771,"lon":5.36557,"is_reserved":false,"is_disabled":false,"rental_uris":{"android":"levelo://app?vid=c980c8ab-acca-4a90-92d3-2536426ec534","ios":"levelo://app?vid=c980c8ab-acca-4a90-92d3-2536426ec534"},"vehicle_type_id":"4","last_reported":1720714179,"current_range_meters":31200,"station_id":"ce4bhs12rcd13ifvqhvg","pricing_plan_id":"cebpf4jnsgd1na2vs0mg"},{"bike_id":"ddc267a3-dd12-44eb-8f62-c98107ad77dc","system_id":"levelo_inurba_marseille","lat":43.32484,"lon":5.3658,"is_reserved":false,"is_disabled":false,"rental_uris":{"android":"levelo://app?vid=ddc267a3-dd12-44eb-8f62-c98107ad77dc","ios":"levelo://app?vid=ddc267a3-dd12-44eb-8f62-c98107ad77dc"},"vehicle_type_id":"4","last_reported":1720714179,"current_range_meters":8000,"station_id":"ce4bhs12rcd13ifvqhvg","pricing_plan_id":"cebpf4jnsgd1na2vs0mg"},{"bike_id":"8c3db1b0-97c0-413d-9eb8-141ee8f329af","system_id":"levelo_inurba_marseille","lat":43.324771,"lon":5.36557,"is_reserved":false,"is_disabled":false,"rental_uris":{"android":"levelo://app?vid=8c3db1b0-97c0-413d-9eb8-141ee8f329af","ios":"levelo://app?vid=8c3db1b0-97c0-413d-9eb8-141ee8f329af"},"vehicle_type_id":"4","last_reported":1720714179,"current_range_meters":31200,"station_id":"ce4bhs12rcd13ifvqhvg","pricing_plan_id":"cebpf4jnsgd1na2vs0mg"},{"bike_id":"59e1f12c-cdd8-4bf8-965e-941d5ef040a7","system_id":"levelo_inurba_marseille","lat":43.310804,"lon":5.38359,"is_reserved":false,"is_disabled":false,"rental_uris":{"android":"levelo://app?vid=59e1f12c-cdd8-4bf8-965e-941d5ef040a7","ios":"levelo://app?vid=59e1f12c-cdd8-4bf8-965e-941d5ef040a7"},"vehicle_type_id":"4","last_reported":1720714179,"current_range_meters":400,"station_id":"ce4bgv92rcd13ifvqcr0","pricing_plan_id":"cebpf4jnsgd1na2vs0mg"},{"bike_id":"3688fdac-ae91-4877-9f30-2bc8864aa3ba","system_id":"levelo_inurba_marseille","lat":43.310804,"lon":5.38359,"is_reserved":false,"is_disabled":false,"rental_uris":{"android":"levelo://app?vid=3688fdac-ae91-4877-9f30-2bc8864aa3ba","ios":"levelo://app?vid=3688fdac-ae91-4877-9f30-2bc8864aa3ba"},"vehicle_type_id":"4","last_reported":1720714179,"current_range_meters":21200,"station_id":"ce4bgv92rcd13ifvqcr0","pricing_plan_id":"cebpf4jnsgd1na2vs0mg"},{"bike_id":"3aa853d3-725e-4b09-a5c2-5edc73d11b4d","system_id":"levelo_inurba_marseille","lat":43.310804,"lon":5.38359,"is_reserved":false,"is_disabled":false,"rental_uris":{"android":"levelo://app?vid=3aa853d3-725e-4b09-a5c2-5edc73d11b4d","ios":"levelo://app?vid=3aa853d3-725e-4b09-a5c2-5edc73d11b4d"},"vehicle_type_id":"4","last_reported":1720714179,"current_range_meters":18400,"station_id":"ce4bgv92rcd13ifvqcr0","pricing_plan_id":"cebpf4jnsgd1na2vs0mg"},{"bike_id":"54d944df-fe82-4227-a97b-fbe7c19baa04","system_id":"levelo_inurba_marseille","lat":43.313571,"lon":5.384829,"is_reserved":false,"is_disabled":false,"rental_uris":{"android":"levelo://app?vid=54d944df-fe82-4227-a97b-fbe7c19baa04","ios":"levelo://app?vid=54d944df-fe82-4227-a97b-fbe7c19baa04"},"vehicle_type_id":"4","last_reported":1720714179,"current_range_meters":400,"station_id":"ce4bgt92rcd13ifvqcf0","pricing_plan_id":"cebpf4jnsgd1na2vs0mg"},{"bike_id":"5c5d7965-16d9-4640-a83e-d09c5c1c016c","system_id":"levelo_inurba_marseille","lat":43.299724,"lon":5.371829,"is_reserved":false,"is_disabled":false,"rental_uris":{"android":"levelo://app?vid=5c5d7965-16d9-4640-a83e-d09c5c1c016c","ios":"levelo://app?vid=5c5d7965-16d9-4640-a83e-d09c5c1c016c"},"vehicle_type_id":"4","last_reported":1720714179,"current_range_meters":16400,"station_id":"ce4bgr92rcd13ifvqc7g","pricing_plan_id":"cebpf4jnsgd1na2vs0mg"},{"bike_id":"320dc79f-c670-463a-aa4b-12fbaaeb86c6","system_id":"levelo_inurba_marseille","lat":43.29996,"lon":5.37579,"is_reserved":false,"is_disabled":false,"rental_uris":{"android":"levelo://app?vid=320dc79f-c670-463a-aa4b-12fbaaeb86c6","ios":"levelo://app?vid=320dc79f-c670-463a-aa4b-12fbaaeb86c6"},"vehicle_type_id":"4","last_reported":1720714179,"current_range_meters":19200,"station_id":"","pricing_plan_id":"cebpf4jnsgd1na2vs0mg"},{"bike_id":"55b2bf7e-2e07-4a8f-b070-2e92a9744621","system_id":"levelo_inurba_marseille","lat":43.305364,"lon":5.384119,"is_reserved":false,"is_disabled":false,"rental_uris":{"android":"levelo://app?vid=55b2bf7e-2e07-4a8f-b070-2e92a9744621","ios":"levelo://app?vid=55b2bf7e-2e07-4a8f-b070-2e92a9744621"},"vehicle_type_id":"4","last_reported":1720714179,"current_range_meters":27600,"station_id":"ce4bgg92rcd13ifvqb30","pricing_plan_id":"cebpf4jnsgd1na2vs0mg"},{"bike_id":"43b78493-f264-4b7d-bc74-f7cad89aa094","system_id":"levelo_inurba_marseille","lat":43.298433,"lon":5.362774,"is_reserved":false,"is_disabled":false,"rental_uris":{"android":"levelo://app?vid=43b78493-f264-4b7d-bc74-f7cad89aa094","ios":"levelo://app?vid=43b78493-f264-4b7d-bc74-f7cad89aa094"},"vehicle_type_id":"4","last_reported":1720714179,"current_range_meters":0,"station_id":"ce4bgpp2rcd13ifvqc3g","pricing_plan_id":"cebpf4jnsgd1na2vs0mg"},{"bike_id":"5d5a6cc0-b952-40b7-b5a1-a04b40a6b1c7","system_id":"levelo_inurba_marseille","lat":43.29849,"lon":5.36288,"is_reserved":false,"is_disabled":false,"rental_uris":{"android":"levelo://app?vid=5d5a6cc0-b952-40b7-b5a1-a04b40a6b1c7","ios":"levelo://app?vid=5d5a6cc0-b952-40b7-b5a1-a04b40a6b1c7"},"vehicle_type_id":"4","last_reported":1720714179,"current_range_meters":13200,"station_id":"ce4bgpp2rcd13ifvqc3g","pricing_plan_id":"cebpf4jnsgd1na2vs0mg"},{"bike_id":"4bb00f7e-ecbe-4a18-a26f-ae43a4b4096c","system_id":"levelo_inurba_marseille","lat":43.305364,"lon":5.384119,"is_reserved":false,"is_disabled":false,"rental_uris":{"android":"levelo://app?vid=4bb00f7e-ecbe-4a18-a26f-ae43a4b4096c","ios":"levelo://app?vid=4bb00f7e-ecbe-4a18-a26f-ae43a4b4096c"},"vehicle_type_id":"4","last_reported":1720714179,"current_range_meters":800,"station_id":"ce4bgg92rcd13ifvqb30","pricing_plan_id":"cebpf4jnsgd1na2vs0mg"},{"bike_id":"41cd9ad9-09e4-4223-945c-5cec1a5f54b6","system_id":"levelo_inurba_marseille","lat":43.298433,"lon":5.362774,"is_reserved":false,"is_disabled":false,"rental_uris":{"android":"levelo://app?vid=41cd9ad9-09e4-4223-945c-5cec1a5f54b6","ios":"levelo://app?vid=41cd9ad9-09e4-4223-945c-5cec1a5f54b6"},"vehicle_type_id":"4","last_reported":1720714179,"current_range_meters":0,"station_id":"ce4bgpp2rcd13ifvqc3g","pricing_plan_id":"cebpf4jnsgd1na2vs0mg"},{"bike_id":"9b7a365e-296f-4541-8674-85d2da230521","system_id":"levelo_inurba_marseille","lat":43.297794,"lon":5.370888,"is_reserved":false,"is_disabled":false,"rental_uris":{"android":"levelo://app?vid=9b7a365e-296f-4541-8674-85d2da230521","ios":"levelo://app?vid=9b7a365e-296f-4541-8674-85d2da230521"},"vehicle_type_id":"4","last_reported":1720714179,"current_range_meters":12800,"station_id":"ce4bgop2rcd13ifvqc1g","pricing_plan_id":"cebpf4jnsgd1na2vs0mg"},{"bike_id":"82ba8378-4229-44a2-a149-ec7290548419","system_id":"levelo_inurba_marseille","lat":43.32288,"lon":5.3826,"is_reserved":false,"is_disabled":false,"rental_uris":{"android":"levelo://app?vid=82ba8378-4229-44a2-a149-ec7290548419","ios":"levelo://app?vid=82ba8378-4229-44a2-a149-ec7290548419"},"vehicle_type_id":"4","last_reported":1720714179,"current_range_meters":29200,"station_id":"ce4bhr12rcd13ifvqhqg","pricing_plan_id":"cebpf4jnsgd1na2vs0mg"},{"bike_id":"a88a4efc-a2e7-4dda-8e73-e3e78ef39fbe","system_id":"levelo_inurba_marseille","lat":43.29758,"lon":5.37206,"is_reserved":false,"is_disabled":false,"rental_uris":{"android":"levelo://app?vid=a88a4efc-a2e7-4dda-8e73-e3e78ef39fbe","ios":"levelo://app?vid=a88a4efc-a2e7-4dda-8e73-e3e78ef39fbe"},"vehicle_type_id":"4","last_reported":1720714179,"current_range_meters":14000,"station_id":"","pricing_plan_id":"cebpf4jnsgd1na2vs0mg"},{"bike_id":"70fe1cba-13e1-4d77-b07c-21decbd57f3b","system_id":"levelo_inurba_marseille","lat":43.2968,"lon":5.37291,"is_reserved":false,"is_disabled":false,"rental_uris":{"android":"levelo://app?vid=70fe1cba-13e1-4d77-b07c-21decbd57f3b","ios":"levelo://app?vid=70fe1cba-13e1-4d77-b07c-21decbd57f3b"},"vehicle_type_id":"4","last_reported":1720714179,"current_range_meters":14800,"station_id":"ce4bgk12rcd13ifvqbj0","pricing_plan_id":"cebpf4jnsgd1na2vs0mg"},{"bike_id":"2a076e09-22dd-4f2f-893c-0ea8bb96bc49","system_id":"levelo_inurba_marseille","lat":43.2968,"lon":5.37291,"is_reserved":false,"is_disabled":false,"rental_uris":{"android":"levelo://app?vid=2a076e09-22dd-4f2f-893c-0ea8bb96bc49","ios":"levelo://app?vid=2a076e09-22dd-4f2f-893c-0ea8bb96bc49"},"vehicle_type_id":"4","last_reported":1720714179,"current_range_meters":0,"station_id":"ce4bgk12rcd13ifvqbj0","pricing_plan_id":"cebpf4jnsgd1na2vs0mg"},{"bike_id":"a2ce2b42-16ff-4fcc-b002-75697f5ff2d4","system_id":"levelo_inurba_marseille","lat":43.29803,"lon":5.37744,"is_reserved":false,"is_disabled":false,"rental_uris":{"android":"levelo://app?vid=a2ce2b42-16ff-4fcc-b002-75697f5ff2d4","ios":"levelo://app?vid=a2ce2b42-16ff-4fcc-b002-75697f5ff2d4"},"vehicle_type_id":"4","last_reported":1720714179,"current_range_meters":17600,"station_id":"","pricing_plan_id":"cebpf4jnsgd1na2vs0mg"},{"bike_id":"141cbff4-6cfe-4b0c-ad2f-4e4a7bf98436","system_id":"levelo_inurba_marseille","lat":43.299028,"lon":5.381509,"is_reserved":false,"is_disabled":false,"rental_uris":{"android":"levelo://app?vid=141cbff4-6cfe-4b0c-ad2f-4e4a7bf98436","ios":"levelo://app?vid=141cbff4-6cfe-4b0c-ad2f-4e4a7bf98436"},"vehicle_type_id":"4","last_reported":1720714179,"current_range_meters":0,"station_id":"ce4bgj12rcd13ifvqbc0","pricing_plan_id":"cebpf4jnsgd1na2vs0mg"},{"bike_id":"585e14f3-98e8-4f79-a8d4-9d06a123883b","system_id":"levelo_inurba_marseille","lat":43.30954,"lon":5.39029,"is_reserved":false,"is_disabled":false,"rental_uris":{"android":"levelo://app?vid=585e14f3-98e8-4f79-a8d4-9d06a123883b","ios":"levelo://app?vid=585e14f3-98e8-4f79-a8d4-9d06a123883b"},"vehicle_type_id":"4","last_reported":1720714179,"current_range_meters":0,"station_id":"ce4bgup2rcd13ifvqco0","pricing_plan_id":"cebpf4jnsgd1na2vs0mg"},{"bike_id":"5a0059e4-d426-4605-b603-1d887b9c4a2c","system_id":"levelo_inurba_marseille","lat":43.30955,"lon":5.3903,"is_reserved":false,"is_disabled":false,"rental_uris":{"android":"levelo://app?vid=5a0059e4-d426-4605-b603-1d887b9c4a2c","ios":"levelo://app?vid=5a0059e4-d426-4605-b603-1d887b9c4a2c"},"vehicle_type_id":"4","last_reported":1720714179,"current_range_meters":0,"station_id":"ce4bgup2rcd13ifvqco0","pricing_plan_id":"cebpf4jnsgd1na2vs0mg"},{"bike_id":"14f7e6dc-e994-4267-bb50-f4419966c822","system_id":"levelo_inurba_marseille","lat":43.317557,"lon":5.390173,"is_reserved":false,"is_disabled":false,"rental_uris":{"android":"levelo://app?vid=14f7e6dc-e994-4267-bb50-f4419966c822","ios":"levelo://app?vid=14f7e6dc-e994-4267-bb50-f4419966c822"},"vehicle_type_id":"4","last_reported":1720714179,"current_range_meters":8000,"station_id":"ce4bhqp2rcd13ifvqhng","pricing_plan_id":"cebpf4jnsgd1na2vs0mg"},{"bike_id":"1a99cb73-b31e-4c18-9e3a-9791ef4174a1","system_id":"levelo_inurba_marseille","lat":43.298037,"lon":5.381066,"is_reserved":false,"is_disabled":false,"rental_uris":{"android":"levelo://app?vid=1a99cb73-b31e-4c18-9e3a-9791ef4174a1","ios":"levelo://app?vid=1a99cb73-b31e-4c18-9e3a-9791ef4174a1"},"vehicle_type_id":"4","last_reported":1720714179,"current_range_meters":20400,"station_id":"ce4bgip2rcd13ifvqbb0","pricing_plan_id":"cebpf4jnsgd1na2vs0mg"},{"bike_id":"e96c8d6f-40ed-48ab-8fb2-792efbd981f4","system_id":"levelo_inurba_marseille","lat":43.29617,"lon":5.3772,"is_reserved":false,"is_disabled":false,"rental_uris":{"android":"levelo://app?vid=e96c8d6f-40ed-48ab-8fb2-792efbd981f4","ios":"levelo://app?vid=e96c8d6f-40ed-48ab-8fb2-792efbd981f4"},"vehicle_type_id":"4","last_reported":1720714179,"current_range_meters":0,"station_id":"ce4bgi92rcd13ifvqb90","pricing_plan_id":"cebpf4jnsgd1na2vs0mg"},{"bike_id":"0cb909d1-2448-4b6f-8759-28cfba0a1a00","system_id":"levelo_inurba_marseille","lat":43.295279,"lon":5.375048,"is_reserved":false,"is_disabled":false,"rental_uris":{"android":"levelo://app?vid=0cb909d1-2448-4b6f-8759-28cfba0a1a00","ios":"levelo://app?vid=0cb909d1-2448-4b6f-8759-28cfba0a1a00"},"vehicle_type_id":"4","last_reported":1720714179,"current_range_meters":14400,"station_id":"ce4bgkp2rcd13ifvqbmg","pricing_plan_id":"cebpf4jnsgd1na2vs0mg"},{"bike_id":"99b00f7f-207d-4d91-b783-7ee5854592d3","system_id":"levelo_inurba_marseille","lat":43.299707,"lon":5.384859,"is_reserved":false,"is_disabled":false,"rental_uris":{"android":"levelo://app?vid=99b00f7f-207d-4d91-b783-7ee5854592d3","ios":"levelo://app?vid=99b00f7f-207d-4d91-b783-7ee5854592d3"},"vehicle_type_id":"4","last_reported":1720714179,"current_range_meters":0,"station_id":"ce4bgj92rcd13ifvqbd0","pricing_plan_id":"cebpf4jnsgd1na2vs0mg"},{"bike_id":"4e8e1ad0-07b7-4a09-986a-48c71e3e184d","system_id":"levelo_inurba_marseille","lat":43.299717,"lon":5.384845,"is_reserved":false,"is_disabled":false,"rental_uris":{"android":"levelo://app?vid=4e8e1ad0-07b7-4a09-986a-48c71e3e184d","ios":"levelo://app?vid=4e8e1ad0-07b7-4a09-986a-48c71e3e184d"},"vehicle_type_id":"4","last_reported":1720714179,"current_range_meters":0,"station_id":"ce4bgj92rcd13ifvqbd0","pricing_plan_id":"cebpf4jnsgd1na2vs0mg"},{"bike_id":"21eb0987-84f5-4c97-acc3-c9bc9e22e199","system_id":"levelo_inurba_marseille","lat":43.295279,"lon":5.375048,"is_reserved":false,"is_disabled":false,"rental_uris":{"android":"levelo://app?vid=21eb0987-84f5-4c97-acc3-c9bc9e22e199","ios":"levelo://app?vid=21eb0987-84f5-4c97-acc3-c9bc9e22e199"},"vehicle_type_id":"4","last_reported":1720714179,"current_range_meters":0,"station_id":"ce4bgkp2rcd13ifvqbmg","pricing_plan_id":"cebpf4jnsgd1na2vs0mg"},{"bike_id":"a198c7b0-1395-45c4-8318-921941c9dd67","system_id":"levelo_inurba_marseille","lat":43.299063,"lon":5.38492,"is_reserved":false,"is_disabled":false,"rental_uris":{"android":"levelo://app?vid=a198c7b0-1395-45c4-8318-921941c9dd67","ios":"levelo://app?vid=a198c7b0-1395-45c4-8318-921941c9dd67"},"vehicle_type_id":"4","last_reported":1720714179,"current_range_meters":0,"station_id":"","pricing_plan_id":"cebpf4jnsgd1na2vs0mg"},{"bike_id":"406569b8-8b33-4b56-bd8e-fbe7d57d7f96","system_id":"levelo_inurba_marseille","lat":43.31062,"lon":5.393129,"is_reserved":false,"is_disabled":false,"rental_uris":{"android":"levelo://app?vid=406569b8-8b33-4b56-bd8e-fbe7d57d7f96","ios":"levelo://app?vid=406569b8-8b33-4b56-bd8e-fbe7d57d7f96"},"vehicle_type_id":"4","last_reported":1720714179,"current_range_meters":8000,"station_id":"","pricing_plan_id":"cebpf4jnsgd1na2vs0mg"},{"bike_id":"994c09fc-a3c0-41d8-9c37-306f529b6841","system_id":"levelo_inurba_marseille","lat":43.32369,"lon":5.38887,"is_reserved":false,"is_disabled":false,"rental_uris":{"android":"levelo://app?vid=994c09fc-a3c0-41d8-9c37-306f529b6841","ios":"levelo://app?vid=994c09fc-a3c0-41d8-9c37-306f529b6841"},"vehicle_type_id":"4","last_reported":1720714179,"current_range_meters":0,"station_id":"ce4bhqp2rcd13ifvqhog","pricing_plan_id":"cebpf4jnsgd1na2vs0mg"},{"bike_id":"7b808c30-3b25-4b81-9019-fa07dcbc9cc4","system_id":"levelo_inurba_marseille","lat":43.29602,"lon":5.381084,"is_reserved":false,"is_disabled":false,"rental_uris":{"android":"levelo://app?vid=7b808c30-3b25-4b81-9019-fa07dcbc9cc4","ios":"levelo://app?vid=7b808c30-3b25-4b81-9019-fa07dcbc9cc4"},"vehicle_type_id":"4","last_reported":1720714179,"current_range_meters":800,"station_id":"ce4bgl12rcd13ifvqbo0","pricing_plan_id":"cebpf4jnsgd1na2vs0mg"},{"bike_id":"6729ee73-7349-4419-8324-6f96c08a3e90","system_id":"levelo_inurba_marseille","lat":43.2931,"lon":5.3718,"is_reserved":false,"is_disabled":false,"rental_uris":{"android":"levelo://app?vid=6729ee73-7349-4419-8324-6f96c08a3e90","ios":"levelo://app?vid=6729ee73-7349-4419-8324-6f96c08a3e90"},"vehicle_type_id":"4","last_reported":1720714179,"current_range_meters":0,"station_id":"ce4bgh92rcd13ifvqb40","pricing_plan_id":"cebpf4jnsgd1na2vs0mg"},{"bike_id":"f364e1c1-9b59-464c-afaa-899d87a940a3","system_id":"levelo_inurba_marseille","lat":43.303002,"lon":5.392142,"is_reserved":false,"is_disabled":false,"rental_uris":{"android":"levelo://app?vid=f364e1c1-9b59-464c-afaa-899d87a940a3","ios":"levelo://app?vid=f364e1c1-9b59-464c-afaa-899d87a940a3"},"vehicle_type_id":"4","last_reported":1720714179,"current_range_meters":10400,"station_id":"ce4bgkh2rcd13ifvqbk0","pricing_plan_id":"cebpf4jnsgd1na2vs0mg"},{"bike_id":"c553be73-11fe-486c-8891-de75537f38bf","system_id":"levelo_inurba_marseille","lat":43.29299,"lon":5.37446,"is_reserved":false,"is_disabled":false,"rental_uris":{"android":"levelo://app?vid=c553be73-11fe-486c-8891-de75537f38bf","ios":"levelo://app?vid=c553be73-11fe-486c-8891-de75537f38bf"},"vehicle_type_id":"4","last_reported":1720714179,"current_range_meters":0,"station_id":"ce4bgi12rcd13ifvqb70","pricing_plan_id":"cebpf4jnsgd1na2vs0mg"},{"bike_id":"98f90d47-d52d-4f05-a386-8dd192050830","system_id":"levelo_inurba_marseille","lat":43.303002,"lon":5.392142,"is_reserved":false,"is_disabled":false,"rental_uris":{"android":"levelo://app?vid=98f90d47-d52d-4f05-a386-8dd192050830","ios":"levelo://app?vid=98f90d47-d52d-4f05-a386-8dd192050830"},"vehicle_type_id":"4","last_reported":1720714179,"current_range_meters":7600,"station_id":"ce4bgkh2rcd13ifvqbk0","pricing_plan_id":"cebpf4jnsgd1na2vs0mg"},{"bike_id":"edb38347-93c8-462f-b50a-d87eeb612f00","system_id":"levelo_inurba_marseille","lat":43.2936,"lon":5.37835,"is_reserved":false,"is_disabled":false,"rental_uris":{"android":"levelo://app?vid=edb38347-93c8-462f-b50a-d87eeb612f00","ios":"levelo://app?vid=edb38347-93c8-462f-b50a-d87eeb612f00"},"vehicle_type_id":"4","last_reported":1720714179,"current_range_meters":3600,"station_id":"ce4bgjh2rcd13ifvqbf0","pricing_plan_id":"cebpf4jnsgd1na2vs0mg"},{"bike_id":"5ed05595-f165-474c-b637-8ad8f26c766e","system_id":"levelo_inurba_marseille","lat":43.292185,"lon":5.360595,"is_reserved":false,"is_disabled":false,"rental_uris":{"android":"levelo://app?vid=5ed05595-f165-474c-b637-8ad8f26c766e","ios":"levelo://app?vid=5ed05595-f165-474c-b637-8ad8f26c766e"},"vehicle_type_id":"4","last_reported":1720714179,"current_range_meters":12800,"station_id":"ce4bhbh2rcd13ifvqeqg","pricing_plan_id":"cebpf4jnsgd1na2vs0mg"},{"bike_id":"f23faf9a-943a-477b-9843-3fc39be0816d","system_id":"levelo_inurba_marseille","lat":43.298764,"lon":5.388973,"is_reserved":false,"is_disabled":false,"rental_uris":{"android":"levelo://app?vid=f23faf9a-943a-477b-9843-3fc39be0816d","ios":"levelo://app?vid=f23faf9a-943a-477b-9843-3fc39be0816d"},"vehicle_type_id":"4","last_reported":1720714179,"current_range_meters":20000,"station_id":"ce4bh392rcd13ifvqdl0","pricing_plan_id":"cebpf4jnsgd1na2vs0mg"},{"bike_id":"5cc7b870-641b-4a18-a24f-af150096debf","system_id":"levelo_inurba_marseille","lat":43.291675,"lon":5.371583,"is_reserved":false,"is_disabled":false,"rental_uris":{"android":"levelo://app?vid=5cc7b870-641b-4a18-a24f-af150096debf","ios":"levelo://app?vid=5cc7b870-641b-4a18-a24f-af150096debf"},"vehicle_type_id":"4","last_reported":1720714179,"current_range_meters":0,"station_id":"ce4bha92rcd13ifvqeh0","pricing_plan_id":"cebpf4jnsgd1na2vs0mg"},{"bike_id":"72237d37-5a10-4540-ad0c-350f25b6d2b1","system_id":"levelo_inurba_marseille","lat":43.298764,"lon":5.388973,"is_reserved":false,"is_disabled":false,"rental_uris":{"android":"levelo://app?vid=72237d37-5a10-4540-ad0c-350f25b6d2b1","ios":"levelo://app?vid=72237d37-5a10-4540-ad0c-350f25b6d2b1"},"vehicle_type_id":"4","last_reported":1720714179,"current_range_meters":15600,"station_id":"ce4bh392rcd13ifvqdl0","pricing_plan_id":"cebpf4jnsgd1na2vs0mg"},{"bike_id":"75032ded-7330-4cfb-845a-9919a206d2af","system_id":"levelo_inurba_marseille","lat":43.292005,"lon":5.357875,"is_reserved":false,"is_disabled":false,"rental_uris":{"android":"levelo://app?vid=75032ded-7330-4cfb-845a-9919a206d2af","ios":"levelo://app?vid=75032ded-7330-4cfb-845a-9919a206d2af"},"vehicle_type_id":"4","last_reported":1720714179,"current_range_meters":4400,"station_id":"ce4bhb12rcd13ifvqel0","pricing_plan_id":"cebpf4jnsgd1na2vs0mg"},{"bike_id":"c2a22f46-1a31-4cdd-9255-12565baeddba","system_id":"levelo_inurba_marseille","lat":43.313291,"lon":5.396838,"is_reserved":false,"is_disabled":false,"rental_uris":{"android":"levelo://app?vid=c2a22f46-1a31-4cdd-9255-12565baeddba","ios":"levelo://app?vid=c2a22f46-1a31-4cdd-9255-12565baeddba"},"vehicle_type_id":"4","last_reported":1720714179,"current_range_meters":22400,"station_id":"ce4bgvp2rcd13ifvqcu0","pricing_plan_id":"cebpf4jnsgd1na2vs0mg"},{"bike_id":"540562a8-7419-4168-a6ad-d2ecf84bb489","system_id":"levelo_inurba_marseille","lat":43.313291,"lon":5.396838,"is_reserved":false,"is_disabled":false,"rental_uris":{"android":"levelo://app?vid=540562a8-7419-4168-a6ad-d2ecf84bb489","ios":"levelo://app?vid=540562a8-7419-4168-a6ad-d2ecf84bb489"},"vehicle_type_id":"4","last_reported":1720714179,"current_range_meters":3200,"station_id":"ce4bgvp2rcd13ifvqcu0","pricing_plan_id":"cebpf4jnsgd1na2vs0mg"},{"bike_id":"9acd2d15-9e26-4a7a-a1f5-07b43d5ddf67","system_id":"levelo_inurba_marseille","lat":43.313291,"lon":5.396838,"is_reserved":false,"is_disabled":false,"rental_uris":{"android":"levelo://app?vid=9acd2d15-9e26-4a7a-a1f5-07b43d5ddf67","ios":"levelo://app?vid=9acd2d15-9e26-4a7a-a1f5-07b43d5ddf67"},"vehicle_type_id":"4","last_reported":1720714179,"current_range_meters":12400,"station_id":"ce4bgvp2rcd13ifvqcu0","pricing_plan_id":"cebpf4jnsgd1na2vs0mg"},{"bike_id":"86716307-38b9-4f2b-ac12-e610548d0919","system_id":"levelo_inurba_marseille","lat":43.291994,"lon":5.357886,"is_reserved":false,"is_disabled":false,"rental_uris":{"android":"levelo://app?vid=86716307-38b9-4f2b-ac12-e610548d0919","ios":"levelo://app?vid=86716307-38b9-4f2b-ac12-e610548d0919"},"vehicle_type_id":"4","last_reported":1720714179,"current_range_meters":6000,"station_id":"ce4bhb12rcd13ifvqel0","pricing_plan_id":"cebpf4jnsgd1na2vs0mg"},{"bike_id":"aeda8cbf-b626-457a-bd59-b4c12301f7af","system_id":"levelo_inurba_marseille","lat":43.313291,"lon":5.396838,"is_reserved":false,"is_disabled":false,"rental_uris":{"android":"levelo://app?vid=aeda8cbf-b626-457a-bd59-b4c12301f7af","ios":"levelo://app?vid=aeda8cbf-b626-457a-bd59-b4c12301f7af"},"vehicle_type_id":"4","last_reported":1720714179,"current_range_meters":2400,"station_id":"ce4bgvp2rcd13ifvqcu0","pricing_plan_id":"cebpf4jnsgd1na2vs0mg"},{"bike_id":"6cc1edf7-666b-4588-b0dd-5b0070324068","system_id":"levelo_inurba_marseille","lat":43.291994,"lon":5.357886,"is_reserved":false,"is_disabled":false,"rental_uris":{"android":"levelo://app?vid=6cc1edf7-666b-4588-b0dd-5b0070324068","ios":"levelo://app?vid=6cc1edf7-666b-4588-b0dd-5b0070324068"},"vehicle_type_id":"4","last_reported":1720714179,"current_range_meters":31600,"station_id":"ce4bhb12rcd13ifvqel0","pricing_plan_id":"cebpf4jnsgd1na2vs0mg"},{"bike_id":"93908f0d-9b34-4f37-8db0-48924b0d2186","system_id":"levelo_inurba_marseille","lat":43.309047,"lon":5.396551,"is_reserved":false,"is_disabled":false,"rental_uris":{"android":"levelo://app?vid=93908f0d-9b34-4f37-8db0-48924b0d2186","ios":"levelo://app?vid=93908f0d-9b34-4f37-8db0-48924b0d2186"},"vehicle_type_id":"4","last_reported":1720714179,"current_range_meters":6800,"station_id":"ce4bh012rcd13ifvqcv0","pricing_plan_id":"cebpf4jnsgd1na2vs0mg"},{"bike_id":"a45158c9-10c9-4b00-a79f-4816aa8ae4e0","system_id":"levelo_inurba_marseille","lat":43.309038,"lon":5.396546,"is_reserved":false,"is_disabled":false,"rental_uris":{"android":"levelo://app?vid=a45158c9-10c9-4b00-a79f-4816aa8ae4e0","ios":"levelo://app?vid=a45158c9-10c9-4b00-a79f-4816aa8ae4e0"},"vehicle_type_id":"4","last_reported":1720714179,"current_range_meters":23200,"station_id":"ce4bh012rcd13ifvqcv0","pricing_plan_id":"cebpf4jnsgd1na2vs0mg"},{"bike_id":"b4b90f2e-9b1c-4790-b2c6-3024052d0fea","system_id":"levelo_inurba_marseille","lat":43.29529,"lon":5.385581,"is_reserved":false,"is_disabled":false,"rental_uris":{"android":"levelo://app?vid=b4b90f2e-9b1c-4790-b2c6-3024052d0fea","ios":"levelo://app?vid=b4b90f2e-9b1c-4790-b2c6-3024052d0fea"},"vehicle_type_id":"4","last_reported":1720714179,"current_range_meters":22400,"station_id":"ce4bgih2rcd13ifvqba0","pricing_plan_id":"cebpf4jnsgd1na2vs0mg"},{"bike_id":"0a29ad58-c21b-4acb-89b6-b7a4864aa665","system_id":"levelo_inurba_marseille","lat":43.29529,"lon":5.385581,"is_reserved":false,"is_disabled":false,"rental_uris":{"android":"levelo://app?vid=0a29ad58-c21b-4acb-89b6-b7a4864aa665","ios":"levelo://app?vid=0a29ad58-c21b-4acb-89b6-b7a4864aa665"},"vehicle_type_id":"4","last_reported":1720714179,"current_range_meters":1600,"station_id":"ce4bgih2rcd13ifvqba0","pricing_plan_id":"cebpf4jnsgd1na2vs0mg"},{"bike_id":"62b0cc0b-d182-42de-8b64-46a7af1a3c56","system_id":"levelo_inurba_marseille","lat":43.290779,"lon":5.371482,"is_reserved":false,"is_disabled":false,"rental_uris":{"android":"levelo://app?vid=62b0cc0b-d182-42de-8b64-46a7af1a3c56","ios":"levelo://app?vid=62b0cc0b-d182-42de-8b64-46a7af1a3c56"},"vehicle_type_id":"4","last_reported":1720714179,"current_range_meters":400,"station_id":"ce4bh5p2rcd13ifvqe4g","pricing_plan_id":"cebpf4jnsgd1na2vs0mg"},{"bike_id":"813cdc68-510c-420d-82d7-66a86cf2454d","system_id":"levelo_inurba_marseille","lat":43.30211,"lon":5.394643,"is_reserved":false,"is_disabled":false,"rental_uris":{"android":"levelo://app?vid=813cdc68-510c-420d-82d7-66a86cf2454d","ios":"levelo://app?vid=813cdc68-510c-420d-82d7-66a86cf2454d"},"vehicle_type_id":"4","last_reported":1720714179,"current_range_meters":0,"station_id":"ce4bh0p2rcd13ifvqd70","pricing_plan_id":"cebpf4jnsgd1na2vs0mg"},{"bike_id":"246f175d-3a7b-43a7-a534-25d987225401","system_id":"levelo_inurba_marseille","lat":43.294153,"lon":5.386305,"is_reserved":false,"is_disabled":false,"rental_uris":{"android":"levelo://app?vid=246f175d-3a7b-43a7-a534-25d987225401","ios":"levelo://app?vid=246f175d-3a7b-43a7-a534-25d987225401"},"vehicle_type_id":"4","last_reported":1720714179,"current_range_meters":22400,"station_id":"ce4bh2h2rcd13ifvqdh0","pricing_plan_id":"cebpf4jnsgd1na2vs0mg"},{"bike_id":"f5695748-001f-4d5a-8928-28e3a9943d1e","system_id":"levelo_inurba_marseille","lat":43.290319,"lon":5.375732,"is_reserved":false,"is_disabled":false,"rental_uris":{"android":"levelo://app?vid=f5695748-001f-4d5a-8928-28e3a9943d1e","ios":"levelo://app?vid=f5695748-001f-4d5a-8928-28e3a9943d1e"},"vehicle_type_id":"4","last_reported":1720714179,"current_range_meters":0,"station_id":"ce4bh692rcd13ifvqe90","pricing_plan_id":"cebpf4jnsgd1na2vs0mg"},{"bike_id":"5e2e489c-6c09-4ce1-9869-d74ee4f51749","system_id":"levelo_inurba_marseille","lat":43.294153,"lon":5.386305,"is_reserved":false,"is_disabled":false,"rental_uris":{"android":"levelo://app?vid=5e2e489c-6c09-4ce1-9869-d74ee4f51749","ios":"levelo://app?vid=5e2e489c-6c09-4ce1-9869-d74ee4f51749"},"vehicle_type_id":"4","last_reported":1720714179,"current_range_meters":800,"station_id":"ce4bh2h2rcd13ifvqdh0","pricing_plan_id":"cebpf4jnsgd1na2vs0mg"},{"bike_id":"fec9d3a7-8ad6-49c3-84e0-153a8f854544","system_id":"levelo_inurba_marseille","lat":43.292644,"lon":5.384257,"is_reserved":false,"is_disabled":false,"rental_uris":{"android":"levelo://app?vid=fec9d3a7-8ad6-49c3-84e0-153a8f854544","ios":"levelo://app?vid=fec9d3a7-8ad6-49c3-84e0-153a8f854544"},"vehicle_type_id":"4","last_reported":1720714179,"current_range_meters":400,"station_id":"ce4bh692rcd13ifvqea0","pricing_plan_id":"cebpf4jnsgd1na2vs0mg"},{"bike_id":"fb5564d9-b707-4d76-9c19-def3977801ca","system_id":"levelo_inurba_marseille","lat":43.29006,"lon":5.35612,"is_reserved":false,"is_disabled":false,"rental_uris":{"android":"levelo://app?vid=fb5564d9-b707-4d76-9c19-def3977801ca","ios":"levelo://app?vid=fb5564d9-b707-4d76-9c19-def3977801ca"},"vehicle_type_id":"4","last_reported":1720714179,"current_range_meters":0,"station_id":"ce4bhb92rcd13ifvqen0","pricing_plan_id":"cebpf4jnsgd1na2vs0mg"},{"bike_id":"c1c125f5-a094-40c0-a3d4-eb6200dbdfed","system_id":"levelo_inurba_marseille","lat":43.29005,"lon":5.35611,"is_reserved":false,"is_disabled":false,"rental_uris":{"android":"levelo://app?vid=c1c125f5-a094-40c0-a3d4-eb6200dbdfed","ios":"levelo://app?vid=c1c125f5-a094-40c0-a3d4-eb6200dbdfed"},"vehicle_type_id":"4","last_reported":1720714179,"current_range_meters":0,"station_id":"ce4bhb92rcd13ifvqen0","pricing_plan_id":"cebpf4jnsgd1na2vs0mg"},{"bike_id":"5c9f2a97-2c45-4564-9713-2ae06a9f7e2b","system_id":"levelo_inurba_marseille","lat":43.290113,"lon":5.355855,"is_reserved":false,"is_disabled":false,"rental_uris":{"android":"levelo://app?vid=5c9f2a97-2c45-4564-9713-2ae06a9f7e2b","ios":"levelo://app?vid=5c9f2a97-2c45-4564-9713-2ae06a9f7e2b"},"vehicle_type_id":"4","last_reported":1720714179,"current_range_meters":0,"station_id":"ce4bgs92rcd13ifvqcc0","pricing_plan_id":"cebpf4jnsgd1na2vs0mg"},{"bike_id":"5153bc10-4d21-41ad-bb7f-dbf55861f1d9","system_id":"levelo_inurba_marseille","lat":43.29001,"lon":5.35615,"is_reserved":false,"is_disabled":false,"rental_uris":{"android":"levelo://app?vid=5153bc10-4d21-41ad-bb7f-dbf55861f1d9","ios":"levelo://app?vid=5153bc10-4d21-41ad-bb7f-dbf55861f1d9"},"vehicle_type_id":"4","last_reported":1720714179,"current_range_meters":13600,"station_id":"ce4bhb92rcd13ifvqen0","pricing_plan_id":"cebpf4jnsgd1na2vs0mg"},{"bike_id":"9e2d59e5-d0a8-4491-ade7-c6f4062da8b5","system_id":"levelo_inurba_marseille","lat":43.290995,"lon":5.381361,"is_reserved":false,"is_disabled":false,"rental_uris":{"android":"levelo://app?vid=9e2d59e5-d0a8-4491-ade7-c6f4062da8b5","ios":"levelo://app?vid=9e2d59e5-d0a8-4491-ade7-c6f4062da8b5"},"vehicle_type_id":"4","last_reported":1720714179,"current_range_meters":0,"station_id":"ce4bh512rcd13ifvqe2g","pricing_plan_id":"cebpf4jnsgd1na2vs0mg"},{"bike_id":"f1b517b0-fc1e-40f0-a8ef-2e08676487cd","system_id":"levelo_inurba_marseille","lat":43.295169,"lon":5.390426,"is_reserved":false,"is_disabled":false,"rental_uris":{"android":"levelo://app?vid=f1b517b0-fc1e-40f0-a8ef-2e08676487cd","ios":"levelo://app?vid=f1b517b0-fc1e-40f0-a8ef-2e08676487cd"},"vehicle_type_id":"4","last_reported":1720714179,"current_range_meters":19600,"station_id":"ce4bh3p2rcd13ifvqdp0","pricing_plan_id":"cebpf4jnsgd1na2vs0mg"},{"bike_id":"3c5e40e6-38c3-4211-bbbe-03e3b550349a","system_id":"levelo_inurba_marseille","lat":43.295169,"lon":5.390426,"is_reserved":false,"is_disabled":false,"rental_uris":{"android":"levelo://app?vid=3c5e40e6-38c3-4211-bbbe-03e3b550349a","ios":"levelo://app?vid=3c5e40e6-38c3-4211-bbbe-03e3b550349a"},"vehicle_type_id":"4","last_reported":1720714179,"current_range_meters":22000,"station_id":"ce4bh3p2rcd13ifvqdp0","pricing_plan_id":"cebpf4jnsgd1na2vs0mg"},{"bike_id":"db343bf7-490b-4023-8677-68ea8fda8975","system_id":"levelo_inurba_marseille","lat":43.330442,"lon":5.389148,"is_reserved":false,"is_disabled":false,"rental_uris":{"android":"levelo://app?vid=db343bf7-490b-4023-8677-68ea8fda8975","ios":"levelo://app?vid=db343bf7-490b-4023-8677-68ea8fda8975"},"vehicle_type_id":"4","last_reported":1720714179,"current_range_meters":28400,"station_id":"ce4bhr92rcd13ifvqhrg","pricing_plan_id":"cebpf4jnsgd1na2vs0mg"},{"bike_id":"24523e06-385a-4064-8c53-695ac558f01d","system_id":"levelo_inurba_marseille","lat":43.295169,"lon":5.390426,"is_reserved":false,"is_disabled":false,"rental_uris":{"android":"levelo://app?vid=24523e06-385a-4064-8c53-695ac558f01d","ios":"levelo://app?vid=24523e06-385a-4064-8c53-695ac558f01d"},"vehicle_type_id":"4","last_reported":1720714179,"current_range_meters":800,"station_id":"ce4bh3p2rcd13ifvqdp0","pricing_plan_id":"cebpf4jnsgd1na2vs0mg"},{"bike_id":"d156496d-6a41-4eb9-b5bd-752c7db34f4c","system_id":"levelo_inurba_marseille","lat":43.330442,"lon":5.389148,"is_reserved":false,"is_disabled":false,"rental_uris":{"android":"levelo://app?vid=d156496d-6a41-4eb9-b5bd-752c7db34f4c","ios":"levelo://app?vid=d156496d-6a41-4eb9-b5bd-752c7db34f4c"},"vehicle_type_id":"4","last_reported":1720714179,"current_range_meters":0,"station_id":"ce4bhr92rcd13ifvqhrg","pricing_plan_id":"cebpf4jnsgd1na2vs0mg"},{"bike_id":"13fdec19-aa54-407e-a292-3cb6bf53fc2d","system_id":"levelo_inurba_marseille","lat":43.295169,"lon":5.390426,"is_reserved":false,"is_disabled":false,"rental_uris":{"android":"levelo://app?vid=13fdec19-aa54-407e-a292-3cb6bf53fc2d","ios":"levelo://app?vid=13fdec19-aa54-407e-a292-3cb6bf53fc2d"},"vehicle_type_id":"4","last_reported":1720714179,"current_range_meters":2800,"station_id":"ce4bh3p2rcd13ifvqdp0","pricing_plan_id":"cebpf4jnsgd1na2vs0mg"},{"bike_id":"96950b19-0c02-41bd-8716-adc6834feef2","system_id":"levelo_inurba_marseille","lat":43.28856,"lon":5.358371,"is_reserved":false,"is_disabled":false,"rental_uris":{"android":"levelo://app?vid=96950b19-0c02-41bd-8716-adc6834feef2","ios":"levelo://app?vid=96950b19-0c02-41bd-8716-adc6834feef2"},"vehicle_type_id":"4","last_reported":1720714179,"current_range_meters":25200,"station_id":"ce4bhb12rcd13ifvqem0","pricing_plan_id":"cebpf4jnsgd1na2vs0mg"},{"bike_id":"11f6427d-faef-4eed-8b82-d93eab79ca4d","system_id":"levelo_inurba_marseille","lat":43.28856,"lon":5.358371,"is_reserved":false,"is_disabled":false,"rental_uris":{"android":"levelo://app?vid=11f6427d-faef-4eed-8b82-d93eab79ca4d","ios":"levelo://app?vid=11f6427d-faef-4eed-8b82-d93eab79ca4d"},"vehicle_type_id":"4","last_reported":1720714179,"current_range_meters":0,"station_id":"ce4bhb12rcd13ifvqem0","pricing_plan_id":"cebpf4jnsgd1na2vs0mg"},{"bike_id":"bcb0b31e-145a-426d-a874-a180aac4cefa","system_id":"levelo_inurba_marseille","lat":43.28856,"lon":5.358371,"is_reserved":false,"is_disabled":false,"rental_uris":{"android":"levelo://app?vid=bcb0b31e-145a-426d-a874-a180aac4cefa","ios":"levelo://app?vid=bcb0b31e-145a-426d-a874-a180aac4cefa"},"vehicle_type_id":"4","last_reported":1720714179,"current_range_meters":30400,"station_id":"ce4bhb12rcd13ifvqem0","pricing_plan_id":"cebpf4jnsgd1na2vs0mg"},{"bike_id":"75115c6a-a5cc-45d1-a5fd-9aa0815398b8","system_id":"levelo_inurba_marseille","lat":43.28856,"lon":5.358371,"is_reserved":false,"is_disabled":false,"rental_uris":{"android":"levelo://app?vid=75115c6a-a5cc-45d1-a5fd-9aa0815398b8","ios":"levelo://app?vid=75115c6a-a5cc-45d1-a5fd-9aa0815398b8"},"vehicle_type_id":"4","last_reported":1720714179,"current_range_meters":15600,"station_id":"ce4bhb12rcd13ifvqem0","pricing_plan_id":"cebpf4jnsgd1na2vs0mg"},{"bike_id":"67b770f2-aaeb-4875-97be-da70568bf59a","system_id":"levelo_inurba_marseille","lat":43.337385,"lon":5.374617,"is_reserved":false,"is_disabled":false,"rental_uris":{"android":"levelo://app?vid=67b770f2-aaeb-4875-97be-da70568bf59a","ios":"levelo://app?vid=67b770f2-aaeb-4875-97be-da70568bf59a"},"vehicle_type_id":"4","last_reported":1720714179,"current_range_meters":10000,"station_id":"","pricing_plan_id":"cebpf4jnsgd1na2vs0mg"},{"bike_id":"32911e7b-d007-4f9f-b241-99e9a2f3c26d","system_id":"levelo_inurba_marseille","lat":43.28856,"lon":5.358371,"is_reserved":false,"is_disabled":false,"rental_uris":{"android":"levelo://app?vid=32911e7b-d007-4f9f-b241-99e9a2f3c26d","ios":"levelo://app?vid=32911e7b-d007-4f9f-b241-99e9a2f3c26d"},"vehicle_type_id":"4","last_reported":1720714179,"current_range_meters":13200,"station_id":"ce4bhb12rcd13ifvqem0","pricing_plan_id":"cebpf4jnsgd1na2vs0mg"},{"bike_id":"a50b93d7-9a9a-4c5d-b980-60e226058b7c","system_id":"levelo_inurba_marseille","lat":43.312609,"lon":5.401662,"is_reserved":false,"is_disabled":false,"rental_uris":{"android":"levelo://app?vid=a50b93d7-9a9a-4c5d-b980-60e226058b7c","ios":"levelo://app?vid=a50b93d7-9a9a-4c5d-b980-60e226058b7c"},"vehicle_type_id":"4","last_reported":1720714179,"current_range_meters":1600,"station_id":"ce4bh092rcd13ifvqd30","pricing_plan_id":"cebpf4jnsgd1na2vs0mg"},{"bike_id":"00507ea1-ccf0-462f-bc61-adaecacbfe51","system_id":"levelo_inurba_marseille","lat":43.3377,"lon":5.37417,"is_reserved":false,"is_disabled":false,"rental_uris":{"android":"levelo://app?vid=00507ea1-ccf0-462f-bc61-adaecacbfe51","ios":"levelo://app?vid=00507ea1-ccf0-462f-bc61-adaecacbfe51"},"vehicle_type_id":"4","last_reported":1720714179,"current_range_meters":25600,"station_id":"","pricing_plan_id":"cebpf4jnsgd1na2vs0mg"},{"bike_id":"5b1b9550-65ec-433c-a44e-28eba43e510b","system_id":"levelo_inurba_marseille","lat":43.33771,"lon":5.37428,"is_reserved":false,"is_disabled":false,"rental_uris":{"android":"levelo://app?vid=5b1b9550-65ec-433c-a44e-28eba43e510b","ios":"levelo://app?vid=5b1b9550-65ec-433c-a44e-28eba43e510b"},"vehicle_type_id":"4","last_reported":1720714179,"current_range_meters":28800,"station_id":"","pricing_plan_id":"cebpf4jnsgd1na2vs0mg"},{"bike_id":"aa524ed8-a130-4510-9ae2-c57751dd0847","system_id":"levelo_inurba_marseille","lat":43.301117,"lon":5.398795,"is_reserved":false,"is_disabled":false,"rental_uris":{"android":"levelo://app?vid=aa524ed8-a130-4510-9ae2-c57751dd0847","ios":"levelo://app?vid=aa524ed8-a130-4510-9ae2-c57751dd0847"},"vehicle_type_id":"4","last_reported":1720714179,"current_range_meters":3200,"station_id":"ce4bh0h2rcd13ifvqd40","pricing_plan_id":"cebpf4jnsgd1na2vs0mg"},{"bike_id":"7298fa94-e8a9-485d-84b8-a78e39e7d4a9","system_id":"levelo_inurba_marseille","lat":43.30133,"lon":5.398685,"is_reserved":false,"is_disabled":false,"rental_uris":{"android":"levelo://app?vid=7298fa94-e8a9-485d-84b8-a78e39e7d4a9","ios":"levelo://app?vid=7298fa94-e8a9-485d-84b8-a78e39e7d4a9"},"vehicle_type_id":"4","last_reported":1720714179,"current_range_meters":0,"station_id":"ce4bh0h2rcd13ifvqd40","pricing_plan_id":"cebpf4jnsgd1na2vs0mg"},{"bike_id":"0c0d6312-66cc-4d0f-ad64-19711b6fea90","system_id":"levelo_inurba_marseille","lat":43.28727,"lon":5.36078,"is_reserved":false,"is_disabled":false,"rental_uris":{"android":"levelo://app?vid=0c0d6312-66cc-4d0f-ad64-19711b6fea90","ios":"levelo://app?vid=0c0d6312-66cc-4d0f-ad64-19711b6fea90"},"vehicle_type_id":"4","last_reported":1720714179,"current_range_meters":4400,"station_id":"cki0cbj6b192h4jlfktg","pricing_plan_id":"cebpf4jnsgd1na2vs0mg"},{"bike_id":"535623cc-a099-4f9c-bfd4-070f4ea96121","system_id":"levelo_inurba_marseille","lat":43.28727,"lon":5.36078,"is_reserved":false,"is_disabled":false,"rental_uris":{"android":"levelo://app?vid=535623cc-a099-4f9c-bfd4-070f4ea96121","ios":"levelo://app?vid=535623cc-a099-4f9c-bfd4-070f4ea96121"},"vehicle_type_id":"4","last_reported":1720714179,"current_range_meters":6400,"station_id":"cki0cbj6b192h4jlfktg","pricing_plan_id":"cebpf4jnsgd1na2vs0mg"},{"bike_id":"af94740f-0bc6-4b04-b06f-0ec926395a62","system_id":"levelo_inurba_marseille","lat":43.295196,"lon":5.39397,"is_reserved":false,"is_disabled":false,"rental_uris":{"android":"levelo://app?vid=af94740f-0bc6-4b04-b06f-0ec926395a62","ios":"levelo://app?vid=af94740f-0bc6-4b04-b06f-0ec926395a62"},"vehicle_type_id":"4","last_reported":1720714179,"current_range_meters":18400,"station_id":"ce4bh292rcd13ifvqdf0","pricing_plan_id":"cebpf4jnsgd1na2vs0mg"},{"bike_id":"0e9a7e81-3a74-4443-81c9-221f44828a03","system_id":"levelo_inurba_marseille","lat":43.286961,"lon":5.373785,"is_reserved":false,"is_disabled":false,"rental_uris":{"android":"levelo://app?vid=0e9a7e81-3a74-4443-81c9-221f44828a03","ios":"levelo://app?vid=0e9a7e81-3a74-4443-81c9-221f44828a03"},"vehicle_type_id":"4","last_reported":1720714179,"current_range_meters":0,"station_id":"ce4bh3p2rcd13ifvqdq0","pricing_plan_id":"cebpf4jnsgd1na2vs0mg"},{"bike_id":"082c37f0-23b4-4545-b7a1-1ac767973c06","system_id":"levelo_inurba_marseille","lat":43.286591,"lon":5.363346,"is_reserved":false,"is_disabled":false,"rental_uris":{"android":"levelo://app?vid=082c37f0-23b4-4545-b7a1-1ac767973c06","ios":"levelo://app?vid=082c37f0-23b4-4545-b7a1-1ac767973c06"},"vehicle_type_id":"4","last_reported":1720714179,"current_range_meters":800,"station_id":"ce4bhah2rcd13ifvqej0","pricing_plan_id":"cebpf4jnsgd1na2vs0mg"},{"bike_id":"998ff22e-f325-4c9c-98c4-2c1db4cd1e38","system_id":"levelo_inurba_marseille","lat":43.286997,"lon":5.373913,"is_reserved":false,"is_disabled":false,"rental_uris":{"android":"levelo://app?vid=998ff22e-f325-4c9c-98c4-2c1db4cd1e38","ios":"levelo://app?vid=998ff22e-f325-4c9c-98c4-2c1db4cd1e38"},"vehicle_type_id":"4","last_reported":1720714179,"current_range_meters":0,"station_id":"ce4bh3p2rcd13ifvqdq0","pricing_plan_id":"cebpf4jnsgd1na2vs0mg"},{"bike_id":"666c12de-affc-43c6-a97c-9955403250cb","system_id":"levelo_inurba_marseille","lat":43.286591,"lon":5.363346,"is_reserved":false,"is_disabled":false,"rental_uris":{"android":"levelo://app?vid=666c12de-affc-43c6-a97c-9955403250cb","ios":"levelo://app?vid=666c12de-affc-43c6-a97c-9955403250cb"},"vehicle_type_id":"4","last_reported":1720714179,"current_range_meters":12000,"station_id":"ce4bhah2rcd13ifvqej0","pricing_plan_id":"cebpf4jnsgd1na2vs0mg"},{"bike_id":"1b809413-b07d-46c9-8748-acdb6e61a642","system_id":"levelo_inurba_marseille","lat":43.295196,"lon":5.39397,"is_reserved":false,"is_disabled":false,"rental_uris":{"android":"levelo://app?vid=1b809413-b07d-46c9-8748-acdb6e61a642","ios":"levelo://app?vid=1b809413-b07d-46c9-8748-acdb6e61a642"},"vehicle_type_id":"4","last_reported":1720714179,"current_range_meters":0,"station_id":"ce4bh292rcd13ifvqdf0","pricing_plan_id":"cebpf4jnsgd1na2vs0mg"},{"bike_id":"e5ff99de-d63f-4782-83bc-a7da7dd6836e","system_id":"levelo_inurba_marseille","lat":43.286961,"lon":5.373785,"is_reserved":false,"is_disabled":false,"rental_uris":{"android":"levelo://app?vid=e5ff99de-d63f-4782-83bc-a7da7dd6836e","ios":"levelo://app?vid=e5ff99de-d63f-4782-83bc-a7da7dd6836e"},"vehicle_type_id":"4","last_reported":1720714179,"current_range_meters":0,"station_id":"ce4bh3p2rcd13ifvqdq0","pricing_plan_id":"cebpf4jnsgd1na2vs0mg"},{"bike_id":"da168006-44e6-470d-81b4-173800a0dba8","system_id":"levelo_inurba_marseille","lat":43.302759,"lon":5.400793,"is_reserved":false,"is_disabled":false,"rental_uris":{"android":"levelo://app?vid=da168006-44e6-470d-81b4-173800a0dba8","ios":"levelo://app?vid=da168006-44e6-470d-81b4-173800a0dba8"},"vehicle_type_id":"4","last_reported":1720714179,"current_range_meters":4400,"station_id":"ce4bgvh2rcd13ifvqcs0","pricing_plan_id":"cebpf4jnsgd1na2vs0mg"},{"bike_id":"d61b9b27-4376-4a34-bfb7-0fbee99d1e40","system_id":"levelo_inurba_marseille","lat":43.290263,"lon":5.386283,"is_reserved":false,"is_disabled":false,"rental_uris":{"android":"levelo://app?vid=d61b9b27-4376-4a34-bfb7-0fbee99d1e40","ios":"levelo://app?vid=d61b9b27-4376-4a34-bfb7-0fbee99d1e40"},"vehicle_type_id":"4","last_reported":1720714179,"current_range_meters":0,"station_id":"ce4bh4p2rcd13ifvqe0g","pricing_plan_id":"cebpf4jnsgd1na2vs0mg"},{"bike_id":"aacd9b1c-e647-43ec-85a3-19ee0dda49b7","system_id":"levelo_inurba_marseille","lat":43.290336,"lon":5.386425,"is_reserved":false,"is_disabled":false,"rental_uris":{"android":"levelo://app?vid=aacd9b1c-e647-43ec-85a3-19ee0dda49b7","ios":"levelo://app?vid=aacd9b1c-e647-43ec-85a3-19ee0dda49b7"},"vehicle_type_id":"4","last_reported":1720714179,"current_range_meters":12400,"station_id":"ce4bh4p2rcd13ifvqe0g","pricing_plan_id":"cebpf4jnsgd1na2vs0mg"},{"bike_id":"08d23c6e-39a8-46cc-952f-ca09a53ce227","system_id":"levelo_inurba_marseille","lat":43.302759,"lon":5.400793,"is_reserved":false,"is_disabled":false,"rental_uris":{"android":"levelo://app?vid=08d23c6e-39a8-46cc-952f-ca09a53ce227","ios":"levelo://app?vid=08d23c6e-39a8-46cc-952f-ca09a53ce227"},"vehicle_type_id":"4","last_reported":1720714179,"current_range_meters":3600,"station_id":"ce4bgvh2rcd13ifvqcs0","pricing_plan_id":"cebpf4jnsgd1na2vs0mg"},{"bike_id":"10d18be7-fb27-4b1e-901a-cf2c0a89cb97","system_id":"levelo_inurba_marseille","lat":43.286177,"lon":5.364393,"is_reserved":false,"is_disabled":false,"rental_uris":{"android":"levelo://app?vid=10d18be7-fb27-4b1e-901a-cf2c0a89cb97","ios":"levelo://app?vid=10d18be7-fb27-4b1e-901a-cf2c0a89cb97"},"vehicle_type_id":"4","last_reported":1720714179,"current_range_meters":3200,"station_id":"","pricing_plan_id":"cebpf4jnsgd1na2vs0mg"},{"bike_id":"48523815-17d9-4c40-b65a-961a77fcc10e","system_id":"levelo_inurba_marseille","lat":43.302759,"lon":5.400793,"is_reserved":false,"is_disabled":false,"rental_uris":{"android":"levelo://app?vid=48523815-17d9-4c40-b65a-961a77fcc10e","ios":"levelo://app?vid=48523815-17d9-4c40-b65a-961a77fcc10e"},"vehicle_type_id":"4","last_reported":1720714179,"current_range_meters":800,"station_id":"ce4bgvh2rcd13ifvqcs0","pricing_plan_id":"cebpf4jnsgd1na2vs0mg"},{"bike_id":"79fdfecf-51f8-4151-9d4c-82dd8616d023","system_id":"levelo_inurba_marseille","lat":43.313267,"lon":5.403616,"is_reserved":false,"is_disabled":false,"rental_uris":{"android":"levelo://app?vid=79fdfecf-51f8-4151-9d4c-82dd8616d023","ios":"levelo://app?vid=79fdfecf-51f8-4151-9d4c-82dd8616d023"},"vehicle_type_id":"4","last_reported":1720714179,"current_range_meters":0,"station_id":"","pricing_plan_id":"cebpf4jnsgd1na2vs0mg"},{"bike_id":"1e52f798-ab4e-46d4-ba4a-08ec92e713e1","system_id":"levelo_inurba_marseille","lat":43.31823,"lon":5.40387,"is_reserved":false,"is_disabled":false,"rental_uris":{"android":"levelo://app?vid=1e52f798-ab4e-46d4-ba4a-08ec92e713e1","ios":"levelo://app?vid=1e52f798-ab4e-46d4-ba4a-08ec92e713e1"},"vehicle_type_id":"4","last_reported":1720714179,"current_range_meters":11200,"station_id":"","pricing_plan_id":"cebpf4jnsgd1na2vs0mg"},{"bike_id":"68c1414e-e5b8-41c9-b3d6-97d35acd4540","system_id":"levelo_inurba_marseille","lat":43.31691,"lon":5.40467,"is_reserved":false,"is_disabled":false,"rental_uris":{"android":"levelo://app?vid=68c1414e-e5b8-41c9-b3d6-97d35acd4540","ios":"levelo://app?vid=68c1414e-e5b8-41c9-b3d6-97d35acd4540"},"vehicle_type_id":"4","last_reported":1720714179,"current_range_meters":0,"station_id":"ce4bh012rcd13ifvqd00","pricing_plan_id":"cebpf4jnsgd1na2vs0mg"},{"bike_id":"15a6e4dd-8d09-42f3-b071-8d875803f011","system_id":"levelo_inurba_marseille","lat":43.31687,"lon":5.40474,"is_reserved":false,"is_disabled":false,"rental_uris":{"android":"levelo://app?vid=15a6e4dd-8d09-42f3-b071-8d875803f011","ios":"levelo://app?vid=15a6e4dd-8d09-42f3-b071-8d875803f011"},"vehicle_type_id":"4","last_reported":1720714179,"current_range_meters":8400,"station_id":"ce4bh012rcd13ifvqd00","pricing_plan_id":"cebpf4jnsgd1na2vs0mg"},{"bike_id":"1aa61177-67cb-4244-9d29-14850f5d6eb8","system_id":"levelo_inurba_marseille","lat":43.284534,"lon":5.358662,"is_reserved":false,"is_disabled":false,"rental_uris":{"android":"levelo://app?vid=1aa61177-67cb-4244-9d29-14850f5d6eb8","ios":"levelo://app?vid=1aa61177-67cb-4244-9d29-14850f5d6eb8"},"vehicle_type_id":"4","last_reported":1720714179,"current_range_meters":400,"station_id":"ce4bhah2rcd13ifvqei0","pricing_plan_id":"cebpf4jnsgd1na2vs0mg"},{"bike_id":"f42ad6ee-5a1d-4104-ab7a-bdf4f88a3d66","system_id":"levelo_inurba_marseille","lat":43.284538,"lon":5.358657,"is_reserved":false,"is_disabled":false,"rental_uris":{"android":"levelo://app?vid=f42ad6ee-5a1d-4104-ab7a-bdf4f88a3d66","ios":"levelo://app?vid=f42ad6ee-5a1d-4104-ab7a-bdf4f88a3d66"},"vehicle_type_id":"4","last_reported":1720714179,"current_range_meters":22400,"station_id":"ce4bhah2rcd13ifvqei0","pricing_plan_id":"cebpf4jnsgd1na2vs0mg"},{"bike_id":"730d2d15-800a-47e4-81bf-20ca6bd895b5","system_id":"levelo_inurba_marseille","lat":43.284534,"lon":5.358662,"is_reserved":false,"is_disabled":false,"rental_uris":{"android":"levelo://app?vid=730d2d15-800a-47e4-81bf-20ca6bd895b5","ios":"levelo://app?vid=730d2d15-800a-47e4-81bf-20ca6bd895b5"},"vehicle_type_id":"4","last_reported":1720714179,"current_range_meters":15600,"station_id":"ce4bhah2rcd13ifvqei0","pricing_plan_id":"cebpf4jnsgd1na2vs0mg"},{"bike_id":"e905d9aa-1a6a-4afc-9aeb-5e39a8bfb95a","system_id":"levelo_inurba_marseille","lat":43.294314,"lon":5.397498,"is_reserved":false,"is_disabled":false,"rental_uris":{"android":"levelo://app?vid=e905d9aa-1a6a-4afc-9aeb-5e39a8bfb95a","ios":"levelo://app?vid=e905d9aa-1a6a-4afc-9aeb-5e39a8bfb95a"},"vehicle_type_id":"4","last_reported":1720714179,"current_range_meters":1200,"station_id":"ce4bh3h2rcd13ifvqdo0","pricing_plan_id":"cebpf4jnsgd1na2vs0mg"},{"bike_id":"979ff8e0-93b0-4c0b-9226-9b05bcc28fbd","system_id":"levelo_inurba_marseille","lat":43.28623,"lon":5.35103,"is_reserved":false,"is_disabled":false,"rental_uris":{"android":"levelo://app?vid=979ff8e0-93b0-4c0b-9226-9b05bcc28fbd","ios":"levelo://app?vid=979ff8e0-93b0-4c0b-9226-9b05bcc28fbd"},"vehicle_type_id":"4","last_reported":1720714179,"current_range_meters":30000,"station_id":"ce4bhch2rcd13ifvqeug","pricing_plan_id":"cebpf4jnsgd1na2vs0mg"},{"bike_id":"5c4d2326-3c7c-4548-8f2a-ceff59a1353b","system_id":"levelo_inurba_marseille","lat":43.285856,"lon":5.350771,"is_reserved":false,"is_disabled":false,"rental_uris":{"android":"levelo://app?vid=5c4d2326-3c7c-4548-8f2a-ceff59a1353b","ios":"levelo://app?vid=5c4d2326-3c7c-4548-8f2a-ceff59a1353b"},"vehicle_type_id":"4","last_reported":1720714179,"current_range_meters":18800,"station_id":"ce4bhch2rcd13ifvqeug","pricing_plan_id":"cebpf4jnsgd1na2vs0mg"},{"bike_id":"3ec97f75-bd1b-492c-b79e-5bad0db1e97a","system_id":"levelo_inurba_marseille","lat":43.2862,"lon":5.35105,"is_reserved":false,"is_disabled":false,"rental_uris":{"android":"levelo://app?vid=3ec97f75-bd1b-492c-b79e-5bad0db1e97a","ios":"levelo://app?vid=3ec97f75-bd1b-492c-b79e-5bad0db1e97a"},"vehicle_type_id":"4","last_reported":1720714179,"current_range_meters":9200,"station_id":"ce4bhch2rcd13ifvqeug","pricing_plan_id":"cebpf4jnsgd1na2vs0mg"},{"bike_id":"b324f95f-e8e1-4c50-957e-cd07abc6de6c","system_id":"levelo_inurba_marseille","lat":43.28619,"lon":5.35108,"is_reserved":false,"is_disabled":false,"rental_uris":{"android":"levelo://app?vid=b324f95f-e8e1-4c50-957e-cd07abc6de6c","ios":"levelo://app?vid=b324f95f-e8e1-4c50-957e-cd07abc6de6c"},"vehicle_type_id":"4","last_reported":1720714179,"current_range_meters":24400,"station_id":"ce4bhch2rcd13ifvqeug","pricing_plan_id":"cebpf4jnsgd1na2vs0mg"},{"bike_id":"ccb2c5aa-c71d-479e-ba95-7cfe3a0d1621","system_id":"levelo_inurba_marseille","lat":43.28618,"lon":5.35109,"is_reserved":false,"is_disabled":false,"rental_uris":{"android":"levelo://app?vid=ccb2c5aa-c71d-479e-ba95-7cfe3a0d1621","ios":"levelo://app?vid=ccb2c5aa-c71d-479e-ba95-7cfe3a0d1621"},"vehicle_type_id":"4","last_reported":1720714179,"current_range_meters":16000,"station_id":"ce4bhch2rcd13ifvqeug","pricing_plan_id":"cebpf4jnsgd1na2vs0mg"},{"bike_id":"c798e60b-d119-4b52-81dd-7c4c7fb2d563","system_id":"levelo_inurba_marseille","lat":43.28618,"lon":5.35106,"is_reserved":false,"is_disabled":false,"rental_uris":{"android":"levelo://app?vid=c798e60b-d119-4b52-81dd-7c4c7fb2d563","ios":"levelo://app?vid=c798e60b-d119-4b52-81dd-7c4c7fb2d563"},"vehicle_type_id":"4","last_reported":1720714179,"current_range_meters":20800,"station_id":"ce4bhch2rcd13ifvqeug","pricing_plan_id":"cebpf4jnsgd1na2vs0mg"},{"bike_id":"fff16e79-0f4e-4e58-83ab-5cb31dfaab0d","system_id":"levelo_inurba_marseille","lat":43.28617,"lon":5.35109,"is_reserved":false,"is_disabled":false,"rental_uris":{"android":"levelo://app?vid=fff16e79-0f4e-4e58-83ab-5cb31dfaab0d","ios":"levelo://app?vid=fff16e79-0f4e-4e58-83ab-5cb31dfaab0d"},"vehicle_type_id":"4","last_reported":1720714179,"current_range_meters":24800,"station_id":"ce4bhch2rcd13ifvqeug","pricing_plan_id":"cebpf4jnsgd1na2vs0mg"},{"bike_id":"b1321eee-116f-4b7b-9e25-e00e41f50057","system_id":"levelo_inurba_marseille","lat":43.28617,"lon":5.35109,"is_reserved":false,"is_disabled":false,"rental_uris":{"android":"levelo://app?vid=b1321eee-116f-4b7b-9e25-e00e41f50057","ios":"levelo://app?vid=b1321eee-116f-4b7b-9e25-e00e41f50057"},"vehicle_type_id":"4","last_reported":1720714179,"current_range_meters":22400,"station_id":"ce4bhch2rcd13ifvqeug","pricing_plan_id":"cebpf4jnsgd1na2vs0mg"},{"bike_id":"d4844ccc-7df8-434b-98a0-7ccb5ae033d7","system_id":"levelo_inurba_marseille","lat":43.28618,"lon":5.35105,"is_reserved":false,"is_disabled":false,"rental_uris":{"android":"levelo://app?vid=d4844ccc-7df8-434b-98a0-7ccb5ae033d7","ios":"levelo://app?vid=d4844ccc-7df8-434b-98a0-7ccb5ae033d7"},"vehicle_type_id":"4","last_reported":1720714179,"current_range_meters":31200,"station_id":"ce4bhch2rcd13ifvqeug","pricing_plan_id":"cebpf4jnsgd1na2vs0mg"},{"bike_id":"393a440d-1389-4089-8b3a-1040c3df9e5b","system_id":"levelo_inurba_marseille","lat":43.28618,"lon":5.35105,"is_reserved":false,"is_disabled":false,"rental_uris":{"android":"levelo://app?vid=393a440d-1389-4089-8b3a-1040c3df9e5b","ios":"levelo://app?vid=393a440d-1389-4089-8b3a-1040c3df9e5b"},"vehicle_type_id":"4","last_reported":1720714179,"current_range_meters":2000,"station_id":"ce4bhch2rcd13ifvqeug","pricing_plan_id":"cebpf4jnsgd1na2vs0mg"},{"bike_id":"b416c3d6-911b-4d95-9743-431d46095ad4","system_id":"levelo_inurba_marseille","lat":43.286182,"lon":5.351028,"is_reserved":false,"is_disabled":false,"rental_uris":{"android":"levelo://app?vid=b416c3d6-911b-4d95-9743-431d46095ad4","ios":"levelo://app?vid=b416c3d6-911b-4d95-9743-431d46095ad4"},"vehicle_type_id":"4","last_reported":1720714179,"current_range_meters":30800,"station_id":"ce4bhch2rcd13ifvqeug","pricing_plan_id":"cebpf4jnsgd1na2vs0mg"},{"bike_id":"dd388493-479b-43aa-a5c3-8f78694d1413","system_id":"levelo_inurba_marseille","lat":43.28619,"lon":5.351,"is_reserved":false,"is_disabled":false,"rental_uris":{"android":"levelo://app?vid=dd388493-479b-43aa-a5c3-8f78694d1413","ios":"levelo://app?vid=dd388493-479b-43aa-a5c3-8f78694d1413"},"vehicle_type_id":"4","last_reported":1720714179,"current_range_meters":8400,"station_id":"ce4bhch2rcd13ifvqeug","pricing_plan_id":"cebpf4jnsgd1na2vs0mg"},{"bike_id":"196b0364-2587-4c2e-8ba5-0017d698f2cd","system_id":"levelo_inurba_marseille","lat":43.28617,"lon":5.35106,"is_reserved":false,"is_disabled":false,"rental_uris":{"android":"levelo://app?vid=196b0364-2587-4c2e-8ba5-0017d698f2cd","ios":"levelo://app?vid=196b0364-2587-4c2e-8ba5-0017d698f2cd"},"vehicle_type_id":"4","last_reported":1720714179,"current_range_meters":22400,"station_id":"ce4bhch2rcd13ifvqeug","pricing_plan_id":"cebpf4jnsgd1na2vs0mg"},{"bike_id":"c62f93c6-f17c-46c7-acce-9794c498d53c","system_id":"levelo_inurba_marseille","lat":43.28616,"lon":5.35108,"is_reserved":false,"is_disabled":false,"rental_uris":{"android":"levelo://app?vid=c62f93c6-f17c-46c7-acce-9794c498d53c","ios":"levelo://app?vid=c62f93c6-f17c-46c7-acce-9794c498d53c"},"vehicle_type_id":"4","last_reported":1720714179,"current_range_meters":6800,"station_id":"ce4bhch2rcd13ifvqeug","pricing_plan_id":"cebpf4jnsgd1na2vs0mg"},{"bike_id":"0b2ec2e4-32da-4465-a5f9-0e212acb9d53","system_id":"levelo_inurba_marseille","lat":43.28618,"lon":5.35101,"is_reserved":false,"is_disabled":false,"rental_uris":{"android":"levelo://app?vid=0b2ec2e4-32da-4465-a5f9-0e212acb9d53","ios":"levelo://app?vid=0b2ec2e4-32da-4465-a5f9-0e212acb9d53"},"vehicle_type_id":"4","last_reported":1720714179,"current_range_meters":30800,"station_id":"ce4bhch2rcd13ifvqeug","pricing_plan_id":"cebpf4jnsgd1na2vs0mg"},{"bike_id":"97aa1cba-9e8f-4f99-b7b5-a5266bed6239","system_id":"levelo_inurba_marseille","lat":43.28616,"lon":5.35107,"is_reserved":false,"is_disabled":false,"rental_uris":{"android":"levelo://app?vid=97aa1cba-9e8f-4f99-b7b5-a5266bed6239","ios":"levelo://app?vid=97aa1cba-9e8f-4f99-b7b5-a5266bed6239"},"vehicle_type_id":"4","last_reported":1720714179,"current_range_meters":0,"station_id":"ce4bhch2rcd13ifvqeug","pricing_plan_id":"cebpf4jnsgd1na2vs0mg"},{"bike_id":"250b8df9-2522-4a3b-8445-13de0b7dcf65","system_id":"levelo_inurba_marseille","lat":43.28617,"lon":5.35103,"is_reserved":false,"is_disabled":false,"rental_uris":{"android":"levelo://app?vid=250b8df9-2522-4a3b-8445-13de0b7dcf65","ios":"levelo://app?vid=250b8df9-2522-4a3b-8445-13de0b7dcf65"},"vehicle_type_id":"4","last_reported":1720714179,"current_range_meters":28400,"station_id":"ce4bhch2rcd13ifvqeug","pricing_plan_id":"cebpf4jnsgd1na2vs0mg"},{"bike_id":"58b9bbb3-6191-4be1-bd9d-fcc4d5a646ab","system_id":"levelo_inurba_marseille","lat":43.28616,"lon":5.35106,"is_reserved":false,"is_disabled":false,"rental_uris":{"android":"levelo://app?vid=58b9bbb3-6191-4be1-bd9d-fcc4d5a646ab","ios":"levelo://app?vid=58b9bbb3-6191-4be1-bd9d-fcc4d5a646ab"},"vehicle_type_id":"4","last_reported":1720714179,"current_range_meters":0,"station_id":"ce4bhch2rcd13ifvqeug","pricing_plan_id":"cebpf4jnsgd1na2vs0mg"},{"bike_id":"cdc66524-44cc-47b0-8566-06ec25685053","system_id":"levelo_inurba_marseille","lat":43.28617,"lon":5.35102,"is_reserved":false,"is_disabled":false,"rental_uris":{"android":"levelo://app?vid=cdc66524-44cc-47b0-8566-06ec25685053","ios":"levelo://app?vid=cdc66524-44cc-47b0-8566-06ec25685053"},"vehicle_type_id":"4","last_reported":1720714179,"current_range_meters":25600,"station_id":"ce4bhch2rcd13ifvqeug","pricing_plan_id":"cebpf4jnsgd1na2vs0mg"},{"bike_id":"17adc730-5334-49dd-b0ec-9a8ea6caeb78","system_id":"levelo_inurba_marseille","lat":43.28615,"lon":5.35108,"is_reserved":false,"is_disabled":false,"rental_uris":{"android":"levelo://app?vid=17adc730-5334-49dd-b0ec-9a8ea6caeb78","ios":"levelo://app?vid=17adc730-5334-49dd-b0ec-9a8ea6caeb78"},"vehicle_type_id":"4","last_reported":1720714179,"current_range_meters":0,"station_id":"ce4bhch2rcd13ifvqeug","pricing_plan_id":"cebpf4jnsgd1na2vs0mg"},{"bike_id":"3b173d29-1b0a-42b7-b564-61b63ed1f1ce","system_id":"levelo_inurba_marseille","lat":43.28614,"lon":5.3511,"is_reserved":false,"is_disabled":false,"rental_uris":{"android":"levelo://app?vid=3b173d29-1b0a-42b7-b564-61b63ed1f1ce","ios":"levelo://app?vid=3b173d29-1b0a-42b7-b564-61b63ed1f1ce"},"vehicle_type_id":"4","last_reported":1720714179,"current_range_meters":31200,"station_id":"ce4bhch2rcd13ifvqeug","pricing_plan_id":"cebpf4jnsgd1na2vs0mg"},{"bike_id":"7add44f5-cd93-478a-9023-530f4e993ccd","system_id":"levelo_inurba_marseille","lat":43.28615,"lon":5.35106,"is_reserved":false,"is_disabled":false,"rental_uris":{"android":"levelo://app?vid=7add44f5-cd93-478a-9023-530f4e993ccd","ios":"levelo://app?vid=7add44f5-cd93-478a-9023-530f4e993ccd"},"vehicle_type_id":"4","last_reported":1720714179,"current_range_meters":31200,"station_id":"ce4bhch2rcd13ifvqeug","pricing_plan_id":"cebpf4jnsgd1na2vs0mg"},{"bike_id":"929af895-a7bf-4d05-9618-2ce8d1c9236b","system_id":"levelo_inurba_marseille","lat":43.28614,"lon":5.35106,"is_reserved":false,"is_disabled":false,"rental_uris":{"android":"levelo://app?vid=929af895-a7bf-4d05-9618-2ce8d1c9236b","ios":"levelo://app?vid=929af895-a7bf-4d05-9618-2ce8d1c9236b"},"vehicle_type_id":"4","last_reported":1720714179,"current_range_meters":5200,"station_id":"ce4bhch2rcd13ifvqeug","pricing_plan_id":"cebpf4jnsgd1na2vs0mg"},{"bike_id":"2d00257f-bfa5-4909-97e3-d7f821bf8066","system_id":"levelo_inurba_marseille","lat":43.28614,"lon":5.35103,"is_reserved":false,"is_disabled":false,"rental_uris":{"android":"levelo://app?vid=2d00257f-bfa5-4909-97e3-d7f821bf8066","ios":"levelo://app?vid=2d00257f-bfa5-4909-97e3-d7f821bf8066"},"vehicle_type_id":"4","last_reported":1720714179,"current_range_meters":20800,"station_id":"ce4bhch2rcd13ifvqeug","pricing_plan_id":"cebpf4jnsgd1na2vs0mg"},{"bike_id":"41214248-194d-48c7-93a8-6091b076ceed","system_id":"levelo_inurba_marseille","lat":43.28614,"lon":5.35102,"is_reserved":false,"is_disabled":false,"rental_uris":{"android":"levelo://app?vid=41214248-194d-48c7-93a8-6091b076ceed","ios":"levelo://app?vid=41214248-194d-48c7-93a8-6091b076ceed"},"vehicle_type_id":"4","last_reported":1720714179,"current_range_meters":21600,"station_id":"ce4bhch2rcd13ifvqeug","pricing_plan_id":"cebpf4jnsgd1na2vs0mg"},{"bike_id":"2f7464f1-e5e7-4e69-a3c6-8864dea902e3","system_id":"levelo_inurba_marseille","lat":43.28614,"lon":5.35099,"is_reserved":false,"is_disabled":false,"rental_uris":{"android":"levelo://app?vid=2f7464f1-e5e7-4e69-a3c6-8864dea902e3","ios":"levelo://app?vid=2f7464f1-e5e7-4e69-a3c6-8864dea902e3"},"vehicle_type_id":"4","last_reported":1720714179,"current_range_meters":31200,"station_id":"ce4bhch2rcd13ifvqeug","pricing_plan_id":"cebpf4jnsgd1na2vs0mg"},{"bike_id":"070e783b-3b2f-426a-a411-c90a470e9354","system_id":"levelo_inurba_marseille","lat":43.28612,"lon":5.35105,"is_reserved":false,"is_disabled":false,"rental_uris":{"android":"levelo://app?vid=070e783b-3b2f-426a-a411-c90a470e9354","ios":"levelo://app?vid=070e783b-3b2f-426a-a411-c90a470e9354"},"vehicle_type_id":"4","last_reported":1720714179,"current_range_meters":31200,"station_id":"ce4bhch2rcd13ifvqeug","pricing_plan_id":"cebpf4jnsgd1na2vs0mg"},{"bike_id":"f79d9c81-4333-4325-9080-0ecfda83ec64","system_id":"levelo_inurba_marseille","lat":43.28611,"lon":5.35107,"is_reserved":false,"is_disabled":false,"rental_uris":{"android":"levelo://app?vid=f79d9c81-4333-4325-9080-0ecfda83ec64","ios":"levelo://app?vid=f79d9c81-4333-4325-9080-0ecfda83ec64"},"vehicle_type_id":"4","last_reported":1720714179,"current_range_meters":15600,"station_id":"ce4bhch2rcd13ifvqeug","pricing_plan_id":"cebpf4jnsgd1na2vs0mg"},{"bike_id":"b2f36250-9ccf-4b10-986a-f768b6d87277","system_id":"levelo_inurba_marseille","lat":43.286132,"lon":5.350988,"is_reserved":false,"is_disabled":false,"rental_uris":{"android":"levelo://app?vid=b2f36250-9ccf-4b10-986a-f768b6d87277","ios":"levelo://app?vid=b2f36250-9ccf-4b10-986a-f768b6d87277"},"vehicle_type_id":"4","last_reported":1720714179,"current_range_meters":31200,"station_id":"ce4bhch2rcd13ifvqeug","pricing_plan_id":"cebpf4jnsgd1na2vs0mg"},{"bike_id":"7e152634-ed7b-481c-9b6d-fc2fcc03006d","system_id":"levelo_inurba_marseille","lat":43.28613,"lon":5.35097,"is_reserved":false,"is_disabled":false,"rental_uris":{"android":"levelo://app?vid=7e152634-ed7b-481c-9b6d-fc2fcc03006d","ios":"levelo://app?vid=7e152634-ed7b-481c-9b6d-fc2fcc03006d"},"vehicle_type_id":"4","last_reported":1720714179,"current_range_meters":31200,"station_id":"ce4bhch2rcd13ifvqeug","pricing_plan_id":"cebpf4jnsgd1na2vs0mg"},{"bike_id":"9f1a7c2e-9495-4207-8c62-6af7f5e74d52","system_id":"levelo_inurba_marseille","lat":43.283998,"lon":5.375062,"is_reserved":false,"is_disabled":false,"rental_uris":{"android":"levelo://app?vid=9f1a7c2e-9495-4207-8c62-6af7f5e74d52","ios":"levelo://app?vid=9f1a7c2e-9495-4207-8c62-6af7f5e74d52"},"vehicle_type_id":"4","last_reported":1720714179,"current_range_meters":0,"station_id":"ce4bh412rcd13ifvqds0","pricing_plan_id":"cebpf4jnsgd1na2vs0mg"},{"bike_id":"1f7e02fc-a508-48d1-ae73-7290139876f6","system_id":"levelo_inurba_marseille","lat":43.28402,"lon":5.37519,"is_reserved":false,"is_disabled":false,"rental_uris":{"android":"levelo://app?vid=1f7e02fc-a508-48d1-ae73-7290139876f6","ios":"levelo://app?vid=1f7e02fc-a508-48d1-ae73-7290139876f6"},"vehicle_type_id":"4","last_reported":1720714179,"current_range_meters":800,"station_id":"ce4bh412rcd13ifvqds0","pricing_plan_id":"cebpf4jnsgd1na2vs0mg"},{"bike_id":"a998144f-7591-45e3-8e60-a4cc2db80b54","system_id":"levelo_inurba_marseille","lat":43.286595,"lon":5.386795,"is_reserved":false,"is_disabled":false,"rental_uris":{"android":"levelo://app?vid=a998144f-7591-45e3-8e60-a4cc2db80b54","ios":"levelo://app?vid=a998144f-7591-45e3-8e60-a4cc2db80b54"},"vehicle_type_id":"4","last_reported":1720714179,"current_range_meters":20400,"station_id":"ce4bh492rcd13ifvqdug","pricing_plan_id":"cebpf4jnsgd1na2vs0mg"},{"bike_id":"0bf8cf4f-224e-469b-9669-e1cedca39792","system_id":"levelo_inurba_marseille","lat":43.286595,"lon":5.386795,"is_reserved":false,"is_disabled":false,"rental_uris":{"android":"levelo://app?vid=0bf8cf4f-224e-469b-9669-e1cedca39792","ios":"levelo://app?vid=0bf8cf4f-224e-469b-9669-e1cedca39792"},"vehicle_type_id":"4","last_reported":1720714179,"current_range_meters":0,"station_id":"ce4bh492rcd13ifvqdug","pricing_plan_id":"cebpf4jnsgd1na2vs0mg"},{"bike_id":"45fe0164-94c9-419c-b730-fe01dfc5444a","system_id":"levelo_inurba_marseille","lat":43.286595,"lon":5.386795,"is_reserved":false,"is_disabled":false,"rental_uris":{"android":"levelo://app?vid=45fe0164-94c9-419c-b730-fe01dfc5444a","ios":"levelo://app?vid=45fe0164-94c9-419c-b730-fe01dfc5444a"},"vehicle_type_id":"4","last_reported":1720714179,"current_range_meters":2800,"station_id":"ce4bh492rcd13ifvqdug","pricing_plan_id":"cebpf4jnsgd1na2vs0mg"},{"bike_id":"fce988f2-c7af-4d49-9d9e-25d5ab9f39f8","system_id":"levelo_inurba_marseille","lat":43.286595,"lon":5.386795,"is_reserved":false,"is_disabled":false,"rental_uris":{"android":"levelo://app?vid=fce988f2-c7af-4d49-9d9e-25d5ab9f39f8","ios":"levelo://app?vid=fce988f2-c7af-4d49-9d9e-25d5ab9f39f8"},"vehicle_type_id":"4","last_reported":1720714179,"current_range_meters":4000,"station_id":"ce4bh492rcd13ifvqdug","pricing_plan_id":"cebpf4jnsgd1na2vs0mg"},{"bike_id":"a398f5ef-d6ee-433d-a4a8-eab91cc744d3","system_id":"levelo_inurba_marseille","lat":43.31888,"lon":5.40727,"is_reserved":false,"is_disabled":false,"rental_uris":{"android":"levelo://app?vid=a398f5ef-d6ee-433d-a4a8-eab91cc744d3","ios":"levelo://app?vid=a398f5ef-d6ee-433d-a4a8-eab91cc744d3"},"vehicle_type_id":"4","last_reported":1720714179,"current_range_meters":0,"station_id":"ce4bhq12rcd13ifvqhig","pricing_plan_id":"cebpf4jnsgd1na2vs0mg"},{"bike_id":"a1c30d07-793f-41e6-814f-f2368826147b","system_id":"levelo_inurba_marseille","lat":43.319179,"lon":5.407725,"is_reserved":false,"is_disabled":false,"rental_uris":{"android":"levelo://app?vid=a1c30d07-793f-41e6-814f-f2368826147b","ios":"levelo://app?vid=a1c30d07-793f-41e6-814f-f2368826147b"},"vehicle_type_id":"4","last_reported":1720714179,"current_range_meters":31200,"station_id":"ce4bhq12rcd13ifvqhig","pricing_plan_id":"cebpf4jnsgd1na2vs0mg"},{"bike_id":"24b51f3d-8f31-44b9-8348-2db1352d35c0","system_id":"levelo_inurba_marseille","lat":43.337168,"lon":5.391825,"is_reserved":false,"is_disabled":false,"rental_uris":{"android":"levelo://app?vid=24b51f3d-8f31-44b9-8348-2db1352d35c0","ios":"levelo://app?vid=24b51f3d-8f31-44b9-8348-2db1352d35c0"},"vehicle_type_id":"4","last_reported":1720714179,"current_range_meters":20800,"station_id":"ce4bhr92rcd13ifvqhsg","pricing_plan_id":"cebpf4jnsgd1na2vs0mg"},{"bike_id":"565ec473-7608-4918-a903-134bc3d4923d","system_id":"levelo_inurba_marseille","lat":43.33717,"lon":5.391857,"is_reserved":false,"is_disabled":false,"rental_uris":{"android":"levelo://app?vid=565ec473-7608-4918-a903-134bc3d4923d","ios":"levelo://app?vid=565ec473-7608-4918-a903-134bc3d4923d"},"vehicle_type_id":"4","last_reported":1720714179,"current_range_meters":2800,"station_id":"ce4bhr92rcd13ifvqhsg","pricing_plan_id":"cebpf4jnsgd1na2vs0mg"},{"bike_id":"5405be9f-1fc3-4a50-83cd-70d8d5992e7d","system_id":"levelo_inurba_marseille","lat":43.284793,"lon":5.384113,"is_reserved":false,"is_disabled":false,"rental_uris":{"android":"levelo://app?vid=5405be9f-1fc3-4a50-83cd-70d8d5992e7d","ios":"levelo://app?vid=5405be9f-1fc3-4a50-83cd-70d8d5992e7d"},"vehicle_type_id":"4","last_reported":1720714179,"current_range_meters":22800,"station_id":"ce4bh512rcd13ifvqe3g","pricing_plan_id":"cebpf4jnsgd1na2vs0mg"},{"bike_id":"746355d6-61dd-4570-90ea-e882dfca2b98","system_id":"levelo_inurba_marseille","lat":43.284793,"lon":5.384113,"is_reserved":false,"is_disabled":false,"rental_uris":{"android":"levelo://app?vid=746355d6-61dd-4570-90ea-e882dfca2b98","ios":"levelo://app?vid=746355d6-61dd-4570-90ea-e882dfca2b98"},"vehicle_type_id":"4","last_reported":1720714179,"current_range_meters":15600,"station_id":"ce4bh512rcd13ifvqe3g","pricing_plan_id":"cebpf4jnsgd1na2vs0mg"},{"bike_id":"06aab08c-de6e-4f8e-a84e-a5176504d5d6","system_id":"levelo_inurba_marseille","lat":43.288501,"lon":5.393087,"is_reserved":false,"is_disabled":false,"rental_uris":{"android":"levelo://app?vid=06aab08c-de6e-4f8e-a84e-a5176504d5d6","ios":"levelo://app?vid=06aab08c-de6e-4f8e-a84e-a5176504d5d6"},"vehicle_type_id":"4","last_reported":1720714179,"current_range_meters":0,"station_id":"ce4bh2p2rcd13ifvqdi0","pricing_plan_id":"cebpf4jnsgd1na2vs0mg"},{"bike_id":"2b99bd12-c14e-4211-aae5-53085ac48e4d","system_id":"levelo_inurba_marseille","lat":43.283494,"lon":5.380945,"is_reserved":false,"is_disabled":false,"rental_uris":{"android":"levelo://app?vid=2b99bd12-c14e-4211-aae5-53085ac48e4d","ios":"levelo://app?vid=2b99bd12-c14e-4211-aae5-53085ac48e4d"},"vehicle_type_id":"4","last_reported":1720714179,"current_range_meters":16400,"station_id":"ce4bh412rcd13ifvqdr0","pricing_plan_id":"cebpf4jnsgd1na2vs0mg"},{"bike_id":"d796e70c-9aa1-4701-a64b-c68a45e57b9d","system_id":"levelo_inurba_marseille","lat":43.283494,"lon":5.380945,"is_reserved":false,"is_disabled":false,"rental_uris":{"android":"levelo://app?vid=d796e70c-9aa1-4701-a64b-c68a45e57b9d","ios":"levelo://app?vid=d796e70c-9aa1-4701-a64b-c68a45e57b9d"},"vehicle_type_id":"4","last_reported":1720714179,"current_range_meters":3600,"station_id":"ce4bh412rcd13ifvqdr0","pricing_plan_id":"cebpf4jnsgd1na2vs0mg"},{"bike_id":"c4d5c24a-4246-46ca-b127-0bdafb73f589","system_id":"levelo_inurba_marseille","lat":43.283494,"lon":5.380945,"is_reserved":false,"is_disabled":false,"rental_uris":{"android":"levelo://app?vid=c4d5c24a-4246-46ca-b127-0bdafb73f589","ios":"levelo://app?vid=c4d5c24a-4246-46ca-b127-0bdafb73f589"},"vehicle_type_id":"4","last_reported":1720714179,"current_range_meters":23600,"station_id":"ce4bh412rcd13ifvqdr0","pricing_plan_id":"cebpf4jnsgd1na2vs0mg"},{"bike_id":"a34f9a67-0843-4635-b8e0-07996084274a","system_id":"levelo_inurba_marseille","lat":43.28433,"lon":5.34986,"is_reserved":false,"is_disabled":false,"rental_uris":{"android":"levelo://app?vid=a34f9a67-0843-4635-b8e0-07996084274a","ios":"levelo://app?vid=a34f9a67-0843-4635-b8e0-07996084274a"},"vehicle_type_id":"4","last_reported":1720714179,"current_range_meters":27200,"station_id":"ce4bhbh2rcd13ifvqepg","pricing_plan_id":"cebpf4jnsgd1na2vs0mg"},{"bike_id":"a2786e4b-b54c-4f2c-90f9-2d9db5bf323c","system_id":"levelo_inurba_marseille","lat":43.284278,"lon":5.349982,"is_reserved":false,"is_disabled":false,"rental_uris":{"android":"levelo://app?vid=a2786e4b-b54c-4f2c-90f9-2d9db5bf323c","ios":"levelo://app?vid=a2786e4b-b54c-4f2c-90f9-2d9db5bf323c"},"vehicle_type_id":"4","last_reported":1720714179,"current_range_meters":22800,"station_id":"ce4bhbh2rcd13ifvqepg","pricing_plan_id":"cebpf4jnsgd1na2vs0mg"},{"bike_id":"af72ea63-e23b-421c-9527-55f56dcf4fe7","system_id":"levelo_inurba_marseille","lat":43.28431,"lon":5.349853,"is_reserved":false,"is_disabled":false,"rental_uris":{"android":"levelo://app?vid=af72ea63-e23b-421c-9527-55f56dcf4fe7","ios":"levelo://app?vid=af72ea63-e23b-421c-9527-55f56dcf4fe7"},"vehicle_type_id":"4","last_reported":1720714179,"current_range_meters":19200,"station_id":"ce4bhbh2rcd13ifvqepg","pricing_plan_id":"cebpf4jnsgd1na2vs0mg"},{"bike_id":"bdb92bf3-e775-4358-9f85-cc4f04b3a29f","system_id":"levelo_inurba_marseille","lat":43.284793,"lon":5.384119,"is_reserved":false,"is_disabled":false,"rental_uris":{"android":"levelo://app?vid=bdb92bf3-e775-4358-9f85-cc4f04b3a29f","ios":"levelo://app?vid=bdb92bf3-e775-4358-9f85-cc4f04b3a29f"},"vehicle_type_id":"4","last_reported":1720714179,"current_range_meters":0,"station_id":"ce4bh512rcd13ifvqe3g","pricing_plan_id":"cebpf4jnsgd1na2vs0mg"},{"bike_id":"50ca31f4-df9b-4174-a901-3a790c8f6900","system_id":"levelo_inurba_marseille","lat":43.28431,"lon":5.34978,"is_reserved":false,"is_disabled":false,"rental_uris":{"android":"levelo://app?vid=50ca31f4-df9b-4174-a901-3a790c8f6900","ios":"levelo://app?vid=50ca31f4-df9b-4174-a901-3a790c8f6900"},"vehicle_type_id":"4","last_reported":1720714179,"current_range_meters":30800,"station_id":"ce4bhbh2rcd13ifvqepg","pricing_plan_id":"cebpf4jnsgd1na2vs0mg"},{"bike_id":"342e0c6c-b1df-481a-9c64-eb80b8578bfb","system_id":"levelo_inurba_marseille","lat":43.28428,"lon":5.3498,"is_reserved":false,"is_disabled":false,"rental_uris":{"android":"levelo://app?vid=342e0c6c-b1df-481a-9c64-eb80b8578bfb","ios":"levelo://app?vid=342e0c6c-b1df-481a-9c64-eb80b8578bfb"},"vehicle_type_id":"4","last_reported":1720714179,"current_range_meters":31200,"station_id":"ce4bhbh2rcd13ifvqepg","pricing_plan_id":"cebpf4jnsgd1na2vs0mg"},{"bike_id":"604ddd1c-c11b-41b8-b98b-bb0decd68353","system_id":"levelo_inurba_marseille","lat":43.284274,"lon":5.349761,"is_reserved":false,"is_disabled":false,"rental_uris":{"android":"levelo://app?vid=604ddd1c-c11b-41b8-b98b-bb0decd68353","ios":"levelo://app?vid=604ddd1c-c11b-41b8-b98b-bb0decd68353"},"vehicle_type_id":"4","last_reported":1720714179,"current_range_meters":24000,"station_id":"ce4bhbh2rcd13ifvqepg","pricing_plan_id":"cebpf4jnsgd1na2vs0mg"},{"bike_id":"ec12cfca-035c-49eb-b442-f8ff9b214530","system_id":"levelo_inurba_marseille","lat":43.28425,"lon":5.34983,"is_reserved":false,"is_disabled":false,"rental_uris":{"android":"levelo://app?vid=ec12cfca-035c-49eb-b442-f8ff9b214530","ios":"levelo://app?vid=ec12cfca-035c-49eb-b442-f8ff9b214530"},"vehicle_type_id":"4","last_reported":1720714179,"current_range_meters":10800,"station_id":"ce4bhbh2rcd13ifvqepg","pricing_plan_id":"cebpf4jnsgd1na2vs0mg"},{"bike_id":"1116f9e4-7423-4e75-8453-6d8de5e58439","system_id":"levelo_inurba_marseille","lat":43.283498,"lon":5.380948,"is_reserved":false,"is_disabled":false,"rental_uris":{"android":"levelo://app?vid=1116f9e4-7423-4e75-8453-6d8de5e58439","ios":"levelo://app?vid=1116f9e4-7423-4e75-8453-6d8de5e58439"},"vehicle_type_id":"4","last_reported":1720714179,"current_range_meters":0,"station_id":"ce4bh412rcd13ifvqdr0","pricing_plan_id":"cebpf4jnsgd1na2vs0mg"},{"bike_id":"376e8b01-71cc-4770-9b8c-aa084d617759","system_id":"levelo_inurba_marseille","lat":43.284217,"lon":5.349903,"is_reserved":false,"is_disabled":false,"rental_uris":{"android":"levelo://app?vid=376e8b01-71cc-4770-9b8c-aa084d617759","ios":"levelo://app?vid=376e8b01-71cc-4770-9b8c-aa084d617759"},"vehicle_type_id":"4","last_reported":1720714179,"current_range_meters":27600,"station_id":"ce4bhbh2rcd13ifvqepg","pricing_plan_id":"cebpf4jnsgd1na2vs0mg"},{"bike_id":"b524744e-7825-469b-8dcd-a2f13f38f0c0","system_id":"levelo_inurba_marseille","lat":43.284214,"lon":5.349706,"is_reserved":false,"is_disabled":false,"rental_uris":{"android":"levelo://app?vid=b524744e-7825-469b-8dcd-a2f13f38f0c0","ios":"levelo://app?vid=b524744e-7825-469b-8dcd-a2f13f38f0c0"},"vehicle_type_id":"4","last_reported":1720714179,"current_range_meters":27200,"station_id":"ce4bhbh2rcd13ifvqepg","pricing_plan_id":"cebpf4jnsgd1na2vs0mg"},{"bike_id":"dab3129b-b042-480f-9048-516a1af545e9","system_id":"levelo_inurba_marseille","lat":43.2843,"lon":5.34963,"is_reserved":false,"is_disabled":false,"rental_uris":{"android":"levelo://app?vid=dab3129b-b042-480f-9048-516a1af545e9","ios":"levelo://app?vid=dab3129b-b042-480f-9048-516a1af545e9"},"vehicle_type_id":"4","last_reported":1720714179,"current_range_meters":14000,"station_id":"ce4bhbh2rcd13ifvqepg","pricing_plan_id":"cebpf4jnsgd1na2vs0mg"},{"bike_id":"3a68367e-6c92-41b9-badc-2c1c2eba828a","system_id":"levelo_inurba_marseille","lat":43.28422,"lon":5.34988,"is_reserved":false,"is_disabled":false,"rental_uris":{"android":"levelo://app?vid=3a68367e-6c92-41b9-badc-2c1c2eba828a","ios":"levelo://app?vid=3a68367e-6c92-41b9-badc-2c1c2eba828a"},"vehicle_type_id":"4","last_reported":1720714179,"current_range_meters":26000,"station_id":"ce4bhbh2rcd13ifvqepg","pricing_plan_id":"cebpf4jnsgd1na2vs0mg"},{"bike_id":"3e43cee5-1b11-42b3-bd59-16b65a173e23","system_id":"levelo_inurba_marseille","lat":43.28421,"lon":5.34991,"is_reserved":false,"is_disabled":false,"rental_uris":{"android":"levelo://app?vid=3e43cee5-1b11-42b3-bd59-16b65a173e23","ios":"levelo://app?vid=3e43cee5-1b11-42b3-bd59-16b65a173e23"},"vehicle_type_id":"4","last_reported":1720714179,"current_range_meters":25200,"station_id":"ce4bhbh2rcd13ifvqepg","pricing_plan_id":"cebpf4jnsgd1na2vs0mg"},{"bike_id":"cc30ef38-d6b9-4c4e-adf4-35e821ddb66f","system_id":"levelo_inurba_marseille","lat":43.284208,"lon":5.349915,"is_reserved":false,"is_disabled":false,"rental_uris":{"android":"levelo://app?vid=cc30ef38-d6b9-4c4e-adf4-35e821ddb66f","ios":"levelo://app?vid=cc30ef38-d6b9-4c4e-adf4-35e821ddb66f"},"vehicle_type_id":"4","last_reported":1720714179,"current_range_meters":19600,"station_id":"ce4bhbh2rcd13ifvqepg","pricing_plan_id":"cebpf4jnsgd1na2vs0mg"},{"bike_id":"2918db43-2135-478d-89b5-bf9426a6c8b9","system_id":"levelo_inurba_marseille","lat":43.28419,"lon":5.34997,"is_reserved":false,"is_disabled":false,"rental_uris":{"android":"levelo://app?vid=2918db43-2135-478d-89b5-bf9426a6c8b9","ios":"levelo://app?vid=2918db43-2135-478d-89b5-bf9426a6c8b9"},"vehicle_type_id":"4","last_reported":1720714179,"current_range_meters":9600,"station_id":"ce4bhbh2rcd13ifvqepg","pricing_plan_id":"cebpf4jnsgd1na2vs0mg"},{"bike_id":"480f9f85-d7cf-48f0-b1ca-90b8bc5756be","system_id":"levelo_inurba_marseille","lat":43.28421,"lon":5.3499,"is_reserved":false,"is_disabled":false,"rental_uris":{"android":"levelo://app?vid=480f9f85-d7cf-48f0-b1ca-90b8bc5756be","ios":"levelo://app?vid=480f9f85-d7cf-48f0-b1ca-90b8bc5756be"},"vehicle_type_id":"4","last_reported":1720714179,"current_range_meters":27200,"station_id":"ce4bhbh2rcd13ifvqepg","pricing_plan_id":"cebpf4jnsgd1na2vs0mg"},{"bike_id":"3318bccc-5694-464f-ae30-c1125863cd12","system_id":"levelo_inurba_marseille","lat":43.28422,"lon":5.34986,"is_reserved":false,"is_disabled":false,"rental_uris":{"android":"levelo://app?vid=3318bccc-5694-464f-ae30-c1125863cd12","ios":"levelo://app?vid=3318bccc-5694-464f-ae30-c1125863cd12"},"vehicle_type_id":"4","last_reported":1720714179,"current_range_meters":19200,"station_id":"ce4bhbh2rcd13ifvqepg","pricing_plan_id":"cebpf4jnsgd1na2vs0mg"},{"bike_id":"90e5193c-5a62-4317-a66d-12e64f68676f","system_id":"levelo_inurba_marseille","lat":43.28421,"lon":5.34989,"is_reserved":false,"is_disabled":false,"rental_uris":{"android":"levelo://app?vid=90e5193c-5a62-4317-a66d-12e64f68676f","ios":"levelo://app?vid=90e5193c-5a62-4317-a66d-12e64f68676f"},"vehicle_type_id":"4","last_reported":1720714179,"current_range_meters":22400,"station_id":"ce4bhbh2rcd13ifvqepg","pricing_plan_id":"cebpf4jnsgd1na2vs0mg"},{"bike_id":"87c0ecf7-f8d7-4d77-b0f8-3e49c1112cd5","system_id":"levelo_inurba_marseille","lat":43.28424,"lon":5.34977,"is_reserved":false,"is_disabled":false,"rental_uris":{"android":"levelo://app?vid=87c0ecf7-f8d7-4d77-b0f8-3e49c1112cd5","ios":"levelo://app?vid=87c0ecf7-f8d7-4d77-b0f8-3e49c1112cd5"},"vehicle_type_id":"4","last_reported":1720714179,"current_range_meters":31200,"station_id":"ce4bhbh2rcd13ifvqepg","pricing_plan_id":"cebpf4jnsgd1na2vs0mg"},{"bike_id":"390b7505-2c6a-43c6-a108-36408b79794a","system_id":"levelo_inurba_marseille","lat":43.2842,"lon":5.34989,"is_reserved":false,"is_disabled":false,"rental_uris":{"android":"levelo://app?vid=390b7505-2c6a-43c6-a108-36408b79794a","ios":"levelo://app?vid=390b7505-2c6a-43c6-a108-36408b79794a"},"vehicle_type_id":"4","last_reported":1720714179,"current_range_meters":23200,"station_id":"ce4bhbh2rcd13ifvqepg","pricing_plan_id":"cebpf4jnsgd1na2vs0mg"},{"bike_id":"1766c4c3-fb1a-4591-b3ca-1c91730cd2bc","system_id":"levelo_inurba_marseille","lat":43.284179,"lon":5.349947,"is_reserved":false,"is_disabled":false,"rental_uris":{"android":"levelo://app?vid=1766c4c3-fb1a-4591-b3ca-1c91730cd2bc","ios":"levelo://app?vid=1766c4c3-fb1a-4591-b3ca-1c91730cd2bc"},"vehicle_type_id":"4","last_reported":1720714179,"current_range_meters":16000,"station_id":"ce4bhbh2rcd13ifvqepg","pricing_plan_id":"cebpf4jnsgd1na2vs0mg"},{"bike_id":"2be4d996-d34c-41c7-8e9d-4648364673cd","system_id":"levelo_inurba_marseille","lat":43.284183,"lon":5.349913,"is_reserved":false,"is_disabled":false,"rental_uris":{"android":"levelo://app?vid=2be4d996-d34c-41c7-8e9d-4648364673cd","ios":"levelo://app?vid=2be4d996-d34c-41c7-8e9d-4648364673cd"},"vehicle_type_id":"4","last_reported":1720714179,"current_range_meters":13600,"station_id":"ce4bhbh2rcd13ifvqepg","pricing_plan_id":"cebpf4jnsgd1na2vs0mg"},{"bike_id":"ad87ae77-947d-482a-82a5-98516f2a4ccc","system_id":"levelo_inurba_marseille","lat":43.284193,"lon":5.349859,"is_reserved":false,"is_disabled":false,"rental_uris":{"android":"levelo://app?vid=ad87ae77-947d-482a-82a5-98516f2a4ccc","ios":"levelo://app?vid=ad87ae77-947d-482a-82a5-98516f2a4ccc"},"vehicle_type_id":"4","last_reported":1720714179,"current_range_meters":14400,"station_id":"ce4bhbh2rcd13ifvqepg","pricing_plan_id":"cebpf4jnsgd1na2vs0mg"},{"bike_id":"e4365fce-5d1f-4314-ac77-9e0ece989e63","system_id":"levelo_inurba_marseille","lat":43.284214,"lon":5.349788,"is_reserved":false,"is_disabled":false,"rental_uris":{"android":"levelo://app?vid=e4365fce-5d1f-4314-ac77-9e0ece989e63","ios":"levelo://app?vid=e4365fce-5d1f-4314-ac77-9e0ece989e63"},"vehicle_type_id":"4","last_reported":1720714179,"current_range_meters":31200,"station_id":"ce4bhbh2rcd13ifvqepg","pricing_plan_id":"cebpf4jnsgd1na2vs0mg"},{"bike_id":"9c584bcf-fd74-4898-9960-ea6329489ca1","system_id":"levelo_inurba_marseille","lat":43.28418,"lon":5.34989,"is_reserved":false,"is_disabled":false,"rental_uris":{"android":"levelo://app?vid=9c584bcf-fd74-4898-9960-ea6329489ca1","ios":"levelo://app?vid=9c584bcf-fd74-4898-9960-ea6329489ca1"},"vehicle_type_id":"4","last_reported":1720714179,"current_range_meters":23200,"station_id":"ce4bhbh2rcd13ifvqepg","pricing_plan_id":"cebpf4jnsgd1na2vs0mg"},{"bike_id":"04375e92-b437-461f-9859-8b8cacf9dfaf","system_id":"levelo_inurba_marseille","lat":43.284214,"lon":5.349706,"is_reserved":false,"is_disabled":false,"rental_uris":{"android":"levelo://app?vid=04375e92-b437-461f-9859-8b8cacf9dfaf","ios":"levelo://app?vid=04375e92-b437-461f-9859-8b8cacf9dfaf"},"vehicle_type_id":"4","last_reported":1720714179,"current_range_meters":30800,"station_id":"ce4bhbh2rcd13ifvqepg","pricing_plan_id":"cebpf4jnsgd1na2vs0mg"},{"bike_id":"7fc78221-e684-434c-ae76-b7a07587c075","system_id":"levelo_inurba_marseille","lat":43.284157,"lon":5.349958,"is_reserved":false,"is_disabled":false,"rental_uris":{"android":"levelo://app?vid=7fc78221-e684-434c-ae76-b7a07587c075","ios":"levelo://app?vid=7fc78221-e684-434c-ae76-b7a07587c075"},"vehicle_type_id":"4","last_reported":1720714179,"current_range_meters":30800,"station_id":"ce4bhbh2rcd13ifvqepg","pricing_plan_id":"cebpf4jnsgd1na2vs0mg"},{"bike_id":"74428b19-7769-4bf2-bd97-3e61a3822b25","system_id":"levelo_inurba_marseille","lat":43.28417,"lon":5.34988,"is_reserved":false,"is_disabled":false,"rental_uris":{"android":"levelo://app?vid=74428b19-7769-4bf2-bd97-3e61a3822b25","ios":"levelo://app?vid=74428b19-7769-4bf2-bd97-3e61a3822b25"},"vehicle_type_id":"4","last_reported":1720714179,"current_range_meters":24000,"station_id":"ce4bhbh2rcd13ifvqepg","pricing_plan_id":"cebpf4jnsgd1na2vs0mg"},{"bike_id":"5c1b2f03-e5ef-4f18-9410-97dfcf4de02e","system_id":"levelo_inurba_marseille","lat":43.28416,"lon":5.34991,"is_reserved":false,"is_disabled":false,"rental_uris":{"android":"levelo://app?vid=5c1b2f03-e5ef-4f18-9410-97dfcf4de02e","ios":"levelo://app?vid=5c1b2f03-e5ef-4f18-9410-97dfcf4de02e"},"vehicle_type_id":"4","last_reported":1720714179,"current_range_meters":31200,"station_id":"ce4bhbh2rcd13ifvqepg","pricing_plan_id":"cebpf4jnsgd1na2vs0mg"},{"bike_id":"e39c70e4-cd1c-4817-a112-43ec1f22f800","system_id":"levelo_inurba_marseille","lat":43.2842,"lon":5.34977,"is_reserved":false,"is_disabled":false,"rental_uris":{"android":"levelo://app?vid=e39c70e4-cd1c-4817-a112-43ec1f22f800","ios":"levelo://app?vid=e39c70e4-cd1c-4817-a112-43ec1f22f800"},"vehicle_type_id":"4","last_reported":1720714179,"current_range_meters":17200,"station_id":"ce4bhbh2rcd13ifvqepg","pricing_plan_id":"cebpf4jnsgd1na2vs0mg"},{"bike_id":"c347886c-cae1-4e1a-acf1-c96bd97e6aeb","system_id":"levelo_inurba_marseille","lat":43.28417,"lon":5.34986,"is_reserved":false,"is_disabled":false,"rental_uris":{"android":"levelo://app?vid=c347886c-cae1-4e1a-acf1-c96bd97e6aeb","ios":"levelo://app?vid=c347886c-cae1-4e1a-acf1-c96bd97e6aeb"},"vehicle_type_id":"4","last_reported":1720714179,"current_range_meters":31200,"station_id":"ce4bhbh2rcd13ifvqepg","pricing_plan_id":"cebpf4jnsgd1na2vs0mg"},{"bike_id":"c443bfad-368a-47bf-9e4e-ff085a6306cf","system_id":"levelo_inurba_marseille","lat":43.284177,"lon":5.349797,"is_reserved":false,"is_disabled":false,"rental_uris":{"android":"levelo://app?vid=c443bfad-368a-47bf-9e4e-ff085a6306cf","ios":"levelo://app?vid=c443bfad-368a-47bf-9e4e-ff085a6306cf"},"vehicle_type_id":"4","last_reported":1720714179,"current_range_meters":23200,"station_id":"ce4bhbh2rcd13ifvqepg","pricing_plan_id":"cebpf4jnsgd1na2vs0mg"},{"bike_id":"c6e039ec-1447-40db-ab22-5bf018b4dd58","system_id":"levelo_inurba_marseille","lat":43.284146,"lon":5.349891,"is_reserved":false,"is_disabled":false,"rental_uris":{"android":"levelo://app?vid=c6e039ec-1447-40db-ab22-5bf018b4dd58","ios":"levelo://app?vid=c6e039ec-1447-40db-ab22-5bf018b4dd58"},"vehicle_type_id":"4","last_reported":1720714179,"current_range_meters":31200,"station_id":"ce4bhbh2rcd13ifvqepg","pricing_plan_id":"cebpf4jnsgd1na2vs0mg"},{"bike_id":"eaf6f92c-a3f8-4c25-8844-d0c264aefe6c","system_id":"levelo_inurba_marseille","lat":43.28419,"lon":5.34975,"is_reserved":false,"is_disabled":false,"rental_uris":{"android":"levelo://app?vid=eaf6f92c-a3f8-4c25-8844-d0c264aefe6c","ios":"levelo://app?vid=eaf6f92c-a3f8-4c25-8844-d0c264aefe6c"},"vehicle_type_id":"4","last_reported":1720714179,"current_range_meters":7600,"station_id":"ce4bhbh2rcd13ifvqepg","pricing_plan_id":"cebpf4jnsgd1na2vs0mg"},{"bike_id":"f9c59e6d-0cff-4f44-8a0e-43d0ff3c4b71","system_id":"levelo_inurba_marseille","lat":43.284172,"lon":5.349798,"is_reserved":false,"is_disabled":false,"rental_uris":{"android":"levelo://app?vid=f9c59e6d-0cff-4f44-8a0e-43d0ff3c4b71","ios":"levelo://app?vid=f9c59e6d-0cff-4f44-8a0e-43d0ff3c4b71"},"vehicle_type_id":"4","last_reported":1720714179,"current_range_meters":24800,"station_id":"ce4bhbh2rcd13ifvqepg","pricing_plan_id":"cebpf4jnsgd1na2vs0mg"},{"bike_id":"ed10f46a-d5f0-46b8-a414-7bb4cb055211","system_id":"levelo_inurba_marseille","lat":43.284115,"lon":5.349973,"is_reserved":false,"is_disabled":false,"rental_uris":{"android":"levelo://app?vid=ed10f46a-d5f0-46b8-a414-7bb4cb055211","ios":"levelo://app?vid=ed10f46a-d5f0-46b8-a414-7bb4cb055211"},"vehicle_type_id":"4","last_reported":1720714179,"current_range_meters":31200,"station_id":"ce4bhbh2rcd13ifvqepg","pricing_plan_id":"cebpf4jnsgd1na2vs0mg"},{"bike_id":"9139d290-81df-48ae-8ad5-3b432aa1cad0","system_id":"levelo_inurba_marseille","lat":43.284214,"lon":5.349706,"is_reserved":false,"is_disabled":false,"rental_uris":{"android":"levelo://app?vid=9139d290-81df-48ae-8ad5-3b432aa1cad0","ios":"levelo://app?vid=9139d290-81df-48ae-8ad5-3b432aa1cad0"},"vehicle_type_id":"4","last_reported":1720714179,"current_range_meters":13200,"station_id":"ce4bhbh2rcd13ifvqepg","pricing_plan_id":"cebpf4jnsgd1na2vs0mg"},{"bike_id":"2aae7272-9d11-4ef9-89b0-219175a95291","system_id":"levelo_inurba_marseille","lat":43.28411,"lon":5.34997,"is_reserved":false,"is_disabled":false,"rental_uris":{"android":"levelo://app?vid=2aae7272-9d11-4ef9-89b0-219175a95291","ios":"levelo://app?vid=2aae7272-9d11-4ef9-89b0-219175a95291"},"vehicle_type_id":"4","last_reported":1720714179,"current_range_meters":21200,"station_id":"ce4bhbh2rcd13ifvqepg","pricing_plan_id":"cebpf4jnsgd1na2vs0mg"},{"bike_id":"b47a7657-6da6-43bc-8f54-7d766b84a747","system_id":"levelo_inurba_marseille","lat":43.28418,"lon":5.34974,"is_reserved":false,"is_disabled":false,"rental_uris":{"android":"levelo://app?vid=b47a7657-6da6-43bc-8f54-7d766b84a747","ios":"levelo://app?vid=b47a7657-6da6-43bc-8f54-7d766b84a747"},"vehicle_type_id":"4","last_reported":1720714179,"current_range_meters":5600,"station_id":"ce4bhbh2rcd13ifvqepg","pricing_plan_id":"cebpf4jnsgd1na2vs0mg"},{"bike_id":"185a33a7-35e8-48b7-85d5-dee389395afa","system_id":"levelo_inurba_marseille","lat":43.28417,"lon":5.34976,"is_reserved":false,"is_disabled":false,"rental_uris":{"android":"levelo://app?vid=185a33a7-35e8-48b7-85d5-dee389395afa","ios":"levelo://app?vid=185a33a7-35e8-48b7-85d5-dee389395afa"},"vehicle_type_id":"4","last_reported":1720714179,"current_range_meters":18000,"station_id":"ce4bhbh2rcd13ifvqepg","pricing_plan_id":"cebpf4jnsgd1na2vs0mg"},{"bike_id":"7762ac4c-b287-438e-916f-c5954c4ac05d","system_id":"levelo_inurba_marseille","lat":43.28416,"lon":5.34979,"is_reserved":false,"is_disabled":false,"rental_uris":{"android":"levelo://app?vid=7762ac4c-b287-438e-916f-c5954c4ac05d","ios":"levelo://app?vid=7762ac4c-b287-438e-916f-c5954c4ac05d"},"vehicle_type_id":"4","last_reported":1720714179,"current_range_meters":6800,"station_id":"ce4bhbh2rcd13ifvqepg","pricing_plan_id":"cebpf4jnsgd1na2vs0mg"},{"bike_id":"75125a5f-a618-4417-bf9b-d46ddd95243b","system_id":"levelo_inurba_marseille","lat":43.284144,"lon":5.34983,"is_reserved":false,"is_disabled":false,"rental_uris":{"android":"levelo://app?vid=75125a5f-a618-4417-bf9b-d46ddd95243b","ios":"levelo://app?vid=75125a5f-a618-4417-bf9b-d46ddd95243b"},"vehicle_type_id":"4","last_reported":1720714179,"current_range_meters":3200,"station_id":"ce4bhbh2rcd13ifvqepg","pricing_plan_id":"cebpf4jnsgd1na2vs0mg"},