{"last_updated":1729609781,"ttl":60,"version":"2.2","data":{"bikes":[{"bike_id":"8d4355fb-4066-47ba-8c72-0048c63ad655","system_id":"levelo_inurba_marseille","lat":43.31714,"lon":5.43716,"is_reserved":false,"is_disabled":false,"rental_uris":{"android":"levelo://app?vid=8d4355fb-4066-47ba-8c72-0048c63ad655","ios":"levelo://app?vid=8d4355fb-4066-47ba-8c72-0048c63ad655"},"vehicle_type_id":"4","last_reported":1729609782,"current_range_meters":38000,"station_id":"ce4bhp92rcd13ifvqhcg","pricing_plan_id":"cebpf4jnsgd1na2vs0mg"},{"bike_id":"ebf9804c-c5ca-42b3-8c49-aa51e3423dfe","system_id":"levelo_inurba_marseille","lat":43.29904,"lon":5.43672,"is_reserved":false,"is_disabled":false,"rental_uris":{"android":"levelo://app?vid=ebf9804c-c5ca-42b3-8c49-aa51e3423dfe","ios":"levelo://app?vid=ebf9804c-c5ca-42b3-8c49-aa51e3423dfe"},"vehicle_type_id":"4","last_reported":1729609782,"current_range_meters":24400,"station_id":"ce4bhpp2rcd13ifvqhfg","pricing_plan_id":"cebpf4jnsgd1na2vs0mg"},{"bike_id":"cffef2ba-3853-49e9-b877-451ac3f6e219","system_id":"levelo_inurba_marseille","lat":43.25499,"lon":5.37659,"is_reserved":false,"is_disabled":false,"rental_uris":{"android":"levelo://app?vid=cffef2ba-3853-49e9-b877-451ac3f6e219","ios":"levelo://app?vid=cffef2ba-3853-49e9-b877-451ac3f6e219"},"vehicle_type_id":"4","last_reported":1729609782,"current_range_meters":4400,"station_id":"ce4bhh12rcd13ifvqff0","pricing_plan_id":"cebpf4jnsgd1na2vs0mg"},{"bike_id":"10186016-fd8d-48c7-9f15-e96ba70c0434","system_id":"levelo_inurba_marseille","lat":43.26061,"lon":5.39403,"is_reserved":false,"is_disabled":false,"rental_uris":{"android":"levelo://app?vid=10186016-fd8d-48c7-9f15-e96ba70c0434","ios":"levelo://app?vid=10186016-fd8d-48c7-9f15-e96ba70c0434"},"vehicle_type_id":"4","last_reported":1729609782,"current_range_meters":16400,"station_id":"ce4bhh92rcd13ifvqfj0","pricing_plan_id":"cebpf4jnsgd1na2vs0mg"},{"bike_id":"bf3ba10b-2215-4819-9281-fdd246dc1f81","system_id":"levelo_inurba_marseille","lat":43.27373,"lon":5.36263,"is_reserved":false,"is_disabled":false,"rental_uris":{"android":"levelo://app?vid=bf3ba10b-2215-4819-9281-fdd246dc1f81","ios":"levelo://app?vid=bf3ba10b-2215-4819-9281-fdd246dc1f81"},"vehicle_type_id":"4","last_reported":1729609782,"current_range_meters":38000,"station_id":"ce4bhbh2rcd13ifvqeo0","pricing_plan_id":"cebpf4jnsgd1na2vs0mg"},{"bike_id":"2e90849e-9e34-4001-8306-53d65901ba7c","system_id":"levelo_inurba_marseille","lat":43.31749,"lon":5.39016,"is_reserved":false,"is_disabled":false,"rental_uris":{"android":"levelo://app?vid=2e90849e-9e34-4001-8306-53d65901ba7c","ios":"levelo://app?vid=2e90849e-9e34-4001-8306-53d65901ba7c"},"vehicle_type_id":"4","last_reported":1729609782,"current_range_meters":11600,"station_id":"ce4bhqp2rcd13ifvqhng","pricing_plan_id":"cebpf4jnsgd1na2vs0mg"},{"bike_id":"df7fd9ed-68b0-4ad3-8f70-196a5328c339","system_id":"levelo_inurba_marseille","lat":43.28078,"lon":5.3965,"is_reserved":false,"is_disabled":false,"rental_uris":{"android":"levelo://app?vid=df7fd9ed-68b0-4ad3-8f70-196a5328c339","ios":"levelo://app?vid=df7fd9ed-68b0-4ad3-8f70-196a5328c339"},"vehicle_type_id":"4","last_reported":1729609782,"current_range_meters":38000,"station_id":"ce4bho12rcd13ifvqh2g","pricing_plan_id":"cebpf4jnsgd1na2vs0mg"},{"bike_id":"074046c9-ddc9-4f56-845c-192c0d13ff50","system_id":"levelo_inurba_marseille","lat":43.2958,"lon":5.36739,"is_reserved":false,"is_disabled":false,"rental_uris":{"android":"levelo://app?vid=074046c9-ddc9-4f56-845c-192c0d13ff50","ios":"levelo://app?vid=074046c9-ddc9-4f56-845c-192c0d13ff50"},"vehicle_type_id":"4","last_reported":1729609782,"current_range_meters":37600,"station_id":"ce4bgph2rcd13ifvqc2g","pricing_plan_id":"cebpf4jnsgd1na2vs0mg"},{"bike_id":"d150a7ca-2826-47db-a5c4-fa5cfa323393","system_id":"levelo_inurba_marseille","lat":43.27378,"lon":5.36263,"is_reserved":false,"is_disabled":false,"rental_uris":{"android":"levelo://app?vid=d150a7ca-2826-47db-a5c4-fa5cfa323393","ios":"levelo://app?vid=d150a7ca-2826-47db-a5c4-fa5cfa323393"},"vehicle_type_id":"4","last_reported":1729609782,"current_range_meters":24000,"station_id":"ce4bhbh2rcd13ifvqeo0","pricing_plan_id":"cebpf4jnsgd1na2vs0mg"},{"bike_id":"16318d00-0df3-477c-83d5-08959edaad24","system_id":"levelo_inurba_marseille","lat":43.29414,"lon":5.38617,"is_reserved":false,"is_disabled":false,"rental_uris":{"android":"levelo://app?vid=16318d00-0df3-477c-83d5-08959edaad24","ios":"levelo://app?vid=16318d00-0df3-477c-83d5-08959edaad24"},"vehicle_type_id":"4","last_reported":1729609782,"current_range_meters":30400,"station_id":"ce4bh2h2rcd13ifvqdh0","pricing_plan_id":"cebpf4jnsgd1na2vs0mg"},{"bike_id":"d26720d8-0182-4601-851b-347232e3b2b6","system_id":"levelo_inurba_marseille","lat":43.2737,"lon":5.36269,"is_reserved":false,"is_disabled":false,"rental_uris":{"android":"levelo://app?vid=d26720d8-0182-4601-851b-347232e3b2b6","ios":"levelo://app?vid=d26720d8-0182-4601-851b-347232e3b2b6"},"vehicle_type_id":"4","last_reported":1729609782,"current_range_meters":38800,"station_id":"ce4bhbh2rcd13ifvqeo0","pricing_plan_id":"cebpf4jnsgd1na2vs0mg"},{"bike_id":"49ac75a1-e857-41b2-9621-49033a0bc2f3","system_id":"levelo_inurba_marseille","lat":43.2957,"lon":5.37526,"is_reserved":false,"is_disabled":false,"rental_uris":{"android":"levelo://app?vid=49ac75a1-e857-41b2-9621-49033a0bc2f3","ios":"levelo://app?vid=49ac75a1-e857-41b2-9621-49033a0bc2f3"},"vehicle_type_id":"4","last_reported":1729609782,"current_range_meters":31200,"station_id":"ce4bgh92rcd13ifvqb50","pricing_plan_id":"cebpf4jnsgd1na2vs0mg"},{"bike_id":"ac2af299-6661-4ae2-9ff9-ac47fdf8c4f4","system_id":"levelo_inurba_marseille","lat":43.29716,"lon":5.37698,"is_reserved":false,"is_disabled":false,"rental_uris":{"android":"levelo://app?vid=ac2af299-6661-4ae2-9ff9-ac47fdf8c4f4","ios":"levelo://app?vid=ac2af299-6661-4ae2-9ff9-ac47fdf8c4f4"},"vehicle_type_id":"4","last_reported":1729609782,"current_range_meters":9600,"station_id":"ce4bgkh2rcd13ifvqbl0","pricing_plan_id":"cebpf4jnsgd1na2vs0mg"},{"bike_id":"a0292098-3ec4-475d-acd0-eb6d863f39d9","system_id":"levelo_inurba_marseille","lat":43.30408,"lon":5.41299,"is_reserved":false,"is_disabled":false,"rental_uris":{"android":"levelo://app?vid=a0292098-3ec4-475d-acd0-eb6d863f39d9","ios":"levelo://app?vid=a0292098-3ec4-475d-acd0-eb6d863f39d9"},"vehicle_type_id":"4","last_reported":1729609782,"current_range_meters":36800,"station_id":"ce4bhop2rcd13ifvqh8g","pricing_plan_id":"cebpf4jnsgd1na2vs0mg"},{"bike_id":"5c449356-4ac4-4d08-a405-c433fbe21a80","system_id":"levelo_inurba_marseille","lat":43.33737,"lon":5.37458,"is_reserved":false,"is_disabled":false,"rental_uris":{"android":"levelo://app?vid=5c449356-4ac4-4d08-a405-c433fbe21a80","ios":"levelo://app?vid=5c449356-4ac4-4d08-a405-c433fbe21a80"},"vehicle_type_id":"4","last_reported":1729609782,"current_range_meters":33600,"station_id":"","pricing_plan_id":"cebpf4jnsgd1na2vs0mg"},{"bike_id":"be34f914-5797-4a07-934f-0a22a86fae6f","system_id":"levelo_inurba_marseille","lat":43.27841,"lon":5.39209,"is_reserved":false,"is_disabled":false,"rental_uris":{"android":"levelo://app?vid=be34f914-5797-4a07-934f-0a22a86fae6f","ios":"levelo://app?vid=be34f914-5797-4a07-934f-0a22a86fae6f"},"vehicle_type_id":"4","last_reported":1729609782,"current_range_meters":36800,"station_id":"ce4bhjp2rcd13ifvqga0","pricing_plan_id":"cebpf4jnsgd1na2vs0mg"},{"bike_id":"485bc73e-933c-4812-9fc9-21615640d4e2","system_id":"levelo_inurba_marseille","lat":43.26193,"lon":5.37452,"is_reserved":false,"is_disabled":false,"rental_uris":{"android":"levelo://app?vid=485bc73e-933c-4812-9fc9-21615640d4e2","ios":"levelo://app?vid=485bc73e-933c-4812-9fc9-21615640d4e2"},"vehicle_type_id":"4","last_reported":1729609782,"current_range_meters":31200,"station_id":"ce4bhgp2rcd13ifvqfc0","pricing_plan_id":"cebpf4jnsgd1na2vs0mg"},{"bike_id":"41ce1f6b-62bf-4b25-9f3c-35cfcfaca8a4","system_id":"levelo_inurba_marseille","lat":43.29035,"lon":5.35926,"is_reserved":false,"is_disabled":false,"rental_uris":{"android":"levelo://app?vid=41ce1f6b-62bf-4b25-9f3c-35cfcfaca8a4","ios":"levelo://app?vid=41ce1f6b-62bf-4b25-9f3c-35cfcfaca8a4"},"vehicle_type_id":"4","last_reported":1729609782,"current_range_meters":32000,"station_id":"ce4bha92rcd13ifvqeg0","pricing_plan_id":"cebpf4jnsgd1na2vs0mg"},{"bike_id":"e6582e63-7e5d-493a-9170-f5faf28b017c","system_id":"levelo_inurba_marseille","lat":43.2397,"lon":5.36627,"is_reserved":false,"is_disabled":false,"rental_uris":{"android":"levelo://app?vid=e6582e63-7e5d-493a-9170-f5faf28b017c","ios":"levelo://app?vid=e6582e63-7e5d-493a-9170-f5faf28b017c"},"vehicle_type_id":"4","last_reported":1729609782,"current_range_meters":33200,"station_id":"ce4bhi12rcd13ifvqfp0","pricing_plan_id":"cebpf4jnsgd1na2vs0mg"},{"bike_id":"020edf6e-934b-4b6b-ac8e-11162185763c","system_id":"levelo_inurba_marseille","lat":43.26956,"lon":5.38632,"is_reserved":false,"is_disabled":false,"rental_uris":{"android":"levelo://app?vid=020edf6e-934b-4b6b-ac8e-11162185763c","ios":"levelo://app?vid=020edf6e-934b-4b6b-ac8e-11162185763c"},"vehicle_type_id":"4","last_reported":1729609782,"current_range_meters":6400,"station_id":"ce4bhh92rcd13ifvqfh0","pricing_plan_id":"cebpf4jnsgd1na2vs0mg"},{"bike_id":"3bb95d1d-9f30-40d2-840f-0512d6d42a6f","system_id":"levelo_inurba_marseille","lat":43.30601,"lon":5.37245,"is_reserved":false,"is_disabled":false,"rental_uris":{"android":"levelo://app?vid=3bb95d1d-9f30-40d2-840f-0512d6d42a6f","ios":"levelo://app?vid=3bb95d1d-9f30-40d2-840f-0512d6d42a6f"},"vehicle_type_id":"4","last_reported":1729609782,"current_range_meters":35200,"station_id":"ce4bgqh2rcd13ifvqc4g","pricing_plan_id":"cebpf4jnsgd1na2vs0mg"},{"bike_id":"0d3ee28b-1e1d-47c5-a9c4-e1d6709b0b68","system_id":"levelo_inurba_marseille","lat":43.3053,"lon":5.36562,"is_reserved":false,"is_disabled":false,"rental_uris":{"android":"levelo://app?vid=0d3ee28b-1e1d-47c5-a9c4-e1d6709b0b68","ios":"levelo://app?vid=0d3ee28b-1e1d-47c5-a9c4-e1d6709b0b68"},"vehicle_type_id":"4","last_reported":1729609782,"current_range_meters":36800,"station_id":"ce4bgs12rcd13ifvqcag","pricing_plan_id":"cebpf4jnsgd1na2vs0mg"},{"bike_id":"1183a65e-eddd-4b64-ada6-9b58fe2802eb","system_id":"levelo_inurba_marseille","lat":43.2921,"lon":5.36065,"is_reserved":false,"is_disabled":false,"rental_uris":{"android":"levelo://app?vid=1183a65e-eddd-4b64-ada6-9b58fe2802eb","ios":"levelo://app?vid=1183a65e-eddd-4b64-ada6-9b58fe2802eb"},"vehicle_type_id":"4","last_reported":1729609782,"current_range_meters":28800,"station_id":"ce4bhbh2rcd13ifvqeqg","pricing_plan_id":"cebpf4jnsgd1na2vs0mg"},{"bike_id":"60b34bc9-7917-4461-befd-a90269dd4b11","system_id":"levelo_inurba_marseille","lat":43.27498,"lon":5.42453,"is_reserved":false,"is_disabled":false,"rental_uris":{"android":"levelo://app?vid=60b34bc9-7917-4461-befd-a90269dd4b11","ios":"levelo://app?vid=60b34bc9-7917-4461-befd-a90269dd4b11"},"vehicle_type_id":"4","last_reported":1729609782,"current_range_meters":34000,"station_id":"ce4bhn92rcd13ifvqgrg","pricing_plan_id":"cebpf4jnsgd1na2vs0mg"},{"bike_id":"abe658d4-12a8-41db-b6b3-738fdbd608a2","system_id":"levelo_inurba_marseille","lat":43.2319,"lon":5.35557,"is_reserved":false,"is_disabled":false,"rental_uris":{"android":"levelo://app?vid=abe658d4-12a8-41db-b6b3-738fdbd608a2","ios":"levelo://app?vid=abe658d4-12a8-41db-b6b3-738fdbd608a2"},"vehicle_type_id":"4","last_reported":1729609782,"current_range_meters":35600,"station_id":"ce4bhu92rcd13ifvqi70","pricing_plan_id":"cebpf4jnsgd1na2vs0mg"},{"bike_id":"3f8a09e4-5553-4ba4-8e3f-afe05e6f0195","system_id":"levelo_inurba_marseille","lat":43.31179,"lon":5.38718,"is_reserved":false,"is_disabled":false,"rental_uris":{"android":"levelo://app?vid=3f8a09e4-5553-4ba4-8e3f-afe05e6f0195","ios":"levelo://app?vid=3f8a09e4-5553-4ba4-8e3f-afe05e6f0195"},"vehicle_type_id":"4","last_reported":1729609782,"current_range_meters":30800,"station_id":"ce4bgv12rcd13ifvqcp0","pricing_plan_id":"cebpf4jnsgd1na2vs0mg"},{"bike_id":"f0d6c321-e493-4c13-ad67-afb1b50dd62e","system_id":"levelo_inurba_marseille","lat":43.29957,"lon":5.41326,"is_reserved":false,"is_disabled":false,"rental_uris":{"android":"levelo://app?vid=f0d6c321-e493-4c13-ad67-afb1b50dd62e","ios":"levelo://app?vid=f0d6c321-e493-4c13-ad67-afb1b50dd62e"},"vehicle_type_id":"4","last_reported":1729609782,"current_range_meters":16000,"station_id":"ce4bhp12rcd13ifvqh9g","pricing_plan_id":"cebpf4jnsgd1na2vs0mg"},{"bike_id":"86cac07a-d23d-4252-948d-700b28d68785","system_id":"levelo_inurba_marseille","lat":43.27376,"lon":5.3626,"is_reserved":false,"is_disabled":false,"rental_uris":{"android":"levelo://app?vid=86cac07a-d23d-4252-948d-700b28d68785","ios":"levelo://app?vid=86cac07a-d23d-4252-948d-700b28d68785"},"vehicle_type_id":"4","last_reported":1729609782,"current_range_meters":25600,"station_id":"ce4bhbh2rcd13ifvqeo0","pricing_plan_id":"cebpf4jnsgd1na2vs0mg"},{"bike_id":"3c9ae0a1-b8c4-4edf-bc3d-7af84175dd49","system_id":"levelo_inurba_marseille","lat":43.29569,"lon":5.37526,"is_reserved":false,"is_disabled":false,"rental_uris":{"android":"levelo://app?vid=3c9ae0a1-b8c4-4edf-bc3d-7af84175dd49","ios":"levelo://app?vid=3c9ae0a1-b8c4-4edf-bc3d-7af84175dd49"},"vehicle_type_id":"4","last_reported":1729609782,"current_range_meters":26800,"station_id":"ce4bgh92rcd13ifvqb50","pricing_plan_id":"cebpf4jnsgd1na2vs0mg"},{"bike_id":"b2e1c869-a3ab-499c-b5c6-de9c9df8d37c","system_id":"levelo_inurba_marseille","lat":43.33746,"lon":5.37488,"is_reserved":false,"is_disabled":false,"rental_uris":{"android":"levelo://app?vid=b2e1c869-a3ab-499c-b5c6-de9c9df8d37c","ios":"levelo://app?vid=b2e1c869-a3ab-499c-b5c6-de9c9df8d37c"},"vehicle_type_id":"4","last_reported":1729609782,"current_range_meters":38800,"station_id":"","pricing_plan_id":"cebpf4jnsgd1na2vs0mg"},{"bike_id":"6d43f853-d0df-40d0-961d-c0a20766d021","system_id":"levelo_inurba_marseille","lat":43.29605,"lon":5.38112,"is_reserved":false,"is_disabled":false,"rental_uris":{"android":"levelo://app?vid=6d43f853-d0df-40d0-961d-c0a20766d021","ios":"levelo://app?vid=6d43f853-d0df-40d0-961d-c0a20766d021"},"vehicle_type_id":"4","last_reported":1729609782,"current_range_meters":24400,"station_id":"ce4bgl12rcd13ifvqbo0","pricing_plan_id":"cebpf4jnsgd1na2vs0mg"},{"bike_id":"4c87ffff-8c80-4e37-a773-750285782cb8","system_id":"levelo_inurba_marseille","lat":43.29717,"lon":5.36616,"is_reserved":false,"is_disabled":false,"rental_uris":{"android":"levelo://app?vid=4c87ffff-8c80-4e37-a773-750285782cb8","ios":"levelo://app?vid=4c87ffff-8c80-4e37-a773-750285782cb8"},"vehicle_type_id":"4","last_reported":1729609782,"current_range_meters":37600,"station_id":"ce4bgn12rcd13ifvqbt0","pricing_plan_id":"cebpf4jnsgd1na2vs0mg"},{"bike_id":"d84dd528-04c0-46e5-91ba-ae6395049165","system_id":"levelo_inurba_marseille","lat":43.28004,"lon":5.40017,"is_reserved":false,"is_disabled":false,"rental_uris":{"android":"levelo://app?vid=d84dd528-04c0-46e5-91ba-ae6395049165","ios":"levelo://app?vid=d84dd528-04c0-46e5-91ba-ae6395049165"},"vehicle_type_id":"4","last_reported":1729609782,"current_range_meters":12800,"station_id":"ce4bho92rcd13ifvqh4g","pricing_plan_id":"cebpf4jnsgd1na2vs0mg"},{"bike_id":"3c2e9290-6792-4e2d-b00d-712b965be0bd","system_id":"levelo_inurba_marseille","lat":43.2558,"lon":5.38238,"is_reserved":false,"is_disabled":false,"rental_uris":{"android":"levelo://app?vid=3c2e9290-6792-4e2d-b00d-712b965be0bd","ios":"levelo://app?vid=3c2e9290-6792-4e2d-b00d-712b965be0bd"},"vehicle_type_id":"4","last_reported":1729609782,"current_range_meters":23200,"station_id":"ce4bhih2rcd13ifvqfs0","pricing_plan_id":"cebpf4jnsgd1na2vs0mg"},{"bike_id":"911bde2e-2811-4746-92bb-92f2ade87890","system_id":"levelo_inurba_marseille","lat":43.29958,"lon":5.41325,"is_reserved":false,"is_disabled":false,"rental_uris":{"android":"levelo://app?vid=911bde2e-2811-4746-92bb-92f2ade87890","ios":"levelo://app?vid=911bde2e-2811-4746-92bb-92f2ade87890"},"vehicle_type_id":"4","last_reported":1729609782,"current_range_meters":30800,"station_id":"ce4bhp12rcd13ifvqh9g","pricing_plan_id":"cebpf4jnsgd1na2vs0mg"},{"bike_id":"02594453-fddb-4059-bfeb-d744dd63f81b","system_id":"levelo_inurba_marseille","lat":43.28,"lon":5.41667,"is_reserved":false,"is_disabled":false,"rental_uris":{"android":"levelo://app?vid=02594453-fddb-4059-bfeb-d744dd63f81b","ios":"levelo://app?vid=02594453-fddb-4059-bfeb-d744dd63f81b"},"vehicle_type_id":"4","last_reported":1729609782,"current_range_meters":37600,"station_id":"ce4bho12rcd13ifvqh1g","pricing_plan_id":"cebpf4jnsgd1na2vs0mg"},{"bike_id":"566ef3cd-3e87-4087-a6aa-32a145c590e2","system_id":"levelo_inurba_marseille","lat":43.25579,"lon":5.38234,"is_reserved":false,"is_disabled":false,"rental_uris":{"android":"levelo://app?vid=566ef3cd-3e87-4087-a6aa-32a145c590e2","ios":"levelo://app?vid=566ef3cd-3e87-4087-a6aa-32a145c590e2"},"vehicle_type_id":"4","last_reported":1729609782,"current_range_meters":11200,"station_id":"ce4bhih2rcd13ifvqfs0","pricing_plan_id":"cebpf4jnsgd1na2vs0mg"},{"bike_id":"e73397ec-41ef-401f-966f-7b0b12ace5aa","system_id":"levelo_inurba_marseille","lat":43.23195,"lon":5.35555,"is_reserved":false,"is_disabled":false,"rental_uris":{"android":"levelo://app?vid=e73397ec-41ef-401f-966f-7b0b12ace5aa","ios":"levelo://app?vid=e73397ec-41ef-401f-966f-7b0b12ace5aa"},"vehicle_type_id":"4","last_reported":1729609782,"current_range_meters":38800,"station_id":"ce4bhu92rcd13ifvqi70","pricing_plan_id":"cebpf4jnsgd1na2vs0mg"},{"bike_id":"4ecf189d-2cc2-4278-add4-8f877f05628b","system_id":"levelo_inurba_marseille","lat":43.3089,"lon":5.37203,"is_reserved":false,"is_disabled":false,"rental_uris":{"android":"levelo://app?vid=4ecf189d-2cc2-4278-add4-8f877f05628b","ios":"levelo://app?vid=4ecf189d-2cc2-4278-add4-8f877f05628b"},"vehicle_type_id":"4","last_reported":1729609782,"current_range_meters":38800,"station_id":"ce4bguh2rcd13ifvqckg","pricing_plan_id":"cebpf4jnsgd1na2vs0mg"},{"bike_id":"e52235ba-25ab-4eab-a466-98ab61d7f186","system_id":"levelo_inurba_marseille","lat":43.26955,"lon":5.38628,"is_reserved":false,"is_disabled":false,"rental_uris":{"android":"levelo://app?vid=e52235ba-25ab-4eab-a466-98ab61d7f186","ios":"levelo://app?vid=e52235ba-25ab-4eab-a466-98ab61d7f186"},"vehicle_type_id":"4","last_reported":1729609782,"current_range_meters":13600,"station_id":"ce4bhh92rcd13ifvqfh0","pricing_plan_id":"cebpf4jnsgd1na2vs0mg"},{"bike_id":"8425517a-14be-4454-a36c-8453b86fd3da","system_id":"levelo_inurba_marseille","lat":43.309235,"lon":5.402965,"is_reserved":false,"is_disabled":false,"rental_uris":{"android":"levelo://app?vid=8425517a-14be-4454-a36c-8453b86fd3da","ios":"levelo://app?vid=8425517a-14be-4454-a36c-8453b86fd3da"},"vehicle_type_id":"4","last_reported":1729609782,"current_range_meters":5600,"station_id":"ce4bhqh2rcd13ifvqhlg","pricing_plan_id":"cebpf4jnsgd1na2vs0mg"},{"bike_id":"2d3bac3c-b30e-4ae9-b289-4dad5943c3bc","system_id":"levelo_inurba_marseille","lat":43.23181,"lon":5.39994,"is_reserved":false,"is_disabled":false,"rental_uris":{"android":"levelo://app?vid=2d3bac3c-b30e-4ae9-b289-4dad5943c3bc","ios":"levelo://app?vid=2d3bac3c-b30e-4ae9-b289-4dad5943c3bc"},"vehicle_type_id":"4","last_reported":1729609782,"current_range_meters":38400,"station_id":"ce4bhn12rcd13ifvqgqg","pricing_plan_id":"cebpf4jnsgd1na2vs0mg"},{"bike_id":"b4aef2f0-ed0e-4756-9115-da095c0a3a75","system_id":"levelo_inurba_marseille","lat":43.24662,"lon":5.38169,"is_reserved":false,"is_disabled":false,"rental_uris":{"android":"levelo://app?vid=b4aef2f0-ed0e-4756-9115-da095c0a3a75","ios":"levelo://app?vid=b4aef2f0-ed0e-4756-9115-da095c0a3a75"},"vehicle_type_id":"4","last_reported":1729609782,"current_range_meters":19200,"station_id":"ce4bhih2rcd13ifvqfr0","pricing_plan_id":"cebpf4jnsgd1na2vs0mg"},{"bike_id":"645a50d8-f9b9-4b52-8318-4372100021e8","system_id":"levelo_inurba_marseille","lat":43.28614,"lon":5.35099,"is_reserved":false,"is_disabled":false,"rental_uris":{"android":"levelo://app?vid=645a50d8-f9b9-4b52-8318-4372100021e8","ios":"levelo://app?vid=645a50d8-f9b9-4b52-8318-4372100021e8"},"vehicle_type_id":"4","last_reported":1729609782,"current_range_meters":6400,"station_id":"ce4bhch2rcd13ifvqeug","pricing_plan_id":"cebpf4jnsgd1na2vs0mg"},{"bike_id":"47649785-9eca-49bd-a56e-2c638ef0c6c5","system_id":"levelo_inurba_marseille","lat":43.28625,"lon":5.40354,"is_reserved":false,"is_disabled":false,"rental_uris":{"android":"levelo://app?vid=47649785-9eca-49bd-a56e-2c638ef0c6c5","ios":"levelo://app?vid=47649785-9eca-49bd-a56e-2c638ef0c6c5"},"vehicle_type_id":"4","last_reported":1729609782,"current_range_meters":36800,"station_id":"ce4bgvh2rcd13ifvqcs0","pricing_plan_id":"cebpf4jnsgd1na2vs0mg"},{"bike_id":"f4d5e11c-9ebf-423e-bf38-c1c373164927","system_id":"levelo_inurba_marseille","lat":43.29532,"lon":5.39393,"is_reserved":false,"is_disabled":false,"rental_uris":{"android":"levelo://app?vid=f4d5e11c-9ebf-423e-bf38-c1c373164927","ios":"levelo://app?vid=f4d5e11c-9ebf-423e-bf38-c1c373164927"},"vehicle_type_id":"4","last_reported":1729609782,"current_range_meters":38000,"station_id":"ce4bh292rcd13ifvqdf0","pricing_plan_id":"cebpf4jnsgd1na2vs0mg"},{"bike_id":"3639b963-961e-4c70-af79-dde2b98ca349","system_id":"levelo_inurba_marseille","lat":43.29191,"lon":5.35808,"is_reserved":false,"is_disabled":false,"rental_uris":{"android":"levelo://app?vid=3639b963-961e-4c70-af79-dde2b98ca349","ios":"levelo://app?vid=3639b963-961e-4c70-af79-dde2b98ca349"},"vehicle_type_id":"4","last_reported":1729609782,"current_range_meters":13600,"station_id":"ce4bhb12rcd13ifvqel0","pricing_plan_id":"cebpf4jnsgd1na2vs0mg"},{"bike_id":"f3cd94cf-ff06-44f9-a68d-c98cd621be7b","system_id":"levelo_inurba_marseille","lat":43.27497,"lon":5.42451,"is_reserved":false,"is_disabled":false,"rental_uris":{"android":"levelo://app?vid=f3cd94cf-ff06-44f9-a68d-c98cd621be7b","ios":"levelo://app?vid=f3cd94cf-ff06-44f9-a68d-c98cd621be7b"},"vehicle_type_id":"4","last_reported":1729609782,"current_range_meters":36400,"station_id":"ce4bhn92rcd13ifvqgrg","pricing_plan_id":"cebpf4jnsgd1na2vs0mg"},{"bike_id":"15a1206b-e1d3-478c-a77a-5d3b2979f233","system_id":"levelo_inurba_marseille","lat":43.27329,"lon":5.39105,"is_reserved":false,"is_disabled":false,"rental_uris":{"android":"levelo://app?vid=15a1206b-e1d3-478c-a77a-5d3b2979f233","ios":"levelo://app?vid=15a1206b-e1d3-478c-a77a-5d3b2979f233"},"vehicle_type_id":"4","last_reported":1729609782,"current_range_meters":21600,"station_id":"ce4bhgp2rcd13ifvqfe0","pricing_plan_id":"cebpf4jnsgd1na2vs0mg"},{"bike_id":"d44acf27-358e-4eb1-ade0-a737a36dd14e","system_id":"levelo_inurba_marseille","lat":43.26566,"lon":5.39008,"is_reserved":false,"is_disabled":false,"rental_uris":{"android":"levelo://app?vid=d44acf27-358e-4eb1-ade0-a737a36dd14e","ios":"levelo://app?vid=d44acf27-358e-4eb1-ade0-a737a36dd14e"},"vehicle_type_id":"4","last_reported":1729609782,"current_range_meters":2800,"station_id":"ce4bhe12rcd13ifvqf30","pricing_plan_id":"cebpf4jnsgd1na2vs0mg"},{"bike_id":"0ee4b79f-5e3a-497a-b6a6-2a01314ac52f","system_id":"levelo_inurba_marseille","lat":43.29897,"lon":5.43674,"is_reserved":false,"is_disabled":false,"rental_uris":{"android":"levelo://app?vid=0ee4b79f-5e3a-497a-b6a6-2a01314ac52f","ios":"levelo://app?vid=0ee4b79f-5e3a-497a-b6a6-2a01314ac52f"},"vehicle_type_id":"4","last_reported":1729609782,"current_range_meters":9200,"station_id":"ce4bhpp2rcd13ifvqhfg","pricing_plan_id":"cebpf4jnsgd1na2vs0mg"},{"bike_id":"49cddc2b-d925-495c-80be-9b315d07b295","system_id":"levelo_inurba_marseille","lat":43.27373,"lon":5.3625,"is_reserved":false,"is_disabled":false,"rental_uris":{"android":"levelo://app?vid=49cddc2b-d925-495c-80be-9b315d07b295","ios":"levelo://app?vid=49cddc2b-d925-495c-80be-9b315d07b295"},"vehicle_type_id":"4","last_reported":1729609782,"current_range_meters":10000,"station_id":"ce4bhbh2rcd13ifvqeo0","pricing_plan_id":"cebpf4jnsgd1na2vs0mg"},{"bike_id":"a19bbcf5-5b1a-4447-af26-056dc18506f6","system_id":"levelo_inurba_marseille","lat":43.337444,"lon":5.374475,"is_reserved":false,"is_disabled":false,"rental_uris":{"android":"levelo://app?vid=a19bbcf5-5b1a-4447-af26-056dc18506f6","ios":"levelo://app?vid=a19bbcf5-5b1a-4447-af26-056dc18506f6"},"vehicle_type_id":"4","last_reported":1729609782,"current_range_meters":24800,"station_id":"ce4bgl12rcd13ifvqbo0","pricing_plan_id":"cebpf4jnsgd1na2vs0mg"},{"bike_id":"854f3ef9-8740-42e9-b38e-e0b11633fc24","system_id":"levelo_inurba_marseille","lat":43.295319,"lon":5.391001,"is_reserved":false,"is_disabled":false,"rental_uris":{"android":"levelo://app?vid=854f3ef9-8740-42e9-b38e-e0b11633fc24","ios":"levelo://app?vid=854f3ef9-8740-42e9-b38e-e0b11633fc24"},"vehicle_type_id":"4","last_reported":1729609782,"current_range_meters":34000,"station_id":"ce4bh3p2rcd13ifvqdp0","pricing_plan_id":"cebpf4jnsgd1na2vs0mg"},{"bike_id":"1605ecb4-8d72-40a2-b87f-e67b816e9ded","system_id":"levelo_inurba_marseille","lat":43.31487,"lon":5.37309,"is_reserved":false,"is_disabled":false,"rental_uris":{"android":"levelo://app?vid=1605ecb4-8d72-40a2-b87f-e67b816e9ded","ios":"levelo://app?vid=1605ecb4-8d72-40a2-b87f-e67b816e9ded"},"vehicle_type_id":"4","last_reported":1729609782,"current_range_meters":36000,"station_id":"ce4bgt12rcd13ifvqcd0","pricing_plan_id":"cebpf4jnsgd1na2vs0mg"},{"bike_id":"7a030e3c-23e0-4ae3-af5b-9d3c83efe74c","system_id":"levelo_inurba_marseille","lat":43.26034,"lon":5.37553,"is_reserved":false,"is_disabled":false,"rental_uris":{"android":"levelo://app?vid=7a030e3c-23e0-4ae3-af5b-9d3c83efe74c","ios":"levelo://app?vid=7a030e3c-23e0-4ae3-af5b-9d3c83efe74c"},"vehicle_type_id":"4","last_reported":1729609782,"current_range_meters":28800,"station_id":"ce4bhgh2rcd13ifvqfa0","pricing_plan_id":"cebpf4jnsgd1na2vs0mg"},{"bike_id":"737f854e-c1c7-4a9c-bed8-a034d850c5cf","system_id":"levelo_inurba_marseille","lat":43.25585,"lon":5.38227,"is_reserved":false,"is_disabled":false,"rental_uris":{"android":"levelo://app?vid=737f854e-c1c7-4a9c-bed8-a034d850c5cf","ios":"levelo://app?vid=737f854e-c1c7-4a9c-bed8-a034d850c5cf"},"vehicle_type_id":"4","last_reported":1729609782,"current_range_meters":2000,"station_id":"ce4bhih2rcd13ifvqfs0","pricing_plan_id":"cebpf4jnsgd1na2vs0mg"},{"bike_id":"1060af92-170b-4517-8d55-17d9bc9f28bf","system_id":"levelo_inurba_marseille","lat":43.33753,"lon":5.3744,"is_reserved":false,"is_disabled":false,"rental_uris":{"android":"levelo://app?vid=1060af92-170b-4517-8d55-17d9bc9f28bf","ios":"levelo://app?vid=1060af92-170b-4517-8d55-17d9bc9f28bf"},"vehicle_type_id":"4","last_reported":1729609782,"current_range_meters":36000,"station_id":"","pricing_plan_id":"cebpf4jnsgd1na2vs0mg"},{"bike_id":"2716df3a-87b8-4ac7-be13-29f6fabe3c04","system_id":"levelo_inurba_marseille","lat":43.29582,"lon":5.36741,"is_reserved":false,"is_disabled":false,"rental_uris":{"android":"levelo://app?vid=2716df3a-87b8-4ac7-be13-29f6fabe3c04","ios":"levelo://app?vid=2716df3a-87b8-4ac7-be13-29f6fabe3c04"},"vehicle_type_id":"4","last_reported":1729609782,"current_range_meters":39200,"station_id":"ce4bgph2rcd13ifvqc2g","pricing_plan_id":"cebpf4jnsgd1na2vs0mg"},{"bike_id":"6b3c1559-12a1-4831-9e37-dee0a3647c42","system_id":"levelo_inurba_marseille","lat":43.30296,"lon":5.39217,"is_reserved":false,"is_disabled":false,"rental_uris":{"android":"levelo://app?vid=6b3c1559-12a1-4831-9e37-dee0a3647c42","ios":"levelo://app?vid=6b3c1559-12a1-4831-9e37-dee0a3647c42"},"vehicle_type_id":"4","last_reported":1729609782,"current_range_meters":23200,"station_id":"ce4bgkh2rcd13ifvqbk0","pricing_plan_id":"cebpf4jnsgd1na2vs0mg"},{"bike_id":"864575c1-85b8-4008-92ba-391073d4ed51","system_id":"levelo_inurba_marseille","lat":43.23197,"lon":5.35549,"is_reserved":false,"is_disabled":false,"rental_uris":{"android":"levelo://app?vid=864575c1-85b8-4008-92ba-391073d4ed51","ios":"levelo://app?vid=864575c1-85b8-4008-92ba-391073d4ed51"},"vehicle_type_id":"4","last_reported":1729609782,"current_range_meters":24400,"station_id":"ce4bhu92rcd13ifvqi70","pricing_plan_id":"cebpf4jnsgd1na2vs0mg"},{"bike_id":"5c19c70d-6518-4102-9711-f3961e690373","system_id":"levelo_inurba_marseille","lat":43.2942,"lon":5.38625,"is_reserved":false,"is_disabled":false,"rental_uris":{"android":"levelo://app?vid=5c19c70d-6518-4102-9711-f3961e690373","ios":"levelo://app?vid=5c19c70d-6518-4102-9711-f3961e690373"},"vehicle_type_id":"4","last_reported":1729609782,"current_range_meters":17600,"station_id":"ce4bh2h2rcd13ifvqdh0","pricing_plan_id":"cebpf4jnsgd1na2vs0mg"},{"bike_id":"b95a5297-834c-4d4a-a133-c3968e7993c3","system_id":"levelo_inurba_marseille","lat":43.298721,"lon":5.436723,"is_reserved":false,"is_disabled":false,"rental_uris":{"android":"levelo://app?vid=b95a5297-834c-4d4a-a133-c3968e7993c3","ios":"levelo://app?vid=b95a5297-834c-4d4a-a133-c3968e7993c3"},"vehicle_type_id":"4","last_reported":1729609782,"current_range_meters":16400,"station_id":"ce4bhpp2rcd13ifvqhfg","pricing_plan_id":"cebpf4jnsgd1na2vs0mg"},{"bike_id":"838b769a-5e8a-4f6f-9e04-397eb32663a8","system_id":"levelo_inurba_marseille","lat":43.29226,"lon":5.36059,"is_reserved":false,"is_disabled":false,"rental_uris":{"android":"levelo://app?vid=838b769a-5e8a-4f6f-9e04-397eb32663a8","ios":"levelo://app?vid=838b769a-5e8a-4f6f-9e04-397eb32663a8"},"vehicle_type_id":"4","last_reported":1729609782,"current_range_meters":38000,"station_id":"ce4bhbh2rcd13ifvqeqg","pricing_plan_id":"cebpf4jnsgd1na2vs0mg"},{"bike_id":"65a17856-ba34-429f-9a98-9073fd61ac6d","system_id":"levelo_inurba_marseille","lat":43.29176,"lon":5.37164,"is_reserved":false,"is_disabled":false,"rental_uris":{"android":"levelo://app?vid=65a17856-ba34-429f-9a98-9073fd61ac6d","ios":"levelo://app?vid=65a17856-ba34-429f-9a98-9073fd61ac6d"},"vehicle_type_id":"4","last_reported":1729609782,"current_range_meters":4400,"station_id":"ce4bha92rcd13ifvqeh0","pricing_plan_id":"cebpf4jnsgd1na2vs0mg"},{"bike_id":"645b7a03-b871-4851-90e3-3b7079f1fc38","system_id":"levelo_inurba_marseille","lat":43.27374,"lon":5.3626,"is_reserved":false,"is_disabled":false,"rental_uris":{"android":"levelo://app?vid=645b7a03-b871-4851-90e3-3b7079f1fc38","ios":"levelo://app?vid=645b7a03-b871-4851-90e3-3b7079f1fc38"},"vehicle_type_id":"4","last_reported":1729609782,"current_range_meters":34000,"station_id":"ce4bhbh2rcd13ifvqeo0","pricing_plan_id":"cebpf4jnsgd1na2vs0mg"},{"bike_id":"0728974d-1ad5-4181-91f2-6035aab7157d","system_id":"levelo_inurba_marseille","lat":43.23197,"lon":5.35548,"is_reserved":false,"is_disabled":false,"rental_uris":{"android":"levelo://app?vid=0728974d-1ad5-4181-91f2-6035aab7157d","ios":"levelo://app?vid=0728974d-1ad5-4181-91f2-6035aab7157d"},"vehicle_type_id":"4","last_reported":1729609782,"current_range_meters":38800,"station_id":"ce4bhu92rcd13ifvqi70","pricing_plan_id":"cebpf4jnsgd1na2vs0mg"},{"bike_id":"c594f0bd-1238-4647-b774-19298d13964d","system_id":"levelo_inurba_marseille","lat":43.23967,"lon":5.36621,"is_reserved":false,"is_disabled":false,"rental_uris":{"android":"levelo://app?vid=c594f0bd-1238-4647-b774-19298d13964d","ios":"levelo://app?vid=c594f0bd-1238-4647-b774-19298d13964d"},"vehicle_type_id":"4","last_reported":1729609782,"current_range_meters":5600,"station_id":"ce4bhi12rcd13ifvqfp0","pricing_plan_id":"cebpf4jnsgd1na2vs0mg"},{"bike_id":"12816677-e1ed-4cd5-883b-2b91d57f0d83","system_id":"levelo_inurba_marseille","lat":43.28042,"lon":5.36944,"is_reserved":false,"is_disabled":false,"rental_uris":{"android":"levelo://app?vid=12816677-e1ed-4cd5-883b-2b91d57f0d83","ios":"levelo://app?vid=12816677-e1ed-4cd5-883b-2b91d57f0d83"},"vehicle_type_id":"4","last_reported":1729609782,"current_range_meters":13600,"station_id":"ce4bha12rcd13ifvqef0","pricing_plan_id":"cebpf4jnsgd1na2vs0mg"},{"bike_id":"c8590a65-165e-4610-b6b4-3b31fad1d0e3","system_id":"levelo_inurba_marseille","lat":43.29581,"lon":5.36741,"is_reserved":false,"is_disabled":false,"rental_uris":{"android":"levelo://app?vid=c8590a65-165e-4610-b6b4-3b31fad1d0e3","ios":"levelo://app?vid=c8590a65-165e-4610-b6b4-3b31fad1d0e3"},"vehicle_type_id":"4","last_reported":1729609782,"current_range_meters":30000,"station_id":"ce4bgph2rcd13ifvqc2g","pricing_plan_id":"cebpf4jnsgd1na2vs0mg"},{"bike_id":"bf3c3a62-c5dc-4b0a-b04a-23ff5ca45185","system_id":"levelo_inurba_marseille","lat":43.29422,"lon":5.38629,"is_reserved":false,"is_disabled":false,"rental_uris":{"android":"levelo://app?vid=bf3c3a62-c5dc-4b0a-b04a-23ff5ca45185","ios":"levelo://app?vid=bf3c3a62-c5dc-4b0a-b04a-23ff5ca45185"},"vehicle_type_id":"4","last_reported":1729609782,"current_range_meters":26000,"station_id":"ce4bh2h2rcd13ifvqdh0","pricing_plan_id":"cebpf4jnsgd1na2vs0mg"},{"bike_id":"79a1e020-318b-42a1-a8c0-a424b1daf69e","system_id":"levelo_inurba_marseille","lat":43.296,"lon":5.36142,"is_reserved":false,"is_disabled":false,"rental_uris":{"android":"levelo://app?vid=79a1e020-318b-42a1-a8c0-a424b1daf69e","ios":"levelo://app?vid=79a1e020-318b-42a1-a8c0-a424b1daf69e"},"vehicle_type_id":"4","last_reported":1729609782,"current_range_meters":5600,"station_id":"","pricing_plan_id":"cebpf4jnsgd1na2vs0mg"},{"bike_id":"69dddf6d-2173-44ae-b980-374a3c0ff192","system_id":"levelo_inurba_marseille","lat":43.29966,"lon":5.38494,"is_reserved":false,"is_disabled":false,"rental_uris":{"android":"levelo://app?vid=69dddf6d-2173-44ae-b980-374a3c0ff192","ios":"levelo://app?vid=69dddf6d-2173-44ae-b980-374a3c0ff192"},"vehicle_type_id":"4","last_reported":1729609782,"current_range_meters":28400,"station_id":"ce4bgj92rcd13ifvqbd0","pricing_plan_id":"cebpf4jnsgd1na2vs0mg"},{"bike_id":"7f9645ef-65c6-426f-aaf8-2d81bbb3a3d6","system_id":"levelo_inurba_marseille","lat":43.28945,"lon":5.36643,"is_reserved":false,"is_disabled":false,"rental_uris":{"android":"levelo://app?vid=7f9645ef-65c6-426f-aaf8-2d81bbb3a3d6","ios":"levelo://app?vid=7f9645ef-65c6-426f-aaf8-2d81bbb3a3d6"},"vehicle_type_id":"4","last_reported":1729609782,"current_range_meters":18800,"station_id":"ce4bhap2rcd13ifvqek0","pricing_plan_id":"cebpf4jnsgd1na2vs0mg"},{"bike_id":"b5e39e5a-e9c7-4018-826d-1f4df13d85f1","system_id":"levelo_inurba_marseille","lat":43.28353,"lon":5.38113,"is_reserved":false,"is_disabled":false,"rental_uris":{"android":"levelo://app?vid=b5e39e5a-e9c7-4018-826d-1f4df13d85f1","ios":"levelo://app?vid=b5e39e5a-e9c7-4018-826d-1f4df13d85f1"},"vehicle_type_id":"4","last_reported":1729609782,"current_range_meters":33600,"station_id":"ce4bh412rcd13ifvqdr0","pricing_plan_id":"cebpf4jnsgd1na2vs0mg"},{"bike_id":"df5cdff5-7cfb-4989-b9b6-4ce65a2f4fdb","system_id":"levelo_inurba_marseille","lat":43.29186,"lon":5.35788,"is_reserved":false,"is_disabled":false,"rental_uris":{"android":"levelo://app?vid=df5cdff5-7cfb-4989-b9b6-4ce65a2f4fdb","ios":"levelo://app?vid=df5cdff5-7cfb-4989-b9b6-4ce65a2f4fdb"},"vehicle_type_id":"4","last_reported":1729609782,"current_range_meters":15200,"station_id":"ce4bhb12rcd13ifvqel0","pricing_plan_id":"cebpf4jnsgd1na2vs0mg"},{"bike_id":"5aca8fbf-dc3b-416b-b086-7aa9dc6b6551","system_id":"levelo_inurba_marseille","lat":43.28476,"lon":5.38417,"is_reserved":false,"is_disabled":false,"rental_uris":{"android":"levelo://app?vid=5aca8fbf-dc3b-416b-b086-7aa9dc6b6551","ios":"levelo://app?vid=5aca8fbf-dc3b-416b-b086-7aa9dc6b6551"},"vehicle_type_id":"4","last_reported":1729609782,"current_range_meters":8400,"station_id":"ce4bh512rcd13ifvqe3g","pricing_plan_id":"cebpf4jnsgd1na2vs0mg"},{"bike_id":"7adf842b-4b8c-4356-a23f-1be0cbaf4d21","system_id":"levelo_inurba_marseille","lat":43.23194,"lon":5.35544,"is_reserved":false,"is_disabled":false,"rental_uris":{"android":"levelo://app?vid=7adf842b-4b8c-4356-a23f-1be0cbaf4d21","ios":"levelo://app?vid=7adf842b-4b8c-4356-a23f-1be0cbaf4d21"},"vehicle_type_id":"4","last_reported":1729609782,"current_range_meters":8800,"station_id":"ce4bhu92rcd13ifvqi70","pricing_plan_id":"cebpf4jnsgd1na2vs0mg"},{"bike_id":"3fbb21dc-457c-4028-8cc7-8a7ddebb915c","system_id":"levelo_inurba_marseille","lat":43.23188,"lon":5.35546,"is_reserved":false,"is_disabled":false,"rental_uris":{"android":"levelo://app?vid=3fbb21dc-457c-4028-8cc7-8a7ddebb915c","ios":"levelo://app?vid=3fbb21dc-457c-4028-8cc7-8a7ddebb915c"},"vehicle_type_id":"4","last_reported":1729609782,"current_range_meters":36000,"station_id":"ce4bhu92rcd13ifvqi70","pricing_plan_id":"cebpf4jnsgd1na2vs0mg"},{"bike_id":"8d66234d-ed10-4a56-b9bf-7024ed1a6c9c","system_id":"levelo_inurba_marseille","lat":43.32642,"lon":5.37872,"is_reserved":false,"is_disabled":false,"rental_uris":{"android":"levelo://app?vid=8d66234d-ed10-4a56-b9bf-7024ed1a6c9c","ios":"levelo://app?vid=8d66234d-ed10-4a56-b9bf-7024ed1a6c9c"},"vehicle_type_id":"4","last_reported":1729609782,"current_range_meters":6400,"station_id":"","pricing_plan_id":"cebpf4jnsgd1na2vs0mg"},{"bike_id":"cf101c07-2363-436e-b4ce-b02ee1dc297a","system_id":"levelo_inurba_marseille","lat":43.30786,"lon":5.37645,"is_reserved":false,"is_disabled":false,"rental_uris":{"android":"levelo://app?vid=cf101c07-2363-436e-b4ce-b02ee1dc297a","ios":"levelo://app?vid=cf101c07-2363-436e-b4ce-b02ee1dc297a"},"vehicle_type_id":"4","last_reported":1729609782,"current_range_meters":20800,"station_id":"ce4bgv92rcd13ifvqcq0","pricing_plan_id":"cebpf4jnsgd1na2vs0mg"},{"bike_id":"affd4077-6e2d-4425-9e7f-63e814646eaf","system_id":"levelo_inurba_marseille","lat":43.28667,"lon":5.36352,"is_reserved":false,"is_disabled":false,"rental_uris":{"android":"levelo://app?vid=affd4077-6e2d-4425-9e7f-63e814646eaf","ios":"levelo://app?vid=affd4077-6e2d-4425-9e7f-63e814646eaf"},"vehicle_type_id":"4","last_reported":1729609782,"current_range_meters":22000,"station_id":"ce4bhah2rcd13ifvqej0","pricing_plan_id":"cebpf4jnsgd1na2vs0mg"},{"bike_id":"96edc594-d43a-4c1f-9576-f89ef53c1e38","system_id":"levelo_inurba_marseille","lat":43.25825,"lon":5.39438,"is_reserved":false,"is_disabled":false,"rental_uris":{"android":"levelo://app?vid=96edc594-d43a-4c1f-9576-f89ef53c1e38","ios":"levelo://app?vid=96edc594-d43a-4c1f-9576-f89ef53c1e38"},"vehicle_type_id":"4","last_reported":1729609782,"current_range_meters":36000,"station_id":"ce4bhip2rcd13ifvqft0","pricing_plan_id":"cebpf4jnsgd1na2vs0mg"},{"bike_id":"473db322-d75d-4cb3-a22c-f1fd04f943f5","system_id":"levelo_inurba_marseille","lat":43.25091,"lon":5.3954,"is_reserved":false,"is_disabled":false,"rental_uris":{"android":"levelo://app?vid=473db322-d75d-4cb3-a22c-f1fd04f943f5","ios":"levelo://app?vid=473db322-d75d-4cb3-a22c-f1fd04f943f5"},"vehicle_type_id":"4","last_reported":1729609782,"current_range_meters":8000,"station_id":"ce4bhm12rcd13ifvqgkg","pricing_plan_id":"cebpf4jnsgd1na2vs0mg"},{"bike_id":"f48b9292-5b23-4c1d-b443-99520d182fe9","system_id":"levelo_inurba_marseille","lat":43.31712,"lon":5.37765,"is_reserved":false,"is_disabled":false,"rental_uris":{"android":"levelo://app?vid=f48b9292-5b23-4c1d-b443-99520d182fe9","ios":"levelo://app?vid=f48b9292-5b23-4c1d-b443-99520d182fe9"},"vehicle_type_id":"4","last_reported":1729609782,"current_range_meters":34000,"station_id":"ce4bgth2rcd13ifvqch0","pricing_plan_id":"cebpf4jnsgd1na2vs0mg"},{"bike_id":"989b1924-58fd-421d-978c-38dac47e6bf0","system_id":"levelo_inurba_marseille","lat":43.3088,"lon":5.39648,"is_reserved":false,"is_disabled":false,"rental_uris":{"android":"levelo://app?vid=989b1924-58fd-421d-978c-38dac47e6bf0","ios":"levelo://app?vid=989b1924-58fd-421d-978c-38dac47e6bf0"},"vehicle_type_id":"4","last_reported":1729609782,"current_range_meters":8000,"station_id":"ce4bh012rcd13ifvqcv0","pricing_plan_id":"cebpf4jnsgd1na2vs0mg"},{"bike_id":"155517ef-0a83-4c87-b2da-fb3d8d259bc7","system_id":"levelo_inurba_marseille","lat":43.25576,"lon":5.38239,"is_reserved":false,"is_disabled":false,"rental_uris":{"android":"levelo://app?vid=155517ef-0a83-4c87-b2da-fb3d8d259bc7","ios":"levelo://app?vid=155517ef-0a83-4c87-b2da-fb3d8d259bc7"},"vehicle_type_id":"4","last_reported":1729609782,"current_range_meters":36800,"station_id":"ce4bhih2rcd13ifvqfs0","pricing_plan_id":"cebpf4jnsgd1na2vs0mg"},{"bike_id":"9f005009-16e6-4aa9-94d9-305f4b23807d","system_id":"levelo_inurba_marseille","lat":43.29624,"lon":5.37157,"is_reserved":false,"is_disabled":false,"rental_uris":{"android":"levelo://app?vid=9f005009-16e6-4aa9-94d9-305f4b23807d","ios":"levelo://app?vid=9f005009-16e6-4aa9-94d9-305f4b23807d"},"vehicle_type_id":"4","last_reported":1729609782,"current_range_meters":38400,"station_id":"ce4bgnh2rcd13ifvqc0g","pricing_plan_id":"cebpf4jnsgd1na2vs0mg"},{"bike_id":"5fa52629-ee3c-4d2f-a571-41a405eaf439","system_id":"levelo_inurba_marseille","lat":43.27998,"lon":5.40013,"is_reserved":false,"is_disabled":false,"rental_uris":{"android":"levelo://app?vid=5fa52629-ee3c-4d2f-a571-41a405eaf439","ios":"levelo://app?vid=5fa52629-ee3c-4d2f-a571-41a405eaf439"},"vehicle_type_id":"4","last_reported":1729609782,"current_range_meters":14000,"station_id":"ce4bho92rcd13ifvqh4g","pricing_plan_id":"cebpf4jnsgd1na2vs0mg"},{"bike_id":"59b6770a-0e2a-4508-89d0-81c0a859b837","system_id":"levelo_inurba_marseille","lat":43.29529,"lon":5.38542,"is_reserved":false,"is_disabled":false,"rental_uris":{"android":"levelo://app?vid=59b6770a-0e2a-4508-89d0-81c0a859b837","ios":"levelo://app?vid=59b6770a-0e2a-4508-89d0-81c0a859b837"},"vehicle_type_id":"4","last_reported":1729609782,"current_range_meters":24400,"station_id":"ce4bgih2rcd13ifvqba0","pricing_plan_id":"cebpf4jnsgd1na2vs0mg"},{"bike_id":"6b63d172-a2c8-46da-9750-2226af7381c0","system_id":"levelo_inurba_marseille","lat":43.23962,"lon":5.36635,"is_reserved":false,"is_disabled":false,"rental_uris":{"android":"levelo://app?vid=6b63d172-a2c8-46da-9750-2226af7381c0","ios":"levelo://app?vid=6b63d172-a2c8-46da-9750-2226af7381c0"},"vehicle_type_id":"4","last_reported":1729609782,"current_range_meters":37600,"station_id":"ce4bhi12rcd13ifvqfp0","pricing_plan_id":"cebpf4jnsgd1na2vs0mg"},{"bike_id":"262d6295-809d-45c9-9768-b3b5a2cf90b7","system_id":"levelo_inurba_marseille","lat":43.3134,"lon":5.36757,"is_reserved":false,"is_disabled":false,"rental_uris":{"android":"levelo://app?vid=262d6295-809d-45c9-9768-b3b5a2cf90b7","ios":"levelo://app?vid=262d6295-809d-45c9-9768-b3b5a2cf90b7"},"vehicle_type_id":"4","last_reported":1729609782,"current_range_meters":26800,"station_id":"ce4bgr92rcd13ifvqc6g","pricing_plan_id":"cebpf4jnsgd1na2vs0mg"},{"bike_id":"c3945b60-e38d-4106-8f18-92c7f436cc4f","system_id":"levelo_inurba_marseille","lat":43.33757,"lon":5.37448,"is_reserved":false,"is_disabled":false,"rental_uris":{"android":"levelo://app?vid=c3945b60-e38d-4106-8f18-92c7f436cc4f","ios":"levelo://app?vid=c3945b60-e38d-4106-8f18-92c7f436cc4f"},"vehicle_type_id":"4","last_reported":1729609782,"current_range_meters":31200,"station_id":"","pricing_plan_id":"cebpf4jnsgd1na2vs0mg"},{"bike_id":"5ca82227-801b-4c72-8a84-8ea5a8cbc973","system_id":"levelo_inurba_marseille","lat":43.29169,"lon":5.37163,"is_reserved":false,"is_disabled":false,"rental_uris":{"android":"levelo://app?vid=5ca82227-801b-4c72-8a84-8ea5a8cbc973","ios":"levelo://app?vid=5ca82227-801b-4c72-8a84-8ea5a8cbc973"},"vehicle_type_id":"4","last_reported":1729609782,"current_range_meters":14400,"station_id":"ce4bha92rcd13ifvqeh0","pricing_plan_id":"cebpf4jnsgd1na2vs0mg"},{"bike_id":"9819146e-6e38-4bfb-8718-b0a15928bc96","system_id":"levelo_inurba_marseille","lat":43.31358,"lon":5.36706,"is_reserved":false,"is_disabled":false,"rental_uris":{"android":"levelo://app?vid=9819146e-6e38-4bfb-8718-b0a15928bc96","ios":"levelo://app?vid=9819146e-6e38-4bfb-8718-b0a15928bc96"},"vehicle_type_id":"4","last_reported":1729609782,"current_range_meters":27600,"station_id":"ce4bgr92rcd13ifvqc6g","pricing_plan_id":"cebpf4jnsgd1na2vs0mg"},{"bike_id":"05af5ea4-045a-4347-8e16-5aa754c2c4ae","system_id":"levelo_inurba_marseille","lat":43.30132,"lon":5.39869,"is_reserved":false,"is_disabled":false,"rental_uris":{"android":"levelo://app?vid=05af5ea4-045a-4347-8e16-5aa754c2c4ae","ios":"levelo://app?vid=05af5ea4-045a-4347-8e16-5aa754c2c4ae"},"vehicle_type_id":"4","last_reported":1729609782,"current_range_meters":24800,"station_id":"ce4bh0h2rcd13ifvqd40","pricing_plan_id":"cebpf4jnsgd1na2vs0mg"},{"bike_id":"660cfd81-6edb-43e0-bae3-046cc29994a0","system_id":"levelo_inurba_marseille","lat":43.29532,"lon":5.38543,"is_reserved":false,"is_disabled":false,"rental_uris":{"android":"levelo://app?vid=660cfd81-6edb-43e0-bae3-046cc29994a0","ios":"levelo://app?vid=660cfd81-6edb-43e0-bae3-046cc29994a0"},"vehicle_type_id":"4","last_reported":1729609782,"current_range_meters":36000,"station_id":"ce4bgih2rcd13ifvqba0","pricing_plan_id":"cebpf4jnsgd1na2vs0mg"},{"bike_id":"6c9d0a5c-2567-48c2-9807-9f65f5b0684c","system_id":"levelo_inurba_marseille","lat":43.30024,"lon":5.37989,"is_reserved":false,"is_disabled":false,"rental_uris":{"android":"levelo://app?vid=6c9d0a5c-2567-48c2-9807-9f65f5b0684c","ios":"levelo://app?vid=6c9d0a5c-2567-48c2-9807-9f65f5b0684c"},"vehicle_type_id":"4","last_reported":1729609782,"current_range_meters":3200,"station_id":"","pricing_plan_id":"cebpf4jnsgd1na2vs0mg"},{"bike_id":"e1af1c65-0d6c-4799-859b-99dcfcf9ce74","system_id":"levelo_inurba_marseille","lat":43.28156,"lon":5.4264,"is_reserved":false,"is_disabled":false,"rental_uris":{"android":"levelo://app?vid=e1af1c65-0d6c-4799-859b-99dcfcf9ce74","ios":"levelo://app?vid=e1af1c65-0d6c-4799-859b-99dcfcf9ce74"},"vehicle_type_id":"4","last_reported":1729609782,"current_range_meters":17600,"station_id":"ce4bhnh2rcd13ifvqgug","pricing_plan_id":"cebpf4jnsgd1na2vs0mg"},{"bike_id":"7610c056-a6e8-456a-83c8-1758c87ebcd7","system_id":"levelo_inurba_marseille","lat":43.30303,"lon":5.39216,"is_reserved":false,"is_disabled":false,"rental_uris":{"android":"levelo://app?vid=7610c056-a6e8-456a-83c8-1758c87ebcd7","ios":"levelo://app?vid=7610c056-a6e8-456a-83c8-1758c87ebcd7"},"vehicle_type_id":"4","last_reported":1729609782,"current_range_meters":16800,"station_id":"ce4bgkh2rcd13ifvqbk0","pricing_plan_id":"cebpf4jnsgd1na2vs0mg"},{"bike_id":"136589d6-3acc-4873-82da-a6f263071720","system_id":"levelo_inurba_marseille","lat":43.28464,"lon":5.35891,"is_reserved":false,"is_disabled":false,"rental_uris":{"android":"levelo://app?vid=136589d6-3acc-4873-82da-a6f263071720","ios":"levelo://app?vid=136589d6-3acc-4873-82da-a6f263071720"},"vehicle_type_id":"4","last_reported":1729609782,"current_range_meters":38800,"station_id":"ce4bhah2rcd13ifvqei0","pricing_plan_id":"cebpf4jnsgd1na2vs0mg"},{"bike_id":"281b1bb7-653b-4de6-8793-ff75da76ab66","system_id":"levelo_inurba_marseille","lat":43.29545,"lon":5.37482,"is_reserved":false,"is_disabled":false,"rental_uris":{"android":"levelo://app?vid=281b1bb7-653b-4de6-8793-ff75da76ab66","ios":"levelo://app?vid=281b1bb7-653b-4de6-8793-ff75da76ab66"},"vehicle_type_id":"4","last_reported":1729609782,"current_range_meters":7200,"station_id":"ce4bha12rcd13ifvqee0","pricing_plan_id":"cebpf4jnsgd1na2vs0mg"},{"bike_id":"b3a23fac-0e5e-4526-aa6c-43103c89cc2e","system_id":"levelo_inurba_marseille","lat":43.31324,"lon":5.39691,"is_reserved":false,"is_disabled":false,"rental_uris":{"android":"levelo://app?vid=b3a23fac-0e5e-4526-aa6c-43103c89cc2e","ios":"levelo://app?vid=b3a23fac-0e5e-4526-aa6c-43103c89cc2e"},"vehicle_type_id":"4","last_reported":1729609782,"current_range_meters":8800,"station_id":"ce4bgvp2rcd13ifvqcu0","pricing_plan_id":"cebpf4jnsgd1na2vs0mg"},{"bike_id":"b209153b-361e-40ec-b26c-4fe047d03720","system_id":"levelo_inurba_marseille","lat":43.2808,"lon":5.39659,"is_reserved":false,"is_disabled":false,"rental_uris":{"android":"levelo://app?vid=b209153b-361e-40ec-b26c-4fe047d03720","ios":"levelo://app?vid=b209153b-361e-40ec-b26c-4fe047d03720"},"vehicle_type_id":"4","last_reported":1729609782,"current_range_meters":8800,"station_id":"ce4bho12rcd13ifvqh2g","pricing_plan_id":"cebpf4jnsgd1na2vs0mg"},{"bike_id":"86dca0f1-2e38-44fc-8f45-f37a3110e1ab","system_id":"levelo_inurba_marseille","lat":43.31364,"lon":5.3849,"is_reserved":false,"is_disabled":false,"rental_uris":{"android":"levelo://app?vid=86dca0f1-2e38-44fc-8f45-f37a3110e1ab","ios":"levelo://app?vid=86dca0f1-2e38-44fc-8f45-f37a3110e1ab"},"vehicle_type_id":"4","last_reported":1729609782,"current_range_meters":16000,"station_id":"ce4bgt92rcd13ifvqcf0","pricing_plan_id":"cebpf4jnsgd1na2vs0mg"},{"bike_id":"6a969058-36a9-4fbb-991f-90d755340b71","system_id":"levelo_inurba_marseille","lat":43.29531,"lon":5.38547,"is_reserved":false,"is_disabled":false,"rental_uris":{"android":"levelo://app?vid=6a969058-36a9-4fbb-991f-90d755340b71","ios":"levelo://app?vid=6a969058-36a9-4fbb-991f-90d755340b71"},"vehicle_type_id":"4","last_reported":1729609782,"current_range_meters":38400,"station_id":"ce4bgih2rcd13ifvqba0","pricing_plan_id":"cebpf4jnsgd1na2vs0mg"},{"bike_id":"382f8b74-5cc0-4ecc-aac3-cb7428397d32","system_id":"levelo_inurba_marseille","lat":43.31357,"lon":5.36714,"is_reserved":false,"is_disabled":false,"rental_uris":{"android":"levelo://app?vid=382f8b74-5cc0-4ecc-aac3-cb7428397d32","ios":"levelo://app?vid=382f8b74-5cc0-4ecc-aac3-cb7428397d32"},"vehicle_type_id":"4","last_reported":1729609782,"current_range_meters":21600,"station_id":"ce4bgr92rcd13ifvqc6g","pricing_plan_id":"cebpf4jnsgd1na2vs0mg"},{"bike_id":"86578ced-a15e-4055-a884-1e60353ea7b6","system_id":"levelo_inurba_marseille","lat":43.29895,"lon":5.385102,"is_reserved":false,"is_disabled":false,"rental_uris":{"android":"levelo://app?vid=86578ced-a15e-4055-a884-1e60353ea7b6","ios":"levelo://app?vid=86578ced-a15e-4055-a884-1e60353ea7b6"},"vehicle_type_id":"4","last_reported":1729609782,"current_range_meters":24400,"station_id":"","pricing_plan_id":"cebpf4jnsgd1na2vs0mg"},{"bike_id":"a85ece57-8b35-4011-bdcc-d3ff873e3424","system_id":"levelo_inurba_marseille","lat":43.286194,"lon":5.36126,"is_reserved":false,"is_disabled":false,"rental_uris":{"android":"levelo://app?vid=a85ece57-8b35-4011-bdcc-d3ff873e3424","ios":"levelo://app?vid=a85ece57-8b35-4011-bdcc-d3ff873e3424"},"vehicle_type_id":"4","last_reported":1729609782,"current_range_meters":26000,"station_id":"ce4bh2h2rcd13ifvqdh0","pricing_plan_id":"cebpf4jnsgd1na2vs0mg"},{"bike_id":"d8d30b00-c51f-42c1-a4bc-5be916aaba37","system_id":"levelo_inurba_marseille","lat":43.2959,"lon":5.37369,"is_reserved":false,"is_disabled":false,"rental_uris":{"android":"levelo://app?vid=d8d30b00-c51f-42c1-a4bc-5be916aaba37","ios":"levelo://app?vid=d8d30b00-c51f-42c1-a4bc-5be916aaba37"},"vehicle_type_id":"4","last_reported":1729609782,"current_range_meters":28800,"station_id":"","pricing_plan_id":"cebpf4jnsgd1na2vs0mg"},{"bike_id":"895457cb-3f58-478f-968d-e0c6a2a304f8","system_id":"levelo_inurba_marseille","lat":43.25582,"lon":5.38235,"is_reserved":false,"is_disabled":false,"rental_uris":{"android":"levelo://app?vid=895457cb-3f58-478f-968d-e0c6a2a304f8","ios":"levelo://app?vid=895457cb-3f58-478f-968d-e0c6a2a304f8"},"vehicle_type_id":"4","last_reported":1729609782,"current_range_meters":32800,"station_id":"ce4bhih2rcd13ifvqfs0","pricing_plan_id":"cebpf4jnsgd1na2vs0mg"},{"bike_id":"6315be27-036a-43fa-9177-253a0fac7760","system_id":"levelo_inurba_marseille","lat":43.29013,"lon":5.38124,"is_reserved":false,"is_disabled":false,"rental_uris":{"android":"levelo://app?vid=6315be27-036a-43fa-9177-253a0fac7760","ios":"levelo://app?vid=6315be27-036a-43fa-9177-253a0fac7760"},"vehicle_type_id":"4","last_reported":1729609782,"current_range_meters":38000,"station_id":"ce4bh4p2rcd13ifvqe1g","pricing_plan_id":"cebpf4jnsgd1na2vs0mg"},{"bike_id":"f5e7b89d-e871-4da2-9801-15e210469b63","system_id":"levelo_inurba_marseille","lat":43.292012,"lon":5.357978,"is_reserved":false,"is_disabled":false,"rental_uris":{"android":"levelo://app?vid=f5e7b89d-e871-4da2-9801-15e210469b63","ios":"levelo://app?vid=f5e7b89d-e871-4da2-9801-15e210469b63"},"vehicle_type_id":"4","last_reported":1729609782,"current_range_meters":9200,"station_id":"ce4bhb12rcd13ifvqel0","pricing_plan_id":"cebpf4jnsgd1na2vs0mg"},{"bike_id":"24b981e3-f1ae-448a-bb7f-b7c5b3437a63","system_id":"levelo_inurba_marseille","lat":43.254944,"lon":5.376474,"is_reserved":false,"is_disabled":false,"rental_uris":{"android":"levelo://app?vid=24b981e3-f1ae-448a-bb7f-b7c5b3437a63","ios":"levelo://app?vid=24b981e3-f1ae-448a-bb7f-b7c5b3437a63"},"vehicle_type_id":"4","last_reported":1729609782,"current_range_meters":24800,"station_id":"ce4bhh12rcd13ifvqff0","pricing_plan_id":"cebpf4jnsgd1na2vs0mg"},{"bike_id":"5b042f17-fd5b-463a-af99-4bc320555cb5","system_id":"levelo_inurba_marseille","lat":43.27611,"lon":5.36107,"is_reserved":false,"is_disabled":false,"rental_uris":{"android":"levelo://app?vid=5b042f17-fd5b-463a-af99-4bc320555cb5","ios":"levelo://app?vid=5b042f17-fd5b-463a-af99-4bc320555cb5"},"vehicle_type_id":"4","last_reported":1729609782,"current_range_meters":16800,"station_id":"ce4bgj92rcd13ifvqbe0","pricing_plan_id":"cebpf4jnsgd1na2vs0mg"},{"bike_id":"389fdf0a-fbec-40c4-a259-022e7e1c54ab","system_id":"levelo_inurba_marseille","lat":43.284875,"lon":5.365035,"is_reserved":false,"is_disabled":false,"rental_uris":{"android":"levelo://app?vid=389fdf0a-fbec-40c4-a259-022e7e1c54ab","ios":"levelo://app?vid=389fdf0a-fbec-40c4-a259-022e7e1c54ab"},"vehicle_type_id":"4","last_reported":1729609782,"current_range_meters":26000,"station_id":"","pricing_plan_id":"cebpf4jnsgd1na2vs0mg"},{"bike_id":"e68074ff-f5e2-424b-ac9b-aa2b95174368","system_id":"levelo_inurba_marseille","lat":43.28151,"lon":5.42642,"is_reserved":false,"is_disabled":false,"rental_uris":{"android":"levelo://app?vid=e68074ff-f5e2-424b-ac9b-aa2b95174368","ios":"levelo://app?vid=e68074ff-f5e2-424b-ac9b-aa2b95174368"},"vehicle_type_id":"4","last_reported":1729609782,"current_range_meters":30000,"station_id":"ce4bhnh2rcd13ifvqgug","pricing_plan_id":"cebpf4jnsgd1na2vs0mg"},{"bike_id":"815dd284-1bd2-4bb9-992a-b2116e2485bc","system_id":"levelo_inurba_marseille","lat":43.32778,"lon":5.36157,"is_reserved":false,"is_disabled":false,"rental_uris":{"android":"levelo://app?vid=815dd284-1bd2-4bb9-992a-b2116e2485bc","ios":"levelo://app?vid=815dd284-1bd2-4bb9-992a-b2116e2485bc"},"vehicle_type_id":"4","last_reported":1729609782,"current_range_meters":33200,"station_id":"","pricing_plan_id":"cebpf4jnsgd1na2vs0mg"},{"bike_id":"f4b4b39f-d4ef-4f00-ab75-8d2ce5524735","system_id":"levelo_inurba_marseille","lat":43.2958,"lon":5.36738,"is_reserved":false,"is_disabled":false,"rental_uris":{"android":"levelo://app?vid=f4b4b39f-d4ef-4f00-ab75-8d2ce5524735","ios":"levelo://app?vid=f4b4b39f-d4ef-4f00-ab75-8d2ce5524735"},"vehicle_type_id":"4","last_reported":1729609782,"current_range_meters":32000,"station_id":"ce4bgph2rcd13ifvqc2g","pricing_plan_id":"cebpf4jnsgd1na2vs0mg"},{"bike_id":"a6becff1-00d3-47fa-8898-3ba6d7221fbe","system_id":"levelo_inurba_marseille","lat":43.23195,"lon":5.35545,"is_reserved":false,"is_disabled":false,"rental_uris":{"android":"levelo://app?vid=a6becff1-00d3-47fa-8898-3ba6d7221fbe","ios":"levelo://app?vid=a6becff1-00d3-47fa-8898-3ba6d7221fbe"},"vehicle_type_id":"4","last_reported":1729609782,"current_range_meters":36400,"station_id":"ce4bhu92rcd13ifvqi70","pricing_plan_id":"cebpf4jnsgd1na2vs0mg"},{"bike_id":"54a4b637-5230-4920-931d-88a122e5b197","system_id":"levelo_inurba_marseille","lat":43.279446,"lon":5.41044,"is_reserved":false,"is_disabled":false,"rental_uris":{"android":"levelo://app?vid=54a4b637-5230-4920-931d-88a122e5b197","ios":"levelo://app?vid=54a4b637-5230-4920-931d-88a122e5b197"},"vehicle_type_id":"4","last_reported":1729609782,"current_range_meters":6400,"station_id":"ce4bgt92rcd13ifvqcf0","pricing_plan_id":"cebpf4jnsgd1na2vs0mg"},{"bike_id":"be5d828b-df90-4ad2-b59d-ba3093879b03","system_id":"levelo_inurba_marseille","lat":43.27375,"lon":5.36277,"is_reserved":false,"is_disabled":false,"rental_uris":{"android":"levelo://app?vid=be5d828b-df90-4ad2-b59d-ba3093879b03","ios":"levelo://app?vid=be5d828b-df90-4ad2-b59d-ba3093879b03"},"vehicle_type_id":"4","last_reported":1729609782,"current_range_meters":30800,"station_id":"ce4bhbh2rcd13ifvqeo0","pricing_plan_id":"cebpf4jnsgd1na2vs0mg"},{"bike_id":"6f397a2c-c9b2-43c1-8b6c-85fd3b763542","system_id":"levelo_inurba_marseille","lat":43.30122,"lon":5.39859,"is_reserved":false,"is_disabled":false,"rental_uris":{"android":"levelo://app?vid=6f397a2c-c9b2-43c1-8b6c-85fd3b763542","ios":"levelo://app?vid=6f397a2c-c9b2-43c1-8b6c-85fd3b763542"},"vehicle_type_id":"4","last_reported":1729609782,"current_range_meters":24000,"station_id":"ce4bh0h2rcd13ifvqd40","pricing_plan_id":"cebpf4jnsgd1na2vs0mg"},{"bike_id":"be215221-395a-4d0c-b3e2-8369c51a5b57","system_id":"levelo_inurba_marseille","lat":43.27379,"lon":5.36273,"is_reserved":false,"is_disabled":false,"rental_uris":{"android":"levelo://app?vid=be215221-395a-4d0c-b3e2-8369c51a5b57","ios":"levelo://app?vid=be215221-395a-4d0c-b3e2-8369c51a5b57"},"vehicle_type_id":"4","last_reported":1729609782,"current_range_meters":9600,"station_id":"ce4bhbh2rcd13ifvqeo0","pricing_plan_id":"cebpf4jnsgd1na2vs0mg"},{"bike_id":"5b842d63-a4bb-4e79-97ae-7e036a2a17c4","system_id":"levelo_inurba_marseille","lat":43.290253,"lon":5.375646,"is_reserved":false,"is_disabled":false,"rental_uris":{"android":"levelo://app?vid=5b842d63-a4bb-4e79-97ae-7e036a2a17c4","ios":"levelo://app?vid=5b842d63-a4bb-4e79-97ae-7e036a2a17c4"},"vehicle_type_id":"4","last_reported":1729609782,"current_range_meters":10000,"station_id":"ce4bh692rcd13ifvqe90","pricing_plan_id":"cebpf4jnsgd1na2vs0mg"},{"bike_id":"bf8d0617-6bef-47ca-8c84-936cfebcc97c","system_id":"levelo_inurba_marseille","lat":43.32112,"lon":5.36783,"is_reserved":false,"is_disabled":false,"rental_uris":{"android":"levelo://app?vid=bf8d0617-6bef-47ca-8c84-936cfebcc97c","ios":"levelo://app?vid=bf8d0617-6bef-47ca-8c84-936cfebcc97c"},"vehicle_type_id":"4","last_reported":1729609782,"current_range_meters":16000,"station_id":"ce4bhrh2rcd13ifvqhug","pricing_plan_id":"cebpf4jnsgd1na2vs0mg"},{"bike_id":"22d3c1df-03d5-4c8d-839a-7164ff19b533","system_id":"levelo_inurba_marseille","lat":43.27204,"lon":5.39188,"is_reserved":false,"is_disabled":false,"rental_uris":{"android":"levelo://app?vid=22d3c1df-03d5-4c8d-839a-7164ff19b533","ios":"levelo://app?vid=22d3c1df-03d5-4c8d-839a-7164ff19b533"},"vehicle_type_id":"4","last_reported":1729609782,"current_range_meters":24400,"station_id":"ce4bhhp2rcd13ifvqfm0","pricing_plan_id":"cebpf4jnsgd1na2vs0mg"},{"bike_id":"ec01afc0-691c-4f2d-a82e-21f252e87fc8","system_id":"levelo_inurba_marseille","lat":43.28002,"lon":5.40022,"is_reserved":false,"is_disabled":false,"rental_uris":{"android":"levelo://app?vid=ec01afc0-691c-4f2d-a82e-21f252e87fc8","ios":"levelo://app?vid=ec01afc0-691c-4f2d-a82e-21f252e87fc8"},"vehicle_type_id":"4","last_reported":1729609782,"current_range_meters":10800,"station_id":"ce4bho92rcd13ifvqh4g","pricing_plan_id":"cebpf4jnsgd1na2vs0mg"},{"bike_id":"f31a4126-fd01-434e-b605-d49ebff794bf","system_id":"levelo_inurba_marseille","lat":43.27322,"lon":5.39073,"is_reserved":false,"is_disabled":false,"rental_uris":{"android":"levelo://app?vid=f31a4126-fd01-434e-b605-d49ebff794bf","ios":"levelo://app?vid=f31a4126-fd01-434e-b605-d49ebff794bf"},"vehicle_type_id":"4","last_reported":1729609782,"current_range_meters":24400,"station_id":"ce4bhgp2rcd13ifvqfe0","pricing_plan_id":"cebpf4jnsgd1na2vs0mg"},{"bike_id":"29770def-9900-459d-bf11-125a639fb340","system_id":"levelo_inurba_marseille","lat":43.29084,"lon":5.37164,"is_reserved":false,"is_disabled":false,"rental_uris":{"android":"levelo://app?vid=29770def-9900-459d-bf11-125a639fb340","ios":"levelo://app?vid=29770def-9900-459d-bf11-125a639fb340"},"vehicle_type_id":"4","last_reported":1729609782,"current_range_meters":28800,"station_id":"ce4bh5p2rcd13ifvqe4g","pricing_plan_id":"cebpf4jnsgd1na2vs0mg"},{"bike_id":"0287c966-5b8a-4070-b2c7-513f4d958196","system_id":"levelo_inurba_marseille","lat":43.24545,"lon":5.39526,"is_reserved":false,"is_disabled":false,"rental_uris":{"android":"levelo://app?vid=0287c966-5b8a-4070-b2c7-513f4d958196","ios":"levelo://app?vid=0287c966-5b8a-4070-b2c7-513f4d958196"},"vehicle_type_id":"4","last_reported":1729609782,"current_range_meters":32000,"station_id":"ce4bhlp2rcd13ifvqgjg","pricing_plan_id":"cebpf4jnsgd1na2vs0mg"},{"bike_id":"e2a91c29-6c61-4ed7-9441-bda5078df3f8","system_id":"levelo_inurba_marseille","lat":43.27373,"lon":5.3626,"is_reserved":false,"is_disabled":false,"rental_uris":{"android":"levelo://app?vid=e2a91c29-6c61-4ed7-9441-bda5078df3f8","ios":"levelo://app?vid=e2a91c29-6c61-4ed7-9441-bda5078df3f8"},"vehicle_type_id":"4","last_reported":1729609782,"current_range_meters":38000,"station_id":"ce4bhbh2rcd13ifvqeo0","pricing_plan_id":"cebpf4jnsgd1na2vs0mg"},{"bike_id":"aacbf68b-d886-4141-bb70-8bc8a95e74f7","system_id":"levelo_inurba_marseille","lat":43.29055,"lon":5.35909,"is_reserved":false,"is_disabled":false,"rental_uris":{"android":"levelo://app?vid=aacbf68b-d886-4141-bb70-8bc8a95e74f7","ios":"levelo://app?vid=aacbf68b-d886-4141-bb70-8bc8a95e74f7"},"vehicle_type_id":"4","last_reported":1729609782,"current_range_meters":36800,"station_id":"ce4bha92rcd13ifvqeg0","pricing_plan_id":"cebpf4jnsgd1na2vs0mg"},{"bike_id":"a43891ee-4528-436c-a11b-3e93a1724f98","system_id":"levelo_inurba_marseille","lat":43.29042,"lon":5.37559,"is_reserved":false,"is_disabled":false,"rental_uris":{"android":"levelo://app?vid=a43891ee-4528-436c-a11b-3e93a1724f98","ios":"levelo://app?vid=a43891ee-4528-436c-a11b-3e93a1724f98"},"vehicle_type_id":"4","last_reported":1729609782,"current_range_meters":3600,"station_id":"ce4bh692rcd13ifvqe90","pricing_plan_id":"cebpf4jnsgd1na2vs0mg"},{"bike_id":"30d138e5-dea9-4285-b49f-82f8b5da6492","system_id":"levelo_inurba_marseille","lat":43.2885,"lon":5.3587,"is_reserved":false,"is_disabled":false,"rental_uris":{"android":"levelo://app?vid=30d138e5-dea9-4285-b49f-82f8b5da6492","ios":"levelo://app?vid=30d138e5-dea9-4285-b49f-82f8b5da6492"},"vehicle_type_id":"4","last_reported":1729609782,"current_range_meters":25200,"station_id":"ce4bhb12rcd13ifvqem0","pricing_plan_id":"cebpf4jnsgd1na2vs0mg"},{"bike_id":"bbb84824-fb95-430e-ae39-b2a0b09ec78b","system_id":"levelo_inurba_marseille","lat":43.31349,"lon":5.36721,"is_reserved":false,"is_disabled":false,"rental_uris":{"android":"levelo://app?vid=bbb84824-fb95-430e-ae39-b2a0b09ec78b","ios":"levelo://app?vid=bbb84824-fb95-430e-ae39-b2a0b09ec78b"},"vehicle_type_id":"4","last_reported":1729609782,"current_range_meters":26000,"station_id":"ce4bgr92rcd13ifvqc6g","pricing_plan_id":"cebpf4jnsgd1na2vs0mg"},{"bike_id":"a4ffbba9-39d6-4011-9e2f-0a76ede03066","system_id":"levelo_inurba_marseille","lat":43.29596,"lon":5.38112,"is_reserved":false,"is_disabled":false,"rental_uris":{"android":"levelo://app?vid=a4ffbba9-39d6-4011-9e2f-0a76ede03066","ios":"levelo://app?vid=a4ffbba9-39d6-4011-9e2f-0a76ede03066"},"vehicle_type_id":"4","last_reported":1729609782,"current_range_meters":28000,"station_id":"ce4bgl12rcd13ifvqbo0","pricing_plan_id":"cebpf4jnsgd1na2vs0mg"},{"bike_id":"2fc37197-3f76-4b2a-bafb-617bd742aeda","system_id":"levelo_inurba_marseille","lat":43.24397,"lon":5.37066,"is_reserved":false,"is_disabled":false,"rental_uris":{"android":"levelo://app?vid=2fc37197-3f76-4b2a-bafb-617bd742aeda","ios":"levelo://app?vid=2fc37197-3f76-4b2a-bafb-617bd742aeda"},"vehicle_type_id":"4","last_reported":1729609782,"current_range_meters":22000,"station_id":"ce4bhhh2rcd13ifvqfk0","pricing_plan_id":"cebpf4jnsgd1na2vs0mg"},{"bike_id":"8ba8ca74-0797-4e39-8abc-83001a6cc70a","system_id":"levelo_inurba_marseille","lat":43.25727,"lon":5.41105,"is_reserved":false,"is_disabled":false,"rental_uris":{"android":"levelo://app?vid=8ba8ca74-0797-4e39-8abc-83001a6cc70a","ios":"levelo://app?vid=8ba8ca74-0797-4e39-8abc-83001a6cc70a"},"vehicle_type_id":"4","last_reported":1729609782,"current_range_meters":8000,"station_id":"ce4bhkp2rcd13ifvqgd0","pricing_plan_id":"cebpf4jnsgd1na2vs0mg"},{"bike_id":"f801a972-c648-424a-a7e1-9d8a4bf001b1","system_id":"levelo_inurba_marseille","lat":43.280336,"lon":5.36943,"is_reserved":false,"is_disabled":false,"rental_uris":{"android":"levelo://app?vid=f801a972-c648-424a-a7e1-9d8a4bf001b1","ios":"levelo://app?vid=f801a972-c648-424a-a7e1-9d8a4bf001b1"},"vehicle_type_id":"4","last_reported":1729609782,"current_range_meters":38400,"station_id":"ce4bha12rcd13ifvqef0","pricing_plan_id":"cebpf4jnsgd1na2vs0mg"},{"bike_id":"fbbfb6b0-4963-4b51-8123-2ba265a444c0","system_id":"levelo_inurba_marseille","lat":43.2797,"lon":5.38745,"is_reserved":false,"is_disabled":false,"rental_uris":{"android":"levelo://app?vid=fbbfb6b0-4963-4b51-8123-2ba265a444c0","ios":"levelo://app?vid=fbbfb6b0-4963-4b51-8123-2ba265a444c0"},"vehicle_type_id":"4","last_reported":1729609782,"current_range_meters":9200,"station_id":"ce4bhg12rcd13ifvqf80","pricing_plan_id":"cebpf4jnsgd1na2vs0mg"},{"bike_id":"9bd47a4b-35f1-49f1-b190-3780c1bfcd54","system_id":"levelo_inurba_marseille","lat":43.22931,"lon":5.35383,"is_reserved":false,"is_disabled":false,"rental_uris":{"android":"levelo://app?vid=9bd47a4b-35f1-49f1-b190-3780c1bfcd54","ios":"levelo://app?vid=9bd47a4b-35f1-49f1-b190-3780c1bfcd54"},"vehicle_type_id":"4","last_reported":1729609782,"current_range_meters":8000,"station_id":"cpo3532slgdg3j2ikp40","pricing_plan_id":"cebpf4jnsgd1na2vs0mg"},{"bike_id":"9a2ba118-08ed-4d42-b58e-76e0ad218db5","system_id":"levelo_inurba_marseille","lat":43.29582,"lon":5.36741,"is_reserved":false,"is_disabled":false,"rental_uris":{"android":"levelo://app?vid=9a2ba118-08ed-4d42-b58e-76e0ad218db5","ios":"levelo://app?vid=9a2ba118-08ed-4d42-b58e-76e0ad218db5"},"vehicle_type_id":"4","last_reported":1729609782,"current_range_meters":9600,"station_id":"ce4bgph2rcd13ifvqc2g","pricing_plan_id":"cebpf4jnsgd1na2vs0mg"},{"bike_id":"00b74cb5-f615-4fc4-a2ab-44171fcae108","system_id":"levelo_inurba_marseille","lat":43.241669,"lon":5.363949,"is_reserved":false,"is_disabled":false,"rental_uris":{"android":"levelo://app?vid=00b74cb5-f615-4fc4-a2ab-44171fcae108","ios":"levelo://app?vid=00b74cb5-f615-4fc4-a2ab-44171fcae108"},"vehicle_type_id":"4","last_reported":1729609782,"current_range_meters":6000,"station_id":"ce4bgkh2rcd13ifvqbl0","pricing_plan_id":"cebpf4jnsgd1na2vs0mg"},{"bike_id":"2b80f943-bf35-49c7-9584-ea1845fd1d05","system_id":"levelo_inurba_marseille","lat":43.23191,"lon":5.35548,"is_reserved":false,"is_disabled":false,"rental_uris":{"android":"levelo://app?vid=2b80f943-bf35-49c7-9584-ea1845fd1d05","ios":"levelo://app?vid=2b80f943-bf35-49c7-9584-ea1845fd1d05"},"vehicle_type_id":"4","last_reported":1729609782,"current_range_meters":9600,"station_id":"ce4bhu92rcd13ifvqi70","pricing_plan_id":"cebpf4jnsgd1na2vs0mg"},{"bike_id":"81e4488d-b9df-4764-b508-9fca2a6674ff","system_id":"levelo_inurba_marseille","lat":43.23194,"lon":5.35546,"is_reserved":false,"is_disabled":false,"rental_uris":{"android":"levelo://app?vid=81e4488d-b9df-4764-b508-9fca2a6674ff","ios":"levelo://app?vid=81e4488d-b9df-4764-b508-9fca2a6674ff"},"vehicle_type_id":"4","last_reported":1729609782,"current_range_meters":36800,"station_id":"ce4bhu92rcd13ifvqi70","pricing_plan_id":"cebpf4jnsgd1na2vs0mg"},{"bike_id":"64270805-9f8a-4292-b9a6-c27298bea7df","system_id":"levelo_inurba_marseille","lat":43.31743,"lon":5.40529,"is_reserved":false,"is_disabled":false,"rental_uris":{"android":"levelo://app?vid=64270805-9f8a-4292-b9a6-c27298bea7df","ios":"levelo://app?vid=64270805-9f8a-4292-b9a6-c27298bea7df"},"vehicle_type_id":"4","last_reported":1729609782,"current_range_meters":9600,"station_id":"ce4bh312rcd13ifvqdj0","pricing_plan_id":"cebpf4jnsgd1na2vs0mg"},{"bike_id":"cf51460c-3242-4dea-b6e2-3562ac9c438e","system_id":"levelo_inurba_marseille","lat":43.28859,"lon":5.35858,"is_reserved":false,"is_disabled":false,"rental_uris":{"android":"levelo://app?vid=cf51460c-3242-4dea-b6e2-3562ac9c438e","ios":"levelo://app?vid=cf51460c-3242-4dea-b6e2-3562ac9c438e"},"vehicle_type_id":"4","last_reported":1729609782,"current_range_meters":29600,"station_id":"ce4bhb12rcd13ifvqem0","pricing_plan_id":"cebpf4jnsgd1na2vs0mg"},{"bike_id":"ab4842e6-d8b5-41a7-bc0c-15d14c6aed58","system_id":"levelo_inurba_marseille","lat":43.3235,"lon":5.38883,"is_reserved":false,"is_disabled":false,"rental_uris":{"android":"levelo://app?vid=ab4842e6-d8b5-41a7-bc0c-15d14c6aed58","ios":"levelo://app?vid=ab4842e6-d8b5-41a7-bc0c-15d14c6aed58"},"vehicle_type_id":"4","last_reported":1729609782,"current_range_meters":38800,"station_id":"ce4bhqp2rcd13ifvqhog","pricing_plan_id":"cebpf4jnsgd1na2vs0mg"},{"bike_id":"0aef732b-02cf-413e-b3a3-98ac12512be4","system_id":"levelo_inurba_marseille","lat":43.29525,"lon":5.39045,"is_reserved":false,"is_disabled":false,"rental_uris":{"android":"levelo://app?vid=0aef732b-02cf-413e-b3a3-98ac12512be4","ios":"levelo://app?vid=0aef732b-02cf-413e-b3a3-98ac12512be4"},"vehicle_type_id":"4","last_reported":1729609782,"current_range_meters":38800,"station_id":"ce4bh3p2rcd13ifvqdp0","pricing_plan_id":"cebpf4jnsgd1na2vs0mg"},{"bike_id":"3f1541cf-a771-466b-9b2e-ed6c283223aa","system_id":"levelo_inurba_marseille","lat":43.27372,"lon":5.36257,"is_reserved":false,"is_disabled":false,"rental_uris":{"android":"levelo://app?vid=3f1541cf-a771-466b-9b2e-ed6c283223aa","ios":"levelo://app?vid=3f1541cf-a771-466b-9b2e-ed6c283223aa"},"vehicle_type_id":"4","last_reported":1729609782,"current_range_meters":9600,"station_id":"ce4bhbh2rcd13ifvqeo0","pricing_plan_id":"cebpf4jnsgd1na2vs0mg"},{"bike_id":"bec5cb07-7f97-4e82-bcd2-8c1307f656e8","system_id":"levelo_inurba_marseille","lat":43.264913,"lon":5.395407,"is_reserved":false,"is_disabled":false,"rental_uris":{"android":"levelo://app?vid=bec5cb07-7f97-4e82-bcd2-8c1307f656e8","ios":"levelo://app?vid=bec5cb07-7f97-4e82-bcd2-8c1307f656e8"},"vehicle_type_id":"4","last_reported":1729609782,"current_range_meters":32400,"station_id":"ce4bho92rcd13ifvqh3g","pricing_plan_id":"cebpf4jnsgd1na2vs0mg"},{"bike_id":"96dd2c8f-56a0-4667-8c1d-109f849eca32","system_id":"levelo_inurba_marseille","lat":43.30792,"lon":5.37645,"is_reserved":false,"is_disabled":false,"rental_uris":{"android":"levelo://app?vid=96dd2c8f-56a0-4667-8c1d-109f849eca32","ios":"levelo://app?vid=96dd2c8f-56a0-4667-8c1d-109f849eca32"},"vehicle_type_id":"4","last_reported":1729609782,"current_range_meters":29600,"station_id":"ce4bgv92rcd13ifvqcq0","pricing_plan_id":"cebpf4jnsgd1na2vs0mg"},{"bike_id":"2b8bacd7-017e-44d1-9502-4b382c455dbf","system_id":"levelo_inurba_marseille","lat":43.325012,"lon":5.365856,"is_reserved":false,"is_disabled":false,"rental_uris":{"android":"levelo://app?vid=2b8bacd7-017e-44d1-9502-4b382c455dbf","ios":"levelo://app?vid=2b8bacd7-017e-44d1-9502-4b382c455dbf"},"vehicle_type_id":"4","last_reported":1729609782,"current_range_meters":38800,"station_id":"ce4bgl92rcd13ifvqbq0","pricing_plan_id":"cebpf4jnsgd1na2vs0mg"},{"bike_id":"2ffcc6a3-4fc2-4849-a2ae-d9b0cdb51aa6","system_id":"levelo_inurba_marseille","lat":43.25582,"lon":5.3824,"is_reserved":false,"is_disabled":false,"rental_uris":{"android":"levelo://app?vid=2ffcc6a3-4fc2-4849-a2ae-d9b0cdb51aa6","ios":"levelo://app?vid=2ffcc6a3-4fc2-4849-a2ae-d9b0cdb51aa6"},"vehicle_type_id":"4","last_reported":1729609782,"current_range_meters":22800,"station_id":"ce4bhih2rcd13ifvqfs0","pricing_plan_id":"cebpf4jnsgd1na2vs0mg"},{"bike_id":"a981e3ff-ea83-40ca-9298-69eaf00241c5","system_id":"levelo_inurba_marseille","lat":43.28465,"lon":5.35891,"is_reserved":false,"is_disabled":false,"rental_uris":{"android":"levelo://app?vid=a981e3ff-ea83-40ca-9298-69eaf00241c5","ios":"levelo://app?vid=a981e3ff-ea83-40ca-9298-69eaf00241c5"},"vehicle_type_id":"4","last_reported":1729609782,"current_range_meters":24000,"station_id":"ce4bhah2rcd13ifvqei0","pricing_plan_id":"cebpf4jnsgd1na2vs0mg"},{"bike_id":"29e438a7-a8b0-4729-bfde-61e57b80d3a6","system_id":"levelo_inurba_marseille","lat":43.27378,"lon":5.36273,"is_reserved":false,"is_disabled":false,"rental_uris":{"android":"levelo://app?vid=29e438a7-a8b0-4729-bfde-61e57b80d3a6","ios":"levelo://app?vid=29e438a7-a8b0-4729-bfde-61e57b80d3a6"},"vehicle_type_id":"4","last_reported":1729609782,"current_range_meters":8800,"station_id":"ce4bhbh2rcd13ifvqeo0","pricing_plan_id":"cebpf4jnsgd1na2vs0mg"},{"bike_id":"b1adec29-c1d0-4759-9604-fab71a6ecdb3","system_id":"levelo_inurba_marseille","lat":43.27372,"lon":5.36263,"is_reserved":false,"is_disabled":false,"rental_uris":{"android":"levelo://app?vid=b1adec29-c1d0-4759-9604-fab71a6ecdb3","ios":"levelo://app?vid=b1adec29-c1d0-4759-9604-fab71a6ecdb3"},"vehicle_type_id":"4","last_reported":1729609782,"current_range_meters":20400,"station_id":"ce4bhbh2rcd13ifvqeo0","pricing_plan_id":"cebpf4jnsgd1na2vs0mg"},{"bike_id":"516e9bc1-1ab0-4ff9-ad23-d5f08118ff4d","system_id":"levelo_inurba_marseille","lat":43.26575,"lon":5.39012,"is_reserved":false,"is_disabled":false,"rental_uris":{"android":"levelo://app?vid=516e9bc1-1ab0-4ff9-ad23-d5f08118ff4d","ios":"levelo://app?vid=516e9bc1-1ab0-4ff9-ad23-d5f08118ff4d"},"vehicle_type_id":"4","last_reported":1729609782,"current_range_meters":9200,"station_id":"ce4bhe12rcd13ifvqf30","pricing_plan_id":"cebpf4jnsgd1na2vs0mg"},{"bike_id":"41c3722d-3c85-4105-a870-5c0183e08b49","system_id":"levelo_inurba_marseille","lat":43.25576,"lon":5.38229,"is_reserved":false,"is_disabled":false,"rental_uris":{"android":"levelo://app?vid=41c3722d-3c85-4105-a870-5c0183e08b49","ios":"levelo://app?vid=41c3722d-3c85-4105-a870-5c0183e08b49"},"vehicle_type_id":"4","last_reported":1729609782,"current_range_meters":38800,"station_id":"ce4bhih2rcd13ifvqfs0","pricing_plan_id":"cebpf4jnsgd1na2vs0mg"},{"bike_id":"dda831f9-62d3-4adf-bee0-be4a3de3ea91","system_id":"levelo_inurba_marseille","lat":43.28078,"lon":5.39668,"is_reserved":false,"is_disabled":false,"rental_uris":{"android":"levelo://app?vid=dda831f9-62d3-4adf-bee0-be4a3de3ea91","ios":"levelo://app?vid=dda831f9-62d3-4adf-bee0-be4a3de3ea91"},"vehicle_type_id":"4","last_reported":1729609782,"current_range_meters":10800,"station_id":"ce4bho12rcd13ifvqh2g","pricing_plan_id":"cebpf4jnsgd1na2vs0mg"},{"bike_id":"3fff5b1e-ea13-41cb-bc83-ed4e4480e58d","system_id":"levelo_inurba_marseille","lat":43.30798,"lon":5.38153,"is_reserved":false,"is_disabled":false,"rental_uris":{"android":"levelo://app?vid=3fff5b1e-ea13-41cb-bc83-ed4e4480e58d","ios":"levelo://app?vid=3fff5b1e-ea13-41cb-bc83-ed4e4480e58d"},"vehicle_type_id":"4","last_reported":1729609782,"current_range_meters":20000,"station_id":"ce4bgt12rcd13ifvqce0","pricing_plan_id":"cebpf4jnsgd1na2vs0mg"},{"bike_id":"06c5f2a0-a438-4375-9de4-f200693aa8de","system_id":"levelo_inurba_marseille","lat":43.31687,"lon":5.40489,"is_reserved":false,"is_disabled":false,"rental_uris":{"android":"levelo://app?vid=06c5f2a0-a438-4375-9de4-f200693aa8de","ios":"levelo://app?vid=06c5f2a0-a438-4375-9de4-f200693aa8de"},"vehicle_type_id":"4","last_reported":1729609782,"current_range_meters":32400,"station_id":"ce4bh012rcd13ifvqd00","pricing_plan_id":"cebpf4jnsgd1na2vs0mg"},{"bike_id":"b3df71ef-7e5a-461e-bcbf-378a9cfac059","system_id":"levelo_inurba_marseille","lat":43.29797,"lon":5.38098,"is_reserved":false,"is_disabled":false,"rental_uris":{"android":"levelo://app?vid=b3df71ef-7e5a-461e-bcbf-378a9cfac059","ios":"levelo://app?vid=b3df71ef-7e5a-461e-bcbf-378a9cfac059"},"vehicle_type_id":"4","last_reported":1729609782,"current_range_meters":28000,"station_id":"ce4bgip2rcd13ifvqbb0","pricing_plan_id":"cebpf4jnsgd1na2vs0mg"},{"bike_id":"4541ca2b-92f6-4ec6-9698-2e923f3f612a","system_id":"levelo_inurba_marseille","lat":43.22925,"lon":5.3538,"is_reserved":false,"is_disabled":false,"rental_uris":{"android":"levelo://app?vid=4541ca2b-92f6-4ec6-9698-2e923f3f612a","ios":"levelo://app?vid=4541ca2b-92f6-4ec6-9698-2e923f3f612a"},"vehicle_type_id":"4","last_reported":1729609782,"current_range_meters":37600,"station_id":"cpo3532slgdg3j2ikp40","pricing_plan_id":"cebpf4jnsgd1na2vs0mg"},{"bike_id":"d7789130-96b2-4bfe-975f-f975ad8c9a42","system_id":"levelo_inurba_marseille","lat":43.29419,"lon":5.38629,"is_reserved":false,"is_disabled":false,"rental_uris":{"android":"levelo://app?vid=d7789130-96b2-4bfe-975f-f975ad8c9a42","ios":"levelo://app?vid=d7789130-96b2-4bfe-975f-f975ad8c9a42"},"vehicle_type_id":"4","last_reported":1729609782,"current_range_meters":37600,"station_id":"ce4bh2h2rcd13ifvqdh0","pricing_plan_id":"cebpf4jnsgd1na2vs0mg"},{"bike_id":"6fad7d9c-abc3-44ae-919e-73969d2c0a92","system_id":"levelo_inurba_marseille","lat":43.23962,"lon":5.36638,"is_reserved":false,"is_disabled":false,"rental_uris":{"android":"levelo://app?vid=6fad7d9c-abc3-44ae-919e-73969d2c0a92","ios":"levelo://app?vid=6fad7d9c-abc3-44ae-919e-73969d2c0a92"},"vehicle_type_id":"4","last_reported":1729609782,"current_range_meters":24800,"station_id":"ce4bhi12rcd13ifvqfp0","pricing_plan_id":"cebpf4jnsgd1na2vs0mg"},{"bike_id":"0ef965fa-c838-419e-8da6-77538a1152ba","system_id":"levelo_inurba_marseille","lat":43.29521,"lon":5.39048,"is_reserved":false,"is_disabled":false,"rental_uris":{"android":"levelo://app?vid=0ef965fa-c838-419e-8da6-77538a1152ba","ios":"levelo://app?vid=0ef965fa-c838-419e-8da6-77538a1152ba"},"vehicle_type_id":"4","last_reported":1729609782,"current_range_meters":23200,"station_id":"ce4bh3p2rcd13ifvqdp0","pricing_plan_id":"cebpf4jnsgd1na2vs0mg"},{"bike_id":"5ec08ffb-3589-472c-8c77-20a6210c5930","system_id":"levelo_inurba_marseille","lat":43.30128,"lon":5.38777,"is_reserved":false,"is_disabled":false,"rental_uris":{"android":"levelo://app?vid=5ec08ffb-3589-472c-8c77-20a6210c5930","ios":"levelo://app?vid=5ec08ffb-3589-472c-8c77-20a6210c5930"},"vehicle_type_id":"4","last_reported":1729609782,"current_range_meters":38800,"station_id":"ce4bghh2rcd13ifvqb60","pricing_plan_id":"cebpf4jnsgd1na2vs0mg"},{"bike_id":"52be0c63-380e-4363-9c05-83d8b13ea50a","system_id":"levelo_inurba_marseille","lat":43.29719,"lon":5.36613,"is_reserved":false,"is_disabled":false,"rental_uris":{"android":"levelo://app?vid=52be0c63-380e-4363-9c05-83d8b13ea50a","ios":"levelo://app?vid=52be0c63-380e-4363-9c05-83d8b13ea50a"},"vehicle_type_id":"4","last_reported":1729609782,"current_range_meters":25600,"station_id":"ce4bgn12rcd13ifvqbt0","pricing_plan_id":"cebpf4jnsgd1na2vs0mg"},{"bike_id":"0a465dc1-9e36-4875-b254-f9de6c0427c1","system_id":"levelo_inurba_marseille","lat":43.2679,"lon":5.3942,"is_reserved":false,"is_disabled":false,"rental_uris":{"android":"levelo://app?vid=0a465dc1-9e36-4875-b254-f9de6c0427c1","ios":"levelo://app?vid=0a465dc1-9e36-4875-b254-f9de6c0427c1"},"vehicle_type_id":"4","last_reported":1729609782,"current_range_meters":16800,"station_id":"ce4bhh12rcd13ifvqfg0","pricing_plan_id":"cebpf4jnsgd1na2vs0mg"},{"bike_id":"9594af62-a7fa-4cbd-b2bd-6c14ce75ee26","system_id":"levelo_inurba_marseille","lat":43.27376,"lon":5.3627,"is_reserved":false,"is_disabled":false,"rental_uris":{"android":"levelo://app?vid=9594af62-a7fa-4cbd-b2bd-6c14ce75ee26","ios":"levelo://app?vid=9594af62-a7fa-4cbd-b2bd-6c14ce75ee26"},"vehicle_type_id":"4","last_reported":1729609782,"current_range_meters":12400,"station_id":"ce4bhbh2rcd13ifvqeo0","pricing_plan_id":"cebpf4jnsgd1na2vs0mg"},{"bike_id":"21620cd3-c175-4ee8-b2ee-0bd784ad5846","system_id":"levelo_inurba_marseille","lat":43.27371,"lon":5.3626,"is_reserved":false,"is_disabled":false,"rental_uris":{"android":"levelo://app?vid=21620cd3-c175-4ee8-b2ee-0bd784ad5846","ios":"levelo://app?vid=21620cd3-c175-4ee8-b2ee-0bd784ad5846"},"vehicle_type_id":"4","last_reported":1729609782,"current_range_meters":32000,"station_id":"ce4bhbh2rcd13ifvqeo0","pricing_plan_id":"cebpf4jnsgd1na2vs0mg"},{"bike_id":"fb29ae08-7449-487d-aa5c-4bec391b5f60","system_id":"levelo_inurba_marseille","lat":43.313533,"lon":5.36709,"is_reserved":false,"is_disabled":false,"rental_uris":{"android":"levelo://app?vid=fb29ae08-7449-487d-aa5c-4bec391b5f60","ios":"levelo://app?vid=fb29ae08-7449-487d-aa5c-4bec391b5f60"},"vehicle_type_id":"4","last_reported":1729609782,"current_range_meters":35600,"station_id":"ce4bgr92rcd13ifvqc6g","pricing_plan_id":"cebpf4jnsgd1na2vs0mg"},{"bike_id":"30ff3d9f-e391-4f5e-bdb5-ef0db1b39665","system_id":"levelo_inurba_marseille","lat":43.30536,"lon":5.36536,"is_reserved":false,"is_disabled":false,"rental_uris":{"android":"levelo://app?vid=30ff3d9f-e391-4f5e-bdb5-ef0db1b39665","ios":"levelo://app?vid=30ff3d9f-e391-4f5e-bdb5-ef0db1b39665"},"vehicle_type_id":"4","last_reported":1729609782,"current_range_meters":38800,"station_id":"ce4bgs12rcd13ifvqcag","pricing_plan_id":"cebpf4jnsgd1na2vs0mg"},{"bike_id":"7d92f325-1b55-4f8e-9bea-57ee2ef02f99","system_id":"levelo_inurba_marseille","lat":43.30426,"lon":5.38895,"is_reserved":false,"is_disabled":false,"rental_uris":{"android":"levelo://app?vid=7d92f325-1b55-4f8e-9bea-57ee2ef02f99","ios":"levelo://app?vid=7d92f325-1b55-4f8e-9bea-57ee2ef02f99"},"vehicle_type_id":"4","last_reported":1729609782,"current_range_meters":22400,"station_id":"ce4bgk12rcd13ifvqbi0","pricing_plan_id":"cebpf4jnsgd1na2vs0mg"},{"bike_id":"31b99cff-32bd-4ebb-894d-a9e2b28857b2","system_id":"levelo_inurba_marseille","lat":43.30543,"lon":5.38439,"is_reserved":false,"is_disabled":false,"rental_uris":{"android":"levelo://app?vid=31b99cff-32bd-4ebb-894d-a9e2b28857b2","ios":"levelo://app?vid=31b99cff-32bd-4ebb-894d-a9e2b28857b2"},"vehicle_type_id":"4","last_reported":1729609782,"current_range_meters":9200,"station_id":"ce4bgg92rcd13ifvqb30","pricing_plan_id":"cebpf4jnsgd1na2vs0mg"},{"bike_id":"1a2edd37-8725-4b1c-8f04-383c7176428f","system_id":"levelo_inurba_marseille","lat":43.25579,"lon":5.38242,"is_reserved":false,"is_disabled":false,"rental_uris":{"android":"levelo://app?vid=1a2edd37-8725-4b1c-8f04-383c7176428f","ios":"levelo://app?vid=1a2edd37-8725-4b1c-8f04-383c7176428f"},"vehicle_type_id":"4","last_reported":1729609782,"current_range_meters":37600,"station_id":"ce4bhih2rcd13ifvqfs0","pricing_plan_id":"cebpf4jnsgd1na2vs0mg"},{"bike_id":"37d70823-3799-4e15-a0be-a831b8b38d04","system_id":"levelo_inurba_marseille","lat":43.26567,"lon":5.39008,"is_reserved":false,"is_disabled":false,"rental_uris":{"android":"levelo://app?vid=37d70823-3799-4e15-a0be-a831b8b38d04","ios":"levelo://app?vid=37d70823-3799-4e15-a0be-a831b8b38d04"},"vehicle_type_id":"4","last_reported":1729609782,"current_range_meters":20000,"station_id":"ce4bhe12rcd13ifvqf30","pricing_plan_id":"cebpf4jnsgd1na2vs0mg"},{"bike_id":"55006387-4409-4e85-88da-ed66b3ef7f46","system_id":"levelo_inurba_marseille","lat":43.30424,"lon":5.41288,"is_reserved":false,"is_disabled":false,"rental_uris":{"android":"levelo://app?vid=55006387-4409-4e85-88da-ed66b3ef7f46","ios":"levelo://app?vid=55006387-4409-4e85-88da-ed66b3ef7f46"},"vehicle_type_id":"4","last_reported":1729609782,"current_range_meters":27600,"station_id":"ce4bhop2rcd13ifvqh8g","pricing_plan_id":"cebpf4jnsgd1na2vs0mg"},{"bike_id":"d5e41f03-499d-4803-b84e-58217fb116a3","system_id":"levelo_inurba_marseille","lat":43.31361,"lon":5.38499,"is_reserved":false,"is_disabled":false,"rental_uris":{"android":"levelo://app?vid=d5e41f03-499d-4803-b84e-58217fb116a3","ios":"levelo://app?vid=d5e41f03-499d-4803-b84e-58217fb116a3"},"vehicle_type_id":"4","last_reported":1729609782,"current_range_meters":17600,"station_id":"ce4bhr12rcd13ifvqhqg","pricing_plan_id":"cebpf4jnsgd1na2vs0mg"},{"bike_id":"3a55ac53-7c13-4b22-b907-ffaf62cb9e13","system_id":"levelo_inurba_marseille","lat":43.26478,"lon":5.39553,"is_reserved":false,"is_disabled":false,"rental_uris":{"android":"levelo://app?vid=3a55ac53-7c13-4b22-b907-ffaf62cb9e13","ios":"levelo://app?vid=3a55ac53-7c13-4b22-b907-ffaf62cb9e13"},"vehicle_type_id":"4","last_reported":1729609782,"current_range_meters":38000,"station_id":"ce4bhi12rcd13ifvqfq0","pricing_plan_id":"cebpf4jnsgd1na2vs0mg"},{"bike_id":"f39c4dc7-d5da-4137-9cc3-4fbc1014953f","system_id":"levelo_inurba_marseille","lat":43.33758,"lon":5.37475,"is_reserved":false,"is_disabled":false,"rental_uris":{"android":"levelo://app?vid=f39c4dc7-d5da-4137-9cc3-4fbc1014953f","ios":"levelo://app?vid=f39c4dc7-d5da-4137-9cc3-4fbc1014953f"},"vehicle_type_id":"4","last_reported":1729609782,"current_range_meters":32800,"station_id":"","pricing_plan_id":"cebpf4jnsgd1na2vs0mg"},{"bike_id":"990a649e-bdc4-4379-a2be-2eb0228b67f7","system_id":"levelo_inurba_marseille","lat":43.27427,"lon":5.39424,"is_reserved":false,"is_disabled":false,"rental_uris":{"android":"levelo://app?vid=990a649e-bdc4-4379-a2be-2eb0228b67f7","ios":"levelo://app?vid=990a649e-bdc4-4379-a2be-2eb0228b67f7"},"vehicle_type_id":"4","last_reported":1729609782,"current_range_meters":10800,"station_id":"ce4bhdp2rcd13ifvqf20","pricing_plan_id":"cebpf4jnsgd1na2vs0mg"},{"bike_id":"5767dea6-8ca3-4b7c-9ef7-73290bd14e71","system_id":"levelo_inurba_marseille","lat":43.27212,"lon":5.3919,"is_reserved":false,"is_disabled":false,"rental_uris":{"android":"levelo://app?vid=5767dea6-8ca3-4b7c-9ef7-73290bd14e71","ios":"levelo://app?vid=5767dea6-8ca3-4b7c-9ef7-73290bd14e71"},"vehicle_type_id":"4","last_reported":1729609782,"current_range_meters":20000,"station_id":"ce4bhhp2rcd13ifvqfm0","pricing_plan_id":"cebpf4jnsgd1na2vs0mg"},{"bike_id":"fac98b8b-b63c-4b15-bea9-db18aede442e","system_id":"levelo_inurba_marseille","lat":43.28468,"lon":5.35898,"is_reserved":false,"is_disabled":false,"rental_uris":{"android":"levelo://app?vid=fac98b8b-b63c-4b15-bea9-db18aede442e","ios":"levelo://app?vid=fac98b8b-b63c-4b15-bea9-db18aede442e"},"vehicle_type_id":"4","last_reported":1729609782,"current_range_meters":7200,"station_id":"ce4bhah2rcd13ifvqei0","pricing_plan_id":"cebpf4jnsgd1na2vs0mg"},{"bike_id":"95a7753d-5a71-44e7-abbb-6bc6510be0f9","system_id":"levelo_inurba_marseille","lat":43.32291,"lon":5.38273,"is_reserved":false,"is_disabled":false,"rental_uris":{"android":"levelo://app?vid=95a7753d-5a71-44e7-abbb-6bc6510be0f9","ios":"levelo://app?vid=95a7753d-5a71-44e7-abbb-6bc6510be0f9"},"vehicle_type_id":"4","last_reported":1729609782,"current_range_meters":22800,"station_id":"ce4bhr12rcd13ifvqhqg","pricing_plan_id":"cebpf4jnsgd1na2vs0mg"},{"bike_id":"32887789-9db3-47ed-b94a-4d9d3470b88e","system_id":"levelo_inurba_marseille","lat":43.320463,"lon":5.414674,"is_reserved":false,"is_disabled":false,"rental_uris":{"android":"levelo://app?vid=32887789-9db3-47ed-b94a-4d9d3470b88e","ios":"levelo://app?vid=32887789-9db3-47ed-b94a-4d9d3470b88e"},"vehicle_type_id":"4","last_reported":1729609782,"current_range_meters":32800,"station_id":"ce4bhq92rcd13ifvqhkg","pricing_plan_id":"cebpf4jnsgd1na2vs0mg"},{"bike_id":"bac65099-8637-49e7-8e71-5eb86b794b01","system_id":"levelo_inurba_marseille","lat":43.33765,"lon":5.37432,"is_reserved":false,"is_disabled":false,"rental_uris":{"android":"levelo://app?vid=bac65099-8637-49e7-8e71-5eb86b794b01","ios":"levelo://app?vid=bac65099-8637-49e7-8e71-5eb86b794b01"},"vehicle_type_id":"4","last_reported":1729609782,"current_range_meters":32400,"station_id":"","pricing_plan_id":"cebpf4jnsgd1na2vs0mg"},{"bike_id":"6494af43-1ca4-4df9-acca-1a541b960bb4","system_id":"levelo_inurba_marseille","lat":43.29962,"lon":5.41328,"is_reserved":false,"is_disabled":false,"rental_uris":{"android":"levelo://app?vid=6494af43-1ca4-4df9-acca-1a541b960bb4","ios":"levelo://app?vid=6494af43-1ca4-4df9-acca-1a541b960bb4"},"vehicle_type_id":"4","last_reported":1729609782,"current_range_meters":37600,"station_id":"ce4bhp12rcd13ifvqh9g","pricing_plan_id":"cebpf4jnsgd1na2vs0mg"},{"bike_id":"6a17f3b8-e79f-417b-984c-25d1abb5a7bb","system_id":"levelo_inurba_marseille","lat":43.29975,"lon":5.38491,"is_reserved":false,"is_disabled":false,"rental_uris":{"android":"levelo://app?vid=6a17f3b8-e79f-417b-984c-25d1abb5a7bb","ios":"levelo://app?vid=6a17f3b8-e79f-417b-984c-25d1abb5a7bb"},"vehicle_type_id":"4","last_reported":1729609782,"current_range_meters":33200,"station_id":"ce4bgj92rcd13ifvqbd0","pricing_plan_id":"cebpf4jnsgd1na2vs0mg"},{"bike_id":"e4265445-3028-4b6a-a7ea-b212c9b11f24","system_id":"levelo_inurba_marseille","lat":43.29028,"lon":5.38653,"is_reserved":false,"is_disabled":false,"rental_uris":{"android":"levelo://app?vid=e4265445-3028-4b6a-a7ea-b212c9b11f24","ios":"levelo://app?vid=e4265445-3028-4b6a-a7ea-b212c9b11f24"},"vehicle_type_id":"4","last_reported":1729609782,"current_range_meters":12800,"station_id":"ce4bh4p2rcd13ifvqe0g","pricing_plan_id":"cebpf4jnsgd1na2vs0mg"},{"bike_id":"932a2af6-98a4-4900-ab14-5aa65450b81e","system_id":"levelo_inurba_marseille","lat":43.25086,"lon":5.39524,"is_reserved":false,"is_disabled":false,"rental_uris":{"android":"levelo://app?vid=932a2af6-98a4-4900-ab14-5aa65450b81e","ios":"levelo://app?vid=932a2af6-98a4-4900-ab14-5aa65450b81e"},"vehicle_type_id":"4","last_reported":1729609782,"current_range_meters":6800,"station_id":"ce4bhm12rcd13ifvqgkg","pricing_plan_id":"cebpf4jnsgd1na2vs0mg"},{"bike_id":"c76af8c3-f685-4d18-b51d-576f84ea933d","system_id":"levelo_inurba_marseille","lat":43.23967,"lon":5.36626,"is_reserved":false,"is_disabled":false,"rental_uris":{"android":"levelo://app?vid=c76af8c3-f685-4d18-b51d-576f84ea933d","ios":"levelo://app?vid=c76af8c3-f685-4d18-b51d-576f84ea933d"},"vehicle_type_id":"4","last_reported":1729609782,"current_range_meters":8800,"station_id":"ce4bhi12rcd13ifvqfp0","pricing_plan_id":"cebpf4jnsgd1na2vs0mg"},{"bike_id":"5ebef9e5-5a09-436c-8562-c12128eff7b2","system_id":"levelo_inurba_marseille","lat":43.29976,"lon":5.36581,"is_reserved":false,"is_disabled":false,"rental_uris":{"android":"levelo://app?vid=5ebef9e5-5a09-436c-8562-c12128eff7b2","ios":"levelo://app?vid=5ebef9e5-5a09-436c-8562-c12128eff7b2"},"vehicle_type_id":"4","last_reported":1729609782,"current_range_meters":27600,"station_id":"ce4bgm92rcd13ifvqbr0","pricing_plan_id":"cebpf4jnsgd1na2vs0mg"},{"bike_id":"ec60e3e4-7997-4982-b048-d6fd43d6a4d6","system_id":"levelo_inurba_marseille","lat":43.27072,"lon":5.42282,"is_reserved":false,"is_disabled":false,"rental_uris":{"android":"levelo://app?vid=ec60e3e4-7997-4982-b048-d6fd43d6a4d6","ios":"levelo://app?vid=ec60e3e4-7997-4982-b048-d6fd43d6a4d6"},"vehicle_type_id":"4","last_reported":1729609782,"current_range_meters":20400,"station_id":"ce4bhk92rcd13ifvqgb0","pricing_plan_id":"cebpf4jnsgd1na2vs0mg"},{"bike_id":"3ff2dfaf-0f58-4dcb-86dc-d0f33eed2387","system_id":"levelo_inurba_marseille","lat":43.25729,"lon":5.41124,"is_reserved":false,"is_disabled":false,"rental_uris":{"android":"levelo://app?vid=3ff2dfaf-0f58-4dcb-86dc-d0f33eed2387","ios":"levelo://app?vid=3ff2dfaf-0f58-4dcb-86dc-d0f33eed2387"},"vehicle_type_id":"4","last_reported":1729609782,"current_range_meters":20800,"station_id":"ce4bhkp2rcd13ifvqgd0","pricing_plan_id":"cebpf4jnsgd1na2vs0mg"},{"bike_id":"c52cdb31-b5c2-4315-9ee3-2c516d96b016","system_id":"levelo_inurba_marseille","lat":43.27374,"lon":5.36258,"is_reserved":false,"is_disabled":false,"rental_uris":{"android":"levelo://app?vid=c52cdb31-b5c2-4315-9ee3-2c516d96b016","ios":"levelo://app?vid=c52cdb31-b5c2-4315-9ee3-2c516d96b016"},"vehicle_type_id":"4","last_reported":1729609782,"current_range_meters":8000,"station_id":"ce4bhbh2rcd13ifvqeo0","pricing_plan_id":"cebpf4jnsgd1na2vs0mg"},{"bike_id":"7eda2203-5ac3-4960-a0e8-b46e51408d87","system_id":"levelo_inurba_marseille","lat":43.2844,"lon":5.39192,"is_reserved":false,"is_disabled":false,"rental_uris":{"android":"levelo://app?vid=7eda2203-5ac3-4960-a0e8-b46e51408d87","ios":"levelo://app?vid=7eda2203-5ac3-4960-a0e8-b46e51408d87"},"vehicle_type_id":"4","last_reported":1729609782,"current_range_meters":27600,"station_id":"ce4bhoh2rcd13ifvqh5g","pricing_plan_id":"cebpf4jnsgd1na2vs0mg"},{"bike_id":"cb575942-399b-4529-a0fe-b1c9a850d37f","system_id":"levelo_inurba_marseille","lat":43.27379,"lon":5.36276,"is_reserved":false,"is_disabled":false,"rental_uris":{"android":"levelo://app?vid=cb575942-399b-4529-a0fe-b1c9a850d37f","ios":"levelo://app?vid=cb575942-399b-4529-a0fe-b1c9a850d37f"},"vehicle_type_id":"4","last_reported":1729609782,"current_range_meters":20000,"station_id":"ce4bhbh2rcd13ifvqeo0","pricing_plan_id":"cebpf4jnsgd1na2vs0mg"},{"bike_id":"7fdf4754-3237-4207-a96c-f18d17bb9fcd","system_id":"levelo_inurba_marseille","lat":43.26563,"lon":5.3901,"is_reserved":false,"is_disabled":false,"rental_uris":{"android":"levelo://app?vid=7fdf4754-3237-4207-a96c-f18d17bb9fcd","ios":"levelo://app?vid=7fdf4754-3237-4207-a96c-f18d17bb9fcd"},"vehicle_type_id":"4","last_reported":1729609782,"current_range_meters":5600,"station_id":"ce4bhe12rcd13ifvqf30","pricing_plan_id":"cebpf4jnsgd1na2vs0mg"},{"bike_id":"1eef2297-d40f-42c6-abab-e0051be8c73e","system_id":"levelo_inurba_marseille","lat":43.30657,"lon":5.40104,"is_reserved":false,"is_disabled":false,"rental_uris":{"android":"levelo://app?vid=1eef2297-d40f-42c6-abab-e0051be8c73e","ios":"levelo://app?vid=1eef2297-d40f-42c6-abab-e0051be8c73e"},"vehicle_type_id":"4","last_reported":1729609782,"current_range_meters":20400,"station_id":"ce4bh112rcd13ifvqda0","pricing_plan_id":"cebpf4jnsgd1na2vs0mg"},{"bike_id":"a6ac0faa-867d-4598-87f4-22ac7a0a0c17","system_id":"levelo_inurba_marseille","lat":43.29599,"lon":5.38117,"is_reserved":false,"is_disabled":false,"rental_uris":{"android":"levelo://app?vid=a6ac0faa-867d-4598-87f4-22ac7a0a0c17","ios":"levelo://app?vid=a6ac0faa-867d-4598-87f4-22ac7a0a0c17"},"vehicle_type_id":"4","last_reported":1729609782,"current_range_meters":38800,"station_id":"ce4bgl12rcd13ifvqbo0","pricing_plan_id":"cebpf4jnsgd1na2vs0mg"},{"bike_id":"1b891940-0d70-43ff-b391-db51f0569158","system_id":"levelo_inurba_marseille","lat":43.24803,"lon":5.37458,"is_reserved":false,"is_disabled":false,"rental_uris":{"android":"levelo://app?vid=1b891940-0d70-43ff-b391-db51f0569158","ios":"levelo://app?vid=1b891940-0d70-43ff-b391-db51f0569158"},"vehicle_type_id":"4","last_reported":1729609782,"current_range_meters":28400,"station_id":"ce4bhgh2rcd13ifvqfb0","pricing_plan_id":"cebpf4jnsgd1na2vs0mg"},{"bike_id":"630e8d19-6ca9-4493-82ee-86aaf9d21688","system_id":"levelo_inurba_marseille","lat":43.29035,"lon":5.35918,"is_reserved":false,"is_disabled":false,"rental_uris":{"android":"levelo://app?vid=630e8d19-6ca9-4493-82ee-86aaf9d21688","ios":"levelo://app?vid=630e8d19-6ca9-4493-82ee-86aaf9d21688"},"vehicle_type_id":"4","last_reported":1729609782,"current_range_meters":16400,"station_id":"ce4bha92rcd13ifvqeg0","pricing_plan_id":"cebpf4jnsgd1na2vs0mg"},{"bike_id":"42d2a950-09f2-4b01-a7f2-d5b91b350d97","system_id":"levelo_inurba_marseille","lat":43.28463,"lon":5.35889,"is_reserved":false,"is_disabled":false,"rental_uris":{"android":"levelo://app?vid=42d2a950-09f2-4b01-a7f2-d5b91b350d97","ios":"levelo://app?vid=42d2a950-09f2-4b01-a7f2-d5b91b350d97"},"vehicle_type_id":"4","last_reported":1729609782,"current_range_meters":20400,"station_id":"ce4bhah2rcd13ifvqei0","pricing_plan_id":"cebpf4jnsgd1na2vs0mg"},{"bike_id":"6ade5575-a468-4eb5-8e9d-81587926b05e","system_id":"levelo_inurba_marseille","lat":43.27379,"lon":5.36266,"is_reserved":false,"is_disabled":false,"rental_uris":{"android":"levelo://app?vid=6ade5575-a468-4eb5-8e9d-81587926b05e","ios":"levelo://app?vid=6ade5575-a468-4eb5-8e9d-81587926b05e"},"vehicle_type_id":"4","last_reported":1729609782,"current_range_meters":30400,"station_id":"ce4bhbh2rcd13ifvqeo0","pricing_plan_id":"cebpf4jnsgd1na2vs0mg"},{"bike_id":"ad008da9-622e-48e1-a448-2f7551cc6358","system_id":"levelo_inurba_marseille","lat":43.255524,"lon":5.376696,"is_reserved":false,"is_disabled":false,"rental_uris":{"android":"levelo://app?vid=ad008da9-622e-48e1-a448-2f7551cc6358","ios":"levelo://app?vid=ad008da9-622e-48e1-a448-2f7551cc6358"},"vehicle_type_id":"4","last_reported":1729609782,"current_range_meters":31200,"station_id":"ce4bh2p2rcd13ifvqdi0","pricing_plan_id":"cebpf4jnsgd1na2vs0mg"},{"bike_id":"f664508d-c703-410b-8571-546ad2f855e9","system_id":"levelo_inurba_marseille","lat":43.22932,"lon":5.35376,"is_reserved":false,"is_disabled":false,"rental_uris":{"android":"levelo://app?vid=f664508d-c703-410b-8571-546ad2f855e9","ios":"levelo://app?vid=f664508d-c703-410b-8571-546ad2f855e9"},"vehicle_type_id":"4","last_reported":1729609782,"current_range_meters":34800,"station_id":"cpo3532slgdg3j2ikp40","pricing_plan_id":"cebpf4jnsgd1na2vs0mg"},{"bike_id":"4693e0dc-9184-4ab4-b160-b6aef9b893ba","system_id":"levelo_inurba_marseille","lat":43.27211,"lon":5.3919,"is_reserved":false,"is_disabled":false,"rental_uris":{"android":"levelo://app?vid=4693e0dc-9184-4ab4-b160-b6aef9b893ba","ios":"levelo://app?vid=4693e0dc-9184-4ab4-b160-b6aef9b893ba"},"vehicle_type_id":"4","last_reported":1729609782,"current_range_meters":20000,"station_id":"ce4bhhp2rcd13ifvqfm0","pricing_plan_id":"cebpf4jnsgd1na2vs0mg"},{"bike_id":"71b1fb42-eaae-43e1-ae9f-381084f4828d","system_id":"levelo_inurba_marseille","lat":43.30418,"lon":5.41283,"is_reserved":false,"is_disabled":false,"rental_uris":{"android":"levelo://app?vid=71b1fb42-eaae-43e1-ae9f-381084f4828d","ios":"levelo://app?vid=71b1fb42-eaae-43e1-ae9f-381084f4828d"},"vehicle_type_id":"4","last_reported":1729609782,"current_range_meters":24000,"station_id":"ce4bhop2rcd13ifvqh8g","pricing_plan_id":"cebpf4jnsgd1na2vs0mg"},{"bike_id":"00f70f12-4549-4478-8fe4-7e7bb59178ef","system_id":"levelo_inurba_marseille","lat":43.26029,"lon":5.37553,"is_reserved":false,"is_disabled":false,"rental_uris":{"android":"levelo://app?vid=00f70f12-4549-4478-8fe4-7e7bb59178ef","ios":"levelo://app?vid=00f70f12-4549-4478-8fe4-7e7bb59178ef"},"vehicle_type_id":"4","last_reported":1729609782,"current_range_meters":8000,"station_id":"ce4bhgh2rcd13ifvqfa0","pricing_plan_id":"cebpf4jnsgd1na2vs0mg"},{"bike_id":"cfb3c80b-8e75-4c1b-8c05-3dc3eb742333","system_id":"levelo_inurba_marseille","lat":43.3092,"lon":5.40145,"is_reserved":false,"is_disabled":false,"rental_uris":{"android":"levelo://app?vid=cfb3c80b-8e75-4c1b-8c05-3dc3eb742333","ios":"levelo://app?vid=cfb3c80b-8e75-4c1b-8c05-3dc3eb742333"},"vehicle_type_id":"4","last_reported":1729609782,"current_range_meters":7200,"station_id":"ce4bgvp2rcd13ifvqct0","pricing_plan_id":"cebpf4jnsgd1na2vs0mg"},{"bike_id":"4b66b5ce-f8fb-448d-bef7-e99f08fdebc6","system_id":"levelo_inurba_marseille","lat":43.25498,"lon":5.37651,"is_reserved":false,"is_disabled":false,"rental_uris":{"android":"levelo://app?vid=4b66b5ce-f8fb-448d-bef7-e99f08fdebc6","ios":"levelo://app?vid=4b66b5ce-f8fb-448d-bef7-e99f08fdebc6"},"vehicle_type_id":"4","last_reported":1729609782,"current_range_meters":38800,"station_id":"ce4bhh12rcd13ifvqff0","pricing_plan_id":"cebpf4jnsgd1na2vs0mg"},{"bike_id":"5a9fcac8-c7bf-4e87-966c-4cb3c1ebe907","system_id":"levelo_inurba_marseille","lat":43.29189,"lon":5.35804,"is_reserved":false,"is_disabled":false,"rental_uris":{"android":"levelo://app?vid=5a9fcac8-c7bf-4e87-966c-4cb3c1ebe907","ios":"levelo://app?vid=5a9fcac8-c7bf-4e87-966c-4cb3c1ebe907"},"vehicle_type_id":"4","last_reported":1729609782,"current_range_meters":30000,"station_id":"ce4bhb12rcd13ifvqel0","pricing_plan_id":"cebpf4jnsgd1na2vs0mg"},{"bike_id":"7ccd0691-01cb-4fc5-ab97-d7a5bc174acd","system_id":"levelo_inurba_marseille","lat":43.29047,"lon":5.35919,"is_reserved":false,"is_disabled":false,"rental_uris":{"android":"levelo://app?vid=7ccd0691-01cb-4fc5-ab97-d7a5bc174acd","ios":"levelo://app?vid=7ccd0691-01cb-4fc5-ab97-d7a5bc174acd"},"vehicle_type_id":"4","last_reported":1729609782,"current_range_meters":12800,"station_id":"ce4bha92rcd13ifvqeg0","pricing_plan_id":"cebpf4jnsgd1na2vs0mg"},{"bike_id":"4df90149-634f-49a0-83ba-9e56c7ba3cc9","system_id":"levelo_inurba_marseille","lat":43.28,"lon":5.40006,"is_reserved":false,"is_disabled":false,"rental_uris":{"android":"levelo://app?vid=4df90149-634f-49a0-83ba-9e56c7ba3cc9","ios":"levelo://app?vid=4df90149-634f-49a0-83ba-9e56c7ba3cc9"},"vehicle_type_id":"4","last_reported":1729609782,"current_range_meters":6400,"station_id":"ce4bho92rcd13ifvqh4g","pricing_plan_id":"cebpf4jnsgd1na2vs0mg"},{"bike_id":"7c5363c3-a53b-4845-bf3f-5cf066a81c41","system_id":"levelo_inurba_marseille","lat":43.28696,"lon":5.39983,"is_reserved":false,"is_disabled":false,"rental_uris":{"android":"levelo://app?vid=7c5363c3-a53b-4845-bf3f-5cf066a81c41","ios":"levelo://app?vid=7c5363c3-a53b-4845-bf3f-5cf066a81c41"},"vehicle_type_id":"4","last_reported":1729609782,"current_range_meters":6400,"station_id":"ce4bho92rcd13ifvqh3g","pricing_plan_id":"cebpf4jnsgd1na2vs0mg"},{"bike_id":"b9fa7bab-a9d4-4375-b70c-076fd5c8578c","system_id":"levelo_inurba_marseille","lat":43.29977,"lon":5.3849,"is_reserved":false,"is_disabled":false,"rental_uris":{"android":"levelo://app?vid=b9fa7bab-a9d4-4375-b70c-076fd5c8578c","ios":"levelo://app?vid=b9fa7bab-a9d4-4375-b70c-076fd5c8578c"},"vehicle_type_id":"4","last_reported":1729609782,"current_range_meters":8400,"station_id":"ce4bgj92rcd13ifvqbd0","pricing_plan_id":"cebpf4jnsgd1na2vs0mg"},