{"last_updated":1743692998,"ttl":60,"version":"2.2","data":{"bikes":[{"bike_id":"bc464ec0-d626-4787-86fd-8e3b3fef7fc4","system_id":"levelo_inurba_marseille","lat":43.31756,"lon":5.3902,"is_reserved":false,"is_disabled":false,"rental_uris":{"android":"levelo://app?vid=bc464ec0-d626-4787-86fd-8e3b3fef7fc4","ios":"levelo://app?vid=bc464ec0-d626-4787-86fd-8e3b3fef7fc4"},"vehicle_type_id":"4","last_reported":1743692998,"current_range_meters":2800,"station_id":"ce4bhqp2rcd13ifvqhng","pricing_plan_id":"cebpf4jnsgd1na2vs0mg"},{"bike_id":"28f9b6b4-e7cf-4066-8b7a-80a36b19c11c","system_id":"levelo_inurba_marseille","lat":43.30128,"lon":5.38777,"is_reserved":false,"is_disabled":false,"rental_uris":{"android":"levelo://app?vid=28f9b6b4-e7cf-4066-8b7a-80a36b19c11c","ios":"levelo://app?vid=28f9b6b4-e7cf-4066-8b7a-80a36b19c11c"},"vehicle_type_id":"4","last_reported":1743692998,"current_range_meters":3200,"station_id":"ce4bhr92rcd13ifvqhsg","pricing_plan_id":"cebpf4jnsgd1na2vs0mg"},{"bike_id":"39f53e67-4159-4153-9e86-d51aabb4f3ea","system_id":"levelo_inurba_marseille","lat":43.33121,"lon":5.3963,"is_reserved":false,"is_disabled":false,"rental_uris":{"android":"levelo://app?vid=39f53e67-4159-4153-9e86-d51aabb4f3ea","ios":"levelo://app?vid=39f53e67-4159-4153-9e86-d51aabb4f3ea"},"vehicle_type_id":"4","last_reported":1743692998,"current_range_meters":3200,"station_id":"","pricing_plan_id":"cebpf4jnsgd1na2vs0mg"},{"bike_id":"722285cf-25c9-4c10-adcc-53cb5ffa065b","system_id":"levelo_inurba_marseille","lat":43.3042,"lon":5.38874,"is_reserved":false,"is_disabled":false,"rental_uris":{"android":"levelo://app?vid=722285cf-25c9-4c10-adcc-53cb5ffa065b","ios":"levelo://app?vid=722285cf-25c9-4c10-adcc-53cb5ffa065b"},"vehicle_type_id":"4","last_reported":1743692998,"current_range_meters":6400,"station_id":"ce4bgk12rcd13ifvqbi0","pricing_plan_id":"cebpf4jnsgd1na2vs0mg"},{"bike_id":"2b32b18a-3901-41d9-81bc-cb05a7ff5170","system_id":"levelo_inurba_marseille","lat":43.29526,"lon":5.3904,"is_reserved":false,"is_disabled":false,"rental_uris":{"android":"levelo://app?vid=2b32b18a-3901-41d9-81bc-cb05a7ff5170","ios":"levelo://app?vid=2b32b18a-3901-41d9-81bc-cb05a7ff5170"},"vehicle_type_id":"4","last_reported":1743692998,"current_range_meters":4000,"station_id":"ce4bh3p2rcd13ifvqdp0","pricing_plan_id":"cebpf4jnsgd1na2vs0mg"},{"bike_id":"f86b5dad-370f-4862-9d4f-68fcfa8dd7ec","system_id":"levelo_inurba_marseille","lat":43.2797,"lon":5.38759,"is_reserved":false,"is_disabled":false,"rental_uris":{"android":"levelo://app?vid=f86b5dad-370f-4862-9d4f-68fcfa8dd7ec","ios":"levelo://app?vid=f86b5dad-370f-4862-9d4f-68fcfa8dd7ec"},"vehicle_type_id":"4","last_reported":1743692998,"current_range_meters":5600,"station_id":"ce4bhg12rcd13ifvqf80","pricing_plan_id":"cebpf4jnsgd1na2vs0mg"},{"bike_id":"ae9481c1-29a0-42d0-9875-b336fd6949d2","system_id":"levelo_inurba_marseille","lat":43.30906,"lon":5.40151,"is_reserved":false,"is_disabled":false,"rental_uris":{"android":"levelo://app?vid=ae9481c1-29a0-42d0-9875-b336fd6949d2","ios":"levelo://app?vid=ae9481c1-29a0-42d0-9875-b336fd6949d2"},"vehicle_type_id":"4","last_reported":1743692998,"current_range_meters":3600,"station_id":"ce4bgvp2rcd13ifvqct0","pricing_plan_id":"cebpf4jnsgd1na2vs0mg"},{"bike_id":"01c69f8c-c4f8-4691-b2c0-51c6e22202a2","system_id":"levelo_inurba_marseille","lat":43.299591,"lon":5.384961,"is_reserved":false,"is_disabled":false,"rental_uris":{"android":"levelo://app?vid=01c69f8c-c4f8-4691-b2c0-51c6e22202a2","ios":"levelo://app?vid=01c69f8c-c4f8-4691-b2c0-51c6e22202a2"},"vehicle_type_id":"4","last_reported":1743692998,"current_range_meters":4000,"station_id":"ce4bh392rcd13ifvqdl0","pricing_plan_id":"cebpf4jnsgd1na2vs0mg"},{"bike_id":"e6b69cd2-f965-4a12-9e02-6f28a269f9f9","system_id":"levelo_inurba_marseille","lat":43.23052,"lon":5.35489,"is_reserved":false,"is_disabled":true,"rental_uris":{"android":"levelo://app?vid=e6b69cd2-f965-4a12-9e02-6f28a269f9f9","ios":"levelo://app?vid=e6b69cd2-f965-4a12-9e02-6f28a269f9f9"},"vehicle_type_id":"4","last_reported":1743692998,"current_range_meters":4000,"station_id":"cpo3342slgdg3j2ifvpg","pricing_plan_id":"cebpf4jnsgd1na2vs0mg"},{"bike_id":"3846bd6a-b7c5-4518-943d-8ea0c7b6b609","system_id":"levelo_inurba_marseille","lat":43.29792,"lon":5.37104,"is_reserved":false,"is_disabled":false,"rental_uris":{"android":"levelo://app?vid=3846bd6a-b7c5-4518-943d-8ea0c7b6b609","ios":"levelo://app?vid=3846bd6a-b7c5-4518-943d-8ea0c7b6b609"},"vehicle_type_id":"4","last_reported":1743692998,"current_range_meters":4000,"station_id":"ce4bgop2rcd13ifvqc1g","pricing_plan_id":"cebpf4jnsgd1na2vs0mg"},{"bike_id":"c8b60821-bda1-4bc9-b9ff-eaaba1c71164","system_id":"levelo_inurba_marseille","lat":43.29614,"lon":5.38101,"is_reserved":false,"is_disabled":false,"rental_uris":{"android":"levelo://app?vid=c8b60821-bda1-4bc9-b9ff-eaaba1c71164","ios":"levelo://app?vid=c8b60821-bda1-4bc9-b9ff-eaaba1c71164"},"vehicle_type_id":"4","last_reported":1743692998,"current_range_meters":4000,"station_id":"ce4bgl12rcd13ifvqbo0","pricing_plan_id":"cebpf4jnsgd1na2vs0mg"},{"bike_id":"3e5329f3-c0cd-422c-afb1-2f46242590da","system_id":"levelo_inurba_marseille","lat":43.31924,"lon":5.3755,"is_reserved":false,"is_disabled":false,"rental_uris":{"android":"levelo://app?vid=3e5329f3-c0cd-422c-afb1-2f46242590da","ios":"levelo://app?vid=3e5329f3-c0cd-422c-afb1-2f46242590da"},"vehicle_type_id":"4","last_reported":1743692998,"current_range_meters":4000,"station_id":"","pricing_plan_id":"cebpf4jnsgd1na2vs0mg"},{"bike_id":"d157a8ac-f1ea-480a-a1ee-9ac00962bb01","system_id":"levelo_inurba_marseille","lat":43.29552,"lon":5.42289,"is_reserved":false,"is_disabled":false,"rental_uris":{"android":"levelo://app?vid=d157a8ac-f1ea-480a-a1ee-9ac00962bb01","ios":"levelo://app?vid=d157a8ac-f1ea-480a-a1ee-9ac00962bb01"},"vehicle_type_id":"4","last_reported":1743692998,"current_range_meters":4400,"station_id":"ce4bhph2rcd13ifvqhdg","pricing_plan_id":"cebpf4jnsgd1na2vs0mg"},{"bike_id":"b3c729a9-630e-4d04-9142-b9aec87c294c","system_id":"levelo_inurba_marseille","lat":43.27372,"lon":5.36261,"is_reserved":false,"is_disabled":false,"rental_uris":{"android":"levelo://app?vid=b3c729a9-630e-4d04-9142-b9aec87c294c","ios":"levelo://app?vid=b3c729a9-630e-4d04-9142-b9aec87c294c"},"vehicle_type_id":"4","last_reported":1743692998,"current_range_meters":4000,"station_id":"ce4bhbh2rcd13ifvqeo0","pricing_plan_id":"cebpf4jnsgd1na2vs0mg"},{"bike_id":"3fdc50ec-f6b0-4bc1-83f8-6804e8779a22","system_id":"levelo_inurba_marseille","lat":43.2657,"lon":5.3901,"is_reserved":false,"is_disabled":false,"rental_uris":{"android":"levelo://app?vid=3fdc50ec-f6b0-4bc1-83f8-6804e8779a22","ios":"levelo://app?vid=3fdc50ec-f6b0-4bc1-83f8-6804e8779a22"},"vehicle_type_id":"4","last_reported":1743692998,"current_range_meters":4400,"station_id":"ce4bhe12rcd13ifvqf30","pricing_plan_id":"cebpf4jnsgd1na2vs0mg"},{"bike_id":"e89af4f4-881f-47b1-8f41-35ca5b42f37b","system_id":"levelo_inurba_marseille","lat":43.29264,"lon":5.38442,"is_reserved":false,"is_disabled":false,"rental_uris":{"android":"levelo://app?vid=e89af4f4-881f-47b1-8f41-35ca5b42f37b","ios":"levelo://app?vid=e89af4f4-881f-47b1-8f41-35ca5b42f37b"},"vehicle_type_id":"4","last_reported":1743692998,"current_range_meters":4400,"station_id":"ce4bgrp2rcd13ifvqc9g","pricing_plan_id":"cebpf4jnsgd1na2vs0mg"},{"bike_id":"3b65283c-5c07-40ac-93ed-fe3a44f962db","system_id":"levelo_inurba_marseille","lat":43.23066,"lon":5.35488,"is_reserved":false,"is_disabled":false,"rental_uris":{"android":"levelo://app?vid=3b65283c-5c07-40ac-93ed-fe3a44f962db","ios":"levelo://app?vid=3b65283c-5c07-40ac-93ed-fe3a44f962db"},"vehicle_type_id":"4","last_reported":1743692998,"current_range_meters":4800,"station_id":"cpo3342slgdg3j2ifvpg","pricing_plan_id":"cebpf4jnsgd1na2vs0mg"},{"bike_id":"b813d122-35e4-4d9d-9741-7cf4e3cc25e4","system_id":"levelo_inurba_marseille","lat":43.270106,"lon":5.387094,"is_reserved":false,"is_disabled":false,"rental_uris":{"android":"levelo://app?vid=b813d122-35e4-4d9d-9741-7cf4e3cc25e4","ios":"levelo://app?vid=b813d122-35e4-4d9d-9741-7cf4e3cc25e4"},"vehicle_type_id":"4","last_reported":1743692998,"current_range_meters":5600,"station_id":"ce4bhjp2rcd13ifvqg90","pricing_plan_id":"cebpf4jnsgd1na2vs0mg"},{"bike_id":"c4653050-1225-4f01-86e4-7c98721f06ff","system_id":"levelo_inurba_marseille","lat":43.260285,"lon":5.375502,"is_reserved":false,"is_disabled":false,"rental_uris":{"android":"levelo://app?vid=c4653050-1225-4f01-86e4-7c98721f06ff","ios":"levelo://app?vid=c4653050-1225-4f01-86e4-7c98721f06ff"},"vehicle_type_id":"4","last_reported":1743692998,"current_range_meters":4800,"station_id":"ce4bhgh2rcd13ifvqfa0","pricing_plan_id":"cebpf4jnsgd1na2vs0mg"},{"bike_id":"37fd36b4-19c6-4261-ab72-bd4f28bbb665","system_id":"levelo_inurba_marseille","lat":43.24551,"lon":5.39526,"is_reserved":false,"is_disabled":false,"rental_uris":{"android":"levelo://app?vid=37fd36b4-19c6-4261-ab72-bd4f28bbb665","ios":"levelo://app?vid=37fd36b4-19c6-4261-ab72-bd4f28bbb665"},"vehicle_type_id":"4","last_reported":1743692998,"current_range_meters":5600,"station_id":"ce4bhlp2rcd13ifvqgjg","pricing_plan_id":"cebpf4jnsgd1na2vs0mg"},{"bike_id":"65a3f961-b5ba-40ff-b34a-b97a275118e1","system_id":"levelo_inurba_marseille","lat":43.33083,"lon":5.39248,"is_reserved":false,"is_disabled":false,"rental_uris":{"android":"levelo://app?vid=65a3f961-b5ba-40ff-b34a-b97a275118e1","ios":"levelo://app?vid=65a3f961-b5ba-40ff-b34a-b97a275118e1"},"vehicle_type_id":"4","last_reported":1743692998,"current_range_meters":5600,"station_id":"","pricing_plan_id":"cebpf4jnsgd1na2vs0mg"},{"bike_id":"ecd15844-e2bc-417a-aab0-067afd0b3db6","system_id":"levelo_inurba_marseille","lat":43.28462,"lon":5.35886,"is_reserved":false,"is_disabled":false,"rental_uris":{"android":"levelo://app?vid=ecd15844-e2bc-417a-aab0-067afd0b3db6","ios":"levelo://app?vid=ecd15844-e2bc-417a-aab0-067afd0b3db6"},"vehicle_type_id":"4","last_reported":1743692998,"current_range_meters":5600,"station_id":"ce4bhah2rcd13ifvqei0","pricing_plan_id":"cebpf4jnsgd1na2vs0mg"},{"bike_id":"161c527c-8e1c-4862-bf7d-0250fd68564b","system_id":"levelo_inurba_marseille","lat":43.26222,"lon":5.4046,"is_reserved":false,"is_disabled":false,"rental_uris":{"android":"levelo://app?vid=161c527c-8e1c-4862-bf7d-0250fd68564b","ios":"levelo://app?vid=161c527c-8e1c-4862-bf7d-0250fd68564b"},"vehicle_type_id":"4","last_reported":1743692998,"current_range_meters":5600,"station_id":"ce4bhmh2rcd13ifvqgmg","pricing_plan_id":"cebpf4jnsgd1na2vs0mg"},{"bike_id":"e1bcd518-a3a1-4a25-9b9e-794fbd0bdf0a","system_id":"levelo_inurba_marseille","lat":43.23955,"lon":5.36654,"is_reserved":false,"is_disabled":false,"rental_uris":{"android":"levelo://app?vid=e1bcd518-a3a1-4a25-9b9e-794fbd0bdf0a","ios":"levelo://app?vid=e1bcd518-a3a1-4a25-9b9e-794fbd0bdf0a"},"vehicle_type_id":"4","last_reported":1743692998,"current_range_meters":5600,"station_id":"ce4bhi12rcd13ifvqfp0","pricing_plan_id":"cebpf4jnsgd1na2vs0mg"},{"bike_id":"2efefdad-13af-4dd7-b53d-d18e706054cb","system_id":"levelo_inurba_marseille","lat":43.23186,"lon":5.39982,"is_reserved":false,"is_disabled":false,"rental_uris":{"android":"levelo://app?vid=2efefdad-13af-4dd7-b53d-d18e706054cb","ios":"levelo://app?vid=2efefdad-13af-4dd7-b53d-d18e706054cb"},"vehicle_type_id":"4","last_reported":1743692998,"current_range_meters":6000,"station_id":"ce4bhn12rcd13ifvqgqg","pricing_plan_id":"cebpf4jnsgd1na2vs0mg"},{"bike_id":"7bc507c4-187b-4cb2-a5ef-07322f924baf","system_id":"levelo_inurba_marseille","lat":43.22935,"lon":5.35383,"is_reserved":false,"is_disabled":false,"rental_uris":{"android":"levelo://app?vid=7bc507c4-187b-4cb2-a5ef-07322f924baf","ios":"levelo://app?vid=7bc507c4-187b-4cb2-a5ef-07322f924baf"},"vehicle_type_id":"4","last_reported":1743692998,"current_range_meters":6000,"station_id":"cpo3532slgdg3j2ikp40","pricing_plan_id":"cebpf4jnsgd1na2vs0mg"},{"bike_id":"04556df8-715f-45d8-b288-9c8fd51282f9","system_id":"levelo_inurba_marseille","lat":43.23187,"lon":5.35549,"is_reserved":false,"is_disabled":false,"rental_uris":{"android":"levelo://app?vid=04556df8-715f-45d8-b288-9c8fd51282f9","ios":"levelo://app?vid=04556df8-715f-45d8-b288-9c8fd51282f9"},"vehicle_type_id":"4","last_reported":1743692998,"current_range_meters":6400,"station_id":"ce4bhu92rcd13ifvqi70","pricing_plan_id":"cebpf4jnsgd1na2vs0mg"},{"bike_id":"6f2d946a-bfda-436c-9394-5b9e57acf6b0","system_id":"levelo_inurba_marseille","lat":43.27371,"lon":5.36253,"is_reserved":false,"is_disabled":false,"rental_uris":{"android":"levelo://app?vid=6f2d946a-bfda-436c-9394-5b9e57acf6b0","ios":"levelo://app?vid=6f2d946a-bfda-436c-9394-5b9e57acf6b0"},"vehicle_type_id":"4","last_reported":1743692998,"current_range_meters":6400,"station_id":"ce4bhbh2rcd13ifvqeo0","pricing_plan_id":"cebpf4jnsgd1na2vs0mg"},{"bike_id":"988a4b2a-1fca-4561-9342-57ad8b6adb1c","system_id":"levelo_inurba_marseille","lat":43.22929,"lon":5.35365,"is_reserved":false,"is_disabled":false,"rental_uris":{"android":"levelo://app?vid=988a4b2a-1fca-4561-9342-57ad8b6adb1c","ios":"levelo://app?vid=988a4b2a-1fca-4561-9342-57ad8b6adb1c"},"vehicle_type_id":"4","last_reported":1743692998,"current_range_meters":6400,"station_id":"cpo3532slgdg3j2ikp40","pricing_plan_id":"cebpf4jnsgd1na2vs0mg"},{"bike_id":"a032e2ed-34fd-4183-bcfd-415fd8074e31","system_id":"levelo_inurba_marseille","lat":43.29624,"lon":5.37168,"is_reserved":false,"is_disabled":false,"rental_uris":{"android":"levelo://app?vid=a032e2ed-34fd-4183-bcfd-415fd8074e31","ios":"levelo://app?vid=a032e2ed-34fd-4183-bcfd-415fd8074e31"},"vehicle_type_id":"4","last_reported":1743692998,"current_range_meters":6400,"station_id":"ce4bgnh2rcd13ifvqc0g","pricing_plan_id":"cebpf4jnsgd1na2vs0mg"},{"bike_id":"f87e996c-206a-47d9-8697-84a2d463fdc3","system_id":"levelo_inurba_marseille","lat":43.23201,"lon":5.35556,"is_reserved":false,"is_disabled":false,"rental_uris":{"android":"levelo://app?vid=f87e996c-206a-47d9-8697-84a2d463fdc3","ios":"levelo://app?vid=f87e996c-206a-47d9-8697-84a2d463fdc3"},"vehicle_type_id":"4","last_reported":1743692998,"current_range_meters":6400,"station_id":"ce4bhu92rcd13ifvqi70","pricing_plan_id":"cebpf4jnsgd1na2vs0mg"},{"bike_id":"718a7062-27d3-41fe-a20b-2c6655586383","system_id":"levelo_inurba_marseille","lat":43.28673,"lon":5.3867,"is_reserved":false,"is_disabled":false,"rental_uris":{"android":"levelo://app?vid=718a7062-27d3-41fe-a20b-2c6655586383","ios":"levelo://app?vid=718a7062-27d3-41fe-a20b-2c6655586383"},"vehicle_type_id":"4","last_reported":1743692998,"current_range_meters":6400,"station_id":"ce4bh492rcd13ifvqdug","pricing_plan_id":"cebpf4jnsgd1na2vs0mg"},{"bike_id":"8b808719-7604-4e6f-87ac-132c7a98ad9a","system_id":"levelo_inurba_marseille","lat":43.30556,"lon":5.36562,"is_reserved":false,"is_disabled":false,"rental_uris":{"android":"levelo://app?vid=8b808719-7604-4e6f-87ac-132c7a98ad9a","ios":"levelo://app?vid=8b808719-7604-4e6f-87ac-132c7a98ad9a"},"vehicle_type_id":"4","last_reported":1743692998,"current_range_meters":6400,"station_id":"ce4bgs12rcd13ifvqcag","pricing_plan_id":"cebpf4jnsgd1na2vs0mg"},{"bike_id":"1e56f8b0-0569-43fd-956b-7c3d45c8ba02","system_id":"levelo_inurba_marseille","lat":43.29326,"lon":5.4116,"is_reserved":false,"is_disabled":false,"rental_uris":{"android":"levelo://app?vid=1e56f8b0-0569-43fd-956b-7c3d45c8ba02","ios":"levelo://app?vid=1e56f8b0-0569-43fd-956b-7c3d45c8ba02"},"vehicle_type_id":"4","last_reported":1743692998,"current_range_meters":6400,"station_id":"","pricing_plan_id":"cebpf4jnsgd1na2vs0mg"},{"bike_id":"5f751a5f-244f-44ce-82cd-9b0cbb66f097","system_id":"levelo_inurba_marseille","lat":43.26569,"lon":5.39005,"is_reserved":false,"is_disabled":false,"rental_uris":{"android":"levelo://app?vid=5f751a5f-244f-44ce-82cd-9b0cbb66f097","ios":"levelo://app?vid=5f751a5f-244f-44ce-82cd-9b0cbb66f097"},"vehicle_type_id":"4","last_reported":1743692998,"current_range_meters":6400,"station_id":"ce4bhe12rcd13ifvqf30","pricing_plan_id":"cebpf4jnsgd1na2vs0mg"},{"bike_id":"4f34a557-fab2-4286-b669-c444526085b5","system_id":"levelo_inurba_marseille","lat":43.32334,"lon":5.40619,"is_reserved":false,"is_disabled":false,"rental_uris":{"android":"levelo://app?vid=4f34a557-fab2-4286-b669-c444526085b5","ios":"levelo://app?vid=4f34a557-fab2-4286-b669-c444526085b5"},"vehicle_type_id":"4","last_reported":1743692998,"current_range_meters":6400,"station_id":"ce4bhq92rcd13ifvqhjg","pricing_plan_id":"cebpf4jnsgd1na2vs0mg"},{"bike_id":"0cd9ca13-4ee6-46e3-8e52-32d895eaa34e","system_id":"levelo_inurba_marseille","lat":43.24802,"lon":5.37453,"is_reserved":false,"is_disabled":false,"rental_uris":{"android":"levelo://app?vid=0cd9ca13-4ee6-46e3-8e52-32d895eaa34e","ios":"levelo://app?vid=0cd9ca13-4ee6-46e3-8e52-32d895eaa34e"},"vehicle_type_id":"4","last_reported":1743692998,"current_range_meters":6800,"station_id":"ce4bhgh2rcd13ifvqfb0","pricing_plan_id":"cebpf4jnsgd1na2vs0mg"},{"bike_id":"5304cb04-093b-4371-abcf-5b5eb19d5c81","system_id":"levelo_inurba_marseille","lat":43.27907,"lon":5.38017,"is_reserved":false,"is_disabled":false,"rental_uris":{"android":"levelo://app?vid=5304cb04-093b-4371-abcf-5b5eb19d5c81","ios":"levelo://app?vid=5304cb04-093b-4371-abcf-5b5eb19d5c81"},"vehicle_type_id":"4","last_reported":1743692998,"current_range_meters":6800,"station_id":"ce4bhf92rcd13ifvqf50","pricing_plan_id":"cebpf4jnsgd1na2vs0mg"},{"bike_id":"3b948fbe-ea54-4e7f-8a80-214f816bc66c","system_id":"levelo_inurba_marseille","lat":43.24182,"lon":5.39702,"is_reserved":false,"is_disabled":false,"rental_uris":{"android":"levelo://app?vid=3b948fbe-ea54-4e7f-8a80-214f816bc66c","ios":"levelo://app?vid=3b948fbe-ea54-4e7f-8a80-214f816bc66c"},"vehicle_type_id":"4","last_reported":1743692998,"current_range_meters":6800,"station_id":"ce4bhn12rcd13ifvqgpg","pricing_plan_id":"cebpf4jnsgd1na2vs0mg"},{"bike_id":"f751cf89-d008-4623-842e-2ef6c78f88de","system_id":"levelo_inurba_marseille","lat":43.30258,"lon":5.40081,"is_reserved":false,"is_disabled":false,"rental_uris":{"android":"levelo://app?vid=f751cf89-d008-4623-842e-2ef6c78f88de","ios":"levelo://app?vid=f751cf89-d008-4623-842e-2ef6c78f88de"},"vehicle_type_id":"4","last_reported":1743692998,"current_range_meters":6800,"station_id":"ce4bgvh2rcd13ifvqcs0","pricing_plan_id":"cebpf4jnsgd1na2vs0mg"},{"bike_id":"1fb0b079-f9d7-415e-8f32-5928b64e2afd","system_id":"levelo_inurba_marseille","lat":43.24813,"lon":5.37452,"is_reserved":false,"is_disabled":false,"rental_uris":{"android":"levelo://app?vid=1fb0b079-f9d7-415e-8f32-5928b64e2afd","ios":"levelo://app?vid=1fb0b079-f9d7-415e-8f32-5928b64e2afd"},"vehicle_type_id":"4","last_reported":1743692998,"current_range_meters":6800,"station_id":"ce4bhgh2rcd13ifvqfb0","pricing_plan_id":"cebpf4jnsgd1na2vs0mg"},{"bike_id":"d8bed46d-f446-4aa0-9133-d00a0d66cd15","system_id":"levelo_inurba_marseille","lat":43.23183,"lon":5.3999,"is_reserved":false,"is_disabled":false,"rental_uris":{"android":"levelo://app?vid=d8bed46d-f446-4aa0-9133-d00a0d66cd15","ios":"levelo://app?vid=d8bed46d-f446-4aa0-9133-d00a0d66cd15"},"vehicle_type_id":"4","last_reported":1743692998,"current_range_meters":6800,"station_id":"ce4bhn12rcd13ifvqgqg","pricing_plan_id":"cebpf4jnsgd1na2vs0mg"},{"bike_id":"546380d0-0813-4737-817f-a21e056e8d2e","system_id":"levelo_inurba_marseille","lat":43.32357,"lon":5.36748,"is_reserved":false,"is_disabled":false,"rental_uris":{"android":"levelo://app?vid=546380d0-0813-4737-817f-a21e056e8d2e","ios":"levelo://app?vid=546380d0-0813-4737-817f-a21e056e8d2e"},"vehicle_type_id":"4","last_reported":1743692998,"current_range_meters":6800,"station_id":"ce4bhsh2rcd13ifvqi2g","pricing_plan_id":"cebpf4jnsgd1na2vs0mg"},{"bike_id":"2075412d-24c0-45b9-9b2a-7dbe440bd431","system_id":"levelo_inurba_marseille","lat":43.31762,"lon":5.39015,"is_reserved":false,"is_disabled":false,"rental_uris":{"android":"levelo://app?vid=2075412d-24c0-45b9-9b2a-7dbe440bd431","ios":"levelo://app?vid=2075412d-24c0-45b9-9b2a-7dbe440bd431"},"vehicle_type_id":"4","last_reported":1743692998,"current_range_meters":6800,"station_id":"ce4bhqp2rcd13ifvqhng","pricing_plan_id":"cebpf4jnsgd1na2vs0mg"},{"bike_id":"2e1d0491-8046-4a1c-910c-6d230f4ca468","system_id":"levelo_inurba_marseille","lat":43.30689,"lon":5.37352,"is_reserved":false,"is_disabled":false,"rental_uris":{"android":"levelo://app?vid=2e1d0491-8046-4a1c-910c-6d230f4ca468","ios":"levelo://app?vid=2e1d0491-8046-4a1c-910c-6d230f4ca468"},"vehicle_type_id":"4","last_reported":1743692998,"current_range_meters":6800,"station_id":"","pricing_plan_id":"cebpf4jnsgd1na2vs0mg"},{"bike_id":"9d13c440-da3b-4535-b70d-8105619f88bd","system_id":"levelo_inurba_marseille","lat":43.32365,"lon":5.38891,"is_reserved":false,"is_disabled":true,"rental_uris":{"android":"levelo://app?vid=9d13c440-da3b-4535-b70d-8105619f88bd","ios":"levelo://app?vid=9d13c440-da3b-4535-b70d-8105619f88bd"},"vehicle_type_id":"4","last_reported":1743692998,"current_range_meters":7200,"station_id":"ce4bhqp2rcd13ifvqhog","pricing_plan_id":"cebpf4jnsgd1na2vs0mg"},{"bike_id":"78d6b7cd-ac07-453b-bc94-98692716d8c6","system_id":"levelo_inurba_marseille","lat":43.231883,"lon":5.355514,"is_reserved":false,"is_disabled":false,"rental_uris":{"android":"levelo://app?vid=78d6b7cd-ac07-453b-bc94-98692716d8c6","ios":"levelo://app?vid=78d6b7cd-ac07-453b-bc94-98692716d8c6"},"vehicle_type_id":"4","last_reported":1743692998,"current_range_meters":7200,"station_id":"ce4bhu92rcd13ifvqi70","pricing_plan_id":"cebpf4jnsgd1na2vs0mg"},{"bike_id":"169e2951-923e-4ea9-a29c-a4b4be19b971","system_id":"levelo_inurba_marseille","lat":43.30933,"lon":5.40141,"is_reserved":false,"is_disabled":false,"rental_uris":{"android":"levelo://app?vid=169e2951-923e-4ea9-a29c-a4b4be19b971","ios":"levelo://app?vid=169e2951-923e-4ea9-a29c-a4b4be19b971"},"vehicle_type_id":"4","last_reported":1743692998,"current_range_meters":7200,"station_id":"ce4bgvp2rcd13ifvqct0","pricing_plan_id":"cebpf4jnsgd1na2vs0mg"},{"bike_id":"7f4f0a5b-bfc5-41b1-9ca8-7b777a0aeb4f","system_id":"levelo_inurba_marseille","lat":43.23054,"lon":5.35501,"is_reserved":false,"is_disabled":false,"rental_uris":{"android":"levelo://app?vid=7f4f0a5b-bfc5-41b1-9ca8-7b777a0aeb4f","ios":"levelo://app?vid=7f4f0a5b-bfc5-41b1-9ca8-7b777a0aeb4f"},"vehicle_type_id":"4","last_reported":1743692998,"current_range_meters":7200,"station_id":"cpo3342slgdg3j2ifvpg","pricing_plan_id":"cebpf4jnsgd1na2vs0mg"},{"bike_id":"13072b0f-0d39-4f6e-b299-63444ea0db24","system_id":"levelo_inurba_marseille","lat":43.239624,"lon":5.366235,"is_reserved":false,"is_disabled":false,"rental_uris":{"android":"levelo://app?vid=13072b0f-0d39-4f6e-b299-63444ea0db24","ios":"levelo://app?vid=13072b0f-0d39-4f6e-b299-63444ea0db24"},"vehicle_type_id":"4","last_reported":1743692998,"current_range_meters":7200,"station_id":"ce4bhi12rcd13ifvqfp0","pricing_plan_id":"cebpf4jnsgd1na2vs0mg"},{"bike_id":"3c3ffc92-5d26-4215-94e5-cafeeadf5518","system_id":"levelo_inurba_marseille","lat":43.274967,"lon":5.424463,"is_reserved":false,"is_disabled":false,"rental_uris":{"android":"levelo://app?vid=3c3ffc92-5d26-4215-94e5-cafeeadf5518","ios":"levelo://app?vid=3c3ffc92-5d26-4215-94e5-cafeeadf5518"},"vehicle_type_id":"4","last_reported":1743692998,"current_range_meters":7200,"station_id":"ce4bhn92rcd13ifvqgrg","pricing_plan_id":"cebpf4jnsgd1na2vs0mg"},{"bike_id":"0c15f1cd-b230-45ce-84f4-8f6170d4bf71","system_id":"levelo_inurba_marseille","lat":43.27497,"lon":5.424483,"is_reserved":false,"is_disabled":false,"rental_uris":{"android":"levelo://app?vid=0c15f1cd-b230-45ce-84f4-8f6170d4bf71","ios":"levelo://app?vid=0c15f1cd-b230-45ce-84f4-8f6170d4bf71"},"vehicle_type_id":"4","last_reported":1743692998,"current_range_meters":7200,"station_id":"ce4bhn92rcd13ifvqgrg","pricing_plan_id":"cebpf4jnsgd1na2vs0mg"},{"bike_id":"c33a35ec-cc06-44dd-9c92-34a64b71bf91","system_id":"levelo_inurba_marseille","lat":43.30315,"lon":5.36893,"is_reserved":false,"is_disabled":false,"rental_uris":{"android":"levelo://app?vid=c33a35ec-cc06-44dd-9c92-34a64b71bf91","ios":"levelo://app?vid=c33a35ec-cc06-44dd-9c92-34a64b71bf91"},"vehicle_type_id":"4","last_reported":1743692998,"current_range_meters":8000,"station_id":"ce4bgqh2rcd13ifvqc5g","pricing_plan_id":"cebpf4jnsgd1na2vs0mg"},{"bike_id":"32a978e0-d0c2-43d4-9b03-19a5c41c27de","system_id":"levelo_inurba_marseille","lat":43.31093,"lon":5.383637,"is_reserved":false,"is_disabled":true,"rental_uris":{"android":"levelo://app?vid=32a978e0-d0c2-43d4-9b03-19a5c41c27de","ios":"levelo://app?vid=32a978e0-d0c2-43d4-9b03-19a5c41c27de"},"vehicle_type_id":"4","last_reported":1743692998,"current_range_meters":8000,"station_id":"ce4bgv92rcd13ifvqcr0","pricing_plan_id":"cebpf4jnsgd1na2vs0mg"},{"bike_id":"e9aa6231-7319-44f2-b513-5298d3681a81","system_id":"levelo_inurba_marseille","lat":43.31157,"lon":5.38718,"is_reserved":false,"is_disabled":false,"rental_uris":{"android":"levelo://app?vid=e9aa6231-7319-44f2-b513-5298d3681a81","ios":"levelo://app?vid=e9aa6231-7319-44f2-b513-5298d3681a81"},"vehicle_type_id":"4","last_reported":1743692998,"current_range_meters":8000,"station_id":"ce4bgv12rcd13ifvqcp0","pricing_plan_id":"cebpf4jnsgd1na2vs0mg"},{"bike_id":"2ad9d3d0-38e8-45d9-ae53-263cabede0d7","system_id":"levelo_inurba_marseille","lat":43.24663,"lon":5.3816,"is_reserved":false,"is_disabled":false,"rental_uris":{"android":"levelo://app?vid=2ad9d3d0-38e8-45d9-ae53-263cabede0d7","ios":"levelo://app?vid=2ad9d3d0-38e8-45d9-ae53-263cabede0d7"},"vehicle_type_id":"4","last_reported":1743692998,"current_range_meters":8000,"station_id":"ce4bhih2rcd13ifvqfr0","pricing_plan_id":"cebpf4jnsgd1na2vs0mg"},{"bike_id":"1abd2b69-af96-446a-bfa8-0d3b6309a32f","system_id":"levelo_inurba_marseille","lat":43.27682,"lon":5.38881,"is_reserved":false,"is_disabled":false,"rental_uris":{"android":"levelo://app?vid=1abd2b69-af96-446a-bfa8-0d3b6309a32f","ios":"levelo://app?vid=1abd2b69-af96-446a-bfa8-0d3b6309a32f"},"vehicle_type_id":"4","last_reported":1743692998,"current_range_meters":8000,"station_id":"ce4bhi12rcd13ifvqfo0","pricing_plan_id":"cebpf4jnsgd1na2vs0mg"},{"bike_id":"2d018838-21df-4d0f-8f91-fabbd6a1548f","system_id":"levelo_inurba_marseille","lat":43.26568,"lon":5.39009,"is_reserved":false,"is_disabled":false,"rental_uris":{"android":"levelo://app?vid=2d018838-21df-4d0f-8f91-fabbd6a1548f","ios":"levelo://app?vid=2d018838-21df-4d0f-8f91-fabbd6a1548f"},"vehicle_type_id":"4","last_reported":1743692998,"current_range_meters":8000,"station_id":"ce4bhe12rcd13ifvqf30","pricing_plan_id":"cebpf4jnsgd1na2vs0mg"},{"bike_id":"e8ea6e40-0b99-4755-b52e-95dcafeaeb3f","system_id":"levelo_inurba_marseille","lat":43.30144,"lon":5.37421,"is_reserved":false,"is_disabled":false,"rental_uris":{"android":"levelo://app?vid=e8ea6e40-0b99-4755-b52e-95dcafeaeb3f","ios":"levelo://app?vid=e8ea6e40-0b99-4755-b52e-95dcafeaeb3f"},"vehicle_type_id":"4","last_reported":1743692998,"current_range_meters":8000,"station_id":"ce4bgs92rcd13ifvqcc0","pricing_plan_id":"cebpf4jnsgd1na2vs0mg"},{"bike_id":"4efe08bc-3ed4-4dd1-ad00-43917e8a6048","system_id":"levelo_inurba_marseille","lat":43.28114,"lon":5.37832,"is_reserved":false,"is_disabled":false,"rental_uris":{"android":"levelo://app?vid=4efe08bc-3ed4-4dd1-ad00-43917e8a6048","ios":"levelo://app?vid=4efe08bc-3ed4-4dd1-ad00-43917e8a6048"},"vehicle_type_id":"4","last_reported":1743692998,"current_range_meters":8000,"station_id":"ce4bha12rcd13ifvqee0","pricing_plan_id":"cebpf4jnsgd1na2vs0mg"},{"bike_id":"15ea3e20-e3c1-434f-8b50-88d1ebba3f71","system_id":"levelo_inurba_marseille","lat":43.2319,"lon":5.3557,"is_reserved":false,"is_disabled":false,"rental_uris":{"android":"levelo://app?vid=15ea3e20-e3c1-434f-8b50-88d1ebba3f71","ios":"levelo://app?vid=15ea3e20-e3c1-434f-8b50-88d1ebba3f71"},"vehicle_type_id":"4","last_reported":1743692998,"current_range_meters":8000,"station_id":"ce4bhu92rcd13ifvqi70","pricing_plan_id":"cebpf4jnsgd1na2vs0mg"},{"bike_id":"75dae32f-059a-4b5b-a5e8-963c6eda2f66","system_id":"levelo_inurba_marseille","lat":43.27517,"lon":5.41014,"is_reserved":false,"is_disabled":false,"rental_uris":{"android":"levelo://app?vid=75dae32f-059a-4b5b-a5e8-963c6eda2f66","ios":"levelo://app?vid=75dae32f-059a-4b5b-a5e8-963c6eda2f66"},"vehicle_type_id":"4","last_reported":1743692998,"current_range_meters":8000,"station_id":"","pricing_plan_id":"cebpf4jnsgd1na2vs0mg"},{"bike_id":"3374421a-949f-40b6-870f-59a2d8ba0de4","system_id":"levelo_inurba_marseille","lat":43.2417,"lon":5.36403,"is_reserved":false,"is_disabled":false,"rental_uris":{"android":"levelo://app?vid=3374421a-949f-40b6-870f-59a2d8ba0de4","ios":"levelo://app?vid=3374421a-949f-40b6-870f-59a2d8ba0de4"},"vehicle_type_id":"4","last_reported":1743692998,"current_range_meters":8400,"station_id":"cpo36qri1sfpv3e86is0","pricing_plan_id":"cebpf4jnsgd1na2vs0mg"},{"bike_id":"c2e6881a-04a3-4a38-9cc0-75cacf165e78","system_id":"levelo_inurba_marseille","lat":43.28832,"lon":5.364645,"is_reserved":false,"is_disabled":false,"rental_uris":{"android":"levelo://app?vid=c2e6881a-04a3-4a38-9cc0-75cacf165e78","ios":"levelo://app?vid=c2e6881a-04a3-4a38-9cc0-75cacf165e78"},"vehicle_type_id":"4","last_reported":1743692998,"current_range_meters":8400,"station_id":"","pricing_plan_id":"cebpf4jnsgd1na2vs0mg"},{"bike_id":"0890fa60-049f-44ea-96c8-ca3ae6292ced","system_id":"levelo_inurba_marseille","lat":43.24812,"lon":5.37462,"is_reserved":false,"is_disabled":false,"rental_uris":{"android":"levelo://app?vid=0890fa60-049f-44ea-96c8-ca3ae6292ced","ios":"levelo://app?vid=0890fa60-049f-44ea-96c8-ca3ae6292ced"},"vehicle_type_id":"4","last_reported":1743692998,"current_range_meters":8400,"station_id":"ce4bhgh2rcd13ifvqfb0","pricing_plan_id":"cebpf4jnsgd1na2vs0mg"},{"bike_id":"eb1eee43-5d86-433d-8a77-df15f73a507c","system_id":"levelo_inurba_marseille","lat":43.26936,"lon":5.40257,"is_reserved":false,"is_disabled":false,"rental_uris":{"android":"levelo://app?vid=eb1eee43-5d86-433d-8a77-df15f73a507c","ios":"levelo://app?vid=eb1eee43-5d86-433d-8a77-df15f73a507c"},"vehicle_type_id":"4","last_reported":1743692998,"current_range_meters":9200,"station_id":"cjm6bp8fraef2m0cb0m0","pricing_plan_id":"cebpf4jnsgd1na2vs0mg"},{"bike_id":"35e7a710-72f1-421d-9dab-af7379bb9994","system_id":"levelo_inurba_marseille","lat":43.3133,"lon":5.39685,"is_reserved":false,"is_disabled":false,"rental_uris":{"android":"levelo://app?vid=35e7a710-72f1-421d-9dab-af7379bb9994","ios":"levelo://app?vid=35e7a710-72f1-421d-9dab-af7379bb9994"},"vehicle_type_id":"4","last_reported":1743692998,"current_range_meters":8400,"station_id":"ce4bgvp2rcd13ifvqcu0","pricing_plan_id":"cebpf4jnsgd1na2vs0mg"},{"bike_id":"b5fa61b4-55c0-4d0f-b518-f0583e71aca3","system_id":"levelo_inurba_marseille","lat":43.22924,"lon":5.35378,"is_reserved":false,"is_disabled":false,"rental_uris":{"android":"levelo://app?vid=b5fa61b4-55c0-4d0f-b518-f0583e71aca3","ios":"levelo://app?vid=b5fa61b4-55c0-4d0f-b518-f0583e71aca3"},"vehicle_type_id":"4","last_reported":1743692998,"current_range_meters":8400,"station_id":"cpo3532slgdg3j2ikp40","pricing_plan_id":"cebpf4jnsgd1na2vs0mg"},{"bike_id":"fd39aa29-bd0d-4ce9-aa05-dc79c01d07dc","system_id":"levelo_inurba_marseille","lat":43.30543,"lon":5.36546,"is_reserved":false,"is_disabled":false,"rental_uris":{"android":"levelo://app?vid=fd39aa29-bd0d-4ce9-aa05-dc79c01d07dc","ios":"levelo://app?vid=fd39aa29-bd0d-4ce9-aa05-dc79c01d07dc"},"vehicle_type_id":"4","last_reported":1743692998,"current_range_meters":8400,"station_id":"ce4bgs12rcd13ifvqcag","pricing_plan_id":"cebpf4jnsgd1na2vs0mg"},{"bike_id":"57cf2fb7-0dec-4e92-80d9-8b6d8042063d","system_id":"levelo_inurba_marseille","lat":43.29533,"lon":5.39044,"is_reserved":false,"is_disabled":false,"rental_uris":{"android":"levelo://app?vid=57cf2fb7-0dec-4e92-80d9-8b6d8042063d","ios":"levelo://app?vid=57cf2fb7-0dec-4e92-80d9-8b6d8042063d"},"vehicle_type_id":"4","last_reported":1743692998,"current_range_meters":8000,"station_id":"ce4bh3p2rcd13ifvqdp0","pricing_plan_id":"cebpf4jnsgd1na2vs0mg"},{"bike_id":"6b901243-5970-4d41-950d-b84f98e2f80e","system_id":"levelo_inurba_marseille","lat":43.29247,"lon":5.37617,"is_reserved":false,"is_disabled":false,"rental_uris":{"android":"levelo://app?vid=6b901243-5970-4d41-950d-b84f98e2f80e","ios":"levelo://app?vid=6b901243-5970-4d41-950d-b84f98e2f80e"},"vehicle_type_id":"4","last_reported":1743692998,"current_range_meters":8400,"station_id":"ce4bgi12rcd13ifvqb80","pricing_plan_id":"cebpf4jnsgd1na2vs0mg"},{"bike_id":"2d852c82-ae6a-4739-92da-48a433ac3774","system_id":"levelo_inurba_marseille","lat":43.28435,"lon":5.39185,"is_reserved":false,"is_disabled":false,"rental_uris":{"android":"levelo://app?vid=2d852c82-ae6a-4739-92da-48a433ac3774","ios":"levelo://app?vid=2d852c82-ae6a-4739-92da-48a433ac3774"},"vehicle_type_id":"4","last_reported":1743692998,"current_range_meters":8400,"station_id":"ce4bhoh2rcd13ifvqh5g","pricing_plan_id":"cebpf4jnsgd1na2vs0mg"},{"bike_id":"ae22149f-2338-480f-904b-8a9dd9e394a9","system_id":"levelo_inurba_marseille","lat":43.25701,"lon":5.41101,"is_reserved":false,"is_disabled":false,"rental_uris":{"android":"levelo://app?vid=ae22149f-2338-480f-904b-8a9dd9e394a9","ios":"levelo://app?vid=ae22149f-2338-480f-904b-8a9dd9e394a9"},"vehicle_type_id":"4","last_reported":1743692998,"current_range_meters":8800,"station_id":"ce4bhkp2rcd13ifvqgd0","pricing_plan_id":"cebpf4jnsgd1na2vs0mg"},{"bike_id":"61da1036-90fb-4e6f-ad89-ef7fc71db220","system_id":"levelo_inurba_marseille","lat":43.2659,"lon":5.37299,"is_reserved":false,"is_disabled":false,"rental_uris":{"android":"levelo://app?vid=61da1036-90fb-4e6f-ad89-ef7fc71db220","ios":"levelo://app?vid=61da1036-90fb-4e6f-ad89-ef7fc71db220"},"vehicle_type_id":"4","last_reported":1743692998,"current_range_meters":8800,"station_id":"ce4bhg12rcd13ifvqf70","pricing_plan_id":"cebpf4jnsgd1na2vs0mg"},{"bike_id":"1e057469-d48a-4c7b-8977-52fba3ab4d3e","system_id":"levelo_inurba_marseille","lat":43.30888,"lon":5.39652,"is_reserved":false,"is_disabled":false,"rental_uris":{"android":"levelo://app?vid=1e057469-d48a-4c7b-8977-52fba3ab4d3e","ios":"levelo://app?vid=1e057469-d48a-4c7b-8977-52fba3ab4d3e"},"vehicle_type_id":"4","last_reported":1743692998,"current_range_meters":8800,"station_id":"ce4bh012rcd13ifvqcv0","pricing_plan_id":"cebpf4jnsgd1na2vs0mg"},{"bike_id":"31345a23-24d3-4e46-acb1-3d5065f4e2c4","system_id":"levelo_inurba_marseille","lat":43.297319,"lon":5.380909,"is_reserved":false,"is_disabled":false,"rental_uris":{"android":"levelo://app?vid=31345a23-24d3-4e46-acb1-3d5065f4e2c4","ios":"levelo://app?vid=31345a23-24d3-4e46-acb1-3d5065f4e2c4"},"vehicle_type_id":"4","last_reported":1743692998,"current_range_meters":8800,"station_id":"ce4bgi12rcd13ifvqb70","pricing_plan_id":"cebpf4jnsgd1na2vs0mg"},{"bike_id":"b5130132-af45-4418-a49f-f230e2e4f81e","system_id":"levelo_inurba_marseille","lat":43.26211,"lon":5.37439,"is_reserved":false,"is_disabled":false,"rental_uris":{"android":"levelo://app?vid=b5130132-af45-4418-a49f-f230e2e4f81e","ios":"levelo://app?vid=b5130132-af45-4418-a49f-f230e2e4f81e"},"vehicle_type_id":"4","last_reported":1743692998,"current_range_meters":8800,"station_id":"ce4bhgp2rcd13ifvqfc0","pricing_plan_id":"cebpf4jnsgd1na2vs0mg"},{"bike_id":"4a8d215f-728c-4424-bfbf-5faa62888e2d","system_id":"levelo_inurba_marseille","lat":43.295101,"lon":5.394076,"is_reserved":false,"is_disabled":true,"rental_uris":{"android":"levelo://app?vid=4a8d215f-728c-4424-bfbf-5faa62888e2d","ios":"levelo://app?vid=4a8d215f-728c-4424-bfbf-5faa62888e2d"},"vehicle_type_id":"4","last_reported":1743692998,"current_range_meters":8800,"station_id":"ce4bh292rcd13ifvqdf0","pricing_plan_id":"cebpf4jnsgd1na2vs0mg"},{"bike_id":"ca5931b3-d713-43ea-8046-f1a31dfb2581","system_id":"levelo_inurba_marseille","lat":43.32124,"lon":5.383,"is_reserved":false,"is_disabled":false,"rental_uris":{"android":"levelo://app?vid=ca5931b3-d713-43ea-8046-f1a31dfb2581","ios":"levelo://app?vid=ca5931b3-d713-43ea-8046-f1a31dfb2581"},"vehicle_type_id":"4","last_reported":1743692998,"current_range_meters":9200,"station_id":"","pricing_plan_id":"cebpf4jnsgd1na2vs0mg"},{"bike_id":"cd83c8ac-ed09-4369-9279-b6f36f2bbd3c","system_id":"levelo_inurba_marseille","lat":43.30808,"lon":5.38236,"is_reserved":false,"is_disabled":false,"rental_uris":{"android":"levelo://app?vid=cd83c8ac-ed09-4369-9279-b6f36f2bbd3c","ios":"levelo://app?vid=cd83c8ac-ed09-4369-9279-b6f36f2bbd3c"},"vehicle_type_id":"4","last_reported":1743692998,"current_range_meters":9200,"station_id":"","pricing_plan_id":"cebpf4jnsgd1na2vs0mg"},{"bike_id":"fcf89ddb-17c8-413d-b567-06fb398e1b9e","system_id":"levelo_inurba_marseille","lat":43.29365,"lon":5.37846,"is_reserved":false,"is_disabled":false,"rental_uris":{"android":"levelo://app?vid=fcf89ddb-17c8-413d-b567-06fb398e1b9e","ios":"levelo://app?vid=fcf89ddb-17c8-413d-b567-06fb398e1b9e"},"vehicle_type_id":"4","last_reported":1743692998,"current_range_meters":9200,"station_id":"ce4bgjh2rcd13ifvqbf0","pricing_plan_id":"cebpf4jnsgd1na2vs0mg"},{"bike_id":"7b77f3bd-32ff-4423-9b76-f4386a92513c","system_id":"levelo_inurba_marseille","lat":43.28073,"lon":5.39655,"is_reserved":false,"is_disabled":false,"rental_uris":{"android":"levelo://app?vid=7b77f3bd-32ff-4423-9b76-f4386a92513c","ios":"levelo://app?vid=7b77f3bd-32ff-4423-9b76-f4386a92513c"},"vehicle_type_id":"4","last_reported":1743692998,"current_range_meters":9200,"station_id":"ce4bho12rcd13ifvqh2g","pricing_plan_id":"cebpf4jnsgd1na2vs0mg"},{"bike_id":"f2c75af7-9577-438c-bbd1-0a97c064aca3","system_id":"levelo_inurba_marseille","lat":43.27211,"lon":5.39176,"is_reserved":false,"is_disabled":false,"rental_uris":{"android":"levelo://app?vid=f2c75af7-9577-438c-bbd1-0a97c064aca3","ios":"levelo://app?vid=f2c75af7-9577-438c-bbd1-0a97c064aca3"},"vehicle_type_id":"4","last_reported":1743692998,"current_range_meters":12000,"station_id":"ce4bhhp2rcd13ifvqfm0","pricing_plan_id":"cebpf4jnsgd1na2vs0mg"},{"bike_id":"7d49898d-4c6e-4131-9fdb-37de62f2c79c","system_id":"levelo_inurba_marseille","lat":43.28893,"lon":5.37127,"is_reserved":false,"is_disabled":false,"rental_uris":{"android":"levelo://app?vid=7d49898d-4c6e-4131-9fdb-37de62f2c79c","ios":"levelo://app?vid=7d49898d-4c6e-4131-9fdb-37de62f2c79c"},"vehicle_type_id":"4","last_reported":1743692998,"current_range_meters":9200,"station_id":"","pricing_plan_id":"cebpf4jnsgd1na2vs0mg"},{"bike_id":"4b058c32-98e3-4f0d-9232-322d5d43c9df","system_id":"levelo_inurba_marseille","lat":43.25496,"lon":5.37648,"is_reserved":false,"is_disabled":false,"rental_uris":{"android":"levelo://app?vid=4b058c32-98e3-4f0d-9232-322d5d43c9df","ios":"levelo://app?vid=4b058c32-98e3-4f0d-9232-322d5d43c9df"},"vehicle_type_id":"4","last_reported":1743692998,"current_range_meters":9600,"station_id":"ce4bhh12rcd13ifvqff0","pricing_plan_id":"cebpf4jnsgd1na2vs0mg"},{"bike_id":"eae1c1f9-7db0-41d8-acdc-37132416b428","system_id":"levelo_inurba_marseille","lat":43.27413,"lon":5.39421,"is_reserved":false,"is_disabled":false,"rental_uris":{"android":"levelo://app?vid=eae1c1f9-7db0-41d8-acdc-37132416b428","ios":"levelo://app?vid=eae1c1f9-7db0-41d8-acdc-37132416b428"},"vehicle_type_id":"4","last_reported":1743692998,"current_range_meters":9200,"station_id":"ce4bhdp2rcd13ifvqf20","pricing_plan_id":"cebpf4jnsgd1na2vs0mg"},{"bike_id":"c10f5036-255b-43fa-87e2-aab7a29dcca5","system_id":"levelo_inurba_marseille","lat":43.309296,"lon":5.401413,"is_reserved":false,"is_disabled":false,"rental_uris":{"android":"levelo://app?vid=c10f5036-255b-43fa-87e2-aab7a29dcca5","ios":"levelo://app?vid=c10f5036-255b-43fa-87e2-aab7a29dcca5"},"vehicle_type_id":"4","last_reported":1743692998,"current_range_meters":9200,"station_id":"ce4bgvp2rcd13ifvqct0","pricing_plan_id":"cebpf4jnsgd1na2vs0mg"},{"bike_id":"4cc8776d-85e9-4b14-8e27-348f0377351d","system_id":"levelo_inurba_marseille","lat":43.30583,"lon":5.37209,"is_reserved":false,"is_disabled":false,"rental_uris":{"android":"levelo://app?vid=4cc8776d-85e9-4b14-8e27-348f0377351d","ios":"levelo://app?vid=4cc8776d-85e9-4b14-8e27-348f0377351d"},"vehicle_type_id":"4","last_reported":1743692998,"current_range_meters":9200,"station_id":"ce4bgqh2rcd13ifvqc4g","pricing_plan_id":"cebpf4jnsgd1na2vs0mg"},{"bike_id":"c1a51692-a30b-438b-8ee7-06171ddd4375","system_id":"levelo_inurba_marseille","lat":43.31361,"lon":5.38495,"is_reserved":false,"is_disabled":false,"rental_uris":{"android":"levelo://app?vid=c1a51692-a30b-438b-8ee7-06171ddd4375","ios":"levelo://app?vid=c1a51692-a30b-438b-8ee7-06171ddd4375"},"vehicle_type_id":"4","last_reported":1743692998,"current_range_meters":9200,"station_id":"ce4bgt92rcd13ifvqcf0","pricing_plan_id":"cebpf4jnsgd1na2vs0mg"},{"bike_id":"3b2262e0-26c9-4d77-aa93-71e029ce3c3f","system_id":"levelo_inurba_marseille","lat":43.326593,"lon":5.409952,"is_reserved":false,"is_disabled":false,"rental_uris":{"android":"levelo://app?vid=3b2262e0-26c9-4d77-aa93-71e029ce3c3f","ios":"levelo://app?vid=3b2262e0-26c9-4d77-aa93-71e029ce3c3f"},"vehicle_type_id":"4","last_reported":1743692998,"current_range_meters":9200,"station_id":"ce4bh112rcd13ifvqd90","pricing_plan_id":"cebpf4jnsgd1na2vs0mg"},{"bike_id":"5a61cd4a-6353-45bf-b1c0-73b902c79f53","system_id":"levelo_inurba_marseille","lat":43.290289,"lon":5.381204,"is_reserved":false,"is_disabled":false,"rental_uris":{"android":"levelo://app?vid=5a61cd4a-6353-45bf-b1c0-73b902c79f53","ios":"levelo://app?vid=5a61cd4a-6353-45bf-b1c0-73b902c79f53"},"vehicle_type_id":"4","last_reported":1743692998,"current_range_meters":9600,"station_id":"ce4bh4p2rcd13ifvqe1g","pricing_plan_id":"cebpf4jnsgd1na2vs0mg"},{"bike_id":"6b53d01e-77c7-4299-99ae-dda20d28569d","system_id":"levelo_inurba_marseille","lat":43.27988,"lon":5.38702,"is_reserved":false,"is_disabled":false,"rental_uris":{"android":"levelo://app?vid=6b53d01e-77c7-4299-99ae-dda20d28569d","ios":"levelo://app?vid=6b53d01e-77c7-4299-99ae-dda20d28569d"},"vehicle_type_id":"4","last_reported":1743692998,"current_range_meters":9600,"station_id":"ce4bhg12rcd13ifvqf80","pricing_plan_id":"cebpf4jnsgd1na2vs0mg"},{"bike_id":"8084a1e5-3eb2-4a07-82e8-309719c1a80e","system_id":"levelo_inurba_marseille","lat":43.26228,"lon":5.40456,"is_reserved":false,"is_disabled":false,"rental_uris":{"android":"levelo://app?vid=8084a1e5-3eb2-4a07-82e8-309719c1a80e","ios":"levelo://app?vid=8084a1e5-3eb2-4a07-82e8-309719c1a80e"},"vehicle_type_id":"4","last_reported":1743692998,"current_range_meters":9600,"station_id":"ce4bhmh2rcd13ifvqgmg","pricing_plan_id":"cebpf4jnsgd1na2vs0mg"},{"bike_id":"a117db19-3a63-4c66-99c1-48243cdea383","system_id":"levelo_inurba_marseille","lat":43.32338,"lon":5.40623,"is_reserved":false,"is_disabled":false,"rental_uris":{"android":"levelo://app?vid=a117db19-3a63-4c66-99c1-48243cdea383","ios":"levelo://app?vid=a117db19-3a63-4c66-99c1-48243cdea383"},"vehicle_type_id":"4","last_reported":1743692998,"current_range_meters":9600,"station_id":"ce4bhq92rcd13ifvqhjg","pricing_plan_id":"cebpf4jnsgd1na2vs0mg"},{"bike_id":"3619694c-3301-416c-8e78-88c2ffeee77d","system_id":"levelo_inurba_marseille","lat":43.23198,"lon":5.35548,"is_reserved":false,"is_disabled":false,"rental_uris":{"android":"levelo://app?vid=3619694c-3301-416c-8e78-88c2ffeee77d","ios":"levelo://app?vid=3619694c-3301-416c-8e78-88c2ffeee77d"},"vehicle_type_id":"4","last_reported":1743692998,"current_range_meters":9600,"station_id":"ce4bhu92rcd13ifvqi70","pricing_plan_id":"cebpf4jnsgd1na2vs0mg"},{"bike_id":"6c51a2a4-1207-41d6-8962-c4f070bd2bd2","system_id":"levelo_inurba_marseille","lat":43.27087,"lon":5.42266,"is_reserved":false,"is_disabled":false,"rental_uris":{"android":"levelo://app?vid=6c51a2a4-1207-41d6-8962-c4f070bd2bd2","ios":"levelo://app?vid=6c51a2a4-1207-41d6-8962-c4f070bd2bd2"},"vehicle_type_id":"4","last_reported":1743692998,"current_range_meters":9600,"station_id":"ce4bhk92rcd13ifvqgb0","pricing_plan_id":"cebpf4jnsgd1na2vs0mg"},{"bike_id":"73d854ad-9eb6-4d68-8878-e9b2295ae65a","system_id":"levelo_inurba_marseille","lat":43.2306,"lon":5.35488,"is_reserved":false,"is_disabled":false,"rental_uris":{"android":"levelo://app?vid=73d854ad-9eb6-4d68-8878-e9b2295ae65a","ios":"levelo://app?vid=73d854ad-9eb6-4d68-8878-e9b2295ae65a"},"vehicle_type_id":"4","last_reported":1743692998,"current_range_meters":10000,"station_id":"cpo3342slgdg3j2ifvpg","pricing_plan_id":"cebpf4jnsgd1na2vs0mg"},{"bike_id":"27fdfdc8-dd07-4636-aadd-2ef5731cd0ea","system_id":"levelo_inurba_marseille","lat":43.30944,"lon":5.40142,"is_reserved":false,"is_disabled":false,"rental_uris":{"android":"levelo://app?vid=27fdfdc8-dd07-4636-aadd-2ef5731cd0ea","ios":"levelo://app?vid=27fdfdc8-dd07-4636-aadd-2ef5731cd0ea"},"vehicle_type_id":"4","last_reported":1743692998,"current_range_meters":10000,"station_id":"ce4bgvp2rcd13ifvqct0","pricing_plan_id":"cebpf4jnsgd1na2vs0mg"},{"bike_id":"f96b18ed-5453-47f8-8e0b-e9708d7f8c91","system_id":"levelo_inurba_marseille","lat":43.2798,"lon":5.41658,"is_reserved":false,"is_disabled":false,"rental_uris":{"android":"levelo://app?vid=f96b18ed-5453-47f8-8e0b-e9708d7f8c91","ios":"levelo://app?vid=f96b18ed-5453-47f8-8e0b-e9708d7f8c91"},"vehicle_type_id":"4","last_reported":1743692998,"current_range_meters":10000,"station_id":"ce4bho12rcd13ifvqh1g","pricing_plan_id":"cebpf4jnsgd1na2vs0mg"},{"bike_id":"59983734-f15a-4cc7-bc35-b27a04eaa43f","system_id":"levelo_inurba_marseille","lat":43.27915,"lon":5.39584,"is_reserved":false,"is_disabled":false,"rental_uris":{"android":"levelo://app?vid=59983734-f15a-4cc7-bc35-b27a04eaa43f","ios":"levelo://app?vid=59983734-f15a-4cc7-bc35-b27a04eaa43f"},"vehicle_type_id":"4","last_reported":1743692998,"current_range_meters":10000,"station_id":"ce4bhf92rcd13ifvqf40","pricing_plan_id":"cebpf4jnsgd1na2vs0mg"},{"bike_id":"a6ea1aec-0341-4f8a-aa57-8751baa05364","system_id":"levelo_inurba_marseille","lat":43.31721,"lon":5.37636,"is_reserved":false,"is_disabled":false,"rental_uris":{"android":"levelo://app?vid=a6ea1aec-0341-4f8a-aa57-8751baa05364","ios":"levelo://app?vid=a6ea1aec-0341-4f8a-aa57-8751baa05364"},"vehicle_type_id":"4","last_reported":1743692998,"current_range_meters":10000,"station_id":"","pricing_plan_id":"cebpf4jnsgd1na2vs0mg"},{"bike_id":"2635283e-ffd4-4c1f-b9e8-1b146ac4c8cc","system_id":"levelo_inurba_marseille","lat":43.3022,"lon":5.41899,"is_reserved":false,"is_disabled":false,"rental_uris":{"android":"levelo://app?vid=2635283e-ffd4-4c1f-b9e8-1b146ac4c8cc","ios":"levelo://app?vid=2635283e-ffd4-4c1f-b9e8-1b146ac4c8cc"},"vehicle_type_id":"4","last_reported":1743692998,"current_range_meters":10000,"station_id":"","pricing_plan_id":"cebpf4jnsgd1na2vs0mg"},{"bike_id":"be2de784-8817-4cbf-aaac-38fea641127c","system_id":"levelo_inurba_marseille","lat":43.306069,"lon":5.372375,"is_reserved":false,"is_disabled":false,"rental_uris":{"android":"levelo://app?vid=be2de784-8817-4cbf-aaac-38fea641127c","ios":"levelo://app?vid=be2de784-8817-4cbf-aaac-38fea641127c"},"vehicle_type_id":"4","last_reported":1743692998,"current_range_meters":10000,"station_id":"ce4bgqh2rcd13ifvqc4g","pricing_plan_id":"cebpf4jnsgd1na2vs0mg"},{"bike_id":"595cffab-d83f-41c2-b5f7-9f8a9395915d","system_id":"levelo_inurba_marseille","lat":43.28722,"lon":5.3609,"is_reserved":false,"is_disabled":false,"rental_uris":{"android":"levelo://app?vid=595cffab-d83f-41c2-b5f7-9f8a9395915d","ios":"levelo://app?vid=595cffab-d83f-41c2-b5f7-9f8a9395915d"},"vehicle_type_id":"4","last_reported":1743692998,"current_range_meters":10000,"station_id":"cki0cbj6b192h4jlfktg","pricing_plan_id":"cebpf4jnsgd1na2vs0mg"},{"bike_id":"70e5b39f-29e3-4ea9-aa83-5a60a8eec6f8","system_id":"levelo_inurba_marseille","lat":43.25044,"lon":5.41701,"is_reserved":false,"is_disabled":false,"rental_uris":{"android":"levelo://app?vid=70e5b39f-29e3-4ea9-aa83-5a60a8eec6f8","ios":"levelo://app?vid=70e5b39f-29e3-4ea9-aa83-5a60a8eec6f8"},"vehicle_type_id":"4","last_reported":1743692998,"current_range_meters":10000,"station_id":"","pricing_plan_id":"cebpf4jnsgd1na2vs0mg"},{"bike_id":"e887e1b0-3e28-4312-9fbe-6970a3a27c4a","system_id":"levelo_inurba_marseille","lat":43.25904,"lon":5.40918,"is_reserved":false,"is_disabled":false,"rental_uris":{"android":"levelo://app?vid=e887e1b0-3e28-4312-9fbe-6970a3a27c4a","ios":"levelo://app?vid=e887e1b0-3e28-4312-9fbe-6970a3a27c4a"},"vehicle_type_id":"4","last_reported":1743692998,"current_range_meters":10800,"station_id":"ce4bhm92rcd13ifvqglg","pricing_plan_id":"cebpf4jnsgd1na2vs0mg"},{"bike_id":"85d52ac0-4bee-4257-89a0-86469614f9c1","system_id":"levelo_inurba_marseille","lat":43.28065,"lon":5.39639,"is_reserved":false,"is_disabled":false,"rental_uris":{"android":"levelo://app?vid=85d52ac0-4bee-4257-89a0-86469614f9c1","ios":"levelo://app?vid=85d52ac0-4bee-4257-89a0-86469614f9c1"},"vehicle_type_id":"4","last_reported":1743692998,"current_range_meters":10800,"station_id":"ce4bho12rcd13ifvqh2g","pricing_plan_id":"cebpf4jnsgd1na2vs0mg"},{"bike_id":"3cf22d29-90b6-4c79-a643-886bc3743ca7","system_id":"levelo_inurba_marseille","lat":43.33436,"lon":5.40054,"is_reserved":false,"is_disabled":false,"rental_uris":{"android":"levelo://app?vid=3cf22d29-90b6-4c79-a643-886bc3743ca7","ios":"levelo://app?vid=3cf22d29-90b6-4c79-a643-886bc3743ca7"},"vehicle_type_id":"4","last_reported":1743692998,"current_range_meters":10800,"station_id":"","pricing_plan_id":"cebpf4jnsgd1na2vs0mg"},{"bike_id":"841321b1-0867-4005-95a9-9aff42541c74","system_id":"levelo_inurba_marseille","lat":43.28039,"lon":5.36937,"is_reserved":false,"is_disabled":false,"rental_uris":{"android":"levelo://app?vid=841321b1-0867-4005-95a9-9aff42541c74","ios":"levelo://app?vid=841321b1-0867-4005-95a9-9aff42541c74"},"vehicle_type_id":"4","last_reported":1743692998,"current_range_meters":10800,"station_id":"ce4bha12rcd13ifvqef0","pricing_plan_id":"cebpf4jnsgd1na2vs0mg"},{"bike_id":"e3a29d38-a611-4b12-87ef-2fb8a21c41d5","system_id":"levelo_inurba_marseille","lat":43.229333,"lon":5.353789,"is_reserved":false,"is_disabled":false,"rental_uris":{"android":"levelo://app?vid=e3a29d38-a611-4b12-87ef-2fb8a21c41d5","ios":"levelo://app?vid=e3a29d38-a611-4b12-87ef-2fb8a21c41d5"},"vehicle_type_id":"4","last_reported":1743692998,"current_range_meters":10800,"station_id":"cpo3532slgdg3j2ikp40","pricing_plan_id":"cebpf4jnsgd1na2vs0mg"},{"bike_id":"c1c63035-c83b-4419-8cbf-133778d95125","system_id":"levelo_inurba_marseille","lat":43.29786,"lon":5.39343,"is_reserved":false,"is_disabled":true,"rental_uris":{"android":"levelo://app?vid=c1c63035-c83b-4419-8cbf-133778d95125","ios":"levelo://app?vid=c1c63035-c83b-4419-8cbf-133778d95125"},"vehicle_type_id":"4","last_reported":1743692998,"current_range_meters":10800,"station_id":"chh1huq6cuj3fo74tm60","pricing_plan_id":"cebpf4jnsgd1na2vs0mg"},{"bike_id":"c13336a2-47ce-488c-b5b6-77c01a3ac1d1","system_id":"levelo_inurba_marseille","lat":43.31903,"lon":5.40734,"is_reserved":false,"is_disabled":true,"rental_uris":{"android":"levelo://app?vid=c13336a2-47ce-488c-b5b6-77c01a3ac1d1","ios":"levelo://app?vid=c13336a2-47ce-488c-b5b6-77c01a3ac1d1"},"vehicle_type_id":"4","last_reported":1743692998,"current_range_meters":10800,"station_id":"ce4bhq12rcd13ifvqhig","pricing_plan_id":"cebpf4jnsgd1na2vs0mg"},{"bike_id":"63c19073-a7de-46ed-a396-8639743b910e","system_id":"levelo_inurba_marseille","lat":43.23206,"lon":5.35533,"is_reserved":false,"is_disabled":false,"rental_uris":{"android":"levelo://app?vid=63c19073-a7de-46ed-a396-8639743b910e","ios":"levelo://app?vid=63c19073-a7de-46ed-a396-8639743b910e"},"vehicle_type_id":"4","last_reported":1743692998,"current_range_meters":10800,"station_id":"ce4bhu92rcd13ifvqi70","pricing_plan_id":"cebpf4jnsgd1na2vs0mg"},{"bike_id":"368016ba-38fc-47e1-9d5f-b76d9dfe11df","system_id":"levelo_inurba_marseille","lat":43.26925,"lon":5.38924,"is_reserved":false,"is_disabled":false,"rental_uris":{"android":"levelo://app?vid=368016ba-38fc-47e1-9d5f-b76d9dfe11df","ios":"levelo://app?vid=368016ba-38fc-47e1-9d5f-b76d9dfe11df"},"vehicle_type_id":"4","last_reported":1743692998,"current_range_meters":10800,"station_id":"ce4bhhh2rcd13ifvqfl0","pricing_plan_id":"cebpf4jnsgd1na2vs0mg"},{"bike_id":"cbc78876-8405-49f7-8169-537ad3f1f273","system_id":"levelo_inurba_marseille","lat":43.25081,"lon":5.39513,"is_reserved":false,"is_disabled":false,"rental_uris":{"android":"levelo://app?vid=cbc78876-8405-49f7-8169-537ad3f1f273","ios":"levelo://app?vid=cbc78876-8405-49f7-8169-537ad3f1f273"},"vehicle_type_id":"4","last_reported":1743692998,"current_range_meters":10800,"station_id":"ce4bhm12rcd13ifvqgkg","pricing_plan_id":"cebpf4jnsgd1na2vs0mg"},{"bike_id":"03621e27-7737-4553-a20f-2f2e0e6120b9","system_id":"levelo_inurba_marseille","lat":43.26232,"lon":5.40454,"is_reserved":false,"is_disabled":false,"rental_uris":{"android":"levelo://app?vid=03621e27-7737-4553-a20f-2f2e0e6120b9","ios":"levelo://app?vid=03621e27-7737-4553-a20f-2f2e0e6120b9"},"vehicle_type_id":"4","last_reported":1743692998,"current_range_meters":11200,"station_id":"ce4bhmh2rcd13ifvqgmg","pricing_plan_id":"cebpf4jnsgd1na2vs0mg"},{"bike_id":"8c575c23-15f6-4fa0-9e53-c2fb0655c7c9","system_id":"levelo_inurba_marseille","lat":43.27496,"lon":5.42448,"is_reserved":false,"is_disabled":false,"rental_uris":{"android":"levelo://app?vid=8c575c23-15f6-4fa0-9e53-c2fb0655c7c9","ios":"levelo://app?vid=8c575c23-15f6-4fa0-9e53-c2fb0655c7c9"},"vehicle_type_id":"4","last_reported":1743692998,"current_range_meters":11200,"station_id":"ce4bhn92rcd13ifvqgrg","pricing_plan_id":"cebpf4jnsgd1na2vs0mg"},{"bike_id":"a730aa9f-560d-4f37-8a6e-2723154e698a","system_id":"levelo_inurba_marseille","lat":43.255831,"lon":5.382274,"is_reserved":false,"is_disabled":false,"rental_uris":{"android":"levelo://app?vid=a730aa9f-560d-4f37-8a6e-2723154e698a","ios":"levelo://app?vid=a730aa9f-560d-4f37-8a6e-2723154e698a"},"vehicle_type_id":"4","last_reported":1743692998,"current_range_meters":10800,"station_id":"ce4bgkp2rcd13ifvqbmg","pricing_plan_id":"cebpf4jnsgd1na2vs0mg"},{"bike_id":"efddeda7-6eb2-4c14-868d-fa0ce0b35ef3","system_id":"levelo_inurba_marseille","lat":43.31296,"lon":5.38271,"is_reserved":false,"is_disabled":false,"rental_uris":{"android":"levelo://app?vid=efddeda7-6eb2-4c14-868d-fa0ce0b35ef3","ios":"levelo://app?vid=efddeda7-6eb2-4c14-868d-fa0ce0b35ef3"},"vehicle_type_id":"4","last_reported":1743692998,"current_range_meters":11200,"station_id":"","pricing_plan_id":"cebpf4jnsgd1na2vs0mg"},{"bike_id":"bae24ed1-3646-4f0e-a687-105657c6cbe6","system_id":"levelo_inurba_marseille","lat":43.24668,"lon":5.38155,"is_reserved":false,"is_disabled":false,"rental_uris":{"android":"levelo://app?vid=bae24ed1-3646-4f0e-a687-105657c6cbe6","ios":"levelo://app?vid=bae24ed1-3646-4f0e-a687-105657c6cbe6"},"vehicle_type_id":"4","last_reported":1743692998,"current_range_meters":11200,"station_id":"ce4bhih2rcd13ifvqfr0","pricing_plan_id":"cebpf4jnsgd1na2vs0mg"},{"bike_id":"b58a0e28-d6e3-4110-8e63-14f947d1f32a","system_id":"levelo_inurba_marseille","lat":43.28077,"lon":5.39662,"is_reserved":false,"is_disabled":false,"rental_uris":{"android":"levelo://app?vid=b58a0e28-d6e3-4110-8e63-14f947d1f32a","ios":"levelo://app?vid=b58a0e28-d6e3-4110-8e63-14f947d1f32a"},"vehicle_type_id":"4","last_reported":1743692998,"current_range_meters":10800,"station_id":"ce4bho12rcd13ifvqh2g","pricing_plan_id":"cebpf4jnsgd1na2vs0mg"},{"bike_id":"8e4581a0-ac48-45f0-8881-72e126b8df71","system_id":"levelo_inurba_marseille","lat":43.31223,"lon":5.36859,"is_reserved":false,"is_disabled":false,"rental_uris":{"android":"levelo://app?vid=8e4581a0-ac48-45f0-8881-72e126b8df71","ios":"levelo://app?vid=8e4581a0-ac48-45f0-8881-72e126b8df71"},"vehicle_type_id":"4","last_reported":1743692998,"current_range_meters":11200,"station_id":"ce4bgl92rcd13ifvqbq0","pricing_plan_id":"cebpf4jnsgd1na2vs0mg"},{"bike_id":"88b21652-6e21-4f3d-a239-a70a01df2748","system_id":"levelo_inurba_marseille","lat":43.25088,"lon":5.39525,"is_reserved":false,"is_disabled":false,"rental_uris":{"android":"levelo://app?vid=88b21652-6e21-4f3d-a239-a70a01df2748","ios":"levelo://app?vid=88b21652-6e21-4f3d-a239-a70a01df2748"},"vehicle_type_id":"4","last_reported":1743692998,"current_range_meters":11200,"station_id":"ce4bhm12rcd13ifvqgkg","pricing_plan_id":"cebpf4jnsgd1na2vs0mg"},{"bike_id":"ccfad1b0-e2a9-4746-b634-c10b6110773f","system_id":"levelo_inurba_marseille","lat":43.29525,"lon":5.3904,"is_reserved":false,"is_disabled":false,"rental_uris":{"android":"levelo://app?vid=ccfad1b0-e2a9-4746-b634-c10b6110773f","ios":"levelo://app?vid=ccfad1b0-e2a9-4746-b634-c10b6110773f"},"vehicle_type_id":"4","last_reported":1743692998,"current_range_meters":11600,"station_id":"ce4bh3p2rcd13ifvqdp0","pricing_plan_id":"cebpf4jnsgd1na2vs0mg"},{"bike_id":"2c036d83-05b1-4f2d-827b-4f2e35d29d20","system_id":"levelo_inurba_marseille","lat":43.26547,"lon":5.37288,"is_reserved":false,"is_disabled":false,"rental_uris":{"android":"levelo://app?vid=2c036d83-05b1-4f2d-827b-4f2e35d29d20","ios":"levelo://app?vid=2c036d83-05b1-4f2d-827b-4f2e35d29d20"},"vehicle_type_id":"4","last_reported":1743692998,"current_range_meters":11600,"station_id":"ce4bhg12rcd13ifvqf70","pricing_plan_id":"cebpf4jnsgd1na2vs0mg"},{"bike_id":"692f3245-71a2-4a5e-be47-09d1b72325ea","system_id":"levelo_inurba_marseille","lat":43.30535,"lon":5.36549,"is_reserved":false,"is_disabled":false,"rental_uris":{"android":"levelo://app?vid=692f3245-71a2-4a5e-be47-09d1b72325ea","ios":"levelo://app?vid=692f3245-71a2-4a5e-be47-09d1b72325ea"},"vehicle_type_id":"4","last_reported":1743692998,"current_range_meters":11600,"station_id":"ce4bgs12rcd13ifvqcag","pricing_plan_id":"cebpf4jnsgd1na2vs0mg"},{"bike_id":"fc0e0677-1f0a-4125-93fb-da95e1f2077c","system_id":"levelo_inurba_marseille","lat":43.30248,"lon":5.40079,"is_reserved":false,"is_disabled":false,"rental_uris":{"android":"levelo://app?vid=fc0e0677-1f0a-4125-93fb-da95e1f2077c","ios":"levelo://app?vid=fc0e0677-1f0a-4125-93fb-da95e1f2077c"},"vehicle_type_id":"4","last_reported":1743692998,"current_range_meters":11600,"station_id":"ce4bgvh2rcd13ifvqcs0","pricing_plan_id":"cebpf4jnsgd1na2vs0mg"},{"bike_id":"4f7c086a-9dc2-411c-a35e-fe5381d7f40d","system_id":"levelo_inurba_marseille","lat":43.2587,"lon":5.39891,"is_reserved":false,"is_disabled":false,"rental_uris":{"android":"levelo://app?vid=4f7c086a-9dc2-411c-a35e-fe5381d7f40d","ios":"levelo://app?vid=4f7c086a-9dc2-411c-a35e-fe5381d7f40d"},"vehicle_type_id":"4","last_reported":1743692998,"current_range_meters":12000,"station_id":"ce4bhl92rcd13ifvqghg","pricing_plan_id":"cebpf4jnsgd1na2vs0mg"},{"bike_id":"dadb935d-027a-4027-b5d0-f0fb8882d196","system_id":"levelo_inurba_marseille","lat":43.24672,"lon":5.3816,"is_reserved":false,"is_disabled":true,"rental_uris":{"android":"levelo://app?vid=dadb935d-027a-4027-b5d0-f0fb8882d196","ios":"levelo://app?vid=dadb935d-027a-4027-b5d0-f0fb8882d196"},"vehicle_type_id":"4","last_reported":1743692998,"current_range_meters":12000,"station_id":"ce4bhih2rcd13ifvqfr0","pricing_plan_id":"cebpf4jnsgd1na2vs0mg"},{"bike_id":"88fe0602-5033-4610-b8b3-85d796ebfed7","system_id":"levelo_inurba_marseille","lat":43.26061,"lon":5.39396,"is_reserved":false,"is_disabled":false,"rental_uris":{"android":"levelo://app?vid=88fe0602-5033-4610-b8b3-85d796ebfed7","ios":"levelo://app?vid=88fe0602-5033-4610-b8b3-85d796ebfed7"},"vehicle_type_id":"4","last_reported":1743692998,"current_range_meters":12000,"station_id":"ce4bhh92rcd13ifvqfj0","pricing_plan_id":"cebpf4jnsgd1na2vs0mg"},{"bike_id":"26bfbb98-54cd-4e2c-bbfd-3cfa1608f24e","system_id":"levelo_inurba_marseille","lat":43.28671,"lon":5.39977,"is_reserved":false,"is_disabled":false,"rental_uris":{"android":"levelo://app?vid=26bfbb98-54cd-4e2c-bbfd-3cfa1608f24e","ios":"levelo://app?vid=26bfbb98-54cd-4e2c-bbfd-3cfa1608f24e"},"vehicle_type_id":"4","last_reported":1743692998,"current_range_meters":12000,"station_id":"","pricing_plan_id":"cebpf4jnsgd1na2vs0mg"},{"bike_id":"301156b7-e9e2-4fbc-88ce-e2edf0d34844","system_id":"levelo_inurba_marseille","lat":43.29027,"lon":5.38134,"is_reserved":false,"is_disabled":true,"rental_uris":{"android":"levelo://app?vid=301156b7-e9e2-4fbc-88ce-e2edf0d34844","ios":"levelo://app?vid=301156b7-e9e2-4fbc-88ce-e2edf0d34844"},"vehicle_type_id":"4","last_reported":1743692998,"current_range_meters":12000,"station_id":"ce4bh4p2rcd13ifvqe1g","pricing_plan_id":"cebpf4jnsgd1na2vs0mg"},{"bike_id":"674dac87-7f43-4a14-983f-cb42f828003f","system_id":"levelo_inurba_marseille","lat":43.28476,"lon":5.3841,"is_reserved":false,"is_disabled":false,"rental_uris":{"android":"levelo://app?vid=674dac87-7f43-4a14-983f-cb42f828003f","ios":"levelo://app?vid=674dac87-7f43-4a14-983f-cb42f828003f"},"vehicle_type_id":"4","last_reported":1743692998,"current_range_meters":12400,"station_id":"ce4bh512rcd13ifvqe3g","pricing_plan_id":"cebpf4jnsgd1na2vs0mg"},{"bike_id":"ba0f0dcf-0102-4753-a38f-c61a05ad1046","system_id":"levelo_inurba_marseille","lat":43.31764,"lon":5.39013,"is_reserved":false,"is_disabled":false,"rental_uris":{"android":"levelo://app?vid=ba0f0dcf-0102-4753-a38f-c61a05ad1046","ios":"levelo://app?vid=ba0f0dcf-0102-4753-a38f-c61a05ad1046"},"vehicle_type_id":"4","last_reported":1743692998,"current_range_meters":12400,"station_id":"ce4bhqp2rcd13ifvqhng","pricing_plan_id":"cebpf4jnsgd1na2vs0mg"},{"bike_id":"0ecf972b-712a-4e34-874d-f7bf7a0631b6","system_id":"levelo_inurba_marseille","lat":43.25501,"lon":5.37649,"is_reserved":false,"is_disabled":false,"rental_uris":{"android":"levelo://app?vid=0ecf972b-712a-4e34-874d-f7bf7a0631b6","ios":"levelo://app?vid=0ecf972b-712a-4e34-874d-f7bf7a0631b6"},"vehicle_type_id":"4","last_reported":1743692998,"current_range_meters":15200,"station_id":"ce4bhh12rcd13ifvqff0","pricing_plan_id":"cebpf4jnsgd1na2vs0mg"},{"bike_id":"61357e3c-0c42-476d-bc94-715ec5dfd73c","system_id":"levelo_inurba_marseille","lat":43.30597,"lon":5.37212,"is_reserved":false,"is_disabled":false,"rental_uris":{"android":"levelo://app?vid=61357e3c-0c42-476d-bc94-715ec5dfd73c","ios":"levelo://app?vid=61357e3c-0c42-476d-bc94-715ec5dfd73c"},"vehicle_type_id":"4","last_reported":1743692998,"current_range_meters":12000,"station_id":"ce4bgqh2rcd13ifvqc4g","pricing_plan_id":"cebpf4jnsgd1na2vs0mg"},{"bike_id":"63139285-137c-4e8d-8e95-6c2a275f8333","system_id":"levelo_inurba_marseille","lat":43.32125,"lon":5.36786,"is_reserved":false,"is_disabled":false,"rental_uris":{"android":"levelo://app?vid=63139285-137c-4e8d-8e95-6c2a275f8333","ios":"levelo://app?vid=63139285-137c-4e8d-8e95-6c2a275f8333"},"vehicle_type_id":"4","last_reported":1743692998,"current_range_meters":12400,"station_id":"ce4bhrh2rcd13ifvqhug","pricing_plan_id":"cebpf4jnsgd1na2vs0mg"},{"bike_id":"18a9d8f6-95fb-45e4-b66e-20f545cc6c15","system_id":"levelo_inurba_marseille","lat":43.30541,"lon":5.36688,"is_reserved":false,"is_disabled":false,"rental_uris":{"android":"levelo://app?vid=18a9d8f6-95fb-45e4-b66e-20f545cc6c15","ios":"levelo://app?vid=18a9d8f6-95fb-45e4-b66e-20f545cc6c15"},"vehicle_type_id":"4","last_reported":1743692998,"current_range_meters":12400,"station_id":"ce4bgrp2rcd13ifvqc9g","pricing_plan_id":"cebpf4jnsgd1na2vs0mg"},{"bike_id":"ac38a09c-7a3d-4543-83cd-ecfca5c8bf5e","system_id":"levelo_inurba_marseille","lat":43.229356,"lon":5.353678,"is_reserved":false,"is_disabled":false,"rental_uris":{"android":"levelo://app?vid=ac38a09c-7a3d-4543-83cd-ecfca5c8bf5e","ios":"levelo://app?vid=ac38a09c-7a3d-4543-83cd-ecfca5c8bf5e"},"vehicle_type_id":"4","last_reported":1743692998,"current_range_meters":12400,"station_id":"cpo3532slgdg3j2ikp40","pricing_plan_id":"cebpf4jnsgd1na2vs0mg"},{"bike_id":"2d116ddd-9ec0-40d8-bdcd-a4cea6bb196b","system_id":"levelo_inurba_marseille","lat":43.2511,"lon":5.40322,"is_reserved":false,"is_disabled":false,"rental_uris":{"android":"levelo://app?vid=2d116ddd-9ec0-40d8-bdcd-a4cea6bb196b","ios":"levelo://app?vid=2d116ddd-9ec0-40d8-bdcd-a4cea6bb196b"},"vehicle_type_id":"4","last_reported":1743692998,"current_range_meters":12000,"station_id":"ce4bhlh2rcd13ifvqgig","pricing_plan_id":"cebpf4jnsgd1na2vs0mg"},{"bike_id":"9cc6e04e-85e0-4782-853e-3b20507bced5","system_id":"levelo_inurba_marseille","lat":43.29259,"lon":5.40897,"is_reserved":false,"is_disabled":false,"rental_uris":{"android":"levelo://app?vid=9cc6e04e-85e0-4782-853e-3b20507bced5","ios":"levelo://app?vid=9cc6e04e-85e0-4782-853e-3b20507bced5"},"vehicle_type_id":"4","last_reported":1743692998,"current_range_meters":12400,"station_id":"ce4bh192rcd13ifvqdc0","pricing_plan_id":"cebpf4jnsgd1na2vs0mg"},{"bike_id":"0c7859bc-1fe2-4df1-a37b-fa386fcff813","system_id":"levelo_inurba_marseille","lat":43.23178,"lon":5.39993,"is_reserved":false,"is_disabled":false,"rental_uris":{"android":"levelo://app?vid=0c7859bc-1fe2-4df1-a37b-fa386fcff813","ios":"levelo://app?vid=0c7859bc-1fe2-4df1-a37b-fa386fcff813"},"vehicle_type_id":"4","last_reported":1743692998,"current_range_meters":12800,"station_id":"ce4bhn12rcd13ifvqgqg","pricing_plan_id":"cebpf4jnsgd1na2vs0mg"},{"bike_id":"b0f40ebc-9a45-4592-8b59-6424aacb5d04","system_id":"levelo_inurba_marseille","lat":43.30965,"lon":5.37019,"is_reserved":false,"is_disabled":false,"rental_uris":{"android":"levelo://app?vid=b0f40ebc-9a45-4592-8b59-6424aacb5d04","ios":"levelo://app?vid=b0f40ebc-9a45-4592-8b59-6424aacb5d04"},"vehicle_type_id":"4","last_reported":1743692998,"current_range_meters":12800,"station_id":"","pricing_plan_id":"cebpf4jnsgd1na2vs0mg"},{"bike_id":"493f4c79-38d2-4be9-a979-a474321b8ece","system_id":"levelo_inurba_marseille","lat":43.29265,"lon":5.37616,"is_reserved":false,"is_disabled":false,"rental_uris":{"android":"levelo://app?vid=493f4c79-38d2-4be9-a979-a474321b8ece","ios":"levelo://app?vid=493f4c79-38d2-4be9-a979-a474321b8ece"},"vehicle_type_id":"4","last_reported":1743692998,"current_range_meters":12800,"station_id":"ce4bgi12rcd13ifvqb80","pricing_plan_id":"cebpf4jnsgd1na2vs0mg"},{"bike_id":"c6dbfbad-c5e4-4444-9b15-94527aba01a5","system_id":"levelo_inurba_marseille","lat":43.30535,"lon":5.36539,"is_reserved":false,"is_disabled":true,"rental_uris":{"android":"levelo://app?vid=c6dbfbad-c5e4-4444-9b15-94527aba01a5","ios":"levelo://app?vid=c6dbfbad-c5e4-4444-9b15-94527aba01a5"},"vehicle_type_id":"4","last_reported":1743692998,"current_range_meters":12800,"station_id":"ce4bgs12rcd13ifvqcag","pricing_plan_id":"cebpf4jnsgd1na2vs0mg"},{"bike_id":"5f46717b-05d1-4f34-a220-8087932d755b","system_id":"levelo_inurba_marseille","lat":43.30104,"lon":5.36936,"is_reserved":false,"is_disabled":false,"rental_uris":{"android":"levelo://app?vid=5f46717b-05d1-4f34-a220-8087932d755b","ios":"levelo://app?vid=5f46717b-05d1-4f34-a220-8087932d755b"},"vehicle_type_id":"4","last_reported":1743692998,"current_range_meters":12800,"station_id":"","pricing_plan_id":"cebpf4jnsgd1na2vs0mg"},{"bike_id":"9eed2e6d-58a2-409d-afe9-8d330a69d7ac","system_id":"levelo_inurba_marseille","lat":43.33025,"lon":5.39037,"is_reserved":false,"is_disabled":false,"rental_uris":{"android":"levelo://app?vid=9eed2e6d-58a2-409d-afe9-8d330a69d7ac","ios":"levelo://app?vid=9eed2e6d-58a2-409d-afe9-8d330a69d7ac"},"vehicle_type_id":"4","last_reported":1743692998,"current_range_meters":12800,"station_id":"ce4bhr92rcd13ifvqhrg","pricing_plan_id":"cebpf4jnsgd1na2vs0mg"},{"bike_id":"0aa69f03-0878-4038-837b-a34d05729b70","system_id":"levelo_inurba_marseille","lat":43.30544,"lon":5.36695,"is_reserved":false,"is_disabled":false,"rental_uris":{"android":"levelo://app?vid=0aa69f03-0878-4038-837b-a34d05729b70","ios":"levelo://app?vid=0aa69f03-0878-4038-837b-a34d05729b70"},"vehicle_type_id":"4","last_reported":1743692998,"current_range_meters":13600,"station_id":"ce4bgrp2rcd13ifvqc9g","pricing_plan_id":"cebpf4jnsgd1na2vs0mg"},{"bike_id":"21b65b62-2684-4fc7-8920-573a961d7a1b","system_id":"levelo_inurba_marseille","lat":43.28292,"lon":5.35049,"is_reserved":false,"is_disabled":false,"rental_uris":{"android":"levelo://app?vid=21b65b62-2684-4fc7-8920-573a961d7a1b","ios":"levelo://app?vid=21b65b62-2684-4fc7-8920-573a961d7a1b"},"vehicle_type_id":"4","last_reported":1743692998,"current_range_meters":13600,"station_id":"ce4bhbp2rcd13ifvqerg","pricing_plan_id":"cebpf4jnsgd1na2vs0mg"},{"bike_id":"a6303451-5b45-435c-bf0e-748f94cc010d","system_id":"levelo_inurba_marseille","lat":43.23167,"lon":5.35601,"is_reserved":false,"is_disabled":false,"rental_uris":{"android":"levelo://app?vid=a6303451-5b45-435c-bf0e-748f94cc010d","ios":"levelo://app?vid=a6303451-5b45-435c-bf0e-748f94cc010d"},"vehicle_type_id":"4","last_reported":1743692998,"current_range_meters":13600,"station_id":"ce4bhu92rcd13ifvqi70","pricing_plan_id":"cebpf4jnsgd1na2vs0mg"},{"bike_id":"69c0db05-6ded-4dc6-9720-2452c83c1020","system_id":"levelo_inurba_marseille","lat":43.22961,"lon":5.35383,"is_reserved":false,"is_disabled":false,"rental_uris":{"android":"levelo://app?vid=69c0db05-6ded-4dc6-9720-2452c83c1020","ios":"levelo://app?vid=69c0db05-6ded-4dc6-9720-2452c83c1020"},"vehicle_type_id":"4","last_reported":1743692998,"current_range_meters":13600,"station_id":"cpo3532slgdg3j2ikp40","pricing_plan_id":"cebpf4jnsgd1na2vs0mg"},{"bike_id":"f1e5f20d-e5bb-4349-9a72-f7ab8a004414","system_id":"levelo_inurba_marseille","lat":43.30352,"lon":5.40435,"is_reserved":false,"is_disabled":true,"rental_uris":{"android":"levelo://app?vid=f1e5f20d-e5bb-4349-9a72-f7ab8a004414","ios":"levelo://app?vid=f1e5f20d-e5bb-4349-9a72-f7ab8a004414"},"vehicle_type_id":"4","last_reported":1743692998,"current_range_meters":13600,"station_id":"ce4bh012rcd13ifvqd10","pricing_plan_id":"cebpf4jnsgd1na2vs0mg"},{"bike_id":"ddece980-9bf4-4cd1-87d5-3d4126bbcba8","system_id":"levelo_inurba_marseille","lat":43.23189,"lon":5.35555,"is_reserved":false,"is_disabled":false,"rental_uris":{"android":"levelo://app?vid=ddece980-9bf4-4cd1-87d5-3d4126bbcba8","ios":"levelo://app?vid=ddece980-9bf4-4cd1-87d5-3d4126bbcba8"},"vehicle_type_id":"4","last_reported":1743692998,"current_range_meters":14000,"station_id":"ce4bhu92rcd13ifvqi70","pricing_plan_id":"cebpf4jnsgd1na2vs0mg"},{"bike_id":"33084556-c386-4fed-bcb3-71588aab549f","system_id":"levelo_inurba_marseille","lat":43.30887,"lon":5.39632,"is_reserved":false,"is_disabled":false,"rental_uris":{"android":"levelo://app?vid=33084556-c386-4fed-bcb3-71588aab549f","ios":"levelo://app?vid=33084556-c386-4fed-bcb3-71588aab549f"},"vehicle_type_id":"4","last_reported":1743692998,"current_range_meters":14000,"station_id":"ce4bh012rcd13ifvqcv0","pricing_plan_id":"cebpf4jnsgd1na2vs0mg"},{"bike_id":"e9947125-e4b1-4977-bee9-fb031515997e","system_id":"levelo_inurba_marseille","lat":43.24537,"lon":5.395,"is_reserved":false,"is_disabled":false,"rental_uris":{"android":"levelo://app?vid=e9947125-e4b1-4977-bee9-fb031515997e","ios":"levelo://app?vid=e9947125-e4b1-4977-bee9-fb031515997e"},"vehicle_type_id":"4","last_reported":1743692998,"current_range_meters":14000,"station_id":"ce4bhlp2rcd13ifvqgjg","pricing_plan_id":"cebpf4jnsgd1na2vs0mg"},{"bike_id":"d126d5b7-9b80-4545-ada9-e50bec254514","system_id":"levelo_inurba_marseille","lat":43.32346,"lon":5.40627,"is_reserved":false,"is_disabled":false,"rental_uris":{"android":"levelo://app?vid=d126d5b7-9b80-4545-ada9-e50bec254514","ios":"levelo://app?vid=d126d5b7-9b80-4545-ada9-e50bec254514"},"vehicle_type_id":"4","last_reported":1743692998,"current_range_meters":14000,"station_id":"ce4bhq92rcd13ifvqhjg","pricing_plan_id":"cebpf4jnsgd1na2vs0mg"},{"bike_id":"c611372a-1bd7-4682-a269-9a02ba50eeab","system_id":"levelo_inurba_marseille","lat":43.29974,"lon":5.38483,"is_reserved":false,"is_disabled":true,"rental_uris":{"android":"levelo://app?vid=c611372a-1bd7-4682-a269-9a02ba50eeab","ios":"levelo://app?vid=c611372a-1bd7-4682-a269-9a02ba50eeab"},"vehicle_type_id":"4","last_reported":1743692998,"current_range_meters":14000,"station_id":"ce4bgj92rcd13ifvqbd0","pricing_plan_id":"cebpf4jnsgd1na2vs0mg"},{"bike_id":"0da307f0-a737-4f3f-8786-4dd451d57e79","system_id":"levelo_inurba_marseille","lat":43.30847,"lon":5.36749,"is_reserved":false,"is_disabled":false,"rental_uris":{"android":"levelo://app?vid=0da307f0-a737-4f3f-8786-4dd451d57e79","ios":"levelo://app?vid=0da307f0-a737-4f3f-8786-4dd451d57e79"},"vehicle_type_id":"4","last_reported":1743692998,"current_range_meters":14400,"station_id":"","pricing_plan_id":"cebpf4jnsgd1na2vs0mg"},{"bike_id":"d2faf29b-8fce-456a-94d7-a468bb5800d7","system_id":"levelo_inurba_marseille","lat":43.30793,"lon":5.37653,"is_reserved":false,"is_disabled":false,"rental_uris":{"android":"levelo://app?vid=d2faf29b-8fce-456a-94d7-a468bb5800d7","ios":"levelo://app?vid=d2faf29b-8fce-456a-94d7-a468bb5800d7"},"vehicle_type_id":"4","last_reported":1743692998,"current_range_meters":14000,"station_id":"ce4bgv92rcd13ifvqcq0","pricing_plan_id":"cebpf4jnsgd1na2vs0mg"},{"bike_id":"f5bb75d2-be40-466f-8b0b-5c86a285b51f","system_id":"levelo_inurba_marseille","lat":43.29173,"lon":5.3716,"is_reserved":false,"is_disabled":false,"rental_uris":{"android":"levelo://app?vid=f5bb75d2-be40-466f-8b0b-5c86a285b51f","ios":"levelo://app?vid=f5bb75d2-be40-466f-8b0b-5c86a285b51f"},"vehicle_type_id":"4","last_reported":1743692998,"current_range_meters":14400,"station_id":"ce4bha92rcd13ifvqeh0","pricing_plan_id":"cebpf4jnsgd1na2vs0mg"},{"bike_id":"1bc073c9-31d0-4f2b-afc6-5e9377745be7","system_id":"levelo_inurba_marseille","lat":43.27569,"lon":5.38421,"is_reserved":false,"is_disabled":false,"rental_uris":{"android":"levelo://app?vid=1bc073c9-31d0-4f2b-afc6-5e9377745be7","ios":"levelo://app?vid=1bc073c9-31d0-4f2b-afc6-5e9377745be7"},"vehicle_type_id":"4","last_reported":1743692998,"current_range_meters":14400,"station_id":"ce4bhh92rcd13ifvqfi0","pricing_plan_id":"cebpf4jnsgd1na2vs0mg"},{"bike_id":"07ab12f2-63a3-4e5e-a32e-d57d53fb9c6e","system_id":"levelo_inurba_marseille","lat":43.27943,"lon":5.410495,"is_reserved":false,"is_disabled":false,"rental_uris":{"android":"levelo://app?vid=07ab12f2-63a3-4e5e-a32e-d57d53fb9c6e","ios":"levelo://app?vid=07ab12f2-63a3-4e5e-a32e-d57d53fb9c6e"},"vehicle_type_id":"4","last_reported":1743692998,"current_range_meters":14400,"station_id":"ce4bhnp2rcd13ifvqh0g","pricing_plan_id":"cebpf4jnsgd1na2vs0mg"},{"bike_id":"74a13a18-430a-4f50-ba26-e7dfbad23482","system_id":"levelo_inurba_marseille","lat":43.23064,"lon":5.35484,"is_reserved":false,"is_disabled":false,"rental_uris":{"android":"levelo://app?vid=74a13a18-430a-4f50-ba26-e7dfbad23482","ios":"levelo://app?vid=74a13a18-430a-4f50-ba26-e7dfbad23482"},"vehicle_type_id":"4","last_reported":1743692998,"current_range_meters":14400,"station_id":"cpo3342slgdg3j2ifvpg","pricing_plan_id":"cebpf4jnsgd1na2vs0mg"},{"bike_id":"b5015894-8951-49b9-9682-64c8640ccde9","system_id":"levelo_inurba_marseille","lat":43.30361,"lon":5.41879,"is_reserved":false,"is_disabled":false,"rental_uris":{"android":"levelo://app?vid=b5015894-8951-49b9-9682-64c8640ccde9","ios":"levelo://app?vid=b5015894-8951-49b9-9682-64c8640ccde9"},"vehicle_type_id":"4","last_reported":1743692998,"current_range_meters":14400,"station_id":"ce4bhop2rcd13ifvqh7g","pricing_plan_id":"cebpf4jnsgd1na2vs0mg"},{"bike_id":"047f646d-6862-44bd-ba1b-104cd7b5b831","system_id":"levelo_inurba_marseille","lat":43.27989,"lon":5.40047,"is_reserved":false,"is_disabled":false,"rental_uris":{"android":"levelo://app?vid=047f646d-6862-44bd-ba1b-104cd7b5b831","ios":"levelo://app?vid=047f646d-6862-44bd-ba1b-104cd7b5b831"},"vehicle_type_id":"4","last_reported":1743692998,"current_range_meters":14800,"station_id":"ce4bho92rcd13ifvqh4g","pricing_plan_id":"cebpf4jnsgd1na2vs0mg"},{"bike_id":"5a670507-1979-4b98-8c90-ecde60222578","system_id":"levelo_inurba_marseille","lat":43.26207,"lon":5.40451,"is_reserved":false,"is_disabled":false,"rental_uris":{"android":"levelo://app?vid=5a670507-1979-4b98-8c90-ecde60222578","ios":"levelo://app?vid=5a670507-1979-4b98-8c90-ecde60222578"},"vehicle_type_id":"4","last_reported":1743692998,"current_range_meters":14800,"station_id":"ce4bhmh2rcd13ifvqgmg","pricing_plan_id":"cebpf4jnsgd1na2vs0mg"},{"bike_id":"71178357-52ea-4831-8874-e0f73eb10477","system_id":"levelo_inurba_marseille","lat":43.23178,"lon":5.39985,"is_reserved":false,"is_disabled":false,"rental_uris":{"android":"levelo://app?vid=71178357-52ea-4831-8874-e0f73eb10477","ios":"levelo://app?vid=71178357-52ea-4831-8874-e0f73eb10477"},"vehicle_type_id":"4","last_reported":1743692998,"current_range_meters":14800,"station_id":"ce4bhn12rcd13ifvqgqg","pricing_plan_id":"cebpf4jnsgd1na2vs0mg"},{"bike_id":"65c86302-8ef0-46f4-ab6e-bac7149a2865","system_id":"levelo_inurba_marseille","lat":43.32111,"lon":5.36769,"is_reserved":false,"is_disabled":false,"rental_uris":{"android":"levelo://app?vid=65c86302-8ef0-46f4-ab6e-bac7149a2865","ios":"levelo://app?vid=65c86302-8ef0-46f4-ab6e-bac7149a2865"},"vehicle_type_id":"4","last_reported":1743692998,"current_range_meters":14800,"station_id":"ce4bhrh2rcd13ifvqhug","pricing_plan_id":"cebpf4jnsgd1na2vs0mg"},{"bike_id":"1f962412-902d-4aa7-afbb-f3190a07a0ab","system_id":"levelo_inurba_marseille","lat":43.29769,"lon":5.37083,"is_reserved":false,"is_disabled":false,"rental_uris":{"android":"levelo://app?vid=1f962412-902d-4aa7-afbb-f3190a07a0ab","ios":"levelo://app?vid=1f962412-902d-4aa7-afbb-f3190a07a0ab"},"vehicle_type_id":"4","last_reported":1743692998,"current_range_meters":15200,"station_id":"ce4bgop2rcd13ifvqc1g","pricing_plan_id":"cebpf4jnsgd1na2vs0mg"},{"bike_id":"72024263-002e-4ba0-8a6a-7546a3344766","system_id":"levelo_inurba_marseille","lat":43.31123,"lon":5.37759,"is_reserved":false,"is_disabled":false,"rental_uris":{"android":"levelo://app?vid=72024263-002e-4ba0-8a6a-7546a3344766","ios":"levelo://app?vid=72024263-002e-4ba0-8a6a-7546a3344766"},"vehicle_type_id":"4","last_reported":1743692998,"current_range_meters":15200,"station_id":"ce4bgt92rcd13ifvqcg0","pricing_plan_id":"cebpf4jnsgd1na2vs0mg"},{"bike_id":"b82e1dd5-d14d-40d6-b0da-d929979fd70e","system_id":"levelo_inurba_marseille","lat":43.306,"lon":5.37224,"is_reserved":false,"is_disabled":false,"rental_uris":{"android":"levelo://app?vid=b82e1dd5-d14d-40d6-b0da-d929979fd70e","ios":"levelo://app?vid=b82e1dd5-d14d-40d6-b0da-d929979fd70e"},"vehicle_type_id":"4","last_reported":1743692998,"current_range_meters":15200,"station_id":"ce4bgqh2rcd13ifvqc4g","pricing_plan_id":"cebpf4jnsgd1na2vs0mg"},{"bike_id":"955338a0-012b-4e84-861b-8757cf81f287","system_id":"levelo_inurba_marseille","lat":43.229353,"lon":5.353738,"is_reserved":false,"is_disabled":false,"rental_uris":{"android":"levelo://app?vid=955338a0-012b-4e84-861b-8757cf81f287","ios":"levelo://app?vid=955338a0-012b-4e84-861b-8757cf81f287"},"vehicle_type_id":"4","last_reported":1743692998,"current_range_meters":16000,"station_id":"cpo3532slgdg3j2ikp40","pricing_plan_id":"cebpf4jnsgd1na2vs0mg"},{"bike_id":"fb348b09-6abb-47a4-a266-91f2eeaee291","system_id":"levelo_inurba_marseille","lat":43.32125,"lon":5.36773,"is_reserved":false,"is_disabled":false,"rental_uris":{"android":"levelo://app?vid=fb348b09-6abb-47a4-a266-91f2eeaee291","ios":"levelo://app?vid=fb348b09-6abb-47a4-a266-91f2eeaee291"},"vehicle_type_id":"4","last_reported":1743692998,"current_range_meters":16000,"station_id":"ce4bhrh2rcd13ifvqhug","pricing_plan_id":"cebpf4jnsgd1na2vs0mg"},{"bike_id":"0df0e7a9-81b2-41f8-8fc9-9278b36af5a7","system_id":"levelo_inurba_marseille","lat":43.25086,"lon":5.39525,"is_reserved":false,"is_disabled":false,"rental_uris":{"android":"levelo://app?vid=0df0e7a9-81b2-41f8-8fc9-9278b36af5a7","ios":"levelo://app?vid=0df0e7a9-81b2-41f8-8fc9-9278b36af5a7"},"vehicle_type_id":"4","last_reported":1743692998,"current_range_meters":16000,"station_id":"ce4bhm12rcd13ifvqgkg","pricing_plan_id":"cebpf4jnsgd1na2vs0mg"},{"bike_id":"21bb0a6d-7ac6-400f-85fa-68146121b37a","system_id":"levelo_inurba_marseille","lat":43.31388,"lon":5.36693,"is_reserved":false,"is_disabled":false,"rental_uris":{"android":"levelo://app?vid=21bb0a6d-7ac6-400f-85fa-68146121b37a","ios":"levelo://app?vid=21bb0a6d-7ac6-400f-85fa-68146121b37a"},"vehicle_type_id":"4","last_reported":1743692998,"current_range_meters":16000,"station_id":"","pricing_plan_id":"cebpf4jnsgd1na2vs0mg"},{"bike_id":"cc331224-7a14-4336-b083-0eb1f00a3d23","system_id":"levelo_inurba_marseille","lat":43.30531,"lon":5.36696,"is_reserved":false,"is_disabled":false,"rental_uris":{"android":"levelo://app?vid=cc331224-7a14-4336-b083-0eb1f00a3d23","ios":"levelo://app?vid=cc331224-7a14-4336-b083-0eb1f00a3d23"},"vehicle_type_id":"4","last_reported":1743692998,"current_range_meters":16000,"station_id":"ce4bgrp2rcd13ifvqc9g","pricing_plan_id":"cebpf4jnsgd1na2vs0mg"},{"bike_id":"758c2355-846a-4f3d-bcd8-eac4b3145cd6","system_id":"levelo_inurba_marseille","lat":43.23194,"lon":5.35555,"is_reserved":false,"is_disabled":false,"rental_uris":{"android":"levelo://app?vid=758c2355-846a-4f3d-bcd8-eac4b3145cd6","ios":"levelo://app?vid=758c2355-846a-4f3d-bcd8-eac4b3145cd6"},"vehicle_type_id":"4","last_reported":1743692998,"current_range_meters":16000,"station_id":"ce4bhu92rcd13ifvqi70","pricing_plan_id":"cebpf4jnsgd1na2vs0mg"},{"bike_id":"19224d95-e048-4cbb-8884-43e0e6b3db9b","system_id":"levelo_inurba_marseille","lat":43.29869,"lon":5.39739,"is_reserved":false,"is_disabled":true,"rental_uris":{"android":"levelo://app?vid=19224d95-e048-4cbb-8884-43e0e6b3db9b","ios":"levelo://app?vid=19224d95-e048-4cbb-8884-43e0e6b3db9b"},"vehicle_type_id":"4","last_reported":1743692998,"current_range_meters":16000,"station_id":"ce4bh0h2rcd13ifvqd50","pricing_plan_id":"cebpf4jnsgd1na2vs0mg"},{"bike_id":"c0e36771-dbe7-477f-9122-f8476f7b7779","system_id":"levelo_inurba_marseille","lat":43.3236,"lon":5.36738,"is_reserved":false,"is_disabled":false,"rental_uris":{"android":"levelo://app?vid=c0e36771-dbe7-477f-9122-f8476f7b7779","ios":"levelo://app?vid=c0e36771-dbe7-477f-9122-f8476f7b7779"},"vehicle_type_id":"4","last_reported":1743692998,"current_range_meters":16000,"station_id":"ce4bhsh2rcd13ifvqi2g","pricing_plan_id":"cebpf4jnsgd1na2vs0mg"},{"bike_id":"229ba492-02d9-4033-b935-7f43b75a8976","system_id":"levelo_inurba_marseille","lat":43.30497,"lon":5.36564,"is_reserved":false,"is_disabled":false,"rental_uris":{"android":"levelo://app?vid=229ba492-02d9-4033-b935-7f43b75a8976","ios":"levelo://app?vid=229ba492-02d9-4033-b935-7f43b75a8976"},"vehicle_type_id":"4","last_reported":1743692998,"current_range_meters":16000,"station_id":"ce4bgs12rcd13ifvqcag","pricing_plan_id":"cebpf4jnsgd1na2vs0mg"},{"bike_id":"3e87c04e-4859-4271-896b-e91a844e11a0","system_id":"levelo_inurba_marseille","lat":43.262106,"lon":5.404901,"is_reserved":false,"is_disabled":false,"rental_uris":{"android":"levelo://app?vid=3e87c04e-4859-4271-896b-e91a844e11a0","ios":"levelo://app?vid=3e87c04e-4859-4271-896b-e91a844e11a0"},"vehicle_type_id":"4","last_reported":1743692998,"current_range_meters":17200,"station_id":"ce4bhh12rcd13ifvqfg0","pricing_plan_id":"cebpf4jnsgd1na2vs0mg"},{"bike_id":"a9b920fc-6aca-4266-bd71-b164947277a9","system_id":"levelo_inurba_marseille","lat":43.295227,"lon":5.390448,"is_reserved":false,"is_disabled":false,"rental_uris":{"android":"levelo://app?vid=a9b920fc-6aca-4266-bd71-b164947277a9","ios":"levelo://app?vid=a9b920fc-6aca-4266-bd71-b164947277a9"},"vehicle_type_id":"4","last_reported":1743692998,"current_range_meters":16400,"station_id":"ce4bh3p2rcd13ifvqdp0","pricing_plan_id":"cebpf4jnsgd1na2vs0mg"},{"bike_id":"b2f4490f-edf0-49ca-9d34-1b76be892ddc","system_id":"levelo_inurba_marseille","lat":43.26229,"lon":5.4045,"is_reserved":false,"is_disabled":false,"rental_uris":{"android":"levelo://app?vid=b2f4490f-edf0-49ca-9d34-1b76be892ddc","ios":"levelo://app?vid=b2f4490f-edf0-49ca-9d34-1b76be892ddc"},"vehicle_type_id":"4","last_reported":1743692998,"current_range_meters":16400,"station_id":"ce4bhmh2rcd13ifvqgmg","pricing_plan_id":"cebpf4jnsgd1na2vs0mg"},{"bike_id":"61be1ca3-4595-4dcc-a60e-b5d5a83f9576","system_id":"levelo_inurba_marseille","lat":43.29045,"lon":5.35912,"is_reserved":false,"is_disabled":false,"rental_uris":{"android":"levelo://app?vid=61be1ca3-4595-4dcc-a60e-b5d5a83f9576","ios":"levelo://app?vid=61be1ca3-4595-4dcc-a60e-b5d5a83f9576"},"vehicle_type_id":"4","last_reported":1743692998,"current_range_meters":16000,"station_id":"ce4bha92rcd13ifvqeg0","pricing_plan_id":"cebpf4jnsgd1na2vs0mg"},{"bike_id":"ebc8a3fc-25bb-47d8-be5f-7c5c7dab3c37","system_id":"levelo_inurba_marseille","lat":43.314,"lon":5.36727,"is_reserved":false,"is_disabled":false,"rental_uris":{"android":"levelo://app?vid=ebc8a3fc-25bb-47d8-be5f-7c5c7dab3c37","ios":"levelo://app?vid=ebc8a3fc-25bb-47d8-be5f-7c5c7dab3c37"},"vehicle_type_id":"4","last_reported":1743692998,"current_range_meters":16400,"station_id":"","pricing_plan_id":"cebpf4jnsgd1na2vs0mg"},{"bike_id":"fb4cfac6-d54b-4f49-96fe-f3cb5cad9b95","system_id":"levelo_inurba_marseille","lat":43.30537,"lon":5.36539,"is_reserved":false,"is_disabled":false,"rental_uris":{"android":"levelo://app?vid=fb4cfac6-d54b-4f49-96fe-f3cb5cad9b95","ios":"levelo://app?vid=fb4cfac6-d54b-4f49-96fe-f3cb5cad9b95"},"vehicle_type_id":"4","last_reported":1743692998,"current_range_meters":16400,"station_id":"ce4bgs12rcd13ifvqcag","pricing_plan_id":"cebpf4jnsgd1na2vs0mg"},{"bike_id":"5f67835a-2241-45ae-b82e-11146ceeb083","system_id":"levelo_inurba_marseille","lat":43.31325,"lon":5.39719,"is_reserved":false,"is_disabled":false,"rental_uris":{"android":"levelo://app?vid=5f67835a-2241-45ae-b82e-11146ceeb083","ios":"levelo://app?vid=5f67835a-2241-45ae-b82e-11146ceeb083"},"vehicle_type_id":"4","last_reported":1743692998,"current_range_meters":14000,"station_id":"ce4bgvp2rcd13ifvqcu0","pricing_plan_id":"cebpf4jnsgd1na2vs0mg"},{"bike_id":"c840f108-e8d3-4745-bd03-af83fcc2edd6","system_id":"levelo_inurba_marseille","lat":43.24656,"lon":5.38892,"is_reserved":false,"is_disabled":false,"rental_uris":{"android":"levelo://app?vid=c840f108-e8d3-4745-bd03-af83fcc2edd6","ios":"levelo://app?vid=c840f108-e8d3-4745-bd03-af83fcc2edd6"},"vehicle_type_id":"4","last_reported":1743692998,"current_range_meters":16400,"station_id":"ce4bhg12rcd13ifvqf60","pricing_plan_id":"cebpf4jnsgd1na2vs0mg"},{"bike_id":"792c5a6f-c933-4956-8424-427afe7b240c","system_id":"levelo_inurba_marseille","lat":43.27373,"lon":5.36259,"is_reserved":false,"is_disabled":false,"rental_uris":{"android":"levelo://app?vid=792c5a6f-c933-4956-8424-427afe7b240c","ios":"levelo://app?vid=792c5a6f-c933-4956-8424-427afe7b240c"},"vehicle_type_id":"4","last_reported":1743692998,"current_range_meters":16400,"station_id":"ce4bhbh2rcd13ifvqeo0","pricing_plan_id":"cebpf4jnsgd1na2vs0mg"},{"bike_id":"4caff8e0-340c-490f-8a5a-b26f15704f76","system_id":"levelo_inurba_marseille","lat":43.28606,"lon":5.38416,"is_reserved":false,"is_disabled":false,"rental_uris":{"android":"levelo://app?vid=4caff8e0-340c-490f-8a5a-b26f15704f76","ios":"levelo://app?vid=4caff8e0-340c-490f-8a5a-b26f15704f76"},"vehicle_type_id":"4","last_reported":1743692998,"current_range_meters":16800,"station_id":"","pricing_plan_id":"cebpf4jnsgd1na2vs0mg"},{"bike_id":"ee071da7-ca94-4ce2-9e33-f50401452823","system_id":"levelo_inurba_marseille","lat":43.27489,"lon":5.42458,"is_reserved":false,"is_disabled":false,"rental_uris":{"android":"levelo://app?vid=ee071da7-ca94-4ce2-9e33-f50401452823","ios":"levelo://app?vid=ee071da7-ca94-4ce2-9e33-f50401452823"},"vehicle_type_id":"4","last_reported":1743692998,"current_range_meters":16800,"station_id":"ce4bhn92rcd13ifvqgrg","pricing_plan_id":"cebpf4jnsgd1na2vs0mg"},{"bike_id":"996e3923-82f2-4b2d-99d7-9c9c404fa1d8","system_id":"levelo_inurba_marseille","lat":43.31717,"lon":5.42392,"is_reserved":false,"is_disabled":false,"rental_uris":{"android":"levelo://app?vid=996e3923-82f2-4b2d-99d7-9c9c404fa1d8","ios":"levelo://app?vid=996e3923-82f2-4b2d-99d7-9c9c404fa1d8"},"vehicle_type_id":"4","last_reported":1743692998,"current_range_meters":16800,"station_id":"ce4bhp92rcd13ifvqhbg","pricing_plan_id":"cebpf4jnsgd1na2vs0mg"},{"bike_id":"8428f7d2-602a-4f83-b527-dd23d329a703","system_id":"levelo_inurba_marseille","lat":43.23955,"lon":5.36673,"is_reserved":false,"is_disabled":false,"rental_uris":{"android":"levelo://app?vid=8428f7d2-602a-4f83-b527-dd23d329a703","ios":"levelo://app?vid=8428f7d2-602a-4f83-b527-dd23d329a703"},"vehicle_type_id":"4","last_reported":1743692998,"current_range_meters":16400,"station_id":"ce4bhi12rcd13ifvqfp0","pricing_plan_id":"cebpf4jnsgd1na2vs0mg"},{"bike_id":"07d8a6d1-8969-447a-8652-95061856da7f","system_id":"levelo_inurba_marseille","lat":43.29255,"lon":5.37635,"is_reserved":false,"is_disabled":false,"rental_uris":{"android":"levelo://app?vid=07d8a6d1-8969-447a-8652-95061856da7f","ios":"levelo://app?vid=07d8a6d1-8969-447a-8652-95061856da7f"},"vehicle_type_id":"4","last_reported":1743692998,"current_range_meters":16800,"station_id":"ce4bgi12rcd13ifvqb80","pricing_plan_id":"cebpf4jnsgd1na2vs0mg"},{"bike_id":"dfac3ad3-41a3-4d04-afef-8a610700b34d","system_id":"levelo_inurba_marseille","lat":43.29839,"lon":5.36284,"is_reserved":false,"is_disabled":false,"rental_uris":{"android":"levelo://app?vid=dfac3ad3-41a3-4d04-afef-8a610700b34d","ios":"levelo://app?vid=dfac3ad3-41a3-4d04-afef-8a610700b34d"},"vehicle_type_id":"4","last_reported":1743692998,"current_range_meters":17200,"station_id":"ce4bgpp2rcd13ifvqc3g","pricing_plan_id":"cebpf4jnsgd1na2vs0mg"},{"bike_id":"1bdb3de0-9f3f-40ed-879d-d94d6d0fff29","system_id":"levelo_inurba_marseille","lat":43.2842,"lon":5.34993,"is_reserved":false,"is_disabled":false,"rental_uris":{"android":"levelo://app?vid=1bdb3de0-9f3f-40ed-879d-d94d6d0fff29","ios":"levelo://app?vid=1bdb3de0-9f3f-40ed-879d-d94d6d0fff29"},"vehicle_type_id":"4","last_reported":1743692998,"current_range_meters":16800,"station_id":"ce4bhbh2rcd13ifvqepg","pricing_plan_id":"cebpf4jnsgd1na2vs0mg"},{"bike_id":"8dc9bd91-e530-4d49-b6f3-9460ef93ba12","system_id":"levelo_inurba_marseille","lat":43.29432,"lon":5.38632,"is_reserved":false,"is_disabled":false,"rental_uris":{"android":"levelo://app?vid=8dc9bd91-e530-4d49-b6f3-9460ef93ba12","ios":"levelo://app?vid=8dc9bd91-e530-4d49-b6f3-9460ef93ba12"},"vehicle_type_id":"4","last_reported":1743692998,"current_range_meters":15200,"station_id":"ce4bh2h2rcd13ifvqdh0","pricing_plan_id":"cebpf4jnsgd1na2vs0mg"},{"bike_id":"a43f4572-7c57-46ee-8d96-a6774c3cba9d","system_id":"levelo_inurba_marseille","lat":43.229307,"lon":5.353742,"is_reserved":false,"is_disabled":false,"rental_uris":{"android":"levelo://app?vid=a43f4572-7c57-46ee-8d96-a6774c3cba9d","ios":"levelo://app?vid=a43f4572-7c57-46ee-8d96-a6774c3cba9d"},"vehicle_type_id":"4","last_reported":1743692998,"current_range_meters":16800,"station_id":"cpo3532slgdg3j2ikp40","pricing_plan_id":"cebpf4jnsgd1na2vs0mg"},{"bike_id":"7763f7b3-b47f-44f0-a3ce-d9aca15810b3","system_id":"levelo_inurba_marseille","lat":43.22937,"lon":5.35382,"is_reserved":false,"is_disabled":false,"rental_uris":{"android":"levelo://app?vid=7763f7b3-b47f-44f0-a3ce-d9aca15810b3","ios":"levelo://app?vid=7763f7b3-b47f-44f0-a3ce-d9aca15810b3"},"vehicle_type_id":"4","last_reported":1743692998,"current_range_meters":16800,"station_id":"cpo3532slgdg3j2ikp40","pricing_plan_id":"cebpf4jnsgd1na2vs0mg"},{"bike_id":"46e40aa5-72ae-444f-9358-a676d369a477","system_id":"levelo_inurba_marseille","lat":43.330204,"lon":5.438086,"is_reserved":false,"is_disabled":false,"rental_uris":{"android":"levelo://app?vid=46e40aa5-72ae-444f-9358-a676d369a477","ios":"levelo://app?vid=46e40aa5-72ae-444f-9358-a676d369a477"},"vehicle_type_id":"4","last_reported":1743692998,"current_range_meters":16800,"station_id":"","pricing_plan_id":"cebpf4jnsgd1na2vs0mg"},{"bike_id":"8f26532c-fe57-4bcc-9808-5ac6e790291a","system_id":"levelo_inurba_marseille","lat":43.3136,"lon":5.3848,"is_reserved":false,"is_disabled":false,"rental_uris":{"android":"levelo://app?vid=8f26532c-fe57-4bcc-9808-5ac6e790291a","ios":"levelo://app?vid=8f26532c-fe57-4bcc-9808-5ac6e790291a"},"vehicle_type_id":"4","last_reported":1743692998,"current_range_meters":16800,"station_id":"ce4bgt92rcd13ifvqcf0","pricing_plan_id":"cebpf4jnsgd1na2vs0mg"},{"bike_id":"b37edadd-a3e8-4d71-8642-b47e1afd162a","system_id":"levelo_inurba_marseille","lat":43.26231,"lon":5.40451,"is_reserved":false,"is_disabled":false,"rental_uris":{"android":"levelo://app?vid=b37edadd-a3e8-4d71-8642-b47e1afd162a","ios":"levelo://app?vid=b37edadd-a3e8-4d71-8642-b47e1afd162a"},"vehicle_type_id":"4","last_reported":1743692998,"current_range_meters":16800,"station_id":"ce4bhmh2rcd13ifvqgmg","pricing_plan_id":"cebpf4jnsgd1na2vs0mg"},{"bike_id":"f5d7baaf-c3b6-4714-ade1-a7553acc3f6e","system_id":"levelo_inurba_marseille","lat":43.30505,"lon":5.41703,"is_reserved":false,"is_disabled":false,"rental_uris":{"android":"levelo://app?vid=f5d7baaf-c3b6-4714-ade1-a7553acc3f6e","ios":"levelo://app?vid=f5d7baaf-c3b6-4714-ade1-a7553acc3f6e"},"vehicle_type_id":"4","last_reported":1743692998,"current_range_meters":16800,"station_id":"","pricing_plan_id":"cebpf4jnsgd1na2vs0mg"},{"bike_id":"feb4da4e-3eb0-4609-9f4d-398c99bd8521","system_id":"levelo_inurba_marseille","lat":43.25862,"lon":5.39903,"is_reserved":false,"is_disabled":false,"rental_uris":{"android":"levelo://app?vid=feb4da4e-3eb0-4609-9f4d-398c99bd8521","ios":"levelo://app?vid=feb4da4e-3eb0-4609-9f4d-398c99bd8521"},"vehicle_type_id":"4","last_reported":1743692998,"current_range_meters":16400,"station_id":"ce4bhl92rcd13ifvqghg","pricing_plan_id":"cebpf4jnsgd1na2vs0mg"},{"bike_id":"2985de46-fcde-4bb7-89c8-7796abc1ab91","system_id":"levelo_inurba_marseille","lat":43.26791,"lon":5.39417,"is_reserved":false,"is_disabled":false,"rental_uris":{"android":"levelo://app?vid=2985de46-fcde-4bb7-89c8-7796abc1ab91","ios":"levelo://app?vid=2985de46-fcde-4bb7-89c8-7796abc1ab91"},"vehicle_type_id":"4","last_reported":1743692998,"current_range_meters":16800,"station_id":"ce4bhh12rcd13ifvqfg0","pricing_plan_id":"cebpf4jnsgd1na2vs0mg"},{"bike_id":"031fa659-9b82-4585-ac52-db40cd6dd91f","system_id":"levelo_inurba_marseille","lat":43.31708,"lon":5.43703,"is_reserved":false,"is_disabled":false,"rental_uris":{"android":"levelo://app?vid=031fa659-9b82-4585-ac52-db40cd6dd91f","ios":"levelo://app?vid=031fa659-9b82-4585-ac52-db40cd6dd91f"},"vehicle_type_id":"4","last_reported":1743692998,"current_range_meters":17200,"station_id":"ce4bhp92rcd13ifvqhcg","pricing_plan_id":"cebpf4jnsgd1na2vs0mg"},{"bike_id":"264386b3-614e-4301-9608-3b573b153761","system_id":"levelo_inurba_marseille","lat":43.31385,"lon":5.36702,"is_reserved":false,"is_disabled":false,"rental_uris":{"android":"levelo://app?vid=264386b3-614e-4301-9608-3b573b153761","ios":"levelo://app?vid=264386b3-614e-4301-9608-3b573b153761"},"vehicle_type_id":"4","last_reported":1743692998,"current_range_meters":17200,"station_id":"ce4bgr92rcd13ifvqc6g","pricing_plan_id":"cebpf4jnsgd1na2vs0mg"},{"bike_id":"958b25ee-8eb5-494d-aa69-2270c3f10288","system_id":"levelo_inurba_marseille","lat":43.30555,"lon":5.365595,"is_reserved":false,"is_disabled":false,"rental_uris":{"android":"levelo://app?vid=958b25ee-8eb5-494d-aa69-2270c3f10288","ios":"levelo://app?vid=958b25ee-8eb5-494d-aa69-2270c3f10288"},"vehicle_type_id":"4","last_reported":1743692998,"current_range_meters":17600,"station_id":"ce4bgs12rcd13ifvqcag","pricing_plan_id":"cebpf4jnsgd1na2vs0mg"},{"bike_id":"45b8bac9-0173-498b-aeda-0f00380d4afe","system_id":"levelo_inurba_marseille","lat":43.297795,"lon":5.370926,"is_reserved":false,"is_disabled":false,"rental_uris":{"android":"levelo://app?vid=45b8bac9-0173-498b-aeda-0f00380d4afe","ios":"levelo://app?vid=45b8bac9-0173-498b-aeda-0f00380d4afe"},"vehicle_type_id":"4","last_reported":1743692998,"current_range_meters":17600,"station_id":"ce4bgop2rcd13ifvqc1g","pricing_plan_id":"cebpf4jnsgd1na2vs0mg"},{"bike_id":"2ea98267-b3a1-4853-9725-81c4fddce640","system_id":"levelo_inurba_marseille","lat":43.241784,"lon":5.397261,"is_reserved":false,"is_disabled":false,"rental_uris":{"android":"levelo://app?vid=2ea98267-b3a1-4853-9725-81c4fddce640","ios":"levelo://app?vid=2ea98267-b3a1-4853-9725-81c4fddce640"},"vehicle_type_id":"4","last_reported":1743692998,"current_range_meters":18800,"station_id":"ce4bhhp2rcd13ifvqfm0","pricing_plan_id":"cebpf4jnsgd1na2vs0mg"},{"bike_id":"2c195078-7361-4ca4-9441-7badcb42992a","system_id":"levelo_inurba_marseille","lat":43.330282,"lon":5.390461,"is_reserved":false,"is_disabled":false,"rental_uris":{"android":"levelo://app?vid=2c195078-7361-4ca4-9441-7badcb42992a","ios":"levelo://app?vid=2c195078-7361-4ca4-9441-7badcb42992a"},"vehicle_type_id":"4","last_reported":1743692998,"current_range_meters":17600,"station_id":"ce4bhr92rcd13ifvqhrg","pricing_plan_id":"cebpf4jnsgd1na2vs0mg"},{"bike_id":"19707cce-b13d-4cfa-a70c-06fb0c40cedd","system_id":"levelo_inurba_marseille","lat":43.317499,"lon":5.39011,"is_reserved":false,"is_disabled":false,"rental_uris":{"android":"levelo://app?vid=19707cce-b13d-4cfa-a70c-06fb0c40cedd","ios":"levelo://app?vid=19707cce-b13d-4cfa-a70c-06fb0c40cedd"},"vehicle_type_id":"4","last_reported":1743692998,"current_range_meters":17200,"station_id":"ce4bh0h2rcd13ifvqd50","pricing_plan_id":"cebpf4jnsgd1na2vs0mg"},{"bike_id":"4b352781-6e4b-400a-b517-63bcbc9c03a7","system_id":"levelo_inurba_marseille","lat":43.30548,"lon":5.38426,"is_reserved":false,"is_disabled":false,"rental_uris":{"android":"levelo://app?vid=4b352781-6e4b-400a-b517-63bcbc9c03a7","ios":"levelo://app?vid=4b352781-6e4b-400a-b517-63bcbc9c03a7"},"vehicle_type_id":"4","last_reported":1743692998,"current_range_meters":19600,"station_id":"ce4bgg92rcd13ifvqb30","pricing_plan_id":"cebpf4jnsgd1na2vs0mg"},{"bike_id":"3b4ad8c6-6244-4378-90d7-dac703d1508d","system_id":"levelo_inurba_marseille","lat":43.23197,"lon":5.35561,"is_reserved":false,"is_disabled":false,"rental_uris":{"android":"levelo://app?vid=3b4ad8c6-6244-4378-90d7-dac703d1508d","ios":"levelo://app?vid=3b4ad8c6-6244-4378-90d7-dac703d1508d"},"vehicle_type_id":"4","last_reported":1743692998,"current_range_meters":18000,"station_id":"ce4bhu92rcd13ifvqi70","pricing_plan_id":"cebpf4jnsgd1na2vs0mg"},{"bike_id":"53440f1e-d3fa-4638-ade9-02ac4bdb4ca2","system_id":"levelo_inurba_marseille","lat":43.24193,"lon":5.39742,"is_reserved":false,"is_disabled":false,"rental_uris":{"android":"levelo://app?vid=53440f1e-d3fa-4638-ade9-02ac4bdb4ca2","ios":"levelo://app?vid=53440f1e-d3fa-4638-ade9-02ac4bdb4ca2"},"vehicle_type_id":"4","last_reported":1743692998,"current_range_meters":18000,"station_id":"ce4bhn12rcd13ifvqgpg","pricing_plan_id":"cebpf4jnsgd1na2vs0mg"},{"bike_id":"f379ebfc-dbe8-4fc6-92ee-3c6077c1cccd","system_id":"levelo_inurba_marseille","lat":43.31542,"lon":5.38017,"is_reserved":false,"is_disabled":false,"rental_uris":{"android":"levelo://app?vid=f379ebfc-dbe8-4fc6-92ee-3c6077c1cccd","ios":"levelo://app?vid=f379ebfc-dbe8-4fc6-92ee-3c6077c1cccd"},"vehicle_type_id":"4","last_reported":1743692998,"current_range_meters":18000,"station_id":"ce4bhsp2rcd13ifvqi50","pricing_plan_id":"cebpf4jnsgd1na2vs0mg"},{"bike_id":"cccce150-77a7-4565-8ca1-36858ce9e6b0","system_id":"levelo_inurba_marseille","lat":43.321,"lon":5.36791,"is_reserved":false,"is_disabled":false,"rental_uris":{"android":"levelo://app?vid=cccce150-77a7-4565-8ca1-36858ce9e6b0","ios":"levelo://app?vid=cccce150-77a7-4565-8ca1-36858ce9e6b0"},"vehicle_type_id":"4","last_reported":1743692998,"current_range_meters":18000,"station_id":"ce4bhrh2rcd13ifvqhug","pricing_plan_id":"cebpf4jnsgd1na2vs0mg"},{"bike_id":"978f00e3-47d2-481d-80c8-31e1e7283ad6","system_id":"levelo_inurba_marseille","lat":43.22929,"lon":5.35372,"is_reserved":false,"is_disabled":false,"rental_uris":{"android":"levelo://app?vid=978f00e3-47d2-481d-80c8-31e1e7283ad6","ios":"levelo://app?vid=978f00e3-47d2-481d-80c8-31e1e7283ad6"},"vehicle_type_id":"4","last_reported":1743692998,"current_range_meters":18000,"station_id":"cpo3532slgdg3j2ikp40","pricing_plan_id":"cebpf4jnsgd1na2vs0mg"},{"bike_id":"7d3f5598-a139-475d-8174-a267db07463f","system_id":"levelo_inurba_marseille","lat":43.2862,"lon":5.35111,"is_reserved":false,"is_disabled":false,"rental_uris":{"android":"levelo://app?vid=7d3f5598-a139-475d-8174-a267db07463f","ios":"levelo://app?vid=7d3f5598-a139-475d-8174-a267db07463f"},"vehicle_type_id":"4","last_reported":1743692998,"current_range_meters":18000,"station_id":"ce4bhch2rcd13ifvqeug","pricing_plan_id":"cebpf4jnsgd1na2vs0mg"},{"bike_id":"a1ac7ed7-bf3b-4f94-bb77-6241b7f5071b","system_id":"levelo_inurba_marseille","lat":43.23192,"lon":5.39983,"is_reserved":false,"is_disabled":false,"rental_uris":{"android":"levelo://app?vid=a1ac7ed7-bf3b-4f94-bb77-6241b7f5071b","ios":"levelo://app?vid=a1ac7ed7-bf3b-4f94-bb77-6241b7f5071b"},