{"last_updated":1774418048,"ttl":60,"version":"2.2","data":{"bikes":[{"bike_id":"763571bb-b88d-45db-9a18-7962f9620cad","system_id":"levelo_inurba_marseille","lat":43.23189,"lon":5.35564,"is_reserved":false,"is_disabled":false,"rental_uris":{"android":"levelo://app?vid=763571bb-b88d-45db-9a18-7962f9620cad","ios":"levelo://app?vid=763571bb-b88d-45db-9a18-7962f9620cad"},"vehicle_type_id":"4","last_reported":1774418049,"current_range_meters":2800,"station_id":"ce4bhu92rcd13ifvqi70","pricing_plan_id":"cebpf4jnsgd1na2vs0mg"},{"bike_id":"a2fabdf4-bd61-4352-82b4-201f5349c59d","system_id":"levelo_inurba_marseille","lat":43.26559,"lon":5.39015,"is_reserved":false,"is_disabled":false,"rental_uris":{"android":"levelo://app?vid=a2fabdf4-bd61-4352-82b4-201f5349c59d","ios":"levelo://app?vid=a2fabdf4-bd61-4352-82b4-201f5349c59d"},"vehicle_type_id":"4","last_reported":1774418049,"current_range_meters":2800,"station_id":"ce4bhe12rcd13ifvqf30","pricing_plan_id":"cebpf4jnsgd1na2vs0mg"},{"bike_id":"c8024ea9-82d2-486f-88ad-4df636fc4ad6","system_id":"levelo_inurba_marseille","lat":43.25078,"lon":5.39508,"is_reserved":false,"is_disabled":false,"rental_uris":{"android":"levelo://app?vid=c8024ea9-82d2-486f-88ad-4df636fc4ad6","ios":"levelo://app?vid=c8024ea9-82d2-486f-88ad-4df636fc4ad6"},"vehicle_type_id":"4","last_reported":1774418049,"current_range_meters":2800,"station_id":"ce4bhm12rcd13ifvqgkg","pricing_plan_id":"cebpf4jnsgd1na2vs0mg"},{"bike_id":"29a577df-c925-4ad4-8796-1af1c698b4d5","system_id":"levelo_inurba_marseille","lat":43.27941,"lon":5.41071,"is_reserved":false,"is_disabled":false,"rental_uris":{"android":"levelo://app?vid=29a577df-c925-4ad4-8796-1af1c698b4d5","ios":"levelo://app?vid=29a577df-c925-4ad4-8796-1af1c698b4d5"},"vehicle_type_id":"4","last_reported":1774418049,"current_range_meters":2800,"station_id":"ce4bhnp2rcd13ifvqh0g","pricing_plan_id":"cebpf4jnsgd1na2vs0mg"},{"bike_id":"4db5528c-dcd5-4339-acdf-dcc0af5cef04","system_id":"levelo_inurba_marseille","lat":43.27633,"lon":5.38968,"is_reserved":false,"is_disabled":false,"rental_uris":{"android":"levelo://app?vid=4db5528c-dcd5-4339-acdf-dcc0af5cef04","ios":"levelo://app?vid=4db5528c-dcd5-4339-acdf-dcc0af5cef04"},"vehicle_type_id":"4","last_reported":1774418049,"current_range_meters":2800,"station_id":"","pricing_plan_id":"cebpf4jnsgd1na2vs0mg"},{"bike_id":"cdc076e6-da8c-4884-8507-9c86e9228fe8","system_id":"levelo_inurba_marseille","lat":43.32072,"lon":5.36852,"is_reserved":false,"is_disabled":false,"rental_uris":{"android":"levelo://app?vid=cdc076e6-da8c-4884-8507-9c86e9228fe8","ios":"levelo://app?vid=cdc076e6-da8c-4884-8507-9c86e9228fe8"},"vehicle_type_id":"4","last_reported":1774418049,"current_range_meters":2800,"station_id":"ce4bhrh2rcd13ifvqhug","pricing_plan_id":"cebpf4jnsgd1na2vs0mg"},{"bike_id":"9753bff6-a5c0-48bc-8e60-3457758e17cc","system_id":"levelo_inurba_marseille","lat":43.28335,"lon":5.38095,"is_reserved":false,"is_disabled":false,"rental_uris":{"android":"levelo://app?vid=9753bff6-a5c0-48bc-8e60-3457758e17cc","ios":"levelo://app?vid=9753bff6-a5c0-48bc-8e60-3457758e17cc"},"vehicle_type_id":"4","last_reported":1774418049,"current_range_meters":2800,"station_id":"ce4bh412rcd13ifvqdr0","pricing_plan_id":"cebpf4jnsgd1na2vs0mg"},{"bike_id":"cbb9ef95-d825-4d1c-b4a0-4b27eec53822","system_id":"levelo_inurba_marseille","lat":43.28663,"lon":5.3635,"is_reserved":false,"is_disabled":false,"rental_uris":{"android":"levelo://app?vid=cbb9ef95-d825-4d1c-b4a0-4b27eec53822","ios":"levelo://app?vid=cbb9ef95-d825-4d1c-b4a0-4b27eec53822"},"vehicle_type_id":"4","last_reported":1774418049,"current_range_meters":2800,"station_id":"ce4bhah2rcd13ifvqej0","pricing_plan_id":"cebpf4jnsgd1na2vs0mg"},{"bike_id":"c76b377e-0060-4be7-aebe-7351859ef346","system_id":"levelo_inurba_marseille","lat":43.24092,"lon":5.37756,"is_reserved":false,"is_disabled":false,"rental_uris":{"android":"levelo://app?vid=c76b377e-0060-4be7-aebe-7351859ef346","ios":"levelo://app?vid=c76b377e-0060-4be7-aebe-7351859ef346"},"vehicle_type_id":"4","last_reported":1774418049,"current_range_meters":2800,"station_id":"ce4bhnp2rcd13ifvqgvg","pricing_plan_id":"cebpf4jnsgd1na2vs0mg"},{"bike_id":"23ee696a-bf3a-4c0d-8b03-295f60b04e9a","system_id":"levelo_inurba_marseille","lat":43.30957,"lon":5.39057,"is_reserved":false,"is_disabled":false,"rental_uris":{"android":"levelo://app?vid=23ee696a-bf3a-4c0d-8b03-295f60b04e9a","ios":"levelo://app?vid=23ee696a-bf3a-4c0d-8b03-295f60b04e9a"},"vehicle_type_id":"4","last_reported":1774418049,"current_range_meters":2800,"station_id":"ce4bgup2rcd13ifvqco0","pricing_plan_id":"cebpf4jnsgd1na2vs0mg"},{"bike_id":"6e6161fe-edfa-4833-a177-c1358d249809","system_id":"levelo_inurba_marseille","lat":43.31239,"lon":5.38712,"is_reserved":false,"is_disabled":true,"rental_uris":{"android":"levelo://app?vid=6e6161fe-edfa-4833-a177-c1358d249809","ios":"levelo://app?vid=6e6161fe-edfa-4833-a177-c1358d249809"},"vehicle_type_id":"4","last_reported":1774418049,"current_range_meters":3200,"station_id":"","pricing_plan_id":"cebpf4jnsgd1na2vs0mg"},{"bike_id":"edc16db6-0042-4215-9aaf-108e0300da68","system_id":"levelo_inurba_marseille","lat":43.28933,"lon":5.36625,"is_reserved":false,"is_disabled":true,"rental_uris":{"android":"levelo://app?vid=edc16db6-0042-4215-9aaf-108e0300da68","ios":"levelo://app?vid=edc16db6-0042-4215-9aaf-108e0300da68"},"vehicle_type_id":"4","last_reported":1774418049,"current_range_meters":3200,"station_id":"ce4bhap2rcd13ifvqek0","pricing_plan_id":"cebpf4jnsgd1na2vs0mg"},{"bike_id":"b66a2e2d-206b-4ad0-bc12-5793add35a82","system_id":"levelo_inurba_marseille","lat":43.28084,"lon":5.40471,"is_reserved":false,"is_disabled":false,"rental_uris":{"android":"levelo://app?vid=b66a2e2d-206b-4ad0-bc12-5793add35a82","ios":"levelo://app?vid=b66a2e2d-206b-4ad0-bc12-5793add35a82"},"vehicle_type_id":"4","last_reported":1774418049,"current_range_meters":3200,"station_id":"","pricing_plan_id":"cebpf4jnsgd1na2vs0mg"},{"bike_id":"fa9fae44-b000-458d-9c17-b5f5f20069ee","system_id":"levelo_inurba_marseille","lat":43.23185,"lon":5.39993,"is_reserved":false,"is_disabled":false,"rental_uris":{"android":"levelo://app?vid=fa9fae44-b000-458d-9c17-b5f5f20069ee","ios":"levelo://app?vid=fa9fae44-b000-458d-9c17-b5f5f20069ee"},"vehicle_type_id":"4","last_reported":1774418049,"current_range_meters":3200,"station_id":"ce4bhn12rcd13ifvqgqg","pricing_plan_id":"cebpf4jnsgd1na2vs0mg"},{"bike_id":"4ce98637-072f-4197-bd69-11f207a88eab","system_id":"levelo_inurba_marseille","lat":43.28496,"lon":5.47279,"is_reserved":false,"is_disabled":false,"rental_uris":{"android":"levelo://app?vid=4ce98637-072f-4197-bd69-11f207a88eab","ios":"levelo://app?vid=4ce98637-072f-4197-bd69-11f207a88eab"},"vehicle_type_id":"4","last_reported":1774418049,"current_range_meters":3200,"station_id":"","pricing_plan_id":"cebpf4jnsgd1na2vs0mg"},{"bike_id":"afaed1ce-d9f0-4990-8274-d34093e4a465","system_id":"levelo_inurba_marseille","lat":43.32091,"lon":5.41552,"is_reserved":false,"is_disabled":false,"rental_uris":{"android":"levelo://app?vid=afaed1ce-d9f0-4990-8274-d34093e4a465","ios":"levelo://app?vid=afaed1ce-d9f0-4990-8274-d34093e4a465"},"vehicle_type_id":"4","last_reported":1774418049,"current_range_meters":3200,"station_id":"","pricing_plan_id":"cebpf4jnsgd1na2vs0mg"},{"bike_id":"c0339bad-3a71-412f-99d4-15aa57e709e3","system_id":"levelo_inurba_marseille","lat":43.33036,"lon":5.39044,"is_reserved":false,"is_disabled":false,"rental_uris":{"android":"levelo://app?vid=c0339bad-3a71-412f-99d4-15aa57e709e3","ios":"levelo://app?vid=c0339bad-3a71-412f-99d4-15aa57e709e3"},"vehicle_type_id":"4","last_reported":1774418049,"current_range_meters":3200,"station_id":"ce4bhr92rcd13ifvqhrg","pricing_plan_id":"cebpf4jnsgd1na2vs0mg"},{"bike_id":"45ce07bf-1dc3-441d-be3e-98069ebaa649","system_id":"levelo_inurba_marseille","lat":43.27833,"lon":5.40671,"is_reserved":false,"is_disabled":false,"rental_uris":{"android":"levelo://app?vid=45ce07bf-1dc3-441d-be3e-98069ebaa649","ios":"levelo://app?vid=45ce07bf-1dc3-441d-be3e-98069ebaa649"},"vehicle_type_id":"4","last_reported":1774418049,"current_range_meters":3200,"station_id":"ce4bhnh2rcd13ifvqgtg","pricing_plan_id":"cebpf4jnsgd1na2vs0mg"},{"bike_id":"c6e98197-4fdb-4a60-bbeb-a41493e3be5d","system_id":"levelo_inurba_marseille","lat":43.30733,"lon":5.42449,"is_reserved":false,"is_disabled":false,"rental_uris":{"android":"levelo://app?vid=c6e98197-4fdb-4a60-bbeb-a41493e3be5d","ios":"levelo://app?vid=c6e98197-4fdb-4a60-bbeb-a41493e3be5d"},"vehicle_type_id":"4","last_reported":1774418049,"current_range_meters":3200,"station_id":"st_cvj6ca6bvosntc0bfgr0","pricing_plan_id":"cebpf4jnsgd1na2vs0mg"},{"bike_id":"ac8e86da-55a1-458d-b594-72eeab74387c","system_id":"levelo_inurba_marseille","lat":43.25566,"lon":5.38241,"is_reserved":false,"is_disabled":false,"rental_uris":{"android":"levelo://app?vid=ac8e86da-55a1-458d-b594-72eeab74387c","ios":"levelo://app?vid=ac8e86da-55a1-458d-b594-72eeab74387c"},"vehicle_type_id":"4","last_reported":1774418049,"current_range_meters":3200,"station_id":"ce4bhih2rcd13ifvqfs0","pricing_plan_id":"cebpf4jnsgd1na2vs0mg"},{"bike_id":"c487d23b-fa89-43de-bbe7-4a766860da5e","system_id":"levelo_inurba_marseille","lat":43.27328,"lon":5.39128,"is_reserved":false,"is_disabled":false,"rental_uris":{"android":"levelo://app?vid=c487d23b-fa89-43de-bbe7-4a766860da5e","ios":"levelo://app?vid=c487d23b-fa89-43de-bbe7-4a766860da5e"},"vehicle_type_id":"4","last_reported":1774418049,"current_range_meters":3600,"station_id":"ce4bhgp2rcd13ifvqfe0","pricing_plan_id":"cebpf4jnsgd1na2vs0mg"},{"bike_id":"af28f2f5-abfc-4590-b2cf-7d3d7492db13","system_id":"levelo_inurba_marseille","lat":43.24662,"lon":5.38152,"is_reserved":false,"is_disabled":false,"rental_uris":{"android":"levelo://app?vid=af28f2f5-abfc-4590-b2cf-7d3d7492db13","ios":"levelo://app?vid=af28f2f5-abfc-4590-b2cf-7d3d7492db13"},"vehicle_type_id":"4","last_reported":1774418049,"current_range_meters":3600,"station_id":"ce4bhih2rcd13ifvqfr0","pricing_plan_id":"cebpf4jnsgd1na2vs0mg"},{"bike_id":"4382fefe-9d6a-4e31-b368-6a94fb3585d0","system_id":"levelo_inurba_marseille","lat":43.30656,"lon":5.40091,"is_reserved":false,"is_disabled":false,"rental_uris":{"android":"levelo://app?vid=4382fefe-9d6a-4e31-b368-6a94fb3585d0","ios":"levelo://app?vid=4382fefe-9d6a-4e31-b368-6a94fb3585d0"},"vehicle_type_id":"4","last_reported":1774418049,"current_range_meters":3600,"station_id":"ce4bh112rcd13ifvqda0","pricing_plan_id":"cebpf4jnsgd1na2vs0mg"},{"bike_id":"fde7c990-ea71-4125-9b7f-4cda0f7e1677","system_id":"levelo_inurba_marseille","lat":43.23799,"lon":5.36635,"is_reserved":false,"is_disabled":false,"rental_uris":{"android":"levelo://app?vid=fde7c990-ea71-4125-9b7f-4cda0f7e1677","ios":"levelo://app?vid=fde7c990-ea71-4125-9b7f-4cda0f7e1677"},"vehicle_type_id":"4","last_reported":1774418049,"current_range_meters":3600,"station_id":"st_d3nk18o9ro0c73en2l3g","pricing_plan_id":"cebpf4jnsgd1na2vs0mg"},{"bike_id":"0b786319-6d9f-4d1c-890a-5150198e272a","system_id":"levelo_inurba_marseille","lat":43.28469,"lon":5.48404,"is_reserved":false,"is_disabled":false,"rental_uris":{"android":"levelo://app?vid=0b786319-6d9f-4d1c-890a-5150198e272a","ios":"levelo://app?vid=0b786319-6d9f-4d1c-890a-5150198e272a"},"vehicle_type_id":"4","last_reported":1774418049,"current_range_meters":3600,"station_id":"st_d3svhcjqgbts73a3dn0g","pricing_plan_id":"cebpf4jnsgd1na2vs0mg"},{"bike_id":"62b4b24a-25c2-413c-a9e9-7d8f1f6621f7","system_id":"levelo_inurba_marseille","lat":43.2446,"lon":5.42547,"is_reserved":false,"is_disabled":false,"rental_uris":{"android":"levelo://app?vid=62b4b24a-25c2-413c-a9e9-7d8f1f6621f7","ios":"levelo://app?vid=62b4b24a-25c2-413c-a9e9-7d8f1f6621f7"},"vehicle_type_id":"4","last_reported":1774418049,"current_range_meters":3600,"station_id":"st_d4a3vfp97mjs738cd8kg","pricing_plan_id":"cebpf4jnsgd1na2vs0mg"},{"bike_id":"e9b07658-a8f0-465c-b976-645cd41e5970","system_id":"levelo_inurba_marseille","lat":43.27193,"lon":5.40987,"is_reserved":false,"is_disabled":false,"rental_uris":{"android":"levelo://app?vid=e9b07658-a8f0-465c-b976-645cd41e5970","ios":"levelo://app?vid=e9b07658-a8f0-465c-b976-645cd41e5970"},"vehicle_type_id":"4","last_reported":1774418049,"current_range_meters":3600,"station_id":"ce4bhl12rcd13ifvqgf0","pricing_plan_id":"cebpf4jnsgd1na2vs0mg"},{"bike_id":"d754a161-551f-4193-b8cb-ebcca83b2ad4","system_id":"levelo_inurba_marseille","lat":43.24623,"lon":5.38892,"is_reserved":false,"is_disabled":false,"rental_uris":{"android":"levelo://app?vid=d754a161-551f-4193-b8cb-ebcca83b2ad4","ios":"levelo://app?vid=d754a161-551f-4193-b8cb-ebcca83b2ad4"},"vehicle_type_id":"4","last_reported":1774418049,"current_range_meters":3600,"station_id":"ce4bhg12rcd13ifvqf60","pricing_plan_id":"cebpf4jnsgd1na2vs0mg"},{"bike_id":"d315d4d4-78e9-45de-8981-a7b0a1f81c91","system_id":"levelo_inurba_marseille","lat":43.27487,"lon":5.41608,"is_reserved":false,"is_disabled":false,"rental_uris":{"android":"levelo://app?vid=d315d4d4-78e9-45de-8981-a7b0a1f81c91","ios":"levelo://app?vid=d315d4d4-78e9-45de-8981-a7b0a1f81c91"},"vehicle_type_id":"4","last_reported":1774418049,"current_range_meters":3600,"station_id":"st_d6im8g6chgec73a5pndg","pricing_plan_id":"cebpf4jnsgd1na2vs0mg"},{"bike_id":"ae8f7260-7181-4342-a22b-a5fdf4a9e302","system_id":"levelo_inurba_marseille","lat":43.31513,"lon":5.38092,"is_reserved":false,"is_disabled":false,"rental_uris":{"android":"levelo://app?vid=ae8f7260-7181-4342-a22b-a5fdf4a9e302","ios":"levelo://app?vid=ae8f7260-7181-4342-a22b-a5fdf4a9e302"},"vehicle_type_id":"4","last_reported":1774418049,"current_range_meters":3600,"station_id":"ce4bhsp2rcd13ifvqi50","pricing_plan_id":"cebpf4jnsgd1na2vs0mg"},{"bike_id":"f71c0b61-bf79-47f6-b095-b3e1922fbe31","system_id":"levelo_inurba_marseille","lat":43.3136,"lon":5.38494,"is_reserved":false,"is_disabled":false,"rental_uris":{"android":"levelo://app?vid=f71c0b61-bf79-47f6-b095-b3e1922fbe31","ios":"levelo://app?vid=f71c0b61-bf79-47f6-b095-b3e1922fbe31"},"vehicle_type_id":"4","last_reported":1774418049,"current_range_meters":3600,"station_id":"ce4bgt92rcd13ifvqcf0","pricing_plan_id":"cebpf4jnsgd1na2vs0mg"},{"bike_id":"0e2f4137-e82a-401c-945f-6a1c7c098239","system_id":"levelo_inurba_marseille","lat":43.29618,"lon":5.37142,"is_reserved":false,"is_disabled":false,"rental_uris":{"android":"levelo://app?vid=0e2f4137-e82a-401c-945f-6a1c7c098239","ios":"levelo://app?vid=0e2f4137-e82a-401c-945f-6a1c7c098239"},"vehicle_type_id":"4","last_reported":1774418049,"current_range_meters":4000,"station_id":"ce4bgnh2rcd13ifvqc0g","pricing_plan_id":"cebpf4jnsgd1na2vs0mg"},{"bike_id":"d153865b-277c-49ad-92ee-2c9d0756119d","system_id":"levelo_inurba_marseille","lat":43.30644,"lon":5.40072,"is_reserved":false,"is_disabled":false,"rental_uris":{"android":"levelo://app?vid=d153865b-277c-49ad-92ee-2c9d0756119d","ios":"levelo://app?vid=d153865b-277c-49ad-92ee-2c9d0756119d"},"vehicle_type_id":"4","last_reported":1774418049,"current_range_meters":4000,"station_id":"ce4bh112rcd13ifvqda0","pricing_plan_id":"cebpf4jnsgd1na2vs0mg"},{"bike_id":"b75036ac-d81d-4bfd-a9c8-a051a6ff39fe","system_id":"levelo_inurba_marseille","lat":43.28529,"lon":5.44126,"is_reserved":false,"is_disabled":false,"rental_uris":{"android":"levelo://app?vid=b75036ac-d81d-4bfd-a9c8-a051a6ff39fe","ios":"levelo://app?vid=b75036ac-d81d-4bfd-a9c8-a051a6ff39fe"},"vehicle_type_id":"4","last_reported":1774418049,"current_range_meters":4000,"station_id":"st_d3j3df2ikq2c7380ej80","pricing_plan_id":"cebpf4jnsgd1na2vs0mg"},{"bike_id":"f9566020-4e3b-404b-a21f-da597dff6354","system_id":"levelo_inurba_marseille","lat":43.23893,"lon":5.37466,"is_reserved":false,"is_disabled":false,"rental_uris":{"android":"levelo://app?vid=f9566020-4e3b-404b-a21f-da597dff6354","ios":"levelo://app?vid=f9566020-4e3b-404b-a21f-da597dff6354"},"vehicle_type_id":"4","last_reported":1774418049,"current_range_meters":4000,"station_id":"st_d6sm7csbq4hs73f8fpjg","pricing_plan_id":"cebpf4jnsgd1na2vs0mg"},{"bike_id":"19a6325e-af45-41c2-bbca-14b8a136ed80","system_id":"levelo_inurba_marseille","lat":43.25879,"lon":5.39888,"is_reserved":false,"is_disabled":false,"rental_uris":{"android":"levelo://app?vid=19a6325e-af45-41c2-bbca-14b8a136ed80","ios":"levelo://app?vid=19a6325e-af45-41c2-bbca-14b8a136ed80"},"vehicle_type_id":"4","last_reported":1774418049,"current_range_meters":4000,"station_id":"ce4bhl92rcd13ifvqghg","pricing_plan_id":"cebpf4jnsgd1na2vs0mg"},{"bike_id":"dba25020-eb6f-4854-9ae1-c56cc824a4e9","system_id":"levelo_inurba_marseille","lat":43.28407,"lon":5.39215,"is_reserved":false,"is_disabled":false,"rental_uris":{"android":"levelo://app?vid=dba25020-eb6f-4854-9ae1-c56cc824a4e9","ios":"levelo://app?vid=dba25020-eb6f-4854-9ae1-c56cc824a4e9"},"vehicle_type_id":"4","last_reported":1774418049,"current_range_meters":4000,"station_id":"ce4bhoh2rcd13ifvqh5g","pricing_plan_id":"cebpf4jnsgd1na2vs0mg"},{"bike_id":"f910acab-e234-4475-91c9-ec3fea6d1bf3","system_id":"levelo_inurba_marseille","lat":43.29902,"lon":5.43668,"is_reserved":false,"is_disabled":false,"rental_uris":{"android":"levelo://app?vid=f910acab-e234-4475-91c9-ec3fea6d1bf3","ios":"levelo://app?vid=f910acab-e234-4475-91c9-ec3fea6d1bf3"},"vehicle_type_id":"4","last_reported":1774418049,"current_range_meters":4000,"station_id":"ce4bhpp2rcd13ifvqhfg","pricing_plan_id":"cebpf4jnsgd1na2vs0mg"},{"bike_id":"ec8327d7-4895-46f5-a733-ffa362873e62","system_id":"levelo_inurba_marseille","lat":43.29538,"lon":5.39395,"is_reserved":false,"is_disabled":false,"rental_uris":{"android":"levelo://app?vid=ec8327d7-4895-46f5-a733-ffa362873e62","ios":"levelo://app?vid=ec8327d7-4895-46f5-a733-ffa362873e62"},"vehicle_type_id":"4","last_reported":1774418049,"current_range_meters":4000,"station_id":"ce4bh292rcd13ifvqdf0","pricing_plan_id":"cebpf4jnsgd1na2vs0mg"},{"bike_id":"fb6b728c-d595-495c-a2b7-dcd86c0e3f7e","system_id":"levelo_inurba_marseille","lat":43.27978,"lon":5.41664,"is_reserved":false,"is_disabled":false,"rental_uris":{"android":"levelo://app?vid=fb6b728c-d595-495c-a2b7-dcd86c0e3f7e","ios":"levelo://app?vid=fb6b728c-d595-495c-a2b7-dcd86c0e3f7e"},"vehicle_type_id":"4","last_reported":1774418049,"current_range_meters":4000,"station_id":"ce4bho12rcd13ifvqh1g","pricing_plan_id":"cebpf4jnsgd1na2vs0mg"},{"bike_id":"5cff8034-4c2b-46d8-a63b-5de6b6d29d3f","system_id":"levelo_inurba_marseille","lat":43.29808,"lon":5.39345,"is_reserved":false,"is_disabled":true,"rental_uris":{"android":"levelo://app?vid=5cff8034-4c2b-46d8-a63b-5de6b6d29d3f","ios":"levelo://app?vid=5cff8034-4c2b-46d8-a63b-5de6b6d29d3f"},"vehicle_type_id":"4","last_reported":1774418049,"current_range_meters":4000,"station_id":"chh1huq6cuj3fo74tm60","pricing_plan_id":"cebpf4jnsgd1na2vs0mg"},{"bike_id":"f35a9644-f102-427c-8b00-579a35988db3","system_id":"levelo_inurba_marseille","lat":43.21208,"lon":5.3507,"is_reserved":false,"is_disabled":false,"rental_uris":{"android":"levelo://app?vid=f35a9644-f102-427c-8b00-579a35988db3","ios":"levelo://app?vid=f35a9644-f102-427c-8b00-579a35988db3"},"vehicle_type_id":"4","last_reported":1774418049,"current_range_meters":4000,"station_id":"st_cvj6sg6p6f1abm77japg","pricing_plan_id":"cebpf4jnsgd1na2vs0mg"},{"bike_id":"7e03e45c-d69c-4371-8267-aa26cde43729","system_id":"levelo_inurba_marseille","lat":43.25575,"lon":5.38235,"is_reserved":false,"is_disabled":true,"rental_uris":{"android":"levelo://app?vid=7e03e45c-d69c-4371-8267-aa26cde43729","ios":"levelo://app?vid=7e03e45c-d69c-4371-8267-aa26cde43729"},"vehicle_type_id":"4","last_reported":1774418049,"current_range_meters":4000,"station_id":"ce4bhih2rcd13ifvqfs0","pricing_plan_id":"cebpf4jnsgd1na2vs0mg"},{"bike_id":"1640993b-d278-49ed-aac8-4524836b0a26","system_id":"levelo_inurba_marseille","lat":43.28221,"lon":5.39065,"is_reserved":false,"is_disabled":true,"rental_uris":{"android":"levelo://app?vid=1640993b-d278-49ed-aac8-4524836b0a26","ios":"levelo://app?vid=1640993b-d278-49ed-aac8-4524836b0a26"},"vehicle_type_id":"4","last_reported":1774418049,"current_range_meters":4000,"station_id":"ce4bhn92rcd13ifvqgsg","pricing_plan_id":"cebpf4jnsgd1na2vs0mg"},{"bike_id":"7e239537-6c6b-4563-a73b-680f69586595","system_id":"levelo_inurba_marseille","lat":43.29007,"lon":5.35603,"is_reserved":false,"is_disabled":true,"rental_uris":{"android":"levelo://app?vid=7e239537-6c6b-4563-a73b-680f69586595","ios":"levelo://app?vid=7e239537-6c6b-4563-a73b-680f69586595"},"vehicle_type_id":"4","last_reported":1774418049,"current_range_meters":4000,"station_id":"ce4bhb92rcd13ifvqen0","pricing_plan_id":"cebpf4jnsgd1na2vs0mg"},{"bike_id":"b1ceaa1d-f7d5-4f1b-b74b-3e9a13f9efeb","system_id":"levelo_inurba_marseille","lat":43.23959,"lon":5.36646,"is_reserved":false,"is_disabled":false,"rental_uris":{"android":"levelo://app?vid=b1ceaa1d-f7d5-4f1b-b74b-3e9a13f9efeb","ios":"levelo://app?vid=b1ceaa1d-f7d5-4f1b-b74b-3e9a13f9efeb"},"vehicle_type_id":"4","last_reported":1774418049,"current_range_meters":4000,"station_id":"ce4bhi12rcd13ifvqfp0","pricing_plan_id":"cebpf4jnsgd1na2vs0mg"},{"bike_id":"a9b0556e-e257-4c86-baec-32c674fd9499","system_id":"levelo_inurba_marseille","lat":43.3019,"lon":5.39473,"is_reserved":false,"is_disabled":true,"rental_uris":{"android":"levelo://app?vid=a9b0556e-e257-4c86-baec-32c674fd9499","ios":"levelo://app?vid=a9b0556e-e257-4c86-baec-32c674fd9499"},"vehicle_type_id":"4","last_reported":1774418049,"current_range_meters":4400,"station_id":"ce4bh0p2rcd13ifvqd70","pricing_plan_id":"cebpf4jnsgd1na2vs0mg"},{"bike_id":"91194cd1-a9d5-4178-bf98-bf0c11029e92","system_id":"levelo_inurba_marseille","lat":43.296217,"lon":5.405841,"is_reserved":false,"is_disabled":false,"rental_uris":{"android":"levelo://app?vid=91194cd1-a9d5-4178-bf98-bf0c11029e92","ios":"levelo://app?vid=91194cd1-a9d5-4178-bf98-bf0c11029e92"},"vehicle_type_id":"4","last_reported":1774418049,"current_range_meters":4400,"station_id":"ce4bh0h2rcd13ifvqd60","pricing_plan_id":"cebpf4jnsgd1na2vs0mg"},{"bike_id":"8e331d09-f777-47e4-a327-164db2e188a9","system_id":"levelo_inurba_marseille","lat":43.26576,"lon":5.40332,"is_reserved":false,"is_disabled":true,"rental_uris":{"android":"levelo://app?vid=8e331d09-f777-47e4-a327-164db2e188a9","ios":"levelo://app?vid=8e331d09-f777-47e4-a327-164db2e188a9"},"vehicle_type_id":"4","last_reported":1774418049,"current_range_meters":4400,"station_id":"ce4bhmp2rcd13ifvqgng","pricing_plan_id":"cebpf4jnsgd1na2vs0mg"},{"bike_id":"a738e86d-0de3-47ef-a6ab-51f555655c3f","system_id":"levelo_inurba_marseille","lat":43.31127,"lon":5.37757,"is_reserved":false,"is_disabled":false,"rental_uris":{"android":"levelo://app?vid=a738e86d-0de3-47ef-a6ab-51f555655c3f","ios":"levelo://app?vid=a738e86d-0de3-47ef-a6ab-51f555655c3f"},"vehicle_type_id":"4","last_reported":1774418049,"current_range_meters":4400,"station_id":"ce4bgt92rcd13ifvqcg0","pricing_plan_id":"cebpf4jnsgd1na2vs0mg"},{"bike_id":"11e270f4-fef7-471c-9adc-54747540acc9","system_id":"levelo_inurba_marseille","lat":43.28687,"lon":5.36357,"is_reserved":false,"is_disabled":false,"rental_uris":{"android":"levelo://app?vid=11e270f4-fef7-471c-9adc-54747540acc9","ios":"levelo://app?vid=11e270f4-fef7-471c-9adc-54747540acc9"},"vehicle_type_id":"4","last_reported":1774418049,"current_range_meters":4400,"station_id":"ce4bhah2rcd13ifvqej0","pricing_plan_id":"cebpf4jnsgd1na2vs0mg"},{"bike_id":"2a02a3e7-6f53-48a3-ab29-526ed2f5cbb2","system_id":"levelo_inurba_marseille","lat":43.29968,"lon":5.37188,"is_reserved":false,"is_disabled":false,"rental_uris":{"android":"levelo://app?vid=2a02a3e7-6f53-48a3-ab29-526ed2f5cbb2","ios":"levelo://app?vid=2a02a3e7-6f53-48a3-ab29-526ed2f5cbb2"},"vehicle_type_id":"4","last_reported":1774418049,"current_range_meters":4400,"station_id":"ce4bgr92rcd13ifvqc7g","pricing_plan_id":"cebpf4jnsgd1na2vs0mg"},{"bike_id":"06411c2b-d0f9-4665-8144-3cdf55131f03","system_id":"levelo_inurba_marseille","lat":43.29629,"lon":5.4061,"is_reserved":false,"is_disabled":false,"rental_uris":{"android":"levelo://app?vid=06411c2b-d0f9-4665-8144-3cdf55131f03","ios":"levelo://app?vid=06411c2b-d0f9-4665-8144-3cdf55131f03"},"vehicle_type_id":"4","last_reported":1774418049,"current_range_meters":4400,"station_id":"ce4bh0h2rcd13ifvqd60","pricing_plan_id":"cebpf4jnsgd1na2vs0mg"},{"bike_id":"9723db1c-04c4-43c6-bee8-ac289f2e0c55","system_id":"levelo_inurba_marseille","lat":43.28599,"lon":5.3707,"is_reserved":false,"is_disabled":false,"rental_uris":{"android":"levelo://app?vid=9723db1c-04c4-43c6-bee8-ac289f2e0c55","ios":"levelo://app?vid=9723db1c-04c4-43c6-bee8-ac289f2e0c55"},"vehicle_type_id":"4","last_reported":1774418049,"current_range_meters":4400,"station_id":"ce4bht12rcd13ifvqi60","pricing_plan_id":"cebpf4jnsgd1na2vs0mg"},{"bike_id":"a14d2edd-85c5-4116-8db5-355e3fb2ddbe","system_id":"levelo_inurba_marseille","lat":43.33545,"lon":5.37465,"is_reserved":false,"is_disabled":false,"rental_uris":{"android":"levelo://app?vid=a14d2edd-85c5-4116-8db5-355e3fb2ddbe","ios":"levelo://app?vid=a14d2edd-85c5-4116-8db5-355e3fb2ddbe"},"vehicle_type_id":"4","last_reported":1774418049,"current_range_meters":4800,"station_id":"st_d46tts09ee8s73dlu43g","pricing_plan_id":"cebpf4jnsgd1na2vs0mg"},{"bike_id":"c1de2c65-0476-46cf-9ed7-7dbf07b95ee3","system_id":"levelo_inurba_marseille","lat":43.29638,"lon":5.40626,"is_reserved":false,"is_disabled":false,"rental_uris":{"android":"levelo://app?vid=c1de2c65-0476-46cf-9ed7-7dbf07b95ee3","ios":"levelo://app?vid=c1de2c65-0476-46cf-9ed7-7dbf07b95ee3"},"vehicle_type_id":"4","last_reported":1774418049,"current_range_meters":4800,"station_id":"ce4bh0h2rcd13ifvqd60","pricing_plan_id":"cebpf4jnsgd1na2vs0mg"},{"bike_id":"dffad5ff-7d58-4152-91b4-69c4f0e2e182","system_id":"levelo_inurba_marseille","lat":43.29755,"lon":5.42791,"is_reserved":false,"is_disabled":false,"rental_uris":{"android":"levelo://app?vid=dffad5ff-7d58-4152-91b4-69c4f0e2e182","ios":"levelo://app?vid=dffad5ff-7d58-4152-91b4-69c4f0e2e182"},"vehicle_type_id":"4","last_reported":1774418049,"current_range_meters":4800,"station_id":"st_d3md5207bmas73dh9klg","pricing_plan_id":"cebpf4jnsgd1na2vs0mg"},{"bike_id":"0b4a36c9-468c-4770-8280-af4cc610443d","system_id":"levelo_inurba_marseille","lat":43.29278,"lon":5.36832,"is_reserved":false,"is_disabled":false,"rental_uris":{"android":"levelo://app?vid=0b4a36c9-468c-4770-8280-af4cc610443d","ios":"levelo://app?vid=0b4a36c9-468c-4770-8280-af4cc610443d"},"vehicle_type_id":"4","last_reported":1774418049,"current_range_meters":4800,"station_id":"ce4bhbp2rcd13ifvqesg","pricing_plan_id":"cebpf4jnsgd1na2vs0mg"},{"bike_id":"066cfe81-714d-4a28-ba8d-e13baf5bbb1b","system_id":"levelo_inurba_marseille","lat":43.27266,"lon":5.41147,"is_reserved":false,"is_disabled":false,"rental_uris":{"android":"levelo://app?vid=066cfe81-714d-4a28-ba8d-e13baf5bbb1b","ios":"levelo://app?vid=066cfe81-714d-4a28-ba8d-e13baf5bbb1b"},"vehicle_type_id":"4","last_reported":1774418049,"current_range_meters":4800,"station_id":"","pricing_plan_id":"cebpf4jnsgd1na2vs0mg"},{"bike_id":"92865f32-8c99-40b6-9302-e5316ca3b9a5","system_id":"levelo_inurba_marseille","lat":43.30474,"lon":5.3766,"is_reserved":false,"is_disabled":false,"rental_uris":{"android":"levelo://app?vid=92865f32-8c99-40b6-9302-e5316ca3b9a5","ios":"levelo://app?vid=92865f32-8c99-40b6-9302-e5316ca3b9a5"},"vehicle_type_id":"4","last_reported":1774418049,"current_range_meters":4800,"station_id":"","pricing_plan_id":"cebpf4jnsgd1na2vs0mg"},{"bike_id":"92492a78-3672-4445-bf40-2206f94ab4b7","system_id":"levelo_inurba_marseille","lat":43.30438,"lon":5.3975,"is_reserved":false,"is_disabled":false,"rental_uris":{"android":"levelo://app?vid=92492a78-3672-4445-bf40-2206f94ab4b7","ios":"levelo://app?vid=92492a78-3672-4445-bf40-2206f94ab4b7"},"vehicle_type_id":"4","last_reported":1774418049,"current_range_meters":4800,"station_id":"ce4bh092rcd13ifvqd20","pricing_plan_id":"cebpf4jnsgd1na2vs0mg"},{"bike_id":"f9161948-4b39-4822-8aca-bab6df3c037b","system_id":"levelo_inurba_marseille","lat":43.29304,"lon":5.37182,"is_reserved":false,"is_disabled":false,"rental_uris":{"android":"levelo://app?vid=f9161948-4b39-4822-8aca-bab6df3c037b","ios":"levelo://app?vid=f9161948-4b39-4822-8aca-bab6df3c037b"},"vehicle_type_id":"4","last_reported":1774418049,"current_range_meters":4800,"station_id":"ce4bgh92rcd13ifvqb40","pricing_plan_id":"cebpf4jnsgd1na2vs0mg"},{"bike_id":"0503ed00-51a9-40c2-99fd-dbbaf9e61da3","system_id":"levelo_inurba_marseille","lat":43.2869,"lon":5.37397,"is_reserved":false,"is_disabled":false,"rental_uris":{"android":"levelo://app?vid=0503ed00-51a9-40c2-99fd-dbbaf9e61da3","ios":"levelo://app?vid=0503ed00-51a9-40c2-99fd-dbbaf9e61da3"},"vehicle_type_id":"4","last_reported":1774418049,"current_range_meters":4800,"station_id":"ce4bh3p2rcd13ifvqdq0","pricing_plan_id":"cebpf4jnsgd1na2vs0mg"},{"bike_id":"e6349eb3-2730-461c-ae14-f386689052fa","system_id":"levelo_inurba_marseille","lat":43.31624,"lon":5.37805,"is_reserved":false,"is_disabled":true,"rental_uris":{"android":"levelo://app?vid=e6349eb3-2730-461c-ae14-f386689052fa","ios":"levelo://app?vid=e6349eb3-2730-461c-ae14-f386689052fa"},"vehicle_type_id":"4","last_reported":1774418049,"current_range_meters":4800,"station_id":"","pricing_plan_id":"cebpf4jnsgd1na2vs0mg"},{"bike_id":"0bb5a612-69d8-4674-99fa-a9e1bf614712","system_id":"levelo_inurba_marseille","lat":43.30953,"lon":5.39042,"is_reserved":false,"is_disabled":false,"rental_uris":{"android":"levelo://app?vid=0bb5a612-69d8-4674-99fa-a9e1bf614712","ios":"levelo://app?vid=0bb5a612-69d8-4674-99fa-a9e1bf614712"},"vehicle_type_id":"4","last_reported":1774418049,"current_range_meters":4800,"station_id":"ce4bgup2rcd13ifvqco0","pricing_plan_id":"cebpf4jnsgd1na2vs0mg"},{"bike_id":"bae6218d-76b2-49f7-a1ac-2d661366a996","system_id":"levelo_inurba_marseille","lat":43.27804,"lon":5.40747,"is_reserved":false,"is_disabled":false,"rental_uris":{"android":"levelo://app?vid=bae6218d-76b2-49f7-a1ac-2d661366a996","ios":"levelo://app?vid=bae6218d-76b2-49f7-a1ac-2d661366a996"},"vehicle_type_id":"4","last_reported":1774418049,"current_range_meters":4800,"station_id":"ce4bhnh2rcd13ifvqgtg","pricing_plan_id":"cebpf4jnsgd1na2vs0mg"},{"bike_id":"d09d228d-2f6a-477f-99e2-2109d7ccc63c","system_id":"levelo_inurba_marseille","lat":43.25012,"lon":5.39612,"is_reserved":false,"is_disabled":false,"rental_uris":{"android":"levelo://app?vid=d09d228d-2f6a-477f-99e2-2109d7ccc63c","ios":"levelo://app?vid=d09d228d-2f6a-477f-99e2-2109d7ccc63c"},"vehicle_type_id":"4","last_reported":1774418049,"current_range_meters":4800,"station_id":"","pricing_plan_id":"cebpf4jnsgd1na2vs0mg"},{"bike_id":"35bae270-5434-4e69-82a2-7081c50b37f8","system_id":"levelo_inurba_marseille","lat":43.286,"lon":5.39912,"is_reserved":false,"is_disabled":false,"rental_uris":{"android":"levelo://app?vid=35bae270-5434-4e69-82a2-7081c50b37f8","ios":"levelo://app?vid=35bae270-5434-4e69-82a2-7081c50b37f8"},"vehicle_type_id":"4","last_reported":1774418049,"current_range_meters":4800,"station_id":"st_d4a7ka997mjs738ck50g","pricing_plan_id":"cebpf4jnsgd1na2vs0mg"},{"bike_id":"26e7f08a-7e84-4397-b6a3-eb87d40aa9ee","system_id":"levelo_inurba_marseille","lat":43.24778,"lon":5.37467,"is_reserved":false,"is_disabled":false,"rental_uris":{"android":"levelo://app?vid=26e7f08a-7e84-4397-b6a3-eb87d40aa9ee","ios":"levelo://app?vid=26e7f08a-7e84-4397-b6a3-eb87d40aa9ee"},"vehicle_type_id":"4","last_reported":1774418049,"current_range_meters":5600,"station_id":"ce4bhgh2rcd13ifvqfb0","pricing_plan_id":"cebpf4jnsgd1na2vs0mg"},{"bike_id":"68f77dfc-69e3-4c6a-b19f-b7e0a415acb5","system_id":"levelo_inurba_marseille","lat":43.28846,"lon":5.35857,"is_reserved":false,"is_disabled":false,"rental_uris":{"android":"levelo://app?vid=68f77dfc-69e3-4c6a-b19f-b7e0a415acb5","ios":"levelo://app?vid=68f77dfc-69e3-4c6a-b19f-b7e0a415acb5"},"vehicle_type_id":"4","last_reported":1774418049,"current_range_meters":5600,"station_id":"ce4bhb12rcd13ifvqem0","pricing_plan_id":"cebpf4jnsgd1na2vs0mg"},{"bike_id":"ce1ca696-5540-44ed-b207-f9acc1332d82","system_id":"levelo_inurba_marseille","lat":43.28195,"lon":5.39069,"is_reserved":false,"is_disabled":false,"rental_uris":{"android":"levelo://app?vid=ce1ca696-5540-44ed-b207-f9acc1332d82","ios":"levelo://app?vid=ce1ca696-5540-44ed-b207-f9acc1332d82"},"vehicle_type_id":"4","last_reported":1774418049,"current_range_meters":5600,"station_id":"ce4bhn92rcd13ifvqgsg","pricing_plan_id":"cebpf4jnsgd1na2vs0mg"},{"bike_id":"fe332a28-7761-474f-ad2d-b84cd0257740","system_id":"levelo_inurba_marseille","lat":43.23787,"lon":5.36645,"is_reserved":false,"is_disabled":false,"rental_uris":{"android":"levelo://app?vid=fe332a28-7761-474f-ad2d-b84cd0257740","ios":"levelo://app?vid=fe332a28-7761-474f-ad2d-b84cd0257740"},"vehicle_type_id":"4","last_reported":1774418049,"current_range_meters":5600,"station_id":"st_d3nk18o9ro0c73en2l3g","pricing_plan_id":"cebpf4jnsgd1na2vs0mg"},{"bike_id":"9d29295a-778d-434c-af0f-fee5fe32917c","system_id":"levelo_inurba_marseille","lat":43.24679,"lon":5.38164,"is_reserved":false,"is_disabled":false,"rental_uris":{"android":"levelo://app?vid=9d29295a-778d-434c-af0f-fee5fe32917c","ios":"levelo://app?vid=9d29295a-778d-434c-af0f-fee5fe32917c"},"vehicle_type_id":"4","last_reported":1774418049,"current_range_meters":5600,"station_id":"ce4bhih2rcd13ifvqfr0","pricing_plan_id":"cebpf4jnsgd1na2vs0mg"},{"bike_id":"e51f3b8f-2277-4636-88c7-d4fed1c89dba","system_id":"levelo_inurba_marseille","lat":43.29851,"lon":5.4094,"is_reserved":false,"is_disabled":false,"rental_uris":{"android":"levelo://app?vid=e51f3b8f-2277-4636-88c7-d4fed1c89dba","ios":"levelo://app?vid=e51f3b8f-2277-4636-88c7-d4fed1c89dba"},"vehicle_type_id":"4","last_reported":1774418049,"current_range_meters":5600,"station_id":"","pricing_plan_id":"cebpf4jnsgd1na2vs0mg"},{"bike_id":"e94d83da-a52c-4009-83db-8b37093608a6","system_id":"levelo_inurba_marseille","lat":43.22555,"lon":5.41644,"is_reserved":false,"is_disabled":false,"rental_uris":{"android":"levelo://app?vid=e94d83da-a52c-4009-83db-8b37093608a6","ios":"levelo://app?vid=e94d83da-a52c-4009-83db-8b37093608a6"},"vehicle_type_id":"4","last_reported":1774418049,"current_range_meters":5600,"station_id":"st_d2o4gvlbi1j2169b742g","pricing_plan_id":"cebpf4jnsgd1na2vs0mg"},{"bike_id":"9ca4b1da-0df4-426d-b237-eed2d4351450","system_id":"levelo_inurba_marseille","lat":43.23191,"lon":5.39978,"is_reserved":false,"is_disabled":false,"rental_uris":{"android":"levelo://app?vid=9ca4b1da-0df4-426d-b237-eed2d4351450","ios":"levelo://app?vid=9ca4b1da-0df4-426d-b237-eed2d4351450"},"vehicle_type_id":"4","last_reported":1774418049,"current_range_meters":5600,"station_id":"ce4bhn12rcd13ifvqgqg","pricing_plan_id":"cebpf4jnsgd1na2vs0mg"},{"bike_id":"5208ee98-7e4f-445b-9dbc-5d8fbec80d74","system_id":"levelo_inurba_marseille","lat":43.23372,"lon":5.41266,"is_reserved":false,"is_disabled":false,"rental_uris":{"android":"levelo://app?vid=5208ee98-7e4f-445b-9dbc-5d8fbec80d74","ios":"levelo://app?vid=5208ee98-7e4f-445b-9dbc-5d8fbec80d74"},"vehicle_type_id":"4","last_reported":1774418049,"current_range_meters":5600,"station_id":"","pricing_plan_id":"cebpf4jnsgd1na2vs0mg"},{"bike_id":"e5b088c5-2031-45f6-a6be-1aa21763808d","system_id":"levelo_inurba_marseille","lat":43.30167,"lon":5.38093,"is_reserved":false,"is_disabled":false,"rental_uris":{"android":"levelo://app?vid=e5b088c5-2031-45f6-a6be-1aa21763808d","ios":"levelo://app?vid=e5b088c5-2031-45f6-a6be-1aa21763808d"},"vehicle_type_id":"4","last_reported":1774418049,"current_range_meters":5600,"station_id":"ce4bgjp2rcd13ifvqbh0","pricing_plan_id":"cebpf4jnsgd1na2vs0mg"},{"bike_id":"4edb492a-65d4-4582-925f-714e82508774","system_id":"levelo_inurba_marseille","lat":43.31181,"lon":5.38729,"is_reserved":false,"is_disabled":false,"rental_uris":{"android":"levelo://app?vid=4edb492a-65d4-4582-925f-714e82508774","ios":"levelo://app?vid=4edb492a-65d4-4582-925f-714e82508774"},"vehicle_type_id":"4","last_reported":1774418049,"current_range_meters":5600,"station_id":"ce4bgv12rcd13ifvqcp0","pricing_plan_id":"cebpf4jnsgd1na2vs0mg"},{"bike_id":"fc430fe6-c5ac-4670-9eb2-06c41d60630d","system_id":"levelo_inurba_marseille","lat":43.30311,"lon":5.39141,"is_reserved":false,"is_disabled":false,"rental_uris":{"android":"levelo://app?vid=fc430fe6-c5ac-4670-9eb2-06c41d60630d","ios":"levelo://app?vid=fc430fe6-c5ac-4670-9eb2-06c41d60630d"},"vehicle_type_id":"4","last_reported":1774418049,"current_range_meters":6000,"station_id":"","pricing_plan_id":"cebpf4jnsgd1na2vs0mg"},{"bike_id":"bb85b854-c47c-4191-a8f6-7b401c5c72ea","system_id":"levelo_inurba_marseille","lat":43.28408,"lon":5.3751,"is_reserved":false,"is_disabled":false,"rental_uris":{"android":"levelo://app?vid=bb85b854-c47c-4191-a8f6-7b401c5c72ea","ios":"levelo://app?vid=bb85b854-c47c-4191-a8f6-7b401c5c72ea"},"vehicle_type_id":"4","last_reported":1774418049,"current_range_meters":6000,"station_id":"ce4bh412rcd13ifvqds0","pricing_plan_id":"cebpf4jnsgd1na2vs0mg"},{"bike_id":"f7e664bc-8cfe-465d-9dbe-128ca982aa9c","system_id":"levelo_inurba_marseille","lat":43.24991,"lon":5.38988,"is_reserved":false,"is_disabled":false,"rental_uris":{"android":"levelo://app?vid=f7e664bc-8cfe-465d-9dbe-128ca982aa9c","ios":"levelo://app?vid=f7e664bc-8cfe-465d-9dbe-128ca982aa9c"},"vehicle_type_id":"4","last_reported":1774418049,"current_range_meters":6000,"station_id":"","pricing_plan_id":"cebpf4jnsgd1na2vs0mg"},{"bike_id":"324e8774-31d0-4e5e-8924-5d87507012f1","system_id":"levelo_inurba_marseille","lat":43.31343,"lon":5.39718,"is_reserved":false,"is_disabled":false,"rental_uris":{"android":"levelo://app?vid=324e8774-31d0-4e5e-8924-5d87507012f1","ios":"levelo://app?vid=324e8774-31d0-4e5e-8924-5d87507012f1"},"vehicle_type_id":"4","last_reported":1774418049,"current_range_meters":6000,"station_id":"ce4bgvp2rcd13ifvqcu0","pricing_plan_id":"cebpf4jnsgd1na2vs0mg"},{"bike_id":"b944e609-5e6c-418f-a8af-97899a61e0c7","system_id":"levelo_inurba_marseille","lat":43.32033,"lon":5.41573,"is_reserved":false,"is_disabled":false,"rental_uris":{"android":"levelo://app?vid=b944e609-5e6c-418f-a8af-97899a61e0c7","ios":"levelo://app?vid=b944e609-5e6c-418f-a8af-97899a61e0c7"},"vehicle_type_id":"4","last_reported":1774418049,"current_range_meters":6000,"station_id":"ce4bhq92rcd13ifvqhkg","pricing_plan_id":"cebpf4jnsgd1na2vs0mg"},{"bike_id":"eb7f051c-07f1-41d2-9450-33cd5a984ca1","system_id":"levelo_inurba_marseille","lat":43.2305,"lon":5.35515,"is_reserved":false,"is_disabled":false,"rental_uris":{"android":"levelo://app?vid=eb7f051c-07f1-41d2-9450-33cd5a984ca1","ios":"levelo://app?vid=eb7f051c-07f1-41d2-9450-33cd5a984ca1"},"vehicle_type_id":"4","last_reported":1774418049,"current_range_meters":6000,"station_id":"cpo3342slgdg3j2ifvpg","pricing_plan_id":"cebpf4jnsgd1na2vs0mg"},{"bike_id":"1a751648-291f-4319-a34f-249a761c3662","system_id":"levelo_inurba_marseille","lat":43.33609,"lon":5.36311,"is_reserved":false,"is_disabled":false,"rental_uris":{"android":"levelo://app?vid=1a751648-291f-4319-a34f-249a761c3662","ios":"levelo://app?vid=1a751648-291f-4319-a34f-249a761c3662"},"vehicle_type_id":"4","last_reported":1774418049,"current_range_meters":6000,"station_id":"","pricing_plan_id":"cebpf4jnsgd1na2vs0mg"},{"bike_id":"705ed374-c7e4-4970-9778-57421b22c7bc","system_id":"levelo_inurba_marseille","lat":43.27817,"lon":5.40724,"is_reserved":false,"is_disabled":false,"rental_uris":{"android":"levelo://app?vid=705ed374-c7e4-4970-9778-57421b22c7bc","ios":"levelo://app?vid=705ed374-c7e4-4970-9778-57421b22c7bc"},"vehicle_type_id":"4","last_reported":1774418049,"current_range_meters":6000,"station_id":"ce4bhnh2rcd13ifvqgtg","pricing_plan_id":"cebpf4jnsgd1na2vs0mg"},{"bike_id":"07035ceb-7f0e-449d-a264-2cea17dace41","system_id":"levelo_inurba_marseille","lat":43.23782,"lon":5.36622,"is_reserved":false,"is_disabled":false,"rental_uris":{"android":"levelo://app?vid=07035ceb-7f0e-449d-a264-2cea17dace41","ios":"levelo://app?vid=07035ceb-7f0e-449d-a264-2cea17dace41"},"vehicle_type_id":"4","last_reported":1774418049,"current_range_meters":6000,"station_id":"st_d3nk18o9ro0c73en2l3g","pricing_plan_id":"cebpf4jnsgd1na2vs0mg"},{"bike_id":"e0996d0d-f6cf-4428-acad-fd84bac2c9fe","system_id":"levelo_inurba_marseille","lat":43.23191,"lon":5.35562,"is_reserved":false,"is_disabled":false,"rental_uris":{"android":"levelo://app?vid=e0996d0d-f6cf-4428-acad-fd84bac2c9fe","ios":"levelo://app?vid=e0996d0d-f6cf-4428-acad-fd84bac2c9fe"},"vehicle_type_id":"4","last_reported":1774418049,"current_range_meters":6000,"station_id":"ce4bhu92rcd13ifvqi70","pricing_plan_id":"cebpf4jnsgd1na2vs0mg"},{"bike_id":"6711ca2b-9a4e-46b1-892e-1007cc2a656e","system_id":"levelo_inurba_marseille","lat":43.2853,"lon":5.4414,"is_reserved":false,"is_disabled":false,"rental_uris":{"android":"levelo://app?vid=6711ca2b-9a4e-46b1-892e-1007cc2a656e","ios":"levelo://app?vid=6711ca2b-9a4e-46b1-892e-1007cc2a656e"},"vehicle_type_id":"4","last_reported":1774418049,"current_range_meters":6000,"station_id":"st_d3j3df2ikq2c7380ej80","pricing_plan_id":"cebpf4jnsgd1na2vs0mg"},{"bike_id":"63802da6-1f74-4b92-958d-77f8c78524d6","system_id":"levelo_inurba_marseille","lat":43.2861,"lon":5.39883,"is_reserved":false,"is_disabled":false,"rental_uris":{"android":"levelo://app?vid=63802da6-1f74-4b92-958d-77f8c78524d6","ios":"levelo://app?vid=63802da6-1f74-4b92-958d-77f8c78524d6"},"vehicle_type_id":"4","last_reported":1774418049,"current_range_meters":6000,"station_id":"st_d4a7ka997mjs738ck50g","pricing_plan_id":"cebpf4jnsgd1na2vs0mg"},{"bike_id":"e2ec6d94-d26f-4a11-855f-64d130247f9d","system_id":"levelo_inurba_marseille","lat":43.30707,"lon":5.42454,"is_reserved":false,"is_disabled":false,"rental_uris":{"android":"levelo://app?vid=e2ec6d94-d26f-4a11-855f-64d130247f9d","ios":"levelo://app?vid=e2ec6d94-d26f-4a11-855f-64d130247f9d"},"vehicle_type_id":"4","last_reported":1774418049,"current_range_meters":6000,"station_id":"st_cvj6ca6bvosntc0bfgr0","pricing_plan_id":"cebpf4jnsgd1na2vs0mg"},{"bike_id":"04696bc5-8154-4c46-9c9f-db8416a35051","system_id":"levelo_inurba_marseille","lat":43.3111,"lon":5.37212,"is_reserved":false,"is_disabled":false,"rental_uris":{"android":"levelo://app?vid=04696bc5-8154-4c46-9c9f-db8416a35051","ios":"levelo://app?vid=04696bc5-8154-4c46-9c9f-db8416a35051"},"vehicle_type_id":"4","last_reported":1774418049,"current_range_meters":6400,"station_id":"","pricing_plan_id":"cebpf4jnsgd1na2vs0mg"},{"bike_id":"52525216-4854-4520-880f-f19bec71c920","system_id":"levelo_inurba_marseille","lat":43.27816,"lon":5.40704,"is_reserved":false,"is_disabled":false,"rental_uris":{"android":"levelo://app?vid=52525216-4854-4520-880f-f19bec71c920","ios":"levelo://app?vid=52525216-4854-4520-880f-f19bec71c920"},"vehicle_type_id":"4","last_reported":1774418049,"current_range_meters":6400,"station_id":"ce4bhnh2rcd13ifvqgtg","pricing_plan_id":"cebpf4jnsgd1na2vs0mg"},{"bike_id":"77deb619-deef-42c1-ade2-8dca83a843fb","system_id":"levelo_inurba_marseille","lat":43.29167,"lon":5.43996,"is_reserved":false,"is_disabled":false,"rental_uris":{"android":"levelo://app?vid=77deb619-deef-42c1-ade2-8dca83a843fb","ios":"levelo://app?vid=77deb619-deef-42c1-ade2-8dca83a843fb"},"vehicle_type_id":"4","last_reported":1774418049,"current_range_meters":6400,"station_id":"","pricing_plan_id":"cebpf4jnsgd1na2vs0mg"},{"bike_id":"445a363e-6635-4c6f-9d9b-6ed1d223c4e8","system_id":"levelo_inurba_marseille","lat":43.29564,"lon":5.43893,"is_reserved":false,"is_disabled":false,"rental_uris":{"android":"levelo://app?vid=445a363e-6635-4c6f-9d9b-6ed1d223c4e8","ios":"levelo://app?vid=445a363e-6635-4c6f-9d9b-6ed1d223c4e8"},"vehicle_type_id":"4","last_reported":1774418049,"current_range_meters":6400,"station_id":"","pricing_plan_id":"cebpf4jnsgd1na2vs0mg"},{"bike_id":"166c0812-4009-4bb2-be33-6089bb202007","system_id":"levelo_inurba_marseille","lat":43.24964,"lon":5.40489,"is_reserved":false,"is_disabled":false,"rental_uris":{"android":"levelo://app?vid=166c0812-4009-4bb2-be33-6089bb202007","ios":"levelo://app?vid=166c0812-4009-4bb2-be33-6089bb202007"},"vehicle_type_id":"4","last_reported":1774418049,"current_range_meters":6400,"station_id":"st_d2ngiaodas8pm72gd1h0","pricing_plan_id":"cebpf4jnsgd1na2vs0mg"},{"bike_id":"c7d9cc3b-29e7-4a7f-a93d-62932c7bb62a","system_id":"levelo_inurba_marseille","lat":43.28412,"lon":5.35002,"is_reserved":false,"is_disabled":false,"rental_uris":{"android":"levelo://app?vid=c7d9cc3b-29e7-4a7f-a93d-62932c7bb62a","ios":"levelo://app?vid=c7d9cc3b-29e7-4a7f-a93d-62932c7bb62a"},"vehicle_type_id":"4","last_reported":1774418049,"current_range_meters":6400,"station_id":"ce4bhbh2rcd13ifvqepg","pricing_plan_id":"cebpf4jnsgd1na2vs0mg"},{"bike_id":"8b5d40a1-73a5-4996-8aaa-10b91006d761","system_id":"levelo_inurba_marseille","lat":43.30631,"lon":5.40081,"is_reserved":false,"is_disabled":false,"rental_uris":{"android":"levelo://app?vid=8b5d40a1-73a5-4996-8aaa-10b91006d761","ios":"levelo://app?vid=8b5d40a1-73a5-4996-8aaa-10b91006d761"},"vehicle_type_id":"4","last_reported":1774418049,"current_range_meters":6400,"station_id":"ce4bh112rcd13ifvqda0","pricing_plan_id":"cebpf4jnsgd1na2vs0mg"},{"bike_id":"cbe143e8-3e8d-46c8-8239-3389a4661d28","system_id":"levelo_inurba_marseille","lat":43.30303,"lon":5.36925,"is_reserved":false,"is_disabled":false,"rental_uris":{"android":"levelo://app?vid=cbe143e8-3e8d-46c8-8239-3389a4661d28","ios":"levelo://app?vid=cbe143e8-3e8d-46c8-8239-3389a4661d28"},"vehicle_type_id":"4","last_reported":1774418049,"current_range_meters":6400,"station_id":"ce4bgqh2rcd13ifvqc5g","pricing_plan_id":"cebpf4jnsgd1na2vs0mg"},{"bike_id":"063baa28-1d27-4092-b393-54e2c8abdfeb","system_id":"levelo_inurba_marseille","lat":43.30611,"lon":5.40088,"is_reserved":false,"is_disabled":false,"rental_uris":{"android":"levelo://app?vid=063baa28-1d27-4092-b393-54e2c8abdfeb","ios":"levelo://app?vid=063baa28-1d27-4092-b393-54e2c8abdfeb"},"vehicle_type_id":"4","last_reported":1774418049,"current_range_meters":6400,"station_id":"ce4bh112rcd13ifvqda0","pricing_plan_id":"cebpf4jnsgd1na2vs0mg"},{"bike_id":"875063f8-c637-45b8-8964-8222489d351d","system_id":"levelo_inurba_marseille","lat":43.28409,"lon":5.37527,"is_reserved":false,"is_disabled":false,"rental_uris":{"android":"levelo://app?vid=875063f8-c637-45b8-8964-8222489d351d","ios":"levelo://app?vid=875063f8-c637-45b8-8964-8222489d351d"},"vehicle_type_id":"4","last_reported":1774418049,"current_range_meters":6400,"station_id":"ce4bh412rcd13ifvqds0","pricing_plan_id":"cebpf4jnsgd1na2vs0mg"},{"bike_id":"ccf5f660-4656-4e00-8b91-4a8c6e08442b","system_id":"levelo_inurba_marseille","lat":43.30657,"lon":5.40084,"is_reserved":false,"is_disabled":false,"rental_uris":{"android":"levelo://app?vid=ccf5f660-4656-4e00-8b91-4a8c6e08442b","ios":"levelo://app?vid=ccf5f660-4656-4e00-8b91-4a8c6e08442b"},"vehicle_type_id":"4","last_reported":1774418049,"current_range_meters":6800,"station_id":"ce4bh112rcd13ifvqda0","pricing_plan_id":"cebpf4jnsgd1na2vs0mg"},{"bike_id":"3e359a89-6259-43ce-94e2-6783f3c71446","system_id":"levelo_inurba_marseille","lat":43.30897,"lon":5.39218,"is_reserved":false,"is_disabled":false,"rental_uris":{"android":"levelo://app?vid=3e359a89-6259-43ce-94e2-6783f3c71446","ios":"levelo://app?vid=3e359a89-6259-43ce-94e2-6783f3c71446"},"vehicle_type_id":"4","last_reported":1774418049,"current_range_meters":6800,"station_id":"","pricing_plan_id":"cebpf4jnsgd1na2vs0mg"},{"bike_id":"22a24422-8367-44e3-afc2-fd1672c2c7f5","system_id":"levelo_inurba_marseille","lat":43.28485,"lon":5.48413,"is_reserved":false,"is_disabled":false,"rental_uris":{"android":"levelo://app?vid=22a24422-8367-44e3-afc2-fd1672c2c7f5","ios":"levelo://app?vid=22a24422-8367-44e3-afc2-fd1672c2c7f5"},"vehicle_type_id":"4","last_reported":1774418049,"current_range_meters":6800,"station_id":"","pricing_plan_id":"cebpf4jnsgd1na2vs0mg"},{"bike_id":"c0b689e5-350b-4835-a209-95a8604ec264","system_id":"levelo_inurba_marseille","lat":43.27436,"lon":5.39388,"is_reserved":false,"is_disabled":true,"rental_uris":{"android":"levelo://app?vid=c0b689e5-350b-4835-a209-95a8604ec264","ios":"levelo://app?vid=c0b689e5-350b-4835-a209-95a8604ec264"},"vehicle_type_id":"4","last_reported":1774418049,"current_range_meters":6800,"station_id":"ce4bhdp2rcd13ifvqf20","pricing_plan_id":"cebpf4jnsgd1na2vs0mg"},{"bike_id":"62c0eda8-c666-40c1-b62d-71242266f316","system_id":"levelo_inurba_marseille","lat":43.28445,"lon":5.39185,"is_reserved":false,"is_disabled":true,"rental_uris":{"android":"levelo://app?vid=62c0eda8-c666-40c1-b62d-71242266f316","ios":"levelo://app?vid=62c0eda8-c666-40c1-b62d-71242266f316"},"vehicle_type_id":"4","last_reported":1774418049,"current_range_meters":6800,"station_id":"ce4bhoh2rcd13ifvqh5g","pricing_plan_id":"cebpf4jnsgd1na2vs0mg"},{"bike_id":"0467a61b-3c6c-4519-8ae2-ab7b582ec154","system_id":"levelo_inurba_marseille","lat":43.2464,"lon":5.38942,"is_reserved":false,"is_disabled":false,"rental_uris":{"android":"levelo://app?vid=0467a61b-3c6c-4519-8ae2-ab7b582ec154","ios":"levelo://app?vid=0467a61b-3c6c-4519-8ae2-ab7b582ec154"},"vehicle_type_id":"4","last_reported":1774418049,"current_range_meters":6800,"station_id":"ce4bhg12rcd13ifvqf60","pricing_plan_id":"cebpf4jnsgd1na2vs0mg"},{"bike_id":"10da4574-f2d9-4ae1-91ba-9a914cc4e851","system_id":"levelo_inurba_marseille","lat":43.23901,"lon":5.37472,"is_reserved":false,"is_disabled":false,"rental_uris":{"android":"levelo://app?vid=10da4574-f2d9-4ae1-91ba-9a914cc4e851","ios":"levelo://app?vid=10da4574-f2d9-4ae1-91ba-9a914cc4e851"},"vehicle_type_id":"4","last_reported":1774418049,"current_range_meters":6800,"station_id":"st_d6sm7csbq4hs73f8fpjg","pricing_plan_id":"cebpf4jnsgd1na2vs0mg"},{"bike_id":"8c7ce2ac-36a4-4d74-9f4d-c3062a5fb5dd","system_id":"levelo_inurba_marseille","lat":43.24967,"lon":5.405,"is_reserved":false,"is_disabled":false,"rental_uris":{"android":"levelo://app?vid=8c7ce2ac-36a4-4d74-9f4d-c3062a5fb5dd","ios":"levelo://app?vid=8c7ce2ac-36a4-4d74-9f4d-c3062a5fb5dd"},"vehicle_type_id":"4","last_reported":1774418049,"current_range_meters":6800,"station_id":"st_d2ngiaodas8pm72gd1h0","pricing_plan_id":"cebpf4jnsgd1na2vs0mg"},{"bike_id":"a8a63949-467f-475c-81b3-01ab9f4eaa4f","system_id":"levelo_inurba_marseille","lat":43.30482,"lon":5.37891,"is_reserved":false,"is_disabled":false,"rental_uris":{"android":"levelo://app?vid=a8a63949-467f-475c-81b3-01ab9f4eaa4f","ios":"levelo://app?vid=a8a63949-467f-475c-81b3-01ab9f4eaa4f"},"vehicle_type_id":"4","last_reported":1774418049,"current_range_meters":6800,"station_id":"","pricing_plan_id":"cebpf4jnsgd1na2vs0mg"},{"bike_id":"2159f981-c6a8-4439-bb67-1723675b05d9","system_id":"levelo_inurba_marseille","lat":43.29041,"lon":5.38672,"is_reserved":false,"is_disabled":false,"rental_uris":{"android":"levelo://app?vid=2159f981-c6a8-4439-bb67-1723675b05d9","ios":"levelo://app?vid=2159f981-c6a8-4439-bb67-1723675b05d9"},"vehicle_type_id":"4","last_reported":1774418049,"current_range_meters":7200,"station_id":"ce4bh4p2rcd13ifvqe0g","pricing_plan_id":"cebpf4jnsgd1na2vs0mg"},{"bike_id":"21212254-e5a0-4af6-a45f-ed4c631ca773","system_id":"levelo_inurba_marseille","lat":43.25537,"lon":5.37679,"is_reserved":false,"is_disabled":false,"rental_uris":{"android":"levelo://app?vid=21212254-e5a0-4af6-a45f-ed4c631ca773","ios":"levelo://app?vid=21212254-e5a0-4af6-a45f-ed4c631ca773"},"vehicle_type_id":"4","last_reported":1774418049,"current_range_meters":7200,"station_id":"","pricing_plan_id":"cebpf4jnsgd1na2vs0mg"},{"bike_id":"a925be4f-af4d-4c6c-804d-cf6aef5dd66c","system_id":"levelo_inurba_marseille","lat":43.3111,"lon":5.37761,"is_reserved":false,"is_disabled":false,"rental_uris":{"android":"levelo://app?vid=a925be4f-af4d-4c6c-804d-cf6aef5dd66c","ios":"levelo://app?vid=a925be4f-af4d-4c6c-804d-cf6aef5dd66c"},"vehicle_type_id":"4","last_reported":1774418049,"current_range_meters":7200,"station_id":"ce4bgt92rcd13ifvqcg0","pricing_plan_id":"cebpf4jnsgd1na2vs0mg"},{"bike_id":"13f9f031-67ea-407a-a66e-c4b749576cd4","system_id":"levelo_inurba_marseille","lat":43.23955,"lon":5.36627,"is_reserved":false,"is_disabled":false,"rental_uris":{"android":"levelo://app?vid=13f9f031-67ea-407a-a66e-c4b749576cd4","ios":"levelo://app?vid=13f9f031-67ea-407a-a66e-c4b749576cd4"},"vehicle_type_id":"4","last_reported":1774418049,"current_range_meters":7200,"station_id":"ce4bhi12rcd13ifvqfp0","pricing_plan_id":"cebpf4jnsgd1na2vs0mg"},{"bike_id":"21a45244-c1c4-423b-9d37-4deb92a4a9b7","system_id":"levelo_inurba_marseille","lat":43.31086,"lon":5.37185,"is_reserved":false,"is_disabled":false,"rental_uris":{"android":"levelo://app?vid=21a45244-c1c4-423b-9d37-4deb92a4a9b7","ios":"levelo://app?vid=21a45244-c1c4-423b-9d37-4deb92a4a9b7"},"vehicle_type_id":"4","last_reported":1774418049,"current_range_meters":7200,"station_id":"st_d4kl2rp97mjs73e7tdfg","pricing_plan_id":"cebpf4jnsgd1na2vs0mg"},{"bike_id":"9bc541aa-7275-4c73-9310-e08bf2d98fd5","system_id":"levelo_inurba_marseille","lat":43.28609,"lon":5.35119,"is_reserved":false,"is_disabled":false,"rental_uris":{"android":"levelo://app?vid=9bc541aa-7275-4c73-9310-e08bf2d98fd5","ios":"levelo://app?vid=9bc541aa-7275-4c73-9310-e08bf2d98fd5"},"vehicle_type_id":"4","last_reported":1774418049,"current_range_meters":7200,"station_id":"ce4bhch2rcd13ifvqeug","pricing_plan_id":"cebpf4jnsgd1na2vs0mg"},{"bike_id":"489b1f47-9bf9-4f10-90f5-3b4dff230700","system_id":"levelo_inurba_marseille","lat":43.23787,"lon":5.36628,"is_reserved":false,"is_disabled":false,"rental_uris":{"android":"levelo://app?vid=489b1f47-9bf9-4f10-90f5-3b4dff230700","ios":"levelo://app?vid=489b1f47-9bf9-4f10-90f5-3b4dff230700"},"vehicle_type_id":"4","last_reported":1774418049,"current_range_meters":7200,"station_id":"st_d3nk18o9ro0c73en2l3g","pricing_plan_id":"cebpf4jnsgd1na2vs0mg"},{"bike_id":"aae792bd-1c8a-454d-ba57-45007311d229","system_id":"levelo_inurba_marseille","lat":43.22573,"lon":5.41638,"is_reserved":false,"is_disabled":false,"rental_uris":{"android":"levelo://app?vid=aae792bd-1c8a-454d-ba57-45007311d229","ios":"levelo://app?vid=aae792bd-1c8a-454d-ba57-45007311d229"},"vehicle_type_id":"4","last_reported":1774418049,"current_range_meters":7200,"station_id":"st_d2o4gvlbi1j2169b742g","pricing_plan_id":"cebpf4jnsgd1na2vs0mg"},{"bike_id":"d6ff709b-527c-499b-bc4e-f4b1b46d6753","system_id":"levelo_inurba_marseille","lat":43.31249,"lon":5.39782,"is_reserved":false,"is_disabled":false,"rental_uris":{"android":"levelo://app?vid=d6ff709b-527c-499b-bc4e-f4b1b46d6753","ios":"levelo://app?vid=d6ff709b-527c-499b-bc4e-f4b1b46d6753"},"vehicle_type_id":"4","last_reported":1774418049,"current_range_meters":7200,"station_id":"ce4bgvp2rcd13ifvqcu0","pricing_plan_id":"cebpf4jnsgd1na2vs0mg"},{"bike_id":"93cebdd1-30e6-468f-a0fc-fd387c0c05d1","system_id":"levelo_inurba_marseille","lat":43.24361,"lon":5.41224,"is_reserved":false,"is_disabled":false,"rental_uris":{"android":"levelo://app?vid=93cebdd1-30e6-468f-a0fc-fd387c0c05d1","ios":"levelo://app?vid=93cebdd1-30e6-468f-a0fc-fd387c0c05d1"},"vehicle_type_id":"4","last_reported":1774418049,"current_range_meters":7200,"station_id":"","pricing_plan_id":"cebpf4jnsgd1na2vs0mg"},{"bike_id":"b8ba5a8b-013a-4b43-9ce9-cae09a5afc1a","system_id":"levelo_inurba_marseille","lat":43.31471,"lon":5.37938,"is_reserved":false,"is_disabled":false,"rental_uris":{"android":"levelo://app?vid=b8ba5a8b-013a-4b43-9ce9-cae09a5afc1a","ios":"levelo://app?vid=b8ba5a8b-013a-4b43-9ce9-cae09a5afc1a"},"vehicle_type_id":"4","last_reported":1774418049,"current_range_meters":7200,"station_id":"","pricing_plan_id":"cebpf4jnsgd1na2vs0mg"},{"bike_id":"33d690ea-2224-41d6-9053-095cd784a885","system_id":"levelo_inurba_marseille","lat":43.28683,"lon":5.3635,"is_reserved":false,"is_disabled":false,"rental_uris":{"android":"levelo://app?vid=33d690ea-2224-41d6-9053-095cd784a885","ios":"levelo://app?vid=33d690ea-2224-41d6-9053-095cd784a885"},"vehicle_type_id":"4","last_reported":1774418049,"current_range_meters":7200,"station_id":"ce4bhah2rcd13ifvqej0","pricing_plan_id":"cebpf4jnsgd1na2vs0mg"},{"bike_id":"7835064c-c418-4c68-b2d4-9a39b7290f34","system_id":"levelo_inurba_marseille","lat":43.29881,"lon":5.38155,"is_reserved":false,"is_disabled":false,"rental_uris":{"android":"levelo://app?vid=7835064c-c418-4c68-b2d4-9a39b7290f34","ios":"levelo://app?vid=7835064c-c418-4c68-b2d4-9a39b7290f34"},"vehicle_type_id":"4","last_reported":1774418049,"current_range_meters":7200,"station_id":"ce4bgj12rcd13ifvqbc0","pricing_plan_id":"cebpf4jnsgd1na2vs0mg"},{"bike_id":"9e6209c2-8d1d-42b3-b60a-1dbb8e1406fe","system_id":"levelo_inurba_marseille","lat":43.33116,"lon":5.37719,"is_reserved":false,"is_disabled":false,"rental_uris":{"android":"levelo://app?vid=9e6209c2-8d1d-42b3-b60a-1dbb8e1406fe","ios":"levelo://app?vid=9e6209c2-8d1d-42b3-b60a-1dbb8e1406fe"},"vehicle_type_id":"4","last_reported":1774418049,"current_range_meters":7200,"station_id":"st_d46cu089ee8s73dldbu0","pricing_plan_id":"cebpf4jnsgd1na2vs0mg"},{"bike_id":"1dff8407-a4f5-4e2b-a6fb-6e0af4312c43","system_id":"levelo_inurba_marseille","lat":43.3134,"lon":5.39709,"is_reserved":false,"is_disabled":false,"rental_uris":{"android":"levelo://app?vid=1dff8407-a4f5-4e2b-a6fb-6e0af4312c43","ios":"levelo://app?vid=1dff8407-a4f5-4e2b-a6fb-6e0af4312c43"},"vehicle_type_id":"4","last_reported":1774418049,"current_range_meters":7200,"station_id":"ce4bgvp2rcd13ifvqcu0","pricing_plan_id":"cebpf4jnsgd1na2vs0mg"},{"bike_id":"ad3f3d88-4463-474b-802d-6cff79eea73f","system_id":"levelo_inurba_marseille","lat":43.2474,"lon":5.38827,"is_reserved":false,"is_disabled":false,"rental_uris":{"android":"levelo://app?vid=ad3f3d88-4463-474b-802d-6cff79eea73f","ios":"levelo://app?vid=ad3f3d88-4463-474b-802d-6cff79eea73f"},"vehicle_type_id":"4","last_reported":1774418049,"current_range_meters":7200,"station_id":"","pricing_plan_id":"cebpf4jnsgd1na2vs0mg"},{"bike_id":"0919fff5-6eac-4b3d-a6ab-13b2a3ef7d44","system_id":"levelo_inurba_marseille","lat":43.24963,"lon":5.40492,"is_reserved":false,"is_disabled":false,"rental_uris":{"android":"levelo://app?vid=0919fff5-6eac-4b3d-a6ab-13b2a3ef7d44","ios":"levelo://app?vid=0919fff5-6eac-4b3d-a6ab-13b2a3ef7d44"},"vehicle_type_id":"4","last_reported":1774418049,"current_range_meters":7200,"station_id":"st_d2ngiaodas8pm72gd1h0","pricing_plan_id":"cebpf4jnsgd1na2vs0mg"},{"bike_id":"715aaeb5-0d16-47e0-ba84-f56328a24f5b","system_id":"levelo_inurba_marseille","lat":43.29899,"lon":5.43658,"is_reserved":false,"is_disabled":false,"rental_uris":{"android":"levelo://app?vid=715aaeb5-0d16-47e0-ba84-f56328a24f5b","ios":"levelo://app?vid=715aaeb5-0d16-47e0-ba84-f56328a24f5b"},"vehicle_type_id":"4","last_reported":1774418049,"current_range_meters":8000,"station_id":"ce4bhpp2rcd13ifvqhfg","pricing_plan_id":"cebpf4jnsgd1na2vs0mg"},{"bike_id":"f4e12de3-12ee-449c-bb7b-82b4b799a0fa","system_id":"levelo_inurba_marseille","lat":43.246511,"lon":5.388933,"is_reserved":false,"is_disabled":true,"rental_uris":{"android":"levelo://app?vid=f4e12de3-12ee-449c-bb7b-82b4b799a0fa","ios":"levelo://app?vid=f4e12de3-12ee-449c-bb7b-82b4b799a0fa"},"vehicle_type_id":"4","last_reported":1774418049,"current_range_meters":8000,"station_id":"ce4bgg92rcd13ifvqb30","pricing_plan_id":"cebpf4jnsgd1na2vs0mg"},{"bike_id":"83732a6c-ebed-473c-9b13-eb7d63194259","system_id":"levelo_inurba_marseille","lat":43.21215,"lon":5.3507,"is_reserved":false,"is_disabled":false,"rental_uris":{"android":"levelo://app?vid=83732a6c-ebed-473c-9b13-eb7d63194259","ios":"levelo://app?vid=83732a6c-ebed-473c-9b13-eb7d63194259"},"vehicle_type_id":"4","last_reported":1774418049,"current_range_meters":8000,"station_id":"st_cvj6sg6p6f1abm77japg","pricing_plan_id":"cebpf4jnsgd1na2vs0mg"},{"bike_id":"992d461f-8839-4086-b27a-9edc1d38b03d","system_id":"levelo_inurba_marseille","lat":43.33564,"lon":5.37419,"is_reserved":false,"is_disabled":false,"rental_uris":{"android":"levelo://app?vid=992d461f-8839-4086-b27a-9edc1d38b03d","ios":"levelo://app?vid=992d461f-8839-4086-b27a-9edc1d38b03d"},"vehicle_type_id":"4","last_reported":1774418049,"current_range_meters":8000,"station_id":"st_d46tts09ee8s73dlu43g","pricing_plan_id":"cebpf4jnsgd1na2vs0mg"},{"bike_id":"c183ea56-6995-4ab9-9d2b-e07807bdb413","system_id":"levelo_inurba_marseille","lat":43.28645,"lon":5.36374,"is_reserved":false,"is_disabled":false,"rental_uris":{"android":"levelo://app?vid=c183ea56-6995-4ab9-9d2b-e07807bdb413","ios":"levelo://app?vid=c183ea56-6995-4ab9-9d2b-e07807bdb413"},"vehicle_type_id":"4","last_reported":1774418049,"current_range_meters":8000,"station_id":"ce4bhah2rcd13ifvqej0","pricing_plan_id":"cebpf4jnsgd1na2vs0mg"},{"bike_id":"526f2898-bc02-4198-9596-2aa2b29dfa51","system_id":"levelo_inurba_marseille","lat":43.22564,"lon":5.41641,"is_reserved":false,"is_disabled":false,"rental_uris":{"android":"levelo://app?vid=526f2898-bc02-4198-9596-2aa2b29dfa51","ios":"levelo://app?vid=526f2898-bc02-4198-9596-2aa2b29dfa51"},"vehicle_type_id":"4","last_reported":1774418049,"current_range_meters":8000,"station_id":"st_d2o4gvlbi1j2169b742g","pricing_plan_id":"cebpf4jnsgd1na2vs0mg"},{"bike_id":"5487f2c1-c4a8-4daf-8490-88d7b84744cf","system_id":"levelo_inurba_marseille","lat":43.30302,"lon":5.36914,"is_reserved":false,"is_disabled":false,"rental_uris":{"android":"levelo://app?vid=5487f2c1-c4a8-4daf-8490-88d7b84744cf","ios":"levelo://app?vid=5487f2c1-c4a8-4daf-8490-88d7b84744cf"},"vehicle_type_id":"4","last_reported":1774418049,"current_range_meters":8000,"station_id":"ce4bgqh2rcd13ifvqc5g","pricing_plan_id":"cebpf4jnsgd1na2vs0mg"},{"bike_id":"aa929685-e4dd-4a31-a1c6-979463fa81a3","system_id":"levelo_inurba_marseille","lat":43.2848,"lon":5.48396,"is_reserved":false,"is_disabled":false,"rental_uris":{"android":"levelo://app?vid=aa929685-e4dd-4a31-a1c6-979463fa81a3","ios":"levelo://app?vid=aa929685-e4dd-4a31-a1c6-979463fa81a3"},"vehicle_type_id":"4","last_reported":1774418049,"current_range_meters":8000,"station_id":"st_d3svhcjqgbts73a3dn0g","pricing_plan_id":"cebpf4jnsgd1na2vs0mg"},{"bike_id":"168ccf17-3133-4472-85a2-824035dc8266","system_id":"levelo_inurba_marseille","lat":43.22922,"lon":5.35377,"is_reserved":false,"is_disabled":false,"rental_uris":{"android":"levelo://app?vid=168ccf17-3133-4472-85a2-824035dc8266","ios":"levelo://app?vid=168ccf17-3133-4472-85a2-824035dc8266"},"vehicle_type_id":"4","last_reported":1774418049,"current_range_meters":8000,"station_id":"cpo3532slgdg3j2ikp40","pricing_plan_id":"cebpf4jnsgd1na2vs0mg"},{"bike_id":"6a209565-16db-4aba-85c7-7097837dcc24","system_id":"levelo_inurba_marseille","lat":43.24161,"lon":5.36384,"is_reserved":false,"is_disabled":false,"rental_uris":{"android":"levelo://app?vid=6a209565-16db-4aba-85c7-7097837dcc24","ios":"levelo://app?vid=6a209565-16db-4aba-85c7-7097837dcc24"},"vehicle_type_id":"4","last_reported":1774418049,"current_range_meters":8000,"station_id":"cpo36qri1sfpv3e86is0","pricing_plan_id":"cebpf4jnsgd1na2vs0mg"},{"bike_id":"adaf8e00-ca2c-49b5-9b35-6749da32aa87","system_id":"levelo_inurba_marseille","lat":43.33537,"lon":5.37462,"is_reserved":false,"is_disabled":false,"rental_uris":{"android":"levelo://app?vid=adaf8e00-ca2c-49b5-9b35-6749da32aa87","ios":"levelo://app?vid=adaf8e00-ca2c-49b5-9b35-6749da32aa87"},"vehicle_type_id":"4","last_reported":1774418049,"current_range_meters":8000,"station_id":"st_d46tts09ee8s73dlu43g","pricing_plan_id":"cebpf4jnsgd1na2vs0mg"},{"bike_id":"acf732dc-9e60-43ff-ac23-e190cd653478","system_id":"levelo_inurba_marseille","lat":43.31079,"lon":5.42436,"is_reserved":false,"is_disabled":false,"rental_uris":{"android":"levelo://app?vid=acf732dc-9e60-43ff-ac23-e190cd653478","ios":"levelo://app?vid=acf732dc-9e60-43ff-ac23-e190cd653478"},"vehicle_type_id":"4","last_reported":1774418049,"current_range_meters":8000,"station_id":"ce4bhp92rcd13ifvqhag","pricing_plan_id":"cebpf4jnsgd1na2vs0mg"},{"bike_id":"edb49fff-b654-4e99-95c8-bfa9c3753f89","system_id":"levelo_inurba_marseille","lat":43.22942,"lon":5.35386,"is_reserved":false,"is_disabled":false,"rental_uris":{"android":"levelo://app?vid=edb49fff-b654-4e99-95c8-bfa9c3753f89","ios":"levelo://app?vid=edb49fff-b654-4e99-95c8-bfa9c3753f89"},"vehicle_type_id":"4","last_reported":1774418049,"current_range_meters":8000,"station_id":"cpo3532slgdg3j2ikp40","pricing_plan_id":"cebpf4jnsgd1na2vs0mg"},{"bike_id":"b86068ab-97ee-4456-8b24-8dc8e9d3870c","system_id":"levelo_inurba_marseille","lat":43.28451,"lon":5.35888,"is_reserved":false,"is_disabled":false,"rental_uris":{"android":"levelo://app?vid=b86068ab-97ee-4456-8b24-8dc8e9d3870c","ios":"levelo://app?vid=b86068ab-97ee-4456-8b24-8dc8e9d3870c"},"vehicle_type_id":"4","last_reported":1774418049,"current_range_meters":8000,"station_id":"ce4bhah2rcd13ifvqei0","pricing_plan_id":"cebpf4jnsgd1na2vs0mg"},{"bike_id":"5c39f7cf-c7f7-4747-b217-e778a50c0011","system_id":"levelo_inurba_marseille","lat":43.29974,"lon":5.37599,"is_reserved":false,"is_disabled":false,"rental_uris":{"android":"levelo://app?vid=5c39f7cf-c7f7-4747-b217-e778a50c0011","ios":"levelo://app?vid=5c39f7cf-c7f7-4747-b217-e778a50c0011"},"vehicle_type_id":"4","last_reported":1774418049,"current_range_meters":8000,"station_id":"","pricing_plan_id":"cebpf4jnsgd1na2vs0mg"},{"bike_id":"c1e92c70-aede-452c-8e8c-6914c0324e0c","system_id":"levelo_inurba_marseille","lat":43.29036,"lon":5.35953,"is_reserved":false,"is_disabled":true,"rental_uris":{"android":"levelo://app?vid=c1e92c70-aede-452c-8e8c-6914c0324e0c","ios":"levelo://app?vid=c1e92c70-aede-452c-8e8c-6914c0324e0c"},"vehicle_type_id":"4","last_reported":1774418049,"current_range_meters":8000,"station_id":"ce4bha92rcd13ifvqeg0","pricing_plan_id":"cebpf4jnsgd1na2vs0mg"},{"bike_id":"331e477d-e9f4-43fd-9723-1e80bdbc0255","system_id":"levelo_inurba_marseille","lat":43.30392,"lon":5.39792,"is_reserved":false,"is_disabled":false,"rental_uris":{"android":"levelo://app?vid=331e477d-e9f4-43fd-9723-1e80bdbc0255","ios":"levelo://app?vid=331e477d-e9f4-43fd-9723-1e80bdbc0255"},"vehicle_type_id":"4","last_reported":1774418049,"current_range_meters":8000,"station_id":"","pricing_plan_id":"cebpf4jnsgd1na2vs0mg"},{"bike_id":"3a6e6294-ec88-4ab9-af3b-60aaab95c3d4","system_id":"levelo_inurba_marseille","lat":43.30429,"lon":5.39749,"is_reserved":false,"is_disabled":false,"rental_uris":{"android":"levelo://app?vid=3a6e6294-ec88-4ab9-af3b-60aaab95c3d4","ios":"levelo://app?vid=3a6e6294-ec88-4ab9-af3b-60aaab95c3d4"},"vehicle_type_id":"4","last_reported":1774418049,"current_range_meters":8000,"station_id":"ce4bh092rcd13ifvqd20","pricing_plan_id":"cebpf4jnsgd1na2vs0mg"},{"bike_id":"2f430c62-15bb-430c-969c-56b5339d66a3","system_id":"levelo_inurba_marseille","lat":43.28502,"lon":5.44107,"is_reserved":false,"is_disabled":false,"rental_uris":{"android":"levelo://app?vid=2f430c62-15bb-430c-969c-56b5339d66a3","ios":"levelo://app?vid=2f430c62-15bb-430c-969c-56b5339d66a3"},"vehicle_type_id":"4","last_reported":1774418049,"current_range_meters":8000,"station_id":"st_d3j3df2ikq2c7380ej80","pricing_plan_id":"cebpf4jnsgd1na2vs0mg"},{"bike_id":"19553c20-209c-48bf-8083-1a4fbe2efe04","system_id":"levelo_inurba_marseille","lat":43.30176,"lon":5.38094,"is_reserved":false,"is_disabled":false,"rental_uris":{"android":"levelo://app?vid=19553c20-209c-48bf-8083-1a4fbe2efe04","ios":"levelo://app?vid=19553c20-209c-48bf-8083-1a4fbe2efe04"},"vehicle_type_id":"4","last_reported":1774418049,"current_range_meters":8000,"station_id":"ce4bgjp2rcd13ifvqbh0","pricing_plan_id":"cebpf4jnsgd1na2vs0mg"},{"bike_id":"c6ed3d40-fb82-47ee-b3b0-f7061751a297","system_id":"levelo_inurba_marseille","lat":43.28875,"lon":5.4252,"is_reserved":false,"is_disabled":false,"rental_uris":{"android":"levelo://app?vid=c6ed3d40-fb82-47ee-b3b0-f7061751a297","ios":"levelo://app?vid=c6ed3d40-fb82-47ee-b3b0-f7061751a297"},"vehicle_type_id":"4","last_reported":1774418049,"current_range_meters":8000,"station_id":"","pricing_plan_id":"cebpf4jnsgd1na2vs0mg"},{"bike_id":"d594e935-ec7a-4a10-af1c-e7aeb3a4a3cc","system_id":"levelo_inurba_marseille","lat":43.25335,"lon":5.42169,"is_reserved":false,"is_disabled":false,"rental_uris":{"android":"levelo://app?vid=d594e935-ec7a-4a10-af1c-e7aeb3a4a3cc","ios":"levelo://app?vid=d594e935-ec7a-4a10-af1c-e7aeb3a4a3cc"},"vehicle_type_id":"4","last_reported":1774418049,"current_range_meters":8000,"station_id":"st_d2m65c5bi1j21697t3ng","pricing_plan_id":"cebpf4jnsgd1na2vs0mg"},{"bike_id":"cb8119c2-795e-4555-80d2-5396969882bb","system_id":"levelo_inurba_marseille","lat":43.28425,"lon":5.39213,"is_reserved":false,"is_disabled":false,"rental_uris":{"android":"levelo://app?vid=cb8119c2-795e-4555-80d2-5396969882bb","ios":"levelo://app?vid=cb8119c2-795e-4555-80d2-5396969882bb"},"vehicle_type_id":"4","last_reported":1774418049,"current_range_meters":8400,"station_id":"ce4bhoh2rcd13ifvqh5g","pricing_plan_id":"cebpf4jnsgd1na2vs0mg"},{"bike_id":"f7964fa2-d7a6-41b0-97f9-1f4fa6b33c53","system_id":"levelo_inurba_marseille","lat":43.25328,"lon":5.42164,"is_reserved":false,"is_disabled":false,"rental_uris":{"android":"levelo://app?vid=f7964fa2-d7a6-41b0-97f9-1f4fa6b33c53","ios":"levelo://app?vid=f7964fa2-d7a6-41b0-97f9-1f4fa6b33c53"},"vehicle_type_id":"4","last_reported":1774418049,"current_range_meters":8400,"station_id":"st_d2m65c5bi1j21697t3ng","pricing_plan_id":"cebpf4jnsgd1na2vs0mg"},{"bike_id":"f03144c9-f7ab-49f1-932c-920c02cb8009","system_id":"levelo_inurba_marseille","lat":43.28861,"lon":5.35851,"is_reserved":false,"is_disabled":false,"rental_uris":{"android":"levelo://app?vid=f03144c9-f7ab-49f1-932c-920c02cb8009","ios":"levelo://app?vid=f03144c9-f7ab-49f1-932c-920c02cb8009"},"vehicle_type_id":"4","last_reported":1774418049,"current_range_meters":8400,"station_id":"ce4bhb12rcd13ifvqem0","pricing_plan_id":"cebpf4jnsgd1na2vs0mg"},{"bike_id":"390642d5-ebc3-4bda-abf8-55b0c8070dc5","system_id":"levelo_inurba_marseille","lat":43.26691,"lon":5.38253,"is_reserved":false,"is_disabled":true,"rental_uris":{"android":"levelo://app?vid=390642d5-ebc3-4bda-abf8-55b0c8070dc5","ios":"levelo://app?vid=390642d5-ebc3-4bda-abf8-55b0c8070dc5"},"vehicle_type_id":"4","last_reported":1774418049,"current_range_meters":8400,"station_id":"ce4bhg92rcd13ifvqf90","pricing_plan_id":"cebpf4jnsgd1na2vs0mg"},{"bike_id":"89673b48-b93e-49b1-91bc-4a5460ed425e","system_id":"levelo_inurba_marseille","lat":43.29904,"lon":5.43688,"is_reserved":false,"is_disabled":false,"rental_uris":{"android":"levelo://app?vid=89673b48-b93e-49b1-91bc-4a5460ed425e","ios":"levelo://app?vid=89673b48-b93e-49b1-91bc-4a5460ed425e"},"vehicle_type_id":"4","last_reported":1774418049,"current_range_meters":8400,"station_id":"ce4bhpp2rcd13ifvqhfg","pricing_plan_id":"cebpf4jnsgd1na2vs0mg"},{"bike_id":"140fffea-ded2-4b53-a55a-ce65aaf1968d","system_id":"levelo_inurba_marseille","lat":43.26547,"lon":5.37312,"is_reserved":false,"is_disabled":false,"rental_uris":{"android":"levelo://app?vid=140fffea-ded2-4b53-a55a-ce65aaf1968d","ios":"levelo://app?vid=140fffea-ded2-4b53-a55a-ce65aaf1968d"},"vehicle_type_id":"4","last_reported":1774418049,"current_range_meters":8400,"station_id":"ce4bhg12rcd13ifvqf70","pricing_plan_id":"cebpf4jnsgd1na2vs0mg"},{"bike_id":"484f2abe-81d9-4c3a-92bb-99d4e164fc66","system_id":"levelo_inurba_marseille","lat":43.27484,"lon":5.4157,"is_reserved":false,"is_disabled":false,"rental_uris":{"android":"levelo://app?vid=484f2abe-81d9-4c3a-92bb-99d4e164fc66","ios":"levelo://app?vid=484f2abe-81d9-4c3a-92bb-99d4e164fc66"},"vehicle_type_id":"4","last_reported":1774418049,"current_range_meters":8400,"station_id":"st_d6im8g6chgec73a5pndg","pricing_plan_id":"cebpf4jnsgd1na2vs0mg"},{"bike_id":"d975341b-676a-49cc-9e48-efa05a85e18a","system_id":"levelo_inurba_marseille","lat":43.30106,"lon":5.39082,"is_reserved":false,"is_disabled":false,"rental_uris":{"android":"levelo://app?vid=d975341b-676a-49cc-9e48-efa05a85e18a","ios":"levelo://app?vid=d975341b-676a-49cc-9e48-efa05a85e18a"},"vehicle_type_id":"4","last_reported":1774418049,"current_range_meters":8400,"station_id":"ce4bh192rcd13ifvqdb0","pricing_plan_id":"cebpf4jnsgd1na2vs0mg"},{"bike_id":"38743f0d-93ba-4263-b51a-7cc68a4d115b","system_id":"levelo_inurba_marseille","lat":43.28436,"lon":5.39189,"is_reserved":false,"is_disabled":false,"rental_uris":{"android":"levelo://app?vid=38743f0d-93ba-4263-b51a-7cc68a4d115b","ios":"levelo://app?vid=38743f0d-93ba-4263-b51a-7cc68a4d115b"},"vehicle_type_id":"4","last_reported":1774418049,"current_range_meters":8400,"station_id":"ce4bhoh2rcd13ifvqh5g","pricing_plan_id":"cebpf4jnsgd1na2vs0mg"},{"bike_id":"ce5344ce-4c16-4dd1-aa82-8f1e2691f17b","system_id":"levelo_inurba_marseille","lat":43.28356,"lon":5.38112,"is_reserved":false,"is_disabled":false,"rental_uris":{"android":"levelo://app?vid=ce5344ce-4c16-4dd1-aa82-8f1e2691f17b","ios":"levelo://app?vid=ce5344ce-4c16-4dd1-aa82-8f1e2691f17b"},"vehicle_type_id":"4","last_reported":1774418049,"current_range_meters":8400,"station_id":"ce4bh412rcd13ifvqdr0","pricing_plan_id":"cebpf4jnsgd1na2vs0mg"},{"bike_id":"22123110-8f4d-447c-a492-e91d3e302abc","system_id":"levelo_inurba_marseille","lat":43.28457,"lon":5.35,"is_reserved":false,"is_disabled":false,"rental_uris":{"android":"levelo://app?vid=22123110-8f4d-447c-a492-e91d3e302abc","ios":"levelo://app?vid=22123110-8f4d-447c-a492-e91d3e302abc"},"vehicle_type_id":"4","last_reported":1774418049,"current_range_meters":8400,"station_id":"ce4bhbh2rcd13ifvqepg","pricing_plan_id":"cebpf4jnsgd1na2vs0mg"},{"bike_id":"0d489b01-590f-434e-9649-624f92bba9bb","system_id":"levelo_inurba_marseille","lat":43.232,"lon":5.35548,"is_reserved":false,"is_disabled":false,"rental_uris":{"android":"levelo://app?vid=0d489b01-590f-434e-9649-624f92bba9bb","ios":"levelo://app?vid=0d489b01-590f-434e-9649-624f92bba9bb"},"vehicle_type_id":"4","last_reported":1774418049,"current_range_meters":8400,"station_id":"ce4bhu92rcd13ifvqi70","pricing_plan_id":"cebpf4jnsgd1na2vs0mg"},{"bike_id":"cb34d68f-e1c1-47ef-8d7a-2c136b86368d","system_id":"levelo_inurba_marseille","lat":43.29259,"lon":5.4089,"is_reserved":false,"is_disabled":false,"rental_uris":{"android":"levelo://app?vid=cb34d68f-e1c1-47ef-8d7a-2c136b86368d","ios":"levelo://app?vid=cb34d68f-e1c1-47ef-8d7a-2c136b86368d"},"vehicle_type_id":"4","last_reported":1774418049,"current_range_meters":8400,"station_id":"ce4bh192rcd13ifvqdc0","pricing_plan_id":"cebpf4jnsgd1na2vs0mg"},{"bike_id":"6e567d2e-4fc5-4624-b0c4-4ed58c76ded5","system_id":"levelo_inurba_marseille","lat":43.30036,"lon":5.39833,"is_reserved":false,"is_disabled":false,"rental_uris":{"android":"levelo://app?vid=6e567d2e-4fc5-4624-b0c4-4ed58c76ded5","ios":"levelo://app?vid=6e567d2e-4fc5-4624-b0c4-4ed58c76ded5"},"vehicle_type_id":"4","last_reported":1774418049,"current_range_meters":8400,"station_id":"","pricing_plan_id":"cebpf4jnsgd1na2vs0mg"},{"bike_id":"e73aa5c4-587d-43ed-8ac6-1108384813a2","system_id":"levelo_inurba_marseille","lat":43.27925,"lon":5.39586,"is_reserved":false,"is_disabled":true,"rental_uris":{"android":"levelo://app?vid=e73aa5c4-587d-43ed-8ac6-1108384813a2","ios":"levelo://app?vid=e73aa5c4-587d-43ed-8ac6-1108384813a2"},"vehicle_type_id":"4","last_reported":1774418049,"current_range_meters":8400,"station_id":"ce4bhf92rcd13ifvqf40","pricing_plan_id":"cebpf4jnsgd1na2vs0mg"},{"bike_id":"451e822b-d17c-41b3-aa86-e9da4e66ded2","system_id":"levelo_inurba_marseille","lat":43.23971,"lon":5.36635,"is_reserved":false,"is_disabled":false,"rental_uris":{"android":"levelo://app?vid=451e822b-d17c-41b3-aa86-e9da4e66ded2","ios":"levelo://app?vid=451e822b-d17c-41b3-aa86-e9da4e66ded2"},"vehicle_type_id":"4","last_reported":1774418049,"current_range_meters":8400,"station_id":"ce4bhi12rcd13ifvqfp0","pricing_plan_id":"cebpf4jnsgd1na2vs0mg"},{"bike_id":"81afbade-9b61-4865-965d-d9c81a599521","system_id":"levelo_inurba_marseille","lat":43.23786,"lon":5.36632,"is_reserved":false,"is_disabled":false,"rental_uris":{"android":"levelo://app?vid=81afbade-9b61-4865-965d-d9c81a599521","ios":"levelo://app?vid=81afbade-9b61-4865-965d-d9c81a599521"},"vehicle_type_id":"4","last_reported":1774418049,"current_range_meters":8400,"station_id":"st_d3nk18o9ro0c73en2l3g","pricing_plan_id":"cebpf4jnsgd1na2vs0mg"},{"bike_id":"2ffcc2dd-acc7-4c1f-83fe-76a51bfe4c59","system_id":"levelo_inurba_marseille","lat":43.2379,"lon":5.36623,"is_reserved":false,"is_disabled":false,"rental_uris":{"android":"levelo://app?vid=2ffcc2dd-acc7-4c1f-83fe-76a51bfe4c59","ios":"levelo://app?vid=2ffcc2dd-acc7-4c1f-83fe-76a51bfe4c59"},"vehicle_type_id":"4","last_reported":1774418049,"current_range_meters":8400,"station_id":"st_d3nk18o9ro0c73en2l3g","pricing_plan_id":"cebpf4jnsgd1na2vs0mg"},{"bike_id":"a262f43d-85a2-4a30-93dd-8651921757f5","system_id":"levelo_inurba_marseille","lat":43.23118,"lon":5.43775,"is_reserved":false,"is_disabled":false,"rental_uris":{"android":"levelo://app?vid=a262f43d-85a2-4a30-93dd-8651921757f5","ios":"levelo://app?vid=a262f43d-85a2-4a30-93dd-8651921757f5"},"vehicle_type_id":"4","last_reported":1774418049,"current_range_meters":8400,"station_id":"ce4bhmp2rcd13ifvqgog","pricing_plan_id":"cebpf4jnsgd1na2vs0mg"},{"bike_id":"f3b94933-5431-41e1-bb45-b1afcda4b193","system_id":"levelo_inurba_marseille","lat":43.29531,"lon":5.39402,"is_reserved":false,"is_disabled":false,"rental_uris":{"android":"levelo://app?vid=f3b94933-5431-41e1-bb45-b1afcda4b193","ios":"levelo://app?vid=f3b94933-5431-41e1-bb45-b1afcda4b193"},"vehicle_type_id":"4","last_reported":1774418049,"current_range_meters":8400,"station_id":"ce4bh292rcd13ifvqdf0","pricing_plan_id":"cebpf4jnsgd1na2vs0mg"},{"bike_id":"92124dbe-944a-4a81-92b5-cdcc56fa6fdf","system_id":"levelo_inurba_marseille","lat":43.30251,"lon":5.40076,"is_reserved":false,"is_disabled":false,"rental_uris":{"android":"levelo://app?vid=92124dbe-944a-4a81-92b5-cdcc56fa6fdf","ios":"levelo://app?vid=92124dbe-944a-4a81-92b5-cdcc56fa6fdf"},"vehicle_type_id":"4","last_reported":1774418049,"current_range_meters":8400,"station_id":"ce4bgvh2rcd13ifvqcs0","pricing_plan_id":"cebpf4jnsgd1na2vs0mg"},{"bike_id":"7c286d23-0ee0-43d9-8ebe-7926f179003d","system_id":"levelo_inurba_marseille","lat":43.2838,"lon":5.37541,"is_reserved":false,"is_disabled":false,"rental_uris":{"android":"levelo://app?vid=7c286d23-0ee0-43d9-8ebe-7926f179003d","ios":"levelo://app?vid=7c286d23-0ee0-43d9-8ebe-7926f179003d"},"vehicle_type_id":"4","last_reported":1774418049,"current_range_meters":8400,"station_id":"ce4bh412rcd13ifvqds0","pricing_plan_id":"cebpf4jnsgd1na2vs0mg"},{"bike_id":"8d55540b-3918-4aa9-b8c3-e70632535bd8","system_id":"levelo_inurba_marseille","lat":43.28456,"lon":5.35886,"is_reserved":false,"is_disabled":false,"rental_uris":{"android":"levelo://app?vid=8d55540b-3918-4aa9-b8c3-e70632535bd8","ios":"levelo://app?vid=8d55540b-3918-4aa9-b8c3-e70632535bd8"},"vehicle_type_id":"4","last_reported":1774418049,"current_range_meters":8400,"station_id":"ce4bhah2rcd13ifvqei0","pricing_plan_id":"cebpf4jnsgd1na2vs0mg"},{"bike_id":"b9d157e4-adb0-4d64-b93d-349f42c39fcf","system_id":"levelo_inurba_marseille","lat":43.31889,"lon":5.36817,"is_reserved":false,"is_disabled":false,"rental_uris":{"android":"levelo://app?vid=b9d157e4-adb0-4d64-b93d-349f42c39fcf","ios":"levelo://app?vid=b9d157e4-adb0-4d64-b93d-349f42c39fcf"},"vehicle_type_id":"4","last_reported":1774418049,"current_range_meters":8400,"station_id":"st_d6o2h0d0559c73evc1b0","pricing_plan_id":"cebpf4jnsgd1na2vs0mg"},{"bike_id":"a5b98480-f04d-4b61-81bd-7e6303f8483e","system_id":"levelo_inurba_marseille","lat":43.23181,"lon":5.39998,"is_reserved":false,"is_disabled":false,"rental_uris":{"android":"levelo://app?vid=a5b98480-f04d-4b61-81bd-7e6303f8483e","ios":"levelo://app?vid=a5b98480-f04d-4b61-81bd-7e6303f8483e"},"vehicle_type_id":"4","last_reported":1774418049,"current_range_meters":8400,"station_id":"ce4bhn12rcd13ifvqgqg","pricing_plan_id":"cebpf4jnsgd1na2vs0mg"},{"bike_id":"d0adcb6d-011f-4790-8aee-c3605358f198","system_id":"levelo_inurba_marseille","lat":43.33023,"lon":5.39029,"is_reserved":false,"is_disabled":false,"rental_uris":{"android":"levelo://app?vid=d0adcb6d-011f-4790-8aee-c3605358f198","ios":"levelo://app?vid=d0adcb6d-011f-4790-8aee-c3605358f198"},"vehicle_type_id":"4","last_reported":1774418049,"current_range_meters":8800,"station_id":"ce4bhr92rcd13ifvqhrg","pricing_plan_id":"cebpf4jnsgd1na2vs0mg"},{"bike_id":"64fed88b-ebdc-49a9-8de1-6d425fe0015a","system_id":"levelo_inurba_marseille","lat":43.30646,"lon":5.40084,"is_reserved":false,"is_disabled":false,"rental_uris":{"android":"levelo://app?vid=64fed88b-ebdc-49a9-8de1-6d425fe0015a","ios":"levelo://app?vid=64fed88b-ebdc-49a9-8de1-6d425fe0015a"},"vehicle_type_id":"4","last_reported":1774418049,"current_range_meters":8800,"station_id":"ce4bh112rcd13ifvqda0","pricing_plan_id":"cebpf4jnsgd1na2vs0mg"},{"bike_id":"f930c486-08df-4a84-b7c3-ffc4d1c80abe","system_id":"levelo_inurba_marseille","lat":43.24649,"lon":5.38898,"is_reserved":false,"is_disabled":false,"rental_uris":{"android":"levelo://app?vid=f930c486-08df-4a84-b7c3-ffc4d1c80abe","ios":"levelo://app?vid=f930c486-08df-4a84-b7c3-ffc4d1c80abe"},"vehicle_type_id":"4","last_reported":1774418049,"current_range_meters":8800,"station_id":"ce4bhg12rcd13ifvqf60","pricing_plan_id":"cebpf4jnsgd1na2vs0mg"},{"bike_id":"cbcfd3a3-331d-4395-86fc-b8abe237cc03","system_id":"levelo_inurba_marseille","lat":43.28704,"lon":5.39985,"is_reserved":false,"is_disabled":false,"rental_uris":{"android":"levelo://app?vid=cbcfd3a3-331d-4395-86fc-b8abe237cc03","ios":"levelo://app?vid=cbcfd3a3-331d-4395-86fc-b8abe237cc03"},"vehicle_type_id":"4","last_reported":1774418049,"current_range_meters":8800,"station_id":"ce4bho92rcd13ifvqh3g","pricing_plan_id":"cebpf4jnsgd1na2vs0mg"},{"bike_id":"da6972b3-b161-480b-8ef0-1ff556fc7299","system_id":"levelo_inurba_marseille","lat":43.2379,"lon":5.36632,"is_reserved":false,"is_disabled":false,"rental_uris":{"android":"levelo://app?vid=da6972b3-b161-480b-8ef0-1ff556fc7299","ios":"levelo://app?vid=da6972b3-b161-480b-8ef0-1ff556fc7299"},"vehicle_type_id":"4","last_reported":1774418049,"current_range_meters":8800,"station_id":"st_d3nk18o9ro0c73en2l3g","pricing_plan_id":"cebpf4jnsgd1na2vs0mg"},{"bike_id":"fdd8bf84-b2fe-4508-9572-06ea662fa5ac","system_id":"levelo_inurba_marseille","lat":43.28472,"lon":5.48409,"is_reserved":false,"is_disabled":false,"rental_uris":{"android":"levelo://app?vid=fdd8bf84-b2fe-4508-9572-06ea662fa5ac","ios":"levelo://app?vid=fdd8bf84-b2fe-4508-9572-06ea662fa5ac"},"vehicle_type_id":"4","last_reported":1774418049,"current_range_meters":8800,"station_id":"","pricing_plan_id":"cebpf4jnsgd1na2vs0mg"},{"bike_id":"614b36d8-067b-4b53-b46a-94738fd58a77","system_id":"levelo_inurba_marseille","lat":43.30391,"lon":5.39844,"is_reserved":false,"is_disabled":false,"rental_uris":{"android":"levelo://app?vid=614b36d8-067b-4b53-b46a-94738fd58a77","ios":"levelo://app?vid=614b36d8-067b-4b53-b46a-94738fd58a77"},"vehicle_type_id":"4","last_reported":1774418049,"current_range_meters":8800,"station_id":"","pricing_plan_id":"cebpf4jnsgd1na2vs0mg"},{"bike_id":"76874935-a550-4b44-90a3-28eb485c749a","system_id":"levelo_inurba_marseille","lat":43.2961,"lon":5.37178,"is_reserved":false,"is_disabled":true,"rental_uris":{"android":"levelo://app?vid=76874935-a550-4b44-90a3-28eb485c749a","ios":"levelo://app?vid=76874935-a550-4b44-90a3-28eb485c749a"},"vehicle_type_id":"4","last_reported":1774418049,"current_range_meters":8800,"station_id":"ce4bgnh2rcd13ifvqc0g","pricing_plan_id":"cebpf4jnsgd1na2vs0mg"},{"bike_id":"b9a275c9-d51f-4f11-a776-e728aae18c62","system_id":"levelo_inurba_marseille","lat":43.2535,"lon":5.42176,"is_reserved":false,"is_disabled":false,"rental_uris":{"android":"levelo://app?vid=b9a275c9-d51f-4f11-a776-e728aae18c62","ios":"levelo://app?vid=b9a275c9-d51f-4f11-a776-e728aae18c62"},"vehicle_type_id":"4","last_reported":1774418049,"current_range_meters":8800,"station_id":"st_d2m65c5bi1j21697t3ng","pricing_plan_id":"cebpf4jnsgd1na2vs0mg"},{"bike_id":"0d7bffdc-d5d7-4164-be1b-12b80a9c9fbe","system_id":"levelo_inurba_marseille","lat":43.24667,"lon":5.38162,"is_reserved":false,"is_disabled":false,"rental_uris":{"android":"levelo://app?vid=0d7bffdc-d5d7-4164-be1b-12b80a9c9fbe","ios":"levelo://app?vid=0d7bffdc-d5d7-4164-be1b-12b80a9c9fbe"},"vehicle_type_id":"4","last_reported":1774418049,"current_range_meters":8800,"station_id":"ce4bhih2rcd13ifvqfr0","pricing_plan_id":"cebpf4jnsgd1na2vs0mg"},{"bike_id":"236671a6-d98f-4976-87a8-53b173d3371a","system_id":"levelo_inurba_marseille","lat":43.26229,"lon":5.4046,"is_reserved":false,"is_disabled":false,"rental_uris":{"android":"levelo://app?vid=236671a6-d98f-4976-87a8-53b173d3371a","ios":"levelo://app?vid=236671a6-d98f-4976-87a8-53b173d3371a"},"vehicle_type_id":"4","last_reported":1774418049,"current_range_meters":8800,"station_id":"ce4bhmh2rcd13ifvqgmg","pricing_plan_id":"cebpf4jnsgd1na2vs0mg"},{"bike_id":"f8f6e231-aebc-4f30-a553-ced2774c43d4","system_id":"levelo_inurba_marseille","lat":43.27059,"lon":5.42301,"is_reserved":false,"is_disabled":false,"rental_uris":{"android":"levelo://app?vid=f8f6e231-aebc-4f30-a553-ced2774c43d4","ios":"levelo://app?vid=f8f6e231-aebc-4f30-a553-ced2774c43d4"},"vehicle_type_id":"4","last_reported":1774418049,"current_range_meters":8800,"station_id":"ce4bhk92rcd13ifvqgb0","pricing_plan_id":"cebpf4jnsgd1na2vs0mg"},{"bike_id":"16bb81ca-e81b-4525-8684-b2a448d18b62","system_id":"levelo_inurba_marseille","lat":43.23787,"lon":5.36628,"is_reserved":false,"is_disabled":false,"rental_uris":{"android":"levelo://app?vid=16bb81ca-e81b-4525-8684-b2a448d18b62","ios":"levelo://app?vid=16bb81ca-e81b-4525-8684-b2a448d18b62"},"vehicle_type_id":"4","last_reported":1774418049,"current_range_meters":8800,"station_id":"st_d3nk18o9ro0c73en2l3g","pricing_plan_id":"cebpf4jnsgd1na2vs0mg"},{"bike_id":"d9130c1d-55e5-48fe-b912-3f43375e11bb","system_id":"levelo_inurba_marseille","lat":43.29795,"lon":5.39345,"is_reserved":false,"is_disabled":false,"rental_uris":{"android":"levelo://app?vid=d9130c1d-55e5-48fe-b912-3f43375e11bb","ios":"levelo://app?vid=d9130c1d-55e5-48fe-b912-3f43375e11bb"},"vehicle_type_id":"4","last_reported":1774418049,"current_range_meters":8800,"station_id":"chh1huq6cuj3fo74tm60","pricing_plan_id":"cebpf4jnsgd1na2vs0mg"},{"bike_id":"743383d3-68fd-4243-85ba-4364b2e7a080","system_id":"levelo_inurba_marseille","lat":43.24546,"lon":5.39516,"is_reserved":false,"is_disabled":true,"rental_uris":{"android":"levelo://app?vid=743383d3-68fd-4243-85ba-4364b2e7a080","ios":"levelo://app?vid=743383d3-68fd-4243-85ba-4364b2e7a080"},"vehicle_type_id":"4","last_reported":1774418049,"current_range_meters":8800,"station_id":"ce4bhlp2rcd13ifvqgjg","pricing_plan_id":"cebpf4jnsgd1na2vs0mg"},{"bike_id":"25ce42a0-72ef-4339-99d5-b1fe5613ee28","system_id":"levelo_inurba_marseille","lat":43.28607,"lon":5.37067,"is_reserved":false,"is_disabled":false,"rental_uris":{"android":"levelo://app?vid=25ce42a0-72ef-4339-99d5-b1fe5613ee28","ios":"levelo://app?vid=25ce42a0-72ef-4339-99d5-b1fe5613ee28"},"vehicle_type_id":"4","last_reported":1774418049,"current_range_meters":8800,"station_id":"ce4bht12rcd13ifvqi60","pricing_plan_id":"cebpf4jnsgd1na2vs0mg"},{"bike_id":"3969d9ff-e51e-44fd-8e71-b3c87bcabc26","system_id":"levelo_inurba_marseille","lat":43.25829,"lon":5.39435,"is_reserved":false,"is_disabled":false,"rental_uris":{"android":"levelo://app?vid=3969d9ff-e51e-44fd-8e71-b3c87bcabc26","ios":"levelo://app?vid=3969d9ff-e51e-44fd-8e71-b3c87bcabc26"},"vehicle_type_id":"4","last_reported":1774418049,"current_range_meters":8800,"station_id":"ce4bhip2rcd13ifvqft0","pricing_plan_id":"cebpf4jnsgd1na2vs0mg"},{"bike_id":"66830140-858d-4a69-a335-2446f301fa65","system_id":"levelo_inurba_marseille","lat":43.32468,"lon":5.36562,"is_reserved":false,"is_disabled":false,"rental_uris":{"android":"levelo://app?vid=66830140-858d-4a69-a335-2446f301fa65","ios":"levelo://app?vid=66830140-858d-4a69-a335-2446f301fa65"},"vehicle_type_id":"4","last_reported":1774418049,"current_range_meters":8800,"station_id":"ce4bhs12rcd13ifvqhvg","pricing_plan_id":"cebpf4jnsgd1na2vs0mg"},{"bike_id":"8a561b43-312c-439b-b523-926744b20ec7","system_id":"levelo_inurba_marseille","lat":43.31548,"lon":5.38035,"is_reserved":false,"is_disabled":false,"rental_uris":{"android":"levelo://app?vid=8a561b43-312c-439b-b523-926744b20ec7","ios":"levelo://app?vid=8a561b43-312c-439b-b523-926744b20ec7"},"vehicle_type_id":"4","last_reported":1774418049,"current_range_meters":8800,"station_id":"ce4bhsp2rcd13ifvqi50","pricing_plan_id":"cebpf4jnsgd1na2vs0mg"},{"bike_id":"47ed75b9-8b85-4d47-aa8c-7875f60d10be","system_id":"levelo_inurba_marseille","lat":43.27915,"lon":5.38014,"is_reserved":false,"is_disabled":false,"rental_uris":{"android":"levelo://app?vid=47ed75b9-8b85-4d47-aa8c-7875f60d10be","ios":"levelo://app?vid=47ed75b9-8b85-4d47-aa8c-7875f60d10be"},"vehicle_type_id":"4","last_reported":1774418049,"current_range_meters":8800,"station_id":"ce4bhf92rcd13ifvqf50","pricing_plan_id":"cebpf4jnsgd1na2vs0mg"},{"bike_id":"c322bd60-cbf0-4bb1-96d3-aa2cc92ed507","system_id":"levelo_inurba_marseille","lat":43.26568,"lon":5.39052,"is_reserved":false,"is_disabled":false,"rental_uris":{"android":"levelo://app?vid=c322bd60-cbf0-4bb1-96d3-aa2cc92ed507","ios":"levelo://app?vid=c322bd60-cbf0-4bb1-96d3-aa2cc92ed507"},"vehicle_type_id":"4","last_reported":1774418049,"current_range_meters":8800,"station_id":"ce4bhe12rcd13ifvqf30","pricing_plan_id":"cebpf4jnsgd1na2vs0mg"},{"bike_id":"0df6d16f-36d4-42c1-8335-b8a697e6bb13","system_id":"levelo_inurba_marseille","lat":43.29563,"lon":5.3753,"is_reserved":false,"is_disabled":false,"rental_uris":{"android":"levelo://app?vid=0df6d16f-36d4-42c1-8335-b8a697e6bb13","ios":"levelo://app?vid=0df6d16f-36d4-42c1-8335-b8a697e6bb13"},"vehicle_type_id":"4","last_reported":1774418049,"current_range_meters":9200,"station_id":"ce4bgh92rcd13ifvqb50","pricing_plan_id":"cebpf4jnsgd1na2vs0mg"},{"bike_id":"5ec79b4e-9893-4c40-8854-29e1fdef2ce2","system_id":"levelo_inurba_marseille","lat":43.31905,"lon":5.3681,"is_reserved":false,"is_disabled":false,"rental_uris":{"android":"levelo://app?vid=5ec79b4e-9893-4c40-8854-29e1fdef2ce2","ios":"levelo://app?vid=5ec79b4e-9893-4c40-8854-29e1fdef2ce2"},"vehicle_type_id":"4","last_reported":1774418049,"current_range_meters":9200,"station_id":"st_d6o2h0d0559c73evc1b0","pricing_plan_id":"cebpf4jnsgd1na2vs0mg"},{"bike_id":"d64c94f3-e268-41de-bac3-5a218887d9b5","system_id":"levelo_inurba_marseille","lat":43.28473,"lon":5.484,"is_reserved":false,"is_disabled":false,"rental_uris":{"android":"levelo://app?vid=d64c94f3-e268-41de-bac3-5a218887d9b5","ios":"levelo://app?vid=d64c94f3-e268-41de-bac3-5a218887d9b5"},"vehicle_type_id":"4","last_reported":1774418049,"current_range_meters":9200,"station_id":"","pricing_plan_id":"cebpf4jnsgd1na2vs0mg"},{"bike_id":"9b8ef9d9-2b69-4832-b2af-dff113d7bac1","system_id":"levelo_inurba_marseille","lat":43.27317,"lon":5.39069,"is_reserved":false,"is_disabled":true,"rental_uris":{"android":"levelo://app?vid=9b8ef9d9-2b69-4832-b2af-dff113d7bac1","ios":"levelo://app?vid=9b8ef9d9-2b69-4832-b2af-dff113d7bac1"},"vehicle_type_id":"4","last_reported":1774418049,"current_range_meters":9200,"station_id":"ce4bhgp2rcd13ifvqfe0","pricing_plan_id":"cebpf4jnsgd1na2vs0mg"},{"bike_id":"f2f54841-aaa8-4442-b101-8d11e6b13a1a","system_id":"levelo_inurba_marseille","lat":43.28413,"lon":5.35878,"is_reserved":false,"is_disabled":false,"rental_uris":{"android":"levelo://app?vid=f2f54841-aaa8-4442-b101-8d11e6b13a1a","ios":"levelo://app?vid=f2f54841-aaa8-4442-b101-8d11e6b13a1a"},"vehicle_type_id":"4","last_reported":1774418049,"current_range_meters":9200,"station_id":"ce4bhah2rcd13ifvqei0","pricing_plan_id":"cebpf4jnsgd1na2vs0mg"},{"bike_id":"5d7c7a91-4156-420b-b97d-85a89d91605e","system_id":"levelo_inurba_marseille","lat":43.2959,"lon":5.37528,"is_reserved":false,"is_disabled":true,"rental_uris":{"android":"levelo://app?vid=5d7c7a91-4156-420b-b97d-85a89d91605e","ios":"levelo://app?vid=5d7c7a91-4156-420b-b97d-85a89d91605e"},"vehicle_type_id":"4","last_reported":1774418049,"current_range_meters":9200,"station_id":"ce4bgh92rcd13ifvqb50","pricing_plan_id":"cebpf4jnsgd1na2vs0mg"},{"bike_id":"db8e1c36-1d9c-44d2-bc2d-f91041c6fca2","system_id":"levelo_inurba_marseille","lat":43.28451,"lon":5.45795,"is_reserved":false,"is_disabled":false,"rental_uris":{"android":"levelo://app?vid=db8e1c36-1d9c-44d2-bc2d-f91041c6fca2","ios":"levelo://app?vid=db8e1c36-1d9c-44d2-bc2d-f91041c6fca2"},"vehicle_type_id":"4","last_reported":1774418049,"current_range_meters":9200,"station_id":"","pricing_plan_id":"cebpf4jnsgd1na2vs0mg"},{"bike_id":"107301ff-a3ab-4eed-8839-ab5422ae13d4","system_id":"levelo_inurba_marseille","lat":43.24758,"lon":5.37503,"is_reserved":false,"is_disabled":false,"rental_uris":{"android":"levelo://app?vid=107301ff-a3ab-4eed-8839-ab5422ae13d4","ios":"levelo://app?vid=107301ff-a3ab-4eed-8839-ab5422ae13d4"},"vehicle_type_id":"4","last_reported":1774418049,"current_range_meters":9200,"station_id":"ce4bhgh2rcd13ifvqfb0","pricing_plan_id":"cebpf4jnsgd1na2vs0mg"},{"bike_id":"942ff02c-31c2-4c51-8842-9c7d3c411c98","system_id":"levelo_inurba_marseille","lat":43.26533,"lon":5.37327,"is_reserved":false,"is_disabled":true,"rental_uris":{"android":"levelo://app?vid=942ff02c-31c2-4c51-8842-9c7d3c411c98","ios":"levelo://app?vid=942ff02c-31c2-4c51-8842-9c7d3c411c98"},"vehicle_type_id":"4","last_reported":1774418049,"current_range_meters":9200,"station_id":"ce4bhg12rcd13ifvqf70","pricing_plan_id":"cebpf4jnsgd1na2vs0mg"},{"bike_id":"1b478838-15dd-4b5f-a4d8-ce25228ef5c4","system_id":"levelo_inurba_marseille","lat":43.30141,"lon":5.38105,"is_reserved":false,"is_disabled":false,"rental_uris":{"android":"levelo://app?vid=1b478838-15dd-4b5f-a4d8-ce25228ef5c4","ios":"levelo://app?vid=1b478838-15dd-4b5f-a4d8-ce25228ef5c4"},"vehicle_type_id":"4","last_reported":1774418049,"current_range_meters":9200,"station_id":"ce4bgjp2rcd13ifvqbh0","pricing_plan_id":"cebpf4jnsgd1na2vs0mg"},{"bike_id":"2726efb4-ce06-4f2f-8065-e4ac3aedc676","system_id":"levelo_inurba_marseille","lat":43.29668,"lon":5.38156,"is_reserved":false,"is_disabled":false,"rental_uris":{"android":"levelo://app?vid=2726efb4-ce06-4f2f-8065-e4ac3aedc676","ios":"levelo://app?vid=2726efb4-ce06-4f2f-8065-e4ac3aedc676"},"vehicle_type_id":"4","last_reported":1774418049,"current_range_meters":9200,"station_id":"","pricing_plan_id":"cebpf4jnsgd1na2vs0mg"},{"bike_id":"46120e68-7222-4af8-b27a-b3a0722d09c6","system_id":"levelo_inurba_marseille","lat":43.28664,"lon":5.36374,"is_reserved":false,"is_disabled":true,"rental_uris":{"android":"levelo://app?vid=46120e68-7222-4af8-b27a-b3a0722d09c6","ios":"levelo://app?vid=46120e68-7222-4af8-b27a-b3a0722d09c6"},"vehicle_type_id":"4","last_reported":1774418049,"current_range_meters":9200,"station_id":"ce4bhah2rcd13ifvqej0","pricing_plan_id":"cebpf4jnsgd1na2vs0mg"},{"bike_id":"3c99a2c2-4c4c-4897-94e9-d8f5694991fa","system_id":"levelo_inurba_marseille","lat":43.30958,"lon":5.3904,"is_reserved":false,"is_disabled":false,"rental_uris":{"android":"levelo://app?vid=3c99a2c2-4c4c-4897-94e9-d8f5694991fa","ios":"levelo://app?vid=3c99a2c2-4c4c-4897-94e9-d8f5694991fa"},"vehicle_type_id":"4","last_reported":1774418049,"current_range_meters":9200,"station_id":"ce4bgup2rcd13ifvqco0","pricing_plan_id":"cebpf4jnsgd1na2vs0mg"},{"bike_id":"183c3905-96d8-410a-bc17-261e95c6e627","system_id":"levelo_inurba_marseille","lat":43.24718,"lon":5.38151,"is_reserved":false,"is_disabled":false,"rental_uris":{"android":"levelo://app?vid=183c3905-96d8-410a-bc17-261e95c6e627","ios":"levelo://app?vid=183c3905-96d8-410a-bc17-261e95c6e627"},"vehicle_type_id":"4","last_reported":1774418049,"current_range_meters":9200,"station_id":"","pricing_plan_id":"cebpf4jnsgd1na2vs0mg"},{"bike_id":"fc7f53ff-877f-47c4-94f9-b836fa5b3b73","system_id":"levelo_inurba_marseille","lat":43.3315,"lon":5.377,"is_reserved":false,"is_disabled":false,"rental_uris":{"android":"levelo://app?vid=fc7f53ff-877f-47c4-94f9-b836fa5b3b73","ios":"levelo://app?vid=fc7f53ff-877f-47c4-94f9-b836fa5b3b73"},"vehicle_type_id":"4","last_reported":1774418049,"current_range_meters":9200,"station_id":"st_d46cu089ee8s73dldbu0","pricing_plan_id":"cebpf4jnsgd1na2vs0mg"},{"bike_id":"15854bf7-161f-4ec0-9570-5d156eb463b8","system_id":"levelo_inurba_marseille","lat":43.28658,"lon":5.36373,"is_reserved":false,"is_disabled":false,"rental_uris":{"android":"levelo://app?vid=15854bf7-161f-4ec0-9570-5d156eb463b8","ios":"levelo://app?vid=15854bf7-161f-4ec0-9570-5d156eb463b8"},"vehicle_type_id":"4","last_reported":1774418049,"current_range_meters":9200,"station_id":"ce4bhah2rcd13ifvqej0","pricing_plan_id":"cebpf4jnsgd1na2vs0mg"},{"bike_id":"61848980-6985-485d-946f-11aeeda746ad","system_id":"levelo_inurba_marseille","lat":43.28409,"lon":5.3753,"is_reserved":false,"is_disabled":false,"rental_uris":{"android":"levelo://app?vid=61848980-6985-485d-946f-11aeeda746ad","ios":"levelo://app?vid=61848980-6985-485d-946f-11aeeda746ad"},"vehicle_type_id":"4","last_reported":1774418049,"current_range_meters":9200,"station_id":"ce4bh412rcd13ifvqds0","pricing_plan_id":"cebpf4jnsgd1na2vs0mg"},{"bike_id":"328fb06e-5493-4637-87ce-47808f6ba795","system_id":"levelo_inurba_marseille","lat":43.24136,"lon":5.36434,"is_reserved":false,"is_disabled":false,"rental_uris":{"android":"levelo://app?vid=328fb06e-5493-4637-87ce-47808f6ba795","ios":"levelo://app?vid=328fb06e-5493-4637-87ce-47808f6ba795"},"vehicle_type_id":"4","last_reported":1774418049,"current_range_meters":9200,"station_id":"cpo36qri1sfpv3e86is0","pricing_plan_id":"cebpf4jnsgd1na2vs0mg"},{"bike_id":"81c76841-173c-4587-942b-d9a699bde792","system_id":"levelo_inurba_marseille","lat":43.31351,"lon":5.36692,"is_reserved":false,"is_disabled":false,"rental_uris":{"android":"levelo://app?vid=81c76841-173c-4587-942b-d9a699bde792","ios":"levelo://app?vid=81c76841-173c-4587-942b-d9a699bde792"},"vehicle_type_id":"4","last_reported":1774418049,"current_range_meters":9200,"station_id":"ce4bgr92rcd13ifvqc6g","pricing_plan_id":"cebpf4jnsgd1na2vs0mg"},{"bike_id":"3018e8f0-fffc-4e0b-80f2-7f6320b7a9c1","system_id":"levelo_inurba_marseille","lat":43.31171,"lon":5.3685,"is_reserved":false,"is_disabled":false,"rental_uris":{"android":"levelo://app?vid=3018e8f0-fffc-4e0b-80f2-7f6320b7a9c1","ios":"levelo://app?vid=3018e8f0-fffc-4e0b-80f2-7f6320b7a9c1"},"vehicle_type_id":"4","last_reported":1774418049,"current_range_meters":9600,"station_id":"","pricing_plan_id":"cebpf4jnsgd1na2vs0mg"},{"bike_id":"09aa5f7f-8304-4f24-a99b-87ccba3bd8e7","system_id":"levelo_inurba_marseille","lat":43.23392,"lon":5.41237,"is_reserved":false,"is_disabled":false,"rental_uris":{"android":"levelo://app?vid=09aa5f7f-8304-4f24-a99b-87ccba3bd8e7","ios":"levelo://app?vid=09aa5f7f-8304-4f24-a99b-87ccba3bd8e7"},"vehicle_type_id":"4","last_reported":1774418049,"current_range_meters":9600,"station_id":"","pricing_plan_id":"cebpf4jnsgd1na2vs0mg"},{"bike_id":"a20bca81-a392-424e-a85c-bf79f4eb1a7b","system_id":"levelo_inurba_marseille","lat":43.23794,"lon":5.36651,"is_reserved":false,"is_disabled":false,"rental_uris":{"android":"levelo://app?vid=a20bca81-a392-424e-a85c-bf79f4eb1a7b","ios":"levelo://app?vid=a20bca81-a392-424e-a85c-bf79f4eb1a7b"},"vehicle_type_id":"4","last_reported":1774418049,"current_range_meters":9600,"station_id":"st_d3nk18o9ro0c73en2l3g","pricing_plan_id":"cebpf4jnsgd1na2vs0mg"},{"bike_id":"5fea4591-9536-478c-9dd1-1abddc74092a","system_id":"levelo_inurba_marseille","lat":43.284071,"lon":5.375206,"is_reserved":false,"is_disabled":false,"rental_uris":{"android":"levelo://app?vid=5fea4591-9536-478c-9dd1-1abddc74092a","ios":"levelo://app?vid=5fea4591-9536-478c-9dd1-1abddc74092a"},"vehicle_type_id":"4","last_reported":1774418049,"current_range_meters":9600,"station_id":"ce4bh412rcd13ifvqds0","pricing_plan_id":"cebpf4jnsgd1na2vs0mg"},{"bike_id":"4baec0fe-6f6b-4464-aa89-969ffff1f201","system_id":"levelo_inurba_marseille","lat":43.28335,"lon":5.38119,"is_reserved":false,"is_disabled":true,"rental_uris":{"android":"levelo://app?vid=4baec0fe-6f6b-4464-aa89-969ffff1f201","ios":"levelo://app?vid=4baec0fe-6f6b-4464-aa89-969ffff1f201"},"vehicle_type_id":"4","last_reported":1774418049,"current_range_meters":9600,"station_id":"ce4bh412rcd13ifvqdr0","pricing_plan_id":"cebpf4jnsgd1na2vs0mg"},