{"last_updated":1728684444,"ttl":60,"version":"2.2","data":{"bikes":[{"bike_id":"4420ed1d-5f3b-4b86-af4b-f965ab1ccca3","system_id":"levelo_inurba_marseille","lat":43.28412,"lon":5.37505,"is_reserved":false,"is_disabled":false,"rental_uris":{"android":"levelo://app?vid=4420ed1d-5f3b-4b86-af4b-f965ab1ccca3","ios":"levelo://app?vid=4420ed1d-5f3b-4b86-af4b-f965ab1ccca3"},"vehicle_type_id":"4","last_reported":1728684444,"current_range_meters":28800,"station_id":"ce4bh412rcd13ifvqds0","pricing_plan_id":"cebpf4jnsgd1na2vs0mg"},{"bike_id":"a3869703-b2b5-40c3-9afc-f7fde4f873c8","system_id":"levelo_inurba_marseille","lat":43.29254,"lon":5.40899,"is_reserved":false,"is_disabled":false,"rental_uris":{"android":"levelo://app?vid=a3869703-b2b5-40c3-9afc-f7fde4f873c8","ios":"levelo://app?vid=a3869703-b2b5-40c3-9afc-f7fde4f873c8"},"vehicle_type_id":"4","last_reported":1728684444,"current_range_meters":28000,"station_id":"ce4bh192rcd13ifvqdc0","pricing_plan_id":"cebpf4jnsgd1na2vs0mg"},{"bike_id":"c1f74955-3289-4b68-adec-b56741d49e6e","system_id":"levelo_inurba_marseille","lat":43.24074,"lon":5.37758,"is_reserved":false,"is_disabled":false,"rental_uris":{"android":"levelo://app?vid=c1f74955-3289-4b68-adec-b56741d49e6e","ios":"levelo://app?vid=c1f74955-3289-4b68-adec-b56741d49e6e"},"vehicle_type_id":"4","last_reported":1728684444,"current_range_meters":31200,"station_id":"ce4bhnp2rcd13ifvqgvg","pricing_plan_id":"cebpf4jnsgd1na2vs0mg"},{"bike_id":"c013130f-af52-4fbb-b71c-e9f5c537bcf4","system_id":"levelo_inurba_marseille","lat":43.30637,"lon":5.40095,"is_reserved":false,"is_disabled":false,"rental_uris":{"android":"levelo://app?vid=c013130f-af52-4fbb-b71c-e9f5c537bcf4","ios":"levelo://app?vid=c013130f-af52-4fbb-b71c-e9f5c537bcf4"},"vehicle_type_id":"4","last_reported":1728684444,"current_range_meters":24800,"station_id":"ce4bh112rcd13ifvqda0","pricing_plan_id":"cebpf4jnsgd1na2vs0mg"},{"bike_id":"a943684c-6381-41bf-839d-4f1bc000e1e8","system_id":"levelo_inurba_marseille","lat":43.29617,"lon":5.37701,"is_reserved":false,"is_disabled":false,"rental_uris":{"android":"levelo://app?vid=a943684c-6381-41bf-839d-4f1bc000e1e8","ios":"levelo://app?vid=a943684c-6381-41bf-839d-4f1bc000e1e8"},"vehicle_type_id":"4","last_reported":1728684444,"current_range_meters":34000,"station_id":"ce4bgi92rcd13ifvqb90","pricing_plan_id":"cebpf4jnsgd1na2vs0mg"},{"bike_id":"51dd5005-a195-4642-bd5f-8cbea71cb3b3","system_id":"levelo_inurba_marseille","lat":43.2293,"lon":5.35372,"is_reserved":false,"is_disabled":false,"rental_uris":{"android":"levelo://app?vid=51dd5005-a195-4642-bd5f-8cbea71cb3b3","ios":"levelo://app?vid=51dd5005-a195-4642-bd5f-8cbea71cb3b3"},"vehicle_type_id":"4","last_reported":1728684444,"current_range_meters":38400,"station_id":"cpo3532slgdg3j2ikp40","pricing_plan_id":"cebpf4jnsgd1na2vs0mg"},{"bike_id":"03f46402-07dc-42c9-9bbb-99baa60d6dbb","system_id":"levelo_inurba_marseille","lat":43.29843,"lon":5.36265,"is_reserved":false,"is_disabled":false,"rental_uris":{"android":"levelo://app?vid=03f46402-07dc-42c9-9bbb-99baa60d6dbb","ios":"levelo://app?vid=03f46402-07dc-42c9-9bbb-99baa60d6dbb"},"vehicle_type_id":"4","last_reported":1728684444,"current_range_meters":3200,"station_id":"ce4bgpp2rcd13ifvqc3g","pricing_plan_id":"cebpf4jnsgd1na2vs0mg"},{"bike_id":"b474cc28-429d-4bf6-a453-cfd8e447da8a","system_id":"levelo_inurba_marseille","lat":43.33724,"lon":5.39181,"is_reserved":false,"is_disabled":false,"rental_uris":{"android":"levelo://app?vid=b474cc28-429d-4bf6-a453-cfd8e447da8a","ios":"levelo://app?vid=b474cc28-429d-4bf6-a453-cfd8e447da8a"},"vehicle_type_id":"4","last_reported":1728684444,"current_range_meters":38800,"station_id":"ce4bhr92rcd13ifvqhsg","pricing_plan_id":"cebpf4jnsgd1na2vs0mg"},{"bike_id":"8a3ea5a6-b0cd-48da-acf8-ccf7be6f48c6","system_id":"levelo_inurba_marseille","lat":43.32268,"lon":5.38607,"is_reserved":false,"is_disabled":false,"rental_uris":{"android":"levelo://app?vid=8a3ea5a6-b0cd-48da-acf8-ccf7be6f48c6","ios":"levelo://app?vid=8a3ea5a6-b0cd-48da-acf8-ccf7be6f48c6"},"vehicle_type_id":"4","last_reported":1728684444,"current_range_meters":8800,"station_id":"","pricing_plan_id":"cebpf4jnsgd1na2vs0mg"},{"bike_id":"4f1ac9db-36fd-4126-b3cc-b859636a6a29","system_id":"levelo_inurba_marseille","lat":43.2293,"lon":5.35375,"is_reserved":false,"is_disabled":false,"rental_uris":{"android":"levelo://app?vid=4f1ac9db-36fd-4126-b3cc-b859636a6a29","ios":"levelo://app?vid=4f1ac9db-36fd-4126-b3cc-b859636a6a29"},"vehicle_type_id":"4","last_reported":1728684444,"current_range_meters":38800,"station_id":"cpo3532slgdg3j2ikp40","pricing_plan_id":"cebpf4jnsgd1na2vs0mg"},{"bike_id":"7e804513-a2d3-4ba9-84eb-75c603aae038","system_id":"levelo_inurba_marseille","lat":43.29037,"lon":5.39974,"is_reserved":false,"is_disabled":false,"rental_uris":{"android":"levelo://app?vid=7e804513-a2d3-4ba9-84eb-75c603aae038","ios":"levelo://app?vid=7e804513-a2d3-4ba9-84eb-75c603aae038"},"vehicle_type_id":"4","last_reported":1728684444,"current_range_meters":35600,"station_id":"ce4bh392rcd13ifvqdm0","pricing_plan_id":"cebpf4jnsgd1na2vs0mg"},{"bike_id":"0f681b24-8152-427a-8add-5021fec4f8a3","system_id":"levelo_inurba_marseille","lat":43.31329,"lon":5.39688,"is_reserved":false,"is_disabled":false,"rental_uris":{"android":"levelo://app?vid=0f681b24-8152-427a-8add-5021fec4f8a3","ios":"levelo://app?vid=0f681b24-8152-427a-8add-5021fec4f8a3"},"vehicle_type_id":"4","last_reported":1728684444,"current_range_meters":29600,"station_id":"ce4bgvp2rcd13ifvqcu0","pricing_plan_id":"cebpf4jnsgd1na2vs0mg"},{"bike_id":"f4e7eac3-d5cc-4809-bcb8-4b990294afc5","system_id":"levelo_inurba_marseille","lat":43.28475,"lon":5.38416,"is_reserved":false,"is_disabled":false,"rental_uris":{"android":"levelo://app?vid=f4e7eac3-d5cc-4809-bcb8-4b990294afc5","ios":"levelo://app?vid=f4e7eac3-d5cc-4809-bcb8-4b990294afc5"},"vehicle_type_id":"4","last_reported":1728684444,"current_range_meters":38800,"station_id":"ce4bh512rcd13ifvqe3g","pricing_plan_id":"cebpf4jnsgd1na2vs0mg"},{"bike_id":"68d41322-5a7f-4a5e-aca0-d8f3c5665fb0","system_id":"levelo_inurba_marseille","lat":43.27621,"lon":5.36112,"is_reserved":false,"is_disabled":false,"rental_uris":{"android":"levelo://app?vid=68d41322-5a7f-4a5e-aca0-d8f3c5665fb0","ios":"levelo://app?vid=68d41322-5a7f-4a5e-aca0-d8f3c5665fb0"},"vehicle_type_id":"4","last_reported":1728684444,"current_range_meters":34000,"station_id":"ce4bgj92rcd13ifvqbe0","pricing_plan_id":"cebpf4jnsgd1na2vs0mg"},{"bike_id":"418eb975-d061-48f2-a056-8c75e497f3ed","system_id":"levelo_inurba_marseille","lat":43.33711,"lon":5.3918,"is_reserved":false,"is_disabled":false,"rental_uris":{"android":"levelo://app?vid=418eb975-d061-48f2-a056-8c75e497f3ed","ios":"levelo://app?vid=418eb975-d061-48f2-a056-8c75e497f3ed"},"vehicle_type_id":"4","last_reported":1728684444,"current_range_meters":38800,"station_id":"ce4bhr92rcd13ifvqhsg","pricing_plan_id":"cebpf4jnsgd1na2vs0mg"},{"bike_id":"e34acc7c-4576-4996-90bb-c87b63dcf0de","system_id":"levelo_inurba_marseille","lat":43.32334,"lon":5.40619,"is_reserved":false,"is_disabled":false,"rental_uris":{"android":"levelo://app?vid=e34acc7c-4576-4996-90bb-c87b63dcf0de","ios":"levelo://app?vid=e34acc7c-4576-4996-90bb-c87b63dcf0de"},"vehicle_type_id":"4","last_reported":1728684444,"current_range_meters":27600,"station_id":"ce4bhq92rcd13ifvqhjg","pricing_plan_id":"cebpf4jnsgd1na2vs0mg"},{"bike_id":"78585177-0f2f-4ca9-a60b-751567687044","system_id":"levelo_inurba_marseille","lat":43.29038,"lon":5.37564,"is_reserved":false,"is_disabled":false,"rental_uris":{"android":"levelo://app?vid=78585177-0f2f-4ca9-a60b-751567687044","ios":"levelo://app?vid=78585177-0f2f-4ca9-a60b-751567687044"},"vehicle_type_id":"4","last_reported":1728684444,"current_range_meters":2000,"station_id":"ce4bh692rcd13ifvqe90","pricing_plan_id":"cebpf4jnsgd1na2vs0mg"},{"bike_id":"42b98502-17ac-4056-a474-7bbc35a3c95e","system_id":"levelo_inurba_marseille","lat":43.31091,"lon":5.38348,"is_reserved":false,"is_disabled":false,"rental_uris":{"android":"levelo://app?vid=42b98502-17ac-4056-a474-7bbc35a3c95e","ios":"levelo://app?vid=42b98502-17ac-4056-a474-7bbc35a3c95e"},"vehicle_type_id":"4","last_reported":1728684444,"current_range_meters":6000,"station_id":"ce4bgv92rcd13ifvqcr0","pricing_plan_id":"cebpf4jnsgd1na2vs0mg"},{"bike_id":"8a1e94b3-6048-4241-a866-e4857fd63656","system_id":"levelo_inurba_marseille","lat":43.290205,"lon":5.381246,"is_reserved":false,"is_disabled":false,"rental_uris":{"android":"levelo://app?vid=8a1e94b3-6048-4241-a866-e4857fd63656","ios":"levelo://app?vid=8a1e94b3-6048-4241-a866-e4857fd63656"},"vehicle_type_id":"4","last_reported":1728684444,"current_range_meters":2000,"station_id":"ce4bh4p2rcd13ifvqe1g","pricing_plan_id":"cebpf4jnsgd1na2vs0mg"},{"bike_id":"acde84b9-95a7-4b94-9ad2-889a14984862","system_id":"levelo_inurba_marseille","lat":43.26955,"lon":5.38638,"is_reserved":false,"is_disabled":false,"rental_uris":{"android":"levelo://app?vid=acde84b9-95a7-4b94-9ad2-889a14984862","ios":"levelo://app?vid=acde84b9-95a7-4b94-9ad2-889a14984862"},"vehicle_type_id":"4","last_reported":1728684444,"current_range_meters":11200,"station_id":"ce4bhh92rcd13ifvqfh0","pricing_plan_id":"cebpf4jnsgd1na2vs0mg"},{"bike_id":"17ccbc6f-dc76-407c-bd03-cfe01f00f19e","system_id":"levelo_inurba_marseille","lat":43.26478,"lon":5.39553,"is_reserved":false,"is_disabled":false,"rental_uris":{"android":"levelo://app?vid=17ccbc6f-dc76-407c-bd03-cfe01f00f19e","ios":"levelo://app?vid=17ccbc6f-dc76-407c-bd03-cfe01f00f19e"},"vehicle_type_id":"4","last_reported":1728684444,"current_range_meters":3200,"station_id":"ce4bhi12rcd13ifvqfq0","pricing_plan_id":"cebpf4jnsgd1na2vs0mg"},{"bike_id":"631afeb3-ff24-4869-b570-0bf0c9ce47b0","system_id":"levelo_inurba_marseille","lat":43.32111,"lon":5.38621,"is_reserved":false,"is_disabled":false,"rental_uris":{"android":"levelo://app?vid=631afeb3-ff24-4869-b570-0bf0c9ce47b0","ios":"levelo://app?vid=631afeb3-ff24-4869-b570-0bf0c9ce47b0"},"vehicle_type_id":"4","last_reported":1728684444,"current_range_meters":19200,"station_id":"","pricing_plan_id":"cebpf4jnsgd1na2vs0mg"},{"bike_id":"a343ef2a-9dab-4dfa-aae7-81033db70aac","system_id":"levelo_inurba_marseille","lat":43.2318,"lon":5.39983,"is_reserved":false,"is_disabled":false,"rental_uris":{"android":"levelo://app?vid=a343ef2a-9dab-4dfa-aae7-81033db70aac","ios":"levelo://app?vid=a343ef2a-9dab-4dfa-aae7-81033db70aac"},"vehicle_type_id":"4","last_reported":1728684444,"current_range_meters":18800,"station_id":"ce4bhn12rcd13ifvqgqg","pricing_plan_id":"cebpf4jnsgd1na2vs0mg"},{"bike_id":"28d5be62-c6ae-44f8-b5b7-cae9087907cf","system_id":"levelo_inurba_marseille","lat":43.3092,"lon":5.36783,"is_reserved":false,"is_disabled":false,"rental_uris":{"android":"levelo://app?vid=28d5be62-c6ae-44f8-b5b7-cae9087907cf","ios":"levelo://app?vid=28d5be62-c6ae-44f8-b5b7-cae9087907cf"},"vehicle_type_id":"4","last_reported":1728684444,"current_range_meters":6400,"station_id":"","pricing_plan_id":"cebpf4jnsgd1na2vs0mg"},{"bike_id":"6ecf43cd-4bb1-441e-8899-174d35efbd0b","system_id":"levelo_inurba_marseille","lat":43.27915,"lon":5.39573,"is_reserved":false,"is_disabled":false,"rental_uris":{"android":"levelo://app?vid=6ecf43cd-4bb1-441e-8899-174d35efbd0b","ios":"levelo://app?vid=6ecf43cd-4bb1-441e-8899-174d35efbd0b"},"vehicle_type_id":"4","last_reported":1728684444,"current_range_meters":18800,"station_id":"ce4bhf92rcd13ifvqf40","pricing_plan_id":"cebpf4jnsgd1na2vs0mg"},{"bike_id":"b09ea84b-644b-4d62-b0fb-142ade73cc4f","system_id":"levelo_inurba_marseille","lat":43.28946,"lon":5.39628,"is_reserved":false,"is_disabled":false,"rental_uris":{"android":"levelo://app?vid=b09ea84b-644b-4d62-b0fb-142ade73cc4f","ios":"levelo://app?vid=b09ea84b-644b-4d62-b0fb-142ade73cc4f"},"vehicle_type_id":"4","last_reported":1728684444,"current_range_meters":36400,"station_id":"ce4bh3h2rcd13ifvqdn0","pricing_plan_id":"cebpf4jnsgd1na2vs0mg"},{"bike_id":"4ae873b4-083d-4804-8059-f44b65811c68","system_id":"levelo_inurba_marseille","lat":43.31278,"lon":5.40166,"is_reserved":false,"is_disabled":false,"rental_uris":{"android":"levelo://app?vid=4ae873b4-083d-4804-8059-f44b65811c68","ios":"levelo://app?vid=4ae873b4-083d-4804-8059-f44b65811c68"},"vehicle_type_id":"4","last_reported":1728684444,"current_range_meters":8800,"station_id":"ce4bh092rcd13ifvqd30","pricing_plan_id":"cebpf4jnsgd1na2vs0mg"},{"bike_id":"064b6e67-aa01-4c68-81ea-1fecbd187ab2","system_id":"levelo_inurba_marseille","lat":43.31071,"lon":5.38351,"is_reserved":false,"is_disabled":false,"rental_uris":{"android":"levelo://app?vid=064b6e67-aa01-4c68-81ea-1fecbd187ab2","ios":"levelo://app?vid=064b6e67-aa01-4c68-81ea-1fecbd187ab2"},"vehicle_type_id":"4","last_reported":1728684444,"current_range_meters":32800,"station_id":"ce4bgv92rcd13ifvqcr0","pricing_plan_id":"cebpf4jnsgd1na2vs0mg"},{"bike_id":"9f742976-798b-435e-a947-617372e97b28","system_id":"levelo_inurba_marseille","lat":43.30356,"lon":5.38596,"is_reserved":false,"is_disabled":false,"rental_uris":{"android":"levelo://app?vid=9f742976-798b-435e-a947-617372e97b28","ios":"levelo://app?vid=9f742976-798b-435e-a947-617372e97b28"},"vehicle_type_id":"4","last_reported":1728684444,"current_range_meters":2800,"station_id":"","pricing_plan_id":"cebpf4jnsgd1na2vs0mg"},{"bike_id":"ee07c02b-d551-4d47-b823-c2e7ac073308","system_id":"levelo_inurba_marseille","lat":43.28359,"lon":5.38101,"is_reserved":false,"is_disabled":false,"rental_uris":{"android":"levelo://app?vid=ee07c02b-d551-4d47-b823-c2e7ac073308","ios":"levelo://app?vid=ee07c02b-d551-4d47-b823-c2e7ac073308"},"vehicle_type_id":"4","last_reported":1728684444,"current_range_meters":34800,"station_id":"ce4bh412rcd13ifvqdr0","pricing_plan_id":"cebpf4jnsgd1na2vs0mg"},{"bike_id":"53e0b671-041e-46ef-b25c-e75f360e4f69","system_id":"levelo_inurba_marseille","lat":43.28932,"lon":5.36629,"is_reserved":false,"is_disabled":false,"rental_uris":{"android":"levelo://app?vid=53e0b671-041e-46ef-b25c-e75f360e4f69","ios":"levelo://app?vid=53e0b671-041e-46ef-b25c-e75f360e4f69"},"vehicle_type_id":"4","last_reported":1728684444,"current_range_meters":17600,"station_id":"ce4bhap2rcd13ifvqek0","pricing_plan_id":"cebpf4jnsgd1na2vs0mg"},{"bike_id":"293443a5-ce09-4190-b244-f581c225f846","system_id":"levelo_inurba_marseille","lat":43.27907,"lon":5.38001,"is_reserved":false,"is_disabled":false,"rental_uris":{"android":"levelo://app?vid=293443a5-ce09-4190-b244-f581c225f846","ios":"levelo://app?vid=293443a5-ce09-4190-b244-f581c225f846"},"vehicle_type_id":"4","last_reported":1728684444,"current_range_meters":34800,"station_id":"ce4bhf92rcd13ifvqf50","pricing_plan_id":"cebpf4jnsgd1na2vs0mg"},{"bike_id":"0bf9c706-4f80-400e-9a5d-b7583be1ce6b","system_id":"levelo_inurba_marseille","lat":43.3061,"lon":5.37219,"is_reserved":false,"is_disabled":false,"rental_uris":{"android":"levelo://app?vid=0bf9c706-4f80-400e-9a5d-b7583be1ce6b","ios":"levelo://app?vid=0bf9c706-4f80-400e-9a5d-b7583be1ce6b"},"vehicle_type_id":"4","last_reported":1728684444,"current_range_meters":38800,"station_id":"ce4bgqh2rcd13ifvqc4g","pricing_plan_id":"cebpf4jnsgd1na2vs0mg"},{"bike_id":"b8d351ef-130d-4283-8987-b02d9053e2af","system_id":"levelo_inurba_marseille","lat":43.306127,"lon":5.372267,"is_reserved":false,"is_disabled":false,"rental_uris":{"android":"levelo://app?vid=b8d351ef-130d-4283-8987-b02d9053e2af","ios":"levelo://app?vid=b8d351ef-130d-4283-8987-b02d9053e2af"},"vehicle_type_id":"4","last_reported":1728684444,"current_range_meters":38800,"station_id":"ce4bgqh2rcd13ifvqc4g","pricing_plan_id":"cebpf4jnsgd1na2vs0mg"},{"bike_id":"e3de75fa-eb08-4bef-a680-231d1c38a9eb","system_id":"levelo_inurba_marseille","lat":43.33721,"lon":5.3918,"is_reserved":false,"is_disabled":false,"rental_uris":{"android":"levelo://app?vid=e3de75fa-eb08-4bef-a680-231d1c38a9eb","ios":"levelo://app?vid=e3de75fa-eb08-4bef-a680-231d1c38a9eb"},"vehicle_type_id":"4","last_reported":1728684444,"current_range_meters":34800,"station_id":"ce4bhr92rcd13ifvqhsg","pricing_plan_id":"cebpf4jnsgd1na2vs0mg"},{"bike_id":"e14f7b74-ada3-4a6d-9840-33d43fd32643","system_id":"levelo_inurba_marseille","lat":43.28154,"lon":5.42647,"is_reserved":false,"is_disabled":false,"rental_uris":{"android":"levelo://app?vid=e14f7b74-ada3-4a6d-9840-33d43fd32643","ios":"levelo://app?vid=e14f7b74-ada3-4a6d-9840-33d43fd32643"},"vehicle_type_id":"4","last_reported":1728684444,"current_range_meters":38800,"station_id":"ce4bhnh2rcd13ifvqgug","pricing_plan_id":"cebpf4jnsgd1na2vs0mg"},{"bike_id":"5635ffc0-ec67-420a-82b5-fcc34c4f544a","system_id":"levelo_inurba_marseille","lat":43.30136,"lon":5.37424,"is_reserved":false,"is_disabled":false,"rental_uris":{"android":"levelo://app?vid=5635ffc0-ec67-420a-82b5-fcc34c4f544a","ios":"levelo://app?vid=5635ffc0-ec67-420a-82b5-fcc34c4f544a"},"vehicle_type_id":"4","last_reported":1728684444,"current_range_meters":30000,"station_id":"ce4bgs92rcd13ifvqcc0","pricing_plan_id":"cebpf4jnsgd1na2vs0mg"},{"bike_id":"b27220ce-643c-4cda-b1cf-ddebfd37a8aa","system_id":"levelo_inurba_marseille","lat":43.23186,"lon":5.39986,"is_reserved":false,"is_disabled":false,"rental_uris":{"android":"levelo://app?vid=b27220ce-643c-4cda-b1cf-ddebfd37a8aa","ios":"levelo://app?vid=b27220ce-643c-4cda-b1cf-ddebfd37a8aa"},"vehicle_type_id":"4","last_reported":1728684444,"current_range_meters":38800,"station_id":"ce4bhn12rcd13ifvqgqg","pricing_plan_id":"cebpf4jnsgd1na2vs0mg"},{"bike_id":"3392ebf7-bca0-4284-9786-c6359ba370d8","system_id":"levelo_inurba_marseille","lat":43.27848,"lon":5.3923,"is_reserved":false,"is_disabled":false,"rental_uris":{"android":"levelo://app?vid=3392ebf7-bca0-4284-9786-c6359ba370d8","ios":"levelo://app?vid=3392ebf7-bca0-4284-9786-c6359ba370d8"},"vehicle_type_id":"4","last_reported":1728684444,"current_range_meters":5600,"station_id":"ce4bhjp2rcd13ifvqga0","pricing_plan_id":"cebpf4jnsgd1na2vs0mg"},{"bike_id":"70f98ebc-65a0-4324-a82f-94fd4918b797","system_id":"levelo_inurba_marseille","lat":43.29847,"lon":5.36286,"is_reserved":false,"is_disabled":false,"rental_uris":{"android":"levelo://app?vid=70f98ebc-65a0-4324-a82f-94fd4918b797","ios":"levelo://app?vid=70f98ebc-65a0-4324-a82f-94fd4918b797"},"vehicle_type_id":"4","last_reported":1728684444,"current_range_meters":5600,"station_id":"ce4bgpp2rcd13ifvqc3g","pricing_plan_id":"cebpf4jnsgd1na2vs0mg"},{"bike_id":"c2709d8c-182c-4c66-9678-32143d413767","system_id":"levelo_inurba_marseille","lat":43.2293,"lon":5.35377,"is_reserved":false,"is_disabled":false,"rental_uris":{"android":"levelo://app?vid=c2709d8c-182c-4c66-9678-32143d413767","ios":"levelo://app?vid=c2709d8c-182c-4c66-9678-32143d413767"},"vehicle_type_id":"4","last_reported":1728684444,"current_range_meters":28800,"station_id":"cpo3532slgdg3j2ikp40","pricing_plan_id":"cebpf4jnsgd1na2vs0mg"},{"bike_id":"9795e3a8-775d-458a-888e-29d10d28be1a","system_id":"levelo_inurba_marseille","lat":43.28253,"lon":5.35084,"is_reserved":false,"is_disabled":false,"rental_uris":{"android":"levelo://app?vid=9795e3a8-775d-458a-888e-29d10d28be1a","ios":"levelo://app?vid=9795e3a8-775d-458a-888e-29d10d28be1a"},"vehicle_type_id":"4","last_reported":1728684444,"current_range_meters":9600,"station_id":"ce4bhbp2rcd13ifvqerg","pricing_plan_id":"cebpf4jnsgd1na2vs0mg"},{"bike_id":"cd7ef2d2-cbd3-4cde-acf0-b8da754228a8","system_id":"levelo_inurba_marseille","lat":43.3137,"lon":5.38498,"is_reserved":false,"is_disabled":false,"rental_uris":{"android":"levelo://app?vid=cd7ef2d2-cbd3-4cde-acf0-b8da754228a8","ios":"levelo://app?vid=cd7ef2d2-cbd3-4cde-acf0-b8da754228a8"},"vehicle_type_id":"4","last_reported":1728684444,"current_range_meters":38800,"station_id":"ce4bgt92rcd13ifvqcf0","pricing_plan_id":"cebpf4jnsgd1na2vs0mg"},{"bike_id":"57c19fb9-e976-453a-86a6-a777dfe9160f","system_id":"levelo_inurba_marseille","lat":43.28078,"lon":5.39658,"is_reserved":false,"is_disabled":false,"rental_uris":{"android":"levelo://app?vid=57c19fb9-e976-453a-86a6-a777dfe9160f","ios":"levelo://app?vid=57c19fb9-e976-453a-86a6-a777dfe9160f"},"vehicle_type_id":"4","last_reported":1728684444,"current_range_meters":38800,"station_id":"ce4bho12rcd13ifvqh2g","pricing_plan_id":"cebpf4jnsgd1na2vs0mg"},{"bike_id":"ddab0e12-ba97-4e06-86f6-0b889c402408","system_id":"levelo_inurba_marseille","lat":43.32363,"lon":5.38884,"is_reserved":false,"is_disabled":false,"rental_uris":{"android":"levelo://app?vid=ddab0e12-ba97-4e06-86f6-0b889c402408","ios":"levelo://app?vid=ddab0e12-ba97-4e06-86f6-0b889c402408"},"vehicle_type_id":"4","last_reported":1728684444,"current_range_meters":38800,"station_id":"ce4bhqp2rcd13ifvqhog","pricing_plan_id":"cebpf4jnsgd1na2vs0mg"},{"bike_id":"d8f27de7-199c-451c-b8ae-82228056fa62","system_id":"levelo_inurba_marseille","lat":43.32542,"lon":5.41457,"is_reserved":false,"is_disabled":false,"rental_uris":{"android":"levelo://app?vid=d8f27de7-199c-451c-b8ae-82228056fa62","ios":"levelo://app?vid=d8f27de7-199c-451c-b8ae-82228056fa62"},"vehicle_type_id":"4","last_reported":1728684444,"current_range_meters":38800,"station_id":"ce4bhq12rcd13ifvqhhg","pricing_plan_id":"cebpf4jnsgd1na2vs0mg"},{"bike_id":"fe499ee7-6375-4ecd-b57e-a932fe0f65cf","system_id":"levelo_inurba_marseille","lat":43.33728,"lon":5.391826,"is_reserved":false,"is_disabled":false,"rental_uris":{"android":"levelo://app?vid=fe499ee7-6375-4ecd-b57e-a932fe0f65cf","ios":"levelo://app?vid=fe499ee7-6375-4ecd-b57e-a932fe0f65cf"},"vehicle_type_id":"4","last_reported":1728684444,"current_range_meters":11200,"station_id":"ce4bhr92rcd13ifvqhsg","pricing_plan_id":"cebpf4jnsgd1na2vs0mg"},{"bike_id":"fbffa957-ac49-4590-b223-7d57f26e111b","system_id":"levelo_inurba_marseille","lat":43.322562,"lon":5.382708,"is_reserved":false,"is_disabled":false,"rental_uris":{"android":"levelo://app?vid=fbffa957-ac49-4590-b223-7d57f26e111b","ios":"levelo://app?vid=fbffa957-ac49-4590-b223-7d57f26e111b"},"vehicle_type_id":"4","last_reported":1728684444,"current_range_meters":31200,"station_id":"ce4bhr12rcd13ifvqhqg","pricing_plan_id":"cebpf4jnsgd1na2vs0mg"},{"bike_id":"ac03a479-46d0-4fa1-b7d4-7d04e5c49fa6","system_id":"levelo_inurba_marseille","lat":43.2439,"lon":5.37062,"is_reserved":false,"is_disabled":false,"rental_uris":{"android":"levelo://app?vid=ac03a479-46d0-4fa1-b7d4-7d04e5c49fa6","ios":"levelo://app?vid=ac03a479-46d0-4fa1-b7d4-7d04e5c49fa6"},"vehicle_type_id":"4","last_reported":1728684444,"current_range_meters":39200,"station_id":"ce4bhhh2rcd13ifvqfk0","pricing_plan_id":"cebpf4jnsgd1na2vs0mg"},{"bike_id":"e8134384-9f2e-430f-8d41-28d909a67feb","system_id":"levelo_inurba_marseille","lat":43.30648,"lon":5.40091,"is_reserved":false,"is_disabled":false,"rental_uris":{"android":"levelo://app?vid=e8134384-9f2e-430f-8d41-28d909a67feb","ios":"levelo://app?vid=e8134384-9f2e-430f-8d41-28d909a67feb"},"vehicle_type_id":"4","last_reported":1728684444,"current_range_meters":20000,"station_id":"ce4bh112rcd13ifvqda0","pricing_plan_id":"cebpf4jnsgd1na2vs0mg"},{"bike_id":"3bd6033b-b9e1-4e43-9cda-44c3e3f9f5ad","system_id":"levelo_inurba_marseille","lat":43.32332,"lon":5.40625,"is_reserved":false,"is_disabled":false,"rental_uris":{"android":"levelo://app?vid=3bd6033b-b9e1-4e43-9cda-44c3e3f9f5ad","ios":"levelo://app?vid=3bd6033b-b9e1-4e43-9cda-44c3e3f9f5ad"},"vehicle_type_id":"4","last_reported":1728684444,"current_range_meters":24800,"station_id":"ce4bhq92rcd13ifvqhjg","pricing_plan_id":"cebpf4jnsgd1na2vs0mg"},{"bike_id":"5eda1e4e-8f05-4c52-a6c4-e3483e007081","system_id":"levelo_inurba_marseille","lat":43.30926,"lon":5.40142,"is_reserved":false,"is_disabled":false,"rental_uris":{"android":"levelo://app?vid=5eda1e4e-8f05-4c52-a6c4-e3483e007081","ios":"levelo://app?vid=5eda1e4e-8f05-4c52-a6c4-e3483e007081"},"vehicle_type_id":"4","last_reported":1728684444,"current_range_meters":38800,"station_id":"ce4bgvp2rcd13ifvqct0","pricing_plan_id":"cebpf4jnsgd1na2vs0mg"},{"bike_id":"95463a40-7a55-43e0-8d4b-14638faa31f3","system_id":"levelo_inurba_marseille","lat":43.27175,"lon":5.40992,"is_reserved":false,"is_disabled":false,"rental_uris":{"android":"levelo://app?vid=95463a40-7a55-43e0-8d4b-14638faa31f3","ios":"levelo://app?vid=95463a40-7a55-43e0-8d4b-14638faa31f3"},"vehicle_type_id":"4","last_reported":1728684444,"current_range_meters":6400,"station_id":"ce4bhl12rcd13ifvqgf0","pricing_plan_id":"cebpf4jnsgd1na2vs0mg"},{"bike_id":"6b10fb70-8928-448c-9332-a992ab5f585a","system_id":"levelo_inurba_marseille","lat":43.24995,"lon":5.38933,"is_reserved":false,"is_disabled":false,"rental_uris":{"android":"levelo://app?vid=6b10fb70-8928-448c-9332-a992ab5f585a","ios":"levelo://app?vid=6b10fb70-8928-448c-9332-a992ab5f585a"},"vehicle_type_id":"4","last_reported":1728684444,"current_range_meters":15200,"station_id":"ce4bhgp2rcd13ifvqfd0","pricing_plan_id":"cebpf4jnsgd1na2vs0mg"},{"bike_id":"60393ba7-fb0b-487d-9d6e-7bd68e05f300","system_id":"levelo_inurba_marseille","lat":43.24997,"lon":5.38924,"is_reserved":false,"is_disabled":false,"rental_uris":{"android":"levelo://app?vid=60393ba7-fb0b-487d-9d6e-7bd68e05f300","ios":"levelo://app?vid=60393ba7-fb0b-487d-9d6e-7bd68e05f300"},"vehicle_type_id":"4","last_reported":1728684444,"current_range_meters":22800,"station_id":"ce4bhgp2rcd13ifvqfd0","pricing_plan_id":"cebpf4jnsgd1na2vs0mg"},{"bike_id":"5bc82fca-43af-4201-891c-b197527e32ad","system_id":"levelo_inurba_marseille","lat":43.2318,"lon":5.39985,"is_reserved":false,"is_disabled":false,"rental_uris":{"android":"levelo://app?vid=5bc82fca-43af-4201-891c-b197527e32ad","ios":"levelo://app?vid=5bc82fca-43af-4201-891c-b197527e32ad"},"vehicle_type_id":"4","last_reported":1728684444,"current_range_meters":10800,"station_id":"ce4bhn12rcd13ifvqgqg","pricing_plan_id":"cebpf4jnsgd1na2vs0mg"},{"bike_id":"92602b43-1358-411b-ac5f-fba05beaa878","system_id":"levelo_inurba_marseille","lat":43.28262,"lon":5.3506,"is_reserved":false,"is_disabled":false,"rental_uris":{"android":"levelo://app?vid=92602b43-1358-411b-ac5f-fba05beaa878","ios":"levelo://app?vid=92602b43-1358-411b-ac5f-fba05beaa878"},"vehicle_type_id":"4","last_reported":1728684444,"current_range_meters":20400,"station_id":"ce4bhbp2rcd13ifvqerg","pricing_plan_id":"cebpf4jnsgd1na2vs0mg"},{"bike_id":"8ba759e5-f28c-499c-b8d9-f238b03e5706","system_id":"levelo_inurba_marseille","lat":43.30309,"lon":5.36892,"is_reserved":false,"is_disabled":false,"rental_uris":{"android":"levelo://app?vid=8ba759e5-f28c-499c-b8d9-f238b03e5706","ios":"levelo://app?vid=8ba759e5-f28c-499c-b8d9-f238b03e5706"},"vehicle_type_id":"4","last_reported":1728684444,"current_range_meters":6800,"station_id":"ce4bgqh2rcd13ifvqc5g","pricing_plan_id":"cebpf4jnsgd1na2vs0mg"},{"bike_id":"a49f0919-36fa-4eb4-8b1e-4f56526b00f7","system_id":"levelo_inurba_marseille","lat":43.27173,"lon":5.4099,"is_reserved":false,"is_disabled":false,"rental_uris":{"android":"levelo://app?vid=a49f0919-36fa-4eb4-8b1e-4f56526b00f7","ios":"levelo://app?vid=a49f0919-36fa-4eb4-8b1e-4f56526b00f7"},"vehicle_type_id":"4","last_reported":1728684444,"current_range_meters":14800,"station_id":"ce4bhl12rcd13ifvqgf0","pricing_plan_id":"cebpf4jnsgd1na2vs0mg"},{"bike_id":"23d8589a-f57d-424d-a70a-057d6e0dae5b","system_id":"levelo_inurba_marseille","lat":43.30651,"lon":5.40084,"is_reserved":false,"is_disabled":false,"rental_uris":{"android":"levelo://app?vid=23d8589a-f57d-424d-a70a-057d6e0dae5b","ios":"levelo://app?vid=23d8589a-f57d-424d-a70a-057d6e0dae5b"},"vehicle_type_id":"4","last_reported":1728684444,"current_range_meters":7200,"station_id":"ce4bh112rcd13ifvqda0","pricing_plan_id":"cebpf4jnsgd1na2vs0mg"},{"bike_id":"181f74b0-293f-4d0e-a89c-8e96919b398a","system_id":"levelo_inurba_marseille","lat":43.30883,"lon":5.39638,"is_reserved":false,"is_disabled":false,"rental_uris":{"android":"levelo://app?vid=181f74b0-293f-4d0e-a89c-8e96919b398a","ios":"levelo://app?vid=181f74b0-293f-4d0e-a89c-8e96919b398a"},"vehicle_type_id":"4","last_reported":1728684444,"current_range_meters":5600,"station_id":"ce4bh012rcd13ifvqcv0","pricing_plan_id":"cebpf4jnsgd1na2vs0mg"},{"bike_id":"cb2d0001-0b23-4905-bcd9-014432ad3aa2","system_id":"levelo_inurba_marseille","lat":43.28987,"lon":5.37834,"is_reserved":false,"is_disabled":false,"rental_uris":{"android":"levelo://app?vid=cb2d0001-0b23-4905-bcd9-014432ad3aa2","ios":"levelo://app?vid=cb2d0001-0b23-4905-bcd9-014432ad3aa2"},"vehicle_type_id":"4","last_reported":1728684444,"current_range_meters":26000,"station_id":"ce4bhoh2rcd13ifvqh5g","pricing_plan_id":"cebpf4jnsgd1na2vs0mg"},{"bike_id":"1bf9e9fd-50e1-4cf4-9c20-adc74f4aa391","system_id":"levelo_inurba_marseille","lat":43.3013,"lon":5.38775,"is_reserved":false,"is_disabled":false,"rental_uris":{"android":"levelo://app?vid=1bf9e9fd-50e1-4cf4-9c20-adc74f4aa391","ios":"levelo://app?vid=1bf9e9fd-50e1-4cf4-9c20-adc74f4aa391"},"vehicle_type_id":"4","last_reported":1728684444,"current_range_meters":22800,"station_id":"ce4bghh2rcd13ifvqb60","pricing_plan_id":"cebpf4jnsgd1na2vs0mg"},{"bike_id":"43c9404a-94a6-4312-ba19-34f87f21dfc7","system_id":"levelo_inurba_marseille","lat":43.28712,"lon":5.39983,"is_reserved":false,"is_disabled":false,"rental_uris":{"android":"levelo://app?vid=43c9404a-94a6-4312-ba19-34f87f21dfc7","ios":"levelo://app?vid=43c9404a-94a6-4312-ba19-34f87f21dfc7"},"vehicle_type_id":"4","last_reported":1728684444,"current_range_meters":24400,"station_id":"ce4bho92rcd13ifvqh3g","pricing_plan_id":"cebpf4jnsgd1na2vs0mg"},{"bike_id":"4b7213e6-a006-45b8-ace3-1b88e0921cc9","system_id":"levelo_inurba_marseille","lat":43.29625,"lon":5.37711,"is_reserved":false,"is_disabled":false,"rental_uris":{"android":"levelo://app?vid=4b7213e6-a006-45b8-ace3-1b88e0921cc9","ios":"levelo://app?vid=4b7213e6-a006-45b8-ace3-1b88e0921cc9"},"vehicle_type_id":"4","last_reported":1728684444,"current_range_meters":38800,"station_id":"ce4bgi92rcd13ifvqb90","pricing_plan_id":"cebpf4jnsgd1na2vs0mg"},{"bike_id":"d4cf8c25-ba43-4224-aa32-c57be9cb781c","system_id":"levelo_inurba_marseille","lat":43.30606,"lon":5.37228,"is_reserved":false,"is_disabled":false,"rental_uris":{"android":"levelo://app?vid=d4cf8c25-ba43-4224-aa32-c57be9cb781c","ios":"levelo://app?vid=d4cf8c25-ba43-4224-aa32-c57be9cb781c"},"vehicle_type_id":"4","last_reported":1728684444,"current_range_meters":36400,"station_id":"ce4bgqh2rcd13ifvqc4g","pricing_plan_id":"cebpf4jnsgd1na2vs0mg"},{"bike_id":"ff68b789-7173-415f-860f-fb58c1b9d01d","system_id":"levelo_inurba_marseille","lat":43.22929,"lon":5.3538,"is_reserved":false,"is_disabled":false,"rental_uris":{"android":"levelo://app?vid=ff68b789-7173-415f-860f-fb58c1b9d01d","ios":"levelo://app?vid=ff68b789-7173-415f-860f-fb58c1b9d01d"},"vehicle_type_id":"4","last_reported":1728684444,"current_range_meters":28800,"station_id":"cpo3532slgdg3j2ikp40","pricing_plan_id":"cebpf4jnsgd1na2vs0mg"},{"bike_id":"57ed6f37-1825-4ff5-969a-7dab7ae663f3","system_id":"levelo_inurba_marseille","lat":43.29199,"lon":5.39326,"is_reserved":false,"is_disabled":false,"rental_uris":{"android":"levelo://app?vid=57ed6f37-1825-4ff5-969a-7dab7ae663f3","ios":"levelo://app?vid=57ed6f37-1825-4ff5-969a-7dab7ae663f3"},"vehicle_type_id":"4","last_reported":1728684444,"current_range_meters":22000,"station_id":"ce4bh192rcd13ifvqdd0","pricing_plan_id":"cebpf4jnsgd1na2vs0mg"},{"bike_id":"e4d4b18b-ebc6-434b-9a32-10cd0cb26283","system_id":"levelo_inurba_marseille","lat":43.29556,"lon":5.42294,"is_reserved":false,"is_disabled":false,"rental_uris":{"android":"levelo://app?vid=e4d4b18b-ebc6-434b-9a32-10cd0cb26283","ios":"levelo://app?vid=e4d4b18b-ebc6-434b-9a32-10cd0cb26283"},"vehicle_type_id":"4","last_reported":1728684444,"current_range_meters":7200,"station_id":"ce4bhph2rcd13ifvqhdg","pricing_plan_id":"cebpf4jnsgd1na2vs0mg"},{"bike_id":"6cb5b02c-2401-484a-8b7d-b4d2106d6b08","system_id":"levelo_inurba_marseille","lat":43.2319,"lon":5.35558,"is_reserved":false,"is_disabled":false,"rental_uris":{"android":"levelo://app?vid=6cb5b02c-2401-484a-8b7d-b4d2106d6b08","ios":"levelo://app?vid=6cb5b02c-2401-484a-8b7d-b4d2106d6b08"},"vehicle_type_id":"4","last_reported":1728684444,"current_range_meters":35200,"station_id":"ce4bhu92rcd13ifvqi70","pricing_plan_id":"cebpf4jnsgd1na2vs0mg"},{"bike_id":"751ab8f4-b66e-4832-9b92-433be04fd785","system_id":"levelo_inurba_marseille","lat":43.33025,"lon":5.39037,"is_reserved":false,"is_disabled":false,"rental_uris":{"android":"levelo://app?vid=751ab8f4-b66e-4832-9b92-433be04fd785","ios":"levelo://app?vid=751ab8f4-b66e-4832-9b92-433be04fd785"},"vehicle_type_id":"4","last_reported":1728684444,"current_range_meters":26800,"station_id":"ce4bhr92rcd13ifvqhrg","pricing_plan_id":"cebpf4jnsgd1na2vs0mg"},{"bike_id":"461cadf8-4f61-47fd-8829-1d12d9b635b6","system_id":"levelo_inurba_marseille","lat":43.31761,"lon":5.39012,"is_reserved":false,"is_disabled":false,"rental_uris":{"android":"levelo://app?vid=461cadf8-4f61-47fd-8829-1d12d9b635b6","ios":"levelo://app?vid=461cadf8-4f61-47fd-8829-1d12d9b635b6"},"vehicle_type_id":"4","last_reported":1728684444,"current_range_meters":37600,"station_id":"ce4bhqp2rcd13ifvqhng","pricing_plan_id":"cebpf4jnsgd1na2vs0mg"},{"bike_id":"4d47a58c-ff2d-49b9-9f72-26e1bdbe83d6","system_id":"levelo_inurba_marseille","lat":43.30143,"lon":5.37418,"is_reserved":false,"is_disabled":false,"rental_uris":{"android":"levelo://app?vid=4d47a58c-ff2d-49b9-9f72-26e1bdbe83d6","ios":"levelo://app?vid=4d47a58c-ff2d-49b9-9f72-26e1bdbe83d6"},"vehicle_type_id":"4","last_reported":1728684444,"current_range_meters":16000,"station_id":"ce4bgs92rcd13ifvqcc0","pricing_plan_id":"cebpf4jnsgd1na2vs0mg"},{"bike_id":"a6f101ba-ce20-4c36-9a53-277496ed829c","system_id":"levelo_inurba_marseille","lat":43.31116,"lon":5.37758,"is_reserved":false,"is_disabled":false,"rental_uris":{"android":"levelo://app?vid=a6f101ba-ce20-4c36-9a53-277496ed829c","ios":"levelo://app?vid=a6f101ba-ce20-4c36-9a53-277496ed829c"},"vehicle_type_id":"4","last_reported":1728684444,"current_range_meters":26800,"station_id":"ce4bgt92rcd13ifvqcg0","pricing_plan_id":"cebpf4jnsgd1na2vs0mg"},{"bike_id":"d2c59210-688d-4fb5-942f-9c513d2faa7d","system_id":"levelo_inurba_marseille","lat":43.30128,"lon":5.39857,"is_reserved":false,"is_disabled":false,"rental_uris":{"android":"levelo://app?vid=d2c59210-688d-4fb5-942f-9c513d2faa7d","ios":"levelo://app?vid=d2c59210-688d-4fb5-942f-9c513d2faa7d"},"vehicle_type_id":"4","last_reported":1728684444,"current_range_meters":10000,"station_id":"ce4bh0h2rcd13ifvqd40","pricing_plan_id":"cebpf4jnsgd1na2vs0mg"},{"bike_id":"66726cf5-3a4b-4d8b-9a16-802de767ca65","system_id":"levelo_inurba_marseille","lat":43.2846,"lon":5.35872,"is_reserved":false,"is_disabled":false,"rental_uris":{"android":"levelo://app?vid=66726cf5-3a4b-4d8b-9a16-802de767ca65","ios":"levelo://app?vid=66726cf5-3a4b-4d8b-9a16-802de767ca65"},"vehicle_type_id":"4","last_reported":1728684444,"current_range_meters":2000,"station_id":"ce4bhah2rcd13ifvqei0","pricing_plan_id":"cebpf4jnsgd1na2vs0mg"},{"bike_id":"b7ccc876-2133-4ac1-abb7-13055af0c477","system_id":"levelo_inurba_marseille","lat":43.29197,"lon":5.4074,"is_reserved":false,"is_disabled":false,"rental_uris":{"android":"levelo://app?vid=b7ccc876-2133-4ac1-abb7-13055af0c477","ios":"levelo://app?vid=b7ccc876-2133-4ac1-abb7-13055af0c477"},"vehicle_type_id":"4","last_reported":1728684444,"current_range_meters":22400,"station_id":"","pricing_plan_id":"cebpf4jnsgd1na2vs0mg"},{"bike_id":"74b71dea-f5e6-4b43-b66b-181db5a0d47f","system_id":"levelo_inurba_marseille","lat":43.28664,"lon":5.36353,"is_reserved":false,"is_disabled":false,"rental_uris":{"android":"levelo://app?vid=74b71dea-f5e6-4b43-b66b-181db5a0d47f","ios":"levelo://app?vid=74b71dea-f5e6-4b43-b66b-181db5a0d47f"},"vehicle_type_id":"4","last_reported":1728684444,"current_range_meters":38800,"station_id":"ce4bhah2rcd13ifvqej0","pricing_plan_id":"cebpf4jnsgd1na2vs0mg"},{"bike_id":"f80c2e75-b47f-4161-9783-8454957aba75","system_id":"levelo_inurba_marseille","lat":43.32097,"lon":5.3677,"is_reserved":false,"is_disabled":false,"rental_uris":{"android":"levelo://app?vid=f80c2e75-b47f-4161-9783-8454957aba75","ios":"levelo://app?vid=f80c2e75-b47f-4161-9783-8454957aba75"},"vehicle_type_id":"4","last_reported":1728684444,"current_range_meters":38800,"station_id":"ce4bhrh2rcd13ifvqhug","pricing_plan_id":"cebpf4jnsgd1na2vs0mg"},{"bike_id":"264d2141-1e20-485f-a145-9f11d899c8da","system_id":"levelo_inurba_marseille","lat":43.3171,"lon":5.43703,"is_reserved":false,"is_disabled":false,"rental_uris":{"android":"levelo://app?vid=264d2141-1e20-485f-a145-9f11d899c8da","ios":"levelo://app?vid=264d2141-1e20-485f-a145-9f11d899c8da"},"vehicle_type_id":"4","last_reported":1728684444,"current_range_meters":20800,"station_id":"ce4bhp92rcd13ifvqhcg","pricing_plan_id":"cebpf4jnsgd1na2vs0mg"},{"bike_id":"47800cc3-b4aa-4d02-bd42-90cb5272b1a4","system_id":"levelo_inurba_marseille","lat":43.23186,"lon":5.39986,"is_reserved":false,"is_disabled":false,"rental_uris":{"android":"levelo://app?vid=47800cc3-b4aa-4d02-bd42-90cb5272b1a4","ios":"levelo://app?vid=47800cc3-b4aa-4d02-bd42-90cb5272b1a4"},"vehicle_type_id":"4","last_reported":1728684444,"current_range_meters":23200,"station_id":"ce4bhn12rcd13ifvqgqg","pricing_plan_id":"cebpf4jnsgd1na2vs0mg"},{"bike_id":"df17eff2-8021-4979-a2b0-b8b956c3dafc","system_id":"levelo_inurba_marseille","lat":43.27168,"lon":5.40988,"is_reserved":false,"is_disabled":false,"rental_uris":{"android":"levelo://app?vid=df17eff2-8021-4979-a2b0-b8b956c3dafc","ios":"levelo://app?vid=df17eff2-8021-4979-a2b0-b8b956c3dafc"},"vehicle_type_id":"4","last_reported":1728684444,"current_range_meters":6000,"station_id":"ce4bhl12rcd13ifvqgf0","pricing_plan_id":"cebpf4jnsgd1na2vs0mg"},{"bike_id":"cab1a808-bbfc-447d-bf73-9b89a6db647e","system_id":"levelo_inurba_marseille","lat":43.27812,"lon":5.40714,"is_reserved":false,"is_disabled":false,"rental_uris":{"android":"levelo://app?vid=cab1a808-bbfc-447d-bf73-9b89a6db647e","ios":"levelo://app?vid=cab1a808-bbfc-447d-bf73-9b89a6db647e"},"vehicle_type_id":"4","last_reported":1728684444,"current_range_meters":9600,"station_id":"ce4bhnh2rcd13ifvqgtg","pricing_plan_id":"cebpf4jnsgd1na2vs0mg"},{"bike_id":"6fe820a6-9ea2-4777-8de2-e97d1b250045","system_id":"levelo_inurba_marseille","lat":43.29629,"lon":5.40597,"is_reserved":false,"is_disabled":false,"rental_uris":{"android":"levelo://app?vid=6fe820a6-9ea2-4777-8de2-e97d1b250045","ios":"levelo://app?vid=6fe820a6-9ea2-4777-8de2-e97d1b250045"},"vehicle_type_id":"4","last_reported":1728684444,"current_range_meters":12400,"station_id":"ce4bh0h2rcd13ifvqd60","pricing_plan_id":"cebpf4jnsgd1na2vs0mg"},{"bike_id":"abbbe024-e9b8-4117-8526-aa065e18e10f","system_id":"levelo_inurba_marseille","lat":43.29034,"lon":5.37575,"is_reserved":false,"is_disabled":false,"rental_uris":{"android":"levelo://app?vid=abbbe024-e9b8-4117-8526-aa065e18e10f","ios":"levelo://app?vid=abbbe024-e9b8-4117-8526-aa065e18e10f"},"vehicle_type_id":"4","last_reported":1728684444,"current_range_meters":4800,"station_id":"ce4bh692rcd13ifvqe90","pricing_plan_id":"cebpf4jnsgd1na2vs0mg"},{"bike_id":"b933402b-d1ca-49a8-bbf7-fb19281d941c","system_id":"levelo_inurba_marseille","lat":43.23195,"lon":5.35563,"is_reserved":false,"is_disabled":false,"rental_uris":{"android":"levelo://app?vid=b933402b-d1ca-49a8-bbf7-fb19281d941c","ios":"levelo://app?vid=b933402b-d1ca-49a8-bbf7-fb19281d941c"},"vehicle_type_id":"4","last_reported":1728684444,"current_range_meters":24800,"station_id":"ce4bhu92rcd13ifvqi70","pricing_plan_id":"cebpf4jnsgd1na2vs0mg"},{"bike_id":"6cf88230-62a2-44a3-b59e-c9b25f770edd","system_id":"levelo_inurba_marseille","lat":43.24661,"lon":5.38165,"is_reserved":false,"is_disabled":false,"rental_uris":{"android":"levelo://app?vid=6cf88230-62a2-44a3-b59e-c9b25f770edd","ios":"levelo://app?vid=6cf88230-62a2-44a3-b59e-c9b25f770edd"},"vehicle_type_id":"4","last_reported":1728684444,"current_range_meters":30800,"station_id":"ce4bhih2rcd13ifvqfr0","pricing_plan_id":"cebpf4jnsgd1na2vs0mg"},{"bike_id":"adc92101-8579-406c-bd4a-5a4c768356dd","system_id":"levelo_inurba_marseille","lat":43.29193,"lon":5.3581,"is_reserved":false,"is_disabled":false,"rental_uris":{"android":"levelo://app?vid=adc92101-8579-406c-bd4a-5a4c768356dd","ios":"levelo://app?vid=adc92101-8579-406c-bd4a-5a4c768356dd"},"vehicle_type_id":"4","last_reported":1728684444,"current_range_meters":37600,"station_id":"ce4bhb12rcd13ifvqel0","pricing_plan_id":"cebpf4jnsgd1na2vs0mg"},{"bike_id":"934c41a5-ce93-46a1-a494-3ae14076bbf1","system_id":"levelo_inurba_marseille","lat":43.31073,"lon":5.38345,"is_reserved":false,"is_disabled":false,"rental_uris":{"android":"levelo://app?vid=934c41a5-ce93-46a1-a494-3ae14076bbf1","ios":"levelo://app?vid=934c41a5-ce93-46a1-a494-3ae14076bbf1"},"vehicle_type_id":"4","last_reported":1728684444,"current_range_meters":38800,"station_id":"ce4bgv92rcd13ifvqcr0","pricing_plan_id":"cebpf4jnsgd1na2vs0mg"},{"bike_id":"aeabab61-1f42-410d-b606-563d91c535e3","system_id":"levelo_inurba_marseille","lat":43.29788,"lon":5.39349,"is_reserved":false,"is_disabled":false,"rental_uris":{"android":"levelo://app?vid=aeabab61-1f42-410d-b606-563d91c535e3","ios":"levelo://app?vid=aeabab61-1f42-410d-b606-563d91c535e3"},"vehicle_type_id":"4","last_reported":1728684444,"current_range_meters":28400,"station_id":"chh1huq6cuj3fo74tm60","pricing_plan_id":"cebpf4jnsgd1na2vs0mg"},{"bike_id":"9d1d620b-66c5-4751-b96b-2d2834ca74c8","system_id":"levelo_inurba_marseille","lat":43.34131,"lon":5.40907,"is_reserved":false,"is_disabled":false,"rental_uris":{"android":"levelo://app?vid=9d1d620b-66c5-4751-b96b-2d2834ca74c8","ios":"levelo://app?vid=9d1d620b-66c5-4751-b96b-2d2834ca74c8"},"vehicle_type_id":"4","last_reported":1728684444,"current_range_meters":37600,"station_id":"ce4bhqh2rcd13ifvqhlg","pricing_plan_id":"cebpf4jnsgd1na2vs0mg"},{"bike_id":"3871984b-2d7d-41a4-9aa7-2f8c4ecb9958","system_id":"levelo_inurba_marseille","lat":43.28096,"lon":5.3783,"is_reserved":false,"is_disabled":false,"rental_uris":{"android":"levelo://app?vid=3871984b-2d7d-41a4-9aa7-2f8c4ecb9958","ios":"levelo://app?vid=3871984b-2d7d-41a4-9aa7-2f8c4ecb9958"},"vehicle_type_id":"4","last_reported":1728684444,"current_range_meters":11600,"station_id":"ce4bha12rcd13ifvqee0","pricing_plan_id":"cebpf4jnsgd1na2vs0mg"},{"bike_id":"680557fc-1eaa-4eca-a825-dd0ace821121","system_id":"levelo_inurba_marseille","lat":43.30809,"lon":5.38129,"is_reserved":false,"is_disabled":false,"rental_uris":{"android":"levelo://app?vid=680557fc-1eaa-4eca-a825-dd0ace821121","ios":"levelo://app?vid=680557fc-1eaa-4eca-a825-dd0ace821121"},"vehicle_type_id":"4","last_reported":1728684444,"current_range_meters":28400,"station_id":"ce4bgt12rcd13ifvqce0","pricing_plan_id":"cebpf4jnsgd1na2vs0mg"},{"bike_id":"2a932492-0f15-4cf0-823e-1ce1b91d20ad","system_id":"levelo_inurba_marseille","lat":43.27991,"lon":5.41668,"is_reserved":false,"is_disabled":false,"rental_uris":{"android":"levelo://app?vid=2a932492-0f15-4cf0-823e-1ce1b91d20ad","ios":"levelo://app?vid=2a932492-0f15-4cf0-823e-1ce1b91d20ad"},"vehicle_type_id":"4","last_reported":1728684444,"current_range_meters":35600,"station_id":"ce4bho12rcd13ifvqh1g","pricing_plan_id":"cebpf4jnsgd1na2vs0mg"},{"bike_id":"484a4c63-4ef1-4433-b27a-9a9ca5ad2f9a","system_id":"levelo_inurba_marseille","lat":43.22926,"lon":5.35381,"is_reserved":false,"is_disabled":false,"rental_uris":{"android":"levelo://app?vid=484a4c63-4ef1-4433-b27a-9a9ca5ad2f9a","ios":"levelo://app?vid=484a4c63-4ef1-4433-b27a-9a9ca5ad2f9a"},"vehicle_type_id":"4","last_reported":1728684444,"current_range_meters":14400,"station_id":"cpo3532slgdg3j2ikp40","pricing_plan_id":"cebpf4jnsgd1na2vs0mg"},{"bike_id":"ac630ff4-f036-4870-b81a-553d503e95d1","system_id":"levelo_inurba_marseille","lat":43.29246,"lon":5.40907,"is_reserved":false,"is_disabled":false,"rental_uris":{"android":"levelo://app?vid=ac630ff4-f036-4870-b81a-553d503e95d1","ios":"levelo://app?vid=ac630ff4-f036-4870-b81a-553d503e95d1"},"vehicle_type_id":"4","last_reported":1728684444,"current_range_meters":33600,"station_id":"ce4bh192rcd13ifvqdc0","pricing_plan_id":"cebpf4jnsgd1na2vs0mg"},{"bike_id":"d0b088d3-6264-4aa6-ba44-1f1f7da21cfb","system_id":"levelo_inurba_marseille","lat":43.30593,"lon":5.39358,"is_reserved":false,"is_disabled":false,"rental_uris":{"android":"levelo://app?vid=d0b088d3-6264-4aa6-ba44-1f1f7da21cfb","ios":"levelo://app?vid=d0b088d3-6264-4aa6-ba44-1f1f7da21cfb"},"vehicle_type_id":"4","last_reported":1728684444,"current_range_meters":8000,"station_id":"ce4bh0p2rcd13ifvqd80","pricing_plan_id":"cebpf4jnsgd1na2vs0mg"},{"bike_id":"e6336660-e5d0-4336-aab6-9e2081b4b551","system_id":"levelo_inurba_marseille","lat":43.33721,"lon":5.39198,"is_reserved":false,"is_disabled":false,"rental_uris":{"android":"levelo://app?vid=e6336660-e5d0-4336-aab6-9e2081b4b551","ios":"levelo://app?vid=e6336660-e5d0-4336-aab6-9e2081b4b551"},"vehicle_type_id":"4","last_reported":1728684444,"current_range_meters":27200,"station_id":"ce4bhr92rcd13ifvqhsg","pricing_plan_id":"cebpf4jnsgd1na2vs0mg"},{"bike_id":"eea7b379-dd77-40f6-878f-9bf82690cfa0","system_id":"levelo_inurba_marseille","lat":43.30074,"lon":5.37046,"is_reserved":false,"is_disabled":false,"rental_uris":{"android":"levelo://app?vid=eea7b379-dd77-40f6-878f-9bf82690cfa0","ios":"levelo://app?vid=eea7b379-dd77-40f6-878f-9bf82690cfa0"},"vehicle_type_id":"4","last_reported":1728684444,"current_range_meters":20000,"station_id":"","pricing_plan_id":"cebpf4jnsgd1na2vs0mg"},{"bike_id":"c7932ebc-40c2-41af-92e1-9d5f28b5738a","system_id":"levelo_inurba_marseille","lat":43.23183,"lon":5.39982,"is_reserved":false,"is_disabled":false,"rental_uris":{"android":"levelo://app?vid=c7932ebc-40c2-41af-92e1-9d5f28b5738a","ios":"levelo://app?vid=c7932ebc-40c2-41af-92e1-9d5f28b5738a"},"vehicle_type_id":"4","last_reported":1728684444,"current_range_meters":7200,"station_id":"ce4bhn12rcd13ifvqgqg","pricing_plan_id":"cebpf4jnsgd1na2vs0mg"},{"bike_id":"0bb7ddfd-36b6-4bca-9b60-fa225ffd9753","system_id":"levelo_inurba_marseille","lat":43.25853,"lon":5.39908,"is_reserved":false,"is_disabled":false,"rental_uris":{"android":"levelo://app?vid=0bb7ddfd-36b6-4bca-9b60-fa225ffd9753","ios":"levelo://app?vid=0bb7ddfd-36b6-4bca-9b60-fa225ffd9753"},"vehicle_type_id":"4","last_reported":1728684444,"current_range_meters":23200,"station_id":"ce4bhl92rcd13ifvqghg","pricing_plan_id":"cebpf4jnsgd1na2vs0mg"},{"bike_id":"5b9f2409-af94-4530-bdcb-ef3b7e257a37","system_id":"levelo_inurba_marseille","lat":43.31998,"lon":5.3815,"is_reserved":false,"is_disabled":false,"rental_uris":{"android":"levelo://app?vid=5b9f2409-af94-4530-bdcb-ef3b7e257a37","ios":"levelo://app?vid=5b9f2409-af94-4530-bdcb-ef3b7e257a37"},"vehicle_type_id":"4","last_reported":1728684444,"current_range_meters":38800,"station_id":"ce4bhr12rcd13ifvqhpg","pricing_plan_id":"cebpf4jnsgd1na2vs0mg"},{"bike_id":"931283d9-4488-4091-82a7-2259c07010f6","system_id":"levelo_inurba_marseille","lat":43.29526,"lon":5.39047,"is_reserved":false,"is_disabled":false,"rental_uris":{"android":"levelo://app?vid=931283d9-4488-4091-82a7-2259c07010f6","ios":"levelo://app?vid=931283d9-4488-4091-82a7-2259c07010f6"},"vehicle_type_id":"4","last_reported":1728684444,"current_range_meters":38800,"station_id":"ce4bh3p2rcd13ifvqdp0","pricing_plan_id":"cebpf4jnsgd1na2vs0mg"},{"bike_id":"1daa9aba-edf3-4752-8919-ce8a71ac9a5b","system_id":"levelo_inurba_marseille","lat":43.30644,"lon":5.40084,"is_reserved":false,"is_disabled":false,"rental_uris":{"android":"levelo://app?vid=1daa9aba-edf3-4752-8919-ce8a71ac9a5b","ios":"levelo://app?vid=1daa9aba-edf3-4752-8919-ce8a71ac9a5b"},"vehicle_type_id":"4","last_reported":1728684444,"current_range_meters":36800,"station_id":"ce4bh112rcd13ifvqda0","pricing_plan_id":"cebpf4jnsgd1na2vs0mg"},{"bike_id":"9420c6dc-b19d-4421-8c0c-72e39b809c6b","system_id":"levelo_inurba_marseille","lat":43.2293,"lon":5.35377,"is_reserved":false,"is_disabled":false,"rental_uris":{"android":"levelo://app?vid=9420c6dc-b19d-4421-8c0c-72e39b809c6b","ios":"levelo://app?vid=9420c6dc-b19d-4421-8c0c-72e39b809c6b"},"vehicle_type_id":"4","last_reported":1728684444,"current_range_meters":38800,"station_id":"cpo3532slgdg3j2ikp40","pricing_plan_id":"cebpf4jnsgd1na2vs0mg"},{"bike_id":"5a5649e8-a9bc-4d0f-be41-ed6fc56a9baf","system_id":"levelo_inurba_marseille","lat":43.22925,"lon":5.35379,"is_reserved":false,"is_disabled":false,"rental_uris":{"android":"levelo://app?vid=5a5649e8-a9bc-4d0f-be41-ed6fc56a9baf","ios":"levelo://app?vid=5a5649e8-a9bc-4d0f-be41-ed6fc56a9baf"},"vehicle_type_id":"4","last_reported":1728684444,"current_range_meters":35600,"station_id":"cpo3532slgdg3j2ikp40","pricing_plan_id":"cebpf4jnsgd1na2vs0mg"},{"bike_id":"96e4232a-04ab-447a-83b4-72d7588068e6","system_id":"levelo_inurba_marseille","lat":43.28936,"lon":5.38381,"is_reserved":false,"is_disabled":false,"rental_uris":{"android":"levelo://app?vid=96e4232a-04ab-447a-83b4-72d7588068e6","ios":"levelo://app?vid=96e4232a-04ab-447a-83b4-72d7588068e6"},"vehicle_type_id":"4","last_reported":1728684444,"current_range_meters":6400,"station_id":"ce4bh612rcd13ifvqe6g","pricing_plan_id":"cebpf4jnsgd1na2vs0mg"},{"bike_id":"d66fdf2f-07a9-4b26-b71a-667699602f45","system_id":"levelo_inurba_marseille","lat":43.27941,"lon":5.41041,"is_reserved":false,"is_disabled":false,"rental_uris":{"android":"levelo://app?vid=d66fdf2f-07a9-4b26-b71a-667699602f45","ios":"levelo://app?vid=d66fdf2f-07a9-4b26-b71a-667699602f45"},"vehicle_type_id":"4","last_reported":1728684444,"current_range_meters":8400,"station_id":"ce4bhnp2rcd13ifvqh0g","pricing_plan_id":"cebpf4jnsgd1na2vs0mg"},{"bike_id":"e7b80a9d-8eab-4c55-afa3-0f8d67be8e22","system_id":"levelo_inurba_marseille","lat":43.24387,"lon":5.37054,"is_reserved":false,"is_disabled":false,"rental_uris":{"android":"levelo://app?vid=e7b80a9d-8eab-4c55-afa3-0f8d67be8e22","ios":"levelo://app?vid=e7b80a9d-8eab-4c55-afa3-0f8d67be8e22"},"vehicle_type_id":"4","last_reported":1728684444,"current_range_meters":28800,"station_id":"ce4bhhh2rcd13ifvqfk0","pricing_plan_id":"cebpf4jnsgd1na2vs0mg"},{"bike_id":"379d6363-9152-4e84-bd42-6ec02dd02b54","system_id":"levelo_inurba_marseille","lat":43.31995,"lon":5.38151,"is_reserved":false,"is_disabled":false,"rental_uris":{"android":"levelo://app?vid=379d6363-9152-4e84-bd42-6ec02dd02b54","ios":"levelo://app?vid=379d6363-9152-4e84-bd42-6ec02dd02b54"},"vehicle_type_id":"4","last_reported":1728684444,"current_range_meters":38800,"station_id":"ce4bhr12rcd13ifvqhpg","pricing_plan_id":"cebpf4jnsgd1na2vs0mg"},{"bike_id":"8fb2b431-bcb9-46ba-80fb-e26e84592fc5","system_id":"levelo_inurba_marseille","lat":43.23192,"lon":5.35555,"is_reserved":false,"is_disabled":false,"rental_uris":{"android":"levelo://app?vid=8fb2b431-bcb9-46ba-80fb-e26e84592fc5","ios":"levelo://app?vid=8fb2b431-bcb9-46ba-80fb-e26e84592fc5"},"vehicle_type_id":"4","last_reported":1728684444,"current_range_meters":35600,"station_id":"ce4bhu92rcd13ifvqi70","pricing_plan_id":"cebpf4jnsgd1na2vs0mg"},{"bike_id":"d25e2e0f-501d-4262-8147-167fff2c0578","system_id":"levelo_inurba_marseille","lat":43.30932,"lon":5.40138,"is_reserved":false,"is_disabled":false,"rental_uris":{"android":"levelo://app?vid=d25e2e0f-501d-4262-8147-167fff2c0578","ios":"levelo://app?vid=d25e2e0f-501d-4262-8147-167fff2c0578"},"vehicle_type_id":"4","last_reported":1728684444,"current_range_meters":13600,"station_id":"ce4bgvp2rcd13ifvqct0","pricing_plan_id":"cebpf4jnsgd1na2vs0mg"},{"bike_id":"a53b276c-67b6-4397-8369-5717d22041e1","system_id":"levelo_inurba_marseille","lat":43.30886,"lon":5.39635,"is_reserved":false,"is_disabled":false,"rental_uris":{"android":"levelo://app?vid=a53b276c-67b6-4397-8369-5717d22041e1","ios":"levelo://app?vid=a53b276c-67b6-4397-8369-5717d22041e1"},"vehicle_type_id":"4","last_reported":1728684444,"current_range_meters":17200,"station_id":"ce4bh012rcd13ifvqcv0","pricing_plan_id":"cebpf4jnsgd1na2vs0mg"},{"bike_id":"33382ad5-301e-4225-b07e-4ebef7096343","system_id":"levelo_inurba_marseille","lat":43.24073,"lon":5.37755,"is_reserved":false,"is_disabled":false,"rental_uris":{"android":"levelo://app?vid=33382ad5-301e-4225-b07e-4ebef7096343","ios":"levelo://app?vid=33382ad5-301e-4225-b07e-4ebef7096343"},"vehicle_type_id":"4","last_reported":1728684444,"current_range_meters":10800,"station_id":"ce4bhnp2rcd13ifvqgvg","pricing_plan_id":"cebpf4jnsgd1na2vs0mg"},{"bike_id":"8233b71b-891a-4e52-ba59-3fa8be51a63e","system_id":"levelo_inurba_marseille","lat":43.264816,"lon":5.395421,"is_reserved":false,"is_disabled":false,"rental_uris":{"android":"levelo://app?vid=8233b71b-891a-4e52-ba59-3fa8be51a63e","ios":"levelo://app?vid=8233b71b-891a-4e52-ba59-3fa8be51a63e"},"vehicle_type_id":"4","last_reported":1728684444,"current_range_meters":38400,"station_id":"ce4bhi12rcd13ifvqfq0","pricing_plan_id":"cebpf4jnsgd1na2vs0mg"},{"bike_id":"ada7472e-6027-403a-a239-d414f24cd2e0","system_id":"levelo_inurba_marseille","lat":43.32331,"lon":5.40616,"is_reserved":false,"is_disabled":false,"rental_uris":{"android":"levelo://app?vid=ada7472e-6027-403a-a239-d414f24cd2e0","ios":"levelo://app?vid=ada7472e-6027-403a-a239-d414f24cd2e0"},"vehicle_type_id":"4","last_reported":1728684444,"current_range_meters":35200,"station_id":"ce4bhq92rcd13ifvqhjg","pricing_plan_id":"cebpf4jnsgd1na2vs0mg"},{"bike_id":"7e1ddba8-7450-4208-9e1f-1b36cd00e2bc","system_id":"levelo_inurba_marseille","lat":43.31884,"lon":5.40725,"is_reserved":false,"is_disabled":false,"rental_uris":{"android":"levelo://app?vid=7e1ddba8-7450-4208-9e1f-1b36cd00e2bc","ios":"levelo://app?vid=7e1ddba8-7450-4208-9e1f-1b36cd00e2bc"},"vehicle_type_id":"4","last_reported":1728684444,"current_range_meters":17200,"station_id":"ce4bhq12rcd13ifvqhig","pricing_plan_id":"cebpf4jnsgd1na2vs0mg"},{"bike_id":"e2075a69-6eee-4e64-9b40-d9629240054e","system_id":"levelo_inurba_marseille","lat":43.30611,"lon":5.37214,"is_reserved":false,"is_disabled":false,"rental_uris":{"android":"levelo://app?vid=e2075a69-6eee-4e64-9b40-d9629240054e","ios":"levelo://app?vid=e2075a69-6eee-4e64-9b40-d9629240054e"},"vehicle_type_id":"4","last_reported":1728684444,"current_range_meters":8000,"station_id":"ce4bgqh2rcd13ifvqc4g","pricing_plan_id":"cebpf4jnsgd1na2vs0mg"},{"bike_id":"a27554a6-a50a-485f-8f1f-4487a4aa2e01","system_id":"levelo_inurba_marseille","lat":43.30598,"lon":5.38076,"is_reserved":false,"is_disabled":false,"rental_uris":{"android":"levelo://app?vid=a27554a6-a50a-485f-8f1f-4487a4aa2e01","ios":"levelo://app?vid=a27554a6-a50a-485f-8f1f-4487a4aa2e01"},"vehicle_type_id":"4","last_reported":1728684444,"current_range_meters":29600,"station_id":"","pricing_plan_id":"cebpf4jnsgd1na2vs0mg"},{"bike_id":"15950427-53d4-4f8f-904a-876c198ae26c","system_id":"levelo_inurba_marseille","lat":43.27975,"lon":5.38736,"is_reserved":false,"is_disabled":false,"rental_uris":{"android":"levelo://app?vid=15950427-53d4-4f8f-904a-876c198ae26c","ios":"levelo://app?vid=15950427-53d4-4f8f-904a-876c198ae26c"},"vehicle_type_id":"4","last_reported":1728684444,"current_range_meters":26000,"station_id":"ce4bhg12rcd13ifvqf80","pricing_plan_id":"cebpf4jnsgd1na2vs0mg"},{"bike_id":"e4e0c7d9-743e-4987-b12c-cc30909aebea","system_id":"levelo_inurba_marseille","lat":43.24649,"lon":5.38898,"is_reserved":false,"is_disabled":false,"rental_uris":{"android":"levelo://app?vid=e4e0c7d9-743e-4987-b12c-cc30909aebea","ios":"levelo://app?vid=e4e0c7d9-743e-4987-b12c-cc30909aebea"},"vehicle_type_id":"4","last_reported":1728684444,"current_range_meters":17200,"station_id":"ce4bhg12rcd13ifvqf60","pricing_plan_id":"cebpf4jnsgd1na2vs0mg"},{"bike_id":"549aa92d-1d57-4f68-860e-b86ca10a5955","system_id":"levelo_inurba_marseille","lat":43.32287,"lon":5.38272,"is_reserved":false,"is_disabled":false,"rental_uris":{"android":"levelo://app?vid=549aa92d-1d57-4f68-860e-b86ca10a5955","ios":"levelo://app?vid=549aa92d-1d57-4f68-860e-b86ca10a5955"},"vehicle_type_id":"4","last_reported":1728684444,"current_range_meters":38000,"station_id":"ce4bhr12rcd13ifvqhqg","pricing_plan_id":"cebpf4jnsgd1na2vs0mg"},{"bike_id":"7bc4ef3b-d635-4d8d-b2e2-625ed0b168a2","system_id":"levelo_inurba_marseille","lat":43.28614,"lon":5.351,"is_reserved":false,"is_disabled":false,"rental_uris":{"android":"levelo://app?vid=7bc4ef3b-d635-4d8d-b2e2-625ed0b168a2","ios":"levelo://app?vid=7bc4ef3b-d635-4d8d-b2e2-625ed0b168a2"},"vehicle_type_id":"4","last_reported":1728684444,"current_range_meters":22800,"station_id":"ce4bhch2rcd13ifvqeug","pricing_plan_id":"cebpf4jnsgd1na2vs0mg"},{"bike_id":"8d4fa04b-4062-460e-b516-8963625f5487","system_id":"levelo_inurba_marseille","lat":43.31081,"lon":5.42427,"is_reserved":false,"is_disabled":false,"rental_uris":{"android":"levelo://app?vid=8d4fa04b-4062-460e-b516-8963625f5487","ios":"levelo://app?vid=8d4fa04b-4062-460e-b516-8963625f5487"},"vehicle_type_id":"4","last_reported":1728684444,"current_range_meters":25200,"station_id":"ce4bhp92rcd13ifvqhag","pricing_plan_id":"cebpf4jnsgd1na2vs0mg"},{"bike_id":"39499fae-ad4c-41a3-a8bf-ae35f9c02827","system_id":"levelo_inurba_marseille","lat":43.27166,"lon":5.4099,"is_reserved":false,"is_disabled":false,"rental_uris":{"android":"levelo://app?vid=39499fae-ad4c-41a3-a8bf-ae35f9c02827","ios":"levelo://app?vid=39499fae-ad4c-41a3-a8bf-ae35f9c02827"},"vehicle_type_id":"4","last_reported":1728684444,"current_range_meters":28400,"station_id":"ce4bhl12rcd13ifvqgf0","pricing_plan_id":"cebpf4jnsgd1na2vs0mg"},{"bike_id":"8ed65534-ff39-43a1-a362-16af1c004df0","system_id":"levelo_inurba_marseille","lat":43.2985,"lon":5.36283,"is_reserved":false,"is_disabled":false,"rental_uris":{"android":"levelo://app?vid=8ed65534-ff39-43a1-a362-16af1c004df0","ios":"levelo://app?vid=8ed65534-ff39-43a1-a362-16af1c004df0"},"vehicle_type_id":"4","last_reported":1728684444,"current_range_meters":6800,"station_id":"ce4bgpp2rcd13ifvqc3g","pricing_plan_id":"cebpf4jnsgd1na2vs0mg"},{"bike_id":"b0c4731f-78d4-425a-9b9b-4085c8b4e3b3","system_id":"levelo_inurba_marseille","lat":43.32653,"lon":5.40996,"is_reserved":false,"is_disabled":false,"rental_uris":{"android":"levelo://app?vid=b0c4731f-78d4-425a-9b9b-4085c8b4e3b3","ios":"levelo://app?vid=b0c4731f-78d4-425a-9b9b-4085c8b4e3b3"},"vehicle_type_id":"4","last_reported":1728684444,"current_range_meters":24800,"station_id":"ce4bhpp2rcd13ifvqhgg","pricing_plan_id":"cebpf4jnsgd1na2vs0mg"},{"bike_id":"2357662e-cfdb-4136-a0ba-9f0dde8d5fcf","system_id":"levelo_inurba_marseille","lat":43.29575,"lon":5.3996,"is_reserved":false,"is_disabled":false,"rental_uris":{"android":"levelo://app?vid=2357662e-cfdb-4136-a0ba-9f0dde8d5fcf","ios":"levelo://app?vid=2357662e-cfdb-4136-a0ba-9f0dde8d5fcf"},"vehicle_type_id":"4","last_reported":1728684444,"current_range_meters":9600,"station_id":"ce4bh312rcd13ifvqdj0","pricing_plan_id":"cebpf4jnsgd1na2vs0mg"},{"bike_id":"7ca1210b-d8f9-4a06-bb88-52afc6829af3","system_id":"levelo_inurba_marseille","lat":43.31276,"lon":5.40175,"is_reserved":false,"is_disabled":false,"rental_uris":{"android":"levelo://app?vid=7ca1210b-d8f9-4a06-bb88-52afc6829af3","ios":"levelo://app?vid=7ca1210b-d8f9-4a06-bb88-52afc6829af3"},"vehicle_type_id":"4","last_reported":1728684444,"current_range_meters":6400,"station_id":"ce4bh092rcd13ifvqd30","pricing_plan_id":"cebpf4jnsgd1na2vs0mg"},{"bike_id":"4f084084-81b7-4d98-8eac-e8894430c993","system_id":"levelo_inurba_marseille","lat":43.28675,"lon":5.36346,"is_reserved":false,"is_disabled":false,"rental_uris":{"android":"levelo://app?vid=4f084084-81b7-4d98-8eac-e8894430c993","ios":"levelo://app?vid=4f084084-81b7-4d98-8eac-e8894430c993"},"vehicle_type_id":"4","last_reported":1728684444,"current_range_meters":35200,"station_id":"ce4bhah2rcd13ifvqej0","pricing_plan_id":"cebpf4jnsgd1na2vs0mg"},{"bike_id":"b391b0ad-0611-45b3-bea3-dfc06af55a00","system_id":"levelo_inurba_marseille","lat":43.29301,"lon":5.37169,"is_reserved":false,"is_disabled":false,"rental_uris":{"android":"levelo://app?vid=b391b0ad-0611-45b3-bea3-dfc06af55a00","ios":"levelo://app?vid=b391b0ad-0611-45b3-bea3-dfc06af55a00"},"vehicle_type_id":"4","last_reported":1728684444,"current_range_meters":38800,"station_id":"ce4bgh92rcd13ifvqb40","pricing_plan_id":"cebpf4jnsgd1na2vs0mg"},{"bike_id":"676b3cd4-77c7-4df0-af04-3aff81f98245","system_id":"levelo_inurba_marseille","lat":43.3302,"lon":5.39047,"is_reserved":false,"is_disabled":false,"rental_uris":{"android":"levelo://app?vid=676b3cd4-77c7-4df0-af04-3aff81f98245","ios":"levelo://app?vid=676b3cd4-77c7-4df0-af04-3aff81f98245"},"vehicle_type_id":"4","last_reported":1728684444,"current_range_meters":38800,"station_id":"ce4bhr92rcd13ifvqhrg","pricing_plan_id":"cebpf4jnsgd1na2vs0mg"},{"bike_id":"e5bd0faf-e2e0-4933-bde0-abec19aa0d5b","system_id":"levelo_inurba_marseille","lat":43.28098,"lon":5.37838,"is_reserved":false,"is_disabled":false,"rental_uris":{"android":"levelo://app?vid=e5bd0faf-e2e0-4933-bde0-abec19aa0d5b","ios":"levelo://app?vid=e5bd0faf-e2e0-4933-bde0-abec19aa0d5b"},"vehicle_type_id":"4","last_reported":1728684444,"current_range_meters":27200,"station_id":"ce4bha12rcd13ifvqee0","pricing_plan_id":"cebpf4jnsgd1na2vs0mg"},{"bike_id":"baa93edc-f439-4798-ab75-882cd62aac10","system_id":"levelo_inurba_marseille","lat":43.29111,"lon":5.38281,"is_reserved":false,"is_disabled":false,"rental_uris":{"android":"levelo://app?vid=baa93edc-f439-4798-ab75-882cd62aac10","ios":"levelo://app?vid=baa93edc-f439-4798-ab75-882cd62aac10"},"vehicle_type_id":"4","last_reported":1728684444,"current_range_meters":22000,"station_id":"","pricing_plan_id":"cebpf4jnsgd1na2vs0mg"},{"bike_id":"bcd03a9c-8533-4a40-a908-e41a13645fcc","system_id":"levelo_inurba_marseille","lat":43.27494,"lon":5.42449,"is_reserved":false,"is_disabled":false,"rental_uris":{"android":"levelo://app?vid=bcd03a9c-8533-4a40-a908-e41a13645fcc","ios":"levelo://app?vid=bcd03a9c-8533-4a40-a908-e41a13645fcc"},"vehicle_type_id":"4","last_reported":1728684444,"current_range_meters":21600,"station_id":"ce4bhn92rcd13ifvqgrg","pricing_plan_id":"cebpf4jnsgd1na2vs0mg"},{"bike_id":"07565f7d-6f02-471c-82a1-16a7c1c15713","system_id":"levelo_inurba_marseille","lat":43.298823,"lon":5.389032,"is_reserved":false,"is_disabled":false,"rental_uris":{"android":"levelo://app?vid=07565f7d-6f02-471c-82a1-16a7c1c15713","ios":"levelo://app?vid=07565f7d-6f02-471c-82a1-16a7c1c15713"},"vehicle_type_id":"4","last_reported":1728684444,"current_range_meters":3600,"station_id":"ce4bhq12rcd13ifvqhig","pricing_plan_id":"cebpf4jnsgd1na2vs0mg"},{"bike_id":"fa788d65-ef44-407c-8d29-e3cbbca2e385","system_id":"levelo_inurba_marseille","lat":43.32271,"lon":5.38636,"is_reserved":false,"is_disabled":false,"rental_uris":{"android":"levelo://app?vid=fa788d65-ef44-407c-8d29-e3cbbca2e385","ios":"levelo://app?vid=fa788d65-ef44-407c-8d29-e3cbbca2e385"},"vehicle_type_id":"4","last_reported":1728684444,"current_range_meters":5600,"station_id":"","pricing_plan_id":"cebpf4jnsgd1na2vs0mg"},{"bike_id":"0dc9eb8d-f437-4edc-8090-5157eebced83","system_id":"levelo_inurba_marseille","lat":43.284485,"lon":5.358786,"is_reserved":false,"is_disabled":false,"rental_uris":{"android":"levelo://app?vid=0dc9eb8d-f437-4edc-8090-5157eebced83","ios":"levelo://app?vid=0dc9eb8d-f437-4edc-8090-5157eebced83"},"vehicle_type_id":"4","last_reported":1728684444,"current_range_meters":9200,"station_id":"ce4bhah2rcd13ifvqei0","pricing_plan_id":"cebpf4jnsgd1na2vs0mg"},{"bike_id":"15fcc99e-2d24-439c-ba4d-01602d079cc1","system_id":"levelo_inurba_marseille","lat":43.29262,"lon":5.409,"is_reserved":false,"is_disabled":false,"rental_uris":{"android":"levelo://app?vid=15fcc99e-2d24-439c-ba4d-01602d079cc1","ios":"levelo://app?vid=15fcc99e-2d24-439c-ba4d-01602d079cc1"},"vehicle_type_id":"4","last_reported":1728684444,"current_range_meters":3200,"station_id":"ce4bh192rcd13ifvqdc0","pricing_plan_id":"cebpf4jnsgd1na2vs0mg"},{"bike_id":"8509fa5d-c6d9-4cb2-b4b1-4f2065b2666e","system_id":"levelo_inurba_marseille","lat":43.28338,"lon":5.41041,"is_reserved":false,"is_disabled":false,"rental_uris":{"android":"levelo://app?vid=8509fa5d-c6d9-4cb2-b4b1-4f2065b2666e","ios":"levelo://app?vid=8509fa5d-c6d9-4cb2-b4b1-4f2065b2666e"},"vehicle_type_id":"4","last_reported":1728684444,"current_range_meters":3600,"station_id":"","pricing_plan_id":"cebpf4jnsgd1na2vs0mg"},{"bike_id":"554056e2-a954-4179-8d89-aed999052592","system_id":"levelo_inurba_marseille","lat":43.27896,"lon":5.37998,"is_reserved":false,"is_disabled":false,"rental_uris":{"android":"levelo://app?vid=554056e2-a954-4179-8d89-aed999052592","ios":"levelo://app?vid=554056e2-a954-4179-8d89-aed999052592"},"vehicle_type_id":"4","last_reported":1728684444,"current_range_meters":38000,"station_id":"ce4bhf92rcd13ifvqf50","pricing_plan_id":"cebpf4jnsgd1na2vs0mg"},{"bike_id":"3a2c4e1d-400c-46ef-aca0-38caaf561c85","system_id":"levelo_inurba_marseille","lat":43.31079,"lon":5.38354,"is_reserved":false,"is_disabled":false,"rental_uris":{"android":"levelo://app?vid=3a2c4e1d-400c-46ef-aca0-38caaf561c85","ios":"levelo://app?vid=3a2c4e1d-400c-46ef-aca0-38caaf561c85"},"vehicle_type_id":"4","last_reported":1728684444,"current_range_meters":28400,"station_id":"ce4bgv92rcd13ifvqcr0","pricing_plan_id":"cebpf4jnsgd1na2vs0mg"},{"bike_id":"e2f32d73-5f17-4115-97b7-71d95775cf79","system_id":"levelo_inurba_marseille","lat":43.28105,"lon":5.37818,"is_reserved":false,"is_disabled":false,"rental_uris":{"android":"levelo://app?vid=e2f32d73-5f17-4115-97b7-71d95775cf79","ios":"levelo://app?vid=e2f32d73-5f17-4115-97b7-71d95775cf79"},"vehicle_type_id":"4","last_reported":1728684444,"current_range_meters":23200,"station_id":"ce4bha12rcd13ifvqee0","pricing_plan_id":"cebpf4jnsgd1na2vs0mg"},{"bike_id":"568fc656-ca34-4117-80be-8cde235532be","system_id":"levelo_inurba_marseille","lat":43.29197,"lon":5.39319,"is_reserved":false,"is_disabled":false,"rental_uris":{"android":"levelo://app?vid=568fc656-ca34-4117-80be-8cde235532be","ios":"levelo://app?vid=568fc656-ca34-4117-80be-8cde235532be"},"vehicle_type_id":"4","last_reported":1728684444,"current_range_meters":37600,"station_id":"ce4bh192rcd13ifvqdd0","pricing_plan_id":"cebpf4jnsgd1na2vs0mg"},{"bike_id":"6b02466d-fff3-4f83-abed-332f5e0ad03a","system_id":"levelo_inurba_marseille","lat":43.248,"lon":5.37456,"is_reserved":false,"is_disabled":false,"rental_uris":{"android":"levelo://app?vid=6b02466d-fff3-4f83-abed-332f5e0ad03a","ios":"levelo://app?vid=6b02466d-fff3-4f83-abed-332f5e0ad03a"},"vehicle_type_id":"4","last_reported":1728684444,"current_range_meters":38800,"station_id":"ce4bhgh2rcd13ifvqfb0","pricing_plan_id":"cebpf4jnsgd1na2vs0mg"},{"bike_id":"734e414b-a3c5-4285-bfe1-4534f8f780ed","system_id":"levelo_inurba_marseille","lat":43.29257,"lon":5.40909,"is_reserved":false,"is_disabled":false,"rental_uris":{"android":"levelo://app?vid=734e414b-a3c5-4285-bfe1-4534f8f780ed","ios":"levelo://app?vid=734e414b-a3c5-4285-bfe1-4534f8f780ed"},"vehicle_type_id":"4","last_reported":1728684444,"current_range_meters":22800,"station_id":"ce4bh192rcd13ifvqdc0","pricing_plan_id":"cebpf4jnsgd1na2vs0mg"},{"bike_id":"cc7b3bab-a1ec-4535-8215-8c5286e3afa0","system_id":"levelo_inurba_marseille","lat":43.28696,"lon":5.37397,"is_reserved":false,"is_disabled":false,"rental_uris":{"android":"levelo://app?vid=cc7b3bab-a1ec-4535-8215-8c5286e3afa0","ios":"levelo://app?vid=cc7b3bab-a1ec-4535-8215-8c5286e3afa0"},"vehicle_type_id":"4","last_reported":1728684444,"current_range_meters":28000,"station_id":"ce4bh3p2rcd13ifvqdq0","pricing_plan_id":"cebpf4jnsgd1na2vs0mg"},{"bike_id":"4a5c994a-f2a7-46a4-b578-fb4cfce156f3","system_id":"levelo_inurba_marseille","lat":43.30653,"lon":5.40107,"is_reserved":false,"is_disabled":false,"rental_uris":{"android":"levelo://app?vid=4a5c994a-f2a7-46a4-b578-fb4cfce156f3","ios":"levelo://app?vid=4a5c994a-f2a7-46a4-b578-fb4cfce156f3"},"vehicle_type_id":"4","last_reported":1728684444,"current_range_meters":19200,"station_id":"ce4bh112rcd13ifvqda0","pricing_plan_id":"cebpf4jnsgd1na2vs0mg"},{"bike_id":"6acd4386-bc99-467c-9bdf-6acb8bb50e70","system_id":"levelo_inurba_marseille","lat":43.28938,"lon":5.36635,"is_reserved":false,"is_disabled":false,"rental_uris":{"android":"levelo://app?vid=6acd4386-bc99-467c-9bdf-6acb8bb50e70","ios":"levelo://app?vid=6acd4386-bc99-467c-9bdf-6acb8bb50e70"},"vehicle_type_id":"4","last_reported":1728684444,"current_range_meters":8800,"station_id":"","pricing_plan_id":"cebpf4jnsgd1na2vs0mg"},{"bike_id":"60f589b3-2b19-4a28-911f-1847f8ff8458","system_id":"levelo_inurba_marseille","lat":43.29272,"lon":5.36842,"is_reserved":false,"is_disabled":false,"rental_uris":{"android":"levelo://app?vid=60f589b3-2b19-4a28-911f-1847f8ff8458","ios":"levelo://app?vid=60f589b3-2b19-4a28-911f-1847f8ff8458"},"vehicle_type_id":"4","last_reported":1728684444,"current_range_meters":8000,"station_id":"ce4bhbp2rcd13ifvqesg","pricing_plan_id":"cebpf4jnsgd1na2vs0mg"},{"bike_id":"fda2135f-e2a9-41cd-a0b4-dee46cc7c39e","system_id":"levelo_inurba_marseille","lat":43.29306,"lon":5.37172,"is_reserved":false,"is_disabled":false,"rental_uris":{"android":"levelo://app?vid=fda2135f-e2a9-41cd-a0b4-dee46cc7c39e","ios":"levelo://app?vid=fda2135f-e2a9-41cd-a0b4-dee46cc7c39e"},"vehicle_type_id":"4","last_reported":1728684444,"current_range_meters":18000,"station_id":"ce4bgh92rcd13ifvqb40","pricing_plan_id":"cebpf4jnsgd1na2vs0mg"},{"bike_id":"7706a2ed-6fe5-42b4-ac61-64836e2a2251","system_id":"levelo_inurba_marseille","lat":43.24648,"lon":5.3888,"is_reserved":false,"is_disabled":false,"rental_uris":{"android":"levelo://app?vid=7706a2ed-6fe5-42b4-ac61-64836e2a2251","ios":"levelo://app?vid=7706a2ed-6fe5-42b4-ac61-64836e2a2251"},"vehicle_type_id":"4","last_reported":1728684444,"current_range_meters":2800,"station_id":"ce4bhg12rcd13ifvqf60","pricing_plan_id":"cebpf4jnsgd1na2vs0mg"},{"bike_id":"4ff9212b-aff1-41a5-951a-b4b25ed2ae10","system_id":"levelo_inurba_marseille","lat":43.28416,"lon":5.37506,"is_reserved":false,"is_disabled":false,"rental_uris":{"android":"levelo://app?vid=4ff9212b-aff1-41a5-951a-b4b25ed2ae10","ios":"levelo://app?vid=4ff9212b-aff1-41a5-951a-b4b25ed2ae10"},"vehicle_type_id":"4","last_reported":1728684444,"current_range_meters":28800,"station_id":"ce4bh412rcd13ifvqds0","pricing_plan_id":"cebpf4jnsgd1na2vs0mg"},{"bike_id":"0dfada49-df75-45e2-9152-65c8c56d9104","system_id":"levelo_inurba_marseille","lat":43.30894,"lon":5.39644,"is_reserved":false,"is_disabled":false,"rental_uris":{"android":"levelo://app?vid=0dfada49-df75-45e2-9152-65c8c56d9104","ios":"levelo://app?vid=0dfada49-df75-45e2-9152-65c8c56d9104"},"vehicle_type_id":"4","last_reported":1728684444,"current_range_meters":36800,"station_id":"ce4bh012rcd13ifvqcv0","pricing_plan_id":"cebpf4jnsgd1na2vs0mg"},{"bike_id":"b65d5423-83c5-40ad-b80d-6ef60cecbd18","system_id":"levelo_inurba_marseille","lat":43.31272,"lon":5.40166,"is_reserved":false,"is_disabled":false,"rental_uris":{"android":"levelo://app?vid=b65d5423-83c5-40ad-b80d-6ef60cecbd18","ios":"levelo://app?vid=b65d5423-83c5-40ad-b80d-6ef60cecbd18"},"vehicle_type_id":"4","last_reported":1728684444,"current_range_meters":26800,"station_id":"ce4bh092rcd13ifvqd30","pricing_plan_id":"cebpf4jnsgd1na2vs0mg"},{"bike_id":"54ac4cc6-8406-4874-a04c-5f3584531f54","system_id":"levelo_inurba_marseille","lat":43.2815,"lon":5.42638,"is_reserved":false,"is_disabled":false,"rental_uris":{"android":"levelo://app?vid=54ac4cc6-8406-4874-a04c-5f3584531f54","ios":"levelo://app?vid=54ac4cc6-8406-4874-a04c-5f3584531f54"},"vehicle_type_id":"4","last_reported":1728684444,"current_range_meters":6000,"station_id":"ce4bhnh2rcd13ifvqgug","pricing_plan_id":"cebpf4jnsgd1na2vs0mg"},{"bike_id":"8c9a5779-48c6-4a49-b87c-4b9241d4f44b","system_id":"levelo_inurba_marseille","lat":43.337444,"lon":5.374475,"is_reserved":false,"is_disabled":false,"rental_uris":{"android":"levelo://app?vid=8c9a5779-48c6-4a49-b87c-4b9241d4f44b","ios":"levelo://app?vid=8c9a5779-48c6-4a49-b87c-4b9241d4f44b"},"vehicle_type_id":"4","last_reported":1728684444,"current_range_meters":9200,"station_id":"","pricing_plan_id":"cebpf4jnsgd1na2vs0mg"},{"bike_id":"1f220d5c-b79f-4c8d-b644-0fd0de7b432b","system_id":"levelo_inurba_marseille","lat":43.30904,"lon":5.36841,"is_reserved":false,"is_disabled":false,"rental_uris":{"android":"levelo://app?vid=1f220d5c-b79f-4c8d-b644-0fd0de7b432b","ios":"levelo://app?vid=1f220d5c-b79f-4c8d-b644-0fd0de7b432b"},"vehicle_type_id":"4","last_reported":1728684444,"current_range_meters":36400,"station_id":"ce4bgn92rcd13ifvqbvg","pricing_plan_id":"cebpf4jnsgd1na2vs0mg"},{"bike_id":"c390e13c-bae9-4238-84ee-994b583f357b","system_id":"levelo_inurba_marseille","lat":43.30307,"lon":5.36903,"is_reserved":false,"is_disabled":false,"rental_uris":{"android":"levelo://app?vid=c390e13c-bae9-4238-84ee-994b583f357b","ios":"levelo://app?vid=c390e13c-bae9-4238-84ee-994b583f357b"},"vehicle_type_id":"4","last_reported":1728684444,"current_range_meters":36000,"station_id":"ce4bgqh2rcd13ifvqc5g","pricing_plan_id":"cebpf4jnsgd1na2vs0mg"},{"bike_id":"b5f1c919-7873-433f-a8d2-3d0eeb72b87f","system_id":"levelo_inurba_marseille","lat":43.31711,"lon":5.43709,"is_reserved":false,"is_disabled":false,"rental_uris":{"android":"levelo://app?vid=b5f1c919-7873-433f-a8d2-3d0eeb72b87f","ios":"levelo://app?vid=b5f1c919-7873-433f-a8d2-3d0eeb72b87f"},"vehicle_type_id":"4","last_reported":1728684444,"current_range_meters":35600,"station_id":"ce4bhp92rcd13ifvqhcg","pricing_plan_id":"cebpf4jnsgd1na2vs0mg"},{"bike_id":"fe8bfe5f-6b56-4544-a987-9773c5b6594d","system_id":"levelo_inurba_marseille","lat":43.337444,"lon":5.374475,"is_reserved":false,"is_disabled":false,"rental_uris":{"android":"levelo://app?vid=fe8bfe5f-6b56-4544-a987-9773c5b6594d","ios":"levelo://app?vid=fe8bfe5f-6b56-4544-a987-9773c5b6594d"},"vehicle_type_id":"4","last_reported":1728684444,"current_range_meters":34800,"station_id":"","pricing_plan_id":"cebpf4jnsgd1na2vs0mg"},{"bike_id":"582be970-5122-4c67-b0c1-413cd423803f","system_id":"levelo_inurba_marseille","lat":43.2903,"lon":5.38133,"is_reserved":false,"is_disabled":false,"rental_uris":{"android":"levelo://app?vid=582be970-5122-4c67-b0c1-413cd423803f","ios":"levelo://app?vid=582be970-5122-4c67-b0c1-413cd423803f"},"vehicle_type_id":"4","last_reported":1728684444,"current_range_meters":24400,"station_id":"ce4bh4p2rcd13ifvqe1g","pricing_plan_id":"cebpf4jnsgd1na2vs0mg"},{"bike_id":"463262ef-0741-4812-8470-f2b6c96ce745","system_id":"levelo_inurba_marseille","lat":43.28104,"lon":5.37841,"is_reserved":false,"is_disabled":false,"rental_uris":{"android":"levelo://app?vid=463262ef-0741-4812-8470-f2b6c96ce745","ios":"levelo://app?vid=463262ef-0741-4812-8470-f2b6c96ce745"},"vehicle_type_id":"4","last_reported":1728684444,"current_range_meters":6800,"station_id":"ce4bha12rcd13ifvqee0","pricing_plan_id":"cebpf4jnsgd1na2vs0mg"},{"bike_id":"7f01b871-6eab-4448-ba9a-da0c8b1b336d","system_id":"levelo_inurba_marseille","lat":43.28353,"lon":5.38096,"is_reserved":false,"is_disabled":false,"rental_uris":{"android":"levelo://app?vid=7f01b871-6eab-4448-ba9a-da0c8b1b336d","ios":"levelo://app?vid=7f01b871-6eab-4448-ba9a-da0c8b1b336d"},"vehicle_type_id":"4","last_reported":1728684444,"current_range_meters":38000,"station_id":"ce4bh412rcd13ifvqdr0","pricing_plan_id":"cebpf4jnsgd1na2vs0mg"},{"bike_id":"8ab3d457-1235-47d3-936c-08dead5a7a6b","system_id":"levelo_inurba_marseille","lat":43.265503,"lon":5.372866,"is_reserved":false,"is_disabled":false,"rental_uris":{"android":"levelo://app?vid=8ab3d457-1235-47d3-936c-08dead5a7a6b","ios":"levelo://app?vid=8ab3d457-1235-47d3-936c-08dead5a7a6b"},"vehicle_type_id":"4","last_reported":1728684444,"current_range_meters":16800,"station_id":"","pricing_plan_id":"cebpf4jnsgd1na2vs0mg"},{"bike_id":"cdd26d21-81eb-4333-8d7f-3457b5a7caf2","system_id":"levelo_inurba_marseille","lat":43.33025,"lon":5.39048,"is_reserved":false,"is_disabled":false,"rental_uris":{"android":"levelo://app?vid=cdd26d21-81eb-4333-8d7f-3457b5a7caf2","ios":"levelo://app?vid=cdd26d21-81eb-4333-8d7f-3457b5a7caf2"},"vehicle_type_id":"4","last_reported":1728684444,"current_range_meters":38000,"station_id":"ce4bhr92rcd13ifvqhrg","pricing_plan_id":"cebpf4jnsgd1na2vs0mg"},{"bike_id":"c8fd8c08-7af9-44d6-b8fe-10f7c421f0f1","system_id":"levelo_inurba_marseille","lat":43.31273,"lon":5.40165,"is_reserved":false,"is_disabled":false,"rental_uris":{"android":"levelo://app?vid=c8fd8c08-7af9-44d6-b8fe-10f7c421f0f1","ios":"levelo://app?vid=c8fd8c08-7af9-44d6-b8fe-10f7c421f0f1"},"vehicle_type_id":"4","last_reported":1728684444,"current_range_meters":10800,"station_id":"ce4bh092rcd13ifvqd30","pricing_plan_id":"cebpf4jnsgd1na2vs0mg"},{"bike_id":"b59fea3b-50b9-4675-a2d7-f929277172ab","system_id":"levelo_inurba_marseille","lat":43.24658,"lon":5.38164,"is_reserved":false,"is_disabled":false,"rental_uris":{"android":"levelo://app?vid=b59fea3b-50b9-4675-a2d7-f929277172ab","ios":"levelo://app?vid=b59fea3b-50b9-4675-a2d7-f929277172ab"},"vehicle_type_id":"4","last_reported":1728684444,"current_range_meters":38000,"station_id":"ce4bhih2rcd13ifvqfr0","pricing_plan_id":"cebpf4jnsgd1na2vs0mg"},{"bike_id":"2f56efb1-549f-4acb-952f-8a7efdd07df5","system_id":"levelo_inurba_marseille","lat":43.29446,"lon":5.39754,"is_reserved":false,"is_disabled":false,"rental_uris":{"android":"levelo://app?vid=2f56efb1-549f-4acb-952f-8a7efdd07df5","ios":"levelo://app?vid=2f56efb1-549f-4acb-952f-8a7efdd07df5"},"vehicle_type_id":"4","last_reported":1728684444,"current_range_meters":12000,"station_id":"ce4bh3h2rcd13ifvqdo0","pricing_plan_id":"cebpf4jnsgd1na2vs0mg"},{"bike_id":"5ad37ccf-4015-4c1b-88dd-0d0b40230c5b","system_id":"levelo_inurba_marseille","lat":43.30415,"lon":5.41287,"is_reserved":false,"is_disabled":false,"rental_uris":{"android":"levelo://app?vid=5ad37ccf-4015-4c1b-88dd-0d0b40230c5b","ios":"levelo://app?vid=5ad37ccf-4015-4c1b-88dd-0d0b40230c5b"},"vehicle_type_id":"4","last_reported":1728684444,"current_range_meters":28400,"station_id":"ce4bhop2rcd13ifvqh8g","pricing_plan_id":"cebpf4jnsgd1na2vs0mg"},{"bike_id":"40c0aa1a-71cb-482c-abbb-3ddc65234ec2","system_id":"levelo_inurba_marseille","lat":43.32474,"lon":5.36565,"is_reserved":false,"is_disabled":false,"rental_uris":{"android":"levelo://app?vid=40c0aa1a-71cb-482c-abbb-3ddc65234ec2","ios":"levelo://app?vid=40c0aa1a-71cb-482c-abbb-3ddc65234ec2"},"vehicle_type_id":"4","last_reported":1728684444,"current_range_meters":6000,"station_id":"ce4bhs12rcd13ifvqhvg","pricing_plan_id":"cebpf4jnsgd1na2vs0mg"},{"bike_id":"3543abbc-0b58-4a9b-9514-e9be77c7106d","system_id":"levelo_inurba_marseille","lat":43.31535,"lon":5.38039,"is_reserved":false,"is_disabled":false,"rental_uris":{"android":"levelo://app?vid=3543abbc-0b58-4a9b-9514-e9be77c7106d","ios":"levelo://app?vid=3543abbc-0b58-4a9b-9514-e9be77c7106d"},"vehicle_type_id":"4","last_reported":1728684444,"current_range_meters":6400,"station_id":"ce4bhsp2rcd13ifvqi50","pricing_plan_id":"cebpf4jnsgd1na2vs0mg"},{"bike_id":"2023895c-7eca-4274-ae2a-3a8271ae0b84","system_id":"levelo_inurba_marseille","lat":43.31276,"lon":5.40166,"is_reserved":false,"is_disabled":false,"rental_uris":{"android":"levelo://app?vid=2023895c-7eca-4274-ae2a-3a8271ae0b84","ios":"levelo://app?vid=2023895c-7eca-4274-ae2a-3a8271ae0b84"},"vehicle_type_id":"4","last_reported":1728684444,"current_range_meters":33600,"station_id":"ce4bh092rcd13ifvqd30","pricing_plan_id":"cebpf4jnsgd1na2vs0mg"},{"bike_id":"400c2bff-d158-4c34-addc-fa4953b14e91","system_id":"levelo_inurba_marseille","lat":43.28104,"lon":5.37835,"is_reserved":false,"is_disabled":false,"rental_uris":{"android":"levelo://app?vid=400c2bff-d158-4c34-addc-fa4953b14e91","ios":"levelo://app?vid=400c2bff-d158-4c34-addc-fa4953b14e91"},"vehicle_type_id":"4","last_reported":1728684444,"current_range_meters":9200,"station_id":"ce4bha12rcd13ifvqee0","pricing_plan_id":"cebpf4jnsgd1na2vs0mg"},{"bike_id":"9b92e89a-0799-4491-959d-04cb466a2f62","system_id":"levelo_inurba_marseille","lat":43.24748,"lon":5.37431,"is_reserved":false,"is_disabled":false,"rental_uris":{"android":"levelo://app?vid=9b92e89a-0799-4491-959d-04cb466a2f62","ios":"levelo://app?vid=9b92e89a-0799-4491-959d-04cb466a2f62"},"vehicle_type_id":"4","last_reported":1728684444,"current_range_meters":14800,"station_id":"","pricing_plan_id":"cebpf4jnsgd1na2vs0mg"},{"bike_id":"d3e75cce-fa27-408c-ae2e-1ae81506d5be","system_id":"levelo_inurba_marseille","lat":43.31076,"lon":5.40115,"is_reserved":false,"is_disabled":false,"rental_uris":{"android":"levelo://app?vid=d3e75cce-fa27-408c-ae2e-1ae81506d5be","ios":"levelo://app?vid=d3e75cce-fa27-408c-ae2e-1ae81506d5be"},"vehicle_type_id":"4","last_reported":1728684444,"current_range_meters":38400,"station_id":"","pricing_plan_id":"cebpf4jnsgd1na2vs0mg"},{"bike_id":"a46673cf-4928-49cb-8c44-9f668342015a","system_id":"levelo_inurba_marseille","lat":43.33021,"lon":5.39036,"is_reserved":false,"is_disabled":false,"rental_uris":{"android":"levelo://app?vid=a46673cf-4928-49cb-8c44-9f668342015a","ios":"levelo://app?vid=a46673cf-4928-49cb-8c44-9f668342015a"},"vehicle_type_id":"4","last_reported":1728684444,"current_range_meters":38800,"station_id":"ce4bhr92rcd13ifvqhrg","pricing_plan_id":"cebpf4jnsgd1na2vs0mg"},{"bike_id":"04297339-b0e6-4e0c-ba57-2ecfb29a6f77","system_id":"levelo_inurba_marseille","lat":43.23186,"lon":5.39993,"is_reserved":false,"is_disabled":false,"rental_uris":{"android":"levelo://app?vid=04297339-b0e6-4e0c-ba57-2ecfb29a6f77","ios":"levelo://app?vid=04297339-b0e6-4e0c-ba57-2ecfb29a6f77"},"vehicle_type_id":"4","last_reported":1728684444,"current_range_meters":27200,"station_id":"ce4bhn12rcd13ifvqgqg","pricing_plan_id":"cebpf4jnsgd1na2vs0mg"},{"bike_id":"31031e71-4087-470b-8496-67314cdbff5a","system_id":"levelo_inurba_marseille","lat":43.316927,"lon":5.376986,"is_reserved":false,"is_disabled":false,"rental_uris":{"android":"levelo://app?vid=31031e71-4087-470b-8496-67314cdbff5a","ios":"levelo://app?vid=31031e71-4087-470b-8496-67314cdbff5a"},"vehicle_type_id":"4","last_reported":1728684444,"current_range_meters":38800,"station_id":"ce4bgth2rcd13ifvqch0","pricing_plan_id":"cebpf4jnsgd1na2vs0mg"},{"bike_id":"5cbda940-0996-47b3-8aa9-8587e791bccf","system_id":"levelo_inurba_marseille","lat":43.28934,"lon":5.36633,"is_reserved":false,"is_disabled":false,"rental_uris":{"android":"levelo://app?vid=5cbda940-0996-47b3-8aa9-8587e791bccf","ios":"levelo://app?vid=5cbda940-0996-47b3-8aa9-8587e791bccf"},"vehicle_type_id":"4","last_reported":1728684444,"current_range_meters":9600,"station_id":"ce4bhap2rcd13ifvqek0","pricing_plan_id":"cebpf4jnsgd1na2vs0mg"},{"bike_id":"fcb18d4b-009f-46c5-9bd1-7f1c673d46f9","system_id":"levelo_inurba_marseille","lat":43.30466,"lon":5.37899,"is_reserved":false,"is_disabled":false,"rental_uris":{"android":"levelo://app?vid=fcb18d4b-009f-46c5-9bd1-7f1c673d46f9","ios":"levelo://app?vid=fcb18d4b-009f-46c5-9bd1-7f1c673d46f9"},"vehicle_type_id":"4","last_reported":1728684444,"current_range_meters":8000,"station_id":"ce4bgup2rcd13ifvqcn0","pricing_plan_id":"cebpf4jnsgd1na2vs0mg"},{"bike_id":"65d863d6-7add-488f-be68-08315dfb87e4","system_id":"levelo_inurba_marseille","lat":43.30896,"lon":5.39635,"is_reserved":false,"is_disabled":false,"rental_uris":{"android":"levelo://app?vid=65d863d6-7add-488f-be68-08315dfb87e4","ios":"levelo://app?vid=65d863d6-7add-488f-be68-08315dfb87e4"},"vehicle_type_id":"4","last_reported":1728684444,"current_range_meters":20000,"station_id":"ce4bh012rcd13ifvqcv0","pricing_plan_id":"cebpf4jnsgd1na2vs0mg"},{"bike_id":"4466009b-142c-4f7d-ba3b-305d45752cea","system_id":"levelo_inurba_marseille","lat":43.28154,"lon":5.42646,"is_reserved":false,"is_disabled":false,"rental_uris":{"android":"levelo://app?vid=4466009b-142c-4f7d-ba3b-305d45752cea","ios":"levelo://app?vid=4466009b-142c-4f7d-ba3b-305d45752cea"},"vehicle_type_id":"4","last_reported":1728684444,"current_range_meters":28800,"station_id":"ce4bhnh2rcd13ifvqgug","pricing_plan_id":"cebpf4jnsgd1na2vs0mg"},{"bike_id":"4057662c-1349-4ee0-b725-5b89a97196a0","system_id":"levelo_inurba_marseille","lat":43.30091,"lon":5.39073,"is_reserved":false,"is_disabled":false,"rental_uris":{"android":"levelo://app?vid=4057662c-1349-4ee0-b725-5b89a97196a0","ios":"levelo://app?vid=4057662c-1349-4ee0-b725-5b89a97196a0"},"vehicle_type_id":"4","last_reported":1728684444,"current_range_meters":18800,"station_id":"ce4bh192rcd13ifvqdb0","pricing_plan_id":"cebpf4jnsgd1na2vs0mg"},{"bike_id":"d42c6fc9-9ac9-47c5-882e-b5984b7c9a4c","system_id":"levelo_inurba_marseille","lat":43.30936,"lon":5.4015,"is_reserved":false,"is_disabled":false,"rental_uris":{"android":"levelo://app?vid=d42c6fc9-9ac9-47c5-882e-b5984b7c9a4c","ios":"levelo://app?vid=d42c6fc9-9ac9-47c5-882e-b5984b7c9a4c"},"vehicle_type_id":"4","last_reported":1728684444,"current_range_meters":32400,"station_id":"ce4bgvp2rcd13ifvqct0","pricing_plan_id":"cebpf4jnsgd1na2vs0mg"},{"bike_id":"fad3c5a1-670e-4e48-90e7-4e3c3479c108","system_id":"levelo_inurba_marseille","lat":43.23962,"lon":5.36627,"is_reserved":false,"is_disabled":false,"rental_uris":{"android":"levelo://app?vid=fad3c5a1-670e-4e48-90e7-4e3c3479c108","ios":"levelo://app?vid=fad3c5a1-670e-4e48-90e7-4e3c3479c108"},"vehicle_type_id":"4","last_reported":1728684444,"current_range_meters":8800,"station_id":"ce4bhi12rcd13ifvqfp0","pricing_plan_id":"cebpf4jnsgd1na2vs0mg"},{"bike_id":"e30a3f6b-6f37-4772-adcc-0c9557a69478","system_id":"levelo_inurba_marseille","lat":43.33599,"lon":5.41033,"is_reserved":false,"is_disabled":false,"rental_uris":{"android":"levelo://app?vid=e30a3f6b-6f37-4772-adcc-0c9557a69478","ios":"levelo://app?vid=e30a3f6b-6f37-4772-adcc-0c9557a69478"},"vehicle_type_id":"4","last_reported":1728684444,"current_range_meters":7200,"station_id":"ce4bhqh2rcd13ifvqhmg","pricing_plan_id":"cebpf4jnsgd1na2vs0mg"},{"bike_id":"7518065d-80a9-4d25-b8a6-b4a2fc3b298e","system_id":"levelo_inurba_marseille","lat":43.31068,"lon":5.38352,"is_reserved":false,"is_disabled":false,"rental_uris":{"android":"levelo://app?vid=7518065d-80a9-4d25-b8a6-b4a2fc3b298e","ios":"levelo://app?vid=7518065d-80a9-4d25-b8a6-b4a2fc3b298e"},"vehicle_type_id":"4","last_reported":1728684444,"current_range_meters":18000,"station_id":"ce4bgv92rcd13ifvqcr0","pricing_plan_id":"cebpf4jnsgd1na2vs0mg"},{"bike_id":"4842f991-2d99-4ea8-a23b-a6e29bba7638","system_id":"levelo_inurba_marseille","lat":43.27372,"lon":5.36263,"is_reserved":false,"is_disabled":false,"rental_uris":{"android":"levelo://app?vid=4842f991-2d99-4ea8-a23b-a6e29bba7638","ios":"levelo://app?vid=4842f991-2d99-4ea8-a23b-a6e29bba7638"},"vehicle_type_id":"4","last_reported":1728684444,"current_range_meters":30000,"station_id":"ce4bhbh2rcd13ifvqeo0","pricing_plan_id":"cebpf4jnsgd1na2vs0mg"},{"bike_id":"84929d6d-38ef-422c-98c7-5915ea10f66d","system_id":"levelo_inurba_marseille","lat":43.29786,"lon":5.39342,"is_reserved":false,"is_disabled":false,"rental_uris":{"android":"levelo://app?vid=84929d6d-38ef-422c-98c7-5915ea10f66d","ios":"levelo://app?vid=84929d6d-38ef-422c-98c7-5915ea10f66d"},"vehicle_type_id":"4","last_reported":1728684444,"current_range_meters":2000,"station_id":"chh1huq6cuj3fo74tm60","pricing_plan_id":"cebpf4jnsgd1na2vs0mg"},{"bike_id":"72c0a8f8-76f7-40ed-9bf1-ff6488ec2e9f","system_id":"levelo_inurba_marseille","lat":43.31542,"lon":5.38025,"is_reserved":false,"is_disabled":false,"rental_uris":{"android":"levelo://app?vid=72c0a8f8-76f7-40ed-9bf1-ff6488ec2e9f","ios":"levelo://app?vid=72c0a8f8-76f7-40ed-9bf1-ff6488ec2e9f"},"vehicle_type_id":"4","last_reported":1728684444,"current_range_meters":36800,"station_id":"ce4bhsp2rcd13ifvqi50","pricing_plan_id":"cebpf4jnsgd1na2vs0mg"},{"bike_id":"57a8a4e4-fb43-474f-af8c-fa1abb87ecef","system_id":"levelo_inurba_marseille","lat":43.33022,"lon":5.39039,"is_reserved":false,"is_disabled":false,"rental_uris":{"android":"levelo://app?vid=57a8a4e4-fb43-474f-af8c-fa1abb87ecef","ios":"levelo://app?vid=57a8a4e4-fb43-474f-af8c-fa1abb87ecef"},"vehicle_type_id":"4","last_reported":1728684444,"current_range_meters":36800,"station_id":"ce4bhr92rcd13ifvqhrg","pricing_plan_id":"cebpf4jnsgd1na2vs0mg"},{"bike_id":"df0f8ce5-e716-43dd-8e18-79cb8dbf2fde","system_id":"levelo_inurba_marseille","lat":43.31991,"lon":5.38151,"is_reserved":false,"is_disabled":false,"rental_uris":{"android":"levelo://app?vid=df0f8ce5-e716-43dd-8e18-79cb8dbf2fde","ios":"levelo://app?vid=df0f8ce5-e716-43dd-8e18-79cb8dbf2fde"},"vehicle_type_id":"4","last_reported":1728684444,"current_range_meters":37600,"station_id":"ce4bhr12rcd13ifvqhpg","pricing_plan_id":"cebpf4jnsgd1na2vs0mg"},{"bike_id":"b9cfbe33-dc83-43ff-a127-d4a1d687439f","system_id":"levelo_inurba_marseille","lat":43.28707,"lon":5.3739,"is_reserved":false,"is_disabled":false,"rental_uris":{"android":"levelo://app?vid=b9cfbe33-dc83-43ff-a127-d4a1d687439f","ios":"levelo://app?vid=b9cfbe33-dc83-43ff-a127-d4a1d687439f"},"vehicle_type_id":"4","last_reported":1728684444,"current_range_meters":36000,"station_id":"ce4bh3p2rcd13ifvqdq0","pricing_plan_id":"cebpf4jnsgd1na2vs0mg"},{"bike_id":"dc37f136-6963-42af-9f30-963ea0a58970","system_id":"levelo_inurba_marseille","lat":43.29054,"lon":5.35922,"is_reserved":false,"is_disabled":false,"rental_uris":{"android":"levelo://app?vid=dc37f136-6963-42af-9f30-963ea0a58970","ios":"levelo://app?vid=dc37f136-6963-42af-9f30-963ea0a58970"},"vehicle_type_id":"4","last_reported":1728684444,"current_range_meters":16400,"station_id":"ce4bha92rcd13ifvqeg0","pricing_plan_id":"cebpf4jnsgd1na2vs0mg"},{"bike_id":"7d923f0b-0a62-49e6-96d9-dd96de70f1a9","system_id":"levelo_inurba_marseille","lat":43.30887,"lon":5.38052,"is_reserved":false,"is_disabled":false,"rental_uris":{"android":"levelo://app?vid=7d923f0b-0a62-49e6-96d9-dd96de70f1a9","ios":"levelo://app?vid=7d923f0b-0a62-49e6-96d9-dd96de70f1a9"},"vehicle_type_id":"4","last_reported":1728684444,"current_range_meters":7200,"station_id":"ce4bgt12rcd13ifvqce0","pricing_plan_id":"cebpf4jnsgd1na2vs0mg"},{"bike_id":"c4bb9e5c-20d3-4351-95e6-aac5702d681e","system_id":"levelo_inurba_marseille","lat":43.31536,"lon":5.38026,"is_reserved":false,"is_disabled":false,"rental_uris":{"android":"levelo://app?vid=c4bb9e5c-20d3-4351-95e6-aac5702d681e","ios":"levelo://app?vid=c4bb9e5c-20d3-4351-95e6-aac5702d681e"},"vehicle_type_id":"4","last_reported":1728684444,"current_range_meters":4800,"station_id":"ce4bhsp2rcd13ifvqi50","pricing_plan_id":"cebpf4jnsgd1na2vs0mg"},{"bike_id":"0ad58474-645b-4173-a8cd-4877df53a908","system_id":"levelo_inurba_marseille","lat":43.31324,"lon":5.39687,"is_reserved":false,"is_disabled":false,"rental_uris":{"android":"levelo://app?vid=0ad58474-645b-4173-a8cd-4877df53a908","ios":"levelo://app?vid=0ad58474-645b-4173-a8cd-4877df53a908"},"vehicle_type_id":"4","last_reported":1728684444,"current_range_meters":4000,"station_id":"ce4bgvp2rcd13ifvqcu0","pricing_plan_id":"cebpf4jnsgd1na2vs0mg"},{"bike_id":"64404112-da1c-4a64-b29b-c099d125227d","system_id":"levelo_inurba_marseille","lat":43.313738,"lon":5.384968,"is_reserved":false,"is_disabled":false,"rental_uris":{"android":"levelo://app?vid=64404112-da1c-4a64-b29b-c099d125227d","ios":"levelo://app?vid=64404112-da1c-4a64-b29b-c099d125227d"},"vehicle_type_id":"4","last_reported":1728684444,"current_range_meters":11200,"station_id":"ce4bgt92rcd13ifvqcf0","pricing_plan_id":"cebpf4jnsgd1na2vs0mg"},{"bike_id":"6f447104-75d4-4ab8-896a-db0feb2db4df","system_id":"levelo_inurba_marseille","lat":43.292742,"lon":5.384355,"is_reserved":false,"is_disabled":false,"rental_uris":{"android":"levelo://app?vid=6f447104-75d4-4ab8-896a-db0feb2db4df","ios":"levelo://app?vid=6f447104-75d4-4ab8-896a-db0feb2db4df"},"vehicle_type_id":"4","last_reported":1728684444,"current_range_meters":28000,"station_id":"ce4bgjh2rcd13ifvqbf0","pricing_plan_id":"cebpf4jnsgd1na2vs0mg"},{"bike_id":"26f2eeb1-cc30-42e6-8d05-87c4fdbe3c2b","system_id":"levelo_inurba_marseille","lat":43.31522,"lon":5.38032,"is_reserved":false,"is_disabled":false,"rental_uris":{"android":"levelo://app?vid=26f2eeb1-cc30-42e6-8d05-87c4fdbe3c2b","ios":"levelo://app?vid=26f2eeb1-cc30-42e6-8d05-87c4fdbe3c2b"},"vehicle_type_id":"4","last_reported":1728684444,"current_range_meters":6000,"station_id":"ce4bhsp2rcd13ifvqi50","pricing_plan_id":"cebpf4jnsgd1na2vs0mg"},{"bike_id":"600a6ea5-5c70-4f25-9b57-c621b8210681","system_id":"levelo_inurba_marseille","lat":43.32658,"lon":5.40986,"is_reserved":false,"is_disabled":false,"rental_uris":{"android":"levelo://app?vid=600a6ea5-5c70-4f25-9b57-c621b8210681","ios":"levelo://app?vid=600a6ea5-5c70-4f25-9b57-c621b8210681"},"vehicle_type_id":"4","last_reported":1728684444,"current_range_meters":36400,"station_id":"ce4bhpp2rcd13ifvqhgg","pricing_plan_id":"cebpf4jnsgd1na2vs0mg"},{"bike_id":"8e5f9b6c-cf2e-4517-87b5-9ecf83711555","system_id":"levelo_inurba_marseille","lat":43.27833,"lon":5.392,"is_reserved":false,"is_disabled":false,"rental_uris":{"android":"levelo://app?vid=8e5f9b6c-cf2e-4517-87b5-9ecf83711555","ios":"levelo://app?vid=8e5f9b6c-cf2e-4517-87b5-9ecf83711555"},"vehicle_type_id":"4","last_reported":1728684444,"current_range_meters":18000,"station_id":"ce4bhjp2rcd13ifvqga0","pricing_plan_id":"cebpf4jnsgd1na2vs0mg"},{"bike_id":"030a6b6f-9856-4651-ad94-b1c3933156d1","system_id":"levelo_inurba_marseille","lat":43.3088,"lon":5.37194,"is_reserved":false,"is_disabled":false,"rental_uris":{"android":"levelo://app?vid=030a6b6f-9856-4651-ad94-b1c3933156d1","ios":"levelo://app?vid=030a6b6f-9856-4651-ad94-b1c3933156d1"},"vehicle_type_id":"4","last_reported":1728684444,"current_range_meters":38800,"station_id":"ce4bguh2rcd13ifvqckg","pricing_plan_id":"cebpf4jnsgd1na2vs0mg"},{"bike_id":"7b6baa85-f647-4dbc-bee4-af88f44a8bf2","system_id":"levelo_inurba_marseille","lat":43.22924,"lon":5.35377,"is_reserved":false,"is_disabled":false,"rental_uris":{"android":"levelo://app?vid=7b6baa85-f647-4dbc-bee4-af88f44a8bf2","ios":"levelo://app?vid=7b6baa85-f647-4dbc-bee4-af88f44a8bf2"},"vehicle_type_id":"4","last_reported":1728684444,"current_range_meters":22800,"station_id":"cpo3532slgdg3j2ikp40","pricing_plan_id":"cebpf4jnsgd1na2vs0mg"},{"bike_id":"a0d6f59d-f86e-4ace-93ce-9518e1cf730d","system_id":"levelo_inurba_marseille","lat":43.2844,"lon":5.39206,"is_reserved":false,"is_disabled":false,"rental_uris":{"android":"levelo://app?vid=a0d6f59d-f86e-4ace-93ce-9518e1cf730d","ios":"levelo://app?vid=a0d6f59d-f86e-4ace-93ce-9518e1cf730d"},"vehicle_type_id":"4","last_reported":1728684444,"current_range_meters":36800,"station_id":"ce4bhoh2rcd13ifvqh5g","pricing_plan_id":"cebpf4jnsgd1na2vs0mg"},{"bike_id":"30e7d33d-e258-4432-bd01-ddafb22fd1ba","system_id":"levelo_inurba_marseille","lat":43.31987,"lon":5.38149,"is_reserved":false,"is_disabled":false,"rental_uris":{"android":"levelo://app?vid=30e7d33d-e258-4432-bd01-ddafb22fd1ba","ios":"levelo://app?vid=30e7d33d-e258-4432-bd01-ddafb22fd1ba"},"vehicle_type_id":"4","last_reported":1728684444,"current_range_meters":38400,"station_id":"ce4bhr12rcd13ifvqhpg","pricing_plan_id":"cebpf4jnsgd1na2vs0mg"},{"bike_id":"6767ec45-da25-4e8f-9200-f27ffcd1a146","system_id":"levelo_inurba_marseille","lat":43.30132,"lon":5.39884,"is_reserved":false,"is_disabled":false,"rental_uris":{"android":"levelo://app?vid=6767ec45-da25-4e8f-9200-f27ffcd1a146","ios":"levelo://app?vid=6767ec45-da25-4e8f-9200-f27ffcd1a146"},"vehicle_type_id":"4","last_reported":1728684444,"current_range_meters":6800,"station_id":"ce4bh0h2rcd13ifvqd40","pricing_plan_id":"cebpf4jnsgd1na2vs0mg"},{"bike_id":"3c25dded-f8d5-4193-a336-9fad641c4aac","system_id":"levelo_inurba_marseille","lat":43.33766,"lon":5.37447,"is_reserved":false,"is_disabled":false,"rental_uris":{"android":"levelo://app?vid=3c25dded-f8d5-4193-a336-9fad641c4aac","ios":"levelo://app?vid=3c25dded-f8d5-4193-a336-9fad641c4aac"},"vehicle_type_id":"4","last_reported":1728684444,"current_range_meters":10000,"station_id":"","pricing_plan_id":"cebpf4jnsgd1na2vs0mg"},{"bike_id":"c0181620-ee5a-45b8-9081-f7b690c84cb1","system_id":"levelo_inurba_marseille","lat":43.28408,"lon":5.37513,"is_reserved":false,"is_disabled":false,"rental_uris":{"android":"levelo://app?vid=c0181620-ee5a-45b8-9081-f7b690c84cb1","ios":"levelo://app?vid=c0181620-ee5a-45b8-9081-f7b690c84cb1"},"vehicle_type_id":"4","last_reported":1728684444,"current_range_meters":32000,"station_id":"ce4bh412rcd13ifvqds0","pricing_plan_id":"cebpf4jnsgd1na2vs0mg"},{"bike_id":"33ff6bb6-f351-4796-80e2-7c16012a9f17","system_id":"levelo_inurba_marseille","lat":43.29248,"lon":5.40894,"is_reserved":false,"is_disabled":false,"rental_uris":{"android":"levelo://app?vid=33ff6bb6-f351-4796-80e2-7c16012a9f17","ios":"levelo://app?vid=33ff6bb6-f351-4796-80e2-7c16012a9f17"},"vehicle_type_id":"4","last_reported":1728684444,"current_range_meters":33600,"station_id":"ce4bh192rcd13ifvqdc0","pricing_plan_id":"cebpf4jnsgd1na2vs0mg"},{"bike_id":"f22edef2-00fd-4f8c-b1a2-09fab6675b5d","system_id":"levelo_inurba_marseille","lat":43.23187,"lon":5.3998,"is_reserved":false,"is_disabled":false,"rental_uris":{"android":"levelo://app?vid=f22edef2-00fd-4f8c-b1a2-09fab6675b5d","ios":"levelo://app?vid=f22edef2-00fd-4f8c-b1a2-09fab6675b5d"},"vehicle_type_id":"4","last_reported":1728684444,"current_range_meters":3600,"station_id":"ce4bhn12rcd13ifvqgqg","pricing_plan_id":"cebpf4jnsgd1na2vs0mg"},{"bike_id":"7975faaf-f260-41c7-87cd-147b9a3b3ebf","system_id":"levelo_inurba_marseille","lat":43.23057,"lon":5.35488,"is_reserved":false,"is_disabled":false,"rental_uris":{"android":"levelo://app?vid=7975faaf-f260-41c7-87cd-147b9a3b3ebf","ios":"levelo://app?vid=7975faaf-f260-41c7-87cd-147b9a3b3ebf"},"vehicle_type_id":"4","last_reported":1728684444,"current_range_meters":11200,"station_id":"cpo3342slgdg3j2ifvpg","pricing_plan_id":"cebpf4jnsgd1na2vs0mg"},{"bike_id":"7bf52225-9285-496f-ae28-9b6f5f1822d2","system_id":"levelo_inurba_marseille","lat":43.28934,"lon":5.36406,"is_reserved":false,"is_disabled":false,"rental_uris":{"android":"levelo://app?vid=7bf52225-9285-496f-ae28-9b6f5f1822d2","ios":"levelo://app?vid=7bf52225-9285-496f-ae28-9b6f5f1822d2"},"vehicle_type_id":"4","last_reported":1728684444,"current_range_meters":24000,"station_id":"ce4bhc92rcd13ifvqetg","pricing_plan_id":"cebpf4jnsgd1na2vs0mg"},{"bike_id":"7fd5baa7-c468-44ec-9a51-4d75f0800726","system_id":"levelo_inurba_marseille","lat":43.30548,"lon":5.36675,"is_reserved":false,"is_disabled":false,"rental_uris":{"android":"levelo://app?vid=7fd5baa7-c468-44ec-9a51-4d75f0800726","ios":"levelo://app?vid=7fd5baa7-c468-44ec-9a51-4d75f0800726"},"vehicle_type_id":"4","last_reported":1728684444,"current_range_meters":36800,"station_id":"ce4bgrp2rcd13ifvqc9g","pricing_plan_id":"cebpf4jnsgd1na2vs0mg"},{"bike_id":"703d5faf-e8f5-42e8-a15c-36acb1ae64d2","system_id":"levelo_inurba_marseille","lat":43.22934,"lon":5.3538,"is_reserved":false,"is_disabled":false,"rental_uris":{"android":"levelo://app?vid=703d5faf-e8f5-42e8-a15c-36acb1ae64d2","ios":"levelo://app?vid=703d5faf-e8f5-42e8-a15c-36acb1ae64d2"},"vehicle_type_id":"4","last_reported":1728684444,"current_range_meters":37600,"station_id":"cpo3532slgdg3j2ikp40","pricing_plan_id":"cebpf4jnsgd1na2vs0mg"},{"bike_id":"999fceb1-e475-4be8-bad7-36b04e786631","system_id":"levelo_inurba_marseille","lat":43.30248,"lon":5.40079,"is_reserved":false,"is_disabled":false,"rental_uris":{"android":"levelo://app?vid=999fceb1-e475-4be8-bad7-36b04e786631","ios":"levelo://app?vid=999fceb1-e475-4be8-bad7-36b04e786631"},"vehicle_type_id":"4","last_reported":1728684444,"current_range_meters":36400,"station_id":"ce4bgvh2rcd13ifvqcs0","pricing_plan_id":"cebpf4jnsgd1na2vs0mg"},{"bike_id":"dab45887-6424-4a1d-9b88-5b2f062e1eb5","system_id":"levelo_inurba_marseille","lat":43.31322,"lon":5.39695,"is_reserved":false,"is_disabled":false,"rental_uris":{"android":"levelo://app?vid=dab45887-6424-4a1d-9b88-5b2f062e1eb5","ios":"levelo://app?vid=dab45887-6424-4a1d-9b88-5b2f062e1eb5"},"vehicle_type_id":"4","last_reported":1728684444,"current_range_meters":36800,"station_id":"ce4bgvp2rcd13ifvqcu0","pricing_plan_id":"cebpf4jnsgd1na2vs0mg"},{"bike_id":"f4dd2ff9-b3d8-48df-adcc-9f38a9d143e0","system_id":"levelo_inurba_marseille","lat":43.2957,"lon":5.39962,"is_reserved":false,"is_disabled":false,"rental_uris":{"android":"levelo://app?vid=f4dd2ff9-b3d8-48df-adcc-9f38a9d143e0","ios":"levelo://app?vid=f4dd2ff9-b3d8-48df-adcc-9f38a9d143e0"},"vehicle_type_id":"4","last_reported":1728684444,"current_range_meters":8400,"station_id":"ce4bh312rcd13ifvqdj0","pricing_plan_id":"cebpf4jnsgd1na2vs0mg"},