{"last_updated":1770381351,"ttl":60,"version":"2.2","data":{"bikes":[{"bike_id":"80cf3519-4a22-4599-9106-cf86f10f6320","system_id":"levelo_inurba_marseille","lat":43.216357,"lon":5.346536,"is_reserved":false,"is_disabled":false,"rental_uris":{"android":"levelo://app?vid=80cf3519-4a22-4599-9106-cf86f10f6320","ios":"levelo://app?vid=80cf3519-4a22-4599-9106-cf86f10f6320"},"vehicle_type_id":"4","last_reported":1770381351,"current_range_meters":2800,"station_id":"","pricing_plan_id":"cebpf4jnsgd1na2vs0mg"},{"bike_id":"bb3e1da0-2f26-4195-b84f-5b9f38a7b867","system_id":"levelo_inurba_marseille","lat":43.246508,"lon":5.38905,"is_reserved":false,"is_disabled":false,"rental_uris":{"android":"levelo://app?vid=bb3e1da0-2f26-4195-b84f-5b9f38a7b867","ios":"levelo://app?vid=bb3e1da0-2f26-4195-b84f-5b9f38a7b867"},"vehicle_type_id":"4","last_reported":1770381351,"current_range_meters":2800,"station_id":"ce4bhg12rcd13ifvqf60","pricing_plan_id":"cebpf4jnsgd1na2vs0mg"},{"bike_id":"18583156-2876-49de-92a2-16b19b453a57","system_id":"levelo_inurba_marseille","lat":43.27227,"lon":5.39208,"is_reserved":false,"is_disabled":false,"rental_uris":{"android":"levelo://app?vid=18583156-2876-49de-92a2-16b19b453a57","ios":"levelo://app?vid=18583156-2876-49de-92a2-16b19b453a57"},"vehicle_type_id":"4","last_reported":1770381351,"current_range_meters":2800,"station_id":"ce4bhhp2rcd13ifvqfm0","pricing_plan_id":"cebpf4jnsgd1na2vs0mg"},{"bike_id":"08a30531-6cbd-470d-9454-09dda276e4ff","system_id":"levelo_inurba_marseille","lat":43.23195,"lon":5.35551,"is_reserved":false,"is_disabled":false,"rental_uris":{"android":"levelo://app?vid=08a30531-6cbd-470d-9454-09dda276e4ff","ios":"levelo://app?vid=08a30531-6cbd-470d-9454-09dda276e4ff"},"vehicle_type_id":"4","last_reported":1770381351,"current_range_meters":2800,"station_id":"ce4bhu92rcd13ifvqi70","pricing_plan_id":"cebpf4jnsgd1na2vs0mg"},{"bike_id":"b8f84804-3c6a-46e2-933b-865abf78412e","system_id":"levelo_inurba_marseille","lat":43.2848,"lon":5.48395,"is_reserved":false,"is_disabled":false,"rental_uris":{"android":"levelo://app?vid=b8f84804-3c6a-46e2-933b-865abf78412e","ios":"levelo://app?vid=b8f84804-3c6a-46e2-933b-865abf78412e"},"vehicle_type_id":"4","last_reported":1770381351,"current_range_meters":2800,"station_id":"st_d3svhcjqgbts73a3dn0g","pricing_plan_id":"cebpf4jnsgd1na2vs0mg"},{"bike_id":"d20f3e02-2913-4268-a777-daf98dcc5e63","system_id":"levelo_inurba_marseille","lat":43.33156,"lon":5.37698,"is_reserved":false,"is_disabled":false,"rental_uris":{"android":"levelo://app?vid=d20f3e02-2913-4268-a777-daf98dcc5e63","ios":"levelo://app?vid=d20f3e02-2913-4268-a777-daf98dcc5e63"},"vehicle_type_id":"4","last_reported":1770381351,"current_range_meters":2800,"station_id":"st_d46cu089ee8s73dldbu0","pricing_plan_id":"cebpf4jnsgd1na2vs0mg"},{"bike_id":"2a996a51-1b47-4d1b-bf7a-a7a485e91ad6","system_id":"levelo_inurba_marseille","lat":43.26213,"lon":5.37441,"is_reserved":false,"is_disabled":false,"rental_uris":{"android":"levelo://app?vid=2a996a51-1b47-4d1b-bf7a-a7a485e91ad6","ios":"levelo://app?vid=2a996a51-1b47-4d1b-bf7a-a7a485e91ad6"},"vehicle_type_id":"4","last_reported":1770381351,"current_range_meters":3200,"station_id":"ce4bhgp2rcd13ifvqfc0","pricing_plan_id":"cebpf4jnsgd1na2vs0mg"},{"bike_id":"b53f497c-0cdf-42a8-ab5a-d6dc45b07b09","system_id":"levelo_inurba_marseille","lat":43.24162,"lon":5.36407,"is_reserved":false,"is_disabled":false,"rental_uris":{"android":"levelo://app?vid=b53f497c-0cdf-42a8-ab5a-d6dc45b07b09","ios":"levelo://app?vid=b53f497c-0cdf-42a8-ab5a-d6dc45b07b09"},"vehicle_type_id":"4","last_reported":1770381351,"current_range_meters":3200,"station_id":"cpo36qri1sfpv3e86is0","pricing_plan_id":"cebpf4jnsgd1na2vs0mg"},{"bike_id":"d80d92c0-e8c3-4bd2-9272-a00aefbf4d79","system_id":"levelo_inurba_marseille","lat":43.23781,"lon":5.36619,"is_reserved":false,"is_disabled":false,"rental_uris":{"android":"levelo://app?vid=d80d92c0-e8c3-4bd2-9272-a00aefbf4d79","ios":"levelo://app?vid=d80d92c0-e8c3-4bd2-9272-a00aefbf4d79"},"vehicle_type_id":"4","last_reported":1770381351,"current_range_meters":3200,"station_id":"st_d3nk18o9ro0c73en2l3g","pricing_plan_id":"cebpf4jnsgd1na2vs0mg"},{"bike_id":"8cd895a8-ada2-4e79-918e-e0cf15c43440","system_id":"levelo_inurba_marseille","lat":43.30954,"lon":5.39046,"is_reserved":false,"is_disabled":true,"rental_uris":{"android":"levelo://app?vid=8cd895a8-ada2-4e79-918e-e0cf15c43440","ios":"levelo://app?vid=8cd895a8-ada2-4e79-918e-e0cf15c43440"},"vehicle_type_id":"4","last_reported":1770381351,"current_range_meters":3200,"station_id":"ce4bgup2rcd13ifvqco0","pricing_plan_id":"cebpf4jnsgd1na2vs0mg"},{"bike_id":"c3f43aa2-1ae1-41b3-a072-0f15c8d488c0","system_id":"levelo_inurba_marseille","lat":43.28477,"lon":5.43708,"is_reserved":false,"is_disabled":false,"rental_uris":{"android":"levelo://app?vid=c3f43aa2-1ae1-41b3-a072-0f15c8d488c0","ios":"levelo://app?vid=c3f43aa2-1ae1-41b3-a072-0f15c8d488c0"},"vehicle_type_id":"4","last_reported":1770381351,"current_range_meters":3200,"station_id":"","pricing_plan_id":"cebpf4jnsgd1na2vs0mg"},{"bike_id":"f819c946-1fa8-4b15-9daf-73744188ec72","system_id":"levelo_inurba_marseille","lat":43.33544,"lon":5.37468,"is_reserved":false,"is_disabled":false,"rental_uris":{"android":"levelo://app?vid=f819c946-1fa8-4b15-9daf-73744188ec72","ios":"levelo://app?vid=f819c946-1fa8-4b15-9daf-73744188ec72"},"vehicle_type_id":"4","last_reported":1770381351,"current_range_meters":3200,"station_id":"st_d46tts09ee8s73dlu43g","pricing_plan_id":"cebpf4jnsgd1na2vs0mg"},{"bike_id":"c59be42f-0772-451e-a452-b56e08719067","system_id":"levelo_inurba_marseille","lat":43.23971,"lon":5.36645,"is_reserved":false,"is_disabled":false,"rental_uris":{"android":"levelo://app?vid=c59be42f-0772-451e-a452-b56e08719067","ios":"levelo://app?vid=c59be42f-0772-451e-a452-b56e08719067"},"vehicle_type_id":"4","last_reported":1770381351,"current_range_meters":3200,"station_id":"ce4bhi12rcd13ifvqfp0","pricing_plan_id":"cebpf4jnsgd1na2vs0mg"},{"bike_id":"8d4ad76a-70c8-448e-b77b-93271cd8e0e6","system_id":"levelo_inurba_marseille","lat":43.25928,"lon":5.40905,"is_reserved":false,"is_disabled":false,"rental_uris":{"android":"levelo://app?vid=8d4ad76a-70c8-448e-b77b-93271cd8e0e6","ios":"levelo://app?vid=8d4ad76a-70c8-448e-b77b-93271cd8e0e6"},"vehicle_type_id":"4","last_reported":1770381351,"current_range_meters":3200,"station_id":"ce4bhm92rcd13ifvqglg","pricing_plan_id":"cebpf4jnsgd1na2vs0mg"},{"bike_id":"d72ec66a-db3f-41c7-8ed5-45387a7e4906","system_id":"levelo_inurba_marseille","lat":43.3172,"lon":5.42362,"is_reserved":false,"is_disabled":false,"rental_uris":{"android":"levelo://app?vid=d72ec66a-db3f-41c7-8ed5-45387a7e4906","ios":"levelo://app?vid=d72ec66a-db3f-41c7-8ed5-45387a7e4906"},"vehicle_type_id":"4","last_reported":1770381351,"current_range_meters":3600,"station_id":"ce4bhp92rcd13ifvqhbg","pricing_plan_id":"cebpf4jnsgd1na2vs0mg"},{"bike_id":"49bc0ac4-ec4c-46b4-bcba-c5b87d948aa1","system_id":"levelo_inurba_marseille","lat":43.2398,"lon":5.36625,"is_reserved":false,"is_disabled":false,"rental_uris":{"android":"levelo://app?vid=49bc0ac4-ec4c-46b4-bcba-c5b87d948aa1","ios":"levelo://app?vid=49bc0ac4-ec4c-46b4-bcba-c5b87d948aa1"},"vehicle_type_id":"4","last_reported":1770381351,"current_range_meters":3600,"station_id":"ce4bhi12rcd13ifvqfp0","pricing_plan_id":"cebpf4jnsgd1na2vs0mg"},{"bike_id":"a897f419-eb68-43b9-a6c4-4f6e0698253b","system_id":"levelo_inurba_marseille","lat":43.27222,"lon":5.39231,"is_reserved":false,"is_disabled":false,"rental_uris":{"android":"levelo://app?vid=a897f419-eb68-43b9-a6c4-4f6e0698253b","ios":"levelo://app?vid=a897f419-eb68-43b9-a6c4-4f6e0698253b"},"vehicle_type_id":"4","last_reported":1770381351,"current_range_meters":3600,"station_id":"ce4bhhp2rcd13ifvqfm0","pricing_plan_id":"cebpf4jnsgd1na2vs0mg"},{"bike_id":"a8a7e472-89b1-4503-b463-5ed1c5e80912","system_id":"levelo_inurba_marseille","lat":43.25083,"lon":5.39497,"is_reserved":false,"is_disabled":false,"rental_uris":{"android":"levelo://app?vid=a8a7e472-89b1-4503-b463-5ed1c5e80912","ios":"levelo://app?vid=a8a7e472-89b1-4503-b463-5ed1c5e80912"},"vehicle_type_id":"4","last_reported":1770381351,"current_range_meters":3600,"station_id":"ce4bhm12rcd13ifvqgkg","pricing_plan_id":"cebpf4jnsgd1na2vs0mg"},{"bike_id":"34c50a61-22ac-4ed2-981f-46c8654fa2b9","system_id":"levelo_inurba_marseille","lat":43.3356,"lon":5.37452,"is_reserved":false,"is_disabled":false,"rental_uris":{"android":"levelo://app?vid=34c50a61-22ac-4ed2-981f-46c8654fa2b9","ios":"levelo://app?vid=34c50a61-22ac-4ed2-981f-46c8654fa2b9"},"vehicle_type_id":"4","last_reported":1770381351,"current_range_meters":3600,"station_id":"","pricing_plan_id":"cebpf4jnsgd1na2vs0mg"},{"bike_id":"666ae4b0-78b8-4bfd-8d57-b1fb492c689f","system_id":"levelo_inurba_marseille","lat":43.28268,"lon":5.35061,"is_reserved":false,"is_disabled":false,"rental_uris":{"android":"levelo://app?vid=666ae4b0-78b8-4bfd-8d57-b1fb492c689f","ios":"levelo://app?vid=666ae4b0-78b8-4bfd-8d57-b1fb492c689f"},"vehicle_type_id":"4","last_reported":1770381351,"current_range_meters":4000,"station_id":"ce4bhbp2rcd13ifvqerg","pricing_plan_id":"cebpf4jnsgd1na2vs0mg"},{"bike_id":"ad5cdaec-c3e1-47e8-8b10-860e34c67a41","system_id":"levelo_inurba_marseille","lat":43.29267,"lon":5.38444,"is_reserved":false,"is_disabled":false,"rental_uris":{"android":"levelo://app?vid=ad5cdaec-c3e1-47e8-8b10-860e34c67a41","ios":"levelo://app?vid=ad5cdaec-c3e1-47e8-8b10-860e34c67a41"},"vehicle_type_id":"4","last_reported":1770381351,"current_range_meters":4000,"station_id":"ce4bh692rcd13ifvqea0","pricing_plan_id":"cebpf4jnsgd1na2vs0mg"},{"bike_id":"0f89d917-71ef-437b-ba7e-068f36a3eb29","system_id":"levelo_inurba_marseille","lat":43.26565,"lon":5.37352,"is_reserved":false,"is_disabled":false,"rental_uris":{"android":"levelo://app?vid=0f89d917-71ef-437b-ba7e-068f36a3eb29","ios":"levelo://app?vid=0f89d917-71ef-437b-ba7e-068f36a3eb29"},"vehicle_type_id":"4","last_reported":1770381351,"current_range_meters":4000,"station_id":"","pricing_plan_id":"cebpf4jnsgd1na2vs0mg"},{"bike_id":"b3da51f1-3959-4461-a2db-5ccced52aa40","system_id":"levelo_inurba_marseille","lat":43.29014,"lon":5.35918,"is_reserved":false,"is_disabled":false,"rental_uris":{"android":"levelo://app?vid=b3da51f1-3959-4461-a2db-5ccced52aa40","ios":"levelo://app?vid=b3da51f1-3959-4461-a2db-5ccced52aa40"},"vehicle_type_id":"4","last_reported":1770381351,"current_range_meters":4000,"station_id":"ce4bha92rcd13ifvqeg0","pricing_plan_id":"cebpf4jnsgd1na2vs0mg"},{"bike_id":"1e4df930-d044-402b-87ab-bcfcaeb07abf","system_id":"levelo_inurba_marseille","lat":43.29958,"lon":5.41322,"is_reserved":false,"is_disabled":false,"rental_uris":{"android":"levelo://app?vid=1e4df930-d044-402b-87ab-bcfcaeb07abf","ios":"levelo://app?vid=1e4df930-d044-402b-87ab-bcfcaeb07abf"},"vehicle_type_id":"4","last_reported":1770381351,"current_range_meters":4000,"station_id":"ce4bhp12rcd13ifvqh9g","pricing_plan_id":"cebpf4jnsgd1na2vs0mg"},{"bike_id":"8f4d5a26-f1fe-4139-a749-f4668f7bf478","system_id":"levelo_inurba_marseille","lat":43.22532,"lon":5.34839,"is_reserved":false,"is_disabled":false,"rental_uris":{"android":"levelo://app?vid=8f4d5a26-f1fe-4139-a749-f4668f7bf478","ios":"levelo://app?vid=8f4d5a26-f1fe-4139-a749-f4668f7bf478"},"vehicle_type_id":"4","last_reported":1770381351,"current_range_meters":4000,"station_id":"","pricing_plan_id":"cebpf4jnsgd1na2vs0mg"},{"bike_id":"5f71b3f7-af71-47e0-8f80-02e2bf303ae0","system_id":"levelo_inurba_marseille","lat":43.273893,"lon":5.390361,"is_reserved":false,"is_disabled":false,"rental_uris":{"android":"levelo://app?vid=5f71b3f7-af71-47e0-8f80-02e2bf303ae0","ios":"levelo://app?vid=5f71b3f7-af71-47e0-8f80-02e2bf303ae0"},"vehicle_type_id":"4","last_reported":1770381351,"current_range_meters":4000,"station_id":"ce4bhgp2rcd13ifvqfe0","pricing_plan_id":"cebpf4jnsgd1na2vs0mg"},{"bike_id":"609d2db5-6202-48ee-be96-a7ab598c3475","system_id":"levelo_inurba_marseille","lat":43.27191,"lon":5.39188,"is_reserved":false,"is_disabled":false,"rental_uris":{"android":"levelo://app?vid=609d2db5-6202-48ee-be96-a7ab598c3475","ios":"levelo://app?vid=609d2db5-6202-48ee-be96-a7ab598c3475"},"vehicle_type_id":"4","last_reported":1770381351,"current_range_meters":4000,"station_id":"ce4bhhp2rcd13ifvqfm0","pricing_plan_id":"cebpf4jnsgd1na2vs0mg"},{"bike_id":"9e65b0c1-6f2a-474b-b7b6-dbd0d0917076","system_id":"levelo_inurba_marseille","lat":43.30601,"lon":5.37231,"is_reserved":false,"is_disabled":false,"rental_uris":{"android":"levelo://app?vid=9e65b0c1-6f2a-474b-b7b6-dbd0d0917076","ios":"levelo://app?vid=9e65b0c1-6f2a-474b-b7b6-dbd0d0917076"},"vehicle_type_id":"4","last_reported":1770381351,"current_range_meters":4000,"station_id":"ce4bgqh2rcd13ifvqc4g","pricing_plan_id":"cebpf4jnsgd1na2vs0mg"},{"bike_id":"523eb44b-649e-4c8f-8f3d-01f6b03f6507","system_id":"levelo_inurba_marseille","lat":43.28147,"lon":5.42598,"is_reserved":false,"is_disabled":false,"rental_uris":{"android":"levelo://app?vid=523eb44b-649e-4c8f-8f3d-01f6b03f6507","ios":"levelo://app?vid=523eb44b-649e-4c8f-8f3d-01f6b03f6507"},"vehicle_type_id":"4","last_reported":1770381351,"current_range_meters":4000,"station_id":"ce4bhnh2rcd13ifvqgug","pricing_plan_id":"cebpf4jnsgd1na2vs0mg"},{"bike_id":"8105ab9a-fa0b-414c-b0ce-db25fabc877a","system_id":"levelo_inurba_marseille","lat":43.24394,"lon":5.37071,"is_reserved":false,"is_disabled":false,"rental_uris":{"android":"levelo://app?vid=8105ab9a-fa0b-414c-b0ce-db25fabc877a","ios":"levelo://app?vid=8105ab9a-fa0b-414c-b0ce-db25fabc877a"},"vehicle_type_id":"4","last_reported":1770381351,"current_range_meters":4000,"station_id":"ce4bhhh2rcd13ifvqfk0","pricing_plan_id":"cebpf4jnsgd1na2vs0mg"},{"bike_id":"fc72080f-0ec1-451c-b14d-7dcda4edd76a","system_id":"levelo_inurba_marseille","lat":43.30918,"lon":5.36858,"is_reserved":false,"is_disabled":false,"rental_uris":{"android":"levelo://app?vid=fc72080f-0ec1-451c-b14d-7dcda4edd76a","ios":"levelo://app?vid=fc72080f-0ec1-451c-b14d-7dcda4edd76a"},"vehicle_type_id":"4","last_reported":1770381351,"current_range_meters":4000,"station_id":"ce4bgn92rcd13ifvqbvg","pricing_plan_id":"cebpf4jnsgd1na2vs0mg"},{"bike_id":"763ca2db-75d7-48b2-b73f-8c613c09b235","system_id":"levelo_inurba_marseille","lat":43.2494,"lon":5.40494,"is_reserved":false,"is_disabled":false,"rental_uris":{"android":"levelo://app?vid=763ca2db-75d7-48b2-b73f-8c613c09b235","ios":"levelo://app?vid=763ca2db-75d7-48b2-b73f-8c613c09b235"},"vehicle_type_id":"4","last_reported":1770381351,"current_range_meters":4400,"station_id":"st_d2ngiaodas8pm72gd1h0","pricing_plan_id":"cebpf4jnsgd1na2vs0mg"},{"bike_id":"da76f900-b17d-4248-b9ba-2a8067b473bd","system_id":"levelo_inurba_marseille","lat":43.31717,"lon":5.42395,"is_reserved":false,"is_disabled":false,"rental_uris":{"android":"levelo://app?vid=da76f900-b17d-4248-b9ba-2a8067b473bd","ios":"levelo://app?vid=da76f900-b17d-4248-b9ba-2a8067b473bd"},"vehicle_type_id":"4","last_reported":1770381351,"current_range_meters":4400,"station_id":"ce4bhp92rcd13ifvqhbg","pricing_plan_id":"cebpf4jnsgd1na2vs0mg"},{"bike_id":"5584c365-b5fc-417c-bcd7-fe3e751cde76","system_id":"levelo_inurba_marseille","lat":43.3092,"lon":5.368423,"is_reserved":false,"is_disabled":false,"rental_uris":{"android":"levelo://app?vid=5584c365-b5fc-417c-bcd7-fe3e751cde76","ios":"levelo://app?vid=5584c365-b5fc-417c-bcd7-fe3e751cde76"},"vehicle_type_id":"4","last_reported":1770381351,"current_range_meters":4400,"station_id":"ce4bgn92rcd13ifvqbvg","pricing_plan_id":"cebpf4jnsgd1na2vs0mg"},{"bike_id":"f19552e5-b8be-4ac0-bab3-b1e24771cb0c","system_id":"levelo_inurba_marseille","lat":43.3212,"lon":5.36774,"is_reserved":false,"is_disabled":false,"rental_uris":{"android":"levelo://app?vid=f19552e5-b8be-4ac0-bab3-b1e24771cb0c","ios":"levelo://app?vid=f19552e5-b8be-4ac0-bab3-b1e24771cb0c"},"vehicle_type_id":"4","last_reported":1770381351,"current_range_meters":4400,"station_id":"ce4bhrh2rcd13ifvqhug","pricing_plan_id":"cebpf4jnsgd1na2vs0mg"},{"bike_id":"ac96778b-83ee-46e4-b60a-91f9f54c3685","system_id":"levelo_inurba_marseille","lat":43.26357,"lon":5.41055,"is_reserved":false,"is_disabled":false,"rental_uris":{"android":"levelo://app?vid=ac96778b-83ee-46e4-b60a-91f9f54c3685","ios":"levelo://app?vid=ac96778b-83ee-46e4-b60a-91f9f54c3685"},"vehicle_type_id":"4","last_reported":1770381351,"current_range_meters":4400,"station_id":"st_d4e5ca6na9uc73bfl5fg","pricing_plan_id":"cebpf4jnsgd1na2vs0mg"},{"bike_id":"fee0750a-8d27-43e0-94f7-17675fd554cc","system_id":"levelo_inurba_marseille","lat":43.23207,"lon":5.35568,"is_reserved":false,"is_disabled":false,"rental_uris":{"android":"levelo://app?vid=fee0750a-8d27-43e0-94f7-17675fd554cc","ios":"levelo://app?vid=fee0750a-8d27-43e0-94f7-17675fd554cc"},"vehicle_type_id":"4","last_reported":1770381351,"current_range_meters":4400,"station_id":"ce4bhu92rcd13ifvqi70","pricing_plan_id":"cebpf4jnsgd1na2vs0mg"},{"bike_id":"accc0d77-7563-46fc-9bad-66c89d2fb6c3","system_id":"levelo_inurba_marseille","lat":43.28619,"lon":5.35118,"is_reserved":false,"is_disabled":false,"rental_uris":{"android":"levelo://app?vid=accc0d77-7563-46fc-9bad-66c89d2fb6c3","ios":"levelo://app?vid=accc0d77-7563-46fc-9bad-66c89d2fb6c3"},"vehicle_type_id":"4","last_reported":1770381351,"current_range_meters":4400,"station_id":"ce4bhch2rcd13ifvqeug","pricing_plan_id":"cebpf4jnsgd1na2vs0mg"},{"bike_id":"a4b06fc9-86c2-4d42-90f9-8cb62498f9d7","system_id":"levelo_inurba_marseille","lat":43.27988,"lon":5.41685,"is_reserved":false,"is_disabled":false,"rental_uris":{"android":"levelo://app?vid=a4b06fc9-86c2-4d42-90f9-8cb62498f9d7","ios":"levelo://app?vid=a4b06fc9-86c2-4d42-90f9-8cb62498f9d7"},"vehicle_type_id":"4","last_reported":1770381351,"current_range_meters":4400,"station_id":"ce4bho12rcd13ifvqh1g","pricing_plan_id":"cebpf4jnsgd1na2vs0mg"},{"bike_id":"f68b26e5-fcea-4119-b73a-64c2fa3cecf8","system_id":"levelo_inurba_marseille","lat":43.32501,"lon":5.36587,"is_reserved":false,"is_disabled":false,"rental_uris":{"android":"levelo://app?vid=f68b26e5-fcea-4119-b73a-64c2fa3cecf8","ios":"levelo://app?vid=f68b26e5-fcea-4119-b73a-64c2fa3cecf8"},"vehicle_type_id":"4","last_reported":1770381351,"current_range_meters":4400,"station_id":"ce4bhs12rcd13ifvqhvg","pricing_plan_id":"cebpf4jnsgd1na2vs0mg"},{"bike_id":"d90ad92a-480c-45ba-91af-83ba1be4179d","system_id":"levelo_inurba_marseille","lat":43.31235,"lon":5.36951,"is_reserved":false,"is_disabled":false,"rental_uris":{"android":"levelo://app?vid=d90ad92a-480c-45ba-91af-83ba1be4179d","ios":"levelo://app?vid=d90ad92a-480c-45ba-91af-83ba1be4179d"},"vehicle_type_id":"4","last_reported":1770381351,"current_range_meters":4400,"station_id":"","pricing_plan_id":"cebpf4jnsgd1na2vs0mg"},{"bike_id":"5309610c-bf76-4542-a232-389bbf17cbff","system_id":"levelo_inurba_marseille","lat":43.33541,"lon":5.37463,"is_reserved":false,"is_disabled":false,"rental_uris":{"android":"levelo://app?vid=5309610c-bf76-4542-a232-389bbf17cbff","ios":"levelo://app?vid=5309610c-bf76-4542-a232-389bbf17cbff"},"vehicle_type_id":"4","last_reported":1770381351,"current_range_meters":4800,"station_id":"","pricing_plan_id":"cebpf4jnsgd1na2vs0mg"},{"bike_id":"e6aca556-ada4-4207-9528-35f8d7906ed0","system_id":"levelo_inurba_marseille","lat":43.27072,"lon":5.42279,"is_reserved":false,"is_disabled":false,"rental_uris":{"android":"levelo://app?vid=e6aca556-ada4-4207-9528-35f8d7906ed0","ios":"levelo://app?vid=e6aca556-ada4-4207-9528-35f8d7906ed0"},"vehicle_type_id":"4","last_reported":1770381351,"current_range_meters":4800,"station_id":"ce4bhk92rcd13ifvqgb0","pricing_plan_id":"cebpf4jnsgd1na2vs0mg"},{"bike_id":"f69cc029-bbb9-4b64-a98c-7044a350dd65","system_id":"levelo_inurba_marseille","lat":43.255756,"lon":5.38226,"is_reserved":false,"is_disabled":false,"rental_uris":{"android":"levelo://app?vid=f69cc029-bbb9-4b64-a98c-7044a350dd65","ios":"levelo://app?vid=f69cc029-bbb9-4b64-a98c-7044a350dd65"},"vehicle_type_id":"4","last_reported":1770381351,"current_range_meters":4800,"station_id":"ce4bhih2rcd13ifvqfs0","pricing_plan_id":"cebpf4jnsgd1na2vs0mg"},{"bike_id":"e0cba40c-ab67-41b5-a742-3a0c77adbcad","system_id":"levelo_inurba_marseille","lat":43.26364,"lon":5.41068,"is_reserved":false,"is_disabled":false,"rental_uris":{"android":"levelo://app?vid=e0cba40c-ab67-41b5-a742-3a0c77adbcad","ios":"levelo://app?vid=e0cba40c-ab67-41b5-a742-3a0c77adbcad"},"vehicle_type_id":"4","last_reported":1770381351,"current_range_meters":4800,"station_id":"st_d4e5ca6na9uc73bfl5fg","pricing_plan_id":"cebpf4jnsgd1na2vs0mg"},{"bike_id":"40819fca-9f18-4e89-b31c-5ad4505052c8","system_id":"levelo_inurba_marseille","lat":43.23158,"lon":5.35456,"is_reserved":false,"is_disabled":false,"rental_uris":{"android":"levelo://app?vid=40819fca-9f18-4e89-b31c-5ad4505052c8","ios":"levelo://app?vid=40819fca-9f18-4e89-b31c-5ad4505052c8"},"vehicle_type_id":"4","last_reported":1770381351,"current_range_meters":4800,"station_id":"","pricing_plan_id":"cebpf4jnsgd1na2vs0mg"},{"bike_id":"439e342e-883b-489c-b244-80b896dfb50c","system_id":"levelo_inurba_marseille","lat":43.28475,"lon":5.38416,"is_reserved":false,"is_disabled":false,"rental_uris":{"android":"levelo://app?vid=439e342e-883b-489c-b244-80b896dfb50c","ios":"levelo://app?vid=439e342e-883b-489c-b244-80b896dfb50c"},"vehicle_type_id":"4","last_reported":1770381351,"current_range_meters":4800,"station_id":"ce4bh512rcd13ifvqe3g","pricing_plan_id":"cebpf4jnsgd1na2vs0mg"},{"bike_id":"c1141524-5343-4555-9ca5-2692a3456421","system_id":"levelo_inurba_marseille","lat":43.22937,"lon":5.35334,"is_reserved":false,"is_disabled":false,"rental_uris":{"android":"levelo://app?vid=c1141524-5343-4555-9ca5-2692a3456421","ios":"levelo://app?vid=c1141524-5343-4555-9ca5-2692a3456421"},"vehicle_type_id":"4","last_reported":1770381351,"current_range_meters":4800,"station_id":"cpo3532slgdg3j2ikp40","pricing_plan_id":"cebpf4jnsgd1na2vs0mg"},{"bike_id":"66843164-e6dd-46fc-8743-26489dd47f53","system_id":"levelo_inurba_marseille","lat":43.31348,"lon":5.36702,"is_reserved":false,"is_disabled":false,"rental_uris":{"android":"levelo://app?vid=66843164-e6dd-46fc-8743-26489dd47f53","ios":"levelo://app?vid=66843164-e6dd-46fc-8743-26489dd47f53"},"vehicle_type_id":"4","last_reported":1770381351,"current_range_meters":4800,"station_id":"ce4bgr92rcd13ifvqc6g","pricing_plan_id":"cebpf4jnsgd1na2vs0mg"},{"bike_id":"f4cf1d6f-d368-4a16-aca4-1b13645e7e2f","system_id":"levelo_inurba_marseille","lat":43.28,"lon":5.40018,"is_reserved":false,"is_disabled":false,"rental_uris":{"android":"levelo://app?vid=f4cf1d6f-d368-4a16-aca4-1b13645e7e2f","ios":"levelo://app?vid=f4cf1d6f-d368-4a16-aca4-1b13645e7e2f"},"vehicle_type_id":"4","last_reported":1770381351,"current_range_meters":4800,"station_id":"ce4bho92rcd13ifvqh4g","pricing_plan_id":"cebpf4jnsgd1na2vs0mg"},{"bike_id":"f032e3f9-5399-4635-8e00-5e4d3179bb75","system_id":"levelo_inurba_marseille","lat":43.24474,"lon":5.42534,"is_reserved":false,"is_disabled":false,"rental_uris":{"android":"levelo://app?vid=f032e3f9-5399-4635-8e00-5e4d3179bb75","ios":"levelo://app?vid=f032e3f9-5399-4635-8e00-5e4d3179bb75"},"vehicle_type_id":"4","last_reported":1770381351,"current_range_meters":4800,"station_id":"st_d4a3vfp97mjs738cd8kg","pricing_plan_id":"cebpf4jnsgd1na2vs0mg"},{"bike_id":"2a2b05c1-a85f-4d1e-b72e-a067db8bd3bc","system_id":"levelo_inurba_marseille","lat":43.283779,"lon":5.37518,"is_reserved":false,"is_disabled":false,"rental_uris":{"android":"levelo://app?vid=2a2b05c1-a85f-4d1e-b72e-a067db8bd3bc","ios":"levelo://app?vid=2a2b05c1-a85f-4d1e-b72e-a067db8bd3bc"},"vehicle_type_id":"4","last_reported":1770381351,"current_range_meters":4800,"station_id":"ce4bh412rcd13ifvqds0","pricing_plan_id":"cebpf4jnsgd1na2vs0mg"},{"bike_id":"b49b4216-4eb9-404f-8a9b-f497315b3360","system_id":"levelo_inurba_marseille","lat":43.33542,"lon":5.37442,"is_reserved":false,"is_disabled":false,"rental_uris":{"android":"levelo://app?vid=b49b4216-4eb9-404f-8a9b-f497315b3360","ios":"levelo://app?vid=b49b4216-4eb9-404f-8a9b-f497315b3360"},"vehicle_type_id":"4","last_reported":1770381351,"current_range_meters":4800,"station_id":"st_d46tts09ee8s73dlu43g","pricing_plan_id":"cebpf4jnsgd1na2vs0mg"},{"bike_id":"e89444fd-396c-4a9f-a3c1-e26983ca174d","system_id":"levelo_inurba_marseille","lat":43.289363,"lon":5.366421,"is_reserved":false,"is_disabled":false,"rental_uris":{"android":"levelo://app?vid=e89444fd-396c-4a9f-a3c1-e26983ca174d","ios":"levelo://app?vid=e89444fd-396c-4a9f-a3c1-e26983ca174d"},"vehicle_type_id":"4","last_reported":1770381351,"current_range_meters":4800,"station_id":"ce4bhap2rcd13ifvqek0","pricing_plan_id":"cebpf4jnsgd1na2vs0mg"},{"bike_id":"bf716aa5-5db6-4f44-aa24-9167a51e58ca","system_id":"levelo_inurba_marseille","lat":43.31751,"lon":5.42387,"is_reserved":false,"is_disabled":false,"rental_uris":{"android":"levelo://app?vid=bf716aa5-5db6-4f44-aa24-9167a51e58ca","ios":"levelo://app?vid=bf716aa5-5db6-4f44-aa24-9167a51e58ca"},"vehicle_type_id":"4","last_reported":1770381351,"current_range_meters":5600,"station_id":"ce4bhp92rcd13ifvqhbg","pricing_plan_id":"cebpf4jnsgd1na2vs0mg"},{"bike_id":"0ad61100-8c1e-4683-9cc6-748f02a03fec","system_id":"levelo_inurba_marseille","lat":43.29898,"lon":5.43664,"is_reserved":false,"is_disabled":false,"rental_uris":{"android":"levelo://app?vid=0ad61100-8c1e-4683-9cc6-748f02a03fec","ios":"levelo://app?vid=0ad61100-8c1e-4683-9cc6-748f02a03fec"},"vehicle_type_id":"4","last_reported":1770381351,"current_range_meters":5600,"station_id":"ce4bhpp2rcd13ifvqhfg","pricing_plan_id":"cebpf4jnsgd1na2vs0mg"},{"bike_id":"bdba3080-ef8b-4531-bb46-675374626bae","system_id":"levelo_inurba_marseille","lat":43.28103,"lon":5.37833,"is_reserved":false,"is_disabled":false,"rental_uris":{"android":"levelo://app?vid=bdba3080-ef8b-4531-bb46-675374626bae","ios":"levelo://app?vid=bdba3080-ef8b-4531-bb46-675374626bae"},"vehicle_type_id":"4","last_reported":1770381351,"current_range_meters":5600,"station_id":"ce4bha12rcd13ifvqee0","pricing_plan_id":"cebpf4jnsgd1na2vs0mg"},{"bike_id":"7a9437dc-9620-4e4d-ac55-f97780f81760","system_id":"levelo_inurba_marseille","lat":43.24809,"lon":5.37463,"is_reserved":false,"is_disabled":false,"rental_uris":{"android":"levelo://app?vid=7a9437dc-9620-4e4d-ac55-f97780f81760","ios":"levelo://app?vid=7a9437dc-9620-4e4d-ac55-f97780f81760"},"vehicle_type_id":"4","last_reported":1770381351,"current_range_meters":5600,"station_id":"ce4bhgh2rcd13ifvqfb0","pricing_plan_id":"cebpf4jnsgd1na2vs0mg"},{"bike_id":"ae0eb4a0-49ee-4a02-b7ab-da66be7d9573","system_id":"levelo_inurba_marseille","lat":43.262233,"lon":5.404506,"is_reserved":false,"is_disabled":false,"rental_uris":{"android":"levelo://app?vid=ae0eb4a0-49ee-4a02-b7ab-da66be7d9573","ios":"levelo://app?vid=ae0eb4a0-49ee-4a02-b7ab-da66be7d9573"},"vehicle_type_id":"4","last_reported":1770381351,"current_range_meters":5600,"station_id":"ce4bhmh2rcd13ifvqgmg","pricing_plan_id":"cebpf4jnsgd1na2vs0mg"},{"bike_id":"f1bff026-bd99-4af5-9efa-17efa0f261ab","system_id":"levelo_inurba_marseille","lat":43.305389,"lon":5.365546,"is_reserved":false,"is_disabled":false,"rental_uris":{"android":"levelo://app?vid=f1bff026-bd99-4af5-9efa-17efa0f261ab","ios":"levelo://app?vid=f1bff026-bd99-4af5-9efa-17efa0f261ab"},"vehicle_type_id":"4","last_reported":1770381351,"current_range_meters":5600,"station_id":"ce4bgs12rcd13ifvqcag","pricing_plan_id":"cebpf4jnsgd1na2vs0mg"},{"bike_id":"b41b70e0-1c69-4eb7-a609-3adc976debad","system_id":"levelo_inurba_marseille","lat":43.27231,"lon":5.39194,"is_reserved":false,"is_disabled":false,"rental_uris":{"android":"levelo://app?vid=b41b70e0-1c69-4eb7-a609-3adc976debad","ios":"levelo://app?vid=b41b70e0-1c69-4eb7-a609-3adc976debad"},"vehicle_type_id":"4","last_reported":1770381351,"current_range_meters":5600,"station_id":"ce4bhhp2rcd13ifvqfm0","pricing_plan_id":"cebpf4jnsgd1na2vs0mg"},{"bike_id":"7cea3355-f240-42a0-a537-0409714e5cc5","system_id":"levelo_inurba_marseille","lat":43.2315,"lon":5.43722,"is_reserved":false,"is_disabled":false,"rental_uris":{"android":"levelo://app?vid=7cea3355-f240-42a0-a537-0409714e5cc5","ios":"levelo://app?vid=7cea3355-f240-42a0-a537-0409714e5cc5"},"vehicle_type_id":"4","last_reported":1770381351,"current_range_meters":5600,"station_id":"ce4bhmp2rcd13ifvqgog","pricing_plan_id":"cebpf4jnsgd1na2vs0mg"},{"bike_id":"c9beec65-77ad-4b5b-9ac6-037515454e3d","system_id":"levelo_inurba_marseille","lat":43.27373,"lon":5.36248,"is_reserved":false,"is_disabled":false,"rental_uris":{"android":"levelo://app?vid=c9beec65-77ad-4b5b-9ac6-037515454e3d","ios":"levelo://app?vid=c9beec65-77ad-4b5b-9ac6-037515454e3d"},"vehicle_type_id":"4","last_reported":1770381351,"current_range_meters":5600,"station_id":"ce4bhbh2rcd13ifvqeo0","pricing_plan_id":"cebpf4jnsgd1na2vs0mg"},{"bike_id":"1759c0e1-bc28-4c89-8153-22c5d17721b0","system_id":"levelo_inurba_marseille","lat":43.30165,"lon":5.37408,"is_reserved":false,"is_disabled":false,"rental_uris":{"android":"levelo://app?vid=1759c0e1-bc28-4c89-8153-22c5d17721b0","ios":"levelo://app?vid=1759c0e1-bc28-4c89-8153-22c5d17721b0"},"vehicle_type_id":"4","last_reported":1770381351,"current_range_meters":5600,"station_id":"ce4bgs92rcd13ifvqcc0","pricing_plan_id":"cebpf4jnsgd1na2vs0mg"},{"bike_id":"b22c1b66-e451-4fbc-b8b9-2b8fde19c342","system_id":"levelo_inurba_marseille","lat":43.28399,"lon":5.37528,"is_reserved":false,"is_disabled":false,"rental_uris":{"android":"levelo://app?vid=b22c1b66-e451-4fbc-b8b9-2b8fde19c342","ios":"levelo://app?vid=b22c1b66-e451-4fbc-b8b9-2b8fde19c342"},"vehicle_type_id":"4","last_reported":1770381351,"current_range_meters":5600,"station_id":"ce4bh412rcd13ifvqds0","pricing_plan_id":"cebpf4jnsgd1na2vs0mg"},{"bike_id":"601bfa90-ce75-42ca-92ad-040ddfb42905","system_id":"levelo_inurba_marseille","lat":43.24808,"lon":5.37459,"is_reserved":false,"is_disabled":false,"rental_uris":{"android":"levelo://app?vid=601bfa90-ce75-42ca-92ad-040ddfb42905","ios":"levelo://app?vid=601bfa90-ce75-42ca-92ad-040ddfb42905"},"vehicle_type_id":"4","last_reported":1770381351,"current_range_meters":6000,"station_id":"ce4bhgh2rcd13ifvqfb0","pricing_plan_id":"cebpf4jnsgd1na2vs0mg"},{"bike_id":"d9b1cde1-44ac-4ded-976f-b6e1f4bd126e","system_id":"levelo_inurba_marseille","lat":43.29304,"lon":5.383798,"is_reserved":false,"is_disabled":false,"rental_uris":{"android":"levelo://app?vid=d9b1cde1-44ac-4ded-976f-b6e1f4bd126e","ios":"levelo://app?vid=d9b1cde1-44ac-4ded-976f-b6e1f4bd126e"},"vehicle_type_id":"4","last_reported":1770381351,"current_range_meters":6000,"station_id":"ce4bgqh2rcd13ifvqc4g","pricing_plan_id":"cebpf4jnsgd1na2vs0mg"},{"bike_id":"4e3fbe0d-7cce-4e47-979f-2f3eb7fb0c4f","system_id":"levelo_inurba_marseille","lat":43.30535,"lon":5.365,"is_reserved":false,"is_disabled":false,"rental_uris":{"android":"levelo://app?vid=4e3fbe0d-7cce-4e47-979f-2f3eb7fb0c4f","ios":"levelo://app?vid=4e3fbe0d-7cce-4e47-979f-2f3eb7fb0c4f"},"vehicle_type_id":"4","last_reported":1770381351,"current_range_meters":6000,"station_id":"","pricing_plan_id":"cebpf4jnsgd1na2vs0mg"},{"bike_id":"8ac864bf-49b5-4ef2-bd0c-e2ca684e782b","system_id":"levelo_inurba_marseille","lat":43.2818,"lon":5.42644,"is_reserved":false,"is_disabled":false,"rental_uris":{"android":"levelo://app?vid=8ac864bf-49b5-4ef2-bd0c-e2ca684e782b","ios":"levelo://app?vid=8ac864bf-49b5-4ef2-bd0c-e2ca684e782b"},"vehicle_type_id":"4","last_reported":1770381351,"current_range_meters":6000,"station_id":"ce4bhnh2rcd13ifvqgug","pricing_plan_id":"cebpf4jnsgd1na2vs0mg"},{"bike_id":"6c706595-1835-4ddf-8d94-5e35d4a0f5cb","system_id":"levelo_inurba_marseille","lat":43.31264,"lon":5.36842,"is_reserved":false,"is_disabled":false,"rental_uris":{"android":"levelo://app?vid=6c706595-1835-4ddf-8d94-5e35d4a0f5cb","ios":"levelo://app?vid=6c706595-1835-4ddf-8d94-5e35d4a0f5cb"},"vehicle_type_id":"4","last_reported":1770381351,"current_range_meters":6000,"station_id":"ce4bgl92rcd13ifvqbq0","pricing_plan_id":"cebpf4jnsgd1na2vs0mg"},{"bike_id":"c0bcc2b4-0c21-4712-82e8-d7d1de58590b","system_id":"levelo_inurba_marseille","lat":43.26383,"lon":5.41077,"is_reserved":false,"is_disabled":true,"rental_uris":{"android":"levelo://app?vid=c0bcc2b4-0c21-4712-82e8-d7d1de58590b","ios":"levelo://app?vid=c0bcc2b4-0c21-4712-82e8-d7d1de58590b"},"vehicle_type_id":"4","last_reported":1770381351,"current_range_meters":6000,"station_id":"","pricing_plan_id":"cebpf4jnsgd1na2vs0mg"},{"bike_id":"7ce3271c-9e28-4d5e-b3b1-77311e5df5d7","system_id":"levelo_inurba_marseille","lat":43.31488,"lon":5.38089,"is_reserved":false,"is_disabled":false,"rental_uris":{"android":"levelo://app?vid=7ce3271c-9e28-4d5e-b3b1-77311e5df5d7","ios":"levelo://app?vid=7ce3271c-9e28-4d5e-b3b1-77311e5df5d7"},"vehicle_type_id":"4","last_reported":1770381351,"current_range_meters":6000,"station_id":"","pricing_plan_id":"cebpf4jnsgd1na2vs0mg"},{"bike_id":"d87191fb-09d7-4cf9-b283-24e60e8d5c51","system_id":"levelo_inurba_marseille","lat":43.292613,"lon":5.368627,"is_reserved":false,"is_disabled":false,"rental_uris":{"android":"levelo://app?vid=d87191fb-09d7-4cf9-b283-24e60e8d5c51","ios":"levelo://app?vid=d87191fb-09d7-4cf9-b283-24e60e8d5c51"},"vehicle_type_id":"4","last_reported":1770381351,"current_range_meters":6000,"station_id":"ce4bhbp2rcd13ifvqesg","pricing_plan_id":"cebpf4jnsgd1na2vs0mg"},{"bike_id":"7578ec44-a531-4905-8cb1-3349a5a96024","system_id":"levelo_inurba_marseille","lat":43.28676,"lon":5.38623,"is_reserved":false,"is_disabled":false,"rental_uris":{"android":"levelo://app?vid=7578ec44-a531-4905-8cb1-3349a5a96024","ios":"levelo://app?vid=7578ec44-a531-4905-8cb1-3349a5a96024"},"vehicle_type_id":"4","last_reported":1770381351,"current_range_meters":6000,"station_id":"ce4bh492rcd13ifvqdug","pricing_plan_id":"cebpf4jnsgd1na2vs0mg"},{"bike_id":"ed0b7b07-9c38-4fb9-bc30-93ba90939795","system_id":"levelo_inurba_marseille","lat":43.33157,"lon":5.37695,"is_reserved":false,"is_disabled":false,"rental_uris":{"android":"levelo://app?vid=ed0b7b07-9c38-4fb9-bc30-93ba90939795","ios":"levelo://app?vid=ed0b7b07-9c38-4fb9-bc30-93ba90939795"},"vehicle_type_id":"4","last_reported":1770381351,"current_range_meters":6000,"station_id":"st_d46cu089ee8s73dldbu0","pricing_plan_id":"cebpf4jnsgd1na2vs0mg"},{"bike_id":"935f3bdb-0f5b-4895-ac38-38e1ad348d15","system_id":"levelo_inurba_marseille","lat":43.30463,"lon":5.37906,"is_reserved":false,"is_disabled":false,"rental_uris":{"android":"levelo://app?vid=935f3bdb-0f5b-4895-ac38-38e1ad348d15","ios":"levelo://app?vid=935f3bdb-0f5b-4895-ac38-38e1ad348d15"},"vehicle_type_id":"4","last_reported":1770381351,"current_range_meters":6000,"station_id":"ce4bgup2rcd13ifvqcn0","pricing_plan_id":"cebpf4jnsgd1na2vs0mg"},{"bike_id":"ac551100-dc22-4913-9a52-4829a5f95f35","system_id":"levelo_inurba_marseille","lat":43.28629,"lon":5.39901,"is_reserved":false,"is_disabled":true,"rental_uris":{"android":"levelo://app?vid=ac551100-dc22-4913-9a52-4829a5f95f35","ios":"levelo://app?vid=ac551100-dc22-4913-9a52-4829a5f95f35"},"vehicle_type_id":"4","last_reported":1770381351,"current_range_meters":6000,"station_id":"st_d4a7ka997mjs738ck50g","pricing_plan_id":"cebpf4jnsgd1na2vs0mg"},{"bike_id":"d50ed714-4b61-4b7f-87c7-00ad2dd18f53","system_id":"levelo_inurba_marseille","lat":43.30172,"lon":5.38088,"is_reserved":false,"is_disabled":false,"rental_uris":{"android":"levelo://app?vid=d50ed714-4b61-4b7f-87c7-00ad2dd18f53","ios":"levelo://app?vid=d50ed714-4b61-4b7f-87c7-00ad2dd18f53"},"vehicle_type_id":"4","last_reported":1770381351,"current_range_meters":6000,"station_id":"ce4bgjp2rcd13ifvqbh0","pricing_plan_id":"cebpf4jnsgd1na2vs0mg"},{"bike_id":"4b8cc246-83a8-44e4-8cec-3c4a9905abe8","system_id":"levelo_inurba_marseille","lat":43.28405,"lon":5.37497,"is_reserved":false,"is_disabled":false,"rental_uris":{"android":"levelo://app?vid=4b8cc246-83a8-44e4-8cec-3c4a9905abe8","ios":"levelo://app?vid=4b8cc246-83a8-44e4-8cec-3c4a9905abe8"},"vehicle_type_id":"4","last_reported":1770381351,"current_range_meters":6000,"station_id":"ce4bh412rcd13ifvqds0","pricing_plan_id":"cebpf4jnsgd1na2vs0mg"},{"bike_id":"0ff7d1fc-c942-4e04-bb24-6b30b880d197","system_id":"levelo_inurba_marseille","lat":43.31552,"lon":5.36908,"is_reserved":false,"is_disabled":false,"rental_uris":{"android":"levelo://app?vid=0ff7d1fc-c942-4e04-bb24-6b30b880d197","ios":"levelo://app?vid=0ff7d1fc-c942-4e04-bb24-6b30b880d197"},"vehicle_type_id":"4","last_reported":1770381351,"current_range_meters":6000,"station_id":"","pricing_plan_id":"cebpf4jnsgd1na2vs0mg"},{"bike_id":"7646115c-16ae-46bb-b03c-df2955877c47","system_id":"levelo_inurba_marseille","lat":43.26571,"lon":5.37323,"is_reserved":false,"is_disabled":false,"rental_uris":{"android":"levelo://app?vid=7646115c-16ae-46bb-b03c-df2955877c47","ios":"levelo://app?vid=7646115c-16ae-46bb-b03c-df2955877c47"},"vehicle_type_id":"4","last_reported":1770381351,"current_range_meters":6000,"station_id":"ce4bhg12rcd13ifvqf70","pricing_plan_id":"cebpf4jnsgd1na2vs0mg"},{"bike_id":"7d70eb5b-0c68-4c6b-845a-56956d2aa148","system_id":"levelo_inurba_marseille","lat":43.23785,"lon":5.36631,"is_reserved":false,"is_disabled":false,"rental_uris":{"android":"levelo://app?vid=7d70eb5b-0c68-4c6b-845a-56956d2aa148","ios":"levelo://app?vid=7d70eb5b-0c68-4c6b-845a-56956d2aa148"},"vehicle_type_id":"4","last_reported":1770381351,"current_range_meters":6000,"station_id":"st_d3nk18o9ro0c73en2l3g","pricing_plan_id":"cebpf4jnsgd1na2vs0mg"},{"bike_id":"81105a24-281c-41d4-9cb4-6f41e46300e9","system_id":"levelo_inurba_marseille","lat":43.2979,"lon":5.38089,"is_reserved":false,"is_disabled":false,"rental_uris":{"android":"levelo://app?vid=81105a24-281c-41d4-9cb4-6f41e46300e9","ios":"levelo://app?vid=81105a24-281c-41d4-9cb4-6f41e46300e9"},"vehicle_type_id":"4","last_reported":1770381351,"current_range_meters":6400,"station_id":"ce4bgip2rcd13ifvqbb0","pricing_plan_id":"cebpf4jnsgd1na2vs0mg"},{"bike_id":"2019aed1-4c5c-46a1-8cfd-39406ce16be5","system_id":"levelo_inurba_marseille","lat":43.32061,"lon":5.41554,"is_reserved":false,"is_disabled":true,"rental_uris":{"android":"levelo://app?vid=2019aed1-4c5c-46a1-8cfd-39406ce16be5","ios":"levelo://app?vid=2019aed1-4c5c-46a1-8cfd-39406ce16be5"},"vehicle_type_id":"4","last_reported":1770381351,"current_range_meters":6400,"station_id":"ce4bhq92rcd13ifvqhkg","pricing_plan_id":"cebpf4jnsgd1na2vs0mg"},{"bike_id":"dc741656-66c5-4ad6-8a4c-5f9259655f62","system_id":"levelo_inurba_marseille","lat":43.29897,"lon":5.43671,"is_reserved":false,"is_disabled":false,"rental_uris":{"android":"levelo://app?vid=dc741656-66c5-4ad6-8a4c-5f9259655f62","ios":"levelo://app?vid=dc741656-66c5-4ad6-8a4c-5f9259655f62"},"vehicle_type_id":"4","last_reported":1770381351,"current_range_meters":6400,"station_id":"ce4bhpp2rcd13ifvqhfg","pricing_plan_id":"cebpf4jnsgd1na2vs0mg"},{"bike_id":"c8bb3926-66d4-481d-aab3-23b94c169d29","system_id":"levelo_inurba_marseille","lat":43.27986,"lon":5.38712,"is_reserved":false,"is_disabled":false,"rental_uris":{"android":"levelo://app?vid=c8bb3926-66d4-481d-aab3-23b94c169d29","ios":"levelo://app?vid=c8bb3926-66d4-481d-aab3-23b94c169d29"},"vehicle_type_id":"4","last_reported":1770381351,"current_range_meters":6400,"station_id":"ce4bhg12rcd13ifvqf80","pricing_plan_id":"cebpf4jnsgd1na2vs0mg"},{"bike_id":"63b5e7ff-784a-44cb-b53d-dd43a84f5930","system_id":"levelo_inurba_marseille","lat":43.24164,"lon":5.36405,"is_reserved":false,"is_disabled":false,"rental_uris":{"android":"levelo://app?vid=63b5e7ff-784a-44cb-b53d-dd43a84f5930","ios":"levelo://app?vid=63b5e7ff-784a-44cb-b53d-dd43a84f5930"},"vehicle_type_id":"4","last_reported":1770381351,"current_range_meters":6400,"station_id":"cpo36qri1sfpv3e86is0","pricing_plan_id":"cebpf4jnsgd1na2vs0mg"},{"bike_id":"401267ee-c62b-44e0-81b2-f782b88a62dc","system_id":"levelo_inurba_marseille","lat":43.29052,"lon":5.39978,"is_reserved":false,"is_disabled":false,"rental_uris":{"android":"levelo://app?vid=401267ee-c62b-44e0-81b2-f782b88a62dc","ios":"levelo://app?vid=401267ee-c62b-44e0-81b2-f782b88a62dc"},"vehicle_type_id":"4","last_reported":1770381351,"current_range_meters":6400,"station_id":"ce4bh392rcd13ifvqdm0","pricing_plan_id":"cebpf4jnsgd1na2vs0mg"},{"bike_id":"263020aa-900e-4b1a-9d7d-24fd8c149900","system_id":"levelo_inurba_marseille","lat":43.24069,"lon":5.37766,"is_reserved":false,"is_disabled":false,"rental_uris":{"android":"levelo://app?vid=263020aa-900e-4b1a-9d7d-24fd8c149900","ios":"levelo://app?vid=263020aa-900e-4b1a-9d7d-24fd8c149900"},"vehicle_type_id":"4","last_reported":1770381351,"current_range_meters":6400,"station_id":"ce4bhnp2rcd13ifvqgvg","pricing_plan_id":"cebpf4jnsgd1na2vs0mg"},{"bike_id":"0c0204e9-2e2c-4854-9498-c261c0135345","system_id":"levelo_inurba_marseille","lat":43.23775,"lon":5.36597,"is_reserved":false,"is_disabled":false,"rental_uris":{"android":"levelo://app?vid=0c0204e9-2e2c-4854-9498-c261c0135345","ios":"levelo://app?vid=0c0204e9-2e2c-4854-9498-c261c0135345"},"vehicle_type_id":"4","last_reported":1770381351,"current_range_meters":6400,"station_id":"st_d3nk18o9ro0c73en2l3g","pricing_plan_id":"cebpf4jnsgd1na2vs0mg"},{"bike_id":"0388f24a-b566-45b1-a38a-12fb5d338f89","system_id":"levelo_inurba_marseille","lat":43.31652,"lon":5.37647,"is_reserved":false,"is_disabled":false,"rental_uris":{"android":"levelo://app?vid=0388f24a-b566-45b1-a38a-12fb5d338f89","ios":"levelo://app?vid=0388f24a-b566-45b1-a38a-12fb5d338f89"},"vehicle_type_id":"4","last_reported":1770381351,"current_range_meters":6400,"station_id":"","pricing_plan_id":"cebpf4jnsgd1na2vs0mg"},{"bike_id":"26d0959f-e57b-4367-84f7-ad6094aac380","system_id":"levelo_inurba_marseille","lat":43.279138,"lon":5.395768,"is_reserved":false,"is_disabled":false,"rental_uris":{"android":"levelo://app?vid=26d0959f-e57b-4367-84f7-ad6094aac380","ios":"levelo://app?vid=26d0959f-e57b-4367-84f7-ad6094aac380"},"vehicle_type_id":"4","last_reported":1770381351,"current_range_meters":6400,"station_id":"ce4bhf92rcd13ifvqf40","pricing_plan_id":"cebpf4jnsgd1na2vs0mg"},{"bike_id":"1742c270-7494-4721-b3c0-6d1b71c58d97","system_id":"levelo_inurba_marseille","lat":43.27824,"lon":5.4072,"is_reserved":false,"is_disabled":false,"rental_uris":{"android":"levelo://app?vid=1742c270-7494-4721-b3c0-6d1b71c58d97","ios":"levelo://app?vid=1742c270-7494-4721-b3c0-6d1b71c58d97"},"vehicle_type_id":"4","last_reported":1770381351,"current_range_meters":6400,"station_id":"ce4bhnh2rcd13ifvqgtg","pricing_plan_id":"cebpf4jnsgd1na2vs0mg"},{"bike_id":"375e9bcb-b945-4768-82d3-b05471dcf5fd","system_id":"levelo_inurba_marseille","lat":43.28931,"lon":5.46037,"is_reserved":false,"is_disabled":false,"rental_uris":{"android":"levelo://app?vid=375e9bcb-b945-4768-82d3-b05471dcf5fd","ios":"levelo://app?vid=375e9bcb-b945-4768-82d3-b05471dcf5fd"},"vehicle_type_id":"4","last_reported":1770381351,"current_range_meters":6800,"station_id":"","pricing_plan_id":"cebpf4jnsgd1na2vs0mg"},{"bike_id":"69c3a4fd-6abf-495d-aca1-26b778e6bd90","system_id":"levelo_inurba_marseille","lat":43.30144,"lon":5.37403,"is_reserved":false,"is_disabled":false,"rental_uris":{"android":"levelo://app?vid=69c3a4fd-6abf-495d-aca1-26b778e6bd90","ios":"levelo://app?vid=69c3a4fd-6abf-495d-aca1-26b778e6bd90"},"vehicle_type_id":"4","last_reported":1770381351,"current_range_meters":6800,"station_id":"ce4bgs92rcd13ifvqcc0","pricing_plan_id":"cebpf4jnsgd1na2vs0mg"},{"bike_id":"86ef6d29-a1ae-4ad3-85ee-72ede19038e6","system_id":"levelo_inurba_marseille","lat":43.32081,"lon":5.36765,"is_reserved":false,"is_disabled":false,"rental_uris":{"android":"levelo://app?vid=86ef6d29-a1ae-4ad3-85ee-72ede19038e6","ios":"levelo://app?vid=86ef6d29-a1ae-4ad3-85ee-72ede19038e6"},"vehicle_type_id":"4","last_reported":1770381351,"current_range_meters":6800,"station_id":"ce4bhrh2rcd13ifvqhug","pricing_plan_id":"cebpf4jnsgd1na2vs0mg"},{"bike_id":"ef79007e-ef6d-4e7f-a3ae-3ed5ead69e87","system_id":"levelo_inurba_marseille","lat":43.23215,"lon":5.35502,"is_reserved":false,"is_disabled":false,"rental_uris":{"android":"levelo://app?vid=ef79007e-ef6d-4e7f-a3ae-3ed5ead69e87","ios":"levelo://app?vid=ef79007e-ef6d-4e7f-a3ae-3ed5ead69e87"},"vehicle_type_id":"4","last_reported":1770381351,"current_range_meters":6800,"station_id":"ce4bhu92rcd13ifvqi70","pricing_plan_id":"cebpf4jnsgd1na2vs0mg"},{"bike_id":"ce42e7f7-46f5-4db3-9bac-ce86f1010cc5","system_id":"levelo_inurba_marseille","lat":43.23378,"lon":5.41241,"is_reserved":false,"is_disabled":false,"rental_uris":{"android":"levelo://app?vid=ce42e7f7-46f5-4db3-9bac-ce86f1010cc5","ios":"levelo://app?vid=ce42e7f7-46f5-4db3-9bac-ce86f1010cc5"},"vehicle_type_id":"4","last_reported":1770381351,"current_range_meters":6800,"station_id":"","pricing_plan_id":"cebpf4jnsgd1na2vs0mg"},{"bike_id":"471dbee0-7eb5-4379-a985-295b8036e0e2","system_id":"levelo_inurba_marseille","lat":43.2292,"lon":5.35356,"is_reserved":false,"is_disabled":false,"rental_uris":{"android":"levelo://app?vid=471dbee0-7eb5-4379-a985-295b8036e0e2","ios":"levelo://app?vid=471dbee0-7eb5-4379-a985-295b8036e0e2"},"vehicle_type_id":"4","last_reported":1770381351,"current_range_meters":6800,"station_id":"cpo3532slgdg3j2ikp40","pricing_plan_id":"cebpf4jnsgd1na2vs0mg"},{"bike_id":"ea394ce4-561e-40c3-b5d8-13958e8a40d6","system_id":"levelo_inurba_marseille","lat":43.23191,"lon":5.3556,"is_reserved":false,"is_disabled":false,"rental_uris":{"android":"levelo://app?vid=ea394ce4-561e-40c3-b5d8-13958e8a40d6","ios":"levelo://app?vid=ea394ce4-561e-40c3-b5d8-13958e8a40d6"},"vehicle_type_id":"4","last_reported":1770381351,"current_range_meters":6800,"station_id":"ce4bhu92rcd13ifvqi70","pricing_plan_id":"cebpf4jnsgd1na2vs0mg"},{"bike_id":"6e518be9-aad1-4b91-b275-bfdd4d3a351e","system_id":"levelo_inurba_marseille","lat":43.292581,"lon":5.384304,"is_reserved":false,"is_disabled":false,"rental_uris":{"android":"levelo://app?vid=6e518be9-aad1-4b91-b275-bfdd4d3a351e","ios":"levelo://app?vid=6e518be9-aad1-4b91-b275-bfdd4d3a351e"},"vehicle_type_id":"4","last_reported":1770381351,"current_range_meters":6800,"station_id":"ce4bhn92rcd13ifvqgrg","pricing_plan_id":"cebpf4jnsgd1na2vs0mg"},{"bike_id":"411df4d5-8d40-4688-a70b-e4ac2b83da4b","system_id":"levelo_inurba_marseille","lat":43.293583,"lon":5.37861,"is_reserved":false,"is_disabled":false,"rental_uris":{"android":"levelo://app?vid=411df4d5-8d40-4688-a70b-e4ac2b83da4b","ios":"levelo://app?vid=411df4d5-8d40-4688-a70b-e4ac2b83da4b"},"vehicle_type_id":"4","last_reported":1770381351,"current_range_meters":6800,"station_id":"ce4bgk12rcd13ifvqbi0","pricing_plan_id":"cebpf4jnsgd1na2vs0mg"},{"bike_id":"75dea4bc-7a7c-47d0-8bc5-a7d88dc9844b","system_id":"levelo_inurba_marseille","lat":43.2796,"lon":5.38744,"is_reserved":false,"is_disabled":false,"rental_uris":{"android":"levelo://app?vid=75dea4bc-7a7c-47d0-8bc5-a7d88dc9844b","ios":"levelo://app?vid=75dea4bc-7a7c-47d0-8bc5-a7d88dc9844b"},"vehicle_type_id":"4","last_reported":1770381351,"current_range_meters":6800,"station_id":"ce4bhg12rcd13ifvqf80","pricing_plan_id":"cebpf4jnsgd1na2vs0mg"},{"bike_id":"90e59ac1-cd46-446b-b3a8-2b22481380d2","system_id":"levelo_inurba_marseille","lat":43.30887,"lon":5.37193,"is_reserved":false,"is_disabled":false,"rental_uris":{"android":"levelo://app?vid=90e59ac1-cd46-446b-b3a8-2b22481380d2","ios":"levelo://app?vid=90e59ac1-cd46-446b-b3a8-2b22481380d2"},"vehicle_type_id":"4","last_reported":1770381351,"current_range_meters":6800,"station_id":"ce4bguh2rcd13ifvqckg","pricing_plan_id":"cebpf4jnsgd1na2vs0mg"},{"bike_id":"c8aff1fe-5f04-4fd7-864c-64d4b266f9d6","system_id":"levelo_inurba_marseille","lat":43.302065,"lon":5.36618,"is_reserved":false,"is_disabled":false,"rental_uris":{"android":"levelo://app?vid=c8aff1fe-5f04-4fd7-864c-64d4b266f9d6","ios":"levelo://app?vid=c8aff1fe-5f04-4fd7-864c-64d4b266f9d6"},"vehicle_type_id":"4","last_reported":1770381351,"current_range_meters":6800,"station_id":"ce4bgrh2rcd13ifvqc8g","pricing_plan_id":"cebpf4jnsgd1na2vs0mg"},{"bike_id":"b02fbb60-e23e-4658-8f76-7a7c1172a579","system_id":"levelo_inurba_marseille","lat":43.26547,"lon":5.37283,"is_reserved":false,"is_disabled":false,"rental_uris":{"android":"levelo://app?vid=b02fbb60-e23e-4658-8f76-7a7c1172a579","ios":"levelo://app?vid=b02fbb60-e23e-4658-8f76-7a7c1172a579"},"vehicle_type_id":"4","last_reported":1770381351,"current_range_meters":6800,"station_id":"ce4bhg12rcd13ifvqf70","pricing_plan_id":"cebpf4jnsgd1na2vs0mg"},{"bike_id":"bd41835c-9af3-4a34-9d71-f1e8a1e32e92","system_id":"levelo_inurba_marseille","lat":43.27811,"lon":5.40722,"is_reserved":false,"is_disabled":false,"rental_uris":{"android":"levelo://app?vid=bd41835c-9af3-4a34-9d71-f1e8a1e32e92","ios":"levelo://app?vid=bd41835c-9af3-4a34-9d71-f1e8a1e32e92"},"vehicle_type_id":"4","last_reported":1770381351,"current_range_meters":6800,"station_id":"ce4bhnh2rcd13ifvqgtg","pricing_plan_id":"cebpf4jnsgd1na2vs0mg"},{"bike_id":"5c3d031a-a771-44bc-8903-4ef356b4460b","system_id":"levelo_inurba_marseille","lat":43.24818,"lon":5.37459,"is_reserved":false,"is_disabled":false,"rental_uris":{"android":"levelo://app?vid=5c3d031a-a771-44bc-8903-4ef356b4460b","ios":"levelo://app?vid=5c3d031a-a771-44bc-8903-4ef356b4460b"},"vehicle_type_id":"4","last_reported":1770381351,"current_range_meters":6800,"station_id":"ce4bhgh2rcd13ifvqfb0","pricing_plan_id":"cebpf4jnsgd1na2vs0mg"},{"bike_id":"ddc87509-ae20-4d3a-aba3-5f2d7c91e914","system_id":"levelo_inurba_marseille","lat":43.23171,"lon":5.43725,"is_reserved":false,"is_disabled":false,"rental_uris":{"android":"levelo://app?vid=ddc87509-ae20-4d3a-aba3-5f2d7c91e914","ios":"levelo://app?vid=ddc87509-ae20-4d3a-aba3-5f2d7c91e914"},"vehicle_type_id":"4","last_reported":1770381351,"current_range_meters":6800,"station_id":"ce4bhmp2rcd13ifvqgog","pricing_plan_id":"cebpf4jnsgd1na2vs0mg"},{"bike_id":"e0c6a05b-eb02-486c-b185-09b703cc70a3","system_id":"levelo_inurba_marseille","lat":43.28241,"lon":5.40297,"is_reserved":false,"is_disabled":false,"rental_uris":{"android":"levelo://app?vid=e0c6a05b-eb02-486c-b185-09b703cc70a3","ios":"levelo://app?vid=e0c6a05b-eb02-486c-b185-09b703cc70a3"},"vehicle_type_id":"4","last_reported":1770381351,"current_range_meters":6800,"station_id":"","pricing_plan_id":"cebpf4jnsgd1na2vs0mg"},{"bike_id":"de002910-d5f5-4491-9f20-d88633cf2e0e","system_id":"levelo_inurba_marseille","lat":43.26952,"lon":5.38633,"is_reserved":false,"is_disabled":false,"rental_uris":{"android":"levelo://app?vid=de002910-d5f5-4491-9f20-d88633cf2e0e","ios":"levelo://app?vid=de002910-d5f5-4491-9f20-d88633cf2e0e"},"vehicle_type_id":"4","last_reported":1770381351,"current_range_meters":6800,"station_id":"ce4bhh92rcd13ifvqfh0","pricing_plan_id":"cebpf4jnsgd1na2vs0mg"},{"bike_id":"f2251f8f-476c-490a-a2da-0d724c30184f","system_id":"levelo_inurba_marseille","lat":43.3124,"lon":5.36765,"is_reserved":false,"is_disabled":false,"rental_uris":{"android":"levelo://app?vid=f2251f8f-476c-490a-a2da-0d724c30184f","ios":"levelo://app?vid=f2251f8f-476c-490a-a2da-0d724c30184f"},"vehicle_type_id":"4","last_reported":1770381351,"current_range_meters":7200,"station_id":"","pricing_plan_id":"cebpf4jnsgd1na2vs0mg"},{"bike_id":"c7cbbeae-7a99-47a4-87ed-0639efdfd15d","system_id":"levelo_inurba_marseille","lat":43.31226,"lon":5.36872,"is_reserved":false,"is_disabled":false,"rental_uris":{"android":"levelo://app?vid=c7cbbeae-7a99-47a4-87ed-0639efdfd15d","ios":"levelo://app?vid=c7cbbeae-7a99-47a4-87ed-0639efdfd15d"},"vehicle_type_id":"4","last_reported":1770381351,"current_range_meters":7200,"station_id":"ce4bgl92rcd13ifvqbq0","pricing_plan_id":"cebpf4jnsgd1na2vs0mg"},{"bike_id":"94b44417-a21a-4d69-bb88-2cb88dfc3dca","system_id":"levelo_inurba_marseille","lat":43.30118,"lon":5.43115,"is_reserved":false,"is_disabled":false,"rental_uris":{"android":"levelo://app?vid=94b44417-a21a-4d69-bb88-2cb88dfc3dca","ios":"levelo://app?vid=94b44417-a21a-4d69-bb88-2cb88dfc3dca"},"vehicle_type_id":"4","last_reported":1770381351,"current_range_meters":7200,"station_id":"st_d3js3co5814s73ftftug","pricing_plan_id":"cebpf4jnsgd1na2vs0mg"},{"bike_id":"8018bfcd-8623-4252-9771-08b802ae9561","system_id":"levelo_inurba_marseille","lat":43.29659,"lon":5.37166,"is_reserved":false,"is_disabled":false,"rental_uris":{"android":"levelo://app?vid=8018bfcd-8623-4252-9771-08b802ae9561","ios":"levelo://app?vid=8018bfcd-8623-4252-9771-08b802ae9561"},"vehicle_type_id":"4","last_reported":1770381351,"current_range_meters":7200,"station_id":"ce4bgnh2rcd13ifvqc0g","pricing_plan_id":"cebpf4jnsgd1na2vs0mg"},{"bike_id":"863308ba-fe7d-40eb-8206-0802e661562b","system_id":"levelo_inurba_marseille","lat":43.309505,"lon":5.39027,"is_reserved":false,"is_disabled":false,"rental_uris":{"android":"levelo://app?vid=863308ba-fe7d-40eb-8206-0802e661562b","ios":"levelo://app?vid=863308ba-fe7d-40eb-8206-0802e661562b"},"vehicle_type_id":"4","last_reported":1770381351,"current_range_meters":7200,"station_id":"ce4bgup2rcd13ifvqco0","pricing_plan_id":"cebpf4jnsgd1na2vs0mg"},{"bike_id":"88de999f-78fd-498c-86b8-c0b83e9a1087","system_id":"levelo_inurba_marseille","lat":43.25937,"lon":5.40878,"is_reserved":false,"is_disabled":false,"rental_uris":{"android":"levelo://app?vid=88de999f-78fd-498c-86b8-c0b83e9a1087","ios":"levelo://app?vid=88de999f-78fd-498c-86b8-c0b83e9a1087"},"vehicle_type_id":"4","last_reported":1770381351,"current_range_meters":7200,"station_id":"ce4bhm92rcd13ifvqglg","pricing_plan_id":"cebpf4jnsgd1na2vs0mg"},{"bike_id":"36af6b9c-3b6f-432b-8541-51b5e2f4a92f","system_id":"levelo_inurba_marseille","lat":43.25006,"lon":5.38916,"is_reserved":false,"is_disabled":false,"rental_uris":{"android":"levelo://app?vid=36af6b9c-3b6f-432b-8541-51b5e2f4a92f","ios":"levelo://app?vid=36af6b9c-3b6f-432b-8541-51b5e2f4a92f"},"vehicle_type_id":"4","last_reported":1770381351,"current_range_meters":7200,"station_id":"ce4bhgp2rcd13ifvqfd0","pricing_plan_id":"cebpf4jnsgd1na2vs0mg"},{"bike_id":"3b986d99-7b42-471f-993a-11fde28f3c51","system_id":"levelo_inurba_marseille","lat":43.22577,"lon":5.4161,"is_reserved":false,"is_disabled":false,"rental_uris":{"android":"levelo://app?vid=3b986d99-7b42-471f-993a-11fde28f3c51","ios":"levelo://app?vid=3b986d99-7b42-471f-993a-11fde28f3c51"},"vehicle_type_id":"4","last_reported":1770381351,"current_range_meters":7200,"station_id":"st_d2o4gvlbi1j2169b742g","pricing_plan_id":"cebpf4jnsgd1na2vs0mg"},{"bike_id":"2b358923-c030-4481-a0eb-830aa62ff249","system_id":"levelo_inurba_marseille","lat":43.273801,"lon":5.362574,"is_reserved":false,"is_disabled":false,"rental_uris":{"android":"levelo://app?vid=2b358923-c030-4481-a0eb-830aa62ff249","ios":"levelo://app?vid=2b358923-c030-4481-a0eb-830aa62ff249"},"vehicle_type_id":"4","last_reported":1770381351,"current_range_meters":7200,"station_id":"ce4bhbh2rcd13ifvqeo0","pricing_plan_id":"cebpf4jnsgd1na2vs0mg"},{"bike_id":"29568cb5-48e1-4afd-96a8-69d8393592fe","system_id":"levelo_inurba_marseille","lat":43.28526,"lon":5.48429,"is_reserved":false,"is_disabled":false,"rental_uris":{"android":"levelo://app?vid=29568cb5-48e1-4afd-96a8-69d8393592fe","ios":"levelo://app?vid=29568cb5-48e1-4afd-96a8-69d8393592fe"},"vehicle_type_id":"4","last_reported":1770381351,"current_range_meters":7200,"station_id":"","pricing_plan_id":"cebpf4jnsgd1na2vs0mg"},{"bike_id":"5dea93d7-2b00-4423-81b5-9e768d42cacb","system_id":"levelo_inurba_marseille","lat":43.29005,"lon":5.38611,"is_reserved":false,"is_disabled":true,"rental_uris":{"android":"levelo://app?vid=5dea93d7-2b00-4423-81b5-9e768d42cacb","ios":"levelo://app?vid=5dea93d7-2b00-4423-81b5-9e768d42cacb"},"vehicle_type_id":"4","last_reported":1770381351,"current_range_meters":8000,"station_id":"ce4bh4p2rcd13ifvqe0g","pricing_plan_id":"cebpf4jnsgd1na2vs0mg"},{"bike_id":"4fb6aea1-2b17-4cfc-9731-d03fa2453842","system_id":"levelo_inurba_marseille","lat":43.29073,"lon":5.4001,"is_reserved":false,"is_disabled":false,"rental_uris":{"android":"levelo://app?vid=4fb6aea1-2b17-4cfc-9731-d03fa2453842","ios":"levelo://app?vid=4fb6aea1-2b17-4cfc-9731-d03fa2453842"},"vehicle_type_id":"4","last_reported":1770381351,"current_range_meters":8000,"station_id":"","pricing_plan_id":"cebpf4jnsgd1na2vs0mg"},{"bike_id":"b50718b1-4f47-4866-8738-5a2978ca6909","system_id":"levelo_inurba_marseille","lat":43.31413,"lon":5.36642,"is_reserved":false,"is_disabled":false,"rental_uris":{"android":"levelo://app?vid=b50718b1-4f47-4866-8738-5a2978ca6909","ios":"levelo://app?vid=b50718b1-4f47-4866-8738-5a2978ca6909"},"vehicle_type_id":"4","last_reported":1770381351,"current_range_meters":8000,"station_id":"","pricing_plan_id":"cebpf4jnsgd1na2vs0mg"},{"bike_id":"142a21c2-9a29-466a-92f6-5ab3ecc5b60d","system_id":"levelo_inurba_marseille","lat":43.23811,"lon":5.36637,"is_reserved":false,"is_disabled":false,"rental_uris":{"android":"levelo://app?vid=142a21c2-9a29-466a-92f6-5ab3ecc5b60d","ios":"levelo://app?vid=142a21c2-9a29-466a-92f6-5ab3ecc5b60d"},"vehicle_type_id":"4","last_reported":1770381351,"current_range_meters":8000,"station_id":"st_d3nk18o9ro0c73en2l3g","pricing_plan_id":"cebpf4jnsgd1na2vs0mg"},{"bike_id":"c6782d87-e485-4a2c-b62b-9a52105fb0ef","system_id":"levelo_inurba_marseille","lat":43.25014,"lon":5.38914,"is_reserved":false,"is_disabled":false,"rental_uris":{"android":"levelo://app?vid=c6782d87-e485-4a2c-b62b-9a52105fb0ef","ios":"levelo://app?vid=c6782d87-e485-4a2c-b62b-9a52105fb0ef"},"vehicle_type_id":"4","last_reported":1770381351,"current_range_meters":8000,"station_id":"ce4bhgp2rcd13ifvqfd0","pricing_plan_id":"cebpf4jnsgd1na2vs0mg"},{"bike_id":"5ef0dc6a-1a1e-4085-ad30-eb3436b51fe6","system_id":"levelo_inurba_marseille","lat":43.30953,"lon":5.39037,"is_reserved":false,"is_disabled":false,"rental_uris":{"android":"levelo://app?vid=5ef0dc6a-1a1e-4085-ad30-eb3436b51fe6","ios":"levelo://app?vid=5ef0dc6a-1a1e-4085-ad30-eb3436b51fe6"},"vehicle_type_id":"4","last_reported":1770381351,"current_range_meters":8000,"station_id":"ce4bgup2rcd13ifvqco0","pricing_plan_id":"cebpf4jnsgd1na2vs0mg"},{"bike_id":"5b51c4ea-ebad-4648-a4a1-56b9e8ab1de9","system_id":"levelo_inurba_marseille","lat":43.284738,"lon":5.484062,"is_reserved":false,"is_disabled":false,"rental_uris":{"android":"levelo://app?vid=5b51c4ea-ebad-4648-a4a1-56b9e8ab1de9","ios":"levelo://app?vid=5b51c4ea-ebad-4648-a4a1-56b9e8ab1de9"},"vehicle_type_id":"4","last_reported":1770381351,"current_range_meters":8000,"station_id":"st_d3svhcjqgbts73a3dn0g","pricing_plan_id":"cebpf4jnsgd1na2vs0mg"},{"bike_id":"855fc5fe-6c5f-46e5-afd9-e53782d8eed3","system_id":"levelo_inurba_marseille","lat":43.243977,"lon":5.370707,"is_reserved":false,"is_disabled":false,"rental_uris":{"android":"levelo://app?vid=855fc5fe-6c5f-46e5-afd9-e53782d8eed3","ios":"levelo://app?vid=855fc5fe-6c5f-46e5-afd9-e53782d8eed3"},"vehicle_type_id":"4","last_reported":1770381351,"current_range_meters":8000,"station_id":"ce4bhhh2rcd13ifvqfk0","pricing_plan_id":"cebpf4jnsgd1na2vs0mg"},{"bike_id":"4e2b3903-8708-46f2-8128-ffa6608b0667","system_id":"levelo_inurba_marseille","lat":43.29646,"lon":5.37714,"is_reserved":false,"is_disabled":false,"rental_uris":{"android":"levelo://app?vid=4e2b3903-8708-46f2-8128-ffa6608b0667","ios":"levelo://app?vid=4e2b3903-8708-46f2-8128-ffa6608b0667"},"vehicle_type_id":"4","last_reported":1770381351,"current_range_meters":8000,"station_id":"ce4bgi92rcd13ifvqb90","pricing_plan_id":"cebpf4jnsgd1na2vs0mg"},{"bike_id":"25b755cb-c7dc-49bc-bb70-76ea7ebb17b8","system_id":"levelo_inurba_marseille","lat":43.33598,"lon":5.41031,"is_reserved":false,"is_disabled":false,"rental_uris":{"android":"levelo://app?vid=25b755cb-c7dc-49bc-bb70-76ea7ebb17b8","ios":"levelo://app?vid=25b755cb-c7dc-49bc-bb70-76ea7ebb17b8"},"vehicle_type_id":"4","last_reported":1770381351,"current_range_meters":8000,"station_id":"ce4bhqh2rcd13ifvqhmg","pricing_plan_id":"cebpf4jnsgd1na2vs0mg"},{"bike_id":"968a1130-5ab4-497c-b27f-cb61b0d6cd96","system_id":"levelo_inurba_marseille","lat":43.30255,"lon":5.37753,"is_reserved":false,"is_disabled":false,"rental_uris":{"android":"levelo://app?vid=968a1130-5ab4-497c-b27f-cb61b0d6cd96","ios":"levelo://app?vid=968a1130-5ab4-497c-b27f-cb61b0d6cd96"},"vehicle_type_id":"4","last_reported":1770381351,"current_range_meters":8000,"station_id":"ce4bguh2rcd13ifvqcj0","pricing_plan_id":"cebpf4jnsgd1na2vs0mg"},{"bike_id":"0c0dcc58-89ca-4bbb-bbf8-7cce21ea87f4","system_id":"levelo_inurba_marseille","lat":43.305061,"lon":5.378877,"is_reserved":false,"is_disabled":false,"rental_uris":{"android":"levelo://app?vid=0c0dcc58-89ca-4bbb-bbf8-7cce21ea87f4","ios":"levelo://app?vid=0c0dcc58-89ca-4bbb-bbf8-7cce21ea87f4"},"vehicle_type_id":"4","last_reported":1770381351,"current_range_meters":8000,"station_id":"ce4bgup2rcd13ifvqcn0","pricing_plan_id":"cebpf4jnsgd1na2vs0mg"},{"bike_id":"feebdc94-c651-487a-a802-0f0beb94a004","system_id":"levelo_inurba_marseille","lat":43.31372,"lon":5.366844,"is_reserved":false,"is_disabled":false,"rental_uris":{"android":"levelo://app?vid=feebdc94-c651-487a-a802-0f0beb94a004","ios":"levelo://app?vid=feebdc94-c651-487a-a802-0f0beb94a004"},"vehicle_type_id":"4","last_reported":1770381351,"current_range_meters":8400,"station_id":"ce4bgr92rcd13ifvqc6g","pricing_plan_id":"cebpf4jnsgd1na2vs0mg"},{"bike_id":"d04efdcd-8afa-4eef-b723-4e576e8cb4d8","system_id":"levelo_inurba_marseille","lat":43.302876,"lon":5.377129,"is_reserved":false,"is_disabled":false,"rental_uris":{"android":"levelo://app?vid=d04efdcd-8afa-4eef-b723-4e576e8cb4d8","ios":"levelo://app?vid=d04efdcd-8afa-4eef-b723-4e576e8cb4d8"},"vehicle_type_id":"4","last_reported":1770381351,"current_range_meters":8400,"station_id":"ce4bguh2rcd13ifvqcj0","pricing_plan_id":"cebpf4jnsgd1na2vs0mg"},{"bike_id":"251429a0-5225-404e-a2c3-13f499b83151","system_id":"levelo_inurba_marseille","lat":43.30458,"lon":5.37919,"is_reserved":false,"is_disabled":false,"rental_uris":{"android":"levelo://app?vid=251429a0-5225-404e-a2c3-13f499b83151","ios":"levelo://app?vid=251429a0-5225-404e-a2c3-13f499b83151"},"vehicle_type_id":"4","last_reported":1770381351,"current_range_meters":8400,"station_id":"ce4bgup2rcd13ifvqcn0","pricing_plan_id":"cebpf4jnsgd1na2vs0mg"},{"bike_id":"e64b0e03-ad7c-4514-b495-404ec4c33f75","system_id":"levelo_inurba_marseille","lat":43.27208,"lon":5.39194,"is_reserved":false,"is_disabled":false,"rental_uris":{"android":"levelo://app?vid=e64b0e03-ad7c-4514-b495-404ec4c33f75","ios":"levelo://app?vid=e64b0e03-ad7c-4514-b495-404ec4c33f75"},"vehicle_type_id":"4","last_reported":1770381351,"current_range_meters":8400,"station_id":"ce4bhhp2rcd13ifvqfm0","pricing_plan_id":"cebpf4jnsgd1na2vs0mg"},{"bike_id":"6c826141-83c8-450c-bb51-8b69baba0bf3","system_id":"levelo_inurba_marseille","lat":43.26691,"lon":5.40826,"is_reserved":false,"is_disabled":false,"rental_uris":{"android":"levelo://app?vid=6c826141-83c8-450c-bb51-8b69baba0bf3","ios":"levelo://app?vid=6c826141-83c8-450c-bb51-8b69baba0bf3"},"vehicle_type_id":"4","last_reported":1770381351,"current_range_meters":8400,"station_id":"","pricing_plan_id":"cebpf4jnsgd1na2vs0mg"},{"bike_id":"2892ea76-507d-4cb7-9730-77aee9102e03","system_id":"levelo_inurba_marseille","lat":43.21751,"lon":5.34602,"is_reserved":false,"is_disabled":true,"rental_uris":{"android":"levelo://app?vid=2892ea76-507d-4cb7-9730-77aee9102e03","ios":"levelo://app?vid=2892ea76-507d-4cb7-9730-77aee9102e03"},"vehicle_type_id":"4","last_reported":1770381351,"current_range_meters":8400,"station_id":"","pricing_plan_id":"cebpf4jnsgd1na2vs0mg"},{"bike_id":"723bf88e-8128-4028-a2c1-eeb668d835e0","system_id":"levelo_inurba_marseille","lat":43.21197,"lon":5.35077,"is_reserved":false,"is_disabled":false,"rental_uris":{"android":"levelo://app?vid=723bf88e-8128-4028-a2c1-eeb668d835e0","ios":"levelo://app?vid=723bf88e-8128-4028-a2c1-eeb668d835e0"},"vehicle_type_id":"4","last_reported":1770381351,"current_range_meters":8400,"station_id":"st_cvj6sg6p6f1abm77japg","pricing_plan_id":"cebpf4jnsgd1na2vs0mg"},{"bike_id":"98b89a63-b3c9-4748-8f93-0ccb5ab9560d","system_id":"levelo_inurba_marseille","lat":43.26548,"lon":5.37323,"is_reserved":false,"is_disabled":false,"rental_uris":{"android":"levelo://app?vid=98b89a63-b3c9-4748-8f93-0ccb5ab9560d","ios":"levelo://app?vid=98b89a63-b3c9-4748-8f93-0ccb5ab9560d"},"vehicle_type_id":"4","last_reported":1770381351,"current_range_meters":8400,"station_id":"ce4bhg12rcd13ifvqf70","pricing_plan_id":"cebpf4jnsgd1na2vs0mg"},{"bike_id":"574b1bb4-7cac-4dc3-9021-29c8eaf0f1b4","system_id":"levelo_inurba_marseille","lat":43.304353,"lon":5.38883,"is_reserved":false,"is_disabled":false,"rental_uris":{"android":"levelo://app?vid=574b1bb4-7cac-4dc3-9021-29c8eaf0f1b4","ios":"levelo://app?vid=574b1bb4-7cac-4dc3-9021-29c8eaf0f1b4"},"vehicle_type_id":"4","last_reported":1770381351,"current_range_meters":8400,"station_id":"ce4bgk12rcd13ifvqbi0","pricing_plan_id":"cebpf4jnsgd1na2vs0mg"},{"bike_id":"bd830301-856a-4947-bbd9-0c9aae46f8c5","system_id":"levelo_inurba_marseille","lat":43.28861,"lon":5.42521,"is_reserved":false,"is_disabled":false,"rental_uris":{"android":"levelo://app?vid=bd830301-856a-4947-bbd9-0c9aae46f8c5","ios":"levelo://app?vid=bd830301-856a-4947-bbd9-0c9aae46f8c5"},"vehicle_type_id":"4","last_reported":1770381351,"current_range_meters":8400,"station_id":"st_d3b462108ojc7389ooeg","pricing_plan_id":"cebpf4jnsgd1na2vs0mg"},{"bike_id":"6f35fd82-5601-4237-b08b-e1e8e6f43611","system_id":"levelo_inurba_marseille","lat":43.3033,"lon":5.40434,"is_reserved":false,"is_disabled":false,"rental_uris":{"android":"levelo://app?vid=6f35fd82-5601-4237-b08b-e1e8e6f43611","ios":"levelo://app?vid=6f35fd82-5601-4237-b08b-e1e8e6f43611"},"vehicle_type_id":"4","last_reported":1770381351,"current_range_meters":8400,"station_id":"ce4bh012rcd13ifvqd10","pricing_plan_id":"cebpf4jnsgd1na2vs0mg"},{"bike_id":"1937492d-117f-487c-8c08-5e82e3f3720b","system_id":"levelo_inurba_marseille","lat":43.31265,"lon":5.36735,"is_reserved":false,"is_disabled":false,"rental_uris":{"android":"levelo://app?vid=1937492d-117f-487c-8c08-5e82e3f3720b","ios":"levelo://app?vid=1937492d-117f-487c-8c08-5e82e3f3720b"},"vehicle_type_id":"4","last_reported":1770381351,"current_range_meters":8400,"station_id":"ce4bgr92rcd13ifvqc6g","pricing_plan_id":"cebpf4jnsgd1na2vs0mg"},{"bike_id":"bb9f1b58-9b74-4cea-b8e3-af9d33520629","system_id":"levelo_inurba_marseille","lat":43.29564,"lon":5.37513,"is_reserved":false,"is_disabled":false,"rental_uris":{"android":"levelo://app?vid=bb9f1b58-9b74-4cea-b8e3-af9d33520629","ios":"levelo://app?vid=bb9f1b58-9b74-4cea-b8e3-af9d33520629"},"vehicle_type_id":"4","last_reported":1770381351,"current_range_meters":8400,"station_id":"ce4bgh92rcd13ifvqb50","pricing_plan_id":"cebpf4jnsgd1na2vs0mg"},{"bike_id":"33e6b01d-cadc-4668-ba29-d6b917e280b4","system_id":"levelo_inurba_marseille","lat":43.24406,"lon":5.3707,"is_reserved":false,"is_disabled":false,"rental_uris":{"android":"levelo://app?vid=33e6b01d-cadc-4668-ba29-d6b917e280b4","ios":"levelo://app?vid=33e6b01d-cadc-4668-ba29-d6b917e280b4"},"vehicle_type_id":"4","last_reported":1770381351,"current_range_meters":8400,"station_id":"ce4bhhh2rcd13ifvqfk0","pricing_plan_id":"cebpf4jnsgd1na2vs0mg"},{"bike_id":"ec7eace2-cebf-4e4d-ad90-9c8b82ec1b61","system_id":"levelo_inurba_marseille","lat":43.29041,"lon":5.39945,"is_reserved":false,"is_disabled":false,"rental_uris":{"android":"levelo://app?vid=ec7eace2-cebf-4e4d-ad90-9c8b82ec1b61","ios":"levelo://app?vid=ec7eace2-cebf-4e4d-ad90-9c8b82ec1b61"},"vehicle_type_id":"4","last_reported":1770381351,"current_range_meters":8400,"station_id":"ce4bh392rcd13ifvqdm0","pricing_plan_id":"cebpf4jnsgd1na2vs0mg"},{"bike_id":"66ac484a-7a0c-4d64-bcea-4a863811aeba","system_id":"levelo_inurba_marseille","lat":43.29892,"lon":5.43668,"is_reserved":false,"is_disabled":false,"rental_uris":{"android":"levelo://app?vid=66ac484a-7a0c-4d64-bcea-4a863811aeba","ios":"levelo://app?vid=66ac484a-7a0c-4d64-bcea-4a863811aeba"},"vehicle_type_id":"4","last_reported":1770381351,"current_range_meters":8400,"station_id":"ce4bhpp2rcd13ifvqhfg","pricing_plan_id":"cebpf4jnsgd1na2vs0mg"},{"bike_id":"ee1be953-59a4-427f-93fe-872eec06c72e","system_id":"levelo_inurba_marseille","lat":43.309462,"lon":5.390464,"is_reserved":false,"is_disabled":false,"rental_uris":{"android":"levelo://app?vid=ee1be953-59a4-427f-93fe-872eec06c72e","ios":"levelo://app?vid=ee1be953-59a4-427f-93fe-872eec06c72e"},"vehicle_type_id":"4","last_reported":1770381351,"current_range_meters":8400,"station_id":"ce4bgup2rcd13ifvqco0","pricing_plan_id":"cebpf4jnsgd1na2vs0mg"},{"bike_id":"0c0fd3ad-91a1-4be6-8355-66d12c28258f","system_id":"levelo_inurba_marseille","lat":43.31214,"lon":5.36893,"is_reserved":false,"is_disabled":false,"rental_uris":{"android":"levelo://app?vid=0c0fd3ad-91a1-4be6-8355-66d12c28258f","ios":"levelo://app?vid=0c0fd3ad-91a1-4be6-8355-66d12c28258f"},"vehicle_type_id":"4","last_reported":1770381351,"current_range_meters":8400,"station_id":"ce4bgl92rcd13ifvqbq0","pricing_plan_id":"cebpf4jnsgd1na2vs0mg"},{"bike_id":"efbe792f-1198-41b4-852b-4a2323f0ee78","system_id":"levelo_inurba_marseille","lat":43.25002,"lon":5.3894,"is_reserved":false,"is_disabled":false,"rental_uris":{"android":"levelo://app?vid=efbe792f-1198-41b4-852b-4a2323f0ee78","ios":"levelo://app?vid=efbe792f-1198-41b4-852b-4a2323f0ee78"},"vehicle_type_id":"4","last_reported":1770381351,"current_range_meters":8400,"station_id":"ce4bhgp2rcd13ifvqfd0","pricing_plan_id":"cebpf4jnsgd1na2vs0mg"},{"bike_id":"6ebe0a22-3110-41de-af8c-3cc2431badbf","system_id":"levelo_inurba_marseille","lat":43.29678,"lon":5.37356,"is_reserved":false,"is_disabled":true,"rental_uris":{"android":"levelo://app?vid=6ebe0a22-3110-41de-af8c-3cc2431badbf","ios":"levelo://app?vid=6ebe0a22-3110-41de-af8c-3cc2431badbf"},"vehicle_type_id":"4","last_reported":1770381351,"current_range_meters":8800,"station_id":"","pricing_plan_id":"cebpf4jnsgd1na2vs0mg"},{"bike_id":"071937d3-6d39-428f-88a6-e135b0e61119","system_id":"levelo_inurba_marseille","lat":43.31087,"lon":5.37159,"is_reserved":false,"is_disabled":false,"rental_uris":{"android":"levelo://app?vid=071937d3-6d39-428f-88a6-e135b0e61119","ios":"levelo://app?vid=071937d3-6d39-428f-88a6-e135b0e61119"},"vehicle_type_id":"4","last_reported":1770381351,"current_range_meters":8800,"station_id":"st_d4kl2rp97mjs73e7tdfg","pricing_plan_id":"cebpf4jnsgd1na2vs0mg"},{"bike_id":"15a3e00a-e415-4bc9-8ff7-ed96b5a8614d","system_id":"levelo_inurba_marseille","lat":43.30215,"lon":5.38264,"is_reserved":false,"is_disabled":false,"rental_uris":{"android":"levelo://app?vid=15a3e00a-e415-4bc9-8ff7-ed96b5a8614d","ios":"levelo://app?vid=15a3e00a-e415-4bc9-8ff7-ed96b5a8614d"},"vehicle_type_id":"4","last_reported":1770381351,"current_range_meters":8800,"station_id":"","pricing_plan_id":"cebpf4jnsgd1na2vs0mg"},{"bike_id":"1261d0da-5e4a-4f70-a517-51aae67695fa","system_id":"levelo_inurba_marseille","lat":43.246582,"lon":5.388882,"is_reserved":false,"is_disabled":false,"rental_uris":{"android":"levelo://app?vid=1261d0da-5e4a-4f70-a517-51aae67695fa","ios":"levelo://app?vid=1261d0da-5e4a-4f70-a517-51aae67695fa"},"vehicle_type_id":"4","last_reported":1770381351,"current_range_meters":8800,"station_id":"","pricing_plan_id":"cebpf4jnsgd1na2vs0mg"},{"bike_id":"5e9d7b89-ee8f-42bc-87df-a5a05a1d1db8","system_id":"levelo_inurba_marseille","lat":43.24282,"lon":5.39681,"is_reserved":false,"is_disabled":false,"rental_uris":{"android":"levelo://app?vid=5e9d7b89-ee8f-42bc-87df-a5a05a1d1db8","ios":"levelo://app?vid=5e9d7b89-ee8f-42bc-87df-a5a05a1d1db8"},"vehicle_type_id":"4","last_reported":1770381351,"current_range_meters":8800,"station_id":"","pricing_plan_id":"cebpf4jnsgd1na2vs0mg"},{"bike_id":"357e0761-0001-4df4-9647-5ddac10b57dd","system_id":"levelo_inurba_marseille","lat":43.324926,"lon":5.383009,"is_reserved":false,"is_disabled":false,"rental_uris":{"android":"levelo://app?vid=357e0761-0001-4df4-9647-5ddac10b57dd","ios":"levelo://app?vid=357e0761-0001-4df4-9647-5ddac10b57dd"},"vehicle_type_id":"4","last_reported":1770381351,"current_range_meters":8800,"station_id":"st_d4asgbiv49dc73anf9m0","pricing_plan_id":"cebpf4jnsgd1na2vs0mg"},{"bike_id":"379685d2-9e90-4f9b-bb24-a80a4545550e","system_id":"levelo_inurba_marseille","lat":43.29804,"lon":5.44059,"is_reserved":false,"is_disabled":false,"rental_uris":{"android":"levelo://app?vid=379685d2-9e90-4f9b-bb24-a80a4545550e","ios":"levelo://app?vid=379685d2-9e90-4f9b-bb24-a80a4545550e"},"vehicle_type_id":"4","last_reported":1770381351,"current_range_meters":8800,"station_id":"st_d3jp68qikq2c7381ktn0","pricing_plan_id":"cebpf4jnsgd1na2vs0mg"},{"bike_id":"750eeefd-6cb4-4c75-9906-6bd98814d9a8","system_id":"levelo_inurba_marseille","lat":43.30154,"lon":5.38092,"is_reserved":false,"is_disabled":false,"rental_uris":{"android":"levelo://app?vid=750eeefd-6cb4-4c75-9906-6bd98814d9a8","ios":"levelo://app?vid=750eeefd-6cb4-4c75-9906-6bd98814d9a8"},"vehicle_type_id":"4","last_reported":1770381351,"current_range_meters":8800,"station_id":"ce4bgjp2rcd13ifvqbh0","pricing_plan_id":"cebpf4jnsgd1na2vs0mg"},{"bike_id":"5514686a-b854-4db2-9779-3506b95972b1","system_id":"levelo_inurba_marseille","lat":43.23155,"lon":5.43735,"is_reserved":false,"is_disabled":false,"rental_uris":{"android":"levelo://app?vid=5514686a-b854-4db2-9779-3506b95972b1","ios":"levelo://app?vid=5514686a-b854-4db2-9779-3506b95972b1"},"vehicle_type_id":"4","last_reported":1770381351,"current_range_meters":8800,"station_id":"ce4bhmp2rcd13ifvqgog","pricing_plan_id":"cebpf4jnsgd1na2vs0mg"},{"bike_id":"675ec433-caf3-4517-83f9-75769cd57605","system_id":"levelo_inurba_marseille","lat":43.32105,"lon":5.36777,"is_reserved":false,"is_disabled":false,"rental_uris":{"android":"levelo://app?vid=675ec433-caf3-4517-83f9-75769cd57605","ios":"levelo://app?vid=675ec433-caf3-4517-83f9-75769cd57605"},"vehicle_type_id":"4","last_reported":1770381351,"current_range_meters":8800,"station_id":"ce4bhrh2rcd13ifvqhug","pricing_plan_id":"cebpf4jnsgd1na2vs0mg"},{"bike_id":"b8930ff7-8ce5-4f8d-9e8d-e85cd2415d7d","system_id":"levelo_inurba_marseille","lat":43.31426,"lon":5.36695,"is_reserved":false,"is_disabled":false,"rental_uris":{"android":"levelo://app?vid=b8930ff7-8ce5-4f8d-9e8d-e85cd2415d7d","ios":"levelo://app?vid=b8930ff7-8ce5-4f8d-9e8d-e85cd2415d7d"},"vehicle_type_id":"4","last_reported":1770381351,"current_range_meters":8800,"station_id":"","pricing_plan_id":"cebpf4jnsgd1na2vs0mg"},{"bike_id":"14a0bfe2-9ad8-41a2-8100-306572082be4","system_id":"levelo_inurba_marseille","lat":43.24651,"lon":5.38881,"is_reserved":false,"is_disabled":false,"rental_uris":{"android":"levelo://app?vid=14a0bfe2-9ad8-41a2-8100-306572082be4","ios":"levelo://app?vid=14a0bfe2-9ad8-41a2-8100-306572082be4"},"vehicle_type_id":"4","last_reported":1770381351,"current_range_meters":8800,"station_id":"ce4bhg12rcd13ifvqf60","pricing_plan_id":"cebpf4jnsgd1na2vs0mg"},{"bike_id":"e61bbaef-285c-4e16-9420-c1ebb4d1c32d","system_id":"levelo_inurba_marseille","lat":43.27817,"lon":5.40694,"is_reserved":false,"is_disabled":false,"rental_uris":{"android":"levelo://app?vid=e61bbaef-285c-4e16-9420-c1ebb4d1c32d","ios":"levelo://app?vid=e61bbaef-285c-4e16-9420-c1ebb4d1c32d"},"vehicle_type_id":"4","last_reported":1770381351,"current_range_meters":8800,"station_id":"ce4bhnh2rcd13ifvqgtg","pricing_plan_id":"cebpf4jnsgd1na2vs0mg"},{"bike_id":"31da2ec5-3249-48b4-8d60-797bc0120989","system_id":"levelo_inurba_marseille","lat":43.30534,"lon":5.38422,"is_reserved":false,"is_disabled":false,"rental_uris":{"android":"levelo://app?vid=31da2ec5-3249-48b4-8d60-797bc0120989","ios":"levelo://app?vid=31da2ec5-3249-48b4-8d60-797bc0120989"},"vehicle_type_id":"4","last_reported":1770381351,"current_range_meters":8800,"station_id":"ce4bgg92rcd13ifvqb30","pricing_plan_id":"cebpf4jnsgd1na2vs0mg"},{"bike_id":"f8620858-bcec-4ddd-a1dc-5229119ef70d","system_id":"levelo_inurba_marseille","lat":43.281897,"lon":5.37895,"is_reserved":false,"is_disabled":false,"rental_uris":{"android":"levelo://app?vid=f8620858-bcec-4ddd-a1dc-5229119ef70d","ios":"levelo://app?vid=f8620858-bcec-4ddd-a1dc-5229119ef70d"},"vehicle_type_id":"4","last_reported":1770381351,"current_range_meters":8800,"station_id":"ce4bha12rcd13ifvqee0","pricing_plan_id":"cebpf4jnsgd1na2vs0mg"},{"bike_id":"f5924402-42d0-41ef-b167-ea2ef6913a1e","system_id":"levelo_inurba_marseille","lat":43.2659,"lon":5.37285,"is_reserved":false,"is_disabled":false,"rental_uris":{"android":"levelo://app?vid=f5924402-42d0-41ef-b167-ea2ef6913a1e","ios":"levelo://app?vid=f5924402-42d0-41ef-b167-ea2ef6913a1e"},"vehicle_type_id":"4","last_reported":1770381351,"current_range_meters":8800,"station_id":"ce4bhg12rcd13ifvqf70","pricing_plan_id":"cebpf4jnsgd1na2vs0mg"},{"bike_id":"40de205a-805d-4639-b89c-46d410c03445","system_id":"levelo_inurba_marseille","lat":43.29867,"lon":5.39729,"is_reserved":false,"is_disabled":false,"rental_uris":{"android":"levelo://app?vid=40de205a-805d-4639-b89c-46d410c03445","ios":"levelo://app?vid=40de205a-805d-4639-b89c-46d410c03445"},"vehicle_type_id":"4","last_reported":1770381351,"current_range_meters":8800,"station_id":"ce4bh0h2rcd13ifvqd50","pricing_plan_id":"cebpf4jnsgd1na2vs0mg"},{"bike_id":"29554745-e0e5-4276-b587-71d331cae345","system_id":"levelo_inurba_marseille","lat":43.29514,"lon":5.39012,"is_reserved":false,"is_disabled":true,"rental_uris":{"android":"levelo://app?vid=29554745-e0e5-4276-b587-71d331cae345","ios":"levelo://app?vid=29554745-e0e5-4276-b587-71d331cae345"},"vehicle_type_id":"4","last_reported":1770381351,"current_range_meters":8800,"station_id":"ce4bh3p2rcd13ifvqdp0","pricing_plan_id":"cebpf4jnsgd1na2vs0mg"},{"bike_id":"8a51797a-aecc-45c0-adc5-1393e2331b49","system_id":"levelo_inurba_marseille","lat":43.29197,"lon":5.35811,"is_reserved":false,"is_disabled":false,"rental_uris":{"android":"levelo://app?vid=8a51797a-aecc-45c0-adc5-1393e2331b49","ios":"levelo://app?vid=8a51797a-aecc-45c0-adc5-1393e2331b49"},"vehicle_type_id":"4","last_reported":1770381351,"current_range_meters":8800,"station_id":"ce4bhb12rcd13ifvqel0","pricing_plan_id":"cebpf4jnsgd1na2vs0mg"},{"bike_id":"3f5fa64f-c6d4-42bf-9f93-12ceb2f5b831","system_id":"levelo_inurba_marseille","lat":43.29295,"lon":5.37459,"is_reserved":false,"is_disabled":false,"rental_uris":{"android":"levelo://app?vid=3f5fa64f-c6d4-42bf-9f93-12ceb2f5b831","ios":"levelo://app?vid=3f5fa64f-c6d4-42bf-9f93-12ceb2f5b831"},"vehicle_type_id":"4","last_reported":1770381351,"current_range_meters":8800,"station_id":"ce4bgi12rcd13ifvqb70","pricing_plan_id":"cebpf4jnsgd1na2vs0mg"},{"bike_id":"4ab62ba3-12ea-4829-9027-e7bca4601e2e","system_id":"levelo_inurba_marseille","lat":43.23781,"lon":5.3663,"is_reserved":false,"is_disabled":false,"rental_uris":{"android":"levelo://app?vid=4ab62ba3-12ea-4829-9027-e7bca4601e2e","ios":"levelo://app?vid=4ab62ba3-12ea-4829-9027-e7bca4601e2e"},"vehicle_type_id":"4","last_reported":1770381351,"current_range_meters":8800,"station_id":"st_d3nk18o9ro0c73en2l3g","pricing_plan_id":"cebpf4jnsgd1na2vs0mg"},{"bike_id":"346787f4-b208-43b3-a13c-6d535139ef57","system_id":"levelo_inurba_marseille","lat":43.29903,"lon":5.43674,"is_reserved":false,"is_disabled":false,"rental_uris":{"android":"levelo://app?vid=346787f4-b208-43b3-a13c-6d535139ef57","ios":"levelo://app?vid=346787f4-b208-43b3-a13c-6d535139ef57"},"vehicle_type_id":"4","last_reported":1770381351,"current_range_meters":9200,"station_id":"ce4bhpp2rcd13ifvqhfg","pricing_plan_id":"cebpf4jnsgd1na2vs0mg"},{"bike_id":"742a8b10-34a4-47b1-b553-4d048e6bd194","system_id":"levelo_inurba_marseille","lat":43.30155,"lon":5.38054,"is_reserved":false,"is_disabled":false,"rental_uris":{"android":"levelo://app?vid=742a8b10-34a4-47b1-b553-4d048e6bd194","ios":"levelo://app?vid=742a8b10-34a4-47b1-b553-4d048e6bd194"},"vehicle_type_id":"4","last_reported":1770381351,"current_range_meters":9200,"station_id":"","pricing_plan_id":"cebpf4jnsgd1na2vs0mg"},{"bike_id":"c6e25874-c646-4223-9fb1-4a2c71cb2059","system_id":"levelo_inurba_marseille","lat":43.31205,"lon":5.36931,"is_reserved":false,"is_disabled":false,"rental_uris":{"android":"levelo://app?vid=c6e25874-c646-4223-9fb1-4a2c71cb2059","ios":"levelo://app?vid=c6e25874-c646-4223-9fb1-4a2c71cb2059"},"vehicle_type_id":"4","last_reported":1770381351,"current_range_meters":9200,"station_id":"","pricing_plan_id":"cebpf4jnsgd1na2vs0mg"},{"bike_id":"d4c86779-c191-4441-a1d1-fadc710ce8b7","system_id":"levelo_inurba_marseille","lat":43.293727,"lon":5.378349,"is_reserved":false,"is_disabled":false,"rental_uris":{"android":"levelo://app?vid=d4c86779-c191-4441-a1d1-fadc710ce8b7","ios":"levelo://app?vid=d4c86779-c191-4441-a1d1-fadc710ce8b7"},"vehicle_type_id":"4","last_reported":1770381351,"current_range_meters":9200,"station_id":"ce4bgjh2rcd13ifvqbf0","pricing_plan_id":"cebpf4jnsgd1na2vs0mg"},{"bike_id":"8337b65d-17c0-4b57-8442-e6d360aa1c7d","system_id":"levelo_inurba_marseille","lat":43.23388,"lon":5.41228,"is_reserved":false,"is_disabled":false,"rental_uris":{"android":"levelo://app?vid=8337b65d-17c0-4b57-8442-e6d360aa1c7d","ios":"levelo://app?vid=8337b65d-17c0-4b57-8442-e6d360aa1c7d"},"vehicle_type_id":"4","last_reported":1770381351,"current_range_meters":9200,"station_id":"","pricing_plan_id":"cebpf4jnsgd1na2vs0mg"},{"bike_id":"9d9ada7e-8bfb-4948-82e1-5314689a8b39","system_id":"levelo_inurba_marseille","lat":43.335446,"lon":5.374679,"is_reserved":false,"is_disabled":false,"rental_uris":{"android":"levelo://app?vid=9d9ada7e-8bfb-4948-82e1-5314689a8b39","ios":"levelo://app?vid=9d9ada7e-8bfb-4948-82e1-5314689a8b39"},"vehicle_type_id":"4","last_reported":1770381351,"current_range_meters":9200,"station_id":"st_d46tts09ee8s73dlu43g","pricing_plan_id":"cebpf4jnsgd1na2vs0mg"},{"bike_id":"b6c9e5a2-5b3f-46e1-935f-7bf262bb8afd","system_id":"levelo_inurba_marseille","lat":43.29008,"lon":5.35615,"is_reserved":false,"is_disabled":false,"rental_uris":{"android":"levelo://app?vid=b6c9e5a2-5b3f-46e1-935f-7bf262bb8afd","ios":"levelo://app?vid=b6c9e5a2-5b3f-46e1-935f-7bf262bb8afd"},"vehicle_type_id":"4","last_reported":1770381351,"current_range_meters":9200,"station_id":"ce4bhb92rcd13ifvqen0","pricing_plan_id":"cebpf4jnsgd1na2vs0mg"},{"bike_id":"a5faf7a6-7f2f-419a-b628-e8f939b70083","system_id":"levelo_inurba_marseille","lat":43.28528,"lon":5.44111,"is_reserved":false,"is_disabled":false,"rental_uris":{"android":"levelo://app?vid=a5faf7a6-7f2f-419a-b628-e8f939b70083","ios":"levelo://app?vid=a5faf7a6-7f2f-419a-b628-e8f939b70083"},"vehicle_type_id":"4","last_reported":1770381351,"current_range_meters":9200,"station_id":"st_d3j3df2ikq2c7380ej80","pricing_plan_id":"cebpf4jnsgd1na2vs0mg"},{"bike_id":"731447a5-bd31-4208-aa2f-c0645944403a","system_id":"levelo_inurba_marseille","lat":43.24649,"lon":5.43151,"is_reserved":false,"is_disabled":false,"rental_uris":{"android":"levelo://app?vid=731447a5-bd31-4208-aa2f-c0645944403a","ios":"levelo://app?vid=731447a5-bd31-4208-aa2f-c0645944403a"},"vehicle_type_id":"4","last_reported":1770381351,"current_range_meters":9200,"station_id":"st_d2m6c4gdas8pm72e190g","pricing_plan_id":"cebpf4jnsgd1na2vs0mg"},{"bike_id":"5c8b9e0b-1283-43b9-b54b-ebffe717fb52","system_id":"levelo_inurba_marseille","lat":43.26791,"lon":5.3941,"is_reserved":false,"is_disabled":false,"rental_uris":{"android":"levelo://app?vid=5c8b9e0b-1283-43b9-b54b-ebffe717fb52","ios":"levelo://app?vid=5c8b9e0b-1283-43b9-b54b-ebffe717fb52"},"vehicle_type_id":"4","last_reported":1770381351,"current_range_meters":9200,"station_id":"ce4bhh12rcd13ifvqfg0","pricing_plan_id":"cebpf4jnsgd1na2vs0mg"},{"bike_id":"b0c3d441-fa9a-4312-858a-e0f5eaf46fd5","system_id":"levelo_inurba_marseille","lat":43.32103,"lon":5.36772,"is_reserved":false,"is_disabled":false,"rental_uris":{"android":"levelo://app?vid=b0c3d441-fa9a-4312-858a-e0f5eaf46fd5","ios":"levelo://app?vid=b0c3d441-fa9a-4312-858a-e0f5eaf46fd5"},"vehicle_type_id":"4","last_reported":1770381351,"current_range_meters":9200,"station_id":"ce4bhrh2rcd13ifvqhug","pricing_plan_id":"cebpf4jnsgd1na2vs0mg"},{"bike_id":"319b77d0-85ca-44f4-9599-65e66d6b2896","system_id":"levelo_inurba_marseille","lat":43.29266,"lon":5.3844,"is_reserved":false,"is_disabled":false,"rental_uris":{"android":"levelo://app?vid=319b77d0-85ca-44f4-9599-65e66d6b2896","ios":"levelo://app?vid=319b77d0-85ca-44f4-9599-65e66d6b2896"},"vehicle_type_id":"4","last_reported":1770381351,"current_range_meters":9200,"station_id":"ce4bh692rcd13ifvqea0","pricing_plan_id":"cebpf4jnsgd1na2vs0mg"},{"bike_id":"d3d467f5-58e2-4318-a2d8-7ffbb9188d8d","system_id":"levelo_inurba_marseille","lat":43.29695,"lon":5.36608,"is_reserved":false,"is_disabled":false,"rental_uris":{"android":"levelo://app?vid=d3d467f5-58e2-4318-a2d8-7ffbb9188d8d","ios":"levelo://app?vid=d3d467f5-58e2-4318-a2d8-7ffbb9188d8d"},"vehicle_type_id":"4","last_reported":1770381351,"current_range_meters":9200,"station_id":"ce4bgn12rcd13ifvqbt0","pricing_plan_id":"cebpf4jnsgd1na2vs0mg"},{"bike_id":"90e746c4-3c68-4b0d-b714-80cbcf9e7ffe","system_id":"levelo_inurba_marseille","lat":43.25581,"lon":5.38251,"is_reserved":false,"is_disabled":false,"rental_uris":{"android":"levelo://app?vid=90e746c4-3c68-4b0d-b714-80cbcf9e7ffe","ios":"levelo://app?vid=90e746c4-3c68-4b0d-b714-80cbcf9e7ffe"},"vehicle_type_id":"4","last_reported":1770381351,"current_range_meters":9200,"station_id":"ce4bhih2rcd13ifvqfs0","pricing_plan_id":"cebpf4jnsgd1na2vs0mg"},{"bike_id":"041b55eb-1955-4acc-9086-a670f7f43fe1","system_id":"levelo_inurba_marseille","lat":43.30573,"lon":5.36543,"is_reserved":false,"is_disabled":false,"rental_uris":{"android":"levelo://app?vid=041b55eb-1955-4acc-9086-a670f7f43fe1","ios":"levelo://app?vid=041b55eb-1955-4acc-9086-a670f7f43fe1"},"vehicle_type_id":"4","last_reported":1770381351,"current_range_meters":9200,"station_id":"ce4bgs12rcd13ifvqcag","pricing_plan_id":"cebpf4jnsgd1na2vs0mg"},{"bike_id":"a6d7fa41-a958-446b-912a-7995e71ed731","system_id":"levelo_inurba_marseille","lat":43.2466,"lon":5.38155,"is_reserved":false,"is_disabled":false,"rental_uris":{"android":"levelo://app?vid=a6d7fa41-a958-446b-912a-7995e71ed731","ios":"levelo://app?vid=a6d7fa41-a958-446b-912a-7995e71ed731"},"vehicle_type_id":"4","last_reported":1770381351,"current_range_meters":9200,"station_id":"ce4bhih2rcd13ifvqfr0","pricing_plan_id":"cebpf4jnsgd1na2vs0mg"},{"bike_id":"08370162-070c-4011-b89a-49205651b67b","system_id":"levelo_inurba_marseille","lat":43.262,"lon":5.37915,"is_reserved":false,"is_disabled":false,"rental_uris":{"android":"levelo://app?vid=08370162-070c-4011-b89a-49205651b67b","ios":"levelo://app?vid=08370162-070c-4011-b89a-49205651b67b"},"vehicle_type_id":"4","last_reported":1770381351,"current_range_meters":9200,"station_id":"ce4bhjp2rcd13ifvqg90","pricing_plan_id":"cebpf4jnsgd1na2vs0mg"},{"bike_id":"7ce9f68c-df3f-4c06-90bc-5b722c547725","system_id":"levelo_inurba_marseille","lat":43.31507,"lon":5.37289,"is_reserved":false,"is_disabled":false,"rental_uris":{"android":"levelo://app?vid=7ce9f68c-df3f-4c06-90bc-5b722c547725","ios":"levelo://app?vid=7ce9f68c-df3f-4c06-90bc-5b722c547725"},"vehicle_type_id":"4","last_reported":1770381351,"current_range_meters":9600,"station_id":"ce4bgt12rcd13ifvqcd0","pricing_plan_id":"cebpf4jnsgd1na2vs0mg"},{"bike_id":"06b800f3-76ca-4823-ae2b-badd7f61886b","system_id":"levelo_inurba_marseille","lat":43.26791,"lon":5.39411,"is_reserved":false,"is_disabled":false,"rental_uris":{"android":"levelo://app?vid=06b800f3-76ca-4823-ae2b-badd7f61886b","ios":"levelo://app?vid=06b800f3-76ca-4823-ae2b-badd7f61886b"},"vehicle_type_id":"4","last_reported":1770381351,"current_range_meters":9600,"station_id":"ce4bhh12rcd13ifvqfg0","pricing_plan_id":"cebpf4jnsgd1na2vs0mg"},{"bike_id":"1d0ef12e-4bb8-4d8d-9509-0260b1aa5347","system_id":"levelo_inurba_marseille","lat":43.24401,"lon":5.37087,"is_reserved":false,"is_disabled":false,"rental_uris":{"android":"levelo://app?vid=1d0ef12e-4bb8-4d8d-9509-0260b1aa5347","ios":"levelo://app?vid=1d0ef12e-4bb8-4d8d-9509-0260b1aa5347"},"vehicle_type_id":"4","last_reported":1770381351,"current_range_meters":9600,"station_id":"ce4bhhh2rcd13ifvqfk0","pricing_plan_id":"cebpf4jnsgd1na2vs0mg"},{"bike_id":"b92bd3ba-0da1-4ceb-aa26-ddced3585e9f","system_id":"levelo_inurba_marseille","lat":43.29373,"lon":5.37849,"is_reserved":false,"is_disabled":false,"rental_uris":{"android":"levelo://app?vid=b92bd3ba-0da1-4ceb-aa26-ddced3585e9f","ios":"levelo://app?vid=b92bd3ba-0da1-4ceb-aa26-ddced3585e9f"},"vehicle_type_id":"4","last_reported":1770381351,"current_range_meters":9600,"station_id":"ce4bgjh2rcd13ifvqbf0","pricing_plan_id":"cebpf4jnsgd1na2vs0mg"},{"bike_id":"4553b9ae-95be-4d03-9d86-2a4c79a4ffcc","system_id":"levelo_inurba_marseille","lat":43.28911,"lon":5.39844,"is_reserved":false,"is_disabled":false,"rental_uris":{"android":"levelo://app?vid=4553b9ae-95be-4d03-9d86-2a4c79a4ffcc","ios":"levelo://app?vid=4553b9ae-95be-4d03-9d86-2a4c79a4ffcc"},"vehicle_type_id":"4","last_reported":1770381351,"current_range_meters":9600,"station_id":"","pricing_plan_id":"cebpf4jnsgd1na2vs0mg"},{"bike_id":"784cceea-cbe7-40d5-a9d5-a85a6e05c2bc","system_id":"levelo_inurba_marseille","lat":43.28707,"lon":5.37924,"is_reserved":false,"is_disabled":false,"rental_uris":{"android":"levelo://app?vid=784cceea-cbe7-40d5-a9d5-a85a6e05c2bc","ios":"levelo://app?vid=784cceea-cbe7-40d5-a9d5-a85a6e05c2bc"},"vehicle_type_id":"4","last_reported":1770381351,"current_range_meters":9600,"station_id":"ce4bh9p2rcd13ifvqec0","pricing_plan_id":"cebpf4jnsgd1na2vs0mg"},{"bike_id":"76a11830-de7d-4f1c-a2da-f6fddc6878f9","system_id":"levelo_inurba_marseille","lat":43.29536,"lon":5.37503,"is_reserved":false,"is_disabled":false,"rental_uris":{"android":"levelo://app?vid=76a11830-de7d-4f1c-a2da-f6fddc6878f9","ios":"levelo://app?vid=76a11830-de7d-4f1c-a2da-f6fddc6878f9"},"vehicle_type_id":"4","last_reported":1770381351,"current_range_meters":9600,"station_id":"ce4bgkp2rcd13ifvqbmg","pricing_plan_id":"cebpf4jnsgd1na2vs0mg"},{"bike_id":"384c5e23-c0f2-431a-96f3-9e2697ab3c55","system_id":"levelo_inurba_marseille","lat":43.31121,"lon":5.37765,"is_reserved":false,"is_disabled":false,"rental_uris":{"android":"levelo://app?vid=384c5e23-c0f2-431a-96f3-9e2697ab3c55","ios":"levelo://app?vid=384c5e23-c0f2-431a-96f3-9e2697ab3c55"},"vehicle_type_id":"4","last_reported":1770381351,"current_range_meters":9600,"station_id":"ce4bgt92rcd13ifvqcg0","pricing_plan_id":"cebpf4jnsgd1na2vs0mg"},{"bike_id":"036b2f47-d4d1-4b3c-80c3-419523d6997a","system_id":"levelo_inurba_marseille","lat":43.30134,"lon":5.38774,"is_reserved":false,"is_disabled":false,"rental_uris":{"android":"levelo://app?vid=036b2f47-d4d1-4b3c-80c3-419523d6997a","ios":"levelo://app?vid=036b2f47-d4d1-4b3c-80c3-419523d6997a"},"vehicle_type_id":"4","last_reported":1770381351,"current_range_meters":9600,"station_id":"ce4bghh2rcd13ifvqb60","pricing_plan_id":"cebpf4jnsgd1na2vs0mg"},{"bike_id":"762d17af-af27-45ae-8011-3c290ff80fd9","system_id":"levelo_inurba_marseille","lat":43.242,"lon":5.36387,"is_reserved":false,"is_disabled":false,"rental_uris":{"android":"levelo://app?vid=762d17af-af27-45ae-8011-3c290ff80fd9","ios":"levelo://app?vid=762d17af-af27-45ae-8011-3c290ff80fd9"},"vehicle_type_id":"4","last_reported":1770381351,"current_range_meters":9600,"station_id":"cpo36qri1sfpv3e86is0","pricing_plan_id":"cebpf4jnsgd1na2vs0mg"},{"bike_id":"ac764263-5e38-4caa-9162-389d1fa0c124","system_id":"levelo_inurba_marseille","lat":43.29912,"lon":5.43667,"is_reserved":false,"is_disabled":false,"rental_uris":{"android":"levelo://app?vid=ac764263-5e38-4caa-9162-389d1fa0c124","ios":"levelo://app?vid=ac764263-5e38-4caa-9162-389d1fa0c124"},"vehicle_type_id":"4","last_reported":1770381351,"current_range_meters":10000,"station_id":"ce4bhpp2rcd13ifvqhfg","pricing_plan_id":"cebpf4jnsgd1na2vs0mg"},{"bike_id":"febc15d4-0970-459b-99a0-9b7e3c11404a","system_id":"levelo_inurba_marseille","lat":43.24534,"lon":5.39518,"is_reserved":false,"is_disabled":false,"rental_uris":{"android":"levelo://app?vid=febc15d4-0970-459b-99a0-9b7e3c11404a","ios":"levelo://app?vid=febc15d4-0970-459b-99a0-9b7e3c11404a"},"vehicle_type_id":"4","last_reported":1770381351,"current_range_meters":10000,"station_id":"ce4bhlp2rcd13ifvqgjg","pricing_plan_id":"cebpf4jnsgd1na2vs0mg"},{"bike_id":"5d396805-e526-4332-a4d7-a5c360a35c98","system_id":"levelo_inurba_marseille","lat":43.30343,"lon":5.42462,"is_reserved":false,"is_disabled":false,"rental_uris":{"android":"levelo://app?vid=5d396805-e526-4332-a4d7-a5c360a35c98","ios":"levelo://app?vid=5d396805-e526-4332-a4d7-a5c360a35c98"},"vehicle_type_id":"4","last_reported":1770381351,"current_range_meters":10000,"station_id":"","pricing_plan_id":"cebpf4jnsgd1na2vs0mg"},{"bike_id":"389b3f94-dc91-44f1-9b47-42a0742beff5","system_id":"levelo_inurba_marseille","lat":43.34144,"lon":5.40909,"is_reserved":false,"is_disabled":false,"rental_uris":{"android":"levelo://app?vid=389b3f94-dc91-44f1-9b47-42a0742beff5","ios":"levelo://app?vid=389b3f94-dc91-44f1-9b47-42a0742beff5"},"vehicle_type_id":"4","last_reported":1770381351,"current_range_meters":10000,"station_id":"ce4bhqh2rcd13ifvqhlg","pricing_plan_id":"cebpf4jnsgd1na2vs0mg"},{"bike_id":"4940192c-cd9e-43b0-a8dd-fd4c04e7805e","system_id":"levelo_inurba_marseille","lat":43.22565,"lon":5.41641,"is_reserved":false,"is_disabled":false,"rental_uris":{"android":"levelo://app?vid=4940192c-cd9e-43b0-a8dd-fd4c04e7805e","ios":"levelo://app?vid=4940192c-cd9e-43b0-a8dd-fd4c04e7805e"},"vehicle_type_id":"4","last_reported":1770381351,"current_range_meters":10000,"station_id":"st_d2o4gvlbi1j2169b742g","pricing_plan_id":"cebpf4jnsgd1na2vs0mg"},{"bike_id":"060a3de4-7d0a-4ba6-a06a-6e4f8471cfa1","system_id":"levelo_inurba_marseille","lat":43.27897,"lon":5.37999,"is_reserved":false,"is_disabled":false,"rental_uris":{"android":"levelo://app?vid=060a3de4-7d0a-4ba6-a06a-6e4f8471cfa1","ios":"levelo://app?vid=060a3de4-7d0a-4ba6-a06a-6e4f8471cfa1"},"vehicle_type_id":"4","last_reported":1770381351,"current_range_meters":10000,"station_id":"ce4bhf92rcd13ifvqf50","pricing_plan_id":"cebpf4jnsgd1na2vs0mg"},{"bike_id":"a3d8f230-fabf-4853-b4e7-30c4e012aa5e","system_id":"levelo_inurba_marseille","lat":43.25972,"lon":5.40928,"is_reserved":false,"is_disabled":false,"rental_uris":{"android":"levelo://app?vid=a3d8f230-fabf-4853-b4e7-30c4e012aa5e","ios":"levelo://app?vid=a3d8f230-fabf-4853-b4e7-30c4e012aa5e"},"vehicle_type_id":"4","last_reported":1770381351,"current_range_meters":10000,"station_id":"ce4bhm92rcd13ifvqglg","pricing_plan_id":"cebpf4jnsgd1na2vs0mg"},{"bike_id":"222bad96-b12e-4dd0-a7f8-28c766b24b5c","system_id":"levelo_inurba_marseille","lat":43.266828,"lon":5.382736,"is_reserved":false,"is_disabled":false,"rental_uris":{"android":"levelo://app?vid=222bad96-b12e-4dd0-a7f8-28c766b24b5c","ios":"levelo://app?vid=222bad96-b12e-4dd0-a7f8-28c766b24b5c"},"vehicle_type_id":"4","last_reported":1770381351,"current_range_meters":10000,"station_id":"ce4bhg92rcd13ifvqf90","pricing_plan_id":"cebpf4jnsgd1na2vs0mg"},{"bike_id":"ca56e68f-7e24-4681-a422-a463b8716c7e","system_id":"levelo_inurba_marseille","lat":43.28607,"lon":5.3707,"is_reserved":false,"is_disabled":false,"rental_uris":{"android":"levelo://app?vid=ca56e68f-7e24-4681-a422-a463b8716c7e","ios":"levelo://app?vid=ca56e68f-7e24-4681-a422-a463b8716c7e"},"vehicle_type_id":"4","last_reported":1770381351,"current_range_meters":10000,"station_id":"ce4bht12rcd13ifvqi60","pricing_plan_id":"cebpf4jnsgd1na2vs0mg"},{"bike_id":"f03e6b25-e7f3-4f2b-a805-6821fd5164b7","system_id":"levelo_inurba_marseille","lat":43.28472,"lon":5.38423,"is_reserved":false,"is_disabled":true,"rental_uris":{"android":"levelo://app?vid=f03e6b25-e7f3-4f2b-a805-6821fd5164b7","ios":"levelo://app?vid=f03e6b25-e7f3-4f2b-a805-6821fd5164b7"},"vehicle_type_id":"4","last_reported":1770381351,"current_range_meters":10000,"station_id":"ce4bh512rcd13ifvqe3g","pricing_plan_id":"cebpf4jnsgd1na2vs0mg"},{"bike_id":"165eebd5-17ea-4cb2-bc49-f3b37590248d","system_id":"levelo_inurba_marseille","lat":43.290467,"lon":5.399626,"is_reserved":false,"is_disabled":false,"rental_uris":{"android":"levelo://app?vid=165eebd5-17ea-4cb2-bc49-f3b37590248d","ios":"levelo://app?vid=165eebd5-17ea-4cb2-bc49-f3b37590248d"},"vehicle_type_id":"4","last_reported":1770381351,"current_range_meters":10000,"station_id":"ce4bh392rcd13ifvqdm0","pricing_plan_id":"cebpf4jnsgd1na2vs0mg"},{"bike_id":"f7b6c8a3-90a3-499f-8e66-c48de84a1a28","system_id":"levelo_inurba_marseille","lat":43.30481,"lon":5.37896,"is_reserved":false,"is_disabled":false,"rental_uris":{"android":"levelo://app?vid=f7b6c8a3-90a3-499f-8e66-c48de84a1a28","ios":"levelo://app?vid=f7b6c8a3-90a3-499f-8e66-c48de84a1a28"},"vehicle_type_id":"4","last_reported":1770381351,"current_range_meters":10000,"station_id":"ce4bgup2rcd13ifvqcn0","pricing_plan_id":"cebpf4jnsgd1na2vs0mg"},{"bike_id":"c18d8a2a-4873-4e50-b828-eb2bbcecce02","system_id":"levelo_inurba_marseille","lat":43.3048,"lon":5.37913,"is_reserved":false,"is_disabled":false,"rental_uris":{"android":"levelo://app?vid=c18d8a2a-4873-4e50-b828-eb2bbcecce02","ios":"levelo://app?vid=c18d8a2a-4873-4e50-b828-eb2bbcecce02"},"vehicle_type_id":"4","last_reported":1770381351,"current_range_meters":10800,"station_id":"ce4bgup2rcd13ifvqcn0","pricing_plan_id":"cebpf4jnsgd1na2vs0mg"},{"bike_id":"55701a05-0afd-44f2-b5ec-65dd45bfe15c","system_id":"levelo_inurba_marseille","lat":43.23975,"lon":5.36639,"is_reserved":false,"is_disabled":false,"rental_uris":{"android":"levelo://app?vid=55701a05-0afd-44f2-b5ec-65dd45bfe15c","ios":"levelo://app?vid=55701a05-0afd-44f2-b5ec-65dd45bfe15c"},"vehicle_type_id":"4","last_reported":1770381351,"current_range_meters":10800,"station_id":"ce4bhi12rcd13ifvqfp0","pricing_plan_id":"cebpf4jnsgd1na2vs0mg"},{"bike_id":"806558ca-074e-45f9-b3bd-a78668f9fdf6","system_id":"levelo_inurba_marseille","lat":43.25933,"lon":5.40886,"is_reserved":false,"is_disabled":false,"rental_uris":{"android":"levelo://app?vid=806558ca-074e-45f9-b3bd-a78668f9fdf6","ios":"levelo://app?vid=806558ca-074e-45f9-b3bd-a78668f9fdf6"},"vehicle_type_id":"4","last_reported":1770381351,"current_range_meters":10800,"station_id":"ce4bhm92rcd13ifvqglg","pricing_plan_id":"cebpf4jnsgd1na2vs0mg"},{"bike_id":"852f78ad-93a5-4d2f-8a0b-832f5bbdbd7f","system_id":"levelo_inurba_marseille","lat":43.23146,"lon":5.43727,"is_reserved":false,"is_disabled":false,"rental_uris":{"android":"levelo://app?vid=852f78ad-93a5-4d2f-8a0b-832f5bbdbd7f","ios":"levelo://app?vid=852f78ad-93a5-4d2f-8a0b-832f5bbdbd7f"},"vehicle_type_id":"4","last_reported":1770381351,"current_range_meters":10800,"station_id":"ce4bhmp2rcd13ifvqgog","pricing_plan_id":"cebpf4jnsgd1na2vs0mg"},{"bike_id":"4c9853f1-65bf-45a1-948f-5b27d9b8745e","system_id":"levelo_inurba_marseille","lat":43.284137,"lon":5.375093,"is_reserved":false,"is_disabled":false,"rental_uris":{"android":"levelo://app?vid=4c9853f1-65bf-45a1-948f-5b27d9b8745e","ios":"levelo://app?vid=4c9853f1-65bf-45a1-948f-5b27d9b8745e"},"vehicle_type_id":"4","last_reported":1770381351,"current_range_meters":10800,"station_id":"ce4bh412rcd13ifvqds0","pricing_plan_id":"cebpf4jnsgd1na2vs0mg"},{"bike_id":"006f45de-433c-4fe3-81a6-3dac1db63eac","system_id":"levelo_inurba_marseille","lat":43.24472,"lon":5.42541,"is_reserved":false,"is_disabled":false,"rental_uris":{"android":"levelo://app?vid=006f45de-433c-4fe3-81a6-3dac1db63eac","ios":"levelo://app?vid=006f45de-433c-4fe3-81a6-3dac1db63eac"},"vehicle_type_id":"4","last_reported":1770381351,"current_range_meters":10800,"station_id":"st_d4a3vfp97mjs738cd8kg","pricing_plan_id":"cebpf4jnsgd1na2vs0mg"},{"bike_id":"3638c32e-536f-4900-9bbe-1a89f2464e38","system_id":"levelo_inurba_marseille","lat":43.24645,"lon":5.4315,"is_reserved":false,"is_disabled":false,"rental_uris":{"android":"levelo://app?vid=3638c32e-536f-4900-9bbe-1a89f2464e38","ios":"levelo://app?vid=3638c32e-536f-4900-9bbe-1a89f2464e38"},"vehicle_type_id":"4","last_reported":1770381351,"current_range_meters":10800,"station_id":"st_d2m6c4gdas8pm72e190g","pricing_plan_id":"cebpf4jnsgd1na2vs0mg"},{"bike_id":"be251b05-ed67-489a-a86b-4c909f1c1107","system_id":"levelo_inurba_marseille","lat":43.21741,"lon":5.34604,"is_reserved":false,"is_disabled":false,"rental_uris":{"android":"levelo://app?vid=be251b05-ed67-489a-a86b-4c909f1c1107","ios":"levelo://app?vid=be251b05-ed67-489a-a86b-4c909f1c1107"},"vehicle_type_id":"4","last_reported":1770381351,"current_range_meters":10800,"station_id":"st_cvj6r9ubvosntc0bgbag","pricing_plan_id":"cebpf4jnsgd1na2vs0mg"},