{"last_updated":1729685836,"ttl":60,"version":"2.2","data":{"bikes":[{"bike_id":"787a5124-c0c6-476a-8d5e-414f02298508","system_id":"levelo_inurba_marseille","lat":43.29052,"lon":5.35914,"is_reserved":false,"is_disabled":false,"rental_uris":{"android":"levelo://app?vid=787a5124-c0c6-476a-8d5e-414f02298508","ios":"levelo://app?vid=787a5124-c0c6-476a-8d5e-414f02298508"},"vehicle_type_id":"4","last_reported":1729685836,"current_range_meters":14000,"station_id":"ce4bha92rcd13ifvqeg0","pricing_plan_id":"cebpf4jnsgd1na2vs0mg"},{"bike_id":"9de90dad-c74d-44fa-9c0f-1309862b22d3","system_id":"levelo_inurba_marseille","lat":43.29801,"lon":5.38105,"is_reserved":false,"is_disabled":false,"rental_uris":{"android":"levelo://app?vid=9de90dad-c74d-44fa-9c0f-1309862b22d3","ios":"levelo://app?vid=9de90dad-c74d-44fa-9c0f-1309862b22d3"},"vehicle_type_id":"4","last_reported":1729685836,"current_range_meters":31200,"station_id":"ce4bgip2rcd13ifvqbb0","pricing_plan_id":"cebpf4jnsgd1na2vs0mg"},{"bike_id":"94505a83-b206-4db0-aff0-8f5678e8c521","system_id":"levelo_inurba_marseille","lat":43.24074,"lon":5.37754,"is_reserved":false,"is_disabled":false,"rental_uris":{"android":"levelo://app?vid=94505a83-b206-4db0-aff0-8f5678e8c521","ios":"levelo://app?vid=94505a83-b206-4db0-aff0-8f5678e8c521"},"vehicle_type_id":"4","last_reported":1729685836,"current_range_meters":17200,"station_id":"ce4bhnp2rcd13ifvqgvg","pricing_plan_id":"cebpf4jnsgd1na2vs0mg"},{"bike_id":"dba8ace5-b253-4c0a-9d7e-20e831c7d735","system_id":"levelo_inurba_marseille","lat":43.30334,"lon":5.40436,"is_reserved":false,"is_disabled":false,"rental_uris":{"android":"levelo://app?vid=dba8ace5-b253-4c0a-9d7e-20e831c7d735","ios":"levelo://app?vid=dba8ace5-b253-4c0a-9d7e-20e831c7d735"},"vehicle_type_id":"4","last_reported":1729685836,"current_range_meters":37600,"station_id":"ce4bh012rcd13ifvqd10","pricing_plan_id":"cebpf4jnsgd1na2vs0mg"},{"bike_id":"460965c8-ebd4-41a4-92de-c01a84778098","system_id":"levelo_inurba_marseille","lat":43.24663,"lon":5.38163,"is_reserved":false,"is_disabled":false,"rental_uris":{"android":"levelo://app?vid=460965c8-ebd4-41a4-92de-c01a84778098","ios":"levelo://app?vid=460965c8-ebd4-41a4-92de-c01a84778098"},"vehicle_type_id":"4","last_reported":1729685836,"current_range_meters":28400,"station_id":"ce4bhih2rcd13ifvqfr0","pricing_plan_id":"cebpf4jnsgd1na2vs0mg"},{"bike_id":"da2545c0-1aa1-4252-83b4-6c3657ee2a36","system_id":"levelo_inurba_marseille","lat":43.29545,"lon":5.42278,"is_reserved":false,"is_disabled":false,"rental_uris":{"android":"levelo://app?vid=da2545c0-1aa1-4252-83b4-6c3657ee2a36","ios":"levelo://app?vid=da2545c0-1aa1-4252-83b4-6c3657ee2a36"},"vehicle_type_id":"4","last_reported":1729685836,"current_range_meters":28400,"station_id":"ce4bhph2rcd13ifvqhdg","pricing_plan_id":"cebpf4jnsgd1na2vs0mg"},{"bike_id":"b149ce4e-51e1-44d1-a677-e09dc3311ba7","system_id":"levelo_inurba_marseille","lat":43.24389,"lon":5.37052,"is_reserved":false,"is_disabled":false,"rental_uris":{"android":"levelo://app?vid=b149ce4e-51e1-44d1-a677-e09dc3311ba7","ios":"levelo://app?vid=b149ce4e-51e1-44d1-a677-e09dc3311ba7"},"vehicle_type_id":"4","last_reported":1729685836,"current_range_meters":40000,"station_id":"ce4bhhh2rcd13ifvqfk0","pricing_plan_id":"cebpf4jnsgd1na2vs0mg"},{"bike_id":"a581c9ee-de6c-4ca2-adce-d873a10f1b7c","system_id":"levelo_inurba_marseille","lat":43.2407,"lon":5.37751,"is_reserved":false,"is_disabled":false,"rental_uris":{"android":"levelo://app?vid=a581c9ee-de6c-4ca2-adce-d873a10f1b7c","ios":"levelo://app?vid=a581c9ee-de6c-4ca2-adce-d873a10f1b7c"},"vehicle_type_id":"4","last_reported":1729685836,"current_range_meters":10800,"station_id":"ce4bhnp2rcd13ifvqgvg","pricing_plan_id":"cebpf4jnsgd1na2vs0mg"},{"bike_id":"33b2053d-bd1d-49f6-9dc6-9a0d8a900c29","system_id":"levelo_inurba_marseille","lat":43.24073,"lon":5.37752,"is_reserved":false,"is_disabled":false,"rental_uris":{"android":"levelo://app?vid=33b2053d-bd1d-49f6-9dc6-9a0d8a900c29","ios":"levelo://app?vid=33b2053d-bd1d-49f6-9dc6-9a0d8a900c29"},"vehicle_type_id":"4","last_reported":1729685836,"current_range_meters":19200,"station_id":"ce4bhnp2rcd13ifvqgvg","pricing_plan_id":"cebpf4jnsgd1na2vs0mg"},{"bike_id":"61f6cbe3-d9eb-4f33-935f-edbcd14942c8","system_id":"levelo_inurba_marseille","lat":43.24073,"lon":5.37747,"is_reserved":false,"is_disabled":false,"rental_uris":{"android":"levelo://app?vid=61f6cbe3-d9eb-4f33-935f-edbcd14942c8","ios":"levelo://app?vid=61f6cbe3-d9eb-4f33-935f-edbcd14942c8"},"vehicle_type_id":"4","last_reported":1729685836,"current_range_meters":38800,"station_id":"ce4bhnp2rcd13ifvqgvg","pricing_plan_id":"cebpf4jnsgd1na2vs0mg"},{"bike_id":"9413d072-e380-41d2-8dd9-7098a859ea7d","system_id":"levelo_inurba_marseille","lat":43.29198,"lon":5.39322,"is_reserved":false,"is_disabled":false,"rental_uris":{"android":"levelo://app?vid=9413d072-e380-41d2-8dd9-7098a859ea7d","ios":"levelo://app?vid=9413d072-e380-41d2-8dd9-7098a859ea7d"},"vehicle_type_id":"4","last_reported":1729685836,"current_range_meters":38000,"station_id":"ce4bh192rcd13ifvqdd0","pricing_plan_id":"cebpf4jnsgd1na2vs0mg"},{"bike_id":"63abbc76-55ae-4885-ae3f-baaebdca6f0a","system_id":"levelo_inurba_marseille","lat":43.28858,"lon":5.3585,"is_reserved":false,"is_disabled":false,"rental_uris":{"android":"levelo://app?vid=63abbc76-55ae-4885-ae3f-baaebdca6f0a","ios":"levelo://app?vid=63abbc76-55ae-4885-ae3f-baaebdca6f0a"},"vehicle_type_id":"4","last_reported":1729685836,"current_range_meters":17200,"station_id":"ce4bhb12rcd13ifvqem0","pricing_plan_id":"cebpf4jnsgd1na2vs0mg"},{"bike_id":"bc5570b0-116e-480f-9df3-7a8dff091c99","system_id":"levelo_inurba_marseille","lat":43.24077,"lon":5.37752,"is_reserved":false,"is_disabled":false,"rental_uris":{"android":"levelo://app?vid=bc5570b0-116e-480f-9df3-7a8dff091c99","ios":"levelo://app?vid=bc5570b0-116e-480f-9df3-7a8dff091c99"},"vehicle_type_id":"4","last_reported":1729685836,"current_range_meters":38800,"station_id":"ce4bhnp2rcd13ifvqgvg","pricing_plan_id":"cebpf4jnsgd1na2vs0mg"},{"bike_id":"8c19fdbc-10ee-4228-97ad-07cf8257a960","system_id":"levelo_inurba_marseille","lat":43.289795,"lon":5.365659,"is_reserved":false,"is_disabled":false,"rental_uris":{"android":"levelo://app?vid=8c19fdbc-10ee-4228-97ad-07cf8257a960","ios":"levelo://app?vid=8c19fdbc-10ee-4228-97ad-07cf8257a960"},"vehicle_type_id":"4","last_reported":1729685836,"current_range_meters":30400,"station_id":"ce4bhap2rcd13ifvqek0","pricing_plan_id":"cebpf4jnsgd1na2vs0mg"},{"bike_id":"e9243ab1-f283-42d0-bcc5-655ea73eca58","system_id":"levelo_inurba_marseille","lat":43.28442,"lon":5.39202,"is_reserved":false,"is_disabled":false,"rental_uris":{"android":"levelo://app?vid=e9243ab1-f283-42d0-bcc5-655ea73eca58","ios":"levelo://app?vid=e9243ab1-f283-42d0-bcc5-655ea73eca58"},"vehicle_type_id":"4","last_reported":1729685836,"current_range_meters":17600,"station_id":"ce4bhoh2rcd13ifvqh5g","pricing_plan_id":"cebpf4jnsgd1na2vs0mg"},{"bike_id":"8b3c0faf-6685-4f0c-bcad-67675bd23c19","system_id":"levelo_inurba_marseille","lat":43.31716,"lon":5.43707,"is_reserved":false,"is_disabled":false,"rental_uris":{"android":"levelo://app?vid=8b3c0faf-6685-4f0c-bcad-67675bd23c19","ios":"levelo://app?vid=8b3c0faf-6685-4f0c-bcad-67675bd23c19"},"vehicle_type_id":"4","last_reported":1729685836,"current_range_meters":9600,"station_id":"ce4bhp92rcd13ifvqhcg","pricing_plan_id":"cebpf4jnsgd1na2vs0mg"},{"bike_id":"69bfec52-838f-439d-a124-9f89f6d8a323","system_id":"levelo_inurba_marseille","lat":43.29195,"lon":5.39319,"is_reserved":false,"is_disabled":false,"rental_uris":{"android":"levelo://app?vid=69bfec52-838f-439d-a124-9f89f6d8a323","ios":"levelo://app?vid=69bfec52-838f-439d-a124-9f89f6d8a323"},"vehicle_type_id":"4","last_reported":1729685836,"current_range_meters":32400,"station_id":"ce4bh192rcd13ifvqdd0","pricing_plan_id":"cebpf4jnsgd1na2vs0mg"},{"bike_id":"277c6240-4b00-4913-bd18-561260d0febe","system_id":"levelo_inurba_marseille","lat":43.29193,"lon":5.39321,"is_reserved":false,"is_disabled":false,"rental_uris":{"android":"levelo://app?vid=277c6240-4b00-4913-bd18-561260d0febe","ios":"levelo://app?vid=277c6240-4b00-4913-bd18-561260d0febe"},"vehicle_type_id":"4","last_reported":1729685836,"current_range_meters":16400,"station_id":"ce4bh192rcd13ifvqdd0","pricing_plan_id":"cebpf4jnsgd1na2vs0mg"},{"bike_id":"5c449356-4ac4-4d08-a405-c433fbe21a80","system_id":"levelo_inurba_marseille","lat":43.33737,"lon":5.37458,"is_reserved":false,"is_disabled":false,"rental_uris":{"android":"levelo://app?vid=5c449356-4ac4-4d08-a405-c433fbe21a80","ios":"levelo://app?vid=5c449356-4ac4-4d08-a405-c433fbe21a80"},"vehicle_type_id":"4","last_reported":1729685836,"current_range_meters":29600,"station_id":"","pricing_plan_id":"cebpf4jnsgd1na2vs0mg"},{"bike_id":"9de9cb8d-d25d-4196-accb-4fd7e1f38f5d","system_id":"levelo_inurba_marseille","lat":43.29795,"lon":5.38098,"is_reserved":false,"is_disabled":false,"rental_uris":{"android":"levelo://app?vid=9de9cb8d-d25d-4196-accb-4fd7e1f38f5d","ios":"levelo://app?vid=9de9cb8d-d25d-4196-accb-4fd7e1f38f5d"},"vehicle_type_id":"4","last_reported":1729685836,"current_range_meters":29600,"station_id":"ce4bgip2rcd13ifvqbb0","pricing_plan_id":"cebpf4jnsgd1na2vs0mg"},{"bike_id":"530f3de5-0666-4848-a0bc-b2ca8214ca41","system_id":"levelo_inurba_marseille","lat":43.30888,"lon":5.37184,"is_reserved":false,"is_disabled":false,"rental_uris":{"android":"levelo://app?vid=530f3de5-0666-4848-a0bc-b2ca8214ca41","ios":"levelo://app?vid=530f3de5-0666-4848-a0bc-b2ca8214ca41"},"vehicle_type_id":"4","last_reported":1729685836,"current_range_meters":6000,"station_id":"ce4bguh2rcd13ifvqckg","pricing_plan_id":"cebpf4jnsgd1na2vs0mg"},{"bike_id":"b537a7c5-9c86-4581-9304-b2cb5f9d166b","system_id":"levelo_inurba_marseille","lat":43.2407,"lon":5.37755,"is_reserved":false,"is_disabled":false,"rental_uris":{"android":"levelo://app?vid=b537a7c5-9c86-4581-9304-b2cb5f9d166b","ios":"levelo://app?vid=b537a7c5-9c86-4581-9304-b2cb5f9d166b"},"vehicle_type_id":"4","last_reported":1729685836,"current_range_meters":16000,"station_id":"ce4bhnp2rcd13ifvqgvg","pricing_plan_id":"cebpf4jnsgd1na2vs0mg"},{"bike_id":"afa93300-f37e-4cf9-ba93-89c9e807434b","system_id":"levelo_inurba_marseille","lat":43.28151,"lon":5.42643,"is_reserved":false,"is_disabled":false,"rental_uris":{"android":"levelo://app?vid=afa93300-f37e-4cf9-ba93-89c9e807434b","ios":"levelo://app?vid=afa93300-f37e-4cf9-ba93-89c9e807434b"},"vehicle_type_id":"4","last_reported":1729685836,"current_range_meters":2800,"station_id":"ce4bhnh2rcd13ifvqgug","pricing_plan_id":"cebpf4jnsgd1na2vs0mg"},{"bike_id":"0c6b11eb-50a7-4dc0-bff2-d8026011ec1d","system_id":"levelo_inurba_marseille","lat":43.24389,"lon":5.37057,"is_reserved":false,"is_disabled":false,"rental_uris":{"android":"levelo://app?vid=0c6b11eb-50a7-4dc0-bff2-d8026011ec1d","ios":"levelo://app?vid=0c6b11eb-50a7-4dc0-bff2-d8026011ec1d"},"vehicle_type_id":"4","last_reported":1729685836,"current_range_meters":40000,"station_id":"ce4bhhh2rcd13ifvqfk0","pricing_plan_id":"cebpf4jnsgd1na2vs0mg"},{"bike_id":"3571e33e-08e7-4c65-bcb7-4ff4abd18ba6","system_id":"levelo_inurba_marseille","lat":43.24156,"lon":5.3641,"is_reserved":false,"is_disabled":false,"rental_uris":{"android":"levelo://app?vid=3571e33e-08e7-4c65-bcb7-4ff4abd18ba6","ios":"levelo://app?vid=3571e33e-08e7-4c65-bcb7-4ff4abd18ba6"},"vehicle_type_id":"4","last_reported":1729685836,"current_range_meters":20000,"station_id":"cpo36qri1sfpv3e86is0","pricing_plan_id":"cebpf4jnsgd1na2vs0mg"},{"bike_id":"fdd2bd7c-0766-4fdc-b057-8fb32fd199a0","system_id":"levelo_inurba_marseille","lat":43.2315,"lon":5.43716,"is_reserved":false,"is_disabled":false,"rental_uris":{"android":"levelo://app?vid=fdd2bd7c-0766-4fdc-b057-8fb32fd199a0","ios":"levelo://app?vid=fdd2bd7c-0766-4fdc-b057-8fb32fd199a0"},"vehicle_type_id":"4","last_reported":1729685836,"current_range_meters":10000,"station_id":"ce4bhmp2rcd13ifvqgog","pricing_plan_id":"cebpf4jnsgd1na2vs0mg"},{"bike_id":"c769be1b-4262-45e1-ae17-91133a0a1d6c","system_id":"levelo_inurba_marseille","lat":43.3053,"lon":5.36659,"is_reserved":false,"is_disabled":false,"rental_uris":{"android":"levelo://app?vid=c769be1b-4262-45e1-ae17-91133a0a1d6c","ios":"levelo://app?vid=c769be1b-4262-45e1-ae17-91133a0a1d6c"},"vehicle_type_id":"4","last_reported":1729685836,"current_range_meters":12000,"station_id":"","pricing_plan_id":"cebpf4jnsgd1na2vs0mg"},{"bike_id":"4882a116-5452-4f97-bdbd-13df4cccb9d6","system_id":"levelo_inurba_marseille","lat":43.30601,"lon":5.37232,"is_reserved":false,"is_disabled":false,"rental_uris":{"android":"levelo://app?vid=4882a116-5452-4f97-bdbd-13df4cccb9d6","ios":"levelo://app?vid=4882a116-5452-4f97-bdbd-13df4cccb9d6"},"vehicle_type_id":"4","last_reported":1729685836,"current_range_meters":29600,"station_id":"ce4bgqh2rcd13ifvqc4g","pricing_plan_id":"cebpf4jnsgd1na2vs0mg"},{"bike_id":"3389d5a8-8fd1-4df9-842d-69afacb795fe","system_id":"levelo_inurba_marseille","lat":43.30451,"lon":5.37905,"is_reserved":false,"is_disabled":false,"rental_uris":{"android":"levelo://app?vid=3389d5a8-8fd1-4df9-842d-69afacb795fe","ios":"levelo://app?vid=3389d5a8-8fd1-4df9-842d-69afacb795fe"},"vehicle_type_id":"4","last_reported":1729685836,"current_range_meters":35600,"station_id":"ce4bgup2rcd13ifvqcn0","pricing_plan_id":"cebpf4jnsgd1na2vs0mg"},{"bike_id":"c8e00cd6-b66d-42fb-b127-a7d75d9de5df","system_id":"levelo_inurba_marseille","lat":43.28412,"lon":5.34989,"is_reserved":false,"is_disabled":false,"rental_uris":{"android":"levelo://app?vid=c8e00cd6-b66d-42fb-b127-a7d75d9de5df","ios":"levelo://app?vid=c8e00cd6-b66d-42fb-b127-a7d75d9de5df"},"vehicle_type_id":"4","last_reported":1729685836,"current_range_meters":27200,"station_id":"ce4bhbh2rcd13ifvqepg","pricing_plan_id":"cebpf4jnsgd1na2vs0mg"},{"bike_id":"71ea797b-da06-4327-92dc-47c13ec265e2","system_id":"levelo_inurba_marseille","lat":43.305432,"lon":5.365337,"is_reserved":false,"is_disabled":false,"rental_uris":{"android":"levelo://app?vid=71ea797b-da06-4327-92dc-47c13ec265e2","ios":"levelo://app?vid=71ea797b-da06-4327-92dc-47c13ec265e2"},"vehicle_type_id":"4","last_reported":1729685836,"current_range_meters":38400,"station_id":"ce4bgs12rcd13ifvqcag","pricing_plan_id":"cebpf4jnsgd1na2vs0mg"},{"bike_id":"28493d6b-4186-4ce9-9624-f85ac11bed2e","system_id":"levelo_inurba_marseille","lat":43.290158,"lon":5.356378,"is_reserved":false,"is_disabled":false,"rental_uris":{"android":"levelo://app?vid=28493d6b-4186-4ce9-9624-f85ac11bed2e","ios":"levelo://app?vid=28493d6b-4186-4ce9-9624-f85ac11bed2e"},"vehicle_type_id":"4","last_reported":1729685836,"current_range_meters":28000,"station_id":"ce4bhb92rcd13ifvqen0","pricing_plan_id":"cebpf4jnsgd1na2vs0mg"},{"bike_id":"f3162e9c-5038-4800-8b9d-f519c25af829","system_id":"levelo_inurba_marseille","lat":43.33754,"lon":5.37448,"is_reserved":false,"is_disabled":false,"rental_uris":{"android":"levelo://app?vid=f3162e9c-5038-4800-8b9d-f519c25af829","ios":"levelo://app?vid=f3162e9c-5038-4800-8b9d-f519c25af829"},"vehicle_type_id":"4","last_reported":1729685836,"current_range_meters":36000,"station_id":"","pricing_plan_id":"cebpf4jnsgd1na2vs0mg"},{"bike_id":"a2f59ec9-af23-4065-a577-c67bcb1128a7","system_id":"levelo_inurba_marseille","lat":43.29646,"lon":5.374816,"is_reserved":false,"is_disabled":false,"rental_uris":{"android":"levelo://app?vid=a2f59ec9-af23-4065-a577-c67bcb1128a7","ios":"levelo://app?vid=a2f59ec9-af23-4065-a577-c67bcb1128a7"},"vehicle_type_id":"4","last_reported":1729685836,"current_range_meters":20800,"station_id":"","pricing_plan_id":"cebpf4jnsgd1na2vs0mg"},{"bike_id":"36b67483-be36-4ca6-b1a5-421e3143f090","system_id":"levelo_inurba_marseille","lat":43.231483,"lon":5.437108,"is_reserved":false,"is_disabled":false,"rental_uris":{"android":"levelo://app?vid=36b67483-be36-4ca6-b1a5-421e3143f090","ios":"levelo://app?vid=36b67483-be36-4ca6-b1a5-421e3143f090"},"vehicle_type_id":"4","last_reported":1729685836,"current_range_meters":40000,"station_id":"ce4bhmp2rcd13ifvqgog","pricing_plan_id":"cebpf4jnsgd1na2vs0mg"},{"bike_id":"501147fc-8118-4d3e-b86b-a890629954ab","system_id":"levelo_inurba_marseille","lat":43.28319,"lon":5.40168,"is_reserved":false,"is_disabled":false,"rental_uris":{"android":"levelo://app?vid=501147fc-8118-4d3e-b86b-a890629954ab","ios":"levelo://app?vid=501147fc-8118-4d3e-b86b-a890629954ab"},"vehicle_type_id":"4","last_reported":1729685836,"current_range_meters":16800,"station_id":"ce4bho92rcd13ifvqh4g","pricing_plan_id":"cebpf4jnsgd1na2vs0mg"},{"bike_id":"eed0bb81-1059-4a62-978f-40ddaaec815e","system_id":"levelo_inurba_marseille","lat":43.29776,"lon":5.37096,"is_reserved":false,"is_disabled":false,"rental_uris":{"android":"levelo://app?vid=eed0bb81-1059-4a62-978f-40ddaaec815e","ios":"levelo://app?vid=eed0bb81-1059-4a62-978f-40ddaaec815e"},"vehicle_type_id":"4","last_reported":1729685836,"current_range_meters":38400,"station_id":"ce4bgop2rcd13ifvqc1g","pricing_plan_id":"cebpf4jnsgd1na2vs0mg"},{"bike_id":"1786e6f3-e6fa-4812-bd59-dee9b5495362","system_id":"levelo_inurba_marseille","lat":43.25721,"lon":5.41102,"is_reserved":false,"is_disabled":false,"rental_uris":{"android":"levelo://app?vid=1786e6f3-e6fa-4812-bd59-dee9b5495362","ios":"levelo://app?vid=1786e6f3-e6fa-4812-bd59-dee9b5495362"},"vehicle_type_id":"4","last_reported":1729685836,"current_range_meters":38000,"station_id":"ce4bhkp2rcd13ifvqgd0","pricing_plan_id":"cebpf4jnsgd1na2vs0mg"},{"bike_id":"5a59504c-55a3-45fd-8338-41ea7274dd22","system_id":"levelo_inurba_marseille","lat":43.23965,"lon":5.36633,"is_reserved":false,"is_disabled":false,"rental_uris":{"android":"levelo://app?vid=5a59504c-55a3-45fd-8338-41ea7274dd22","ios":"levelo://app?vid=5a59504c-55a3-45fd-8338-41ea7274dd22"},"vehicle_type_id":"4","last_reported":1729685836,"current_range_meters":25600,"station_id":"ce4bhi12rcd13ifvqfp0","pricing_plan_id":"cebpf4jnsgd1na2vs0mg"},{"bike_id":"5cc89eda-4d32-4727-b74a-3dafc008fd8a","system_id":"levelo_inurba_marseille","lat":43.23195,"lon":5.35556,"is_reserved":false,"is_disabled":false,"rental_uris":{"android":"levelo://app?vid=5cc89eda-4d32-4727-b74a-3dafc008fd8a","ios":"levelo://app?vid=5cc89eda-4d32-4727-b74a-3dafc008fd8a"},"vehicle_type_id":"4","last_reported":1729685836,"current_range_meters":25600,"station_id":"ce4bhu92rcd13ifvqi70","pricing_plan_id":"cebpf4jnsgd1na2vs0mg"},{"bike_id":"a90d55ac-2ec2-4054-990d-8afe341fddb1","system_id":"levelo_inurba_marseille","lat":43.305847,"lon":5.372481,"is_reserved":false,"is_disabled":false,"rental_uris":{"android":"levelo://app?vid=a90d55ac-2ec2-4054-990d-8afe341fddb1","ios":"levelo://app?vid=a90d55ac-2ec2-4054-990d-8afe341fddb1"},"vehicle_type_id":"4","last_reported":1729685836,"current_range_meters":6400,"station_id":"ce4bgqh2rcd13ifvqc4g","pricing_plan_id":"cebpf4jnsgd1na2vs0mg"},{"bike_id":"eaab6c28-92de-4aa3-9679-5792a38fcb98","system_id":"levelo_inurba_marseille","lat":43.295197,"lon":5.394017,"is_reserved":false,"is_disabled":false,"rental_uris":{"android":"levelo://app?vid=eaab6c28-92de-4aa3-9679-5792a38fcb98","ios":"levelo://app?vid=eaab6c28-92de-4aa3-9679-5792a38fcb98"},"vehicle_type_id":"4","last_reported":1729685836,"current_range_meters":30000,"station_id":"ce4bh292rcd13ifvqdf0","pricing_plan_id":"cebpf4jnsgd1na2vs0mg"},{"bike_id":"84bcea31-8e27-412b-b318-c13e07147b1d","system_id":"levelo_inurba_marseille","lat":43.3046,"lon":5.37904,"is_reserved":false,"is_disabled":false,"rental_uris":{"android":"levelo://app?vid=84bcea31-8e27-412b-b318-c13e07147b1d","ios":"levelo://app?vid=84bcea31-8e27-412b-b318-c13e07147b1d"},"vehicle_type_id":"4","last_reported":1729685836,"current_range_meters":36800,"station_id":"ce4bgup2rcd13ifvqcn0","pricing_plan_id":"cebpf4jnsgd1na2vs0mg"},{"bike_id":"d349fab6-b06e-46c4-b3b0-8668fc4ad41b","system_id":"levelo_inurba_marseille","lat":43.23056,"lon":5.35489,"is_reserved":false,"is_disabled":false,"rental_uris":{"android":"levelo://app?vid=d349fab6-b06e-46c4-b3b0-8668fc4ad41b","ios":"levelo://app?vid=d349fab6-b06e-46c4-b3b0-8668fc4ad41b"},"vehicle_type_id":"4","last_reported":1729685836,"current_range_meters":16800,"station_id":"cpo3342slgdg3j2ifvpg","pricing_plan_id":"cebpf4jnsgd1na2vs0mg"},{"bike_id":"26123c64-24cd-4648-b33d-ad184a1a48d2","system_id":"levelo_inurba_marseille","lat":43.28419,"lon":5.34983,"is_reserved":false,"is_disabled":false,"rental_uris":{"android":"levelo://app?vid=26123c64-24cd-4648-b33d-ad184a1a48d2","ios":"levelo://app?vid=26123c64-24cd-4648-b33d-ad184a1a48d2"},"vehicle_type_id":"4","last_reported":1729685836,"current_range_meters":9600,"station_id":"ce4bhbh2rcd13ifvqepg","pricing_plan_id":"cebpf4jnsgd1na2vs0mg"},{"bike_id":"3d8d4ecf-c24d-4b70-a2a2-ceff9c7b249d","system_id":"levelo_inurba_marseille","lat":43.291,"lon":5.38147,"is_reserved":false,"is_disabled":false,"rental_uris":{"android":"levelo://app?vid=3d8d4ecf-c24d-4b70-a2a2-ceff9c7b249d","ios":"levelo://app?vid=3d8d4ecf-c24d-4b70-a2a2-ceff9c7b249d"},"vehicle_type_id":"4","last_reported":1729685836,"current_range_meters":7200,"station_id":"ce4bh512rcd13ifvqe2g","pricing_plan_id":"cebpf4jnsgd1na2vs0mg"},{"bike_id":"d00b30a2-86fa-40d6-923a-16a6fb33dce8","system_id":"levelo_inurba_marseille","lat":43.29179,"lon":5.39304,"is_reserved":false,"is_disabled":false,"rental_uris":{"android":"levelo://app?vid=d00b30a2-86fa-40d6-923a-16a6fb33dce8","ios":"levelo://app?vid=d00b30a2-86fa-40d6-923a-16a6fb33dce8"},"vehicle_type_id":"4","last_reported":1729685836,"current_range_meters":37600,"station_id":"ce4bh192rcd13ifvqdd0","pricing_plan_id":"cebpf4jnsgd1na2vs0mg"},{"bike_id":"6a3d026e-f423-4e19-905c-b73e2bbde2ea","system_id":"levelo_inurba_marseille","lat":43.27177,"lon":5.40997,"is_reserved":false,"is_disabled":false,"rental_uris":{"android":"levelo://app?vid=6a3d026e-f423-4e19-905c-b73e2bbde2ea","ios":"levelo://app?vid=6a3d026e-f423-4e19-905c-b73e2bbde2ea"},"vehicle_type_id":"4","last_reported":1729685836,"current_range_meters":38000,"station_id":"ce4bhl12rcd13ifvqgf0","pricing_plan_id":"cebpf4jnsgd1na2vs0mg"},{"bike_id":"3e41417e-0b0c-4908-8670-c6d49ee292be","system_id":"levelo_inurba_marseille","lat":43.33758,"lon":5.37452,"is_reserved":false,"is_disabled":false,"rental_uris":{"android":"levelo://app?vid=3e41417e-0b0c-4908-8670-c6d49ee292be","ios":"levelo://app?vid=3e41417e-0b0c-4908-8670-c6d49ee292be"},"vehicle_type_id":"4","last_reported":1729685836,"current_range_meters":38400,"station_id":"","pricing_plan_id":"cebpf4jnsgd1na2vs0mg"},{"bike_id":"c0577493-6fdf-4288-93e2-1efb6212ffea","system_id":"levelo_inurba_marseille","lat":43.33021,"lon":5.39041,"is_reserved":false,"is_disabled":false,"rental_uris":{"android":"levelo://app?vid=c0577493-6fdf-4288-93e2-1efb6212ffea","ios":"levelo://app?vid=c0577493-6fdf-4288-93e2-1efb6212ffea"},"vehicle_type_id":"4","last_reported":1729685836,"current_range_meters":39200,"station_id":"ce4bhr92rcd13ifvqhrg","pricing_plan_id":"cebpf4jnsgd1na2vs0mg"},{"bike_id":"056ce170-be58-4841-8c8d-b76440abc31c","system_id":"levelo_inurba_marseille","lat":43.27679,"lon":5.38879,"is_reserved":false,"is_disabled":false,"rental_uris":{"android":"levelo://app?vid=056ce170-be58-4841-8c8d-b76440abc31c","ios":"levelo://app?vid=056ce170-be58-4841-8c8d-b76440abc31c"},"vehicle_type_id":"4","last_reported":1729685836,"current_range_meters":19200,"station_id":"ce4bhi12rcd13ifvqfo0","pricing_plan_id":"cebpf4jnsgd1na2vs0mg"},{"bike_id":"cf8a0172-fbda-4eb2-a9b4-f6659cd016af","system_id":"levelo_inurba_marseille","lat":43.30301,"lon":5.3922,"is_reserved":false,"is_disabled":false,"rental_uris":{"android":"levelo://app?vid=cf8a0172-fbda-4eb2-a9b4-f6659cd016af","ios":"levelo://app?vid=cf8a0172-fbda-4eb2-a9b4-f6659cd016af"},"vehicle_type_id":"4","last_reported":1729685836,"current_range_meters":25200,"station_id":"ce4bgkh2rcd13ifvqbk0","pricing_plan_id":"cebpf4jnsgd1na2vs0mg"},{"bike_id":"f5a53045-f9b0-4183-9fc6-73b35736d031","system_id":"levelo_inurba_marseille","lat":43.302768,"lon":5.37701,"is_reserved":false,"is_disabled":false,"rental_uris":{"android":"levelo://app?vid=f5a53045-f9b0-4183-9fc6-73b35736d031","ios":"levelo://app?vid=f5a53045-f9b0-4183-9fc6-73b35736d031"},"vehicle_type_id":"4","last_reported":1729685836,"current_range_meters":40000,"station_id":"ce4bguh2rcd13ifvqcj0","pricing_plan_id":"cebpf4jnsgd1na2vs0mg"},{"bike_id":"1a2ec6a0-fa5e-4f5e-97d4-60715e561b6e","system_id":"levelo_inurba_marseille","lat":43.23182,"lon":5.39985,"is_reserved":false,"is_disabled":false,"rental_uris":{"android":"levelo://app?vid=1a2ec6a0-fa5e-4f5e-97d4-60715e561b6e","ios":"levelo://app?vid=1a2ec6a0-fa5e-4f5e-97d4-60715e561b6e"},"vehicle_type_id":"4","last_reported":1729685836,"current_range_meters":24000,"station_id":"ce4bhn12rcd13ifvqgqg","pricing_plan_id":"cebpf4jnsgd1na2vs0mg"},{"bike_id":"cbe10c03-fb85-436f-9ae4-c9a8a717f05b","system_id":"levelo_inurba_marseille","lat":43.31213,"lon":5.36837,"is_reserved":false,"is_disabled":false,"rental_uris":{"android":"levelo://app?vid=cbe10c03-fb85-436f-9ae4-c9a8a717f05b","ios":"levelo://app?vid=cbe10c03-fb85-436f-9ae4-c9a8a717f05b"},"vehicle_type_id":"4","last_reported":1729685836,"current_range_meters":12800,"station_id":"ce4bgl92rcd13ifvqbq0","pricing_plan_id":"cebpf4jnsgd1na2vs0mg"},{"bike_id":"8c21a646-e407-4d61-9538-182ced2a93a9","system_id":"levelo_inurba_marseille","lat":43.26804,"lon":5.40271,"is_reserved":false,"is_disabled":false,"rental_uris":{"android":"levelo://app?vid=8c21a646-e407-4d61-9538-182ced2a93a9","ios":"levelo://app?vid=8c21a646-e407-4d61-9538-182ced2a93a9"},"vehicle_type_id":"4","last_reported":1729685836,"current_range_meters":24400,"station_id":"ce501612rcd8frsf0b60","pricing_plan_id":"cebpf4jnsgd1na2vs0mg"},{"bike_id":"8367c29f-7bb4-4603-9cfd-05c16839750e","system_id":"levelo_inurba_marseille","lat":43.30455,"lon":5.37911,"is_reserved":false,"is_disabled":false,"rental_uris":{"android":"levelo://app?vid=8367c29f-7bb4-4603-9cfd-05c16839750e","ios":"levelo://app?vid=8367c29f-7bb4-4603-9cfd-05c16839750e"},"vehicle_type_id":"4","last_reported":1729685836,"current_range_meters":17600,"station_id":"ce4bgup2rcd13ifvqcn0","pricing_plan_id":"cebpf4jnsgd1na2vs0mg"},{"bike_id":"6e06f797-9d38-4dbc-9689-2c0d57e12936","system_id":"levelo_inurba_marseille","lat":43.32049,"lon":5.41569,"is_reserved":false,"is_disabled":false,"rental_uris":{"android":"levelo://app?vid=6e06f797-9d38-4dbc-9689-2c0d57e12936","ios":"levelo://app?vid=6e06f797-9d38-4dbc-9689-2c0d57e12936"},"vehicle_type_id":"4","last_reported":1729685836,"current_range_meters":25600,"station_id":"ce4bhq92rcd13ifvqhkg","pricing_plan_id":"cebpf4jnsgd1na2vs0mg"},{"bike_id":"b06b80e3-2984-42a9-810d-df24626ed20d","system_id":"levelo_inurba_marseille","lat":43.29708,"lon":5.36606,"is_reserved":false,"is_disabled":false,"rental_uris":{"android":"levelo://app?vid=b06b80e3-2984-42a9-810d-df24626ed20d","ios":"levelo://app?vid=b06b80e3-2984-42a9-810d-df24626ed20d"},"vehicle_type_id":"4","last_reported":1729685836,"current_range_meters":34800,"station_id":"ce4bgn12rcd13ifvqbt0","pricing_plan_id":"cebpf4jnsgd1na2vs0mg"},{"bike_id":"fd3d93e7-99f7-47eb-b079-2d8de5d8ae7c","system_id":"levelo_inurba_marseille","lat":43.30537,"lon":5.36527,"is_reserved":false,"is_disabled":false,"rental_uris":{"android":"levelo://app?vid=fd3d93e7-99f7-47eb-b079-2d8de5d8ae7c","ios":"levelo://app?vid=fd3d93e7-99f7-47eb-b079-2d8de5d8ae7c"},"vehicle_type_id":"4","last_reported":1729685836,"current_range_meters":38800,"station_id":"ce4bgs12rcd13ifvqcag","pricing_plan_id":"cebpf4jnsgd1na2vs0mg"},{"bike_id":"4b1276f2-43a3-4e60-982e-cf22e9d71d41","system_id":"levelo_inurba_marseille","lat":43.2396,"lon":5.36642,"is_reserved":false,"is_disabled":false,"rental_uris":{"android":"levelo://app?vid=4b1276f2-43a3-4e60-982e-cf22e9d71d41","ios":"levelo://app?vid=4b1276f2-43a3-4e60-982e-cf22e9d71d41"},"vehicle_type_id":"4","last_reported":1729685836,"current_range_meters":14000,"station_id":"ce4bhi12rcd13ifvqfp0","pricing_plan_id":"cebpf4jnsgd1na2vs0mg"},{"bike_id":"2df57d9c-b025-4fc9-a0c0-a69158eb59f3","system_id":"levelo_inurba_marseille","lat":43.32113,"lon":5.36765,"is_reserved":false,"is_disabled":false,"rental_uris":{"android":"levelo://app?vid=2df57d9c-b025-4fc9-a0c0-a69158eb59f3","ios":"levelo://app?vid=2df57d9c-b025-4fc9-a0c0-a69158eb59f3"},"vehicle_type_id":"4","last_reported":1729685836,"current_range_meters":19200,"station_id":"ce4bhrh2rcd13ifvqhug","pricing_plan_id":"cebpf4jnsgd1na2vs0mg"},{"bike_id":"53d78d43-790e-42e4-9da9-6899a6ba8441","system_id":"levelo_inurba_marseille","lat":43.32114,"lon":5.36777,"is_reserved":false,"is_disabled":false,"rental_uris":{"android":"levelo://app?vid=53d78d43-790e-42e4-9da9-6899a6ba8441","ios":"levelo://app?vid=53d78d43-790e-42e4-9da9-6899a6ba8441"},"vehicle_type_id":"4","last_reported":1729685836,"current_range_meters":24800,"station_id":"ce4bhrh2rcd13ifvqhug","pricing_plan_id":"cebpf4jnsgd1na2vs0mg"},{"bike_id":"5f62f59f-8365-4392-8c1f-075703eca3e1","system_id":"levelo_inurba_marseille","lat":43.29196,"lon":5.358,"is_reserved":false,"is_disabled":false,"rental_uris":{"android":"levelo://app?vid=5f62f59f-8365-4392-8c1f-075703eca3e1","ios":"levelo://app?vid=5f62f59f-8365-4392-8c1f-075703eca3e1"},"vehicle_type_id":"4","last_reported":1729685836,"current_range_meters":32000,"station_id":"ce4bhb12rcd13ifvqel0","pricing_plan_id":"cebpf4jnsgd1na2vs0mg"},{"bike_id":"4a1eb551-57e0-476c-81c2-e4bd2db59848","system_id":"levelo_inurba_marseille","lat":43.29629,"lon":5.37718,"is_reserved":false,"is_disabled":false,"rental_uris":{"android":"levelo://app?vid=4a1eb551-57e0-476c-81c2-e4bd2db59848","ios":"levelo://app?vid=4a1eb551-57e0-476c-81c2-e4bd2db59848"},"vehicle_type_id":"4","last_reported":1729685836,"current_range_meters":28400,"station_id":"ce4bgi92rcd13ifvqb90","pricing_plan_id":"cebpf4jnsgd1na2vs0mg"},{"bike_id":"b7ebb2c8-14ba-48c7-9a78-f26963117a4b","system_id":"levelo_inurba_marseille","lat":43.30532,"lon":5.3653,"is_reserved":false,"is_disabled":false,"rental_uris":{"android":"levelo://app?vid=b7ebb2c8-14ba-48c7-9a78-f26963117a4b","ios":"levelo://app?vid=b7ebb2c8-14ba-48c7-9a78-f26963117a4b"},"vehicle_type_id":"4","last_reported":1729685836,"current_range_meters":14400,"station_id":"ce4bgs12rcd13ifvqcag","pricing_plan_id":"cebpf4jnsgd1na2vs0mg"},{"bike_id":"242bc88f-27cc-4b01-8ba2-4e20d6e2d4d6","system_id":"levelo_inurba_marseille","lat":43.29726,"lon":5.37721,"is_reserved":false,"is_disabled":false,"rental_uris":{"android":"levelo://app?vid=242bc88f-27cc-4b01-8ba2-4e20d6e2d4d6","ios":"levelo://app?vid=242bc88f-27cc-4b01-8ba2-4e20d6e2d4d6"},"vehicle_type_id":"4","last_reported":1729685836,"current_range_meters":26000,"station_id":"ce4bgkh2rcd13ifvqbl0","pricing_plan_id":"cebpf4jnsgd1na2vs0mg"},{"bike_id":"d11144d8-7dc9-4cd6-a909-199a15988c11","system_id":"levelo_inurba_marseille","lat":43.27316,"lon":5.39081,"is_reserved":false,"is_disabled":false,"rental_uris":{"android":"levelo://app?vid=d11144d8-7dc9-4cd6-a909-199a15988c11","ios":"levelo://app?vid=d11144d8-7dc9-4cd6-a909-199a15988c11"},"vehicle_type_id":"4","last_reported":1729685836,"current_range_meters":16400,"station_id":"ce4bhgp2rcd13ifvqfe0","pricing_plan_id":"cebpf4jnsgd1na2vs0mg"},{"bike_id":"5b78cf08-091e-4963-ab19-314381a0fb32","system_id":"levelo_inurba_marseille","lat":43.337444,"lon":5.374475,"is_reserved":false,"is_disabled":false,"rental_uris":{"android":"levelo://app?vid=5b78cf08-091e-4963-ab19-314381a0fb32","ios":"levelo://app?vid=5b78cf08-091e-4963-ab19-314381a0fb32"},"vehicle_type_id":"4","last_reported":1729685836,"current_range_meters":37600,"station_id":"","pricing_plan_id":"cebpf4jnsgd1na2vs0mg"},{"bike_id":"6dd69329-5579-4944-b6a8-e4932f66ff5c","system_id":"levelo_inurba_marseille","lat":43.316864,"lon":5.404733,"is_reserved":false,"is_disabled":false,"rental_uris":{"android":"levelo://app?vid=6dd69329-5579-4944-b6a8-e4932f66ff5c","ios":"levelo://app?vid=6dd69329-5579-4944-b6a8-e4932f66ff5c"},"vehicle_type_id":"4","last_reported":1729685836,"current_range_meters":13600,"station_id":"ce4bh012rcd13ifvqd00","pricing_plan_id":"cebpf4jnsgd1na2vs0mg"},{"bike_id":"be9773f2-0210-449f-bdb9-515efac7263f","system_id":"levelo_inurba_marseille","lat":43.31326,"lon":5.39695,"is_reserved":false,"is_disabled":false,"rental_uris":{"android":"levelo://app?vid=be9773f2-0210-449f-bdb9-515efac7263f","ios":"levelo://app?vid=be9773f2-0210-449f-bdb9-515efac7263f"},"vehicle_type_id":"4","last_reported":1729685836,"current_range_meters":36800,"station_id":"ce4bgvp2rcd13ifvqcu0","pricing_plan_id":"cebpf4jnsgd1na2vs0mg"},{"bike_id":"b7393e49-91da-4125-a929-c292a93434a4","system_id":"levelo_inurba_marseille","lat":43.24076,"lon":5.37745,"is_reserved":false,"is_disabled":false,"rental_uris":{"android":"levelo://app?vid=b7393e49-91da-4125-a929-c292a93434a4","ios":"levelo://app?vid=b7393e49-91da-4125-a929-c292a93434a4"},"vehicle_type_id":"4","last_reported":1729685836,"current_range_meters":24000,"station_id":"ce4bhnp2rcd13ifvqgvg","pricing_plan_id":"cebpf4jnsgd1na2vs0mg"},{"bike_id":"bd96ca9f-2e6b-475f-8298-f7a36690c239","system_id":"levelo_inurba_marseille","lat":43.27816,"lon":5.40714,"is_reserved":false,"is_disabled":false,"rental_uris":{"android":"levelo://app?vid=bd96ca9f-2e6b-475f-8298-f7a36690c239","ios":"levelo://app?vid=bd96ca9f-2e6b-475f-8298-f7a36690c239"},"vehicle_type_id":"4","last_reported":1729685836,"current_range_meters":17600,"station_id":"ce4bhnh2rcd13ifvqgtg","pricing_plan_id":"cebpf4jnsgd1na2vs0mg"},{"bike_id":"754b5eb9-bab3-4ffe-9d6b-2d957df7e431","system_id":"levelo_inurba_marseille","lat":43.3123,"lon":5.36851,"is_reserved":false,"is_disabled":false,"rental_uris":{"android":"levelo://app?vid=754b5eb9-bab3-4ffe-9d6b-2d957df7e431","ios":"levelo://app?vid=754b5eb9-bab3-4ffe-9d6b-2d957df7e431"},"vehicle_type_id":"4","last_reported":1729685836,"current_range_meters":39200,"station_id":"ce4bgl92rcd13ifvqbq0","pricing_plan_id":"cebpf4jnsgd1na2vs0mg"},{"bike_id":"9639bebd-201e-4b55-9187-2633b106e19c","system_id":"levelo_inurba_marseille","lat":43.3302,"lon":5.39034,"is_reserved":false,"is_disabled":false,"rental_uris":{"android":"levelo://app?vid=9639bebd-201e-4b55-9187-2633b106e19c","ios":"levelo://app?vid=9639bebd-201e-4b55-9187-2633b106e19c"},"vehicle_type_id":"4","last_reported":1729685836,"current_range_meters":39200,"station_id":"ce4bhr92rcd13ifvqhrg","pricing_plan_id":"cebpf4jnsgd1na2vs0mg"},{"bike_id":"33e27d1f-29b3-4eaa-b3c2-16fe864b545e","system_id":"levelo_inurba_marseille","lat":43.29201,"lon":5.35799,"is_reserved":false,"is_disabled":false,"rental_uris":{"android":"levelo://app?vid=33e27d1f-29b3-4eaa-b3c2-16fe864b545e","ios":"levelo://app?vid=33e27d1f-29b3-4eaa-b3c2-16fe864b545e"},"vehicle_type_id":"4","last_reported":1729685836,"current_range_meters":22800,"station_id":"ce4bhb12rcd13ifvqel0","pricing_plan_id":"cebpf4jnsgd1na2vs0mg"},{"bike_id":"b711bd15-347d-439d-b0c3-bc3d75bef70c","system_id":"levelo_inurba_marseille","lat":43.25716,"lon":5.41116,"is_reserved":false,"is_disabled":false,"rental_uris":{"android":"levelo://app?vid=b711bd15-347d-439d-b0c3-bc3d75bef70c","ios":"levelo://app?vid=b711bd15-347d-439d-b0c3-bc3d75bef70c"},"vehicle_type_id":"4","last_reported":1729685836,"current_range_meters":38000,"station_id":"ce4bhkp2rcd13ifvqgd0","pricing_plan_id":"cebpf4jnsgd1na2vs0mg"},{"bike_id":"c8dd096d-ab75-44d0-9718-88e1ca59efef","system_id":"levelo_inurba_marseille","lat":43.25826,"lon":5.39441,"is_reserved":false,"is_disabled":false,"rental_uris":{"android":"levelo://app?vid=c8dd096d-ab75-44d0-9718-88e1ca59efef","ios":"levelo://app?vid=c8dd096d-ab75-44d0-9718-88e1ca59efef"},"vehicle_type_id":"4","last_reported":1729685836,"current_range_meters":19600,"station_id":"ce4bhip2rcd13ifvqft0","pricing_plan_id":"cebpf4jnsgd1na2vs0mg"},{"bike_id":"5e8036b5-aae0-4bb1-9916-f276323f4db7","system_id":"levelo_inurba_marseille","lat":43.29789,"lon":5.37104,"is_reserved":false,"is_disabled":false,"rental_uris":{"android":"levelo://app?vid=5e8036b5-aae0-4bb1-9916-f276323f4db7","ios":"levelo://app?vid=5e8036b5-aae0-4bb1-9916-f276323f4db7"},"vehicle_type_id":"4","last_reported":1729685836,"current_range_meters":18800,"station_id":"ce4bgop2rcd13ifvqc1g","pricing_plan_id":"cebpf4jnsgd1na2vs0mg"},{"bike_id":"ae2ce2d4-fc19-4d51-989f-983c86c83842","system_id":"levelo_inurba_marseille","lat":43.33011,"lon":5.39037,"is_reserved":false,"is_disabled":false,"rental_uris":{"android":"levelo://app?vid=ae2ce2d4-fc19-4d51-989f-983c86c83842","ios":"levelo://app?vid=ae2ce2d4-fc19-4d51-989f-983c86c83842"},"vehicle_type_id":"4","last_reported":1729685836,"current_range_meters":39200,"station_id":"ce4bhr92rcd13ifvqhrg","pricing_plan_id":"cebpf4jnsgd1na2vs0mg"},{"bike_id":"26544c47-13ba-40a0-affa-6c9daa374698","system_id":"levelo_inurba_marseille","lat":43.31474,"lon":5.37404,"is_reserved":false,"is_disabled":false,"rental_uris":{"android":"levelo://app?vid=26544c47-13ba-40a0-affa-6c9daa374698","ios":"levelo://app?vid=26544c47-13ba-40a0-affa-6c9daa374698"},"vehicle_type_id":"4","last_reported":1729685836,"current_range_meters":0,"station_id":"","pricing_plan_id":"cebpf4jnsgd1na2vs0mg"},{"bike_id":"c2ce141d-6e76-44dc-931b-253d09157587","system_id":"levelo_inurba_marseille","lat":43.25006,"lon":5.38932,"is_reserved":false,"is_disabled":false,"rental_uris":{"android":"levelo://app?vid=c2ce141d-6e76-44dc-931b-253d09157587","ios":"levelo://app?vid=c2ce141d-6e76-44dc-931b-253d09157587"},"vehicle_type_id":"4","last_reported":1729685836,"current_range_meters":38000,"station_id":"ce4bhgp2rcd13ifvqfd0","pricing_plan_id":"cebpf4jnsgd1na2vs0mg"},{"bike_id":"258d6cea-6c82-42d8-985e-7fcb23e7f79b","system_id":"levelo_inurba_marseille","lat":43.29704,"lon":5.37691,"is_reserved":false,"is_disabled":false,"rental_uris":{"android":"levelo://app?vid=258d6cea-6c82-42d8-985e-7fcb23e7f79b","ios":"levelo://app?vid=258d6cea-6c82-42d8-985e-7fcb23e7f79b"},"vehicle_type_id":"4","last_reported":1729685836,"current_range_meters":38000,"station_id":"ce4bgkh2rcd13ifvqbl0","pricing_plan_id":"cebpf4jnsgd1na2vs0mg"},{"bike_id":"42985555-efb7-4040-bfd7-0e9d5f80775f","system_id":"levelo_inurba_marseille","lat":43.28615,"lon":5.35103,"is_reserved":false,"is_disabled":false,"rental_uris":{"android":"levelo://app?vid=42985555-efb7-4040-bfd7-0e9d5f80775f","ios":"levelo://app?vid=42985555-efb7-4040-bfd7-0e9d5f80775f"},"vehicle_type_id":"4","last_reported":1729685836,"current_range_meters":38800,"station_id":"ce4bhch2rcd13ifvqeug","pricing_plan_id":"cebpf4jnsgd1na2vs0mg"},{"bike_id":"fce25fe9-f0c1-4175-83f4-612de5495723","system_id":"levelo_inurba_marseille","lat":43.29627,"lon":5.37715,"is_reserved":false,"is_disabled":false,"rental_uris":{"android":"levelo://app?vid=fce25fe9-f0c1-4175-83f4-612de5495723","ios":"levelo://app?vid=fce25fe9-f0c1-4175-83f4-612de5495723"},"vehicle_type_id":"4","last_reported":1729685836,"current_range_meters":38800,"station_id":"ce4bgi92rcd13ifvqb90","pricing_plan_id":"cebpf4jnsgd1na2vs0mg"},{"bike_id":"4950b7c7-c612-4f21-947e-b3d95432847e","system_id":"levelo_inurba_marseille","lat":43.31211,"lon":5.36845,"is_reserved":false,"is_disabled":false,"rental_uris":{"android":"levelo://app?vid=4950b7c7-c612-4f21-947e-b3d95432847e","ios":"levelo://app?vid=4950b7c7-c612-4f21-947e-b3d95432847e"},"vehicle_type_id":"4","last_reported":1729685836,"current_range_meters":27600,"station_id":"ce4bgl92rcd13ifvqbq0","pricing_plan_id":"cebpf4jnsgd1na2vs0mg"},{"bike_id":"390f726f-2a24-46a6-9a44-7788702379b1","system_id":"levelo_inurba_marseille","lat":43.29629,"lon":5.37721,"is_reserved":false,"is_disabled":false,"rental_uris":{"android":"levelo://app?vid=390f726f-2a24-46a6-9a44-7788702379b1","ios":"levelo://app?vid=390f726f-2a24-46a6-9a44-7788702379b1"},"vehicle_type_id":"4","last_reported":1729685836,"current_range_meters":20000,"station_id":"ce4bgi92rcd13ifvqb90","pricing_plan_id":"cebpf4jnsgd1na2vs0mg"},{"bike_id":"f483f593-b27a-45bc-a949-0596e90322bd","system_id":"levelo_inurba_marseille","lat":43.3055,"lon":5.36517,"is_reserved":false,"is_disabled":false,"rental_uris":{"android":"levelo://app?vid=f483f593-b27a-45bc-a949-0596e90322bd","ios":"levelo://app?vid=f483f593-b27a-45bc-a949-0596e90322bd"},"vehicle_type_id":"4","last_reported":1729685836,"current_range_meters":6400,"station_id":"ce4bgs12rcd13ifvqcag","pricing_plan_id":"cebpf4jnsgd1na2vs0mg"},{"bike_id":"927a9ca0-9f48-493a-8d09-f98c0f0c1f2a","system_id":"levelo_inurba_marseille","lat":43.26807,"lon":5.40262,"is_reserved":false,"is_disabled":false,"rental_uris":{"android":"levelo://app?vid=927a9ca0-9f48-493a-8d09-f98c0f0c1f2a","ios":"levelo://app?vid=927a9ca0-9f48-493a-8d09-f98c0f0c1f2a"},"vehicle_type_id":"4","last_reported":1729685836,"current_range_meters":40000,"station_id":"ce501612rcd8frsf0b60","pricing_plan_id":"cebpf4jnsgd1na2vs0mg"},{"bike_id":"4e3ff028-3bec-454a-b6d4-1530a820c200","system_id":"levelo_inurba_marseille","lat":43.27988,"lon":5.41658,"is_reserved":false,"is_disabled":false,"rental_uris":{"android":"levelo://app?vid=4e3ff028-3bec-454a-b6d4-1530a820c200","ios":"levelo://app?vid=4e3ff028-3bec-454a-b6d4-1530a820c200"},"vehicle_type_id":"4","last_reported":1729685836,"current_range_meters":14400,"station_id":"ce4bho12rcd13ifvqh1g","pricing_plan_id":"cebpf4jnsgd1na2vs0mg"},{"bike_id":"e8a88410-dafc-44fc-9302-8a9ea29a82fa","system_id":"levelo_inurba_marseille","lat":43.24073,"lon":5.37766,"is_reserved":false,"is_disabled":false,"rental_uris":{"android":"levelo://app?vid=e8a88410-dafc-44fc-9302-8a9ea29a82fa","ios":"levelo://app?vid=e8a88410-dafc-44fc-9302-8a9ea29a82fa"},"vehicle_type_id":"4","last_reported":1729685836,"current_range_meters":8000,"station_id":"ce4bhnp2rcd13ifvqgvg","pricing_plan_id":"cebpf4jnsgd1na2vs0mg"},{"bike_id":"a521c087-18c7-447f-8e24-cf248805e64a","system_id":"levelo_inurba_marseille","lat":43.27669,"lon":5.38883,"is_reserved":false,"is_disabled":false,"rental_uris":{"android":"levelo://app?vid=a521c087-18c7-447f-8e24-cf248805e64a","ios":"levelo://app?vid=a521c087-18c7-447f-8e24-cf248805e64a"},"vehicle_type_id":"4","last_reported":1729685836,"current_range_meters":27200,"station_id":"ce4bhi12rcd13ifvqfo0","pricing_plan_id":"cebpf4jnsgd1na2vs0mg"},{"bike_id":"0edd7bdb-6907-43af-825b-069034e94085","system_id":"levelo_inurba_marseille","lat":43.27499,"lon":5.4245,"is_reserved":false,"is_disabled":false,"rental_uris":{"android":"levelo://app?vid=0edd7bdb-6907-43af-825b-069034e94085","ios":"levelo://app?vid=0edd7bdb-6907-43af-825b-069034e94085"},"vehicle_type_id":"4","last_reported":1729685836,"current_range_meters":32000,"station_id":"ce4bhn92rcd13ifvqgrg","pricing_plan_id":"cebpf4jnsgd1na2vs0mg"},{"bike_id":"7d9bae66-75c0-414c-b6e5-1dae4af5c1cb","system_id":"levelo_inurba_marseille","lat":43.22929,"lon":5.35377,"is_reserved":false,"is_disabled":false,"rental_uris":{"android":"levelo://app?vid=7d9bae66-75c0-414c-b6e5-1dae4af5c1cb","ios":"levelo://app?vid=7d9bae66-75c0-414c-b6e5-1dae4af5c1cb"},"vehicle_type_id":"4","last_reported":1729685836,"current_range_meters":36800,"station_id":"cpo3532slgdg3j2ikp40","pricing_plan_id":"cebpf4jnsgd1na2vs0mg"},{"bike_id":"3a20b28f-e5c7-4811-bd14-30747894809a","system_id":"levelo_inurba_marseille","lat":43.29798,"lon":5.40393,"is_reserved":false,"is_disabled":false,"rental_uris":{"android":"levelo://app?vid=3a20b28f-e5c7-4811-bd14-30747894809a","ios":"levelo://app?vid=3a20b28f-e5c7-4811-bd14-30747894809a"},"vehicle_type_id":"4","last_reported":1729685836,"current_range_meters":9200,"station_id":"ce4bh112rcd13ifvqd90","pricing_plan_id":"cebpf4jnsgd1na2vs0mg"},{"bike_id":"58181586-0885-4c52-a7ac-01269e119ef6","system_id":"levelo_inurba_marseille","lat":43.257318,"lon":5.411104,"is_reserved":false,"is_disabled":false,"rental_uris":{"android":"levelo://app?vid=58181586-0885-4c52-a7ac-01269e119ef6","ios":"levelo://app?vid=58181586-0885-4c52-a7ac-01269e119ef6"},"vehicle_type_id":"4","last_reported":1729685836,"current_range_meters":37600,"station_id":"ce4bhhp2rcd13ifvqfm0","pricing_plan_id":"cebpf4jnsgd1na2vs0mg"},{"bike_id":"6a7c559a-999e-4fbe-bf60-29024c235332","system_id":"levelo_inurba_marseille","lat":43.30892,"lon":5.37188,"is_reserved":false,"is_disabled":false,"rental_uris":{"android":"levelo://app?vid=6a7c559a-999e-4fbe-bf60-29024c235332","ios":"levelo://app?vid=6a7c559a-999e-4fbe-bf60-29024c235332"},"vehicle_type_id":"4","last_reported":1729685836,"current_range_meters":35600,"station_id":"ce4bguh2rcd13ifvqckg","pricing_plan_id":"cebpf4jnsgd1na2vs0mg"},{"bike_id":"9998be2f-225a-4ab8-918b-5b5a1105a10b","system_id":"levelo_inurba_marseille","lat":43.297,"lon":5.366,"is_reserved":false,"is_disabled":false,"rental_uris":{"android":"levelo://app?vid=9998be2f-225a-4ab8-918b-5b5a1105a10b","ios":"levelo://app?vid=9998be2f-225a-4ab8-918b-5b5a1105a10b"},"vehicle_type_id":"4","last_reported":1729685836,"current_range_meters":39200,"station_id":"ce4bgn12rcd13ifvqbt0","pricing_plan_id":"cebpf4jnsgd1na2vs0mg"},{"bike_id":"f3bcae91-c388-4c54-9f03-56e0f2ade2bd","system_id":"levelo_inurba_marseille","lat":43.30947,"lon":5.39034,"is_reserved":false,"is_disabled":false,"rental_uris":{"android":"levelo://app?vid=f3bcae91-c388-4c54-9f03-56e0f2ade2bd","ios":"levelo://app?vid=f3bcae91-c388-4c54-9f03-56e0f2ade2bd"},"vehicle_type_id":"4","last_reported":1729685836,"current_range_meters":12400,"station_id":"ce4bgup2rcd13ifvqco0","pricing_plan_id":"cebpf4jnsgd1na2vs0mg"},{"bike_id":"36a09ad3-d691-4dc1-a4e6-97edfce9d592","system_id":"levelo_inurba_marseille","lat":43.26194,"lon":5.37452,"is_reserved":false,"is_disabled":false,"rental_uris":{"android":"levelo://app?vid=36a09ad3-d691-4dc1-a4e6-97edfce9d592","ios":"levelo://app?vid=36a09ad3-d691-4dc1-a4e6-97edfce9d592"},"vehicle_type_id":"4","last_reported":1729685836,"current_range_meters":4000,"station_id":"ce4bhgp2rcd13ifvqfc0","pricing_plan_id":"cebpf4jnsgd1na2vs0mg"},{"bike_id":"ddf076f4-e12a-474c-bafb-791674d48c90","system_id":"levelo_inurba_marseille","lat":43.29788,"lon":5.3809,"is_reserved":false,"is_disabled":false,"rental_uris":{"android":"levelo://app?vid=ddf076f4-e12a-474c-bafb-791674d48c90","ios":"levelo://app?vid=ddf076f4-e12a-474c-bafb-791674d48c90"},"vehicle_type_id":"4","last_reported":1729685836,"current_range_meters":38800,"station_id":"ce4bgip2rcd13ifvqbb0","pricing_plan_id":"cebpf4jnsgd1na2vs0mg"},{"bike_id":"4f6e48e1-d18c-4ef1-8739-6f3d76585a44","system_id":"levelo_inurba_marseille","lat":43.25004,"lon":5.38933,"is_reserved":false,"is_disabled":false,"rental_uris":{"android":"levelo://app?vid=4f6e48e1-d18c-4ef1-8739-6f3d76585a44","ios":"levelo://app?vid=4f6e48e1-d18c-4ef1-8739-6f3d76585a44"},"vehicle_type_id":"4","last_reported":1729685836,"current_range_meters":35200,"station_id":"ce4bhgp2rcd13ifvqfd0","pricing_plan_id":"cebpf4jnsgd1na2vs0mg"},{"bike_id":"c803187e-448f-4d8d-ad3a-ff36110a20d0","system_id":"levelo_inurba_marseille","lat":43.31351,"lon":5.36712,"is_reserved":false,"is_disabled":false,"rental_uris":{"android":"levelo://app?vid=c803187e-448f-4d8d-ad3a-ff36110a20d0","ios":"levelo://app?vid=c803187e-448f-4d8d-ad3a-ff36110a20d0"},"vehicle_type_id":"4","last_reported":1729685836,"current_range_meters":40000,"station_id":"ce4bgr92rcd13ifvqc6g","pricing_plan_id":"cebpf4jnsgd1na2vs0mg"},{"bike_id":"9b6ad25d-aff2-43f4-89a9-4ef5015a77c0","system_id":"levelo_inurba_marseille","lat":43.29868,"lon":5.39724,"is_reserved":false,"is_disabled":false,"rental_uris":{"android":"levelo://app?vid=9b6ad25d-aff2-43f4-89a9-4ef5015a77c0","ios":"levelo://app?vid=9b6ad25d-aff2-43f4-89a9-4ef5015a77c0"},"vehicle_type_id":"4","last_reported":1729685836,"current_range_meters":34800,"station_id":"ce4bh0h2rcd13ifvqd50","pricing_plan_id":"cebpf4jnsgd1na2vs0mg"},{"bike_id":"f8c08412-8134-41ce-91e3-6fae1bd84c36","system_id":"levelo_inurba_marseille","lat":43.24996,"lon":5.38931,"is_reserved":false,"is_disabled":false,"rental_uris":{"android":"levelo://app?vid=f8c08412-8134-41ce-91e3-6fae1bd84c36","ios":"levelo://app?vid=f8c08412-8134-41ce-91e3-6fae1bd84c36"},"vehicle_type_id":"4","last_reported":1729685836,"current_range_meters":17600,"station_id":"ce4bhgp2rcd13ifvqfd0","pricing_plan_id":"cebpf4jnsgd1na2vs0mg"},{"bike_id":"f4081b57-5292-412b-af63-f0b72c332691","system_id":"levelo_inurba_marseille","lat":43.24172,"lon":5.36398,"is_reserved":false,"is_disabled":false,"rental_uris":{"android":"levelo://app?vid=f4081b57-5292-412b-af63-f0b72c332691","ios":"levelo://app?vid=f4081b57-5292-412b-af63-f0b72c332691"},"vehicle_type_id":"4","last_reported":1729685836,"current_range_meters":29600,"station_id":"cpo36qri1sfpv3e86is0","pricing_plan_id":"cebpf4jnsgd1na2vs0mg"},{"bike_id":"ce05a04f-94ea-4316-ac4e-288e8dd74dc9","system_id":"levelo_inurba_marseille","lat":43.30302,"lon":5.39203,"is_reserved":false,"is_disabled":false,"rental_uris":{"android":"levelo://app?vid=ce05a04f-94ea-4316-ac4e-288e8dd74dc9","ios":"levelo://app?vid=ce05a04f-94ea-4316-ac4e-288e8dd74dc9"},"vehicle_type_id":"4","last_reported":1729685836,"current_range_meters":20800,"station_id":"ce4bgkh2rcd13ifvqbk0","pricing_plan_id":"cebpf4jnsgd1na2vs0mg"},{"bike_id":"b48f8c2d-a05e-4cee-bf57-4525735200ad","system_id":"levelo_inurba_marseille","lat":43.26672,"lon":5.38266,"is_reserved":false,"is_disabled":false,"rental_uris":{"android":"levelo://app?vid=b48f8c2d-a05e-4cee-bf57-4525735200ad","ios":"levelo://app?vid=b48f8c2d-a05e-4cee-bf57-4525735200ad"},"vehicle_type_id":"4","last_reported":1729685836,"current_range_meters":38800,"station_id":"ce4bhg92rcd13ifvqf90","pricing_plan_id":"cebpf4jnsgd1na2vs0mg"},{"bike_id":"7a73466e-ee63-4e77-80ed-7f8010513c47","system_id":"levelo_inurba_marseille","lat":43.29421,"lon":5.38618,"is_reserved":false,"is_disabled":false,"rental_uris":{"android":"levelo://app?vid=7a73466e-ee63-4e77-80ed-7f8010513c47","ios":"levelo://app?vid=7a73466e-ee63-4e77-80ed-7f8010513c47"},"vehicle_type_id":"4","last_reported":1729685836,"current_range_meters":8400,"station_id":"ce4bh2h2rcd13ifvqdh0","pricing_plan_id":"cebpf4jnsgd1na2vs0mg"},{"bike_id":"e637874e-66d3-486d-8483-c432b93967e0","system_id":"levelo_inurba_marseille","lat":43.2969,"lon":5.37285,"is_reserved":false,"is_disabled":false,"rental_uris":{"android":"levelo://app?vid=e637874e-66d3-486d-8483-c432b93967e0","ios":"levelo://app?vid=e637874e-66d3-486d-8483-c432b93967e0"},"vehicle_type_id":"4","last_reported":1729685836,"current_range_meters":22800,"station_id":"ce4bgk12rcd13ifvqbj0","pricing_plan_id":"cebpf4jnsgd1na2vs0mg"},{"bike_id":"e35ee31e-bffd-4cff-860d-94919c5988fc","system_id":"levelo_inurba_marseille","lat":43.26679,"lon":5.38271,"is_reserved":false,"is_disabled":false,"rental_uris":{"android":"levelo://app?vid=e35ee31e-bffd-4cff-860d-94919c5988fc","ios":"levelo://app?vid=e35ee31e-bffd-4cff-860d-94919c5988fc"},"vehicle_type_id":"4","last_reported":1729685836,"current_range_meters":14000,"station_id":"ce4bhg92rcd13ifvqf90","pricing_plan_id":"cebpf4jnsgd1na2vs0mg"},{"bike_id":"4cc31e6b-44f7-4f7a-bad5-d77b1b4983b3","system_id":"levelo_inurba_marseille","lat":43.22933,"lon":5.35377,"is_reserved":false,"is_disabled":false,"rental_uris":{"android":"levelo://app?vid=4cc31e6b-44f7-4f7a-bad5-d77b1b4983b3","ios":"levelo://app?vid=4cc31e6b-44f7-4f7a-bad5-d77b1b4983b3"},"vehicle_type_id":"4","last_reported":1729685836,"current_range_meters":18000,"station_id":"cpo3532slgdg3j2ikp40","pricing_plan_id":"cebpf4jnsgd1na2vs0mg"},{"bike_id":"bac64bf1-65ba-4156-87bc-39e58864296e","system_id":"levelo_inurba_marseille","lat":43.2842,"lon":5.34983,"is_reserved":false,"is_disabled":false,"rental_uris":{"android":"levelo://app?vid=bac64bf1-65ba-4156-87bc-39e58864296e","ios":"levelo://app?vid=bac64bf1-65ba-4156-87bc-39e58864296e"},"vehicle_type_id":"4","last_reported":1729685836,"current_range_meters":12400,"station_id":"ce4bhbh2rcd13ifvqepg","pricing_plan_id":"cebpf4jnsgd1na2vs0mg"},{"bike_id":"8008963c-7691-48ce-a28b-b601eea7d25d","system_id":"levelo_inurba_marseille","lat":43.31685,"lon":5.40469,"is_reserved":false,"is_disabled":false,"rental_uris":{"android":"levelo://app?vid=8008963c-7691-48ce-a28b-b601eea7d25d","ios":"levelo://app?vid=8008963c-7691-48ce-a28b-b601eea7d25d"},"vehicle_type_id":"4","last_reported":1729685836,"current_range_meters":18800,"station_id":"ce4bh012rcd13ifvqd00","pricing_plan_id":"cebpf4jnsgd1na2vs0mg"},{"bike_id":"5ca91489-58f2-4d93-bfe6-f23abb2f6acd","system_id":"levelo_inurba_marseille","lat":43.30146,"lon":5.38077,"is_reserved":false,"is_disabled":false,"rental_uris":{"android":"levelo://app?vid=5ca91489-58f2-4d93-bfe6-f23abb2f6acd","ios":"levelo://app?vid=5ca91489-58f2-4d93-bfe6-f23abb2f6acd"},"vehicle_type_id":"4","last_reported":1729685836,"current_range_meters":38800,"station_id":"ce4bgjp2rcd13ifvqbh0","pricing_plan_id":"cebpf4jnsgd1na2vs0mg"},{"bike_id":"8006be6a-ec8c-40fc-8f62-c2628063d0ea","system_id":"levelo_inurba_marseille","lat":43.30323,"lon":5.37389,"is_reserved":false,"is_disabled":false,"rental_uris":{"android":"levelo://app?vid=8006be6a-ec8c-40fc-8f62-c2628063d0ea","ios":"levelo://app?vid=8006be6a-ec8c-40fc-8f62-c2628063d0ea"},"vehicle_type_id":"4","last_reported":1729685836,"current_range_meters":17200,"station_id":"ce4bh392rcd13ifvqdm0","pricing_plan_id":"cebpf4jnsgd1na2vs0mg"},{"bike_id":"3c3b48bb-f8a9-4ae9-82bb-3bca79d11ade","system_id":"levelo_inurba_marseille","lat":43.30542,"lon":5.36697,"is_reserved":false,"is_disabled":false,"rental_uris":{"android":"levelo://app?vid=3c3b48bb-f8a9-4ae9-82bb-3bca79d11ade","ios":"levelo://app?vid=3c3b48bb-f8a9-4ae9-82bb-3bca79d11ade"},"vehicle_type_id":"4","last_reported":1729685836,"current_range_meters":25200,"station_id":"ce4bgrp2rcd13ifvqc9g","pricing_plan_id":"cebpf4jnsgd1na2vs0mg"},{"bike_id":"0dc5fd65-6c08-45fc-b9d0-c856107da224","system_id":"levelo_inurba_marseille","lat":43.29579,"lon":5.36742,"is_reserved":false,"is_disabled":false,"rental_uris":{"android":"levelo://app?vid=0dc5fd65-6c08-45fc-b9d0-c856107da224","ios":"levelo://app?vid=0dc5fd65-6c08-45fc-b9d0-c856107da224"},"vehicle_type_id":"4","last_reported":1729685836,"current_range_meters":19200,"station_id":"ce4bgph2rcd13ifvqc2g","pricing_plan_id":"cebpf4jnsgd1na2vs0mg"},{"bike_id":"4145a2f9-e09c-4c66-bf90-de4da867398d","system_id":"levelo_inurba_marseille","lat":43.23144,"lon":5.43703,"is_reserved":false,"is_disabled":false,"rental_uris":{"android":"levelo://app?vid=4145a2f9-e09c-4c66-bf90-de4da867398d","ios":"levelo://app?vid=4145a2f9-e09c-4c66-bf90-de4da867398d"},"vehicle_type_id":"4","last_reported":1729685836,"current_range_meters":39200,"station_id":"ce4bhmp2rcd13ifvqgog","pricing_plan_id":"cebpf4jnsgd1na2vs0mg"},{"bike_id":"c04ab802-f35d-4e5d-8440-52e2f675fa64","system_id":"levelo_inurba_marseille","lat":43.23151,"lon":5.43702,"is_reserved":false,"is_disabled":false,"rental_uris":{"android":"levelo://app?vid=c04ab802-f35d-4e5d-8440-52e2f675fa64","ios":"levelo://app?vid=c04ab802-f35d-4e5d-8440-52e2f675fa64"},"vehicle_type_id":"4","last_reported":1729685836,"current_range_meters":27200,"station_id":"ce4bhmp2rcd13ifvqgog","pricing_plan_id":"cebpf4jnsgd1na2vs0mg"},{"bike_id":"1b8d756a-6cfa-44c8-a092-11e1f2fbde22","system_id":"levelo_inurba_marseille","lat":43.29099,"lon":5.38123,"is_reserved":false,"is_disabled":false,"rental_uris":{"android":"levelo://app?vid=1b8d756a-6cfa-44c8-a092-11e1f2fbde22","ios":"levelo://app?vid=1b8d756a-6cfa-44c8-a092-11e1f2fbde22"},"vehicle_type_id":"4","last_reported":1729685836,"current_range_meters":9200,"station_id":"ce4bh512rcd13ifvqe2g","pricing_plan_id":"cebpf4jnsgd1na2vs0mg"},{"bike_id":"70c0db28-8045-42ba-a534-2532b86d3455","system_id":"levelo_inurba_marseille","lat":43.22932,"lon":5.35374,"is_reserved":false,"is_disabled":false,"rental_uris":{"android":"levelo://app?vid=70c0db28-8045-42ba-a534-2532b86d3455","ios":"levelo://app?vid=70c0db28-8045-42ba-a534-2532b86d3455"},"vehicle_type_id":"4","last_reported":1729685836,"current_range_meters":17600,"station_id":"cpo3532slgdg3j2ikp40","pricing_plan_id":"cebpf4jnsgd1na2vs0mg"},{"bike_id":"aaef2d09-85f1-4711-93ea-ffc9a1eddbab","system_id":"levelo_inurba_marseille","lat":43.27966,"lon":5.39961,"is_reserved":false,"is_disabled":false,"rental_uris":{"android":"levelo://app?vid=aaef2d09-85f1-4711-93ea-ffc9a1eddbab","ios":"levelo://app?vid=aaef2d09-85f1-4711-93ea-ffc9a1eddbab"},"vehicle_type_id":"4","last_reported":1729685836,"current_range_meters":4000,"station_id":"ce4bho92rcd13ifvqh4g","pricing_plan_id":"cebpf4jnsgd1na2vs0mg"},{"bike_id":"fe269560-e2b9-488b-9e4b-72beadfad0e4","system_id":"levelo_inurba_marseille","lat":43.30285,"lon":5.37702,"is_reserved":false,"is_disabled":false,"rental_uris":{"android":"levelo://app?vid=fe269560-e2b9-488b-9e4b-72beadfad0e4","ios":"levelo://app?vid=fe269560-e2b9-488b-9e4b-72beadfad0e4"},"vehicle_type_id":"4","last_reported":1729685836,"current_range_meters":40000,"station_id":"ce4bguh2rcd13ifvqcj0","pricing_plan_id":"cebpf4jnsgd1na2vs0mg"},{"bike_id":"c8c77899-367c-494a-983d-8bcc157151a3","system_id":"levelo_inurba_marseille","lat":43.33727,"lon":5.39183,"is_reserved":false,"is_disabled":false,"rental_uris":{"android":"levelo://app?vid=c8c77899-367c-494a-983d-8bcc157151a3","ios":"levelo://app?vid=c8c77899-367c-494a-983d-8bcc157151a3"},"vehicle_type_id":"4","last_reported":1729685836,"current_range_meters":38000,"station_id":"ce4bhr92rcd13ifvqhsg","pricing_plan_id":"cebpf4jnsgd1na2vs0mg"},{"bike_id":"a958dd6f-1a6f-40c9-8eaf-bfef55877b0e","system_id":"levelo_inurba_marseille","lat":43.26685,"lon":5.38276,"is_reserved":false,"is_disabled":false,"rental_uris":{"android":"levelo://app?vid=a958dd6f-1a6f-40c9-8eaf-bfef55877b0e","ios":"levelo://app?vid=a958dd6f-1a6f-40c9-8eaf-bfef55877b0e"},"vehicle_type_id":"4","last_reported":1729685836,"current_range_meters":22800,"station_id":"ce4bhg92rcd13ifvqf90","pricing_plan_id":"cebpf4jnsgd1na2vs0mg"},{"bike_id":"be029049-a34e-4198-855a-39b4482b3571","system_id":"levelo_inurba_marseille","lat":43.24806,"lon":5.37459,"is_reserved":false,"is_disabled":false,"rental_uris":{"android":"levelo://app?vid=be029049-a34e-4198-855a-39b4482b3571","ios":"levelo://app?vid=be029049-a34e-4198-855a-39b4482b3571"},"vehicle_type_id":"4","last_reported":1729685836,"current_range_meters":38000,"station_id":"ce4bhgh2rcd13ifvqfb0","pricing_plan_id":"cebpf4jnsgd1na2vs0mg"},{"bike_id":"b4b86295-d66f-4dd6-9144-0918ca5dedf3","system_id":"levelo_inurba_marseille","lat":43.30469,"lon":5.37916,"is_reserved":false,"is_disabled":false,"rental_uris":{"android":"levelo://app?vid=b4b86295-d66f-4dd6-9144-0918ca5dedf3","ios":"levelo://app?vid=b4b86295-d66f-4dd6-9144-0918ca5dedf3"},"vehicle_type_id":"4","last_reported":1729685836,"current_range_meters":11200,"station_id":"ce4bgup2rcd13ifvqcn0","pricing_plan_id":"cebpf4jnsgd1na2vs0mg"},{"bike_id":"8f3c8070-bfe8-48e1-a3e8-5d1ca26856ed","system_id":"levelo_inurba_marseille","lat":43.23189,"lon":5.39982,"is_reserved":false,"is_disabled":false,"rental_uris":{"android":"levelo://app?vid=8f3c8070-bfe8-48e1-a3e8-5d1ca26856ed","ios":"levelo://app?vid=8f3c8070-bfe8-48e1-a3e8-5d1ca26856ed"},"vehicle_type_id":"4","last_reported":1729685836,"current_range_meters":11200,"station_id":"ce4bhn12rcd13ifvqgqg","pricing_plan_id":"cebpf4jnsgd1na2vs0mg"},{"bike_id":"d04a0a7b-a14a-4fa4-ae16-ffa470dfd5e1","system_id":"levelo_inurba_marseille","lat":43.32535,"lon":5.41445,"is_reserved":false,"is_disabled":false,"rental_uris":{"android":"levelo://app?vid=d04a0a7b-a14a-4fa4-ae16-ffa470dfd5e1","ios":"levelo://app?vid=d04a0a7b-a14a-4fa4-ae16-ffa470dfd5e1"},"vehicle_type_id":"4","last_reported":1729685836,"current_range_meters":8400,"station_id":"ce4bhq12rcd13ifvqhhg","pricing_plan_id":"cebpf4jnsgd1na2vs0mg"},{"bike_id":"b82750f5-9b6c-4c23-98c1-826d821ed576","system_id":"levelo_inurba_marseille","lat":43.29633,"lon":5.40595,"is_reserved":false,"is_disabled":false,"rental_uris":{"android":"levelo://app?vid=b82750f5-9b6c-4c23-98c1-826d821ed576","ios":"levelo://app?vid=b82750f5-9b6c-4c23-98c1-826d821ed576"},"vehicle_type_id":"4","last_reported":1729685836,"current_range_meters":8400,"station_id":"ce4bh0h2rcd13ifvqd60","pricing_plan_id":"cebpf4jnsgd1na2vs0mg"},{"bike_id":"ad15a6cd-5838-40dc-a520-6f60181c9954","system_id":"levelo_inurba_marseille","lat":43.27995,"lon":5.40008,"is_reserved":false,"is_disabled":false,"rental_uris":{"android":"levelo://app?vid=ad15a6cd-5838-40dc-a520-6f60181c9954","ios":"levelo://app?vid=ad15a6cd-5838-40dc-a520-6f60181c9954"},"vehicle_type_id":"4","last_reported":1729685836,"current_range_meters":19200,"station_id":"ce4bho92rcd13ifvqh4g","pricing_plan_id":"cebpf4jnsgd1na2vs0mg"},{"bike_id":"701b3236-71f5-4af2-a91f-70173ad1d636","system_id":"levelo_inurba_marseille","lat":43.25938,"lon":5.40903,"is_reserved":false,"is_disabled":false,"rental_uris":{"android":"levelo://app?vid=701b3236-71f5-4af2-a91f-70173ad1d636","ios":"levelo://app?vid=701b3236-71f5-4af2-a91f-70173ad1d636"},"vehicle_type_id":"4","last_reported":1729685836,"current_range_meters":27200,"station_id":"ce4bhm92rcd13ifvqglg","pricing_plan_id":"cebpf4jnsgd1na2vs0mg"},{"bike_id":"321cf29d-1375-4ca3-9261-4a429d4b58ba","system_id":"levelo_inurba_marseille","lat":43.30319,"lon":5.39198,"is_reserved":false,"is_disabled":false,"rental_uris":{"android":"levelo://app?vid=321cf29d-1375-4ca3-9261-4a429d4b58ba","ios":"levelo://app?vid=321cf29d-1375-4ca3-9261-4a429d4b58ba"},"vehicle_type_id":"4","last_reported":1729685836,"current_range_meters":5600,"station_id":"ce4bgkh2rcd13ifvqbk0","pricing_plan_id":"cebpf4jnsgd1na2vs0mg"},{"bike_id":"26ebd71f-7bc7-4bad-bbb2-6d15881ecc4c","system_id":"levelo_inurba_marseille","lat":43.30671,"lon":5.39478,"is_reserved":false,"is_disabled":false,"rental_uris":{"android":"levelo://app?vid=26ebd71f-7bc7-4bad-bbb2-6d15881ecc4c","ios":"levelo://app?vid=26ebd71f-7bc7-4bad-bbb2-6d15881ecc4c"},"vehicle_type_id":"4","last_reported":1729685836,"current_range_meters":27200,"station_id":"","pricing_plan_id":"cebpf4jnsgd1na2vs0mg"},{"bike_id":"24c86f67-b3cb-402e-a155-be340585bdb5","system_id":"levelo_inurba_marseille","lat":43.29907,"lon":5.37464,"is_reserved":false,"is_disabled":false,"rental_uris":{"android":"levelo://app?vid=24c86f67-b3cb-402e-a155-be340585bdb5","ios":"levelo://app?vid=24c86f67-b3cb-402e-a155-be340585bdb5"},"vehicle_type_id":"4","last_reported":1729685836,"current_range_meters":39200,"station_id":"ce4bgjh2rcd13ifvqbg0","pricing_plan_id":"cebpf4jnsgd1na2vs0mg"},{"bike_id":"5366e5f2-a338-4819-8343-7db9576fac8e","system_id":"levelo_inurba_marseille","lat":43.30214,"lon":5.39469,"is_reserved":false,"is_disabled":false,"rental_uris":{"android":"levelo://app?vid=5366e5f2-a338-4819-8343-7db9576fac8e","ios":"levelo://app?vid=5366e5f2-a338-4819-8343-7db9576fac8e"},"vehicle_type_id":"4","last_reported":1729685836,"current_range_meters":38800,"station_id":"ce4bh0p2rcd13ifvqd70","pricing_plan_id":"cebpf4jnsgd1na2vs0mg"},{"bike_id":"2d68910a-9b11-4476-88d4-75b4547503f8","system_id":"levelo_inurba_marseille","lat":43.26679,"lon":5.38269,"is_reserved":false,"is_disabled":false,"rental_uris":{"android":"levelo://app?vid=2d68910a-9b11-4476-88d4-75b4547503f8","ios":"levelo://app?vid=2d68910a-9b11-4476-88d4-75b4547503f8"},"vehicle_type_id":"4","last_reported":1729685836,"current_range_meters":32400,"station_id":"ce4bhg92rcd13ifvqf90","pricing_plan_id":"cebpf4jnsgd1na2vs0mg"},{"bike_id":"c3945b60-e38d-4106-8f18-92c7f436cc4f","system_id":"levelo_inurba_marseille","lat":43.33765,"lon":5.37441,"is_reserved":false,"is_disabled":false,"rental_uris":{"android":"levelo://app?vid=c3945b60-e38d-4106-8f18-92c7f436cc4f","ios":"levelo://app?vid=c3945b60-e38d-4106-8f18-92c7f436cc4f"},"vehicle_type_id":"4","last_reported":1729685836,"current_range_meters":27600,"station_id":"","pricing_plan_id":"cebpf4jnsgd1na2vs0mg"},{"bike_id":"857862d0-5fa6-45f8-82f9-af9333ec2238","system_id":"levelo_inurba_marseille","lat":43.29604,"lon":5.37714,"is_reserved":false,"is_disabled":false,"rental_uris":{"android":"levelo://app?vid=857862d0-5fa6-45f8-82f9-af9333ec2238","ios":"levelo://app?vid=857862d0-5fa6-45f8-82f9-af9333ec2238"},"vehicle_type_id":"4","last_reported":1729685836,"current_range_meters":38000,"station_id":"ce4bgi92rcd13ifvqb90","pricing_plan_id":"cebpf4jnsgd1na2vs0mg"},{"bike_id":"78018770-86ea-4404-8452-ce018255cd17","system_id":"levelo_inurba_marseille","lat":43.22936,"lon":5.3538,"is_reserved":false,"is_disabled":false,"rental_uris":{"android":"levelo://app?vid=78018770-86ea-4404-8452-ce018255cd17","ios":"levelo://app?vid=78018770-86ea-4404-8452-ce018255cd17"},"vehicle_type_id":"4","last_reported":1729685836,"current_range_meters":22800,"station_id":"cpo3532slgdg3j2ikp40","pricing_plan_id":"cebpf4jnsgd1na2vs0mg"},{"bike_id":"46a05292-202e-4e11-aff2-86d9f9ea8a69","system_id":"levelo_inurba_marseille","lat":43.30533,"lon":5.36536,"is_reserved":false,"is_disabled":false,"rental_uris":{"android":"levelo://app?vid=46a05292-202e-4e11-aff2-86d9f9ea8a69","ios":"levelo://app?vid=46a05292-202e-4e11-aff2-86d9f9ea8a69"},"vehicle_type_id":"4","last_reported":1729685836,"current_range_meters":31200,"station_id":"ce4bgs12rcd13ifvqcag","pricing_plan_id":"cebpf4jnsgd1na2vs0mg"},{"bike_id":"34e26f02-12a5-4a84-a3d1-8542b07295d2","system_id":"levelo_inurba_marseille","lat":43.28405,"lon":5.34985,"is_reserved":false,"is_disabled":false,"rental_uris":{"android":"levelo://app?vid=34e26f02-12a5-4a84-a3d1-8542b07295d2","ios":"levelo://app?vid=34e26f02-12a5-4a84-a3d1-8542b07295d2"},"vehicle_type_id":"4","last_reported":1729685836,"current_range_meters":27600,"station_id":"ce4bhbh2rcd13ifvqepg","pricing_plan_id":"cebpf4jnsgd1na2vs0mg"},{"bike_id":"cec0febb-a5d7-4415-ba6b-dcdc9a65c10b","system_id":"levelo_inurba_marseille","lat":43.30278,"lon":5.37712,"is_reserved":false,"is_disabled":false,"rental_uris":{"android":"levelo://app?vid=cec0febb-a5d7-4415-ba6b-dcdc9a65c10b","ios":"levelo://app?vid=cec0febb-a5d7-4415-ba6b-dcdc9a65c10b"},"vehicle_type_id":"4","last_reported":1729685836,"current_range_meters":40000,"station_id":"ce4bguh2rcd13ifvqcj0","pricing_plan_id":"cebpf4jnsgd1na2vs0mg"},{"bike_id":"be09e01d-7c11-4a7f-89f3-d7b5414ad2b5","system_id":"levelo_inurba_marseille","lat":43.24175,"lon":5.3973,"is_reserved":false,"is_disabled":false,"rental_uris":{"android":"levelo://app?vid=be09e01d-7c11-4a7f-89f3-d7b5414ad2b5","ios":"levelo://app?vid=be09e01d-7c11-4a7f-89f3-d7b5414ad2b5"},"vehicle_type_id":"4","last_reported":1729685836,"current_range_meters":20000,"station_id":"ce4bhn12rcd13ifvqgpg","pricing_plan_id":"cebpf4jnsgd1na2vs0mg"},{"bike_id":"13927427-d99a-48b6-bafa-482cc2218b5f","system_id":"levelo_inurba_marseille","lat":43.26557,"lon":5.37285,"is_reserved":false,"is_disabled":false,"rental_uris":{"android":"levelo://app?vid=13927427-d99a-48b6-bafa-482cc2218b5f","ios":"levelo://app?vid=13927427-d99a-48b6-bafa-482cc2218b5f"},"vehicle_type_id":"4","last_reported":1729685836,"current_range_meters":25600,"station_id":"","pricing_plan_id":"cebpf4jnsgd1na2vs0mg"},{"bike_id":"171cc79c-8bf9-4dee-ac2c-9361b8f9484e","system_id":"levelo_inurba_marseille","lat":43.30262,"lon":5.40081,"is_reserved":false,"is_disabled":false,"rental_uris":{"android":"levelo://app?vid=171cc79c-8bf9-4dee-ac2c-9361b8f9484e","ios":"levelo://app?vid=171cc79c-8bf9-4dee-ac2c-9361b8f9484e"},"vehicle_type_id":"4","last_reported":1729685836,"current_range_meters":18800,"station_id":"ce4bgvh2rcd13ifvqcs0","pricing_plan_id":"cebpf4jnsgd1na2vs0mg"},{"bike_id":"247c1539-097b-46dd-8c24-05380c7705d5","system_id":"levelo_inurba_marseille","lat":43.29582,"lon":5.3674,"is_reserved":false,"is_disabled":false,"rental_uris":{"android":"levelo://app?vid=247c1539-097b-46dd-8c24-05380c7705d5","ios":"levelo://app?vid=247c1539-097b-46dd-8c24-05380c7705d5"},"vehicle_type_id":"4","last_reported":1729685836,"current_range_meters":39200,"station_id":"ce4bgph2rcd13ifvqc2g","pricing_plan_id":"cebpf4jnsgd1na2vs0mg"},{"bike_id":"1d3c2354-bb06-46ef-82cb-7b20702826e7","system_id":"levelo_inurba_marseille","lat":43.31342,"lon":5.36714,"is_reserved":false,"is_disabled":false,"rental_uris":{"android":"levelo://app?vid=1d3c2354-bb06-46ef-82cb-7b20702826e7","ios":"levelo://app?vid=1d3c2354-bb06-46ef-82cb-7b20702826e7"},"vehicle_type_id":"4","last_reported":1729685836,"current_range_meters":40000,"station_id":"ce4bgr92rcd13ifvqc6g","pricing_plan_id":"cebpf4jnsgd1na2vs0mg"},{"bike_id":"e0f591a5-4a49-47dc-9aa6-eb75178c5760","system_id":"levelo_inurba_marseille","lat":43.22937,"lon":5.35381,"is_reserved":false,"is_disabled":false,"rental_uris":{"android":"levelo://app?vid=e0f591a5-4a49-47dc-9aa6-eb75178c5760","ios":"levelo://app?vid=e0f591a5-4a49-47dc-9aa6-eb75178c5760"},"vehicle_type_id":"4","last_reported":1729685836,"current_range_meters":36800,"station_id":"cpo3532slgdg3j2ikp40","pricing_plan_id":"cebpf4jnsgd1na2vs0mg"},{"bike_id":"6f2718fc-6143-43e8-ab35-2855a305e758","system_id":"levelo_inurba_marseille","lat":43.30307,"lon":5.36909,"is_reserved":false,"is_disabled":false,"rental_uris":{"android":"levelo://app?vid=6f2718fc-6143-43e8-ab35-2855a305e758","ios":"levelo://app?vid=6f2718fc-6143-43e8-ab35-2855a305e758"},"vehicle_type_id":"4","last_reported":1729685836,"current_range_meters":24400,"station_id":"ce4bhs12rcd13ifvqhvg","pricing_plan_id":"cebpf4jnsgd1na2vs0mg"},{"bike_id":"fb4a1eb9-b9cf-4ef1-9b90-2c1bed09ed50","system_id":"levelo_inurba_marseille","lat":43.29171,"lon":5.37165,"is_reserved":false,"is_disabled":false,"rental_uris":{"android":"levelo://app?vid=fb4a1eb9-b9cf-4ef1-9b90-2c1bed09ed50","ios":"levelo://app?vid=fb4a1eb9-b9cf-4ef1-9b90-2c1bed09ed50"},"vehicle_type_id":"4","last_reported":1729685836,"current_range_meters":28800,"station_id":"ce4bha92rcd13ifvqeh0","pricing_plan_id":"cebpf4jnsgd1na2vs0mg"},{"bike_id":"3758e8e1-6774-4a6d-8d44-4f39d30cb7cf","system_id":"levelo_inurba_marseille","lat":43.22926,"lon":5.35382,"is_reserved":false,"is_disabled":false,"rental_uris":{"android":"levelo://app?vid=3758e8e1-6774-4a6d-8d44-4f39d30cb7cf","ios":"levelo://app?vid=3758e8e1-6774-4a6d-8d44-4f39d30cb7cf"},"vehicle_type_id":"4","last_reported":1729685836,"current_range_meters":36800,"station_id":"cpo3532slgdg3j2ikp40","pricing_plan_id":"cebpf4jnsgd1na2vs0mg"},{"bike_id":"b10663db-efb5-42a3-98a3-95823dae9d7f","system_id":"levelo_inurba_marseille","lat":43.30281,"lon":5.37703,"is_reserved":false,"is_disabled":false,"rental_uris":{"android":"levelo://app?vid=b10663db-efb5-42a3-98a3-95823dae9d7f","ios":"levelo://app?vid=b10663db-efb5-42a3-98a3-95823dae9d7f"},"vehicle_type_id":"4","last_reported":1729685836,"current_range_meters":35600,"station_id":"ce4bguh2rcd13ifvqcj0","pricing_plan_id":"cebpf4jnsgd1na2vs0mg"},{"bike_id":"6c676ac8-459c-4840-9cca-a963c476cdc5","system_id":"levelo_inurba_marseille","lat":43.28481,"lon":5.38415,"is_reserved":false,"is_disabled":false,"rental_uris":{"android":"levelo://app?vid=6c676ac8-459c-4840-9cca-a963c476cdc5","ios":"levelo://app?vid=6c676ac8-459c-4840-9cca-a963c476cdc5"},"vehicle_type_id":"4","last_reported":1729685836,"current_range_meters":8800,"station_id":"ce4bh512rcd13ifvqe3g","pricing_plan_id":"cebpf4jnsgd1na2vs0mg"},{"bike_id":"946611bd-808f-42aa-8d8e-3a209538d209","system_id":"levelo_inurba_marseille","lat":43.24072,"lon":5.3775,"is_reserved":false,"is_disabled":false,"rental_uris":{"android":"levelo://app?vid=946611bd-808f-42aa-8d8e-3a209538d209","ios":"levelo://app?vid=946611bd-808f-42aa-8d8e-3a209538d209"},"vehicle_type_id":"4","last_reported":1729685836,"current_range_meters":9200,"station_id":"ce4bhnp2rcd13ifvqgvg","pricing_plan_id":"cebpf4jnsgd1na2vs0mg"},{"bike_id":"7cb0fe44-1ee2-403f-8fcd-24c6320e98e3","system_id":"levelo_inurba_marseille","lat":43.29046,"lon":5.39948,"is_reserved":false,"is_disabled":false,"rental_uris":{"android":"levelo://app?vid=7cb0fe44-1ee2-403f-8fcd-24c6320e98e3","ios":"levelo://app?vid=7cb0fe44-1ee2-403f-8fcd-24c6320e98e3"},"vehicle_type_id":"4","last_reported":1729685836,"current_range_meters":18800,"station_id":"ce4bh392rcd13ifvqdm0","pricing_plan_id":"cebpf4jnsgd1na2vs0mg"},{"bike_id":"e8a5d168-6765-4fb9-b18d-11b59593eacb","system_id":"levelo_inurba_marseille","lat":43.30199,"lon":5.3663,"is_reserved":false,"is_disabled":false,"rental_uris":{"android":"levelo://app?vid=e8a5d168-6765-4fb9-b18d-11b59593eacb","ios":"levelo://app?vid=e8a5d168-6765-4fb9-b18d-11b59593eacb"},"vehicle_type_id":"4","last_reported":1729685836,"current_range_meters":38000,"station_id":"ce4bgrh2rcd13ifvqc8g","pricing_plan_id":"cebpf4jnsgd1na2vs0mg"},{"bike_id":"985aafd7-c7e7-4f5e-829d-d0a7c3f370c0","system_id":"levelo_inurba_marseille","lat":43.28616,"lon":5.35103,"is_reserved":false,"is_disabled":false,"rental_uris":{"android":"levelo://app?vid=985aafd7-c7e7-4f5e-829d-d0a7c3f370c0","ios":"levelo://app?vid=985aafd7-c7e7-4f5e-829d-d0a7c3f370c0"},"vehicle_type_id":"4","last_reported":1729685836,"current_range_meters":32800,"station_id":"ce4bhch2rcd13ifvqeug","pricing_plan_id":"cebpf4jnsgd1na2vs0mg"},{"bike_id":"a269c926-8ea5-4817-9e23-04c5ef28b1d5","system_id":"levelo_inurba_marseille","lat":43.29699,"lon":5.36608,"is_reserved":false,"is_disabled":false,"rental_uris":{"android":"levelo://app?vid=a269c926-8ea5-4817-9e23-04c5ef28b1d5","ios":"levelo://app?vid=a269c926-8ea5-4817-9e23-04c5ef28b1d5"},"vehicle_type_id":"4","last_reported":1729685836,"current_range_meters":35600,"station_id":"ce4bgn12rcd13ifvqbt0","pricing_plan_id":"cebpf4jnsgd1na2vs0mg"},{"bike_id":"4a7abcc4-a1fa-417b-8ffa-a28e55985c43","system_id":"levelo_inurba_marseille","lat":43.24073,"lon":5.37752,"is_reserved":false,"is_disabled":false,"rental_uris":{"android":"levelo://app?vid=4a7abcc4-a1fa-417b-8ffa-a28e55985c43","ios":"levelo://app?vid=4a7abcc4-a1fa-417b-8ffa-a28e55985c43"},"vehicle_type_id":"4","last_reported":1729685836,"current_range_meters":37600,"station_id":"ce4bhnp2rcd13ifvqgvg","pricing_plan_id":"cebpf4jnsgd1na2vs0mg"},{"bike_id":"860423a3-40de-4cc8-b02f-36acef0fec79","system_id":"levelo_inurba_marseille","lat":43.27669,"lon":5.38892,"is_reserved":false,"is_disabled":false,"rental_uris":{"android":"levelo://app?vid=860423a3-40de-4cc8-b02f-36acef0fec79","ios":"levelo://app?vid=860423a3-40de-4cc8-b02f-36acef0fec79"},"vehicle_type_id":"4","last_reported":1729685836,"current_range_meters":39200,"station_id":"ce4bhi12rcd13ifvqfo0","pricing_plan_id":"cebpf4jnsgd1na2vs0mg"},{"bike_id":"d0ccf715-1741-4354-abf6-accb40ef7112","system_id":"levelo_inurba_marseille","lat":43.30311,"lon":5.36893,"is_reserved":false,"is_disabled":false,"rental_uris":{"android":"levelo://app?vid=d0ccf715-1741-4354-abf6-accb40ef7112","ios":"levelo://app?vid=d0ccf715-1741-4354-abf6-accb40ef7112"},"vehicle_type_id":"4","last_reported":1729685836,"current_range_meters":23200,"station_id":"ce4bgqh2rcd13ifvqc5g","pricing_plan_id":"cebpf4jnsgd1na2vs0mg"},{"bike_id":"fed29e3d-ded9-4536-b5e9-762e6c2a1343","system_id":"levelo_inurba_marseille","lat":43.29961,"lon":5.39187,"is_reserved":false,"is_disabled":false,"rental_uris":{"android":"levelo://app?vid=fed29e3d-ded9-4536-b5e9-762e6c2a1343","ios":"levelo://app?vid=fed29e3d-ded9-4536-b5e9-762e6c2a1343"},"vehicle_type_id":"4","last_reported":1729685836,"current_range_meters":12400,"station_id":"ce4bghh2rcd13ifvqb60","pricing_plan_id":"cebpf4jnsgd1na2vs0mg"},{"bike_id":"8ec1ac8f-8f75-4245-bb36-8da43760f889","system_id":"levelo_inurba_marseille","lat":43.31716,"lon":5.3774,"is_reserved":false,"is_disabled":false,"rental_uris":{"android":"levelo://app?vid=8ec1ac8f-8f75-4245-bb36-8da43760f889","ios":"levelo://app?vid=8ec1ac8f-8f75-4245-bb36-8da43760f889"},"vehicle_type_id":"4","last_reported":1729685836,"current_range_meters":20400,"station_id":"ce4bgth2rcd13ifvqch0","pricing_plan_id":"cebpf4jnsgd1na2vs0mg"},{"bike_id":"098893cd-4cf7-4f81-be3e-7248bbdae0ba","system_id":"levelo_inurba_marseille","lat":43.28148,"lon":5.42646,"is_reserved":false,"is_disabled":false,"rental_uris":{"android":"levelo://app?vid=098893cd-4cf7-4f81-be3e-7248bbdae0ba","ios":"levelo://app?vid=098893cd-4cf7-4f81-be3e-7248bbdae0ba"},"vehicle_type_id":"4","last_reported":1729685836,"current_range_meters":7200,"station_id":"ce4bhnh2rcd13ifvqgug","pricing_plan_id":"cebpf4jnsgd1na2vs0mg"},{"bike_id":"a755d17d-b844-417e-a9c9-647de9e9b0c9","system_id":"levelo_inurba_marseille","lat":43.31067,"lon":5.38346,"is_reserved":false,"is_disabled":false,"rental_uris":{"android":"levelo://app?vid=a755d17d-b844-417e-a9c9-647de9e9b0c9","ios":"levelo://app?vid=a755d17d-b844-417e-a9c9-647de9e9b0c9"},"vehicle_type_id":"4","last_reported":1729685836,"current_range_meters":30400,"station_id":"ce4bgv92rcd13ifvqcr0","pricing_plan_id":"cebpf4jnsgd1na2vs0mg"},{"bike_id":"409c7d05-8bd8-48e6-a031-312baafe8037","system_id":"levelo_inurba_marseille","lat":43.235107,"lon":5.362836,"is_reserved":false,"is_disabled":false,"rental_uris":{"android":"levelo://app?vid=409c7d05-8bd8-48e6-a031-312baafe8037","ios":"levelo://app?vid=409c7d05-8bd8-48e6-a031-312baafe8037"},"vehicle_type_id":"4","last_reported":1729685836,"current_range_meters":8800,"station_id":"","pricing_plan_id":"cebpf4jnsgd1na2vs0mg"},{"bike_id":"a4f274c0-59d3-4a8e-b1b5-539be8a109fb","system_id":"levelo_inurba_marseille","lat":43.231941,"lon":5.355512,"is_reserved":false,"is_disabled":false,"rental_uris":{"android":"levelo://app?vid=a4f274c0-59d3-4a8e-b1b5-539be8a109fb","ios":"levelo://app?vid=a4f274c0-59d3-4a8e-b1b5-539be8a109fb"},"vehicle_type_id":"4","last_reported":1729685836,"current_range_meters":10800,"station_id":"ce4bhu92rcd13ifvqi70","pricing_plan_id":"cebpf4jnsgd1na2vs0mg"},{"bike_id":"61808643-9571-4471-8f8a-eac48365dceb","system_id":"levelo_inurba_marseille","lat":43.23971,"lon":5.36642,"is_reserved":false,"is_disabled":false,"rental_uris":{"android":"levelo://app?vid=61808643-9571-4471-8f8a-eac48365dceb","ios":"levelo://app?vid=61808643-9571-4471-8f8a-eac48365dceb"},"vehicle_type_id":"4","last_reported":1729685836,"current_range_meters":6000,"station_id":"ce4bhi12rcd13ifvqfp0","pricing_plan_id":"cebpf4jnsgd1na2vs0mg"},{"bike_id":"8c79de4e-20bb-43e9-9c15-6c86ce5ce78c","system_id":"levelo_inurba_marseille","lat":43.30294,"lon":5.37709,"is_reserved":false,"is_disabled":false,"rental_uris":{"android":"levelo://app?vid=8c79de4e-20bb-43e9-9c15-6c86ce5ce78c","ios":"levelo://app?vid=8c79de4e-20bb-43e9-9c15-6c86ce5ce78c"},"vehicle_type_id":"4","last_reported":1729685836,"current_range_meters":36400,"station_id":"ce4bguh2rcd13ifvqcj0","pricing_plan_id":"cebpf4jnsgd1na2vs0mg"},{"bike_id":"7aef475c-5cbd-4a27-bb8f-59662dfd1bbc","system_id":"levelo_inurba_marseille","lat":43.26493,"lon":5.39539,"is_reserved":false,"is_disabled":false,"rental_uris":{"android":"levelo://app?vid=7aef475c-5cbd-4a27-bb8f-59662dfd1bbc","ios":"levelo://app?vid=7aef475c-5cbd-4a27-bb8f-59662dfd1bbc"},"vehicle_type_id":"4","last_reported":1729685836,"current_range_meters":14000,"station_id":"ce4bhi12rcd13ifvqfq0","pricing_plan_id":"cebpf4jnsgd1na2vs0mg"},{"bike_id":"161d9d49-4915-4ebd-b4de-009e94f4f114","system_id":"levelo_inurba_marseille","lat":43.30548,"lon":5.36689,"is_reserved":false,"is_disabled":false,"rental_uris":{"android":"levelo://app?vid=161d9d49-4915-4ebd-b4de-009e94f4f114","ios":"levelo://app?vid=161d9d49-4915-4ebd-b4de-009e94f4f114"},"vehicle_type_id":"4","last_reported":1729685836,"current_range_meters":14400,"station_id":"ce4bgrp2rcd13ifvqc9g","pricing_plan_id":"cebpf4jnsgd1na2vs0mg"},{"bike_id":"57bbfe1d-fe97-4d6c-860a-c95cbcc8f94c","system_id":"levelo_inurba_marseille","lat":43.30544,"lon":5.3672,"is_reserved":false,"is_disabled":false,"rental_uris":{"android":"levelo://app?vid=57bbfe1d-fe97-4d6c-860a-c95cbcc8f94c","ios":"levelo://app?vid=57bbfe1d-fe97-4d6c-860a-c95cbcc8f94c"},"vehicle_type_id":"4","last_reported":1729685836,"current_range_meters":4400,"station_id":"ce4bgrp2rcd13ifvqc9g","pricing_plan_id":"cebpf4jnsgd1na2vs0mg"},{"bike_id":"a568d340-c401-4b90-a8c2-426fda0a0369","system_id":"levelo_inurba_marseille","lat":43.31231,"lon":5.36853,"is_reserved":false,"is_disabled":false,"rental_uris":{"android":"levelo://app?vid=a568d340-c401-4b90-a8c2-426fda0a0369","ios":"levelo://app?vid=a568d340-c401-4b90-a8c2-426fda0a0369"},"vehicle_type_id":"4","last_reported":1729685836,"current_range_meters":33200,"station_id":"ce4bgl92rcd13ifvqbq0","pricing_plan_id":"cebpf4jnsgd1na2vs0mg"},{"bike_id":"e68074ff-f5e2-424b-ac9b-aa2b95174368","system_id":"levelo_inurba_marseille","lat":43.28151,"lon":5.42646,"is_reserved":false,"is_disabled":false,"rental_uris":{"android":"levelo://app?vid=e68074ff-f5e2-424b-ac9b-aa2b95174368","ios":"levelo://app?vid=e68074ff-f5e2-424b-ac9b-aa2b95174368"},"vehicle_type_id":"4","last_reported":1729685836,"current_range_meters":26800,"station_id":"ce4bhnh2rcd13ifvqgug","pricing_plan_id":"cebpf4jnsgd1na2vs0mg"},{"bike_id":"9d5bfcff-927d-485e-b68e-26bda219a84a","system_id":"levelo_inurba_marseille","lat":43.28974,"lon":5.37827,"is_reserved":false,"is_disabled":false,"rental_uris":{"android":"levelo://app?vid=9d5bfcff-927d-485e-b68e-26bda219a84a","ios":"levelo://app?vid=9d5bfcff-927d-485e-b68e-26bda219a84a"},"vehicle_type_id":"4","last_reported":1729685836,"current_range_meters":25200,"station_id":"ce4bh9p2rcd13ifvqed0","pricing_plan_id":"cebpf4jnsgd1na2vs0mg"},{"bike_id":"815dd284-1bd2-4bb9-992a-b2116e2485bc","system_id":"levelo_inurba_marseille","lat":43.32667,"lon":5.36095,"is_reserved":false,"is_disabled":false,"rental_uris":{"android":"levelo://app?vid=815dd284-1bd2-4bb9-992a-b2116e2485bc","ios":"levelo://app?vid=815dd284-1bd2-4bb9-992a-b2116e2485bc"},"vehicle_type_id":"4","last_reported":1729685836,"current_range_meters":29600,"station_id":"","pricing_plan_id":"cebpf4jnsgd1na2vs0mg"},{"bike_id":"c6275880-d301-4fd6-86dc-0e1544c4345e","system_id":"levelo_inurba_marseille","lat":43.29578,"lon":5.36739,"is_reserved":false,"is_disabled":false,"rental_uris":{"android":"levelo://app?vid=c6275880-d301-4fd6-86dc-0e1544c4345e","ios":"levelo://app?vid=c6275880-d301-4fd6-86dc-0e1544c4345e"},"vehicle_type_id":"4","last_reported":1729685836,"current_range_meters":24000,"station_id":"ce4bgph2rcd13ifvqc2g","pricing_plan_id":"cebpf4jnsgd1na2vs0mg"},{"bike_id":"9adefe77-5705-43e7-bbac-b7ec68a8e945","system_id":"levelo_inurba_marseille","lat":43.299148,"lon":5.381413,"is_reserved":false,"is_disabled":false,"rental_uris":{"android":"levelo://app?vid=9adefe77-5705-43e7-bbac-b7ec68a8e945","ios":"levelo://app?vid=9adefe77-5705-43e7-bbac-b7ec68a8e945"},"vehicle_type_id":"4","last_reported":1729685836,"current_range_meters":38000,"station_id":"ce4bhbh2rcd13ifvqeo0","pricing_plan_id":"cebpf4jnsgd1na2vs0mg"},{"bike_id":"c246eea5-fa53-45ac-a259-4f38f29f91e4","system_id":"levelo_inurba_marseille","lat":43.30903,"lon":5.3686,"is_reserved":false,"is_disabled":false,"rental_uris":{"android":"levelo://app?vid=c246eea5-fa53-45ac-a259-4f38f29f91e4","ios":"levelo://app?vid=c246eea5-fa53-45ac-a259-4f38f29f91e4"},"vehicle_type_id":"4","last_reported":1729685836,"current_range_meters":4800,"station_id":"ce4bgn92rcd13ifvqbvg","pricing_plan_id":"cebpf4jnsgd1na2vs0mg"},{"bike_id":"f764948a-423b-4346-ba8b-c06aabe8ee1a","system_id":"levelo_inurba_marseille","lat":43.299236,"lon":5.374692,"is_reserved":false,"is_disabled":false,"rental_uris":{"android":"levelo://app?vid=f764948a-423b-4346-ba8b-c06aabe8ee1a","ios":"levelo://app?vid=f764948a-423b-4346-ba8b-c06aabe8ee1a"},"vehicle_type_id":"4","last_reported":1729685836,"current_range_meters":32800,"station_id":"ce4bgjh2rcd13ifvqbg0","pricing_plan_id":"cebpf4jnsgd1na2vs0mg"},{"bike_id":"dd6acc0e-bd79-4f8d-bfeb-3beb9044870f","system_id":"levelo_inurba_marseille","lat":43.29802,"lon":5.38099,"is_reserved":false,"is_disabled":false,"rental_uris":{"android":"levelo://app?vid=dd6acc0e-bd79-4f8d-bfeb-3beb9044870f","ios":"levelo://app?vid=dd6acc0e-bd79-4f8d-bfeb-3beb9044870f"},"vehicle_type_id":"4","last_reported":1729685836,"current_range_meters":39200,"station_id":"ce4bgip2rcd13ifvqbb0","pricing_plan_id":"cebpf4jnsgd1na2vs0mg"},{"bike_id":"e56c43a8-76af-4ea4-b90e-27b9382a6138","system_id":"levelo_inurba_marseille","lat":43.27681,"lon":5.38894,"is_reserved":false,"is_disabled":false,"rental_uris":{"android":"levelo://app?vid=e56c43a8-76af-4ea4-b90e-27b9382a6138","ios":"levelo://app?vid=e56c43a8-76af-4ea4-b90e-27b9382a6138"},"vehicle_type_id":"4","last_reported":1729685836,"current_range_meters":18000,"station_id":"ce4bhi12rcd13ifvqfo0","pricing_plan_id":"cebpf4jnsgd1na2vs0mg"},{"bike_id":"c11abc92-1c38-457c-bd62-bb93d826f5ce","system_id":"levelo_inurba_marseille","lat":43.30961,"lon":5.39048,"is_reserved":false,"is_disabled":false,"rental_uris":{"android":"levelo://app?vid=c11abc92-1c38-457c-bd62-bb93d826f5ce","ios":"levelo://app?vid=c11abc92-1c38-457c-bd62-bb93d826f5ce"},"vehicle_type_id":"4","last_reported":1729685836,"current_range_meters":39200,"station_id":"ce4bgup2rcd13ifvqco0","pricing_plan_id":"cebpf4jnsgd1na2vs0mg"},{"bike_id":"627811a9-4978-496f-972a-e45837dda420","system_id":"levelo_inurba_marseille","lat":43.27504,"lon":5.42453,"is_reserved":false,"is_disabled":false,"rental_uris":{"android":"levelo://app?vid=627811a9-4978-496f-972a-e45837dda420","ios":"levelo://app?vid=627811a9-4978-496f-972a-e45837dda420"},"vehicle_type_id":"4","last_reported":1729685836,"current_range_meters":6400,"station_id":"ce4bhn92rcd13ifvqgrg","pricing_plan_id":"cebpf4jnsgd1na2vs0mg"},{"bike_id":"07c2576b-607e-4887-b80e-36889f16876e","system_id":"levelo_inurba_marseille","lat":43.32479,"lon":5.36557,"is_reserved":false,"is_disabled":false,"rental_uris":{"android":"levelo://app?vid=07c2576b-607e-4887-b80e-36889f16876e","ios":"levelo://app?vid=07c2576b-607e-4887-b80e-36889f16876e"},"vehicle_type_id":"4","last_reported":1729685836,"current_range_meters":30800,"station_id":"ce4bhs12rcd13ifvqhvg","pricing_plan_id":"cebpf4jnsgd1na2vs0mg"},{"bike_id":"d4fa5cb6-520d-43f8-9de2-76f18090c336","system_id":"levelo_inurba_marseille","lat":43.31226,"lon":5.36857,"is_reserved":false,"is_disabled":false,"rental_uris":{"android":"levelo://app?vid=d4fa5cb6-520d-43f8-9de2-76f18090c336","ios":"levelo://app?vid=d4fa5cb6-520d-43f8-9de2-76f18090c336"},"vehicle_type_id":"4","last_reported":1729685836,"current_range_meters":29600,"station_id":"ce4bgl92rcd13ifvqbq0","pricing_plan_id":"cebpf4jnsgd1na2vs0mg"},{"bike_id":"d52c6a35-1a60-499b-ba4e-e6cdebdfe29e","system_id":"levelo_inurba_marseille","lat":43.28414,"lon":5.34985,"is_reserved":false,"is_disabled":false,"rental_uris":{"android":"levelo://app?vid=d52c6a35-1a60-499b-ba4e-e6cdebdfe29e","ios":"levelo://app?vid=d52c6a35-1a60-499b-ba4e-e6cdebdfe29e"},"vehicle_type_id":"4","last_reported":1729685836,"current_range_meters":40000,"station_id":"ce4bhbh2rcd13ifvqepg","pricing_plan_id":"cebpf4jnsgd1na2vs0mg"},{"bike_id":"0ed1cd0c-195f-4f4c-a2d7-2b662b9b3173","system_id":"levelo_inurba_marseille","lat":43.308819,"lon":5.396491,"is_reserved":false,"is_disabled":false,"rental_uris":{"android":"levelo://app?vid=0ed1cd0c-195f-4f4c-a2d7-2b662b9b3173","ios":"levelo://app?vid=0ed1cd0c-195f-4f4c-a2d7-2b662b9b3173"},"vehicle_type_id":"4","last_reported":1729685836,"current_range_meters":3600,"station_id":"ce4bh012rcd13ifvqcv0","pricing_plan_id":"cebpf4jnsgd1na2vs0mg"},{"bike_id":"4ce5bde3-4773-452b-a6b6-79f9c8450f21","system_id":"levelo_inurba_marseille","lat":43.24386,"lon":5.37053,"is_reserved":false,"is_disabled":false,"rental_uris":{"android":"levelo://app?vid=4ce5bde3-4773-452b-a6b6-79f9c8450f21","ios":"levelo://app?vid=4ce5bde3-4773-452b-a6b6-79f9c8450f21"},"vehicle_type_id":"4","last_reported":1729685836,"current_range_meters":17200,"station_id":"ce4bhhh2rcd13ifvqfk0","pricing_plan_id":"cebpf4jnsgd1na2vs0mg"},{"bike_id":"d4703fa4-5acd-4770-b4db-34ecd62a25c0","system_id":"levelo_inurba_marseille","lat":43.29518,"lon":5.37497,"is_reserved":false,"is_disabled":false,"rental_uris":{"android":"levelo://app?vid=d4703fa4-5acd-4770-b4db-34ecd62a25c0","ios":"levelo://app?vid=d4703fa4-5acd-4770-b4db-34ecd62a25c0"},"vehicle_type_id":"4","last_reported":1729685836,"current_range_meters":7200,"station_id":"ce4bgkp2rcd13ifvqbmg","pricing_plan_id":"cebpf4jnsgd1na2vs0mg"},{"bike_id":"92e1e9c3-343a-48b6-a3dc-ce1ba251bb57","system_id":"levelo_inurba_marseille","lat":43.24803,"lon":5.37455,"is_reserved":false,"is_disabled":false,"rental_uris":{"android":"levelo://app?vid=92e1e9c3-343a-48b6-a3dc-ce1ba251bb57","ios":"levelo://app?vid=92e1e9c3-343a-48b6-a3dc-ce1ba251bb57"},"vehicle_type_id":"4","last_reported":1729685836,"current_range_meters":38800,"station_id":"ce4bhgh2rcd13ifvqfb0","pricing_plan_id":"cebpf4jnsgd1na2vs0mg"},{"bike_id":"5c1c175f-0503-4df3-bc5e-c32c128444db","system_id":"levelo_inurba_marseille","lat":43.22932,"lon":5.35378,"is_reserved":false,"is_disabled":false,"rental_uris":{"android":"levelo://app?vid=5c1c175f-0503-4df3-bc5e-c32c128444db","ios":"levelo://app?vid=5c1c175f-0503-4df3-bc5e-c32c128444db"},"vehicle_type_id":"4","last_reported":1729685836,"current_range_meters":22800,"station_id":"cpo3532slgdg3j2ikp40","pricing_plan_id":"cebpf4jnsgd1na2vs0mg"},{"bike_id":"78e537d8-bd8f-4d34-aae8-e7b0c845af68","system_id":"levelo_inurba_marseille","lat":43.3014,"lon":5.37411,"is_reserved":false,"is_disabled":false,"rental_uris":{"android":"levelo://app?vid=78e537d8-bd8f-4d34-aae8-e7b0c845af68","ios":"levelo://app?vid=78e537d8-bd8f-4d34-aae8-e7b0c845af68"},"vehicle_type_id":"4","last_reported":1729685836,"current_range_meters":36000,"station_id":"ce4bgs92rcd13ifvqcc0","pricing_plan_id":"cebpf4jnsgd1na2vs0mg"},{"bike_id":"552659e5-edb1-41a8-ada8-590175d19f47","system_id":"levelo_inurba_marseille","lat":43.31338,"lon":5.36719,"is_reserved":false,"is_disabled":false,"rental_uris":{"android":"levelo://app?vid=552659e5-edb1-41a8-ada8-590175d19f47","ios":"levelo://app?vid=552659e5-edb1-41a8-ada8-590175d19f47"},"vehicle_type_id":"4","last_reported":1729685836,"current_range_meters":26800,"station_id":"ce4bgr92rcd13ifvqc6g","pricing_plan_id":"cebpf4jnsgd1na2vs0mg"},{"bike_id":"1fbf483b-2bd6-4131-a1f2-fd48e0eb4f86","system_id":"levelo_inurba_marseille","lat":43.29058,"lon":5.37174,"is_reserved":false,"is_disabled":false,"rental_uris":{"android":"levelo://app?vid=1fbf483b-2bd6-4131-a1f2-fd48e0eb4f86","ios":"levelo://app?vid=1fbf483b-2bd6-4131-a1f2-fd48e0eb4f86"},"vehicle_type_id":"4","last_reported":1729685836,"current_range_meters":37600,"station_id":"ce4bh5p2rcd13ifvqe4g","pricing_plan_id":"cebpf4jnsgd1na2vs0mg"},{"bike_id":"22fc431c-b57c-465f-994e-166d81585d45","system_id":"levelo_inurba_marseille","lat":43.23961,"lon":5.36634,"is_reserved":false,"is_disabled":false,"rental_uris":{"android":"levelo://app?vid=22fc431c-b57c-465f-994e-166d81585d45","ios":"levelo://app?vid=22fc431c-b57c-465f-994e-166d81585d45"},"vehicle_type_id":"4","last_reported":1729685836,"current_range_meters":37600,"station_id":"ce4bhi12rcd13ifvqfp0","pricing_plan_id":"cebpf4jnsgd1na2vs0mg"},{"bike_id":"86260a5e-f8ca-4a78-b654-af58271e70be","system_id":"levelo_inurba_marseille","lat":43.2572,"lon":5.41112,"is_reserved":false,"is_disabled":false,"rental_uris":{"android":"levelo://app?vid=86260a5e-f8ca-4a78-b654-af58271e70be","ios":"levelo://app?vid=86260a5e-f8ca-4a78-b654-af58271e70be"},"vehicle_type_id":"4","last_reported":1729685836,"current_range_meters":38800,"station_id":"ce4bhkp2rcd13ifvqgd0","pricing_plan_id":"cebpf4jnsgd1na2vs0mg"},{"bike_id":"352b883e-1819-4262-8f41-4f51a9cf72af","system_id":"levelo_inurba_marseille","lat":43.292786,"lon":5.401136,"is_reserved":false,"is_disabled":false,"rental_uris":{"android":"levelo://app?vid=352b883e-1819-4262-8f41-4f51a9cf72af","ios":"levelo://app?vid=352b883e-1819-4262-8f41-4f51a9cf72af"},"vehicle_type_id":"4","last_reported":1729685836,"current_range_meters":35200,"station_id":"ce4bh312rcd13ifvqdk0","pricing_plan_id":"cebpf4jnsgd1na2vs0mg"},{"bike_id":"c9aaa140-4cb3-444a-80ce-93944fd36d74","system_id":"levelo_inurba_marseille","lat":43.25004,"lon":5.38928,"is_reserved":false,"is_disabled":false,"rental_uris":{"android":"levelo://app?vid=c9aaa140-4cb3-444a-80ce-93944fd36d74","ios":"levelo://app?vid=c9aaa140-4cb3-444a-80ce-93944fd36d74"},"vehicle_type_id":"4","last_reported":1729685836,"current_range_meters":38000,"station_id":"ce4bhgp2rcd13ifvqfd0","pricing_plan_id":"cebpf4jnsgd1na2vs0mg"},{"bike_id":"3c994d43-b90b-4505-8e93-cf87a47dec5d","system_id":"levelo_inurba_marseille","lat":43.30306,"lon":5.36897,"is_reserved":false,"is_disabled":false,"rental_uris":{"android":"levelo://app?vid=3c994d43-b90b-4505-8e93-cf87a47dec5d","ios":"levelo://app?vid=3c994d43-b90b-4505-8e93-cf87a47dec5d"},"vehicle_type_id":"4","last_reported":1729685836,"current_range_meters":38800,"station_id":"ce4bgqh2rcd13ifvqc5g","pricing_plan_id":"cebpf4jnsgd1na2vs0mg"},{"bike_id":"2ff14793-c78c-4d94-b37c-4746603c058b","system_id":"levelo_inurba_marseille","lat":43.29043,"lon":5.3996,"is_reserved":false,"is_disabled":false,"rental_uris":{"android":"levelo://app?vid=2ff14793-c78c-4d94-b37c-4746603c058b","ios":"levelo://app?vid=2ff14793-c78c-4d94-b37c-4746603c058b"},"vehicle_type_id":"4","last_reported":1729685836,"current_range_meters":30000,"station_id":"ce4bh392rcd13ifvqdm0","pricing_plan_id":"cebpf4jnsgd1na2vs0mg"},{"bike_id":"27a5a8b0-563c-46fc-81e5-f40494c9273e","system_id":"levelo_inurba_marseille","lat":43.26493,"lon":5.39541,"is_reserved":false,"is_disabled":false,"rental_uris":{"android":"levelo://app?vid=27a5a8b0-563c-46fc-81e5-f40494c9273e","ios":"levelo://app?vid=27a5a8b0-563c-46fc-81e5-f40494c9273e"},"vehicle_type_id":"4","last_reported":1729685836,"current_range_meters":38800,"station_id":"ce4bhi12rcd13ifvqfq0","pricing_plan_id":"cebpf4jnsgd1na2vs0mg"},{"bike_id":"a79de8a9-993a-4d48-9038-0f0e4a981252","system_id":"levelo_inurba_marseille","lat":43.29304,"lon":5.3718,"is_reserved":false,"is_disabled":false,"rental_uris":{"android":"levelo://app?vid=a79de8a9-993a-4d48-9038-0f0e4a981252","ios":"levelo://app?vid=a79de8a9-993a-4d48-9038-0f0e4a981252"},"vehicle_type_id":"4","last_reported":1729685836,"current_range_meters":29600,"station_id":"ce4bgh92rcd13ifvqb40","pricing_plan_id":"cebpf4jnsgd1na2vs0mg"},{"bike_id":"b9464bfb-1b0e-459a-b305-7ebf8a1f5160","system_id":"levelo_inurba_marseille","lat":43.28415,"lon":5.34999,"is_reserved":false,"is_disabled":false,"rental_uris":{"android":"levelo://app?vid=b9464bfb-1b0e-459a-b305-7ebf8a1f5160","ios":"levelo://app?vid=b9464bfb-1b0e-459a-b305-7ebf8a1f5160"},"vehicle_type_id":"4","last_reported":1729685836,"current_range_meters":38400,"station_id":"ce4bhbh2rcd13ifvqepg","pricing_plan_id":"cebpf4jnsgd1na2vs0mg"},{"bike_id":"59452cb4-d6c0-4a05-88cf-550cb646d8a2","system_id":"levelo_inurba_marseille","lat":43.30884,"lon":5.39655,"is_reserved":false,"is_disabled":false,"rental_uris":{"android":"levelo://app?vid=59452cb4-d6c0-4a05-88cf-550cb646d8a2","ios":"levelo://app?vid=59452cb4-d6c0-4a05-88cf-550cb646d8a2"},"vehicle_type_id":"4","last_reported":1729685836,"current_range_meters":35600,"station_id":"ce4bh012rcd13ifvqcv0","pricing_plan_id":"cebpf4jnsgd1na2vs0mg"},{"bike_id":"a90d435a-f920-4ecd-a2f1-1900446a3610","system_id":"levelo_inurba_marseille","lat":43.29546,"lon":5.42286,"is_reserved":false,"is_disabled":false,"rental_uris":{"android":"levelo://app?vid=a90d435a-f920-4ecd-a2f1-1900446a3610","ios":"levelo://app?vid=a90d435a-f920-4ecd-a2f1-1900446a3610"},"vehicle_type_id":"4","last_reported":1729685836,"current_range_meters":39200,"station_id":"ce4bhph2rcd13ifvqhdg","pricing_plan_id":"cebpf4jnsgd1na2vs0mg"},{"bike_id":"69b21f53-0f60-49e7-b510-2747a8910177","system_id":"levelo_inurba_marseille","lat":43.30152,"lon":5.37386,"is_reserved":false,"is_disabled":false,"rental_uris":{"android":"levelo://app?vid=69b21f53-0f60-49e7-b510-2747a8910177","ios":"levelo://app?vid=69b21f53-0f60-49e7-b510-2747a8910177"},"vehicle_type_id":"4","last_reported":1729685836,"current_range_meters":39200,"station_id":"ce4bgs92rcd13ifvqcc0","pricing_plan_id":"cebpf4jnsgd1na2vs0mg"},{"bike_id":"d26d90fa-37d7-490e-acac-0c01882850e8","system_id":"levelo_inurba_marseille","lat":43.28862,"lon":5.39319,"is_reserved":false,"is_disabled":false,"rental_uris":{"android":"levelo://app?vid=d26d90fa-37d7-490e-acac-0c01882850e8","ios":"levelo://app?vid=d26d90fa-37d7-490e-acac-0c01882850e8"},"vehicle_type_id":"4","last_reported":1729685836,"current_range_meters":17600,"station_id":"ce4bh2p2rcd13ifvqdi0","pricing_plan_id":"cebpf4jnsgd1na2vs0mg"},{"bike_id":"519e8ca8-f1a6-4cd2-95ca-5e25cf3b853a","system_id":"levelo_inurba_marseille","lat":43.31687,"lon":5.40471,"is_reserved":false,"is_disabled":false,"rental_uris":{"android":"levelo://app?vid=519e8ca8-f1a6-4cd2-95ca-5e25cf3b853a","ios":"levelo://app?vid=519e8ca8-f1a6-4cd2-95ca-5e25cf3b853a"},"vehicle_type_id":"4","last_reported":1729685836,"current_range_meters":18000,"station_id":"ce4bh012rcd13ifvqd00","pricing_plan_id":"cebpf4jnsgd1na2vs0mg"},{"bike_id":"a6abc163-ead0-4db5-ad14-7a81ba1fc062","system_id":"levelo_inurba_marseille","lat":43.2958,"lon":5.36744,"is_reserved":false,"is_disabled":false,"rental_uris":{"android":"levelo://app?vid=a6abc163-ead0-4db5-ad14-7a81ba1fc062","ios":"levelo://app?vid=a6abc163-ead0-4db5-ad14-7a81ba1fc062"},"vehicle_type_id":"4","last_reported":1729685836,"current_range_meters":19200,"station_id":"ce4bgph2rcd13ifvqc2g","pricing_plan_id":"cebpf4jnsgd1na2vs0mg"},{"bike_id":"dfe7b766-2fbf-4fb6-9732-c9980ca58c95","system_id":"levelo_inurba_marseille","lat":43.30547,"lon":5.36529,"is_reserved":false,"is_disabled":false,"rental_uris":{"android":"levelo://app?vid=dfe7b766-2fbf-4fb6-9732-c9980ca58c95","ios":"levelo://app?vid=dfe7b766-2fbf-4fb6-9732-c9980ca58c95"},"vehicle_type_id":"4","last_reported":1729685836,"current_range_meters":23200,"station_id":"ce4bgs12rcd13ifvqcag","pricing_plan_id":"cebpf4jnsgd1na2vs0mg"},{"bike_id":"452a8478-aa70-4384-9135-b3d3119f786a","system_id":"levelo_inurba_marseille","lat":43.29779,"lon":5.37116,"is_reserved":false,"is_disabled":false,"rental_uris":{"android":"levelo://app?vid=452a8478-aa70-4384-9135-b3d3119f786a","ios":"levelo://app?vid=452a8478-aa70-4384-9135-b3d3119f786a"},"vehicle_type_id":"4","last_reported":1729685836,"current_range_meters":31200,"station_id":"ce4bgop2rcd13ifvqc1g","pricing_plan_id":"cebpf4jnsgd1na2vs0mg"},{"bike_id":"b07fad1a-1967-4a4f-b877-00570bf6d938","system_id":"levelo_inurba_marseille","lat":43.29195,"lon":5.39315,"is_reserved":false,"is_disabled":false,"rental_uris":{"android":"levelo://app?vid=b07fad1a-1967-4a4f-b877-00570bf6d938","ios":"levelo://app?vid=b07fad1a-1967-4a4f-b877-00570bf6d938"},"vehicle_type_id":"4","last_reported":1729685836,"current_range_meters":40000,"station_id":"ce4bh192rcd13ifvqdd0","pricing_plan_id":"cebpf4jnsgd1na2vs0mg"},{"bike_id":"01d08235-a4e4-434f-8493-03de70774cab","system_id":"levelo_inurba_marseille","lat":43.3211,"lon":5.36772,"is_reserved":false,"is_disabled":false,"rental_uris":{"android":"levelo://app?vid=01d08235-a4e4-434f-8493-03de70774cab","ios":"levelo://app?vid=01d08235-a4e4-434f-8493-03de70774cab"},"vehicle_type_id":"4","last_reported":1729685836,"current_range_meters":38000,"station_id":"ce4bhrh2rcd13ifvqhug","pricing_plan_id":"cebpf4jnsgd1na2vs0mg"},{"bike_id":"2b80f943-bf35-49c7-9584-ea1845fd1d05","system_id":"levelo_inurba_marseille","lat":43.23055,"lon":5.35488,"is_reserved":false,"is_disabled":false,"rental_uris":{"android":"levelo://app?vid=2b80f943-bf35-49c7-9584-ea1845fd1d05","ios":"levelo://app?vid=2b80f943-bf35-49c7-9584-ea1845fd1d05"},"vehicle_type_id":"4","last_reported":1729685836,"current_range_meters":5600,"station_id":"cpo3342slgdg3j2ifvpg","pricing_plan_id":"cebpf4jnsgd1na2vs0mg"},{"bike_id":"14b803cc-024e-4351-8838-8aeac0fd1748","system_id":"levelo_inurba_marseille","lat":43.2656,"lon":5.39008,"is_reserved":false,"is_disabled":false,"rental_uris":{"android":"levelo://app?vid=14b803cc-024e-4351-8838-8aeac0fd1748","ios":"levelo://app?vid=14b803cc-024e-4351-8838-8aeac0fd1748"},"vehicle_type_id":"4","last_reported":1729685836,"current_range_meters":38000,"station_id":"ce4bhe12rcd13ifvqf30","pricing_plan_id":"cebpf4jnsgd1na2vs0mg"},{"bike_id":"4dfb3652-e83e-4097-b04b-b120481c67dd","system_id":"levelo_inurba_marseille","lat":43.28153,"lon":5.42648,"is_reserved":false,"is_disabled":false,"rental_uris":{"android":"levelo://app?vid=4dfb3652-e83e-4097-b04b-b120481c67dd","ios":"levelo://app?vid=4dfb3652-e83e-4097-b04b-b120481c67dd"},"vehicle_type_id":"4","last_reported":1729685836,"current_range_meters":32400,"station_id":"ce4bhnh2rcd13ifvqgug","pricing_plan_id":"cebpf4jnsgd1na2vs0mg"},