{"last_updated":1679836167,"ttl":30,"version":"2.2","data":{"bikes":[{"bike_id":"0909929c-2689-4aaa-bd59-f569e3d5f162","system_id":"levelo_inurba_marseille","lat":43.309044,"lon":5.368463,"is_reserved":false,"is_disabled":false,"rental_uris":{"android":"levelo://app?vid=0909929c-2689-4aaa-bd59-f569e3d5f162","ios":"levelo://app?vid=0909929c-2689-4aaa-bd59-f569e3d5f162"},"vehicle_type_id":"4","last_reported":1679836167,"current_range_meters":28000,"station_id":"ce4bgn92rcd13ifvqbvg","pricing_plan_id":"free"},{"bike_id":"6a9132f8-a62b-4d68-b42b-6322ab9818f3","system_id":"levelo_inurba_marseille","lat":43.314811,"lon":5.373103,"is_reserved":false,"is_disabled":false,"rental_uris":{"android":"levelo://app?vid=6a9132f8-a62b-4d68-b42b-6322ab9818f3","ios":"levelo://app?vid=6a9132f8-a62b-4d68-b42b-6322ab9818f3"},"vehicle_type_id":"4","last_reported":1679836167,"current_range_meters":8400,"station_id":"ce4bgt12rcd13ifvqcd0","pricing_plan_id":"free"},{"bike_id":"2469129d-d28e-4007-9ff9-a33a5e7d7fb8","system_id":"levelo_inurba_marseille","lat":43.314811,"lon":5.373104,"is_reserved":false,"is_disabled":false,"rental_uris":{"android":"levelo://app?vid=2469129d-d28e-4007-9ff9-a33a5e7d7fb8","ios":"levelo://app?vid=2469129d-d28e-4007-9ff9-a33a5e7d7fb8"},"vehicle_type_id":"4","last_reported":1679836167,"current_range_meters":20400,"station_id":"ce4bgt12rcd13ifvqcd0","pricing_plan_id":"free"},{"bike_id":"a919ecaa-c693-41d6-83da-c4b1c110604b","system_id":"levelo_inurba_marseille","lat":43.305989,"lon":5.37225,"is_reserved":false,"is_disabled":false,"rental_uris":{"android":"levelo://app?vid=a919ecaa-c693-41d6-83da-c4b1c110604b","ios":"levelo://app?vid=a919ecaa-c693-41d6-83da-c4b1c110604b"},"vehicle_type_id":"4","last_reported":1679836167,"current_range_meters":0,"station_id":"ce4bgqh2rcd13ifvqc4g","pricing_plan_id":"free"},{"bike_id":"4197aaa4-a4f7-4337-985c-871265113041","system_id":"levelo_inurba_marseille","lat":43.317075,"lon":5.377367,"is_reserved":false,"is_disabled":false,"rental_uris":{"android":"levelo://app?vid=4197aaa4-a4f7-4337-985c-871265113041","ios":"levelo://app?vid=4197aaa4-a4f7-4337-985c-871265113041"},"vehicle_type_id":"4","last_reported":1679836167,"current_range_meters":31200,"station_id":"ce4bgth2rcd13ifvqch0","pricing_plan_id":"free"},{"bike_id":"96e9d878-7419-43b7-b7a5-8b7b9383a159","system_id":"levelo_inurba_marseille","lat":43.30475,"lon":5.3792,"is_reserved":false,"is_disabled":false,"rental_uris":{"android":"levelo://app?vid=96e9d878-7419-43b7-b7a5-8b7b9383a159","ios":"levelo://app?vid=96e9d878-7419-43b7-b7a5-8b7b9383a159"},"vehicle_type_id":"4","last_reported":1679836167,"current_range_meters":14000,"station_id":"","pricing_plan_id":"free"},{"bike_id":"285866e6-cf20-4b59-a8b8-c04596fa75cc","system_id":"levelo_inurba_marseille","lat":43.313765,"lon":5.38371,"is_reserved":false,"is_disabled":false,"rental_uris":{"android":"levelo://app?vid=285866e6-cf20-4b59-a8b8-c04596fa75cc","ios":"levelo://app?vid=285866e6-cf20-4b59-a8b8-c04596fa75cc"},"vehicle_type_id":"4","last_reported":1679836167,"current_range_meters":30000,"station_id":"","pricing_plan_id":"free"},{"bike_id":"9803c8b1-6dd7-43e7-99a9-0d3d9ba16704","system_id":"levelo_inurba_marseille","lat":43.297875,"lon":5.371021,"is_reserved":false,"is_disabled":false,"rental_uris":{"android":"levelo://app?vid=9803c8b1-6dd7-43e7-99a9-0d3d9ba16704","ios":"levelo://app?vid=9803c8b1-6dd7-43e7-99a9-0d3d9ba16704"},"vehicle_type_id":"4","last_reported":1679836167,"current_range_meters":0,"station_id":"ce4bgop2rcd13ifvqc1g","pricing_plan_id":"free"},{"bike_id":"9dfc1984-edee-49c1-a328-bcfc69589c33","system_id":"levelo_inurba_marseille","lat":43.328371,"lon":5.366912,"is_reserved":false,"is_disabled":false,"rental_uris":{"android":"levelo://app?vid=9dfc1984-edee-49c1-a328-bcfc69589c33","ios":"levelo://app?vid=9dfc1984-edee-49c1-a328-bcfc69589c33"},"vehicle_type_id":"4","last_reported":1679836167,"current_range_meters":20800,"station_id":"ce4bhs92rcd13ifvqi0g","pricing_plan_id":"free"},{"bike_id":"95e8b12d-8926-401b-8608-d08f77535ba1","system_id":"levelo_inurba_marseille","lat":43.328371,"lon":5.366912,"is_reserved":false,"is_disabled":false,"rental_uris":{"android":"levelo://app?vid=95e8b12d-8926-401b-8608-d08f77535ba1","ios":"levelo://app?vid=95e8b12d-8926-401b-8608-d08f77535ba1"},"vehicle_type_id":"4","last_reported":1679836167,"current_range_meters":10800,"station_id":"ce4bhs92rcd13ifvqi0g","pricing_plan_id":"free"},{"bike_id":"53d4c5e5-ebae-4f88-bf01-8f6be069889f","system_id":"levelo_inurba_marseille","lat":43.32829,"lon":5.36692,"is_reserved":false,"is_disabled":false,"rental_uris":{"android":"levelo://app?vid=53d4c5e5-ebae-4f88-bf01-8f6be069889f","ios":"levelo://app?vid=53d4c5e5-ebae-4f88-bf01-8f6be069889f"},"vehicle_type_id":"4","last_reported":1679836167,"current_range_meters":13200,"station_id":"","pricing_plan_id":"free"},{"bike_id":"d5d403e2-9050-48be-868c-b385a8be2c67","system_id":"levelo_inurba_marseille","lat":43.328371,"lon":5.366912,"is_reserved":false,"is_disabled":false,"rental_uris":{"android":"levelo://app?vid=d5d403e2-9050-48be-868c-b385a8be2c67","ios":"levelo://app?vid=d5d403e2-9050-48be-868c-b385a8be2c67"},"vehicle_type_id":"4","last_reported":1679836167,"current_range_meters":0,"station_id":"ce4bhs92rcd13ifvqi0g","pricing_plan_id":"free"},{"bike_id":"84a38f1b-6567-4321-b9b4-1370cb749b19","system_id":"levelo_inurba_marseille","lat":43.29679,"lon":5.37298,"is_reserved":false,"is_disabled":false,"rental_uris":{"android":"levelo://app?vid=84a38f1b-6567-4321-b9b4-1370cb749b19","ios":"levelo://app?vid=84a38f1b-6567-4321-b9b4-1370cb749b19"},"vehicle_type_id":"4","last_reported":1679836167,"current_range_meters":6000,"station_id":"","pricing_plan_id":"free"},{"bike_id":"cbe5701f-812a-42bb-987e-aadf55f3336c","system_id":"levelo_inurba_marseille","lat":43.296131,"lon":5.370791,"is_reserved":false,"is_disabled":false,"rental_uris":{"android":"levelo://app?vid=cbe5701f-812a-42bb-987e-aadf55f3336c","ios":"levelo://app?vid=cbe5701f-812a-42bb-987e-aadf55f3336c"},"vehicle_type_id":"4","last_reported":1679836167,"current_range_meters":21200,"station_id":"ce4bgnh2rcd13ifvqc0g","pricing_plan_id":"free"},{"bike_id":"27b727cf-0198-46b0-b8a3-9404b6dfb23b","system_id":"levelo_inurba_marseille","lat":43.295742,"lon":5.375024,"is_reserved":false,"is_disabled":false,"rental_uris":{"android":"levelo://app?vid=27b727cf-0198-46b0-b8a3-9404b6dfb23b","ios":"levelo://app?vid=27b727cf-0198-46b0-b8a3-9404b6dfb23b"},"vehicle_type_id":"4","last_reported":1679836167,"current_range_meters":0,"station_id":"ce4bgh92rcd13ifvqb50","pricing_plan_id":"free"},{"bike_id":"96fbc20e-417b-4b9a-aa38-15e3a4f2d78c","system_id":"levelo_inurba_marseille","lat":43.29534,"lon":5.375092,"is_reserved":false,"is_disabled":false,"rental_uris":{"android":"levelo://app?vid=96fbc20e-417b-4b9a-aa38-15e3a4f2d78c","ios":"levelo://app?vid=96fbc20e-417b-4b9a-aa38-15e3a4f2d78c"},"vehicle_type_id":"4","last_reported":1679836167,"current_range_meters":5200,"station_id":"","pricing_plan_id":"free"},{"bike_id":"91c11b22-bd9c-4dbb-8529-a977852582e3","system_id":"levelo_inurba_marseille","lat":43.299637,"lon":5.384822,"is_reserved":false,"is_disabled":false,"rental_uris":{"android":"levelo://app?vid=91c11b22-bd9c-4dbb-8529-a977852582e3","ios":"levelo://app?vid=91c11b22-bd9c-4dbb-8529-a977852582e3"},"vehicle_type_id":"4","last_reported":1679836167,"current_range_meters":0,"station_id":"","pricing_plan_id":"free"},{"bike_id":"ac783709-db4c-4fdc-b970-f14ddfa162ad","system_id":"levelo_inurba_marseille","lat":43.295279,"lon":5.375048,"is_reserved":false,"is_disabled":false,"rental_uris":{"android":"levelo://app?vid=ac783709-db4c-4fdc-b970-f14ddfa162ad","ios":"levelo://app?vid=ac783709-db4c-4fdc-b970-f14ddfa162ad"},"vehicle_type_id":"4","last_reported":1679836167,"current_range_meters":2400,"station_id":"ce4bgkp2rcd13ifvqbmg","pricing_plan_id":"free"},{"bike_id":"0d0924b2-3382-43df-9d85-f70006b07533","system_id":"levelo_inurba_marseille","lat":43.32367,"lon":5.388836,"is_reserved":false,"is_disabled":false,"rental_uris":{"android":"levelo://app?vid=0d0924b2-3382-43df-9d85-f70006b07533","ios":"levelo://app?vid=0d0924b2-3382-43df-9d85-f70006b07533"},"vehicle_type_id":"4","last_reported":1679836167,"current_range_meters":21600,"station_id":"ce4bhqp2rcd13ifvqhog","pricing_plan_id":"free"},{"bike_id":"46f2256b-4d79-451c-9854-73de9a09315b","system_id":"levelo_inurba_marseille","lat":43.293249,"lon":5.371578,"is_reserved":false,"is_disabled":false,"rental_uris":{"android":"levelo://app?vid=46f2256b-4d79-451c-9854-73de9a09315b","ios":"levelo://app?vid=46f2256b-4d79-451c-9854-73de9a09315b"},"vehicle_type_id":"4","last_reported":1679836167,"current_range_meters":0,"station_id":"ce4bgh92rcd13ifvqb40","pricing_plan_id":"free"},{"bike_id":"c0f212bd-11ec-425c-a3d2-0d1284033e3f","system_id":"levelo_inurba_marseille","lat":43.29308,"lon":5.37182,"is_reserved":false,"is_disabled":false,"rental_uris":{"android":"levelo://app?vid=c0f212bd-11ec-425c-a3d2-0d1284033e3f","ios":"levelo://app?vid=c0f212bd-11ec-425c-a3d2-0d1284033e3f"},"vehicle_type_id":"4","last_reported":1679836167,"current_range_meters":23200,"station_id":"ce4bgh92rcd13ifvqb40","pricing_plan_id":"free"},{"bike_id":"4610cf30-356b-4bcb-be8a-83417f52fc05","system_id":"levelo_inurba_marseille","lat":43.29306,"lon":5.37174,"is_reserved":false,"is_disabled":false,"rental_uris":{"android":"levelo://app?vid=4610cf30-356b-4bcb-be8a-83417f52fc05","ios":"levelo://app?vid=4610cf30-356b-4bcb-be8a-83417f52fc05"},"vehicle_type_id":"4","last_reported":1679836167,"current_range_meters":19600,"station_id":"ce4bgh92rcd13ifvqb40","pricing_plan_id":"free"},{"bike_id":"67bf9654-dc58-4f1f-8367-6a35a558dd4e","system_id":"levelo_inurba_marseille","lat":43.29303,"lon":5.37167,"is_reserved":false,"is_disabled":false,"rental_uris":{"android":"levelo://app?vid=67bf9654-dc58-4f1f-8367-6a35a558dd4e","ios":"levelo://app?vid=67bf9654-dc58-4f1f-8367-6a35a558dd4e"},"vehicle_type_id":"4","last_reported":1679836167,"current_range_meters":17200,"station_id":"ce4bgh92rcd13ifvqb40","pricing_plan_id":"free"},{"bike_id":"12d53b37-a6b8-4846-83f1-978046b15636","system_id":"levelo_inurba_marseille","lat":43.293249,"lon":5.371578,"is_reserved":false,"is_disabled":false,"rental_uris":{"android":"levelo://app?vid=12d53b37-a6b8-4846-83f1-978046b15636","ios":"levelo://app?vid=12d53b37-a6b8-4846-83f1-978046b15636"},"vehicle_type_id":"4","last_reported":1679836167,"current_range_meters":18400,"station_id":"ce4bgh92rcd13ifvqb40","pricing_plan_id":"free"},{"bike_id":"7ace54f1-14b9-470c-a5e7-30a5f9dc8789","system_id":"levelo_inurba_marseille","lat":43.305994,"lon":5.393687,"is_reserved":false,"is_disabled":false,"rental_uris":{"android":"levelo://app?vid=7ace54f1-14b9-470c-a5e7-30a5f9dc8789","ios":"levelo://app?vid=7ace54f1-14b9-470c-a5e7-30a5f9dc8789"},"vehicle_type_id":"4","last_reported":1679836167,"current_range_meters":29200,"station_id":"ce4bh0p2rcd13ifvqd80","pricing_plan_id":"free"},{"bike_id":"8ba24a2c-87ef-4416-ab29-595af2407d9e","system_id":"levelo_inurba_marseille","lat":43.292296,"lon":5.360552,"is_reserved":false,"is_disabled":false,"rental_uris":{"android":"levelo://app?vid=8ba24a2c-87ef-4416-ab29-595af2407d9e","ios":"levelo://app?vid=8ba24a2c-87ef-4416-ab29-595af2407d9e"},"vehicle_type_id":"4","last_reported":1679836167,"current_range_meters":11200,"station_id":"ce4bhbh2rcd13ifvqeqg","pricing_plan_id":"free"},{"bike_id":"b6b5c4eb-c6ba-467d-97fd-8261a381ab6a","system_id":"levelo_inurba_marseille","lat":43.313291,"lon":5.396838,"is_reserved":false,"is_disabled":false,"rental_uris":{"android":"levelo://app?vid=b6b5c4eb-c6ba-467d-97fd-8261a381ab6a","ios":"levelo://app?vid=b6b5c4eb-c6ba-467d-97fd-8261a381ab6a"},"vehicle_type_id":"4","last_reported":1679836167,"current_range_meters":10800,"station_id":"ce4bgvp2rcd13ifvqcu0","pricing_plan_id":"free"},{"bike_id":"463f868c-0a13-4353-97df-2c5296830d6c","system_id":"levelo_inurba_marseille","lat":43.313291,"lon":5.396838,"is_reserved":false,"is_disabled":false,"rental_uris":{"android":"levelo://app?vid=463f868c-0a13-4353-97df-2c5296830d6c","ios":"levelo://app?vid=463f868c-0a13-4353-97df-2c5296830d6c"},"vehicle_type_id":"4","last_reported":1679836167,"current_range_meters":6000,"station_id":"ce4bgvp2rcd13ifvqcu0","pricing_plan_id":"free"},{"bike_id":"f79be422-39ee-4d41-bc90-e749528ba478","system_id":"levelo_inurba_marseille","lat":43.309038,"lon":5.396546,"is_reserved":false,"is_disabled":false,"rental_uris":{"android":"levelo://app?vid=f79be422-39ee-4d41-bc90-e749528ba478","ios":"levelo://app?vid=f79be422-39ee-4d41-bc90-e749528ba478"},"vehicle_type_id":"4","last_reported":1679836167,"current_range_meters":10000,"station_id":"ce4bh012rcd13ifvqcv0","pricing_plan_id":"free"},{"bike_id":"c0cde46f-4b69-4850-8826-2f41509cf403","system_id":"levelo_inurba_marseille","lat":43.289422,"lon":5.366293,"is_reserved":false,"is_disabled":false,"rental_uris":{"android":"levelo://app?vid=c0cde46f-4b69-4850-8826-2f41509cf403","ios":"levelo://app?vid=c0cde46f-4b69-4850-8826-2f41509cf403"},"vehicle_type_id":"4","last_reported":1679836167,"current_range_meters":0,"station_id":"","pricing_plan_id":"free"},{"bike_id":"52e28d2b-4aba-4840-b49a-81be7f02dea3","system_id":"levelo_inurba_marseille","lat":43.290416,"lon":5.355765,"is_reserved":false,"is_disabled":false,"rental_uris":{"android":"levelo://app?vid=52e28d2b-4aba-4840-b49a-81be7f02dea3","ios":"levelo://app?vid=52e28d2b-4aba-4840-b49a-81be7f02dea3"},"vehicle_type_id":"4","last_reported":1679836167,"current_range_meters":0,"station_id":"","pricing_plan_id":"free"},{"bike_id":"94a61fdb-adc4-4ca2-b3f6-05fc17bc8f2f","system_id":"levelo_inurba_marseille","lat":43.30425,"lon":5.39742,"is_reserved":false,"is_disabled":false,"rental_uris":{"android":"levelo://app?vid=94a61fdb-adc4-4ca2-b3f6-05fc17bc8f2f","ios":"levelo://app?vid=94a61fdb-adc4-4ca2-b3f6-05fc17bc8f2f"},"vehicle_type_id":"4","last_reported":1679836167,"current_range_meters":18000,"station_id":"","pricing_plan_id":"free"},{"bike_id":"71b6894f-a3f0-4609-bdda-1e1d71b987d0","system_id":"levelo_inurba_marseille","lat":43.292644,"lon":5.384257,"is_reserved":false,"is_disabled":false,"rental_uris":{"android":"levelo://app?vid=71b6894f-a3f0-4609-bdda-1e1d71b987d0","ios":"levelo://app?vid=71b6894f-a3f0-4609-bdda-1e1d71b987d0"},"vehicle_type_id":"4","last_reported":1679836167,"current_range_meters":1600,"station_id":"ce4bh692rcd13ifvqea0","pricing_plan_id":"free"},{"bike_id":"1c24d7e1-3f3d-4d77-aed7-58f7dd06bebe","system_id":"levelo_inurba_marseille","lat":43.292644,"lon":5.384257,"is_reserved":false,"is_disabled":false,"rental_uris":{"android":"levelo://app?vid=1c24d7e1-3f3d-4d77-aed7-58f7dd06bebe","ios":"levelo://app?vid=1c24d7e1-3f3d-4d77-aed7-58f7dd06bebe"},"vehicle_type_id":"4","last_reported":1679836167,"current_range_meters":6400,"station_id":"ce4bh692rcd13ifvqea0","pricing_plan_id":"free"},{"bike_id":"76f463b8-5fe5-4e59-8253-9bfc9c6fd7c2","system_id":"levelo_inurba_marseille","lat":43.29527,"lon":5.39087,"is_reserved":false,"is_disabled":false,"rental_uris":{"android":"levelo://app?vid=76f463b8-5fe5-4e59-8253-9bfc9c6fd7c2","ios":"levelo://app?vid=76f463b8-5fe5-4e59-8253-9bfc9c6fd7c2"},"vehicle_type_id":"4","last_reported":1679836167,"current_range_meters":19600,"station_id":"","pricing_plan_id":"free"},{"bike_id":"f31aaa75-2c67-40c6-a7d0-c028dcfffb2b","system_id":"levelo_inurba_marseille","lat":43.290995,"lon":5.381361,"is_reserved":false,"is_disabled":false,"rental_uris":{"android":"levelo://app?vid=f31aaa75-2c67-40c6-a7d0-c028dcfffb2b","ios":"levelo://app?vid=f31aaa75-2c67-40c6-a7d0-c028dcfffb2b"},"vehicle_type_id":"4","last_reported":1679836167,"current_range_meters":0,"station_id":"ce4bh512rcd13ifvqe2g","pricing_plan_id":"free"},{"bike_id":"636d5968-ae04-4f87-96d5-b545096f7338","system_id":"levelo_inurba_marseille","lat":43.288487,"lon":5.358427,"is_reserved":false,"is_disabled":false,"rental_uris":{"android":"levelo://app?vid=636d5968-ae04-4f87-96d5-b545096f7338","ios":"levelo://app?vid=636d5968-ae04-4f87-96d5-b545096f7338"},"vehicle_type_id":"4","last_reported":1679836167,"current_range_meters":0,"station_id":"ce4bhb12rcd13ifvqem0","pricing_plan_id":"free"},{"bike_id":"5dbe79cc-8fb2-4919-b431-be73ab496c56","system_id":"levelo_inurba_marseille","lat":43.337479,"lon":5.374673,"is_reserved":false,"is_disabled":false,"rental_uris":{"android":"levelo://app?vid=5dbe79cc-8fb2-4919-b431-be73ab496c56","ios":"levelo://app?vid=5dbe79cc-8fb2-4919-b431-be73ab496c56"},"vehicle_type_id":"4","last_reported":1679836167,"current_range_meters":27600,"station_id":"","pricing_plan_id":"free"},{"bike_id":"bde5ff6b-0bb6-40c0-8834-5f7a8182f0f2","system_id":"levelo_inurba_marseille","lat":43.286593,"lon":5.363346,"is_reserved":false,"is_disabled":false,"rental_uris":{"android":"levelo://app?vid=bde5ff6b-0bb6-40c0-8834-5f7a8182f0f2","ios":"levelo://app?vid=bde5ff6b-0bb6-40c0-8834-5f7a8182f0f2"},"vehicle_type_id":"4","last_reported":1679836167,"current_range_meters":24000,"station_id":"ce4bhah2rcd13ifvqej0","pricing_plan_id":"free"},{"bike_id":"4c2656ee-3566-44c4-9a3a-7d26d81b17fa","system_id":"levelo_inurba_marseille","lat":43.28668,"lon":5.36362,"is_reserved":false,"is_disabled":false,"rental_uris":{"android":"levelo://app?vid=4c2656ee-3566-44c4-9a3a-7d26d81b17fa","ios":"levelo://app?vid=4c2656ee-3566-44c4-9a3a-7d26d81b17fa"},"vehicle_type_id":"4","last_reported":1679836167,"current_range_meters":17600,"station_id":"","pricing_plan_id":"free"},{"bike_id":"9d86ae36-559e-4aaf-87a2-2488ca109499","system_id":"levelo_inurba_marseille","lat":43.295194,"lon":5.39397,"is_reserved":false,"is_disabled":false,"rental_uris":{"android":"levelo://app?vid=9d86ae36-559e-4aaf-87a2-2488ca109499","ios":"levelo://app?vid=9d86ae36-559e-4aaf-87a2-2488ca109499"},"vehicle_type_id":"4","last_reported":1679836167,"current_range_meters":28800,"station_id":"ce4bh292rcd13ifvqdf0","pricing_plan_id":"free"},{"bike_id":"1d191d97-77b6-405a-b9c2-5f5dd1945ecd","system_id":"levelo_inurba_marseille","lat":43.326542,"lon":5.398444,"is_reserved":false,"is_disabled":false,"rental_uris":{"android":"levelo://app?vid=1d191d97-77b6-405a-b9c2-5f5dd1945ecd","ios":"levelo://app?vid=1d191d97-77b6-405a-b9c2-5f5dd1945ecd"},"vehicle_type_id":"4","last_reported":1679836167,"current_range_meters":6400,"station_id":"","pricing_plan_id":"free"},{"bike_id":"d63845d0-9294-45f3-a096-475bdf126983","system_id":"levelo_inurba_marseille","lat":43.286039,"lon":5.370679,"is_reserved":false,"is_disabled":false,"rental_uris":{"android":"levelo://app?vid=d63845d0-9294-45f3-a096-475bdf126983","ios":"levelo://app?vid=d63845d0-9294-45f3-a096-475bdf126983"},"vehicle_type_id":"4","last_reported":1679836167,"current_range_meters":7200,"station_id":"ce4bht12rcd13ifvqi60","pricing_plan_id":"free"},{"bike_id":"1477d022-6e1c-4363-a1b9-8e100dc7a2cb","system_id":"levelo_inurba_marseille","lat":43.287181,"lon":5.379313,"is_reserved":false,"is_disabled":false,"rental_uris":{"android":"levelo://app?vid=1477d022-6e1c-4363-a1b9-8e100dc7a2cb","ios":"levelo://app?vid=1477d022-6e1c-4363-a1b9-8e100dc7a2cb"},"vehicle_type_id":"4","last_reported":1679836167,"current_range_meters":2000,"station_id":"ce4bh9p2rcd13ifvqec0","pricing_plan_id":"free"},{"bike_id":"d74d4151-aacc-4432-aa58-4f32a6f102a7","system_id":"levelo_inurba_marseille","lat":43.287185,"lon":5.379373,"is_reserved":false,"is_disabled":false,"rental_uris":{"android":"levelo://app?vid=d74d4151-aacc-4432-aa58-4f32a6f102a7","ios":"levelo://app?vid=d74d4151-aacc-4432-aa58-4f32a6f102a7"},"vehicle_type_id":"4","last_reported":1679836167,"current_range_meters":10800,"station_id":"ce4bh9p2rcd13ifvqec0","pricing_plan_id":"free"},{"bike_id":"e7820790-46f5-478c-9b51-eaee0157722c","system_id":"levelo_inurba_marseille","lat":43.287117,"lon":5.379408,"is_reserved":false,"is_disabled":false,"rental_uris":{"android":"levelo://app?vid=e7820790-46f5-478c-9b51-eaee0157722c","ios":"levelo://app?vid=e7820790-46f5-478c-9b51-eaee0157722c"},"vehicle_type_id":"4","last_reported":1679836167,"current_range_meters":0,"station_id":"","pricing_plan_id":"free"},{"bike_id":"a6a41833-5cbc-4165-a08b-90d39c5b0da1","system_id":"levelo_inurba_marseille","lat":43.30032,"lon":5.40104,"is_reserved":false,"is_disabled":false,"rental_uris":{"android":"levelo://app?vid=a6a41833-5cbc-4165-a08b-90d39c5b0da1","ios":"levelo://app?vid=a6a41833-5cbc-4165-a08b-90d39c5b0da1"},"vehicle_type_id":"4","last_reported":1679836167,"current_range_meters":400,"station_id":"","pricing_plan_id":"free"},{"bike_id":"7d9939fc-1c79-43d5-bb48-68b320b84219","system_id":"levelo_inurba_marseille","lat":43.284534,"lon":5.358662,"is_reserved":false,"is_disabled":false,"rental_uris":{"android":"levelo://app?vid=7d9939fc-1c79-43d5-bb48-68b320b84219","ios":"levelo://app?vid=7d9939fc-1c79-43d5-bb48-68b320b84219"},"vehicle_type_id":"4","last_reported":1679836167,"current_range_meters":1600,"station_id":"ce4bhah2rcd13ifvqei0","pricing_plan_id":"free"},{"bike_id":"565271cf-7698-4be4-9341-e5c887b15e3a","system_id":"levelo_inurba_marseille","lat":43.284534,"lon":5.358662,"is_reserved":false,"is_disabled":false,"rental_uris":{"android":"levelo://app?vid=565271cf-7698-4be4-9341-e5c887b15e3a","ios":"levelo://app?vid=565271cf-7698-4be4-9341-e5c887b15e3a"},"vehicle_type_id":"4","last_reported":1679836167,"current_range_meters":10800,"station_id":"ce4bhah2rcd13ifvqei0","pricing_plan_id":"free"},{"bike_id":"b3010f59-80b9-4469-a34d-1499c2bed019","system_id":"levelo_inurba_marseille","lat":43.284538,"lon":5.358657,"is_reserved":false,"is_disabled":false,"rental_uris":{"android":"levelo://app?vid=b3010f59-80b9-4469-a34d-1499c2bed019","ios":"levelo://app?vid=b3010f59-80b9-4469-a34d-1499c2bed019"},"vehicle_type_id":"4","last_reported":1679836167,"current_range_meters":11200,"station_id":"ce4bhah2rcd13ifvqei0","pricing_plan_id":"free"},{"bike_id":"5268878e-0e1a-4238-bc72-012db8c1d436","system_id":"levelo_inurba_marseille","lat":43.286595,"lon":5.386795,"is_reserved":false,"is_disabled":false,"rental_uris":{"android":"levelo://app?vid=5268878e-0e1a-4238-bc72-012db8c1d436","ios":"levelo://app?vid=5268878e-0e1a-4238-bc72-012db8c1d436"},"vehicle_type_id":"4","last_reported":1679836167,"current_range_meters":26800,"station_id":"ce4bh492rcd13ifvqdug","pricing_plan_id":"free"},{"bike_id":"b8a70ffd-8422-4266-aebc-4c2a1015a583","system_id":"levelo_inurba_marseille","lat":43.286595,"lon":5.386795,"is_reserved":false,"is_disabled":false,"rental_uris":{"android":"levelo://app?vid=b8a70ffd-8422-4266-aebc-4c2a1015a583","ios":"levelo://app?vid=b8a70ffd-8422-4266-aebc-4c2a1015a583"},"vehicle_type_id":"4","last_reported":1679836167,"current_range_meters":29200,"station_id":"ce4bh492rcd13ifvqdug","pricing_plan_id":"free"},{"bike_id":"6e0fa8d1-ce95-4373-bc10-b9580087d5c3","system_id":"levelo_inurba_marseille","lat":43.286595,"lon":5.386795,"is_reserved":false,"is_disabled":false,"rental_uris":{"android":"levelo://app?vid=6e0fa8d1-ce95-4373-bc10-b9580087d5c3","ios":"levelo://app?vid=6e0fa8d1-ce95-4373-bc10-b9580087d5c3"},"vehicle_type_id":"4","last_reported":1679836167,"current_range_meters":30000,"station_id":"ce4bh492rcd13ifvqdug","pricing_plan_id":"free"},{"bike_id":"8d7d8ebd-bde4-404a-8043-01a1434196a3","system_id":"levelo_inurba_marseille","lat":43.333416,"lon":5.396576,"is_reserved":false,"is_disabled":false,"rental_uris":{"android":"levelo://app?vid=8d7d8ebd-bde4-404a-8043-01a1434196a3","ios":"levelo://app?vid=8d7d8ebd-bde4-404a-8043-01a1434196a3"},"vehicle_type_id":"4","last_reported":1679836167,"current_range_meters":6400,"station_id":"","pricing_plan_id":"free"},{"bike_id":"4da57056-3f8e-4bdf-96b7-6763ff047e6e","system_id":"levelo_inurba_marseille","lat":43.288631,"lon":5.393088,"is_reserved":false,"is_disabled":false,"rental_uris":{"android":"levelo://app?vid=4da57056-3f8e-4bdf-96b7-6763ff047e6e","ios":"levelo://app?vid=4da57056-3f8e-4bdf-96b7-6763ff047e6e"},"vehicle_type_id":"4","last_reported":1679836167,"current_range_meters":4400,"station_id":"ce4bh2p2rcd13ifvqdi0","pricing_plan_id":"free"},{"bike_id":"850e6db0-a11f-46b5-8f5a-8d373656f518","system_id":"levelo_inurba_marseille","lat":43.33913,"lon":5.39059,"is_reserved":false,"is_disabled":false,"rental_uris":{"android":"levelo://app?vid=850e6db0-a11f-46b5-8f5a-8d373656f518","ios":"levelo://app?vid=850e6db0-a11f-46b5-8f5a-8d373656f518"},"vehicle_type_id":"4","last_reported":1679836167,"current_range_meters":4400,"station_id":"","pricing_plan_id":"free"},{"bike_id":"3c3ba27c-4dae-430d-be01-695ac51d907f","system_id":"levelo_inurba_marseille","lat":43.320045,"lon":5.415048,"is_reserved":false,"is_disabled":false,"rental_uris":{"android":"levelo://app?vid=3c3ba27c-4dae-430d-be01-695ac51d907f","ios":"levelo://app?vid=3c3ba27c-4dae-430d-be01-695ac51d907f"},"vehicle_type_id":"4","last_reported":1679836167,"current_range_meters":15200,"station_id":"ce4bhq92rcd13ifvqhkg","pricing_plan_id":"free"},{"bike_id":"c6db513c-b662-4dbe-970e-76aff19e42fc","system_id":"levelo_inurba_marseille","lat":43.320045,"lon":5.415048,"is_reserved":false,"is_disabled":false,"rental_uris":{"android":"levelo://app?vid=c6db513c-b662-4dbe-970e-76aff19e42fc","ios":"levelo://app?vid=c6db513c-b662-4dbe-970e-76aff19e42fc"},"vehicle_type_id":"4","last_reported":1679836167,"current_range_meters":28000,"station_id":"ce4bhq92rcd13ifvqhkg","pricing_plan_id":"free"},{"bike_id":"90ca485c-6c7c-4ba2-ae71-03067e5fbc01","system_id":"levelo_inurba_marseille","lat":43.292571,"lon":5.409107,"is_reserved":false,"is_disabled":false,"rental_uris":{"android":"levelo://app?vid=90ca485c-6c7c-4ba2-ae71-03067e5fbc01","ios":"levelo://app?vid=90ca485c-6c7c-4ba2-ae71-03067e5fbc01"},"vehicle_type_id":"4","last_reported":1679836167,"current_range_meters":31600,"station_id":"ce4bh192rcd13ifvqdc0","pricing_plan_id":"free"},{"bike_id":"760ae107-75e5-4e80-b6b8-4bc7665fc613","system_id":"levelo_inurba_marseille","lat":43.27621,"lon":5.36109,"is_reserved":false,"is_disabled":false,"rental_uris":{"android":"levelo://app?vid=760ae107-75e5-4e80-b6b8-4bc7665fc613","ios":"levelo://app?vid=760ae107-75e5-4e80-b6b8-4bc7665fc613"},"vehicle_type_id":"4","last_reported":1679836167,"current_range_meters":7200,"station_id":"ce4bgj92rcd13ifvqbe0","pricing_plan_id":"free"},{"bike_id":"5f4b0c09-b432-407d-a565-9e9c399a6701","system_id":"levelo_inurba_marseille","lat":43.273613,"lon":5.362705,"is_reserved":false,"is_disabled":false,"rental_uris":{"android":"levelo://app?vid=5f4b0c09-b432-407d-a565-9e9c399a6701","ios":"levelo://app?vid=5f4b0c09-b432-407d-a565-9e9c399a6701"},"vehicle_type_id":"4","last_reported":1679836167,"current_range_meters":15600,"station_id":"ce4bhbh2rcd13ifvqeo0","pricing_plan_id":"free"},{"bike_id":"7f8d080b-dc52-40f6-8a3c-c689f6e1a519","system_id":"levelo_inurba_marseille","lat":43.273613,"lon":5.362705,"is_reserved":false,"is_disabled":false,"rental_uris":{"android":"levelo://app?vid=7f8d080b-dc52-40f6-8a3c-c689f6e1a519","ios":"levelo://app?vid=7f8d080b-dc52-40f6-8a3c-c689f6e1a519"},"vehicle_type_id":"4","last_reported":1679836167,"current_range_meters":10800,"station_id":"ce4bhbh2rcd13ifvqeo0","pricing_plan_id":"free"},{"bike_id":"87908f95-1537-4e06-8f32-a3e8f4fce202","system_id":"levelo_inurba_marseille","lat":43.273613,"lon":5.362705,"is_reserved":false,"is_disabled":false,"rental_uris":{"android":"levelo://app?vid=87908f95-1537-4e06-8f32-a3e8f4fce202","ios":"levelo://app?vid=87908f95-1537-4e06-8f32-a3e8f4fce202"},"vehicle_type_id":"4","last_reported":1679836167,"current_range_meters":6000,"station_id":"ce4bhbh2rcd13ifvqeo0","pricing_plan_id":"free"},{"bike_id":"7c55881e-2cc1-4590-b890-c5342600d0e5","system_id":"levelo_inurba_marseille","lat":43.27368,"lon":5.36259,"is_reserved":false,"is_disabled":false,"rental_uris":{"android":"levelo://app?vid=7c55881e-2cc1-4590-b890-c5342600d0e5","ios":"levelo://app?vid=7c55881e-2cc1-4590-b890-c5342600d0e5"},"vehicle_type_id":"4","last_reported":1679836167,"current_range_meters":8400,"station_id":"ce4bhbh2rcd13ifvqeo0","pricing_plan_id":"free"},{"bike_id":"8b550228-3e2c-4820-b5dd-2517fc89beb1","system_id":"levelo_inurba_marseille","lat":43.276771,"lon":5.388799,"is_reserved":false,"is_disabled":false,"rental_uris":{"android":"levelo://app?vid=8b550228-3e2c-4820-b5dd-2517fc89beb1","ios":"levelo://app?vid=8b550228-3e2c-4820-b5dd-2517fc89beb1"},"vehicle_type_id":"4","last_reported":1679836167,"current_range_meters":19600,"station_id":"ce4bhi12rcd13ifvqfo0","pricing_plan_id":"free"},{"bike_id":"38fa953e-2e65-490c-b3b6-39db714c8a46","system_id":"levelo_inurba_marseille","lat":43.276672,"lon":5.389108,"is_reserved":false,"is_disabled":false,"rental_uris":{"android":"levelo://app?vid=38fa953e-2e65-490c-b3b6-39db714c8a46","ios":"levelo://app?vid=38fa953e-2e65-490c-b3b6-39db714c8a46"},"vehicle_type_id":"4","last_reported":1679836167,"current_range_meters":0,"station_id":"","pricing_plan_id":"free"},{"bike_id":"c3caa3b5-31cd-4dad-8984-e7ced1309dda","system_id":"levelo_inurba_marseille","lat":43.27657,"lon":5.38933,"is_reserved":false,"is_disabled":false,"rental_uris":{"android":"levelo://app?vid=c3caa3b5-31cd-4dad-8984-e7ced1309dda","ios":"levelo://app?vid=c3caa3b5-31cd-4dad-8984-e7ced1309dda"},"vehicle_type_id":"4","last_reported":1679836167,"current_range_meters":0,"station_id":"","pricing_plan_id":"free"},{"bike_id":"c02163a6-d184-468e-9c77-ae31fb28422c","system_id":"levelo_inurba_marseille","lat":43.327275,"lon":5.417757,"is_reserved":false,"is_disabled":false,"rental_uris":{"android":"levelo://app?vid=c02163a6-d184-468e-9c77-ae31fb28422c","ios":"levelo://app?vid=c02163a6-d184-468e-9c77-ae31fb28422c"},"vehicle_type_id":"4","last_reported":1679836167,"current_range_meters":21600,"station_id":"","pricing_plan_id":"free"},{"bike_id":"22ad27df-cfa3-49f6-997a-79ef6860124d","system_id":"levelo_inurba_marseille","lat":43.327438,"lon":5.417852,"is_reserved":false,"is_disabled":false,"rental_uris":{"android":"levelo://app?vid=22ad27df-cfa3-49f6-997a-79ef6860124d","ios":"levelo://app?vid=22ad27df-cfa3-49f6-997a-79ef6860124d"},"vehicle_type_id":"4","last_reported":1679836167,"current_range_meters":22800,"station_id":"","pricing_plan_id":"free"},{"bike_id":"5b8c7613-c1ca-4704-9c7c-f4e4bc84549e","system_id":"levelo_inurba_marseille","lat":43.327409,"lon":5.418006,"is_reserved":false,"is_disabled":false,"rental_uris":{"android":"levelo://app?vid=5b8c7613-c1ca-4704-9c7c-f4e4bc84549e","ios":"levelo://app?vid=5b8c7613-c1ca-4704-9c7c-f4e4bc84549e"},"vehicle_type_id":"4","last_reported":1679836167,"current_range_meters":11200,"station_id":"","pricing_plan_id":"free"},{"bike_id":"22265915-a8b7-4f05-8584-1a3ceb018b3b","system_id":"levelo_inurba_marseille","lat":43.3269,"lon":5.41844,"is_reserved":false,"is_disabled":false,"rental_uris":{"android":"levelo://app?vid=22265915-a8b7-4f05-8584-1a3ceb018b3b","ios":"levelo://app?vid=22265915-a8b7-4f05-8584-1a3ceb018b3b"},"vehicle_type_id":"4","last_reported":1679836167,"current_range_meters":24800,"station_id":"","pricing_plan_id":"free"},{"bike_id":"cb661780-56c2-4509-8b3d-979c5b47237e","system_id":"levelo_inurba_marseille","lat":43.317158,"lon":5.423978,"is_reserved":false,"is_disabled":false,"rental_uris":{"android":"levelo://app?vid=cb661780-56c2-4509-8b3d-979c5b47237e","ios":"levelo://app?vid=cb661780-56c2-4509-8b3d-979c5b47237e"},"vehicle_type_id":"4","last_reported":1679836167,"current_range_meters":22800,"station_id":"ce4bhp92rcd13ifvqhbg","pricing_plan_id":"free"},{"bike_id":"27dd6ebd-f34f-4d2c-b6de-8c3bc51fb4a2","system_id":"levelo_inurba_marseille","lat":43.317121,"lon":5.423936,"is_reserved":false,"is_disabled":false,"rental_uris":{"android":"levelo://app?vid=27dd6ebd-f34f-4d2c-b6de-8c3bc51fb4a2","ios":"levelo://app?vid=27dd6ebd-f34f-4d2c-b6de-8c3bc51fb4a2"},"vehicle_type_id":"4","last_reported":1679836167,"current_range_meters":26800,"station_id":"ce4bhp92rcd13ifvqhbg","pricing_plan_id":"free"},{"bike_id":"f053765f-26ec-4465-ab2a-e491e25bd6bb","system_id":"levelo_inurba_marseille","lat":43.274103,"lon":5.394016,"is_reserved":false,"is_disabled":false,"rental_uris":{"android":"levelo://app?vid=f053765f-26ec-4465-ab2a-e491e25bd6bb","ios":"levelo://app?vid=f053765f-26ec-4465-ab2a-e491e25bd6bb"},"vehicle_type_id":"4","last_reported":1679836167,"current_range_meters":11600,"station_id":"ce4bhdp2rcd13ifvqf20","pricing_plan_id":"free"},{"bike_id":"270b640e-d001-4b1b-8378-3f8557922cd1","system_id":"levelo_inurba_marseille","lat":43.26884,"lon":5.36918,"is_reserved":false,"is_disabled":false,"rental_uris":{"android":"levelo://app?vid=270b640e-d001-4b1b-8378-3f8557922cd1","ios":"levelo://app?vid=270b640e-d001-4b1b-8378-3f8557922cd1"},"vehicle_type_id":"4","last_reported":1679836167,"current_range_meters":19200,"station_id":"","pricing_plan_id":"free"},{"bike_id":"e67ef78f-5824-4d2e-8479-027f6a58f647","system_id":"levelo_inurba_marseille","lat":43.26955,"lon":5.38631,"is_reserved":false,"is_disabled":false,"rental_uris":{"android":"levelo://app?vid=e67ef78f-5824-4d2e-8479-027f6a58f647","ios":"levelo://app?vid=e67ef78f-5824-4d2e-8479-027f6a58f647"},"vehicle_type_id":"4","last_reported":1679836167,"current_range_meters":21200,"station_id":"","pricing_plan_id":"free"},{"bike_id":"3c7b2e62-ceb5-41bf-bea9-95e01b2ae089","system_id":"levelo_inurba_marseille","lat":43.269252,"lon":5.389142,"is_reserved":false,"is_disabled":false,"rental_uris":{"android":"levelo://app?vid=3c7b2e62-ceb5-41bf-bea9-95e01b2ae089","ios":"levelo://app?vid=3c7b2e62-ceb5-41bf-bea9-95e01b2ae089"},"vehicle_type_id":"4","last_reported":1679836167,"current_range_meters":23200,"station_id":"","pricing_plan_id":"free"},{"bike_id":"57b68ded-989e-4bc6-b97b-d7e7bf5ed660","system_id":"levelo_inurba_marseille","lat":43.26889,"lon":5.38936,"is_reserved":false,"is_disabled":false,"rental_uris":{"android":"levelo://app?vid=57b68ded-989e-4bc6-b97b-d7e7bf5ed660","ios":"levelo://app?vid=57b68ded-989e-4bc6-b97b-d7e7bf5ed660"},"vehicle_type_id":"4","last_reported":1679836167,"current_range_meters":6400,"station_id":"","pricing_plan_id":"free"},{"bike_id":"550a9530-e5e8-456d-b2dc-2f9fbccaf65a","system_id":"levelo_inurba_marseille","lat":43.265554,"lon":5.372837,"is_reserved":false,"is_disabled":false,"rental_uris":{"android":"levelo://app?vid=550a9530-e5e8-456d-b2dc-2f9fbccaf65a","ios":"levelo://app?vid=550a9530-e5e8-456d-b2dc-2f9fbccaf65a"},"vehicle_type_id":"4","last_reported":1679836167,"current_range_meters":0,"station_id":"ce4bhg12rcd13ifvqf70","pricing_plan_id":"free"},{"bike_id":"e54b568e-e9ee-40dd-a2d6-55724adde75e","system_id":"levelo_inurba_marseille","lat":43.27998,"lon":5.41661,"is_reserved":false,"is_disabled":false,"rental_uris":{"android":"levelo://app?vid=e54b568e-e9ee-40dd-a2d6-55724adde75e","ios":"levelo://app?vid=e54b568e-e9ee-40dd-a2d6-55724adde75e"},"vehicle_type_id":"4","last_reported":1679836167,"current_range_meters":5600,"station_id":"","pricing_plan_id":"free"},{"bike_id":"75110817-fb13-4cb8-aa7b-598e555ae4ee","system_id":"levelo_inurba_marseille","lat":43.27997,"lon":5.41662,"is_reserved":false,"is_disabled":false,"rental_uris":{"android":"levelo://app?vid=75110817-fb13-4cb8-aa7b-598e555ae4ee","ios":"levelo://app?vid=75110817-fb13-4cb8-aa7b-598e555ae4ee"},"vehicle_type_id":"4","last_reported":1679836167,"current_range_meters":0,"station_id":"","pricing_plan_id":"free"},{"bike_id":"bca8e9ef-0dfc-4142-9dc5-c99b58fb7d9a","system_id":"levelo_inurba_marseille","lat":43.265569,"lon":5.390047,"is_reserved":false,"is_disabled":false,"rental_uris":{"android":"levelo://app?vid=bca8e9ef-0dfc-4142-9dc5-c99b58fb7d9a","ios":"levelo://app?vid=bca8e9ef-0dfc-4142-9dc5-c99b58fb7d9a"},"vehicle_type_id":"4","last_reported":1679836167,"current_range_meters":20000,"station_id":"ce4bhe12rcd13ifvqf30","pricing_plan_id":"free"},{"bike_id":"ca8cae45-34f4-4e2f-b62b-a97bc785f8d5","system_id":"levelo_inurba_marseille","lat":43.265569,"lon":5.390047,"is_reserved":false,"is_disabled":false,"rental_uris":{"android":"levelo://app?vid=ca8cae45-34f4-4e2f-b62b-a97bc785f8d5","ios":"levelo://app?vid=ca8cae45-34f4-4e2f-b62b-a97bc785f8d5"},"vehicle_type_id":"4","last_reported":1679836167,"current_range_meters":12000,"station_id":"ce4bhe12rcd13ifvqf30","pricing_plan_id":"free"},{"bike_id":"f4da5c1e-bb08-42ce-92e5-2768460b386c","system_id":"levelo_inurba_marseille","lat":43.331875,"lon":5.431811,"is_reserved":false,"is_disabled":false,"rental_uris":{"android":"levelo://app?vid=f4da5c1e-bb08-42ce-92e5-2768460b386c","ios":"levelo://app?vid=f4da5c1e-bb08-42ce-92e5-2768460b386c"},"vehicle_type_id":"4","last_reported":1679836167,"current_range_meters":12000,"station_id":"","pricing_plan_id":"free"},{"bike_id":"f23bc97c-b73e-4e52-8c48-ae03e525a7be","system_id":"levelo_inurba_marseille","lat":43.317104,"lon":5.436818,"is_reserved":false,"is_disabled":false,"rental_uris":{"android":"levelo://app?vid=f23bc97c-b73e-4e52-8c48-ae03e525a7be","ios":"levelo://app?vid=f23bc97c-b73e-4e52-8c48-ae03e525a7be"},"vehicle_type_id":"4","last_reported":1679836167,"current_range_meters":26800,"station_id":"ce4bhp92rcd13ifvqhcg","pricing_plan_id":"free"},{"bike_id":"705f0d3b-2170-4a5f-a16b-c8d85a9b5667","system_id":"levelo_inurba_marseille","lat":43.262,"lon":5.37925,"is_reserved":false,"is_disabled":false,"rental_uris":{"android":"levelo://app?vid=705f0d3b-2170-4a5f-a16b-c8d85a9b5667","ios":"levelo://app?vid=705f0d3b-2170-4a5f-a16b-c8d85a9b5667"},"vehicle_type_id":"4","last_reported":1679836167,"current_range_meters":0,"station_id":"","pricing_plan_id":"free"},{"bike_id":"e9616b65-7953-4437-a433-083bc2db52fd","system_id":"levelo_inurba_marseille","lat":43.260219,"lon":5.37546,"is_reserved":false,"is_disabled":false,"rental_uris":{"android":"levelo://app?vid=e9616b65-7953-4437-a433-083bc2db52fd","ios":"levelo://app?vid=e9616b65-7953-4437-a433-083bc2db52fd"},"vehicle_type_id":"4","last_reported":1679836167,"current_range_meters":19600,"station_id":"ce4bhgh2rcd13ifvqfa0","pricing_plan_id":"free"},{"bike_id":"009b46e7-b5a0-458f-8258-1b929860a422","system_id":"levelo_inurba_marseille","lat":43.26085,"lon":5.39767,"is_reserved":false,"is_disabled":false,"rental_uris":{"android":"levelo://app?vid=009b46e7-b5a0-458f-8258-1b929860a422","ios":"levelo://app?vid=009b46e7-b5a0-458f-8258-1b929860a422"},"vehicle_type_id":"4","last_reported":1679836167,"current_range_meters":18800,"station_id":"ce4bhi12rcd13ifvqfq0","pricing_plan_id":"free"},{"bike_id":"ea0ed105-f59c-4a9d-bda0-76ea532d3e01","system_id":"levelo_inurba_marseille","lat":43.254947,"lon":5.376454,"is_reserved":false,"is_disabled":false,"rental_uris":{"android":"levelo://app?vid=ea0ed105-f59c-4a9d-bda0-76ea532d3e01","ios":"levelo://app?vid=ea0ed105-f59c-4a9d-bda0-76ea532d3e01"},"vehicle_type_id":"4","last_reported":1679836167,"current_range_meters":18000,"station_id":"ce4bhh12rcd13ifvqff0","pricing_plan_id":"free"},{"bike_id":"0796b244-ef85-4de6-b61b-0f189dc4cd45","system_id":"levelo_inurba_marseille","lat":43.254945,"lon":5.376454,"is_reserved":false,"is_disabled":false,"rental_uris":{"android":"levelo://app?vid=0796b244-ef85-4de6-b61b-0f189dc4cd45","ios":"levelo://app?vid=0796b244-ef85-4de6-b61b-0f189dc4cd45"},"vehicle_type_id":"4","last_reported":1679836167,"current_range_meters":9200,"station_id":"ce4bhh12rcd13ifvqff0","pricing_plan_id":"free"},{"bike_id":"100e583c-6fdb-44c5-afb8-32b9304e5486","system_id":"levelo_inurba_marseille","lat":43.270721,"lon":5.422764,"is_reserved":false,"is_disabled":false,"rental_uris":{"android":"levelo://app?vid=100e583c-6fdb-44c5-afb8-32b9304e5486","ios":"levelo://app?vid=100e583c-6fdb-44c5-afb8-32b9304e5486"},"vehicle_type_id":"4","last_reported":1679836167,"current_range_meters":31600,"station_id":"ce4bhk92rcd13ifvqgb0","pricing_plan_id":"free"},{"bike_id":"6454b339-bd5b-4ac0-9c0a-839a22c03cdb","system_id":"levelo_inurba_marseille","lat":43.254906,"lon":5.376455,"is_reserved":false,"is_disabled":false,"rental_uris":{"android":"levelo://app?vid=6454b339-bd5b-4ac0-9c0a-839a22c03cdb","ios":"levelo://app?vid=6454b339-bd5b-4ac0-9c0a-839a22c03cdb"},"vehicle_type_id":"4","last_reported":1679836167,"current_range_meters":400,"station_id":"ce4bhh12rcd13ifvqff0","pricing_plan_id":"free"},{"bike_id":"78bffd31-14ea-40d8-8918-df4099ebc1ad","system_id":"levelo_inurba_marseille","lat":43.270721,"lon":5.422764,"is_reserved":false,"is_disabled":false,"rental_uris":{"android":"levelo://app?vid=78bffd31-14ea-40d8-8918-df4099ebc1ad","ios":"levelo://app?vid=78bffd31-14ea-40d8-8918-df4099ebc1ad"},"vehicle_type_id":"4","last_reported":1679836167,"current_range_meters":31600,"station_id":"ce4bhk92rcd13ifvqgb0","pricing_plan_id":"free"},{"bike_id":"48a13b07-28e1-42b4-ada4-ebb0e852c741","system_id":"levelo_inurba_marseille","lat":43.270721,"lon":5.422764,"is_reserved":false,"is_disabled":false,"rental_uris":{"android":"levelo://app?vid=48a13b07-28e1-42b4-ada4-ebb0e852c741","ios":"levelo://app?vid=48a13b07-28e1-42b4-ada4-ebb0e852c741"},"vehicle_type_id":"4","last_reported":1679836167,"current_range_meters":17600,"station_id":"ce4bhk92rcd13ifvqgb0","pricing_plan_id":"free"},{"bike_id":"738f1d7a-bdd4-46e1-8656-537a147d31d6","system_id":"levelo_inurba_marseille","lat":43.270721,"lon":5.422764,"is_reserved":false,"is_disabled":false,"rental_uris":{"android":"levelo://app?vid=738f1d7a-bdd4-46e1-8656-537a147d31d6","ios":"levelo://app?vid=738f1d7a-bdd4-46e1-8656-537a147d31d6"},"vehicle_type_id":"4","last_reported":1679836167,"current_range_meters":7200,"station_id":"ce4bhk92rcd13ifvqgb0","pricing_plan_id":"free"},{"bike_id":"882d57bb-a7a5-4505-8118-ee117afaecf0","system_id":"levelo_inurba_marseille","lat":43.270721,"lon":5.422764,"is_reserved":false,"is_disabled":false,"rental_uris":{"android":"levelo://app?vid=882d57bb-a7a5-4505-8118-ee117afaecf0","ios":"levelo://app?vid=882d57bb-a7a5-4505-8118-ee117afaecf0"},"vehicle_type_id":"4","last_reported":1679836167,"current_range_meters":31600,"station_id":"ce4bhk92rcd13ifvqgb0","pricing_plan_id":"free"},{"bike_id":"2a9f4f1c-f564-4dde-be09-1aeccbf4cbc3","system_id":"levelo_inurba_marseille","lat":43.270721,"lon":5.422764,"is_reserved":false,"is_disabled":false,"rental_uris":{"android":"levelo://app?vid=2a9f4f1c-f564-4dde-be09-1aeccbf4cbc3","ios":"levelo://app?vid=2a9f4f1c-f564-4dde-be09-1aeccbf4cbc3"},"vehicle_type_id":"4","last_reported":1679836167,"current_range_meters":18800,"station_id":"ce4bhk92rcd13ifvqgb0","pricing_plan_id":"free"},{"bike_id":"c939ad30-3cee-4c23-835e-f27196620255","system_id":"levelo_inurba_marseille","lat":43.270721,"lon":5.422764,"is_reserved":false,"is_disabled":false,"rental_uris":{"android":"levelo://app?vid=c939ad30-3cee-4c23-835e-f27196620255","ios":"levelo://app?vid=c939ad30-3cee-4c23-835e-f27196620255"},"vehicle_type_id":"4","last_reported":1679836167,"current_range_meters":30000,"station_id":"ce4bhk92rcd13ifvqgb0","pricing_plan_id":"free"},{"bike_id":"4891d836-836e-4e2f-9f22-7c181755bf63","system_id":"levelo_inurba_marseille","lat":43.270721,"lon":5.422764,"is_reserved":false,"is_disabled":false,"rental_uris":{"android":"levelo://app?vid=4891d836-836e-4e2f-9f22-7c181755bf63","ios":"levelo://app?vid=4891d836-836e-4e2f-9f22-7c181755bf63"},"vehicle_type_id":"4","last_reported":1679836167,"current_range_meters":31600,"station_id":"ce4bhk92rcd13ifvqgb0","pricing_plan_id":"free"},{"bike_id":"f3197292-b475-4d59-81ae-0a82baf6d5f8","system_id":"levelo_inurba_marseille","lat":43.258658,"lon":5.398935,"is_reserved":false,"is_disabled":false,"rental_uris":{"android":"levelo://app?vid=f3197292-b475-4d59-81ae-0a82baf6d5f8","ios":"levelo://app?vid=f3197292-b475-4d59-81ae-0a82baf6d5f8"},"vehicle_type_id":"4","last_reported":1679836167,"current_range_meters":0,"station_id":"ce4bhl92rcd13ifvqghg","pricing_plan_id":"free"},{"bike_id":"835976a9-7448-4520-8cd6-ce03d048c117","system_id":"levelo_inurba_marseille","lat":43.246461,"lon":5.389014,"is_reserved":false,"is_disabled":false,"rental_uris":{"android":"levelo://app?vid=835976a9-7448-4520-8cd6-ce03d048c117","ios":"levelo://app?vid=835976a9-7448-4520-8cd6-ce03d048c117"},"vehicle_type_id":"4","last_reported":1679836167,"current_range_meters":11600,"station_id":"ce4bhg12rcd13ifvqf60","pricing_plan_id":"free"},{"bike_id":"90b3947b-ba20-4c89-9b3b-7890edffcb82","system_id":"levelo_inurba_marseille","lat":43.246467,"lon":5.388984,"is_reserved":false,"is_disabled":false,"rental_uris":{"android":"levelo://app?vid=90b3947b-ba20-4c89-9b3b-7890edffcb82","ios":"levelo://app?vid=90b3947b-ba20-4c89-9b3b-7890edffcb82"},"vehicle_type_id":"4","last_reported":1679836167,"current_range_meters":30800,"station_id":"ce4bhg12rcd13ifvqf60","pricing_plan_id":"free"},{"bike_id":"21f32399-16a7-409e-800d-5ac76b6aab2e","system_id":"levelo_inurba_marseille","lat":43.249249,"lon":5.408949,"is_reserved":false,"is_disabled":false,"rental_uris":{"android":"levelo://app?vid=21f32399-16a7-409e-800d-5ac76b6aab2e","ios":"levelo://app?vid=21f32399-16a7-409e-800d-5ac76b6aab2e"},"vehicle_type_id":"4","last_reported":1679836167,"current_range_meters":15200,"station_id":"","pricing_plan_id":"free"},{"bike_id":"1fde9e1d-5fd5-477c-9d4f-1dd57ba6b1b7","system_id":"levelo_inurba_marseille","lat":43.240623,"lon":5.377642,"is_reserved":false,"is_disabled":false,"rental_uris":{"android":"levelo://app?vid=1fde9e1d-5fd5-477c-9d4f-1dd57ba6b1b7","ios":"levelo://app?vid=1fde9e1d-5fd5-477c-9d4f-1dd57ba6b1b7"},"vehicle_type_id":"4","last_reported":1679836167,"current_range_meters":31600,"station_id":"ce4bhnp2rcd13ifvqgvg","pricing_plan_id":"free"},{"bike_id":"edc033ee-e595-4742-b950-9469c4b488ff","system_id":"levelo_inurba_marseille","lat":43.240753,"lon":5.377599,"is_reserved":false,"is_disabled":false,"rental_uris":{"android":"levelo://app?vid=edc033ee-e595-4742-b950-9469c4b488ff","ios":"levelo://app?vid=edc033ee-e595-4742-b950-9469c4b488ff"},"vehicle_type_id":"4","last_reported":1679836167,"current_range_meters":8000,"station_id":"","pricing_plan_id":"free"},{"bike_id":"5e3ad079-aeb8-4a5f-844e-a938f67b5f37","system_id":"levelo_inurba_marseille","lat":43.240623,"lon":5.377642,"is_reserved":false,"is_disabled":false,"rental_uris":{"android":"levelo://app?vid=5e3ad079-aeb8-4a5f-844e-a938f67b5f37","ios":"levelo://app?vid=5e3ad079-aeb8-4a5f-844e-a938f67b5f37"},"vehicle_type_id":"4","last_reported":1679836167,"current_range_meters":31600,"station_id":"ce4bhnp2rcd13ifvqgvg","pricing_plan_id":"free"},{"bike_id":"a8f2553e-2527-4fc0-a0ee-314f4c4efb8c","system_id":"levelo_inurba_marseille","lat":43.240623,"lon":5.377642,"is_reserved":false,"is_disabled":false,"rental_uris":{"android":"levelo://app?vid=a8f2553e-2527-4fc0-a0ee-314f4c4efb8c","ios":"levelo://app?vid=a8f2553e-2527-4fc0-a0ee-314f4c4efb8c"},"vehicle_type_id":"4","last_reported":1679836167,"current_range_meters":9200,"station_id":"ce4bhnp2rcd13ifvqgvg","pricing_plan_id":"free"},{"bike_id":"5c5f1768-53cf-41fd-afeb-97e40072bddf","system_id":"levelo_inurba_marseille","lat":43.240623,"lon":5.377642,"is_reserved":false,"is_disabled":false,"rental_uris":{"android":"levelo://app?vid=5c5f1768-53cf-41fd-afeb-97e40072bddf","ios":"levelo://app?vid=5c5f1768-53cf-41fd-afeb-97e40072bddf"},"vehicle_type_id":"4","last_reported":1679836167,"current_range_meters":22400,"station_id":"ce4bhnp2rcd13ifvqgvg","pricing_plan_id":"free"},{"bike_id":"784bdc44-4e09-42f1-bbe2-438d219b4daf","system_id":"levelo_inurba_marseille","lat":43.240623,"lon":5.377642,"is_reserved":false,"is_disabled":false,"rental_uris":{"android":"levelo://app?vid=784bdc44-4e09-42f1-bbe2-438d219b4daf","ios":"levelo://app?vid=784bdc44-4e09-42f1-bbe2-438d219b4daf"},"vehicle_type_id":"4","last_reported":1679836167,"current_range_meters":5200,"station_id":"ce4bhnp2rcd13ifvqgvg","pricing_plan_id":"free"},{"bike_id":"c54e1cc4-317c-4067-b789-86b048c56c36","system_id":"levelo_inurba_marseille","lat":43.240623,"lon":5.377642,"is_reserved":false,"is_disabled":false,"rental_uris":{"android":"levelo://app?vid=c54e1cc4-317c-4067-b789-86b048c56c36","ios":"levelo://app?vid=c54e1cc4-317c-4067-b789-86b048c56c36"},"vehicle_type_id":"4","last_reported":1679836167,"current_range_meters":30000,"station_id":"ce4bhnp2rcd13ifvqgvg","pricing_plan_id":"free"},{"bike_id":"57feac5e-69b3-4391-bdfe-165f6384a4e5","system_id":"levelo_inurba_marseille","lat":43.240623,"lon":5.377642,"is_reserved":false,"is_disabled":false,"rental_uris":{"android":"levelo://app?vid=57feac5e-69b3-4391-bdfe-165f6384a4e5","ios":"levelo://app?vid=57feac5e-69b3-4391-bdfe-165f6384a4e5"},"vehicle_type_id":"4","last_reported":1679836167,"current_range_meters":1600,"station_id":"ce4bhnp2rcd13ifvqgvg","pricing_plan_id":"free"},{"bike_id":"33748097-e607-491d-843a-8646283e26a7","system_id":"levelo_inurba_marseille","lat":43.240623,"lon":5.377642,"is_reserved":false,"is_disabled":false,"rental_uris":{"android":"levelo://app?vid=33748097-e607-491d-843a-8646283e26a7","ios":"levelo://app?vid=33748097-e607-491d-843a-8646283e26a7"},"vehicle_type_id":"4","last_reported":1679836167,"current_range_meters":31600,"station_id":"ce4bhnp2rcd13ifvqgvg","pricing_plan_id":"free"},{"bike_id":"689f62ea-a6a0-496d-a66c-858035949243","system_id":"levelo_inurba_marseille","lat":43.240623,"lon":5.377642,"is_reserved":false,"is_disabled":false,"rental_uris":{"android":"levelo://app?vid=689f62ea-a6a0-496d-a66c-858035949243","ios":"levelo://app?vid=689f62ea-a6a0-496d-a66c-858035949243"},"vehicle_type_id":"4","last_reported":1679836167,"current_range_meters":21200,"station_id":"ce4bhnp2rcd13ifvqgvg","pricing_plan_id":"free"},{"bike_id":"2e44cd6d-241f-4fd5-b564-48f2b9876282","system_id":"levelo_inurba_marseille","lat":43.2407,"lon":5.37765,"is_reserved":false,"is_disabled":false,"rental_uris":{"android":"levelo://app?vid=2e44cd6d-241f-4fd5-b564-48f2b9876282","ios":"levelo://app?vid=2e44cd6d-241f-4fd5-b564-48f2b9876282"},"vehicle_type_id":"4","last_reported":1679836167,"current_range_meters":31600,"station_id":"ce4bhnp2rcd13ifvqgvg","pricing_plan_id":"free"},{"bike_id":"d26d963a-c682-4ea1-94a9-9efbead9eacb","system_id":"levelo_inurba_marseille","lat":43.240623,"lon":5.377642,"is_reserved":false,"is_disabled":false,"rental_uris":{"android":"levelo://app?vid=d26d963a-c682-4ea1-94a9-9efbead9eacb","ios":"levelo://app?vid=d26d963a-c682-4ea1-94a9-9efbead9eacb"},"vehicle_type_id":"4","last_reported":1679836167,"current_range_meters":18000,"station_id":"ce4bhnp2rcd13ifvqgvg","pricing_plan_id":"free"},{"bike_id":"50581019-90cb-4258-83ae-610d9c4b3f45","system_id":"levelo_inurba_marseille","lat":43.240623,"lon":5.377642,"is_reserved":false,"is_disabled":false,"rental_uris":{"android":"levelo://app?vid=50581019-90cb-4258-83ae-610d9c4b3f45","ios":"levelo://app?vid=50581019-90cb-4258-83ae-610d9c4b3f45"},"vehicle_type_id":"4","last_reported":1679836167,"current_range_meters":20400,"station_id":"ce4bhnp2rcd13ifvqgvg","pricing_plan_id":"free"},{"bike_id":"229f0286-aa5b-4a20-89ae-0cbe746d5285","system_id":"levelo_inurba_marseille","lat":43.239588,"lon":5.366238,"is_reserved":false,"is_disabled":false,"rental_uris":{"android":"levelo://app?vid=229f0286-aa5b-4a20-89ae-0cbe746d5285","ios":"levelo://app?vid=229f0286-aa5b-4a20-89ae-0cbe746d5285"},"vehicle_type_id":"4","last_reported":1679836167,"current_range_meters":28000,"station_id":"ce4bhi12rcd13ifvqfp0","pricing_plan_id":"free"},{"bike_id":"5ca52850-5f1e-413d-98d4-a54a4c367c1d","system_id":"levelo_inurba_marseille","lat":43.239588,"lon":5.366238,"is_reserved":false,"is_disabled":false,"rental_uris":{"android":"levelo://app?vid=5ca52850-5f1e-413d-98d4-a54a4c367c1d","ios":"levelo://app?vid=5ca52850-5f1e-413d-98d4-a54a4c367c1d"},"vehicle_type_id":"4","last_reported":1679836167,"current_range_meters":16400,"station_id":"ce4bhi12rcd13ifvqfp0","pricing_plan_id":"free"},{"bike_id":"9340015d-40f4-42f6-9cfc-135e11dfb166","system_id":"levelo_inurba_marseille","lat":43.239588,"lon":5.366238,"is_reserved":false,"is_disabled":false,"rental_uris":{"android":"levelo://app?vid=9340015d-40f4-42f6-9cfc-135e11dfb166","ios":"levelo://app?vid=9340015d-40f4-42f6-9cfc-135e11dfb166"},"vehicle_type_id":"4","last_reported":1679836167,"current_range_meters":31200,"station_id":"ce4bhi12rcd13ifvqfp0","pricing_plan_id":"free"},{"bike_id":"4baa9d5b-9814-4c7d-b8a9-216e46cd561c","system_id":"levelo_inurba_marseille","lat":43.239588,"lon":5.366238,"is_reserved":false,"is_disabled":false,"rental_uris":{"android":"levelo://app?vid=4baa9d5b-9814-4c7d-b8a9-216e46cd561c","ios":"levelo://app?vid=4baa9d5b-9814-4c7d-b8a9-216e46cd561c"},"vehicle_type_id":"4","last_reported":1679836167,"current_range_meters":26000,"station_id":"ce4bhi12rcd13ifvqfp0","pricing_plan_id":"free"},{"bike_id":"6844bf9d-07b8-4985-b6c5-adbb0c847735","system_id":"levelo_inurba_marseille","lat":43.239588,"lon":5.366238,"is_reserved":false,"is_disabled":false,"rental_uris":{"android":"levelo://app?vid=6844bf9d-07b8-4985-b6c5-adbb0c847735","ios":"levelo://app?vid=6844bf9d-07b8-4985-b6c5-adbb0c847735"},"vehicle_type_id":"4","last_reported":1679836167,"current_range_meters":26000,"station_id":"ce4bhi12rcd13ifvqfp0","pricing_plan_id":"free"},{"bike_id":"a4311d39-b784-4b05-99f4-7fe6e982690d","system_id":"levelo_inurba_marseille","lat":43.239588,"lon":5.366238,"is_reserved":false,"is_disabled":false,"rental_uris":{"android":"levelo://app?vid=a4311d39-b784-4b05-99f4-7fe6e982690d","ios":"levelo://app?vid=a4311d39-b784-4b05-99f4-7fe6e982690d"},"vehicle_type_id":"4","last_reported":1679836167,"current_range_meters":28400,"station_id":"ce4bhi12rcd13ifvqfp0","pricing_plan_id":"free"},{"bike_id":"99ec9591-689f-43c6-b4f0-94293b068ab3","system_id":"levelo_inurba_marseille","lat":43.243795,"lon":5.403077,"is_reserved":false,"is_disabled":false,"rental_uris":{"android":"levelo://app?vid=99ec9591-689f-43c6-b4f0-94293b068ab3","ios":"levelo://app?vid=99ec9591-689f-43c6-b4f0-94293b068ab3"},"vehicle_type_id":"4","last_reported":1679836167,"current_range_meters":12800,"station_id":"","pricing_plan_id":"free"},{"bike_id":"1d74a1ce-7415-4c1b-a8cd-fcf1ff224d91","system_id":"levelo_inurba_marseille","lat":43.241782,"lon":5.397264,"is_reserved":false,"is_disabled":false,"rental_uris":{"android":"levelo://app?vid=1d74a1ce-7415-4c1b-a8cd-fcf1ff224d91","ios":"levelo://app?vid=1d74a1ce-7415-4c1b-a8cd-fcf1ff224d91"},"vehicle_type_id":"4","last_reported":1679836167,"current_range_meters":31600,"station_id":"ce4bhn12rcd13ifvqgpg","pricing_plan_id":"free"},{"bike_id":"b913ffca-5803-4863-9a4e-8528e6e8bcb0","system_id":"levelo_inurba_marseille","lat":43.241782,"lon":5.397264,"is_reserved":false,"is_disabled":false,"rental_uris":{"android":"levelo://app?vid=b913ffca-5803-4863-9a4e-8528e6e8bcb0","ios":"levelo://app?vid=b913ffca-5803-4863-9a4e-8528e6e8bcb0"},"vehicle_type_id":"4","last_reported":1679836167,"current_range_meters":30800,"station_id":"ce4bhn12rcd13ifvqgpg","pricing_plan_id":"free"},{"bike_id":"a6404708-ffea-432e-9e01-7863ba0eff65","system_id":"levelo_inurba_marseille","lat":43.241782,"lon":5.397264,"is_reserved":false,"is_disabled":false,"rental_uris":{"android":"levelo://app?vid=a6404708-ffea-432e-9e01-7863ba0eff65","ios":"levelo://app?vid=a6404708-ffea-432e-9e01-7863ba0eff65"},"vehicle_type_id":"4","last_reported":1679836167,"current_range_meters":9600,"station_id":"ce4bhn12rcd13ifvqgpg","pricing_plan_id":"free"},{"bike_id":"27566b3c-8029-4fa1-a78f-d2789884e971","system_id":"levelo_inurba_marseille","lat":43.23197,"lon":5.35551,"is_reserved":false,"is_disabled":false,"rental_uris":{"android":"levelo://app?vid=27566b3c-8029-4fa1-a78f-d2789884e971","ios":"levelo://app?vid=27566b3c-8029-4fa1-a78f-d2789884e971"},"vehicle_type_id":"4","last_reported":1679836167,"current_range_meters":13200,"station_id":"ce4bhu92rcd13ifvqi70","pricing_plan_id":"free"},{"bike_id":"c38dd7e6-fc1c-434d-9c6a-2f2a689c714d","system_id":"levelo_inurba_marseille","lat":43.231919,"lon":5.355532,"is_reserved":false,"is_disabled":false,"rental_uris":{"android":"levelo://app?vid=c38dd7e6-fc1c-434d-9c6a-2f2a689c714d","ios":"levelo://app?vid=c38dd7e6-fc1c-434d-9c6a-2f2a689c714d"},"vehicle_type_id":"4","last_reported":1679836167,"current_range_meters":29200,"station_id":"ce4bhu92rcd13ifvqi70","pricing_plan_id":"free"},{"bike_id":"c270a1e3-43ae-4aea-843c-6dfed7dddc37","system_id":"levelo_inurba_marseille","lat":43.231923,"lon":5.355545,"is_reserved":false,"is_disabled":false,"rental_uris":{"android":"levelo://app?vid=c270a1e3-43ae-4aea-843c-6dfed7dddc37","ios":"levelo://app?vid=c270a1e3-43ae-4aea-843c-6dfed7dddc37"},"vehicle_type_id":"4","last_reported":1679836167,"current_range_meters":18800,"station_id":"ce4bhu92rcd13ifvqi70","pricing_plan_id":"free"},{"bike_id":"ee79990d-8d6d-406d-a5d8-f9acfda9baab","system_id":"levelo_inurba_marseille","lat":43.231919,"lon":5.355532,"is_reserved":false,"is_disabled":false,"rental_uris":{"android":"levelo://app?vid=ee79990d-8d6d-406d-a5d8-f9acfda9baab","ios":"levelo://app?vid=ee79990d-8d6d-406d-a5d8-f9acfda9baab"},"vehicle_type_id":"4","last_reported":1679836167,"current_range_meters":10800,"station_id":"ce4bhu92rcd13ifvqi70","pricing_plan_id":"free"},{"bike_id":"efcae155-1c71-4fbb-8b8f-d92e90d66597","system_id":"levelo_inurba_marseille","lat":43.231939,"lon":5.355515,"is_reserved":false,"is_disabled":false,"rental_uris":{"android":"levelo://app?vid=efcae155-1c71-4fbb-8b8f-d92e90d66597","ios":"levelo://app?vid=efcae155-1c71-4fbb-8b8f-d92e90d66597"},"vehicle_type_id":"4","last_reported":1679836167,"current_range_meters":22400,"station_id":"ce4bhu92rcd13ifvqi70","pricing_plan_id":"free"},{"bike_id":"efd8bee3-0701-4f17-bc40-dd202ec8a974","system_id":"levelo_inurba_marseille","lat":43.231923,"lon":5.355545,"is_reserved":false,"is_disabled":false,"rental_uris":{"android":"levelo://app?vid=efd8bee3-0701-4f17-bc40-dd202ec8a974","ios":"levelo://app?vid=efd8bee3-0701-4f17-bc40-dd202ec8a974"},"vehicle_type_id":"4","last_reported":1679836167,"current_range_meters":6800,"station_id":"ce4bhu92rcd13ifvqi70","pricing_plan_id":"free"},{"bike_id":"44a697e7-a1dc-4ded-8da8-8190698f2124","system_id":"levelo_inurba_marseille","lat":43.231919,"lon":5.355532,"is_reserved":false,"is_disabled":false,"rental_uris":{"android":"levelo://app?vid=44a697e7-a1dc-4ded-8da8-8190698f2124","ios":"levelo://app?vid=44a697e7-a1dc-4ded-8da8-8190698f2124"},"vehicle_type_id":"4","last_reported":1679836167,"current_range_meters":9600,"station_id":"ce4bhu92rcd13ifvqi70","pricing_plan_id":"free"}]}}