{"last_updated":1739815930,"ttl":60,"version":"2.2","data":{"bikes":[{"bike_id":"3854882a-04fc-4d87-b42d-ac3746abbb84","system_id":"levelo_inurba_marseille","lat":43.269569,"lon":5.386293,"is_reserved":false,"is_disabled":false,"rental_uris":{"android":"levelo://app?vid=3854882a-04fc-4d87-b42d-ac3746abbb84","ios":"levelo://app?vid=3854882a-04fc-4d87-b42d-ac3746abbb84"},"vehicle_type_id":"4","last_reported":1739815931,"current_range_meters":400,"station_id":"ce4bhjp2rcd13ifvqga0","pricing_plan_id":"cebpf4jnsgd1na2vs0mg"},{"bike_id":"18332cc9-0f16-4941-9018-c3813354a900","system_id":"levelo_inurba_marseille","lat":43.2762,"lon":5.39344,"is_reserved":false,"is_disabled":true,"rental_uris":{"android":"levelo://app?vid=18332cc9-0f16-4941-9018-c3813354a900","ios":"levelo://app?vid=18332cc9-0f16-4941-9018-c3813354a900"},"vehicle_type_id":"4","last_reported":1739815931,"current_range_meters":2800,"station_id":"","pricing_plan_id":"cebpf4jnsgd1na2vs0mg"},{"bike_id":"06186b5a-edc6-4cf9-afae-1b86ce00446a","system_id":"levelo_inurba_marseille","lat":43.28691,"lon":5.38338,"is_reserved":false,"is_disabled":false,"rental_uris":{"android":"levelo://app?vid=06186b5a-edc6-4cf9-afae-1b86ce00446a","ios":"levelo://app?vid=06186b5a-edc6-4cf9-afae-1b86ce00446a"},"vehicle_type_id":"4","last_reported":1739815931,"current_range_meters":2800,"station_id":"","pricing_plan_id":"cebpf4jnsgd1na2vs0mg"},{"bike_id":"31846ea2-cdfb-441a-a907-8c716455882f","system_id":"levelo_inurba_marseille","lat":43.27905,"lon":5.38027,"is_reserved":false,"is_disabled":false,"rental_uris":{"android":"levelo://app?vid=31846ea2-cdfb-441a-a907-8c716455882f","ios":"levelo://app?vid=31846ea2-cdfb-441a-a907-8c716455882f"},"vehicle_type_id":"4","last_reported":1739815931,"current_range_meters":3200,"station_id":"ce4bhf92rcd13ifvqf50","pricing_plan_id":"cebpf4jnsgd1na2vs0mg"},{"bike_id":"08cd6744-10bc-4525-8709-c0c9eaae2b7d","system_id":"levelo_inurba_marseille","lat":43.24661,"lon":5.38905,"is_reserved":false,"is_disabled":true,"rental_uris":{"android":"levelo://app?vid=08cd6744-10bc-4525-8709-c0c9eaae2b7d","ios":"levelo://app?vid=08cd6744-10bc-4525-8709-c0c9eaae2b7d"},"vehicle_type_id":"4","last_reported":1739815931,"current_range_meters":3200,"station_id":"ce4bhg12rcd13ifvqf60","pricing_plan_id":"cebpf4jnsgd1na2vs0mg"},{"bike_id":"6dc7fa8c-1042-4821-a7ca-4c7318a1dbc2","system_id":"levelo_inurba_marseille","lat":43.29851,"lon":5.36288,"is_reserved":false,"is_disabled":false,"rental_uris":{"android":"levelo://app?vid=6dc7fa8c-1042-4821-a7ca-4c7318a1dbc2","ios":"levelo://app?vid=6dc7fa8c-1042-4821-a7ca-4c7318a1dbc2"},"vehicle_type_id":"4","last_reported":1739815931,"current_range_meters":3200,"station_id":"","pricing_plan_id":"cebpf4jnsgd1na2vs0mg"},{"bike_id":"c371c994-1bcd-47c1-9558-a66af7a48beb","system_id":"levelo_inurba_marseille","lat":43.29262,"lon":5.38433,"is_reserved":false,"is_disabled":false,"rental_uris":{"android":"levelo://app?vid=c371c994-1bcd-47c1-9558-a66af7a48beb","ios":"levelo://app?vid=c371c994-1bcd-47c1-9558-a66af7a48beb"},"vehicle_type_id":"4","last_reported":1739815931,"current_range_meters":0,"station_id":"ce4bh692rcd13ifvqea0","pricing_plan_id":"cebpf4jnsgd1na2vs0mg"},{"bike_id":"26df165d-382b-4d34-8eee-f36a8b368a2c","system_id":"levelo_inurba_marseille","lat":43.23961,"lon":5.36635,"is_reserved":false,"is_disabled":false,"rental_uris":{"android":"levelo://app?vid=26df165d-382b-4d34-8eee-f36a8b368a2c","ios":"levelo://app?vid=26df165d-382b-4d34-8eee-f36a8b368a2c"},"vehicle_type_id":"4","last_reported":1739815931,"current_range_meters":3600,"station_id":"","pricing_plan_id":"cebpf4jnsgd1na2vs0mg"},{"bike_id":"4815af5e-f321-4a3b-ac97-f968dc038c10","system_id":"levelo_inurba_marseille","lat":43.29538,"lon":5.38535,"is_reserved":false,"is_disabled":false,"rental_uris":{"android":"levelo://app?vid=4815af5e-f321-4a3b-ac97-f968dc038c10","ios":"levelo://app?vid=4815af5e-f321-4a3b-ac97-f968dc038c10"},"vehicle_type_id":"4","last_reported":1739815931,"current_range_meters":3600,"station_id":"ce4bgih2rcd13ifvqba0","pricing_plan_id":"cebpf4jnsgd1na2vs0mg"},{"bike_id":"21f6f658-5216-4780-a8e1-48ebe22c20e8","system_id":"levelo_inurba_marseille","lat":43.29964,"lon":5.3717,"is_reserved":false,"is_disabled":false,"rental_uris":{"android":"levelo://app?vid=21f6f658-5216-4780-a8e1-48ebe22c20e8","ios":"levelo://app?vid=21f6f658-5216-4780-a8e1-48ebe22c20e8"},"vehicle_type_id":"4","last_reported":1739815931,"current_range_meters":3600,"station_id":"ce4bgr92rcd13ifvqc7g","pricing_plan_id":"cebpf4jnsgd1na2vs0mg"},{"bike_id":"ed1c4af4-df7f-4fb5-9be7-193e05e5bfc9","system_id":"levelo_inurba_marseille","lat":43.29287,"lon":5.37441,"is_reserved":false,"is_disabled":false,"rental_uris":{"android":"levelo://app?vid=ed1c4af4-df7f-4fb5-9be7-193e05e5bfc9","ios":"levelo://app?vid=ed1c4af4-df7f-4fb5-9be7-193e05e5bfc9"},"vehicle_type_id":"4","last_reported":1739815931,"current_range_meters":3600,"station_id":"ce4bgi12rcd13ifvqb70","pricing_plan_id":"cebpf4jnsgd1na2vs0mg"},{"bike_id":"98344323-3975-4149-b3de-c4a2b575e8e9","system_id":"levelo_inurba_marseille","lat":43.30476,"lon":5.37898,"is_reserved":false,"is_disabled":false,"rental_uris":{"android":"levelo://app?vid=98344323-3975-4149-b3de-c4a2b575e8e9","ios":"levelo://app?vid=98344323-3975-4149-b3de-c4a2b575e8e9"},"vehicle_type_id":"4","last_reported":1739815931,"current_range_meters":2800,"station_id":"ce4bgup2rcd13ifvqcn0","pricing_plan_id":"cebpf4jnsgd1na2vs0mg"},{"bike_id":"2d34bfe2-5d4c-4e5b-8496-07499a4f36b9","system_id":"levelo_inurba_marseille","lat":43.29166,"lon":5.3581,"is_reserved":false,"is_disabled":false,"rental_uris":{"android":"levelo://app?vid=2d34bfe2-5d4c-4e5b-8496-07499a4f36b9","ios":"levelo://app?vid=2d34bfe2-5d4c-4e5b-8496-07499a4f36b9"},"vehicle_type_id":"4","last_reported":1739815931,"current_range_meters":3600,"station_id":"ce4bhb12rcd13ifvqel0","pricing_plan_id":"cebpf4jnsgd1na2vs0mg"},{"bike_id":"3ef5e7c4-474f-441a-ad4f-51720c30cd1a","system_id":"levelo_inurba_marseille","lat":43.3141,"lon":5.3736,"is_reserved":false,"is_disabled":false,"rental_uris":{"android":"levelo://app?vid=3ef5e7c4-474f-441a-ad4f-51720c30cd1a","ios":"levelo://app?vid=3ef5e7c4-474f-441a-ad4f-51720c30cd1a"},"vehicle_type_id":"4","last_reported":1739815931,"current_range_meters":3600,"station_id":"","pricing_plan_id":"cebpf4jnsgd1na2vs0mg"},{"bike_id":"4e7beed8-3f51-4c59-a37c-0ac46140a818","system_id":"levelo_inurba_marseille","lat":43.26944,"lon":5.38635,"is_reserved":false,"is_disabled":true,"rental_uris":{"android":"levelo://app?vid=4e7beed8-3f51-4c59-a37c-0ac46140a818","ios":"levelo://app?vid=4e7beed8-3f51-4c59-a37c-0ac46140a818"},"vehicle_type_id":"4","last_reported":1739815931,"current_range_meters":3600,"station_id":"","pricing_plan_id":"cebpf4jnsgd1na2vs0mg"},{"bike_id":"ae0bcafb-804c-427d-9b60-c8f530f72ae5","system_id":"levelo_inurba_marseille","lat":43.27573,"lon":5.38426,"is_reserved":false,"is_disabled":false,"rental_uris":{"android":"levelo://app?vid=ae0bcafb-804c-427d-9b60-c8f530f72ae5","ios":"levelo://app?vid=ae0bcafb-804c-427d-9b60-c8f530f72ae5"},"vehicle_type_id":"4","last_reported":1739815931,"current_range_meters":3600,"station_id":"ce4bhh92rcd13ifvqfi0","pricing_plan_id":"cebpf4jnsgd1na2vs0mg"},{"bike_id":"bb467ea0-da62-4286-823f-d169236eb93e","system_id":"levelo_inurba_marseille","lat":43.28937,"lon":5.36636,"is_reserved":false,"is_disabled":false,"rental_uris":{"android":"levelo://app?vid=bb467ea0-da62-4286-823f-d169236eb93e","ios":"levelo://app?vid=bb467ea0-da62-4286-823f-d169236eb93e"},"vehicle_type_id":"4","last_reported":1739815931,"current_range_meters":4000,"station_id":"ce4bhap2rcd13ifvqek0","pricing_plan_id":"cebpf4jnsgd1na2vs0mg"},{"bike_id":"bcad778e-3bdd-40ec-bfcd-19b0a95f2e62","system_id":"levelo_inurba_marseille","lat":43.26942,"lon":5.38918,"is_reserved":false,"is_disabled":false,"rental_uris":{"android":"levelo://app?vid=bcad778e-3bdd-40ec-bfcd-19b0a95f2e62","ios":"levelo://app?vid=bcad778e-3bdd-40ec-bfcd-19b0a95f2e62"},"vehicle_type_id":"4","last_reported":1739815931,"current_range_meters":4000,"station_id":"ce4bhhh2rcd13ifvqfl0","pricing_plan_id":"cebpf4jnsgd1na2vs0mg"},{"bike_id":"77662860-da7a-47cd-93ba-388df6f19402","system_id":"levelo_inurba_marseille","lat":43.31077,"lon":5.38353,"is_reserved":false,"is_disabled":false,"rental_uris":{"android":"levelo://app?vid=77662860-da7a-47cd-93ba-388df6f19402","ios":"levelo://app?vid=77662860-da7a-47cd-93ba-388df6f19402"},"vehicle_type_id":"4","last_reported":1739815931,"current_range_meters":4000,"station_id":"ce4bgv92rcd13ifvqcr0","pricing_plan_id":"cebpf4jnsgd1na2vs0mg"},{"bike_id":"597f4271-6e72-4fe9-9004-1a03b5b8c37c","system_id":"levelo_inurba_marseille","lat":43.30158,"lon":5.39827,"is_reserved":false,"is_disabled":false,"rental_uris":{"android":"levelo://app?vid=597f4271-6e72-4fe9-9004-1a03b5b8c37c","ios":"levelo://app?vid=597f4271-6e72-4fe9-9004-1a03b5b8c37c"},"vehicle_type_id":"4","last_reported":1739815931,"current_range_meters":4800,"station_id":"ce4bh0h2rcd13ifvqd40","pricing_plan_id":"cebpf4jnsgd1na2vs0mg"},{"bike_id":"b620e2fa-210e-4b23-a9ef-d033177163c5","system_id":"levelo_inurba_marseille","lat":43.28004,"lon":5.40012,"is_reserved":false,"is_disabled":false,"rental_uris":{"android":"levelo://app?vid=b620e2fa-210e-4b23-a9ef-d033177163c5","ios":"levelo://app?vid=b620e2fa-210e-4b23-a9ef-d033177163c5"},"vehicle_type_id":"4","last_reported":1739815931,"current_range_meters":4000,"station_id":"ce4bho92rcd13ifvqh4g","pricing_plan_id":"cebpf4jnsgd1na2vs0mg"},{"bike_id":"13ca1d47-c2ba-42fc-9edc-9ab0662ec1ba","system_id":"levelo_inurba_marseille","lat":43.28678,"lon":5.38666,"is_reserved":false,"is_disabled":false,"rental_uris":{"android":"levelo://app?vid=13ca1d47-c2ba-42fc-9edc-9ab0662ec1ba","ios":"levelo://app?vid=13ca1d47-c2ba-42fc-9edc-9ab0662ec1ba"},"vehicle_type_id":"4","last_reported":1739815931,"current_range_meters":4400,"station_id":"ce4bh492rcd13ifvqdug","pricing_plan_id":"cebpf4jnsgd1na2vs0mg"},{"bike_id":"195b74e2-0f51-4169-b839-ee69d44d4e44","system_id":"levelo_inurba_marseille","lat":43.23196,"lon":5.39971,"is_reserved":false,"is_disabled":false,"rental_uris":{"android":"levelo://app?vid=195b74e2-0f51-4169-b839-ee69d44d4e44","ios":"levelo://app?vid=195b74e2-0f51-4169-b839-ee69d44d4e44"},"vehicle_type_id":"4","last_reported":1739815931,"current_range_meters":4800,"station_id":"ce4bhn12rcd13ifvqgqg","pricing_plan_id":"cebpf4jnsgd1na2vs0mg"},{"bike_id":"1984f7c5-845f-4be5-8ef1-35013cd3191a","system_id":"levelo_inurba_marseille","lat":43.26567,"lon":5.390005,"is_reserved":false,"is_disabled":false,"rental_uris":{"android":"levelo://app?vid=1984f7c5-845f-4be5-8ef1-35013cd3191a","ios":"levelo://app?vid=1984f7c5-845f-4be5-8ef1-35013cd3191a"},"vehicle_type_id":"4","last_reported":1739815931,"current_range_meters":4400,"station_id":"ce4bhe12rcd13ifvqf30","pricing_plan_id":"cebpf4jnsgd1na2vs0mg"},{"bike_id":"458f44e2-37dd-48dd-8470-babd18691b9c","system_id":"levelo_inurba_marseille","lat":43.24642,"lon":5.38879,"is_reserved":false,"is_disabled":true,"rental_uris":{"android":"levelo://app?vid=458f44e2-37dd-48dd-8470-babd18691b9c","ios":"levelo://app?vid=458f44e2-37dd-48dd-8470-babd18691b9c"},"vehicle_type_id":"4","last_reported":1739815931,"current_range_meters":4400,"station_id":"ce4bhg12rcd13ifvqf60","pricing_plan_id":"cebpf4jnsgd1na2vs0mg"},{"bike_id":"4be2bad8-75cf-41d1-83f1-7cf01fc3d3d1","system_id":"levelo_inurba_marseille","lat":43.30546,"lon":5.38426,"is_reserved":false,"is_disabled":false,"rental_uris":{"android":"levelo://app?vid=4be2bad8-75cf-41d1-83f1-7cf01fc3d3d1","ios":"levelo://app?vid=4be2bad8-75cf-41d1-83f1-7cf01fc3d3d1"},"vehicle_type_id":"4","last_reported":1739815931,"current_range_meters":4400,"station_id":"ce4bgg92rcd13ifvqb30","pricing_plan_id":"cebpf4jnsgd1na2vs0mg"},{"bike_id":"fcddeb3f-5377-4434-bbcf-fc8eb4ffd004","system_id":"levelo_inurba_marseille","lat":43.27944,"lon":5.41057,"is_reserved":false,"is_disabled":false,"rental_uris":{"android":"levelo://app?vid=fcddeb3f-5377-4434-bbcf-fc8eb4ffd004","ios":"levelo://app?vid=fcddeb3f-5377-4434-bbcf-fc8eb4ffd004"},"vehicle_type_id":"4","last_reported":1739815931,"current_range_meters":4800,"station_id":"ce4bhnp2rcd13ifvqh0g","pricing_plan_id":"cebpf4jnsgd1na2vs0mg"},{"bike_id":"65c5b30d-825e-4d3e-9530-6ab4e6e4507b","system_id":"levelo_inurba_marseille","lat":43.30418,"lon":5.41281,"is_reserved":false,"is_disabled":false,"rental_uris":{"android":"levelo://app?vid=65c5b30d-825e-4d3e-9530-6ab4e6e4507b","ios":"levelo://app?vid=65c5b30d-825e-4d3e-9530-6ab4e6e4507b"},"vehicle_type_id":"4","last_reported":1739815931,"current_range_meters":4800,"station_id":"ce4bhop2rcd13ifvqh8g","pricing_plan_id":"cebpf4jnsgd1na2vs0mg"},{"bike_id":"f3286808-b363-406a-9268-990de55986b6","system_id":"levelo_inurba_marseille","lat":43.25491,"lon":5.37651,"is_reserved":false,"is_disabled":false,"rental_uris":{"android":"levelo://app?vid=f3286808-b363-406a-9268-990de55986b6","ios":"levelo://app?vid=f3286808-b363-406a-9268-990de55986b6"},"vehicle_type_id":"4","last_reported":1739815931,"current_range_meters":5600,"station_id":"ce4bhh12rcd13ifvqff0","pricing_plan_id":"cebpf4jnsgd1na2vs0mg"},{"bike_id":"6b21d320-52d0-422d-a96b-25dc166ffb72","system_id":"levelo_inurba_marseille","lat":43.30408,"lon":5.41276,"is_reserved":false,"is_disabled":true,"rental_uris":{"android":"levelo://app?vid=6b21d320-52d0-422d-a96b-25dc166ffb72","ios":"levelo://app?vid=6b21d320-52d0-422d-a96b-25dc166ffb72"},"vehicle_type_id":"4","last_reported":1739815931,"current_range_meters":5600,"station_id":"ce4bhop2rcd13ifvqh8g","pricing_plan_id":"cebpf4jnsgd1na2vs0mg"},{"bike_id":"a25aeacc-df04-4300-a4b5-68a33eacf084","system_id":"levelo_inurba_marseille","lat":43.28701,"lon":5.3739,"is_reserved":false,"is_disabled":false,"rental_uris":{"android":"levelo://app?vid=a25aeacc-df04-4300-a4b5-68a33eacf084","ios":"levelo://app?vid=a25aeacc-df04-4300-a4b5-68a33eacf084"},"vehicle_type_id":"4","last_reported":1739815931,"current_range_meters":5600,"station_id":"ce4bh3p2rcd13ifvqdq0","pricing_plan_id":"cebpf4jnsgd1na2vs0mg"},{"bike_id":"f8c7c3bc-d714-4c3a-90d7-fb7b3543bd22","system_id":"levelo_inurba_marseille","lat":43.30084,"lon":5.39074,"is_reserved":false,"is_disabled":false,"rental_uris":{"android":"levelo://app?vid=f8c7c3bc-d714-4c3a-90d7-fb7b3543bd22","ios":"levelo://app?vid=f8c7c3bc-d714-4c3a-90d7-fb7b3543bd22"},"vehicle_type_id":"4","last_reported":1739815931,"current_range_meters":5600,"station_id":"","pricing_plan_id":"cebpf4jnsgd1na2vs0mg"},{"bike_id":"03846b91-2783-493f-9234-9aa20e82dfa9","system_id":"levelo_inurba_marseille","lat":43.28674,"lon":5.38656,"is_reserved":false,"is_disabled":false,"rental_uris":{"android":"levelo://app?vid=03846b91-2783-493f-9234-9aa20e82dfa9","ios":"levelo://app?vid=03846b91-2783-493f-9234-9aa20e82dfa9"},"vehicle_type_id":"4","last_reported":1739815931,"current_range_meters":5600,"station_id":"","pricing_plan_id":"cebpf4jnsgd1na2vs0mg"},{"bike_id":"d0991bf7-9c1b-4f88-947e-cca686a15eb6","system_id":"levelo_inurba_marseille","lat":43.2469,"lon":5.38152,"is_reserved":false,"is_disabled":false,"rental_uris":{"android":"levelo://app?vid=d0991bf7-9c1b-4f88-947e-cca686a15eb6","ios":"levelo://app?vid=d0991bf7-9c1b-4f88-947e-cca686a15eb6"},"vehicle_type_id":"4","last_reported":1739815931,"current_range_meters":6000,"station_id":"ce4bhih2rcd13ifvqfr0","pricing_plan_id":"cebpf4jnsgd1na2vs0mg"},{"bike_id":"47820753-dd76-4855-b4aa-3590bd72fb99","system_id":"levelo_inurba_marseille","lat":43.28409,"lon":5.37512,"is_reserved":false,"is_disabled":false,"rental_uris":{"android":"levelo://app?vid=47820753-dd76-4855-b4aa-3590bd72fb99","ios":"levelo://app?vid=47820753-dd76-4855-b4aa-3590bd72fb99"},"vehicle_type_id":"4","last_reported":1739815931,"current_range_meters":6000,"station_id":"ce4bh412rcd13ifvqds0","pricing_plan_id":"cebpf4jnsgd1na2vs0mg"},{"bike_id":"d0e0a89a-0d81-4148-ba85-59442b59d06e","system_id":"levelo_inurba_marseille","lat":43.28617,"lon":5.35115,"is_reserved":false,"is_disabled":false,"rental_uris":{"android":"levelo://app?vid=d0e0a89a-0d81-4148-ba85-59442b59d06e","ios":"levelo://app?vid=d0e0a89a-0d81-4148-ba85-59442b59d06e"},"vehicle_type_id":"4","last_reported":1739815931,"current_range_meters":6000,"station_id":"","pricing_plan_id":"cebpf4jnsgd1na2vs0mg"},{"bike_id":"323c888b-d2f8-4b9f-aa75-726e8a6ab6b2","system_id":"levelo_inurba_marseille","lat":43.27074,"lon":5.42292,"is_reserved":false,"is_disabled":false,"rental_uris":{"android":"levelo://app?vid=323c888b-d2f8-4b9f-aa75-726e8a6ab6b2","ios":"levelo://app?vid=323c888b-d2f8-4b9f-aa75-726e8a6ab6b2"},"vehicle_type_id":"4","last_reported":1739815931,"current_range_meters":6000,"station_id":"ce4bhk92rcd13ifvqgb0","pricing_plan_id":"cebpf4jnsgd1na2vs0mg"},{"bike_id":"361a4bb8-dbc5-427a-87d7-df6b1924e33b","system_id":"levelo_inurba_marseille","lat":43.24651,"lon":5.38888,"is_reserved":false,"is_disabled":false,"rental_uris":{"android":"levelo://app?vid=361a4bb8-dbc5-427a-87d7-df6b1924e33b","ios":"levelo://app?vid=361a4bb8-dbc5-427a-87d7-df6b1924e33b"},"vehicle_type_id":"4","last_reported":1739815931,"current_range_meters":6000,"station_id":"ce4bhg12rcd13ifvqf60","pricing_plan_id":"cebpf4jnsgd1na2vs0mg"},{"bike_id":"1d6f5a5a-bf78-4d12-91e4-6dc8a2b7ed98","system_id":"levelo_inurba_marseille","lat":43.27493,"lon":5.4246,"is_reserved":false,"is_disabled":true,"rental_uris":{"android":"levelo://app?vid=1d6f5a5a-bf78-4d12-91e4-6dc8a2b7ed98","ios":"levelo://app?vid=1d6f5a5a-bf78-4d12-91e4-6dc8a2b7ed98"},"vehicle_type_id":"4","last_reported":1739815931,"current_range_meters":6000,"station_id":"ce4bhn92rcd13ifvqgrg","pricing_plan_id":"cebpf4jnsgd1na2vs0mg"},{"bike_id":"fc404722-a79a-40d0-8e0a-e58382575551","system_id":"levelo_inurba_marseille","lat":43.2801,"lon":5.39989,"is_reserved":false,"is_disabled":false,"rental_uris":{"android":"levelo://app?vid=fc404722-a79a-40d0-8e0a-e58382575551","ios":"levelo://app?vid=fc404722-a79a-40d0-8e0a-e58382575551"},"vehicle_type_id":"4","last_reported":1739815931,"current_range_meters":6000,"station_id":"ce4bho92rcd13ifvqh4g","pricing_plan_id":"cebpf4jnsgd1na2vs0mg"},{"bike_id":"457b32e7-b84c-4f79-852f-a6901b8a795f","system_id":"levelo_inurba_marseille","lat":43.275835,"lon":5.423573,"is_reserved":false,"is_disabled":false,"rental_uris":{"android":"levelo://app?vid=457b32e7-b84c-4f79-852f-a6901b8a795f","ios":"levelo://app?vid=457b32e7-b84c-4f79-852f-a6901b8a795f"},"vehicle_type_id":"4","last_reported":1739815931,"current_range_meters":5600,"station_id":"ce4bhn92rcd13ifvqgrg","pricing_plan_id":"cebpf4jnsgd1na2vs0mg"},{"bike_id":"8fe5854c-f181-438c-a92d-49004929e920","system_id":"levelo_inurba_marseille","lat":43.29564,"lon":5.39987,"is_reserved":false,"is_disabled":false,"rental_uris":{"android":"levelo://app?vid=8fe5854c-f181-438c-a92d-49004929e920","ios":"levelo://app?vid=8fe5854c-f181-438c-a92d-49004929e920"},"vehicle_type_id":"4","last_reported":1739815931,"current_range_meters":6400,"station_id":"ce4bh312rcd13ifvqdj0","pricing_plan_id":"cebpf4jnsgd1na2vs0mg"},{"bike_id":"c2f4eeb1-f867-40fe-9b3b-3101cc91f750","system_id":"levelo_inurba_marseille","lat":43.29936,"lon":5.36534,"is_reserved":false,"is_disabled":false,"rental_uris":{"android":"levelo://app?vid=c2f4eeb1-f867-40fe-9b3b-3101cc91f750","ios":"levelo://app?vid=c2f4eeb1-f867-40fe-9b3b-3101cc91f750"},"vehicle_type_id":"4","last_reported":1739815931,"current_range_meters":6400,"station_id":"ce4bgm92rcd13ifvqbr0","pricing_plan_id":"cebpf4jnsgd1na2vs0mg"},{"bike_id":"d9e76053-3dde-462a-972d-43a6daf32906","system_id":"levelo_inurba_marseille","lat":43.29296,"lon":5.3747,"is_reserved":false,"is_disabled":false,"rental_uris":{"android":"levelo://app?vid=d9e76053-3dde-462a-972d-43a6daf32906","ios":"levelo://app?vid=d9e76053-3dde-462a-972d-43a6daf32906"},"vehicle_type_id":"4","last_reported":1739815931,"current_range_meters":6000,"station_id":"ce4bgi12rcd13ifvqb70","pricing_plan_id":"cebpf4jnsgd1na2vs0mg"},{"bike_id":"ce61429a-686f-445d-80d9-4b10876ed4ef","system_id":"levelo_inurba_marseille","lat":43.337444,"lon":5.374475,"is_reserved":false,"is_disabled":true,"rental_uris":{"android":"levelo://app?vid=ce61429a-686f-445d-80d9-4b10876ed4ef","ios":"levelo://app?vid=ce61429a-686f-445d-80d9-4b10876ed4ef"},"vehicle_type_id":"4","last_reported":1739815931,"current_range_meters":6400,"station_id":"","pricing_plan_id":"cebpf4jnsgd1na2vs0mg"},{"bike_id":"4b62baaf-0754-47c4-8b8f-37c6001aae0a","system_id":"levelo_inurba_marseille","lat":43.29567,"lon":5.37498,"is_reserved":false,"is_disabled":false,"rental_uris":{"android":"levelo://app?vid=4b62baaf-0754-47c4-8b8f-37c6001aae0a","ios":"levelo://app?vid=4b62baaf-0754-47c4-8b8f-37c6001aae0a"},"vehicle_type_id":"4","last_reported":1739815931,"current_range_meters":6400,"station_id":"ce4bgh92rcd13ifvqb50","pricing_plan_id":"cebpf4jnsgd1na2vs0mg"},{"bike_id":"926e1642-8b0d-4269-911f-e7668b60f23d","system_id":"levelo_inurba_marseille","lat":43.24807,"lon":5.37455,"is_reserved":false,"is_disabled":false,"rental_uris":{"android":"levelo://app?vid=926e1642-8b0d-4269-911f-e7668b60f23d","ios":"levelo://app?vid=926e1642-8b0d-4269-911f-e7668b60f23d"},"vehicle_type_id":"4","last_reported":1739815931,"current_range_meters":6400,"station_id":"","pricing_plan_id":"cebpf4jnsgd1na2vs0mg"},{"bike_id":"74475a14-f0ba-4a6a-913a-ee843aab2b2b","system_id":"levelo_inurba_marseille","lat":43.25813,"lon":5.39437,"is_reserved":false,"is_disabled":false,"rental_uris":{"android":"levelo://app?vid=74475a14-f0ba-4a6a-913a-ee843aab2b2b","ios":"levelo://app?vid=74475a14-f0ba-4a6a-913a-ee843aab2b2b"},"vehicle_type_id":"4","last_reported":1739815931,"current_range_meters":9600,"station_id":"ce4bhip2rcd13ifvqft0","pricing_plan_id":"cebpf4jnsgd1na2vs0mg"},{"bike_id":"e8fa394b-a699-49c5-a129-15a4ee64b5be","system_id":"levelo_inurba_marseille","lat":43.24548,"lon":5.39529,"is_reserved":false,"is_disabled":false,"rental_uris":{"android":"levelo://app?vid=e8fa394b-a699-49c5-a129-15a4ee64b5be","ios":"levelo://app?vid=e8fa394b-a699-49c5-a129-15a4ee64b5be"},"vehicle_type_id":"4","last_reported":1739815931,"current_range_meters":6800,"station_id":"ce4bhlp2rcd13ifvqgjg","pricing_plan_id":"cebpf4jnsgd1na2vs0mg"},{"bike_id":"8f2b0aef-e2a7-47a2-bfd4-c34d4ba0caca","system_id":"levelo_inurba_marseille","lat":43.28616,"lon":5.35102,"is_reserved":false,"is_disabled":false,"rental_uris":{"android":"levelo://app?vid=8f2b0aef-e2a7-47a2-bfd4-c34d4ba0caca","ios":"levelo://app?vid=8f2b0aef-e2a7-47a2-bfd4-c34d4ba0caca"},"vehicle_type_id":"4","last_reported":1739815931,"current_range_meters":6800,"station_id":"","pricing_plan_id":"cebpf4jnsgd1na2vs0mg"},{"bike_id":"96a96649-77a9-44c4-824f-d3e92f79f91f","system_id":"levelo_inurba_marseille","lat":43.23965,"lon":5.36629,"is_reserved":false,"is_disabled":false,"rental_uris":{"android":"levelo://app?vid=96a96649-77a9-44c4-824f-d3e92f79f91f","ios":"levelo://app?vid=96a96649-77a9-44c4-824f-d3e92f79f91f"},"vehicle_type_id":"4","last_reported":1739815931,"current_range_meters":6800,"station_id":"ce4bhi12rcd13ifvqfp0","pricing_plan_id":"cebpf4jnsgd1na2vs0mg"},{"bike_id":"c4916927-7d10-4eb6-bf80-df6fa900d439","system_id":"levelo_inurba_marseille","lat":43.29547,"lon":5.42311,"is_reserved":false,"is_disabled":true,"rental_uris":{"android":"levelo://app?vid=c4916927-7d10-4eb6-bf80-df6fa900d439","ios":"levelo://app?vid=c4916927-7d10-4eb6-bf80-df6fa900d439"},"vehicle_type_id":"4","last_reported":1739815931,"current_range_meters":6800,"station_id":"ce4bhph2rcd13ifvqhdg","pricing_plan_id":"cebpf4jnsgd1na2vs0mg"},{"bike_id":"1ccb8148-d5a9-45e8-a79b-603264947ba2","system_id":"levelo_inurba_marseille","lat":43.22934,"lon":5.35382,"is_reserved":false,"is_disabled":false,"rental_uris":{"android":"levelo://app?vid=1ccb8148-d5a9-45e8-a79b-603264947ba2","ios":"levelo://app?vid=1ccb8148-d5a9-45e8-a79b-603264947ba2"},"vehicle_type_id":"4","last_reported":1739815931,"current_range_meters":6800,"station_id":"cpo3532slgdg3j2ikp40","pricing_plan_id":"cebpf4jnsgd1na2vs0mg"},{"bike_id":"f206266f-bb9f-443a-8521-7cc97a6d54b8","system_id":"levelo_inurba_marseille","lat":43.32712,"lon":5.3926,"is_reserved":false,"is_disabled":false,"rental_uris":{"android":"levelo://app?vid=f206266f-bb9f-443a-8521-7cc97a6d54b8","ios":"levelo://app?vid=f206266f-bb9f-443a-8521-7cc97a6d54b8"},"vehicle_type_id":"4","last_reported":1739815931,"current_range_meters":6800,"station_id":"ce4bhr92rcd13ifvqhrg","pricing_plan_id":"cebpf4jnsgd1na2vs0mg"},{"bike_id":"87391072-fcac-4aa4-a59a-70f85ae50cbe","system_id":"levelo_inurba_marseille","lat":43.24551,"lon":5.39532,"is_reserved":false,"is_disabled":false,"rental_uris":{"android":"levelo://app?vid=87391072-fcac-4aa4-a59a-70f85ae50cbe","ios":"levelo://app?vid=87391072-fcac-4aa4-a59a-70f85ae50cbe"},"vehicle_type_id":"4","last_reported":1739815931,"current_range_meters":6800,"station_id":"ce4bhlp2rcd13ifvqgjg","pricing_plan_id":"cebpf4jnsgd1na2vs0mg"},{"bike_id":"8c75056a-7815-4dc4-bac4-c86fcaddfb3c","system_id":"levelo_inurba_marseille","lat":43.248,"lon":5.37455,"is_reserved":false,"is_disabled":false,"rental_uris":{"android":"levelo://app?vid=8c75056a-7815-4dc4-bac4-c86fcaddfb3c","ios":"levelo://app?vid=8c75056a-7815-4dc4-bac4-c86fcaddfb3c"},"vehicle_type_id":"4","last_reported":1739815931,"current_range_meters":6800,"station_id":"ce4bhgh2rcd13ifvqfb0","pricing_plan_id":"cebpf4jnsgd1na2vs0mg"},{"bike_id":"4b6217a4-7760-4d9a-a490-81f2bb6c0257","system_id":"levelo_inurba_marseille","lat":43.28353,"lon":5.38104,"is_reserved":false,"is_disabled":false,"rental_uris":{"android":"levelo://app?vid=4b6217a4-7760-4d9a-a490-81f2bb6c0257","ios":"levelo://app?vid=4b6217a4-7760-4d9a-a490-81f2bb6c0257"},"vehicle_type_id":"4","last_reported":1739815931,"current_range_meters":6800,"station_id":"ce4bh412rcd13ifvqdr0","pricing_plan_id":"cebpf4jnsgd1na2vs0mg"},{"bike_id":"a2e50fd2-1ce0-47d0-a0be-bbbc3f2b1747","system_id":"levelo_inurba_marseille","lat":43.29279,"lon":5.38431,"is_reserved":false,"is_disabled":false,"rental_uris":{"android":"levelo://app?vid=a2e50fd2-1ce0-47d0-a0be-bbbc3f2b1747","ios":"levelo://app?vid=a2e50fd2-1ce0-47d0-a0be-bbbc3f2b1747"},"vehicle_type_id":"4","last_reported":1739815931,"current_range_meters":6800,"station_id":"","pricing_plan_id":"cebpf4jnsgd1na2vs0mg"},{"bike_id":"33a2f713-59cf-4dee-bd5e-cf5438338de0","system_id":"levelo_inurba_marseille","lat":43.30471,"lon":5.36963,"is_reserved":false,"is_disabled":false,"rental_uris":{"android":"levelo://app?vid=33a2f713-59cf-4dee-bd5e-cf5438338de0","ios":"levelo://app?vid=33a2f713-59cf-4dee-bd5e-cf5438338de0"},"vehicle_type_id":"4","last_reported":1739815931,"current_range_meters":6800,"station_id":"","pricing_plan_id":"cebpf4jnsgd1na2vs0mg"},{"bike_id":"928c2b02-a495-462e-99bf-ffd9d821bb31","system_id":"levelo_inurba_marseille","lat":43.28703,"lon":5.37391,"is_reserved":false,"is_disabled":false,"rental_uris":{"android":"levelo://app?vid=928c2b02-a495-462e-99bf-ffd9d821bb31","ios":"levelo://app?vid=928c2b02-a495-462e-99bf-ffd9d821bb31"},"vehicle_type_id":"4","last_reported":1739815931,"current_range_meters":7200,"station_id":"ce4bh3p2rcd13ifvqdq0","pricing_plan_id":"cebpf4jnsgd1na2vs0mg"},{"bike_id":"50628207-43dd-4227-a6e2-3d0f1f4334db","system_id":"levelo_inurba_marseille","lat":43.27557,"lon":5.38409,"is_reserved":false,"is_disabled":false,"rental_uris":{"android":"levelo://app?vid=50628207-43dd-4227-a6e2-3d0f1f4334db","ios":"levelo://app?vid=50628207-43dd-4227-a6e2-3d0f1f4334db"},"vehicle_type_id":"4","last_reported":1739815931,"current_range_meters":7200,"station_id":"ce4bhh92rcd13ifvqfi0","pricing_plan_id":"cebpf4jnsgd1na2vs0mg"},{"bike_id":"68c9ec09-efa3-42b7-9d9b-298456b6ded4","system_id":"levelo_inurba_marseille","lat":43.30461,"lon":5.36954,"is_reserved":false,"is_disabled":false,"rental_uris":{"android":"levelo://app?vid=68c9ec09-efa3-42b7-9d9b-298456b6ded4","ios":"levelo://app?vid=68c9ec09-efa3-42b7-9d9b-298456b6ded4"},"vehicle_type_id":"4","last_reported":1739815931,"current_range_meters":7200,"station_id":"","pricing_plan_id":"cebpf4jnsgd1na2vs0mg"},{"bike_id":"4089f1a0-cd12-42d3-a6c3-01d445970a86","system_id":"levelo_inurba_marseille","lat":43.3127,"lon":5.37413,"is_reserved":false,"is_disabled":false,"rental_uris":{"android":"levelo://app?vid=4089f1a0-cd12-42d3-a6c3-01d445970a86","ios":"levelo://app?vid=4089f1a0-cd12-42d3-a6c3-01d445970a86"},"vehicle_type_id":"4","last_reported":1739815931,"current_range_meters":7200,"station_id":"","pricing_plan_id":"cebpf4jnsgd1na2vs0mg"},{"bike_id":"3a9a968d-dcc9-4ffb-90af-aadcb8469a1d","system_id":"levelo_inurba_marseille","lat":43.32243,"lon":5.39405,"is_reserved":false,"is_disabled":false,"rental_uris":{"android":"levelo://app?vid=3a9a968d-dcc9-4ffb-90af-aadcb8469a1d","ios":"levelo://app?vid=3a9a968d-dcc9-4ffb-90af-aadcb8469a1d"},"vehicle_type_id":"4","last_reported":1739815931,"current_range_meters":7200,"station_id":"","pricing_plan_id":"cebpf4jnsgd1na2vs0mg"},{"bike_id":"c5481d8c-801f-4868-b9a0-d493af370dcc","system_id":"levelo_inurba_marseille","lat":43.2933,"lon":5.38551,"is_reserved":false,"is_disabled":false,"rental_uris":{"android":"levelo://app?vid=c5481d8c-801f-4868-b9a0-d493af370dcc","ios":"levelo://app?vid=c5481d8c-801f-4868-b9a0-d493af370dcc"},"vehicle_type_id":"4","last_reported":1739815931,"current_range_meters":3200,"station_id":"ce4bh192rcd13ifvqdd0","pricing_plan_id":"cebpf4jnsgd1na2vs0mg"},{"bike_id":"57029f48-ece9-485b-ad1f-8f744447d517","system_id":"levelo_inurba_marseille","lat":43.28661,"lon":5.36337,"is_reserved":false,"is_disabled":false,"rental_uris":{"android":"levelo://app?vid=57029f48-ece9-485b-ad1f-8f744447d517","ios":"levelo://app?vid=57029f48-ece9-485b-ad1f-8f744447d517"},"vehicle_type_id":"4","last_reported":1739815931,"current_range_meters":4800,"station_id":"ce4bhah2rcd13ifvqej0","pricing_plan_id":"cebpf4jnsgd1na2vs0mg"},{"bike_id":"e2a40e08-4a05-4254-862b-b58cc14c7904","system_id":"levelo_inurba_marseille","lat":43.2508,"lon":5.39525,"is_reserved":false,"is_disabled":false,"rental_uris":{"android":"levelo://app?vid=e2a40e08-4a05-4254-862b-b58cc14c7904","ios":"levelo://app?vid=e2a40e08-4a05-4254-862b-b58cc14c7904"},"vehicle_type_id":"4","last_reported":1739815931,"current_range_meters":8000,"station_id":"ce4bhm12rcd13ifvqgkg","pricing_plan_id":"cebpf4jnsgd1na2vs0mg"},{"bike_id":"2b278cf2-594f-4230-8154-882e1df047f2","system_id":"levelo_inurba_marseille","lat":43.24076,"lon":5.37743,"is_reserved":false,"is_disabled":false,"rental_uris":{"android":"levelo://app?vid=2b278cf2-594f-4230-8154-882e1df047f2","ios":"levelo://app?vid=2b278cf2-594f-4230-8154-882e1df047f2"},"vehicle_type_id":"4","last_reported":1739815931,"current_range_meters":8000,"station_id":"ce4bhnp2rcd13ifvqgvg","pricing_plan_id":"cebpf4jnsgd1na2vs0mg"},{"bike_id":"1028d825-a809-400b-a433-b2f52b266986","system_id":"levelo_inurba_marseille","lat":43.30958,"lon":5.37906,"is_reserved":false,"is_disabled":false,"rental_uris":{"android":"levelo://app?vid=1028d825-a809-400b-a433-b2f52b266986","ios":"levelo://app?vid=1028d825-a809-400b-a433-b2f52b266986"},"vehicle_type_id":"4","last_reported":1739815931,"current_range_meters":8000,"station_id":"","pricing_plan_id":"cebpf4jnsgd1na2vs0mg"},{"bike_id":"28f0bfe6-24cf-4fa3-a9be-e3acb855dce4","system_id":"levelo_inurba_marseille","lat":43.28347,"lon":5.38113,"is_reserved":false,"is_disabled":false,"rental_uris":{"android":"levelo://app?vid=28f0bfe6-24cf-4fa3-a9be-e3acb855dce4","ios":"levelo://app?vid=28f0bfe6-24cf-4fa3-a9be-e3acb855dce4"},"vehicle_type_id":"4","last_reported":1739815931,"current_range_meters":8400,"station_id":"ce4bh412rcd13ifvqdr0","pricing_plan_id":"cebpf4jnsgd1na2vs0mg"},{"bike_id":"46cc4084-42f3-4850-9ab9-51f73f2391ea","system_id":"levelo_inurba_marseille","lat":43.29681,"lon":5.37283,"is_reserved":false,"is_disabled":false,"rental_uris":{"android":"levelo://app?vid=46cc4084-42f3-4850-9ab9-51f73f2391ea","ios":"levelo://app?vid=46cc4084-42f3-4850-9ab9-51f73f2391ea"},"vehicle_type_id":"4","last_reported":1739815931,"current_range_meters":8400,"station_id":"ce4bgk12rcd13ifvqbj0","pricing_plan_id":"cebpf4jnsgd1na2vs0mg"},{"bike_id":"2e5e89c3-0e0e-4cca-b25a-7707cb6d7c5d","system_id":"levelo_inurba_marseille","lat":43.27661,"lon":5.40833,"is_reserved":false,"is_disabled":false,"rental_uris":{"android":"levelo://app?vid=2e5e89c3-0e0e-4cca-b25a-7707cb6d7c5d","ios":"levelo://app?vid=2e5e89c3-0e0e-4cca-b25a-7707cb6d7c5d"},"vehicle_type_id":"4","last_reported":1739815931,"current_range_meters":8400,"station_id":"","pricing_plan_id":"cebpf4jnsgd1na2vs0mg"},{"bike_id":"01bec25a-ce9b-41ff-8b8e-4879fb269a23","system_id":"levelo_inurba_marseille","lat":43.2417,"lon":5.36404,"is_reserved":false,"is_disabled":false,"rental_uris":{"android":"levelo://app?vid=01bec25a-ce9b-41ff-8b8e-4879fb269a23","ios":"levelo://app?vid=01bec25a-ce9b-41ff-8b8e-4879fb269a23"},"vehicle_type_id":"4","last_reported":1739815931,"current_range_meters":8400,"station_id":"","pricing_plan_id":"cebpf4jnsgd1na2vs0mg"},{"bike_id":"9f72b035-42cd-4ed2-9def-93c83a040988","system_id":"levelo_inurba_marseille","lat":43.24083,"lon":5.37753,"is_reserved":false,"is_disabled":false,"rental_uris":{"android":"levelo://app?vid=9f72b035-42cd-4ed2-9def-93c83a040988","ios":"levelo://app?vid=9f72b035-42cd-4ed2-9def-93c83a040988"},"vehicle_type_id":"4","last_reported":1739815931,"current_range_meters":8400,"station_id":"ce4bhnp2rcd13ifvqgvg","pricing_plan_id":"cebpf4jnsgd1na2vs0mg"},{"bike_id":"9f3436fc-23ca-4472-a0df-f13136b659e4","system_id":"levelo_inurba_marseille","lat":43.27064,"lon":5.42274,"is_reserved":false,"is_disabled":false,"rental_uris":{"android":"levelo://app?vid=9f3436fc-23ca-4472-a0df-f13136b659e4","ios":"levelo://app?vid=9f3436fc-23ca-4472-a0df-f13136b659e4"},"vehicle_type_id":"4","last_reported":1739815931,"current_range_meters":8400,"station_id":"ce4bhk92rcd13ifvqgb0","pricing_plan_id":"cebpf4jnsgd1na2vs0mg"},{"bike_id":"2af45b9a-8c0d-4f01-a654-0c80764127bf","system_id":"levelo_inurba_marseille","lat":43.28736,"lon":5.3609,"is_reserved":false,"is_disabled":true,"rental_uris":{"android":"levelo://app?vid=2af45b9a-8c0d-4f01-a654-0c80764127bf","ios":"levelo://app?vid=2af45b9a-8c0d-4f01-a654-0c80764127bf"},"vehicle_type_id":"4","last_reported":1739815931,"current_range_meters":8400,"station_id":"cki0cbj6b192h4jlfktg","pricing_plan_id":"cebpf4jnsgd1na2vs0mg"},{"bike_id":"aa5769b5-f3ed-4e95-b0fe-c8220ed05778","system_id":"levelo_inurba_marseille","lat":43.33605,"lon":5.40984,"is_reserved":false,"is_disabled":false,"rental_uris":{"android":"levelo://app?vid=aa5769b5-f3ed-4e95-b0fe-c8220ed05778","ios":"levelo://app?vid=aa5769b5-f3ed-4e95-b0fe-c8220ed05778"},"vehicle_type_id":"4","last_reported":1739815931,"current_range_meters":8400,"station_id":"ce4bhqh2rcd13ifvqhmg","pricing_plan_id":"cebpf4jnsgd1na2vs0mg"},{"bike_id":"7529b7d3-3386-4c69-b82f-12a292d850ae","system_id":"levelo_inurba_marseille","lat":43.27944,"lon":5.41045,"is_reserved":false,"is_disabled":false,"rental_uris":{"android":"levelo://app?vid=7529b7d3-3386-4c69-b82f-12a292d850ae","ios":"levelo://app?vid=7529b7d3-3386-4c69-b82f-12a292d850ae"},"vehicle_type_id":"4","last_reported":1739815931,"current_range_meters":8800,"station_id":"ce4bhnp2rcd13ifvqh0g","pricing_plan_id":"cebpf4jnsgd1na2vs0mg"},{"bike_id":"89a1bd7a-182d-43ca-88b2-7c782921fad9","system_id":"levelo_inurba_marseille","lat":43.2904,"lon":5.3864,"is_reserved":false,"is_disabled":false,"rental_uris":{"android":"levelo://app?vid=89a1bd7a-182d-43ca-88b2-7c782921fad9","ios":"levelo://app?vid=89a1bd7a-182d-43ca-88b2-7c782921fad9"},"vehicle_type_id":"4","last_reported":1739815931,"current_range_meters":8800,"station_id":"","pricing_plan_id":"cebpf4jnsgd1na2vs0mg"},{"bike_id":"89ebb511-4b44-4534-aa7c-dfc7d2c4a46e","system_id":"levelo_inurba_marseille","lat":43.30088,"lon":5.39082,"is_reserved":false,"is_disabled":false,"rental_uris":{"android":"levelo://app?vid=89ebb511-4b44-4534-aa7c-dfc7d2c4a46e","ios":"levelo://app?vid=89ebb511-4b44-4534-aa7c-dfc7d2c4a46e"},"vehicle_type_id":"4","last_reported":1739815931,"current_range_meters":8800,"station_id":"ce4bh192rcd13ifvqdb0","pricing_plan_id":"cebpf4jnsgd1na2vs0mg"},{"bike_id":"324c900e-5cb2-4ca6-932a-28ceba0385c4","system_id":"levelo_inurba_marseille","lat":43.30423,"lon":5.412893,"is_reserved":false,"is_disabled":false,"rental_uris":{"android":"levelo://app?vid=324c900e-5cb2-4ca6-932a-28ceba0385c4","ios":"levelo://app?vid=324c900e-5cb2-4ca6-932a-28ceba0385c4"},"vehicle_type_id":"4","last_reported":1739815931,"current_range_meters":8800,"station_id":"ce4bhp92rcd13ifvqhag","pricing_plan_id":"cebpf4jnsgd1na2vs0mg"},{"bike_id":"9a71561e-7db0-42b6-a0e3-6df2347bbe3e","system_id":"levelo_inurba_marseille","lat":43.27201,"lon":5.39185,"is_reserved":false,"is_disabled":false,"rental_uris":{"android":"levelo://app?vid=9a71561e-7db0-42b6-a0e3-6df2347bbe3e","ios":"levelo://app?vid=9a71561e-7db0-42b6-a0e3-6df2347bbe3e"},"vehicle_type_id":"4","last_reported":1739815931,"current_range_meters":8800,"station_id":"ce4bho92rcd13ifvqh4g","pricing_plan_id":"cebpf4jnsgd1na2vs0mg"},{"bike_id":"95834f00-7a62-4700-bdeb-5c88ea97b4bc","system_id":"levelo_inurba_marseille","lat":43.289272,"lon":5.383909,"is_reserved":false,"is_disabled":false,"rental_uris":{"android":"levelo://app?vid=95834f00-7a62-4700-bdeb-5c88ea97b4bc","ios":"levelo://app?vid=95834f00-7a62-4700-bdeb-5c88ea97b4bc"},"vehicle_type_id":"4","last_reported":1739815931,"current_range_meters":8400,"station_id":"ce4bh392rcd13ifvqdl0","pricing_plan_id":"cebpf4jnsgd1na2vs0mg"},{"bike_id":"769dece0-e22f-4a6b-b6c2-40a30eb42645","system_id":"levelo_inurba_marseille","lat":43.28857,"lon":5.39292,"is_reserved":false,"is_disabled":false,"rental_uris":{"android":"levelo://app?vid=769dece0-e22f-4a6b-b6c2-40a30eb42645","ios":"levelo://app?vid=769dece0-e22f-4a6b-b6c2-40a30eb42645"},"vehicle_type_id":"4","last_reported":1739815931,"current_range_meters":12800,"station_id":"ce4bh2p2rcd13ifvqdi0","pricing_plan_id":"cebpf4jnsgd1na2vs0mg"},{"bike_id":"9c05b09f-2caf-452f-a2da-59e6df0ed20e","system_id":"levelo_inurba_marseille","lat":43.29634,"lon":5.40595,"is_reserved":false,"is_disabled":false,"rental_uris":{"android":"levelo://app?vid=9c05b09f-2caf-452f-a2da-59e6df0ed20e","ios":"levelo://app?vid=9c05b09f-2caf-452f-a2da-59e6df0ed20e"},"vehicle_type_id":"4","last_reported":1739815931,"current_range_meters":9200,"station_id":"ce4bh0h2rcd13ifvqd60","pricing_plan_id":"cebpf4jnsgd1na2vs0mg"},{"bike_id":"11c159c9-caf0-441e-8939-19c2fd29c1f3","system_id":"levelo_inurba_marseille","lat":43.3013,"lon":5.39867,"is_reserved":false,"is_disabled":false,"rental_uris":{"android":"levelo://app?vid=11c159c9-caf0-441e-8939-19c2fd29c1f3","ios":"levelo://app?vid=11c159c9-caf0-441e-8939-19c2fd29c1f3"},"vehicle_type_id":"4","last_reported":1739815931,"current_range_meters":8800,"station_id":"ce4bh0h2rcd13ifvqd40","pricing_plan_id":"cebpf4jnsgd1na2vs0mg"},{"bike_id":"8a49e737-2dba-437e-b0e4-c61d64b4fa11","system_id":"levelo_inurba_marseille","lat":43.24531,"lon":5.39521,"is_reserved":false,"is_disabled":false,"rental_uris":{"android":"levelo://app?vid=8a49e737-2dba-437e-b0e4-c61d64b4fa11","ios":"levelo://app?vid=8a49e737-2dba-437e-b0e4-c61d64b4fa11"},"vehicle_type_id":"4","last_reported":1739815931,"current_range_meters":9200,"station_id":"ce4bhlp2rcd13ifvqgjg","pricing_plan_id":"cebpf4jnsgd1na2vs0mg"},{"bike_id":"128279b3-2aa1-46dc-bf55-48829a51f7c0","system_id":"levelo_inurba_marseille","lat":43.29968,"lon":5.38488,"is_reserved":false,"is_disabled":false,"rental_uris":{"android":"levelo://app?vid=128279b3-2aa1-46dc-bf55-48829a51f7c0","ios":"levelo://app?vid=128279b3-2aa1-46dc-bf55-48829a51f7c0"},"vehicle_type_id":"4","last_reported":1739815931,"current_range_meters":9600,"station_id":"ce4bgj92rcd13ifvqbd0","pricing_plan_id":"cebpf4jnsgd1na2vs0mg"},{"bike_id":"c72dd471-889d-41d7-939b-cdf433bd5acf","system_id":"levelo_inurba_marseille","lat":43.26214,"lon":5.37437,"is_reserved":false,"is_disabled":false,"rental_uris":{"android":"levelo://app?vid=c72dd471-889d-41d7-939b-cdf433bd5acf","ios":"levelo://app?vid=c72dd471-889d-41d7-939b-cdf433bd5acf"},"vehicle_type_id":"4","last_reported":1739815931,"current_range_meters":9600,"station_id":"ce4bhgp2rcd13ifvqfc0","pricing_plan_id":"cebpf4jnsgd1na2vs0mg"},{"bike_id":"cf88743b-ec29-46d2-8b88-961b886f8b2a","system_id":"levelo_inurba_marseille","lat":43.26548,"lon":5.39028,"is_reserved":false,"is_disabled":true,"rental_uris":{"android":"levelo://app?vid=cf88743b-ec29-46d2-8b88-961b886f8b2a","ios":"levelo://app?vid=cf88743b-ec29-46d2-8b88-961b886f8b2a"},"vehicle_type_id":"4","last_reported":1739815931,"current_range_meters":9600,"station_id":"ce4bhe12rcd13ifvqf30","pricing_plan_id":"cebpf4jnsgd1na2vs0mg"},{"bike_id":"8dbe617a-73bb-43b1-955a-f0b57c2f6fa2","system_id":"levelo_inurba_marseille","lat":43.27379,"lon":5.36258,"is_reserved":false,"is_disabled":false,"rental_uris":{"android":"levelo://app?vid=8dbe617a-73bb-43b1-955a-f0b57c2f6fa2","ios":"levelo://app?vid=8dbe617a-73bb-43b1-955a-f0b57c2f6fa2"},"vehicle_type_id":"4","last_reported":1739815931,"current_range_meters":9600,"station_id":"ce4bhbh2rcd13ifvqeo0","pricing_plan_id":"cebpf4jnsgd1na2vs0mg"},{"bike_id":"3c8046ee-5a36-483b-a6e2-1fa552ab17f3","system_id":"levelo_inurba_marseille","lat":43.28002,"lon":5.40019,"is_reserved":false,"is_disabled":false,"rental_uris":{"android":"levelo://app?vid=3c8046ee-5a36-483b-a6e2-1fa552ab17f3","ios":"levelo://app?vid=3c8046ee-5a36-483b-a6e2-1fa552ab17f3"},"vehicle_type_id":"4","last_reported":1739815931,"current_range_meters":8800,"station_id":"ce4bho92rcd13ifvqh4g","pricing_plan_id":"cebpf4jnsgd1na2vs0mg"},{"bike_id":"d7f5a6fe-ccef-4fa8-9660-769eb9e2899e","system_id":"levelo_inurba_marseille","lat":43.23963,"lon":5.36629,"is_reserved":false,"is_disabled":false,"rental_uris":{"android":"levelo://app?vid=d7f5a6fe-ccef-4fa8-9660-769eb9e2899e","ios":"levelo://app?vid=d7f5a6fe-ccef-4fa8-9660-769eb9e2899e"},"vehicle_type_id":"4","last_reported":1739815931,"current_range_meters":9600,"station_id":"ce4bhi12rcd13ifvqfp0","pricing_plan_id":"cebpf4jnsgd1na2vs0mg"},{"bike_id":"98dafedc-f25b-409d-b3e2-803b47ffb900","system_id":"levelo_inurba_marseille","lat":43.24493,"lon":5.37263,"is_reserved":false,"is_disabled":false,"rental_uris":{"android":"levelo://app?vid=98dafedc-f25b-409d-b3e2-803b47ffb900","ios":"levelo://app?vid=98dafedc-f25b-409d-b3e2-803b47ffb900"},"vehicle_type_id":"4","last_reported":1739815931,"current_range_meters":9600,"station_id":"","pricing_plan_id":"cebpf4jnsgd1na2vs0mg"},{"bike_id":"5377976f-b3b3-4196-86c7-1ac8f01a8ed7","system_id":"levelo_inurba_marseille","lat":43.30646,"lon":5.40076,"is_reserved":false,"is_disabled":false,"rental_uris":{"android":"levelo://app?vid=5377976f-b3b3-4196-86c7-1ac8f01a8ed7","ios":"levelo://app?vid=5377976f-b3b3-4196-86c7-1ac8f01a8ed7"},"vehicle_type_id":"4","last_reported":1739815931,"current_range_meters":9200,"station_id":"ce4bh112rcd13ifvqda0","pricing_plan_id":"cebpf4jnsgd1na2vs0mg"},{"bike_id":"e7b13ea0-b28d-4c2e-979a-79d961d080e0","system_id":"levelo_inurba_marseille","lat":43.26211,"lon":5.37443,"is_reserved":false,"is_disabled":false,"rental_uris":{"android":"levelo://app?vid=e7b13ea0-b28d-4c2e-979a-79d961d080e0","ios":"levelo://app?vid=e7b13ea0-b28d-4c2e-979a-79d961d080e0"},"vehicle_type_id":"4","last_reported":1739815931,"current_range_meters":10000,"station_id":"ce4bhgp2rcd13ifvqfc0","pricing_plan_id":"cebpf4jnsgd1na2vs0mg"},{"bike_id":"101e2746-661b-422e-8952-171d8a7574e3","system_id":"levelo_inurba_marseille","lat":43.28939,"lon":5.3664,"is_reserved":false,"is_disabled":false,"rental_uris":{"android":"levelo://app?vid=101e2746-661b-422e-8952-171d8a7574e3","ios":"levelo://app?vid=101e2746-661b-422e-8952-171d8a7574e3"},"vehicle_type_id":"4","last_reported":1739815931,"current_range_meters":6400,"station_id":"ce4bhap2rcd13ifvqek0","pricing_plan_id":"cebpf4jnsgd1na2vs0mg"},{"bike_id":"fbf41432-e362-4b83-af2d-6a69a0b49279","system_id":"levelo_inurba_marseille","lat":43.30638,"lon":5.40099,"is_reserved":false,"is_disabled":false,"rental_uris":{"android":"levelo://app?vid=fbf41432-e362-4b83-af2d-6a69a0b49279","ios":"levelo://app?vid=fbf41432-e362-4b83-af2d-6a69a0b49279"},"vehicle_type_id":"4","last_reported":1739815931,"current_range_meters":10000,"station_id":"ce4bh112rcd13ifvqda0","pricing_plan_id":"cebpf4jnsgd1na2vs0mg"},{"bike_id":"00430546-ed9f-468a-898a-ea9ed48f4758","system_id":"levelo_inurba_marseille","lat":43.28435,"lon":5.3751,"is_reserved":false,"is_disabled":false,"rental_uris":{"android":"levelo://app?vid=00430546-ed9f-468a-898a-ea9ed48f4758","ios":"levelo://app?vid=00430546-ed9f-468a-898a-ea9ed48f4758"},"vehicle_type_id":"4","last_reported":1739815931,"current_range_meters":10000,"station_id":"ce4bh412rcd13ifvqds0","pricing_plan_id":"cebpf4jnsgd1na2vs0mg"},{"bike_id":"fee73be2-0a05-44ae-ac9c-ddd3bddbffec","system_id":"levelo_inurba_marseille","lat":43.29547,"lon":5.39029,"is_reserved":false,"is_disabled":false,"rental_uris":{"android":"levelo://app?vid=fee73be2-0a05-44ae-ac9c-ddd3bddbffec","ios":"levelo://app?vid=fee73be2-0a05-44ae-ac9c-ddd3bddbffec"},"vehicle_type_id":"4","last_reported":1739815931,"current_range_meters":10000,"station_id":"","pricing_plan_id":"cebpf4jnsgd1na2vs0mg"},{"bike_id":"257c116a-e2e8-45c2-8b65-7c17d0338ddf","system_id":"levelo_inurba_marseille","lat":43.29505,"lon":5.39048,"is_reserved":false,"is_disabled":false,"rental_uris":{"android":"levelo://app?vid=257c116a-e2e8-45c2-8b65-7c17d0338ddf","ios":"levelo://app?vid=257c116a-e2e8-45c2-8b65-7c17d0338ddf"},"vehicle_type_id":"4","last_reported":1739815931,"current_range_meters":10800,"station_id":"","pricing_plan_id":"cebpf4jnsgd1na2vs0mg"},{"bike_id":"8bdd4438-90c3-4ca2-bc31-85114c08f79e","system_id":"levelo_inurba_marseille","lat":43.28689,"lon":5.37399,"is_reserved":false,"is_disabled":false,"rental_uris":{"android":"levelo://app?vid=8bdd4438-90c3-4ca2-bc31-85114c08f79e","ios":"levelo://app?vid=8bdd4438-90c3-4ca2-bc31-85114c08f79e"},"vehicle_type_id":"4","last_reported":1739815931,"current_range_meters":10800,"station_id":"ce4bh3p2rcd13ifvqdq0","pricing_plan_id":"cebpf4jnsgd1na2vs0mg"},{"bike_id":"5a526824-0a51-426c-bf69-def735343d26","system_id":"levelo_inurba_marseille","lat":43.24808,"lon":5.37456,"is_reserved":false,"is_disabled":false,"rental_uris":{"android":"levelo://app?vid=5a526824-0a51-426c-bf69-def735343d26","ios":"levelo://app?vid=5a526824-0a51-426c-bf69-def735343d26"},"vehicle_type_id":"4","last_reported":1739815931,"current_range_meters":10800,"station_id":"ce4bhgh2rcd13ifvqfb0","pricing_plan_id":"cebpf4jnsgd1na2vs0mg"},{"bike_id":"9945348e-4dc9-48da-9d8f-f496721a8f8f","system_id":"levelo_inurba_marseille","lat":43.33005,"lon":5.3902,"is_reserved":false,"is_disabled":false,"rental_uris":{"android":"levelo://app?vid=9945348e-4dc9-48da-9d8f-f496721a8f8f","ios":"levelo://app?vid=9945348e-4dc9-48da-9d8f-f496721a8f8f"},"vehicle_type_id":"4","last_reported":1739815931,"current_range_meters":10800,"station_id":"ce4bhr92rcd13ifvqhrg","pricing_plan_id":"cebpf4jnsgd1na2vs0mg"},{"bike_id":"d86dfb12-e53b-4663-b0b1-0753b604c6ce","system_id":"levelo_inurba_marseille","lat":43.29248,"lon":5.40183,"is_reserved":false,"is_disabled":true,"rental_uris":{"android":"levelo://app?vid=d86dfb12-e53b-4663-b0b1-0753b604c6ce","ios":"levelo://app?vid=d86dfb12-e53b-4663-b0b1-0753b604c6ce"},"vehicle_type_id":"4","last_reported":1739815931,"current_range_meters":10800,"station_id":"ce4bh312rcd13ifvqdk0","pricing_plan_id":"cebpf4jnsgd1na2vs0mg"},{"bike_id":"df01700e-1cac-42e1-a80d-5e68e99ef240","system_id":"levelo_inurba_marseille","lat":43.31997,"lon":5.38164,"is_reserved":false,"is_disabled":false,"rental_uris":{"android":"levelo://app?vid=df01700e-1cac-42e1-a80d-5e68e99ef240","ios":"levelo://app?vid=df01700e-1cac-42e1-a80d-5e68e99ef240"},"vehicle_type_id":"4","last_reported":1739815931,"current_range_meters":9600,"station_id":"ce4bhr12rcd13ifvqhpg","pricing_plan_id":"cebpf4jnsgd1na2vs0mg"},{"bike_id":"47b43428-baa8-4f17-b113-3f79a1469e0a","system_id":"levelo_inurba_marseille","lat":43.290185,"lon":5.381263,"is_reserved":false,"is_disabled":false,"rental_uris":{"android":"levelo://app?vid=47b43428-baa8-4f17-b113-3f79a1469e0a","ios":"levelo://app?vid=47b43428-baa8-4f17-b113-3f79a1469e0a"},"vehicle_type_id":"4","last_reported":1739815931,"current_range_meters":10800,"station_id":"ce4bhnp2rcd13ifvqh0g","pricing_plan_id":"cebpf4jnsgd1na2vs0mg"},{"bike_id":"63213ce8-ab3b-490e-8b8e-c1a55a68b2ca","system_id":"levelo_inurba_marseille","lat":43.2951,"lon":5.38198,"is_reserved":false,"is_disabled":true,"rental_uris":{"android":"levelo://app?vid=63213ce8-ab3b-490e-8b8e-c1a55a68b2ca","ios":"levelo://app?vid=63213ce8-ab3b-490e-8b8e-c1a55a68b2ca"},"vehicle_type_id":"4","last_reported":1739815931,"current_range_meters":10800,"station_id":"","pricing_plan_id":"cebpf4jnsgd1na2vs0mg"},{"bike_id":"70a568c2-47f9-4e50-859f-3f0b26073c63","system_id":"levelo_inurba_marseille","lat":43.29302,"lon":5.37456,"is_reserved":false,"is_disabled":false,"rental_uris":{"android":"levelo://app?vid=70a568c2-47f9-4e50-859f-3f0b26073c63","ios":"levelo://app?vid=70a568c2-47f9-4e50-859f-3f0b26073c63"},"vehicle_type_id":"4","last_reported":1739815931,"current_range_meters":10800,"station_id":"ce4bgi12rcd13ifvqb70","pricing_plan_id":"cebpf4jnsgd1na2vs0mg"},{"bike_id":"82b7d0a8-49e8-4f4d-b95a-bee23f586c7e","system_id":"levelo_inurba_marseille","lat":43.28401,"lon":5.37507,"is_reserved":false,"is_disabled":false,"rental_uris":{"android":"levelo://app?vid=82b7d0a8-49e8-4f4d-b95a-bee23f586c7e","ios":"levelo://app?vid=82b7d0a8-49e8-4f4d-b95a-bee23f586c7e"},"vehicle_type_id":"4","last_reported":1739815931,"current_range_meters":11200,"station_id":"","pricing_plan_id":"cebpf4jnsgd1na2vs0mg"},{"bike_id":"bc4f591c-5520-4012-8c42-ce2e7ef9c7b3","system_id":"levelo_inurba_marseille","lat":43.30104,"lon":5.39077,"is_reserved":false,"is_disabled":false,"rental_uris":{"android":"levelo://app?vid=bc4f591c-5520-4012-8c42-ce2e7ef9c7b3","ios":"levelo://app?vid=bc4f591c-5520-4012-8c42-ce2e7ef9c7b3"},"vehicle_type_id":"4","last_reported":1739815931,"current_range_meters":11200,"station_id":"ce4bh192rcd13ifvqdb0","pricing_plan_id":"cebpf4jnsgd1na2vs0mg"},{"bike_id":"6e5ef146-6525-451a-b4db-c998d07dcd75","system_id":"levelo_inurba_marseille","lat":43.29844,"lon":5.3628,"is_reserved":false,"is_disabled":false,"rental_uris":{"android":"levelo://app?vid=6e5ef146-6525-451a-b4db-c998d07dcd75","ios":"levelo://app?vid=6e5ef146-6525-451a-b4db-c998d07dcd75"},"vehicle_type_id":"4","last_reported":1739815931,"current_range_meters":11600,"station_id":"","pricing_plan_id":"cebpf4jnsgd1na2vs0mg"},{"bike_id":"811901b7-6a39-4b98-9209-f363e05c2482","system_id":"levelo_inurba_marseille","lat":43.28147,"lon":5.42641,"is_reserved":false,"is_disabled":false,"rental_uris":{"android":"levelo://app?vid=811901b7-6a39-4b98-9209-f363e05c2482","ios":"levelo://app?vid=811901b7-6a39-4b98-9209-f363e05c2482"},"vehicle_type_id":"4","last_reported":1739815931,"current_range_meters":11200,"station_id":"ce4bhnh2rcd13ifvqgug","pricing_plan_id":"cebpf4jnsgd1na2vs0mg"},{"bike_id":"35122ac2-5536-4f80-b223-3b109f40ab82","system_id":"levelo_inurba_marseille","lat":43.27946,"lon":5.41044,"is_reserved":false,"is_disabled":false,"rental_uris":{"android":"levelo://app?vid=35122ac2-5536-4f80-b223-3b109f40ab82","ios":"levelo://app?vid=35122ac2-5536-4f80-b223-3b109f40ab82"},"vehicle_type_id":"4","last_reported":1739815931,"current_range_meters":11200,"station_id":"","pricing_plan_id":"cebpf4jnsgd1na2vs0mg"},{"bike_id":"892b2fde-18d4-48c2-a004-1a75c683e724","system_id":"levelo_inurba_marseille","lat":43.30932,"lon":5.40138,"is_reserved":false,"is_disabled":false,"rental_uris":{"android":"levelo://app?vid=892b2fde-18d4-48c2-a004-1a75c683e724","ios":"levelo://app?vid=892b2fde-18d4-48c2-a004-1a75c683e724"},"vehicle_type_id":"4","last_reported":1739815931,"current_range_meters":6400,"station_id":"ce4bgvp2rcd13ifvqct0","pricing_plan_id":"cebpf4jnsgd1na2vs0mg"},{"bike_id":"d726e3bd-f2c0-440d-8744-ad84429398ef","system_id":"levelo_inurba_marseille","lat":43.29873,"lon":5.39735,"is_reserved":false,"is_disabled":false,"rental_uris":{"android":"levelo://app?vid=d726e3bd-f2c0-440d-8744-ad84429398ef","ios":"levelo://app?vid=d726e3bd-f2c0-440d-8744-ad84429398ef"},"vehicle_type_id":"4","last_reported":1739815931,"current_range_meters":10800,"station_id":"ce4bh0h2rcd13ifvqd50","pricing_plan_id":"cebpf4jnsgd1na2vs0mg"},{"bike_id":"2aef7b3e-6346-4c25-8736-5f49d9749908","system_id":"levelo_inurba_marseille","lat":43.32352,"lon":5.38905,"is_reserved":false,"is_disabled":false,"rental_uris":{"android":"levelo://app?vid=2aef7b3e-6346-4c25-8736-5f49d9749908","ios":"levelo://app?vid=2aef7b3e-6346-4c25-8736-5f49d9749908"},"vehicle_type_id":"4","last_reported":1739815931,"current_range_meters":11200,"station_id":"","pricing_plan_id":"cebpf4jnsgd1na2vs0mg"},{"bike_id":"6ff45b63-a43a-4e24-b6e4-1f95f0349834","system_id":"levelo_inurba_marseille","lat":43.2942,"lon":5.38622,"is_reserved":false,"is_disabled":false,"rental_uris":{"android":"levelo://app?vid=6ff45b63-a43a-4e24-b6e4-1f95f0349834","ios":"levelo://app?vid=6ff45b63-a43a-4e24-b6e4-1f95f0349834"},"vehicle_type_id":"4","last_reported":1739815931,"current_range_meters":11600,"station_id":"ce4bh2h2rcd13ifvqdh0","pricing_plan_id":"cebpf4jnsgd1na2vs0mg"},{"bike_id":"20c3e5fc-067a-4028-b7e8-6ac630b458cb","system_id":"levelo_inurba_marseille","lat":43.30941,"lon":5.39053,"is_reserved":false,"is_disabled":false,"rental_uris":{"android":"levelo://app?vid=20c3e5fc-067a-4028-b7e8-6ac630b458cb","ios":"levelo://app?vid=20c3e5fc-067a-4028-b7e8-6ac630b458cb"},"vehicle_type_id":"4","last_reported":1739815931,"current_range_meters":11600,"station_id":"ce4bgup2rcd13ifvqco0","pricing_plan_id":"cebpf4jnsgd1na2vs0mg"},{"bike_id":"239dd848-79e5-42e0-b0f5-128c086b782b","system_id":"levelo_inurba_marseille","lat":43.3118,"lon":5.38736,"is_reserved":false,"is_disabled":false,"rental_uris":{"android":"levelo://app?vid=239dd848-79e5-42e0-b0f5-128c086b782b","ios":"levelo://app?vid=239dd848-79e5-42e0-b0f5-128c086b782b"},"vehicle_type_id":"4","last_reported":1739815931,"current_range_meters":11600,"station_id":"","pricing_plan_id":"cebpf4jnsgd1na2vs0mg"},{"bike_id":"decb2001-936a-4e99-ae36-0d2f0b539d58","system_id":"levelo_inurba_marseille","lat":43.30332,"lon":5.4043,"is_reserved":false,"is_disabled":false,"rental_uris":{"android":"levelo://app?vid=decb2001-936a-4e99-ae36-0d2f0b539d58","ios":"levelo://app?vid=decb2001-936a-4e99-ae36-0d2f0b539d58"},"vehicle_type_id":"4","last_reported":1739815931,"current_range_meters":11200,"station_id":"ce4bh012rcd13ifvqd10","pricing_plan_id":"cebpf4jnsgd1na2vs0mg"},{"bike_id":"97c6c4d1-50ef-45ec-ab12-bc11319f78f1","system_id":"levelo_inurba_marseille","lat":43.29392,"lon":5.37839,"is_reserved":false,"is_disabled":false,"rental_uris":{"android":"levelo://app?vid=97c6c4d1-50ef-45ec-ab12-bc11319f78f1","ios":"levelo://app?vid=97c6c4d1-50ef-45ec-ab12-bc11319f78f1"},"vehicle_type_id":"4","last_reported":1739815931,"current_range_meters":11200,"station_id":"ce4bgjh2rcd13ifvqbf0","pricing_plan_id":"cebpf4jnsgd1na2vs0mg"},{"bike_id":"809cf213-6737-468b-b233-c26bf016ca47","system_id":"levelo_inurba_marseille","lat":43.2815,"lon":5.42635,"is_reserved":false,"is_disabled":false,"rental_uris":{"android":"levelo://app?vid=809cf213-6737-468b-b233-c26bf016ca47","ios":"levelo://app?vid=809cf213-6737-468b-b233-c26bf016ca47"},"vehicle_type_id":"4","last_reported":1739815931,"current_range_meters":11600,"station_id":"ce4bhnh2rcd13ifvqgug","pricing_plan_id":"cebpf4jnsgd1na2vs0mg"},{"bike_id":"e60ea86b-4601-4c03-9d67-1a66c75aa754","system_id":"levelo_inurba_marseille","lat":43.28568,"lon":5.39508,"is_reserved":false,"is_disabled":false,"rental_uris":{"android":"levelo://app?vid=e60ea86b-4601-4c03-9d67-1a66c75aa754","ios":"levelo://app?vid=e60ea86b-4601-4c03-9d67-1a66c75aa754"},"vehicle_type_id":"4","last_reported":1739815931,"current_range_meters":11200,"station_id":"ce4bh292rcd13ifvqdg0","pricing_plan_id":"cebpf4jnsgd1na2vs0mg"},{"bike_id":"dcf310c5-15ca-498b-bf9c-cd6c77922408","system_id":"levelo_inurba_marseille","lat":43.2396,"lon":5.36632,"is_reserved":false,"is_disabled":false,"rental_uris":{"android":"levelo://app?vid=dcf310c5-15ca-498b-bf9c-cd6c77922408","ios":"levelo://app?vid=dcf310c5-15ca-498b-bf9c-cd6c77922408"},"vehicle_type_id":"4","last_reported":1739815931,"current_range_meters":11600,"station_id":"ce4bhi12rcd13ifvqfp0","pricing_plan_id":"cebpf4jnsgd1na2vs0mg"},{"bike_id":"3a6bf6cd-0fb8-4156-92f5-2e7428dc1d80","system_id":"levelo_inurba_marseille","lat":43.28372,"lon":5.38623,"is_reserved":false,"is_disabled":false,"rental_uris":{"android":"levelo://app?vid=3a6bf6cd-0fb8-4156-92f5-2e7428dc1d80","ios":"levelo://app?vid=3a6bf6cd-0fb8-4156-92f5-2e7428dc1d80"},"vehicle_type_id":"4","last_reported":1739815931,"current_range_meters":11600,"station_id":"ce4bh492rcd13ifvqdvg","pricing_plan_id":"cebpf4jnsgd1na2vs0mg"},{"bike_id":"bad478db-f8e1-44c1-97b6-2e823c13bd17","system_id":"levelo_inurba_marseille","lat":43.29574,"lon":5.37528,"is_reserved":false,"is_disabled":false,"rental_uris":{"android":"levelo://app?vid=bad478db-f8e1-44c1-97b6-2e823c13bd17","ios":"levelo://app?vid=bad478db-f8e1-44c1-97b6-2e823c13bd17"},"vehicle_type_id":"4","last_reported":1739815931,"current_range_meters":11600,"station_id":"ce4bgh92rcd13ifvqb50","pricing_plan_id":"cebpf4jnsgd1na2vs0mg"},{"bike_id":"6528e792-6c2b-41ab-b102-37d30001a0e7","system_id":"levelo_inurba_marseille","lat":43.27229,"lon":5.40047,"is_reserved":false,"is_disabled":false,"rental_uris":{"android":"levelo://app?vid=6528e792-6c2b-41ab-b102-37d30001a0e7","ios":"levelo://app?vid=6528e792-6c2b-41ab-b102-37d30001a0e7"},"vehicle_type_id":"4","last_reported":1739815931,"current_range_meters":12000,"station_id":"","pricing_plan_id":"cebpf4jnsgd1na2vs0mg"},{"bike_id":"983e2b89-c8bc-4dfc-9422-c71705605267","system_id":"levelo_inurba_marseille","lat":43.28696,"lon":5.37386,"is_reserved":false,"is_disabled":false,"rental_uris":{"android":"levelo://app?vid=983e2b89-c8bc-4dfc-9422-c71705605267","ios":"levelo://app?vid=983e2b89-c8bc-4dfc-9422-c71705605267"},"vehicle_type_id":"4","last_reported":1739815931,"current_range_meters":12000,"station_id":"ce4bh3p2rcd13ifvqdq0","pricing_plan_id":"cebpf4jnsgd1na2vs0mg"},{"bike_id":"9445af62-624f-4183-b99e-ea2c503abb48","system_id":"levelo_inurba_marseille","lat":43.287826,"lon":5.363582,"is_reserved":false,"is_disabled":false,"rental_uris":{"android":"levelo://app?vid=9445af62-624f-4183-b99e-ea2c503abb48","ios":"levelo://app?vid=9445af62-624f-4183-b99e-ea2c503abb48"},"vehicle_type_id":"4","last_reported":1739815931,"current_range_meters":11200,"station_id":"ce4bhah2rcd13ifvqei0","pricing_plan_id":"cebpf4jnsgd1na2vs0mg"},{"bike_id":"4e2b468f-8f4a-4d73-8517-62fa28d3fb4c","system_id":"levelo_inurba_marseille","lat":43.24813,"lon":5.37458,"is_reserved":false,"is_disabled":false,"rental_uris":{"android":"levelo://app?vid=4e2b468f-8f4a-4d73-8517-62fa28d3fb4c","ios":"levelo://app?vid=4e2b468f-8f4a-4d73-8517-62fa28d3fb4c"},"vehicle_type_id":"4","last_reported":1739815931,"current_range_meters":12400,"station_id":"ce4bhgh2rcd13ifvqfb0","pricing_plan_id":"cebpf4jnsgd1na2vs0mg"},{"bike_id":"17d3baff-7658-456e-968e-5264004fb07d","system_id":"levelo_inurba_marseille","lat":43.29409,"lon":5.38615,"is_reserved":false,"is_disabled":false,"rental_uris":{"android":"levelo://app?vid=17d3baff-7658-456e-968e-5264004fb07d","ios":"levelo://app?vid=17d3baff-7658-456e-968e-5264004fb07d"},"vehicle_type_id":"4","last_reported":1739815931,"current_range_meters":12400,"station_id":"ce4bh2h2rcd13ifvqdh0","pricing_plan_id":"cebpf4jnsgd1na2vs0mg"},{"bike_id":"cb8372d6-bad2-4555-89ad-5b495afb0b59","system_id":"levelo_inurba_marseille","lat":43.2482,"lon":5.37471,"is_reserved":false,"is_disabled":false,"rental_uris":{"android":"levelo://app?vid=cb8372d6-bad2-4555-89ad-5b495afb0b59","ios":"levelo://app?vid=cb8372d6-bad2-4555-89ad-5b495afb0b59"},"vehicle_type_id":"4","last_reported":1739815931,"current_range_meters":12400,"station_id":"ce4bhgh2rcd13ifvqfb0","pricing_plan_id":"cebpf4jnsgd1na2vs0mg"},{"bike_id":"57f30b34-645b-4d9c-b345-823054844c31","system_id":"levelo_inurba_marseille","lat":43.30885,"lon":5.39638,"is_reserved":false,"is_disabled":false,"rental_uris":{"android":"levelo://app?vid=57f30b34-645b-4d9c-b345-823054844c31","ios":"levelo://app?vid=57f30b34-645b-4d9c-b345-823054844c31"},"vehicle_type_id":"4","last_reported":1739815931,"current_range_meters":12400,"station_id":"ce4bh012rcd13ifvqcv0","pricing_plan_id":"cebpf4jnsgd1na2vs0mg"},{"bike_id":"e74fef04-4797-4a8d-83a6-0b69a0bb01fb","system_id":"levelo_inurba_marseille","lat":43.27946,"lon":5.41036,"is_reserved":false,"is_disabled":false,"rental_uris":{"android":"levelo://app?vid=e74fef04-4797-4a8d-83a6-0b69a0bb01fb","ios":"levelo://app?vid=e74fef04-4797-4a8d-83a6-0b69a0bb01fb"},"vehicle_type_id":"4","last_reported":1739815931,"current_range_meters":12400,"station_id":"ce4bhnp2rcd13ifvqh0g","pricing_plan_id":"cebpf4jnsgd1na2vs0mg"},{"bike_id":"edba2a93-09ff-46fb-b7e2-b889e99bb248","system_id":"levelo_inurba_marseille","lat":43.27069,"lon":5.42278,"is_reserved":false,"is_disabled":false,"rental_uris":{"android":"levelo://app?vid=edba2a93-09ff-46fb-b7e2-b889e99bb248","ios":"levelo://app?vid=edba2a93-09ff-46fb-b7e2-b889e99bb248"},"vehicle_type_id":"4","last_reported":1739815931,"current_range_meters":12800,"station_id":"ce4bhk92rcd13ifvqgb0","pricing_plan_id":"cebpf4jnsgd1na2vs0mg"},{"bike_id":"0a225e25-8f12-4d82-abfc-03cfb3f80f43","system_id":"levelo_inurba_marseille","lat":43.29427,"lon":5.38622,"is_reserved":false,"is_disabled":false,"rental_uris":{"android":"levelo://app?vid=0a225e25-8f12-4d82-abfc-03cfb3f80f43","ios":"levelo://app?vid=0a225e25-8f12-4d82-abfc-03cfb3f80f43"},"vehicle_type_id":"4","last_reported":1739815931,"current_range_meters":12800,"station_id":"ce4bh2h2rcd13ifvqdh0","pricing_plan_id":"cebpf4jnsgd1na2vs0mg"},{"bike_id":"ccbc449c-1efc-468d-bb73-1f977b0c2f8e","system_id":"levelo_inurba_marseille","lat":43.27938,"lon":5.41051,"is_reserved":false,"is_disabled":false,"rental_uris":{"android":"levelo://app?vid=ccbc449c-1efc-468d-bb73-1f977b0c2f8e","ios":"levelo://app?vid=ccbc449c-1efc-468d-bb73-1f977b0c2f8e"},"vehicle_type_id":"4","last_reported":1739815931,"current_range_meters":12800,"station_id":"ce4bhnp2rcd13ifvqh0g","pricing_plan_id":"cebpf4jnsgd1na2vs0mg"},{"bike_id":"0742d4e9-4e0f-4dea-85e7-93a2167b7186","system_id":"levelo_inurba_marseille","lat":43.29602,"lon":5.38105,"is_reserved":false,"is_disabled":false,"rental_uris":{"android":"levelo://app?vid=0742d4e9-4e0f-4dea-85e7-93a2167b7186","ios":"levelo://app?vid=0742d4e9-4e0f-4dea-85e7-93a2167b7186"},"vehicle_type_id":"4","last_reported":1739815931,"current_range_meters":12800,"station_id":"ce4bgl12rcd13ifvqbo0","pricing_plan_id":"cebpf4jnsgd1na2vs0mg"},{"bike_id":"2925d872-7877-4b1f-89a7-e112a91d35d3","system_id":"levelo_inurba_marseille","lat":43.28465,"lon":5.3589,"is_reserved":false,"is_disabled":true,"rental_uris":{"android":"levelo://app?vid=2925d872-7877-4b1f-89a7-e112a91d35d3","ios":"levelo://app?vid=2925d872-7877-4b1f-89a7-e112a91d35d3"},"vehicle_type_id":"4","last_reported":1739815931,"current_range_meters":12800,"station_id":"ce4bhah2rcd13ifvqei0","pricing_plan_id":"cebpf4jnsgd1na2vs0mg"},{"bike_id":"8cbe9070-51da-421b-8e3b-ef1ed76d2174","system_id":"levelo_inurba_marseille","lat":43.29037,"lon":5.37563,"is_reserved":false,"is_disabled":false,"rental_uris":{"android":"levelo://app?vid=8cbe9070-51da-421b-8e3b-ef1ed76d2174","ios":"levelo://app?vid=8cbe9070-51da-421b-8e3b-ef1ed76d2174"},"vehicle_type_id":"4","last_reported":1739815931,"current_range_meters":12800,"station_id":"ce4bh692rcd13ifvqe90","pricing_plan_id":"cebpf4jnsgd1na2vs0mg"},{"bike_id":"34f439ac-24f8-4a15-9a84-825a01561afd","system_id":"levelo_inurba_marseille","lat":43.24649,"lon":5.38888,"is_reserved":false,"is_disabled":false,"rental_uris":{"android":"levelo://app?vid=34f439ac-24f8-4a15-9a84-825a01561afd","ios":"levelo://app?vid=34f439ac-24f8-4a15-9a84-825a01561afd"},"vehicle_type_id":"4","last_reported":1739815931,"current_range_meters":12800,"station_id":"ce4bhg12rcd13ifvqf60","pricing_plan_id":"cebpf4jnsgd1na2vs0mg"},{"bike_id":"37e2f382-4e5f-4068-ac65-99779f2fa91a","system_id":"levelo_inurba_marseille","lat":43.3105,"lon":5.40077,"is_reserved":false,"is_disabled":false,"rental_uris":{"android":"levelo://app?vid=37e2f382-4e5f-4068-ac65-99779f2fa91a","ios":"levelo://app?vid=37e2f382-4e5f-4068-ac65-99779f2fa91a"},"vehicle_type_id":"4","last_reported":1739815931,"current_range_meters":12800,"station_id":"","pricing_plan_id":"cebpf4jnsgd1na2vs0mg"},{"bike_id":"2bb88f01-a32c-458d-baac-017e408c5e69","system_id":"levelo_inurba_marseille","lat":43.29601,"lon":5.38113,"is_reserved":false,"is_disabled":false,"rental_uris":{"android":"levelo://app?vid=2bb88f01-a32c-458d-baac-017e408c5e69","ios":"levelo://app?vid=2bb88f01-a32c-458d-baac-017e408c5e69"},"vehicle_type_id":"4","last_reported":1739815931,"current_range_meters":12800,"station_id":"ce4bgl12rcd13ifvqbo0","pricing_plan_id":"cebpf4jnsgd1na2vs0mg"},{"bike_id":"51412dc6-c40f-4da4-a3a9-768c7d440222","system_id":"levelo_inurba_marseille","lat":43.28356,"lon":5.38628,"is_reserved":false,"is_disabled":false,"rental_uris":{"android":"levelo://app?vid=51412dc6-c40f-4da4-a3a9-768c7d440222","ios":"levelo://app?vid=51412dc6-c40f-4da4-a3a9-768c7d440222"},"vehicle_type_id":"4","last_reported":1739815931,"current_range_meters":12800,"station_id":"ce4bh492rcd13ifvqdvg","pricing_plan_id":"cebpf4jnsgd1na2vs0mg"},{"bike_id":"020f9db3-6048-4a83-8c59-4acc533112c8","system_id":"levelo_inurba_marseille","lat":43.28163,"lon":5.42625,"is_reserved":false,"is_disabled":false,"rental_uris":{"android":"levelo://app?vid=020f9db3-6048-4a83-8c59-4acc533112c8","ios":"levelo://app?vid=020f9db3-6048-4a83-8c59-4acc533112c8"},"vehicle_type_id":"4","last_reported":1739815931,"current_range_meters":12800,"station_id":"ce4bhnh2rcd13ifvqgug","pricing_plan_id":"cebpf4jnsgd1na2vs0mg"},{"bike_id":"f0a05cc5-8fe2-460c-9d07-4b402da07bf7","system_id":"levelo_inurba_marseille","lat":43.276217,"lon":5.361116,"is_reserved":false,"is_disabled":false,"rental_uris":{"android":"levelo://app?vid=f0a05cc5-8fe2-460c-9d07-4b402da07bf7","ios":"levelo://app?vid=f0a05cc5-8fe2-460c-9d07-4b402da07bf7"},"vehicle_type_id":"4","last_reported":1739815931,"current_range_meters":12800,"station_id":"ce4bgj92rcd13ifvqbe0","pricing_plan_id":"cebpf4jnsgd1na2vs0mg"},{"bike_id":"4a402c08-fa25-4204-854d-f4db0c137e8d","system_id":"levelo_inurba_marseille","lat":43.29857,"lon":5.36287,"is_reserved":false,"is_disabled":false,"rental_uris":{"android":"levelo://app?vid=4a402c08-fa25-4204-854d-f4db0c137e8d","ios":"levelo://app?vid=4a402c08-fa25-4204-854d-f4db0c137e8d"},"vehicle_type_id":"4","last_reported":1739815931,"current_range_meters":13600,"station_id":"","pricing_plan_id":"cebpf4jnsgd1na2vs0mg"},{"bike_id":"c6d403ef-af42-41ae-9312-3a948449b260","system_id":"levelo_inurba_marseille","lat":43.27547,"lon":5.35958,"is_reserved":false,"is_disabled":false,"rental_uris":{"android":"levelo://app?vid=c6d403ef-af42-41ae-9312-3a948449b260","ios":"levelo://app?vid=c6d403ef-af42-41ae-9312-3a948449b260"},"vehicle_type_id":"4","last_reported":1739815931,"current_range_meters":13600,"station_id":"ce4bgj92rcd13ifvqbe0","pricing_plan_id":"cebpf4jnsgd1na2vs0mg"},{"bike_id":"bdbf1d78-943e-4e4d-99cb-78111dbe6228","system_id":"levelo_inurba_marseille","lat":43.30595,"lon":5.37214,"is_reserved":false,"is_disabled":false,"rental_uris":{"android":"levelo://app?vid=bdbf1d78-943e-4e4d-99cb-78111dbe6228","ios":"levelo://app?vid=bdbf1d78-943e-4e4d-99cb-78111dbe6228"},"vehicle_type_id":"4","last_reported":1739815931,"current_range_meters":14000,"station_id":"ce4bgqh2rcd13ifvqc4g","pricing_plan_id":"cebpf4jnsgd1na2vs0mg"},{"bike_id":"64627059-f94e-4aa2-a301-7dfa05f02d32","system_id":"levelo_inurba_marseille","lat":43.28844,"lon":5.35845,"is_reserved":false,"is_disabled":false,"rental_uris":{"android":"levelo://app?vid=64627059-f94e-4aa2-a301-7dfa05f02d32","ios":"levelo://app?vid=64627059-f94e-4aa2-a301-7dfa05f02d32"},"vehicle_type_id":"4","last_reported":1739815931,"current_range_meters":14000,"station_id":"ce4bhb12rcd13ifvqem0","pricing_plan_id":"cebpf4jnsgd1na2vs0mg"},{"bike_id":"c5c59f41-6de9-4286-8e47-0b749ef897bc","system_id":"levelo_inurba_marseille","lat":43.28623,"lon":5.351068,"is_reserved":false,"is_disabled":false,"rental_uris":{"android":"levelo://app?vid=c5c59f41-6de9-4286-8e47-0b749ef897bc","ios":"levelo://app?vid=c5c59f41-6de9-4286-8e47-0b749ef897bc"},"vehicle_type_id":"4","last_reported":1739815931,"current_range_meters":14000,"station_id":"ce4bhch2rcd13ifvqeug","pricing_plan_id":"cebpf4jnsgd1na2vs0mg"},{"bike_id":"60248a48-50f5-4b11-b355-af16407e45e1","system_id":"levelo_inurba_marseille","lat":43.29264,"lon":5.40905,"is_reserved":false,"is_disabled":false,"rental_uris":{"android":"levelo://app?vid=60248a48-50f5-4b11-b355-af16407e45e1","ios":"levelo://app?vid=60248a48-50f5-4b11-b355-af16407e45e1"},"vehicle_type_id":"4","last_reported":1739815931,"current_range_meters":14000,"station_id":"ce4bh192rcd13ifvqdc0","pricing_plan_id":"cebpf4jnsgd1na2vs0mg"},{"bike_id":"b0fc4ee7-b366-47b1-9db5-87f9ab849753","system_id":"levelo_inurba_marseille","lat":43.30121,"lon":5.39863,"is_reserved":false,"is_disabled":false,"rental_uris":{"android":"levelo://app?vid=b0fc4ee7-b366-47b1-9db5-87f9ab849753","ios":"levelo://app?vid=b0fc4ee7-b366-47b1-9db5-87f9ab849753"},"vehicle_type_id":"4","last_reported":1739815931,"current_range_meters":14000,"station_id":"ce4bh0h2rcd13ifvqd40","pricing_plan_id":"cebpf4jnsgd1na2vs0mg"},{"bike_id":"0a5ba431-a965-41b3-8161-58e6ac324c8a","system_id":"levelo_inurba_marseille","lat":43.29032,"lon":5.38639,"is_reserved":false,"is_disabled":false,"rental_uris":{"android":"levelo://app?vid=0a5ba431-a965-41b3-8161-58e6ac324c8a","ios":"levelo://app?vid=0a5ba431-a965-41b3-8161-58e6ac324c8a"},"vehicle_type_id":"4","last_reported":1739815931,"current_range_meters":14000,"station_id":"ce4bh4p2rcd13ifvqe0g","pricing_plan_id":"cebpf4jnsgd1na2vs0mg"},{"bike_id":"9d98f777-ce47-4e54-bd7a-4d2af264ea17","system_id":"levelo_inurba_marseille","lat":43.252044,"lon":5.394514,"is_reserved":false,"is_disabled":false,"rental_uris":{"android":"levelo://app?vid=9d98f777-ce47-4e54-bd7a-4d2af264ea17","ios":"levelo://app?vid=9d98f777-ce47-4e54-bd7a-4d2af264ea17"},"vehicle_type_id":"4","last_reported":1739815931,"current_range_meters":14400,"station_id":"ce4bhn12rcd13ifvqgpg","pricing_plan_id":"cebpf4jnsgd1na2vs0mg"},{"bike_id":"4767ce61-083b-49b6-b6bd-c77650019e8f","system_id":"levelo_inurba_marseille","lat":43.32122,"lon":5.36771,"is_reserved":false,"is_disabled":false,"rental_uris":{"android":"levelo://app?vid=4767ce61-083b-49b6-b6bd-c77650019e8f","ios":"levelo://app?vid=4767ce61-083b-49b6-b6bd-c77650019e8f"},"vehicle_type_id":"4","last_reported":1739815931,"current_range_meters":14400,"station_id":"","pricing_plan_id":"cebpf4jnsgd1na2vs0mg"},{"bike_id":"a937d2bc-c933-4757-9dfd-d20661c437a2","system_id":"levelo_inurba_marseille","lat":43.28415,"lon":5.349694,"is_reserved":false,"is_disabled":false,"rental_uris":{"android":"levelo://app?vid=a937d2bc-c933-4757-9dfd-d20661c437a2","ios":"levelo://app?vid=a937d2bc-c933-4757-9dfd-d20661c437a2"},"vehicle_type_id":"4","last_reported":1739815931,"current_range_meters":14400,"station_id":"ce4bhbp2rcd13ifvqesg","pricing_plan_id":"cebpf4jnsgd1na2vs0mg"},{"bike_id":"253b388f-b04a-431b-bb41-b9097955b40a","system_id":"levelo_inurba_marseille","lat":43.29053,"lon":5.38651,"is_reserved":false,"is_disabled":false,"rental_uris":{"android":"levelo://app?vid=253b388f-b04a-431b-bb41-b9097955b40a","ios":"levelo://app?vid=253b388f-b04a-431b-bb41-b9097955b40a"},"vehicle_type_id":"4","last_reported":1739815931,"current_range_meters":9600,"station_id":"ce4bh4p2rcd13ifvqe0g","pricing_plan_id":"cebpf4jnsgd1na2vs0mg"},{"bike_id":"f2f1cc05-1d06-4e32-ba67-45efcc7d3738","system_id":"levelo_inurba_marseille","lat":43.281596,"lon":5.424964,"is_reserved":false,"is_disabled":false,"rental_uris":{"android":"levelo://app?vid=f2f1cc05-1d06-4e32-ba67-45efcc7d3738","ios":"levelo://app?vid=f2f1cc05-1d06-4e32-ba67-45efcc7d3738"},"vehicle_type_id":"4","last_reported":1739815931,"current_range_meters":14800,"station_id":"","pricing_plan_id":"cebpf4jnsgd1na2vs0mg"},{"bike_id":"f607ce05-e037-4fb5-8e77-55faffd26413","system_id":"levelo_inurba_marseille","lat":43.26958,"lon":5.38631,"is_reserved":false,"is_disabled":false,"rental_uris":{"android":"levelo://app?vid=f607ce05-e037-4fb5-8e77-55faffd26413","ios":"levelo://app?vid=f607ce05-e037-4fb5-8e77-55faffd26413"},"vehicle_type_id":"4","last_reported":1739815931,"current_range_meters":14800,"station_id":"ce4bhh92rcd13ifvqfh0","pricing_plan_id":"cebpf4jnsgd1na2vs0mg"},{"bike_id":"e57f9313-8443-49d5-820a-e3f0c205b6f2","system_id":"levelo_inurba_marseille","lat":43.2407,"lon":5.37757,"is_reserved":false,"is_disabled":false,"rental_uris":{"android":"levelo://app?vid=e57f9313-8443-49d5-820a-e3f0c205b6f2","ios":"levelo://app?vid=e57f9313-8443-49d5-820a-e3f0c205b6f2"},"vehicle_type_id":"4","last_reported":1739815931,"current_range_meters":14800,"station_id":"ce4bhnp2rcd13ifvqgvg","pricing_plan_id":"cebpf4jnsgd1na2vs0mg"},{"bike_id":"f8e06fc7-00b7-4831-828e-752a95e98412","system_id":"levelo_inurba_marseille","lat":43.288486,"lon":5.35872,"is_reserved":false,"is_disabled":false,"rental_uris":{"android":"levelo://app?vid=f8e06fc7-00b7-4831-828e-752a95e98412","ios":"levelo://app?vid=f8e06fc7-00b7-4831-828e-752a95e98412"},"vehicle_type_id":"4","last_reported":1739815931,"current_range_meters":14800,"station_id":"ce4bhb12rcd13ifvqem0","pricing_plan_id":"cebpf4jnsgd1na2vs0mg"},{"bike_id":"9084f880-c05c-41d9-962e-1ab7add2848e","system_id":"levelo_inurba_marseille","lat":43.24082,"lon":5.37763,"is_reserved":false,"is_disabled":false,"rental_uris":{"android":"levelo://app?vid=9084f880-c05c-41d9-962e-1ab7add2848e","ios":"levelo://app?vid=9084f880-c05c-41d9-962e-1ab7add2848e"},"vehicle_type_id":"4","last_reported":1739815931,"current_range_meters":14800,"station_id":"ce4bhnp2rcd13ifvqgvg","pricing_plan_id":"cebpf4jnsgd1na2vs0mg"},{"bike_id":"cf0f1678-25f3-4905-8269-96de9d622740","system_id":"levelo_inurba_marseille","lat":43.29098,"lon":5.38125,"is_reserved":false,"is_disabled":false,"rental_uris":{"android":"levelo://app?vid=cf0f1678-25f3-4905-8269-96de9d622740","ios":"levelo://app?vid=cf0f1678-25f3-4905-8269-96de9d622740"},"vehicle_type_id":"4","last_reported":1739815931,"current_range_meters":15200,"station_id":"ce4bh512rcd13ifvqe2g","pricing_plan_id":"cebpf4jnsgd1na2vs0mg"},{"bike_id":"5fe09dc3-c4c8-4955-abd9-bf17fc30dd0a","system_id":"levelo_inurba_marseille","lat":43.28614,"lon":5.35099,"is_reserved":false,"is_disabled":false,"rental_uris":{"android":"levelo://app?vid=5fe09dc3-c4c8-4955-abd9-bf17fc30dd0a","ios":"levelo://app?vid=5fe09dc3-c4c8-4955-abd9-bf17fc30dd0a"},"vehicle_type_id":"4","last_reported":1739815931,"current_range_meters":15200,"station_id":"ce4bhch2rcd13ifvqeug","pricing_plan_id":"cebpf4jnsgd1na2vs0mg"},{"bike_id":"855e00a6-9e8c-4de0-bc87-12b351c5db28","system_id":"levelo_inurba_marseille","lat":43.28422,"lon":5.34983,"is_reserved":false,"is_disabled":false,"rental_uris":{"android":"levelo://app?vid=855e00a6-9e8c-4de0-bc87-12b351c5db28","ios":"levelo://app?vid=855e00a6-9e8c-4de0-bc87-12b351c5db28"},"vehicle_type_id":"4","last_reported":1739815931,"current_range_meters":15200,"station_id":"ce4bhbh2rcd13ifvqepg","pricing_plan_id":"cebpf4jnsgd1na2vs0mg"},{"bike_id":"7e1bcd16-719a-4da9-aa93-fa68923adaea","system_id":"levelo_inurba_marseille","lat":43.24064,"lon":5.37754,"is_reserved":false,"is_disabled":false,"rental_uris":{"android":"levelo://app?vid=7e1bcd16-719a-4da9-aa93-fa68923adaea","ios":"levelo://app?vid=7e1bcd16-719a-4da9-aa93-fa68923adaea"},"vehicle_type_id":"4","last_reported":1739815931,"current_range_meters":15200,"station_id":"ce4bhnp2rcd13ifvqgvg","pricing_plan_id":"cebpf4jnsgd1na2vs0mg"},{"bike_id":"7d105968-b75a-42e6-95d1-fd2629fc1eda","system_id":"levelo_inurba_marseille","lat":43.2985,"lon":5.36276,"is_reserved":false,"is_disabled":false,"rental_uris":{"android":"levelo://app?vid=7d105968-b75a-42e6-95d1-fd2629fc1eda","ios":"levelo://app?vid=7d105968-b75a-42e6-95d1-fd2629fc1eda"},"vehicle_type_id":"4","last_reported":1739815931,"current_range_meters":15200,"station_id":"","pricing_plan_id":"cebpf4jnsgd1na2vs0mg"},{"bike_id":"213ea857-4e70-4b8d-a56e-e2135671de69","system_id":"levelo_inurba_marseille","lat":43.29262,"lon":5.38432,"is_reserved":false,"is_disabled":false,"rental_uris":{"android":"levelo://app?vid=213ea857-4e70-4b8d-a56e-e2135671de69","ios":"levelo://app?vid=213ea857-4e70-4b8d-a56e-e2135671de69"},"vehicle_type_id":"4","last_reported":1739815931,"current_range_meters":15200,"station_id":"ce4bh692rcd13ifvqea0","pricing_plan_id":"cebpf4jnsgd1na2vs0mg"},{"bike_id":"ae150bdd-3d2a-4f9e-967f-89386cd94b17","system_id":"levelo_inurba_marseille","lat":43.30215,"lon":5.39464,"is_reserved":false,"is_disabled":false,"rental_uris":{"android":"levelo://app?vid=ae150bdd-3d2a-4f9e-967f-89386cd94b17","ios":"levelo://app?vid=ae150bdd-3d2a-4f9e-967f-89386cd94b17"},"vehicle_type_id":"4","last_reported":1739815931,"current_range_meters":16000,"station_id":"","pricing_plan_id":"cebpf4jnsgd1na2vs0mg"},{"bike_id":"772e5d73-e78f-47a1-9755-63448f7ea7a3","system_id":"levelo_inurba_marseille","lat":43.28695,"lon":5.37389,"is_reserved":false,"is_disabled":false,"rental_uris":{"android":"levelo://app?vid=772e5d73-e78f-47a1-9755-63448f7ea7a3","ios":"levelo://app?vid=772e5d73-e78f-47a1-9755-63448f7ea7a3"},"vehicle_type_id":"4","last_reported":1739815931,"current_range_meters":16000,"station_id":"ce4bh3p2rcd13ifvqdq0","pricing_plan_id":"cebpf4jnsgd1na2vs0mg"},{"bike_id":"91bf3218-0a05-4226-acc9-b3131b7d5a8d","system_id":"levelo_inurba_marseille","lat":43.23959,"lon":5.36629,"is_reserved":false,"is_disabled":false,"rental_uris":{"android":"levelo://app?vid=91bf3218-0a05-4226-acc9-b3131b7d5a8d","ios":"levelo://app?vid=91bf3218-0a05-4226-acc9-b3131b7d5a8d"},"vehicle_type_id":"4","last_reported":1739815931,"current_range_meters":16000,"station_id":"ce4bhi12rcd13ifvqfp0","pricing_plan_id":"cebpf4jnsgd1na2vs0mg"},{"bike_id":"85c0310e-e402-40de-a841-80e9083f1856","system_id":"levelo_inurba_marseille","lat":43.29419,"lon":5.38617,"is_reserved":false,"is_disabled":false,"rental_uris":{"android":"levelo://app?vid=85c0310e-e402-40de-a841-80e9083f1856","ios":"levelo://app?vid=85c0310e-e402-40de-a841-80e9083f1856"},"vehicle_type_id":"4","last_reported":1739815931,"current_range_meters":16000,"station_id":"ce4bh2h2rcd13ifvqdh0","pricing_plan_id":"cebpf4jnsgd1na2vs0mg"},{"bike_id":"085f975e-f80f-40c8-8c97-4c4e0a22eba2","system_id":"levelo_inurba_marseille","lat":43.23975,"lon":5.36634,"is_reserved":false,"is_disabled":false,"rental_uris":{"android":"levelo://app?vid=085f975e-f80f-40c8-8c97-4c4e0a22eba2","ios":"levelo://app?vid=085f975e-f80f-40c8-8c97-4c4e0a22eba2"},"vehicle_type_id":"4","last_reported":1739815931,"current_range_meters":16000,"station_id":"ce4bhi12rcd13ifvqfp0","pricing_plan_id":"cebpf4jnsgd1na2vs0mg"},{"bike_id":"b4f7951e-a8d9-4f42-b03f-b06ba82daa83","system_id":"levelo_inurba_marseille","lat":43.27185,"lon":5.40988,"is_reserved":false,"is_disabled":false,"rental_uris":{"android":"levelo://app?vid=b4f7951e-a8d9-4f42-b03f-b06ba82daa83","ios":"levelo://app?vid=b4f7951e-a8d9-4f42-b03f-b06ba82daa83"},"vehicle_type_id":"4","last_reported":1739815931,"current_range_meters":16000,"station_id":"ce4bhl12rcd13ifvqgf0","pricing_plan_id":"cebpf4jnsgd1na2vs0mg"},{"bike_id":"7c9326b8-4a16-490f-a445-caf736393229","system_id":"levelo_inurba_marseille","lat":43.28726,"lon":5.37948,"is_reserved":false,"is_disabled":false,"rental_uris":{"android":"levelo://app?vid=7c9326b8-4a16-490f-a445-caf736393229","ios":"levelo://app?vid=7c9326b8-4a16-490f-a445-caf736393229"},"vehicle_type_id":"4","last_reported":1739815931,"current_range_meters":16000,"station_id":"ce4bh9p2rcd13ifvqec0","pricing_plan_id":"cebpf4jnsgd1na2vs0mg"},{"bike_id":"d1dec037-ee4c-4db9-a655-1087d8ee1f4f","system_id":"levelo_inurba_marseille","lat":43.28436,"lon":5.39193,"is_reserved":false,"is_disabled":true,"rental_uris":{"android":"levelo://app?vid=d1dec037-ee4c-4db9-a655-1087d8ee1f4f","ios":"levelo://app?vid=d1dec037-ee4c-4db9-a655-1087d8ee1f4f"},"vehicle_type_id":"4","last_reported":1739815931,"current_range_meters":16000,"station_id":"","pricing_plan_id":"cebpf4jnsgd1na2vs0mg"},{"bike_id":"ea2bfc14-cadd-4706-b4dd-f82447501fb4","system_id":"levelo_inurba_marseille","lat":43.28699,"lon":5.37391,"is_reserved":false,"is_disabled":false,"rental_uris":{"android":"levelo://app?vid=ea2bfc14-cadd-4706-b4dd-f82447501fb4","ios":"levelo://app?vid=ea2bfc14-cadd-4706-b4dd-f82447501fb4"},"vehicle_type_id":"4","last_reported":1739815931,"current_range_meters":16000,"station_id":"ce4bh3p2rcd13ifvqdq0","pricing_plan_id":"cebpf4jnsgd1na2vs0mg"},{"bike_id":"f8d11ac3-beb1-4214-b01e-5133ef2d1ec3","system_id":"levelo_inurba_marseille","lat":43.29848,"lon":5.36278,"is_reserved":false,"is_disabled":false,"rental_uris":{"android":"levelo://app?vid=f8d11ac3-beb1-4214-b01e-5133ef2d1ec3","ios":"levelo://app?vid=f8d11ac3-beb1-4214-b01e-5133ef2d1ec3"},"vehicle_type_id":"4","last_reported":1739815931,"current_range_meters":16000,"station_id":"","pricing_plan_id":"cebpf4jnsgd1na2vs0mg"},{"bike_id":"fa26596f-385b-467a-983c-09a503967e29","system_id":"levelo_inurba_marseille","lat":43.28269,"lon":5.35068,"is_reserved":false,"is_disabled":true,"rental_uris":{"android":"levelo://app?vid=fa26596f-385b-467a-983c-09a503967e29","ios":"levelo://app?vid=fa26596f-385b-467a-983c-09a503967e29"},"vehicle_type_id":"4","last_reported":1739815931,"current_range_meters":16400,"station_id":"","pricing_plan_id":"cebpf4jnsgd1na2vs0mg"},{"bike_id":"5713cae5-3af2-4d61-97fb-3a85a02a67af","system_id":"levelo_inurba_marseille","lat":43.29426,"lon":5.38633,"is_reserved":false,"is_disabled":false,"rental_uris":{"android":"levelo://app?vid=5713cae5-3af2-4d61-97fb-3a85a02a67af","ios":"levelo://app?vid=5713cae5-3af2-4d61-97fb-3a85a02a67af"},"vehicle_type_id":"4","last_reported":1739815931,"current_range_meters":16400,"station_id":"ce4bh2h2rcd13ifvqdh0","pricing_plan_id":"cebpf4jnsgd1na2vs0mg"},{"bike_id":"d549b079-eb8f-4cf2-887b-c47788b73862","system_id":"levelo_inurba_marseille","lat":43.25501,"lon":5.37638,"is_reserved":false,"is_disabled":false,"rental_uris":{"android":"levelo://app?vid=d549b079-eb8f-4cf2-887b-c47788b73862","ios":"levelo://app?vid=d549b079-eb8f-4cf2-887b-c47788b73862"},"vehicle_type_id":"4","last_reported":1739815931,"current_range_meters":16400,"station_id":"ce4bhh12rcd13ifvqff0","pricing_plan_id":"cebpf4jnsgd1na2vs0mg"},{"bike_id":"b856ef2d-b825-4309-914a-433504b417aa","system_id":"levelo_inurba_marseille","lat":43.24176,"lon":5.39729,"is_reserved":false,"is_disabled":false,"rental_uris":{"android":"levelo://app?vid=b856ef2d-b825-4309-914a-433504b417aa","ios":"levelo://app?vid=b856ef2d-b825-4309-914a-433504b417aa"},"vehicle_type_id":"4","last_reported":1739815931,"current_range_meters":16400,"station_id":"ce4bhn12rcd13ifvqgpg","pricing_plan_id":"cebpf4jnsgd1na2vs0mg"},{"bike_id":"1a593f97-80e0-4ab5-99e3-1042da8fe8d9","system_id":"levelo_inurba_marseille","lat":43.23186,"lon":5.39987,"is_reserved":false,"is_disabled":false,"rental_uris":{"android":"levelo://app?vid=1a593f97-80e0-4ab5-99e3-1042da8fe8d9","ios":"levelo://app?vid=1a593f97-80e0-4ab5-99e3-1042da8fe8d9"},"vehicle_type_id":"4","last_reported":1739815931,"current_range_meters":16400,"station_id":"","pricing_plan_id":"cebpf4jnsgd1na2vs0mg"},{"bike_id":"47d5c2fc-da2d-478e-af05-2cda42070ede","system_id":"levelo_inurba_marseille","lat":43.30948,"lon":5.39038,"is_reserved":false,"is_disabled":false,"rental_uris":{"android":"levelo://app?vid=47d5c2fc-da2d-478e-af05-2cda42070ede","ios":"levelo://app?vid=47d5c2fc-da2d-478e-af05-2cda42070ede"},"vehicle_type_id":"4","last_reported":1739815931,"current_range_meters":16000,"station_id":"ce4bgup2rcd13ifvqco0","pricing_plan_id":"cebpf4jnsgd1na2vs0mg"},{"bike_id":"57fc0fcd-aadd-415c-90ca-a505007cba9c","system_id":"levelo_inurba_marseille","lat":43.28381,"lon":5.38637,"is_reserved":false,"is_disabled":false,"rental_uris":{"android":"levelo://app?vid=57fc0fcd-aadd-415c-90ca-a505007cba9c","ios":"levelo://app?vid=57fc0fcd-aadd-415c-90ca-a505007cba9c"},"vehicle_type_id":"4","last_reported":1739815931,"current_range_meters":16400,"station_id":"ce4bh492rcd13ifvqdvg","pricing_plan_id":"cebpf4jnsgd1na2vs0mg"},{"bike_id":"e1471915-884c-4e7b-a480-e94f1663e246","system_id":"levelo_inurba_marseille","lat":43.29842,"lon":5.3627,"is_reserved":false,"is_disabled":false,"rental_uris":{"android":"levelo://app?vid=e1471915-884c-4e7b-a480-e94f1663e246","ios":"levelo://app?vid=e1471915-884c-4e7b-a480-e94f1663e246"},"vehicle_type_id":"4","last_reported":1739815931,"current_range_meters":16400,"station_id":"","pricing_plan_id":"cebpf4jnsgd1na2vs0mg"},{"bike_id":"bb4a3648-09cb-4cc2-9947-bf380533d03f","system_id":"levelo_inurba_marseille","lat":43.31673,"lon":5.3724,"is_reserved":false,"is_disabled":true,"rental_uris":{"android":"levelo://app?vid=bb4a3648-09cb-4cc2-9947-bf380533d03f","ios":"levelo://app?vid=bb4a3648-09cb-4cc2-9947-bf380533d03f"},"vehicle_type_id":"4","last_reported":1739815931,"current_range_meters":16400,"station_id":"","pricing_plan_id":"cebpf4jnsgd1na2vs0mg"},{"bike_id":"e493d32f-c7df-48a8-8644-e6c67b333882","system_id":"levelo_inurba_marseille","lat":43.30152,"lon":5.37115,"is_reserved":false,"is_disabled":false,"rental_uris":{"android":"levelo://app?vid=e493d32f-c7df-48a8-8644-e6c67b333882","ios":"levelo://app?vid=e493d32f-c7df-48a8-8644-e6c67b333882"},"vehicle_type_id":"4","last_reported":1739815931,"current_range_meters":16400,"station_id":"","pricing_plan_id":"cebpf4jnsgd1na2vs0mg"},{"bike_id":"260242b0-baee-46b4-b5e0-0ff7bd59a088","system_id":"levelo_inurba_marseille","lat":43.28465,"lon":5.35896,"is_reserved":false,"is_disabled":false,"rental_uris":{"android":"levelo://app?vid=260242b0-baee-46b4-b5e0-0ff7bd59a088","ios":"levelo://app?vid=260242b0-baee-46b4-b5e0-0ff7bd59a088"},"vehicle_type_id":"4","last_reported":1739815931,"current_range_meters":16400,"station_id":"ce4bhah2rcd13ifvqei0","pricing_plan_id":"cebpf4jnsgd1na2vs0mg"},{"bike_id":"8f84c4ff-12c0-4f1f-87d2-4c6e4802e089","system_id":"levelo_inurba_marseille","lat":43.29454,"lon":5.38629,"is_reserved":false,"is_disabled":false,"rental_uris":{"android":"levelo://app?vid=8f84c4ff-12c0-4f1f-87d2-4c6e4802e089","ios":"levelo://app?vid=8f84c4ff-12c0-4f1f-87d2-4c6e4802e089"},"vehicle_type_id":"4","last_reported":1739815931,"current_range_meters":16800,"station_id":"ce4bh2h2rcd13ifvqdh0","pricing_plan_id":"cebpf4jnsgd1na2vs0mg"},{"bike_id":"da527cd2-b4a1-49b0-b37b-c556b338b3eb","system_id":"levelo_inurba_marseille","lat":43.2904,"lon":5.35908,"is_reserved":false,"is_disabled":false,"rental_uris":{"android":"levelo://app?vid=da527cd2-b4a1-49b0-b37b-c556b338b3eb","ios":"levelo://app?vid=da527cd2-b4a1-49b0-b37b-c556b338b3eb"},"vehicle_type_id":"4","last_reported":1739815931,"current_range_meters":16400,"station_id":"ce4bha92rcd13ifvqeg0","pricing_plan_id":"cebpf4jnsgd1na2vs0mg"},{"bike_id":"1c4ab1c1-f8e5-4ceb-8507-e3b252ef908b","system_id":"levelo_inurba_marseille","lat":43.24164,"lon":5.36388,"is_reserved":false,"is_disabled":false,"rental_uris":{"android":"levelo://app?vid=1c4ab1c1-f8e5-4ceb-8507-e3b252ef908b","ios":"levelo://app?vid=1c4ab1c1-f8e5-4ceb-8507-e3b252ef908b"},"vehicle_type_id":"4","last_reported":1739815931,"current_range_meters":16800,"station_id":"cpo36qri1sfpv3e86is0","pricing_plan_id":"cebpf4jnsgd1na2vs0mg"},{"bike_id":"7f781505-6ac1-4dd4-b4ea-6a8fd805e3ba","system_id":"levelo_inurba_marseille","lat":43.29312,"lon":5.37463,"is_reserved":false,"is_disabled":false,"rental_uris":{"android":"levelo://app?vid=7f781505-6ac1-4dd4-b4ea-6a8fd805e3ba","ios":"levelo://app?vid=7f781505-6ac1-4dd4-b4ea-6a8fd805e3ba"},"vehicle_type_id":"4","last_reported":1739815931,"current_range_meters":16800,"station_id":"ce4bgi12rcd13ifvqb70","pricing_plan_id":"cebpf4jnsgd1na2vs0mg"},{"bike_id":"e46ad52b-d861-4d04-a2c4-ea45df01633c","system_id":"levelo_inurba_marseille","lat":43.26805,"lon":5.40268,"is_reserved":false,"is_disabled":true,"rental_uris":{"android":"levelo://app?vid=e46ad52b-d861-4d04-a2c4-ea45df01633c","ios":"levelo://app?vid=e46ad52b-d861-4d04-a2c4-ea45df01633c"},"vehicle_type_id":"4","last_reported":1739815931,"current_range_meters":16800,"station_id":"ce501612rcd8frsf0b60","pricing_plan_id":"cebpf4jnsgd1na2vs0mg"},{"bike_id":"ff8ead88-2b4e-4dc7-9c75-13ec9e7fbdf8","system_id":"levelo_inurba_marseille","lat":43.30133,"lon":5.38788,"is_reserved":false,"is_disabled":false,"rental_uris":{"android":"levelo://app?vid=ff8ead88-2b4e-4dc7-9c75-13ec9e7fbdf8","ios":"levelo://app?vid=ff8ead88-2b4e-4dc7-9c75-13ec9e7fbdf8"},"vehicle_type_id":"4","last_reported":1739815931,"current_range_meters":16800,"station_id":"ce4bghh2rcd13ifvqb60","pricing_plan_id":"cebpf4jnsgd1na2vs0mg"},{"bike_id":"f4e2d9f7-ffad-4388-b647-2a51157d860a","system_id":"levelo_inurba_marseille","lat":43.30421,"lon":5.38866,"is_reserved":false,"is_disabled":false,"rental_uris":{"android":"levelo://app?vid=f4e2d9f7-ffad-4388-b647-2a51157d860a","ios":"levelo://app?vid=f4e2d9f7-ffad-4388-b647-2a51157d860a"},"vehicle_type_id":"4","last_reported":1739815931,"current_range_meters":16800,"station_id":"ce4bgk12rcd13ifvqbi0","pricing_plan_id":"cebpf4jnsgd1na2vs0mg"},{"bike_id":"7a910245-682d-4baf-bc5f-a69a48543ee9","system_id":"levelo_inurba_marseille","lat":43.25582,"lon":5.38231,"is_reserved":false,"is_disabled":false,"rental_uris":{"android":"levelo://app?vid=7a910245-682d-4baf-bc5f-a69a48543ee9","ios":"levelo://app?vid=7a910245-682d-4baf-bc5f-a69a48543ee9"},"vehicle_type_id":"4","last_reported":1739815931,"current_range_meters":16800,"station_id":"ce4bhih2rcd13ifvqfs0","pricing_plan_id":"cebpf4jnsgd1na2vs0mg"},{"bike_id":"a81f047e-2602-4d29-8821-508c11538471","system_id":"levelo_inurba_marseille","lat":43.22916,"lon":5.354,"is_reserved":false,"is_disabled":false,"rental_uris":{"android":"levelo://app?vid=a81f047e-2602-4d29-8821-508c11538471","ios":"levelo://app?vid=a81f047e-2602-4d29-8821-508c11538471"},"vehicle_type_id":"4","last_reported":1739815931,"current_range_meters":17200,"station_id":"cpo3532slgdg3j2ikp40","pricing_plan_id":"cebpf4jnsgd1na2vs0mg"},{"bike_id":"ebbdb265-c7b8-4741-af21-b9a8b18656e3","system_id":"levelo_inurba_marseille","lat":43.32287,"lon":5.38264,"is_reserved":false,"is_disabled":false,"rental_uris":{"android":"levelo://app?vid=ebbdb265-c7b8-4741-af21-b9a8b18656e3","ios":"levelo://app?vid=ebbdb265-c7b8-4741-af21-b9a8b18656e3"},"vehicle_type_id":"4","last_reported":1739815931,"current_range_meters":17200,"station_id":"ce4bhr12rcd13ifvqhqg","pricing_plan_id":"cebpf4jnsgd1na2vs0mg"},{"bike_id":"2bd553fe-a826-4205-96cb-06189690aea1","system_id":"levelo_inurba_marseille","lat":43.3014,"lon":5.3987,"is_reserved":false,"is_disabled":false,"rental_uris":{"android":"levelo://app?vid=2bd553fe-a826-4205-96cb-06189690aea1","ios":"levelo://app?vid=2bd553fe-a826-4205-96cb-06189690aea1"},"vehicle_type_id":"4","last_reported":1739815931,"current_range_meters":17200,"station_id":"ce4bh0h2rcd13ifvqd40","pricing_plan_id":"cebpf4jnsgd1na2vs0mg"},{"bike_id":"c74b4dbc-e6ae-47cb-9ea7-91e74f12ab36","system_id":"levelo_inurba_marseille","lat":43.28356,"lon":5.38098,"is_reserved":false,"is_disabled":false,"rental_uris":{"android":"levelo://app?vid=c74b4dbc-e6ae-47cb-9ea7-91e74f12ab36","ios":"levelo://app?vid=c74b4dbc-e6ae-47cb-9ea7-91e74f12ab36"},"vehicle_type_id":"4","last_reported":1739815931,"current_range_meters":17200,"station_id":"ce4bh412rcd13ifvqdr0","pricing_plan_id":"cebpf4jnsgd1na2vs0mg"},{"bike_id":"84dc2dc8-69f2-4813-a36e-4d36b9136b36","system_id":"levelo_inurba_marseille","lat":43.32289,"lon":5.38278,"is_reserved":false,"is_disabled":false,"rental_uris":{"android":"levelo://app?vid=84dc2dc8-69f2-4813-a36e-4d36b9136b36","ios":"levelo://app?vid=84dc2dc8-69f2-4813-a36e-4d36b9136b36"},"vehicle_type_id":"4","last_reported":1739815931,"current_range_meters":17200,"station_id":"ce4bhr12rcd13ifvqhqg","pricing_plan_id":"cebpf4jnsgd1na2vs0mg"},{"bike_id":"94b1e133-6b65-4040-b561-236ff54964d8","system_id":"levelo_inurba_marseille","lat":43.2783,"lon":5.39207,"is_reserved":false,"is_disabled":false,"rental_uris":{"android":"levelo://app?vid=94b1e133-6b65-4040-b561-236ff54964d8","ios":"levelo://app?vid=94b1e133-6b65-4040-b561-236ff54964d8"},"vehicle_type_id":"4","last_reported":1739815931,"current_range_meters":18000,"station_id":"ce4bhjp2rcd13ifvqga0","pricing_plan_id":"cebpf4jnsgd1na2vs0mg"},{"bike_id":"66cd4d2e-55f9-4633-b955-eb3e11018de8","system_id":"levelo_inurba_marseille","lat":43.28154,"lon":5.42644,"is_reserved":false,"is_disabled":false,"rental_uris":{"android":"levelo://app?vid=66cd4d2e-55f9-4633-b955-eb3e11018de8","ios":"levelo://app?vid=66cd4d2e-55f9-4633-b955-eb3e11018de8"},"vehicle_type_id":"4","last_reported":1739815931,"current_range_meters":17600,"station_id":"ce4bhnh2rcd13ifvqgug","pricing_plan_id":"cebpf4jnsgd1na2vs0mg"},{"bike_id":"c0dd3d98-1e2d-4ec3-aa46-9eecfbbbafd9","system_id":"levelo_inurba_marseille","lat":43.27371,"lon":5.36247,"is_reserved":false,"is_disabled":false,"rental_uris":{"android":"levelo://app?vid=c0dd3d98-1e2d-4ec3-aa46-9eecfbbbafd9","ios":"levelo://app?vid=c0dd3d98-1e2d-4ec3-aa46-9eecfbbbafd9"},"vehicle_type_id":"4","last_reported":1739815931,"current_range_meters":17200,"station_id":"ce4bhbh2rcd13ifvqeo0","pricing_plan_id":"cebpf4jnsgd1na2vs0mg"},{"bike_id":"f083b3ac-c7ab-4473-927c-ffea33ed55d4","system_id":"levelo_inurba_marseille","lat":43.25498,"lon":5.37647,"is_reserved":false,"is_disabled":false,"rental_uris":{"android":"levelo://app?vid=f083b3ac-c7ab-4473-927c-ffea33ed55d4","ios":"levelo://app?vid=f083b3ac-c7ab-4473-927c-ffea33ed55d4"},"vehicle_type_id":"4","last_reported":1739815931,"current_range_meters":17600,"station_id":"","pricing_plan_id":"cebpf4jnsgd1na2vs0mg"},{"bike_id":"6c96a73f-ff01-463f-bd8c-14885ee904b6","system_id":"levelo_inurba_marseille","lat":43.29072,"lon":5.35734,"is_reserved":false,"is_disabled":false,"rental_uris":{"android":"levelo://app?vid=6c96a73f-ff01-463f-bd8c-14885ee904b6","ios":"levelo://app?vid=6c96a73f-ff01-463f-bd8c-14885ee904b6"},"vehicle_type_id":"4","last_reported":1739815931,"current_range_meters":17600,"station_id":"ce4bhb92rcd13ifvqen0","pricing_plan_id":"cebpf4jnsgd1na2vs0mg"},{"bike_id":"9e4f31a4-e088-45c5-9a66-fbc4afd57054","system_id":"levelo_inurba_marseille","lat":43.29289,"lon":5.40128,"is_reserved":false,"is_disabled":false,"rental_uris":{"android":"levelo://app?vid=9e4f31a4-e088-45c5-9a66-fbc4afd57054","ios":"levelo://app?vid=9e4f31a4-e088-45c5-9a66-fbc4afd57054"},"vehicle_type_id":"4","last_reported":1739815931,"current_range_meters":17600,"station_id":"","pricing_plan_id":"cebpf4jnsgd1na2vs0mg"},{"bike_id":"63d5b860-0499-47a7-a73a-cb3a17ce327d","system_id":"levelo_inurba_marseille","lat":43.29078,"lon":5.37172,"is_reserved":false,"is_disabled":false,"rental_uris":{"android":"levelo://app?vid=63d5b860-0499-47a7-a73a-cb3a17ce327d","ios":"levelo://app?vid=63d5b860-0499-47a7-a73a-cb3a17ce327d"},"vehicle_type_id":"4","last_reported":1739815931,"current_range_meters":17600,"station_id":"ce4bh5p2rcd13ifvqe4g","pricing_plan_id":"cebpf4jnsgd1na2vs0mg"},{"bike_id":"bbddef3f-1a78-444f-8ca0-ac925b5fd8ce","system_id":"levelo_inurba_marseille","lat":43.28925,"lon":5.36338,"is_reserved":false,"is_disabled":false,"rental_uris":{"android":"levelo://app?vid=bbddef3f-1a78-444f-8ca0-ac925b5fd8ce","ios":"levelo://app?vid=bbddef3f-1a78-444f-8ca0-ac925b5fd8ce"},"vehicle_type_id":"4","last_reported":1739815931,"current_range_meters":17600,"station_id":"ce4bhc92rcd13ifvqetg","pricing_plan_id":"cebpf4jnsgd1na2vs0mg"},{"bike_id":"47571b7b-5f27-43dd-a2cc-d48926c58063","system_id":"levelo_inurba_marseille","lat":43.3013,"lon":5.39873,"is_reserved":false,"is_disabled":false,"rental_uris":{"android":"levelo://app?vid=47571b7b-5f27-43dd-a2cc-d48926c58063","ios":"levelo://app?vid=47571b7b-5f27-43dd-a2cc-d48926c58063"},"vehicle_type_id":"4","last_reported":1739815931,"current_range_meters":18000,"station_id":"ce4bh0h2rcd13ifvqd40","pricing_plan_id":"cebpf4jnsgd1na2vs0mg"},{"bike_id":"cb943006-3d49-4d28-a996-061563694221","system_id":"levelo_inurba_marseille","lat":43.23951,"lon":5.36643,"is_reserved":false,"is_disabled":false,"rental_uris":{"android":"levelo://app?vid=cb943006-3d49-4d28-a996-061563694221","ios":"levelo://app?vid=cb943006-3d49-4d28-a996-061563694221"},"vehicle_type_id":"4","last_reported":1739815931,"current_range_meters":18000,"station_id":"ce4bhi12rcd13ifvqfp0","pricing_plan_id":"cebpf4jnsgd1na2vs0mg"},{"bike_id":"9885c601-2cbe-4ea7-9b6c-479dc416387c","system_id":"levelo_inurba_marseille","lat":43.29903,"lon":5.43667,"is_reserved":false,"is_disabled":false,"rental_uris":{"android":"levelo://app?vid=9885c601-2cbe-4ea7-9b6c-479dc416387c","ios":"levelo://app?vid=9885c601-2cbe-4ea7-9b6c-479dc416387c"},"vehicle_type_id":"4","last_reported":1739815931,"current_range_meters":18000,"station_id":"ce4bhpp2rcd13ifvqhfg","pricing_plan_id":"cebpf4jnsgd1na2vs0mg"},{"bike_id":"aec087e2-1183-4db3-8eb8-83655b35a8ea","system_id":"levelo_inurba_marseille","lat":43.29796,"lon":5.36194,"is_reserved":false,"is_disabled":false,"rental_uris":{"android":"levelo://app?vid=aec087e2-1183-4db3-8eb8-83655b35a8ea","ios":"levelo://app?vid=aec087e2-1183-4db3-8eb8-83655b35a8ea"},"vehicle_type_id":"4","last_reported":1739815931,"current_range_meters":18000,"station_id":"","pricing_plan_id":"cebpf4jnsgd1na2vs0mg"},{"bike_id":"375654b7-50e1-481f-b9fc-1ccfede017a0","system_id":"levelo_inurba_marseille","lat":43.28352,"lon":5.38107,"is_reserved":false,"is_disabled":false,"rental_uris":{"android":"levelo://app?vid=375654b7-50e1-481f-b9fc-1ccfede017a0","ios":"levelo://app?vid=375654b7-50e1-481f-b9fc-1ccfede017a0"},"vehicle_type_id":"4","last_reported":1739815931,"current_range_meters":18000,"station_id":"ce4bh412rcd13ifvqdr0","pricing_plan_id":"cebpf4jnsgd1na2vs0mg"},{"bike_id":"ae8490a3-398b-4811-9913-40fd4082d6c2","system_id":"levelo_inurba_marseille","lat":43.27562,"lon":5.38388,"is_reserved":false,"is_disabled":false,"rental_uris":{"android":"levelo://app?vid=ae8490a3-398b-4811-9913-40fd4082d6c2","ios":"levelo://app?vid=ae8490a3-398b-4811-9913-40fd4082d6c2"},"vehicle_type_id":"4","last_reported":1739815931,"current_range_meters":17600,"station_id":"ce4bhh92rcd13ifvqfi0","pricing_plan_id":"cebpf4jnsgd1na2vs0mg"},{"bike_id":"249c3242-c47f-4bed-b30a-b7c16d724477","system_id":"levelo_inurba_marseille","lat":43.28147,"lon":5.42661,"is_reserved":false,"is_disabled":false,"rental_uris":{"android":"levelo://app?vid=249c3242-c47f-4bed-b30a-b7c16d724477","ios":"levelo://app?vid=249c3242-c47f-4bed-b30a-b7c16d724477"},"vehicle_type_id":"4","last_reported":1739815931,"current_range_meters":18000,"station_id":"ce4bhnh2rcd13ifvqgug","pricing_plan_id":"cebpf4jnsgd1na2vs0mg"},{"bike_id":"eccd8f50-0d44-405a-897c-7354c541adab","system_id":"levelo_inurba_marseille","lat":43.23192,"lon":5.39977,"is_reserved":false,"is_disabled":false,"rental_uris":{"android":"levelo://app?vid=eccd8f50-0d44-405a-897c-7354c541adab","ios":"levelo://app?vid=eccd8f50-0d44-405a-897c-7354c541adab"},"vehicle_type_id":"4","last_reported":1739815931,"current_range_meters":18000,"station_id":"ce4bhn12rcd13ifvqgqg","pricing_plan_id":"cebpf4jnsgd1na2vs0mg"},{"bike_id":"58a5c712-9d46-4329-afac-796b4051eca6","system_id":"levelo_inurba_marseille","lat":43.25006,"lon":5.38917,"is_reserved":false,"is_disabled":true,"rental_uris":{"android":"levelo://app?vid=58a5c712-9d46-4329-afac-796b4051eca6","ios":"levelo://app?vid=58a5c712-9d46-4329-afac-796b4051eca6"},"vehicle_type_id":"4","last_reported":1739815931,"current_range_meters":18000,"station_id":"ce4bhgp2rcd13ifvqfd0","pricing_plan_id":"cebpf4jnsgd1na2vs0mg"},