{"last_updated":1704031569,"ttl":30,"version":"2.2","data":{"bikes":[{"bike_id":"8d6283f4-07a3-4380-a143-c4a50a316ead","system_id":"levelo_inurba_marseille","lat":43.313391,"lon":5.36706,"is_reserved":false,"is_disabled":false,"rental_uris":{"android":"levelo://app?vid=8d6283f4-07a3-4380-a143-c4a50a316ead","ios":"levelo://app?vid=8d6283f4-07a3-4380-a143-c4a50a316ead"},"vehicle_type_id":"4","last_reported":1704031569,"current_range_meters":26400,"station_id":"ce4bgr92rcd13ifvqc6g","pricing_plan_id":"free"},{"bike_id":"efcc1aae-a467-48ce-a624-70b25f6c520a","system_id":"levelo_inurba_marseille","lat":43.312239,"lon":5.368562,"is_reserved":false,"is_disabled":false,"rental_uris":{"android":"levelo://app?vid=efcc1aae-a467-48ce-a624-70b25f6c520a","ios":"levelo://app?vid=efcc1aae-a467-48ce-a624-70b25f6c520a"},"vehicle_type_id":"4","last_reported":1704031569,"current_range_meters":3600,"station_id":"ce4bgl92rcd13ifvqbq0","pricing_plan_id":"free"},{"bike_id":"69ed7571-cc7b-49d6-a3b3-63256d9e4765","system_id":"levelo_inurba_marseille","lat":43.312239,"lon":5.368562,"is_reserved":false,"is_disabled":false,"rental_uris":{"android":"levelo://app?vid=69ed7571-cc7b-49d6-a3b3-63256d9e4765","ios":"levelo://app?vid=69ed7571-cc7b-49d6-a3b3-63256d9e4765"},"vehicle_type_id":"4","last_reported":1704031569,"current_range_meters":31600,"station_id":"ce4bgl92rcd13ifvqbq0","pricing_plan_id":"free"},{"bike_id":"ab5d2f61-aa83-4bc6-ac1e-2eebf551bcd6","system_id":"levelo_inurba_marseille","lat":43.312239,"lon":5.368562,"is_reserved":false,"is_disabled":false,"rental_uris":{"android":"levelo://app?vid=ab5d2f61-aa83-4bc6-ac1e-2eebf551bcd6","ios":"levelo://app?vid=ab5d2f61-aa83-4bc6-ac1e-2eebf551bcd6"},"vehicle_type_id":"4","last_reported":1704031569,"current_range_meters":28000,"station_id":"ce4bgl92rcd13ifvqbq0","pricing_plan_id":"free"},{"bike_id":"6fec103e-41c9-4c63-8913-7d0d6fd817a8","system_id":"levelo_inurba_marseille","lat":43.312239,"lon":5.368562,"is_reserved":false,"is_disabled":false,"rental_uris":{"android":"levelo://app?vid=6fec103e-41c9-4c63-8913-7d0d6fd817a8","ios":"levelo://app?vid=6fec103e-41c9-4c63-8913-7d0d6fd817a8"},"vehicle_type_id":"4","last_reported":1704031569,"current_range_meters":0,"station_id":"ce4bgl92rcd13ifvqbq0","pricing_plan_id":"free"},{"bike_id":"b8e9e11b-4de1-43c3-bf1f-0737ff39d922","system_id":"levelo_inurba_marseille","lat":43.309076,"lon":5.368465,"is_reserved":false,"is_disabled":false,"rental_uris":{"android":"levelo://app?vid=b8e9e11b-4de1-43c3-bf1f-0737ff39d922","ios":"levelo://app?vid=b8e9e11b-4de1-43c3-bf1f-0737ff39d922"},"vehicle_type_id":"4","last_reported":1704031569,"current_range_meters":24800,"station_id":"ce4bgn92rcd13ifvqbvg","pricing_plan_id":"free"},{"bike_id":"920832e6-f461-4c77-a402-a4b39a3847d4","system_id":"levelo_inurba_marseille","lat":43.30905,"lon":5.36856,"is_reserved":false,"is_disabled":false,"rental_uris":{"android":"levelo://app?vid=920832e6-f461-4c77-a402-a4b39a3847d4","ios":"levelo://app?vid=920832e6-f461-4c77-a402-a4b39a3847d4"},"vehicle_type_id":"4","last_reported":1704031569,"current_range_meters":31200,"station_id":"ce4bgn92rcd13ifvqbvg","pricing_plan_id":"free"},{"bike_id":"9c1e99df-49e5-44fe-b459-4bce56556b9b","system_id":"levelo_inurba_marseille","lat":43.314811,"lon":5.373103,"is_reserved":false,"is_disabled":false,"rental_uris":{"android":"levelo://app?vid=9c1e99df-49e5-44fe-b459-4bce56556b9b","ios":"levelo://app?vid=9c1e99df-49e5-44fe-b459-4bce56556b9b"},"vehicle_type_id":"4","last_reported":1704031569,"current_range_meters":7600,"station_id":"ce4bgt12rcd13ifvqcd0","pricing_plan_id":"free"},{"bike_id":"8bcb098e-3b5c-4108-a399-4f305870c40b","system_id":"levelo_inurba_marseille","lat":43.314811,"lon":5.373103,"is_reserved":false,"is_disabled":false,"rental_uris":{"android":"levelo://app?vid=8bcb098e-3b5c-4108-a399-4f305870c40b","ios":"levelo://app?vid=8bcb098e-3b5c-4108-a399-4f305870c40b"},"vehicle_type_id":"4","last_reported":1704031569,"current_range_meters":31600,"station_id":"ce4bgt12rcd13ifvqcd0","pricing_plan_id":"free"},{"bike_id":"9ab39fad-93b3-4eed-8562-3732a7e7fe24","system_id":"levelo_inurba_marseille","lat":43.314811,"lon":5.373103,"is_reserved":false,"is_disabled":false,"rental_uris":{"android":"levelo://app?vid=9ab39fad-93b3-4eed-8562-3732a7e7fe24","ios":"levelo://app?vid=9ab39fad-93b3-4eed-8562-3732a7e7fe24"},"vehicle_type_id":"4","last_reported":1704031569,"current_range_meters":13600,"station_id":"ce4bgt12rcd13ifvqcd0","pricing_plan_id":"free"},{"bike_id":"11c31751-a709-4a8d-bd40-c8151a380dd2","system_id":"levelo_inurba_marseille","lat":43.314811,"lon":5.373103,"is_reserved":false,"is_disabled":false,"rental_uris":{"android":"levelo://app?vid=11c31751-a709-4a8d-bd40-c8151a380dd2","ios":"levelo://app?vid=11c31751-a709-4a8d-bd40-c8151a380dd2"},"vehicle_type_id":"4","last_reported":1704031569,"current_range_meters":28000,"station_id":"ce4bgt12rcd13ifvqcd0","pricing_plan_id":"free"},{"bike_id":"6e5818dc-3972-4287-9058-8f8f2e517733","system_id":"levelo_inurba_marseille","lat":43.318215,"lon":5.369365,"is_reserved":false,"is_disabled":false,"rental_uris":{"android":"levelo://app?vid=6e5818dc-3972-4287-9058-8f8f2e517733","ios":"levelo://app?vid=6e5818dc-3972-4287-9058-8f8f2e517733"},"vehicle_type_id":"4","last_reported":1704031569,"current_range_meters":22400,"station_id":"","pricing_plan_id":"free"},{"bike_id":"a3c8d623-a85c-45ca-8fac-8710ce7491da","system_id":"levelo_inurba_marseille","lat":43.30651,"lon":5.37203,"is_reserved":false,"is_disabled":false,"rental_uris":{"android":"levelo://app?vid=a3c8d623-a85c-45ca-8fac-8710ce7491da","ios":"levelo://app?vid=a3c8d623-a85c-45ca-8fac-8710ce7491da"},"vehicle_type_id":"4","last_reported":1704031569,"current_range_meters":4800,"station_id":"","pricing_plan_id":"free"},{"bike_id":"fff2730b-7aba-44ea-a0a7-b81e087d5424","system_id":"levelo_inurba_marseille","lat":43.305714,"lon":5.365633,"is_reserved":false,"is_disabled":false,"rental_uris":{"android":"levelo://app?vid=fff2730b-7aba-44ea-a0a7-b81e087d5424","ios":"levelo://app?vid=fff2730b-7aba-44ea-a0a7-b81e087d5424"},"vehicle_type_id":"4","last_reported":1704031569,"current_range_meters":24400,"station_id":"ce4bgs12rcd13ifvqcag","pricing_plan_id":"free"},{"bike_id":"325cba0b-c0bf-4e1b-b580-d5f7be01ff37","system_id":"levelo_inurba_marseille","lat":43.305368,"lon":5.367343,"is_reserved":false,"is_disabled":false,"rental_uris":{"android":"levelo://app?vid=325cba0b-c0bf-4e1b-b580-d5f7be01ff37","ios":"levelo://app?vid=325cba0b-c0bf-4e1b-b580-d5f7be01ff37"},"vehicle_type_id":"4","last_reported":1704031569,"current_range_meters":0,"station_id":"ce4bgrp2rcd13ifvqc9g","pricing_plan_id":"free"},{"bike_id":"494fe88d-48a1-49ae-98c1-f7da3effb439","system_id":"levelo_inurba_marseille","lat":43.305989,"lon":5.37225,"is_reserved":false,"is_disabled":false,"rental_uris":{"android":"levelo://app?vid=494fe88d-48a1-49ae-98c1-f7da3effb439","ios":"levelo://app?vid=494fe88d-48a1-49ae-98c1-f7da3effb439"},"vehicle_type_id":"4","last_reported":1704031569,"current_range_meters":22000,"station_id":"ce4bgqh2rcd13ifvqc4g","pricing_plan_id":"free"},{"bike_id":"79a6f691-5c11-4017-95e7-401cadc74c97","system_id":"levelo_inurba_marseille","lat":43.305989,"lon":5.37225,"is_reserved":false,"is_disabled":false,"rental_uris":{"android":"levelo://app?vid=79a6f691-5c11-4017-95e7-401cadc74c97","ios":"levelo://app?vid=79a6f691-5c11-4017-95e7-401cadc74c97"},"vehicle_type_id":"4","last_reported":1704031569,"current_range_meters":26000,"station_id":"ce4bgqh2rcd13ifvqc4g","pricing_plan_id":"free"},{"bike_id":"9bedf921-65b0-443c-acba-5d7013658fda","system_id":"levelo_inurba_marseille","lat":43.311125,"lon":5.377624,"is_reserved":false,"is_disabled":false,"rental_uris":{"android":"levelo://app?vid=9bedf921-65b0-443c-acba-5d7013658fda","ios":"levelo://app?vid=9bedf921-65b0-443c-acba-5d7013658fda"},"vehicle_type_id":"4","last_reported":1704031569,"current_range_meters":18400,"station_id":"ce4bgt92rcd13ifvqcg0","pricing_plan_id":"free"},{"bike_id":"25af9e1c-886c-4f64-92f2-5ca68e46ae4a","system_id":"levelo_inurba_marseille","lat":43.31722,"lon":5.37668,"is_reserved":false,"is_disabled":false,"rental_uris":{"android":"levelo://app?vid=25af9e1c-886c-4f64-92f2-5ca68e46ae4a","ios":"levelo://app?vid=25af9e1c-886c-4f64-92f2-5ca68e46ae4a"},"vehicle_type_id":"4","last_reported":1704031569,"current_range_meters":22000,"station_id":"","pricing_plan_id":"free"},{"bike_id":"45c68c1a-2f3d-40a9-a55e-b59c871e2c8b","system_id":"levelo_inurba_marseille","lat":43.304606,"lon":5.379026,"is_reserved":false,"is_disabled":false,"rental_uris":{"android":"levelo://app?vid=45c68c1a-2f3d-40a9-a55e-b59c871e2c8b","ios":"levelo://app?vid=45c68c1a-2f3d-40a9-a55e-b59c871e2c8b"},"vehicle_type_id":"4","last_reported":1704031569,"current_range_meters":18800,"station_id":"ce4bgup2rcd13ifvqcn0","pricing_plan_id":"free"},{"bike_id":"64a93320-b6f7-4f00-82e1-5c71938933c4","system_id":"levelo_inurba_marseille","lat":43.316913,"lon":5.377377,"is_reserved":false,"is_disabled":false,"rental_uris":{"android":"levelo://app?vid=64a93320-b6f7-4f00-82e1-5c71938933c4","ios":"levelo://app?vid=64a93320-b6f7-4f00-82e1-5c71938933c4"},"vehicle_type_id":"4","last_reported":1704031569,"current_range_meters":22400,"station_id":"ce4bgth2rcd13ifvqch0","pricing_plan_id":"free"},{"bike_id":"0ea1d114-d990-41cf-bee1-d592bdb74942","system_id":"levelo_inurba_marseille","lat":43.317075,"lon":5.377367,"is_reserved":false,"is_disabled":false,"rental_uris":{"android":"levelo://app?vid=0ea1d114-d990-41cf-bee1-d592bdb74942","ios":"levelo://app?vid=0ea1d114-d990-41cf-bee1-d592bdb74942"},"vehicle_type_id":"4","last_reported":1704031569,"current_range_meters":24000,"station_id":"ce4bgth2rcd13ifvqch0","pricing_plan_id":"free"},{"bike_id":"56d825bd-471d-496c-bbf2-3dabaf728be0","system_id":"levelo_inurba_marseille","lat":43.317075,"lon":5.377367,"is_reserved":false,"is_disabled":false,"rental_uris":{"android":"levelo://app?vid=56d825bd-471d-496c-bbf2-3dabaf728be0","ios":"levelo://app?vid=56d825bd-471d-496c-bbf2-3dabaf728be0"},"vehicle_type_id":"4","last_reported":1704031569,"current_range_meters":18800,"station_id":"ce4bgth2rcd13ifvqch0","pricing_plan_id":"free"},{"bike_id":"a0ecacfd-c22a-42cf-a4a0-f6f23ea8dbe8","system_id":"levelo_inurba_marseille","lat":43.317075,"lon":5.377367,"is_reserved":false,"is_disabled":false,"rental_uris":{"android":"levelo://app?vid=a0ecacfd-c22a-42cf-a4a0-f6f23ea8dbe8","ios":"levelo://app?vid=a0ecacfd-c22a-42cf-a4a0-f6f23ea8dbe8"},"vehicle_type_id":"4","last_reported":1704031569,"current_range_meters":10000,"station_id":"ce4bgth2rcd13ifvqch0","pricing_plan_id":"free"},{"bike_id":"c85935c6-4b05-4750-941c-1bbcea17b32b","system_id":"levelo_inurba_marseille","lat":43.317075,"lon":5.377367,"is_reserved":false,"is_disabled":false,"rental_uris":{"android":"levelo://app?vid=c85935c6-4b05-4750-941c-1bbcea17b32b","ios":"levelo://app?vid=c85935c6-4b05-4750-941c-1bbcea17b32b"},"vehicle_type_id":"4","last_reported":1704031569,"current_range_meters":31600,"station_id":"ce4bgth2rcd13ifvqch0","pricing_plan_id":"free"},{"bike_id":"43ca8f0e-45c8-46db-88a7-88fa1ac98477","system_id":"levelo_inurba_marseille","lat":43.317075,"lon":5.377367,"is_reserved":false,"is_disabled":false,"rental_uris":{"android":"levelo://app?vid=43ca8f0e-45c8-46db-88a7-88fa1ac98477","ios":"levelo://app?vid=43ca8f0e-45c8-46db-88a7-88fa1ac98477"},"vehicle_type_id":"4","last_reported":1704031569,"current_range_meters":24000,"station_id":"ce4bgth2rcd13ifvqch0","pricing_plan_id":"free"},{"bike_id":"e396057a-9e96-4e6d-bb6b-ed001471212f","system_id":"levelo_inurba_marseille","lat":43.317075,"lon":5.377367,"is_reserved":false,"is_disabled":false,"rental_uris":{"android":"levelo://app?vid=e396057a-9e96-4e6d-bb6b-ed001471212f","ios":"levelo://app?vid=e396057a-9e96-4e6d-bb6b-ed001471212f"},"vehicle_type_id":"4","last_reported":1704031569,"current_range_meters":30400,"station_id":"ce4bgth2rcd13ifvqch0","pricing_plan_id":"free"},{"bike_id":"e5cdb6f6-1300-406e-9303-c0f03d781d71","system_id":"levelo_inurba_marseille","lat":43.317075,"lon":5.377367,"is_reserved":false,"is_disabled":false,"rental_uris":{"android":"levelo://app?vid=e5cdb6f6-1300-406e-9303-c0f03d781d71","ios":"levelo://app?vid=e5cdb6f6-1300-406e-9303-c0f03d781d71"},"vehicle_type_id":"4","last_reported":1704031569,"current_range_meters":31600,"station_id":"ce4bgth2rcd13ifvqch0","pricing_plan_id":"free"},{"bike_id":"9137ff02-4200-460d-8579-7eb6080b649e","system_id":"levelo_inurba_marseille","lat":43.308012,"lon":5.381511,"is_reserved":false,"is_disabled":false,"rental_uris":{"android":"levelo://app?vid=9137ff02-4200-460d-8579-7eb6080b649e","ios":"levelo://app?vid=9137ff02-4200-460d-8579-7eb6080b649e"},"vehicle_type_id":"4","last_reported":1704031569,"current_range_meters":12400,"station_id":"ce4bgt12rcd13ifvqce0","pricing_plan_id":"free"},{"bike_id":"2bf1159c-4b34-4bc3-a8b5-156be571c011","system_id":"levelo_inurba_marseille","lat":43.319944,"lon":5.377398,"is_reserved":false,"is_disabled":false,"rental_uris":{"android":"levelo://app?vid=2bf1159c-4b34-4bc3-a8b5-156be571c011","ios":"levelo://app?vid=2bf1159c-4b34-4bc3-a8b5-156be571c011"},"vehicle_type_id":"4","last_reported":1704031569,"current_range_meters":24000,"station_id":"","pricing_plan_id":"free"},{"bike_id":"76a90190-60f3-40f5-9fbf-4918b7dc2f3e","system_id":"levelo_inurba_marseille","lat":43.32165,"lon":5.37472,"is_reserved":false,"is_disabled":false,"rental_uris":{"android":"levelo://app?vid=76a90190-60f3-40f5-9fbf-4918b7dc2f3e","ios":"levelo://app?vid=76a90190-60f3-40f5-9fbf-4918b7dc2f3e"},"vehicle_type_id":"4","last_reported":1704031569,"current_range_meters":26000,"station_id":"","pricing_plan_id":"free"},{"bike_id":"cb96c25a-16ff-43d0-a625-157220e361c0","system_id":"levelo_inurba_marseille","lat":43.301939,"lon":5.366286,"is_reserved":false,"is_disabled":false,"rental_uris":{"android":"levelo://app?vid=cb96c25a-16ff-43d0-a625-157220e361c0","ios":"levelo://app?vid=cb96c25a-16ff-43d0-a625-157220e361c0"},"vehicle_type_id":"4","last_reported":1704031569,"current_range_meters":10400,"station_id":"ce4bgrh2rcd13ifvqc8g","pricing_plan_id":"free"},{"bike_id":"e4dcb29d-6179-427e-822d-8621bcd08456","system_id":"levelo_inurba_marseille","lat":43.304708,"lon":5.379039,"is_reserved":false,"is_disabled":false,"rental_uris":{"android":"levelo://app?vid=e4dcb29d-6179-427e-822d-8621bcd08456","ios":"levelo://app?vid=e4dcb29d-6179-427e-822d-8621bcd08456"},"vehicle_type_id":"4","last_reported":1704031569,"current_range_meters":18400,"station_id":"","pricing_plan_id":"free"},{"bike_id":"ea0572ae-fc6b-433c-bb66-27fd13c2a530","system_id":"levelo_inurba_marseille","lat":43.304606,"lon":5.379026,"is_reserved":false,"is_disabled":false,"rental_uris":{"android":"levelo://app?vid=ea0572ae-fc6b-433c-bb66-27fd13c2a530","ios":"levelo://app?vid=ea0572ae-fc6b-433c-bb66-27fd13c2a530"},"vehicle_type_id":"4","last_reported":1704031569,"current_range_meters":16400,"station_id":"ce4bgup2rcd13ifvqcn0","pricing_plan_id":"free"},{"bike_id":"17172a73-685a-48d7-92ff-0bf37a6c5269","system_id":"levelo_inurba_marseille","lat":43.324771,"lon":5.36557,"is_reserved":false,"is_disabled":false,"rental_uris":{"android":"levelo://app?vid=17172a73-685a-48d7-92ff-0bf37a6c5269","ios":"levelo://app?vid=17172a73-685a-48d7-92ff-0bf37a6c5269"},"vehicle_type_id":"4","last_reported":1704031569,"current_range_meters":6800,"station_id":"ce4bhs12rcd13ifvqhvg","pricing_plan_id":"free"},{"bike_id":"784a1676-1f3e-445f-a71b-58d35552f6ca","system_id":"levelo_inurba_marseille","lat":43.302784,"lon":5.377158,"is_reserved":false,"is_disabled":false,"rental_uris":{"android":"levelo://app?vid=784a1676-1f3e-445f-a71b-58d35552f6ca","ios":"levelo://app?vid=784a1676-1f3e-445f-a71b-58d35552f6ca"},"vehicle_type_id":"4","last_reported":1704031569,"current_range_meters":0,"station_id":"ce4bguh2rcd13ifvqcj0","pricing_plan_id":"free"},{"bike_id":"04989ec7-db91-4943-81f9-f4a3fba86a38","system_id":"levelo_inurba_marseille","lat":43.302784,"lon":5.377158,"is_reserved":false,"is_disabled":false,"rental_uris":{"android":"levelo://app?vid=04989ec7-db91-4943-81f9-f4a3fba86a38","ios":"levelo://app?vid=04989ec7-db91-4943-81f9-f4a3fba86a38"},"vehicle_type_id":"4","last_reported":1704031569,"current_range_meters":20400,"station_id":"ce4bguh2rcd13ifvqcj0","pricing_plan_id":"free"},{"bike_id":"8b858120-bc95-49a0-97eb-afa262ef2def","system_id":"levelo_inurba_marseille","lat":43.301429,"lon":5.37413,"is_reserved":false,"is_disabled":false,"rental_uris":{"android":"levelo://app?vid=8b858120-bc95-49a0-97eb-afa262ef2def","ios":"levelo://app?vid=8b858120-bc95-49a0-97eb-afa262ef2def"},"vehicle_type_id":"4","last_reported":1704031569,"current_range_meters":14400,"station_id":"ce4bgs92rcd13ifvqcc0","pricing_plan_id":"free"},{"bike_id":"119898ce-b674-4ec2-8fce-0e948428d880","system_id":"levelo_inurba_marseille","lat":43.30143,"lon":5.37413,"is_reserved":false,"is_disabled":false,"rental_uris":{"android":"levelo://app?vid=119898ce-b674-4ec2-8fce-0e948428d880","ios":"levelo://app?vid=119898ce-b674-4ec2-8fce-0e948428d880"},"vehicle_type_id":"4","last_reported":1704031569,"current_range_meters":15600,"station_id":"ce4bgs92rcd13ifvqcc0","pricing_plan_id":"free"},{"bike_id":"3b6ad61d-0018-4ece-a6e9-df959d7a5336","system_id":"levelo_inurba_marseille","lat":43.301429,"lon":5.37413,"is_reserved":false,"is_disabled":false,"rental_uris":{"android":"levelo://app?vid=3b6ad61d-0018-4ece-a6e9-df959d7a5336","ios":"levelo://app?vid=3b6ad61d-0018-4ece-a6e9-df959d7a5336"},"vehicle_type_id":"4","last_reported":1704031569,"current_range_meters":26000,"station_id":"ce4bgs92rcd13ifvqcc0","pricing_plan_id":"free"},{"bike_id":"5aea3673-c142-4d8e-af1d-96291f447cfe","system_id":"levelo_inurba_marseille","lat":43.301429,"lon":5.37413,"is_reserved":false,"is_disabled":false,"rental_uris":{"android":"levelo://app?vid=5aea3673-c142-4d8e-af1d-96291f447cfe","ios":"levelo://app?vid=5aea3673-c142-4d8e-af1d-96291f447cfe"},"vehicle_type_id":"4","last_reported":1704031569,"current_range_meters":18400,"station_id":"ce4bgs92rcd13ifvqcc0","pricing_plan_id":"free"},{"bike_id":"3d6b6a9f-74ab-449f-b9f6-269ebc4da1be","system_id":"levelo_inurba_marseille","lat":43.30143,"lon":5.37413,"is_reserved":false,"is_disabled":false,"rental_uris":{"android":"levelo://app?vid=3d6b6a9f-74ab-449f-b9f6-269ebc4da1be","ios":"levelo://app?vid=3d6b6a9f-74ab-449f-b9f6-269ebc4da1be"},"vehicle_type_id":"4","last_reported":1704031569,"current_range_meters":31600,"station_id":"ce4bgs92rcd13ifvqcc0","pricing_plan_id":"free"},{"bike_id":"f83709a3-c306-4277-a72c-11593d24ce22","system_id":"levelo_inurba_marseille","lat":43.301305,"lon":5.37394,"is_reserved":false,"is_disabled":false,"rental_uris":{"android":"levelo://app?vid=f83709a3-c306-4277-a72c-11593d24ce22","ios":"levelo://app?vid=f83709a3-c306-4277-a72c-11593d24ce22"},"vehicle_type_id":"4","last_reported":1704031569,"current_range_meters":24000,"station_id":"ce4bgs92rcd13ifvqcc0","pricing_plan_id":"free"},{"bike_id":"26aeb147-6955-4974-ba5d-6caced06079a","system_id":"levelo_inurba_marseille","lat":43.301429,"lon":5.37413,"is_reserved":false,"is_disabled":false,"rental_uris":{"android":"levelo://app?vid=26aeb147-6955-4974-ba5d-6caced06079a","ios":"levelo://app?vid=26aeb147-6955-4974-ba5d-6caced06079a"},"vehicle_type_id":"4","last_reported":1704031569,"current_range_meters":31600,"station_id":"ce4bgs92rcd13ifvqcc0","pricing_plan_id":"free"},{"bike_id":"979ba1fb-2404-46a9-8325-89a7324c0d97","system_id":"levelo_inurba_marseille","lat":43.301365,"lon":5.374208,"is_reserved":false,"is_disabled":false,"rental_uris":{"android":"levelo://app?vid=979ba1fb-2404-46a9-8325-89a7324c0d97","ios":"levelo://app?vid=979ba1fb-2404-46a9-8325-89a7324c0d97"},"vehicle_type_id":"4","last_reported":1704031569,"current_range_meters":18800,"station_id":"ce4bgs92rcd13ifvqcc0","pricing_plan_id":"free"},{"bike_id":"b30b3d1b-ef61-4776-bd7b-61c34fd8cc81","system_id":"levelo_inurba_marseille","lat":43.32542,"lon":5.3683,"is_reserved":false,"is_disabled":false,"rental_uris":{"android":"levelo://app?vid=b30b3d1b-ef61-4776-bd7b-61c34fd8cc81","ios":"levelo://app?vid=b30b3d1b-ef61-4776-bd7b-61c34fd8cc81"},"vehicle_type_id":"4","last_reported":1704031569,"current_range_meters":2800,"station_id":"","pricing_plan_id":"free"},{"bike_id":"42f0e134-8926-4ffe-84f7-77b44767e66d","system_id":"levelo_inurba_marseille","lat":43.319935,"lon":5.381699,"is_reserved":false,"is_disabled":false,"rental_uris":{"android":"levelo://app?vid=42f0e134-8926-4ffe-84f7-77b44767e66d","ios":"levelo://app?vid=42f0e134-8926-4ffe-84f7-77b44767e66d"},"vehicle_type_id":"4","last_reported":1704031569,"current_range_meters":27200,"station_id":"ce4bhr12rcd13ifvqhpg","pricing_plan_id":"free"},{"bike_id":"e76c9e78-f196-46b1-a4f0-3713dcab24df","system_id":"levelo_inurba_marseille","lat":43.319935,"lon":5.381699,"is_reserved":false,"is_disabled":false,"rental_uris":{"android":"levelo://app?vid=e76c9e78-f196-46b1-a4f0-3713dcab24df","ios":"levelo://app?vid=e76c9e78-f196-46b1-a4f0-3713dcab24df"},"vehicle_type_id":"4","last_reported":1704031569,"current_range_meters":9600,"station_id":"ce4bhr12rcd13ifvqhpg","pricing_plan_id":"free"},{"bike_id":"e485450b-2736-4f4c-b94b-0da5a69b88aa","system_id":"levelo_inurba_marseille","lat":43.325575,"lon":5.361573,"is_reserved":false,"is_disabled":false,"rental_uris":{"android":"levelo://app?vid=e485450b-2736-4f4c-b94b-0da5a69b88aa","ios":"levelo://app?vid=e485450b-2736-4f4c-b94b-0da5a69b88aa"},"vehicle_type_id":"4","last_reported":1704031569,"current_range_meters":3200,"station_id":"","pricing_plan_id":"free"},{"bike_id":"56fd0bbf-b37f-45ce-b47d-4ccccf56c320","system_id":"levelo_inurba_marseille","lat":43.299222,"lon":5.365554,"is_reserved":false,"is_disabled":false,"rental_uris":{"android":"levelo://app?vid=56fd0bbf-b37f-45ce-b47d-4ccccf56c320","ios":"levelo://app?vid=56fd0bbf-b37f-45ce-b47d-4ccccf56c320"},"vehicle_type_id":"4","last_reported":1704031569,"current_range_meters":20000,"station_id":"ce4bgm92rcd13ifvqbr0","pricing_plan_id":"free"},{"bike_id":"68bb17f7-a980-4dda-b4c4-79b70c16962f","system_id":"levelo_inurba_marseille","lat":43.299724,"lon":5.371829,"is_reserved":false,"is_disabled":false,"rental_uris":{"android":"levelo://app?vid=68bb17f7-a980-4dda-b4c4-79b70c16962f","ios":"levelo://app?vid=68bb17f7-a980-4dda-b4c4-79b70c16962f"},"vehicle_type_id":"4","last_reported":1704031569,"current_range_meters":29200,"station_id":"ce4bgr92rcd13ifvqc7g","pricing_plan_id":"free"},{"bike_id":"9142bc09-1d81-4c93-a6f4-628de6e1a25d","system_id":"levelo_inurba_marseille","lat":43.299243,"lon":5.374807,"is_reserved":false,"is_disabled":false,"rental_uris":{"android":"levelo://app?vid=9142bc09-1d81-4c93-a6f4-628de6e1a25d","ios":"levelo://app?vid=9142bc09-1d81-4c93-a6f4-628de6e1a25d"},"vehicle_type_id":"4","last_reported":1704031569,"current_range_meters":28800,"station_id":"ce4bgjh2rcd13ifvqbg0","pricing_plan_id":"free"},{"bike_id":"f96d0557-6b42-4905-9c9f-f3766f72025f","system_id":"levelo_inurba_marseille","lat":43.298433,"lon":5.362774,"is_reserved":false,"is_disabled":false,"rental_uris":{"android":"levelo://app?vid=f96d0557-6b42-4905-9c9f-f3766f72025f","ios":"levelo://app?vid=f96d0557-6b42-4905-9c9f-f3766f72025f"},"vehicle_type_id":"4","last_reported":1704031569,"current_range_meters":6000,"station_id":"ce4bgpp2rcd13ifvqc3g","pricing_plan_id":"free"},{"bike_id":"77629b2b-cacf-47ac-b850-233d87f5d2dd","system_id":"levelo_inurba_marseille","lat":43.305364,"lon":5.384119,"is_reserved":false,"is_disabled":false,"rental_uris":{"android":"levelo://app?vid=77629b2b-cacf-47ac-b850-233d87f5d2dd","ios":"levelo://app?vid=77629b2b-cacf-47ac-b850-233d87f5d2dd"},"vehicle_type_id":"4","last_reported":1704031569,"current_range_meters":24400,"station_id":"ce4bgg92rcd13ifvqb30","pricing_plan_id":"free"},{"bike_id":"4235fc86-7b94-4aac-ba76-1c4ae5d266f0","system_id":"levelo_inurba_marseille","lat":43.299243,"lon":5.37481,"is_reserved":false,"is_disabled":false,"rental_uris":{"android":"levelo://app?vid=4235fc86-7b94-4aac-ba76-1c4ae5d266f0","ios":"levelo://app?vid=4235fc86-7b94-4aac-ba76-1c4ae5d266f0"},"vehicle_type_id":"4","last_reported":1704031569,"current_range_meters":25600,"station_id":"ce4bgjh2rcd13ifvqbg0","pricing_plan_id":"free"},{"bike_id":"4102f7dd-7ccb-4050-95ff-065d06c268e7","system_id":"levelo_inurba_marseille","lat":43.311722,"lon":5.387247,"is_reserved":false,"is_disabled":false,"rental_uris":{"android":"levelo://app?vid=4102f7dd-7ccb-4050-95ff-065d06c268e7","ios":"levelo://app?vid=4102f7dd-7ccb-4050-95ff-065d06c268e7"},"vehicle_type_id":"4","last_reported":1704031569,"current_range_meters":23200,"station_id":"ce4bgv12rcd13ifvqcp0","pricing_plan_id":"free"},{"bike_id":"1340f101-36d5-4d22-8752-aed6ba1ff44a","system_id":"levelo_inurba_marseille","lat":43.299243,"lon":5.37481,"is_reserved":false,"is_disabled":false,"rental_uris":{"android":"levelo://app?vid=1340f101-36d5-4d22-8752-aed6ba1ff44a","ios":"levelo://app?vid=1340f101-36d5-4d22-8752-aed6ba1ff44a"},"vehicle_type_id":"4","last_reported":1704031569,"current_range_meters":23200,"station_id":"ce4bgjh2rcd13ifvqbg0","pricing_plan_id":"free"},{"bike_id":"94fb0411-81ba-4e90-a144-79605cfe6eb4","system_id":"levelo_inurba_marseille","lat":43.299243,"lon":5.37481,"is_reserved":false,"is_disabled":false,"rental_uris":{"android":"levelo://app?vid=94fb0411-81ba-4e90-a144-79605cfe6eb4","ios":"levelo://app?vid=94fb0411-81ba-4e90-a144-79605cfe6eb4"},"vehicle_type_id":"4","last_reported":1704031569,"current_range_meters":4400,"station_id":"ce4bgjh2rcd13ifvqbg0","pricing_plan_id":"free"},{"bike_id":"7dacb968-7456-46f9-98a4-1c1aa118f5e2","system_id":"levelo_inurba_marseille","lat":43.322872,"lon":5.382756,"is_reserved":false,"is_disabled":false,"rental_uris":{"android":"levelo://app?vid=7dacb968-7456-46f9-98a4-1c1aa118f5e2","ios":"levelo://app?vid=7dacb968-7456-46f9-98a4-1c1aa118f5e2"},"vehicle_type_id":"4","last_reported":1704031569,"current_range_meters":24800,"station_id":"ce4bhr12rcd13ifvqhqg","pricing_plan_id":"free"},{"bike_id":"2154e13a-10ef-4d79-b4f3-a92c055765e5","system_id":"levelo_inurba_marseille","lat":43.322872,"lon":5.382756,"is_reserved":false,"is_disabled":false,"rental_uris":{"android":"levelo://app?vid=2154e13a-10ef-4d79-b4f3-a92c055765e5","ios":"levelo://app?vid=2154e13a-10ef-4d79-b4f3-a92c055765e5"},"vehicle_type_id":"4","last_reported":1704031569,"current_range_meters":31600,"station_id":"ce4bhr12rcd13ifvqhqg","pricing_plan_id":"free"},{"bike_id":"df7848f8-31ab-473f-9a21-20a54afe0084","system_id":"levelo_inurba_marseille","lat":43.322872,"lon":5.382756,"is_reserved":false,"is_disabled":false,"rental_uris":{"android":"levelo://app?vid=df7848f8-31ab-473f-9a21-20a54afe0084","ios":"levelo://app?vid=df7848f8-31ab-473f-9a21-20a54afe0084"},"vehicle_type_id":"4","last_reported":1704031569,"current_range_meters":8000,"station_id":"ce4bhr12rcd13ifvqhqg","pricing_plan_id":"free"},{"bike_id":"8fe9ee2b-e747-438c-a4f6-b801f850c572","system_id":"levelo_inurba_marseille","lat":43.322872,"lon":5.382756,"is_reserved":false,"is_disabled":false,"rental_uris":{"android":"levelo://app?vid=8fe9ee2b-e747-438c-a4f6-b801f850c572","ios":"levelo://app?vid=8fe9ee2b-e747-438c-a4f6-b801f850c572"},"vehicle_type_id":"4","last_reported":1704031569,"current_range_meters":22000,"station_id":"ce4bhr12rcd13ifvqhqg","pricing_plan_id":"free"},{"bike_id":"c05d138a-9eaa-4578-84f8-5eb99c852b0c","system_id":"levelo_inurba_marseille","lat":43.29888,"lon":5.37626,"is_reserved":false,"is_disabled":false,"rental_uris":{"android":"levelo://app?vid=c05d138a-9eaa-4578-84f8-5eb99c852b0c","ios":"levelo://app?vid=c05d138a-9eaa-4578-84f8-5eb99c852b0c"},"vehicle_type_id":"4","last_reported":1704031569,"current_range_meters":3600,"station_id":"","pricing_plan_id":"free"},{"bike_id":"341c08e8-590f-49ec-b3d8-929d1eff1926","system_id":"levelo_inurba_marseille","lat":43.32822,"lon":5.366798,"is_reserved":false,"is_disabled":false,"rental_uris":{"android":"levelo://app?vid=341c08e8-590f-49ec-b3d8-929d1eff1926","ios":"levelo://app?vid=341c08e8-590f-49ec-b3d8-929d1eff1926"},"vehicle_type_id":"4","last_reported":1704031569,"current_range_meters":30000,"station_id":"ce4bhs92rcd13ifvqi0g","pricing_plan_id":"free"},{"bike_id":"a677cd10-a09b-4b2e-bffd-45b05d2c9229","system_id":"levelo_inurba_marseille","lat":43.32823,"lon":5.36683,"is_reserved":false,"is_disabled":false,"rental_uris":{"android":"levelo://app?vid=a677cd10-a09b-4b2e-bffd-45b05d2c9229","ios":"levelo://app?vid=a677cd10-a09b-4b2e-bffd-45b05d2c9229"},"vehicle_type_id":"4","last_reported":1704031569,"current_range_meters":13600,"station_id":"ce4bhs92rcd13ifvqi0g","pricing_plan_id":"free"},{"bike_id":"c99c1421-6c70-45e1-a99f-19afba82ca69","system_id":"levelo_inurba_marseille","lat":43.32825,"lon":5.36684,"is_reserved":false,"is_disabled":false,"rental_uris":{"android":"levelo://app?vid=c99c1421-6c70-45e1-a99f-19afba82ca69","ios":"levelo://app?vid=c99c1421-6c70-45e1-a99f-19afba82ca69"},"vehicle_type_id":"4","last_reported":1704031569,"current_range_meters":22800,"station_id":"ce4bhs92rcd13ifvqi0g","pricing_plan_id":"free"},{"bike_id":"51714c4a-3132-4951-88ec-80e85fa125e8","system_id":"levelo_inurba_marseille","lat":43.328254,"lon":5.36681,"is_reserved":false,"is_disabled":false,"rental_uris":{"android":"levelo://app?vid=51714c4a-3132-4951-88ec-80e85fa125e8","ios":"levelo://app?vid=51714c4a-3132-4951-88ec-80e85fa125e8"},"vehicle_type_id":"4","last_reported":1704031569,"current_range_meters":30000,"station_id":"ce4bhs92rcd13ifvqi0g","pricing_plan_id":"free"},{"bike_id":"9d832f49-b330-492c-bca5-26b211dfab4e","system_id":"levelo_inurba_marseille","lat":43.328271,"lon":5.366767,"is_reserved":false,"is_disabled":false,"rental_uris":{"android":"levelo://app?vid=9d832f49-b330-492c-bca5-26b211dfab4e","ios":"levelo://app?vid=9d832f49-b330-492c-bca5-26b211dfab4e"},"vehicle_type_id":"4","last_reported":1704031569,"current_range_meters":15600,"station_id":"ce4bhs92rcd13ifvqi0g","pricing_plan_id":"free"},{"bike_id":"a448ca86-2b35-41e1-89c4-32a99bab0563","system_id":"levelo_inurba_marseille","lat":43.328371,"lon":5.366912,"is_reserved":false,"is_disabled":false,"rental_uris":{"android":"levelo://app?vid=a448ca86-2b35-41e1-89c4-32a99bab0563","ios":"levelo://app?vid=a448ca86-2b35-41e1-89c4-32a99bab0563"},"vehicle_type_id":"4","last_reported":1704031569,"current_range_meters":10400,"station_id":"ce4bhs92rcd13ifvqi0g","pricing_plan_id":"free"},{"bike_id":"7aa6a530-3ac6-4ec6-a447-a7bf4c489e07","system_id":"levelo_inurba_marseille","lat":43.3283,"lon":5.36676,"is_reserved":false,"is_disabled":false,"rental_uris":{"android":"levelo://app?vid=7aa6a530-3ac6-4ec6-a447-a7bf4c489e07","ios":"levelo://app?vid=7aa6a530-3ac6-4ec6-a447-a7bf4c489e07"},"vehicle_type_id":"4","last_reported":1704031569,"current_range_meters":15600,"station_id":"ce4bhs92rcd13ifvqi0g","pricing_plan_id":"free"},{"bike_id":"8233d320-3015-483d-9317-9f5ea8045c87","system_id":"levelo_inurba_marseille","lat":43.32831,"lon":5.36682,"is_reserved":false,"is_disabled":false,"rental_uris":{"android":"levelo://app?vid=8233d320-3015-483d-9317-9f5ea8045c87","ios":"levelo://app?vid=8233d320-3015-483d-9317-9f5ea8045c87"},"vehicle_type_id":"4","last_reported":1704031569,"current_range_meters":11600,"station_id":"ce4bhs92rcd13ifvqi0g","pricing_plan_id":"free"},{"bike_id":"ea7074d7-b7c9-4941-82c2-dff391bae9cb","system_id":"levelo_inurba_marseille","lat":43.328313,"lon":5.366923,"is_reserved":false,"is_disabled":false,"rental_uris":{"android":"levelo://app?vid=ea7074d7-b7c9-4941-82c2-dff391bae9cb","ios":"levelo://app?vid=ea7074d7-b7c9-4941-82c2-dff391bae9cb"},"vehicle_type_id":"4","last_reported":1704031569,"current_range_meters":24800,"station_id":"ce4bhs92rcd13ifvqi0g","pricing_plan_id":"free"},{"bike_id":"904f83aa-e9ab-401d-84c1-9edfed82b884","system_id":"levelo_inurba_marseille","lat":43.32832,"lon":5.36675,"is_reserved":false,"is_disabled":false,"rental_uris":{"android":"levelo://app?vid=904f83aa-e9ab-401d-84c1-9edfed82b884","ios":"levelo://app?vid=904f83aa-e9ab-401d-84c1-9edfed82b884"},"vehicle_type_id":"4","last_reported":1704031569,"current_range_meters":22000,"station_id":"ce4bhs92rcd13ifvqi0g","pricing_plan_id":"free"},{"bike_id":"d8fc4be0-ffe8-41c3-a891-86ab0f1ad649","system_id":"levelo_inurba_marseille","lat":43.297163,"lon":5.365866,"is_reserved":false,"is_disabled":false,"rental_uris":{"android":"levelo://app?vid=d8fc4be0-ffe8-41c3-a891-86ab0f1ad649","ios":"levelo://app?vid=d8fc4be0-ffe8-41c3-a891-86ab0f1ad649"},"vehicle_type_id":"4","last_reported":1704031569,"current_range_meters":22800,"station_id":"ce4bgn12rcd13ifvqbt0","pricing_plan_id":"free"},{"bike_id":"3406ac08-144e-419c-8a8c-9c89910b5b78","system_id":"levelo_inurba_marseille","lat":43.32834,"lon":5.36679,"is_reserved":false,"is_disabled":false,"rental_uris":{"android":"levelo://app?vid=3406ac08-144e-419c-8a8c-9c89910b5b78","ios":"levelo://app?vid=3406ac08-144e-419c-8a8c-9c89910b5b78"},"vehicle_type_id":"4","last_reported":1704031569,"current_range_meters":27600,"station_id":"ce4bhs92rcd13ifvqi0g","pricing_plan_id":"free"},{"bike_id":"eb525211-5920-4e2e-a959-44e12eca2c78","system_id":"levelo_inurba_marseille","lat":43.297163,"lon":5.365866,"is_reserved":false,"is_disabled":false,"rental_uris":{"android":"levelo://app?vid=eb525211-5920-4e2e-a959-44e12eca2c78","ios":"levelo://app?vid=eb525211-5920-4e2e-a959-44e12eca2c78"},"vehicle_type_id":"4","last_reported":1704031569,"current_range_meters":24000,"station_id":"ce4bgn12rcd13ifvqbt0","pricing_plan_id":"free"},{"bike_id":"f5d98091-707d-4bca-8795-6e885be6f6d9","system_id":"levelo_inurba_marseille","lat":43.297163,"lon":5.365866,"is_reserved":false,"is_disabled":false,"rental_uris":{"android":"levelo://app?vid=f5d98091-707d-4bca-8795-6e885be6f6d9","ios":"levelo://app?vid=f5d98091-707d-4bca-8795-6e885be6f6d9"},"vehicle_type_id":"4","last_reported":1704031569,"current_range_meters":29600,"station_id":"ce4bgn12rcd13ifvqbt0","pricing_plan_id":"free"},{"bike_id":"370cccf7-c9ba-46c2-819b-c8e8cacc4c21","system_id":"levelo_inurba_marseille","lat":43.3277,"lon":5.37458,"is_reserved":false,"is_disabled":false,"rental_uris":{"android":"levelo://app?vid=370cccf7-c9ba-46c2-819b-c8e8cacc4c21","ios":"levelo://app?vid=370cccf7-c9ba-46c2-819b-c8e8cacc4c21"},"vehicle_type_id":"4","last_reported":1704031569,"current_range_meters":16400,"station_id":"","pricing_plan_id":"free"},{"bike_id":"921b424d-ad0d-4c7a-9d74-66e3a49bfa19","system_id":"levelo_inurba_marseille","lat":43.32934,"lon":5.36612,"is_reserved":false,"is_disabled":false,"rental_uris":{"android":"levelo://app?vid=921b424d-ad0d-4c7a-9d74-66e3a49bfa19","ios":"levelo://app?vid=921b424d-ad0d-4c7a-9d74-66e3a49bfa19"},"vehicle_type_id":"4","last_reported":1704031569,"current_range_meters":1600,"station_id":"","pricing_plan_id":"free"},{"bike_id":"dc4158d2-b358-4eef-a9bd-5da9ea7a8927","system_id":"levelo_inurba_marseille","lat":43.296131,"lon":5.370791,"is_reserved":false,"is_disabled":false,"rental_uris":{"android":"levelo://app?vid=dc4158d2-b358-4eef-a9bd-5da9ea7a8927","ios":"levelo://app?vid=dc4158d2-b358-4eef-a9bd-5da9ea7a8927"},"vehicle_type_id":"4","last_reported":1704031569,"current_range_meters":6400,"station_id":"ce4bgnh2rcd13ifvqc0g","pricing_plan_id":"free"},{"bike_id":"1663cd84-da9a-4bda-859d-b8e18b36e9a2","system_id":"levelo_inurba_marseille","lat":43.296131,"lon":5.370773,"is_reserved":false,"is_disabled":false,"rental_uris":{"android":"levelo://app?vid=1663cd84-da9a-4bda-859d-b8e18b36e9a2","ios":"levelo://app?vid=1663cd84-da9a-4bda-859d-b8e18b36e9a2"},"vehicle_type_id":"4","last_reported":1704031569,"current_range_meters":26000,"station_id":"ce4bgnh2rcd13ifvqc0g","pricing_plan_id":"free"},{"bike_id":"36c94323-35a2-4214-8605-9c640c3ff988","system_id":"levelo_inurba_marseille","lat":43.296131,"lon":5.370773,"is_reserved":false,"is_disabled":false,"rental_uris":{"android":"levelo://app?vid=36c94323-35a2-4214-8605-9c640c3ff988","ios":"levelo://app?vid=36c94323-35a2-4214-8605-9c640c3ff988"},"vehicle_type_id":"4","last_reported":1704031569,"current_range_meters":31600,"station_id":"ce4bgnh2rcd13ifvqc0g","pricing_plan_id":"free"},{"bike_id":"67360e04-0edd-46a7-9717-fc2aa8b678ad","system_id":"levelo_inurba_marseille","lat":43.29573,"lon":5.367355,"is_reserved":false,"is_disabled":false,"rental_uris":{"android":"levelo://app?vid=67360e04-0edd-46a7-9717-fc2aa8b678ad","ios":"levelo://app?vid=67360e04-0edd-46a7-9717-fc2aa8b678ad"},"vehicle_type_id":"4","last_reported":1704031569,"current_range_meters":22800,"station_id":"ce4bgph2rcd13ifvqc2g","pricing_plan_id":"free"},{"bike_id":"99615edb-857c-4f2a-ba7f-2f2add069a51","system_id":"levelo_inurba_marseille","lat":43.29573,"lon":5.367355,"is_reserved":false,"is_disabled":false,"rental_uris":{"android":"levelo://app?vid=99615edb-857c-4f2a-ba7f-2f2add069a51","ios":"levelo://app?vid=99615edb-857c-4f2a-ba7f-2f2add069a51"},"vehicle_type_id":"4","last_reported":1704031569,"current_range_meters":21600,"station_id":"ce4bgph2rcd13ifvqc2g","pricing_plan_id":"free"},{"bike_id":"dcf208e0-d4d7-4a6e-831c-d44e785d2716","system_id":"levelo_inurba_marseille","lat":43.308012,"lon":5.381511,"is_reserved":false,"is_disabled":false,"rental_uris":{"android":"levelo://app?vid=dcf208e0-d4d7-4a6e-831c-d44e785d2716","ios":"levelo://app?vid=dcf208e0-d4d7-4a6e-831c-d44e785d2716"},"vehicle_type_id":"4","last_reported":1704031569,"current_range_meters":0,"station_id":"ce4bgt12rcd13ifvqce0","pricing_plan_id":"free"},{"bike_id":"59c10db5-eaee-4749-bcf7-3304693fa74d","system_id":"levelo_inurba_marseille","lat":43.317557,"lon":5.390173,"is_reserved":false,"is_disabled":false,"rental_uris":{"android":"levelo://app?vid=59c10db5-eaee-4749-bcf7-3304693fa74d","ios":"levelo://app?vid=59c10db5-eaee-4749-bcf7-3304693fa74d"},"vehicle_type_id":"4","last_reported":1704031569,"current_range_meters":31200,"station_id":"ce4bhqp2rcd13ifvqhng","pricing_plan_id":"free"},{"bike_id":"28ec60f8-9e95-4ac5-a829-a214dc8d0143","system_id":"levelo_inurba_marseille","lat":43.317557,"lon":5.390173,"is_reserved":false,"is_disabled":false,"rental_uris":{"android":"levelo://app?vid=28ec60f8-9e95-4ac5-a829-a214dc8d0143","ios":"levelo://app?vid=28ec60f8-9e95-4ac5-a829-a214dc8d0143"},"vehicle_type_id":"4","last_reported":1704031569,"current_range_meters":29200,"station_id":"ce4bhqp2rcd13ifvqhng","pricing_plan_id":"free"},{"bike_id":"d448c804-17b0-4d32-9e11-6f160c9c47d4","system_id":"levelo_inurba_marseille","lat":43.298037,"lon":5.381066,"is_reserved":false,"is_disabled":false,"rental_uris":{"android":"levelo://app?vid=d448c804-17b0-4d32-9e11-6f160c9c47d4","ios":"levelo://app?vid=d448c804-17b0-4d32-9e11-6f160c9c47d4"},"vehicle_type_id":"4","last_reported":1704031569,"current_range_meters":17600,"station_id":"ce4bgip2rcd13ifvqbb0","pricing_plan_id":"free"},{"bike_id":"fdd88b79-db20-42d8-a1ed-91df7b764fae","system_id":"levelo_inurba_marseille","lat":43.29804,"lon":5.38109,"is_reserved":false,"is_disabled":false,"rental_uris":{"android":"levelo://app?vid=fdd88b79-db20-42d8-a1ed-91df7b764fae","ios":"levelo://app?vid=fdd88b79-db20-42d8-a1ed-91df7b764fae"},"vehicle_type_id":"4","last_reported":1704031569,"current_range_meters":14400,"station_id":"ce4bgip2rcd13ifvqbb0","pricing_plan_id":"free"},{"bike_id":"a585d45b-231b-438b-8f3f-2e8116bb21aa","system_id":"levelo_inurba_marseille","lat":43.298037,"lon":5.381066,"is_reserved":false,"is_disabled":false,"rental_uris":{"android":"levelo://app?vid=a585d45b-231b-438b-8f3f-2e8116bb21aa","ios":"levelo://app?vid=a585d45b-231b-438b-8f3f-2e8116bb21aa"},"vehicle_type_id":"4","last_reported":1704031569,"current_range_meters":27200,"station_id":"ce4bgip2rcd13ifvqbb0","pricing_plan_id":"free"},{"bike_id":"ff399437-e8ee-4bf5-a893-325c3f959c5f","system_id":"levelo_inurba_marseille","lat":43.298037,"lon":5.381066,"is_reserved":false,"is_disabled":false,"rental_uris":{"android":"levelo://app?vid=ff399437-e8ee-4bf5-a893-325c3f959c5f","ios":"levelo://app?vid=ff399437-e8ee-4bf5-a893-325c3f959c5f"},"vehicle_type_id":"4","last_reported":1704031569,"current_range_meters":21600,"station_id":"ce4bgip2rcd13ifvqbb0","pricing_plan_id":"free"},{"bike_id":"85057b80-189a-4972-80fb-1b98f4e4fa5a","system_id":"levelo_inurba_marseille","lat":43.296277,"lon":5.377108,"is_reserved":false,"is_disabled":false,"rental_uris":{"android":"levelo://app?vid=85057b80-189a-4972-80fb-1b98f4e4fa5a","ios":"levelo://app?vid=85057b80-189a-4972-80fb-1b98f4e4fa5a"},"vehicle_type_id":"4","last_reported":1704031569,"current_range_meters":14000,"station_id":"ce4bgi92rcd13ifvqb90","pricing_plan_id":"free"},{"bike_id":"1a47df4c-2e32-4999-bdeb-399a684072d4","system_id":"levelo_inurba_marseille","lat":43.304274,"lon":5.388873,"is_reserved":false,"is_disabled":false,"rental_uris":{"android":"levelo://app?vid=1a47df4c-2e32-4999-bdeb-399a684072d4","ios":"levelo://app?vid=1a47df4c-2e32-4999-bdeb-399a684072d4"},"vehicle_type_id":"4","last_reported":1704031569,"current_range_meters":20800,"station_id":"ce4bgk12rcd13ifvqbi0","pricing_plan_id":"free"},{"bike_id":"d60802d6-4f47-444a-b234-883690eec05b","system_id":"levelo_inurba_marseille","lat":43.33062,"lon":5.3627,"is_reserved":false,"is_disabled":false,"rental_uris":{"android":"levelo://app?vid=d60802d6-4f47-444a-b234-883690eec05b","ios":"levelo://app?vid=d60802d6-4f47-444a-b234-883690eec05b"},"vehicle_type_id":"4","last_reported":1704031569,"current_range_meters":23200,"station_id":"","pricing_plan_id":"free"},{"bike_id":"7119845d-00aa-4d9f-be8c-fc97d41f1380","system_id":"levelo_inurba_marseille","lat":43.297594,"lon":5.381134,"is_reserved":false,"is_disabled":false,"rental_uris":{"android":"levelo://app?vid=7119845d-00aa-4d9f-be8c-fc97d41f1380","ios":"levelo://app?vid=7119845d-00aa-4d9f-be8c-fc97d41f1380"},"vehicle_type_id":"4","last_reported":1704031569,"current_range_meters":11600,"station_id":"ce4bgip2rcd13ifvqbb0","pricing_plan_id":"free"},{"bike_id":"b9ba425e-237f-411a-87e3-72df0dadfe29","system_id":"levelo_inurba_marseille","lat":43.299707,"lon":5.384859,"is_reserved":false,"is_disabled":false,"rental_uris":{"android":"levelo://app?vid=b9ba425e-237f-411a-87e3-72df0dadfe29","ios":"levelo://app?vid=b9ba425e-237f-411a-87e3-72df0dadfe29"},"vehicle_type_id":"4","last_reported":1704031569,"current_range_meters":25200,"station_id":"ce4bgj92rcd13ifvqbd0","pricing_plan_id":"free"},{"bike_id":"23c50d00-f7be-4273-93d8-bbbc5f7bd4f6","system_id":"levelo_inurba_marseille","lat":43.299707,"lon":5.384859,"is_reserved":false,"is_disabled":false,"rental_uris":{"android":"levelo://app?vid=23c50d00-f7be-4273-93d8-bbbc5f7bd4f6","ios":"levelo://app?vid=23c50d00-f7be-4273-93d8-bbbc5f7bd4f6"},"vehicle_type_id":"4","last_reported":1704031569,"current_range_meters":22400,"station_id":"ce4bgj92rcd13ifvqbd0","pricing_plan_id":"free"},{"bike_id":"446f1699-f70e-497b-b3a0-1671ea77aa71","system_id":"levelo_inurba_marseille","lat":43.295279,"lon":5.375048,"is_reserved":false,"is_disabled":false,"rental_uris":{"android":"levelo://app?vid=446f1699-f70e-497b-b3a0-1671ea77aa71","ios":"levelo://app?vid=446f1699-f70e-497b-b3a0-1671ea77aa71"},"vehicle_type_id":"4","last_reported":1704031569,"current_range_meters":17600,"station_id":"ce4bgkp2rcd13ifvqbmg","pricing_plan_id":"free"},{"bike_id":"8b1205b6-6f9a-42da-8074-c22b0a9ff0ae","system_id":"levelo_inurba_marseille","lat":43.299724,"lon":5.384848,"is_reserved":false,"is_disabled":false,"rental_uris":{"android":"levelo://app?vid=8b1205b6-6f9a-42da-8074-c22b0a9ff0ae","ios":"levelo://app?vid=8b1205b6-6f9a-42da-8074-c22b0a9ff0ae"},"vehicle_type_id":"4","last_reported":1704031569,"current_range_meters":25600,"station_id":"ce4bgj92rcd13ifvqbd0","pricing_plan_id":"free"},{"bike_id":"fdba10d6-6c0f-4aa0-aa2d-a60cd34dc728","system_id":"levelo_inurba_marseille","lat":43.32367,"lon":5.388836,"is_reserved":false,"is_disabled":false,"rental_uris":{"android":"levelo://app?vid=fdba10d6-6c0f-4aa0-aa2d-a60cd34dc728","ios":"levelo://app?vid=fdba10d6-6c0f-4aa0-aa2d-a60cd34dc728"},"vehicle_type_id":"4","last_reported":1704031569,"current_range_meters":11200,"station_id":"ce4bhqp2rcd13ifvqhog","pricing_plan_id":"free"},{"bike_id":"07ad4892-d5c2-4a7c-afdc-19e9e1cd533a","system_id":"levelo_inurba_marseille","lat":43.293259,"lon":5.371586,"is_reserved":false,"is_disabled":false,"rental_uris":{"android":"levelo://app?vid=07ad4892-d5c2-4a7c-afdc-19e9e1cd533a","ios":"levelo://app?vid=07ad4892-d5c2-4a7c-afdc-19e9e1cd533a"},"vehicle_type_id":"4","last_reported":1704031569,"current_range_meters":20000,"station_id":"ce4bgh92rcd13ifvqb40","pricing_plan_id":"free"},{"bike_id":"df6bfe13-b173-404a-96df-8acf0ad9ac6b","system_id":"levelo_inurba_marseille","lat":43.293259,"lon":5.371586,"is_reserved":false,"is_disabled":false,"rental_uris":{"android":"levelo://app?vid=df6bfe13-b173-404a-96df-8acf0ad9ac6b","ios":"levelo://app?vid=df6bfe13-b173-404a-96df-8acf0ad9ac6b"},"vehicle_type_id":"4","last_reported":1704031569,"current_range_meters":14800,"station_id":"ce4bgh92rcd13ifvqb40","pricing_plan_id":"free"},{"bike_id":"63458929-5772-4fc8-a30e-b3dc02f5a426","system_id":"levelo_inurba_marseille","lat":43.292749,"lon":5.368402,"is_reserved":false,"is_disabled":false,"rental_uris":{"android":"levelo://app?vid=63458929-5772-4fc8-a30e-b3dc02f5a426","ios":"levelo://app?vid=63458929-5772-4fc8-a30e-b3dc02f5a426"},"vehicle_type_id":"4","last_reported":1704031569,"current_range_meters":20400,"station_id":"ce4bhbp2rcd13ifvqesg","pricing_plan_id":"free"},{"bike_id":"778c6cc6-ac48-4bb7-a04a-0e05bae5b286","system_id":"levelo_inurba_marseille","lat":43.293009,"lon":5.374584,"is_reserved":false,"is_disabled":false,"rental_uris":{"android":"levelo://app?vid=778c6cc6-ac48-4bb7-a04a-0e05bae5b286","ios":"levelo://app?vid=778c6cc6-ac48-4bb7-a04a-0e05bae5b286"},"vehicle_type_id":"4","last_reported":1704031569,"current_range_meters":7600,"station_id":"ce4bgi12rcd13ifvqb70","pricing_plan_id":"free"},{"bike_id":"1d0798bb-509f-41a2-9aa3-2735f4dad56a","system_id":"levelo_inurba_marseille","lat":43.303002,"lon":5.392142,"is_reserved":false,"is_disabled":false,"rental_uris":{"android":"levelo://app?vid=1d0798bb-509f-41a2-9aa3-2735f4dad56a","ios":"levelo://app?vid=1d0798bb-509f-41a2-9aa3-2735f4dad56a"},"vehicle_type_id":"4","last_reported":1704031569,"current_range_meters":0,"station_id":"ce4bgkh2rcd13ifvqbk0","pricing_plan_id":"free"},{"bike_id":"ac168138-aae6-4873-bd11-58fb43592e89","system_id":"levelo_inurba_marseille","lat":43.292311,"lon":5.360731,"is_reserved":false,"is_disabled":false,"rental_uris":{"android":"levelo://app?vid=ac168138-aae6-4873-bd11-58fb43592e89","ios":"levelo://app?vid=ac168138-aae6-4873-bd11-58fb43592e89"},"vehicle_type_id":"4","last_reported":1704031569,"current_range_meters":25200,"station_id":"ce4bhbh2rcd13ifvqeqg","pricing_plan_id":"free"},{"bike_id":"8b9bfead-e561-4e6d-a852-3052b4b77a43","system_id":"levelo_inurba_marseille","lat":43.29225,"lon":5.36067,"is_reserved":false,"is_disabled":false,"rental_uris":{"android":"levelo://app?vid=8b9bfead-e561-4e6d-a852-3052b4b77a43","ios":"levelo://app?vid=8b9bfead-e561-4e6d-a852-3052b4b77a43"},"vehicle_type_id":"4","last_reported":1704031569,"current_range_meters":16000,"station_id":"ce4bhbh2rcd13ifvqeqg","pricing_plan_id":"free"},{"bike_id":"17d802e5-ab87-44e3-965f-2370738a0207","system_id":"levelo_inurba_marseille","lat":43.300852,"lon":5.390859,"is_reserved":false,"is_disabled":false,"rental_uris":{"android":"levelo://app?vid=17d802e5-ab87-44e3-965f-2370738a0207","ios":"levelo://app?vid=17d802e5-ab87-44e3-965f-2370738a0207"},"vehicle_type_id":"4","last_reported":1704031569,"current_range_meters":19600,"station_id":"ce4bh192rcd13ifvqdb0","pricing_plan_id":"free"},{"bike_id":"35228086-edfa-4848-801f-a2282ebc3acf","system_id":"levelo_inurba_marseille","lat":43.29269,"lon":5.37609,"is_reserved":false,"is_disabled":false,"rental_uris":{"android":"levelo://app?vid=35228086-edfa-4848-801f-a2282ebc3acf","ios":"levelo://app?vid=35228086-edfa-4848-801f-a2282ebc3acf"},"vehicle_type_id":"4","last_reported":1704031569,"current_range_meters":22400,"station_id":"","pricing_plan_id":"free"},{"bike_id":"e40a02f2-f3df-410b-908e-b0dde4f2f9e9","system_id":"levelo_inurba_marseille","lat":43.292645,"lon":5.37617,"is_reserved":false,"is_disabled":false,"rental_uris":{"android":"levelo://app?vid=e40a02f2-f3df-410b-908e-b0dde4f2f9e9","ios":"levelo://app?vid=e40a02f2-f3df-410b-908e-b0dde4f2f9e9"},"vehicle_type_id":"4","last_reported":1704031569,"current_range_meters":29200,"station_id":"","pricing_plan_id":"free"},{"bike_id":"390b3f3a-65ed-40bd-859c-ca405438ce53","system_id":"levelo_inurba_marseille","lat":43.292595,"lon":5.376207,"is_reserved":false,"is_disabled":false,"rental_uris":{"android":"levelo://app?vid=390b3f3a-65ed-40bd-859c-ca405438ce53","ios":"levelo://app?vid=390b3f3a-65ed-40bd-859c-ca405438ce53"},"vehicle_type_id":"4","last_reported":1704031569,"current_range_meters":19600,"station_id":"","pricing_plan_id":"free"},{"bike_id":"c95dc5df-9b5f-4129-9a6c-9ceda69b6072","system_id":"levelo_inurba_marseille","lat":43.291671,"lon":5.371575,"is_reserved":false,"is_disabled":false,"rental_uris":{"android":"levelo://app?vid=c95dc5df-9b5f-4129-9a6c-9ceda69b6072","ios":"levelo://app?vid=c95dc5df-9b5f-4129-9a6c-9ceda69b6072"},"vehicle_type_id":"4","last_reported":1704031569,"current_range_meters":28400,"station_id":"ce4bha92rcd13ifvqeh0","pricing_plan_id":"free"},{"bike_id":"3c7936de-ac51-43b1-87cf-fdd05aff820b","system_id":"levelo_inurba_marseille","lat":43.300852,"lon":5.390859,"is_reserved":false,"is_disabled":false,"rental_uris":{"android":"levelo://app?vid=3c7936de-ac51-43b1-87cf-fdd05aff820b","ios":"levelo://app?vid=3c7936de-ac51-43b1-87cf-fdd05aff820b"},"vehicle_type_id":"4","last_reported":1704031569,"current_range_meters":31600,"station_id":"ce4bh192rcd13ifvqdb0","pricing_plan_id":"free"},{"bike_id":"7c1c8587-ea5c-482e-8b5d-ba7bb8303479","system_id":"levelo_inurba_marseille","lat":43.2919,"lon":5.35798,"is_reserved":false,"is_disabled":false,"rental_uris":{"android":"levelo://app?vid=7c1c8587-ea5c-482e-8b5d-ba7bb8303479","ios":"levelo://app?vid=7c1c8587-ea5c-482e-8b5d-ba7bb8303479"},"vehicle_type_id":"4","last_reported":1704031569,"current_range_meters":0,"station_id":"ce4bhb12rcd13ifvqel0","pricing_plan_id":"free"},{"bike_id":"54087de6-de28-46e5-9652-1d220c8792fb","system_id":"levelo_inurba_marseille","lat":43.291994,"lon":5.357886,"is_reserved":false,"is_disabled":false,"rental_uris":{"android":"levelo://app?vid=54087de6-de28-46e5-9652-1d220c8792fb","ios":"levelo://app?vid=54087de6-de28-46e5-9652-1d220c8792fb"},"vehicle_type_id":"4","last_reported":1704031569,"current_range_meters":18400,"station_id":"ce4bhb12rcd13ifvqel0","pricing_plan_id":"free"},{"bike_id":"b6c0e3b7-917e-4598-8d1e-893006fc524d","system_id":"levelo_inurba_marseille","lat":43.291994,"lon":5.357886,"is_reserved":false,"is_disabled":false,"rental_uris":{"android":"levelo://app?vid=b6c0e3b7-917e-4598-8d1e-893006fc524d","ios":"levelo://app?vid=b6c0e3b7-917e-4598-8d1e-893006fc524d"},"vehicle_type_id":"4","last_reported":1704031569,"current_range_meters":18400,"station_id":"ce4bhb12rcd13ifvqel0","pricing_plan_id":"free"},{"bike_id":"3c6e4989-2b6e-4430-9b5c-8bb35068b816","system_id":"levelo_inurba_marseille","lat":43.29525,"lon":5.38548,"is_reserved":false,"is_disabled":false,"rental_uris":{"android":"levelo://app?vid=3c6e4989-2b6e-4430-9b5c-8bb35068b816","ios":"levelo://app?vid=3c6e4989-2b6e-4430-9b5c-8bb35068b816"},"vehicle_type_id":"4","last_reported":1704031569,"current_range_meters":20000,"station_id":"ce4bgih2rcd13ifvqba0","pricing_plan_id":"free"},{"bike_id":"07790676-ad6d-4f31-a551-f03ee29dec29","system_id":"levelo_inurba_marseille","lat":43.29529,"lon":5.385581,"is_reserved":false,"is_disabled":false,"rental_uris":{"android":"levelo://app?vid=07790676-ad6d-4f31-a551-f03ee29dec29","ios":"levelo://app?vid=07790676-ad6d-4f31-a551-f03ee29dec29"},"vehicle_type_id":"4","last_reported":1704031569,"current_range_meters":16400,"station_id":"ce4bgih2rcd13ifvqba0","pricing_plan_id":"free"},{"bike_id":"ffb6dd5b-2dd9-4631-87eb-103613571b52","system_id":"levelo_inurba_marseille","lat":43.290779,"lon":5.371482,"is_reserved":false,"is_disabled":false,"rental_uris":{"android":"levelo://app?vid=ffb6dd5b-2dd9-4631-87eb-103613571b52","ios":"levelo://app?vid=ffb6dd5b-2dd9-4631-87eb-103613571b52"},"vehicle_type_id":"4","last_reported":1704031569,"current_range_meters":16000,"station_id":"ce4bh5p2rcd13ifvqe4g","pricing_plan_id":"free"},{"bike_id":"be725e2b-286e-4702-8f63-bbd1e94afb2a","system_id":"levelo_inurba_marseille","lat":43.290631,"lon":5.359244,"is_reserved":false,"is_disabled":false,"rental_uris":{"android":"levelo://app?vid=be725e2b-286e-4702-8f63-bbd1e94afb2a","ios":"levelo://app?vid=be725e2b-286e-4702-8f63-bbd1e94afb2a"},"vehicle_type_id":"4","last_reported":1704031569,"current_range_meters":28000,"station_id":"ce4bha92rcd13ifvqeg0","pricing_plan_id":"free"},{"bike_id":"790d492a-05e4-483a-81e8-d004dcf2beda","system_id":"levelo_inurba_marseille","lat":43.294153,"lon":5.386305,"is_reserved":false,"is_disabled":false,"rental_uris":{"android":"levelo://app?vid=790d492a-05e4-483a-81e8-d004dcf2beda","ios":"levelo://app?vid=790d492a-05e4-483a-81e8-d004dcf2beda"},"vehicle_type_id":"4","last_reported":1704031569,"current_range_meters":25600,"station_id":"ce4bh2h2rcd13ifvqdh0","pricing_plan_id":"free"},{"bike_id":"f34fb8b4-3cff-4994-8a60-cf9729bec705","system_id":"levelo_inurba_marseille","lat":43.294162,"lon":5.386292,"is_reserved":false,"is_disabled":false,"rental_uris":{"android":"levelo://app?vid=f34fb8b4-3cff-4994-8a60-cf9729bec705","ios":"levelo://app?vid=f34fb8b4-3cff-4994-8a60-cf9729bec705"},"vehicle_type_id":"4","last_reported":1704031569,"current_range_meters":22000,"station_id":"ce4bh2h2rcd13ifvqdh0","pricing_plan_id":"free"},{"bike_id":"5954ff6e-bb6a-4aa5-a08e-bd423211b356","system_id":"levelo_inurba_marseille","lat":43.292642,"lon":5.384254,"is_reserved":false,"is_disabled":false,"rental_uris":{"android":"levelo://app?vid=5954ff6e-bb6a-4aa5-a08e-bd423211b356","ios":"levelo://app?vid=5954ff6e-bb6a-4aa5-a08e-bd423211b356"},"vehicle_type_id":"4","last_reported":1704031569,"current_range_meters":25200,"station_id":"ce4bh692rcd13ifvqea0","pricing_plan_id":"free"},{"bike_id":"9f4efc2a-d809-40bb-b171-0377a5dbfc1a","system_id":"levelo_inurba_marseille","lat":43.290104,"lon":5.356111,"is_reserved":false,"is_disabled":false,"rental_uris":{"android":"levelo://app?vid=9f4efc2a-d809-40bb-b171-0377a5dbfc1a","ios":"levelo://app?vid=9f4efc2a-d809-40bb-b171-0377a5dbfc1a"},"vehicle_type_id":"4","last_reported":1704031569,"current_range_meters":26400,"station_id":"ce4bhb92rcd13ifvqen0","pricing_plan_id":"free"},{"bike_id":"27eb3049-99ed-40f2-867d-9306ce457f72","system_id":"levelo_inurba_marseille","lat":43.292644,"lon":5.384257,"is_reserved":false,"is_disabled":false,"rental_uris":{"android":"levelo://app?vid=27eb3049-99ed-40f2-867d-9306ce457f72","ios":"levelo://app?vid=27eb3049-99ed-40f2-867d-9306ce457f72"},"vehicle_type_id":"4","last_reported":1704031569,"current_range_meters":14800,"station_id":"ce4bh692rcd13ifvqea0","pricing_plan_id":"free"},{"bike_id":"21425adf-cf6f-4b9d-9969-d6a8f6f42c0f","system_id":"levelo_inurba_marseille","lat":43.292642,"lon":5.384254,"is_reserved":false,"is_disabled":false,"rental_uris":{"android":"levelo://app?vid=21425adf-cf6f-4b9d-9969-d6a8f6f42c0f","ios":"levelo://app?vid=21425adf-cf6f-4b9d-9969-d6a8f6f42c0f"},"vehicle_type_id":"4","last_reported":1704031569,"current_range_meters":13600,"station_id":"ce4bh692rcd13ifvqea0","pricing_plan_id":"free"},{"bike_id":"a20639ff-08bf-4e3b-a0b9-917871c8a3a8","system_id":"levelo_inurba_marseille","lat":43.292644,"lon":5.384257,"is_reserved":false,"is_disabled":false,"rental_uris":{"android":"levelo://app?vid=a20639ff-08bf-4e3b-a0b9-917871c8a3a8","ios":"levelo://app?vid=a20639ff-08bf-4e3b-a0b9-917871c8a3a8"},"vehicle_type_id":"4","last_reported":1704031569,"current_range_meters":31200,"station_id":"ce4bh692rcd13ifvqea0","pricing_plan_id":"free"},{"bike_id":"0abb9aa4-a828-4ece-a13a-d01066d858b2","system_id":"levelo_inurba_marseille","lat":43.290103,"lon":5.356114,"is_reserved":false,"is_disabled":false,"rental_uris":{"android":"levelo://app?vid=0abb9aa4-a828-4ece-a13a-d01066d858b2","ios":"levelo://app?vid=0abb9aa4-a828-4ece-a13a-d01066d858b2"},"vehicle_type_id":"4","last_reported":1704031569,"current_range_meters":16000,"station_id":"ce4bhb92rcd13ifvqen0","pricing_plan_id":"free"},{"bike_id":"5e884fbf-e84c-46ad-9acf-36ef53fdb04e","system_id":"levelo_inurba_marseille","lat":43.330442,"lon":5.389148,"is_reserved":false,"is_disabled":false,"rental_uris":{"android":"levelo://app?vid=5e884fbf-e84c-46ad-9acf-36ef53fdb04e","ios":"levelo://app?vid=5e884fbf-e84c-46ad-9acf-36ef53fdb04e"},"vehicle_type_id":"4","last_reported":1704031569,"current_range_meters":21200,"station_id":"ce4bhr92rcd13ifvqhrg","pricing_plan_id":"free"},{"bike_id":"cfd92886-ee54-49ad-8ec3-914ab8a215f5","system_id":"levelo_inurba_marseille","lat":43.289741,"lon":5.378306,"is_reserved":false,"is_disabled":false,"rental_uris":{"android":"levelo://app?vid=cfd92886-ee54-49ad-8ec3-914ab8a215f5","ios":"levelo://app?vid=cfd92886-ee54-49ad-8ec3-914ab8a215f5"},"vehicle_type_id":"4","last_reported":1704031569,"current_range_meters":28800,"station_id":"ce4bh9p2rcd13ifvqed0","pricing_plan_id":"free"},{"bike_id":"cdbafc34-84c2-4c7e-a713-2035f1517edf","system_id":"levelo_inurba_marseille","lat":43.2901,"lon":5.381269,"is_reserved":false,"is_disabled":false,"rental_uris":{"android":"levelo://app?vid=cdbafc34-84c2-4c7e-a713-2035f1517edf","ios":"levelo://app?vid=cdbafc34-84c2-4c7e-a713-2035f1517edf"},"vehicle_type_id":"4","last_reported":1704031569,"current_range_meters":29600,"station_id":"ce4bh4p2rcd13ifvqe1g","pricing_plan_id":"free"},{"bike_id":"8ebe9c59-a6d2-4c82-9e7f-da29f4e726b8","system_id":"levelo_inurba_marseille","lat":43.28856,"lon":5.358371,"is_reserved":false,"is_disabled":false,"rental_uris":{"android":"levelo://app?vid=8ebe9c59-a6d2-4c82-9e7f-da29f4e726b8","ios":"levelo://app?vid=8ebe9c59-a6d2-4c82-9e7f-da29f4e726b8"},"vehicle_type_id":"4","last_reported":1704031569,"current_range_meters":29600,"station_id":"ce4bhb12rcd13ifvqem0","pricing_plan_id":"free"},{"bike_id":"e8c98e67-2c93-4d15-ac89-ea20f367c897","system_id":"levelo_inurba_marseille","lat":43.28856,"lon":5.358371,"is_reserved":false,"is_disabled":false,"rental_uris":{"android":"levelo://app?vid=e8c98e67-2c93-4d15-ac89-ea20f367c897","ios":"levelo://app?vid=e8c98e67-2c93-4d15-ac89-ea20f367c897"},"vehicle_type_id":"4","last_reported":1704031569,"current_range_meters":20800,"station_id":"ce4bhb12rcd13ifvqem0","pricing_plan_id":"free"},{"bike_id":"70017d6e-6f1a-4af6-baf6-320a119b5691","system_id":"levelo_inurba_marseille","lat":43.3377,"lon":5.37442,"is_reserved":false,"is_disabled":false,"rental_uris":{"android":"levelo://app?vid=70017d6e-6f1a-4af6-baf6-320a119b5691","ios":"levelo://app?vid=70017d6e-6f1a-4af6-baf6-320a119b5691"},"vehicle_type_id":"4","last_reported":1704031569,"current_range_meters":29600,"station_id":"","pricing_plan_id":"free"},{"bike_id":"b262299b-df41-4c0e-acea-7d1f4a3c6a3b","system_id":"levelo_inurba_marseille","lat":43.28727,"lon":5.36078,"is_reserved":false,"is_disabled":false,"rental_uris":{"android":"levelo://app?vid=b262299b-df41-4c0e-acea-7d1f4a3c6a3b","ios":"levelo://app?vid=b262299b-df41-4c0e-acea-7d1f4a3c6a3b"},"vehicle_type_id":"4","last_reported":1704031569,"current_range_meters":31600,"station_id":"cki0cbj6b192h4jlfktg","pricing_plan_id":"free"},{"bike_id":"c4c97418-d270-4584-9133-dc29e0ff2273","system_id":"levelo_inurba_marseille","lat":43.28727,"lon":5.36078,"is_reserved":false,"is_disabled":false,"rental_uris":{"android":"levelo://app?vid=c4c97418-d270-4584-9133-dc29e0ff2273","ios":"levelo://app?vid=c4c97418-d270-4584-9133-dc29e0ff2273"},"vehicle_type_id":"4","last_reported":1704031569,"current_range_meters":30800,"station_id":"cki0cbj6b192h4jlfktg","pricing_plan_id":"free"},{"bike_id":"919a03ae-68a8-42d3-b2bc-69e458dcbc04","system_id":"levelo_inurba_marseille","lat":43.286961,"lon":5.373785,"is_reserved":false,"is_disabled":false,"rental_uris":{"android":"levelo://app?vid=919a03ae-68a8-42d3-b2bc-69e458dcbc04","ios":"levelo://app?vid=919a03ae-68a8-42d3-b2bc-69e458dcbc04"},"vehicle_type_id":"4","last_reported":1704031569,"current_range_meters":31600,"station_id":"ce4bh3p2rcd13ifvqdq0","pricing_plan_id":"free"},{"bike_id":"6ffb7b29-f6e1-43fe-a5c5-37f393562333","system_id":"levelo_inurba_marseille","lat":43.298681,"lon":5.397225,"is_reserved":false,"is_disabled":false,"rental_uris":{"android":"levelo://app?vid=6ffb7b29-f6e1-43fe-a5c5-37f393562333","ios":"levelo://app?vid=6ffb7b29-f6e1-43fe-a5c5-37f393562333"},"vehicle_type_id":"4","last_reported":1704031569,"current_range_meters":19200,"station_id":"ce4bh0h2rcd13ifvqd50","pricing_plan_id":"free"},{"bike_id":"dfc6862c-d20f-41d3-b47d-80854dac5dc8","system_id":"levelo_inurba_marseille","lat":43.298681,"lon":5.397225,"is_reserved":false,"is_disabled":false,"rental_uris":{"android":"levelo://app?vid=dfc6862c-d20f-41d3-b47d-80854dac5dc8","ios":"levelo://app?vid=dfc6862c-d20f-41d3-b47d-80854dac5dc8"},"vehicle_type_id":"4","last_reported":1704031569,"current_range_meters":28800,"station_id":"ce4bh0h2rcd13ifvqd50","pricing_plan_id":"free"},{"bike_id":"df994c6d-26ea-4528-9cfd-328e70d461e3","system_id":"levelo_inurba_marseille","lat":43.286591,"lon":5.363346,"is_reserved":false,"is_disabled":false,"rental_uris":{"android":"levelo://app?vid=df994c6d-26ea-4528-9cfd-328e70d461e3","ios":"levelo://app?vid=df994c6d-26ea-4528-9cfd-328e70d461e3"},"vehicle_type_id":"4","last_reported":1704031569,"current_range_meters":27600,"station_id":"ce4bhah2rcd13ifvqej0","pricing_plan_id":"free"},{"bike_id":"badce451-38a8-46af-9f83-fbd926c3c9f8","system_id":"levelo_inurba_marseille","lat":43.298681,"lon":5.397225,"is_reserved":false,"is_disabled":false,"rental_uris":{"android":"levelo://app?vid=badce451-38a8-46af-9f83-fbd926c3c9f8","ios":"levelo://app?vid=badce451-38a8-46af-9f83-fbd926c3c9f8"},"vehicle_type_id":"4","last_reported":1704031569,"current_range_meters":14000,"station_id":"ce4bh0h2rcd13ifvqd50","pricing_plan_id":"free"},{"bike_id":"c156d729-3b31-47f2-9b65-4f04cfcba962","system_id":"levelo_inurba_marseille","lat":43.286961,"lon":5.373785,"is_reserved":false,"is_disabled":false,"rental_uris":{"android":"levelo://app?vid=c156d729-3b31-47f2-9b65-4f04cfcba962","ios":"levelo://app?vid=c156d729-3b31-47f2-9b65-4f04cfcba962"},"vehicle_type_id":"4","last_reported":1704031569,"current_range_meters":18400,"station_id":"ce4bh3p2rcd13ifvqdq0","pricing_plan_id":"free"},{"bike_id":"7335ed2f-c57f-450a-978d-2ffe90935bb4","system_id":"levelo_inurba_marseille","lat":43.289307,"lon":5.38406,"is_reserved":false,"is_disabled":false,"rental_uris":{"android":"levelo://app?vid=7335ed2f-c57f-450a-978d-2ffe90935bb4","ios":"levelo://app?vid=7335ed2f-c57f-450a-978d-2ffe90935bb4"},"vehicle_type_id":"4","last_reported":1704031569,"current_range_meters":20800,"station_id":"ce4bh612rcd13ifvqe6g","pricing_plan_id":"free"},{"bike_id":"b7e9bbe8-98a7-4f87-bed5-1267e103f367","system_id":"levelo_inurba_marseille","lat":43.2861,"lon":5.37071,"is_reserved":false,"is_disabled":false,"rental_uris":{"android":"levelo://app?vid=b7e9bbe8-98a7-4f87-bed5-1267e103f367","ios":"levelo://app?vid=b7e9bbe8-98a7-4f87-bed5-1267e103f367"},"vehicle_type_id":"4","last_reported":1704031569,"current_range_meters":18800,"station_id":"ce4bht12rcd13ifvqi60","pricing_plan_id":"free"},{"bike_id":"c2cdbb87-592d-4e2b-8c24-ebeab5f5d0ba","system_id":"levelo_inurba_marseille","lat":43.291994,"lon":5.392907,"is_reserved":false,"is_disabled":false,"rental_uris":{"android":"levelo://app?vid=c2cdbb87-592d-4e2b-8c24-ebeab5f5d0ba","ios":"levelo://app?vid=c2cdbb87-592d-4e2b-8c24-ebeab5f5d0ba"},"vehicle_type_id":"4","last_reported":1704031569,"current_range_meters":20800,"station_id":"ce4bh192rcd13ifvqdd0","pricing_plan_id":"free"},{"bike_id":"07a5a8cc-2d22-4c38-8870-a84efb620f35","system_id":"levelo_inurba_marseille","lat":43.284538,"lon":5.358657,"is_reserved":false,"is_disabled":false,"rental_uris":{"android":"levelo://app?vid=07a5a8cc-2d22-4c38-8870-a84efb620f35","ios":"levelo://app?vid=07a5a8cc-2d22-4c38-8870-a84efb620f35"},"vehicle_type_id":"4","last_reported":1704031569,"current_range_meters":28400,"station_id":"ce4bhah2rcd13ifvqei0","pricing_plan_id":"free"},{"bike_id":"93b47ccd-1870-4ef8-ad03-55747a0a092f","system_id":"levelo_inurba_marseille","lat":43.294314,"lon":5.397498,"is_reserved":false,"is_disabled":false,"rental_uris":{"android":"levelo://app?vid=93b47ccd-1870-4ef8-ad03-55747a0a092f","ios":"levelo://app?vid=93b47ccd-1870-4ef8-ad03-55747a0a092f"},"vehicle_type_id":"4","last_reported":1704031569,"current_range_meters":29600,"station_id":"ce4bh3h2rcd13ifvqdo0","pricing_plan_id":"free"},{"bike_id":"f4c7700a-bfdf-44e6-99ec-5a7647cb46cf","system_id":"levelo_inurba_marseille","lat":43.283998,"lon":5.375062,"is_reserved":false,"is_disabled":false,"rental_uris":{"android":"levelo://app?vid=f4c7700a-bfdf-44e6-99ec-5a7647cb46cf","ios":"levelo://app?vid=f4c7700a-bfdf-44e6-99ec-5a7647cb46cf"},"vehicle_type_id":"4","last_reported":1704031569,"current_range_meters":26800,"station_id":"ce4bh412rcd13ifvqds0","pricing_plan_id":"free"},{"bike_id":"9e9a7724-bf59-4a55-9479-a5f90021a7f9","system_id":"levelo_inurba_marseille","lat":43.2861,"lon":5.351,"is_reserved":false,"is_disabled":false,"rental_uris":{"android":"levelo://app?vid=9e9a7724-bf59-4a55-9479-a5f90021a7f9","ios":"levelo://app?vid=9e9a7724-bf59-4a55-9479-a5f90021a7f9"},"vehicle_type_id":"4","last_reported":1704031569,"current_range_meters":0,"station_id":"","pricing_plan_id":"free"},{"bike_id":"5298552a-e1c0-44e2-840e-21338c67d143","system_id":"levelo_inurba_marseille","lat":43.295713,"lon":5.399639,"is_reserved":false,"is_disabled":false,"rental_uris":{"android":"levelo://app?vid=5298552a-e1c0-44e2-840e-21338c67d143","ios":"levelo://app?vid=5298552a-e1c0-44e2-840e-21338c67d143"},"vehicle_type_id":"4","last_reported":1704031569,"current_range_meters":7600,"station_id":"ce4bh312rcd13ifvqdj0","pricing_plan_id":"free"},{"bike_id":"68883c85-9a0e-4883-87cb-008b5a7b352d","system_id":"levelo_inurba_marseille","lat":43.283998,"lon":5.375062,"is_reserved":false,"is_disabled":false,"rental_uris":{"android":"levelo://app?vid=68883c85-9a0e-4883-87cb-008b5a7b352d","ios":"levelo://app?vid=68883c85-9a0e-4883-87cb-008b5a7b352d"},"vehicle_type_id":"4","last_reported":1704031569,"current_range_meters":28400,"station_id":"ce4bh412rcd13ifvqds0","pricing_plan_id":"free"},{"bike_id":"d052d4ce-c537-4bde-b792-34b9c80ebe73","system_id":"levelo_inurba_marseille","lat":43.295713,"lon":5.399639,"is_reserved":false,"is_disabled":false,"rental_uris":{"android":"levelo://app?vid=d052d4ce-c537-4bde-b792-34b9c80ebe73","ios":"levelo://app?vid=d052d4ce-c537-4bde-b792-34b9c80ebe73"},"vehicle_type_id":"4","last_reported":1704031569,"current_range_meters":12400,"station_id":"ce4bh312rcd13ifvqdj0","pricing_plan_id":"free"},{"bike_id":"498530ed-bb8c-4d7a-8d52-9d782cfbfd44","system_id":"levelo_inurba_marseille","lat":43.28976,"lon":5.3935,"is_reserved":false,"is_disabled":false,"rental_uris":{"android":"levelo://app?vid=498530ed-bb8c-4d7a-8d52-9d782cfbfd44","ios":"levelo://app?vid=498530ed-bb8c-4d7a-8d52-9d782cfbfd44"},"vehicle_type_id":"4","last_reported":1704031569,"current_range_meters":14000,"station_id":"","pricing_plan_id":"free"},{"bike_id":"fa4fdb9c-fdad-4caf-b92d-a5e304253ff7","system_id":"levelo_inurba_marseille","lat":43.319179,"lon":5.407725,"is_reserved":false,"is_disabled":false,"rental_uris":{"android":"levelo://app?vid=fa4fdb9c-fdad-4caf-b92d-a5e304253ff7","ios":"levelo://app?vid=fa4fdb9c-fdad-4caf-b92d-a5e304253ff7"},"vehicle_type_id":"4","last_reported":1704031569,"current_range_meters":24400,"station_id":"ce4bhq12rcd13ifvqhig","pricing_plan_id":"free"},{"bike_id":"0a5852de-d5f1-4f6f-89a3-e9d115930007","system_id":"levelo_inurba_marseille","lat":43.323464,"lon":5.406297,"is_reserved":false,"is_disabled":false,"rental_uris":{"android":"levelo://app?vid=0a5852de-d5f1-4f6f-89a3-e9d115930007","ios":"levelo://app?vid=0a5852de-d5f1-4f6f-89a3-e9d115930007"},"vehicle_type_id":"4","last_reported":1704031569,"current_range_meters":21200,"station_id":"ce4bhq92rcd13ifvqhjg","pricing_plan_id":"free"},{"bike_id":"add8392d-31b1-4bc4-bf19-66f828887663","system_id":"levelo_inurba_marseille","lat":43.3373,"lon":5.39187,"is_reserved":false,"is_disabled":false,"rental_uris":{"android":"levelo://app?vid=add8392d-31b1-4bc4-bf19-66f828887663","ios":"levelo://app?vid=add8392d-31b1-4bc4-bf19-66f828887663"},"vehicle_type_id":"4","last_reported":1704031569,"current_range_meters":24000,"station_id":"ce4bhr92rcd13ifvqhsg","pricing_plan_id":"free"},{"bike_id":"c83faa5b-961c-468f-a4f2-2d615de75df1","system_id":"levelo_inurba_marseille","lat":43.283998,"lon":5.375062,"is_reserved":false,"is_disabled":false,"rental_uris":{"android":"levelo://app?vid=c83faa5b-961c-468f-a4f2-2d615de75df1","ios":"levelo://app?vid=c83faa5b-961c-468f-a4f2-2d615de75df1"},"vehicle_type_id":"4","last_reported":1704031569,"current_range_meters":23600,"station_id":"ce4bh412rcd13ifvqds0","pricing_plan_id":"free"},{"bike_id":"1e60c333-fa9e-4f0f-9678-1c68a341f9e8","system_id":"levelo_inurba_marseille","lat":43.288501,"lon":5.393087,"is_reserved":false,"is_disabled":false,"rental_uris":{"android":"levelo://app?vid=1e60c333-fa9e-4f0f-9678-1c68a341f9e8","ios":"levelo://app?vid=1e60c333-fa9e-4f0f-9678-1c68a341f9e8"},"vehicle_type_id":"4","last_reported":1704031569,"current_range_meters":27600,"station_id":"ce4bh2p2rcd13ifvqdi0","pricing_plan_id":"free"},{"bike_id":"d26afcae-fff1-4a04-b468-f8f67c4168b0","system_id":"levelo_inurba_marseille","lat":43.283498,"lon":5.380948,"is_reserved":false,"is_disabled":false,"rental_uris":{"android":"levelo://app?vid=d26afcae-fff1-4a04-b468-f8f67c4168b0","ios":"levelo://app?vid=d26afcae-fff1-4a04-b468-f8f67c4168b0"},"vehicle_type_id":"4","last_reported":1704031569,"current_range_meters":30400,"station_id":"ce4bh412rcd13ifvqdr0","pricing_plan_id":"free"},{"bike_id":"ed8dd98c-c6b9-405c-9c6f-5cc6384b5b96","system_id":"levelo_inurba_marseille","lat":43.292724,"lon":5.401131,"is_reserved":false,"is_disabled":false,"rental_uris":{"android":"levelo://app?vid=ed8dd98c-c6b9-405c-9c6f-5cc6384b5b96","ios":"levelo://app?vid=ed8dd98c-c6b9-405c-9c6f-5cc6384b5b96"},"vehicle_type_id":"4","last_reported":1704031569,"current_range_meters":26000,"station_id":"ce4bh312rcd13ifvqdk0","pricing_plan_id":"free"},{"bike_id":"25e7669a-372a-44bd-99e2-1b3578d47c45","system_id":"levelo_inurba_marseille","lat":43.282754,"lon":5.350519,"is_reserved":false,"is_disabled":false,"rental_uris":{"android":"levelo://app?vid=25e7669a-372a-44bd-99e2-1b3578d47c45","ios":"levelo://app?vid=25e7669a-372a-44bd-99e2-1b3578d47c45"},"vehicle_type_id":"4","last_reported":1704031569,"current_range_meters":26000,"station_id":"ce4bhbp2rcd13ifvqerg","pricing_plan_id":"free"},{"bike_id":"fbfd8e32-4d80-4d8d-ba45-f560c59f860b","system_id":"levelo_inurba_marseille","lat":43.28263,"lon":5.35083,"is_reserved":false,"is_disabled":false,"rental_uris":{"android":"levelo://app?vid=fbfd8e32-4d80-4d8d-ba45-f560c59f860b","ios":"levelo://app?vid=fbfd8e32-4d80-4d8d-ba45-f560c59f860b"},"vehicle_type_id":"4","last_reported":1704031569,"current_range_meters":29200,"station_id":"ce4bhbp2rcd13ifvqerg","pricing_plan_id":"free"},{"bike_id":"4e816d35-ca4e-44a4-8c6d-bffe5e399c3a","system_id":"levelo_inurba_marseille","lat":43.282744,"lon":5.350533,"is_reserved":false,"is_disabled":false,"rental_uris":{"android":"levelo://app?vid=4e816d35-ca4e-44a4-8c6d-bffe5e399c3a","ios":"levelo://app?vid=4e816d35-ca4e-44a4-8c6d-bffe5e399c3a"},"vehicle_type_id":"4","last_reported":1704031569,"current_range_meters":21600,"station_id":"ce4bhbp2rcd13ifvqerg","pricing_plan_id":"free"},{"bike_id":"77ec6399-f2bb-44b8-8f10-e3badbe5046a","system_id":"levelo_inurba_marseille","lat":43.280382,"lon":5.369291,"is_reserved":false,"is_disabled":false,"rental_uris":{"android":"levelo://app?vid=77ec6399-f2bb-44b8-8f10-e3badbe5046a","ios":"levelo://app?vid=77ec6399-f2bb-44b8-8f10-e3badbe5046a"},"vehicle_type_id":"4","last_reported":1704031569,"current_range_meters":31600,"station_id":"ce4bha12rcd13ifvqef0","pricing_plan_id":"free"},{"bike_id":"5ca094db-015b-4cc8-8f9b-5b341df64064","system_id":"levelo_inurba_marseille","lat":43.296263,"lon":5.40601,"is_reserved":false,"is_disabled":false,"rental_uris":{"android":"levelo://app?vid=5ca094db-015b-4cc8-8f9b-5b341df64064","ios":"levelo://app?vid=5ca094db-015b-4cc8-8f9b-5b341df64064"},"vehicle_type_id":"4","last_reported":1704031569,"current_range_meters":15600,"station_id":"ce4bh0h2rcd13ifvqd60","pricing_plan_id":"free"},{"bike_id":"3f35b3e2-d6ce-48df-b674-2d3634d93cc8","system_id":"levelo_inurba_marseille","lat":43.281044,"lon":5.378308,"is_reserved":false,"is_disabled":false,"rental_uris":{"android":"levelo://app?vid=3f35b3e2-d6ce-48df-b674-2d3634d93cc8","ios":"levelo://app?vid=3f35b3e2-d6ce-48df-b674-2d3634d93cc8"},"vehicle_type_id":"4","last_reported":1704031569,"current_range_meters":27200,"station_id":"ce4bha12rcd13ifvqee0","pricing_plan_id":"free"},{"bike_id":"be4a1f53-118a-4778-9c29-7ebdb3602d93","system_id":"levelo_inurba_marseille","lat":43.29624,"lon":5.40596,"is_reserved":false,"is_disabled":false,"rental_uris":{"android":"levelo://app?vid=be4a1f53-118a-4778-9c29-7ebdb3602d93","ios":"levelo://app?vid=be4a1f53-118a-4778-9c29-7ebdb3602d93"},"vehicle_type_id":"4","last_reported":1704031569,"current_range_meters":7200,"station_id":"ce4bh0h2rcd13ifvqd60","pricing_plan_id":"free"},{"bike_id":"1c1d2c70-db15-45d8-abcb-7177c3daf30c","system_id":"levelo_inurba_marseille","lat":43.284462,"lon":5.392121,"is_reserved":false,"is_disabled":false,"rental_uris":{"android":"levelo://app?vid=1c1d2c70-db15-45d8-abcb-7177c3daf30c","ios":"levelo://app?vid=1c1d2c70-db15-45d8-abcb-7177c3daf30c"},"vehicle_type_id":"4","last_reported":1704031569,"current_range_meters":31600,"station_id":"ce4bhoh2rcd13ifvqh5g","pricing_plan_id":"free"},{"bike_id":"6a914511-439c-49eb-b638-fb71072ec94b","system_id":"levelo_inurba_marseille","lat":43.284462,"lon":5.392121,"is_reserved":false,"is_disabled":false,"rental_uris":{"android":"levelo://app?vid=6a914511-439c-49eb-b638-fb71072ec94b","ios":"levelo://app?vid=6a914511-439c-49eb-b638-fb71072ec94b"},"vehicle_type_id":"4","last_reported":1704031569,"current_range_meters":22000,"station_id":"ce4bhoh2rcd13ifvqh5g","pricing_plan_id":"free"},{"bike_id":"b926de6c-022f-4b62-ab20-87e4f212444c","system_id":"levelo_inurba_marseille","lat":43.284462,"lon":5.392121,"is_reserved":false,"is_disabled":false,"rental_uris":{"android":"levelo://app?vid=b926de6c-022f-4b62-ab20-87e4f212444c","ios":"levelo://app?vid=b926de6c-022f-4b62-ab20-87e4f212444c"},"vehicle_type_id":"4","last_reported":1704031569,"current_range_meters":25200,"station_id":"ce4bhoh2rcd13ifvqh5g","pricing_plan_id":"free"},{"bike_id":"1ab54b67-f462-448d-874c-1e9582d84b93","system_id":"levelo_inurba_marseille","lat":43.285742,"lon":5.395004,"is_reserved":false,"is_disabled":false,"rental_uris":{"android":"levelo://app?vid=1ab54b67-f462-448d-874c-1e9582d84b93","ios":"levelo://app?vid=1ab54b67-f462-448d-874c-1e9582d84b93"},"vehicle_type_id":"4","last_reported":1704031569,"current_range_meters":25600,"station_id":"ce4bh292rcd13ifvqdg0","pricing_plan_id":"free"},{"bike_id":"20465539-affc-49b7-9953-950bbfcb86ae","system_id":"levelo_inurba_marseille","lat":43.28573,"lon":5.394992,"is_reserved":false,"is_disabled":false,"rental_uris":{"android":"levelo://app?vid=20465539-affc-49b7-9953-950bbfcb86ae","ios":"levelo://app?vid=20465539-affc-49b7-9953-950bbfcb86ae"},"vehicle_type_id":"4","last_reported":1704031569,"current_range_meters":30800,"station_id":"ce4bh292rcd13ifvqdg0","pricing_plan_id":"free"},{"bike_id":"1aeafd9e-13e9-4200-a735-c1a9d3b521ae","system_id":"levelo_inurba_marseille","lat":43.326605,"lon":5.409903,"is_reserved":false,"is_disabled":false,"rental_uris":{"android":"levelo://app?vid=1aeafd9e-13e9-4200-a735-c1a9d3b521ae","ios":"levelo://app?vid=1aeafd9e-13e9-4200-a735-c1a9d3b521ae"},"vehicle_type_id":"4","last_reported":1704031569,"current_range_meters":28800,"station_id":"ce4bhpp2rcd13ifvqhgg","pricing_plan_id":"free"},{"bike_id":"09c01205-3eff-46fd-89ab-95d025d60644","system_id":"levelo_inurba_marseille","lat":43.304188,"lon":5.412904,"is_reserved":false,"is_disabled":false,"rental_uris":{"android":"levelo://app?vid=09c01205-3eff-46fd-89ab-95d025d60644","ios":"levelo://app?vid=09c01205-3eff-46fd-89ab-95d025d60644"},"vehicle_type_id":"4","last_reported":1704031569,"current_range_meters":19200,"station_id":"ce4bhop2rcd13ifvqh8g","pricing_plan_id":"free"},{"bike_id":"4c1e6f9a-9d40-4842-9b4d-0255b03fa088","system_id":"levelo_inurba_marseille","lat":43.279087,"lon":5.380114,"is_reserved":false,"is_disabled":false,"rental_uris":{"android":"levelo://app?vid=4c1e6f9a-9d40-4842-9b4d-0255b03fa088","ios":"levelo://app?vid=4c1e6f9a-9d40-4842-9b4d-0255b03fa088"},"vehicle_type_id":"4","last_reported":1704031569,"current_range_meters":30800,"station_id":"ce4bhf92rcd13ifvqf50","pricing_plan_id":"free"},{"bike_id":"de21200a-8a29-4435-87c7-41bda94e9655","system_id":"levelo_inurba_marseille","lat":43.279087,"lon":5.380114,"is_reserved":false,"is_disabled":false,"rental_uris":{"android":"levelo://app?vid=de21200a-8a29-4435-87c7-41bda94e9655","ios":"levelo://app?vid=de21200a-8a29-4435-87c7-41bda94e9655"},"vehicle_type_id":"4","last_reported":1704031569,"current_range_meters":22000,"station_id":"ce4bhf92rcd13ifvqf50","pricing_plan_id":"free"},{"bike_id":"df1882ef-8cf2-41d7-801d-2da4dbd15d25","system_id":"levelo_inurba_marseille","lat":43.320045,"lon":5.415046,"is_reserved":false,"is_disabled":false,"rental_uris":{"android":"levelo://app?vid=df1882ef-8cf2-41d7-801d-2da4dbd15d25","ios":"levelo://app?vid=df1882ef-8cf2-41d7-801d-2da4dbd15d25"},"vehicle_type_id":"4","last_reported":1704031569,"current_range_meters":30400,"station_id":"ce4bhq92rcd13ifvqhkg","pricing_plan_id":"free"},{"bike_id":"6264bf10-cda0-4ee5-8ac2-706cdb4c6426","system_id":"levelo_inurba_marseille","lat":43.320045,"lon":5.415046,"is_reserved":false,"is_disabled":false,"rental_uris":{"android":"levelo://app?vid=6264bf10-cda0-4ee5-8ac2-706cdb4c6426","ios":"levelo://app?vid=6264bf10-cda0-4ee5-8ac2-706cdb4c6426"},"vehicle_type_id":"4","last_reported":1704031569,"current_range_meters":11200,"station_id":"ce4bhq92rcd13ifvqhkg","pricing_plan_id":"free"},{"bike_id":"b26d4b6e-34a8-4929-9688-8fa672e13376","system_id":"levelo_inurba_marseille","lat":43.299577,"lon":5.413277,"is_reserved":false,"is_disabled":false,"rental_uris":{"android":"levelo://app?vid=b26d4b6e-34a8-4929-9688-8fa672e13376","ios":"levelo://app?vid=b26d4b6e-34a8-4929-9688-8fa672e13376"},"vehicle_type_id":"4","last_reported":1704031569,"current_range_meters":25200,"station_id":"ce4bhp12rcd13ifvqh9g","pricing_plan_id":"free"},{"bike_id":"e2116b2e-3a5f-4bd8-a1c8-2607f2cb6d00","system_id":"levelo_inurba_marseille","lat":43.325424,"lon":5.414297,"is_reserved":false,"is_disabled":false,"rental_uris":{"android":"levelo://app?vid=e2116b2e-3a5f-4bd8-a1c8-2607f2cb6d00","ios":"levelo://app?vid=e2116b2e-3a5f-4bd8-a1c8-2607f2cb6d00"},"vehicle_type_id":"4","last_reported":1704031569,"current_range_meters":6400,"station_id":"ce4bhq12rcd13ifvqhhg","pricing_plan_id":"free"},{"bike_id":"ff5ff0eb-c318-4174-9b68-6f7d1ae8f619","system_id":"levelo_inurba_marseille","lat":43.27618,"lon":5.361009,"is_reserved":false,"is_disabled":false,"rental_uris":{"android":"levelo://app?vid=ff5ff0eb-c318-4174-9b68-6f7d1ae8f619","ios":"levelo://app?vid=ff5ff0eb-c318-4174-9b68-6f7d1ae8f619"},"vehicle_type_id":"4","last_reported":1704031569,"current_range_meters":14400,"station_id":"ce4bgj92rcd13ifvqbe0","pricing_plan_id":"free"},{"bike_id":"3d7721f4-6762-42ac-8e64-fe8d48a1e2fb","system_id":"levelo_inurba_marseille","lat":43.27618,"lon":5.361009,"is_reserved":false,"is_disabled":false,"rental_uris":{"android":"levelo://app?vid=3d7721f4-6762-42ac-8e64-fe8d48a1e2fb","ios":"levelo://app?vid=3d7721f4-6762-42ac-8e64-fe8d48a1e2fb"},"vehicle_type_id":"4","last_reported":1704031569,"current_range_meters":19600,"station_id":"ce4bgj92rcd13ifvqbe0","pricing_plan_id":"free"},{"bike_id":"7766330f-2f32-432e-913e-fe4f10f2fe10","system_id":"levelo_inurba_marseille","lat":43.27618,"lon":5.361009,"is_reserved":false,"is_disabled":false,"rental_uris":{"android":"levelo://app?vid=7766330f-2f32-432e-913e-fe4f10f2fe10","ios":"levelo://app?vid=7766330f-2f32-432e-913e-fe4f10f2fe10"},"vehicle_type_id":"4","last_reported":1704031569,"current_range_meters":24800,"station_id":"ce4bgj92rcd13ifvqbe0","pricing_plan_id":"free"},{"bike_id":"3d00a2bc-8250-435d-b57d-1ba6d84ccf34","system_id":"levelo_inurba_marseille","lat":43.276179,"lon":5.361009,"is_reserved":false,"is_disabled":false,"rental_uris":{"android":"levelo://app?vid=3d00a2bc-8250-435d-b57d-1ba6d84ccf34","ios":"levelo://app?vid=3d00a2bc-8250-435d-b57d-1ba6d84ccf34"},"vehicle_type_id":"4","last_reported":1704031569,"current_range_meters":10800,"station_id":"ce4bgj92rcd13ifvqbe0","pricing_plan_id":"free"},{"bike_id":"528338ba-85fa-4937-a5fe-4ca9436e1e9d","system_id":"levelo_inurba_marseille","lat":43.280784,"lon":5.396622,"is_reserved":false,"is_disabled":false,"rental_uris":{"android":"levelo://app?vid=528338ba-85fa-4937-a5fe-4ca9436e1e9d","ios":"levelo://app?vid=528338ba-85fa-4937-a5fe-4ca9436e1e9d"},"vehicle_type_id":"4","last_reported":1704031569,"current_range_meters":26400,"station_id":"ce4bho12rcd13ifvqh2g","pricing_plan_id":"free"},{"bike_id":"ec267865-a1a5-4208-b4f1-9e21a4f6f03b","system_id":"levelo_inurba_marseille","lat":43.30355,"lon":5.41894,"is_reserved":false,"is_disabled":false,"rental_uris":{"android":"levelo://app?vid=ec267865-a1a5-4208-b4f1-9e21a4f6f03b","ios":"levelo://app?vid=ec267865-a1a5-4208-b4f1-9e21a4f6f03b"},"vehicle_type_id":"4","last_reported":1704031569,"current_range_meters":25200,"station_id":"ce4bhop2rcd13ifvqh7g","pricing_plan_id":"free"},{"bike_id":"40a3298f-6bd0-44da-96b1-13580053a58f","system_id":"levelo_inurba_marseille","lat":43.273767,"lon":5.362553,"is_reserved":false,"is_disabled":false,"rental_uris":{"android":"levelo://app?vid=40a3298f-6bd0-44da-96b1-13580053a58f","ios":"levelo://app?vid=40a3298f-6bd0-44da-96b1-13580053a58f"},"vehicle_type_id":"4","last_reported":1704031569,"current_range_meters":28800,"station_id":"ce4bhbh2rcd13ifvqeo0","pricing_plan_id":"free"},{"bike_id":"c7f2e635-670f-490c-8642-06d3543f0b44","system_id":"levelo_inurba_marseille","lat":43.273609,"lon":5.362708,"is_reserved":false,"is_disabled":false,"rental_uris":{"android":"levelo://app?vid=c7f2e635-670f-490c-8642-06d3543f0b44","ios":"levelo://app?vid=c7f2e635-670f-490c-8642-06d3543f0b44"},"vehicle_type_id":"4","last_reported":1704031569,"current_range_meters":25200,"station_id":"ce4bhbh2rcd13ifvqeo0","pricing_plan_id":"free"},{"bike_id":"3a576a2e-1ee3-40c6-bf31-da3d475e678b","system_id":"levelo_inurba_marseille","lat":43.273609,"lon":5.362708,"is_reserved":false,"is_disabled":false,"rental_uris":{"android":"levelo://app?vid=3a576a2e-1ee3-40c6-bf31-da3d475e678b","ios":"levelo://app?vid=3a576a2e-1ee3-40c6-bf31-da3d475e678b"},"vehicle_type_id":"4","last_reported":1704031569,"current_range_meters":23600,"station_id":"ce4bhbh2rcd13ifvqeo0","pricing_plan_id":"free"},{"bike_id":"ee22cc90-6aca-4b6b-b791-f4f6cf8f24ea","system_id":"levelo_inurba_marseille","lat":43.27374,"lon":5.36255,"is_reserved":false,"is_disabled":false,"rental_uris":{"android":"levelo://app?vid=ee22cc90-6aca-4b6b-b791-f4f6cf8f24ea","ios":"levelo://app?vid=ee22cc90-6aca-4b6b-b791-f4f6cf8f24ea"},"vehicle_type_id":"4","last_reported":1704031569,"current_range_meters":25600,"station_id":"ce4bhbh2rcd13ifvqeo0","pricing_plan_id":"free"},{"bike_id":"d63876e8-950f-4821-8979-067e2f75e572","system_id":"levelo_inurba_marseille","lat":43.273609,"lon":5.362708,"is_reserved":false,"is_disabled":false,"rental_uris":{"android":"levelo://app?vid=d63876e8-950f-4821-8979-067e2f75e572","ios":"levelo://app?vid=d63876e8-950f-4821-8979-067e2f75e572"},"vehicle_type_id":"4","last_reported":1704031569,"current_range_meters":20800,"station_id":"ce4bhbh2rcd13ifvqeo0","pricing_plan_id":"free"},{"bike_id":"522476ab-f8d9-4ba7-bead-8805c8d964ac","system_id":"levelo_inurba_marseille","lat":43.273609,"lon":5.362708,"is_reserved":false,"is_disabled":false,"rental_uris":{"android":"levelo://app?vid=522476ab-f8d9-4ba7-bead-8805c8d964ac","ios":"levelo://app?vid=522476ab-f8d9-4ba7-bead-8805c8d964ac"},"vehicle_type_id":"4","last_reported":1704031569,"current_range_meters":3600,"station_id":"ce4bhbh2rcd13ifvqeo0","pricing_plan_id":"free"},{"bike_id":"b61c1043-41d7-4f1b-a173-5b05c80e40f4","system_id":"levelo_inurba_marseille","lat":43.273609,"lon":5.362708,"is_reserved":false,"is_disabled":false,"rental_uris":{"android":"levelo://app?vid=b61c1043-41d7-4f1b-a173-5b05c80e40f4","ios":"levelo://app?vid=b61c1043-41d7-4f1b-a173-5b05c80e40f4"},"vehicle_type_id":"4","last_reported":1704031569,"current_range_meters":4000,"station_id":"ce4bhbh2rcd13ifvqeo0","pricing_plan_id":"free"},{"bike_id":"999ed0fd-0fd7-41a8-b9a3-0ad8f13c74ba","system_id":"levelo_inurba_marseille","lat":43.273609,"lon":5.362708,"is_reserved":false,"is_disabled":false,"rental_uris":{"android":"levelo://app?vid=999ed0fd-0fd7-41a8-b9a3-0ad8f13c74ba","ios":"levelo://app?vid=999ed0fd-0fd7-41a8-b9a3-0ad8f13c74ba"},"vehicle_type_id":"4","last_reported":1704031569,"current_range_meters":31600,"station_id":"ce4bhbh2rcd13ifvqeo0","pricing_plan_id":"free"},{"bike_id":"74310d4f-efb1-4721-9822-d41e9e2d24c8","system_id":"levelo_inurba_marseille","lat":43.273609,"lon":5.362708,"is_reserved":false,"is_disabled":false,"rental_uris":{"android":"levelo://app?vid=74310d4f-efb1-4721-9822-d41e9e2d24c8","ios":"levelo://app?vid=74310d4f-efb1-4721-9822-d41e9e2d24c8"},"vehicle_type_id":"4","last_reported":1704031569,"current_range_meters":18400,"station_id":"ce4bhbh2rcd13ifvqeo0","pricing_plan_id":"free"},{"bike_id":"1b04b636-f3d6-4416-be9f-ffcf74da053e","system_id":"levelo_inurba_marseille","lat":43.279952,"lon":5.400085,"is_reserved":false,"is_disabled":false,"rental_uris":{"android":"levelo://app?vid=1b04b636-f3d6-4416-be9f-ffcf74da053e","ios":"levelo://app?vid=1b04b636-f3d6-4416-be9f-ffcf74da053e"},"vehicle_type_id":"4","last_reported":1704031569,"current_range_meters":26800,"station_id":"ce4bho92rcd13ifvqh4g","pricing_plan_id":"free"},{"bike_id":"fe9f55ad-f08a-4856-a2dc-f81e73ffe303","system_id":"levelo_inurba_marseille","lat":43.310785,"lon":5.424305,"is_reserved":false,"is_disabled":false,"rental_uris":{"android":"levelo://app?vid=fe9f55ad-f08a-4856-a2dc-f81e73ffe303","ios":"levelo://app?vid=fe9f55ad-f08a-4856-a2dc-f81e73ffe303"},"vehicle_type_id":"4","last_reported":1704031569,"current_range_meters":31200,"station_id":"ce4bhp92rcd13ifvqhag","pricing_plan_id":"free"},{"bike_id":"92dd63e0-f918-4759-a060-d652593a276e","system_id":"levelo_inurba_marseille","lat":43.310785,"lon":5.424305,"is_reserved":false,"is_disabled":false,"rental_uris":{"android":"levelo://app?vid=92dd63e0-f918-4759-a060-d652593a276e","ios":"levelo://app?vid=92dd63e0-f918-4759-a060-d652593a276e"},"vehicle_type_id":"4","last_reported":1704031569,"current_range_meters":23600,"station_id":"ce4bhp92rcd13ifvqhag","pricing_plan_id":"free"},{"bike_id":"da16b839-f136-4a86-a80b-0e2654f020fd","system_id":"levelo_inurba_marseille","lat":43.340804,"lon":5.410219,"is_reserved":false,"is_disabled":false,"rental_uris":{"android":"levelo://app?vid=da16b839-f136-4a86-a80b-0e2654f020fd","ios":"levelo://app?vid=da16b839-f136-4a86-a80b-0e2654f020fd"},"vehicle_type_id":"4","last_reported":1704031569,"current_range_meters":30000,"station_id":"ce4bhqh2rcd13ifvqhlg","pricing_plan_id":"free"},{"bike_id":"00dcfbd3-9bac-42a9-ab6d-48399382d307","system_id":"levelo_inurba_marseille","lat":43.340804,"lon":5.410219,"is_reserved":false,"is_disabled":false,"rental_uris":{"android":"levelo://app?vid=00dcfbd3-9bac-42a9-ab6d-48399382d307","ios":"levelo://app?vid=00dcfbd3-9bac-42a9-ab6d-48399382d307"},"vehicle_type_id":"4","last_reported":1704031569,"current_range_meters":15200,"station_id":"ce4bhqh2rcd13ifvqhlg","pricing_plan_id":"free"},{"bike_id":"d9c8318c-3031-4f68-9885-19375abd858f","system_id":"levelo_inurba_marseille","lat":43.31468,"lon":5.42608,"is_reserved":false,"is_disabled":false,"rental_uris":{"android":"levelo://app?vid=d9c8318c-3031-4f68-9885-19375abd858f","ios":"levelo://app?vid=d9c8318c-3031-4f68-9885-19375abd858f"},"vehicle_type_id":"4","last_reported":1704031569,"current_range_meters":2800,"station_id":"","pricing_plan_id":"free"},{"bike_id":"e64860e7-e528-462a-b939-51aea59be827","system_id":"levelo_inurba_marseille","lat":43.274103,"lon":5.394016,"is_reserved":false,"is_disabled":false,"rental_uris":{"android":"levelo://app?vid=e64860e7-e528-462a-b939-51aea59be827","ios":"levelo://app?vid=e64860e7-e528-462a-b939-51aea59be827"},"vehicle_type_id":"4","last_reported":1704031569,"current_range_meters":26000,"station_id":"ce4bhdp2rcd13ifvqf20","pricing_plan_id":"free"},{"bike_id":"87b59289-39ae-4dc0-87b5-06732971e08b","system_id":"levelo_inurba_marseille","lat":43.304096,"lon":5.425385,"is_reserved":false,"is_disabled":false,"rental_uris":{"android":"levelo://app?vid=87b59289-39ae-4dc0-87b5-06732971e08b","ios":"levelo://app?vid=87b59289-39ae-4dc0-87b5-06732971e08b"},"vehicle_type_id":"4","last_reported":1704031569,"current_range_meters":20800,"station_id":"ce4bhoh2rcd13ifvqh6g","pricing_plan_id":"free"},{"bike_id":"f385b8da-27ed-49ae-adf7-1ac69b90aae4","system_id":"levelo_inurba_marseille","lat":43.304096,"lon":5.425385,"is_reserved":false,"is_disabled":false,"rental_uris":{"android":"levelo://app?vid=f385b8da-27ed-49ae-adf7-1ac69b90aae4","ios":"levelo://app?vid=f385b8da-27ed-49ae-adf7-1ac69b90aae4"},"vehicle_type_id":"4","last_reported":1704031569,"current_range_meters":26000,"station_id":"ce4bhoh2rcd13ifvqh6g","pricing_plan_id":"free"},{"bike_id":"6876aea3-bcae-4465-9248-ec0980fc3939","system_id":"levelo_inurba_marseille","lat":43.2955,"lon":5.42292,"is_reserved":false,"is_disabled":false,"rental_uris":{"android":"levelo://app?vid=6876aea3-bcae-4465-9248-ec0980fc3939","ios":"levelo://app?vid=6876aea3-bcae-4465-9248-ec0980fc3939"},"vehicle_type_id":"4","last_reported":1704031569,"current_range_meters":14000,"station_id":"ce4bhph2rcd13ifvqhdg","pricing_plan_id":"free"},{"bike_id":"1487f55d-bc5e-4632-a8b2-f006b7a4123f","system_id":"levelo_inurba_marseille","lat":43.272124,"lon":5.391768,"is_reserved":false,"is_disabled":false,"rental_uris":{"android":"levelo://app?vid=1487f55d-bc5e-4632-a8b2-f006b7a4123f","ios":"levelo://app?vid=1487f55d-bc5e-4632-a8b2-f006b7a4123f"},"vehicle_type_id":"4","last_reported":1704031569,"current_range_meters":25200,"station_id":"ce4bhhp2rcd13ifvqfm0","pricing_plan_id":"free"},{"bike_id":"326a4cd9-65b7-4cbf-b522-90e32752e0fc","system_id":"levelo_inurba_marseille","lat":43.272124,"lon":5.391768,"is_reserved":false,"is_disabled":false,"rental_uris":{"android":"levelo://app?vid=326a4cd9-65b7-4cbf-b522-90e32752e0fc","ios":"levelo://app?vid=326a4cd9-65b7-4cbf-b522-90e32752e0fc"},"vehicle_type_id":"4","last_reported":1704031569,"current_range_meters":28000,"station_id":"ce4bhhp2rcd13ifvqfm0","pricing_plan_id":"free"},{"bike_id":"9eab1b2b-8cf4-4024-b904-33a35fb915b9","system_id":"levelo_inurba_marseille","lat":43.272124,"lon":5.391768,"is_reserved":false,"is_disabled":false,"rental_uris":{"android":"levelo://app?vid=9eab1b2b-8cf4-4024-b904-33a35fb915b9","ios":"levelo://app?vid=9eab1b2b-8cf4-4024-b904-33a35fb915b9"},"vehicle_type_id":"4","last_reported":1704031569,"current_range_meters":12400,"station_id":"ce4bhhp2rcd13ifvqfm0","pricing_plan_id":"free"},{"bike_id":"99000107-4799-40bc-bf60-9029cf103eb0","system_id":"levelo_inurba_marseille","lat":43.272116,"lon":5.391747,"is_reserved":false,"is_disabled":false,"rental_uris":{"android":"levelo://app?vid=99000107-4799-40bc-bf60-9029cf103eb0","ios":"levelo://app?vid=99000107-4799-40bc-bf60-9029cf103eb0"},"vehicle_type_id":"4","last_reported":1704031569,"current_range_meters":16400,"station_id":"ce4bhhp2rcd13ifvqfm0","pricing_plan_id":"free"},{"bike_id":"4b6df55a-7e58-44be-ac59-701d408e5fc9","system_id":"levelo_inurba_marseille","lat":43.278128,"lon":5.407195,"is_reserved":false,"is_disabled":false,"rental_uris":{"android":"levelo://app?vid=4b6df55a-7e58-44be-ac59-701d408e5fc9","ios":"levelo://app?vid=4b6df55a-7e58-44be-ac59-701d408e5fc9"},"vehicle_type_id":"4","last_reported":1704031569,"current_range_meters":22800,"station_id":"ce4bhnh2rcd13ifvqgtg","pricing_plan_id":"free"},{"bike_id":"caa4d308-0c7f-49c7-9950-41d2fc1a9c2f","system_id":"levelo_inurba_marseille","lat":43.278128,"lon":5.407195,"is_reserved":false,"is_disabled":false,"rental_uris":{"android":"levelo://app?vid=caa4d308-0c7f-49c7-9950-41d2fc1a9c2f","ios":"levelo://app?vid=caa4d308-0c7f-49c7-9950-41d2fc1a9c2f"},"vehicle_type_id":"4","last_reported":1704031569,"current_range_meters":27200,"station_id":"ce4bhnh2rcd13ifvqgtg","pricing_plan_id":"free"},{"bike_id":"b06b02e4-3886-47fe-bc2f-397a036438b9","system_id":"levelo_inurba_marseille","lat":43.27939,"lon":5.41053,"is_reserved":false,"is_disabled":false,"rental_uris":{"android":"levelo://app?vid=b06b02e4-3886-47fe-bc2f-397a036438b9","ios":"levelo://app?vid=b06b02e4-3886-47fe-bc2f-397a036438b9"},"vehicle_type_id":"4","last_reported":1704031569,"current_range_meters":26400,"station_id":"ce4bhnp2rcd13ifvqh0g","pricing_plan_id":"free"},{"bike_id":"4ace0143-54eb-450f-874b-0d5359e906a6","system_id":"levelo_inurba_marseille","lat":43.31303,"lon":5.43093,"is_reserved":false,"is_disabled":false,"rental_uris":{"android":"levelo://app?vid=4ace0143-54eb-450f-874b-0d5359e906a6","ios":"levelo://app?vid=4ace0143-54eb-450f-874b-0d5359e906a6"},"vehicle_type_id":"4","last_reported":1704031569,"current_range_meters":27600,"station_id":"","pricing_plan_id":"free"},{"bike_id":"b13eed8c-1a94-4423-b5d6-ede7d4833ea0","system_id":"levelo_inurba_marseille","lat":43.279943,"lon":5.416599,"is_reserved":false,"is_disabled":false,"rental_uris":{"android":"levelo://app?vid=b13eed8c-1a94-4423-b5d6-ede7d4833ea0","ios":"levelo://app?vid=b13eed8c-1a94-4423-b5d6-ede7d4833ea0"},"vehicle_type_id":"4","last_reported":1704031569,"current_range_meters":18400,"station_id":"ce4bho12rcd13ifvqh1g","pricing_plan_id":"free"},{"bike_id":"1c7b2420-34e7-4cda-9b8d-e5551d4017de","system_id":"levelo_inurba_marseille","lat":43.2799,"lon":5.41663,"is_reserved":false,"is_disabled":false,"rental_uris":{"android":"levelo://app?vid=1c7b2420-34e7-4cda-9b8d-e5551d4017de","ios":"levelo://app?vid=1c7b2420-34e7-4cda-9b8d-e5551d4017de"},"vehicle_type_id":"4","last_reported":1704031569,"current_range_meters":18000,"station_id":"ce4bho12rcd13ifvqh1g","pricing_plan_id":"free"},{"bike_id":"40c945d6-0276-4a48-b299-960f10ed7965","system_id":"levelo_inurba_marseille","lat":43.27991,"lon":5.416657,"is_reserved":false,"is_disabled":false,"rental_uris":{"android":"levelo://app?vid=40c945d6-0276-4a48-b299-960f10ed7965","ios":"levelo://app?vid=40c945d6-0276-4a48-b299-960f10ed7965"},"vehicle_type_id":"4","last_reported":1704031569,"current_range_meters":10800,"station_id":"ce4bho12rcd13ifvqh1g","pricing_plan_id":"free"},{"bike_id":"24ab414d-d7b6-4ad6-9b44-0265205e797f","system_id":"levelo_inurba_marseille","lat":43.265714,"lon":5.372891,"is_reserved":false,"is_disabled":false,"rental_uris":{"android":"levelo://app?vid=24ab414d-d7b6-4ad6-9b44-0265205e797f","ios":"levelo://app?vid=24ab414d-d7b6-4ad6-9b44-0265205e797f"},"vehicle_type_id":"4","last_reported":1704031569,"current_range_meters":28400,"station_id":"ce4bhg12rcd13ifvqf70","pricing_plan_id":"free"},{"bike_id":"9e15925c-33ab-47bd-a788-cbec8b9fb708","system_id":"levelo_inurba_marseille","lat":43.308051,"lon":5.43527,"is_reserved":false,"is_disabled":false,"rental_uris":{"android":"levelo://app?vid=9e15925c-33ab-47bd-a788-cbec8b9fb708","ios":"levelo://app?vid=9e15925c-33ab-47bd-a788-cbec8b9fb708"},"vehicle_type_id":"4","last_reported":1704031569,"current_range_meters":31600,"station_id":"ce4bhph2rcd13ifvqheg","pricing_plan_id":"free"},{"bike_id":"109313f9-71f8-49b1-a95b-7c7e1a73f29b","system_id":"levelo_inurba_marseille","lat":43.308051,"lon":5.43527,"is_reserved":false,"is_disabled":false,"rental_uris":{"android":"levelo://app?vid=109313f9-71f8-49b1-a95b-7c7e1a73f29b","ios":"levelo://app?vid=109313f9-71f8-49b1-a95b-7c7e1a73f29b"},"vehicle_type_id":"4","last_reported":1704031569,"current_range_meters":30000,"station_id":"ce4bhph2rcd13ifvqheg","pricing_plan_id":"free"},{"bike_id":"dac5ea74-92f7-462e-b536-31f322bb01c0","system_id":"levelo_inurba_marseille","lat":43.331893,"lon":5.431791,"is_reserved":false,"is_disabled":false,"rental_uris":{"android":"levelo://app?vid=dac5ea74-92f7-462e-b536-31f322bb01c0","ios":"levelo://app?vid=dac5ea74-92f7-462e-b536-31f322bb01c0"},"vehicle_type_id":"4","last_reported":1704031569,"current_range_meters":11200,"station_id":"","pricing_plan_id":"free"},{"bike_id":"6cc989de-82bb-40f7-8f78-77f54574d0f3","system_id":"levelo_inurba_marseille","lat":43.261782,"lon":5.374515,"is_reserved":false,"is_disabled":false,"rental_uris":{"android":"levelo://app?vid=6cc989de-82bb-40f7-8f78-77f54574d0f3","ios":"levelo://app?vid=6cc989de-82bb-40f7-8f78-77f54574d0f3"},"vehicle_type_id":"4","last_reported":1704031569,"current_range_meters":10800,"station_id":"ce4bhgp2rcd13ifvqfc0","pricing_plan_id":"free"},{"bike_id":"8794ac1b-23e7-4491-a917-cc95c2dfbef4","system_id":"levelo_inurba_marseille","lat":43.261782,"lon":5.374515,"is_reserved":false,"is_disabled":false,"rental_uris":{"android":"levelo://app?vid=8794ac1b-23e7-4491-a917-cc95c2dfbef4","ios":"levelo://app?vid=8794ac1b-23e7-4491-a917-cc95c2dfbef4"},"vehicle_type_id":"4","last_reported":1704031569,"current_range_meters":28800,"station_id":"ce4bhgp2rcd13ifvqfc0","pricing_plan_id":"free"},{"bike_id":"64d14c23-e155-493b-88df-d57fa2ecc2c2","system_id":"levelo_inurba_marseille","lat":43.261782,"lon":5.374515,"is_reserved":false,"is_disabled":false,"rental_uris":{"android":"levelo://app?vid=64d14c23-e155-493b-88df-d57fa2ecc2c2","ios":"levelo://app?vid=64d14c23-e155-493b-88df-d57fa2ecc2c2"},"vehicle_type_id":"4","last_reported":1704031569,"current_range_meters":17600,"station_id":"ce4bhgp2rcd13ifvqfc0","pricing_plan_id":"free"},{"bike_id":"e8b0f677-dc7e-42ff-a790-e1cc12742206","system_id":"levelo_inurba_marseille","lat":43.271368,"lon":5.40928,"is_reserved":false,"is_disabled":false,"rental_uris":{"android":"levelo://app?vid=e8b0f677-dc7e-42ff-a790-e1cc12742206","ios":"levelo://app?vid=e8b0f677-dc7e-42ff-a790-e1cc12742206"},"vehicle_type_id":"4","last_reported":1704031569,"current_range_meters":30000,"station_id":"ce4bhl12rcd13ifvqgf0","pricing_plan_id":"free"},{"bike_id":"3da40108-6a0f-416e-b742-39dd8864e8cf","system_id":"levelo_inurba_marseille","lat":43.26202,"lon":5.379299,"is_reserved":false,"is_disabled":false,"rental_uris":{"android":"levelo://app?vid=3da40108-6a0f-416e-b742-39dd8864e8cf","ios":"levelo://app?vid=3da40108-6a0f-416e-b742-39dd8864e8cf"},"vehicle_type_id":"4","last_reported":1704031569,"current_range_meters":19600,"station_id":"ce4bhjp2rcd13ifvqg90","pricing_plan_id":"free"},{"bike_id":"ceb27997-8b67-4f80-afd9-825fbe61d37d","system_id":"levelo_inurba_marseille","lat":43.271368,"lon":5.40928,"is_reserved":false,"is_disabled":false,"rental_uris":{"android":"levelo://app?vid=ceb27997-8b67-4f80-afd9-825fbe61d37d","ios":"levelo://app?vid=ceb27997-8b67-4f80-afd9-825fbe61d37d"},"vehicle_type_id":"4","last_reported":1704031569,"current_range_meters":1600,"station_id":"ce4bhl12rcd13ifvqgf0","pricing_plan_id":"free"},{"bike_id":"4e88cb56-8deb-4813-9f41-4d36fbf25b7b","system_id":"levelo_inurba_marseille","lat":43.267959,"lon":5.402685,"is_reserved":false,"is_disabled":false,"rental_uris":{"android":"levelo://app?vid=4e88cb56-8deb-4813-9f41-4d36fbf25b7b","ios":"levelo://app?vid=4e88cb56-8deb-4813-9f41-4d36fbf25b7b"},