{"last_updated":1701191204,"ttl":30,"version":"2.2","data":{"bikes":[{"bike_id":"8db60fe7-8c83-425b-bb79-475ba0c87cab","system_id":"levelo_inurba_marseille","lat":43.31341,"lon":5.367098,"is_reserved":false,"is_disabled":false,"rental_uris":{"android":"levelo://app?vid=8db60fe7-8c83-425b-bb79-475ba0c87cab","ios":"levelo://app?vid=8db60fe7-8c83-425b-bb79-475ba0c87cab"},"vehicle_type_id":"4","last_reported":1701191204,"current_range_meters":29600,"station_id":"ce4bgr92rcd13ifvqc6g","pricing_plan_id":"free"},{"bike_id":"040fdf43-bc30-4b80-9883-78e4f1cbaa6b","system_id":"levelo_inurba_marseille","lat":43.309076,"lon":5.368465,"is_reserved":false,"is_disabled":false,"rental_uris":{"android":"levelo://app?vid=040fdf43-bc30-4b80-9883-78e4f1cbaa6b","ios":"levelo://app?vid=040fdf43-bc30-4b80-9883-78e4f1cbaa6b"},"vehicle_type_id":"4","last_reported":1701191204,"current_range_meters":20400,"station_id":"ce4bgn92rcd13ifvqbvg","pricing_plan_id":"free"},{"bike_id":"5126b0aa-d865-4589-8d50-8d8600ba8782","system_id":"levelo_inurba_marseille","lat":43.308421,"lon":5.368726,"is_reserved":false,"is_disabled":false,"rental_uris":{"android":"levelo://app?vid=5126b0aa-d865-4589-8d50-8d8600ba8782","ios":"levelo://app?vid=5126b0aa-d865-4589-8d50-8d8600ba8782"},"vehicle_type_id":"4","last_reported":1701191204,"current_range_meters":21600,"station_id":"","pricing_plan_id":"free"},{"bike_id":"8aa2ae68-f9b5-4235-b060-e8cf5cf5d6e8","system_id":"levelo_inurba_marseille","lat":43.314811,"lon":5.373104,"is_reserved":false,"is_disabled":false,"rental_uris":{"android":"levelo://app?vid=8aa2ae68-f9b5-4235-b060-e8cf5cf5d6e8","ios":"levelo://app?vid=8aa2ae68-f9b5-4235-b060-e8cf5cf5d6e8"},"vehicle_type_id":"4","last_reported":1701191204,"current_range_meters":7600,"station_id":"ce4bgt12rcd13ifvqcd0","pricing_plan_id":"free"},{"bike_id":"e5930290-4de9-4592-b0ff-1380d2b4e48e","system_id":"levelo_inurba_marseille","lat":43.31385,"lon":5.3765,"is_reserved":false,"is_disabled":false,"rental_uris":{"android":"levelo://app?vid=e5930290-4de9-4592-b0ff-1380d2b4e48e","ios":"levelo://app?vid=e5930290-4de9-4592-b0ff-1380d2b4e48e"},"vehicle_type_id":"4","last_reported":1701191204,"current_range_meters":26800,"station_id":"","pricing_plan_id":"free"},{"bike_id":"ed058bcf-ec96-4dc8-81d9-62375add0ff3","system_id":"levelo_inurba_marseille","lat":43.311131,"lon":5.377651,"is_reserved":false,"is_disabled":false,"rental_uris":{"android":"levelo://app?vid=ed058bcf-ec96-4dc8-81d9-62375add0ff3","ios":"levelo://app?vid=ed058bcf-ec96-4dc8-81d9-62375add0ff3"},"vehicle_type_id":"4","last_reported":1701191204,"current_range_meters":17200,"station_id":"ce4bgt92rcd13ifvqcg0","pricing_plan_id":"free"},{"bike_id":"a5180256-6385-41c0-bc66-78222e898ceb","system_id":"levelo_inurba_marseille","lat":43.31113,"lon":5.37787,"is_reserved":false,"is_disabled":false,"rental_uris":{"android":"levelo://app?vid=a5180256-6385-41c0-bc66-78222e898ceb","ios":"levelo://app?vid=a5180256-6385-41c0-bc66-78222e898ceb"},"vehicle_type_id":"4","last_reported":1701191204,"current_range_meters":11200,"station_id":"ce4bgt92rcd13ifvqcg0","pricing_plan_id":"free"},{"bike_id":"45b3ff23-a937-45d9-9f96-088c308c0189","system_id":"levelo_inurba_marseille","lat":43.308192,"lon":5.376578,"is_reserved":false,"is_disabled":false,"rental_uris":{"android":"levelo://app?vid=45b3ff23-a937-45d9-9f96-088c308c0189","ios":"levelo://app?vid=45b3ff23-a937-45d9-9f96-088c308c0189"},"vehicle_type_id":"4","last_reported":1701191204,"current_range_meters":13600,"station_id":"ce4bgv92rcd13ifvqcq0","pricing_plan_id":"free"},{"bike_id":"f427a2c3-6e4a-446b-ae2f-9be8aa7f4122","system_id":"levelo_inurba_marseille","lat":43.31719,"lon":5.376813,"is_reserved":false,"is_disabled":false,"rental_uris":{"android":"levelo://app?vid=f427a2c3-6e4a-446b-ae2f-9be8aa7f4122","ios":"levelo://app?vid=f427a2c3-6e4a-446b-ae2f-9be8aa7f4122"},"vehicle_type_id":"4","last_reported":1701191204,"current_range_meters":12800,"station_id":"ce4bgth2rcd13ifvqch0","pricing_plan_id":"free"},{"bike_id":"e913f328-1e31-4c22-bd87-f809ea246de4","system_id":"levelo_inurba_marseille","lat":43.317168,"lon":5.376883,"is_reserved":false,"is_disabled":false,"rental_uris":{"android":"levelo://app?vid=e913f328-1e31-4c22-bd87-f809ea246de4","ios":"levelo://app?vid=e913f328-1e31-4c22-bd87-f809ea246de4"},"vehicle_type_id":"4","last_reported":1701191204,"current_range_meters":15200,"station_id":"ce4bgth2rcd13ifvqch0","pricing_plan_id":"free"},{"bike_id":"616f83fe-af6d-40c9-a8c3-0aaadfb356c3","system_id":"levelo_inurba_marseille","lat":43.30779,"lon":5.37656,"is_reserved":false,"is_disabled":false,"rental_uris":{"android":"levelo://app?vid=616f83fe-af6d-40c9-a8c3-0aaadfb356c3","ios":"levelo://app?vid=616f83fe-af6d-40c9-a8c3-0aaadfb356c3"},"vehicle_type_id":"4","last_reported":1701191204,"current_range_meters":4800,"station_id":"ce4bgv92rcd13ifvqcq0","pricing_plan_id":"free"},{"bike_id":"f63f383e-9285-484f-bdc1-ca6aa9ba3a2d","system_id":"levelo_inurba_marseille","lat":43.30304,"lon":5.368987,"is_reserved":false,"is_disabled":false,"rental_uris":{"android":"levelo://app?vid=f63f383e-9285-484f-bdc1-ca6aa9ba3a2d","ios":"levelo://app?vid=f63f383e-9285-484f-bdc1-ca6aa9ba3a2d"},"vehicle_type_id":"4","last_reported":1701191204,"current_range_meters":5200,"station_id":"ce4bgqh2rcd13ifvqc5g","pricing_plan_id":"free"},{"bike_id":"deeffa25-512d-485d-9cf8-855104dfce97","system_id":"levelo_inurba_marseille","lat":43.315293,"lon":5.380349,"is_reserved":false,"is_disabled":false,"rental_uris":{"android":"levelo://app?vid=deeffa25-512d-485d-9cf8-855104dfce97","ios":"levelo://app?vid=deeffa25-512d-485d-9cf8-855104dfce97"},"vehicle_type_id":"4","last_reported":1701191204,"current_range_meters":26000,"station_id":"ce4bhsp2rcd13ifvqi50","pricing_plan_id":"free"},{"bike_id":"a77d8e7a-bf90-4a16-be5d-3eec88327c8f","system_id":"levelo_inurba_marseille","lat":43.30804,"lon":5.3817,"is_reserved":false,"is_disabled":false,"rental_uris":{"android":"levelo://app?vid=a77d8e7a-bf90-4a16-be5d-3eec88327c8f","ios":"levelo://app?vid=a77d8e7a-bf90-4a16-be5d-3eec88327c8f"},"vehicle_type_id":"4","last_reported":1701191204,"current_range_meters":8800,"station_id":"ce4bgt12rcd13ifvqce0","pricing_plan_id":"free"},{"bike_id":"b89b9244-384b-4e1d-96e2-cf3a50b8483e","system_id":"levelo_inurba_marseille","lat":43.30143,"lon":5.37413,"is_reserved":false,"is_disabled":false,"rental_uris":{"android":"levelo://app?vid=b89b9244-384b-4e1d-96e2-cf3a50b8483e","ios":"levelo://app?vid=b89b9244-384b-4e1d-96e2-cf3a50b8483e"},"vehicle_type_id":"4","last_reported":1701191204,"current_range_meters":400,"station_id":"ce4bgs92rcd13ifvqcc0","pricing_plan_id":"free"},{"bike_id":"b865f439-69ad-4e95-a387-916b052e8937","system_id":"levelo_inurba_marseille","lat":43.31997,"lon":5.38168,"is_reserved":false,"is_disabled":false,"rental_uris":{"android":"levelo://app?vid=b865f439-69ad-4e95-a387-916b052e8937","ios":"levelo://app?vid=b865f439-69ad-4e95-a387-916b052e8937"},"vehicle_type_id":"4","last_reported":1701191204,"current_range_meters":16000,"station_id":"ce4bhr12rcd13ifvqhpg","pricing_plan_id":"free"},{"bike_id":"dc3a0fe4-9143-4813-8597-3936237deda6","system_id":"levelo_inurba_marseille","lat":43.313571,"lon":5.384829,"is_reserved":false,"is_disabled":false,"rental_uris":{"android":"levelo://app?vid=dc3a0fe4-9143-4813-8597-3936237deda6","ios":"levelo://app?vid=dc3a0fe4-9143-4813-8597-3936237deda6"},"vehicle_type_id":"4","last_reported":1701191204,"current_range_meters":27600,"station_id":"ce4bgt92rcd13ifvqcf0","pricing_plan_id":"free"},{"bike_id":"f2ab2c8a-3a31-48cd-b1d9-13498f1a9289","system_id":"levelo_inurba_marseille","lat":43.313571,"lon":5.384829,"is_reserved":false,"is_disabled":false,"rental_uris":{"android":"levelo://app?vid=f2ab2c8a-3a31-48cd-b1d9-13498f1a9289","ios":"levelo://app?vid=f2ab2c8a-3a31-48cd-b1d9-13498f1a9289"},"vehicle_type_id":"4","last_reported":1701191204,"current_range_meters":26800,"station_id":"ce4bgt92rcd13ifvqcf0","pricing_plan_id":"free"},{"bike_id":"f2d37ad5-253a-4284-8bd6-92e5d36f30b7","system_id":"levelo_inurba_marseille","lat":43.313571,"lon":5.384829,"is_reserved":false,"is_disabled":false,"rental_uris":{"android":"levelo://app?vid=f2d37ad5-253a-4284-8bd6-92e5d36f30b7","ios":"levelo://app?vid=f2d37ad5-253a-4284-8bd6-92e5d36f30b7"},"vehicle_type_id":"4","last_reported":1701191204,"current_range_meters":28800,"station_id":"ce4bgt92rcd13ifvqcf0","pricing_plan_id":"free"},{"bike_id":"0885fea7-494e-4b4c-862e-6923a3b2886a","system_id":"levelo_inurba_marseille","lat":43.313571,"lon":5.384829,"is_reserved":false,"is_disabled":false,"rental_uris":{"android":"levelo://app?vid=0885fea7-494e-4b4c-862e-6923a3b2886a","ios":"levelo://app?vid=0885fea7-494e-4b4c-862e-6923a3b2886a"},"vehicle_type_id":"4","last_reported":1701191204,"current_range_meters":400,"station_id":"ce4bgt92rcd13ifvqcf0","pricing_plan_id":"free"},{"bike_id":"bf12e1ab-085a-4469-9c2b-88fb11c8fa07","system_id":"levelo_inurba_marseille","lat":43.299724,"lon":5.371829,"is_reserved":false,"is_disabled":false,"rental_uris":{"android":"levelo://app?vid=bf12e1ab-085a-4469-9c2b-88fb11c8fa07","ios":"levelo://app?vid=bf12e1ab-085a-4469-9c2b-88fb11c8fa07"},"vehicle_type_id":"4","last_reported":1701191204,"current_range_meters":27200,"station_id":"ce4bgr92rcd13ifvqc7g","pricing_plan_id":"free"},{"bike_id":"7ccc091d-b116-4979-806c-365446721989","system_id":"levelo_inurba_marseille","lat":43.299724,"lon":5.371829,"is_reserved":false,"is_disabled":false,"rental_uris":{"android":"levelo://app?vid=7ccc091d-b116-4979-806c-365446721989","ios":"levelo://app?vid=7ccc091d-b116-4979-806c-365446721989"},"vehicle_type_id":"4","last_reported":1701191204,"current_range_meters":0,"station_id":"ce4bgr92rcd13ifvqc7g","pricing_plan_id":"free"},{"bike_id":"331a0a44-0bf0-432e-869c-00cf53001827","system_id":"levelo_inurba_marseille","lat":43.299209,"lon":5.365547,"is_reserved":false,"is_disabled":false,"rental_uris":{"android":"levelo://app?vid=331a0a44-0bf0-432e-869c-00cf53001827","ios":"levelo://app?vid=331a0a44-0bf0-432e-869c-00cf53001827"},"vehicle_type_id":"4","last_reported":1701191204,"current_range_meters":15200,"station_id":"ce4bgm92rcd13ifvqbr0","pricing_plan_id":"free"},{"bike_id":"4635e41d-94e9-4abb-b068-8a7095775a56","system_id":"levelo_inurba_marseille","lat":43.319373,"lon":5.38326,"is_reserved":false,"is_disabled":false,"rental_uris":{"android":"levelo://app?vid=4635e41d-94e9-4abb-b068-8a7095775a56","ios":"levelo://app?vid=4635e41d-94e9-4abb-b068-8a7095775a56"},"vehicle_type_id":"4","last_reported":1701191204,"current_range_meters":28400,"station_id":"","pricing_plan_id":"free"},{"bike_id":"c494d314-47ac-4591-9604-84f461e83135","system_id":"levelo_inurba_marseille","lat":43.29854,"lon":5.36284,"is_reserved":false,"is_disabled":false,"rental_uris":{"android":"levelo://app?vid=c494d314-47ac-4591-9604-84f461e83135","ios":"levelo://app?vid=c494d314-47ac-4591-9604-84f461e83135"},"vehicle_type_id":"4","last_reported":1701191204,"current_range_meters":29200,"station_id":"ce4bgpp2rcd13ifvqc3g","pricing_plan_id":"free"},{"bike_id":"deaf8111-455e-4354-9a24-68935c7be8d1","system_id":"levelo_inurba_marseille","lat":43.299243,"lon":5.37481,"is_reserved":false,"is_disabled":false,"rental_uris":{"android":"levelo://app?vid=deaf8111-455e-4354-9a24-68935c7be8d1","ios":"levelo://app?vid=deaf8111-455e-4354-9a24-68935c7be8d1"},"vehicle_type_id":"4","last_reported":1701191204,"current_range_meters":18400,"station_id":"ce4bgjh2rcd13ifvqbg0","pricing_plan_id":"free"},{"bike_id":"bd715621-e73e-4a7d-9566-168c71b1835c","system_id":"levelo_inurba_marseille","lat":43.311722,"lon":5.387247,"is_reserved":false,"is_disabled":false,"rental_uris":{"android":"levelo://app?vid=bd715621-e73e-4a7d-9566-168c71b1835c","ios":"levelo://app?vid=bd715621-e73e-4a7d-9566-168c71b1835c"},"vehicle_type_id":"4","last_reported":1701191204,"current_range_meters":21200,"station_id":"ce4bgv12rcd13ifvqcp0","pricing_plan_id":"free"},{"bike_id":"fb72b48c-18ce-4f92-813a-81992468c41a","system_id":"levelo_inurba_marseille","lat":43.311722,"lon":5.387247,"is_reserved":false,"is_disabled":false,"rental_uris":{"android":"levelo://app?vid=fb72b48c-18ce-4f92-813a-81992468c41a","ios":"levelo://app?vid=fb72b48c-18ce-4f92-813a-81992468c41a"},"vehicle_type_id":"4","last_reported":1701191204,"current_range_meters":29600,"station_id":"ce4bgv12rcd13ifvqcp0","pricing_plan_id":"free"},{"bike_id":"da0752ac-4af0-47b7-9596-2907a7da5538","system_id":"levelo_inurba_marseille","lat":43.31161,"lon":5.38726,"is_reserved":false,"is_disabled":false,"rental_uris":{"android":"levelo://app?vid=da0752ac-4af0-47b7-9596-2907a7da5538","ios":"levelo://app?vid=da0752ac-4af0-47b7-9596-2907a7da5538"},"vehicle_type_id":"4","last_reported":1701191204,"current_range_meters":2800,"station_id":"ce4bgv12rcd13ifvqcp0","pricing_plan_id":"free"},{"bike_id":"dff148c0-c0d0-4f86-b18a-a0a4c17719c1","system_id":"levelo_inurba_marseille","lat":43.297794,"lon":5.370888,"is_reserved":false,"is_disabled":false,"rental_uris":{"android":"levelo://app?vid=dff148c0-c0d0-4f86-b18a-a0a4c17719c1","ios":"levelo://app?vid=dff148c0-c0d0-4f86-b18a-a0a4c17719c1"},"vehicle_type_id":"4","last_reported":1701191204,"current_range_meters":0,"station_id":"ce4bgop2rcd13ifvqc1g","pricing_plan_id":"free"},{"bike_id":"1345374e-3a0f-48ed-b752-811b019274d7","system_id":"levelo_inurba_marseille","lat":43.32847,"lon":5.36668,"is_reserved":false,"is_disabled":false,"rental_uris":{"android":"levelo://app?vid=1345374e-3a0f-48ed-b752-811b019274d7","ios":"levelo://app?vid=1345374e-3a0f-48ed-b752-811b019274d7"},"vehicle_type_id":"4","last_reported":1701191204,"current_range_meters":9200,"station_id":"ce4bhs92rcd13ifvqi0g","pricing_plan_id":"free"},{"bike_id":"5a65808c-9da4-4589-8a08-93b49433c6e8","system_id":"levelo_inurba_marseille","lat":43.2968,"lon":5.37291,"is_reserved":false,"is_disabled":false,"rental_uris":{"android":"levelo://app?vid=5a65808c-9da4-4589-8a08-93b49433c6e8","ios":"levelo://app?vid=5a65808c-9da4-4589-8a08-93b49433c6e8"},"vehicle_type_id":"4","last_reported":1701191204,"current_range_meters":26000,"station_id":"ce4bgk12rcd13ifvqbj0","pricing_plan_id":"free"},{"bike_id":"9f0f067c-4570-4779-9fe7-642e24984182","system_id":"levelo_inurba_marseille","lat":43.29612,"lon":5.36553,"is_reserved":false,"is_disabled":false,"rental_uris":{"android":"levelo://app?vid=9f0f067c-4570-4779-9fe7-642e24984182","ios":"levelo://app?vid=9f0f067c-4570-4779-9fe7-642e24984182"},"vehicle_type_id":"4","last_reported":1701191204,"current_range_meters":19600,"station_id":"","pricing_plan_id":"free"},{"bike_id":"4051be73-a318-4341-beaf-b96e9fa8e7bd","system_id":"levelo_inurba_marseille","lat":43.29573,"lon":5.367355,"is_reserved":false,"is_disabled":false,"rental_uris":{"android":"levelo://app?vid=4051be73-a318-4341-beaf-b96e9fa8e7bd","ios":"levelo://app?vid=4051be73-a318-4341-beaf-b96e9fa8e7bd"},"vehicle_type_id":"4","last_reported":1701191204,"current_range_meters":4800,"station_id":"ce4bgph2rcd13ifvqc2g","pricing_plan_id":"free"},{"bike_id":"307bed04-0e83-4c66-8242-209e01221d37","system_id":"levelo_inurba_marseille","lat":43.317557,"lon":5.390173,"is_reserved":false,"is_disabled":false,"rental_uris":{"android":"levelo://app?vid=307bed04-0e83-4c66-8242-209e01221d37","ios":"levelo://app?vid=307bed04-0e83-4c66-8242-209e01221d37"},"vehicle_type_id":"4","last_reported":1701191204,"current_range_meters":14800,"station_id":"ce4bhqp2rcd13ifvqhng","pricing_plan_id":"free"},{"bike_id":"deed4d43-28f2-4d1d-8bf8-dda5b349a92c","system_id":"levelo_inurba_marseille","lat":43.29539,"lon":5.37447,"is_reserved":false,"is_disabled":false,"rental_uris":{"android":"levelo://app?vid=deed4d43-28f2-4d1d-8bf8-dda5b349a92c","ios":"levelo://app?vid=deed4d43-28f2-4d1d-8bf8-dda5b349a92c"},"vehicle_type_id":"4","last_reported":1701191204,"current_range_meters":18000,"station_id":"ce4bgkp2rcd13ifvqbmg","pricing_plan_id":"free"},{"bike_id":"55ef9506-d152-42ee-9be9-7c5aded64bc1","system_id":"levelo_inurba_marseille","lat":43.299717,"lon":5.384845,"is_reserved":false,"is_disabled":false,"rental_uris":{"android":"levelo://app?vid=55ef9506-d152-42ee-9be9-7c5aded64bc1","ios":"levelo://app?vid=55ef9506-d152-42ee-9be9-7c5aded64bc1"},"vehicle_type_id":"4","last_reported":1701191204,"current_range_meters":0,"station_id":"ce4bgj92rcd13ifvqbd0","pricing_plan_id":"free"},{"bike_id":"6d682541-e303-48f1-a51f-1a3e63d669b4","system_id":"levelo_inurba_marseille","lat":43.323652,"lon":5.389283,"is_reserved":false,"is_disabled":false,"rental_uris":{"android":"levelo://app?vid=6d682541-e303-48f1-a51f-1a3e63d669b4","ios":"levelo://app?vid=6d682541-e303-48f1-a51f-1a3e63d669b4"},"vehicle_type_id":"4","last_reported":1701191204,"current_range_meters":27200,"station_id":"","pricing_plan_id":"free"},{"bike_id":"e4a18a81-10fc-4e6f-b09b-12a2d559c09f","system_id":"levelo_inurba_marseille","lat":43.29602,"lon":5.381084,"is_reserved":false,"is_disabled":false,"rental_uris":{"android":"levelo://app?vid=e4a18a81-10fc-4e6f-b09b-12a2d559c09f","ios":"levelo://app?vid=e4a18a81-10fc-4e6f-b09b-12a2d559c09f"},"vehicle_type_id":"4","last_reported":1701191204,"current_range_meters":10000,"station_id":"ce4bgl12rcd13ifvqbo0","pricing_plan_id":"free"},{"bike_id":"822b26d0-5507-4031-94d1-bf52f84976c8","system_id":"levelo_inurba_marseille","lat":43.292674,"lon":5.368473,"is_reserved":false,"is_disabled":false,"rental_uris":{"android":"levelo://app?vid=822b26d0-5507-4031-94d1-bf52f84976c8","ios":"levelo://app?vid=822b26d0-5507-4031-94d1-bf52f84976c8"},"vehicle_type_id":"4","last_reported":1701191204,"current_range_meters":0,"station_id":"ce4bhbp2rcd13ifvqesg","pricing_plan_id":"free"},{"bike_id":"92f5999b-eb5b-4d3e-b638-8668b848e03c","system_id":"levelo_inurba_marseille","lat":43.298764,"lon":5.388973,"is_reserved":false,"is_disabled":false,"rental_uris":{"android":"levelo://app?vid=92f5999b-eb5b-4d3e-b638-8668b848e03c","ios":"levelo://app?vid=92f5999b-eb5b-4d3e-b638-8668b848e03c"},"vehicle_type_id":"4","last_reported":1701191204,"current_range_meters":0,"station_id":"ce4bh392rcd13ifvqdl0","pricing_plan_id":"free"},{"bike_id":"03502ef3-26d1-4329-bf42-9fe00bff2868","system_id":"levelo_inurba_marseille","lat":43.298764,"lon":5.388973,"is_reserved":false,"is_disabled":false,"rental_uris":{"android":"levelo://app?vid=03502ef3-26d1-4329-bf42-9fe00bff2868","ios":"levelo://app?vid=03502ef3-26d1-4329-bf42-9fe00bff2868"},"vehicle_type_id":"4","last_reported":1701191204,"current_range_meters":12400,"station_id":"ce4bh392rcd13ifvqdl0","pricing_plan_id":"free"},{"bike_id":"40fb8748-1a3a-47d7-8099-b46122688fac","system_id":"levelo_inurba_marseille","lat":43.292663,"lon":5.376394,"is_reserved":false,"is_disabled":false,"rental_uris":{"android":"levelo://app?vid=40fb8748-1a3a-47d7-8099-b46122688fac","ios":"levelo://app?vid=40fb8748-1a3a-47d7-8099-b46122688fac"},"vehicle_type_id":"4","last_reported":1701191204,"current_range_meters":28400,"station_id":"ce4bgi12rcd13ifvqb80","pricing_plan_id":"free"},{"bike_id":"58da79b7-f7ca-4e0c-bbac-7d27c968d808","system_id":"levelo_inurba_marseille","lat":43.31323,"lon":5.3969,"is_reserved":false,"is_disabled":false,"rental_uris":{"android":"levelo://app?vid=58da79b7-f7ca-4e0c-bbac-7d27c968d808","ios":"levelo://app?vid=58da79b7-f7ca-4e0c-bbac-7d27c968d808"},"vehicle_type_id":"4","last_reported":1701191204,"current_range_meters":13200,"station_id":"ce4bgvp2rcd13ifvqcu0","pricing_plan_id":"free"},{"bike_id":"270750be-aab4-4fa4-a67d-5069b841df9b","system_id":"levelo_inurba_marseille","lat":43.30887,"lon":5.39648,"is_reserved":false,"is_disabled":false,"rental_uris":{"android":"levelo://app?vid=270750be-aab4-4fa4-a67d-5069b841df9b","ios":"levelo://app?vid=270750be-aab4-4fa4-a67d-5069b841df9b"},"vehicle_type_id":"4","last_reported":1701191204,"current_range_meters":26400,"station_id":"ce4bh012rcd13ifvqcv0","pricing_plan_id":"free"},{"bike_id":"ab1519ea-0266-437d-b352-16b9f481c81f","system_id":"levelo_inurba_marseille","lat":43.313291,"lon":5.396838,"is_reserved":false,"is_disabled":false,"rental_uris":{"android":"levelo://app?vid=ab1519ea-0266-437d-b352-16b9f481c81f","ios":"levelo://app?vid=ab1519ea-0266-437d-b352-16b9f481c81f"},"vehicle_type_id":"4","last_reported":1701191204,"current_range_meters":0,"station_id":"ce4bgvp2rcd13ifvqcu0","pricing_plan_id":"free"},{"bike_id":"66861cd1-a5a6-4045-96ff-145e497ae691","system_id":"levelo_inurba_marseille","lat":43.313291,"lon":5.396838,"is_reserved":false,"is_disabled":false,"rental_uris":{"android":"levelo://app?vid=66861cd1-a5a6-4045-96ff-145e497ae691","ios":"levelo://app?vid=66861cd1-a5a6-4045-96ff-145e497ae691"},"vehicle_type_id":"4","last_reported":1701191204,"current_range_meters":10400,"station_id":"ce4bgvp2rcd13ifvqcu0","pricing_plan_id":"free"},{"bike_id":"6f529c03-3758-4df8-8a05-636c9910b02c","system_id":"levelo_inurba_marseille","lat":43.290624,"lon":5.359245,"is_reserved":false,"is_disabled":false,"rental_uris":{"android":"levelo://app?vid=6f529c03-3758-4df8-8a05-636c9910b02c","ios":"levelo://app?vid=6f529c03-3758-4df8-8a05-636c9910b02c"},"vehicle_type_id":"4","last_reported":1701191204,"current_range_meters":5200,"station_id":"ce4bha92rcd13ifvqeg0","pricing_plan_id":"free"},{"bike_id":"0398b9ad-9fe5-457b-b457-f709ee05ed24","system_id":"levelo_inurba_marseille","lat":43.304274,"lon":5.397513,"is_reserved":false,"is_disabled":false,"rental_uris":{"android":"levelo://app?vid=0398b9ad-9fe5-457b-b457-f709ee05ed24","ios":"levelo://app?vid=0398b9ad-9fe5-457b-b457-f709ee05ed24"},"vehicle_type_id":"4","last_reported":1701191204,"current_range_meters":0,"station_id":"ce4bh092rcd13ifvqd20","pricing_plan_id":"free"},{"bike_id":"be30f0ff-354e-45cb-a487-db0efc4ca4a7","system_id":"levelo_inurba_marseille","lat":43.290995,"lon":5.381361,"is_reserved":false,"is_disabled":false,"rental_uris":{"android":"levelo://app?vid=be30f0ff-354e-45cb-a487-db0efc4ca4a7","ios":"levelo://app?vid=be30f0ff-354e-45cb-a487-db0efc4ca4a7"},"vehicle_type_id":"4","last_reported":1701191204,"current_range_meters":9200,"station_id":"ce4bh512rcd13ifvqe2g","pricing_plan_id":"free"},{"bike_id":"9143a68b-0303-4c00-87a6-71721d6a307b","system_id":"levelo_inurba_marseille","lat":43.29788,"lon":5.39337,"is_reserved":false,"is_disabled":false,"rental_uris":{"android":"levelo://app?vid=9143a68b-0303-4c00-87a6-71721d6a307b","ios":"levelo://app?vid=9143a68b-0303-4c00-87a6-71721d6a307b"},"vehicle_type_id":"4","last_reported":1701191204,"current_range_meters":8400,"station_id":"chh1huq6cuj3fo74tm60","pricing_plan_id":"free"},{"bike_id":"78905401-ecd8-4d14-9b41-98d8ad75d5b4","system_id":"levelo_inurba_marseille","lat":43.295169,"lon":5.390426,"is_reserved":false,"is_disabled":false,"rental_uris":{"android":"levelo://app?vid=78905401-ecd8-4d14-9b41-98d8ad75d5b4","ios":"levelo://app?vid=78905401-ecd8-4d14-9b41-98d8ad75d5b4"},"vehicle_type_id":"4","last_reported":1701191204,"current_range_meters":11600,"station_id":"ce4bh3p2rcd13ifvqdp0","pricing_plan_id":"free"},{"bike_id":"6101cc7e-743c-42f0-aaa2-9f140e036fef","system_id":"levelo_inurba_marseille","lat":43.295169,"lon":5.390426,"is_reserved":false,"is_disabled":false,"rental_uris":{"android":"levelo://app?vid=6101cc7e-743c-42f0-aaa2-9f140e036fef","ios":"levelo://app?vid=6101cc7e-743c-42f0-aaa2-9f140e036fef"},"vehicle_type_id":"4","last_reported":1701191204,"current_range_meters":0,"station_id":"ce4bh3p2rcd13ifvqdp0","pricing_plan_id":"free"},{"bike_id":"f97a9bc9-3a54-41de-a981-5b2e31108157","system_id":"levelo_inurba_marseille","lat":43.33759,"lon":5.37424,"is_reserved":false,"is_disabled":false,"rental_uris":{"android":"levelo://app?vid=f97a9bc9-3a54-41de-a981-5b2e31108157","ios":"levelo://app?vid=f97a9bc9-3a54-41de-a981-5b2e31108157"},"vehicle_type_id":"4","last_reported":1701191204,"current_range_meters":29200,"station_id":"","pricing_plan_id":"free"},{"bike_id":"0b68a162-b89d-4802-87ab-b7b397bce56b","system_id":"levelo_inurba_marseille","lat":43.33756,"lon":5.37453,"is_reserved":false,"is_disabled":false,"rental_uris":{"android":"levelo://app?vid=0b68a162-b89d-4802-87ab-b7b397bce56b","ios":"levelo://app?vid=0b68a162-b89d-4802-87ab-b7b397bce56b"},"vehicle_type_id":"4","last_reported":1701191204,"current_range_meters":30000,"station_id":"","pricing_plan_id":"free"},{"bike_id":"3a466064-1630-4c1e-a672-3fa2c27d51b9","system_id":"levelo_inurba_marseille","lat":43.301117,"lon":5.398795,"is_reserved":false,"is_disabled":false,"rental_uris":{"android":"levelo://app?vid=3a466064-1630-4c1e-a672-3fa2c27d51b9","ios":"levelo://app?vid=3a466064-1630-4c1e-a672-3fa2c27d51b9"},"vehicle_type_id":"4","last_reported":1701191204,"current_range_meters":0,"station_id":"ce4bh0h2rcd13ifvqd40","pricing_plan_id":"free"},{"bike_id":"76a6046b-b7d5-44ec-9c92-8e4049640849","system_id":"levelo_inurba_marseille","lat":43.298681,"lon":5.397225,"is_reserved":false,"is_disabled":false,"rental_uris":{"android":"levelo://app?vid=76a6046b-b7d5-44ec-9c92-8e4049640849","ios":"levelo://app?vid=76a6046b-b7d5-44ec-9c92-8e4049640849"},"vehicle_type_id":"4","last_reported":1701191204,"current_range_meters":8400,"station_id":"ce4bh0h2rcd13ifvqd50","pricing_plan_id":"free"},{"bike_id":"9251973b-0d19-4817-9638-ad22844f0f36","system_id":"levelo_inurba_marseille","lat":43.295196,"lon":5.39397,"is_reserved":false,"is_disabled":false,"rental_uris":{"android":"levelo://app?vid=9251973b-0d19-4817-9638-ad22844f0f36","ios":"levelo://app?vid=9251973b-0d19-4817-9638-ad22844f0f36"},"vehicle_type_id":"4","last_reported":1701191204,"current_range_meters":18400,"station_id":"ce4bh292rcd13ifvqdf0","pricing_plan_id":"free"},{"bike_id":"0a46ca47-b45f-46b8-ad51-fe7abd14a7e9","system_id":"levelo_inurba_marseille","lat":43.302759,"lon":5.400793,"is_reserved":false,"is_disabled":false,"rental_uris":{"android":"levelo://app?vid=0a46ca47-b45f-46b8-ad51-fe7abd14a7e9","ios":"levelo://app?vid=0a46ca47-b45f-46b8-ad51-fe7abd14a7e9"},"vehicle_type_id":"4","last_reported":1701191204,"current_range_meters":19600,"station_id":"ce4bgvh2rcd13ifvqcs0","pricing_plan_id":"free"},{"bike_id":"9c170648-b835-4ed8-b22f-974e731efb3e","system_id":"levelo_inurba_marseille","lat":43.286039,"lon":5.370681,"is_reserved":false,"is_disabled":false,"rental_uris":{"android":"levelo://app?vid=9c170648-b835-4ed8-b22f-974e731efb3e","ios":"levelo://app?vid=9c170648-b835-4ed8-b22f-974e731efb3e"},"vehicle_type_id":"4","last_reported":1701191204,"current_range_meters":6000,"station_id":"ce4bht12rcd13ifvqi60","pricing_plan_id":"free"},{"bike_id":"369b2e35-ac52-4b4a-8486-1aafaa2af7de","system_id":"levelo_inurba_marseille","lat":43.291994,"lon":5.392907,"is_reserved":false,"is_disabled":false,"rental_uris":{"android":"levelo://app?vid=369b2e35-ac52-4b4a-8486-1aafaa2af7de","ios":"levelo://app?vid=369b2e35-ac52-4b4a-8486-1aafaa2af7de"},"vehicle_type_id":"4","last_reported":1701191204,"current_range_meters":17600,"station_id":"ce4bh192rcd13ifvqdd0","pricing_plan_id":"free"},{"bike_id":"97b62801-65d6-4cc9-8610-e3cc4b8656dc","system_id":"levelo_inurba_marseille","lat":43.294314,"lon":5.397498,"is_reserved":false,"is_disabled":false,"rental_uris":{"android":"levelo://app?vid=97b62801-65d6-4cc9-8610-e3cc4b8656dc","ios":"levelo://app?vid=97b62801-65d6-4cc9-8610-e3cc4b8656dc"},"vehicle_type_id":"4","last_reported":1701191204,"current_range_meters":9200,"station_id":"ce4bh3h2rcd13ifvqdo0","pricing_plan_id":"free"},{"bike_id":"38e20aee-0f2e-4b14-beaf-ebce34830f09","system_id":"levelo_inurba_marseille","lat":43.284538,"lon":5.358657,"is_reserved":false,"is_disabled":false,"rental_uris":{"android":"levelo://app?vid=38e20aee-0f2e-4b14-beaf-ebce34830f09","ios":"levelo://app?vid=38e20aee-0f2e-4b14-beaf-ebce34830f09"},"vehicle_type_id":"4","last_reported":1701191204,"current_range_meters":27200,"station_id":"ce4bhah2rcd13ifvqei0","pricing_plan_id":"free"},{"bike_id":"7d3c7b6a-8fea-4521-9f43-fac678c648c7","system_id":"levelo_inurba_marseille","lat":43.2867,"lon":5.38673,"is_reserved":false,"is_disabled":false,"rental_uris":{"android":"levelo://app?vid=7d3c7b6a-8fea-4521-9f43-fac678c648c7","ios":"levelo://app?vid=7d3c7b6a-8fea-4521-9f43-fac678c648c7"},"vehicle_type_id":"4","last_reported":1701191204,"current_range_meters":10400,"station_id":"ce4bh492rcd13ifvqdug","pricing_plan_id":"free"},{"bike_id":"42e65a12-f278-4d45-b15b-86c7407672e6","system_id":"levelo_inurba_marseille","lat":43.323464,"lon":5.406297,"is_reserved":false,"is_disabled":false,"rental_uris":{"android":"levelo://app?vid=42e65a12-f278-4d45-b15b-86c7407672e6","ios":"levelo://app?vid=42e65a12-f278-4d45-b15b-86c7407672e6"},"vehicle_type_id":"4","last_reported":1701191204,"current_range_meters":30400,"station_id":"ce4bhq92rcd13ifvqhjg","pricing_plan_id":"free"},{"bike_id":"eba8c5e0-a17f-4ec4-b9de-d0717fab5707","system_id":"levelo_inurba_marseille","lat":43.28478,"lon":5.38412,"is_reserved":false,"is_disabled":false,"rental_uris":{"android":"levelo://app?vid=eba8c5e0-a17f-4ec4-b9de-d0717fab5707","ios":"levelo://app?vid=eba8c5e0-a17f-4ec4-b9de-d0717fab5707"},"vehicle_type_id":"4","last_reported":1701191204,"current_range_meters":0,"station_id":"ce4bh512rcd13ifvqe3g","pricing_plan_id":"free"},{"bike_id":"08197b72-80d8-4b63-8e8b-f1ec2a33548e","system_id":"levelo_inurba_marseille","lat":43.28471,"lon":5.38416,"is_reserved":false,"is_disabled":false,"rental_uris":{"android":"levelo://app?vid=08197b72-80d8-4b63-8e8b-f1ec2a33548e","ios":"levelo://app?vid=08197b72-80d8-4b63-8e8b-f1ec2a33548e"},"vehicle_type_id":"4","last_reported":1701191204,"current_range_meters":6400,"station_id":"ce4bh512rcd13ifvqe3g","pricing_plan_id":"free"},{"bike_id":"16225122-11ca-4453-b6da-91b19fda5bc2","system_id":"levelo_inurba_marseille","lat":43.297946,"lon":5.404063,"is_reserved":false,"is_disabled":false,"rental_uris":{"android":"levelo://app?vid=16225122-11ca-4453-b6da-91b19fda5bc2","ios":"levelo://app?vid=16225122-11ca-4453-b6da-91b19fda5bc2"},"vehicle_type_id":"4","last_reported":1701191204,"current_range_meters":27200,"station_id":"ce4bh112rcd13ifvqd90","pricing_plan_id":"free"},{"bike_id":"ee2f0853-02c8-43c5-bc60-2f0d5ce33e82","system_id":"levelo_inurba_marseille","lat":43.288501,"lon":5.393087,"is_reserved":false,"is_disabled":false,"rental_uris":{"android":"levelo://app?vid=ee2f0853-02c8-43c5-bc60-2f0d5ce33e82","ios":"levelo://app?vid=ee2f0853-02c8-43c5-bc60-2f0d5ce33e82"},"vehicle_type_id":"4","last_reported":1701191204,"current_range_meters":13200,"station_id":"ce4bh2p2rcd13ifvqdi0","pricing_plan_id":"free"},{"bike_id":"087936c0-e848-4176-89f4-dad4dde0b2ca","system_id":"levelo_inurba_marseille","lat":43.283502,"lon":5.386471,"is_reserved":false,"is_disabled":false,"rental_uris":{"android":"levelo://app?vid=087936c0-e848-4176-89f4-dad4dde0b2ca","ios":"levelo://app?vid=087936c0-e848-4176-89f4-dad4dde0b2ca"},"vehicle_type_id":"4","last_reported":1701191204,"current_range_meters":20400,"station_id":"ce4bh492rcd13ifvqdvg","pricing_plan_id":"free"},{"bike_id":"90bb93de-60c6-45f1-8989-bac32159e22e","system_id":"levelo_inurba_marseille","lat":43.280365,"lon":5.36944,"is_reserved":false,"is_disabled":false,"rental_uris":{"android":"levelo://app?vid=90bb93de-60c6-45f1-8989-bac32159e22e","ios":"levelo://app?vid=90bb93de-60c6-45f1-8989-bac32159e22e"},"vehicle_type_id":"4","last_reported":1701191204,"current_range_meters":0,"station_id":"ce4bha12rcd13ifvqef0","pricing_plan_id":"free"},{"bike_id":"aa345ed1-b8d8-44e3-b84b-985575f5af7e","system_id":"levelo_inurba_marseille","lat":43.28039,"lon":5.369297,"is_reserved":false,"is_disabled":false,"rental_uris":{"android":"levelo://app?vid=aa345ed1-b8d8-44e3-b84b-985575f5af7e","ios":"levelo://app?vid=aa345ed1-b8d8-44e3-b84b-985575f5af7e"},"vehicle_type_id":"4","last_reported":1701191204,"current_range_meters":28000,"station_id":"ce4bha12rcd13ifvqef0","pricing_plan_id":"free"},{"bike_id":"4b5b5b9a-04c9-4c9b-9f27-7f62860aeb4d","system_id":"levelo_inurba_marseille","lat":43.280357,"lon":5.369515,"is_reserved":false,"is_disabled":false,"rental_uris":{"android":"levelo://app?vid=4b5b5b9a-04c9-4c9b-9f27-7f62860aeb4d","ios":"levelo://app?vid=4b5b5b9a-04c9-4c9b-9f27-7f62860aeb4d"},"vehicle_type_id":"4","last_reported":1701191204,"current_range_meters":26400,"station_id":"ce4bha12rcd13ifvqef0","pricing_plan_id":"free"},{"bike_id":"2ded1825-c433-4a3e-a8a5-f7c84099aacd","system_id":"levelo_inurba_marseille","lat":43.29034,"lon":5.39981,"is_reserved":false,"is_disabled":false,"rental_uris":{"android":"levelo://app?vid=2ded1825-c433-4a3e-a8a5-f7c84099aacd","ios":"levelo://app?vid=2ded1825-c433-4a3e-a8a5-f7c84099aacd"},"vehicle_type_id":"4","last_reported":1701191204,"current_range_meters":23200,"station_id":"ce4bh392rcd13ifvqdm0","pricing_plan_id":"free"},{"bike_id":"a18089c1-d01f-43c2-b6c5-f9dc7036fd7a","system_id":"levelo_inurba_marseille","lat":43.281044,"lon":5.378308,"is_reserved":false,"is_disabled":false,"rental_uris":{"android":"levelo://app?vid=a18089c1-d01f-43c2-b6c5-f9dc7036fd7a","ios":"levelo://app?vid=a18089c1-d01f-43c2-b6c5-f9dc7036fd7a"},"vehicle_type_id":"4","last_reported":1701191204,"current_range_meters":10000,"station_id":"ce4bha12rcd13ifvqee0","pricing_plan_id":"free"},{"bike_id":"590a9e9d-916a-4320-a5c8-49b4b67db1b7","system_id":"levelo_inurba_marseille","lat":43.296263,"lon":5.40601,"is_reserved":false,"is_disabled":false,"rental_uris":{"android":"levelo://app?vid=590a9e9d-916a-4320-a5c8-49b4b67db1b7","ios":"levelo://app?vid=590a9e9d-916a-4320-a5c8-49b4b67db1b7"},"vehicle_type_id":"4","last_reported":1701191204,"current_range_meters":20000,"station_id":"ce4bh0h2rcd13ifvqd60","pricing_plan_id":"free"},{"bike_id":"01cd0889-0382-465a-b434-5885f38b2d1e","system_id":"levelo_inurba_marseille","lat":43.296263,"lon":5.40601,"is_reserved":false,"is_disabled":false,"rental_uris":{"android":"levelo://app?vid=01cd0889-0382-465a-b434-5885f38b2d1e","ios":"levelo://app?vid=01cd0889-0382-465a-b434-5885f38b2d1e"},"vehicle_type_id":"4","last_reported":1701191204,"current_range_meters":25200,"station_id":"ce4bh0h2rcd13ifvqd60","pricing_plan_id":"free"},{"bike_id":"20626ce2-0ea1-40f1-89e2-6c2b9f922e27","system_id":"levelo_inurba_marseille","lat":43.281044,"lon":5.378308,"is_reserved":false,"is_disabled":false,"rental_uris":{"android":"levelo://app?vid=20626ce2-0ea1-40f1-89e2-6c2b9f922e27","ios":"levelo://app?vid=20626ce2-0ea1-40f1-89e2-6c2b9f922e27"},"vehicle_type_id":"4","last_reported":1701191204,"current_range_meters":20000,"station_id":"ce4bha12rcd13ifvqee0","pricing_plan_id":"free"},{"bike_id":"3b976821-0413-47a3-b857-4e9b186b163c","system_id":"levelo_inurba_marseille","lat":43.296263,"lon":5.40601,"is_reserved":false,"is_disabled":false,"rental_uris":{"android":"levelo://app?vid=3b976821-0413-47a3-b857-4e9b186b163c","ios":"levelo://app?vid=3b976821-0413-47a3-b857-4e9b186b163c"},"vehicle_type_id":"4","last_reported":1701191204,"current_range_meters":20800,"station_id":"ce4bh0h2rcd13ifvqd60","pricing_plan_id":"free"},{"bike_id":"9b0283fe-4b2a-45c4-ad83-57ab99961320","system_id":"levelo_inurba_marseille","lat":43.281044,"lon":5.378308,"is_reserved":false,"is_disabled":false,"rental_uris":{"android":"levelo://app?vid=9b0283fe-4b2a-45c4-ad83-57ab99961320","ios":"levelo://app?vid=9b0283fe-4b2a-45c4-ad83-57ab99961320"},"vehicle_type_id":"4","last_reported":1701191204,"current_range_meters":21600,"station_id":"ce4bha12rcd13ifvqee0","pricing_plan_id":"free"},{"bike_id":"8bf63585-181d-45ab-9bcf-8e10b4147911","system_id":"levelo_inurba_marseille","lat":43.284462,"lon":5.392121,"is_reserved":false,"is_disabled":false,"rental_uris":{"android":"levelo://app?vid=8bf63585-181d-45ab-9bcf-8e10b4147911","ios":"levelo://app?vid=8bf63585-181d-45ab-9bcf-8e10b4147911"},"vehicle_type_id":"4","last_reported":1701191204,"current_range_meters":13600,"station_id":"ce4bhoh2rcd13ifvqh5g","pricing_plan_id":"free"},{"bike_id":"83386e6a-5c24-44bc-bc4f-23a58973e99c","system_id":"levelo_inurba_marseille","lat":43.28026,"lon":5.38239,"is_reserved":false,"is_disabled":false,"rental_uris":{"android":"levelo://app?vid=83386e6a-5c24-44bc-bc4f-23a58973e99c","ios":"levelo://app?vid=83386e6a-5c24-44bc-bc4f-23a58973e99c"},"vehicle_type_id":"4","last_reported":1701191204,"current_range_meters":0,"station_id":"","pricing_plan_id":"free"},{"bike_id":"065d9d4f-3040-400d-834a-33c87a992b10","system_id":"levelo_inurba_marseille","lat":43.304188,"lon":5.412904,"is_reserved":false,"is_disabled":false,"rental_uris":{"android":"levelo://app?vid=065d9d4f-3040-400d-834a-33c87a992b10","ios":"levelo://app?vid=065d9d4f-3040-400d-834a-33c87a992b10"},"vehicle_type_id":"4","last_reported":1701191204,"current_range_meters":25200,"station_id":"ce4bhop2rcd13ifvqh8g","pricing_plan_id":"free"},{"bike_id":"05417d36-7808-4915-88e4-437ff8d92072","system_id":"levelo_inurba_marseille","lat":43.279742,"lon":5.38744,"is_reserved":false,"is_disabled":false,"rental_uris":{"android":"levelo://app?vid=05417d36-7808-4915-88e4-437ff8d92072","ios":"levelo://app?vid=05417d36-7808-4915-88e4-437ff8d92072"},"vehicle_type_id":"4","last_reported":1701191204,"current_range_meters":0,"station_id":"ce4bhg12rcd13ifvqf80","pricing_plan_id":"free"},{"bike_id":"27d9afa5-4192-4750-97d3-2e419dd41ee4","system_id":"levelo_inurba_marseille","lat":43.292571,"lon":5.409107,"is_reserved":false,"is_disabled":false,"rental_uris":{"android":"levelo://app?vid=27d9afa5-4192-4750-97d3-2e419dd41ee4","ios":"levelo://app?vid=27d9afa5-4192-4750-97d3-2e419dd41ee4"},"vehicle_type_id":"4","last_reported":1701191204,"current_range_meters":26000,"station_id":"ce4bh192rcd13ifvqdc0","pricing_plan_id":"free"},{"bike_id":"88ea722c-8faf-4f97-b150-8394155b2bc4","system_id":"levelo_inurba_marseille","lat":43.292571,"lon":5.409107,"is_reserved":false,"is_disabled":false,"rental_uris":{"android":"levelo://app?vid=88ea722c-8faf-4f97-b150-8394155b2bc4","ios":"levelo://app?vid=88ea722c-8faf-4f97-b150-8394155b2bc4"},"vehicle_type_id":"4","last_reported":1701191204,"current_range_meters":28000,"station_id":"ce4bh192rcd13ifvqdc0","pricing_plan_id":"free"},{"bike_id":"cf5f8287-5101-4e56-a9ac-c60be78b8e10","system_id":"levelo_inurba_marseille","lat":43.29261,"lon":5.40908,"is_reserved":false,"is_disabled":false,"rental_uris":{"android":"levelo://app?vid=cf5f8287-5101-4e56-a9ac-c60be78b8e10","ios":"levelo://app?vid=cf5f8287-5101-4e56-a9ac-c60be78b8e10"},"vehicle_type_id":"4","last_reported":1701191204,"current_range_meters":20000,"station_id":"ce4bh192rcd13ifvqdc0","pricing_plan_id":"free"},{"bike_id":"77ba8069-70f8-4881-8eac-8d5ceefe11df","system_id":"levelo_inurba_marseille","lat":43.27612,"lon":5.3611,"is_reserved":false,"is_disabled":false,"rental_uris":{"android":"levelo://app?vid=77ba8069-70f8-4881-8eac-8d5ceefe11df","ios":"levelo://app?vid=77ba8069-70f8-4881-8eac-8d5ceefe11df"},"vehicle_type_id":"4","last_reported":1701191204,"current_range_meters":4000,"station_id":"ce4bgj92rcd13ifvqbe0","pricing_plan_id":"free"},{"bike_id":"e292fd5c-f88c-4ec9-956b-fcd907f9141e","system_id":"levelo_inurba_marseille","lat":43.276179,"lon":5.361009,"is_reserved":false,"is_disabled":false,"rental_uris":{"android":"levelo://app?vid=e292fd5c-f88c-4ec9-956b-fcd907f9141e","ios":"levelo://app?vid=e292fd5c-f88c-4ec9-956b-fcd907f9141e"},"vehicle_type_id":"4","last_reported":1701191204,"current_range_meters":7200,"station_id":"ce4bgj92rcd13ifvqbe0","pricing_plan_id":"free"},{"bike_id":"1df39c77-fb7e-4734-a15a-502aabfa8cab","system_id":"levelo_inurba_marseille","lat":43.27609,"lon":5.36114,"is_reserved":false,"is_disabled":false,"rental_uris":{"android":"levelo://app?vid=1df39c77-fb7e-4734-a15a-502aabfa8cab","ios":"levelo://app?vid=1df39c77-fb7e-4734-a15a-502aabfa8cab"},"vehicle_type_id":"4","last_reported":1701191204,"current_range_meters":9600,"station_id":"ce4bgj92rcd13ifvqbe0","pricing_plan_id":"free"},{"bike_id":"73fd19ba-7c59-4ddd-9c8c-8908bb17cbca","system_id":"levelo_inurba_marseille","lat":43.2479,"lon":5.374457,"is_reserved":false,"is_disabled":false,"rental_uris":{"android":"levelo://app?vid=73fd19ba-7c59-4ddd-9c8c-8908bb17cbca","ios":"levelo://app?vid=73fd19ba-7c59-4ddd-9c8c-8908bb17cbca"},"vehicle_type_id":"4","last_reported":1701191204,"current_range_meters":24800,"station_id":"ce4bhgh2rcd13ifvqfb0","pricing_plan_id":"free"},{"bike_id":"13f02ded-2a5a-4aae-93fd-4f03633936c9","system_id":"levelo_inurba_marseille","lat":43.280784,"lon":5.396622,"is_reserved":false,"is_disabled":false,"rental_uris":{"android":"levelo://app?vid=13f02ded-2a5a-4aae-93fd-4f03633936c9","ios":"levelo://app?vid=13f02ded-2a5a-4aae-93fd-4f03633936c9"},"vehicle_type_id":"4","last_reported":1701191204,"current_range_meters":26000,"station_id":"ce4bho12rcd13ifvqh2g","pricing_plan_id":"free"},{"bike_id":"f3f2b248-f075-47be-97c9-5e44eb8bc23e","system_id":"levelo_inurba_marseille","lat":43.280784,"lon":5.396622,"is_reserved":false,"is_disabled":false,"rental_uris":{"android":"levelo://app?vid=f3f2b248-f075-47be-97c9-5e44eb8bc23e","ios":"levelo://app?vid=f3f2b248-f075-47be-97c9-5e44eb8bc23e"},"vehicle_type_id":"4","last_reported":1701191204,"current_range_meters":27200,"station_id":"ce4bho12rcd13ifvqh2g","pricing_plan_id":"free"},{"bike_id":"291e2294-d69a-4f03-8d25-71f0e005a358","system_id":"levelo_inurba_marseille","lat":43.280784,"lon":5.396622,"is_reserved":false,"is_disabled":false,"rental_uris":{"android":"levelo://app?vid=291e2294-d69a-4f03-8d25-71f0e005a358","ios":"levelo://app?vid=291e2294-d69a-4f03-8d25-71f0e005a358"},"vehicle_type_id":"4","last_reported":1701191204,"current_range_meters":20400,"station_id":"ce4bho12rcd13ifvqh2g","pricing_plan_id":"free"},{"bike_id":"586010b5-cfae-48ad-b14d-fa7ab8c5c596","system_id":"levelo_inurba_marseille","lat":43.33612,"lon":5.410321,"is_reserved":false,"is_disabled":false,"rental_uris":{"android":"levelo://app?vid=586010b5-cfae-48ad-b14d-fa7ab8c5c596","ios":"levelo://app?vid=586010b5-cfae-48ad-b14d-fa7ab8c5c596"},"vehicle_type_id":"4","last_reported":1701191204,"current_range_meters":18400,"station_id":"ce4bhqh2rcd13ifvqhmg","pricing_plan_id":"free"},{"bike_id":"327d89cf-7091-4ff9-b2a7-93d6b84ea853","system_id":"levelo_inurba_marseille","lat":43.273613,"lon":5.362705,"is_reserved":false,"is_disabled":false,"rental_uris":{"android":"levelo://app?vid=327d89cf-7091-4ff9-b2a7-93d6b84ea853","ios":"levelo://app?vid=327d89cf-7091-4ff9-b2a7-93d6b84ea853"},"vehicle_type_id":"4","last_reported":1701191204,"current_range_meters":12400,"station_id":"ce4bhbh2rcd13ifvqeo0","pricing_plan_id":"free"},{"bike_id":"d777abcc-4d39-46f1-98c9-af3c0f07c4ce","system_id":"levelo_inurba_marseille","lat":43.273609,"lon":5.362708,"is_reserved":false,"is_disabled":false,"rental_uris":{"android":"levelo://app?vid=d777abcc-4d39-46f1-98c9-af3c0f07c4ce","ios":"levelo://app?vid=d777abcc-4d39-46f1-98c9-af3c0f07c4ce"},"vehicle_type_id":"4","last_reported":1701191204,"current_range_meters":14000,"station_id":"ce4bhbh2rcd13ifvqeo0","pricing_plan_id":"free"},{"bike_id":"505c88a6-0a2c-4b3e-a581-086d87b6419b","system_id":"levelo_inurba_marseille","lat":43.275625,"lon":5.384392,"is_reserved":false,"is_disabled":false,"rental_uris":{"android":"levelo://app?vid=505c88a6-0a2c-4b3e-a581-086d87b6419b","ios":"levelo://app?vid=505c88a6-0a2c-4b3e-a581-086d87b6419b"},"vehicle_type_id":"4","last_reported":1701191204,"current_range_meters":25600,"station_id":"ce4bhh92rcd13ifvqfi0","pricing_plan_id":"free"},{"bike_id":"d0fbaac9-5f1b-4e04-a4c7-06abf4bd9547","system_id":"levelo_inurba_marseille","lat":43.279952,"lon":5.400085,"is_reserved":false,"is_disabled":false,"rental_uris":{"android":"levelo://app?vid=d0fbaac9-5f1b-4e04-a4c7-06abf4bd9547","ios":"levelo://app?vid=d0fbaac9-5f1b-4e04-a4c7-06abf4bd9547"},"vehicle_type_id":"4","last_reported":1701191204,"current_range_meters":28400,"station_id":"ce4bho92rcd13ifvqh4g","pricing_plan_id":"free"},{"bike_id":"7e50e88f-f3dd-4d63-a658-e19f1cefc2cc","system_id":"levelo_inurba_marseille","lat":43.317121,"lon":5.423936,"is_reserved":false,"is_disabled":false,"rental_uris":{"android":"levelo://app?vid=7e50e88f-f3dd-4d63-a658-e19f1cefc2cc","ios":"levelo://app?vid=7e50e88f-f3dd-4d63-a658-e19f1cefc2cc"},"vehicle_type_id":"4","last_reported":1701191204,"current_range_meters":30000,"station_id":"ce4bhp92rcd13ifvqhbg","pricing_plan_id":"free"},{"bike_id":"ae9fda2c-8f5e-4c43-94a4-7147bdc3fb58","system_id":"levelo_inurba_marseille","lat":43.273125,"lon":5.390731,"is_reserved":false,"is_disabled":false,"rental_uris":{"android":"levelo://app?vid=ae9fda2c-8f5e-4c43-94a4-7147bdc3fb58","ios":"levelo://app?vid=ae9fda2c-8f5e-4c43-94a4-7147bdc3fb58"},"vehicle_type_id":"4","last_reported":1701191204,"current_range_meters":3200,"station_id":"ce4bhgp2rcd13ifvqfe0","pricing_plan_id":"free"},{"bike_id":"62cfa572-51d4-4a04-9e45-ea785883caeb","system_id":"levelo_inurba_marseille","lat":43.272183,"lon":5.3926,"is_reserved":false,"is_disabled":false,"rental_uris":{"android":"levelo://app?vid=62cfa572-51d4-4a04-9e45-ea785883caeb","ios":"levelo://app?vid=62cfa572-51d4-4a04-9e45-ea785883caeb"},"vehicle_type_id":"4","last_reported":1701191204,"current_range_meters":14800,"station_id":"","pricing_plan_id":"free"},{"bike_id":"938187dd-cf2c-4fc2-a2cc-4c0c98a36f95","system_id":"levelo_inurba_marseille","lat":43.271693,"lon":5.392447,"is_reserved":false,"is_disabled":false,"rental_uris":{"android":"levelo://app?vid=938187dd-cf2c-4fc2-a2cc-4c0c98a36f95","ios":"levelo://app?vid=938187dd-cf2c-4fc2-a2cc-4c0c98a36f95"},"vehicle_type_id":"4","last_reported":1701191204,"current_range_meters":4400,"station_id":"","pricing_plan_id":"free"},{"bike_id":"5a3d2ba0-ecd0-4bcd-81ec-241f65be657f","system_id":"levelo_inurba_marseille","lat":43.278128,"lon":5.407195,"is_reserved":false,"is_disabled":false,"rental_uris":{"android":"levelo://app?vid=5a3d2ba0-ecd0-4bcd-81ec-241f65be657f","ios":"levelo://app?vid=5a3d2ba0-ecd0-4bcd-81ec-241f65be657f"},"vehicle_type_id":"4","last_reported":1701191204,"current_range_meters":23200,"station_id":"ce4bhnh2rcd13ifvqgtg","pricing_plan_id":"free"},{"bike_id":"4b0148eb-56e0-4f83-bf5d-0a6b370465df","system_id":"levelo_inurba_marseille","lat":43.278128,"lon":5.407195,"is_reserved":false,"is_disabled":false,"rental_uris":{"android":"levelo://app?vid=4b0148eb-56e0-4f83-bf5d-0a6b370465df","ios":"levelo://app?vid=4b0148eb-56e0-4f83-bf5d-0a6b370465df"},"vehicle_type_id":"4","last_reported":1701191204,"current_range_meters":2000,"station_id":"ce4bhnh2rcd13ifvqgtg","pricing_plan_id":"free"},{"bike_id":"3c8a626b-51e3-42be-850a-edc49335e8bc","system_id":"levelo_inurba_marseille","lat":43.278128,"lon":5.407195,"is_reserved":false,"is_disabled":false,"rental_uris":{"android":"levelo://app?vid=3c8a626b-51e3-42be-850a-edc49335e8bc","ios":"levelo://app?vid=3c8a626b-51e3-42be-850a-edc49335e8bc"},"vehicle_type_id":"4","last_reported":1701191204,"current_range_meters":22000,"station_id":"ce4bhnh2rcd13ifvqgtg","pricing_plan_id":"free"},{"bike_id":"f6a66ed5-2dd8-446f-b676-c60f8dfe261d","system_id":"levelo_inurba_marseille","lat":43.278128,"lon":5.407195,"is_reserved":false,"is_disabled":false,"rental_uris":{"android":"levelo://app?vid=f6a66ed5-2dd8-446f-b676-c60f8dfe261d","ios":"levelo://app?vid=f6a66ed5-2dd8-446f-b676-c60f8dfe261d"},"vehicle_type_id":"4","last_reported":1701191204,"current_range_meters":26000,"station_id":"ce4bhnh2rcd13ifvqgtg","pricing_plan_id":"free"},{"bike_id":"c8f06c6b-e98f-4268-8742-64627a93f9e3","system_id":"levelo_inurba_marseille","lat":43.278128,"lon":5.407195,"is_reserved":false,"is_disabled":false,"rental_uris":{"android":"levelo://app?vid=c8f06c6b-e98f-4268-8742-64627a93f9e3","ios":"levelo://app?vid=c8f06c6b-e98f-4268-8742-64627a93f9e3"},"vehicle_type_id":"4","last_reported":1701191204,"current_range_meters":29600,"station_id":"ce4bhnh2rcd13ifvqgtg","pricing_plan_id":"free"},{"bike_id":"30dd84e2-fa22-40e0-b1f0-6431a2329de1","system_id":"levelo_inurba_marseille","lat":43.269467,"lon":5.386439,"is_reserved":false,"is_disabled":false,"rental_uris":{"android":"levelo://app?vid=30dd84e2-fa22-40e0-b1f0-6431a2329de1","ios":"levelo://app?vid=30dd84e2-fa22-40e0-b1f0-6431a2329de1"},"vehicle_type_id":"4","last_reported":1701191204,"current_range_meters":18800,"station_id":"ce4bhh92rcd13ifvqfh0","pricing_plan_id":"free"},{"bike_id":"46fe186b-7c78-4538-bafa-f62dfbb99fed","system_id":"levelo_inurba_marseille","lat":43.27906,"lon":5.41226,"is_reserved":false,"is_disabled":false,"rental_uris":{"android":"levelo://app?vid=46fe186b-7c78-4538-bafa-f62dfbb99fed","ios":"levelo://app?vid=46fe186b-7c78-4538-bafa-f62dfbb99fed"},"vehicle_type_id":"4","last_reported":1701191204,"current_range_meters":14800,"station_id":"","pricing_plan_id":"free"},{"bike_id":"998756c4-33d5-43ee-8d59-0d18ec85cc5c","system_id":"levelo_inurba_marseille","lat":43.26551,"lon":5.37288,"is_reserved":false,"is_disabled":false,"rental_uris":{"android":"levelo://app?vid=998756c4-33d5-43ee-8d59-0d18ec85cc5c","ios":"levelo://app?vid=998756c4-33d5-43ee-8d59-0d18ec85cc5c"},"vehicle_type_id":"4","last_reported":1701191204,"current_range_meters":24800,"station_id":"ce4bhg12rcd13ifvqf70","pricing_plan_id":"free"},{"bike_id":"e02045aa-3800-43e1-b580-fb75c4eb32be","system_id":"levelo_inurba_marseille","lat":43.26974,"lon":5.39922,"is_reserved":false,"is_disabled":false,"rental_uris":{"android":"levelo://app?vid=e02045aa-3800-43e1-b580-fb75c4eb32be","ios":"levelo://app?vid=e02045aa-3800-43e1-b580-fb75c4eb32be"},"vehicle_type_id":"4","last_reported":1701191204,"current_range_meters":6000,"station_id":"","pricing_plan_id":"free"},{"bike_id":"60538221-885f-4ad2-9ae1-54adf460fdf1","system_id":"levelo_inurba_marseille","lat":43.265714,"lon":5.372891,"is_reserved":false,"is_disabled":false,"rental_uris":{"android":"levelo://app?vid=60538221-885f-4ad2-9ae1-54adf460fdf1","ios":"levelo://app?vid=60538221-885f-4ad2-9ae1-54adf460fdf1"},"vehicle_type_id":"4","last_reported":1701191204,"current_range_meters":800,"station_id":"ce4bhg12rcd13ifvqf70","pricing_plan_id":"free"},{"bike_id":"7535fedc-74ac-474b-8a2d-12a425012ada","system_id":"levelo_inurba_marseille","lat":43.308051,"lon":5.43527,"is_reserved":false,"is_disabled":false,"rental_uris":{"android":"levelo://app?vid=7535fedc-74ac-474b-8a2d-12a425012ada","ios":"levelo://app?vid=7535fedc-74ac-474b-8a2d-12a425012ada"},"vehicle_type_id":"4","last_reported":1701191204,"current_range_meters":26000,"station_id":"ce4bhph2rcd13ifvqheg","pricing_plan_id":"free"},{"bike_id":"23989d20-8a3e-42ec-be34-7eae04d446c8","system_id":"levelo_inurba_marseille","lat":43.308051,"lon":5.43527,"is_reserved":false,"is_disabled":false,"rental_uris":{"android":"levelo://app?vid=23989d20-8a3e-42ec-be34-7eae04d446c8","ios":"levelo://app?vid=23989d20-8a3e-42ec-be34-7eae04d446c8"},"vehicle_type_id":"4","last_reported":1701191204,"current_range_meters":0,"station_id":"ce4bhph2rcd13ifvqheg","pricing_plan_id":"free"},{"bike_id":"88bf4ae1-bb70-4fd3-883c-1ddeebdd30fa","system_id":"levelo_inurba_marseille","lat":43.265569,"lon":5.390047,"is_reserved":false,"is_disabled":false,"rental_uris":{"android":"levelo://app?vid=88bf4ae1-bb70-4fd3-883c-1ddeebdd30fa","ios":"levelo://app?vid=88bf4ae1-bb70-4fd3-883c-1ddeebdd30fa"},"vehicle_type_id":"4","last_reported":1701191204,"current_range_meters":400,"station_id":"ce4bhe12rcd13ifvqf30","pricing_plan_id":"free"},{"bike_id":"12ee55be-ae45-4b36-ba0b-cd98485e66e5","system_id":"levelo_inurba_marseille","lat":43.317104,"lon":5.436818,"is_reserved":false,"is_disabled":false,"rental_uris":{"android":"levelo://app?vid=12ee55be-ae45-4b36-ba0b-cd98485e66e5","ios":"levelo://app?vid=12ee55be-ae45-4b36-ba0b-cd98485e66e5"},"vehicle_type_id":"4","last_reported":1701191204,"current_range_meters":28800,"station_id":"ce4bhp92rcd13ifvqhcg","pricing_plan_id":"free"},{"bike_id":"bb25a6f9-5768-4fed-8293-33f0e9e4b88f","system_id":"levelo_inurba_marseille","lat":43.317104,"lon":5.436818,"is_reserved":false,"is_disabled":false,"rental_uris":{"android":"levelo://app?vid=bb25a6f9-5768-4fed-8293-33f0e9e4b88f","ios":"levelo://app?vid=bb25a6f9-5768-4fed-8293-33f0e9e4b88f"},"vehicle_type_id":"4","last_reported":1701191204,"current_range_meters":29600,"station_id":"ce4bhp92rcd13ifvqhcg","pricing_plan_id":"free"},{"bike_id":"3ee6d42b-be43-4558-85e1-d7d39f345c6b","system_id":"levelo_inurba_marseille","lat":43.317104,"lon":5.436818,"is_reserved":false,"is_disabled":false,"rental_uris":{"android":"levelo://app?vid=3ee6d42b-be43-4558-85e1-d7d39f345c6b","ios":"levelo://app?vid=3ee6d42b-be43-4558-85e1-d7d39f345c6b"},"vehicle_type_id":"4","last_reported":1701191204,"current_range_meters":29600,"station_id":"ce4bhp92rcd13ifvqhcg","pricing_plan_id":"free"},{"bike_id":"e2246911-a9ce-4b5b-b3d9-6c77adadbdb3","system_id":"levelo_inurba_marseille","lat":43.250009,"lon":5.389195,"is_reserved":false,"is_disabled":false,"rental_uris":{"android":"levelo://app?vid=e2246911-a9ce-4b5b-b3d9-6c77adadbdb3","ios":"levelo://app?vid=e2246911-a9ce-4b5b-b3d9-6c77adadbdb3"},"vehicle_type_id":"4","last_reported":1701191204,"current_range_meters":15200,"station_id":"ce4bhgp2rcd13ifvqfd0","pricing_plan_id":"free"},{"bike_id":"db2e35b6-91ba-4b8a-b10b-c020bac1b56a","system_id":"levelo_inurba_marseille","lat":43.262012,"lon":5.379307,"is_reserved":false,"is_disabled":false,"rental_uris":{"android":"levelo://app?vid=db2e35b6-91ba-4b8a-b10b-c020bac1b56a","ios":"levelo://app?vid=db2e35b6-91ba-4b8a-b10b-c020bac1b56a"},"vehicle_type_id":"4","last_reported":1701191204,"current_range_meters":27600,"station_id":"ce4bhjp2rcd13ifvqg90","pricing_plan_id":"free"},{"bike_id":"0a411095-3a8a-4221-843c-f3d98b94b3cb","system_id":"levelo_inurba_marseille","lat":43.271388,"lon":5.409269,"is_reserved":false,"is_disabled":false,"rental_uris":{"android":"levelo://app?vid=0a411095-3a8a-4221-843c-f3d98b94b3cb","ios":"levelo://app?vid=0a411095-3a8a-4221-843c-f3d98b94b3cb"},"vehicle_type_id":"4","last_reported":1701191204,"current_range_meters":28400,"station_id":"ce4bhl12rcd13ifvqgf0","pricing_plan_id":"free"},{"bike_id":"a6367a32-16a7-42fb-8392-f931842c9620","system_id":"levelo_inurba_marseille","lat":43.26202,"lon":5.379299,"is_reserved":false,"is_disabled":false,"rental_uris":{"android":"levelo://app?vid=a6367a32-16a7-42fb-8392-f931842c9620","ios":"levelo://app?vid=a6367a32-16a7-42fb-8392-f931842c9620"},"vehicle_type_id":"4","last_reported":1701191204,"current_range_meters":27200,"station_id":"ce4bhjp2rcd13ifvqg90","pricing_plan_id":"free"},{"bike_id":"5edf4ffd-945c-46ca-853f-f4dc48bf88b7","system_id":"levelo_inurba_marseille","lat":43.26202,"lon":5.379299,"is_reserved":false,"is_disabled":false,"rental_uris":{"android":"levelo://app?vid=5edf4ffd-945c-46ca-853f-f4dc48bf88b7","ios":"levelo://app?vid=5edf4ffd-945c-46ca-853f-f4dc48bf88b7"},"vehicle_type_id":"4","last_reported":1701191204,"current_range_meters":31600,"station_id":"ce4bhjp2rcd13ifvqg90","pricing_plan_id":"free"},{"bike_id":"1b6e1605-822a-4d11-8a82-d6df3a659dce","system_id":"levelo_inurba_marseille","lat":43.271368,"lon":5.40928,"is_reserved":false,"is_disabled":false,"rental_uris":{"android":"levelo://app?vid=1b6e1605-822a-4d11-8a82-d6df3a659dce","ios":"levelo://app?vid=1b6e1605-822a-4d11-8a82-d6df3a659dce"},"vehicle_type_id":"4","last_reported":1701191204,"current_range_meters":4800,"station_id":"ce4bhl12rcd13ifvqgf0","pricing_plan_id":"free"},{"bike_id":"fa7abb30-4346-431c-b1fa-aef86f064968","system_id":"levelo_inurba_marseille","lat":43.26202,"lon":5.379299,"is_reserved":false,"is_disabled":false,"rental_uris":{"android":"levelo://app?vid=fa7abb30-4346-431c-b1fa-aef86f064968","ios":"levelo://app?vid=fa7abb30-4346-431c-b1fa-aef86f064968"},"vehicle_type_id":"4","last_reported":1701191204,"current_range_meters":12400,"station_id":"ce4bhjp2rcd13ifvqg90","pricing_plan_id":"free"},{"bike_id":"5b1ea0fe-39db-4c75-968a-d563b1d454c3","system_id":"levelo_inurba_marseille","lat":43.267959,"lon":5.402685,"is_reserved":false,"is_disabled":false,"rental_uris":{"android":"levelo://app?vid=5b1ea0fe-39db-4c75-968a-d563b1d454c3","ios":"levelo://app?vid=5b1ea0fe-39db-4c75-968a-d563b1d454c3"},"vehicle_type_id":"4","last_reported":1701191204,"current_range_meters":17200,"station_id":"ce501612rcd8frsf0b60","pricing_plan_id":"free"},{"bike_id":"ef0dad78-ddd6-493b-adb5-f6ea1090c77a","system_id":"levelo_inurba_marseille","lat":43.267959,"lon":5.402685,"is_reserved":false,"is_disabled":false,"rental_uris":{"android":"levelo://app?vid=ef0dad78-ddd6-493b-adb5-f6ea1090c77a","ios":"levelo://app?vid=ef0dad78-ddd6-493b-adb5-f6ea1090c77a"},"vehicle_type_id":"4","last_reported":1701191204,"current_range_meters":20800,"station_id":"ce501612rcd8frsf0b60","pricing_plan_id":"free"},{"bike_id":"f4f2e1d5-dafa-412d-9b3a-3611814786ce","system_id":"levelo_inurba_marseille","lat":43.29895,"lon":5.43663,"is_reserved":false,"is_disabled":false,"rental_uris":{"android":"levelo://app?vid=f4f2e1d5-dafa-412d-9b3a-3611814786ce","ios":"levelo://app?vid=f4f2e1d5-dafa-412d-9b3a-3611814786ce"},"vehicle_type_id":"4","last_reported":1701191204,"current_range_meters":31200,"station_id":"ce4bhpp2rcd13ifvqhfg","pricing_plan_id":"free"},{"bike_id":"9713bde9-c9a7-4d76-bb95-dac32047e32a","system_id":"levelo_inurba_marseille","lat":43.29894,"lon":5.43668,"is_reserved":false,"is_disabled":false,"rental_uris":{"android":"levelo://app?vid=9713bde9-c9a7-4d76-bb95-dac32047e32a","ios":"levelo://app?vid=9713bde9-c9a7-4d76-bb95-dac32047e32a"},"vehicle_type_id":"4","last_reported":1701191204,"current_range_meters":29200,"station_id":"ce4bhpp2rcd13ifvqhfg","pricing_plan_id":"free"},{"bike_id":"0027c65a-0291-49a9-bef3-76325f535e8b","system_id":"levelo_inurba_marseille","lat":43.29893,"lon":5.43672,"is_reserved":false,"is_disabled":false,"rental_uris":{"android":"levelo://app?vid=0027c65a-0291-49a9-bef3-76325f535e8b","ios":"levelo://app?vid=0027c65a-0291-49a9-bef3-76325f535e8b"},"vehicle_type_id":"4","last_reported":1701191204,"current_range_meters":12800,"station_id":"ce4bhpp2rcd13ifvqhfg","pricing_plan_id":"free"},{"bike_id":"e5ff3a52-c2a1-4dfd-80ea-871162d24da3","system_id":"levelo_inurba_marseille","lat":43.260219,"lon":5.37546,"is_reserved":false,"is_disabled":false,"rental_uris":{"android":"levelo://app?vid=e5ff3a52-c2a1-4dfd-80ea-871162d24da3","ios":"levelo://app?vid=e5ff3a52-c2a1-4dfd-80ea-871162d24da3"},"vehicle_type_id":"4","last_reported":1701191204,"current_range_meters":15600,"station_id":"ce4bhgh2rcd13ifvqfa0","pricing_plan_id":"free"},{"bike_id":"baa110bc-e6be-491b-9db8-5e934046b735","system_id":"levelo_inurba_marseille","lat":43.260163,"lon":5.375537,"is_reserved":false,"is_disabled":false,"rental_uris":{"android":"levelo://app?vid=baa110bc-e6be-491b-9db8-5e934046b735","ios":"levelo://app?vid=baa110bc-e6be-491b-9db8-5e934046b735"},"vehicle_type_id":"4","last_reported":1701191204,"current_range_meters":16800,"station_id":"ce4bhgh2rcd13ifvqfa0","pricing_plan_id":"free"},{"bike_id":"61405fe3-3b73-4634-b13e-87eff05ade8a","system_id":"levelo_inurba_marseille","lat":43.281548,"lon":5.42643,"is_reserved":false,"is_disabled":false,"rental_uris":{"android":"levelo://app?vid=61405fe3-3b73-4634-b13e-87eff05ade8a","ios":"levelo://app?vid=61405fe3-3b73-4634-b13e-87eff05ade8a"},"vehicle_type_id":"4","last_reported":1701191204,"current_range_meters":24800,"station_id":"ce4bhnh2rcd13ifvqgug","pricing_plan_id":"free"},{"bike_id":"2f7a641f-266a-4b10-9f81-0c4d61af3648","system_id":"levelo_inurba_marseille","lat":43.2609,"lon":5.39766,"is_reserved":false,"is_disabled":false,"rental_uris":{"android":"levelo://app?vid=2f7a641f-266a-4b10-9f81-0c4d61af3648","ios":"levelo://app?vid=2f7a641f-266a-4b10-9f81-0c4d61af3648"},"vehicle_type_id":"4","last_reported":1701191204,"current_range_meters":0,"station_id":"ce4bhi12rcd13ifvqfq0","pricing_plan_id":"free"},{"bike_id":"28fa65af-94bc-46bf-afd7-eff4cf5577da","system_id":"levelo_inurba_marseille","lat":43.25584,"lon":5.38225,"is_reserved":false,"is_disabled":false,"rental_uris":{"android":"levelo://app?vid=28fa65af-94bc-46bf-afd7-eff4cf5577da","ios":"levelo://app?vid=28fa65af-94bc-46bf-afd7-eff4cf5577da"},"vehicle_type_id":"4","last_reported":1701191204,"current_range_meters":31200,"station_id":"ce4bhih2rcd13ifvqfs0","pricing_plan_id":"free"},{"bike_id":"30c28baf-6a05-43fc-8929-3b4f9c6a29ef","system_id":"levelo_inurba_marseille","lat":43.258224,"lon":5.394369,"is_reserved":false,"is_disabled":false,"rental_uris":{"android":"levelo://app?vid=30c28baf-6a05-43fc-8929-3b4f9c6a29ef","ios":"levelo://app?vid=30c28baf-6a05-43fc-8929-3b4f9c6a29ef"},"vehicle_type_id":"4","last_reported":1701191204,"current_range_meters":14400,"station_id":"ce4bhip2rcd13ifvqft0","pricing_plan_id":"free"},{"bike_id":"be32455b-e813-47c5-9094-3dfc5a0d8d7a","system_id":"levelo_inurba_marseille","lat":43.25582,"lon":5.382382,"is_reserved":false,"is_disabled":false,"rental_uris":{"android":"levelo://app?vid=be32455b-e813-47c5-9094-3dfc5a0d8d7a","ios":"levelo://app?vid=be32455b-e813-47c5-9094-3dfc5a0d8d7a"},"vehicle_type_id":"4","last_reported":1701191204,"current_range_meters":31200,"station_id":"ce4bhih2rcd13ifvqfs0","pricing_plan_id":"free"},{"bike_id":"30f219e9-cf16-46c1-835b-b063ccd32fdb","system_id":"levelo_inurba_marseille","lat":43.255815,"lon":5.38244,"is_reserved":false,"is_disabled":false,"rental_uris":{"android":"levelo://app?vid=30f219e9-cf16-46c1-835b-b063ccd32fdb","ios":"levelo://app?vid=30f219e9-cf16-46c1-835b-b063ccd32fdb"},"vehicle_type_id":"4","last_reported":1701191204,"current_range_meters":31200,"station_id":"ce4bhih2rcd13ifvqfs0","pricing_plan_id":"free"},{"bike_id":"57938117-2341-478e-b38d-5404e82d41c3","system_id":"levelo_inurba_marseille","lat":43.25577,"lon":5.38228,"is_reserved":false,"is_disabled":false,"rental_uris":{"android":"levelo://app?vid=57938117-2341-478e-b38d-5404e82d41c3","ios":"levelo://app?vid=57938117-2341-478e-b38d-5404e82d41c3"},"vehicle_type_id":"4","last_reported":1701191204,"current_range_meters":30000,"station_id":"ce4bhih2rcd13ifvqfs0","pricing_plan_id":"free"},{"bike_id":"09220ab1-b157-4be4-814b-234fe6558044","system_id":"levelo_inurba_marseille","lat":43.25576,"lon":5.382352,"is_reserved":false,"is_disabled":false,"rental_uris":{"android":"levelo://app?vid=09220ab1-b157-4be4-814b-234fe6558044","ios":"levelo://app?vid=09220ab1-b157-4be4-814b-234fe6558044"},"vehicle_type_id":"4","last_reported":1701191204,"current_range_meters":31200,"station_id":"ce4bhih2rcd13ifvqfs0","pricing_plan_id":"free"},{"bike_id":"b87248d8-c0b6-4a56-a985-74c1653772ce","system_id":"levelo_inurba_marseille","lat":43.25488,"lon":5.37651,"is_reserved":false,"is_disabled":false,"rental_uris":{"android":"levelo://app?vid=b87248d8-c0b6-4a56-a985-74c1653772ce","ios":"levelo://app?vid=b87248d8-c0b6-4a56-a985-74c1653772ce"},"vehicle_type_id":"4","last_reported":1701191204,"current_range_meters":0,"station_id":"ce4bhh12rcd13ifvqff0","pricing_plan_id":"free"},{"bike_id":"3e09080e-9db5-4c48-951f-c5f672a60264","system_id":"levelo_inurba_marseille","lat":43.33452,"lon":5.45026,"is_reserved":false,"is_disabled":false,"rental_uris":{"android":"levelo://app?vid=3e09080e-9db5-4c48-951f-c5f672a60264","ios":"levelo://app?vid=3e09080e-9db5-4c48-951f-c5f672a60264"},"vehicle_type_id":"4","last_reported":1701191204,"current_range_meters":15200,"station_id":"","pricing_plan_id":"free"},{"bike_id":"87fce401-ae15-4214-8d0c-cd3ecd5f960e","system_id":"levelo_inurba_marseille","lat":43.2479,"lon":5.374457,"is_reserved":false,"is_disabled":false,"rental_uris":{"android":"levelo://app?vid=87fce401-ae15-4214-8d0c-cd3ecd5f960e","ios":"levelo://app?vid=87fce401-ae15-4214-8d0c-cd3ecd5f960e"},"vehicle_type_id":"4","last_reported":1701191204,"current_range_meters":30000,"station_id":"ce4bhgh2rcd13ifvqfb0","pricing_plan_id":"free"},{"bike_id":"e4ebeaaa-544d-4441-8485-dd075e776a98","system_id":"levelo_inurba_marseille","lat":43.2479,"lon":5.374457,"is_reserved":false,"is_disabled":false,"rental_uris":{"android":"levelo://app?vid=e4ebeaaa-544d-4441-8485-dd075e776a98","ios":"levelo://app?vid=e4ebeaaa-544d-4441-8485-dd075e776a98"},"vehicle_type_id":"4","last_reported":1701191204,"current_range_meters":6000,"station_id":"ce4bhgh2rcd13ifvqfb0","pricing_plan_id":"free"},{"bike_id":"5836db52-bc83-44f8-a451-b124bd28216c","system_id":"levelo_inurba_marseille","lat":43.250966,"lon":5.395186,"is_reserved":false,"is_disabled":false,"rental_uris":{"android":"levelo://app?vid=5836db52-bc83-44f8-a451-b124bd28216c","ios":"levelo://app?vid=5836db52-bc83-44f8-a451-b124bd28216c"},"vehicle_type_id":"4","last_reported":1701191204,"current_range_meters":15600,"station_id":"ce4bhm12rcd13ifvqgkg","pricing_plan_id":"free"},{"bike_id":"4c0c3118-7eaa-4ebd-8d87-d449bea3e021","system_id":"levelo_inurba_marseille","lat":43.250897,"lon":5.395161,"is_reserved":false,"is_disabled":false,"rental_uris":{"android":"levelo://app?vid=4c0c3118-7eaa-4ebd-8d87-d449bea3e021","ios":"levelo://app?vid=4c0c3118-7eaa-4ebd-8d87-d449bea3e021"},"vehicle_type_id":"4","last_reported":1701191204,"current_range_meters":16000,"station_id":"ce4bhm12rcd13ifvqgkg","pricing_plan_id":"free"},{"bike_id":"b869908f-3400-4662-a0fe-d47662830b03","system_id":"levelo_inurba_marseille","lat":43.250966,"lon":5.395186,"is_reserved":false,"is_disabled":false,"rental_uris":{"android":"levelo://app?vid=b869908f-3400-4662-a0fe-d47662830b03","ios":"levelo://app?vid=b869908f-3400-4662-a0fe-d47662830b03"},"vehicle_type_id":"4","last_reported":1701191204,"current_range_meters":22000,"station_id":"ce4bhm12rcd13ifvqgkg","pricing_plan_id":"free"},{"bike_id":"b60bfc4e-9b33-4b93-86fa-4c35a4b0be90","system_id":"levelo_inurba_marseille","lat":43.24664,"lon":5.38168,"is_reserved":false,"is_disabled":false,"rental_uris":{"android":"levelo://app?vid=b60bfc4e-9b33-4b93-86fa-4c35a4b0be90","ios":"levelo://app?vid=b60bfc4e-9b33-4b93-86fa-4c35a4b0be90"},"vehicle_type_id":"4","last_reported":1701191204,"current_range_meters":29600,"station_id":"ce4bhih2rcd13ifvqfr0","pricing_plan_id":"free"},{"bike_id":"ccc92139-f9d5-4007-9481-f46ecd426ce3","system_id":"levelo_inurba_marseille","lat":43.25102,"lon":5.403214,"is_reserved":false,"is_disabled":false,"rental_uris":{"android":"levelo://app?vid=ccc92139-f9d5-4007-9481-f46ecd426ce3","ios":"levelo://app?vid=ccc92139-f9d5-4007-9481-f46ecd426ce3"},"vehicle_type_id":"4","last_reported":1701191204,"current_range_meters":23600,"station_id":"ce4bhlh2rcd13ifvqgig","pricing_plan_id":"free"},{"bike_id":"cc1834df-b166-4d92-8547-a27315e39fad","system_id":"levelo_inurba_marseille","lat":43.25102,"lon":5.403214,"is_reserved":false,"is_disabled":false,"rental_uris":{"android":"levelo://app?vid=cc1834df-b166-4d92-8547-a27315e39fad","ios":"levelo://app?vid=cc1834df-b166-4d92-8547-a27315e39fad"},"vehicle_type_id":"4","last_reported":1701191204,"current_range_meters":13200,"station_id":"ce4bhlh2rcd13ifvqgig","pricing_plan_id":"free"},{"bike_id":"ff268154-f02c-4a83-8095-8ed2b98cb1a2","system_id":"levelo_inurba_marseille","lat":43.25107,"lon":5.40325,"is_reserved":false,"is_disabled":false,"rental_uris":{"android":"levelo://app?vid=ff268154-f02c-4a83-8095-8ed2b98cb1a2","ios":"levelo://app?vid=ff268154-f02c-4a83-8095-8ed2b98cb1a2"},"vehicle_type_id":"4","last_reported":1701191204,"current_range_meters":0,"station_id":"ce4bhlh2rcd13ifvqgig","pricing_plan_id":"free"},{"bike_id":"f1388486-ef3c-45a1-bd38-657b364d74cc","system_id":"levelo_inurba_marseille","lat":43.246461,"lon":5.389014,"is_reserved":false,"is_disabled":false,"rental_uris":{"android":"levelo://app?vid=f1388486-ef3c-45a1-bd38-657b364d74cc","ios":"levelo://app?vid=f1388486-ef3c-45a1-bd38-657b364d74cc"},"vehicle_type_id":"4","last_reported":1701191204,"current_range_meters":25600,"station_id":"ce4bhg12rcd13ifvqf60","pricing_plan_id":"free"},{"bike_id":"98957297-3916-4d51-92a9-7ce7f05bbe72","system_id":"levelo_inurba_marseille","lat":43.246461,"lon":5.389014,"is_reserved":false,"is_disabled":false,"rental_uris":{"android":"levelo://app?vid=98957297-3916-4d51-92a9-7ce7f05bbe72","ios":"levelo://app?vid=98957297-3916-4d51-92a9-7ce7f05bbe72"},"vehicle_type_id":"4","last_reported":1701191204,"current_range_meters":19200,"station_id":"ce4bhg12rcd13ifvqf60","pricing_plan_id":"free"},{"bike_id":"d983cbd7-9a69-466a-9b7c-dcb54a38e554","system_id":"levelo_inurba_marseille","lat":43.246461,"lon":5.389014,"is_reserved":false,"is_disabled":false,"rental_uris":{"android":"levelo://app?vid=d983cbd7-9a69-466a-9b7c-dcb54a38e554","ios":"levelo://app?vid=d983cbd7-9a69-466a-9b7c-dcb54a38e554"},"vehicle_type_id":"4","last_reported":1701191204,"current_range_meters":20000,"station_id":"ce4bhg12rcd13ifvqf60","pricing_plan_id":"free"},{"bike_id":"af50a5bb-190f-4e64-8893-913f78c6fd66","system_id":"levelo_inurba_marseille","lat":43.24073,"lon":5.3776,"is_reserved":false,"is_disabled":false,"rental_uris":{"android":"levelo://app?vid=af50a5bb-190f-4e64-8893-913f78c6fd66","ios":"levelo://app?vid=af50a5bb-190f-4e64-8893-913f78c6fd66"},"vehicle_type_id":"4","last_reported":1701191204,"current_range_meters":0,"station_id":"ce4bhnp2rcd13ifvqgvg","pricing_plan_id":"free"},{"bike_id":"f15aa796-77f3-4377-bfe5-c1c69c2ae3e5","system_id":"levelo_inurba_marseille","lat":43.240623,"lon":5.377642,"is_reserved":false,"is_disabled":false,"rental_uris":{"android":"levelo://app?vid=f15aa796-77f3-4377-bfe5-c1c69c2ae3e5","ios":"levelo://app?vid=f15aa796-77f3-4377-bfe5-c1c69c2ae3e5"},"vehicle_type_id":"4","last_reported":1701191204,"current_range_meters":15200,"station_id":"ce4bhnp2rcd13ifvqgvg","pricing_plan_id":"free"},{"bike_id":"6e5f13a2-a66d-4822-81ff-b6ebc00b8060","system_id":"levelo_inurba_marseille","lat":43.240623,"lon":5.377642,"is_reserved":false,"is_disabled":false,"rental_uris":{"android":"levelo://app?vid=6e5f13a2-a66d-4822-81ff-b6ebc00b8060","ios":"levelo://app?vid=6e5f13a2-a66d-4822-81ff-b6ebc00b8060"},"vehicle_type_id":"4","last_reported":1701191204,"current_range_meters":24400,"station_id":"ce4bhnp2rcd13ifvqgvg","pricing_plan_id":"free"},{"bike_id":"fe2e14a2-dd05-44a1-9c66-2bf540c8859a","system_id":"levelo_inurba_marseille","lat":43.239588,"lon":5.366238,"is_reserved":false,"is_disabled":false,"rental_uris":{"android":"levelo://app?vid=fe2e14a2-dd05-44a1-9c66-2bf540c8859a","ios":"levelo://app?vid=fe2e14a2-dd05-44a1-9c66-2bf540c8859a"},"vehicle_type_id":"4","last_reported":1701191204,"current_range_meters":30800,"station_id":"ce4bhi12rcd13ifvqfp0","pricing_plan_id":"free"},{"bike_id":"24721592-9356-4c70-af4f-3d47d3bce4d3","system_id":"levelo_inurba_marseille","lat":43.239588,"lon":5.366238,"is_reserved":false,"is_disabled":false,"rental_uris":{"android":"levelo://app?vid=24721592-9356-4c70-af4f-3d47d3bce4d3","ios":"levelo://app?vid=24721592-9356-4c70-af4f-3d47d3bce4d3"},"vehicle_type_id":"4","last_reported":1701191204,"current_range_meters":28400,"station_id":"ce4bhi12rcd13ifvqfp0","pricing_plan_id":"free"},{"bike_id":"f49e990d-6ef6-47f3-81ff-a580a8e67ac7","system_id":"levelo_inurba_marseille","lat":43.239588,"lon":5.366238,"is_reserved":false,"is_disabled":false,"rental_uris":{"android":"levelo://app?vid=f49e990d-6ef6-47f3-81ff-a580a8e67ac7","ios":"levelo://app?vid=f49e990d-6ef6-47f3-81ff-a580a8e67ac7"},"vehicle_type_id":"4","last_reported":1701191204,"current_range_meters":16800,"station_id":"ce4bhi12rcd13ifvqfp0","pricing_plan_id":"free"},{"bike_id":"cc95caf3-5a17-44b1-8509-402b32a2fee9","system_id":"levelo_inurba_marseille","lat":43.239588,"lon":5.366238,"is_reserved":false,"is_disabled":false,"rental_uris":{"android":"levelo://app?vid=cc95caf3-5a17-44b1-8509-402b32a2fee9","ios":"levelo://app?vid=cc95caf3-5a17-44b1-8509-402b32a2fee9"},"vehicle_type_id":"4","last_reported":1701191204,"current_range_meters":26800,"station_id":"ce4bhi12rcd13ifvqfp0","pricing_plan_id":"free"},{"bike_id":"1be53625-8f4b-4fa6-a442-388f5e238212","system_id":"levelo_inurba_marseille","lat":43.239588,"lon":5.366238,"is_reserved":false,"is_disabled":false,"rental_uris":{"android":"levelo://app?vid=1be53625-8f4b-4fa6-a442-388f5e238212","ios":"levelo://app?vid=1be53625-8f4b-4fa6-a442-388f5e238212"},"vehicle_type_id":"4","last_reported":1701191204,"current_range_meters":1600,"station_id":"ce4bhi12rcd13ifvqfp0","pricing_plan_id":"free"},{"bike_id":"9ddb297f-b045-488e-b6d7-94520b1fee44","system_id":"levelo_inurba_marseille","lat":43.239588,"lon":5.366238,"is_reserved":false,"is_disabled":false,"rental_uris":{"android":"levelo://app?vid=9ddb297f-b045-488e-b6d7-94520b1fee44","ios":"levelo://app?vid=9ddb297f-b045-488e-b6d7-94520b1fee44"},"vehicle_type_id":"4","last_reported":1701191204,"current_range_meters":1600,"station_id":"ce4bhi12rcd13ifvqfp0","pricing_plan_id":"free"},{"bike_id":"c98fbf18-5baf-42c5-8365-f976905c2262","system_id":"levelo_inurba_marseille","lat":43.239588,"lon":5.366238,"is_reserved":false,"is_disabled":false,"rental_uris":{"android":"levelo://app?vid=c98fbf18-5baf-42c5-8365-f976905c2262","ios":"levelo://app?vid=c98fbf18-5baf-42c5-8365-f976905c2262"},"vehicle_type_id":"4","last_reported":1701191204,"current_range_meters":31200,"station_id":"ce4bhi12rcd13ifvqfp0","pricing_plan_id":"free"},{"bike_id":"3b21d2c8-c287-4570-9746-8452112a4f45","system_id":"levelo_inurba_marseille","lat":43.24248,"lon":5.39793,"is_reserved":false,"is_disabled":false,"rental_uris":{"android":"levelo://app?vid=3b21d2c8-c287-4570-9746-8452112a4f45","ios":"levelo://app?vid=3b21d2c8-c287-4570-9746-8452112a4f45"},"vehicle_type_id":"4","last_reported":1701191204,"current_range_meters":14000,"station_id":"","pricing_plan_id":"free"},{"bike_id":"17d69103-493b-4b26-828c-1b20619eeafb","system_id":"levelo_inurba_marseille","lat":43.24244,"lon":5.39792,"is_reserved":false,"is_disabled":false,"rental_uris":{"android":"levelo://app?vid=17d69103-493b-4b26-828c-1b20619eeafb","ios":"levelo://app?vid=17d69103-493b-4b26-828c-1b20619eeafb"},"vehicle_type_id":"4","last_reported":1701191204,"current_range_meters":15200,"station_id":"","pricing_plan_id":"free"},{"bike_id":"4535269a-aa90-4e6d-b1f0-b467764dfbe1","system_id":"levelo_inurba_marseille","lat":43.241782,"lon":5.397261,"is_reserved":false,"is_disabled":false,"rental_uris":{"android":"levelo://app?vid=4535269a-aa90-4e6d-b1f0-b467764dfbe1","ios":"levelo://app?vid=4535269a-aa90-4e6d-b1f0-b467764dfbe1"},"vehicle_type_id":"4","last_reported":1701191204,"current_range_meters":6400,"station_id":"ce4bhn12rcd13ifvqgpg","pricing_plan_id":"free"},{"bike_id":"4b1cfc15-3bb9-449a-a74a-997c22fbbe74","system_id":"levelo_inurba_marseille","lat":43.241782,"lon":5.397261,"is_reserved":false,"is_disabled":false,"rental_uris":{"android":"levelo://app?vid=4b1cfc15-3bb9-449a-a74a-997c22fbbe74","ios":"levelo://app?vid=4b1cfc15-3bb9-449a-a74a-997c22fbbe74"},"vehicle_type_id":"4","last_reported":1701191204,"current_range_meters":6800,"station_id":"ce4bhn12rcd13ifvqgpg","pricing_plan_id":"free"},{"bike_id":"c298c075-4289-4e2a-8cbe-5956a8fee31d","system_id":"levelo_inurba_marseille","lat":43.231919,"lon":5.355532,"is_reserved":false,"is_disabled":false,"rental_uris":{"android":"levelo://app?vid=c298c075-4289-4e2a-8cbe-5956a8fee31d","ios":"levelo://app?vid=c298c075-4289-4e2a-8cbe-5956a8fee31d"},"vehicle_type_id":"4","last_reported":1701191204,"current_range_meters":21600,"station_id":"ce4bhu92rcd13ifvqi70","pricing_plan_id":"free"},{"bike_id":"d1703505-b125-4a98-a807-11024241bc04","system_id":"levelo_inurba_marseille","lat":43.231923,"lon":5.355545,"is_reserved":false,"is_disabled":false,"rental_uris":{"android":"levelo://app?vid=d1703505-b125-4a98-a807-11024241bc04","ios":"levelo://app?vid=d1703505-b125-4a98-a807-11024241bc04"},"vehicle_type_id":"4","last_reported":1701191204,"current_range_meters":22000,"station_id":"ce4bhu92rcd13ifvqi70","pricing_plan_id":"free"},{"bike_id":"cb1ad581-4198-43f1-868c-486f2828ac05","system_id":"levelo_inurba_marseille","lat":43.231919,"lon":5.355532,"is_reserved":false,"is_disabled":false,"rental_uris":{"android":"levelo://app?vid=cb1ad581-4198-43f1-868c-486f2828ac05","ios":"levelo://app?vid=cb1ad581-4198-43f1-868c-486f2828ac05"},"vehicle_type_id":"4","last_reported":1701191204,"current_range_meters":22400,"station_id":"ce4bhu92rcd13ifvqi70","pricing_plan_id":"free"},{"bike_id":"b37cf8bc-ef87-4960-b38c-3279b894369f","system_id":"levelo_inurba_marseille","lat":43.231923,"lon":5.355545,"is_reserved":false,"is_disabled":false,"rental_uris":{"android":"levelo://app?vid=b37cf8bc-ef87-4960-b38c-3279b894369f","ios":"levelo://app?vid=b37cf8bc-ef87-4960-b38c-3279b894369f"},"vehicle_type_id":"4","last_reported":1701191204,"current_range_meters":30800,"station_id":"ce4bhu92rcd13ifvqi70","pricing_plan_id":"free"},{"bike_id":"d7b03b38-f119-4134-94e1-e00f1f58ff44","system_id":"levelo_inurba_marseille","lat":43.23192,"lon":5.39987,"is_reserved":false,"is_disabled":false,"rental_uris":{"android":"levelo://app?vid=d7b03b38-f119-4134-94e1-e00f1f58ff44","ios":"levelo://app?vid=d7b03b38-f119-4134-94e1-e00f1f58ff44"},"vehicle_type_id":"4","last_reported":1701191204,"current_range_meters":31200,"station_id":"ce4bhn12rcd13ifvqgqg","pricing_plan_id":"free"},{"bike_id":"9053ab29-ed81-42f8-b33c-b04d3362bbf1","system_id":"levelo_inurba_marseille","lat":43.231793,"lon":5.400044,"is_reserved":false,"is_disabled":false,"rental_uris":{"android":"levelo://app?vid=9053ab29-ed81-42f8-b33c-b04d3362bbf1","ios":"levelo://app?vid=9053ab29-ed81-42f8-b33c-b04d3362bbf1"},"vehicle_type_id":"4","last_reported":1701191204,"current_range_meters":28000,"station_id":"ce4bhn12rcd13ifvqgqg","pricing_plan_id":"free"},{"bike_id":"999bae91-5c10-4761-9e1a-454f2eb24f30","system_id":"levelo_inurba_marseille","lat":43.231793,"lon":5.400044,"is_reserved":false,"is_disabled":false,"rental_uris":{"android":"levelo://app?vid=999bae91-5c10-4761-9e1a-454f2eb24f30","ios":"levelo://app?vid=999bae91-5c10-4761-9e1a-454f2eb24f30"},"vehicle_type_id":"4","last_reported":1701191204,"current_range_meters":14800,"station_id":"ce4bhn12rcd13ifvqgqg","pricing_plan_id":"free"},{"bike_id":"a6b66b16-94c8-443a-b6dc-efcfd4b21fef","system_id":"levelo_inurba_marseille","lat":43.231794,"lon":5.400052,"is_reserved":false,"is_disabled":false,"rental_uris":{"android":"levelo://app?vid=a6b66b16-94c8-443a-b6dc-efcfd4b21fef","ios":"levelo://app?vid=a6b66b16-94c8-443a-b6dc-efcfd4b21fef"},"vehicle_type_id":"4","last_reported":1701191204,"current_range_meters":15200,"station_id":"ce4bhn12rcd13ifvqgqg","pricing_plan_id":"free"},{"bike_id":"addb5449-a430-4f38-91b1-be79a795825d","system_id":"levelo_inurba_marseille","lat":43.231793,"lon":5.400044,"is_reserved":false,"is_disabled":false,"rental_uris":{"android":"levelo://app?vid=addb5449-a430-4f38-91b1-be79a795825d","ios":"levelo://app?vid=addb5449-a430-4f38-91b1-be79a795825d"},"vehicle_type_id":"4","last_reported":1701191204,"current_range_meters":31200,"station_id":"ce4bhn12rcd13ifvqgqg","pricing_plan_id":"free"},{"bike_id":"9a7ef747-2d6e-4971-8c61-7fee9382ac76","system_id":"levelo_inurba_marseille","lat":43.231794,"lon":5.400052,"is_reserved":false,"is_disabled":false,"rental_uris":{"android":"levelo://app?vid=9a7ef747-2d6e-4971-8c61-7fee9382ac76","ios":"levelo://app?vid=9a7ef747-2d6e-4971-8c61-7fee9382ac76"},"vehicle_type_id":"4","last_reported":1701191204,"current_range_meters":27200,"station_id":"ce4bhn12rcd13ifvqgqg","pricing_plan_id":"free"},{"bike_id":"e1d86ea6-4683-4b9e-8f27-180e0a317995","system_id":"levelo_inurba_marseille","lat":43.231794,"lon":5.400052,"is_reserved":false,"is_disabled":false,"rental_uris":{"android":"levelo://app?vid=e1d86ea6-4683-4b9e-8f27-180e0a317995","ios":"levelo://app?vid=e1d86ea6-4683-4b9e-8f27-180e0a317995"},"vehicle_type_id":"4","last_reported":1701191204,"current_range_meters":26800,"station_id":"ce4bhn12rcd13ifvqgqg","pricing_plan_id":"free"},{"bike_id":"70f8d6b1-3beb-4459-a185-9caece882463","system_id":"levelo_inurba_marseille","lat":43.231794,"lon":5.400052,"is_reserved":false,"is_disabled":false,"rental_uris":{"android":"levelo://app?vid=70f8d6b1-3beb-4459-a185-9caece882463","ios":"levelo://app?vid=70f8d6b1-3beb-4459-a185-9caece882463"},"vehicle_type_id":"4","last_reported":1701191204,"current_range_meters":31600,"station_id":"ce4bhn12rcd13ifvqgqg","pricing_plan_id":"free"},{"bike_id":"9cda8cdf-9120-4a6e-bac3-fb3433683fe9","system_id":"levelo_inurba_marseille","lat":43.231793,"lon":5.400044,"is_reserved":false,"is_disabled":false,"rental_uris":{"android":"levelo://app?vid=9cda8cdf-9120-4a6e-bac3-fb3433683fe9","ios":"levelo://app?vid=9cda8cdf-9120-4a6e-bac3-fb3433683fe9"},"vehicle_type_id":"4","last_reported":1701191204,"current_range_meters":14400,"station_id":"ce4bhn12rcd13ifvqgqg","pricing_plan_id":"free"},{"bike_id":"8b731d20-f7b1-4787-82e3-b63cbfe0f0d8","system_id":"levelo_inurba_marseille","lat":43.2479,"lon":5.374457,"is_reserved":false,"is_disabled":false,"rental_uris":{"android":"levelo://app?vid=8b731d20-f7b1-4787-82e3-b63cbfe0f0d8","ios":"levelo://app?vid=8b731d20-f7b1-4787-82e3-b63cbfe0f0d8"},"vehicle_type_id":"4","last_reported":1701191204,"current_range_meters":12000,"station_id":"ce4bhgh2rcd13ifvqfb0","pricing_plan_id":"free"},{"bike_id":"387acd8b-bf8a-48d1-a6a7-450a9ed1f38c","system_id":"levelo_inurba_marseille","lat":43.231794,"lon":5.400052,"is_reserved":false,"is_disabled":false,"rental_uris":{"android":"levelo://app?vid=387acd8b-bf8a-48d1-a6a7-450a9ed1f38c","ios":"levelo://app?vid=387acd8b-bf8a-48d1-a6a7-450a9ed1f38c"},"vehicle_type_id":"4","last_reported":1701191204,"current_range_meters":22000,"station_id":"ce4bhn12rcd13ifvqgqg","pricing_plan_id":"free"},{"bike_id":"813e26aa-0ce8-4ce8-b20a-5394d55e8a35","system_id":"levelo_inurba_marseille","lat":43.231562,"lon":5.436933,"is_reserved":false,"is_disabled":false,"rental_uris":{"android":"levelo://app?vid=813e26aa-0ce8-4ce8-b20a-5394d55e8a35","ios":"levelo://app?vid=813e26aa-0ce8-4ce8-b20a-5394d55e8a35"},"vehicle_type_id":"4","last_reported":1701191204,"current_range_meters":28000,"station_id":"ce4bhmp2rcd13ifvqgog","pricing_plan_id":"free"}]}}