{"last_updated":1758557552,"ttl":60,"version":"2.2","data":{"bikes":[{"bike_id":"6dffafb9-a5e2-415b-8732-8e3b5312fa8a","system_id":"levelo_inurba_marseille","lat":43.30934,"lon":5.40145,"is_reserved":false,"is_disabled":false,"rental_uris":{"android":"levelo://app?vid=6dffafb9-a5e2-415b-8732-8e3b5312fa8a","ios":"levelo://app?vid=6dffafb9-a5e2-415b-8732-8e3b5312fa8a"},"vehicle_type_id":"4","last_reported":1758557552,"current_range_meters":2800,"station_id":"ce4bgvp2rcd13ifvqct0","pricing_plan_id":"cebpf4jnsgd1na2vs0mg"},{"bike_id":"7c0b21b9-e8e9-4b7a-8870-d958dc20cccd","system_id":"levelo_inurba_marseille","lat":43.30462,"lon":5.37905,"is_reserved":false,"is_disabled":false,"rental_uris":{"android":"levelo://app?vid=7c0b21b9-e8e9-4b7a-8870-d958dc20cccd","ios":"levelo://app?vid=7c0b21b9-e8e9-4b7a-8870-d958dc20cccd"},"vehicle_type_id":"4","last_reported":1758557552,"current_range_meters":2000,"station_id":"ce4bgup2rcd13ifvqcn0","pricing_plan_id":"cebpf4jnsgd1na2vs0mg"},{"bike_id":"977d85e9-2833-4f27-9da2-028f560e13ad","system_id":"levelo_inurba_marseille","lat":43.292454,"lon":5.401605,"is_reserved":false,"is_disabled":false,"rental_uris":{"android":"levelo://app?vid=977d85e9-2833-4f27-9da2-028f560e13ad","ios":"levelo://app?vid=977d85e9-2833-4f27-9da2-028f560e13ad"},"vehicle_type_id":"4","last_reported":1758557552,"current_range_meters":2000,"station_id":"ce4bh312rcd13ifvqdk0","pricing_plan_id":"cebpf4jnsgd1na2vs0mg"},{"bike_id":"617dca4b-4508-4d52-9e62-d583d919ac44","system_id":"levelo_inurba_marseille","lat":43.29736,"lon":5.37133,"is_reserved":false,"is_disabled":false,"rental_uris":{"android":"levelo://app?vid=617dca4b-4508-4d52-9e62-d583d919ac44","ios":"levelo://app?vid=617dca4b-4508-4d52-9e62-d583d919ac44"},"vehicle_type_id":"4","last_reported":1758557552,"current_range_meters":2800,"station_id":"","pricing_plan_id":"cebpf4jnsgd1na2vs0mg"},{"bike_id":"fd47f45f-e16c-4884-8136-e61b334a805d","system_id":"levelo_inurba_marseille","lat":43.29635,"lon":5.40599,"is_reserved":false,"is_disabled":false,"rental_uris":{"android":"levelo://app?vid=fd47f45f-e16c-4884-8136-e61b334a805d","ios":"levelo://app?vid=fd47f45f-e16c-4884-8136-e61b334a805d"},"vehicle_type_id":"4","last_reported":1758557552,"current_range_meters":2000,"station_id":"ce4bh0h2rcd13ifvqd60","pricing_plan_id":"cebpf4jnsgd1na2vs0mg"},{"bike_id":"d7c25918-4ee2-4f07-aafe-045313861472","system_id":"levelo_inurba_marseille","lat":43.27443,"lon":5.36136,"is_reserved":false,"is_disabled":false,"rental_uris":{"android":"levelo://app?vid=d7c25918-4ee2-4f07-aafe-045313861472","ios":"levelo://app?vid=d7c25918-4ee2-4f07-aafe-045313861472"},"vehicle_type_id":"4","last_reported":1758557552,"current_range_meters":3200,"station_id":"","pricing_plan_id":"cebpf4jnsgd1na2vs0mg"},{"bike_id":"5b8373bb-23a9-4e3a-a648-8f59583a1e38","system_id":"levelo_inurba_marseille","lat":43.24933,"lon":5.39039,"is_reserved":false,"is_disabled":true,"rental_uris":{"android":"levelo://app?vid=5b8373bb-23a9-4e3a-a648-8f59583a1e38","ios":"levelo://app?vid=5b8373bb-23a9-4e3a-a648-8f59583a1e38"},"vehicle_type_id":"4","last_reported":1758557552,"current_range_meters":3200,"station_id":"","pricing_plan_id":"cebpf4jnsgd1na2vs0mg"},{"bike_id":"70081fc7-bee1-4d7e-8cb2-227ea821979b","system_id":"levelo_inurba_marseille","lat":43.24649,"lon":5.38895,"is_reserved":false,"is_disabled":false,"rental_uris":{"android":"levelo://app?vid=70081fc7-bee1-4d7e-8cb2-227ea821979b","ios":"levelo://app?vid=70081fc7-bee1-4d7e-8cb2-227ea821979b"},"vehicle_type_id":"4","last_reported":1758557552,"current_range_meters":9200,"station_id":"ce4bhg12rcd13ifvqf60","pricing_plan_id":"cebpf4jnsgd1na2vs0mg"},{"bike_id":"d9fc2674-e1ca-4fc5-b99c-11542a55fcff","system_id":"levelo_inurba_marseille","lat":43.21189,"lon":5.35069,"is_reserved":false,"is_disabled":false,"rental_uris":{"android":"levelo://app?vid=d9fc2674-e1ca-4fc5-b99c-11542a55fcff","ios":"levelo://app?vid=d9fc2674-e1ca-4fc5-b99c-11542a55fcff"},"vehicle_type_id":"4","last_reported":1758557552,"current_range_meters":3600,"station_id":"st_cvj6sg6p6f1abm77japg","pricing_plan_id":"cebpf4jnsgd1na2vs0mg"},{"bike_id":"a58a29e7-7a90-4c55-bf45-aba1156432cd","system_id":"levelo_inurba_marseille","lat":43.31167,"lon":5.38716,"is_reserved":false,"is_disabled":false,"rental_uris":{"android":"levelo://app?vid=a58a29e7-7a90-4c55-bf45-aba1156432cd","ios":"levelo://app?vid=a58a29e7-7a90-4c55-bf45-aba1156432cd"},"vehicle_type_id":"4","last_reported":1758557552,"current_range_meters":3600,"station_id":"ce4bgv12rcd13ifvqcp0","pricing_plan_id":"cebpf4jnsgd1na2vs0mg"},{"bike_id":"b904d910-3faa-4f2e-b9b5-739dd8750ae9","system_id":"levelo_inurba_marseille","lat":43.26065,"lon":5.39398,"is_reserved":false,"is_disabled":false,"rental_uris":{"android":"levelo://app?vid=b904d910-3faa-4f2e-b9b5-739dd8750ae9","ios":"levelo://app?vid=b904d910-3faa-4f2e-b9b5-739dd8750ae9"},"vehicle_type_id":"4","last_reported":1758557552,"current_range_meters":3200,"station_id":"ce4bhh92rcd13ifvqfj0","pricing_plan_id":"cebpf4jnsgd1na2vs0mg"},{"bike_id":"0f7caa9f-1d1a-40d7-9b4a-2f8720e63681","system_id":"levelo_inurba_marseille","lat":43.30846,"lon":5.37539,"is_reserved":false,"is_disabled":false,"rental_uris":{"android":"levelo://app?vid=0f7caa9f-1d1a-40d7-9b4a-2f8720e63681","ios":"levelo://app?vid=0f7caa9f-1d1a-40d7-9b4a-2f8720e63681"},"vehicle_type_id":"4","last_reported":1758557552,"current_range_meters":4000,"station_id":"","pricing_plan_id":"cebpf4jnsgd1na2vs0mg"},{"bike_id":"db7a86ae-ad28-45cf-a8fd-d0138d68cf7c","system_id":"levelo_inurba_marseille","lat":43.27511,"lon":5.42444,"is_reserved":false,"is_disabled":false,"rental_uris":{"android":"levelo://app?vid=db7a86ae-ad28-45cf-a8fd-d0138d68cf7c","ios":"levelo://app?vid=db7a86ae-ad28-45cf-a8fd-d0138d68cf7c"},"vehicle_type_id":"4","last_reported":1758557552,"current_range_meters":4000,"station_id":"ce4bhn92rcd13ifvqgrg","pricing_plan_id":"cebpf4jnsgd1na2vs0mg"},{"bike_id":"e30fc945-5114-4fdb-a754-918abc5372c0","system_id":"levelo_inurba_marseille","lat":43.29102,"lon":5.38141,"is_reserved":false,"is_disabled":false,"rental_uris":{"android":"levelo://app?vid=e30fc945-5114-4fdb-a754-918abc5372c0","ios":"levelo://app?vid=e30fc945-5114-4fdb-a754-918abc5372c0"},"vehicle_type_id":"4","last_reported":1758557552,"current_range_meters":4400,"station_id":"ce4bh512rcd13ifvqe2g","pricing_plan_id":"cebpf4jnsgd1na2vs0mg"},{"bike_id":"6e7b309c-644c-49a4-bee8-bfc3c64d33cc","system_id":"levelo_inurba_marseille","lat":43.250937,"lon":5.395243,"is_reserved":false,"is_disabled":false,"rental_uris":{"android":"levelo://app?vid=6e7b309c-644c-49a4-bee8-bfc3c64d33cc","ios":"levelo://app?vid=6e7b309c-644c-49a4-bee8-bfc3c64d33cc"},"vehicle_type_id":"4","last_reported":1758557552,"current_range_meters":4400,"station_id":"ce4bhm12rcd13ifvqgkg","pricing_plan_id":"cebpf4jnsgd1na2vs0mg"},{"bike_id":"83228092-d20a-4f69-bc91-4a92f54ac213","system_id":"levelo_inurba_marseille","lat":43.300862,"lon":5.390795,"is_reserved":false,"is_disabled":false,"rental_uris":{"android":"levelo://app?vid=83228092-d20a-4f69-bc91-4a92f54ac213","ios":"levelo://app?vid=83228092-d20a-4f69-bc91-4a92f54ac213"},"vehicle_type_id":"4","last_reported":1758557552,"current_range_meters":4000,"station_id":"ce4bh192rcd13ifvqdb0","pricing_plan_id":"cebpf4jnsgd1na2vs0mg"},{"bike_id":"46db1010-1d6b-4773-ade1-0b9cc95f2863","system_id":"levelo_inurba_marseille","lat":43.29254,"lon":5.40898,"is_reserved":false,"is_disabled":false,"rental_uris":{"android":"levelo://app?vid=46db1010-1d6b-4773-ade1-0b9cc95f2863","ios":"levelo://app?vid=46db1010-1d6b-4773-ade1-0b9cc95f2863"},"vehicle_type_id":"4","last_reported":1758557552,"current_range_meters":4400,"station_id":"ce4bh192rcd13ifvqdc0","pricing_plan_id":"cebpf4jnsgd1na2vs0mg"},{"bike_id":"c1843d42-9f15-4235-8c7f-0c60147cb155","system_id":"levelo_inurba_marseille","lat":43.21199,"lon":5.35072,"is_reserved":false,"is_disabled":false,"rental_uris":{"android":"levelo://app?vid=c1843d42-9f15-4235-8c7f-0c60147cb155","ios":"levelo://app?vid=c1843d42-9f15-4235-8c7f-0c60147cb155"},"vehicle_type_id":"4","last_reported":1758557552,"current_range_meters":4400,"station_id":"st_cvj6sg6p6f1abm77japg","pricing_plan_id":"cebpf4jnsgd1na2vs0mg"},{"bike_id":"d1c930dd-155e-413b-a518-66f7bc3f37cd","system_id":"levelo_inurba_marseille","lat":43.21755,"lon":5.34603,"is_reserved":false,"is_disabled":false,"rental_uris":{"android":"levelo://app?vid=d1c930dd-155e-413b-a518-66f7bc3f37cd","ios":"levelo://app?vid=d1c930dd-155e-413b-a518-66f7bc3f37cd"},"vehicle_type_id":"4","last_reported":1758557552,"current_range_meters":4400,"station_id":"st_cvj6r9ubvosntc0bgbag","pricing_plan_id":"cebpf4jnsgd1na2vs0mg"},{"bike_id":"6b9c272d-72bf-486d-afb2-dfd1569ea89b","system_id":"levelo_inurba_marseille","lat":43.25337,"lon":5.42172,"is_reserved":false,"is_disabled":false,"rental_uris":{"android":"levelo://app?vid=6b9c272d-72bf-486d-afb2-dfd1569ea89b","ios":"levelo://app?vid=6b9c272d-72bf-486d-afb2-dfd1569ea89b"},"vehicle_type_id":"4","last_reported":1758557552,"current_range_meters":4400,"station_id":"st_d2m65c5bi1j21697t3ng","pricing_plan_id":"cebpf4jnsgd1na2vs0mg"},{"bike_id":"9f0fd9cf-7052-4f4e-b269-f7abfa7b858a","system_id":"levelo_inurba_marseille","lat":43.298,"lon":5.40402,"is_reserved":false,"is_disabled":false,"rental_uris":{"android":"levelo://app?vid=9f0fd9cf-7052-4f4e-b269-f7abfa7b858a","ios":"levelo://app?vid=9f0fd9cf-7052-4f4e-b269-f7abfa7b858a"},"vehicle_type_id":"4","last_reported":1758557552,"current_range_meters":4800,"station_id":"ce4bh112rcd13ifvqd90","pricing_plan_id":"cebpf4jnsgd1na2vs0mg"},{"bike_id":"428dbeac-a976-4e9f-9dd5-a37a448d15e9","system_id":"levelo_inurba_marseille","lat":43.27424,"lon":5.394054,"is_reserved":false,"is_disabled":false,"rental_uris":{"android":"levelo://app?vid=428dbeac-a976-4e9f-9dd5-a37a448d15e9","ios":"levelo://app?vid=428dbeac-a976-4e9f-9dd5-a37a448d15e9"},"vehicle_type_id":"4","last_reported":1758557552,"current_range_meters":4800,"station_id":"ce4bhdp2rcd13ifvqf20","pricing_plan_id":"cebpf4jnsgd1na2vs0mg"},{"bike_id":"24acb8bc-011c-4a33-b13f-bda9b9ce9215","system_id":"levelo_inurba_marseille","lat":43.302218,"lon":5.394651,"is_reserved":false,"is_disabled":false,"rental_uris":{"android":"levelo://app?vid=24acb8bc-011c-4a33-b13f-bda9b9ce9215","ios":"levelo://app?vid=24acb8bc-011c-4a33-b13f-bda9b9ce9215"},"vehicle_type_id":"4","last_reported":1758557552,"current_range_meters":4400,"station_id":"ce4bh0p2rcd13ifvqd70","pricing_plan_id":"cebpf4jnsgd1na2vs0mg"},{"bike_id":"18db022d-a5d9-4740-aaa3-0d6d103afb7c","system_id":"levelo_inurba_marseille","lat":43.27668,"lon":5.38866,"is_reserved":false,"is_disabled":false,"rental_uris":{"android":"levelo://app?vid=18db022d-a5d9-4740-aaa3-0d6d103afb7c","ios":"levelo://app?vid=18db022d-a5d9-4740-aaa3-0d6d103afb7c"},"vehicle_type_id":"4","last_reported":1758557552,"current_range_meters":4800,"station_id":"ce4bhi12rcd13ifvqfo0","pricing_plan_id":"cebpf4jnsgd1na2vs0mg"},{"bike_id":"a07a513e-e5a9-4481-8592-d991379bc662","system_id":"levelo_inurba_marseille","lat":43.337536,"lon":5.374536,"is_reserved":false,"is_disabled":false,"rental_uris":{"android":"levelo://app?vid=a07a513e-e5a9-4481-8592-d991379bc662","ios":"levelo://app?vid=a07a513e-e5a9-4481-8592-d991379bc662"},"vehicle_type_id":"4","last_reported":1758557552,"current_range_meters":4800,"station_id":"","pricing_plan_id":"cebpf4jnsgd1na2vs0mg"},{"bike_id":"2544bbd8-14a8-4318-a13c-a1aec35cfb75","system_id":"levelo_inurba_marseille","lat":43.29264,"lon":5.38434,"is_reserved":false,"is_disabled":false,"rental_uris":{"android":"levelo://app?vid=2544bbd8-14a8-4318-a13c-a1aec35cfb75","ios":"levelo://app?vid=2544bbd8-14a8-4318-a13c-a1aec35cfb75"},"vehicle_type_id":"4","last_reported":1758557552,"current_range_meters":4800,"station_id":"ce4bh692rcd13ifvqea0","pricing_plan_id":"cebpf4jnsgd1na2vs0mg"},{"bike_id":"42ed0d34-8735-4245-9c03-f870e6381401","system_id":"levelo_inurba_marseille","lat":43.29786,"lon":5.3934,"is_reserved":false,"is_disabled":false,"rental_uris":{"android":"levelo://app?vid=42ed0d34-8735-4245-9c03-f870e6381401","ios":"levelo://app?vid=42ed0d34-8735-4245-9c03-f870e6381401"},"vehicle_type_id":"4","last_reported":1758557552,"current_range_meters":4800,"station_id":"chh1huq6cuj3fo74tm60","pricing_plan_id":"cebpf4jnsgd1na2vs0mg"},{"bike_id":"6e4cc372-2c56-4997-9395-82fb3a68981b","system_id":"levelo_inurba_marseille","lat":43.286706,"lon":5.363418,"is_reserved":false,"is_disabled":false,"rental_uris":{"android":"levelo://app?vid=6e4cc372-2c56-4997-9395-82fb3a68981b","ios":"levelo://app?vid=6e4cc372-2c56-4997-9395-82fb3a68981b"},"vehicle_type_id":"4","last_reported":1758557552,"current_range_meters":5600,"station_id":"ce4bhah2rcd13ifvqej0","pricing_plan_id":"cebpf4jnsgd1na2vs0mg"},{"bike_id":"7c270ee1-cb85-414b-a5db-f05671309596","system_id":"levelo_inurba_marseille","lat":43.31336,"lon":5.39699,"is_reserved":false,"is_disabled":false,"rental_uris":{"android":"levelo://app?vid=7c270ee1-cb85-414b-a5db-f05671309596","ios":"levelo://app?vid=7c270ee1-cb85-414b-a5db-f05671309596"},"vehicle_type_id":"4","last_reported":1758557552,"current_range_meters":5600,"station_id":"ce4bgvp2rcd13ifvqcu0","pricing_plan_id":"cebpf4jnsgd1na2vs0mg"},{"bike_id":"9dbd857f-e9d5-4f68-84b1-d8eb03f19102","system_id":"levelo_inurba_marseille","lat":43.25584,"lon":5.3826,"is_reserved":false,"is_disabled":false,"rental_uris":{"android":"levelo://app?vid=9dbd857f-e9d5-4f68-84b1-d8eb03f19102","ios":"levelo://app?vid=9dbd857f-e9d5-4f68-84b1-d8eb03f19102"},"vehicle_type_id":"4","last_reported":1758557552,"current_range_meters":4800,"station_id":"ce4bhih2rcd13ifvqfs0","pricing_plan_id":"cebpf4jnsgd1na2vs0mg"},{"bike_id":"213f818a-2fc2-423a-8734-2921a1895f7c","system_id":"levelo_inurba_marseille","lat":43.21179,"lon":5.35072,"is_reserved":false,"is_disabled":false,"rental_uris":{"android":"levelo://app?vid=213f818a-2fc2-423a-8734-2921a1895f7c","ios":"levelo://app?vid=213f818a-2fc2-423a-8734-2921a1895f7c"},"vehicle_type_id":"4","last_reported":1758557552,"current_range_meters":6000,"station_id":"st_cvj6sg6p6f1abm77japg","pricing_plan_id":"cebpf4jnsgd1na2vs0mg"},{"bike_id":"b4dba4c8-142e-480d-9149-d1095a494062","system_id":"levelo_inurba_marseille","lat":43.28851,"lon":5.39314,"is_reserved":false,"is_disabled":false,"rental_uris":{"android":"levelo://app?vid=b4dba4c8-142e-480d-9149-d1095a494062","ios":"levelo://app?vid=b4dba4c8-142e-480d-9149-d1095a494062"},"vehicle_type_id":"4","last_reported":1758557552,"current_range_meters":6000,"station_id":"ce4bh2p2rcd13ifvqdi0","pricing_plan_id":"cebpf4jnsgd1na2vs0mg"},{"bike_id":"f57502dc-f897-460a-8977-8dd1ae675b8c","system_id":"levelo_inurba_marseille","lat":43.23063,"lon":5.35495,"is_reserved":false,"is_disabled":false,"rental_uris":{"android":"levelo://app?vid=f57502dc-f897-460a-8977-8dd1ae675b8c","ios":"levelo://app?vid=f57502dc-f897-460a-8977-8dd1ae675b8c"},"vehicle_type_id":"4","last_reported":1758557552,"current_range_meters":6400,"station_id":"","pricing_plan_id":"cebpf4jnsgd1na2vs0mg"},{"bike_id":"6ddd72e6-657e-4871-a566-93d7e45418f0","system_id":"levelo_inurba_marseille","lat":43.27968,"lon":5.387254,"is_reserved":false,"is_disabled":false,"rental_uris":{"android":"levelo://app?vid=6ddd72e6-657e-4871-a566-93d7e45418f0","ios":"levelo://app?vid=6ddd72e6-657e-4871-a566-93d7e45418f0"},"vehicle_type_id":"4","last_reported":1758557552,"current_range_meters":6400,"station_id":"ce4bhg12rcd13ifvqf80","pricing_plan_id":"cebpf4jnsgd1na2vs0mg"},{"bike_id":"69984514-67df-4d59-92c1-6f20c40fa92a","system_id":"levelo_inurba_marseille","lat":43.27577,"lon":5.38554,"is_reserved":false,"is_disabled":false,"rental_uris":{"android":"levelo://app?vid=69984514-67df-4d59-92c1-6f20c40fa92a","ios":"levelo://app?vid=69984514-67df-4d59-92c1-6f20c40fa92a"},"vehicle_type_id":"4","last_reported":1758557552,"current_range_meters":6400,"station_id":"ce4bhh92rcd13ifvqfi0","pricing_plan_id":"cebpf4jnsgd1na2vs0mg"},{"bike_id":"916f17a2-bd01-400f-b70c-63e87c92243e","system_id":"levelo_inurba_marseille","lat":43.2892,"lon":5.38399,"is_reserved":false,"is_disabled":false,"rental_uris":{"android":"levelo://app?vid=916f17a2-bd01-400f-b70c-63e87c92243e","ios":"levelo://app?vid=916f17a2-bd01-400f-b70c-63e87c92243e"},"vehicle_type_id":"4","last_reported":1758557552,"current_range_meters":6000,"station_id":"ce4bh612rcd13ifvqe6g","pricing_plan_id":"cebpf4jnsgd1na2vs0mg"},{"bike_id":"2289a0ff-9c3e-4f79-ad38-4b41158d6057","system_id":"levelo_inurba_marseille","lat":43.29882,"lon":5.37911,"is_reserved":false,"is_disabled":false,"rental_uris":{"android":"levelo://app?vid=2289a0ff-9c3e-4f79-ad38-4b41158d6057","ios":"levelo://app?vid=2289a0ff-9c3e-4f79-ad38-4b41158d6057"},"vehicle_type_id":"4","last_reported":1758557552,"current_range_meters":6400,"station_id":"","pricing_plan_id":"cebpf4jnsgd1na2vs0mg"},{"bike_id":"95b2c900-07a9-4d99-822d-5f69058b55f4","system_id":"levelo_inurba_marseille","lat":43.28715,"lon":5.4,"is_reserved":false,"is_disabled":true,"rental_uris":{"android":"levelo://app?vid=95b2c900-07a9-4d99-822d-5f69058b55f4","ios":"levelo://app?vid=95b2c900-07a9-4d99-822d-5f69058b55f4"},"vehicle_type_id":"4","last_reported":1758557552,"current_range_meters":6400,"station_id":"ce4bho92rcd13ifvqh3g","pricing_plan_id":"cebpf4jnsgd1na2vs0mg"},{"bike_id":"55d1bc08-fd54-4a82-afc7-2adcaa7b1c4e","system_id":"levelo_inurba_marseille","lat":43.30038,"lon":5.37697,"is_reserved":false,"is_disabled":false,"rental_uris":{"android":"levelo://app?vid=55d1bc08-fd54-4a82-afc7-2adcaa7b1c4e","ios":"levelo://app?vid=55d1bc08-fd54-4a82-afc7-2adcaa7b1c4e"},"vehicle_type_id":"4","last_reported":1758557552,"current_range_meters":6400,"station_id":"","pricing_plan_id":"cebpf4jnsgd1na2vs0mg"},{"bike_id":"02e3545c-fe84-41c7-8d16-6692f207b3f3","system_id":"levelo_inurba_marseille","lat":43.27614,"lon":5.36116,"is_reserved":false,"is_disabled":false,"rental_uris":{"android":"levelo://app?vid=02e3545c-fe84-41c7-8d16-6692f207b3f3","ios":"levelo://app?vid=02e3545c-fe84-41c7-8d16-6692f207b3f3"},"vehicle_type_id":"4","last_reported":1758557552,"current_range_meters":6400,"station_id":"ce4bgj92rcd13ifvqbe0","pricing_plan_id":"cebpf4jnsgd1na2vs0mg"},{"bike_id":"493ee2e7-099d-4cac-be7d-dbf7b4b17d02","system_id":"levelo_inurba_marseille","lat":43.287192,"lon":5.379388,"is_reserved":false,"is_disabled":false,"rental_uris":{"android":"levelo://app?vid=493ee2e7-099d-4cac-be7d-dbf7b4b17d02","ios":"levelo://app?vid=493ee2e7-099d-4cac-be7d-dbf7b4b17d02"},"vehicle_type_id":"4","last_reported":1758557552,"current_range_meters":6800,"station_id":"ce4bh9p2rcd13ifvqec0","pricing_plan_id":"cebpf4jnsgd1na2vs0mg"},{"bike_id":"885d49a1-ac02-463d-820a-205f8e44b740","system_id":"levelo_inurba_marseille","lat":43.294368,"lon":5.397446,"is_reserved":false,"is_disabled":false,"rental_uris":{"android":"levelo://app?vid=885d49a1-ac02-463d-820a-205f8e44b740","ios":"levelo://app?vid=885d49a1-ac02-463d-820a-205f8e44b740"},"vehicle_type_id":"4","last_reported":1758557552,"current_range_meters":6800,"station_id":"ce4bh3h2rcd13ifvqdo0","pricing_plan_id":"cebpf4jnsgd1na2vs0mg"},{"bike_id":"68adab37-f5ad-4072-b58a-fe6c68285ca6","system_id":"levelo_inurba_marseille","lat":43.3063,"lon":5.37656,"is_reserved":false,"is_disabled":false,"rental_uris":{"android":"levelo://app?vid=68adab37-f5ad-4072-b58a-fe6c68285ca6","ios":"levelo://app?vid=68adab37-f5ad-4072-b58a-fe6c68285ca6"},"vehicle_type_id":"4","last_reported":1758557552,"current_range_meters":6800,"station_id":"","pricing_plan_id":"cebpf4jnsgd1na2vs0mg"},{"bike_id":"5f368064-7a3b-44dd-b4b0-38191db3ea6a","system_id":"levelo_inurba_marseille","lat":43.28948,"lon":5.36395,"is_reserved":false,"is_disabled":false,"rental_uris":{"android":"levelo://app?vid=5f368064-7a3b-44dd-b4b0-38191db3ea6a","ios":"levelo://app?vid=5f368064-7a3b-44dd-b4b0-38191db3ea6a"},"vehicle_type_id":"4","last_reported":1758557552,"current_range_meters":6800,"station_id":"ce4bhc92rcd13ifvqetg","pricing_plan_id":"cebpf4jnsgd1na2vs0mg"},{"bike_id":"966a6a73-458f-405e-9b9f-7530b2b832f6","system_id":"levelo_inurba_marseille","lat":43.308315,"lon":5.396134,"is_reserved":false,"is_disabled":false,"rental_uris":{"android":"levelo://app?vid=966a6a73-458f-405e-9b9f-7530b2b832f6","ios":"levelo://app?vid=966a6a73-458f-405e-9b9f-7530b2b832f6"},"vehicle_type_id":"4","last_reported":1758557552,"current_range_meters":6800,"station_id":"ce4bh012rcd13ifvqcv0","pricing_plan_id":"cebpf4jnsgd1na2vs0mg"},{"bike_id":"b5efe5fe-f661-4ad8-bf89-c64dc70497a2","system_id":"levelo_inurba_marseille","lat":43.27104,"lon":5.39242,"is_reserved":false,"is_disabled":false,"rental_uris":{"android":"levelo://app?vid=b5efe5fe-f661-4ad8-bf89-c64dc70497a2","ios":"levelo://app?vid=b5efe5fe-f661-4ad8-bf89-c64dc70497a2"},"vehicle_type_id":"4","last_reported":1758557552,"current_range_meters":7200,"station_id":"","pricing_plan_id":"cebpf4jnsgd1na2vs0mg"},{"bike_id":"fbfe5fbc-9f9c-4ef0-920f-38d8d61113c9","system_id":"levelo_inurba_marseille","lat":43.27967,"lon":5.38733,"is_reserved":false,"is_disabled":false,"rental_uris":{"android":"levelo://app?vid=fbfe5fbc-9f9c-4ef0-920f-38d8d61113c9","ios":"levelo://app?vid=fbfe5fbc-9f9c-4ef0-920f-38d8d61113c9"},"vehicle_type_id":"4","last_reported":1758557552,"current_range_meters":7200,"station_id":"ce4bhg12rcd13ifvqf80","pricing_plan_id":"cebpf4jnsgd1na2vs0mg"},{"bike_id":"fb2ac691-d528-4e0b-b6d4-54c9a55cc728","system_id":"levelo_inurba_marseille","lat":43.27208,"lon":5.39181,"is_reserved":false,"is_disabled":false,"rental_uris":{"android":"levelo://app?vid=fb2ac691-d528-4e0b-b6d4-54c9a55cc728","ios":"levelo://app?vid=fb2ac691-d528-4e0b-b6d4-54c9a55cc728"},"vehicle_type_id":"4","last_reported":1758557552,"current_range_meters":7200,"station_id":"ce4bhhp2rcd13ifvqfm0","pricing_plan_id":"cebpf4jnsgd1na2vs0mg"},{"bike_id":"cca2c594-621a-43a5-abb8-73a0ceab8b8c","system_id":"levelo_inurba_marseille","lat":43.29975,"lon":5.38513,"is_reserved":false,"is_disabled":false,"rental_uris":{"android":"levelo://app?vid=cca2c594-621a-43a5-abb8-73a0ceab8b8c","ios":"levelo://app?vid=cca2c594-621a-43a5-abb8-73a0ceab8b8c"},"vehicle_type_id":"4","last_reported":1758557552,"current_range_meters":7200,"station_id":"ce4bgj92rcd13ifvqbd0","pricing_plan_id":"cebpf4jnsgd1na2vs0mg"},{"bike_id":"e7c11415-c5c8-4e5f-8fc7-d7f3b19e4623","system_id":"levelo_inurba_marseille","lat":43.298026,"lon":5.403861,"is_reserved":false,"is_disabled":false,"rental_uris":{"android":"levelo://app?vid=e7c11415-c5c8-4e5f-8fc7-d7f3b19e4623","ios":"levelo://app?vid=e7c11415-c5c8-4e5f-8fc7-d7f3b19e4623"},"vehicle_type_id":"4","last_reported":1758557552,"current_range_meters":7200,"station_id":"ce4bh112rcd13ifvqd90","pricing_plan_id":"cebpf4jnsgd1na2vs0mg"},{"bike_id":"11e90299-7b06-48be-b654-afa80ff52878","system_id":"levelo_inurba_marseille","lat":43.27914,"lon":5.3958,"is_reserved":false,"is_disabled":false,"rental_uris":{"android":"levelo://app?vid=11e90299-7b06-48be-b654-afa80ff52878","ios":"levelo://app?vid=11e90299-7b06-48be-b654-afa80ff52878"},"vehicle_type_id":"4","last_reported":1758557552,"current_range_meters":8000,"station_id":"ce4bhf92rcd13ifvqf40","pricing_plan_id":"cebpf4jnsgd1na2vs0mg"},{"bike_id":"3bdd5bb9-a0e9-4635-93b6-b52acf859d7a","system_id":"levelo_inurba_marseille","lat":43.28261,"lon":5.35048,"is_reserved":false,"is_disabled":true,"rental_uris":{"android":"levelo://app?vid=3bdd5bb9-a0e9-4635-93b6-b52acf859d7a","ios":"levelo://app?vid=3bdd5bb9-a0e9-4635-93b6-b52acf859d7a"},"vehicle_type_id":"4","last_reported":1758557552,"current_range_meters":8000,"station_id":"ce4bhbp2rcd13ifvqerg","pricing_plan_id":"cebpf4jnsgd1na2vs0mg"},{"bike_id":"eebeb7f4-7b0d-41e3-87d0-662d44dec4d9","system_id":"levelo_inurba_marseille","lat":43.28038,"lon":5.36947,"is_reserved":false,"is_disabled":false,"rental_uris":{"android":"levelo://app?vid=eebeb7f4-7b0d-41e3-87d0-662d44dec4d9","ios":"levelo://app?vid=eebeb7f4-7b0d-41e3-87d0-662d44dec4d9"},"vehicle_type_id":"4","last_reported":1758557552,"current_range_meters":8000,"station_id":"ce4bha12rcd13ifvqef0","pricing_plan_id":"cebpf4jnsgd1na2vs0mg"},{"bike_id":"9ea09a37-5c99-4719-b604-d79d21c8945b","system_id":"levelo_inurba_marseille","lat":43.27699,"lon":5.36167,"is_reserved":false,"is_disabled":false,"rental_uris":{"android":"levelo://app?vid=9ea09a37-5c99-4719-b604-d79d21c8945b","ios":"levelo://app?vid=9ea09a37-5c99-4719-b604-d79d21c8945b"},"vehicle_type_id":"4","last_reported":1758557552,"current_range_meters":8000,"station_id":"ce4bgj92rcd13ifvqbe0","pricing_plan_id":"cebpf4jnsgd1na2vs0mg"},{"bike_id":"5d8907e7-2182-4bdb-b6a7-d59842b490de","system_id":"levelo_inurba_marseille","lat":43.29534,"lon":5.38546,"is_reserved":false,"is_disabled":false,"rental_uris":{"android":"levelo://app?vid=5d8907e7-2182-4bdb-b6a7-d59842b490de","ios":"levelo://app?vid=5d8907e7-2182-4bdb-b6a7-d59842b490de"},"vehicle_type_id":"4","last_reported":1758557552,"current_range_meters":8000,"station_id":"ce4bgih2rcd13ifvqba0","pricing_plan_id":"cebpf4jnsgd1na2vs0mg"},{"bike_id":"acd2ac47-ec77-4b3b-88a6-054c83c4e1fe","system_id":"levelo_inurba_marseille","lat":43.29594,"lon":5.37544,"is_reserved":false,"is_disabled":false,"rental_uris":{"android":"levelo://app?vid=acd2ac47-ec77-4b3b-88a6-054c83c4e1fe","ios":"levelo://app?vid=acd2ac47-ec77-4b3b-88a6-054c83c4e1fe"},"vehicle_type_id":"4","last_reported":1758557552,"current_range_meters":8400,"station_id":"ce4bgh92rcd13ifvqb50","pricing_plan_id":"cebpf4jnsgd1na2vs0mg"},{"bike_id":"39e6bd43-965a-4db0-ac4c-27c74e454e51","system_id":"levelo_inurba_marseille","lat":43.27623,"lon":5.36108,"is_reserved":false,"is_disabled":false,"rental_uris":{"android":"levelo://app?vid=39e6bd43-965a-4db0-ac4c-27c74e454e51","ios":"levelo://app?vid=39e6bd43-965a-4db0-ac4c-27c74e454e51"},"vehicle_type_id":"4","last_reported":1758557552,"current_range_meters":8400,"station_id":"ce4bgj92rcd13ifvqbe0","pricing_plan_id":"cebpf4jnsgd1na2vs0mg"},{"bike_id":"f581ccb4-ae4a-44ef-9aee-8da2f62ff531","system_id":"levelo_inurba_marseille","lat":43.31244,"lon":5.36824,"is_reserved":false,"is_disabled":false,"rental_uris":{"android":"levelo://app?vid=f581ccb4-ae4a-44ef-9aee-8da2f62ff531","ios":"levelo://app?vid=f581ccb4-ae4a-44ef-9aee-8da2f62ff531"},"vehicle_type_id":"4","last_reported":1758557552,"current_range_meters":8400,"station_id":"ce4bgl92rcd13ifvqbq0","pricing_plan_id":"cebpf4jnsgd1na2vs0mg"},{"bike_id":"4c9447f3-0429-4265-a140-7cfa7c9e9e0c","system_id":"levelo_inurba_marseille","lat":43.30643,"lon":5.4009,"is_reserved":false,"is_disabled":false,"rental_uris":{"android":"levelo://app?vid=4c9447f3-0429-4265-a140-7cfa7c9e9e0c","ios":"levelo://app?vid=4c9447f3-0429-4265-a140-7cfa7c9e9e0c"},"vehicle_type_id":"4","last_reported":1758557552,"current_range_meters":8000,"station_id":"ce4bh112rcd13ifvqda0","pricing_plan_id":"cebpf4jnsgd1na2vs0mg"},{"bike_id":"367315db-b240-4e74-b0c1-a79b544736d8","system_id":"levelo_inurba_marseille","lat":43.28861,"lon":5.35859,"is_reserved":false,"is_disabled":false,"rental_uris":{"android":"levelo://app?vid=367315db-b240-4e74-b0c1-a79b544736d8","ios":"levelo://app?vid=367315db-b240-4e74-b0c1-a79b544736d8"},"vehicle_type_id":"4","last_reported":1758557552,"current_range_meters":8000,"station_id":"ce4bhb12rcd13ifvqem0","pricing_plan_id":"cebpf4jnsgd1na2vs0mg"},{"bike_id":"e86857f8-f405-4657-b145-ec58ed187087","system_id":"levelo_inurba_marseille","lat":43.313618,"lon":5.384976,"is_reserved":false,"is_disabled":false,"rental_uris":{"android":"levelo://app?vid=e86857f8-f405-4657-b145-ec58ed187087","ios":"levelo://app?vid=e86857f8-f405-4657-b145-ec58ed187087"},"vehicle_type_id":"4","last_reported":1758557552,"current_range_meters":8400,"station_id":"ce4bgt92rcd13ifvqcf0","pricing_plan_id":"cebpf4jnsgd1na2vs0mg"},{"bike_id":"80126a76-aa37-46a3-9d29-de059f7a8a98","system_id":"levelo_inurba_marseille","lat":43.27062,"lon":5.40254,"is_reserved":false,"is_disabled":false,"rental_uris":{"android":"levelo://app?vid=80126a76-aa37-46a3-9d29-de059f7a8a98","ios":"levelo://app?vid=80126a76-aa37-46a3-9d29-de059f7a8a98"},"vehicle_type_id":"4","last_reported":1758557552,"current_range_meters":8400,"station_id":"ce4bhk92rcd13ifvqgc0","pricing_plan_id":"cebpf4jnsgd1na2vs0mg"},{"bike_id":"46fe0edd-64da-4ce0-a2e1-122895d31c24","system_id":"levelo_inurba_marseille","lat":43.27062,"lon":5.40279,"is_reserved":false,"is_disabled":false,"rental_uris":{"android":"levelo://app?vid=46fe0edd-64da-4ce0-a2e1-122895d31c24","ios":"levelo://app?vid=46fe0edd-64da-4ce0-a2e1-122895d31c24"},"vehicle_type_id":"4","last_reported":1758557552,"current_range_meters":8400,"station_id":"ce4bhk92rcd13ifvqgc0","pricing_plan_id":"cebpf4jnsgd1na2vs0mg"},{"bike_id":"760f995f-4868-49f9-91f3-910704556ee0","system_id":"levelo_inurba_marseille","lat":43.28479,"lon":5.38425,"is_reserved":false,"is_disabled":false,"rental_uris":{"android":"levelo://app?vid=760f995f-4868-49f9-91f3-910704556ee0","ios":"levelo://app?vid=760f995f-4868-49f9-91f3-910704556ee0"},"vehicle_type_id":"4","last_reported":1758557552,"current_range_meters":8400,"station_id":"ce4bh512rcd13ifvqe3g","pricing_plan_id":"cebpf4jnsgd1na2vs0mg"},{"bike_id":"5e302cd5-b5a9-49e1-9cfe-cf1efb729a5e","system_id":"levelo_inurba_marseille","lat":43.29571,"lon":5.37513,"is_reserved":false,"is_disabled":false,"rental_uris":{"android":"levelo://app?vid=5e302cd5-b5a9-49e1-9cfe-cf1efb729a5e","ios":"levelo://app?vid=5e302cd5-b5a9-49e1-9cfe-cf1efb729a5e"},"vehicle_type_id":"4","last_reported":1758557552,"current_range_meters":8800,"station_id":"ce4bgh92rcd13ifvqb50","pricing_plan_id":"cebpf4jnsgd1na2vs0mg"},{"bike_id":"29d33a3c-30d7-42e6-b3eb-429f06eb51bb","system_id":"levelo_inurba_marseille","lat":43.27211,"lon":5.39182,"is_reserved":false,"is_disabled":false,"rental_uris":{"android":"levelo://app?vid=29d33a3c-30d7-42e6-b3eb-429f06eb51bb","ios":"levelo://app?vid=29d33a3c-30d7-42e6-b3eb-429f06eb51bb"},"vehicle_type_id":"4","last_reported":1758557552,"current_range_meters":8800,"station_id":"ce4bhhp2rcd13ifvqfm0","pricing_plan_id":"cebpf4jnsgd1na2vs0mg"},{"bike_id":"b0fb9750-fd0c-4f45-a275-c2a76f072310","system_id":"levelo_inurba_marseille","lat":43.3043,"lon":5.39781,"is_reserved":false,"is_disabled":false,"rental_uris":{"android":"levelo://app?vid=b0fb9750-fd0c-4f45-a275-c2a76f072310","ios":"levelo://app?vid=b0fb9750-fd0c-4f45-a275-c2a76f072310"},"vehicle_type_id":"4","last_reported":1758557552,"current_range_meters":8800,"station_id":"ce4bh092rcd13ifvqd20","pricing_plan_id":"cebpf4jnsgd1na2vs0mg"},{"bike_id":"9278c8e4-f92e-4b80-9d1a-f8764c260a72","system_id":"levelo_inurba_marseille","lat":43.21749,"lon":5.34603,"is_reserved":false,"is_disabled":false,"rental_uris":{"android":"levelo://app?vid=9278c8e4-f92e-4b80-9d1a-f8764c260a72","ios":"levelo://app?vid=9278c8e4-f92e-4b80-9d1a-f8764c260a72"},"vehicle_type_id":"4","last_reported":1758557552,"current_range_meters":8800,"station_id":"st_cvj6r9ubvosntc0bgbag","pricing_plan_id":"cebpf4jnsgd1na2vs0mg"},{"bike_id":"a95a546a-691f-414b-9f19-eb455305a59b","system_id":"levelo_inurba_marseille","lat":43.21758,"lon":5.34611,"is_reserved":false,"is_disabled":false,"rental_uris":{"android":"levelo://app?vid=a95a546a-691f-414b-9f19-eb455305a59b","ios":"levelo://app?vid=a95a546a-691f-414b-9f19-eb455305a59b"},"vehicle_type_id":"4","last_reported":1758557552,"current_range_meters":8800,"station_id":"st_cvj6r9ubvosntc0bgbag","pricing_plan_id":"cebpf4jnsgd1na2vs0mg"},{"bike_id":"cc47afdc-63cb-4e82-805c-c14bce09ec1e","system_id":"levelo_inurba_marseille","lat":43.270623,"lon":5.40259,"is_reserved":false,"is_disabled":false,"rental_uris":{"android":"levelo://app?vid=cc47afdc-63cb-4e82-805c-c14bce09ec1e","ios":"levelo://app?vid=cc47afdc-63cb-4e82-805c-c14bce09ec1e"},"vehicle_type_id":"4","last_reported":1758557552,"current_range_meters":8800,"station_id":"ce4bhk92rcd13ifvqgc0","pricing_plan_id":"cebpf4jnsgd1na2vs0mg"},{"bike_id":"76bbf107-7ec5-4826-b296-ab629ecd14ab","system_id":"levelo_inurba_marseille","lat":43.2982,"lon":5.4213,"is_reserved":false,"is_disabled":false,"rental_uris":{"android":"levelo://app?vid=76bbf107-7ec5-4826-b296-ab629ecd14ab","ios":"levelo://app?vid=76bbf107-7ec5-4826-b296-ab629ecd14ab"},"vehicle_type_id":"4","last_reported":1758557552,"current_range_meters":8800,"station_id":"","pricing_plan_id":"cebpf4jnsgd1na2vs0mg"},{"bike_id":"118b6d7e-3328-44e2-ae13-d04071b8c00f","system_id":"levelo_inurba_marseille","lat":43.21176,"lon":5.35078,"is_reserved":false,"is_disabled":false,"rental_uris":{"android":"levelo://app?vid=118b6d7e-3328-44e2-ae13-d04071b8c00f","ios":"levelo://app?vid=118b6d7e-3328-44e2-ae13-d04071b8c00f"},"vehicle_type_id":"4","last_reported":1758557552,"current_range_meters":9200,"station_id":"st_cvj6sg6p6f1abm77japg","pricing_plan_id":"cebpf4jnsgd1na2vs0mg"},{"bike_id":"ca7cfd93-60d9-4fda-b2da-28a86ec02074","system_id":"levelo_inurba_marseille","lat":43.33475,"lon":5.36249,"is_reserved":false,"is_disabled":false,"rental_uris":{"android":"levelo://app?vid=ca7cfd93-60d9-4fda-b2da-28a86ec02074","ios":"levelo://app?vid=ca7cfd93-60d9-4fda-b2da-28a86ec02074"},"vehicle_type_id":"4","last_reported":1758557552,"current_range_meters":9200,"station_id":"","pricing_plan_id":"cebpf4jnsgd1na2vs0mg"},{"bike_id":"a7a8c75a-ac05-42cc-bf8a-86699a9d220c","system_id":"levelo_inurba_marseille","lat":43.30809,"lon":5.38157,"is_reserved":false,"is_disabled":false,"rental_uris":{"android":"levelo://app?vid=a7a8c75a-ac05-42cc-bf8a-86699a9d220c","ios":"levelo://app?vid=a7a8c75a-ac05-42cc-bf8a-86699a9d220c"},"vehicle_type_id":"4","last_reported":1758557552,"current_range_meters":9200,"station_id":"ce4bgt12rcd13ifvqce0","pricing_plan_id":"cebpf4jnsgd1na2vs0mg"},{"bike_id":"9176512c-2cc1-4df2-a8e0-6be514fbcdbf","system_id":"levelo_inurba_marseille","lat":43.33748,"lon":5.37465,"is_reserved":false,"is_disabled":false,"rental_uris":{"android":"levelo://app?vid=9176512c-2cc1-4df2-a8e0-6be514fbcdbf","ios":"levelo://app?vid=9176512c-2cc1-4df2-a8e0-6be514fbcdbf"},"vehicle_type_id":"4","last_reported":1758557552,"current_range_meters":9200,"station_id":"","pricing_plan_id":"cebpf4jnsgd1na2vs0mg"},{"bike_id":"1fd71981-16ff-48a9-a84a-bf8e8eea0531","system_id":"levelo_inurba_marseille","lat":43.231783,"lon":5.399908,"is_reserved":false,"is_disabled":false,"rental_uris":{"android":"levelo://app?vid=1fd71981-16ff-48a9-a84a-bf8e8eea0531","ios":"levelo://app?vid=1fd71981-16ff-48a9-a84a-bf8e8eea0531"},"vehicle_type_id":"4","last_reported":1758557552,"current_range_meters":9200,"station_id":"ce4bhn12rcd13ifvqgqg","pricing_plan_id":"cebpf4jnsgd1na2vs0mg"},{"bike_id":"06e81aa9-df1a-46b9-9890-237175b97570","system_id":"levelo_inurba_marseille","lat":43.28932,"lon":5.3663,"is_reserved":false,"is_disabled":false,"rental_uris":{"android":"levelo://app?vid=06e81aa9-df1a-46b9-9890-237175b97570","ios":"levelo://app?vid=06e81aa9-df1a-46b9-9890-237175b97570"},"vehicle_type_id":"4","last_reported":1758557552,"current_range_meters":9200,"station_id":"ce4bhap2rcd13ifvqek0","pricing_plan_id":"cebpf4jnsgd1na2vs0mg"},{"bike_id":"d97eb17e-b357-4543-90fb-d77e60a033a3","system_id":"levelo_inurba_marseille","lat":43.28166,"lon":5.42654,"is_reserved":false,"is_disabled":false,"rental_uris":{"android":"levelo://app?vid=d97eb17e-b357-4543-90fb-d77e60a033a3","ios":"levelo://app?vid=d97eb17e-b357-4543-90fb-d77e60a033a3"},"vehicle_type_id":"4","last_reported":1758557552,"current_range_meters":9200,"station_id":"ce4bhnh2rcd13ifvqgug","pricing_plan_id":"cebpf4jnsgd1na2vs0mg"},{"bike_id":"2015c1f2-c286-408a-b930-50d865ce0bb9","system_id":"levelo_inurba_marseille","lat":43.23062,"lon":5.35496,"is_reserved":false,"is_disabled":false,"rental_uris":{"android":"levelo://app?vid=2015c1f2-c286-408a-b930-50d865ce0bb9","ios":"levelo://app?vid=2015c1f2-c286-408a-b930-50d865ce0bb9"},"vehicle_type_id":"4","last_reported":1758557552,"current_range_meters":9200,"station_id":"cpo3342slgdg3j2ifvpg","pricing_plan_id":"cebpf4jnsgd1na2vs0mg"},{"bike_id":"8a569a47-46ff-4e91-972f-c6991b590b75","system_id":"levelo_inurba_marseille","lat":43.30218,"lon":5.39983,"is_reserved":false,"is_disabled":false,"rental_uris":{"android":"levelo://app?vid=8a569a47-46ff-4e91-972f-c6991b590b75","ios":"levelo://app?vid=8a569a47-46ff-4e91-972f-c6991b590b75"},"vehicle_type_id":"4","last_reported":1758557552,"current_range_meters":9600,"station_id":"ce4bgvh2rcd13ifvqcs0","pricing_plan_id":"cebpf4jnsgd1na2vs0mg"},{"bike_id":"7dd84507-3e8c-4d08-809b-9c977554b684","system_id":"levelo_inurba_marseille","lat":43.28002,"lon":5.40015,"is_reserved":false,"is_disabled":false,"rental_uris":{"android":"levelo://app?vid=7dd84507-3e8c-4d08-809b-9c977554b684","ios":"levelo://app?vid=7dd84507-3e8c-4d08-809b-9c977554b684"},"vehicle_type_id":"4","last_reported":1758557552,"current_range_meters":9600,"station_id":"ce4bho92rcd13ifvqh4g","pricing_plan_id":"cebpf4jnsgd1na2vs0mg"},{"bike_id":"7834fceb-da7a-4e42-baa2-3786a037c347","system_id":"levelo_inurba_marseille","lat":43.296194,"lon":5.37706,"is_reserved":false,"is_disabled":false,"rental_uris":{"android":"levelo://app?vid=7834fceb-da7a-4e42-baa2-3786a037c347","ios":"levelo://app?vid=7834fceb-da7a-4e42-baa2-3786a037c347"},"vehicle_type_id":"4","last_reported":1758557552,"current_range_meters":9600,"station_id":"ce4bgi92rcd13ifvqb90","pricing_plan_id":"cebpf4jnsgd1na2vs0mg"},{"bike_id":"eb867823-1460-4667-bda9-2b6896a9ae41","system_id":"levelo_inurba_marseille","lat":43.27914,"lon":5.3958,"is_reserved":false,"is_disabled":false,"rental_uris":{"android":"levelo://app?vid=eb867823-1460-4667-bda9-2b6896a9ae41","ios":"levelo://app?vid=eb867823-1460-4667-bda9-2b6896a9ae41"},"vehicle_type_id":"4","last_reported":1758557552,"current_range_meters":9600,"station_id":"ce4bhf92rcd13ifvqf40","pricing_plan_id":"cebpf4jnsgd1na2vs0mg"},{"bike_id":"91ae245a-2d69-4939-85c8-20bb57720598","system_id":"levelo_inurba_marseille","lat":43.29795,"lon":5.40415,"is_reserved":false,"is_disabled":false,"rental_uris":{"android":"levelo://app?vid=91ae245a-2d69-4939-85c8-20bb57720598","ios":"levelo://app?vid=91ae245a-2d69-4939-85c8-20bb57720598"},"vehicle_type_id":"4","last_reported":1758557552,"current_range_meters":5600,"station_id":"ce4bh112rcd13ifvqd90","pricing_plan_id":"cebpf4jnsgd1na2vs0mg"},{"bike_id":"438ead59-de14-4fa0-a61d-03a70a4122ae","system_id":"levelo_inurba_marseille","lat":43.97285,"lon":4.89134,"is_reserved":false,"is_disabled":true,"rental_uris":{"android":"levelo://app?vid=438ead59-de14-4fa0-a61d-03a70a4122ae","ios":"levelo://app?vid=438ead59-de14-4fa0-a61d-03a70a4122ae"},"vehicle_type_id":"4","last_reported":1758557552,"current_range_meters":9600,"station_id":"","pricing_plan_id":"cebpf4jnsgd1na2vs0mg"},{"bike_id":"745b6f6e-b6f5-4cc3-8f10-9a78b80aa730","system_id":"levelo_inurba_marseille","lat":43.24169,"lon":5.3973,"is_reserved":false,"is_disabled":false,"rental_uris":{"android":"levelo://app?vid=745b6f6e-b6f5-4cc3-8f10-9a78b80aa730","ios":"levelo://app?vid=745b6f6e-b6f5-4cc3-8f10-9a78b80aa730"},"vehicle_type_id":"4","last_reported":1758557552,"current_range_meters":9600,"station_id":"ce4bhn12rcd13ifvqgpg","pricing_plan_id":"cebpf4jnsgd1na2vs0mg"},{"bike_id":"a3e17992-4eb8-46ea-8b60-2c4e890a4c82","system_id":"levelo_inurba_marseille","lat":43.2861,"lon":5.37067,"is_reserved":false,"is_disabled":false,"rental_uris":{"android":"levelo://app?vid=a3e17992-4eb8-46ea-8b60-2c4e890a4c82","ios":"levelo://app?vid=a3e17992-4eb8-46ea-8b60-2c4e890a4c82"},"vehicle_type_id":"4","last_reported":1758557552,"current_range_meters":9600,"station_id":"ce4bht12rcd13ifvqi60","pricing_plan_id":"cebpf4jnsgd1na2vs0mg"},{"bike_id":"7a9562e1-2b0f-42fe-891c-b8a0eebda619","system_id":"levelo_inurba_marseille","lat":43.26567,"lon":5.39015,"is_reserved":false,"is_disabled":false,"rental_uris":{"android":"levelo://app?vid=7a9562e1-2b0f-42fe-891c-b8a0eebda619","ios":"levelo://app?vid=7a9562e1-2b0f-42fe-891c-b8a0eebda619"},"vehicle_type_id":"4","last_reported":1758557552,"current_range_meters":9600,"station_id":"ce4bhe12rcd13ifvqf30","pricing_plan_id":"cebpf4jnsgd1na2vs0mg"},{"bike_id":"74fd7b2b-07e1-49bc-b233-95bda9ae2b89","system_id":"levelo_inurba_marseille","lat":43.30252,"lon":5.40052,"is_reserved":false,"is_disabled":false,"rental_uris":{"android":"levelo://app?vid=74fd7b2b-07e1-49bc-b233-95bda9ae2b89","ios":"levelo://app?vid=74fd7b2b-07e1-49bc-b233-95bda9ae2b89"},"vehicle_type_id":"4","last_reported":1758557552,"current_range_meters":9600,"station_id":"ce4bgvh2rcd13ifvqcs0","pricing_plan_id":"cebpf4jnsgd1na2vs0mg"},{"bike_id":"3f761efe-d186-4d33-9f60-4b37e9fcf571","system_id":"levelo_inurba_marseille","lat":43.23195,"lon":5.35548,"is_reserved":false,"is_disabled":true,"rental_uris":{"android":"levelo://app?vid=3f761efe-d186-4d33-9f60-4b37e9fcf571","ios":"levelo://app?vid=3f761efe-d186-4d33-9f60-4b37e9fcf571"},"vehicle_type_id":"4","last_reported":1758557552,"current_range_meters":9600,"station_id":"ce4bhu92rcd13ifvqi70","pricing_plan_id":"cebpf4jnsgd1na2vs0mg"},{"bike_id":"0402438e-d72b-4870-8e22-17facef5f22b","system_id":"levelo_inurba_marseille","lat":43.29599,"lon":5.39147,"is_reserved":false,"is_disabled":false,"rental_uris":{"android":"levelo://app?vid=0402438e-d72b-4870-8e22-17facef5f22b","ios":"levelo://app?vid=0402438e-d72b-4870-8e22-17facef5f22b"},"vehicle_type_id":"4","last_reported":1758557552,"current_range_meters":10000,"station_id":"","pricing_plan_id":"cebpf4jnsgd1na2vs0mg"},{"bike_id":"0ca405c5-50f7-42f0-ad59-fa4f401dba3d","system_id":"levelo_inurba_marseille","lat":43.24661,"lon":5.38166,"is_reserved":false,"is_disabled":true,"rental_uris":{"android":"levelo://app?vid=0ca405c5-50f7-42f0-ad59-fa4f401dba3d","ios":"levelo://app?vid=0ca405c5-50f7-42f0-ad59-fa4f401dba3d"},"vehicle_type_id":"4","last_reported":1758557552,"current_range_meters":10000,"station_id":"ce4bhih2rcd13ifvqfr0","pricing_plan_id":"cebpf4jnsgd1na2vs0mg"},{"bike_id":"d2fdaaf6-1cbd-4491-8525-f3014d9a7f1a","system_id":"levelo_inurba_marseille","lat":43.23053,"lon":5.35495,"is_reserved":false,"is_disabled":true,"rental_uris":{"android":"levelo://app?vid=d2fdaaf6-1cbd-4491-8525-f3014d9a7f1a","ios":"levelo://app?vid=d2fdaaf6-1cbd-4491-8525-f3014d9a7f1a"},"vehicle_type_id":"4","last_reported":1758557552,"current_range_meters":10000,"station_id":"cpo3342slgdg3j2ifvpg","pricing_plan_id":"cebpf4jnsgd1na2vs0mg"},{"bike_id":"5d3f645b-a094-4f3f-8ffb-021be159dfd2","system_id":"levelo_inurba_marseille","lat":43.27182,"lon":5.41,"is_reserved":false,"is_disabled":false,"rental_uris":{"android":"levelo://app?vid=5d3f645b-a094-4f3f-8ffb-021be159dfd2","ios":"levelo://app?vid=5d3f645b-a094-4f3f-8ffb-021be159dfd2"},"vehicle_type_id":"4","last_reported":1758557552,"current_range_meters":9600,"station_id":"ce4bhl12rcd13ifvqgf0","pricing_plan_id":"cebpf4jnsgd1na2vs0mg"},{"bike_id":"1acc509b-af85-4b58-bd74-e0c052811dd7","system_id":"levelo_inurba_marseille","lat":43.30284,"lon":5.396613,"is_reserved":false,"is_disabled":false,"rental_uris":{"android":"levelo://app?vid=1acc509b-af85-4b58-bd74-e0c052811dd7","ios":"levelo://app?vid=1acc509b-af85-4b58-bd74-e0c052811dd7"},"vehicle_type_id":"4","last_reported":1758557552,"current_range_meters":10800,"station_id":"","pricing_plan_id":"cebpf4jnsgd1na2vs0mg"},{"bike_id":"4e5844e4-b352-4572-95dd-92ef20182202","system_id":"levelo_inurba_marseille","lat":43.29529,"lon":5.38542,"is_reserved":false,"is_disabled":false,"rental_uris":{"android":"levelo://app?vid=4e5844e4-b352-4572-95dd-92ef20182202","ios":"levelo://app?vid=4e5844e4-b352-4572-95dd-92ef20182202"},"vehicle_type_id":"4","last_reported":1758557552,"current_range_meters":10000,"station_id":"ce4bgih2rcd13ifvqba0","pricing_plan_id":"cebpf4jnsgd1na2vs0mg"},{"bike_id":"5319fae8-be79-4d87-b5d0-b333eba32d6a","system_id":"levelo_inurba_marseille","lat":43.23061,"lon":5.35494,"is_reserved":false,"is_disabled":false,"rental_uris":{"android":"levelo://app?vid=5319fae8-be79-4d87-b5d0-b333eba32d6a","ios":"levelo://app?vid=5319fae8-be79-4d87-b5d0-b333eba32d6a"},"vehicle_type_id":"4","last_reported":1758557552,"current_range_meters":10800,"station_id":"cpo3342slgdg3j2ifvpg","pricing_plan_id":"cebpf4jnsgd1na2vs0mg"},{"bike_id":"c012b5ee-bbe2-40c3-81a9-754e5b76b090","system_id":"levelo_inurba_marseille","lat":43.23187,"lon":5.3998,"is_reserved":false,"is_disabled":false,"rental_uris":{"android":"levelo://app?vid=c012b5ee-bbe2-40c3-81a9-754e5b76b090","ios":"levelo://app?vid=c012b5ee-bbe2-40c3-81a9-754e5b76b090"},"vehicle_type_id":"4","last_reported":1758557552,"current_range_meters":10800,"station_id":"ce4bhn12rcd13ifvqgqg","pricing_plan_id":"cebpf4jnsgd1na2vs0mg"},{"bike_id":"a06a0453-aeea-401f-bb5a-5cfffcfa8d74","system_id":"levelo_inurba_marseille","lat":43.28719,"lon":5.37946,"is_reserved":false,"is_disabled":false,"rental_uris":{"android":"levelo://app?vid=a06a0453-aeea-401f-bb5a-5cfffcfa8d74","ios":"levelo://app?vid=a06a0453-aeea-401f-bb5a-5cfffcfa8d74"},"vehicle_type_id":"4","last_reported":1758557552,"current_range_meters":10800,"station_id":"ce4bh9p2rcd13ifvqec0","pricing_plan_id":"cebpf4jnsgd1na2vs0mg"},{"bike_id":"1dc9e558-1b59-4509-a75e-07596596f6a0","system_id":"levelo_inurba_marseille","lat":43.30434,"lon":5.3975,"is_reserved":false,"is_disabled":false,"rental_uris":{"android":"levelo://app?vid=1dc9e558-1b59-4509-a75e-07596596f6a0","ios":"levelo://app?vid=1dc9e558-1b59-4509-a75e-07596596f6a0"},"vehicle_type_id":"4","last_reported":1758557552,"current_range_meters":10800,"station_id":"ce4bh092rcd13ifvqd20","pricing_plan_id":"cebpf4jnsgd1na2vs0mg"},{"bike_id":"c3e9ec78-d16b-45ba-a192-2cfab652bb22","system_id":"levelo_inurba_marseille","lat":43.29613,"lon":5.3698,"is_reserved":false,"is_disabled":false,"rental_uris":{"android":"levelo://app?vid=c3e9ec78-d16b-45ba-a192-2cfab652bb22","ios":"levelo://app?vid=c3e9ec78-d16b-45ba-a192-2cfab652bb22"},"vehicle_type_id":"4","last_reported":1758557552,"current_range_meters":10800,"station_id":"","pricing_plan_id":"cebpf4jnsgd1na2vs0mg"},{"bike_id":"70d36c8d-0fea-44bf-8c80-2247985bb9b2","system_id":"levelo_inurba_marseille","lat":43.2572,"lon":5.41116,"is_reserved":false,"is_disabled":false,"rental_uris":{"android":"levelo://app?vid=70d36c8d-0fea-44bf-8c80-2247985bb9b2","ios":"levelo://app?vid=70d36c8d-0fea-44bf-8c80-2247985bb9b2"},"vehicle_type_id":"4","last_reported":1758557552,"current_range_meters":11200,"station_id":"ce4bhkp2rcd13ifvqgd0","pricing_plan_id":"cebpf4jnsgd1na2vs0mg"},{"bike_id":"0dfd33e8-ad3d-4a30-b0f4-85d97ae95c0d","system_id":"levelo_inurba_marseille","lat":43.28414,"lon":5.37531,"is_reserved":false,"is_disabled":false,"rental_uris":{"android":"levelo://app?vid=0dfd33e8-ad3d-4a30-b0f4-85d97ae95c0d","ios":"levelo://app?vid=0dfd33e8-ad3d-4a30-b0f4-85d97ae95c0d"},"vehicle_type_id":"4","last_reported":1758557552,"current_range_meters":10800,"station_id":"ce4bh412rcd13ifvqds0","pricing_plan_id":"cebpf4jnsgd1na2vs0mg"},{"bike_id":"a57ec678-3f9e-4769-a06b-b0e36f8205fe","system_id":"levelo_inurba_marseille","lat":43.23182,"lon":5.39992,"is_reserved":false,"is_disabled":false,"rental_uris":{"android":"levelo://app?vid=a57ec678-3f9e-4769-a06b-b0e36f8205fe","ios":"levelo://app?vid=a57ec678-3f9e-4769-a06b-b0e36f8205fe"},"vehicle_type_id":"4","last_reported":1758557552,"current_range_meters":11200,"station_id":"ce4bhn12rcd13ifvqgqg","pricing_plan_id":"cebpf4jnsgd1na2vs0mg"},{"bike_id":"58e75742-f1bd-44f6-a358-bab03f95cbbd","system_id":"levelo_inurba_marseille","lat":43.30595,"lon":5.37227,"is_reserved":false,"is_disabled":false,"rental_uris":{"android":"levelo://app?vid=58e75742-f1bd-44f6-a358-bab03f95cbbd","ios":"levelo://app?vid=58e75742-f1bd-44f6-a358-bab03f95cbbd"},"vehicle_type_id":"4","last_reported":1758557552,"current_range_meters":11600,"station_id":"ce4bgqh2rcd13ifvqc4g","pricing_plan_id":"cebpf4jnsgd1na2vs0mg"},{"bike_id":"594d532a-717d-40e4-a998-0c61d9650bc2","system_id":"levelo_inurba_marseille","lat":43.31327,"lon":5.39705,"is_reserved":false,"is_disabled":false,"rental_uris":{"android":"levelo://app?vid=594d532a-717d-40e4-a998-0c61d9650bc2","ios":"levelo://app?vid=594d532a-717d-40e4-a998-0c61d9650bc2"},"vehicle_type_id":"4","last_reported":1758557552,"current_range_meters":11200,"station_id":"ce4bgvp2rcd13ifvqcu0","pricing_plan_id":"cebpf4jnsgd1na2vs0mg"},{"bike_id":"f5dbfad0-879c-454c-85ee-c6a1deedaaa4","system_id":"levelo_inurba_marseille","lat":43.27675,"lon":5.38878,"is_reserved":false,"is_disabled":false,"rental_uris":{"android":"levelo://app?vid=f5dbfad0-879c-454c-85ee-c6a1deedaaa4","ios":"levelo://app?vid=f5dbfad0-879c-454c-85ee-c6a1deedaaa4"},"vehicle_type_id":"4","last_reported":1758557552,"current_range_meters":11600,"station_id":"ce4bhi12rcd13ifvqfo0","pricing_plan_id":"cebpf4jnsgd1na2vs0mg"},{"bike_id":"6e417fed-8d43-4963-b52e-c54cd79d652e","system_id":"levelo_inurba_marseille","lat":43.30124,"lon":5.3879,"is_reserved":false,"is_disabled":true,"rental_uris":{"android":"levelo://app?vid=6e417fed-8d43-4963-b52e-c54cd79d652e","ios":"levelo://app?vid=6e417fed-8d43-4963-b52e-c54cd79d652e"},"vehicle_type_id":"4","last_reported":1758557552,"current_range_meters":11600,"station_id":"ce4bghh2rcd13ifvqb60","pricing_plan_id":"cebpf4jnsgd1na2vs0mg"},{"bike_id":"c46575d3-d222-4081-9970-3a38bb708282","system_id":"levelo_inurba_marseille","lat":43.22925,"lon":5.35358,"is_reserved":false,"is_disabled":false,"rental_uris":{"android":"levelo://app?vid=c46575d3-d222-4081-9970-3a38bb708282","ios":"levelo://app?vid=c46575d3-d222-4081-9970-3a38bb708282"},"vehicle_type_id":"4","last_reported":1758557552,"current_range_meters":11600,"station_id":"cpo3532slgdg3j2ikp40","pricing_plan_id":"cebpf4jnsgd1na2vs0mg"},{"bike_id":"ac2ec8ef-4b57-46a2-9a84-cb1da6d1f2aa","system_id":"levelo_inurba_marseille","lat":43.29056,"lon":5.35914,"is_reserved":false,"is_disabled":false,"rental_uris":{"android":"levelo://app?vid=ac2ec8ef-4b57-46a2-9a84-cb1da6d1f2aa","ios":"levelo://app?vid=ac2ec8ef-4b57-46a2-9a84-cb1da6d1f2aa"},"vehicle_type_id":"4","last_reported":1758557552,"current_range_meters":11600,"station_id":"ce4bha92rcd13ifvqeg0","pricing_plan_id":"cebpf4jnsgd1na2vs0mg"},{"bike_id":"51cbc720-a823-406a-b6da-a65007946894","system_id":"levelo_inurba_marseille","lat":43.29262,"lon":5.40914,"is_reserved":false,"is_disabled":false,"rental_uris":{"android":"levelo://app?vid=51cbc720-a823-406a-b6da-a65007946894","ios":"levelo://app?vid=51cbc720-a823-406a-b6da-a65007946894"},"vehicle_type_id":"4","last_reported":1758557552,"current_range_meters":11600,"station_id":"ce4bh192rcd13ifvqdc0","pricing_plan_id":"cebpf4jnsgd1na2vs0mg"},{"bike_id":"aa615de6-88cf-4553-9e37-2b398204d202","system_id":"levelo_inurba_marseille","lat":43.21203,"lon":5.35049,"is_reserved":false,"is_disabled":false,"rental_uris":{"android":"levelo://app?vid=aa615de6-88cf-4553-9e37-2b398204d202","ios":"levelo://app?vid=aa615de6-88cf-4553-9e37-2b398204d202"},"vehicle_type_id":"4","last_reported":1758557552,"current_range_meters":12000,"station_id":"st_cvj6sg6p6f1abm77japg","pricing_plan_id":"cebpf4jnsgd1na2vs0mg"},{"bike_id":"cf261fc0-039c-463a-840c-095abe3cd5c6","system_id":"levelo_inurba_marseille","lat":43.25119,"lon":5.40299,"is_reserved":false,"is_disabled":false,"rental_uris":{"android":"levelo://app?vid=cf261fc0-039c-463a-840c-095abe3cd5c6","ios":"levelo://app?vid=cf261fc0-039c-463a-840c-095abe3cd5c6"},"vehicle_type_id":"4","last_reported":1758557552,"current_range_meters":12000,"station_id":"ce4bhlh2rcd13ifvqgig","pricing_plan_id":"cebpf4jnsgd1na2vs0mg"},{"bike_id":"eec319d5-2c54-4035-b2a1-81748326a3b4","system_id":"levelo_inurba_marseille","lat":43.26805,"lon":5.4027,"is_reserved":false,"is_disabled":false,"rental_uris":{"android":"levelo://app?vid=eec319d5-2c54-4035-b2a1-81748326a3b4","ios":"levelo://app?vid=eec319d5-2c54-4035-b2a1-81748326a3b4"},"vehicle_type_id":"4","last_reported":1758557552,"current_range_meters":12000,"station_id":"ce501612rcd8frsf0b60","pricing_plan_id":"cebpf4jnsgd1na2vs0mg"},{"bike_id":"fd52418b-edca-4d11-8ab4-cb15912993af","system_id":"levelo_inurba_marseille","lat":43.28612,"lon":5.35101,"is_reserved":false,"is_disabled":false,"rental_uris":{"android":"levelo://app?vid=fd52418b-edca-4d11-8ab4-cb15912993af","ios":"levelo://app?vid=fd52418b-edca-4d11-8ab4-cb15912993af"},"vehicle_type_id":"4","last_reported":1758557552,"current_range_meters":12000,"station_id":"ce4bhch2rcd13ifvqeug","pricing_plan_id":"cebpf4jnsgd1na2vs0mg"},{"bike_id":"74a84eff-3463-4ebf-80e2-13a305e9eb4c","system_id":"levelo_inurba_marseille","lat":43.30433,"lon":5.39752,"is_reserved":false,"is_disabled":false,"rental_uris":{"android":"levelo://app?vid=74a84eff-3463-4ebf-80e2-13a305e9eb4c","ios":"levelo://app?vid=74a84eff-3463-4ebf-80e2-13a305e9eb4c"},"vehicle_type_id":"4","last_reported":1758557552,"current_range_meters":12400,"station_id":"ce4bh092rcd13ifvqd20","pricing_plan_id":"cebpf4jnsgd1na2vs0mg"},{"bike_id":"7d73570a-4165-46a4-a4d9-6c3b91773a9c","system_id":"levelo_inurba_marseille","lat":43.22945,"lon":5.35376,"is_reserved":false,"is_disabled":false,"rental_uris":{"android":"levelo://app?vid=7d73570a-4165-46a4-a4d9-6c3b91773a9c","ios":"levelo://app?vid=7d73570a-4165-46a4-a4d9-6c3b91773a9c"},"vehicle_type_id":"4","last_reported":1758557552,"current_range_meters":12400,"station_id":"cpo3532slgdg3j2ikp40","pricing_plan_id":"cebpf4jnsgd1na2vs0mg"},{"bike_id":"51d92c87-aa59-4783-b818-f9c5a7eebd73","system_id":"levelo_inurba_marseille","lat":43.29534,"lon":5.37408,"is_reserved":false,"is_disabled":false,"rental_uris":{"android":"levelo://app?vid=51d92c87-aa59-4783-b818-f9c5a7eebd73","ios":"levelo://app?vid=51d92c87-aa59-4783-b818-f9c5a7eebd73"},"vehicle_type_id":"4","last_reported":1758557552,"current_range_meters":12400,"station_id":"","pricing_plan_id":"cebpf4jnsgd1na2vs0mg"},{"bike_id":"40bdb74e-7bb1-4d2e-a0c5-057b534ce1d8","system_id":"levelo_inurba_marseille","lat":43.26554,"lon":5.37299,"is_reserved":false,"is_disabled":false,"rental_uris":{"android":"levelo://app?vid=40bdb74e-7bb1-4d2e-a0c5-057b534ce1d8","ios":"levelo://app?vid=40bdb74e-7bb1-4d2e-a0c5-057b534ce1d8"},"vehicle_type_id":"4","last_reported":1758557552,"current_range_meters":12400,"station_id":"ce4bhg12rcd13ifvqf70","pricing_plan_id":"cebpf4jnsgd1na2vs0mg"},{"bike_id":"90e14a2d-1c9e-457a-a1d7-7257e3270581","system_id":"levelo_inurba_marseille","lat":43.27979,"lon":5.41639,"is_reserved":false,"is_disabled":true,"rental_uris":{"android":"levelo://app?vid=90e14a2d-1c9e-457a-a1d7-7257e3270581","ios":"levelo://app?vid=90e14a2d-1c9e-457a-a1d7-7257e3270581"},"vehicle_type_id":"4","last_reported":1758557552,"current_range_meters":12400,"station_id":"ce4bho12rcd13ifvqh1g","pricing_plan_id":"cebpf4jnsgd1na2vs0mg"},{"bike_id":"6cd13ee2-c9e2-4546-8587-07dedfc5b0a2","system_id":"levelo_inurba_marseille","lat":43.26943,"lon":5.40262,"is_reserved":false,"is_disabled":false,"rental_uris":{"android":"levelo://app?vid=6cd13ee2-c9e2-4546-8587-07dedfc5b0a2","ios":"levelo://app?vid=6cd13ee2-c9e2-4546-8587-07dedfc5b0a2"},"vehicle_type_id":"4","last_reported":1758557552,"current_range_meters":12400,"station_id":"cjm6bp8fraef2m0cb0m0","pricing_plan_id":"cebpf4jnsgd1na2vs0mg"},{"bike_id":"5416fa80-5478-4b31-ba23-7bc5f7f45770","system_id":"levelo_inurba_marseille","lat":43.25087,"lon":5.39527,"is_reserved":false,"is_disabled":false,"rental_uris":{"android":"levelo://app?vid=5416fa80-5478-4b31-ba23-7bc5f7f45770","ios":"levelo://app?vid=5416fa80-5478-4b31-ba23-7bc5f7f45770"},"vehicle_type_id":"4","last_reported":1758557552,"current_range_meters":12400,"station_id":"ce4bhm12rcd13ifvqgkg","pricing_plan_id":"cebpf4jnsgd1na2vs0mg"},{"bike_id":"94dc763b-5c60-4e8c-a6fc-573bcaf8f7f0","system_id":"levelo_inurba_marseille","lat":43.32441,"lon":5.36527,"is_reserved":false,"is_disabled":false,"rental_uris":{"android":"levelo://app?vid=94dc763b-5c60-4e8c-a6fc-573bcaf8f7f0","ios":"levelo://app?vid=94dc763b-5c60-4e8c-a6fc-573bcaf8f7f0"},"vehicle_type_id":"4","last_reported":1758557552,"current_range_meters":12800,"station_id":"ce4bhs12rcd13ifvqhvg","pricing_plan_id":"cebpf4jnsgd1na2vs0mg"},{"bike_id":"5b84af94-a4d6-4b46-a63f-085ff5681f73","system_id":"levelo_inurba_marseille","lat":43.23042,"lon":5.35495,"is_reserved":false,"is_disabled":false,"rental_uris":{"android":"levelo://app?vid=5b84af94-a4d6-4b46-a63f-085ff5681f73","ios":"levelo://app?vid=5b84af94-a4d6-4b46-a63f-085ff5681f73"},"vehicle_type_id":"4","last_reported":1758557552,"current_range_meters":12400,"station_id":"cpo3342slgdg3j2ifvpg","pricing_plan_id":"cebpf4jnsgd1na2vs0mg"},{"bike_id":"6514b573-b4a1-47c4-b828-cf0e96c28da4","system_id":"levelo_inurba_marseille","lat":43.25346,"lon":5.4219,"is_reserved":false,"is_disabled":false,"rental_uris":{"android":"levelo://app?vid=6514b573-b4a1-47c4-b828-cf0e96c28da4","ios":"levelo://app?vid=6514b573-b4a1-47c4-b828-cf0e96c28da4"},"vehicle_type_id":"4","last_reported":1758557552,"current_range_meters":12800,"station_id":"st_d2m65c5bi1j21697t3ng","pricing_plan_id":"cebpf4jnsgd1na2vs0mg"},{"bike_id":"0b2230e3-adb9-421c-91b1-c113eb397705","system_id":"levelo_inurba_marseille","lat":43.28905,"lon":5.37654,"is_reserved":false,"is_disabled":false,"rental_uris":{"android":"levelo://app?vid=0b2230e3-adb9-421c-91b1-c113eb397705","ios":"levelo://app?vid=0b2230e3-adb9-421c-91b1-c113eb397705"},"vehicle_type_id":"4","last_reported":1758557552,"current_range_meters":13600,"station_id":"","pricing_plan_id":"cebpf4jnsgd1na2vs0mg"},{"bike_id":"4cb2c299-e24e-40ea-8d81-d697a2add8e3","system_id":"levelo_inurba_marseille","lat":43.30924,"lon":5.40137,"is_reserved":false,"is_disabled":false,"rental_uris":{"android":"levelo://app?vid=4cb2c299-e24e-40ea-8d81-d697a2add8e3","ios":"levelo://app?vid=4cb2c299-e24e-40ea-8d81-d697a2add8e3"},"vehicle_type_id":"4","last_reported":1758557552,"current_range_meters":13600,"station_id":"ce4bgvp2rcd13ifvqct0","pricing_plan_id":"cebpf4jnsgd1na2vs0mg"},{"bike_id":"77eeb9b5-0e68-4a7b-b5d1-530ce6c04cd4","system_id":"levelo_inurba_marseille","lat":43.2293,"lon":5.35393,"is_reserved":false,"is_disabled":false,"rental_uris":{"android":"levelo://app?vid=77eeb9b5-0e68-4a7b-b5d1-530ce6c04cd4","ios":"levelo://app?vid=77eeb9b5-0e68-4a7b-b5d1-530ce6c04cd4"},"vehicle_type_id":"4","last_reported":1758557552,"current_range_meters":13600,"station_id":"cpo3532slgdg3j2ikp40","pricing_plan_id":"cebpf4jnsgd1na2vs0mg"},{"bike_id":"f71930d2-a6be-42e3-82ff-207a7b491af7","system_id":"levelo_inurba_marseille","lat":43.31332,"lon":5.39686,"is_reserved":false,"is_disabled":false,"rental_uris":{"android":"levelo://app?vid=f71930d2-a6be-42e3-82ff-207a7b491af7","ios":"levelo://app?vid=f71930d2-a6be-42e3-82ff-207a7b491af7"},"vehicle_type_id":"4","last_reported":1758557552,"current_range_meters":13600,"station_id":"ce4bgvp2rcd13ifvqcu0","pricing_plan_id":"cebpf4jnsgd1na2vs0mg"},{"bike_id":"ee4c50a1-8451-4c35-aabb-3f2f4c401c6f","system_id":"levelo_inurba_marseille","lat":43.3093,"lon":5.40146,"is_reserved":false,"is_disabled":false,"rental_uris":{"android":"levelo://app?vid=ee4c50a1-8451-4c35-aabb-3f2f4c401c6f","ios":"levelo://app?vid=ee4c50a1-8451-4c35-aabb-3f2f4c401c6f"},"vehicle_type_id":"4","last_reported":1758557552,"current_range_meters":13600,"station_id":"ce4bgvp2rcd13ifvqct0","pricing_plan_id":"cebpf4jnsgd1na2vs0mg"},{"bike_id":"4b2696e5-05bf-4aaf-8c47-69df0613c77e","system_id":"levelo_inurba_marseille","lat":43.29893,"lon":5.4367,"is_reserved":false,"is_disabled":false,"rental_uris":{"android":"levelo://app?vid=4b2696e5-05bf-4aaf-8c47-69df0613c77e","ios":"levelo://app?vid=4b2696e5-05bf-4aaf-8c47-69df0613c77e"},"vehicle_type_id":"4","last_reported":1758557552,"current_range_meters":14000,"station_id":"ce4bhpp2rcd13ifvqhfg","pricing_plan_id":"cebpf4jnsgd1na2vs0mg"},{"bike_id":"8673e3ab-46b7-48e9-9e96-3fbdd626a85d","system_id":"levelo_inurba_marseille","lat":43.32345,"lon":5.40615,"is_reserved":false,"is_disabled":false,"rental_uris":{"android":"levelo://app?vid=8673e3ab-46b7-48e9-9e96-3fbdd626a85d","ios":"levelo://app?vid=8673e3ab-46b7-48e9-9e96-3fbdd626a85d"},"vehicle_type_id":"4","last_reported":1758557552,"current_range_meters":14000,"station_id":"ce4bhq92rcd13ifvqhjg","pricing_plan_id":"cebpf4jnsgd1na2vs0mg"},{"bike_id":"94d430e6-52b3-4d21-80c9-c6dd4519a8fb","system_id":"levelo_inurba_marseille","lat":43.31775,"lon":5.38314,"is_reserved":false,"is_disabled":false,"rental_uris":{"android":"levelo://app?vid=94d430e6-52b3-4d21-80c9-c6dd4519a8fb","ios":"levelo://app?vid=94d430e6-52b3-4d21-80c9-c6dd4519a8fb"},"vehicle_type_id":"4","last_reported":1758557552,"current_range_meters":14000,"station_id":"","pricing_plan_id":"cebpf4jnsgd1na2vs0mg"},{"bike_id":"2c9db98d-bc61-4ae6-be1a-0be59cdba8d5","system_id":"levelo_inurba_marseille","lat":43.284174,"lon":5.349854,"is_reserved":false,"is_disabled":false,"rental_uris":{"android":"levelo://app?vid=2c9db98d-bc61-4ae6-be1a-0be59cdba8d5","ios":"levelo://app?vid=2c9db98d-bc61-4ae6-be1a-0be59cdba8d5"},"vehicle_type_id":"4","last_reported":1758557552,"current_range_meters":14000,"station_id":"ce4bhbh2rcd13ifvqepg","pricing_plan_id":"cebpf4jnsgd1na2vs0mg"},{"bike_id":"b2be2404-53eb-4f74-9829-8104df3de106","system_id":"levelo_inurba_marseille","lat":43.3354,"lon":5.35579,"is_reserved":false,"is_disabled":false,"rental_uris":{"android":"levelo://app?vid=b2be2404-53eb-4f74-9829-8104df3de106","ios":"levelo://app?vid=b2be2404-53eb-4f74-9829-8104df3de106"},"vehicle_type_id":"4","last_reported":1758557552,"current_range_meters":14000,"station_id":"","pricing_plan_id":"cebpf4jnsgd1na2vs0mg"},{"bike_id":"7c72b278-2b64-473e-b649-2e8200dd513c","system_id":"levelo_inurba_marseille","lat":43.29532,"lon":5.38549,"is_reserved":false,"is_disabled":false,"rental_uris":{"android":"levelo://app?vid=7c72b278-2b64-473e-b649-2e8200dd513c","ios":"levelo://app?vid=7c72b278-2b64-473e-b649-2e8200dd513c"},"vehicle_type_id":"4","last_reported":1758557552,"current_range_meters":14400,"station_id":"ce4bgih2rcd13ifvqba0","pricing_plan_id":"cebpf4jnsgd1na2vs0mg"},{"bike_id":"c8356cfd-3c9f-4c92-8a60-8d788faafeda","system_id":"levelo_inurba_marseille","lat":43.2924,"lon":5.40937,"is_reserved":false,"is_disabled":false,"rental_uris":{"android":"levelo://app?vid=c8356cfd-3c9f-4c92-8a60-8d788faafeda","ios":"levelo://app?vid=c8356cfd-3c9f-4c92-8a60-8d788faafeda"},"vehicle_type_id":"4","last_reported":1758557552,"current_range_meters":14400,"station_id":"ce4bh192rcd13ifvqdc0","pricing_plan_id":"cebpf4jnsgd1na2vs0mg"},{"bike_id":"87569cf1-d229-4ca9-92e2-5603b8c897c1","system_id":"levelo_inurba_marseille","lat":43.30089,"lon":5.39075,"is_reserved":false,"is_disabled":false,"rental_uris":{"android":"levelo://app?vid=87569cf1-d229-4ca9-92e2-5603b8c897c1","ios":"levelo://app?vid=87569cf1-d229-4ca9-92e2-5603b8c897c1"},"vehicle_type_id":"4","last_reported":1758557552,"current_range_meters":14400,"station_id":"ce4bh192rcd13ifvqdb0","pricing_plan_id":"cebpf4jnsgd1na2vs0mg"},{"bike_id":"81301e18-acd8-446e-a6c0-579c083e6cda","system_id":"levelo_inurba_marseille","lat":43.30957,"lon":5.390356,"is_reserved":false,"is_disabled":false,"rental_uris":{"android":"levelo://app?vid=81301e18-acd8-446e-a6c0-579c083e6cda","ios":"levelo://app?vid=81301e18-acd8-446e-a6c0-579c083e6cda"},"vehicle_type_id":"4","last_reported":1758557552,"current_range_meters":14400,"station_id":"ce4bgup2rcd13ifvqco0","pricing_plan_id":"cebpf4jnsgd1na2vs0mg"},{"bike_id":"a8173706-8534-43a1-9d9b-728c64fdfe61","system_id":"levelo_inurba_marseille","lat":43.2721,"lon":5.39221,"is_reserved":false,"is_disabled":true,"rental_uris":{"android":"levelo://app?vid=a8173706-8534-43a1-9d9b-728c64fdfe61","ios":"levelo://app?vid=a8173706-8534-43a1-9d9b-728c64fdfe61"},"vehicle_type_id":"4","last_reported":1758557552,"current_range_meters":14800,"station_id":"ce4bhhp2rcd13ifvqfm0","pricing_plan_id":"cebpf4jnsgd1na2vs0mg"},{"bike_id":"eb14e0c2-3194-45ec-8471-2fc50af87dad","system_id":"levelo_inurba_marseille","lat":43.22932,"lon":5.35376,"is_reserved":false,"is_disabled":false,"rental_uris":{"android":"levelo://app?vid=eb14e0c2-3194-45ec-8471-2fc50af87dad","ios":"levelo://app?vid=eb14e0c2-3194-45ec-8471-2fc50af87dad"},"vehicle_type_id":"4","last_reported":1758557552,"current_range_meters":14800,"station_id":"cpo3532slgdg3j2ikp40","pricing_plan_id":"cebpf4jnsgd1na2vs0mg"},{"bike_id":"ef75d15d-c28a-4fe7-853a-ed887e41d629","system_id":"levelo_inurba_marseille","lat":43.21749,"lon":5.34601,"is_reserved":false,"is_disabled":false,"rental_uris":{"android":"levelo://app?vid=ef75d15d-c28a-4fe7-853a-ed887e41d629","ios":"levelo://app?vid=ef75d15d-c28a-4fe7-853a-ed887e41d629"},"vehicle_type_id":"4","last_reported":1758557552,"current_range_meters":14800,"station_id":"st_cvj6r9ubvosntc0bgbag","pricing_plan_id":"cebpf4jnsgd1na2vs0mg"},{"bike_id":"f01b314c-c19a-40f5-8360-2c82c572e221","system_id":"levelo_inurba_marseille","lat":43.31283,"lon":5.40121,"is_reserved":false,"is_disabled":false,"rental_uris":{"android":"levelo://app?vid=f01b314c-c19a-40f5-8360-2c82c572e221","ios":"levelo://app?vid=f01b314c-c19a-40f5-8360-2c82c572e221"},"vehicle_type_id":"4","last_reported":1758557552,"current_range_meters":14800,"station_id":"ce4bh092rcd13ifvqd30","pricing_plan_id":"cebpf4jnsgd1na2vs0mg"},{"bike_id":"62a7f88f-2e40-4e79-92a1-5e158e157872","system_id":"levelo_inurba_marseille","lat":43.28036,"lon":5.3694,"is_reserved":false,"is_disabled":false,"rental_uris":{"android":"levelo://app?vid=62a7f88f-2e40-4e79-92a1-5e158e157872","ios":"levelo://app?vid=62a7f88f-2e40-4e79-92a1-5e158e157872"},"vehicle_type_id":"4","last_reported":1758557552,"current_range_meters":14800,"station_id":"ce4bha12rcd13ifvqef0","pricing_plan_id":"cebpf4jnsgd1na2vs0mg"},{"bike_id":"312b8053-3284-4945-9cc9-9c96cdfe747a","system_id":"levelo_inurba_marseille","lat":43.267908,"lon":5.402542,"is_reserved":false,"is_disabled":false,"rental_uris":{"android":"levelo://app?vid=312b8053-3284-4945-9cc9-9c96cdfe747a","ios":"levelo://app?vid=312b8053-3284-4945-9cc9-9c96cdfe747a"},"vehicle_type_id":"4","last_reported":1758557552,"current_range_meters":15200,"station_id":"ce501612rcd8frsf0b60","pricing_plan_id":"cebpf4jnsgd1na2vs0mg"},{"bike_id":"34072093-f9b6-4017-998e-95b181d82c91","system_id":"levelo_inurba_marseille","lat":43.29436,"lon":5.38829,"is_reserved":false,"is_disabled":false,"rental_uris":{"android":"levelo://app?vid=34072093-f9b6-4017-998e-95b181d82c91","ios":"levelo://app?vid=34072093-f9b6-4017-998e-95b181d82c91"},"vehicle_type_id":"4","last_reported":1758557552,"current_range_meters":15200,"station_id":"","pricing_plan_id":"cebpf4jnsgd1na2vs0mg"},{"bike_id":"eba01587-aeed-4123-b2ce-9abc98879f91","system_id":"levelo_inurba_marseille","lat":43.270747,"lon":5.422811,"is_reserved":false,"is_disabled":true,"rental_uris":{"android":"levelo://app?vid=eba01587-aeed-4123-b2ce-9abc98879f91","ios":"levelo://app?vid=eba01587-aeed-4123-b2ce-9abc98879f91"},"vehicle_type_id":"4","last_reported":1758557552,"current_range_meters":16000,"station_id":"","pricing_plan_id":"cebpf4jnsgd1na2vs0mg"},{"bike_id":"6c2ccec1-b13f-4ca6-9191-d1ab1fc484ed","system_id":"levelo_inurba_marseille","lat":43.22248,"lon":5.34601,"is_reserved":false,"is_disabled":false,"rental_uris":{"android":"levelo://app?vid=6c2ccec1-b13f-4ca6-9191-d1ab1fc484ed","ios":"levelo://app?vid=6c2ccec1-b13f-4ca6-9191-d1ab1fc484ed"},"vehicle_type_id":"4","last_reported":1758557552,"current_range_meters":16000,"station_id":"","pricing_plan_id":"cebpf4jnsgd1na2vs0mg"},{"bike_id":"75aab3be-272c-40dd-839c-82de4a155771","system_id":"levelo_inurba_marseille","lat":43.27942,"lon":5.38747,"is_reserved":false,"is_disabled":false,"rental_uris":{"android":"levelo://app?vid=75aab3be-272c-40dd-839c-82de4a155771","ios":"levelo://app?vid=75aab3be-272c-40dd-839c-82de4a155771"},"vehicle_type_id":"4","last_reported":1758557552,"current_range_meters":16000,"station_id":"ce4bhg12rcd13ifvqf80","pricing_plan_id":"cebpf4jnsgd1na2vs0mg"},{"bike_id":"4519ded0-f3b9-42bd-af35-e69456d100e8","system_id":"levelo_inurba_marseille","lat":43.29287,"lon":5.38356,"is_reserved":false,"is_disabled":false,"rental_uris":{"android":"levelo://app?vid=4519ded0-f3b9-42bd-af35-e69456d100e8","ios":"levelo://app?vid=4519ded0-f3b9-42bd-af35-e69456d100e8"},"vehicle_type_id":"4","last_reported":1758557552,"current_range_meters":16000,"station_id":"","pricing_plan_id":"cebpf4jnsgd1na2vs0mg"},{"bike_id":"f6643338-8557-4c14-a45f-5c714f3ab079","system_id":"levelo_inurba_marseille","lat":43.31708,"lon":5.43713,"is_reserved":false,"is_disabled":false,"rental_uris":{"android":"levelo://app?vid=f6643338-8557-4c14-a45f-5c714f3ab079","ios":"levelo://app?vid=f6643338-8557-4c14-a45f-5c714f3ab079"},"vehicle_type_id":"4","last_reported":1758557552,"current_range_meters":16000,"station_id":"ce4bhp92rcd13ifvqhcg","pricing_plan_id":"cebpf4jnsgd1na2vs0mg"},{"bike_id":"1b015da8-ba87-4aac-8ab6-3550f521c50b","system_id":"levelo_inurba_marseille","lat":43.31485,"lon":5.37314,"is_reserved":false,"is_disabled":false,"rental_uris":{"android":"levelo://app?vid=1b015da8-ba87-4aac-8ab6-3550f521c50b","ios":"levelo://app?vid=1b015da8-ba87-4aac-8ab6-3550f521c50b"},"vehicle_type_id":"4","last_reported":1758557552,"current_range_meters":16000,"station_id":"ce4bgt12rcd13ifvqcd0","pricing_plan_id":"cebpf4jnsgd1na2vs0mg"},{"bike_id":"c4349acd-8478-4731-95c3-84be594f529f","system_id":"levelo_inurba_marseille","lat":43.309247,"lon":5.40144,"is_reserved":false,"is_disabled":false,"rental_uris":{"android":"levelo://app?vid=c4349acd-8478-4731-95c3-84be594f529f","ios":"levelo://app?vid=c4349acd-8478-4731-95c3-84be594f529f"},"vehicle_type_id":"4","last_reported":1758557552,"current_range_meters":16400,"station_id":"ce4bgvp2rcd13ifvqct0","pricing_plan_id":"cebpf4jnsgd1na2vs0mg"},{"bike_id":"5337dcdc-c6f5-44ae-a466-a1ebe14dfbb3","system_id":"levelo_inurba_marseille","lat":43.24176,"lon":5.36399,"is_reserved":false,"is_disabled":false,"rental_uris":{"android":"levelo://app?vid=5337dcdc-c6f5-44ae-a466-a1ebe14dfbb3","ios":"levelo://app?vid=5337dcdc-c6f5-44ae-a466-a1ebe14dfbb3"},"vehicle_type_id":"4","last_reported":1758557552,"current_range_meters":16400,"station_id":"cpo36qri1sfpv3e86is0","pricing_plan_id":"cebpf4jnsgd1na2vs0mg"},{"bike_id":"7c30feec-ff53-4e43-b94e-b8d9a1398ad9","system_id":"levelo_inurba_marseille","lat":43.292633,"lon":5.407981,"is_reserved":false,"is_disabled":false,"rental_uris":{"android":"levelo://app?vid=7c30feec-ff53-4e43-b94e-b8d9a1398ad9","ios":"levelo://app?vid=7c30feec-ff53-4e43-b94e-b8d9a1398ad9"},"vehicle_type_id":"4","last_reported":1758557552,"current_range_meters":16400,"station_id":"","pricing_plan_id":"cebpf4jnsgd1na2vs0mg"},{"bike_id":"b825384e-aa67-4b48-9f76-309800cbf8f5","system_id":"levelo_inurba_marseille","lat":43.243906,"lon":5.370892,"is_reserved":false,"is_disabled":false,"rental_uris":{"android":"levelo://app?vid=b825384e-aa67-4b48-9f76-309800cbf8f5","ios":"levelo://app?vid=b825384e-aa67-4b48-9f76-309800cbf8f5"},"vehicle_type_id":"4","last_reported":1758557552,"current_range_meters":16800,"station_id":"ce4bhhh2rcd13ifvqfk0","pricing_plan_id":"cebpf4jnsgd1na2vs0mg"},{"bike_id":"8aa1f4a5-ce10-4dc8-ad09-652566773495","system_id":"levelo_inurba_marseille","lat":43.31218,"lon":5.36881,"is_reserved":false,"is_disabled":true,"rental_uris":{"android":"levelo://app?vid=8aa1f4a5-ce10-4dc8-ad09-652566773495","ios":"levelo://app?vid=8aa1f4a5-ce10-4dc8-ad09-652566773495"},"vehicle_type_id":"4","last_reported":1758557552,"current_range_meters":16400,"station_id":"ce4bgl92rcd13ifvqbq0","pricing_plan_id":"cebpf4jnsgd1na2vs0mg"},{"bike_id":"369a4a32-3c2a-46df-8a3b-fe3cf6a38d3a","system_id":"levelo_inurba_marseille","lat":43.29167,"lon":5.37162,"is_reserved":false,"is_disabled":false,"rental_uris":{"android":"levelo://app?vid=369a4a32-3c2a-46df-8a3b-fe3cf6a38d3a","ios":"levelo://app?vid=369a4a32-3c2a-46df-8a3b-fe3cf6a38d3a"},"vehicle_type_id":"4","last_reported":1758557552,"current_range_meters":16400,"station_id":"ce4bha92rcd13ifvqeh0","pricing_plan_id":"cebpf4jnsgd1na2vs0mg"},{"bike_id":"c9996619-64a4-4078-a832-1f78fed3d4ec","system_id":"levelo_inurba_marseille","lat":43.31281,"lon":5.40169,"is_reserved":false,"is_disabled":false,"rental_uris":{"android":"levelo://app?vid=c9996619-64a4-4078-a832-1f78fed3d4ec","ios":"levelo://app?vid=c9996619-64a4-4078-a832-1f78fed3d4ec"},"vehicle_type_id":"4","last_reported":1758557552,"current_range_meters":16800,"station_id":"ce4bh092rcd13ifvqd30","pricing_plan_id":"cebpf4jnsgd1na2vs0mg"},{"bike_id":"5194b071-d18f-46eb-a9c7-22201e946ad6","system_id":"levelo_inurba_marseille","lat":43.28262,"lon":5.3506,"is_reserved":false,"is_disabled":false,"rental_uris":{"android":"levelo://app?vid=5194b071-d18f-46eb-a9c7-22201e946ad6","ios":"levelo://app?vid=5194b071-d18f-46eb-a9c7-22201e946ad6"},"vehicle_type_id":"4","last_reported":1758557552,"current_range_meters":16800,"station_id":"ce4bhbp2rcd13ifvqerg","pricing_plan_id":"cebpf4jnsgd1na2vs0mg"},{"bike_id":"e13b6690-2e78-494e-9a53-aa900d18e8ff","system_id":"levelo_inurba_marseille","lat":43.31713,"lon":5.37793,"is_reserved":false,"is_disabled":false,"rental_uris":{"android":"levelo://app?vid=e13b6690-2e78-494e-9a53-aa900d18e8ff","ios":"levelo://app?vid=e13b6690-2e78-494e-9a53-aa900d18e8ff"},"vehicle_type_id":"4","last_reported":1758557552,"current_range_meters":16800,"station_id":"ce4bgth2rcd13ifvqch0","pricing_plan_id":"cebpf4jnsgd1na2vs0mg"},{"bike_id":"5fa36449-7b8d-4f5d-8689-02c2ed78face","system_id":"levelo_inurba_marseille","lat":43.28849,"lon":5.35844,"is_reserved":false,"is_disabled":false,"rental_uris":{"android":"levelo://app?vid=5fa36449-7b8d-4f5d-8689-02c2ed78face","ios":"levelo://app?vid=5fa36449-7b8d-4f5d-8689-02c2ed78face"},"vehicle_type_id":"4","last_reported":1758557552,"current_range_meters":16800,"station_id":"ce4bhb12rcd13ifvqem0","pricing_plan_id":"cebpf4jnsgd1na2vs0mg"},{"bike_id":"0b53635f-f17e-45ad-81c1-5680b91c3102","system_id":"levelo_inurba_marseille","lat":43.32491,"lon":5.36572,"is_reserved":false,"is_disabled":false,"rental_uris":{"android":"levelo://app?vid=0b53635f-f17e-45ad-81c1-5680b91c3102","ios":"levelo://app?vid=0b53635f-f17e-45ad-81c1-5680b91c3102"},"vehicle_type_id":"4","last_reported":1758557552,"current_range_meters":16800,"station_id":"ce4bhs12rcd13ifvqhvg","pricing_plan_id":"cebpf4jnsgd1na2vs0mg"},{"bike_id":"6c1bbe01-d68b-4b98-92fb-a792b3de45b5","system_id":"levelo_inurba_marseille","lat":43.29003,"lon":5.3562,"is_reserved":false,"is_disabled":false,"rental_uris":{"android":"levelo://app?vid=6c1bbe01-d68b-4b98-92fb-a792b3de45b5","ios":"levelo://app?vid=6c1bbe01-d68b-4b98-92fb-a792b3de45b5"},"vehicle_type_id":"4","last_reported":1758557552,"current_range_meters":16800,"station_id":"ce4bhb92rcd13ifvqen0","pricing_plan_id":"cebpf4jnsgd1na2vs0mg"},{"bike_id":"84020e1a-7a52-4351-bf78-403b4b28b163","system_id":"levelo_inurba_marseille","lat":43.28837,"lon":5.35845,"is_reserved":false,"is_disabled":false,"rental_uris":{"android":"levelo://app?vid=84020e1a-7a52-4351-bf78-403b4b28b163","ios":"levelo://app?vid=84020e1a-7a52-4351-bf78-403b4b28b163"},"vehicle_type_id":"4","last_reported":1758557552,"current_range_meters":17200,"station_id":"ce4bhb12rcd13ifvqem0","pricing_plan_id":"cebpf4jnsgd1na2vs0mg"},{"bike_id":"da64a509-72ad-45f0-a9bf-3cc012993de2","system_id":"levelo_inurba_marseille","lat":43.29706,"lon":5.36618,"is_reserved":false,"is_disabled":true,"rental_uris":{"android":"levelo://app?vid=da64a509-72ad-45f0-a9bf-3cc012993de2","ios":"levelo://app?vid=da64a509-72ad-45f0-a9bf-3cc012993de2"},"vehicle_type_id":"4","last_reported":1758557552,"current_range_meters":17200,"station_id":"ce4bgn12rcd13ifvqbt0","pricing_plan_id":"cebpf4jnsgd1na2vs0mg"},{"bike_id":"bfacf709-77aa-4b7e-b8c9-1c46a3315b19","system_id":"levelo_inurba_marseille","lat":43.29296,"lon":5.37464,"is_reserved":false,"is_disabled":false,"rental_uris":{"android":"levelo://app?vid=bfacf709-77aa-4b7e-b8c9-1c46a3315b19","ios":"levelo://app?vid=bfacf709-77aa-4b7e-b8c9-1c46a3315b19"},"vehicle_type_id":"4","last_reported":1758557552,"current_range_meters":17200,"station_id":"ce4bgi12rcd13ifvqb70","pricing_plan_id":"cebpf4jnsgd1na2vs0mg"},{"bike_id":"85bd1818-d4f9-450c-81e9-15110fd35e22","system_id":"levelo_inurba_marseille","lat":43.2318,"lon":5.39986,"is_reserved":false,"is_disabled":false,"rental_uris":{"android":"levelo://app?vid=85bd1818-d4f9-450c-81e9-15110fd35e22","ios":"levelo://app?vid=85bd1818-d4f9-450c-81e9-15110fd35e22"},"vehicle_type_id":"4","last_reported":1758557552,"current_range_meters":17200,"station_id":"ce4bhn12rcd13ifvqgqg","pricing_plan_id":"cebpf4jnsgd1na2vs0mg"},{"bike_id":"912fc427-3aa2-4fa7-a83d-3f2956b972bb","system_id":"levelo_inurba_marseille","lat":43.34051,"lon":5.40134,"is_reserved":false,"is_disabled":false,"rental_uris":{"android":"levelo://app?vid=912fc427-3aa2-4fa7-a83d-3f2956b972bb","ios":"levelo://app?vid=912fc427-3aa2-4fa7-a83d-3f2956b972bb"},"vehicle_type_id":"4","last_reported":1758557552,"current_range_meters":17200,"station_id":"","pricing_plan_id":"cebpf4jnsgd1na2vs0mg"},{"bike_id":"3e2dbd5a-4fa4-4a21-968c-085b811519d1","system_id":"levelo_inurba_marseille","lat":43.29255,"lon":5.40918,"is_reserved":false,"is_disabled":false,"rental_uris":{"android":"levelo://app?vid=3e2dbd5a-4fa4-4a21-968c-085b811519d1","ios":"levelo://app?vid=3e2dbd5a-4fa4-4a21-968c-085b811519d1"},"vehicle_type_id":"4","last_reported":1758557552,"current_range_meters":17200,"station_id":"ce4bh192rcd13ifvqdc0","pricing_plan_id":"cebpf4jnsgd1na2vs0mg"},{"bike_id":"0c1de4a5-0932-4a80-8824-4be818a05e7d","system_id":"levelo_inurba_marseille","lat":43.28075,"lon":5.3966,"is_reserved":false,"is_disabled":false,"rental_uris":{"android":"levelo://app?vid=0c1de4a5-0932-4a80-8824-4be818a05e7d","ios":"levelo://app?vid=0c1de4a5-0932-4a80-8824-4be818a05e7d"},"vehicle_type_id":"4","last_reported":1758557552,"current_range_meters":17200,"station_id":"ce4bho12rcd13ifvqh2g","pricing_plan_id":"cebpf4jnsgd1na2vs0mg"},{"bike_id":"4289f147-3fa1-47c9-be23-03ad2de17af0","system_id":"levelo_inurba_marseille","lat":43.30923,"lon":5.40147,"is_reserved":false,"is_disabled":false,"rental_uris":{"android":"levelo://app?vid=4289f147-3fa1-47c9-be23-03ad2de17af0","ios":"levelo://app?vid=4289f147-3fa1-47c9-be23-03ad2de17af0"},"vehicle_type_id":"4","last_reported":1758557552,"current_range_meters":17600,"station_id":"ce4bgvp2rcd13ifvqct0","pricing_plan_id":"cebpf4jnsgd1na2vs0mg"},{"bike_id":"2a2f1ce0-5eb2-4ab6-a692-64d9649dcb94","system_id":"levelo_inurba_marseille","lat":43.22572,"lon":5.41602,"is_reserved":false,"is_disabled":false,"rental_uris":{"android":"levelo://app?vid=2a2f1ce0-5eb2-4ab6-a692-64d9649dcb94","ios":"levelo://app?vid=2a2f1ce0-5eb2-4ab6-a692-64d9649dcb94"},"vehicle_type_id":"4","last_reported":1758557552,"current_range_meters":17600,"station_id":"st_d2o4gvlbi1j2169b742g","pricing_plan_id":"cebpf4jnsgd1na2vs0mg"},{"bike_id":"e392b333-8951-4339-9781-57a791580135","system_id":"levelo_inurba_marseille","lat":43.29709,"lon":5.36596,"is_reserved":false,"is_disabled":false,"rental_uris":{"android":"levelo://app?vid=e392b333-8951-4339-9781-57a791580135","ios":"levelo://app?vid=e392b333-8951-4339-9781-57a791580135"},"vehicle_type_id":"4","last_reported":1758557552,"current_range_meters":17600,"station_id":"ce4bgn12rcd13ifvqbt0","pricing_plan_id":"cebpf4jnsgd1na2vs0mg"},{"bike_id":"3a2f0200-19f6-4563-8356-bbb5c698396a","system_id":"levelo_inurba_marseille","lat":43.21757,"lon":5.34605,"is_reserved":false,"is_disabled":false,"rental_uris":{"android":"levelo://app?vid=3a2f0200-19f6-4563-8356-bbb5c698396a","ios":"levelo://app?vid=3a2f0200-19f6-4563-8356-bbb5c698396a"},"vehicle_type_id":"4","last_reported":1758557552,"current_range_meters":17600,"station_id":"st_cvj6r9ubvosntc0bgbag","pricing_plan_id":"cebpf4jnsgd1na2vs0mg"},{"bike_id":"5965ce8a-01c7-4939-ba91-3d4fe162fff8","system_id":"levelo_inurba_marseille","lat":43.27816,"lon":5.40714,"is_reserved":false,"is_disabled":false,"rental_uris":{"android":"levelo://app?vid=5965ce8a-01c7-4939-ba91-3d4fe162fff8","ios":"levelo://app?vid=5965ce8a-01c7-4939-ba91-3d4fe162fff8"},"vehicle_type_id":"4","last_reported":1758557552,"current_range_meters":17600,"station_id":"ce4bhnh2rcd13ifvqgtg","pricing_plan_id":"cebpf4jnsgd1na2vs0mg"},{"bike_id":"ffded793-8586-4a80-b96b-49ec4d430bd0","system_id":"levelo_inurba_marseille","lat":43.30552,"lon":5.39837,"is_reserved":false,"is_disabled":false,"rental_uris":{"android":"levelo://app?vid=ffded793-8586-4a80-b96b-49ec4d430bd0","ios":"levelo://app?vid=ffded793-8586-4a80-b96b-49ec4d430bd0"},"vehicle_type_id":"4","last_reported":1758557552,"current_range_meters":18000,"station_id":"","pricing_plan_id":"cebpf4jnsgd1na2vs0mg"},{"bike_id":"31666c96-d546-4ea1-8860-ad54b2e89f98","system_id":"levelo_inurba_marseille","lat":43.29531,"lon":5.38555,"is_reserved":false,"is_disabled":false,"rental_uris":{"android":"levelo://app?vid=31666c96-d546-4ea1-8860-ad54b2e89f98","ios":"levelo://app?vid=31666c96-d546-4ea1-8860-ad54b2e89f98"},"vehicle_type_id":"4","last_reported":1758557552,"current_range_meters":17600,"station_id":"ce4bgih2rcd13ifvqba0","pricing_plan_id":"cebpf4jnsgd1na2vs0mg"},{"bike_id":"c32954b4-dc21-47f9-b299-26cf4e28a2d8","system_id":"levelo_inurba_marseille","lat":43.28417,"lon":5.37518,"is_reserved":false,"is_disabled":false,"rental_uris":{"android":"levelo://app?vid=c32954b4-dc21-47f9-b299-26cf4e28a2d8","ios":"levelo://app?vid=c32954b4-dc21-47f9-b299-26cf4e28a2d8"},"vehicle_type_id":"4","last_reported":1758557552,"current_range_meters":18000,"station_id":"ce4bh412rcd13ifvqds0","pricing_plan_id":"cebpf4jnsgd1na2vs0mg"},{"bike_id":"0d93d80f-23fc-4b4f-918d-28fde704208b","system_id":"levelo_inurba_marseille","lat":43.24175,"lon":5.36393,"is_reserved":false,"is_disabled":false,"rental_uris":{"android":"levelo://app?vid=0d93d80f-23fc-4b4f-918d-28fde704208b","ios":"levelo://app?vid=0d93d80f-23fc-4b4f-918d-28fde704208b"},"vehicle_type_id":"4","last_reported":1758557552,"current_range_meters":18000,"station_id":"cpo36qri1sfpv3e86is0","pricing_plan_id":"cebpf4jnsgd1na2vs0mg"},{"bike_id":"3ab13e97-2cd7-4296-8e5e-a271a3e2b066","system_id":"levelo_inurba_marseille","lat":43.24547,"lon":5.3953,"is_reserved":false,"is_disabled":false,"rental_uris":{"android":"levelo://app?vid=3ab13e97-2cd7-4296-8e5e-a271a3e2b066","ios":"levelo://app?vid=3ab13e97-2cd7-4296-8e5e-a271a3e2b066"},"vehicle_type_id":"4","last_reported":1758557552,"current_range_meters":17600,"station_id":"ce4bhlp2rcd13ifvqgjg","pricing_plan_id":"cebpf4jnsgd1na2vs0mg"},{"bike_id":"8c6ec981-673e-4087-a438-e08d5ca5d9c1","system_id":"levelo_inurba_marseille","lat":43.24167,"lon":5.36399,"is_reserved":false,"is_disabled":false,"rental_uris":{"android":"levelo://app?vid=8c6ec981-673e-4087-a438-e08d5ca5d9c1","ios":"levelo://app?vid=8c6ec981-673e-4087-a438-e08d5ca5d9c1"},"vehicle_type_id":"4","last_reported":1758557552,"current_range_meters":18000,"station_id":"cpo36qri1sfpv3e86is0","pricing_plan_id":"cebpf4jnsgd1na2vs0mg"},{"bike_id":"9d43eb76-f133-4494-8907-05e1d942a5e5","system_id":"levelo_inurba_marseille","lat":43.24811,"lon":5.37459,"is_reserved":false,"is_disabled":false,"rental_uris":{"android":"levelo://app?vid=9d43eb76-f133-4494-8907-05e1d942a5e5","ios":"levelo://app?vid=9d43eb76-f133-4494-8907-05e1d942a5e5"},"vehicle_type_id":"4","last_reported":1758557552,"current_range_meters":17600,"station_id":"ce4bhgh2rcd13ifvqfb0","pricing_plan_id":"cebpf4jnsgd1na2vs0mg"},{"bike_id":"1964a7c4-f341-4518-b3f3-4cff78a650f1","system_id":"levelo_inurba_marseille","lat":43.32476,"lon":5.36572,"is_reserved":false,"is_disabled":false,"rental_uris":{"android":"levelo://app?vid=1964a7c4-f341-4518-b3f3-4cff78a650f1","ios":"levelo://app?vid=1964a7c4-f341-4518-b3f3-4cff78a650f1"},"vehicle_type_id":"4","last_reported":1758557552,"current_range_meters":18800,"station_id":"ce4bhs12rcd13ifvqhvg","pricing_plan_id":"cebpf4jnsgd1na2vs0mg"},{"bike_id":"43d57fd4-047e-4ac8-97e5-ec9b96239472","system_id":"levelo_inurba_marseille","lat":43.33231,"lon":5.39821,"is_reserved":false,"is_disabled":false,"rental_uris":{"android":"levelo://app?vid=43d57fd4-047e-4ac8-97e5-ec9b96239472","ios":"levelo://app?vid=43d57fd4-047e-4ac8-97e5-ec9b96239472"},"vehicle_type_id":"4","last_reported":1758557552,"current_range_meters":18000,"station_id":"","pricing_plan_id":"cebpf4jnsgd1na2vs0mg"},{"bike_id":"7c0482c3-9253-4d1b-b4f3-be55cdb7721d","system_id":"levelo_inurba_marseille","lat":43.33757,"lon":5.37466,"is_reserved":false,"is_disabled":false,"rental_uris":{"android":"levelo://app?vid=7c0482c3-9253-4d1b-b4f3-be55cdb7721d","ios":"levelo://app?vid=7c0482c3-9253-4d1b-b4f3-be55cdb7721d"},"vehicle_type_id":"4","last_reported":1758557552,"current_range_meters":18800,"station_id":"","pricing_plan_id":"cebpf4jnsgd1na2vs0mg"},{"bike_id":"5e8b6115-edc8-423e-853e-3043424fd4c2","system_id":"levelo_inurba_marseille","lat":43.2718,"lon":5.40991,"is_reserved":false,"is_disabled":false,"rental_uris":{"android":"levelo://app?vid=5e8b6115-edc8-423e-853e-3043424fd4c2","ios":"levelo://app?vid=5e8b6115-edc8-423e-853e-3043424fd4c2"},"vehicle_type_id":"4","last_reported":1758557552,"current_range_meters":18800,"station_id":"ce4bhl12rcd13ifvqgf0","pricing_plan_id":"cebpf4jnsgd1na2vs0mg"},{"bike_id":"9b6eabed-c8cd-42c5-a1a7-34f2e19a93ae","system_id":"levelo_inurba_marseille","lat":43.231793,"lon":5.399906,"is_reserved":false,"is_disabled":false,"rental_uris":{"android":"levelo://app?vid=9b6eabed-c8cd-42c5-a1a7-34f2e19a93ae","ios":"levelo://app?vid=9b6eabed-c8cd-42c5-a1a7-34f2e19a93ae"},"vehicle_type_id":"4","last_reported":1758557552,"current_range_meters":18800,"station_id":"ce4bhn12rcd13ifvqgqg","pricing_plan_id":"cebpf4jnsgd1na2vs0mg"},{"bike_id":"57263d1e-94f2-43f3-9459-55163f35b24b","system_id":"levelo_inurba_marseille","lat":43.30929,"lon":5.4015,"is_reserved":false,"is_disabled":false,"rental_uris":{"android":"levelo://app?vid=57263d1e-94f2-43f3-9459-55163f35b24b","ios":"levelo://app?vid=57263d1e-94f2-43f3-9459-55163f35b24b"},"vehicle_type_id":"4","last_reported":1758557552,"current_range_meters":19200,"station_id":"ce4bgvp2rcd13ifvqct0","pricing_plan_id":"cebpf4jnsgd1na2vs0mg"},{"bike_id":"d24dd466-02ce-4a40-865e-e4b5699b5ac4","system_id":"levelo_inurba_marseille","lat":43.292636,"lon":5.384441,"is_reserved":false,"is_disabled":false,"rental_uris":{"android":"levelo://app?vid=d24dd466-02ce-4a40-865e-e4b5699b5ac4","ios":"levelo://app?vid=d24dd466-02ce-4a40-865e-e4b5699b5ac4"},"vehicle_type_id":"4","last_reported":1758557552,"current_range_meters":19200,"station_id":"","pricing_plan_id":"cebpf4jnsgd1na2vs0mg"},{"bike_id":"06a24bce-028d-4b4a-b4a3-d45296145db5","system_id":"levelo_inurba_marseille","lat":43.28425,"lon":5.34991,"is_reserved":false,"is_disabled":true,"rental_uris":{"android":"levelo://app?vid=06a24bce-028d-4b4a-b4a3-d45296145db5","ios":"levelo://app?vid=06a24bce-028d-4b4a-b4a3-d45296145db5"},"vehicle_type_id":"4","last_reported":1758557552,"current_range_meters":19200,"station_id":"ce4bhch2rcd13ifvqeug","pricing_plan_id":"cebpf4jnsgd1na2vs0mg"},{"bike_id":"315df36b-57a6-4c3f-9de4-ac73c15e0d22","system_id":"levelo_inurba_marseille","lat":43.3235,"lon":5.36737,"is_reserved":false,"is_disabled":false,"rental_uris":{"android":"levelo://app?vid=315df36b-57a6-4c3f-9de4-ac73c15e0d22","ios":"levelo://app?vid=315df36b-57a6-4c3f-9de4-ac73c15e0d22"},"vehicle_type_id":"4","last_reported":1758557552,"current_range_meters":19200,"station_id":"ce4bhsh2rcd13ifvqi2g","pricing_plan_id":"cebpf4jnsgd1na2vs0mg"},{"bike_id":"e87c3941-77f0-488e-b36d-9b791879dd03","system_id":"levelo_inurba_marseille","lat":43.29893,"lon":5.38901,"is_reserved":false,"is_disabled":false,"rental_uris":{"android":"levelo://app?vid=e87c3941-77f0-488e-b36d-9b791879dd03","ios":"levelo://app?vid=e87c3941-77f0-488e-b36d-9b791879dd03"},"vehicle_type_id":"4","last_reported":1758557552,"current_range_meters":18800,"station_id":"ce4bh392rcd13ifvqdl0","pricing_plan_id":"cebpf4jnsgd1na2vs0mg"},{"bike_id":"f5f446ea-231a-467f-a9b9-71273e179a24","system_id":"levelo_inurba_marseille","lat":43.30209,"lon":5.39463,"is_reserved":false,"is_disabled":true,"rental_uris":{"android":"levelo://app?vid=f5f446ea-231a-467f-a9b9-71273e179a24","ios":"levelo://app?vid=f5f446ea-231a-467f-a9b9-71273e179a24"},"vehicle_type_id":"4","last_reported":1758557552,"current_range_meters":19600,"station_id":"ce4bh0p2rcd13ifvqd70","pricing_plan_id":"cebpf4jnsgd1na2vs0mg"},{"bike_id":"dddca5ef-4a33-499b-936a-6d8e6136a417","system_id":"levelo_inurba_marseille","lat":43.22945,"lon":5.3535,"is_reserved":false,"is_disabled":false,"rental_uris":{"android":"levelo://app?vid=dddca5ef-4a33-499b-936a-6d8e6136a417","ios":"levelo://app?vid=dddca5ef-4a33-499b-936a-6d8e6136a417"},"vehicle_type_id":"4","last_reported":1758557552,"current_range_meters":19600,"station_id":"cpo3532slgdg3j2ikp40","pricing_plan_id":"cebpf4jnsgd1na2vs0mg"},{"bike_id":"08290126-3e1a-461a-92dd-00654aee402b","system_id":"levelo_inurba_marseille","lat":43.23063,"lon":5.35492,"is_reserved":false,"is_disabled":false,"rental_uris":{"android":"levelo://app?vid=08290126-3e1a-461a-92dd-00654aee402b","ios":"levelo://app?vid=08290126-3e1a-461a-92dd-00654aee402b"},"vehicle_type_id":"4","last_reported":1758557552,"current_range_meters":20000,"station_id":"cpo3342slgdg3j2ifvpg","pricing_plan_id":"cebpf4jnsgd1na2vs0mg"},{"bike_id":"b846226a-ff50-4d67-a8f6-8bd58c77db41","system_id":"levelo_inurba_marseille","lat":43.31529,"lon":5.38042,"is_reserved":false,"is_disabled":false,"rental_uris":{"android":"levelo://app?vid=b846226a-ff50-4d67-a8f6-8bd58c77db41","ios":"levelo://app?vid=b846226a-ff50-4d67-a8f6-8bd58c77db41"},"vehicle_type_id":"4","last_reported":1758557552,"current_range_meters":20000,"station_id":"ce4bhsp2rcd13ifvqi50","pricing_plan_id":"cebpf4jnsgd1na2vs0mg"},{"bike_id":"4d664464-a1cc-421b-848c-1d99e72465ce","system_id":"levelo_inurba_marseille","lat":43.26944,"lon":5.40264,"is_reserved":false,"is_disabled":false,"rental_uris":{"android":"levelo://app?vid=4d664464-a1cc-421b-848c-1d99e72465ce","ios":"levelo://app?vid=4d664464-a1cc-421b-848c-1d99e72465ce"},"vehicle_type_id":"4","last_reported":1758557552,"current_range_meters":20000,"station_id":"cjm6bp8fraef2m0cb0m0","pricing_plan_id":"cebpf4jnsgd1na2vs0mg"},{"bike_id":"3c737791-e066-46aa-aa57-9f23bde98fac","system_id":"levelo_inurba_marseille","lat":43.25337,"lon":5.42183,"is_reserved":false,"is_disabled":false,"rental_uris":{"android":"levelo://app?vid=3c737791-e066-46aa-aa57-9f23bde98fac","ios":"levelo://app?vid=3c737791-e066-46aa-aa57-9f23bde98fac"},"vehicle_type_id":"4","last_reported":1758557552,"current_range_meters":20000,"station_id":"st_d2m65c5bi1j21697t3ng","pricing_plan_id":"cebpf4jnsgd1na2vs0mg"},{"bike_id":"fb043aba-845f-47c8-8b43-6cb637cbb95f","system_id":"levelo_inurba_marseille","lat":43.24633,"lon":5.43148,"is_reserved":false,"is_disabled":false,"rental_uris":{"android":"levelo://app?vid=fb043aba-845f-47c8-8b43-6cb637cbb95f","ios":"levelo://app?vid=fb043aba-845f-47c8-8b43-6cb637cbb95f"},"vehicle_type_id":"4","last_reported":1758557552,"current_range_meters":20000,"station_id":"st_d2m6c4gdas8pm72e190g","pricing_plan_id":"cebpf4jnsgd1na2vs0mg"},{"bike_id":"39ec8f03-9d58-42d0-89d3-b819bcee84eb","system_id":"levelo_inurba_marseille","lat":43.31084,"lon":5.42432,"is_reserved":false,"is_disabled":false,"rental_uris":{"android":"levelo://app?vid=39ec8f03-9d58-42d0-89d3-b819bcee84eb","ios":"levelo://app?vid=39ec8f03-9d58-42d0-89d3-b819bcee84eb"},"vehicle_type_id":"4","last_reported":1758557552,"current_range_meters":20000,"station_id":"ce4bhp92rcd13ifvqhag","pricing_plan_id":"cebpf4jnsgd1na2vs0mg"},{"bike_id":"a2a6cfe1-844b-4718-ab38-f7a100d56b4b","system_id":"levelo_inurba_marseille","lat":43.29896,"lon":5.38911,"is_reserved":false,"is_disabled":false,"rental_uris":{"android":"levelo://app?vid=a2a6cfe1-844b-4718-ab38-f7a100d56b4b","ios":"levelo://app?vid=a2a6cfe1-844b-4718-ab38-f7a100d56b4b"},"vehicle_type_id":"4","last_reported":1758557552,"current_range_meters":20000,"station_id":"ce4bh392rcd13ifvqdl0","pricing_plan_id":"cebpf4jnsgd1na2vs0mg"},{"bike_id":"d006181b-b46b-4fea-8675-345ce0f130d6","system_id":"levelo_inurba_marseille","lat":43.31019,"lon":5.36852,"is_reserved":false,"is_disabled":false,"rental_uris":{"android":"levelo://app?vid=d006181b-b46b-4fea-8675-345ce0f130d6","ios":"levelo://app?vid=d006181b-b46b-4fea-8675-345ce0f130d6"},"vehicle_type_id":"4","last_reported":1758557552,"current_range_meters":20400,"station_id":"","pricing_plan_id":"cebpf4jnsgd1na2vs0mg"},{"bike_id":"30f6d997-4ae6-458e-8772-f2912bfffb72","system_id":"levelo_inurba_marseille","lat":43.26784,"lon":5.39416,"is_reserved":false,"is_disabled":false,"rental_uris":{"android":"levelo://app?vid=30f6d997-4ae6-458e-8772-f2912bfffb72","ios":"levelo://app?vid=30f6d997-4ae6-458e-8772-f2912bfffb72"},"vehicle_type_id":"4","last_reported":1758557552,"current_range_meters":20400,"station_id":"ce4bhh12rcd13ifvqfg0","pricing_plan_id":"cebpf4jnsgd1na2vs0mg"},{"bike_id":"3c0fa725-f739-4599-965d-e73d3e7b2c8f","system_id":"levelo_inurba_marseille","lat":43.32349,"lon":5.36714,"is_reserved":false,"is_disabled":false,"rental_uris":{"android":"levelo://app?vid=3c0fa725-f739-4599-965d-e73d3e7b2c8f","ios":"levelo://app?vid=3c0fa725-f739-4599-965d-e73d3e7b2c8f"},"vehicle_type_id":"4","last_reported":1758557552,"current_range_meters":20400,"station_id":"ce4bhsh2rcd13ifvqi2g","pricing_plan_id":"cebpf4jnsgd1na2vs0mg"},{"bike_id":"39a0abf3-1f08-40d9-aa5b-3976304757e3","system_id":"levelo_inurba_marseille","lat":43.28938,"lon":5.39637,"is_reserved":false,"is_disabled":false,"rental_uris":{"android":"levelo://app?vid=39a0abf3-1f08-40d9-aa5b-3976304757e3","ios":"levelo://app?vid=39a0abf3-1f08-40d9-aa5b-3976304757e3"},"vehicle_type_id":"4","last_reported":1758557552,"current_range_meters":20400,"station_id":"ce4bh3h2rcd13ifvqdn0","pricing_plan_id":"cebpf4jnsgd1na2vs0mg"},{"bike_id":"ba29de3b-9487-4e92-9464-b824a705c15a","system_id":"levelo_inurba_marseille","lat":43.28621,"lon":5.3511,"is_reserved":false,"is_disabled":false,"rental_uris":{"android":"levelo://app?vid=ba29de3b-9487-4e92-9464-b824a705c15a","ios":"levelo://app?vid=ba29de3b-9487-4e92-9464-b824a705c15a"},"vehicle_type_id":"4","last_reported":1758557552,"current_range_meters":21600,"station_id":"ce4bhch2rcd13ifvqeug","pricing_plan_id":"cebpf4jnsgd1na2vs0mg"},{"bike_id":"3767e767-6790-468e-b882-2113f0693b90","system_id":"levelo_inurba_marseille","lat":43.23193,"lon":5.35562,"is_reserved":false,"is_disabled":false,"rental_uris":{"android":"levelo://app?vid=3767e767-6790-468e-b882-2113f0693b90","ios":"levelo://app?vid=3767e767-6790-468e-b882-2113f0693b90"},"vehicle_type_id":"4","last_reported":1758557552,"current_range_meters":20400,"station_id":"ce4bhu92rcd13ifvqi70","pricing_plan_id":"cebpf4jnsgd1na2vs0mg"},{"bike_id":"9feb0e0f-24fa-4463-b0f3-30472830c043","system_id":"levelo_inurba_marseille","lat":43.31757,"lon":5.39002,"is_reserved":false,"is_disabled":false,"rental_uris":{"android":"levelo://app?vid=9feb0e0f-24fa-4463-b0f3-30472830c043","ios":"levelo://app?vid=9feb0e0f-24fa-4463-b0f3-30472830c043"},"vehicle_type_id":"4","last_reported":1758557552,"current_range_meters":20800,"station_id":"ce4bhqp2rcd13ifvqhng","pricing_plan_id":"cebpf4jnsgd1na2vs0mg"},{"bike_id":"ee542d0a-8dfe-4f18-9900-ef6e05e3c1d3","system_id":"levelo_inurba_marseille","lat":43.298297,"lon":5.387844,"is_reserved":false,"is_disabled":false,"rental_uris":{"android":"levelo://app?vid=ee542d0a-8dfe-4f18-9900-ef6e05e3c1d3","ios":"levelo://app?vid=ee542d0a-8dfe-4f18-9900-ef6e05e3c1d3"},"vehicle_type_id":"4","last_reported":1758557552,"current_range_meters":20800,"station_id":"ce4bh392rcd13ifvqdl0","pricing_plan_id":"cebpf4jnsgd1na2vs0mg"},{"bike_id":"a60abba9-f9b8-477b-8786-175fc2b6218b","system_id":"levelo_inurba_marseille","lat":43.30872,"lon":5.3718,"is_reserved":false,"is_disabled":false,"rental_uris":{"android":"levelo://app?vid=a60abba9-f9b8-477b-8786-175fc2b6218b","ios":"levelo://app?vid=a60abba9-f9b8-477b-8786-175fc2b6218b"},"vehicle_type_id":"4","last_reported":1758557552,"current_range_meters":20800,"station_id":"ce4bguh2rcd13ifvqckg","pricing_plan_id":"cebpf4jnsgd1na2vs0mg"},{"bike_id":"b3bcf3e3-c6e4-4b18-80d2-fdeaefb07de9","system_id":"levelo_inurba_marseille","lat":43.28159,"lon":5.42354,"is_reserved":false,"is_disabled":false,"rental_uris":{"android":"levelo://app?vid=b3bcf3e3-c6e4-4b18-80d2-fdeaefb07de9","ios":"levelo://app?vid=b3bcf3e3-c6e4-4b18-80d2-fdeaefb07de9"},"vehicle_type_id":"4","last_reported":1758557552,"current_range_meters":20800,"station_id":"","pricing_plan_id":"cebpf4jnsgd1na2vs0mg"},{"bike_id":"74e341d3-2a37-4178-a14c-39b4038b0544","system_id":"levelo_inurba_marseille","lat":43.27621,"lon":5.36106,"is_reserved":false,"is_disabled":false,"rental_uris":{"android":"levelo://app?vid=74e341d3-2a37-4178-a14c-39b4038b0544","ios":"levelo://app?vid=74e341d3-2a37-4178-a14c-39b4038b0544"},"vehicle_type_id":"4","last_reported":1758557552,"current_range_meters":20800,"station_id":"ce4bgj92rcd13ifvqbe0","pricing_plan_id":"cebpf4jnsgd1na2vs0mg"},{"bike_id":"bdd5c79a-3bef-495f-8dab-7570a91adf18","system_id":"levelo_inurba_marseille","lat":43.29258,"lon":5.40905,"is_reserved":false,"is_disabled":false,"rental_uris":{"android":"levelo://app?vid=bdd5c79a-3bef-495f-8dab-7570a91adf18","ios":"levelo://app?vid=bdd5c79a-3bef-495f-8dab-7570a91adf18"},"vehicle_type_id":"4","last_reported":1758557552,"current_range_meters":20800,"station_id":"ce4bh192rcd13ifvqdc0","pricing_plan_id":"cebpf4jnsgd1na2vs0mg"},{"bike_id":"7dd2c6d8-3274-42e0-a14e-bea956e00444","system_id":"levelo_inurba_marseille","lat":43.290124,"lon":5.386562,"is_reserved":false,"is_disabled":false,"rental_uris":{"android":"levelo://app?vid=7dd2c6d8-3274-42e0-a14e-bea956e00444","ios":"levelo://app?vid=7dd2c6d8-3274-42e0-a14e-bea956e00444"},"vehicle_type_id":"4","last_reported":1758557552,"current_range_meters":20400,"station_id":"ce4bh4p2rcd13ifvqe0g","pricing_plan_id":"cebpf4jnsgd1na2vs0mg"},{"bike_id":"74d569e5-fd3c-4acb-a2dc-369b8c6fbcf5","system_id":"levelo_inurba_marseille","lat":43.272115,"lon":5.391823,"is_reserved":false,"is_disabled":false,"rental_uris":{"android":"levelo://app?vid=74d569e5-fd3c-4acb-a2dc-369b8c6fbcf5","ios":"levelo://app?vid=74d569e5-fd3c-4acb-a2dc-369b8c6fbcf5"},"vehicle_type_id":"4","last_reported":1758557552,"current_range_meters":20800,"station_id":"ce4bhhp2rcd13ifvqfm0","pricing_plan_id":"cebpf4jnsgd1na2vs0mg"},{"bike_id":"f9270835-fab6-4c53-8054-225c64da38b6","system_id":"levelo_inurba_marseille","lat":43.29163,"lon":5.37165,"is_reserved":false,"is_disabled":false,"rental_uris":{"android":"levelo://app?vid=f9270835-fab6-4c53-8054-225c64da38b6","ios":"levelo://app?vid=f9270835-fab6-4c53-8054-225c64da38b6"},"vehicle_type_id":"4","last_reported":1758557552,"current_range_meters":20800,"station_id":"ce4bha92rcd13ifvqeh0","pricing_plan_id":"cebpf4jnsgd1na2vs0mg"},{"bike_id":"f36d4263-d5a1-46f9-a145-48d47d5c1201","system_id":"levelo_inurba_marseille","lat":43.28714,"lon":5.37927,"is_reserved":false,"is_disabled":false,"rental_uris":{"android":"levelo://app?vid=f36d4263-d5a1-46f9-a145-48d47d5c1201","ios":"levelo://app?vid=f36d4263-d5a1-46f9-a145-48d47d5c1201"},"vehicle_type_id":"4","last_reported":1758557552,"current_range_meters":20000,"station_id":"ce4bh9p2rcd13ifvqec0","pricing_plan_id":"cebpf4jnsgd1na2vs0mg"},{"bike_id":"4d9ef8ab-b9c5-46ff-9d61-4b66dfdff05c","system_id":"levelo_inurba_marseille","lat":43.29637,"lon":5.40596,"is_reserved":false,"is_disabled":false,"rental_uris":{"android":"levelo://app?vid=4d9ef8ab-b9c5-46ff-9d61-4b66dfdff05c","ios":"levelo://app?vid=4d9ef8ab-b9c5-46ff-9d61-4b66dfdff05c"},"vehicle_type_id":"4","last_reported":1758557552,"current_range_meters":25200,"station_id":"ce4bh0h2rcd13ifvqd60","pricing_plan_id":"cebpf4jnsgd1na2vs0mg"},{"bike_id":"be2bce19-ee96-4df2-8c51-454cced10294","system_id":"levelo_inurba_marseille","lat":43.29056,"lon":5.35901,"is_reserved":false,"is_disabled":true,"rental_uris":{"android":"levelo://app?vid=be2bce19-ee96-4df2-8c51-454cced10294","ios":"levelo://app?vid=be2bce19-ee96-4df2-8c51-454cced10294"},"vehicle_type_id":"4","last_reported":1758557552,"current_range_meters":21600,"station_id":"ce4bha92rcd13ifvqeg0","pricing_plan_id":"cebpf4jnsgd1na2vs0mg"},