{"last_updated":1710350910,"ttl":30,"version":"2.2","data":{"bikes":[{"bike_id":"d0c0fc3a-fb8d-4c3f-ad8d-b5fe00335fd3","system_id":"levelo_inurba_marseille","lat":43.312239,"lon":5.368562,"is_reserved":false,"is_disabled":false,"rental_uris":{"android":"levelo://app?vid=d0c0fc3a-fb8d-4c3f-ad8d-b5fe00335fd3","ios":"levelo://app?vid=d0c0fc3a-fb8d-4c3f-ad8d-b5fe00335fd3"},"vehicle_type_id":"4","last_reported":1710350910,"current_range_meters":2800,"station_id":"ce4bgl92rcd13ifvqbq0","pricing_plan_id":"cebpf4jnsgd1na2vs0mg"},{"bike_id":"6c780cd0-da16-4814-bc59-f475dbe6b852","system_id":"levelo_inurba_marseille","lat":43.309076,"lon":5.368465,"is_reserved":false,"is_disabled":false,"rental_uris":{"android":"levelo://app?vid=6c780cd0-da16-4814-bc59-f475dbe6b852","ios":"levelo://app?vid=6c780cd0-da16-4814-bc59-f475dbe6b852"},"vehicle_type_id":"4","last_reported":1710350910,"current_range_meters":0,"station_id":"ce4bgn92rcd13ifvqbvg","pricing_plan_id":"cebpf4jnsgd1na2vs0mg"},{"bike_id":"aa43897f-032b-4745-a1d8-167649a43fc7","system_id":"levelo_inurba_marseille","lat":43.314776,"lon":5.372269,"is_reserved":false,"is_disabled":false,"rental_uris":{"android":"levelo://app?vid=aa43897f-032b-4745-a1d8-167649a43fc7","ios":"levelo://app?vid=aa43897f-032b-4745-a1d8-167649a43fc7"},"vehicle_type_id":"4","last_reported":1710350910,"current_range_meters":2800,"station_id":"ce4bgt12rcd13ifvqcd0","pricing_plan_id":"cebpf4jnsgd1na2vs0mg"},{"bike_id":"81f5c7d0-0592-46c7-a187-7836050cd2a7","system_id":"levelo_inurba_marseille","lat":43.314811,"lon":5.373103,"is_reserved":false,"is_disabled":false,"rental_uris":{"android":"levelo://app?vid=81f5c7d0-0592-46c7-a187-7836050cd2a7","ios":"levelo://app?vid=81f5c7d0-0592-46c7-a187-7836050cd2a7"},"vehicle_type_id":"4","last_reported":1710350910,"current_range_meters":6000,"station_id":"ce4bgt12rcd13ifvqcd0","pricing_plan_id":"cebpf4jnsgd1na2vs0mg"},{"bike_id":"17136609-d1dc-44ef-9bb8-5e26528cc395","system_id":"levelo_inurba_marseille","lat":43.309034,"lon":5.371783,"is_reserved":false,"is_disabled":false,"rental_uris":{"android":"levelo://app?vid=17136609-d1dc-44ef-9bb8-5e26528cc395","ios":"levelo://app?vid=17136609-d1dc-44ef-9bb8-5e26528cc395"},"vehicle_type_id":"4","last_reported":1710350910,"current_range_meters":10000,"station_id":"ce4bguh2rcd13ifvqckg","pricing_plan_id":"cebpf4jnsgd1na2vs0mg"},{"bike_id":"1bb338c6-8d88-4c2c-8a09-1fe249000fe9","system_id":"levelo_inurba_marseille","lat":43.305706,"lon":5.365654,"is_reserved":false,"is_disabled":false,"rental_uris":{"android":"levelo://app?vid=1bb338c6-8d88-4c2c-8a09-1fe249000fe9","ios":"levelo://app?vid=1bb338c6-8d88-4c2c-8a09-1fe249000fe9"},"vehicle_type_id":"4","last_reported":1710350910,"current_range_meters":0,"station_id":"ce4bgs12rcd13ifvqcag","pricing_plan_id":"cebpf4jnsgd1na2vs0mg"},{"bike_id":"409c8b61-ceb4-4aed-935b-cd8289e4e1ed","system_id":"levelo_inurba_marseille","lat":43.31113,"lon":5.37761,"is_reserved":false,"is_disabled":false,"rental_uris":{"android":"levelo://app?vid=409c8b61-ceb4-4aed-935b-cd8289e4e1ed","ios":"levelo://app?vid=409c8b61-ceb4-4aed-935b-cd8289e4e1ed"},"vehicle_type_id":"4","last_reported":1710350910,"current_range_meters":0,"station_id":"ce4bgt92rcd13ifvqcg0","pricing_plan_id":"cebpf4jnsgd1na2vs0mg"},{"bike_id":"90d5f6df-3bda-4c7d-8bf3-6bf3f16407a6","system_id":"levelo_inurba_marseille","lat":43.311125,"lon":5.377624,"is_reserved":false,"is_disabled":false,"rental_uris":{"android":"levelo://app?vid=90d5f6df-3bda-4c7d-8bf3-6bf3f16407a6","ios":"levelo://app?vid=90d5f6df-3bda-4c7d-8bf3-6bf3f16407a6"},"vehicle_type_id":"4","last_reported":1710350910,"current_range_meters":8800,"station_id":"ce4bgt92rcd13ifvqcg0","pricing_plan_id":"cebpf4jnsgd1na2vs0mg"},{"bike_id":"53e8f177-100e-4899-82fc-ba928f0efacf","system_id":"levelo_inurba_marseille","lat":43.305989,"lon":5.37225,"is_reserved":false,"is_disabled":false,"rental_uris":{"android":"levelo://app?vid=53e8f177-100e-4899-82fc-ba928f0efacf","ios":"levelo://app?vid=53e8f177-100e-4899-82fc-ba928f0efacf"},"vehicle_type_id":"4","last_reported":1710350910,"current_range_meters":0,"station_id":"ce4bgqh2rcd13ifvqc4g","pricing_plan_id":"cebpf4jnsgd1na2vs0mg"},{"bike_id":"00afa8b5-1ef9-4575-aef8-e72142a7057d","system_id":"levelo_inurba_marseille","lat":43.317075,"lon":5.377367,"is_reserved":false,"is_disabled":false,"rental_uris":{"android":"levelo://app?vid=00afa8b5-1ef9-4575-aef8-e72142a7057d","ios":"levelo://app?vid=00afa8b5-1ef9-4575-aef8-e72142a7057d"},"vehicle_type_id":"4","last_reported":1710350910,"current_range_meters":22800,"station_id":"ce4bgth2rcd13ifvqch0","pricing_plan_id":"cebpf4jnsgd1na2vs0mg"},{"bike_id":"6df8a519-a704-46e9-b3eb-42b1fb917e85","system_id":"levelo_inurba_marseille","lat":43.31741,"lon":5.37761,"is_reserved":false,"is_disabled":false,"rental_uris":{"android":"levelo://app?vid=6df8a519-a704-46e9-b3eb-42b1fb917e85","ios":"levelo://app?vid=6df8a519-a704-46e9-b3eb-42b1fb917e85"},"vehicle_type_id":"4","last_reported":1710350910,"current_range_meters":23200,"station_id":"ce4bgth2rcd13ifvqch0","pricing_plan_id":"cebpf4jnsgd1na2vs0mg"},{"bike_id":"6a72228a-2825-41b9-a3cb-61aa6d088b55","system_id":"levelo_inurba_marseille","lat":43.31537,"lon":5.38031,"is_reserved":false,"is_disabled":false,"rental_uris":{"android":"levelo://app?vid=6a72228a-2825-41b9-a3cb-61aa6d088b55","ios":"levelo://app?vid=6a72228a-2825-41b9-a3cb-61aa6d088b55"},"vehicle_type_id":"4","last_reported":1710350910,"current_range_meters":0,"station_id":"ce4bhsp2rcd13ifvqi50","pricing_plan_id":"cebpf4jnsgd1na2vs0mg"},{"bike_id":"79c7736e-e8e7-4c15-94ab-1ca7af6a9868","system_id":"levelo_inurba_marseille","lat":43.32475,"lon":5.365665,"is_reserved":false,"is_disabled":false,"rental_uris":{"android":"levelo://app?vid=79c7736e-e8e7-4c15-94ab-1ca7af6a9868","ios":"levelo://app?vid=79c7736e-e8e7-4c15-94ab-1ca7af6a9868"},"vehicle_type_id":"4","last_reported":1710350910,"current_range_meters":5200,"station_id":"ce4bhs12rcd13ifvqhvg","pricing_plan_id":"cebpf4jnsgd1na2vs0mg"},{"bike_id":"49f2117d-bbb1-42e5-80a2-7a881aecf261","system_id":"levelo_inurba_marseille","lat":43.324771,"lon":5.36557,"is_reserved":false,"is_disabled":false,"rental_uris":{"android":"levelo://app?vid=49f2117d-bbb1-42e5-80a2-7a881aecf261","ios":"levelo://app?vid=49f2117d-bbb1-42e5-80a2-7a881aecf261"},"vehicle_type_id":"4","last_reported":1710350910,"current_range_meters":11200,"station_id":"ce4bhs12rcd13ifvqhvg","pricing_plan_id":"cebpf4jnsgd1na2vs0mg"},{"bike_id":"419c8a0e-be50-41cb-97b0-4dc83dde5c03","system_id":"levelo_inurba_marseille","lat":43.32478,"lon":5.365671,"is_reserved":false,"is_disabled":false,"rental_uris":{"android":"levelo://app?vid=419c8a0e-be50-41cb-97b0-4dc83dde5c03","ios":"levelo://app?vid=419c8a0e-be50-41cb-97b0-4dc83dde5c03"},"vehicle_type_id":"4","last_reported":1710350910,"current_range_meters":400,"station_id":"ce4bhs12rcd13ifvqhvg","pricing_plan_id":"cebpf4jnsgd1na2vs0mg"},{"bike_id":"ed2f200f-86c1-4eb8-ad3b-d4ae2c5298fd","system_id":"levelo_inurba_marseille","lat":43.324771,"lon":5.36557,"is_reserved":false,"is_disabled":false,"rental_uris":{"android":"levelo://app?vid=ed2f200f-86c1-4eb8-ad3b-d4ae2c5298fd","ios":"levelo://app?vid=ed2f200f-86c1-4eb8-ad3b-d4ae2c5298fd"},"vehicle_type_id":"4","last_reported":1710350910,"current_range_meters":24000,"station_id":"ce4bhs12rcd13ifvqhvg","pricing_plan_id":"cebpf4jnsgd1na2vs0mg"},{"bike_id":"b735f631-99f5-4034-8269-a86a4a969537","system_id":"levelo_inurba_marseille","lat":43.324771,"lon":5.36557,"is_reserved":false,"is_disabled":false,"rental_uris":{"android":"levelo://app?vid=b735f631-99f5-4034-8269-a86a4a969537","ios":"levelo://app?vid=b735f631-99f5-4034-8269-a86a4a969537"},"vehicle_type_id":"4","last_reported":1710350910,"current_range_meters":4800,"station_id":"ce4bhs12rcd13ifvqhvg","pricing_plan_id":"cebpf4jnsgd1na2vs0mg"},{"bike_id":"2842ba00-d3d0-4b15-b756-849d6fdce6d7","system_id":"levelo_inurba_marseille","lat":43.324771,"lon":5.36557,"is_reserved":false,"is_disabled":false,"rental_uris":{"android":"levelo://app?vid=2842ba00-d3d0-4b15-b756-849d6fdce6d7","ios":"levelo://app?vid=2842ba00-d3d0-4b15-b756-849d6fdce6d7"},"vehicle_type_id":"4","last_reported":1710350910,"current_range_meters":23200,"station_id":"ce4bhs12rcd13ifvqhvg","pricing_plan_id":"cebpf4jnsgd1na2vs0mg"},{"bike_id":"3e493ae2-c51c-41da-a0b8-fbd174ae9e18","system_id":"levelo_inurba_marseille","lat":43.324815,"lon":5.365751,"is_reserved":false,"is_disabled":false,"rental_uris":{"android":"levelo://app?vid=3e493ae2-c51c-41da-a0b8-fbd174ae9e18","ios":"levelo://app?vid=3e493ae2-c51c-41da-a0b8-fbd174ae9e18"},"vehicle_type_id":"4","last_reported":1710350910,"current_range_meters":5200,"station_id":"ce4bhs12rcd13ifvqhvg","pricing_plan_id":"cebpf4jnsgd1na2vs0mg"},{"bike_id":"69f16bc0-91b1-4cad-91b5-51ae8c8ba203","system_id":"levelo_inurba_marseille","lat":43.32481,"lon":5.36562,"is_reserved":false,"is_disabled":false,"rental_uris":{"android":"levelo://app?vid=69f16bc0-91b1-4cad-91b5-51ae8c8ba203","ios":"levelo://app?vid=69f16bc0-91b1-4cad-91b5-51ae8c8ba203"},"vehicle_type_id":"4","last_reported":1710350910,"current_range_meters":5200,"station_id":"ce4bhs12rcd13ifvqhvg","pricing_plan_id":"cebpf4jnsgd1na2vs0mg"},{"bike_id":"22a27d94-1717-4440-ac7e-4a68cdccdba2","system_id":"levelo_inurba_marseille","lat":43.324771,"lon":5.36557,"is_reserved":false,"is_disabled":false,"rental_uris":{"android":"levelo://app?vid=22a27d94-1717-4440-ac7e-4a68cdccdba2","ios":"levelo://app?vid=22a27d94-1717-4440-ac7e-4a68cdccdba2"},"vehicle_type_id":"4","last_reported":1710350910,"current_range_meters":18800,"station_id":"ce4bhs12rcd13ifvqhvg","pricing_plan_id":"cebpf4jnsgd1na2vs0mg"},{"bike_id":"2e3cabf9-3880-4d07-ae3b-af234e57884b","system_id":"levelo_inurba_marseille","lat":43.324771,"lon":5.36557,"is_reserved":false,"is_disabled":false,"rental_uris":{"android":"levelo://app?vid=2e3cabf9-3880-4d07-ae3b-af234e57884b","ios":"levelo://app?vid=2e3cabf9-3880-4d07-ae3b-af234e57884b"},"vehicle_type_id":"4","last_reported":1710350910,"current_range_meters":4800,"station_id":"ce4bhs12rcd13ifvqhvg","pricing_plan_id":"cebpf4jnsgd1na2vs0mg"},{"bike_id":"75737f94-0aac-466c-878e-f5152ecd0234","system_id":"levelo_inurba_marseille","lat":43.324771,"lon":5.36557,"is_reserved":false,"is_disabled":false,"rental_uris":{"android":"levelo://app?vid=75737f94-0aac-466c-878e-f5152ecd0234","ios":"levelo://app?vid=75737f94-0aac-466c-878e-f5152ecd0234"},"vehicle_type_id":"4","last_reported":1710350910,"current_range_meters":2000,"station_id":"ce4bhs12rcd13ifvqhvg","pricing_plan_id":"cebpf4jnsgd1na2vs0mg"},{"bike_id":"331dc21d-28f1-4f3a-b061-04381d7c3225","system_id":"levelo_inurba_marseille","lat":43.324771,"lon":5.36557,"is_reserved":false,"is_disabled":false,"rental_uris":{"android":"levelo://app?vid=331dc21d-28f1-4f3a-b061-04381d7c3225","ios":"levelo://app?vid=331dc21d-28f1-4f3a-b061-04381d7c3225"},"vehicle_type_id":"4","last_reported":1710350910,"current_range_meters":19200,"station_id":"ce4bhs12rcd13ifvqhvg","pricing_plan_id":"cebpf4jnsgd1na2vs0mg"},{"bike_id":"36b9805d-1b04-4ec6-8f80-ae352e34369c","system_id":"levelo_inurba_marseille","lat":43.324771,"lon":5.36557,"is_reserved":false,"is_disabled":false,"rental_uris":{"android":"levelo://app?vid=36b9805d-1b04-4ec6-8f80-ae352e34369c","ios":"levelo://app?vid=36b9805d-1b04-4ec6-8f80-ae352e34369c"},"vehicle_type_id":"4","last_reported":1710350910,"current_range_meters":2000,"station_id":"ce4bhs12rcd13ifvqhvg","pricing_plan_id":"cebpf4jnsgd1na2vs0mg"},{"bike_id":"4168ee59-67d3-4e53-a0cf-5d27c36bd059","system_id":"levelo_inurba_marseille","lat":43.308012,"lon":5.381511,"is_reserved":false,"is_disabled":false,"rental_uris":{"android":"levelo://app?vid=4168ee59-67d3-4e53-a0cf-5d27c36bd059","ios":"levelo://app?vid=4168ee59-67d3-4e53-a0cf-5d27c36bd059"},"vehicle_type_id":"4","last_reported":1710350910,"current_range_meters":30000,"station_id":"ce4bgt12rcd13ifvqce0","pricing_plan_id":"cebpf4jnsgd1na2vs0mg"},{"bike_id":"2cbe4754-8bed-4fb8-ac7d-a2dfa79db6a5","system_id":"levelo_inurba_marseille","lat":43.324771,"lon":5.36557,"is_reserved":false,"is_disabled":false,"rental_uris":{"android":"levelo://app?vid=2cbe4754-8bed-4fb8-ac7d-a2dfa79db6a5","ios":"levelo://app?vid=2cbe4754-8bed-4fb8-ac7d-a2dfa79db6a5"},"vehicle_type_id":"4","last_reported":1710350910,"current_range_meters":7200,"station_id":"ce4bhs12rcd13ifvqhvg","pricing_plan_id":"cebpf4jnsgd1na2vs0mg"},{"bike_id":"8cfff264-df77-48a6-a0f9-4be90410bae9","system_id":"levelo_inurba_marseille","lat":43.314811,"lon":5.373103,"is_reserved":false,"is_disabled":false,"rental_uris":{"android":"levelo://app?vid=8cfff264-df77-48a6-a0f9-4be90410bae9","ios":"levelo://app?vid=8cfff264-df77-48a6-a0f9-4be90410bae9"},"vehicle_type_id":"4","last_reported":1710350910,"current_range_meters":9200,"station_id":"ce4bgt12rcd13ifvqcd0","pricing_plan_id":"cebpf4jnsgd1na2vs0mg"},{"bike_id":"bc174713-37d0-4cbb-a33a-1de0b1761942","system_id":"levelo_inurba_marseille","lat":43.310804,"lon":5.38359,"is_reserved":false,"is_disabled":false,"rental_uris":{"android":"levelo://app?vid=bc174713-37d0-4cbb-a33a-1de0b1761942","ios":"levelo://app?vid=bc174713-37d0-4cbb-a33a-1de0b1761942"},"vehicle_type_id":"4","last_reported":1710350910,"current_range_meters":23200,"station_id":"ce4bgv92rcd13ifvqcr0","pricing_plan_id":"cebpf4jnsgd1na2vs0mg"},{"bike_id":"2f771313-be69-4455-8a50-87f1e21ecbb3","system_id":"levelo_inurba_marseille","lat":43.30283,"lon":5.37694,"is_reserved":false,"is_disabled":false,"rental_uris":{"android":"levelo://app?vid=2f771313-be69-4455-8a50-87f1e21ecbb3","ios":"levelo://app?vid=2f771313-be69-4455-8a50-87f1e21ecbb3"},"vehicle_type_id":"4","last_reported":1710350910,"current_range_meters":0,"station_id":"ce4bguh2rcd13ifvqcj0","pricing_plan_id":"cebpf4jnsgd1na2vs0mg"},{"bike_id":"9541ffe8-b8d9-48a2-aab0-324a5580c0b6","system_id":"levelo_inurba_marseille","lat":43.310804,"lon":5.38359,"is_reserved":false,"is_disabled":false,"rental_uris":{"android":"levelo://app?vid=9541ffe8-b8d9-48a2-aab0-324a5580c0b6","ios":"levelo://app?vid=9541ffe8-b8d9-48a2-aab0-324a5580c0b6"},"vehicle_type_id":"4","last_reported":1710350910,"current_range_meters":0,"station_id":"ce4bgv92rcd13ifvqcr0","pricing_plan_id":"cebpf4jnsgd1na2vs0mg"},{"bike_id":"6f5134f5-1bdc-44fd-81d6-314bb0e3cf57","system_id":"levelo_inurba_marseille","lat":43.319935,"lon":5.381699,"is_reserved":false,"is_disabled":false,"rental_uris":{"android":"levelo://app?vid=6f5134f5-1bdc-44fd-81d6-314bb0e3cf57","ios":"levelo://app?vid=6f5134f5-1bdc-44fd-81d6-314bb0e3cf57"},"vehicle_type_id":"4","last_reported":1710350910,"current_range_meters":17200,"station_id":"ce4bhr12rcd13ifvqhpg","pricing_plan_id":"cebpf4jnsgd1na2vs0mg"},{"bike_id":"0e69524c-e611-4671-8b2f-e073593ad256","system_id":"levelo_inurba_marseille","lat":43.319935,"lon":5.381699,"is_reserved":false,"is_disabled":false,"rental_uris":{"android":"levelo://app?vid=0e69524c-e611-4671-8b2f-e073593ad256","ios":"levelo://app?vid=0e69524c-e611-4671-8b2f-e073593ad256"},"vehicle_type_id":"4","last_reported":1710350910,"current_range_meters":30400,"station_id":"ce4bhr12rcd13ifvqhpg","pricing_plan_id":"cebpf4jnsgd1na2vs0mg"},{"bike_id":"1dcc8183-b7cf-4237-af50-833418ba40b6","system_id":"levelo_inurba_marseille","lat":43.319935,"lon":5.381699,"is_reserved":false,"is_disabled":false,"rental_uris":{"android":"levelo://app?vid=1dcc8183-b7cf-4237-af50-833418ba40b6","ios":"levelo://app?vid=1dcc8183-b7cf-4237-af50-833418ba40b6"},"vehicle_type_id":"4","last_reported":1710350910,"current_range_meters":2400,"station_id":"ce4bhr12rcd13ifvqhpg","pricing_plan_id":"cebpf4jnsgd1na2vs0mg"},{"bike_id":"057221b1-1b0d-4685-8564-80af51651ade","system_id":"levelo_inurba_marseille","lat":43.319935,"lon":5.381699,"is_reserved":false,"is_disabled":false,"rental_uris":{"android":"levelo://app?vid=057221b1-1b0d-4685-8564-80af51651ade","ios":"levelo://app?vid=057221b1-1b0d-4685-8564-80af51651ade"},"vehicle_type_id":"4","last_reported":1710350910,"current_range_meters":11600,"station_id":"ce4bhr12rcd13ifvqhpg","pricing_plan_id":"cebpf4jnsgd1na2vs0mg"},{"bike_id":"ceb14724-9318-4a41-b333-c341bb4f50ad","system_id":"levelo_inurba_marseille","lat":43.31999,"lon":5.38157,"is_reserved":false,"is_disabled":false,"rental_uris":{"android":"levelo://app?vid=ceb14724-9318-4a41-b333-c341bb4f50ad","ios":"levelo://app?vid=ceb14724-9318-4a41-b333-c341bb4f50ad"},"vehicle_type_id":"4","last_reported":1710350910,"current_range_meters":4400,"station_id":"ce4bhr12rcd13ifvqhpg","pricing_plan_id":"cebpf4jnsgd1na2vs0mg"},{"bike_id":"8f31c532-dc42-48e0-893f-3b6c2fa61454","system_id":"levelo_inurba_marseille","lat":43.319935,"lon":5.381699,"is_reserved":false,"is_disabled":false,"rental_uris":{"android":"levelo://app?vid=8f31c532-dc42-48e0-893f-3b6c2fa61454","ios":"levelo://app?vid=8f31c532-dc42-48e0-893f-3b6c2fa61454"},"vehicle_type_id":"4","last_reported":1710350910,"current_range_meters":20800,"station_id":"ce4bhr12rcd13ifvqhpg","pricing_plan_id":"cebpf4jnsgd1na2vs0mg"},{"bike_id":"e5135d9e-cace-4405-af75-7c28b6d5f2af","system_id":"levelo_inurba_marseille","lat":43.319935,"lon":5.381699,"is_reserved":false,"is_disabled":false,"rental_uris":{"android":"levelo://app?vid=e5135d9e-cace-4405-af75-7c28b6d5f2af","ios":"levelo://app?vid=e5135d9e-cace-4405-af75-7c28b6d5f2af"},"vehicle_type_id":"4","last_reported":1710350910,"current_range_meters":14400,"station_id":"ce4bhr12rcd13ifvqhpg","pricing_plan_id":"cebpf4jnsgd1na2vs0mg"},{"bike_id":"108d0463-7484-49b1-90df-fc408c569a32","system_id":"levelo_inurba_marseille","lat":43.319935,"lon":5.381699,"is_reserved":false,"is_disabled":false,"rental_uris":{"android":"levelo://app?vid=108d0463-7484-49b1-90df-fc408c569a32","ios":"levelo://app?vid=108d0463-7484-49b1-90df-fc408c569a32"},"vehicle_type_id":"4","last_reported":1710350910,"current_range_meters":0,"station_id":"ce4bhr12rcd13ifvqhpg","pricing_plan_id":"cebpf4jnsgd1na2vs0mg"},{"bike_id":"5f3c95b2-6ced-4bfc-bc25-cab3f7cf72ec","system_id":"levelo_inurba_marseille","lat":43.32,"lon":5.38162,"is_reserved":false,"is_disabled":false,"rental_uris":{"android":"levelo://app?vid=5f3c95b2-6ced-4bfc-bc25-cab3f7cf72ec","ios":"levelo://app?vid=5f3c95b2-6ced-4bfc-bc25-cab3f7cf72ec"},"vehicle_type_id":"4","last_reported":1710350910,"current_range_meters":3200,"station_id":"ce4bhr12rcd13ifvqhpg","pricing_plan_id":"cebpf4jnsgd1na2vs0mg"},{"bike_id":"ef6867c4-e666-481d-bfde-3a8d4ed923c2","system_id":"levelo_inurba_marseille","lat":43.319935,"lon":5.381699,"is_reserved":false,"is_disabled":false,"rental_uris":{"android":"levelo://app?vid=ef6867c4-e666-481d-bfde-3a8d4ed923c2","ios":"levelo://app?vid=ef6867c4-e666-481d-bfde-3a8d4ed923c2"},"vehicle_type_id":"4","last_reported":1710350910,"current_range_meters":0,"station_id":"ce4bhr12rcd13ifvqhpg","pricing_plan_id":"cebpf4jnsgd1na2vs0mg"},{"bike_id":"7d36ac95-87f1-4d6c-b68b-8931e166b0b5","system_id":"levelo_inurba_marseille","lat":43.31995,"lon":5.38171,"is_reserved":false,"is_disabled":false,"rental_uris":{"android":"levelo://app?vid=7d36ac95-87f1-4d6c-b68b-8931e166b0b5","ios":"levelo://app?vid=7d36ac95-87f1-4d6c-b68b-8931e166b0b5"},"vehicle_type_id":"4","last_reported":1710350910,"current_range_meters":19600,"station_id":"ce4bhr12rcd13ifvqhpg","pricing_plan_id":"cebpf4jnsgd1na2vs0mg"},{"bike_id":"9f26cea6-83cf-400f-9d8f-338383c4934b","system_id":"levelo_inurba_marseille","lat":43.313571,"lon":5.384829,"is_reserved":false,"is_disabled":false,"rental_uris":{"android":"levelo://app?vid=9f26cea6-83cf-400f-9d8f-338383c4934b","ios":"levelo://app?vid=9f26cea6-83cf-400f-9d8f-338383c4934b"},"vehicle_type_id":"4","last_reported":1710350910,"current_range_meters":26000,"station_id":"ce4bgt92rcd13ifvqcf0","pricing_plan_id":"cebpf4jnsgd1na2vs0mg"},{"bike_id":"a117e53a-97dc-4840-a3bd-bc677909118b","system_id":"levelo_inurba_marseille","lat":43.313571,"lon":5.384829,"is_reserved":false,"is_disabled":false,"rental_uris":{"android":"levelo://app?vid=a117e53a-97dc-4840-a3bd-bc677909118b","ios":"levelo://app?vid=a117e53a-97dc-4840-a3bd-bc677909118b"},"vehicle_type_id":"4","last_reported":1710350910,"current_range_meters":0,"station_id":"ce4bgt92rcd13ifvqcf0","pricing_plan_id":"cebpf4jnsgd1na2vs0mg"},{"bike_id":"58c2b895-68bc-4e42-aa94-9d1598bfb8d0","system_id":"levelo_inurba_marseille","lat":43.313571,"lon":5.384829,"is_reserved":false,"is_disabled":false,"rental_uris":{"android":"levelo://app?vid=58c2b895-68bc-4e42-aa94-9d1598bfb8d0","ios":"levelo://app?vid=58c2b895-68bc-4e42-aa94-9d1598bfb8d0"},"vehicle_type_id":"4","last_reported":1710350910,"current_range_meters":17600,"station_id":"ce4bgt92rcd13ifvqcf0","pricing_plan_id":"cebpf4jnsgd1na2vs0mg"},{"bike_id":"9288e36e-6ef9-4409-b291-520d763b11d1","system_id":"levelo_inurba_marseille","lat":43.313571,"lon":5.384829,"is_reserved":false,"is_disabled":false,"rental_uris":{"android":"levelo://app?vid=9288e36e-6ef9-4409-b291-520d763b11d1","ios":"levelo://app?vid=9288e36e-6ef9-4409-b291-520d763b11d1"},"vehicle_type_id":"4","last_reported":1710350910,"current_range_meters":8800,"station_id":"ce4bgt92rcd13ifvqcf0","pricing_plan_id":"cebpf4jnsgd1na2vs0mg"},{"bike_id":"7f6005b4-7b41-495d-90de-14dd6fc7acaa","system_id":"levelo_inurba_marseille","lat":43.313571,"lon":5.384829,"is_reserved":false,"is_disabled":false,"rental_uris":{"android":"levelo://app?vid=7f6005b4-7b41-495d-90de-14dd6fc7acaa","ios":"levelo://app?vid=7f6005b4-7b41-495d-90de-14dd6fc7acaa"},"vehicle_type_id":"4","last_reported":1710350910,"current_range_meters":2800,"station_id":"ce4bgt92rcd13ifvqcf0","pricing_plan_id":"cebpf4jnsgd1na2vs0mg"},{"bike_id":"d599bc67-653d-493a-863d-16905d6a4351","system_id":"levelo_inurba_marseille","lat":43.313571,"lon":5.384829,"is_reserved":false,"is_disabled":false,"rental_uris":{"android":"levelo://app?vid=d599bc67-653d-493a-863d-16905d6a4351","ios":"levelo://app?vid=d599bc67-653d-493a-863d-16905d6a4351"},"vehicle_type_id":"4","last_reported":1710350910,"current_range_meters":17600,"station_id":"ce4bgt92rcd13ifvqcf0","pricing_plan_id":"cebpf4jnsgd1na2vs0mg"},{"bike_id":"22a31495-ed0d-4908-8785-53ce78895634","system_id":"levelo_inurba_marseille","lat":43.313571,"lon":5.384829,"is_reserved":false,"is_disabled":false,"rental_uris":{"android":"levelo://app?vid=22a31495-ed0d-4908-8785-53ce78895634","ios":"levelo://app?vid=22a31495-ed0d-4908-8785-53ce78895634"},"vehicle_type_id":"4","last_reported":1710350910,"current_range_meters":12800,"station_id":"ce4bgt92rcd13ifvqcf0","pricing_plan_id":"cebpf4jnsgd1na2vs0mg"},{"bike_id":"5c3811ec-2cdc-4dfd-b0d7-fbec340368c4","system_id":"levelo_inurba_marseille","lat":43.313571,"lon":5.384829,"is_reserved":false,"is_disabled":false,"rental_uris":{"android":"levelo://app?vid=5c3811ec-2cdc-4dfd-b0d7-fbec340368c4","ios":"levelo://app?vid=5c3811ec-2cdc-4dfd-b0d7-fbec340368c4"},"vehicle_type_id":"4","last_reported":1710350910,"current_range_meters":21200,"station_id":"ce4bgt92rcd13ifvqcf0","pricing_plan_id":"cebpf4jnsgd1na2vs0mg"},{"bike_id":"54b78561-bffc-4423-94a5-4015becd3c4d","system_id":"levelo_inurba_marseille","lat":43.313571,"lon":5.384829,"is_reserved":false,"is_disabled":false,"rental_uris":{"android":"levelo://app?vid=54b78561-bffc-4423-94a5-4015becd3c4d","ios":"levelo://app?vid=54b78561-bffc-4423-94a5-4015becd3c4d"},"vehicle_type_id":"4","last_reported":1710350910,"current_range_meters":22000,"station_id":"ce4bgt92rcd13ifvqcf0","pricing_plan_id":"cebpf4jnsgd1na2vs0mg"},{"bike_id":"e7011bac-3657-4c8f-9e94-87d1ecd2a979","system_id":"levelo_inurba_marseille","lat":43.299411,"lon":5.365667,"is_reserved":false,"is_disabled":false,"rental_uris":{"android":"levelo://app?vid=e7011bac-3657-4c8f-9e94-87d1ecd2a979","ios":"levelo://app?vid=e7011bac-3657-4c8f-9e94-87d1ecd2a979"},"vehicle_type_id":"4","last_reported":1710350910,"current_range_meters":7200,"station_id":"","pricing_plan_id":"cebpf4jnsgd1na2vs0mg"},{"bike_id":"727266ee-550f-403a-a82e-5f3a8cc9ef94","system_id":"levelo_inurba_marseille","lat":43.30935,"lon":5.385132,"is_reserved":false,"is_disabled":false,"rental_uris":{"android":"levelo://app?vid=727266ee-550f-403a-a82e-5f3a8cc9ef94","ios":"levelo://app?vid=727266ee-550f-403a-a82e-5f3a8cc9ef94"},"vehicle_type_id":"4","last_reported":1710350910,"current_range_meters":6400,"station_id":"","pricing_plan_id":"cebpf4jnsgd1na2vs0mg"},{"bike_id":"02e36adc-264a-44cf-b731-c3f62c2d7a92","system_id":"levelo_inurba_marseille","lat":43.311571,"lon":5.386818,"is_reserved":false,"is_disabled":false,"rental_uris":{"android":"levelo://app?vid=02e36adc-264a-44cf-b731-c3f62c2d7a92","ios":"levelo://app?vid=02e36adc-264a-44cf-b731-c3f62c2d7a92"},"vehicle_type_id":"4","last_reported":1710350910,"current_range_meters":11200,"station_id":"ce4bgv12rcd13ifvqcp0","pricing_plan_id":"cebpf4jnsgd1na2vs0mg"},{"bike_id":"5ae2cc4d-fb96-415a-9082-6753c2b617bd","system_id":"levelo_inurba_marseille","lat":43.298433,"lon":5.362774,"is_reserved":false,"is_disabled":false,"rental_uris":{"android":"levelo://app?vid=5ae2cc4d-fb96-415a-9082-6753c2b617bd","ios":"levelo://app?vid=5ae2cc4d-fb96-415a-9082-6753c2b617bd"},"vehicle_type_id":"4","last_reported":1710350910,"current_range_meters":1200,"station_id":"ce4bgpp2rcd13ifvqc3g","pricing_plan_id":"cebpf4jnsgd1na2vs0mg"},{"bike_id":"8a83da41-3cfd-4396-bf0d-a4a217cf5d98","system_id":"levelo_inurba_marseille","lat":43.32627,"lon":5.374761,"is_reserved":false,"is_disabled":false,"rental_uris":{"android":"levelo://app?vid=8a83da41-3cfd-4396-bf0d-a4a217cf5d98","ios":"levelo://app?vid=8a83da41-3cfd-4396-bf0d-a4a217cf5d98"},"vehicle_type_id":"4","last_reported":1710350910,"current_range_meters":23600,"station_id":"","pricing_plan_id":"cebpf4jnsgd1na2vs0mg"},{"bike_id":"f87cd353-77f1-4eec-90b6-2c93023e48a5","system_id":"levelo_inurba_marseille","lat":43.29912,"lon":5.37449,"is_reserved":false,"is_disabled":false,"rental_uris":{"android":"levelo://app?vid=f87cd353-77f1-4eec-90b6-2c93023e48a5","ios":"levelo://app?vid=f87cd353-77f1-4eec-90b6-2c93023e48a5"},"vehicle_type_id":"4","last_reported":1710350910,"current_range_meters":11200,"station_id":"ce4bgjh2rcd13ifvqbg0","pricing_plan_id":"cebpf4jnsgd1na2vs0mg"},{"bike_id":"c1862554-e707-4d8c-8ad9-e5e3e31bce5f","system_id":"levelo_inurba_marseille","lat":43.298433,"lon":5.362774,"is_reserved":false,"is_disabled":false,"rental_uris":{"android":"levelo://app?vid=c1862554-e707-4d8c-8ad9-e5e3e31bce5f","ios":"levelo://app?vid=c1862554-e707-4d8c-8ad9-e5e3e31bce5f"},"vehicle_type_id":"4","last_reported":1710350910,"current_range_meters":6000,"station_id":"ce4bgpp2rcd13ifvqc3g","pricing_plan_id":"cebpf4jnsgd1na2vs0mg"},{"bike_id":"1498f53d-7955-4037-88ac-9922686ff154","system_id":"levelo_inurba_marseille","lat":43.297794,"lon":5.370888,"is_reserved":false,"is_disabled":false,"rental_uris":{"android":"levelo://app?vid=1498f53d-7955-4037-88ac-9922686ff154","ios":"levelo://app?vid=1498f53d-7955-4037-88ac-9922686ff154"},"vehicle_type_id":"4","last_reported":1710350910,"current_range_meters":18800,"station_id":"ce4bgop2rcd13ifvqc1g","pricing_plan_id":"cebpf4jnsgd1na2vs0mg"},{"bike_id":"a6148dc8-06a7-4205-865e-96dfde7b6668","system_id":"levelo_inurba_marseille","lat":43.32291,"lon":5.38254,"is_reserved":false,"is_disabled":false,"rental_uris":{"android":"levelo://app?vid=a6148dc8-06a7-4205-865e-96dfde7b6668","ios":"levelo://app?vid=a6148dc8-06a7-4205-865e-96dfde7b6668"},"vehicle_type_id":"4","last_reported":1710350910,"current_range_meters":0,"station_id":"ce4bhr12rcd13ifvqhqg","pricing_plan_id":"cebpf4jnsgd1na2vs0mg"},{"bike_id":"e17f286e-276a-477a-ad66-3e999f055e4c","system_id":"levelo_inurba_marseille","lat":43.32285,"lon":5.38262,"is_reserved":false,"is_disabled":false,"rental_uris":{"android":"levelo://app?vid=e17f286e-276a-477a-ad66-3e999f055e4c","ios":"levelo://app?vid=e17f286e-276a-477a-ad66-3e999f055e4c"},"vehicle_type_id":"4","last_reported":1710350910,"current_range_meters":27200,"station_id":"ce4bhr12rcd13ifvqhqg","pricing_plan_id":"cebpf4jnsgd1na2vs0mg"},{"bike_id":"f2491452-d17d-4fd1-b87c-31e465894cd3","system_id":"levelo_inurba_marseille","lat":43.32288,"lon":5.38263,"is_reserved":false,"is_disabled":false,"rental_uris":{"android":"levelo://app?vid=f2491452-d17d-4fd1-b87c-31e465894cd3","ios":"levelo://app?vid=f2491452-d17d-4fd1-b87c-31e465894cd3"},"vehicle_type_id":"4","last_reported":1710350910,"current_range_meters":11200,"station_id":"ce4bhr12rcd13ifvqhqg","pricing_plan_id":"cebpf4jnsgd1na2vs0mg"},{"bike_id":"a1ea46c0-4921-4767-a801-a177044432f3","system_id":"levelo_inurba_marseille","lat":43.322872,"lon":5.382756,"is_reserved":false,"is_disabled":false,"rental_uris":{"android":"levelo://app?vid=a1ea46c0-4921-4767-a801-a177044432f3","ios":"levelo://app?vid=a1ea46c0-4921-4767-a801-a177044432f3"},"vehicle_type_id":"4","last_reported":1710350910,"current_range_meters":31600,"station_id":"ce4bhr12rcd13ifvqhqg","pricing_plan_id":"cebpf4jnsgd1na2vs0mg"},{"bike_id":"3ff125a5-dff1-4591-b6cc-449dc2424878","system_id":"levelo_inurba_marseille","lat":43.322872,"lon":5.382756,"is_reserved":false,"is_disabled":false,"rental_uris":{"android":"levelo://app?vid=3ff125a5-dff1-4591-b6cc-449dc2424878","ios":"levelo://app?vid=3ff125a5-dff1-4591-b6cc-449dc2424878"},"vehicle_type_id":"4","last_reported":1710350910,"current_range_meters":23600,"station_id":"ce4bhr12rcd13ifvqhqg","pricing_plan_id":"cebpf4jnsgd1na2vs0mg"},{"bike_id":"eaf5350b-08e3-4231-8a58-3cf3fba26ee0","system_id":"levelo_inurba_marseille","lat":43.322876,"lon":5.382674,"is_reserved":false,"is_disabled":false,"rental_uris":{"android":"levelo://app?vid=eaf5350b-08e3-4231-8a58-3cf3fba26ee0","ios":"levelo://app?vid=eaf5350b-08e3-4231-8a58-3cf3fba26ee0"},"vehicle_type_id":"4","last_reported":1710350910,"current_range_meters":28800,"station_id":"ce4bhr12rcd13ifvqhqg","pricing_plan_id":"cebpf4jnsgd1na2vs0mg"},{"bike_id":"36727d06-0af4-4c64-88de-4193d3d2494b","system_id":"levelo_inurba_marseille","lat":43.322872,"lon":5.382756,"is_reserved":false,"is_disabled":false,"rental_uris":{"android":"levelo://app?vid=36727d06-0af4-4c64-88de-4193d3d2494b","ios":"levelo://app?vid=36727d06-0af4-4c64-88de-4193d3d2494b"},"vehicle_type_id":"4","last_reported":1710350910,"current_range_meters":21600,"station_id":"ce4bhr12rcd13ifvqhqg","pricing_plan_id":"cebpf4jnsgd1na2vs0mg"},{"bike_id":"e2f24066-a9da-4ac3-9953-f3c0e9a735d9","system_id":"levelo_inurba_marseille","lat":43.322916,"lon":5.38265,"is_reserved":false,"is_disabled":false,"rental_uris":{"android":"levelo://app?vid=e2f24066-a9da-4ac3-9953-f3c0e9a735d9","ios":"levelo://app?vid=e2f24066-a9da-4ac3-9953-f3c0e9a735d9"},"vehicle_type_id":"4","last_reported":1710350910,"current_range_meters":10000,"station_id":"ce4bhr12rcd13ifvqhqg","pricing_plan_id":"cebpf4jnsgd1na2vs0mg"},{"bike_id":"7d711117-8f24-4ca5-af35-2d207110a750","system_id":"levelo_inurba_marseille","lat":43.322872,"lon":5.382756,"is_reserved":false,"is_disabled":false,"rental_uris":{"android":"levelo://app?vid=7d711117-8f24-4ca5-af35-2d207110a750","ios":"levelo://app?vid=7d711117-8f24-4ca5-af35-2d207110a750"},"vehicle_type_id":"4","last_reported":1710350910,"current_range_meters":31600,"station_id":"ce4bhr12rcd13ifvqhqg","pricing_plan_id":"cebpf4jnsgd1na2vs0mg"},{"bike_id":"3abca3f8-73a4-4a83-9f7a-e9df11291bf3","system_id":"levelo_inurba_marseille","lat":43.322872,"lon":5.382756,"is_reserved":false,"is_disabled":false,"rental_uris":{"android":"levelo://app?vid=3abca3f8-73a4-4a83-9f7a-e9df11291bf3","ios":"levelo://app?vid=3abca3f8-73a4-4a83-9f7a-e9df11291bf3"},"vehicle_type_id":"4","last_reported":1710350910,"current_range_meters":30800,"station_id":"ce4bhr12rcd13ifvqhqg","pricing_plan_id":"cebpf4jnsgd1na2vs0mg"},{"bike_id":"f548446b-7df9-499c-a458-49720886bca1","system_id":"levelo_inurba_marseille","lat":43.322872,"lon":5.382756,"is_reserved":false,"is_disabled":false,"rental_uris":{"android":"levelo://app?vid=f548446b-7df9-499c-a458-49720886bca1","ios":"levelo://app?vid=f548446b-7df9-499c-a458-49720886bca1"},"vehicle_type_id":"4","last_reported":1710350910,"current_range_meters":1200,"station_id":"ce4bhr12rcd13ifvqhqg","pricing_plan_id":"cebpf4jnsgd1na2vs0mg"},{"bike_id":"ea27f394-cf36-45fc-bfaf-c97f6c9ea9b5","system_id":"levelo_inurba_marseille","lat":43.297794,"lon":5.370888,"is_reserved":false,"is_disabled":false,"rental_uris":{"android":"levelo://app?vid=ea27f394-cf36-45fc-bfaf-c97f6c9ea9b5","ios":"levelo://app?vid=ea27f394-cf36-45fc-bfaf-c97f6c9ea9b5"},"vehicle_type_id":"4","last_reported":1710350910,"current_range_meters":6800,"station_id":"ce4bgop2rcd13ifvqc1g","pricing_plan_id":"cebpf4jnsgd1na2vs0mg"},{"bike_id":"49a889b0-d5a4-400d-a2e7-daad32b5cb44","system_id":"levelo_inurba_marseille","lat":43.297774,"lon":5.370875,"is_reserved":false,"is_disabled":false,"rental_uris":{"android":"levelo://app?vid=49a889b0-d5a4-400d-a2e7-daad32b5cb44","ios":"levelo://app?vid=49a889b0-d5a4-400d-a2e7-daad32b5cb44"},"vehicle_type_id":"4","last_reported":1710350910,"current_range_meters":24800,"station_id":"ce4bgop2rcd13ifvqc1g","pricing_plan_id":"cebpf4jnsgd1na2vs0mg"},{"bike_id":"9d0d2793-67b4-4e0d-9337-f818dc6311ea","system_id":"levelo_inurba_marseille","lat":43.322872,"lon":5.382756,"is_reserved":false,"is_disabled":false,"rental_uris":{"android":"levelo://app?vid=9d0d2793-67b4-4e0d-9337-f818dc6311ea","ios":"levelo://app?vid=9d0d2793-67b4-4e0d-9337-f818dc6311ea"},"vehicle_type_id":"4","last_reported":1710350910,"current_range_meters":19600,"station_id":"ce4bhr12rcd13ifvqhqg","pricing_plan_id":"cebpf4jnsgd1na2vs0mg"},{"bike_id":"4cfa0d04-eeae-4fee-9292-de42f98abad5","system_id":"levelo_inurba_marseille","lat":43.297774,"lon":5.370875,"is_reserved":false,"is_disabled":false,"rental_uris":{"android":"levelo://app?vid=4cfa0d04-eeae-4fee-9292-de42f98abad5","ios":"levelo://app?vid=4cfa0d04-eeae-4fee-9292-de42f98abad5"},"vehicle_type_id":"4","last_reported":1710350910,"current_range_meters":21200,"station_id":"ce4bgop2rcd13ifvqc1g","pricing_plan_id":"cebpf4jnsgd1na2vs0mg"},{"bike_id":"7df01772-6e9c-453b-b157-4090e33c1dbb","system_id":"levelo_inurba_marseille","lat":43.297163,"lon":5.365866,"is_reserved":false,"is_disabled":false,"rental_uris":{"android":"levelo://app?vid=7df01772-6e9c-453b-b157-4090e33c1dbb","ios":"levelo://app?vid=7df01772-6e9c-453b-b157-4090e33c1dbb"},"vehicle_type_id":"4","last_reported":1710350910,"current_range_meters":12000,"station_id":"ce4bgn12rcd13ifvqbt0","pricing_plan_id":"cebpf4jnsgd1na2vs0mg"},{"bike_id":"5f5e2800-9937-4de3-a907-fda881005ae4","system_id":"levelo_inurba_marseille","lat":43.297794,"lon":5.370888,"is_reserved":false,"is_disabled":false,"rental_uris":{"android":"levelo://app?vid=5f5e2800-9937-4de3-a907-fda881005ae4","ios":"levelo://app?vid=5f5e2800-9937-4de3-a907-fda881005ae4"},"vehicle_type_id":"4","last_reported":1710350910,"current_range_meters":15200,"station_id":"ce4bgop2rcd13ifvqc1g","pricing_plan_id":"cebpf4jnsgd1na2vs0mg"},{"bike_id":"2f48c3fd-427b-4443-9ad4-73486ffed25b","system_id":"levelo_inurba_marseille","lat":43.296131,"lon":5.370773,"is_reserved":false,"is_disabled":false,"rental_uris":{"android":"levelo://app?vid=2f48c3fd-427b-4443-9ad4-73486ffed25b","ios":"levelo://app?vid=2f48c3fd-427b-4443-9ad4-73486ffed25b"},"vehicle_type_id":"4","last_reported":1710350910,"current_range_meters":20400,"station_id":"ce4bgnh2rcd13ifvqc0g","pricing_plan_id":"cebpf4jnsgd1na2vs0mg"},{"bike_id":"f28c9d13-689a-4d8e-97e9-665dd486dee3","system_id":"levelo_inurba_marseille","lat":43.296131,"lon":5.370791,"is_reserved":false,"is_disabled":false,"rental_uris":{"android":"levelo://app?vid=f28c9d13-689a-4d8e-97e9-665dd486dee3","ios":"levelo://app?vid=f28c9d13-689a-4d8e-97e9-665dd486dee3"},"vehicle_type_id":"4","last_reported":1710350910,"current_range_meters":16000,"station_id":"ce4bgnh2rcd13ifvqc0g","pricing_plan_id":"cebpf4jnsgd1na2vs0mg"},{"bike_id":"5e2123f0-a48d-42ba-aedc-7ed39e6bf49a","system_id":"levelo_inurba_marseille","lat":43.296129,"lon":5.370777,"is_reserved":false,"is_disabled":false,"rental_uris":{"android":"levelo://app?vid=5e2123f0-a48d-42ba-aedc-7ed39e6bf49a","ios":"levelo://app?vid=5e2123f0-a48d-42ba-aedc-7ed39e6bf49a"},"vehicle_type_id":"4","last_reported":1710350910,"current_range_meters":6000,"station_id":"ce4bgnh2rcd13ifvqc0g","pricing_plan_id":"cebpf4jnsgd1na2vs0mg"},{"bike_id":"1886045f-a71e-4b43-bb95-2b8209f8d32f","system_id":"levelo_inurba_marseille","lat":43.297537,"lon":5.377153,"is_reserved":false,"is_disabled":false,"rental_uris":{"android":"levelo://app?vid=1886045f-a71e-4b43-bb95-2b8209f8d32f","ios":"levelo://app?vid=1886045f-a71e-4b43-bb95-2b8209f8d32f"},"vehicle_type_id":"4","last_reported":1710350910,"current_range_meters":0,"station_id":"","pricing_plan_id":"cebpf4jnsgd1na2vs0mg"},{"bike_id":"4e80b5b7-0104-4a76-ba1b-2db13b12b9fb","system_id":"levelo_inurba_marseille","lat":43.296129,"lon":5.370777,"is_reserved":false,"is_disabled":false,"rental_uris":{"android":"levelo://app?vid=4e80b5b7-0104-4a76-ba1b-2db13b12b9fb","ios":"levelo://app?vid=4e80b5b7-0104-4a76-ba1b-2db13b12b9fb"},"vehicle_type_id":"4","last_reported":1710350910,"current_range_meters":9600,"station_id":"ce4bgnh2rcd13ifvqc0g","pricing_plan_id":"cebpf4jnsgd1na2vs0mg"},{"bike_id":"71d7b8c3-b553-43c8-a7bd-a66aaf9065e9","system_id":"levelo_inurba_marseille","lat":43.29573,"lon":5.367355,"is_reserved":false,"is_disabled":false,"rental_uris":{"android":"levelo://app?vid=71d7b8c3-b553-43c8-a7bd-a66aaf9065e9","ios":"levelo://app?vid=71d7b8c3-b553-43c8-a7bd-a66aaf9065e9"},"vehicle_type_id":"4","last_reported":1710350910,"current_range_meters":19200,"station_id":"ce4bgph2rcd13ifvqc2g","pricing_plan_id":"cebpf4jnsgd1na2vs0mg"},{"bike_id":"c9973b9d-b2aa-4a09-8d26-3ac8413bf677","system_id":"levelo_inurba_marseille","lat":43.29573,"lon":5.367355,"is_reserved":false,"is_disabled":false,"rental_uris":{"android":"levelo://app?vid=c9973b9d-b2aa-4a09-8d26-3ac8413bf677","ios":"levelo://app?vid=c9973b9d-b2aa-4a09-8d26-3ac8413bf677"},"vehicle_type_id":"4","last_reported":1710350910,"current_range_meters":1200,"station_id":"ce4bgph2rcd13ifvqc2g","pricing_plan_id":"cebpf4jnsgd1na2vs0mg"},{"bike_id":"397cd32f-c74d-4053-ba6f-6fae9d3510bf","system_id":"levelo_inurba_marseille","lat":43.296921,"lon":5.376579,"is_reserved":false,"is_disabled":false,"rental_uris":{"android":"levelo://app?vid=397cd32f-c74d-4053-ba6f-6fae9d3510bf","ios":"levelo://app?vid=397cd32f-c74d-4053-ba6f-6fae9d3510bf"},"vehicle_type_id":"4","last_reported":1710350910,"current_range_meters":16400,"station_id":"ce4bgkh2rcd13ifvqbl0","pricing_plan_id":"cebpf4jnsgd1na2vs0mg"},{"bike_id":"11250817-4adb-4363-82f0-1da4d6a4af85","system_id":"levelo_inurba_marseille","lat":43.309589,"lon":5.390258,"is_reserved":false,"is_disabled":false,"rental_uris":{"android":"levelo://app?vid=11250817-4adb-4363-82f0-1da4d6a4af85","ios":"levelo://app?vid=11250817-4adb-4363-82f0-1da4d6a4af85"},"vehicle_type_id":"4","last_reported":1710350910,"current_range_meters":0,"station_id":"ce4bgup2rcd13ifvqco0","pricing_plan_id":"cebpf4jnsgd1na2vs0mg"},{"bike_id":"efceeeab-1788-41f0-854d-4294fb9dfde3","system_id":"levelo_inurba_marseille","lat":43.296935,"lon":5.376544,"is_reserved":false,"is_disabled":false,"rental_uris":{"android":"levelo://app?vid=efceeeab-1788-41f0-854d-4294fb9dfde3","ios":"levelo://app?vid=efceeeab-1788-41f0-854d-4294fb9dfde3"},"vehicle_type_id":"4","last_reported":1710350910,"current_range_meters":12400,"station_id":"ce4bgkh2rcd13ifvqbl0","pricing_plan_id":"cebpf4jnsgd1na2vs0mg"},{"bike_id":"c853386d-332a-44e1-b8f3-c868b7c4a285","system_id":"levelo_inurba_marseille","lat":43.317522,"lon":5.390045,"is_reserved":false,"is_disabled":false,"rental_uris":{"android":"levelo://app?vid=c853386d-332a-44e1-b8f3-c868b7c4a285","ios":"levelo://app?vid=c853386d-332a-44e1-b8f3-c868b7c4a285"},"vehicle_type_id":"4","last_reported":1710350910,"current_range_meters":12000,"station_id":"ce4bhqp2rcd13ifvqhng","pricing_plan_id":"cebpf4jnsgd1na2vs0mg"},{"bike_id":"ba3a545d-9fec-4e88-b08a-c63ce08c8c4a","system_id":"levelo_inurba_marseille","lat":43.317557,"lon":5.390173,"is_reserved":false,"is_disabled":false,"rental_uris":{"android":"levelo://app?vid=ba3a545d-9fec-4e88-b08a-c63ce08c8c4a","ios":"levelo://app?vid=ba3a545d-9fec-4e88-b08a-c63ce08c8c4a"},"vehicle_type_id":"4","last_reported":1710350910,"current_range_meters":25600,"station_id":"ce4bhqp2rcd13ifvqhng","pricing_plan_id":"cebpf4jnsgd1na2vs0mg"},{"bike_id":"cd364902-762b-4c3e-844f-575971d38c11","system_id":"levelo_inurba_marseille","lat":43.317568,"lon":5.390105,"is_reserved":false,"is_disabled":false,"rental_uris":{"android":"levelo://app?vid=cd364902-762b-4c3e-844f-575971d38c11","ios":"levelo://app?vid=cd364902-762b-4c3e-844f-575971d38c11"},"vehicle_type_id":"4","last_reported":1710350910,"current_range_meters":16000,"station_id":"ce4bhqp2rcd13ifvqhng","pricing_plan_id":"cebpf4jnsgd1na2vs0mg"},{"bike_id":"6d310b89-9c60-4022-85a1-a6cb6d11c2da","system_id":"levelo_inurba_marseille","lat":43.317557,"lon":5.390173,"is_reserved":false,"is_disabled":false,"rental_uris":{"android":"levelo://app?vid=6d310b89-9c60-4022-85a1-a6cb6d11c2da","ios":"levelo://app?vid=6d310b89-9c60-4022-85a1-a6cb6d11c2da"},"vehicle_type_id":"4","last_reported":1710350910,"current_range_meters":21600,"station_id":"ce4bhqp2rcd13ifvqhng","pricing_plan_id":"cebpf4jnsgd1na2vs0mg"},{"bike_id":"400fc285-08c8-4b6b-a2e6-e4633d9bd4b4","system_id":"levelo_inurba_marseille","lat":43.317516,"lon":5.390129,"is_reserved":false,"is_disabled":false,"rental_uris":{"android":"levelo://app?vid=400fc285-08c8-4b6b-a2e6-e4633d9bd4b4","ios":"levelo://app?vid=400fc285-08c8-4b6b-a2e6-e4633d9bd4b4"},"vehicle_type_id":"4","last_reported":1710350910,"current_range_meters":2800,"station_id":"ce4bhqp2rcd13ifvqhng","pricing_plan_id":"cebpf4jnsgd1na2vs0mg"},{"bike_id":"86dedb7c-bab7-4d12-a006-94af04249fde","system_id":"levelo_inurba_marseille","lat":43.317557,"lon":5.390173,"is_reserved":false,"is_disabled":false,"rental_uris":{"android":"levelo://app?vid=86dedb7c-bab7-4d12-a006-94af04249fde","ios":"levelo://app?vid=86dedb7c-bab7-4d12-a006-94af04249fde"},"vehicle_type_id":"4","last_reported":1710350910,"current_range_meters":19600,"station_id":"ce4bhqp2rcd13ifvqhng","pricing_plan_id":"cebpf4jnsgd1na2vs0mg"},{"bike_id":"1088c83b-edd1-487f-ba9c-9b4dd7f4efbe","system_id":"levelo_inurba_marseille","lat":43.317557,"lon":5.390173,"is_reserved":false,"is_disabled":false,"rental_uris":{"android":"levelo://app?vid=1088c83b-edd1-487f-ba9c-9b4dd7f4efbe","ios":"levelo://app?vid=1088c83b-edd1-487f-ba9c-9b4dd7f4efbe"},"vehicle_type_id":"4","last_reported":1710350910,"current_range_meters":31600,"station_id":"ce4bhqp2rcd13ifvqhng","pricing_plan_id":"cebpf4jnsgd1na2vs0mg"},{"bike_id":"77143e07-9a56-4df7-8659-5c80a8c15c48","system_id":"levelo_inurba_marseille","lat":43.31754,"lon":5.39015,"is_reserved":false,"is_disabled":false,"rental_uris":{"android":"levelo://app?vid=77143e07-9a56-4df7-8659-5c80a8c15c48","ios":"levelo://app?vid=77143e07-9a56-4df7-8659-5c80a8c15c48"},"vehicle_type_id":"4","last_reported":1710350910,"current_range_meters":4000,"station_id":"ce4bhqp2rcd13ifvqhng","pricing_plan_id":"cebpf4jnsgd1na2vs0mg"},{"bike_id":"15e2991d-aea9-4dea-887a-fc4583d6a5ca","system_id":"levelo_inurba_marseille","lat":43.317557,"lon":5.390173,"is_reserved":false,"is_disabled":false,"rental_uris":{"android":"levelo://app?vid=15e2991d-aea9-4dea-887a-fc4583d6a5ca","ios":"levelo://app?vid=15e2991d-aea9-4dea-887a-fc4583d6a5ca"},"vehicle_type_id":"4","last_reported":1710350910,"current_range_meters":31600,"station_id":"ce4bhqp2rcd13ifvqhng","pricing_plan_id":"cebpf4jnsgd1na2vs0mg"},{"bike_id":"cdb11022-197e-4754-99b5-d4f6400fc983","system_id":"levelo_inurba_marseille","lat":43.317557,"lon":5.390173,"is_reserved":false,"is_disabled":false,"rental_uris":{"android":"levelo://app?vid=cdb11022-197e-4754-99b5-d4f6400fc983","ios":"levelo://app?vid=cdb11022-197e-4754-99b5-d4f6400fc983"},"vehicle_type_id":"4","last_reported":1710350910,"current_range_meters":21200,"station_id":"ce4bhqp2rcd13ifvqhng","pricing_plan_id":"cebpf4jnsgd1na2vs0mg"},{"bike_id":"a7e9409e-d196-40a9-8913-2226e2a94e30","system_id":"levelo_inurba_marseille","lat":43.3176,"lon":5.39016,"is_reserved":false,"is_disabled":false,"rental_uris":{"android":"levelo://app?vid=a7e9409e-d196-40a9-8913-2226e2a94e30","ios":"levelo://app?vid=a7e9409e-d196-40a9-8913-2226e2a94e30"},"vehicle_type_id":"4","last_reported":1710350910,"current_range_meters":31600,"station_id":"ce4bhqp2rcd13ifvqhng","pricing_plan_id":"cebpf4jnsgd1na2vs0mg"},{"bike_id":"e7635339-4a3c-42a4-a346-f89d0509c084","system_id":"levelo_inurba_marseille","lat":43.317557,"lon":5.390173,"is_reserved":false,"is_disabled":false,"rental_uris":{"android":"levelo://app?vid=e7635339-4a3c-42a4-a346-f89d0509c084","ios":"levelo://app?vid=e7635339-4a3c-42a4-a346-f89d0509c084"},"vehicle_type_id":"4","last_reported":1710350910,"current_range_meters":27200,"station_id":"ce4bhqp2rcd13ifvqhng","pricing_plan_id":"cebpf4jnsgd1na2vs0mg"},{"bike_id":"c2fa3ed2-c6f8-4246-91ab-6e1b79742c61","system_id":"levelo_inurba_marseille","lat":43.31763,"lon":5.39016,"is_reserved":false,"is_disabled":false,"rental_uris":{"android":"levelo://app?vid=c2fa3ed2-c6f8-4246-91ab-6e1b79742c61","ios":"levelo://app?vid=c2fa3ed2-c6f8-4246-91ab-6e1b79742c61"},"vehicle_type_id":"4","last_reported":1710350910,"current_range_meters":21200,"station_id":"ce4bhqp2rcd13ifvqhng","pricing_plan_id":"cebpf4jnsgd1na2vs0mg"},{"bike_id":"f63c0e12-1219-43b7-8ae3-7050aa802158","system_id":"levelo_inurba_marseille","lat":43.31762,"lon":5.39019,"is_reserved":false,"is_disabled":false,"rental_uris":{"android":"levelo://app?vid=f63c0e12-1219-43b7-8ae3-7050aa802158","ios":"levelo://app?vid=f63c0e12-1219-43b7-8ae3-7050aa802158"},"vehicle_type_id":"4","last_reported":1710350910,"current_range_meters":22400,"station_id":"ce4bhqp2rcd13ifvqhng","pricing_plan_id":"cebpf4jnsgd1na2vs0mg"},{"bike_id":"ce5155a1-f569-4097-982c-1231a70fa71c","system_id":"levelo_inurba_marseille","lat":43.31758,"lon":5.39021,"is_reserved":false,"is_disabled":false,"rental_uris":{"android":"levelo://app?vid=ce5155a1-f569-4097-982c-1231a70fa71c","ios":"levelo://app?vid=ce5155a1-f569-4097-982c-1231a70fa71c"},"vehicle_type_id":"4","last_reported":1710350910,"current_range_meters":11600,"station_id":"ce4bhqp2rcd13ifvqhng","pricing_plan_id":"cebpf4jnsgd1na2vs0mg"},{"bike_id":"3327a797-ea28-4477-b200-87d03234b974","system_id":"levelo_inurba_marseille","lat":43.31759,"lon":5.39023,"is_reserved":false,"is_disabled":false,"rental_uris":{"android":"levelo://app?vid=3327a797-ea28-4477-b200-87d03234b974","ios":"levelo://app?vid=3327a797-ea28-4477-b200-87d03234b974"},"vehicle_type_id":"4","last_reported":1710350910,"current_range_meters":28000,"station_id":"ce4bhqp2rcd13ifvqhng","pricing_plan_id":"cebpf4jnsgd1na2vs0mg"},{"bike_id":"73a693a1-684d-4847-a20f-d8c597f7ecd8","system_id":"levelo_inurba_marseille","lat":43.297457,"lon":5.379179,"is_reserved":false,"is_disabled":false,"rental_uris":{"android":"levelo://app?vid=73a693a1-684d-4847-a20f-d8c597f7ecd8","ios":"levelo://app?vid=73a693a1-684d-4847-a20f-d8c597f7ecd8"},"vehicle_type_id":"4","last_reported":1710350910,"current_range_meters":6800,"station_id":"","pricing_plan_id":"cebpf4jnsgd1na2vs0mg"},{"bike_id":"be54da70-120d-4842-b368-fb98c5948978","system_id":"levelo_inurba_marseille","lat":43.297432,"lon":5.379204,"is_reserved":false,"is_disabled":false,"rental_uris":{"android":"levelo://app?vid=be54da70-120d-4842-b368-fb98c5948978","ios":"levelo://app?vid=be54da70-120d-4842-b368-fb98c5948978"},"vehicle_type_id":"4","last_reported":1710350910,"current_range_meters":20000,"station_id":"","pricing_plan_id":"cebpf4jnsgd1na2vs0mg"},{"bike_id":"76dbe87b-b05b-4743-a53f-28cfb8b314bd","system_id":"levelo_inurba_marseille","lat":43.298037,"lon":5.381066,"is_reserved":false,"is_disabled":false,"rental_uris":{"android":"levelo://app?vid=76dbe87b-b05b-4743-a53f-28cfb8b314bd","ios":"levelo://app?vid=76dbe87b-b05b-4743-a53f-28cfb8b314bd"},"vehicle_type_id":"4","last_reported":1710350910,"current_range_meters":3200,"station_id":"ce4bgip2rcd13ifvqbb0","pricing_plan_id":"cebpf4jnsgd1na2vs0mg"},{"bike_id":"5e10f161-9c21-4726-b7b3-d2f8fdf57e3c","system_id":"levelo_inurba_marseille","lat":43.304274,"lon":5.388873,"is_reserved":false,"is_disabled":false,"rental_uris":{"android":"levelo://app?vid=5e10f161-9c21-4726-b7b3-d2f8fdf57e3c","ios":"levelo://app?vid=5e10f161-9c21-4726-b7b3-d2f8fdf57e3c"},"vehicle_type_id":"4","last_reported":1710350910,"current_range_meters":5600,"station_id":"ce4bgk12rcd13ifvqbi0","pricing_plan_id":"cebpf4jnsgd1na2vs0mg"},{"bike_id":"966be293-e4e9-49c7-91b9-a9a45390e9ca","system_id":"levelo_inurba_marseille","lat":43.298037,"lon":5.381066,"is_reserved":false,"is_disabled":false,"rental_uris":{"android":"levelo://app?vid=966be293-e4e9-49c7-91b9-a9a45390e9ca","ios":"levelo://app?vid=966be293-e4e9-49c7-91b9-a9a45390e9ca"},"vehicle_type_id":"4","last_reported":1710350910,"current_range_meters":0,"station_id":"ce4bgip2rcd13ifvqbb0","pricing_plan_id":"cebpf4jnsgd1na2vs0mg"},{"bike_id":"b6e3dd60-b939-480b-9f4d-d6da690675c7","system_id":"levelo_inurba_marseille","lat":43.298037,"lon":5.381066,"is_reserved":false,"is_disabled":false,"rental_uris":{"android":"levelo://app?vid=b6e3dd60-b939-480b-9f4d-d6da690675c7","ios":"levelo://app?vid=b6e3dd60-b939-480b-9f4d-d6da690675c7"},"vehicle_type_id":"4","last_reported":1710350910,"current_range_meters":400,"station_id":"ce4bgip2rcd13ifvqbb0","pricing_plan_id":"cebpf4jnsgd1na2vs0mg"},{"bike_id":"84d69973-7297-444b-986d-62d9d152fbfa","system_id":"levelo_inurba_marseille","lat":43.2979,"lon":5.38109,"is_reserved":false,"is_disabled":false,"rental_uris":{"android":"levelo://app?vid=84d69973-7297-444b-986d-62d9d152fbfa","ios":"levelo://app?vid=84d69973-7297-444b-986d-62d9d152fbfa"},"vehicle_type_id":"4","last_reported":1710350910,"current_range_meters":30000,"station_id":"ce4bgip2rcd13ifvqbb0","pricing_plan_id":"cebpf4jnsgd1na2vs0mg"},{"bike_id":"fede9919-0872-4ad0-8e0c-0044f11af976","system_id":"levelo_inurba_marseille","lat":43.30429,"lon":5.3889,"is_reserved":false,"is_disabled":false,"rental_uris":{"android":"levelo://app?vid=fede9919-0872-4ad0-8e0c-0044f11af976","ios":"levelo://app?vid=fede9919-0872-4ad0-8e0c-0044f11af976"},"vehicle_type_id":"4","last_reported":1710350910,"current_range_meters":0,"station_id":"ce4bgk12rcd13ifvqbi0","pricing_plan_id":"cebpf4jnsgd1na2vs0mg"},{"bike_id":"87cc7370-2ef9-4424-9a59-a5f7e4e79089","system_id":"levelo_inurba_marseille","lat":43.3043,"lon":5.38897,"is_reserved":false,"is_disabled":false,"rental_uris":{"android":"levelo://app?vid=87cc7370-2ef9-4424-9a59-a5f7e4e79089","ios":"levelo://app?vid=87cc7370-2ef9-4424-9a59-a5f7e4e79089"},"vehicle_type_id":"4","last_reported":1710350910,"current_range_meters":0,"station_id":"ce4bgk12rcd13ifvqbi0","pricing_plan_id":"cebpf4jnsgd1na2vs0mg"},{"bike_id":"0602b2d8-9f66-4421-9ea6-a5ea906a3ff7","system_id":"levelo_inurba_marseille","lat":43.295748,"lon":5.37522,"is_reserved":false,"is_disabled":false,"rental_uris":{"android":"levelo://app?vid=0602b2d8-9f66-4421-9ea6-a5ea906a3ff7","ios":"levelo://app?vid=0602b2d8-9f66-4421-9ea6-a5ea906a3ff7"},"vehicle_type_id":"4","last_reported":1710350910,"current_range_meters":25600,"station_id":"ce4bgh92rcd13ifvqb50","pricing_plan_id":"cebpf4jnsgd1na2vs0mg"},{"bike_id":"5f1e4733-5747-4df4-b7f7-8623c2758165","system_id":"levelo_inurba_marseille","lat":43.304278,"lon":5.388868,"is_reserved":false,"is_disabled":false,"rental_uris":{"android":"levelo://app?vid=5f1e4733-5747-4df4-b7f7-8623c2758165","ios":"levelo://app?vid=5f1e4733-5747-4df4-b7f7-8623c2758165"},"vehicle_type_id":"4","last_reported":1710350910,"current_range_meters":0,"station_id":"ce4bgk12rcd13ifvqbi0","pricing_plan_id":"cebpf4jnsgd1na2vs0mg"},{"bike_id":"70e20882-3aa9-4208-954d-b7cc032416ee","system_id":"levelo_inurba_marseille","lat":43.29498,"lon":5.374,"is_reserved":false,"is_disabled":false,"rental_uris":{"android":"levelo://app?vid=70e20882-3aa9-4208-954d-b7cc032416ee","ios":"levelo://app?vid=70e20882-3aa9-4208-954d-b7cc032416ee"},"vehicle_type_id":"4","last_reported":1710350910,"current_range_meters":22400,"station_id":"","pricing_plan_id":"cebpf4jnsgd1na2vs0mg"},{"bike_id":"b495ee4d-8284-49d8-ac5e-171d99cc87dc","system_id":"levelo_inurba_marseille","lat":43.299399,"lon":5.384917,"is_reserved":false,"is_disabled":false,"rental_uris":{"android":"levelo://app?vid=b495ee4d-8284-49d8-ac5e-171d99cc87dc","ios":"levelo://app?vid=b495ee4d-8284-49d8-ac5e-171d99cc87dc"},"vehicle_type_id":"4","last_reported":1710350910,"current_range_meters":15600,"station_id":"ce4bgj92rcd13ifvqbd0","pricing_plan_id":"cebpf4jnsgd1na2vs0mg"},{"bike_id":"2d7b2839-5d60-489d-a0b0-69cf4aaf9424","system_id":"levelo_inurba_marseille","lat":43.32327,"lon":5.38876,"is_reserved":false,"is_disabled":false,"rental_uris":{"android":"levelo://app?vid=2d7b2839-5d60-489d-a0b0-69cf4aaf9424","ios":"levelo://app?vid=2d7b2839-5d60-489d-a0b0-69cf4aaf9424"},"vehicle_type_id":"4","last_reported":1710350910,"current_range_meters":14400,"station_id":"","pricing_plan_id":"cebpf4jnsgd1na2vs0mg"},{"bike_id":"c623da6a-a969-46b8-9bcb-c5ff99456ce6","system_id":"levelo_inurba_marseille","lat":43.32364,"lon":5.38842,"is_reserved":false,"is_disabled":false,"rental_uris":{"android":"levelo://app?vid=c623da6a-a969-46b8-9bcb-c5ff99456ce6","ios":"levelo://app?vid=c623da6a-a969-46b8-9bcb-c5ff99456ce6"},"vehicle_type_id":"4","last_reported":1710350910,"current_range_meters":18000,"station_id":"ce4bhqp2rcd13ifvqhog","pricing_plan_id":"cebpf4jnsgd1na2vs0mg"},{"bike_id":"214513c2-0f8d-4a35-aa55-ac50aeaa598a","system_id":"levelo_inurba_marseille","lat":43.32364,"lon":5.38872,"is_reserved":false,"is_disabled":false,"rental_uris":{"android":"levelo://app?vid=214513c2-0f8d-4a35-aa55-ac50aeaa598a","ios":"levelo://app?vid=214513c2-0f8d-4a35-aa55-ac50aeaa598a"},"vehicle_type_id":"4","last_reported":1710350910,"current_range_meters":24000,"station_id":"ce4bhqp2rcd13ifvqhog","pricing_plan_id":"cebpf4jnsgd1na2vs0mg"},{"bike_id":"f67ac30c-e0bd-4685-b404-f052951b724b","system_id":"levelo_inurba_marseille","lat":43.29894,"lon":5.3854,"is_reserved":false,"is_disabled":false,"rental_uris":{"android":"levelo://app?vid=f67ac30c-e0bd-4685-b404-f052951b724b","ios":"levelo://app?vid=f67ac30c-e0bd-4685-b404-f052951b724b"},"vehicle_type_id":"4","last_reported":1710350910,"current_range_meters":12800,"station_id":"","pricing_plan_id":"cebpf4jnsgd1na2vs0mg"},{"bike_id":"8057b4d8-16e6-4d39-84b0-e8e0b97fc204","system_id":"levelo_inurba_marseille","lat":43.32367,"lon":5.388836,"is_reserved":false,"is_disabled":false,"rental_uris":{"android":"levelo://app?vid=8057b4d8-16e6-4d39-84b0-e8e0b97fc204","ios":"levelo://app?vid=8057b4d8-16e6-4d39-84b0-e8e0b97fc204"},"vehicle_type_id":"4","last_reported":1710350910,"current_range_meters":11600,"station_id":"ce4bhqp2rcd13ifvqhog","pricing_plan_id":"cebpf4jnsgd1na2vs0mg"},{"bike_id":"12289e1e-1c71-4773-991b-0dacf075009f","system_id":"levelo_inurba_marseille","lat":43.32367,"lon":5.38877,"is_reserved":false,"is_disabled":false,"rental_uris":{"android":"levelo://app?vid=12289e1e-1c71-4773-991b-0dacf075009f","ios":"levelo://app?vid=12289e1e-1c71-4773-991b-0dacf075009f"},"vehicle_type_id":"4","last_reported":1710350910,"current_range_meters":25600,"station_id":"ce4bhqp2rcd13ifvqhog","pricing_plan_id":"cebpf4jnsgd1na2vs0mg"},{"bike_id":"814e9b11-b6da-4c41-a98f-46d81e6f367e","system_id":"levelo_inurba_marseille","lat":43.32367,"lon":5.388836,"is_reserved":false,"is_disabled":false,"rental_uris":{"android":"levelo://app?vid=814e9b11-b6da-4c41-a98f-46d81e6f367e","ios":"levelo://app?vid=814e9b11-b6da-4c41-a98f-46d81e6f367e"},"vehicle_type_id":"4","last_reported":1710350910,"current_range_meters":16400,"station_id":"ce4bhqp2rcd13ifvqhog","pricing_plan_id":"cebpf4jnsgd1na2vs0mg"},{"bike_id":"a2dba51a-b2d7-4c36-b5ce-152632c4dfd5","system_id":"levelo_inurba_marseille","lat":43.32367,"lon":5.388836,"is_reserved":false,"is_disabled":false,"rental_uris":{"android":"levelo://app?vid=a2dba51a-b2d7-4c36-b5ce-152632c4dfd5","ios":"levelo://app?vid=a2dba51a-b2d7-4c36-b5ce-152632c4dfd5"},"vehicle_type_id":"4","last_reported":1710350910,"current_range_meters":19200,"station_id":"ce4bhqp2rcd13ifvqhog","pricing_plan_id":"cebpf4jnsgd1na2vs0mg"},{"bike_id":"f9d8fe70-a8de-437f-8109-ffd6464bca85","system_id":"levelo_inurba_marseille","lat":43.32369,"lon":5.3888,"is_reserved":false,"is_disabled":false,"rental_uris":{"android":"levelo://app?vid=f9d8fe70-a8de-437f-8109-ffd6464bca85","ios":"levelo://app?vid=f9d8fe70-a8de-437f-8109-ffd6464bca85"},"vehicle_type_id":"4","last_reported":1710350910,"current_range_meters":16800,"station_id":"ce4bhqp2rcd13ifvqhog","pricing_plan_id":"cebpf4jnsgd1na2vs0mg"},{"bike_id":"e6a60513-e8b7-483d-a0ac-59c1b33b431c","system_id":"levelo_inurba_marseille","lat":43.32367,"lon":5.388836,"is_reserved":false,"is_disabled":false,"rental_uris":{"android":"levelo://app?vid=e6a60513-e8b7-483d-a0ac-59c1b33b431c","ios":"levelo://app?vid=e6a60513-e8b7-483d-a0ac-59c1b33b431c"},"vehicle_type_id":"4","last_reported":1710350910,"current_range_meters":16000,"station_id":"ce4bhqp2rcd13ifvqhog","pricing_plan_id":"cebpf4jnsgd1na2vs0mg"},{"bike_id":"991d7feb-dcd7-453d-a499-fd702ced26e1","system_id":"levelo_inurba_marseille","lat":43.32367,"lon":5.388836,"is_reserved":false,"is_disabled":false,"rental_uris":{"android":"levelo://app?vid=991d7feb-dcd7-453d-a499-fd702ced26e1","ios":"levelo://app?vid=991d7feb-dcd7-453d-a499-fd702ced26e1"},"vehicle_type_id":"4","last_reported":1710350910,"current_range_meters":4000,"station_id":"ce4bhqp2rcd13ifvqhog","pricing_plan_id":"cebpf4jnsgd1na2vs0mg"},{"bike_id":"e51693d7-1dd2-401e-9b75-f4e8a3f19ebd","system_id":"levelo_inurba_marseille","lat":43.32367,"lon":5.388836,"is_reserved":false,"is_disabled":false,"rental_uris":{"android":"levelo://app?vid=e51693d7-1dd2-401e-9b75-f4e8a3f19ebd","ios":"levelo://app?vid=e51693d7-1dd2-401e-9b75-f4e8a3f19ebd"},"vehicle_type_id":"4","last_reported":1710350910,"current_range_meters":21200,"station_id":"ce4bhqp2rcd13ifvqhog","pricing_plan_id":"cebpf4jnsgd1na2vs0mg"},{"bike_id":"4d51bd6b-94cd-443c-802c-71a7d7b1f44c","system_id":"levelo_inurba_marseille","lat":43.32367,"lon":5.38884,"is_reserved":false,"is_disabled":false,"rental_uris":{"android":"levelo://app?vid=4d51bd6b-94cd-443c-802c-71a7d7b1f44c","ios":"levelo://app?vid=4d51bd6b-94cd-443c-802c-71a7d7b1f44c"},"vehicle_type_id":"4","last_reported":1710350910,"current_range_meters":14800,"station_id":"ce4bhqp2rcd13ifvqhog","pricing_plan_id":"cebpf4jnsgd1na2vs0mg"},{"bike_id":"85208358-1d9c-42e8-98c3-73b8b13c7ee8","system_id":"levelo_inurba_marseille","lat":43.323676,"lon":5.388839,"is_reserved":false,"is_disabled":false,"rental_uris":{"android":"levelo://app?vid=85208358-1d9c-42e8-98c3-73b8b13c7ee8","ios":"levelo://app?vid=85208358-1d9c-42e8-98c3-73b8b13c7ee8"},"vehicle_type_id":"4","last_reported":1710350910,"current_range_meters":0,"station_id":"ce4bhqp2rcd13ifvqhog","pricing_plan_id":"cebpf4jnsgd1na2vs0mg"},{"bike_id":"049264a0-55e2-4f55-8e43-ef8b86006ff0","system_id":"levelo_inurba_marseille","lat":43.32367,"lon":5.388836,"is_reserved":false,"is_disabled":false,"rental_uris":{"android":"levelo://app?vid=049264a0-55e2-4f55-8e43-ef8b86006ff0","ios":"levelo://app?vid=049264a0-55e2-4f55-8e43-ef8b86006ff0"},"vehicle_type_id":"4","last_reported":1710350910,"current_range_meters":25200,"station_id":"ce4bhqp2rcd13ifvqhog","pricing_plan_id":"cebpf4jnsgd1na2vs0mg"},{"bike_id":"f14c9a56-6115-4cb7-8920-5b14ab230a3d","system_id":"levelo_inurba_marseille","lat":43.32371,"lon":5.38888,"is_reserved":false,"is_disabled":false,"rental_uris":{"android":"levelo://app?vid=f14c9a56-6115-4cb7-8920-5b14ab230a3d","ios":"levelo://app?vid=f14c9a56-6115-4cb7-8920-5b14ab230a3d"},"vehicle_type_id":"4","last_reported":1710350910,"current_range_meters":8400,"station_id":"ce4bhqp2rcd13ifvqhog","pricing_plan_id":"cebpf4jnsgd1na2vs0mg"},{"bike_id":"0baecd5e-0049-4b19-8872-834ba1edcdb4","system_id":"levelo_inurba_marseille","lat":43.32367,"lon":5.388836,"is_reserved":false,"is_disabled":false,"rental_uris":{"android":"levelo://app?vid=0baecd5e-0049-4b19-8872-834ba1edcdb4","ios":"levelo://app?vid=0baecd5e-0049-4b19-8872-834ba1edcdb4"},"vehicle_type_id":"4","last_reported":1710350910,"current_range_meters":15600,"station_id":"ce4bhqp2rcd13ifvqhog","pricing_plan_id":"cebpf4jnsgd1na2vs0mg"},{"bike_id":"95e5c2c9-6ae9-461f-a21d-27504720ab77","system_id":"levelo_inurba_marseille","lat":43.29602,"lon":5.381084,"is_reserved":false,"is_disabled":false,"rental_uris":{"android":"levelo://app?vid=95e5c2c9-6ae9-461f-a21d-27504720ab77","ios":"levelo://app?vid=95e5c2c9-6ae9-461f-a21d-27504720ab77"},"vehicle_type_id":"4","last_reported":1710350910,"current_range_meters":14800,"station_id":"ce4bgl12rcd13ifvqbo0","pricing_plan_id":"cebpf4jnsgd1na2vs0mg"},{"bike_id":"31cd9a6e-3fa3-43f6-b9d1-535da690b2d1","system_id":"levelo_inurba_marseille","lat":43.29602,"lon":5.381084,"is_reserved":false,"is_disabled":false,"rental_uris":{"android":"levelo://app?vid=31cd9a6e-3fa3-43f6-b9d1-535da690b2d1","ios":"levelo://app?vid=31cd9a6e-3fa3-43f6-b9d1-535da690b2d1"},"vehicle_type_id":"4","last_reported":1710350910,"current_range_meters":6400,"station_id":"ce4bgl12rcd13ifvqbo0","pricing_plan_id":"cebpf4jnsgd1na2vs0mg"},{"bike_id":"66287823-355e-4e62-aecb-fd57e7e39102","system_id":"levelo_inurba_marseille","lat":43.29601,"lon":5.381084,"is_reserved":false,"is_disabled":false,"rental_uris":{"android":"levelo://app?vid=66287823-355e-4e62-aecb-fd57e7e39102","ios":"levelo://app?vid=66287823-355e-4e62-aecb-fd57e7e39102"},"vehicle_type_id":"4","last_reported":1710350910,"current_range_meters":0,"station_id":"ce4bgl12rcd13ifvqbo0","pricing_plan_id":"cebpf4jnsgd1na2vs0mg"},{"bike_id":"b735a79c-ef77-4ed3-9e5e-cf72771ecef0","system_id":"levelo_inurba_marseille","lat":43.2959,"lon":5.38101,"is_reserved":false,"is_disabled":false,"rental_uris":{"android":"levelo://app?vid=b735a79c-ef77-4ed3-9e5e-cf72771ecef0","ios":"levelo://app?vid=b735a79c-ef77-4ed3-9e5e-cf72771ecef0"},"vehicle_type_id":"4","last_reported":1710350910,"current_range_meters":8000,"station_id":"ce4bgl12rcd13ifvqbo0","pricing_plan_id":"cebpf4jnsgd1na2vs0mg"},{"bike_id":"99f925c1-504a-4a5b-8cb0-0e044041fb16","system_id":"levelo_inurba_marseille","lat":43.29276,"lon":5.36845,"is_reserved":false,"is_disabled":false,"rental_uris":{"android":"levelo://app?vid=99f925c1-504a-4a5b-8cb0-0e044041fb16","ios":"levelo://app?vid=99f925c1-504a-4a5b-8cb0-0e044041fb16"},"vehicle_type_id":"4","last_reported":1710350910,"current_range_meters":0,"station_id":"ce4bhbp2rcd13ifvqesg","pricing_plan_id":"cebpf4jnsgd1na2vs0mg"},{"bike_id":"5425c9e2-171a-427c-90db-9b35fe70306a","system_id":"levelo_inurba_marseille","lat":43.294165,"lon":5.378498,"is_reserved":false,"is_disabled":false,"rental_uris":{"android":"levelo://app?vid=5425c9e2-171a-427c-90db-9b35fe70306a","ios":"levelo://app?vid=5425c9e2-171a-427c-90db-9b35fe70306a"},"vehicle_type_id":"4","last_reported":1710350910,"current_range_meters":13200,"station_id":"","pricing_plan_id":"cebpf4jnsgd1na2vs0mg"},{"bike_id":"18f42ad9-2bd0-49d1-bd0e-d6eacc6031d7","system_id":"levelo_inurba_marseille","lat":43.29229,"lon":5.3648,"is_reserved":false,"is_disabled":false,"rental_uris":{"android":"levelo://app?vid=18f42ad9-2bd0-49d1-bd0e-d6eacc6031d7","ios":"levelo://app?vid=18f42ad9-2bd0-49d1-bd0e-d6eacc6031d7"},"vehicle_type_id":"4","last_reported":1710350910,"current_range_meters":0,"station_id":"","pricing_plan_id":"cebpf4jnsgd1na2vs0mg"},{"bike_id":"39295647-5336-4c43-89a9-c811656aacba","system_id":"levelo_inurba_marseille","lat":43.305994,"lon":5.393687,"is_reserved":false,"is_disabled":false,"rental_uris":{"android":"levelo://app?vid=39295647-5336-4c43-89a9-c811656aacba","ios":"levelo://app?vid=39295647-5336-4c43-89a9-c811656aacba"},"vehicle_type_id":"4","last_reported":1710350910,"current_range_meters":6400,"station_id":"ce4bh0p2rcd13ifvqd80","pricing_plan_id":"cebpf4jnsgd1na2vs0mg"},{"bike_id":"0f503c43-0771-4d9c-abd8-09391a5a2f6f","system_id":"levelo_inurba_marseille","lat":43.293009,"lon":5.374584,"is_reserved":false,"is_disabled":false,"rental_uris":{"android":"levelo://app?vid=0f503c43-0771-4d9c-abd8-09391a5a2f6f","ios":"levelo://app?vid=0f503c43-0771-4d9c-abd8-09391a5a2f6f"},"vehicle_type_id":"4","last_reported":1710350910,"current_range_meters":19200,"station_id":"ce4bgi12rcd13ifvqb70","pricing_plan_id":"cebpf4jnsgd1na2vs0mg"},{"bike_id":"6a8e88d8-0ee7-4c1b-8b53-0cbcf32f87e9","system_id":"levelo_inurba_marseille","lat":43.30588,"lon":5.39359,"is_reserved":false,"is_disabled":false,"rental_uris":{"android":"levelo://app?vid=6a8e88d8-0ee7-4c1b-8b53-0cbcf32f87e9","ios":"levelo://app?vid=6a8e88d8-0ee7-4c1b-8b53-0cbcf32f87e9"},"vehicle_type_id":"4","last_reported":1710350910,"current_range_meters":0,"station_id":"ce4bh0p2rcd13ifvqd80","pricing_plan_id":"cebpf4jnsgd1na2vs0mg"},{"bike_id":"53668f4b-e4f8-4826-b722-8466581e4cc6","system_id":"levelo_inurba_marseille","lat":43.303002,"lon":5.392142,"is_reserved":false,"is_disabled":false,"rental_uris":{"android":"levelo://app?vid=53668f4b-e4f8-4826-b722-8466581e4cc6","ios":"levelo://app?vid=53668f4b-e4f8-4826-b722-8466581e4cc6"},"vehicle_type_id":"4","last_reported":1710350910,"current_range_meters":0,"station_id":"ce4bgkh2rcd13ifvqbk0","pricing_plan_id":"cebpf4jnsgd1na2vs0mg"},{"bike_id":"cb61f44d-0f89-4133-bdbe-01ab4a6757cc","system_id":"levelo_inurba_marseille","lat":43.2936,"lon":5.37835,"is_reserved":false,"is_disabled":false,"rental_uris":{"android":"levelo://app?vid=cb61f44d-0f89-4133-bdbe-01ab4a6757cc","ios":"levelo://app?vid=cb61f44d-0f89-4133-bdbe-01ab4a6757cc"},"vehicle_type_id":"4","last_reported":1710350910,"current_range_meters":0,"station_id":"ce4bgjh2rcd13ifvqbf0","pricing_plan_id":"cebpf4jnsgd1na2vs0mg"},{"bike_id":"d2e7809b-417d-497a-ac60-e909d77d1f04","system_id":"levelo_inurba_marseille","lat":43.29365,"lon":5.37839,"is_reserved":false,"is_disabled":false,"rental_uris":{"android":"levelo://app?vid=d2e7809b-417d-497a-ac60-e909d77d1f04","ios":"levelo://app?vid=d2e7809b-417d-497a-ac60-e909d77d1f04"},"vehicle_type_id":"4","last_reported":1710350910,"current_range_meters":0,"station_id":"ce4bgjh2rcd13ifvqbf0","pricing_plan_id":"cebpf4jnsgd1na2vs0mg"},{"bike_id":"cd8e8591-894c-4672-9144-c34433ce73af","system_id":"levelo_inurba_marseille","lat":43.2936,"lon":5.37835,"is_reserved":false,"is_disabled":false,"rental_uris":{"android":"levelo://app?vid=cd8e8591-894c-4672-9144-c34433ce73af","ios":"levelo://app?vid=cd8e8591-894c-4672-9144-c34433ce73af"},"vehicle_type_id":"4","last_reported":1710350910,"current_range_meters":23200,"station_id":"ce4bgjh2rcd13ifvqbf0","pricing_plan_id":"cebpf4jnsgd1na2vs0mg"},{"bike_id":"93173a0b-e6fa-4376-9cd9-ad24d863c623","system_id":"levelo_inurba_marseille","lat":43.292311,"lon":5.360731,"is_reserved":false,"is_disabled":false,"rental_uris":{"android":"levelo://app?vid=93173a0b-e6fa-4376-9cd9-ad24d863c623","ios":"levelo://app?vid=93173a0b-e6fa-4376-9cd9-ad24d863c623"},"vehicle_type_id":"4","last_reported":1710350910,"current_range_meters":0,"station_id":"ce4bhbh2rcd13ifvqeqg","pricing_plan_id":"cebpf4jnsgd1na2vs0mg"},{"bike_id":"68adda93-6089-497e-a8bc-8a8d988439a8","system_id":"levelo_inurba_marseille","lat":43.292298,"lon":5.360599,"is_reserved":false,"is_disabled":false,"rental_uris":{"android":"levelo://app?vid=68adda93-6089-497e-a8bc-8a8d988439a8","ios":"levelo://app?vid=68adda93-6089-497e-a8bc-8a8d988439a8"},"vehicle_type_id":"4","last_reported":1710350910,"current_range_meters":24000,"station_id":"","pricing_plan_id":"cebpf4jnsgd1na2vs0mg"},{"bike_id":"4f8b7c03-c09d-4c2b-8575-f707061e7c3b","system_id":"levelo_inurba_marseille","lat":43.30083,"lon":5.39083,"is_reserved":false,"is_disabled":false,"rental_uris":{"android":"levelo://app?vid=4f8b7c03-c09d-4c2b-8575-f707061e7c3b","ios":"levelo://app?vid=4f8b7c03-c09d-4c2b-8575-f707061e7c3b"},"vehicle_type_id":"4","last_reported":1710350910,"current_range_meters":0,"station_id":"","pricing_plan_id":"cebpf4jnsgd1na2vs0mg"},{"bike_id":"9a76df40-5a2f-42bc-9271-2cf77c838da0","system_id":"levelo_inurba_marseille","lat":43.291781,"lon":5.371421,"is_reserved":false,"is_disabled":false,"rental_uris":{"android":"levelo://app?vid=9a76df40-5a2f-42bc-9271-2cf77c838da0","ios":"levelo://app?vid=9a76df40-5a2f-42bc-9271-2cf77c838da0"},"vehicle_type_id":"4","last_reported":1710350910,"current_range_meters":0,"station_id":"ce4bha92rcd13ifvqeh0","pricing_plan_id":"cebpf4jnsgd1na2vs0mg"},{"bike_id":"4cc769fe-1cbe-4726-8228-b8c0d094f13d","system_id":"levelo_inurba_marseille","lat":43.298764,"lon":5.388973,"is_reserved":false,"is_disabled":false,"rental_uris":{"android":"levelo://app?vid=4cc769fe-1cbe-4726-8228-b8c0d094f13d","ios":"levelo://app?vid=4cc769fe-1cbe-4726-8228-b8c0d094f13d"},"vehicle_type_id":"4","last_reported":1710350910,"current_range_meters":7600,"station_id":"ce4bh392rcd13ifvqdl0","pricing_plan_id":"cebpf4jnsgd1na2vs0mg"},{"bike_id":"0b51b4dd-e7d5-43d7-9d14-2b6b92b93c82","system_id":"levelo_inurba_marseille","lat":43.298764,"lon":5.388973,"is_reserved":false,"is_disabled":false,"rental_uris":{"android":"levelo://app?vid=0b51b4dd-e7d5-43d7-9d14-2b6b92b93c82","ios":"levelo://app?vid=0b51b4dd-e7d5-43d7-9d14-2b6b92b93c82"},"vehicle_type_id":"4","last_reported":1710350910,"current_range_meters":2000,"station_id":"ce4bh392rcd13ifvqdl0","pricing_plan_id":"cebpf4jnsgd1na2vs0mg"},{"bike_id":"302eb766-6cef-474a-9926-509cc147d8ca","system_id":"levelo_inurba_marseille","lat":43.298764,"lon":5.388973,"is_reserved":false,"is_disabled":false,"rental_uris":{"android":"levelo://app?vid=302eb766-6cef-474a-9926-509cc147d8ca","ios":"levelo://app?vid=302eb766-6cef-474a-9926-509cc147d8ca"},"vehicle_type_id":"4","last_reported":1710350910,"current_range_meters":0,"station_id":"ce4bh392rcd13ifvqdl0","pricing_plan_id":"cebpf4jnsgd1na2vs0mg"},{"bike_id":"f731936d-11fa-49ef-b60f-959dd1190113","system_id":"levelo_inurba_marseille","lat":43.298764,"lon":5.388973,"is_reserved":false,"is_disabled":false,"rental_uris":{"android":"levelo://app?vid=f731936d-11fa-49ef-b60f-959dd1190113","ios":"levelo://app?vid=f731936d-11fa-49ef-b60f-959dd1190113"},"vehicle_type_id":"4","last_reported":1710350910,"current_range_meters":7200,"station_id":"ce4bh392rcd13ifvqdl0","pricing_plan_id":"cebpf4jnsgd1na2vs0mg"},{"bike_id":"a732c58c-c085-457f-835d-15db84e161cf","system_id":"levelo_inurba_marseille","lat":43.298764,"lon":5.388973,"is_reserved":false,"is_disabled":false,"rental_uris":{"android":"levelo://app?vid=a732c58c-c085-457f-835d-15db84e161cf","ios":"levelo://app?vid=a732c58c-c085-457f-835d-15db84e161cf"},"vehicle_type_id":"4","last_reported":1710350910,"current_range_meters":14000,"station_id":"ce4bh392rcd13ifvqdl0","pricing_plan_id":"cebpf4jnsgd1na2vs0mg"},{"bike_id":"edc77f84-cf07-426d-89bb-d580c5345b17","system_id":"levelo_inurba_marseille","lat":43.298764,"lon":5.388973,"is_reserved":false,"is_disabled":false,"rental_uris":{"android":"levelo://app?vid=edc77f84-cf07-426d-89bb-d580c5345b17","ios":"levelo://app?vid=edc77f84-cf07-426d-89bb-d580c5345b17"},"vehicle_type_id":"4","last_reported":1710350910,"current_range_meters":0,"station_id":"ce4bh392rcd13ifvqdl0","pricing_plan_id":"cebpf4jnsgd1na2vs0mg"},{"bike_id":"7047288c-5cea-4dd8-8b7e-7e3808344ed3","system_id":"levelo_inurba_marseille","lat":43.29861,"lon":5.3891,"is_reserved":false,"is_disabled":false,"rental_uris":{"android":"levelo://app?vid=7047288c-5cea-4dd8-8b7e-7e3808344ed3","ios":"levelo://app?vid=7047288c-5cea-4dd8-8b7e-7e3808344ed3"},"vehicle_type_id":"4","last_reported":1710350910,"current_range_meters":0,"station_id":"ce4bh392rcd13ifvqdl0","pricing_plan_id":"cebpf4jnsgd1na2vs0mg"},{"bike_id":"bdf80a15-6546-4dd6-af4b-b5b8d0460fb2","system_id":"levelo_inurba_marseille","lat":43.29152,"lon":5.37153,"is_reserved":false,"is_disabled":false,"rental_uris":{"android":"levelo://app?vid=bdf80a15-6546-4dd6-af4b-b5b8d0460fb2","ios":"levelo://app?vid=bdf80a15-6546-4dd6-af4b-b5b8d0460fb2"},"vehicle_type_id":"4","last_reported":1710350910,"current_range_meters":0,"station_id":"ce4bha92rcd13ifvqeh0","pricing_plan_id":"cebpf4jnsgd1na2vs0mg"},{"bike_id":"8ba9db81-d7f5-4d06-bc74-35e370f6a266","system_id":"levelo_inurba_marseille","lat":43.291994,"lon":5.357886,"is_reserved":false,"is_disabled":false,"rental_uris":{"android":"levelo://app?vid=8ba9db81-d7f5-4d06-bc74-35e370f6a266","ios":"levelo://app?vid=8ba9db81-d7f5-4d06-bc74-35e370f6a266"},"vehicle_type_id":"4","last_reported":1710350910,"current_range_meters":0,"station_id":"ce4bhb12rcd13ifvqel0","pricing_plan_id":"cebpf4jnsgd1na2vs0mg"},{"bike_id":"5df810e9-67cf-4ba2-9666-d7af7567643a","system_id":"levelo_inurba_marseille","lat":43.291955,"lon":5.357984,"is_reserved":false,"is_disabled":false,"rental_uris":{"android":"levelo://app?vid=5df810e9-67cf-4ba2-9666-d7af7567643a","ios":"levelo://app?vid=5df810e9-67cf-4ba2-9666-d7af7567643a"},"vehicle_type_id":"4","last_reported":1710350910,"current_range_meters":7200,"station_id":"ce4bhb12rcd13ifvqel0","pricing_plan_id":"cebpf4jnsgd1na2vs0mg"},{"bike_id":"66c0f858-2ad7-4d9d-8dbf-bad018c79c95","system_id":"levelo_inurba_marseille","lat":43.2919,"lon":5.35797,"is_reserved":false,"is_disabled":false,"rental_uris":{"android":"levelo://app?vid=66c0f858-2ad7-4d9d-8dbf-bad018c79c95","ios":"levelo://app?vid=66c0f858-2ad7-4d9d-8dbf-bad018c79c95"},"vehicle_type_id":"4","last_reported":1710350910,"current_range_meters":25600,"station_id":"ce4bhb12rcd13ifvqel0","pricing_plan_id":"cebpf4jnsgd1na2vs0mg"},{"bike_id":"e7e562e9-d3dd-41b1-9cb9-7189badc9687","system_id":"levelo_inurba_marseille","lat":43.29188,"lon":5.358,"is_reserved":false,"is_disabled":false,"rental_uris":{"android":"levelo://app?vid=e7e562e9-d3dd-41b1-9cb9-7189badc9687","ios":"levelo://app?vid=e7e562e9-d3dd-41b1-9cb9-7189badc9687"},"vehicle_type_id":"4","last_reported":1710350910,"current_range_meters":17600,"station_id":"ce4bhb12rcd13ifvqel0","pricing_plan_id":"cebpf4jnsgd1na2vs0mg"},{"bike_id":"14af8c88-2503-414a-8e9a-6fa575ad5ecf","system_id":"levelo_inurba_marseille","lat":43.291994,"lon":5.357886,"is_reserved":false,"is_disabled":false,"rental_uris":{"android":"levelo://app?vid=14af8c88-2503-414a-8e9a-6fa575ad5ecf","ios":"levelo://app?vid=14af8c88-2503-414a-8e9a-6fa575ad5ecf"},"vehicle_type_id":"4","last_reported":1710350910,"current_range_meters":4800,"station_id":"ce4bhb12rcd13ifvqel0","pricing_plan_id":"cebpf4jnsgd1na2vs0mg"},{"bike_id":"e1299490-cbd8-4dd3-9c53-d338cfaed0f1","system_id":"levelo_inurba_marseille","lat":43.29186,"lon":5.35789,"is_reserved":false,"is_disabled":false,"rental_uris":{"android":"levelo://app?vid=e1299490-cbd8-4dd3-9c53-d338cfaed0f1","ios":"levelo://app?vid=e1299490-cbd8-4dd3-9c53-d338cfaed0f1"},"vehicle_type_id":"4","last_reported":1710350910,"current_range_meters":0,"station_id":"ce4bhb12rcd13ifvqel0","pricing_plan_id":"cebpf4jnsgd1na2vs0mg"},{"bike_id":"762842b3-dab7-4f5a-9217-7e1955bb468f","system_id":"levelo_inurba_marseille","lat":43.309047,"lon":5.396551,"is_reserved":false,"is_disabled":false,"rental_uris":{"android":"levelo://app?vid=762842b3-dab7-4f5a-9217-7e1955bb468f","ios":"levelo://app?vid=762842b3-dab7-4f5a-9217-7e1955bb468f"},"vehicle_type_id":"4","last_reported":1710350910,"current_range_meters":22000,"station_id":"ce4bh012rcd13ifvqcv0","pricing_plan_id":"cebpf4jnsgd1na2vs0mg"},{"bike_id":"dbaec713-6c5a-4b2d-859c-57e81b198185","system_id":"levelo_inurba_marseille","lat":43.30881,"lon":5.39655,"is_reserved":false,"is_disabled":false,"rental_uris":{"android":"levelo://app?vid=dbaec713-6c5a-4b2d-859c-57e81b198185","ios":"levelo://app?vid=dbaec713-6c5a-4b2d-859c-57e81b198185"},"vehicle_type_id":"4","last_reported":1710350910,"current_range_meters":0,"station_id":"ce4bh012rcd13ifvqcv0","pricing_plan_id":"cebpf4jnsgd1na2vs0mg"},{"bike_id":"934519a8-7c2b-4d87-bb5f-e5f0b5063863","system_id":"levelo_inurba_marseille","lat":43.309038,"lon":5.396546,"is_reserved":false,"is_disabled":false,"rental_uris":{"android":"levelo://app?vid=934519a8-7c2b-4d87-bb5f-e5f0b5063863","ios":"levelo://app?vid=934519a8-7c2b-4d87-bb5f-e5f0b5063863"},"vehicle_type_id":"4","last_reported":1710350910,"current_range_meters":19200,"station_id":"ce4bh012rcd13ifvqcv0","pricing_plan_id":"cebpf4jnsgd1na2vs0mg"},{"bike_id":"1cf1f375-7e39-462c-a184-3f97be1fc8dc","system_id":"levelo_inurba_marseille","lat":43.309038,"lon":5.396546,"is_reserved":false,"is_disabled":false,"rental_uris":{"android":"levelo://app?vid=1cf1f375-7e39-462c-a184-3f97be1fc8dc","ios":"levelo://app?vid=1cf1f375-7e39-462c-a184-3f97be1fc8dc"},"vehicle_type_id":"4","last_reported":1710350910,"current_range_meters":23600,"station_id":"ce4bh012rcd13ifvqcv0","pricing_plan_id":"cebpf4jnsgd1na2vs0mg"},{"bike_id":"76eee499-6652-4c5e-a9d9-295a59f0f053","system_id":"levelo_inurba_marseille","lat":43.29289,"lon":5.3798,"is_reserved":false,"is_disabled":false,"rental_uris":{"android":"levelo://app?vid=76eee499-6652-4c5e-a9d9-295a59f0f053","ios":"levelo://app?vid=76eee499-6652-4c5e-a9d9-295a59f0f053"},"vehicle_type_id":"4","last_reported":1710350910,"current_range_meters":19200,"station_id":"","pricing_plan_id":"cebpf4jnsgd1na2vs0mg"},{"bike_id":"cf6a31cc-fd9a-426e-8e02-cd4f6737c338","system_id":"levelo_inurba_marseille","lat":43.29536,"lon":5.38542,"is_reserved":false,"is_disabled":false,"rental_uris":{"android":"levelo://app?vid=cf6a31cc-fd9a-426e-8e02-cd4f6737c338","ios":"levelo://app?vid=cf6a31cc-fd9a-426e-8e02-cd4f6737c338"},"vehicle_type_id":"4","last_reported":1710350910,"current_range_meters":19200,"station_id":"ce4bgih2rcd13ifvqba0","pricing_plan_id":"cebpf4jnsgd1na2vs0mg"},{"bike_id":"a1b572fd-5e70-4ad9-bb02-a89176b71d72","system_id":"levelo_inurba_marseille","lat":43.29532,"lon":5.385409,"is_reserved":false,"is_disabled":false,"rental_uris":{"android":"levelo://app?vid=a1b572fd-5e70-4ad9-bb02-a89176b71d72","ios":"levelo://app?vid=a1b572fd-5e70-4ad9-bb02-a89176b71d72"},"vehicle_type_id":"4","last_reported":1710350910,"current_range_meters":13200,"station_id":"ce4bgih2rcd13ifvqba0","pricing_plan_id":"cebpf4jnsgd1na2vs0mg"},{"bike_id":"b0252aef-7ef6-42a6-94a9-5d4d5007954a","system_id":"levelo_inurba_marseille","lat":43.295291,"lon":5.385403,"is_reserved":false,"is_disabled":false,"rental_uris":{"android":"levelo://app?vid=b0252aef-7ef6-42a6-94a9-5d4d5007954a","ios":"levelo://app?vid=b0252aef-7ef6-42a6-94a9-5d4d5007954a"},"vehicle_type_id":"4","last_reported":1710350910,"current_range_meters":0,"station_id":"ce4bgih2rcd13ifvqba0","pricing_plan_id":"cebpf4jnsgd1na2vs0mg"},{"bike_id":"dda3adfe-4a8b-47c3-b9a3-a1004c631f7e","system_id":"levelo_inurba_marseille","lat":43.29532,"lon":5.38546,"is_reserved":false,"is_disabled":false,"rental_uris":{"android":"levelo://app?vid=dda3adfe-4a8b-47c3-b9a3-a1004c631f7e","ios":"levelo://app?vid=dda3adfe-4a8b-47c3-b9a3-a1004c631f7e"},"vehicle_type_id":"4","last_reported":1710350910,"current_range_meters":8000,"station_id":"ce4bgih2rcd13ifvqba0","pricing_plan_id":"cebpf4jnsgd1na2vs0mg"},{"bike_id":"6649d5da-bf3e-4ef1-9d6d-cfb1105dc98b","system_id":"levelo_inurba_marseille","lat":43.29529,"lon":5.385581,"is_reserved":false,"is_disabled":false,"rental_uris":{"android":"levelo://app?vid=6649d5da-bf3e-4ef1-9d6d-cfb1105dc98b","ios":"levelo://app?vid=6649d5da-bf3e-4ef1-9d6d-cfb1105dc98b"},"vehicle_type_id":"4","last_reported":1710350910,"current_range_meters":11200,"station_id":"ce4bgih2rcd13ifvqba0","pricing_plan_id":"cebpf4jnsgd1na2vs0mg"},{"bike_id":"1a21af10-e9b8-45c5-a0cb-0b1cc1f4144a","system_id":"levelo_inurba_marseille","lat":43.2953,"lon":5.38545,"is_reserved":false,"is_disabled":false,"rental_uris":{"android":"levelo://app?vid=1a21af10-e9b8-45c5-a0cb-0b1cc1f4144a","ios":"levelo://app?vid=1a21af10-e9b8-45c5-a0cb-0b1cc1f4144a"},"vehicle_type_id":"4","last_reported":1710350910,"current_range_meters":6400,"station_id":"ce4bgih2rcd13ifvqba0","pricing_plan_id":"cebpf4jnsgd1na2vs0mg"},{"bike_id":"9e0f41d8-d52b-47f9-812f-6e8aa8f833a6","system_id":"levelo_inurba_marseille","lat":43.29531,"lon":5.38547,"is_reserved":false,"is_disabled":false,"rental_uris":{"android":"levelo://app?vid=9e0f41d8-d52b-47f9-812f-6e8aa8f833a6","ios":"levelo://app?vid=9e0f41d8-d52b-47f9-812f-6e8aa8f833a6"},"vehicle_type_id":"4","last_reported":1710350910,"current_range_meters":0,"station_id":"ce4bgih2rcd13ifvqba0","pricing_plan_id":"cebpf4jnsgd1na2vs0mg"},{"bike_id":"47907c6f-9f0b-4d55-93b2-e9754eccf80e","system_id":"levelo_inurba_marseille","lat":43.29527,"lon":5.3854,"is_reserved":false,"is_disabled":false,"rental_uris":{"android":"levelo://app?vid=47907c6f-9f0b-4d55-93b2-e9754eccf80e","ios":"levelo://app?vid=47907c6f-9f0b-4d55-93b2-e9754eccf80e"},"vehicle_type_id":"4","last_reported":1710350910,"current_range_meters":0,"station_id":"ce4bgih2rcd13ifvqba0","pricing_plan_id":"cebpf4jnsgd1na2vs0mg"},{"bike_id":"a6785555-8e87-4f89-b5be-f9ab80e2ab88","system_id":"levelo_inurba_marseille","lat":43.29526,"lon":5.38539,"is_reserved":false,"is_disabled":false,"rental_uris":{"android":"levelo://app?vid=a6785555-8e87-4f89-b5be-f9ab80e2ab88","ios":"levelo://app?vid=a6785555-8e87-4f89-b5be-f9ab80e2ab88"},"vehicle_type_id":"4","last_reported":1710350910,"current_range_meters":0,"station_id":"ce4bgih2rcd13ifvqba0","pricing_plan_id":"cebpf4jnsgd1na2vs0mg"},{"bike_id":"8d51954d-6aeb-402d-b697-112ae14ee8a3","system_id":"levelo_inurba_marseille","lat":43.29529,"lon":5.385581,"is_reserved":false,"is_disabled":false,"rental_uris":{"android":"levelo://app?vid=8d51954d-6aeb-402d-b697-112ae14ee8a3","ios":"levelo://app?vid=8d51954d-6aeb-402d-b697-112ae14ee8a3"},"vehicle_type_id":"4","last_reported":1710350910,"current_range_meters":4800,"station_id":"ce4bgih2rcd13ifvqba0","pricing_plan_id":"cebpf4jnsgd1na2vs0mg"},{"bike_id":"a5362f62-971f-48ac-a610-b57d83d45291","system_id":"levelo_inurba_marseille","lat":43.29526,"lon":5.38543,"is_reserved":false,"is_disabled":false,"rental_uris":{"android":"levelo://app?vid=a5362f62-971f-48ac-a610-b57d83d45291","ios":"levelo://app?vid=a5362f62-971f-48ac-a610-b57d83d45291"},"vehicle_type_id":"4","last_reported":1710350910,"current_range_meters":20000,"station_id":"ce4bgih2rcd13ifvqba0","pricing_plan_id":"cebpf4jnsgd1na2vs0mg"},{"bike_id":"9b88a75d-803b-4ed8-8fd5-dc9e1f534ed3","system_id":"levelo_inurba_marseille","lat":43.29524,"lon":5.38541,"is_reserved":false,"is_disabled":false,"rental_uris":{"android":"levelo://app?vid=9b88a75d-803b-4ed8-8fd5-dc9e1f534ed3","ios":"levelo://app?vid=9b88a75d-803b-4ed8-8fd5-dc9e1f534ed3"},"vehicle_type_id":"4","last_reported":1710350910,"current_range_meters":10000,"station_id":"ce4bgih2rcd13ifvqba0","pricing_plan_id":"cebpf4jnsgd1na2vs0mg"},{"bike_id":"e603fc85-331e-4e3d-90c0-0a7d22332887","system_id":"levelo_inurba_marseille","lat":43.29529,"lon":5.385581,"is_reserved":false,"is_disabled":false,"rental_uris":{"android":"levelo://app?vid=e603fc85-331e-4e3d-90c0-0a7d22332887","ios":"levelo://app?vid=e603fc85-331e-4e3d-90c0-0a7d22332887"},"vehicle_type_id":"4","last_reported":1710350910,"current_range_meters":18000,"station_id":"ce4bgih2rcd13ifvqba0","pricing_plan_id":"cebpf4jnsgd1na2vs0mg"},{"bike_id":"fc128609-c662-4982-8a1b-50e9bfe51b3d","system_id":"levelo_inurba_marseille","lat":43.29529,"lon":5.385581,"is_reserved":false,"is_disabled":false,"rental_uris":{"android":"levelo://app?vid=fc128609-c662-4982-8a1b-50e9bfe51b3d","ios":"levelo://app?vid=fc128609-c662-4982-8a1b-50e9bfe51b3d"},"vehicle_type_id":"4","last_reported":1710350910,"current_range_meters":21200,"station_id":"ce4bgih2rcd13ifvqba0","pricing_plan_id":"cebpf4jnsgd1na2vs0mg"},{"bike_id":"a52663ab-bb98-4703-9011-bc76b62082be","system_id":"levelo_inurba_marseille","lat":43.29529,"lon":5.385581,"is_reserved":false,"is_disabled":false,"rental_uris":{"android":"levelo://app?vid=a52663ab-bb98-4703-9011-bc76b62082be","ios":"levelo://app?vid=a52663ab-bb98-4703-9011-bc76b62082be"},"vehicle_type_id":"4","last_reported":1710350910,"current_range_meters":14000,"station_id":"ce4bgih2rcd13ifvqba0","pricing_plan_id":"cebpf4jnsgd1na2vs0mg"},{"bike_id":"727ab8a6-a9af-4ff7-84f7-2ee7b545c837","system_id":"levelo_inurba_marseille","lat":43.29529,"lon":5.385581,"is_reserved":false,"is_disabled":false,"rental_uris":{"android":"levelo://app?vid=727ab8a6-a9af-4ff7-84f7-2ee7b545c837","ios":"levelo://app?vid=727ab8a6-a9af-4ff7-84f7-2ee7b545c837"},"vehicle_type_id":"4","last_reported":1710350910,"current_range_meters":9600,"station_id":"ce4bgih2rcd13ifvqba0","pricing_plan_id":"cebpf4jnsgd1na2vs0mg"},{"bike_id":"ec98184c-e5c2-4a31-a3a8-b83d4260446a","system_id":"levelo_inurba_marseille","lat":43.290779,"lon":5.371482,"is_reserved":false,"is_disabled":false,"rental_uris":{"android":"levelo://app?vid=ec98184c-e5c2-4a31-a3a8-b83d4260446a","ios":"levelo://app?vid=ec98184c-e5c2-4a31-a3a8-b83d4260446a"},"vehicle_type_id":"4","last_reported":1710350910,"current_range_meters":0,"station_id":"ce4bh5p2rcd13ifvqe4g","pricing_plan_id":"cebpf4jnsgd1na2vs0mg"},{"bike_id":"74b5cecd-7ff2-4d43-9143-f0991fca39e3","system_id":"levelo_inurba_marseille","lat":43.302008,"lon":5.394694,"is_reserved":false,"is_disabled":false,"rental_uris":{"android":"levelo://app?vid=74b5cecd-7ff2-4d43-9143-f0991fca39e3","ios":"levelo://app?vid=74b5cecd-7ff2-4d43-9143-f0991fca39e3"},"vehicle_type_id":"4","last_reported":1710350910,"current_range_meters":31600,"station_id":"ce4bh0p2rcd13ifvqd70","pricing_plan_id":"cebpf4jnsgd1na2vs0mg"},{"bike_id":"20276aa1-edb2-4fd1-b8d1-5cc12370824f","system_id":"levelo_inurba_marseille","lat":43.290624,"lon":5.359245,"is_reserved":false,"is_disabled":false,"rental_uris":{"android":"levelo://app?vid=20276aa1-edb2-4fd1-b8d1-5cc12370824f","ios":"levelo://app?vid=20276aa1-edb2-4fd1-b8d1-5cc12370824f"},"vehicle_type_id":"4","last_reported":1710350910,"current_range_meters":3600,"station_id":"ce4bha92rcd13ifvqeg0","pricing_plan_id":"cebpf4jnsgd1na2vs0mg"},{"bike_id":"752a44a0-2813-4677-b47b-1330a94eb8b4","system_id":"levelo_inurba_marseille","lat":43.29039,"lon":5.359247,"is_reserved":false,"is_disabled":false,"rental_uris":{"android":"levelo://app?vid=752a44a0-2813-4677-b47b-1330a94eb8b4","ios":"levelo://app?vid=752a44a0-2813-4677-b47b-1330a94eb8b4"},"vehicle_type_id":"4","last_reported":1710350910,"current_range_meters":14000,"station_id":"ce4bha92rcd13ifvqeg0","pricing_plan_id":"cebpf4jnsgd1na2vs0mg"},{"bike_id":"8c6a0afd-7945-49ff-9247-b9513dd59611","system_id":"levelo_inurba_marseille","lat":43.294153,"lon":5.386305,"is_reserved":false,"is_disabled":false,"rental_uris":{"android":"levelo://app?vid=8c6a0afd-7945-49ff-9247-b9513dd59611","ios":"levelo://app?vid=8c6a0afd-7945-49ff-9247-b9513dd59611"},"vehicle_type_id":"4","last_reported":1710350910,"current_range_meters":4000,"station_id":"ce4bh2h2rcd13ifvqdh0","pricing_plan_id":"cebpf4jnsgd1na2vs0mg"},{"bike_id":"d5d7c5c9-fe07-4882-b343-fa562c7b2025","system_id":"levelo_inurba_marseille","lat":43.294153,"lon":5.386305,"is_reserved":false,"is_disabled":false,"rental_uris":{"android":"levelo://app?vid=d5d7c5c9-fe07-4882-b343-fa562c7b2025","ios":"levelo://app?vid=d5d7c5c9-fe07-4882-b343-fa562c7b2025"},"vehicle_type_id":"4","last_reported":1710350910,"current_range_meters":2800,"station_id":"ce4bh2h2rcd13ifvqdh0","pricing_plan_id":"cebpf4jnsgd1na2vs0mg"},{"bike_id":"e6190217-e25d-45af-9593-656e7c1adff9","system_id":"levelo_inurba_marseille","lat":43.32746,"lon":5.39167,"is_reserved":false,"is_disabled":false,"rental_uris":{"android":"levelo://app?vid=e6190217-e25d-45af-9593-656e7c1adff9","ios":"levelo://app?vid=e6190217-e25d-45af-9593-656e7c1adff9"},"vehicle_type_id":"4","last_reported":1710350910,"current_range_meters":8000,"station_id":"","pricing_plan_id":"cebpf4jnsgd1na2vs0mg"},{"bike_id":"5125d597-a8d9-4494-8a17-5738e6d8e870","system_id":"levelo_inurba_marseille","lat":43.294162,"lon":5.386292,"is_reserved":false,"is_disabled":false,"rental_uris":{"android":"levelo://app?vid=5125d597-a8d9-4494-8a17-5738e6d8e870","ios":"levelo://app?vid=5125d597-a8d9-4494-8a17-5738e6d8e870"},"vehicle_type_id":"4","last_reported":1710350910,"current_range_meters":22000,"station_id":"ce4bh2h2rcd13ifvqdh0","pricing_plan_id":"cebpf4jnsgd1na2vs0mg"},{"bike_id":"eef681a3-f9c3-4bdf-b1ee-08d1f49f8601","system_id":"levelo_inurba_marseille","lat":43.294153,"lon":5.386305,"is_reserved":false,"is_disabled":false,"rental_uris":{"android":"levelo://app?vid=eef681a3-f9c3-4bdf-b1ee-08d1f49f8601","ios":"levelo://app?vid=eef681a3-f9c3-4bdf-b1ee-08d1f49f8601"},"vehicle_type_id":"4","last_reported":1710350910,"current_range_meters":17600,"station_id":"ce4bh2h2rcd13ifvqdh0","pricing_plan_id":"cebpf4jnsgd1na2vs0mg"},{"bike_id":"e968debd-e947-441a-be3a-48490b0331a4","system_id":"levelo_inurba_marseille","lat":43.2942,"lon":5.38626,"is_reserved":false,"is_disabled":false,"rental_uris":{"android":"levelo://app?vid=e968debd-e947-441a-be3a-48490b0331a4","ios":"levelo://app?vid=e968debd-e947-441a-be3a-48490b0331a4"},"vehicle_type_id":"4","last_reported":1710350910,"current_range_meters":10400,"station_id":"ce4bh2h2rcd13ifvqdh0","pricing_plan_id":"cebpf4jnsgd1na2vs0mg"},{"bike_id":"d068d2dc-e2aa-4adc-95b2-370a81dab787","system_id":"levelo_inurba_marseille","lat":43.29416,"lon":5.3862,"is_reserved":false,"is_disabled":false,"rental_uris":{"android":"levelo://app?vid=d068d2dc-e2aa-4adc-95b2-370a81dab787","ios":"levelo://app?vid=d068d2dc-e2aa-4adc-95b2-370a81dab787"},"vehicle_type_id":"4","last_reported":1710350910,"current_range_meters":1200,"station_id":"ce4bh2h2rcd13ifvqdh0","pricing_plan_id":"cebpf4jnsgd1na2vs0mg"},{"bike_id":"a225af2b-f457-4fd1-9250-24b50ca8947b","system_id":"levelo_inurba_marseille","lat":43.2903,"lon":5.37549,"is_reserved":false,"is_disabled":false,"rental_uris":{"android":"levelo://app?vid=a225af2b-f457-4fd1-9250-24b50ca8947b","ios":"levelo://app?vid=a225af2b-f457-4fd1-9250-24b50ca8947b"},"vehicle_type_id":"4","last_reported":1710350910,"current_range_meters":0,"station_id":"ce4bh692rcd13ifvqe90","pricing_plan_id":"cebpf4jnsgd1na2vs0mg"},{"bike_id":"a20b245e-5563-4407-9255-7f9a4c511800","system_id":"levelo_inurba_marseille","lat":43.294153,"lon":5.386305,"is_reserved":false,"is_disabled":false,"rental_uris":{"android":"levelo://app?vid=a20b245e-5563-4407-9255-7f9a4c511800","ios":"levelo://app?vid=a20b245e-5563-4407-9255-7f9a4c511800"},"vehicle_type_id":"4","last_reported":1710350910,"current_range_meters":18000,"station_id":"ce4bh2h2rcd13ifvqdh0","pricing_plan_id":"cebpf4jnsgd1na2vs0mg"},{"bike_id":"807d1f93-3082-42e2-b82b-cd9ec4757c66","system_id":"levelo_inurba_marseille","lat":43.29415,"lon":5.38623,"is_reserved":false,"is_disabled":false,"rental_uris":{"android":"levelo://app?vid=807d1f93-3082-42e2-b82b-cd9ec4757c66","ios":"levelo://app?vid=807d1f93-3082-42e2-b82b-cd9ec4757c66"},"vehicle_type_id":"4","last_reported":1710350910,"current_range_meters":12400,"station_id":"ce4bh2h2rcd13ifvqdh0","pricing_plan_id":"cebpf4jnsgd1na2vs0mg"},{"bike_id":"a8064933-4d15-4803-be26-c884ef4a0a18","system_id":"levelo_inurba_marseille","lat":43.289184,"lon":5.366408,"is_reserved":false,"is_disabled":false,"rental_uris":{"android":"levelo://app?vid=a8064933-4d15-4803-be26-c884ef4a0a18","ios":"levelo://app?vid=a8064933-4d15-4803-be26-c884ef4a0a18"},"vehicle_type_id":"4","last_reported":1710350910,"current_range_meters":23200,"station_id":"ce4bhap2rcd13ifvqek0","pricing_plan_id":"cebpf4jnsgd1na2vs0mg"},{"bike_id":"5fdf43b5-a79a-49c5-9f9f-e7a647b5bd0b","system_id":"levelo_inurba_marseille","lat":43.294153,"lon":5.386305,"is_reserved":false,"is_disabled":false,"rental_uris":{"android":"levelo://app?vid=5fdf43b5-a79a-49c5-9f9f-e7a647b5bd0b","ios":"levelo://app?vid=5fdf43b5-a79a-49c5-9f9f-e7a647b5bd0b"},"vehicle_type_id":"4","last_reported":1710350910,"current_range_meters":0,"station_id":"ce4bh2h2rcd13ifvqdh0","pricing_plan_id":"cebpf4jnsgd1na2vs0mg"},{"bike_id":"8d4ddaa5-920b-4162-afc9-fbef5f20c872","system_id":"levelo_inurba_marseille","lat":43.29415,"lon":5.3863,"is_reserved":false,"is_disabled":false,"rental_uris":{"android":"levelo://app?vid=8d4ddaa5-920b-4162-afc9-fbef5f20c872","ios":"levelo://app?vid=8d4ddaa5-920b-4162-afc9-fbef5f20c872"},"vehicle_type_id":"4","last_reported":1710350910,"current_range_meters":0,"station_id":"ce4bh2h2rcd13ifvqdh0","pricing_plan_id":"cebpf4jnsgd1na2vs0mg"},{"bike_id":"be0a70ee-e560-4c25-a9b5-6562e6dab6e7","system_id":"levelo_inurba_marseille","lat":43.290319,"lon":5.375732,"is_reserved":false,"is_disabled":false,"rental_uris":{"android":"levelo://app?vid=be0a70ee-e560-4c25-a9b5-6562e6dab6e7","ios":"levelo://app?vid=be0a70ee-e560-4c25-a9b5-6562e6dab6e7"},"vehicle_type_id":"4","last_reported":1710350910,"current_range_meters":23200,"station_id":"ce4bh692rcd13ifvqe90","pricing_plan_id":"cebpf4jnsgd1na2vs0mg"},{"bike_id":"c2ee3eaf-220c-4b99-b845-f90da55323b1","system_id":"levelo_inurba_marseille","lat":43.294153,"lon":5.386305,"is_reserved":false,"is_disabled":false,"rental_uris":{"android":"levelo://app?vid=c2ee3eaf-220c-4b99-b845-f90da55323b1","ios":"levelo://app?vid=c2ee3eaf-220c-4b99-b845-f90da55323b1"},"vehicle_type_id":"4","last_reported":1710350910,"current_range_meters":16000,"station_id":"ce4bh2h2rcd13ifvqdh0","pricing_plan_id":"cebpf4jnsgd1na2vs0mg"},{"bike_id":"36c454ff-bd88-49e1-8d62-671d948b1ee5","system_id":"levelo_inurba_marseille","lat":43.29415,"lon":5.38634,"is_reserved":false,"is_disabled":false,"rental_uris":{"android":"levelo://app?vid=36c454ff-bd88-49e1-8d62-671d948b1ee5","ios":"levelo://app?vid=36c454ff-bd88-49e1-8d62-671d948b1ee5"},"vehicle_type_id":"4","last_reported":1710350910,"current_range_meters":13200,"station_id":"ce4bh2h2rcd13ifvqdh0","pricing_plan_id":"cebpf4jnsgd1na2vs0mg"},{"bike_id":"b5f6fd49-df5e-4f0d-84ac-dfb4c636dd15","system_id":"levelo_inurba_marseille","lat":43.29414,"lon":5.38633,"is_reserved":false,"is_disabled":false,"rental_uris":{"android":"levelo://app?vid=b5f6fd49-df5e-4f0d-84ac-dfb4c636dd15","ios":"levelo://app?vid=b5f6fd49-df5e-4f0d-84ac-dfb4c636dd15"},"vehicle_type_id":"4","last_reported":1710350910,"current_range_meters":0,"station_id":"ce4bh2h2rcd13ifvqdh0","pricing_plan_id":"cebpf4jnsgd1na2vs0mg"},{"bike_id":"802b9f27-8ca7-4e56-8613-9eecab190425","system_id":"levelo_inurba_marseille","lat":43.289184,"lon":5.366408,"is_reserved":false,"is_disabled":false,"rental_uris":{"android":"levelo://app?vid=802b9f27-8ca7-4e56-8613-9eecab190425","ios":"levelo://app?vid=802b9f27-8ca7-4e56-8613-9eecab190425"},"vehicle_type_id":"4","last_reported":1710350910,"current_range_meters":2000,"station_id":"ce4bhap2rcd13ifvqek0","pricing_plan_id":"cebpf4jnsgd1na2vs0mg"},{"bike_id":"2efcea18-19ab-4df7-8389-e7af76497d58","system_id":"levelo_inurba_marseille","lat":43.304296,"lon":5.397513,"is_reserved":false,"is_disabled":false,"rental_uris":{"android":"levelo://app?vid=2efcea18-19ab-4df7-8389-e7af76497d58","ios":"levelo://app?vid=2efcea18-19ab-4df7-8389-e7af76497d58"},"vehicle_type_id":"4","last_reported":1710350910,"current_range_meters":20400,"station_id":"ce4bh092rcd13ifvqd20","pricing_plan_id":"cebpf4jnsgd1na2vs0mg"},{"bike_id":"96821fb8-26b6-46ca-8ec7-7f38d5accc92","system_id":"levelo_inurba_marseille","lat":43.304296,"lon":5.397513,"is_reserved":false,"is_disabled":false,"rental_uris":{"android":"levelo://app?vid=96821fb8-26b6-46ca-8ec7-7f38d5accc92","ios":"levelo://app?vid=96821fb8-26b6-46ca-8ec7-7f38d5accc92"},"vehicle_type_id":"4","last_reported":1710350910,"current_range_meters":21200,"station_id":"ce4bh092rcd13ifvqd20","pricing_plan_id":"cebpf4jnsgd1na2vs0mg"},{"bike_id":"f18d612b-f67a-452e-b8a5-1ef9a8473530","system_id":"levelo_inurba_marseille","lat":43.292644,"lon":5.384257,"is_reserved":false,"is_disabled":false,"rental_uris":{"android":"levelo://app?vid=f18d612b-f67a-452e-b8a5-1ef9a8473530","ios":"levelo://app?vid=f18d612b-f67a-452e-b8a5-1ef9a8473530"},"vehicle_type_id":"4","last_reported":1710350910,"current_range_meters":18800,"station_id":"ce4bh692rcd13ifvqea0","pricing_plan_id":"cebpf4jnsgd1na2vs0mg"},{"bike_id":"57c939b9-dde5-4f06-a85c-771980a92e7d","system_id":"levelo_inurba_marseille","lat":43.292644,"lon":5.384257,"is_reserved":false,"is_disabled":false,"rental_uris":{"android":"levelo://app?vid=57c939b9-dde5-4f06-a85c-771980a92e7d","ios":"levelo://app?vid=57c939b9-dde5-4f06-a85c-771980a92e7d"},"vehicle_type_id":"4","last_reported":1710350910,"current_range_meters":6800,"station_id":"ce4bh692rcd13ifvqea0","pricing_plan_id":"cebpf4jnsgd1na2vs0mg"},{"bike_id":"edb25c01-aeaa-46ca-a25a-8109dc8dbdb9","system_id":"levelo_inurba_marseille","lat":43.290104,"lon":5.356111,"is_reserved":false,"is_disabled":false,"rental_uris":{"android":"levelo://app?vid=edb25c01-aeaa-46ca-a25a-8109dc8dbdb9","ios":"levelo://app?vid=edb25c01-aeaa-46ca-a25a-8109dc8dbdb9"},"vehicle_type_id":"4","last_reported":1710350910,"current_range_meters":23200,"station_id":"ce4bhb92rcd13ifvqen0","pricing_plan_id":"cebpf4jnsgd1na2vs0mg"},{"bike_id":"8096cbe8-e482-420d-ae03-538cd446ce9b","system_id":"levelo_inurba_marseille","lat":43.290103,"lon":5.356114,"is_reserved":false,"is_disabled":false,"rental_uris":{"android":"levelo://app?vid=8096cbe8-e482-420d-ae03-538cd446ce9b","ios":"levelo://app?vid=8096cbe8-e482-420d-ae03-538cd446ce9b"},"vehicle_type_id":"4","last_reported":1710350910,"current_range_meters":26400,"station_id":"ce4bhb92rcd13ifvqen0","pricing_plan_id":"cebpf4jnsgd1na2vs0mg"},{"bike_id":"bf9a7953-b0fa-4f2f-a05d-14919983c4cb","system_id":"levelo_inurba_marseille","lat":43.290103,"lon":5.356114,"is_reserved":false,"is_disabled":false,"rental_uris":{"android":"levelo://app?vid=bf9a7953-b0fa-4f2f-a05d-14919983c4cb","ios":"levelo://app?vid=bf9a7953-b0fa-4f2f-a05d-14919983c4cb"},"vehicle_type_id":"4","last_reported":1710350910,"current_range_meters":6000,"station_id":"ce4bhb92rcd13ifvqen0","pricing_plan_id":"cebpf4jnsgd1na2vs0mg"},{"bike_id":"740a777b-7a4f-47b0-a43a-59f03ac3b92f","system_id":"levelo_inurba_marseille","lat":43.289743,"lon":5.378304,"is_reserved":false,"is_disabled":false,"rental_uris":{"android":"levelo://app?vid=740a777b-7a4f-47b0-a43a-59f03ac3b92f","ios":"levelo://app?vid=740a777b-7a4f-47b0-a43a-59f03ac3b92f"},"vehicle_type_id":"4","last_reported":1710350910,"current_range_meters":14400,"station_id":"ce4bh9p2rcd13ifvqed0","pricing_plan_id":"cebpf4jnsgd1na2vs0mg"},{"bike_id":"98a3dcce-2561-4bae-a221-90fe5ad0d1d2","system_id":"levelo_inurba_marseille","lat":43.29793,"lon":5.39346,"is_reserved":false,"is_disabled":false,"rental_uris":{"android":"levelo://app?vid=98a3dcce-2561-4bae-a221-90fe5ad0d1d2","ios":"levelo://app?vid=98a3dcce-2561-4bae-a221-90fe5ad0d1d2"},"vehicle_type_id":"4","last_reported":1710350910,"current_range_meters":24800,"station_id":"chh1huq6cuj3fo74tm60","pricing_plan_id":"cebpf4jnsgd1na2vs0mg"},{"bike_id":"01f01c46-1f48-4734-8e2b-0dc7bedb5074","system_id":"levelo_inurba_marseille","lat":43.297815,"lon":5.393548,"is_reserved":false,"is_disabled":false,"rental_uris":{"android":"levelo://app?vid=01f01c46-1f48-4734-8e2b-0dc7bedb5074","ios":"levelo://app?vid=01f01c46-1f48-4734-8e2b-0dc7bedb5074"},"vehicle_type_id":"4","last_reported":1710350910,"current_range_meters":1600,"station_id":"chh1huq6cuj3fo74tm60","pricing_plan_id":"cebpf4jnsgd1na2vs0mg"},{"bike_id":"65a0205c-299a-40ea-b7bf-143aa1e2c7b2","system_id":"levelo_inurba_marseille","lat":43.288435,"lon":5.365078,"is_reserved":false,"is_disabled":false,"rental_uris":{"android":"levelo://app?vid=65a0205c-299a-40ea-b7bf-143aa1e2c7b2","ios":"levelo://app?vid=65a0205c-299a-40ea-b7bf-143aa1e2c7b2"},"vehicle_type_id":"4","last_reported":1710350910,"current_range_meters":12800,"station_id":"","pricing_plan_id":"cebpf4jnsgd1na2vs0mg"},{"bike_id":"4ae35d24-6795-46b3-bf91-3cb3ebf9898e","system_id":"levelo_inurba_marseille","lat":43.29775,"lon":5.39329,"is_reserved":false,"is_disabled":false,"rental_uris":{"android":"levelo://app?vid=4ae35d24-6795-46b3-bf91-3cb3ebf9898e","ios":"levelo://app?vid=4ae35d24-6795-46b3-bf91-3cb3ebf9898e"},"vehicle_type_id":"4","last_reported":1710350910,"current_range_meters":9600,"station_id":"chh1huq6cuj3fo74tm60","pricing_plan_id":"cebpf4jnsgd1na2vs0mg"},