{"last_updated":1720343328,"ttl":30,"version":"2.2","data":{"bikes":[{"bike_id":"08530f05-772e-4435-9bd2-44eb4af444ef","system_id":"levelo_inurba_marseille","lat":43.312239,"lon":5.368562,"is_reserved":false,"is_disabled":false,"rental_uris":{"android":"levelo://app?vid=08530f05-772e-4435-9bd2-44eb4af444ef","ios":"levelo://app?vid=08530f05-772e-4435-9bd2-44eb4af444ef"},"vehicle_type_id":"4","last_reported":1720343328,"current_range_meters":29600,"station_id":"ce4bgl92rcd13ifvqbq0","pricing_plan_id":"cebpf4jnsgd1na2vs0mg"},{"bike_id":"6417923f-1d74-4589-82a8-015245ad3121","system_id":"levelo_inurba_marseille","lat":43.314811,"lon":5.373103,"is_reserved":false,"is_disabled":false,"rental_uris":{"android":"levelo://app?vid=6417923f-1d74-4589-82a8-015245ad3121","ios":"levelo://app?vid=6417923f-1d74-4589-82a8-015245ad3121"},"vehicle_type_id":"4","last_reported":1720343328,"current_range_meters":4800,"station_id":"ce4bgt12rcd13ifvqcd0","pricing_plan_id":"cebpf4jnsgd1na2vs0mg"},{"bike_id":"de73609f-bb2e-4b88-b373-429122575e1f","system_id":"levelo_inurba_marseille","lat":43.31501,"lon":5.37302,"is_reserved":false,"is_disabled":false,"rental_uris":{"android":"levelo://app?vid=de73609f-bb2e-4b88-b373-429122575e1f","ios":"levelo://app?vid=de73609f-bb2e-4b88-b373-429122575e1f"},"vehicle_type_id":"4","last_reported":1720343328,"current_range_meters":0,"station_id":"ce4bgt12rcd13ifvqcd0","pricing_plan_id":"cebpf4jnsgd1na2vs0mg"},{"bike_id":"27c18bde-26bf-43c8-b54c-5c5b3c2470cd","system_id":"levelo_inurba_marseille","lat":43.314811,"lon":5.373104,"is_reserved":false,"is_disabled":false,"rental_uris":{"android":"levelo://app?vid=27c18bde-26bf-43c8-b54c-5c5b3c2470cd","ios":"levelo://app?vid=27c18bde-26bf-43c8-b54c-5c5b3c2470cd"},"vehicle_type_id":"4","last_reported":1720343328,"current_range_meters":28400,"station_id":"ce4bgt12rcd13ifvqcd0","pricing_plan_id":"cebpf4jnsgd1na2vs0mg"},{"bike_id":"7e7edf41-9f09-4d16-a3db-8a3e37af1076","system_id":"levelo_inurba_marseille","lat":43.309039,"lon":5.371797,"is_reserved":false,"is_disabled":false,"rental_uris":{"android":"levelo://app?vid=7e7edf41-9f09-4d16-a3db-8a3e37af1076","ios":"levelo://app?vid=7e7edf41-9f09-4d16-a3db-8a3e37af1076"},"vehicle_type_id":"4","last_reported":1720343328,"current_range_meters":8800,"station_id":"ce4bguh2rcd13ifvqckg","pricing_plan_id":"cebpf4jnsgd1na2vs0mg"},{"bike_id":"bba4dc3c-fc6b-40d0-9658-c2f6cbc121e1","system_id":"levelo_inurba_marseille","lat":43.309039,"lon":5.371797,"is_reserved":false,"is_disabled":false,"rental_uris":{"android":"levelo://app?vid=bba4dc3c-fc6b-40d0-9658-c2f6cbc121e1","ios":"levelo://app?vid=bba4dc3c-fc6b-40d0-9658-c2f6cbc121e1"},"vehicle_type_id":"4","last_reported":1720343328,"current_range_meters":24400,"station_id":"ce4bguh2rcd13ifvqckg","pricing_plan_id":"cebpf4jnsgd1na2vs0mg"},{"bike_id":"41cdcdd6-ded1-4424-b142-2da7b544bf9d","system_id":"levelo_inurba_marseille","lat":43.31788,"lon":5.36954,"is_reserved":false,"is_disabled":false,"rental_uris":{"android":"levelo://app?vid=41cdcdd6-ded1-4424-b142-2da7b544bf9d","ios":"levelo://app?vid=41cdcdd6-ded1-4424-b142-2da7b544bf9d"},"vehicle_type_id":"4","last_reported":1720343328,"current_range_meters":1600,"station_id":"","pricing_plan_id":"cebpf4jnsgd1na2vs0mg"},{"bike_id":"5bacee6e-0651-445f-bad0-4485bbc1cc34","system_id":"levelo_inurba_marseille","lat":43.31418,"lon":5.37554,"is_reserved":false,"is_disabled":false,"rental_uris":{"android":"levelo://app?vid=5bacee6e-0651-445f-bad0-4485bbc1cc34","ios":"levelo://app?vid=5bacee6e-0651-445f-bad0-4485bbc1cc34"},"vehicle_type_id":"4","last_reported":1720343328,"current_range_meters":13200,"station_id":"","pricing_plan_id":"cebpf4jnsgd1na2vs0mg"},{"bike_id":"30a31c45-0f07-41de-9857-deb912e81e2c","system_id":"levelo_inurba_marseille","lat":43.305712,"lon":5.365641,"is_reserved":false,"is_disabled":false,"rental_uris":{"android":"levelo://app?vid=30a31c45-0f07-41de-9857-deb912e81e2c","ios":"levelo://app?vid=30a31c45-0f07-41de-9857-deb912e81e2c"},"vehicle_type_id":"4","last_reported":1720343328,"current_range_meters":22400,"station_id":"ce4bgs12rcd13ifvqcag","pricing_plan_id":"cebpf4jnsgd1na2vs0mg"},{"bike_id":"1f6cd517-5acf-47a9-a799-32348d53a75c","system_id":"levelo_inurba_marseille","lat":43.305712,"lon":5.365641,"is_reserved":false,"is_disabled":false,"rental_uris":{"android":"levelo://app?vid=1f6cd517-5acf-47a9-a799-32348d53a75c","ios":"levelo://app?vid=1f6cd517-5acf-47a9-a799-32348d53a75c"},"vehicle_type_id":"4","last_reported":1720343328,"current_range_meters":25200,"station_id":"ce4bgs12rcd13ifvqcag","pricing_plan_id":"cebpf4jnsgd1na2vs0mg"},{"bike_id":"4fed2051-3bcc-4f0c-b27c-36b25aa6a8cc","system_id":"levelo_inurba_marseille","lat":43.305712,"lon":5.365641,"is_reserved":false,"is_disabled":false,"rental_uris":{"android":"levelo://app?vid=4fed2051-3bcc-4f0c-b27c-36b25aa6a8cc","ios":"levelo://app?vid=4fed2051-3bcc-4f0c-b27c-36b25aa6a8cc"},"vehicle_type_id":"4","last_reported":1720343328,"current_range_meters":16400,"station_id":"ce4bgs12rcd13ifvqcag","pricing_plan_id":"cebpf4jnsgd1na2vs0mg"},{"bike_id":"604d6a75-25fb-4a17-87dd-b09e0eac759d","system_id":"levelo_inurba_marseille","lat":43.305368,"lon":5.367343,"is_reserved":false,"is_disabled":false,"rental_uris":{"android":"levelo://app?vid=604d6a75-25fb-4a17-87dd-b09e0eac759d","ios":"levelo://app?vid=604d6a75-25fb-4a17-87dd-b09e0eac759d"},"vehicle_type_id":"4","last_reported":1720343328,"current_range_meters":15600,"station_id":"ce4bgrp2rcd13ifvqc9g","pricing_plan_id":"cebpf4jnsgd1na2vs0mg"},{"bike_id":"2c8f8d77-28f2-4b7d-b2af-2cd1c1fd7da2","system_id":"levelo_inurba_marseille","lat":43.305706,"lon":5.365654,"is_reserved":false,"is_disabled":false,"rental_uris":{"android":"levelo://app?vid=2c8f8d77-28f2-4b7d-b2af-2cd1c1fd7da2","ios":"levelo://app?vid=2c8f8d77-28f2-4b7d-b2af-2cd1c1fd7da2"},"vehicle_type_id":"4","last_reported":1720343328,"current_range_meters":9200,"station_id":"ce4bgs12rcd13ifvqcag","pricing_plan_id":"cebpf4jnsgd1na2vs0mg"},{"bike_id":"9c2740d5-9009-4132-9997-633de7617f20","system_id":"levelo_inurba_marseille","lat":43.305714,"lon":5.365633,"is_reserved":false,"is_disabled":false,"rental_uris":{"android":"levelo://app?vid=9c2740d5-9009-4132-9997-633de7617f20","ios":"levelo://app?vid=9c2740d5-9009-4132-9997-633de7617f20"},"vehicle_type_id":"4","last_reported":1720343328,"current_range_meters":9600,"station_id":"ce4bgs12rcd13ifvqcag","pricing_plan_id":"cebpf4jnsgd1na2vs0mg"},{"bike_id":"227aca02-653f-4f75-946d-bb85144e5747","system_id":"levelo_inurba_marseille","lat":43.305706,"lon":5.365654,"is_reserved":false,"is_disabled":false,"rental_uris":{"android":"levelo://app?vid=227aca02-653f-4f75-946d-bb85144e5747","ios":"levelo://app?vid=227aca02-653f-4f75-946d-bb85144e5747"},"vehicle_type_id":"4","last_reported":1720343328,"current_range_meters":31600,"station_id":"ce4bgs12rcd13ifvqcag","pricing_plan_id":"cebpf4jnsgd1na2vs0mg"},{"bike_id":"1e2b1472-a052-45ad-8f69-f5a6f7e31aa2","system_id":"levelo_inurba_marseille","lat":43.305706,"lon":5.365654,"is_reserved":false,"is_disabled":false,"rental_uris":{"android":"levelo://app?vid=1e2b1472-a052-45ad-8f69-f5a6f7e31aa2","ios":"levelo://app?vid=1e2b1472-a052-45ad-8f69-f5a6f7e31aa2"},"vehicle_type_id":"4","last_reported":1720343328,"current_range_meters":24400,"station_id":"ce4bgs12rcd13ifvqcag","pricing_plan_id":"cebpf4jnsgd1na2vs0mg"},{"bike_id":"868df0d0-0c9c-4474-89b7-0c40d398ab63","system_id":"levelo_inurba_marseille","lat":43.305706,"lon":5.365654,"is_reserved":false,"is_disabled":false,"rental_uris":{"android":"levelo://app?vid=868df0d0-0c9c-4474-89b7-0c40d398ab63","ios":"levelo://app?vid=868df0d0-0c9c-4474-89b7-0c40d398ab63"},"vehicle_type_id":"4","last_reported":1720343328,"current_range_meters":31600,"station_id":"ce4bgs12rcd13ifvqcag","pricing_plan_id":"cebpf4jnsgd1na2vs0mg"},{"bike_id":"90fb1a11-2282-4050-9b6f-13cba3ae5ae2","system_id":"levelo_inurba_marseille","lat":43.305706,"lon":5.365654,"is_reserved":false,"is_disabled":false,"rental_uris":{"android":"levelo://app?vid=90fb1a11-2282-4050-9b6f-13cba3ae5ae2","ios":"levelo://app?vid=90fb1a11-2282-4050-9b6f-13cba3ae5ae2"},"vehicle_type_id":"4","last_reported":1720343328,"current_range_meters":20000,"station_id":"ce4bgs12rcd13ifvqcag","pricing_plan_id":"cebpf4jnsgd1na2vs0mg"},{"bike_id":"acd78a08-5f71-4dac-b017-d83423a54fa2","system_id":"levelo_inurba_marseille","lat":43.305368,"lon":5.367343,"is_reserved":false,"is_disabled":false,"rental_uris":{"android":"levelo://app?vid=acd78a08-5f71-4dac-b017-d83423a54fa2","ios":"levelo://app?vid=acd78a08-5f71-4dac-b017-d83423a54fa2"},"vehicle_type_id":"4","last_reported":1720343328,"current_range_meters":19600,"station_id":"ce4bgrp2rcd13ifvqc9g","pricing_plan_id":"cebpf4jnsgd1na2vs0mg"},{"bike_id":"a31500ed-5177-44b0-8d48-b193cd715512","system_id":"levelo_inurba_marseille","lat":43.305989,"lon":5.37225,"is_reserved":false,"is_disabled":false,"rental_uris":{"android":"levelo://app?vid=a31500ed-5177-44b0-8d48-b193cd715512","ios":"levelo://app?vid=a31500ed-5177-44b0-8d48-b193cd715512"},"vehicle_type_id":"4","last_reported":1720343328,"current_range_meters":24800,"station_id":"ce4bgqh2rcd13ifvqc4g","pricing_plan_id":"cebpf4jnsgd1na2vs0mg"},{"bike_id":"7be8bf84-e076-4fdd-b743-f27add3c4234","system_id":"levelo_inurba_marseille","lat":43.305989,"lon":5.37225,"is_reserved":false,"is_disabled":false,"rental_uris":{"android":"levelo://app?vid=7be8bf84-e076-4fdd-b743-f27add3c4234","ios":"levelo://app?vid=7be8bf84-e076-4fdd-b743-f27add3c4234"},"vehicle_type_id":"4","last_reported":1720343328,"current_range_meters":23600,"station_id":"ce4bgqh2rcd13ifvqc4g","pricing_plan_id":"cebpf4jnsgd1na2vs0mg"},{"bike_id":"98daa056-71ef-440b-921c-34f2eb6d7a64","system_id":"levelo_inurba_marseille","lat":43.30596,"lon":5.37218,"is_reserved":false,"is_disabled":false,"rental_uris":{"android":"levelo://app?vid=98daa056-71ef-440b-921c-34f2eb6d7a64","ios":"levelo://app?vid=98daa056-71ef-440b-921c-34f2eb6d7a64"},"vehicle_type_id":"4","last_reported":1720343328,"current_range_meters":18800,"station_id":"ce4bgqh2rcd13ifvqc4g","pricing_plan_id":"cebpf4jnsgd1na2vs0mg"},{"bike_id":"4acd3db7-9969-4b26-82be-516b2437a40d","system_id":"levelo_inurba_marseille","lat":43.305989,"lon":5.37225,"is_reserved":false,"is_disabled":false,"rental_uris":{"android":"levelo://app?vid=4acd3db7-9969-4b26-82be-516b2437a40d","ios":"levelo://app?vid=4acd3db7-9969-4b26-82be-516b2437a40d"},"vehicle_type_id":"4","last_reported":1720343328,"current_range_meters":30400,"station_id":"ce4bgqh2rcd13ifvqc4g","pricing_plan_id":"cebpf4jnsgd1na2vs0mg"},{"bike_id":"50dcffe6-ac5b-4102-b82f-b85e663790b0","system_id":"levelo_inurba_marseille","lat":43.311131,"lon":5.377651,"is_reserved":false,"is_disabled":false,"rental_uris":{"android":"levelo://app?vid=50dcffe6-ac5b-4102-b82f-b85e663790b0","ios":"levelo://app?vid=50dcffe6-ac5b-4102-b82f-b85e663790b0"},"vehicle_type_id":"4","last_reported":1720343328,"current_range_meters":27200,"station_id":"ce4bgt92rcd13ifvqcg0","pricing_plan_id":"cebpf4jnsgd1na2vs0mg"},{"bike_id":"4210048c-e692-4eb3-8ad2-c27a742186fe","system_id":"levelo_inurba_marseille","lat":43.311172,"lon":5.377712,"is_reserved":false,"is_disabled":false,"rental_uris":{"android":"levelo://app?vid=4210048c-e692-4eb3-8ad2-c27a742186fe","ios":"levelo://app?vid=4210048c-e692-4eb3-8ad2-c27a742186fe"},"vehicle_type_id":"4","last_reported":1720343328,"current_range_meters":11600,"station_id":"ce4bgt92rcd13ifvqcg0","pricing_plan_id":"cebpf4jnsgd1na2vs0mg"},{"bike_id":"1c2f430b-09cf-4538-b365-4f88b05fd743","system_id":"levelo_inurba_marseille","lat":43.305003,"lon":5.370923,"is_reserved":false,"is_disabled":false,"rental_uris":{"android":"levelo://app?vid=1c2f430b-09cf-4538-b365-4f88b05fd743","ios":"levelo://app?vid=1c2f430b-09cf-4538-b365-4f88b05fd743"},"vehicle_type_id":"4","last_reported":1720343328,"current_range_meters":0,"station_id":"","pricing_plan_id":"cebpf4jnsgd1na2vs0mg"},{"bike_id":"75f3382e-e068-4a49-8660-816446ae49f8","system_id":"levelo_inurba_marseille","lat":43.307945,"lon":5.376487,"is_reserved":false,"is_disabled":false,"rental_uris":{"android":"levelo://app?vid=75f3382e-e068-4a49-8660-816446ae49f8","ios":"levelo://app?vid=75f3382e-e068-4a49-8660-816446ae49f8"},"vehicle_type_id":"4","last_reported":1720343328,"current_range_meters":31200,"station_id":"ce4bgv92rcd13ifvqcq0","pricing_plan_id":"cebpf4jnsgd1na2vs0mg"},{"bike_id":"f2fcce2a-485d-48db-8d9a-aa7f4e9dc72e","system_id":"levelo_inurba_marseille","lat":43.3168,"lon":5.37735,"is_reserved":false,"is_disabled":false,"rental_uris":{"android":"levelo://app?vid=f2fcce2a-485d-48db-8d9a-aa7f4e9dc72e","ios":"levelo://app?vid=f2fcce2a-485d-48db-8d9a-aa7f4e9dc72e"},"vehicle_type_id":"4","last_reported":1720343328,"current_range_meters":5200,"station_id":"ce4bgth2rcd13ifvqch0","pricing_plan_id":"cebpf4jnsgd1na2vs0mg"},{"bike_id":"7e1157c8-c997-485c-8838-35e52f4e29ed","system_id":"levelo_inurba_marseille","lat":43.31704,"lon":5.37744,"is_reserved":false,"is_disabled":false,"rental_uris":{"android":"levelo://app?vid=7e1157c8-c997-485c-8838-35e52f4e29ed","ios":"levelo://app?vid=7e1157c8-c997-485c-8838-35e52f4e29ed"},"vehicle_type_id":"4","last_reported":1720343328,"current_range_meters":27600,"station_id":"ce4bgth2rcd13ifvqch0","pricing_plan_id":"cebpf4jnsgd1na2vs0mg"},{"bike_id":"bb578b4d-5468-4739-9e50-64f52912868f","system_id":"levelo_inurba_marseille","lat":43.317075,"lon":5.377367,"is_reserved":false,"is_disabled":false,"rental_uris":{"android":"levelo://app?vid=bb578b4d-5468-4739-9e50-64f52912868f","ios":"levelo://app?vid=bb578b4d-5468-4739-9e50-64f52912868f"},"vehicle_type_id":"4","last_reported":1720343328,"current_range_meters":3600,"station_id":"ce4bgth2rcd13ifvqch0","pricing_plan_id":"cebpf4jnsgd1na2vs0mg"},{"bike_id":"42b9f91c-b225-42bb-9ca8-8cfbd7d1a9f0","system_id":"levelo_inurba_marseille","lat":43.317075,"lon":5.377367,"is_reserved":false,"is_disabled":false,"rental_uris":{"android":"levelo://app?vid=42b9f91c-b225-42bb-9ca8-8cfbd7d1a9f0","ios":"levelo://app?vid=42b9f91c-b225-42bb-9ca8-8cfbd7d1a9f0"},"vehicle_type_id":"4","last_reported":1720343328,"current_range_meters":18000,"station_id":"ce4bgth2rcd13ifvqch0","pricing_plan_id":"cebpf4jnsgd1na2vs0mg"},{"bike_id":"8647dd94-abb4-4d0a-8b01-3cddfa9cb51e","system_id":"levelo_inurba_marseille","lat":43.317075,"lon":5.377367,"is_reserved":false,"is_disabled":false,"rental_uris":{"android":"levelo://app?vid=8647dd94-abb4-4d0a-8b01-3cddfa9cb51e","ios":"levelo://app?vid=8647dd94-abb4-4d0a-8b01-3cddfa9cb51e"},"vehicle_type_id":"4","last_reported":1720343328,"current_range_meters":22800,"station_id":"ce4bgth2rcd13ifvqch0","pricing_plan_id":"cebpf4jnsgd1na2vs0mg"},{"bike_id":"107e0677-fe5d-41da-8a2a-919df184ee5f","system_id":"levelo_inurba_marseille","lat":43.317075,"lon":5.377367,"is_reserved":false,"is_disabled":false,"rental_uris":{"android":"levelo://app?vid=107e0677-fe5d-41da-8a2a-919df184ee5f","ios":"levelo://app?vid=107e0677-fe5d-41da-8a2a-919df184ee5f"},"vehicle_type_id":"4","last_reported":1720343328,"current_range_meters":26400,"station_id":"ce4bgth2rcd13ifvqch0","pricing_plan_id":"cebpf4jnsgd1na2vs0mg"},{"bike_id":"94844320-e6f9-460f-b450-ae4d19d60c53","system_id":"levelo_inurba_marseille","lat":43.315289,"lon":5.380349,"is_reserved":false,"is_disabled":false,"rental_uris":{"android":"levelo://app?vid=94844320-e6f9-460f-b450-ae4d19d60c53","ios":"levelo://app?vid=94844320-e6f9-460f-b450-ae4d19d60c53"},"vehicle_type_id":"4","last_reported":1720343328,"current_range_meters":4400,"station_id":"ce4bhsp2rcd13ifvqi50","pricing_plan_id":"cebpf4jnsgd1na2vs0mg"},{"bike_id":"4cbbc5c7-04d8-422d-a9c6-80854777b1bf","system_id":"levelo_inurba_marseille","lat":43.315289,"lon":5.380349,"is_reserved":false,"is_disabled":false,"rental_uris":{"android":"levelo://app?vid=4cbbc5c7-04d8-422d-a9c6-80854777b1bf","ios":"levelo://app?vid=4cbbc5c7-04d8-422d-a9c6-80854777b1bf"},"vehicle_type_id":"4","last_reported":1720343328,"current_range_meters":10400,"station_id":"ce4bhsp2rcd13ifvqi50","pricing_plan_id":"cebpf4jnsgd1na2vs0mg"},{"bike_id":"644c55ef-77fd-4fd9-8fc0-cfd5db82beef","system_id":"levelo_inurba_marseille","lat":43.301939,"lon":5.366286,"is_reserved":false,"is_disabled":false,"rental_uris":{"android":"levelo://app?vid=644c55ef-77fd-4fd9-8fc0-cfd5db82beef","ios":"levelo://app?vid=644c55ef-77fd-4fd9-8fc0-cfd5db82beef"},"vehicle_type_id":"4","last_reported":1720343328,"current_range_meters":0,"station_id":"ce4bgrh2rcd13ifvqc8g","pricing_plan_id":"cebpf4jnsgd1na2vs0mg"},{"bike_id":"b269e563-d186-4bfd-90e6-aeb9d3d36793","system_id":"levelo_inurba_marseille","lat":43.308012,"lon":5.381511,"is_reserved":false,"is_disabled":false,"rental_uris":{"android":"levelo://app?vid=b269e563-d186-4bfd-90e6-aeb9d3d36793","ios":"levelo://app?vid=b269e563-d186-4bfd-90e6-aeb9d3d36793"},"vehicle_type_id":"4","last_reported":1720343328,"current_range_meters":2000,"station_id":"ce4bgt12rcd13ifvqce0","pricing_plan_id":"cebpf4jnsgd1na2vs0mg"},{"bike_id":"98f3b616-5f13-4a59-876c-53fa3f87947f","system_id":"levelo_inurba_marseille","lat":43.308012,"lon":5.381511,"is_reserved":false,"is_disabled":false,"rental_uris":{"android":"levelo://app?vid=98f3b616-5f13-4a59-876c-53fa3f87947f","ios":"levelo://app?vid=98f3b616-5f13-4a59-876c-53fa3f87947f"},"vehicle_type_id":"4","last_reported":1720343328,"current_range_meters":0,"station_id":"ce4bgt12rcd13ifvqce0","pricing_plan_id":"cebpf4jnsgd1na2vs0mg"},{"bike_id":"de7f94a0-f3a6-4702-b950-2ed30e4e8005","system_id":"levelo_inurba_marseille","lat":43.316166,"lon":5.382364,"is_reserved":false,"is_disabled":false,"rental_uris":{"android":"levelo://app?vid=de7f94a0-f3a6-4702-b950-2ed30e4e8005","ios":"levelo://app?vid=de7f94a0-f3a6-4702-b950-2ed30e4e8005"},"vehicle_type_id":"4","last_reported":1720343328,"current_range_meters":13200,"station_id":"","pricing_plan_id":"cebpf4jnsgd1na2vs0mg"},{"bike_id":"ad8c02c3-b43c-4efb-8ba1-4ac0faed2346","system_id":"levelo_inurba_marseille","lat":43.301008,"lon":5.368712,"is_reserved":false,"is_disabled":false,"rental_uris":{"android":"levelo://app?vid=ad8c02c3-b43c-4efb-8ba1-4ac0faed2346","ios":"levelo://app?vid=ad8c02c3-b43c-4efb-8ba1-4ac0faed2346"},"vehicle_type_id":"4","last_reported":1720343328,"current_range_meters":16400,"station_id":"","pricing_plan_id":"cebpf4jnsgd1na2vs0mg"},{"bike_id":"c5baf5f4-35d0-4ce2-859d-8bd03858ff1e","system_id":"levelo_inurba_marseille","lat":43.304606,"lon":5.379026,"is_reserved":false,"is_disabled":false,"rental_uris":{"android":"levelo://app?vid=c5baf5f4-35d0-4ce2-859d-8bd03858ff1e","ios":"levelo://app?vid=c5baf5f4-35d0-4ce2-859d-8bd03858ff1e"},"vehicle_type_id":"4","last_reported":1720343328,"current_range_meters":24400,"station_id":"ce4bgup2rcd13ifvqcn0","pricing_plan_id":"cebpf4jnsgd1na2vs0mg"},{"bike_id":"a69b84dd-83e1-43af-9c0a-779004260717","system_id":"levelo_inurba_marseille","lat":43.304606,"lon":5.379026,"is_reserved":false,"is_disabled":false,"rental_uris":{"android":"levelo://app?vid=a69b84dd-83e1-43af-9c0a-779004260717","ios":"levelo://app?vid=a69b84dd-83e1-43af-9c0a-779004260717"},"vehicle_type_id":"4","last_reported":1720343328,"current_range_meters":18800,"station_id":"ce4bgup2rcd13ifvqcn0","pricing_plan_id":"cebpf4jnsgd1na2vs0mg"},{"bike_id":"c8f45482-85f3-49ca-a8d2-2ba400c8a1e1","system_id":"levelo_inurba_marseille","lat":43.304606,"lon":5.379026,"is_reserved":false,"is_disabled":false,"rental_uris":{"android":"levelo://app?vid=c8f45482-85f3-49ca-a8d2-2ba400c8a1e1","ios":"levelo://app?vid=c8f45482-85f3-49ca-a8d2-2ba400c8a1e1"},"vehicle_type_id":"4","last_reported":1720343328,"current_range_meters":22000,"station_id":"ce4bgup2rcd13ifvqcn0","pricing_plan_id":"cebpf4jnsgd1na2vs0mg"},{"bike_id":"7111ae84-33fe-4645-9dce-5feba73ff6a7","system_id":"levelo_inurba_marseille","lat":43.304606,"lon":5.379026,"is_reserved":false,"is_disabled":false,"rental_uris":{"android":"levelo://app?vid=7111ae84-33fe-4645-9dce-5feba73ff6a7","ios":"levelo://app?vid=7111ae84-33fe-4645-9dce-5feba73ff6a7"},"vehicle_type_id":"4","last_reported":1720343328,"current_range_meters":30800,"station_id":"ce4bgup2rcd13ifvqcn0","pricing_plan_id":"cebpf4jnsgd1na2vs0mg"},{"bike_id":"edb44196-7ba9-41cf-b884-4179c1c93eae","system_id":"levelo_inurba_marseille","lat":43.304606,"lon":5.379026,"is_reserved":false,"is_disabled":false,"rental_uris":{"android":"levelo://app?vid=edb44196-7ba9-41cf-b884-4179c1c93eae","ios":"levelo://app?vid=edb44196-7ba9-41cf-b884-4179c1c93eae"},"vehicle_type_id":"4","last_reported":1720343328,"current_range_meters":10400,"station_id":"ce4bgup2rcd13ifvqcn0","pricing_plan_id":"cebpf4jnsgd1na2vs0mg"},{"bike_id":"247d31c3-0748-46d9-acdb-9597104e525f","system_id":"levelo_inurba_marseille","lat":43.304606,"lon":5.379026,"is_reserved":false,"is_disabled":false,"rental_uris":{"android":"levelo://app?vid=247d31c3-0748-46d9-acdb-9597104e525f","ios":"levelo://app?vid=247d31c3-0748-46d9-acdb-9597104e525f"},"vehicle_type_id":"4","last_reported":1720343328,"current_range_meters":26000,"station_id":"ce4bgup2rcd13ifvqcn0","pricing_plan_id":"cebpf4jnsgd1na2vs0mg"},{"bike_id":"89f58194-8770-45c3-9bca-3f7a9b0f5a37","system_id":"levelo_inurba_marseille","lat":43.304606,"lon":5.379026,"is_reserved":false,"is_disabled":false,"rental_uris":{"android":"levelo://app?vid=89f58194-8770-45c3-9bca-3f7a9b0f5a37","ios":"levelo://app?vid=89f58194-8770-45c3-9bca-3f7a9b0f5a37"},"vehicle_type_id":"4","last_reported":1720343328,"current_range_meters":19600,"station_id":"ce4bgup2rcd13ifvqcn0","pricing_plan_id":"cebpf4jnsgd1na2vs0mg"},{"bike_id":"409ab1a4-8ee6-4aa1-99ca-feef3c0a17d3","system_id":"levelo_inurba_marseille","lat":43.304606,"lon":5.379026,"is_reserved":false,"is_disabled":false,"rental_uris":{"android":"levelo://app?vid=409ab1a4-8ee6-4aa1-99ca-feef3c0a17d3","ios":"levelo://app?vid=409ab1a4-8ee6-4aa1-99ca-feef3c0a17d3"},"vehicle_type_id":"4","last_reported":1720343328,"current_range_meters":31600,"station_id":"ce4bgup2rcd13ifvqcn0","pricing_plan_id":"cebpf4jnsgd1na2vs0mg"},{"bike_id":"3956490b-7d1d-48a7-bb15-1d3d7caa1a75","system_id":"levelo_inurba_marseille","lat":43.304606,"lon":5.379026,"is_reserved":false,"is_disabled":false,"rental_uris":{"android":"levelo://app?vid=3956490b-7d1d-48a7-bb15-1d3d7caa1a75","ios":"levelo://app?vid=3956490b-7d1d-48a7-bb15-1d3d7caa1a75"},"vehicle_type_id":"4","last_reported":1720343328,"current_range_meters":31200,"station_id":"ce4bgup2rcd13ifvqcn0","pricing_plan_id":"cebpf4jnsgd1na2vs0mg"},{"bike_id":"b7e7cf91-0d6d-4797-8113-42d4a1cfd385","system_id":"levelo_inurba_marseille","lat":43.304606,"lon":5.379026,"is_reserved":false,"is_disabled":false,"rental_uris":{"android":"levelo://app?vid=b7e7cf91-0d6d-4797-8113-42d4a1cfd385","ios":"levelo://app?vid=b7e7cf91-0d6d-4797-8113-42d4a1cfd385"},"vehicle_type_id":"4","last_reported":1720343328,"current_range_meters":17200,"station_id":"ce4bgup2rcd13ifvqcn0","pricing_plan_id":"cebpf4jnsgd1na2vs0mg"},{"bike_id":"49fb35d3-3b3c-4167-abf1-c3e6c794b11d","system_id":"levelo_inurba_marseille","lat":43.304606,"lon":5.379026,"is_reserved":false,"is_disabled":false,"rental_uris":{"android":"levelo://app?vid=49fb35d3-3b3c-4167-abf1-c3e6c794b11d","ios":"levelo://app?vid=49fb35d3-3b3c-4167-abf1-c3e6c794b11d"},"vehicle_type_id":"4","last_reported":1720343328,"current_range_meters":31600,"station_id":"ce4bgup2rcd13ifvqcn0","pricing_plan_id":"cebpf4jnsgd1na2vs0mg"},{"bike_id":"bfd90769-7639-490f-add2-c4b7863238b8","system_id":"levelo_inurba_marseille","lat":43.304606,"lon":5.379026,"is_reserved":false,"is_disabled":false,"rental_uris":{"android":"levelo://app?vid=bfd90769-7639-490f-add2-c4b7863238b8","ios":"levelo://app?vid=bfd90769-7639-490f-add2-c4b7863238b8"},"vehicle_type_id":"4","last_reported":1720343328,"current_range_meters":24000,"station_id":"ce4bgup2rcd13ifvqcn0","pricing_plan_id":"cebpf4jnsgd1na2vs0mg"},{"bike_id":"844e92b3-cfab-4516-a820-6fd1fa217f74","system_id":"levelo_inurba_marseille","lat":43.304606,"lon":5.379026,"is_reserved":false,"is_disabled":false,"rental_uris":{"android":"levelo://app?vid=844e92b3-cfab-4516-a820-6fd1fa217f74","ios":"levelo://app?vid=844e92b3-cfab-4516-a820-6fd1fa217f74"},"vehicle_type_id":"4","last_reported":1720343328,"current_range_meters":31200,"station_id":"ce4bgup2rcd13ifvqcn0","pricing_plan_id":"cebpf4jnsgd1na2vs0mg"},{"bike_id":"205f799f-5f8c-4c26-9f50-69e5b28779e4","system_id":"levelo_inurba_marseille","lat":43.304606,"lon":5.379026,"is_reserved":false,"is_disabled":false,"rental_uris":{"android":"levelo://app?vid=205f799f-5f8c-4c26-9f50-69e5b28779e4","ios":"levelo://app?vid=205f799f-5f8c-4c26-9f50-69e5b28779e4"},"vehicle_type_id":"4","last_reported":1720343328,"current_range_meters":30400,"station_id":"ce4bgup2rcd13ifvqcn0","pricing_plan_id":"cebpf4jnsgd1na2vs0mg"},{"bike_id":"0b08e645-2476-4283-bbb5-c0a36b5d5554","system_id":"levelo_inurba_marseille","lat":43.304606,"lon":5.379026,"is_reserved":false,"is_disabled":false,"rental_uris":{"android":"levelo://app?vid=0b08e645-2476-4283-bbb5-c0a36b5d5554","ios":"levelo://app?vid=0b08e645-2476-4283-bbb5-c0a36b5d5554"},"vehicle_type_id":"4","last_reported":1720343328,"current_range_meters":25200,"station_id":"ce4bgup2rcd13ifvqcn0","pricing_plan_id":"cebpf4jnsgd1na2vs0mg"},{"bike_id":"03ca1289-bdb1-4c89-b20c-4b3e78040f0e","system_id":"levelo_inurba_marseille","lat":43.304606,"lon":5.379026,"is_reserved":false,"is_disabled":false,"rental_uris":{"android":"levelo://app?vid=03ca1289-bdb1-4c89-b20c-4b3e78040f0e","ios":"levelo://app?vid=03ca1289-bdb1-4c89-b20c-4b3e78040f0e"},"vehicle_type_id":"4","last_reported":1720343328,"current_range_meters":30400,"station_id":"ce4bgup2rcd13ifvqcn0","pricing_plan_id":"cebpf4jnsgd1na2vs0mg"},{"bike_id":"938e2736-1c8e-40fc-891f-3b0da9ad7640","system_id":"levelo_inurba_marseille","lat":43.324771,"lon":5.36557,"is_reserved":false,"is_disabled":false,"rental_uris":{"android":"levelo://app?vid=938e2736-1c8e-40fc-891f-3b0da9ad7640","ios":"levelo://app?vid=938e2736-1c8e-40fc-891f-3b0da9ad7640"},"vehicle_type_id":"4","last_reported":1720343328,"current_range_meters":24000,"station_id":"ce4bhs12rcd13ifvqhvg","pricing_plan_id":"cebpf4jnsgd1na2vs0mg"},{"bike_id":"5d852f61-c391-4582-b427-103f0805d646","system_id":"levelo_inurba_marseille","lat":43.324771,"lon":5.36557,"is_reserved":false,"is_disabled":false,"rental_uris":{"android":"levelo://app?vid=5d852f61-c391-4582-b427-103f0805d646","ios":"levelo://app?vid=5d852f61-c391-4582-b427-103f0805d646"},"vehicle_type_id":"4","last_reported":1720343328,"current_range_meters":30400,"station_id":"ce4bhs12rcd13ifvqhvg","pricing_plan_id":"cebpf4jnsgd1na2vs0mg"},{"bike_id":"d1fc7ddc-7295-45bc-a6c0-9cd63c798229","system_id":"levelo_inurba_marseille","lat":43.324771,"lon":5.36557,"is_reserved":false,"is_disabled":false,"rental_uris":{"android":"levelo://app?vid=d1fc7ddc-7295-45bc-a6c0-9cd63c798229","ios":"levelo://app?vid=d1fc7ddc-7295-45bc-a6c0-9cd63c798229"},"vehicle_type_id":"4","last_reported":1720343328,"current_range_meters":800,"station_id":"ce4bhs12rcd13ifvqhvg","pricing_plan_id":"cebpf4jnsgd1na2vs0mg"},{"bike_id":"096abc1c-fc93-4e64-af4f-f536ac12d80d","system_id":"levelo_inurba_marseille","lat":43.324771,"lon":5.36557,"is_reserved":false,"is_disabled":false,"rental_uris":{"android":"levelo://app?vid=096abc1c-fc93-4e64-af4f-f536ac12d80d","ios":"levelo://app?vid=096abc1c-fc93-4e64-af4f-f536ac12d80d"},"vehicle_type_id":"4","last_reported":1720343328,"current_range_meters":10800,"station_id":"ce4bhs12rcd13ifvqhvg","pricing_plan_id":"cebpf4jnsgd1na2vs0mg"},{"bike_id":"bb85e79b-8463-48f5-b20e-7f5dff8d3a1b","system_id":"levelo_inurba_marseille","lat":43.32475,"lon":5.36562,"is_reserved":false,"is_disabled":false,"rental_uris":{"android":"levelo://app?vid=bb85e79b-8463-48f5-b20e-7f5dff8d3a1b","ios":"levelo://app?vid=bb85e79b-8463-48f5-b20e-7f5dff8d3a1b"},"vehicle_type_id":"4","last_reported":1720343328,"current_range_meters":3200,"station_id":"ce4bhs12rcd13ifvqhvg","pricing_plan_id":"cebpf4jnsgd1na2vs0mg"},{"bike_id":"40740372-0b24-4a2c-9e9c-b9d6e8cbbd95","system_id":"levelo_inurba_marseille","lat":43.32475,"lon":5.36559,"is_reserved":false,"is_disabled":false,"rental_uris":{"android":"levelo://app?vid=40740372-0b24-4a2c-9e9c-b9d6e8cbbd95","ios":"levelo://app?vid=40740372-0b24-4a2c-9e9c-b9d6e8cbbd95"},"vehicle_type_id":"4","last_reported":1720343328,"current_range_meters":8000,"station_id":"ce4bhs12rcd13ifvqhvg","pricing_plan_id":"cebpf4jnsgd1na2vs0mg"},{"bike_id":"5962cbbe-c7b7-4178-b734-df3778f5194b","system_id":"levelo_inurba_marseille","lat":43.324771,"lon":5.36557,"is_reserved":false,"is_disabled":false,"rental_uris":{"android":"levelo://app?vid=5962cbbe-c7b7-4178-b734-df3778f5194b","ios":"levelo://app?vid=5962cbbe-c7b7-4178-b734-df3778f5194b"},"vehicle_type_id":"4","last_reported":1720343328,"current_range_meters":6400,"station_id":"ce4bhs12rcd13ifvqhvg","pricing_plan_id":"cebpf4jnsgd1na2vs0mg"},{"bike_id":"47f6625a-db3c-4898-9f6f-af9c975d98fa","system_id":"levelo_inurba_marseille","lat":43.324771,"lon":5.36557,"is_reserved":false,"is_disabled":false,"rental_uris":{"android":"levelo://app?vid=47f6625a-db3c-4898-9f6f-af9c975d98fa","ios":"levelo://app?vid=47f6625a-db3c-4898-9f6f-af9c975d98fa"},"vehicle_type_id":"4","last_reported":1720343328,"current_range_meters":29200,"station_id":"ce4bhs12rcd13ifvqhvg","pricing_plan_id":"cebpf4jnsgd1na2vs0mg"},{"bike_id":"b1f4a16a-c03b-4120-aca8-941d6a6df2ab","system_id":"levelo_inurba_marseille","lat":43.32477,"lon":5.36564,"is_reserved":false,"is_disabled":false,"rental_uris":{"android":"levelo://app?vid=b1f4a16a-c03b-4120-aca8-941d6a6df2ab","ios":"levelo://app?vid=b1f4a16a-c03b-4120-aca8-941d6a6df2ab"},"vehicle_type_id":"4","last_reported":1720343328,"current_range_meters":15600,"station_id":"ce4bhs12rcd13ifvqhvg","pricing_plan_id":"cebpf4jnsgd1na2vs0mg"},{"bike_id":"7c3beb81-dff7-4c95-bae4-b3f3358c6522","system_id":"levelo_inurba_marseille","lat":43.304606,"lon":5.379026,"is_reserved":false,"is_disabled":false,"rental_uris":{"android":"levelo://app?vid=7c3beb81-dff7-4c95-bae4-b3f3358c6522","ios":"levelo://app?vid=7c3beb81-dff7-4c95-bae4-b3f3358c6522"},"vehicle_type_id":"4","last_reported":1720343328,"current_range_meters":31200,"station_id":"ce4bgup2rcd13ifvqcn0","pricing_plan_id":"cebpf4jnsgd1na2vs0mg"},{"bike_id":"66561364-9efe-4704-8653-e4e0325012d2","system_id":"levelo_inurba_marseille","lat":43.324787,"lon":5.365711,"is_reserved":false,"is_disabled":false,"rental_uris":{"android":"levelo://app?vid=66561364-9efe-4704-8653-e4e0325012d2","ios":"levelo://app?vid=66561364-9efe-4704-8653-e4e0325012d2"},"vehicle_type_id":"4","last_reported":1720343328,"current_range_meters":30400,"station_id":"ce4bhs12rcd13ifvqhvg","pricing_plan_id":"cebpf4jnsgd1na2vs0mg"},{"bike_id":"16145fde-ed6f-4a7f-ae7c-c30d49108652","system_id":"levelo_inurba_marseille","lat":43.324795,"lon":5.365795,"is_reserved":false,"is_disabled":false,"rental_uris":{"android":"levelo://app?vid=16145fde-ed6f-4a7f-ae7c-c30d49108652","ios":"levelo://app?vid=16145fde-ed6f-4a7f-ae7c-c30d49108652"},"vehicle_type_id":"4","last_reported":1720343328,"current_range_meters":3200,"station_id":"ce4bhs12rcd13ifvqhvg","pricing_plan_id":"cebpf4jnsgd1na2vs0mg"},{"bike_id":"57e6c351-2b4a-4ffb-b2ab-45014fb7863f","system_id":"levelo_inurba_marseille","lat":43.324771,"lon":5.36557,"is_reserved":false,"is_disabled":false,"rental_uris":{"android":"levelo://app?vid=57e6c351-2b4a-4ffb-b2ab-45014fb7863f","ios":"levelo://app?vid=57e6c351-2b4a-4ffb-b2ab-45014fb7863f"},"vehicle_type_id":"4","last_reported":1720343328,"current_range_meters":17600,"station_id":"ce4bhs12rcd13ifvqhvg","pricing_plan_id":"cebpf4jnsgd1na2vs0mg"},{"bike_id":"d285936a-e80c-4261-98b8-dfdfc3ecd557","system_id":"levelo_inurba_marseille","lat":43.3248,"lon":5.36573,"is_reserved":false,"is_disabled":false,"rental_uris":{"android":"levelo://app?vid=d285936a-e80c-4261-98b8-dfdfc3ecd557","ios":"levelo://app?vid=d285936a-e80c-4261-98b8-dfdfc3ecd557"},"vehicle_type_id":"4","last_reported":1720343328,"current_range_meters":5200,"station_id":"ce4bhs12rcd13ifvqhvg","pricing_plan_id":"cebpf4jnsgd1na2vs0mg"},{"bike_id":"b14ac795-e42f-4cb0-9e8e-f6a939edb762","system_id":"levelo_inurba_marseille","lat":43.3248,"lon":5.36555,"is_reserved":false,"is_disabled":false,"rental_uris":{"android":"levelo://app?vid=b14ac795-e42f-4cb0-9e8e-f6a939edb762","ios":"levelo://app?vid=b14ac795-e42f-4cb0-9e8e-f6a939edb762"},"vehicle_type_id":"4","last_reported":1720343328,"current_range_meters":2400,"station_id":"ce4bhs12rcd13ifvqhvg","pricing_plan_id":"cebpf4jnsgd1na2vs0mg"},{"bike_id":"81393e72-9671-4a45-b8fc-b870daf4815e","system_id":"levelo_inurba_marseille","lat":43.324816,"lon":5.365689,"is_reserved":false,"is_disabled":false,"rental_uris":{"android":"levelo://app?vid=81393e72-9671-4a45-b8fc-b870daf4815e","ios":"levelo://app?vid=81393e72-9671-4a45-b8fc-b870daf4815e"},"vehicle_type_id":"4","last_reported":1720343328,"current_range_meters":1200,"station_id":"ce4bhs12rcd13ifvqhvg","pricing_plan_id":"cebpf4jnsgd1na2vs0mg"},{"bike_id":"dee8e93b-74c9-4b2f-a2a1-1ca8efd7a42f","system_id":"levelo_inurba_marseille","lat":43.324771,"lon":5.36557,"is_reserved":false,"is_disabled":false,"rental_uris":{"android":"levelo://app?vid=dee8e93b-74c9-4b2f-a2a1-1ca8efd7a42f","ios":"levelo://app?vid=dee8e93b-74c9-4b2f-a2a1-1ca8efd7a42f"},"vehicle_type_id":"4","last_reported":1720343328,"current_range_meters":18800,"station_id":"ce4bhs12rcd13ifvqhvg","pricing_plan_id":"cebpf4jnsgd1na2vs0mg"},{"bike_id":"23d4636e-2b96-4571-b4cf-7c474480f91f","system_id":"levelo_inurba_marseille","lat":43.304606,"lon":5.379026,"is_reserved":false,"is_disabled":false,"rental_uris":{"android":"levelo://app?vid=23d4636e-2b96-4571-b4cf-7c474480f91f","ios":"levelo://app?vid=23d4636e-2b96-4571-b4cf-7c474480f91f"},"vehicle_type_id":"4","last_reported":1720343328,"current_range_meters":30400,"station_id":"ce4bgup2rcd13ifvqcn0","pricing_plan_id":"cebpf4jnsgd1na2vs0mg"},{"bike_id":"f086fe52-6ed0-4584-a418-dd1b8af5238c","system_id":"levelo_inurba_marseille","lat":43.32484,"lon":5.3657,"is_reserved":false,"is_disabled":false,"rental_uris":{"android":"levelo://app?vid=f086fe52-6ed0-4584-a418-dd1b8af5238c","ios":"levelo://app?vid=f086fe52-6ed0-4584-a418-dd1b8af5238c"},"vehicle_type_id":"4","last_reported":1720343328,"current_range_meters":20400,"station_id":"ce4bhs12rcd13ifvqhvg","pricing_plan_id":"cebpf4jnsgd1na2vs0mg"},{"bike_id":"1e7eaf96-0346-4efa-931a-a7d1884db32c","system_id":"levelo_inurba_marseille","lat":43.32484,"lon":5.36564,"is_reserved":false,"is_disabled":false,"rental_uris":{"android":"levelo://app?vid=1e7eaf96-0346-4efa-931a-a7d1884db32c","ios":"levelo://app?vid=1e7eaf96-0346-4efa-931a-a7d1884db32c"},"vehicle_type_id":"4","last_reported":1720343328,"current_range_meters":6800,"station_id":"ce4bhs12rcd13ifvqhvg","pricing_plan_id":"cebpf4jnsgd1na2vs0mg"},{"bike_id":"14fd5de4-250d-4004-9087-6495b84347c0","system_id":"levelo_inurba_marseille","lat":43.32485,"lon":5.36559,"is_reserved":false,"is_disabled":false,"rental_uris":{"android":"levelo://app?vid=14fd5de4-250d-4004-9087-6495b84347c0","ios":"levelo://app?vid=14fd5de4-250d-4004-9087-6495b84347c0"},"vehicle_type_id":"4","last_reported":1720343328,"current_range_meters":7200,"station_id":"ce4bhs12rcd13ifvqhvg","pricing_plan_id":"cebpf4jnsgd1na2vs0mg"},{"bike_id":"84e7c164-7953-457c-88ae-938b27f8beec","system_id":"levelo_inurba_marseille","lat":43.310804,"lon":5.38359,"is_reserved":false,"is_disabled":false,"rental_uris":{"android":"levelo://app?vid=84e7c164-7953-457c-88ae-938b27f8beec","ios":"levelo://app?vid=84e7c164-7953-457c-88ae-938b27f8beec"},"vehicle_type_id":"4","last_reported":1720343328,"current_range_meters":22000,"station_id":"ce4bgv92rcd13ifvqcr0","pricing_plan_id":"cebpf4jnsgd1na2vs0mg"},{"bike_id":"cba06cdd-58a4-4e5d-bbdd-20cdfd8568b3","system_id":"levelo_inurba_marseille","lat":43.324897,"lon":5.365772,"is_reserved":false,"is_disabled":false,"rental_uris":{"android":"levelo://app?vid=cba06cdd-58a4-4e5d-bbdd-20cdfd8568b3","ios":"levelo://app?vid=cba06cdd-58a4-4e5d-bbdd-20cdfd8568b3"},"vehicle_type_id":"4","last_reported":1720343328,"current_range_meters":4400,"station_id":"ce4bhs12rcd13ifvqhvg","pricing_plan_id":"cebpf4jnsgd1na2vs0mg"},{"bike_id":"cd327e33-9368-408f-869d-ebc714157201","system_id":"levelo_inurba_marseille","lat":43.310804,"lon":5.38359,"is_reserved":false,"is_disabled":false,"rental_uris":{"android":"levelo://app?vid=cd327e33-9368-408f-869d-ebc714157201","ios":"levelo://app?vid=cd327e33-9368-408f-869d-ebc714157201"},"vehicle_type_id":"4","last_reported":1720343328,"current_range_meters":14400,"station_id":"ce4bgv92rcd13ifvqcr0","pricing_plan_id":"cebpf4jnsgd1na2vs0mg"},{"bike_id":"267a5fd1-ea01-492a-bb1d-4d35a8df4839","system_id":"levelo_inurba_marseille","lat":43.302784,"lon":5.377158,"is_reserved":false,"is_disabled":false,"rental_uris":{"android":"levelo://app?vid=267a5fd1-ea01-492a-bb1d-4d35a8df4839","ios":"levelo://app?vid=267a5fd1-ea01-492a-bb1d-4d35a8df4839"},"vehicle_type_id":"4","last_reported":1720343328,"current_range_meters":17200,"station_id":"ce4bguh2rcd13ifvqcj0","pricing_plan_id":"cebpf4jnsgd1na2vs0mg"},{"bike_id":"d943525b-06ac-4583-bea8-c1de38aca777","system_id":"levelo_inurba_marseille","lat":43.300763,"lon":5.371063,"is_reserved":false,"is_disabled":false,"rental_uris":{"android":"levelo://app?vid=d943525b-06ac-4583-bea8-c1de38aca777","ios":"levelo://app?vid=d943525b-06ac-4583-bea8-c1de38aca777"},"vehicle_type_id":"4","last_reported":1720343328,"current_range_meters":11200,"station_id":"","pricing_plan_id":"cebpf4jnsgd1na2vs0mg"},{"bike_id":"10a2fcd2-7ff5-4a94-903b-2991cb712668","system_id":"levelo_inurba_marseille","lat":43.302784,"lon":5.377158,"is_reserved":false,"is_disabled":false,"rental_uris":{"android":"levelo://app?vid=10a2fcd2-7ff5-4a94-903b-2991cb712668","ios":"levelo://app?vid=10a2fcd2-7ff5-4a94-903b-2991cb712668"},"vehicle_type_id":"4","last_reported":1720343328,"current_range_meters":28000,"station_id":"ce4bguh2rcd13ifvqcj0","pricing_plan_id":"cebpf4jnsgd1na2vs0mg"},{"bike_id":"86d9dbaf-d13a-4e6e-8906-3b6cf51eb37c","system_id":"levelo_inurba_marseille","lat":43.302784,"lon":5.377158,"is_reserved":false,"is_disabled":false,"rental_uris":{"android":"levelo://app?vid=86d9dbaf-d13a-4e6e-8906-3b6cf51eb37c","ios":"levelo://app?vid=86d9dbaf-d13a-4e6e-8906-3b6cf51eb37c"},"vehicle_type_id":"4","last_reported":1720343328,"current_range_meters":27600,"station_id":"ce4bguh2rcd13ifvqcj0","pricing_plan_id":"cebpf4jnsgd1na2vs0mg"},{"bike_id":"4f05c89d-c4a4-4001-a692-ca7e253d28ff","system_id":"levelo_inurba_marseille","lat":43.301429,"lon":5.37413,"is_reserved":false,"is_disabled":false,"rental_uris":{"android":"levelo://app?vid=4f05c89d-c4a4-4001-a692-ca7e253d28ff","ios":"levelo://app?vid=4f05c89d-c4a4-4001-a692-ca7e253d28ff"},"vehicle_type_id":"4","last_reported":1720343328,"current_range_meters":21200,"station_id":"ce4bgs92rcd13ifvqcc0","pricing_plan_id":"cebpf4jnsgd1na2vs0mg"},{"bike_id":"4879cff2-8dca-44f4-acff-1dd1d7536237","system_id":"levelo_inurba_marseille","lat":43.319935,"lon":5.381699,"is_reserved":false,"is_disabled":false,"rental_uris":{"android":"levelo://app?vid=4879cff2-8dca-44f4-acff-1dd1d7536237","ios":"levelo://app?vid=4879cff2-8dca-44f4-acff-1dd1d7536237"},"vehicle_type_id":"4","last_reported":1720343328,"current_range_meters":0,"station_id":"ce4bhr12rcd13ifvqhpg","pricing_plan_id":"cebpf4jnsgd1na2vs0mg"},{"bike_id":"2356fa84-efc8-41e7-804c-0f69dadd2530","system_id":"levelo_inurba_marseille","lat":43.31256,"lon":5.38505,"is_reserved":false,"is_disabled":false,"rental_uris":{"android":"levelo://app?vid=2356fa84-efc8-41e7-804c-0f69dadd2530","ios":"levelo://app?vid=2356fa84-efc8-41e7-804c-0f69dadd2530"},"vehicle_type_id":"4","last_reported":1720343328,"current_range_meters":15600,"station_id":"","pricing_plan_id":"cebpf4jnsgd1na2vs0mg"},{"bike_id":"87879b14-a494-41b4-a402-a1207faa5e3e","system_id":"levelo_inurba_marseille","lat":43.29944,"lon":5.36567,"is_reserved":false,"is_disabled":false,"rental_uris":{"android":"levelo://app?vid=87879b14-a494-41b4-a402-a1207faa5e3e","ios":"levelo://app?vid=87879b14-a494-41b4-a402-a1207faa5e3e"},"vehicle_type_id":"4","last_reported":1720343328,"current_range_meters":28400,"station_id":"","pricing_plan_id":"cebpf4jnsgd1na2vs0mg"},{"bike_id":"54b304fe-37cd-4228-8975-3b2b1a2dfbd8","system_id":"levelo_inurba_marseille","lat":43.299222,"lon":5.365554,"is_reserved":false,"is_disabled":false,"rental_uris":{"android":"levelo://app?vid=54b304fe-37cd-4228-8975-3b2b1a2dfbd8","ios":"levelo://app?vid=54b304fe-37cd-4228-8975-3b2b1a2dfbd8"},"vehicle_type_id":"4","last_reported":1720343328,"current_range_meters":31200,"station_id":"ce4bgm92rcd13ifvqbr0","pricing_plan_id":"cebpf4jnsgd1na2vs0mg"},{"bike_id":"f26713b1-ec73-437e-9e0a-4b31cee4c3c8","system_id":"levelo_inurba_marseille","lat":43.299222,"lon":5.365554,"is_reserved":false,"is_disabled":false,"rental_uris":{"android":"levelo://app?vid=f26713b1-ec73-437e-9e0a-4b31cee4c3c8","ios":"levelo://app?vid=f26713b1-ec73-437e-9e0a-4b31cee4c3c8"},"vehicle_type_id":"4","last_reported":1720343328,"current_range_meters":31200,"station_id":"ce4bgm92rcd13ifvqbr0","pricing_plan_id":"cebpf4jnsgd1na2vs0mg"},{"bike_id":"05a99b4f-e1fc-4503-b690-616c805c2a0d","system_id":"levelo_inurba_marseille","lat":43.299222,"lon":5.365554,"is_reserved":false,"is_disabled":false,"rental_uris":{"android":"levelo://app?vid=05a99b4f-e1fc-4503-b690-616c805c2a0d","ios":"levelo://app?vid=05a99b4f-e1fc-4503-b690-616c805c2a0d"},"vehicle_type_id":"4","last_reported":1720343328,"current_range_meters":19600,"station_id":"ce4bgm92rcd13ifvqbr0","pricing_plan_id":"cebpf4jnsgd1na2vs0mg"},{"bike_id":"e3fe7126-7d16-4aea-ae91-c45fd84c4bc2","system_id":"levelo_inurba_marseille","lat":43.299222,"lon":5.365554,"is_reserved":false,"is_disabled":false,"rental_uris":{"android":"levelo://app?vid=e3fe7126-7d16-4aea-ae91-c45fd84c4bc2","ios":"levelo://app?vid=e3fe7126-7d16-4aea-ae91-c45fd84c4bc2"},"vehicle_type_id":"4","last_reported":1720343328,"current_range_meters":14400,"station_id":"ce4bgm92rcd13ifvqbr0","pricing_plan_id":"cebpf4jnsgd1na2vs0mg"},{"bike_id":"cd2560d9-56e5-42dc-95c0-815619c4d76d","system_id":"levelo_inurba_marseille","lat":43.299222,"lon":5.365554,"is_reserved":false,"is_disabled":false,"rental_uris":{"android":"levelo://app?vid=cd2560d9-56e5-42dc-95c0-815619c4d76d","ios":"levelo://app?vid=cd2560d9-56e5-42dc-95c0-815619c4d76d"},"vehicle_type_id":"4","last_reported":1720343328,"current_range_meters":31200,"station_id":"ce4bgm92rcd13ifvqbr0","pricing_plan_id":"cebpf4jnsgd1na2vs0mg"},{"bike_id":"982feaac-d1e5-4e76-900b-37ff383aa805","system_id":"levelo_inurba_marseille","lat":43.299222,"lon":5.365554,"is_reserved":false,"is_disabled":false,"rental_uris":{"android":"levelo://app?vid=982feaac-d1e5-4e76-900b-37ff383aa805","ios":"levelo://app?vid=982feaac-d1e5-4e76-900b-37ff383aa805"},"vehicle_type_id":"4","last_reported":1720343328,"current_range_meters":16000,"station_id":"ce4bgm92rcd13ifvqbr0","pricing_plan_id":"cebpf4jnsgd1na2vs0mg"},{"bike_id":"f5a9ced9-3e14-46c3-8e8a-975898d3300b","system_id":"levelo_inurba_marseille","lat":43.299222,"lon":5.365554,"is_reserved":false,"is_disabled":false,"rental_uris":{"android":"levelo://app?vid=f5a9ced9-3e14-46c3-8e8a-975898d3300b","ios":"levelo://app?vid=f5a9ced9-3e14-46c3-8e8a-975898d3300b"},"vehicle_type_id":"4","last_reported":1720343328,"current_range_meters":30000,"station_id":"ce4bgm92rcd13ifvqbr0","pricing_plan_id":"cebpf4jnsgd1na2vs0mg"},{"bike_id":"7c76a1e6-9953-4938-a87b-2479377b47da","system_id":"levelo_inurba_marseille","lat":43.299724,"lon":5.371829,"is_reserved":false,"is_disabled":false,"rental_uris":{"android":"levelo://app?vid=7c76a1e6-9953-4938-a87b-2479377b47da","ios":"levelo://app?vid=7c76a1e6-9953-4938-a87b-2479377b47da"},"vehicle_type_id":"4","last_reported":1720343328,"current_range_meters":19200,"station_id":"ce4bgr92rcd13ifvqc7g","pricing_plan_id":"cebpf4jnsgd1na2vs0mg"},{"bike_id":"8370c68f-c108-4d68-a2ed-e6538140c2e3","system_id":"levelo_inurba_marseille","lat":43.30192,"lon":5.378724,"is_reserved":false,"is_disabled":false,"rental_uris":{"android":"levelo://app?vid=8370c68f-c108-4d68-a2ed-e6538140c2e3","ios":"levelo://app?vid=8370c68f-c108-4d68-a2ed-e6538140c2e3"},"vehicle_type_id":"4","last_reported":1720343328,"current_range_meters":12800,"station_id":"","pricing_plan_id":"cebpf4jnsgd1na2vs0mg"},{"bike_id":"ae9394d5-bef2-4bb2-90b1-4cb641405fa3","system_id":"levelo_inurba_marseille","lat":43.312861,"lon":5.386615,"is_reserved":false,"is_disabled":false,"rental_uris":{"android":"levelo://app?vid=ae9394d5-bef2-4bb2-90b1-4cb641405fa3","ios":"levelo://app?vid=ae9394d5-bef2-4bb2-90b1-4cb641405fa3"},"vehicle_type_id":"4","last_reported":1720343328,"current_range_meters":5200,"station_id":"","pricing_plan_id":"cebpf4jnsgd1na2vs0mg"},{"bike_id":"95f080ff-5bcf-4330-8a18-874ba183d57f","system_id":"levelo_inurba_marseille","lat":43.298433,"lon":5.362774,"is_reserved":false,"is_disabled":false,"rental_uris":{"android":"levelo://app?vid=95f080ff-5bcf-4330-8a18-874ba183d57f","ios":"levelo://app?vid=95f080ff-5bcf-4330-8a18-874ba183d57f"},"vehicle_type_id":"4","last_reported":1720343328,"current_range_meters":8800,"station_id":"ce4bgpp2rcd13ifvqc3g","pricing_plan_id":"cebpf4jnsgd1na2vs0mg"},{"bike_id":"9700a450-ad3d-44da-8378-9b566879049e","system_id":"levelo_inurba_marseille","lat":43.298433,"lon":5.362774,"is_reserved":false,"is_disabled":false,"rental_uris":{"android":"levelo://app?vid=9700a450-ad3d-44da-8378-9b566879049e","ios":"levelo://app?vid=9700a450-ad3d-44da-8378-9b566879049e"},"vehicle_type_id":"4","last_reported":1720343328,"current_range_meters":31600,"station_id":"ce4bgpp2rcd13ifvqc3g","pricing_plan_id":"cebpf4jnsgd1na2vs0mg"},{"bike_id":"5ae677a4-454f-4cf4-b20c-dc61defcde23","system_id":"levelo_inurba_marseille","lat":43.298433,"lon":5.362774,"is_reserved":false,"is_disabled":false,"rental_uris":{"android":"levelo://app?vid=5ae677a4-454f-4cf4-b20c-dc61defcde23","ios":"levelo://app?vid=5ae677a4-454f-4cf4-b20c-dc61defcde23"},"vehicle_type_id":"4","last_reported":1720343328,"current_range_meters":9200,"station_id":"ce4bgpp2rcd13ifvqc3g","pricing_plan_id":"cebpf4jnsgd1na2vs0mg"},{"bike_id":"56a4e4be-698d-4794-9452-3274ebee32b2","system_id":"levelo_inurba_marseille","lat":43.299297,"lon":5.375983,"is_reserved":false,"is_disabled":false,"rental_uris":{"android":"levelo://app?vid=56a4e4be-698d-4794-9452-3274ebee32b2","ios":"levelo://app?vid=56a4e4be-698d-4794-9452-3274ebee32b2"},"vehicle_type_id":"4","last_reported":1720343328,"current_range_meters":27200,"station_id":"","pricing_plan_id":"cebpf4jnsgd1na2vs0mg"},{"bike_id":"7aadaf41-771a-4bd1-85b7-93e4586eac46","system_id":"levelo_inurba_marseille","lat":43.298433,"lon":5.362774,"is_reserved":false,"is_disabled":false,"rental_uris":{"android":"levelo://app?vid=7aadaf41-771a-4bd1-85b7-93e4586eac46","ios":"levelo://app?vid=7aadaf41-771a-4bd1-85b7-93e4586eac46"},"vehicle_type_id":"4","last_reported":1720343328,"current_range_meters":28400,"station_id":"ce4bgpp2rcd13ifvqc3g","pricing_plan_id":"cebpf4jnsgd1na2vs0mg"},{"bike_id":"bd22cd85-a252-4226-b1ab-c9f8f7cd94d5","system_id":"levelo_inurba_marseille","lat":43.297817,"lon":5.371114,"is_reserved":false,"is_disabled":false,"rental_uris":{"android":"levelo://app?vid=bd22cd85-a252-4226-b1ab-c9f8f7cd94d5","ios":"levelo://app?vid=bd22cd85-a252-4226-b1ab-c9f8f7cd94d5"},"vehicle_type_id":"4","last_reported":1720343328,"current_range_meters":10800,"station_id":"ce4bgop2rcd13ifvqc1g","pricing_plan_id":"cebpf4jnsgd1na2vs0mg"},{"bike_id":"5d1aba9c-ba51-4455-9048-3dfaf580a469","system_id":"levelo_inurba_marseille","lat":43.322873,"lon":5.382653,"is_reserved":false,"is_disabled":false,"rental_uris":{"android":"levelo://app?vid=5d1aba9c-ba51-4455-9048-3dfaf580a469","ios":"levelo://app?vid=5d1aba9c-ba51-4455-9048-3dfaf580a469"},"vehicle_type_id":"4","last_reported":1720343328,"current_range_meters":14400,"station_id":"ce4bhr12rcd13ifvqhqg","pricing_plan_id":"cebpf4jnsgd1na2vs0mg"},{"bike_id":"37e845b4-8b70-473e-a47c-2cacfc93d2a9","system_id":"levelo_inurba_marseille","lat":43.29756,"lon":5.36273,"is_reserved":false,"is_disabled":false,"rental_uris":{"android":"levelo://app?vid=37e845b4-8b70-473e-a47c-2cacfc93d2a9","ios":"levelo://app?vid=37e845b4-8b70-473e-a47c-2cacfc93d2a9"},"vehicle_type_id":"4","last_reported":1720343328,"current_range_meters":23200,"station_id":"","pricing_plan_id":"cebpf4jnsgd1na2vs0mg"},{"bike_id":"b4e374e6-3773-44fe-a71c-d34712a63243","system_id":"levelo_inurba_marseille","lat":43.297163,"lon":5.365866,"is_reserved":false,"is_disabled":false,"rental_uris":{"android":"levelo://app?vid=b4e374e6-3773-44fe-a71c-d34712a63243","ios":"levelo://app?vid=b4e374e6-3773-44fe-a71c-d34712a63243"},"vehicle_type_id":"4","last_reported":1720343328,"current_range_meters":22000,"station_id":"ce4bgn12rcd13ifvqbt0","pricing_plan_id":"cebpf4jnsgd1na2vs0mg"},{"bike_id":"894ece8b-795e-420d-9c71-e8ac630fb1b0","system_id":"levelo_inurba_marseille","lat":43.297163,"lon":5.365866,"is_reserved":false,"is_disabled":false,"rental_uris":{"android":"levelo://app?vid=894ece8b-795e-420d-9c71-e8ac630fb1b0","ios":"levelo://app?vid=894ece8b-795e-420d-9c71-e8ac630fb1b0"},"vehicle_type_id":"4","last_reported":1720343328,"current_range_meters":11600,"station_id":"ce4bgn12rcd13ifvqbt0","pricing_plan_id":"cebpf4jnsgd1na2vs0mg"},{"bike_id":"1cb35472-4f74-4f7f-8a03-11d3b8e011ef","system_id":"levelo_inurba_marseille","lat":43.297163,"lon":5.365866,"is_reserved":false,"is_disabled":false,"rental_uris":{"android":"levelo://app?vid=1cb35472-4f74-4f7f-8a03-11d3b8e011ef","ios":"levelo://app?vid=1cb35472-4f74-4f7f-8a03-11d3b8e011ef"},"vehicle_type_id":"4","last_reported":1720343328,"current_range_meters":4800,"station_id":"ce4bgn12rcd13ifvqbt0","pricing_plan_id":"cebpf4jnsgd1na2vs0mg"},{"bike_id":"4ddb0dc2-0226-46a6-80b7-71a3d145ef53","system_id":"levelo_inurba_marseille","lat":43.297163,"lon":5.365866,"is_reserved":false,"is_disabled":false,"rental_uris":{"android":"levelo://app?vid=4ddb0dc2-0226-46a6-80b7-71a3d145ef53","ios":"levelo://app?vid=4ddb0dc2-0226-46a6-80b7-71a3d145ef53"},"vehicle_type_id":"4","last_reported":1720343328,"current_range_meters":6000,"station_id":"ce4bgn12rcd13ifvqbt0","pricing_plan_id":"cebpf4jnsgd1na2vs0mg"},{"bike_id":"217411fb-d20c-443e-a96b-f8f9958e1058","system_id":"levelo_inurba_marseille","lat":43.2968,"lon":5.37291,"is_reserved":false,"is_disabled":false,"rental_uris":{"android":"levelo://app?vid=217411fb-d20c-443e-a96b-f8f9958e1058","ios":"levelo://app?vid=217411fb-d20c-443e-a96b-f8f9958e1058"},"vehicle_type_id":"4","last_reported":1720343328,"current_range_meters":30400,"station_id":"ce4bgk12rcd13ifvqbj0","pricing_plan_id":"cebpf4jnsgd1na2vs0mg"},{"bike_id":"280525b4-850d-4349-9c72-4f70d3424eeb","system_id":"levelo_inurba_marseille","lat":43.327209,"lon":5.378516,"is_reserved":false,"is_disabled":false,"rental_uris":{"android":"levelo://app?vid=280525b4-850d-4349-9c72-4f70d3424eeb","ios":"levelo://app?vid=280525b4-850d-4349-9c72-4f70d3424eeb"},"vehicle_type_id":"4","last_reported":1720343328,"current_range_meters":8000,"station_id":"","pricing_plan_id":"cebpf4jnsgd1na2vs0mg"},{"bike_id":"b42ba4ea-1156-4d33-b885-d4b2c585400a","system_id":"levelo_inurba_marseille","lat":43.31128,"lon":5.3899,"is_reserved":false,"is_disabled":false,"rental_uris":{"android":"levelo://app?vid=b42ba4ea-1156-4d33-b885-d4b2c585400a","ios":"levelo://app?vid=b42ba4ea-1156-4d33-b885-d4b2c585400a"},"vehicle_type_id":"4","last_reported":1720343328,"current_range_meters":1600,"station_id":"","pricing_plan_id":"cebpf4jnsgd1na2vs0mg"},{"bike_id":"dffb1fc1-0d81-4d4b-b130-19265688b2bf","system_id":"levelo_inurba_marseille","lat":43.2901,"lon":5.381269,"is_reserved":false,"is_disabled":false,"rental_uris":{"android":"levelo://app?vid=dffb1fc1-0d81-4d4b-b130-19265688b2bf","ios":"levelo://app?vid=dffb1fc1-0d81-4d4b-b130-19265688b2bf"},"vehicle_type_id":"4","last_reported":1720343328,"current_range_meters":14400,"station_id":"ce4bh4p2rcd13ifvqe1g","pricing_plan_id":"cebpf4jnsgd1na2vs0mg"},{"bike_id":"1f73b20c-7077-43a4-82e8-6f49ee2551df","system_id":"levelo_inurba_marseille","lat":43.296131,"lon":5.370791,"is_reserved":false,"is_disabled":false,"rental_uris":{"android":"levelo://app?vid=1f73b20c-7077-43a4-82e8-6f49ee2551df","ios":"levelo://app?vid=1f73b20c-7077-43a4-82e8-6f49ee2551df"},"vehicle_type_id":"4","last_reported":1720343328,"current_range_meters":22800,"station_id":"ce4bgnh2rcd13ifvqc0g","pricing_plan_id":"cebpf4jnsgd1na2vs0mg"},{"bike_id":"2ead058a-9913-41f3-a93e-2a6c05f1512e","system_id":"levelo_inurba_marseille","lat":43.296129,"lon":5.370777,"is_reserved":false,"is_disabled":false,"rental_uris":{"android":"levelo://app?vid=2ead058a-9913-41f3-a93e-2a6c05f1512e","ios":"levelo://app?vid=2ead058a-9913-41f3-a93e-2a6c05f1512e"},"vehicle_type_id":"4","last_reported":1720343328,"current_range_meters":22400,"station_id":"ce4bgnh2rcd13ifvqc0g","pricing_plan_id":"cebpf4jnsgd1na2vs0mg"},{"bike_id":"58ed8ad9-d8f0-44dd-a285-3cbb277fe0d8","system_id":"levelo_inurba_marseille","lat":43.29573,"lon":5.367355,"is_reserved":false,"is_disabled":false,"rental_uris":{"android":"levelo://app?vid=58ed8ad9-d8f0-44dd-a285-3cbb277fe0d8","ios":"levelo://app?vid=58ed8ad9-d8f0-44dd-a285-3cbb277fe0d8"},"vehicle_type_id":"4","last_reported":1720343328,"current_range_meters":17600,"station_id":"ce4bgph2rcd13ifvqc2g","pricing_plan_id":"cebpf4jnsgd1na2vs0mg"},{"bike_id":"e6357ff1-e178-4431-9c31-bd4e82626911","system_id":"levelo_inurba_marseille","lat":43.29573,"lon":5.367355,"is_reserved":false,"is_disabled":false,"rental_uris":{"android":"levelo://app?vid=e6357ff1-e178-4431-9c31-bd4e82626911","ios":"levelo://app?vid=e6357ff1-e178-4431-9c31-bd4e82626911"},"vehicle_type_id":"4","last_reported":1720343328,"current_range_meters":30000,"station_id":"ce4bgph2rcd13ifvqc2g","pricing_plan_id":"cebpf4jnsgd1na2vs0mg"},{"bike_id":"4ddd52b0-9e35-4d16-9076-2bddf7338188","system_id":"levelo_inurba_marseille","lat":43.29573,"lon":5.367355,"is_reserved":false,"is_disabled":false,"rental_uris":{"android":"levelo://app?vid=4ddd52b0-9e35-4d16-9076-2bddf7338188","ios":"levelo://app?vid=4ddd52b0-9e35-4d16-9076-2bddf7338188"},"vehicle_type_id":"4","last_reported":1720343328,"current_range_meters":18000,"station_id":"ce4bgph2rcd13ifvqc2g","pricing_plan_id":"cebpf4jnsgd1na2vs0mg"},{"bike_id":"2511af3d-39f1-46ab-b042-547e8ca75815","system_id":"levelo_inurba_marseille","lat":43.29573,"lon":5.367355,"is_reserved":false,"is_disabled":false,"rental_uris":{"android":"levelo://app?vid=2511af3d-39f1-46ab-b042-547e8ca75815","ios":"levelo://app?vid=2511af3d-39f1-46ab-b042-547e8ca75815"},"vehicle_type_id":"4","last_reported":1720343328,"current_range_meters":21200,"station_id":"ce4bgph2rcd13ifvqc2g","pricing_plan_id":"cebpf4jnsgd1na2vs0mg"},{"bike_id":"957b910a-83d9-4e1d-b651-d76c65de7d8d","system_id":"levelo_inurba_marseille","lat":43.299028,"lon":5.381509,"is_reserved":false,"is_disabled":false,"rental_uris":{"android":"levelo://app?vid=957b910a-83d9-4e1d-b651-d76c65de7d8d","ios":"levelo://app?vid=957b910a-83d9-4e1d-b651-d76c65de7d8d"},"vehicle_type_id":"4","last_reported":1720343328,"current_range_meters":26000,"station_id":"ce4bgj12rcd13ifvqbc0","pricing_plan_id":"cebpf4jnsgd1na2vs0mg"},{"bike_id":"69df0115-1b64-4808-82de-929a19c4c145","system_id":"levelo_inurba_marseille","lat":43.299028,"lon":5.381509,"is_reserved":false,"is_disabled":false,"rental_uris":{"android":"levelo://app?vid=69df0115-1b64-4808-82de-929a19c4c145","ios":"levelo://app?vid=69df0115-1b64-4808-82de-929a19c4c145"},"vehicle_type_id":"4","last_reported":1720343328,"current_range_meters":14000,"station_id":"ce4bgj12rcd13ifvqbc0","pricing_plan_id":"cebpf4jnsgd1na2vs0mg"},{"bike_id":"bfddf6c1-9789-409c-bc24-131885d11ef0","system_id":"levelo_inurba_marseille","lat":43.309589,"lon":5.390258,"is_reserved":false,"is_disabled":false,"rental_uris":{"android":"levelo://app?vid=bfddf6c1-9789-409c-bc24-131885d11ef0","ios":"levelo://app?vid=bfddf6c1-9789-409c-bc24-131885d11ef0"},"vehicle_type_id":"4","last_reported":1720343328,"current_range_meters":400,"station_id":"ce4bgup2rcd13ifvqco0","pricing_plan_id":"cebpf4jnsgd1na2vs0mg"},{"bike_id":"a33e2127-1ab0-4833-bc46-cacee27557ef","system_id":"levelo_inurba_marseille","lat":43.29899,"lon":5.38137,"is_reserved":false,"is_disabled":false,"rental_uris":{"android":"levelo://app?vid=a33e2127-1ab0-4833-bc46-cacee27557ef","ios":"levelo://app?vid=a33e2127-1ab0-4833-bc46-cacee27557ef"},"vehicle_type_id":"4","last_reported":1720343328,"current_range_meters":17600,"station_id":"ce4bgj12rcd13ifvqbc0","pricing_plan_id":"cebpf4jnsgd1na2vs0mg"},{"bike_id":"ad0e3455-6af5-4427-ac9c-cade1743f6f4","system_id":"levelo_inurba_marseille","lat":43.299028,"lon":5.381509,"is_reserved":false,"is_disabled":false,"rental_uris":{"android":"levelo://app?vid=ad0e3455-6af5-4427-ac9c-cade1743f6f4","ios":"levelo://app?vid=ad0e3455-6af5-4427-ac9c-cade1743f6f4"},"vehicle_type_id":"4","last_reported":1720343328,"current_range_meters":23600,"station_id":"ce4bgj12rcd13ifvqbc0","pricing_plan_id":"cebpf4jnsgd1na2vs0mg"},{"bike_id":"60e8250f-cfea-417d-bd5a-700e14fb3e2a","system_id":"levelo_inurba_marseille","lat":43.317557,"lon":5.390173,"is_reserved":false,"is_disabled":false,"rental_uris":{"android":"levelo://app?vid=60e8250f-cfea-417d-bd5a-700e14fb3e2a","ios":"levelo://app?vid=60e8250f-cfea-417d-bd5a-700e14fb3e2a"},"vehicle_type_id":"4","last_reported":1720343328,"current_range_meters":0,"station_id":"ce4bhqp2rcd13ifvqhng","pricing_plan_id":"cebpf4jnsgd1na2vs0mg"},{"bike_id":"390d6721-26e1-4aee-860a-294fa13a0288","system_id":"levelo_inurba_marseille","lat":43.31756,"lon":5.3902,"is_reserved":false,"is_disabled":false,"rental_uris":{"android":"levelo://app?vid=390d6721-26e1-4aee-860a-294fa13a0288","ios":"levelo://app?vid=390d6721-26e1-4aee-860a-294fa13a0288"},"vehicle_type_id":"4","last_reported":1720343328,"current_range_meters":0,"station_id":"ce4bhqp2rcd13ifvqhng","pricing_plan_id":"cebpf4jnsgd1na2vs0mg"},{"bike_id":"bf407070-c420-4daf-a9e7-b03829acc12c","system_id":"levelo_inurba_marseille","lat":43.29636,"lon":5.37627,"is_reserved":false,"is_disabled":false,"rental_uris":{"android":"levelo://app?vid=bf407070-c420-4daf-a9e7-b03829acc12c","ios":"levelo://app?vid=bf407070-c420-4daf-a9e7-b03829acc12c"},"vehicle_type_id":"4","last_reported":1720343328,"current_range_meters":20800,"station_id":"","pricing_plan_id":"cebpf4jnsgd1na2vs0mg"},{"bike_id":"1a9a75a3-77c5-4568-b464-898dac782d98","system_id":"levelo_inurba_marseille","lat":43.304278,"lon":5.388868,"is_reserved":false,"is_disabled":false,"rental_uris":{"android":"levelo://app?vid=1a9a75a3-77c5-4568-b464-898dac782d98","ios":"levelo://app?vid=1a9a75a3-77c5-4568-b464-898dac782d98"},"vehicle_type_id":"4","last_reported":1720343328,"current_range_meters":30800,"station_id":"ce4bgk12rcd13ifvqbi0","pricing_plan_id":"cebpf4jnsgd1na2vs0mg"},{"bike_id":"f471e8ab-e9ce-4f2a-86b3-c76d8a236f75","system_id":"levelo_inurba_marseille","lat":43.295748,"lon":5.37522,"is_reserved":false,"is_disabled":false,"rental_uris":{"android":"levelo://app?vid=f471e8ab-e9ce-4f2a-86b3-c76d8a236f75","ios":"levelo://app?vid=f471e8ab-e9ce-4f2a-86b3-c76d8a236f75"},"vehicle_type_id":"4","last_reported":1720343328,"current_range_meters":3600,"station_id":"ce4bgh92rcd13ifvqb50","pricing_plan_id":"cebpf4jnsgd1na2vs0mg"},{"bike_id":"76755790-d589-4555-af67-6b04616e174e","system_id":"levelo_inurba_marseille","lat":43.295748,"lon":5.37522,"is_reserved":false,"is_disabled":false,"rental_uris":{"android":"levelo://app?vid=76755790-d589-4555-af67-6b04616e174e","ios":"levelo://app?vid=76755790-d589-4555-af67-6b04616e174e"},"vehicle_type_id":"4","last_reported":1720343328,"current_range_meters":24000,"station_id":"ce4bgh92rcd13ifvqb50","pricing_plan_id":"cebpf4jnsgd1na2vs0mg"},{"bike_id":"14504210-f72b-4a1a-86d9-5d6e9a52e889","system_id":"levelo_inurba_marseille","lat":43.298037,"lon":5.381066,"is_reserved":false,"is_disabled":false,"rental_uris":{"android":"levelo://app?vid=14504210-f72b-4a1a-86d9-5d6e9a52e889","ios":"levelo://app?vid=14504210-f72b-4a1a-86d9-5d6e9a52e889"},"vehicle_type_id":"4","last_reported":1720343328,"current_range_meters":0,"station_id":"ce4bgip2rcd13ifvqbb0","pricing_plan_id":"cebpf4jnsgd1na2vs0mg"},{"bike_id":"000a198a-4fbb-4ea4-a8b1-d3c99b5699ce","system_id":"levelo_inurba_marseille","lat":43.295279,"lon":5.375048,"is_reserved":false,"is_disabled":false,"rental_uris":{"android":"levelo://app?vid=000a198a-4fbb-4ea4-a8b1-d3c99b5699ce","ios":"levelo://app?vid=000a198a-4fbb-4ea4-a8b1-d3c99b5699ce"},"vehicle_type_id":"4","last_reported":1720343328,"current_range_meters":26400,"station_id":"ce4bgkp2rcd13ifvqbmg","pricing_plan_id":"cebpf4jnsgd1na2vs0mg"},{"bike_id":"54555179-b702-439d-9568-75f4e60c5764","system_id":"levelo_inurba_marseille","lat":43.295279,"lon":5.375048,"is_reserved":false,"is_disabled":false,"rental_uris":{"android":"levelo://app?vid=54555179-b702-439d-9568-75f4e60c5764","ios":"levelo://app?vid=54555179-b702-439d-9568-75f4e60c5764"},"vehicle_type_id":"4","last_reported":1720343328,"current_range_meters":12400,"station_id":"ce4bgkp2rcd13ifvqbmg","pricing_plan_id":"cebpf4jnsgd1na2vs0mg"},{"bike_id":"238a7d0c-d680-4ba3-825c-3a6cb3ec2c9d","system_id":"levelo_inurba_marseille","lat":43.32363,"lon":5.38873,"is_reserved":false,"is_disabled":false,"rental_uris":{"android":"levelo://app?vid=238a7d0c-d680-4ba3-825c-3a6cb3ec2c9d","ios":"levelo://app?vid=238a7d0c-d680-4ba3-825c-3a6cb3ec2c9d"},"vehicle_type_id":"4","last_reported":1720343328,"current_range_meters":0,"station_id":"ce4bhqp2rcd13ifvqhog","pricing_plan_id":"cebpf4jnsgd1na2vs0mg"},{"bike_id":"f1fa9382-d9c1-4509-96a5-84d5856d12be","system_id":"levelo_inurba_marseille","lat":43.32367,"lon":5.388836,"is_reserved":false,"is_disabled":false,"rental_uris":{"android":"levelo://app?vid=f1fa9382-d9c1-4509-96a5-84d5856d12be","ios":"levelo://app?vid=f1fa9382-d9c1-4509-96a5-84d5856d12be"},"vehicle_type_id":"4","last_reported":1720343328,"current_range_meters":4400,"station_id":"ce4bhqp2rcd13ifvqhog","pricing_plan_id":"cebpf4jnsgd1na2vs0mg"},{"bike_id":"0d73c02a-74b1-49b2-9fe3-77778dac4548","system_id":"levelo_inurba_marseille","lat":43.32367,"lon":5.388836,"is_reserved":false,"is_disabled":false,"rental_uris":{"android":"levelo://app?vid=0d73c02a-74b1-49b2-9fe3-77778dac4548","ios":"levelo://app?vid=0d73c02a-74b1-49b2-9fe3-77778dac4548"},"vehicle_type_id":"4","last_reported":1720343328,"current_range_meters":27600,"station_id":"ce4bhqp2rcd13ifvqhog","pricing_plan_id":"cebpf4jnsgd1na2vs0mg"},{"bike_id":"b1de79f0-3809-4ce6-88f8-1da27a0864ff","system_id":"levelo_inurba_marseille","lat":43.293259,"lon":5.371586,"is_reserved":false,"is_disabled":false,"rental_uris":{"android":"levelo://app?vid=b1de79f0-3809-4ce6-88f8-1da27a0864ff","ios":"levelo://app?vid=b1de79f0-3809-4ce6-88f8-1da27a0864ff"},"vehicle_type_id":"4","last_reported":1720343328,"current_range_meters":17200,"station_id":"ce4bgh92rcd13ifvqb40","pricing_plan_id":"cebpf4jnsgd1na2vs0mg"},{"bike_id":"1d387db0-9887-43c1-bc8c-3ef335a4dd09","system_id":"levelo_inurba_marseille","lat":43.292749,"lon":5.368398,"is_reserved":false,"is_disabled":false,"rental_uris":{"android":"levelo://app?vid=1d387db0-9887-43c1-bc8c-3ef335a4dd09","ios":"levelo://app?vid=1d387db0-9887-43c1-bc8c-3ef335a4dd09"},"vehicle_type_id":"4","last_reported":1720343328,"current_range_meters":18400,"station_id":"ce4bhbp2rcd13ifvqesg","pricing_plan_id":"cebpf4jnsgd1na2vs0mg"},{"bike_id":"20fcbfd2-338a-4e0d-bd81-fa434e661dd4","system_id":"levelo_inurba_marseille","lat":43.293009,"lon":5.374584,"is_reserved":false,"is_disabled":false,"rental_uris":{"android":"levelo://app?vid=20fcbfd2-338a-4e0d-bd81-fa434e661dd4","ios":"levelo://app?vid=20fcbfd2-338a-4e0d-bd81-fa434e661dd4"},"vehicle_type_id":"4","last_reported":1720343328,"current_range_meters":14000,"station_id":"ce4bgi12rcd13ifvqb70","pricing_plan_id":"cebpf4jnsgd1na2vs0mg"},{"bike_id":"1dbdbdc7-2ffe-4519-9d9d-45695236075b","system_id":"levelo_inurba_marseille","lat":43.30299,"lon":5.39209,"is_reserved":false,"is_disabled":false,"rental_uris":{"android":"levelo://app?vid=1dbdbdc7-2ffe-4519-9d9d-45695236075b","ios":"levelo://app?vid=1dbdbdc7-2ffe-4519-9d9d-45695236075b"},"vehicle_type_id":"4","last_reported":1720343328,"current_range_meters":0,"station_id":"ce4bgkh2rcd13ifvqbk0","pricing_plan_id":"cebpf4jnsgd1na2vs0mg"},{"bike_id":"97bf7ccb-31a3-4bf5-b40b-d86e6604e21b","system_id":"levelo_inurba_marseille","lat":43.2936,"lon":5.37835,"is_reserved":false,"is_disabled":false,"rental_uris":{"android":"levelo://app?vid=97bf7ccb-31a3-4bf5-b40b-d86e6604e21b","ios":"levelo://app?vid=97bf7ccb-31a3-4bf5-b40b-d86e6604e21b"},"vehicle_type_id":"4","last_reported":1720343328,"current_range_meters":18400,"station_id":"ce4bgjh2rcd13ifvqbf0","pricing_plan_id":"cebpf4jnsgd1na2vs0mg"},{"bike_id":"48d9c230-2cec-4559-8dcb-eb8b6b1e720d","system_id":"levelo_inurba_marseille","lat":43.29223,"lon":5.36062,"is_reserved":false,"is_disabled":false,"rental_uris":{"android":"levelo://app?vid=48d9c230-2cec-4559-8dcb-eb8b6b1e720d","ios":"levelo://app?vid=48d9c230-2cec-4559-8dcb-eb8b6b1e720d"},"vehicle_type_id":"4","last_reported":1720343328,"current_range_meters":28800,"station_id":"ce4bhbh2rcd13ifvqeqg","pricing_plan_id":"cebpf4jnsgd1na2vs0mg"},{"bike_id":"5f436f4e-454d-47eb-94f7-216b710d602a","system_id":"levelo_inurba_marseille","lat":43.292311,"lon":5.360731,"is_reserved":false,"is_disabled":false,"rental_uris":{"android":"levelo://app?vid=5f436f4e-454d-47eb-94f7-216b710d602a","ios":"levelo://app?vid=5f436f4e-454d-47eb-94f7-216b710d602a"},"vehicle_type_id":"4","last_reported":1720343328,"current_range_meters":29600,"station_id":"ce4bhbh2rcd13ifvqeqg","pricing_plan_id":"cebpf4jnsgd1na2vs0mg"},{"bike_id":"c2155a62-a3cc-4f08-b04b-2426e6e94bb5","system_id":"levelo_inurba_marseille","lat":43.29224,"lon":5.36054,"is_reserved":false,"is_disabled":false,"rental_uris":{"android":"levelo://app?vid=c2155a62-a3cc-4f08-b04b-2426e6e94bb5","ios":"levelo://app?vid=c2155a62-a3cc-4f08-b04b-2426e6e94bb5"},"vehicle_type_id":"4","last_reported":1720343328,"current_range_meters":26800,"station_id":"ce4bhbh2rcd13ifvqeqg","pricing_plan_id":"cebpf4jnsgd1na2vs0mg"},{"bike_id":"d738b081-175e-4b51-b601-24eae271178a","system_id":"levelo_inurba_marseille","lat":43.300852,"lon":5.390859,"is_reserved":false,"is_disabled":false,"rental_uris":{"android":"levelo://app?vid=d738b081-175e-4b51-b601-24eae271178a","ios":"levelo://app?vid=d738b081-175e-4b51-b601-24eae271178a"},"vehicle_type_id":"4","last_reported":1720343328,"current_range_meters":31200,"station_id":"ce4bh192rcd13ifvqdb0","pricing_plan_id":"cebpf4jnsgd1na2vs0mg"},{"bike_id":"6266cb7e-9d75-41e7-b552-78b1a7d83696","system_id":"levelo_inurba_marseille","lat":43.29222,"lon":5.36054,"is_reserved":false,"is_disabled":false,"rental_uris":{"android":"levelo://app?vid=6266cb7e-9d75-41e7-b552-78b1a7d83696","ios":"levelo://app?vid=6266cb7e-9d75-41e7-b552-78b1a7d83696"},"vehicle_type_id":"4","last_reported":1720343328,"current_range_meters":0,"station_id":"ce4bhbh2rcd13ifvqeqg","pricing_plan_id":"cebpf4jnsgd1na2vs0mg"},{"bike_id":"49b45f96-7187-4565-94dd-aff5ee960a19","system_id":"levelo_inurba_marseille","lat":43.29222,"lon":5.36053,"is_reserved":false,"is_disabled":false,"rental_uris":{"android":"levelo://app?vid=49b45f96-7187-4565-94dd-aff5ee960a19","ios":"levelo://app?vid=49b45f96-7187-4565-94dd-aff5ee960a19"},"vehicle_type_id":"4","last_reported":1720343328,"current_range_meters":15600,"station_id":"","pricing_plan_id":"cebpf4jnsgd1na2vs0mg"},{"bike_id":"48ff4315-6880-4176-bbf5-9d8b2bbf1b2a","system_id":"levelo_inurba_marseille","lat":43.295578,"lon":5.384811,"is_reserved":false,"is_disabled":false,"rental_uris":{"android":"levelo://app?vid=48ff4315-6880-4176-bbf5-9d8b2bbf1b2a","ios":"levelo://app?vid=48ff4315-6880-4176-bbf5-9d8b2bbf1b2a"},"vehicle_type_id":"4","last_reported":1720343328,"current_range_meters":26400,"station_id":"","pricing_plan_id":"cebpf4jnsgd1na2vs0mg"},{"bike_id":"190f8051-8e45-4f2b-8d08-72af442b1a84","system_id":"levelo_inurba_marseille","lat":43.309038,"lon":5.396546,"is_reserved":false,"is_disabled":false,"rental_uris":{"android":"levelo://app?vid=190f8051-8e45-4f2b-8d08-72af442b1a84","ios":"levelo://app?vid=190f8051-8e45-4f2b-8d08-72af442b1a84"},"vehicle_type_id":"4","last_reported":1720343328,"current_range_meters":14800,"station_id":"ce4bh012rcd13ifvqcv0","pricing_plan_id":"cebpf4jnsgd1na2vs0mg"},{"bike_id":"91fa436f-8788-4653-989a-103cda39217d","system_id":"levelo_inurba_marseille","lat":43.291994,"lon":5.357886,"is_reserved":false,"is_disabled":false,"rental_uris":{"android":"levelo://app?vid=91fa436f-8788-4653-989a-103cda39217d","ios":"levelo://app?vid=91fa436f-8788-4653-989a-103cda39217d"},"vehicle_type_id":"4","last_reported":1720343328,"current_range_meters":17600,"station_id":"ce4bhb12rcd13ifvqel0","pricing_plan_id":"cebpf4jnsgd1na2vs0mg"},{"bike_id":"26cfd77d-bc3d-430b-85f4-87932469b220","system_id":"levelo_inurba_marseille","lat":43.291994,"lon":5.357886,"is_reserved":false,"is_disabled":false,"rental_uris":{"android":"levelo://app?vid=26cfd77d-bc3d-430b-85f4-87932469b220","ios":"levelo://app?vid=26cfd77d-bc3d-430b-85f4-87932469b220"},"vehicle_type_id":"4","last_reported":1720343328,"current_range_meters":4000,"station_id":"ce4bhb12rcd13ifvqel0","pricing_plan_id":"cebpf4jnsgd1na2vs0mg"},{"bike_id":"631322d8-d08f-40ef-ac13-2e62abf3edd9","system_id":"levelo_inurba_marseille","lat":43.313291,"lon":5.396838,"is_reserved":false,"is_disabled":false,"rental_uris":{"android":"levelo://app?vid=631322d8-d08f-40ef-ac13-2e62abf3edd9","ios":"levelo://app?vid=631322d8-d08f-40ef-ac13-2e62abf3edd9"},"vehicle_type_id":"4","last_reported":1720343328,"current_range_meters":27600,"station_id":"ce4bgvp2rcd13ifvqcu0","pricing_plan_id":"cebpf4jnsgd1na2vs0mg"},{"bike_id":"c50bfa34-0e34-40b0-89f3-cf61ce5f9ee8","system_id":"levelo_inurba_marseille","lat":43.309047,"lon":5.396551,"is_reserved":false,"is_disabled":false,"rental_uris":{"android":"levelo://app?vid=c50bfa34-0e34-40b0-89f3-cf61ce5f9ee8","ios":"levelo://app?vid=c50bfa34-0e34-40b0-89f3-cf61ce5f9ee8"},"vehicle_type_id":"4","last_reported":1720343328,"current_range_meters":1200,"station_id":"ce4bh012rcd13ifvqcv0","pricing_plan_id":"cebpf4jnsgd1na2vs0mg"},{"bike_id":"ecb97777-03d8-4c8f-8aef-63c5fe36f576","system_id":"levelo_inurba_marseille","lat":43.290624,"lon":5.359245,"is_reserved":false,"is_disabled":false,"rental_uris":{"android":"levelo://app?vid=ecb97777-03d8-4c8f-8aef-63c5fe36f576","ios":"levelo://app?vid=ecb97777-03d8-4c8f-8aef-63c5fe36f576"},"vehicle_type_id":"4","last_reported":1720343328,"current_range_meters":22000,"station_id":"ce4bha92rcd13ifvqeg0","pricing_plan_id":"cebpf4jnsgd1na2vs0mg"},{"bike_id":"297fd59d-10b6-4c1b-b4b9-d74a483f673c","system_id":"levelo_inurba_marseille","lat":43.290327,"lon":5.375711,"is_reserved":false,"is_disabled":false,"rental_uris":{"android":"levelo://app?vid=297fd59d-10b6-4c1b-b4b9-d74a483f673c","ios":"levelo://app?vid=297fd59d-10b6-4c1b-b4b9-d74a483f673c"},"vehicle_type_id":"4","last_reported":1720343328,"current_range_meters":10000,"station_id":"ce4bh692rcd13ifvqe90","pricing_plan_id":"cebpf4jnsgd1na2vs0mg"},{"bike_id":"edb401d6-e1ff-489d-b95d-fb110d0c1ff9","system_id":"levelo_inurba_marseille","lat":43.304274,"lon":5.397513,"is_reserved":false,"is_disabled":false,"rental_uris":{"android":"levelo://app?vid=edb401d6-e1ff-489d-b95d-fb110d0c1ff9","ios":"levelo://app?vid=edb401d6-e1ff-489d-b95d-fb110d0c1ff9"},"vehicle_type_id":"4","last_reported":1720343328,"current_range_meters":400,"station_id":"ce4bh092rcd13ifvqd20","pricing_plan_id":"cebpf4jnsgd1na2vs0mg"},{"bike_id":"08268a4c-9d43-4a10-a2cd-1f99e0a72330","system_id":"levelo_inurba_marseille","lat":43.290104,"lon":5.356111,"is_reserved":false,"is_disabled":false,"rental_uris":{"android":"levelo://app?vid=08268a4c-9d43-4a10-a2cd-1f99e0a72330","ios":"levelo://app?vid=08268a4c-9d43-4a10-a2cd-1f99e0a72330"},"vehicle_type_id":"4","last_reported":1720343328,"current_range_meters":0,"station_id":"ce4bhb92rcd13ifvqen0","pricing_plan_id":"cebpf4jnsgd1na2vs0mg"},{"bike_id":"bbd7a7ea-2180-4810-b564-e40c8e65d72c","system_id":"levelo_inurba_marseille","lat":43.29786,"lon":5.39339,"is_reserved":false,"is_disabled":false,"rental_uris":{"android":"levelo://app?vid=bbd7a7ea-2180-4810-b564-e40c8e65d72c","ios":"levelo://app?vid=bbd7a7ea-2180-4810-b564-e40c8e65d72c"},"vehicle_type_id":"4","last_reported":1720343328,"current_range_meters":0,"station_id":"chh1huq6cuj3fo74tm60","pricing_plan_id":"cebpf4jnsgd1na2vs0mg"},{"bike_id":"0103e28f-ffac-49d8-ab0a-d4223f18fc72","system_id":"levelo_inurba_marseille","lat":43.33023,"lon":5.39035,"is_reserved":false,"is_disabled":false,"rental_uris":{"android":"levelo://app?vid=0103e28f-ffac-49d8-ab0a-d4223f18fc72","ios":"levelo://app?vid=0103e28f-ffac-49d8-ab0a-d4223f18fc72"},"vehicle_type_id":"4","last_reported":1720343328,"current_range_meters":5600,"station_id":"ce4bhr92rcd13ifvqhrg","pricing_plan_id":"cebpf4jnsgd1na2vs0mg"},{"bike_id":"2cea51e4-6da5-40c3-b8ee-9e5014d720e9","system_id":"levelo_inurba_marseille","lat":43.330442,"lon":5.389148,"is_reserved":false,"is_disabled":false,"rental_uris":{"android":"levelo://app?vid=2cea51e4-6da5-40c3-b8ee-9e5014d720e9","ios":"levelo://app?vid=2cea51e4-6da5-40c3-b8ee-9e5014d720e9"},"vehicle_type_id":"4","last_reported":1720343328,"current_range_meters":16400,"station_id":"ce4bhr92rcd13ifvqhrg","pricing_plan_id":"cebpf4jnsgd1na2vs0mg"},{"bike_id":"aa5cc960-6cdf-412b-b318-7326b8c4a12a","system_id":"levelo_inurba_marseille","lat":43.330442,"lon":5.389148,"is_reserved":false,"is_disabled":false,"rental_uris":{"android":"levelo://app?vid=aa5cc960-6cdf-412b-b318-7326b8c4a12a","ios":"levelo://app?vid=aa5cc960-6cdf-412b-b318-7326b8c4a12a"},"vehicle_type_id":"4","last_reported":1720343328,"current_range_meters":9600,"station_id":"ce4bhr92rcd13ifvqhrg","pricing_plan_id":"cebpf4jnsgd1na2vs0mg"},{"bike_id":"9849827f-512d-4aff-8f5b-5925afcac52c","system_id":"levelo_inurba_marseille","lat":43.330442,"lon":5.389148,"is_reserved":false,"is_disabled":false,"rental_uris":{"android":"levelo://app?vid=9849827f-512d-4aff-8f5b-5925afcac52c","ios":"levelo://app?vid=9849827f-512d-4aff-8f5b-5925afcac52c"},"vehicle_type_id":"4","last_reported":1720343328,"current_range_meters":11200,"station_id":"ce4bhr92rcd13ifvqhrg","pricing_plan_id":"cebpf4jnsgd1na2vs0mg"},{"bike_id":"5197adb7-49fc-45e3-8043-45f084031ba9","system_id":"levelo_inurba_marseille","lat":43.330442,"lon":5.389148,"is_reserved":false,"is_disabled":false,"rental_uris":{"android":"levelo://app?vid=5197adb7-49fc-45e3-8043-45f084031ba9","ios":"levelo://app?vid=5197adb7-49fc-45e3-8043-45f084031ba9"},"vehicle_type_id":"4","last_reported":1720343328,"current_range_meters":11600,"station_id":"ce4bhr92rcd13ifvqhrg","pricing_plan_id":"cebpf4jnsgd1na2vs0mg"},{"bike_id":"0a729942-7d96-400b-8e4b-e57f71b44cff","system_id":"levelo_inurba_marseille","lat":43.330442,"lon":5.389148,"is_reserved":false,"is_disabled":false,"rental_uris":{"android":"levelo://app?vid=0a729942-7d96-400b-8e4b-e57f71b44cff","ios":"levelo://app?vid=0a729942-7d96-400b-8e4b-e57f71b44cff"},"vehicle_type_id":"4","last_reported":1720343328,"current_range_meters":8400,"station_id":"ce4bhr92rcd13ifvqhrg","pricing_plan_id":"cebpf4jnsgd1na2vs0mg"},{"bike_id":"20cfa943-a4c6-4382-89e1-1241a3e57685","system_id":"levelo_inurba_marseille","lat":43.330442,"lon":5.389148,"is_reserved":false,"is_disabled":false,"rental_uris":{"android":"levelo://app?vid=20cfa943-a4c6-4382-89e1-1241a3e57685","ios":"levelo://app?vid=20cfa943-a4c6-4382-89e1-1241a3e57685"},"vehicle_type_id":"4","last_reported":1720343328,"current_range_meters":30800,"station_id":"ce4bhr92rcd13ifvqhrg","pricing_plan_id":"cebpf4jnsgd1na2vs0mg"},{"bike_id":"ea7a97dc-6a21-4d3d-a2ae-d649dc6238dc","system_id":"levelo_inurba_marseille","lat":43.28856,"lon":5.358371,"is_reserved":false,"is_disabled":false,"rental_uris":{"android":"levelo://app?vid=ea7a97dc-6a21-4d3d-a2ae-d649dc6238dc","ios":"levelo://app?vid=ea7a97dc-6a21-4d3d-a2ae-d649dc6238dc"},"vehicle_type_id":"4","last_reported":1720343328,"current_range_meters":18000,"station_id":"ce4bhb12rcd13ifvqem0","pricing_plan_id":"cebpf4jnsgd1na2vs0mg"},{"bike_id":"0605d7c2-1fe3-4178-a5af-1a72291b2120","system_id":"levelo_inurba_marseille","lat":43.294162,"lon":5.386292,"is_reserved":false,"is_disabled":false,"rental_uris":{"android":"levelo://app?vid=0605d7c2-1fe3-4178-a5af-1a72291b2120","ios":"levelo://app?vid=0605d7c2-1fe3-4178-a5af-1a72291b2120"},"vehicle_type_id":"4","last_reported":1720343328,"current_range_meters":14400,"station_id":"ce4bh2h2rcd13ifvqdh0","pricing_plan_id":"cebpf4jnsgd1na2vs0mg"},{"bike_id":"fdbfcc29-04c6-4739-ba7e-441fb2e2593e","system_id":"levelo_inurba_marseille","lat":43.33735,"lon":5.37457,"is_reserved":false,"is_disabled":false,"rental_uris":{"android":"levelo://app?vid=fdbfcc29-04c6-4739-ba7e-441fb2e2593e","ios":"levelo://app?vid=fdbfcc29-04c6-4739-ba7e-441fb2e2593e"},"vehicle_type_id":"4","last_reported":1720343328,"current_range_meters":30400,"station_id":"","pricing_plan_id":"cebpf4jnsgd1na2vs0mg"},{"bike_id":"b906b75f-c697-4c22-aa0f-3f4c64871797","system_id":"levelo_inurba_marseille","lat":43.312609,"lon":5.401662,"is_reserved":false,"is_disabled":false,"rental_uris":{"android":"levelo://app?vid=b906b75f-c697-4c22-aa0f-3f4c64871797","ios":"levelo://app?vid=b906b75f-c697-4c22-aa0f-3f4c64871797"},"vehicle_type_id":"4","last_reported":1720343328,"current_range_meters":6400,"station_id":"ce4bh092rcd13ifvqd30","pricing_plan_id":"cebpf4jnsgd1na2vs0mg"},{"bike_id":"88f27a2f-daa4-4dfc-b23a-0cfd244fc967","system_id":"levelo_inurba_marseille","lat":43.337447,"lon":5.374523,"is_reserved":false,"is_disabled":false,"rental_uris":{"android":"levelo://app?vid=88f27a2f-daa4-4dfc-b23a-0cfd244fc967","ios":"levelo://app?vid=88f27a2f-daa4-4dfc-b23a-0cfd244fc967"},"vehicle_type_id":"4","last_reported":1720343328,"current_range_meters":8000,"station_id":"","pricing_plan_id":"cebpf4jnsgd1na2vs0mg"},{"bike_id":"90234e8b-3644-4bfd-a96b-60aa6ca3fc23","system_id":"levelo_inurba_marseille","lat":43.30932,"lon":5.40148,"is_reserved":false,"is_disabled":false,"rental_uris":{"android":"levelo://app?vid=90234e8b-3644-4bfd-a96b-60aa6ca3fc23","ios":"levelo://app?vid=90234e8b-3644-4bfd-a96b-60aa6ca3fc23"},"vehicle_type_id":"4","last_reported":1720343328,"current_range_meters":0,"station_id":"ce4bgvp2rcd13ifvqct0","pricing_plan_id":"cebpf4jnsgd1na2vs0mg"},{"bike_id":"d18fc15d-e9a7-4dbb-9aed-fc17bcc86552","system_id":"levelo_inurba_marseille","lat":43.33758,"lon":5.374276,"is_reserved":false,"is_disabled":false,"rental_uris":{"android":"levelo://app?vid=d18fc15d-e9a7-4dbb-9aed-fc17bcc86552","ios":"levelo://app?vid=d18fc15d-e9a7-4dbb-9aed-fc17bcc86552"},"vehicle_type_id":"4","last_reported":1720343328,"current_range_meters":14000,"station_id":"","pricing_plan_id":"cebpf4jnsgd1na2vs0mg"},{"bike_id":"41fcb31e-469f-4a07-8a88-fbe57c2d85f5","system_id":"levelo_inurba_marseille","lat":43.33755,"lon":5.37455,"is_reserved":false,"is_disabled":false,"rental_uris":{"android":"levelo://app?vid=41fcb31e-469f-4a07-8a88-fbe57c2d85f5","ios":"levelo://app?vid=41fcb31e-469f-4a07-8a88-fbe57c2d85f5"},"vehicle_type_id":"4","last_reported":1720343328,"current_range_meters":24400,"station_id":"","pricing_plan_id":"cebpf4jnsgd1na2vs0mg"},{"bike_id":"e8043679-5e2d-45ca-af32-4c2eeb2d3b4d","system_id":"levelo_inurba_marseille","lat":43.337606,"lon":5.374293,"is_reserved":false,"is_disabled":false,"rental_uris":{"android":"levelo://app?vid=e8043679-5e2d-45ca-af32-4c2eeb2d3b4d","ios":"levelo://app?vid=e8043679-5e2d-45ca-af32-4c2eeb2d3b4d"},"vehicle_type_id":"4","last_reported":1720343328,"current_range_meters":16000,"station_id":"","pricing_plan_id":"cebpf4jnsgd1na2vs0mg"},{"bike_id":"22664dbb-05c6-44b7-ac76-723d395f476e","system_id":"levelo_inurba_marseille","lat":43.337612,"lon":5.374356,"is_reserved":false,"is_disabled":false,"rental_uris":{"android":"levelo://app?vid=22664dbb-05c6-44b7-ac76-723d395f476e","ios":"levelo://app?vid=22664dbb-05c6-44b7-ac76-723d395f476e"},"vehicle_type_id":"4","last_reported":1720343328,"current_range_meters":26400,"station_id":"","pricing_plan_id":"cebpf4jnsgd1na2vs0mg"},{"bike_id":"0d7d01b8-efcf-4031-a084-ab297185d8f3","system_id":"levelo_inurba_marseille","lat":43.336776,"lon":5.355316,"is_reserved":false,"is_disabled":false,"rental_uris":{"android":"levelo://app?vid=0d7d01b8-efcf-4031-a084-ab297185d8f3","ios":"levelo://app?vid=0d7d01b8-efcf-4031-a084-ab297185d8f3"},"vehicle_type_id":"4","last_reported":1720343328,"current_range_meters":800,"station_id":"","pricing_plan_id":"cebpf4jnsgd1na2vs0mg"},{"bike_id":"ca28a750-034c-4926-945c-7b5f8a0741a9","system_id":"levelo_inurba_marseille","lat":43.337663,"lon":5.374389,"is_reserved":false,"is_disabled":false,"rental_uris":{"android":"levelo://app?vid=ca28a750-034c-4926-945c-7b5f8a0741a9","ios":"levelo://app?vid=ca28a750-034c-4926-945c-7b5f8a0741a9"},"vehicle_type_id":"4","last_reported":1720343328,"current_range_meters":28000,"station_id":"","pricing_plan_id":"cebpf4jnsgd1na2vs0mg"},{"bike_id":"ba77c056-6fe7-4228-884f-a9f07e3f5ccc","system_id":"levelo_inurba_marseille","lat":43.337653,"lon":5.374465,"is_reserved":false,"is_disabled":false,"rental_uris":{"android":"levelo://app?vid=ba77c056-6fe7-4228-884f-a9f07e3f5ccc","ios":"levelo://app?vid=ba77c056-6fe7-4228-884f-a9f07e3f5ccc"},"vehicle_type_id":"4","last_reported":1720343328,"current_range_meters":29600,"station_id":"ce4rr2p2rcd13i802rgg","pricing_plan_id":"cebpf4jnsgd1na2vs0mg"},{"bike_id":"568e51fe-3317-4e32-82a4-2bd4944c6912","system_id":"levelo_inurba_marseille","lat":43.337683,"lon":5.374325,"is_reserved":false,"is_disabled":false,"rental_uris":{"android":"levelo://app?vid=568e51fe-3317-4e32-82a4-2bd4944c6912","ios":"levelo://app?vid=568e51fe-3317-4e32-82a4-2bd4944c6912"},"vehicle_type_id":"4","last_reported":1720343328,"current_range_meters":3600,"station_id":"","pricing_plan_id":"cebpf4jnsgd1na2vs0mg"},{"bike_id":"3eba0a3e-7fd9-4038-bede-1101705bd725","system_id":"levelo_inurba_marseille","lat":43.302992,"lon":5.392136,"is_reserved":false,"is_disabled":false,"rental_uris":{"android":"levelo://app?vid=3eba0a3e-7fd9-4038-bede-1101705bd725","ios":"levelo://app?vid=3eba0a3e-7fd9-4038-bede-1101705bd725"},"vehicle_type_id":"4","last_reported":1720343328,"current_range_meters":28800,"station_id":"ce4bgkh2rcd13ifvqbk0","pricing_plan_id":"cebpf4jnsgd1na2vs0mg"},{"bike_id":"5017d29d-ebc2-40b8-8182-aa007c728d45","system_id":"levelo_inurba_marseille","lat":43.298681,"lon":5.397225,"is_reserved":false,"is_disabled":false,"rental_uris":{"android":"levelo://app?vid=5017d29d-ebc2-40b8-8182-aa007c728d45","ios":"levelo://app?vid=5017d29d-ebc2-40b8-8182-aa007c728d45"},"vehicle_type_id":"4","last_reported":1720343328,"current_range_meters":27200,"station_id":"ce4bh0h2rcd13ifvqd50","pricing_plan_id":"cebpf4jnsgd1na2vs0mg"},{"bike_id":"301f5f13-2da8-4cee-b6f7-9f4912d4abc0","system_id":"levelo_inurba_marseille","lat":43.298681,"lon":5.397225,"is_reserved":false,"is_disabled":false,"rental_uris":{"android":"levelo://app?vid=301f5f13-2da8-4cee-b6f7-9f4912d4abc0","ios":"levelo://app?vid=301f5f13-2da8-4cee-b6f7-9f4912d4abc0"},"vehicle_type_id":"4","last_reported":1720343328,"current_range_meters":13600,"station_id":"ce4bh0h2rcd13ifvqd50","pricing_plan_id":"cebpf4jnsgd1na2vs0mg"},{"bike_id":"7e993101-9606-4736-afb2-32f9cafba033","system_id":"levelo_inurba_marseille","lat":43.30157,"lon":5.39959,"is_reserved":false,"is_disabled":false,"rental_uris":{"android":"levelo://app?vid=7e993101-9606-4736-afb2-32f9cafba033","ios":"levelo://app?vid=7e993101-9606-4736-afb2-32f9cafba033"},"vehicle_type_id":"4","last_reported":1720343328,"current_range_meters":17200,"station_id":"","pricing_plan_id":"cebpf4jnsgd1na2vs0mg"},{"bike_id":"8921d598-07ad-4893-a088-c3683154f3dd","system_id":"levelo_inurba_marseille","lat":43.286961,"lon":5.373785,"is_reserved":false,"is_disabled":false,"rental_uris":{"android":"levelo://app?vid=8921d598-07ad-4893-a088-c3683154f3dd","ios":"levelo://app?vid=8921d598-07ad-4893-a088-c3683154f3dd"},"vehicle_type_id":"4","last_reported":1720343328,"current_range_meters":8000,"station_id":"ce4bh3p2rcd13ifvqdq0","pricing_plan_id":"cebpf4jnsgd1na2vs0mg"},{"bike_id":"90d44ab7-a1d0-4ff1-80ee-fb844ff5fdf9","system_id":"levelo_inurba_marseille","lat":43.286039,"lon":5.370679,"is_reserved":false,"is_disabled":false,"rental_uris":{"android":"levelo://app?vid=90d44ab7-a1d0-4ff1-80ee-fb844ff5fdf9","ios":"levelo://app?vid=90d44ab7-a1d0-4ff1-80ee-fb844ff5fdf9"},"vehicle_type_id":"4","last_reported":1720343328,"current_range_meters":22000,"station_id":"ce4bht12rcd13ifvqi60","pricing_plan_id":"cebpf4jnsgd1na2vs0mg"},{"bike_id":"f6c35b6a-67ef-4466-a7ba-124dcc295b41","system_id":"levelo_inurba_marseille","lat":43.28803,"lon":5.35234,"is_reserved":false,"is_disabled":false,"rental_uris":{"android":"levelo://app?vid=f6c35b6a-67ef-4466-a7ba-124dcc295b41","ios":"levelo://app?vid=f6c35b6a-67ef-4466-a7ba-124dcc295b41"},"vehicle_type_id":"4","last_reported":1720343328,"current_range_meters":31200,"station_id":"","pricing_plan_id":"cebpf4jnsgd1na2vs0mg"},{"bike_id":"7bc54362-cae3-478b-a52b-5db0961e8f25","system_id":"levelo_inurba_marseille","lat":43.287184,"lon":5.37937,"is_reserved":false,"is_disabled":false,"rental_uris":{"android":"levelo://app?vid=7bc54362-cae3-478b-a52b-5db0961e8f25","ios":"levelo://app?vid=7bc54362-cae3-478b-a52b-5db0961e8f25"},"vehicle_type_id":"4","last_reported":1720343328,"current_range_meters":24000,"station_id":"ce4bh9p2rcd13ifvqec0","pricing_plan_id":"cebpf4jnsgd1na2vs0mg"},{"bike_id":"9234bcae-ecd3-4c8a-8e57-f7121d3c1517","system_id":"levelo_inurba_marseille","lat":43.285848,"lon":5.350787,"is_reserved":false,"is_disabled":false,"rental_uris":{"android":"levelo://app?vid=9234bcae-ecd3-4c8a-8e57-f7121d3c1517","ios":"levelo://app?vid=9234bcae-ecd3-4c8a-8e57-f7121d3c1517"},"vehicle_type_id":"4","last_reported":1720343328,"current_range_meters":21200,"station_id":"ce4bhch2rcd13ifvqeug","pricing_plan_id":"cebpf4jnsgd1na2vs0mg"},{"bike_id":"450cca50-1ea5-485d-a65c-227c98371742","system_id":"levelo_inurba_marseille","lat":43.285856,"lon":5.350771,"is_reserved":false,"is_disabled":false,"rental_uris":{"android":"levelo://app?vid=450cca50-1ea5-485d-a65c-227c98371742","ios":"levelo://app?vid=450cca50-1ea5-485d-a65c-227c98371742"},"vehicle_type_id":"4","last_reported":1720343328,"current_range_meters":26400,"station_id":"ce4bhch2rcd13ifvqeug","pricing_plan_id":"cebpf4jnsgd1na2vs0mg"},{"bike_id":"624ff769-f621-4fc8-94e2-5d4605adc381","system_id":"levelo_inurba_marseille","lat":43.285848,"lon":5.350787,"is_reserved":false,"is_disabled":false,"rental_uris":{"android":"levelo://app?vid=624ff769-f621-4fc8-94e2-5d4605adc381","ios":"levelo://app?vid=624ff769-f621-4fc8-94e2-5d4605adc381"},"vehicle_type_id":"4","last_reported":1720343328,"current_range_meters":6800,"station_id":"ce4bhch2rcd13ifvqeug","pricing_plan_id":"cebpf4jnsgd1na2vs0mg"},{"bike_id":"fd186149-04c7-4133-9170-52f26eb22b80","system_id":"levelo_inurba_marseille","lat":43.285856,"lon":5.350771,"is_reserved":false,"is_disabled":false,"rental_uris":{"android":"levelo://app?vid=fd186149-04c7-4133-9170-52f26eb22b80","ios":"levelo://app?vid=fd186149-04c7-4133-9170-52f26eb22b80"},"vehicle_type_id":"4","last_reported":1720343328,"current_range_meters":9200,"station_id":"ce4bhch2rcd13ifvqeug","pricing_plan_id":"cebpf4jnsgd1na2vs0mg"},{"bike_id":"665fa297-dbfa-4b03-8ebe-4694d12d8462","system_id":"levelo_inurba_marseille","lat":43.286176,"lon":5.351006,"is_reserved":false,"is_disabled":false,"rental_uris":{"android":"levelo://app?vid=665fa297-dbfa-4b03-8ebe-4694d12d8462","ios":"levelo://app?vid=665fa297-dbfa-4b03-8ebe-4694d12d8462"},"vehicle_type_id":"4","last_reported":1720343328,"current_range_meters":27200,"station_id":"ce4bhch2rcd13ifvqeug","pricing_plan_id":"cebpf4jnsgd1na2vs0mg"},{"bike_id":"b60fd7a0-21be-454d-8b46-c5f499433008","system_id":"levelo_inurba_marseille","lat":43.285856,"lon":5.350771,"is_reserved":false,"is_disabled":false,"rental_uris":{"android":"levelo://app?vid=b60fd7a0-21be-454d-8b46-c5f499433008","ios":"levelo://app?vid=b60fd7a0-21be-454d-8b46-c5f499433008"},"vehicle_type_id":"4","last_reported":1720343328,"current_range_meters":23200,"station_id":"ce4bhch2rcd13ifvqeug","pricing_plan_id":"cebpf4jnsgd1na2vs0mg"},{"bike_id":"2b9390dd-2f8b-48d4-8faf-8bd2d936cc9d","system_id":"levelo_inurba_marseille","lat":43.285856,"lon":5.350771,"is_reserved":false,"is_disabled":false,"rental_uris":{"android":"levelo://app?vid=2b9390dd-2f8b-48d4-8faf-8bd2d936cc9d","ios":"levelo://app?vid=2b9390dd-2f8b-48d4-8faf-8bd2d936cc9d"},"vehicle_type_id":"4","last_reported":1720343328,"current_range_meters":25200,"station_id":"ce4bhch2rcd13ifvqeug","pricing_plan_id":"cebpf4jnsgd1na2vs0mg"},{"bike_id":"bf57b336-7cc2-488f-9633-1d72aab84c79","system_id":"levelo_inurba_marseille","lat":43.28615,"lon":5.35102,"is_reserved":false,"is_disabled":false,"rental_uris":{"android":"levelo://app?vid=bf57b336-7cc2-488f-9633-1d72aab84c79","ios":"levelo://app?vid=bf57b336-7cc2-488f-9633-1d72aab84c79"},"vehicle_type_id":"4","last_reported":1720343328,"current_range_meters":28800,"station_id":"ce4bhch2rcd13ifvqeug","pricing_plan_id":"cebpf4jnsgd1na2vs0mg"},{"bike_id":"65ac99e9-8663-4f6e-8e11-315394f8c24c","system_id":"levelo_inurba_marseille","lat":43.285848,"lon":5.350787,"is_reserved":false,"is_disabled":false,"rental_uris":{"android":"levelo://app?vid=65ac99e9-8663-4f6e-8e11-315394f8c24c","ios":"levelo://app?vid=65ac99e9-8663-4f6e-8e11-315394f8c24c"},"vehicle_type_id":"4","last_reported":1720343328,"current_range_meters":30000,"station_id":"ce4bhch2rcd13ifvqeug","pricing_plan_id":"cebpf4jnsgd1na2vs0mg"},{"bike_id":"be0b2d2f-cc67-4691-8725-460f1aea74ac","system_id":"levelo_inurba_marseille","lat":43.285848,"lon":5.350787,"is_reserved":false,"is_disabled":false,"rental_uris":{"android":"levelo://app?vid=be0b2d2f-cc67-4691-8725-460f1aea74ac","ios":"levelo://app?vid=be0b2d2f-cc67-4691-8725-460f1aea74ac"},"vehicle_type_id":"4","last_reported":1720343328,"current_range_meters":22000,"station_id":"ce4bhch2rcd13ifvqeug","pricing_plan_id":"cebpf4jnsgd1na2vs0mg"},{"bike_id":"0af19e0a-801d-4d02-b7a8-2105ad62daae","system_id":"levelo_inurba_marseille","lat":43.286595,"lon":5.386795,"is_reserved":false,"is_disabled":false,"rental_uris":{"android":"levelo://app?vid=0af19e0a-801d-4d02-b7a8-2105ad62daae","ios":"levelo://app?vid=0af19e0a-801d-4d02-b7a8-2105ad62daae"},"vehicle_type_id":"4","last_reported":1720343328,"current_range_meters":30000,"station_id":"ce4bh492rcd13ifvqdug","pricing_plan_id":"cebpf4jnsgd1na2vs0mg"},{"bike_id":"c9119127-2585-4b44-a568-2db7c5d8e8a3","system_id":"levelo_inurba_marseille","lat":43.286595,"lon":5.386795,"is_reserved":false,"is_disabled":false,"rental_uris":{"android":"levelo://app?vid=c9119127-2585-4b44-a568-2db7c5d8e8a3","ios":"levelo://app?vid=c9119127-2585-4b44-a568-2db7c5d8e8a3"},"vehicle_type_id":"4","last_reported":1720343328,"current_range_meters":9200,"station_id":"ce4bh492rcd13ifvqdug","pricing_plan_id":"cebpf4jnsgd1na2vs0mg"},{"bike_id":"ffd6cb46-8ea0-4260-a4eb-799e2e252fc9","system_id":"levelo_inurba_marseille","lat":43.286595,"lon":5.386795,"is_reserved":false,"is_disabled":false,"rental_uris":{"android":"levelo://app?vid=ffd6cb46-8ea0-4260-a4eb-799e2e252fc9","ios":"levelo://app?vid=ffd6cb46-8ea0-4260-a4eb-799e2e252fc9"},"vehicle_type_id":"4","last_reported":1720343328,"current_range_meters":15600,"station_id":"ce4bh492rcd13ifvqdug","pricing_plan_id":"cebpf4jnsgd1na2vs0mg"},{"bike_id":"1a4d6fa2-7c9b-4cda-97ef-a2c016320993","system_id":"levelo_inurba_marseille","lat":43.31876,"lon":5.40758,"is_reserved":false,"is_disabled":false,"rental_uris":{"android":"levelo://app?vid=1a4d6fa2-7c9b-4cda-97ef-a2c016320993","ios":"levelo://app?vid=1a4d6fa2-7c9b-4cda-97ef-a2c016320993"},"vehicle_type_id":"4","last_reported":1720343328,"current_range_meters":4000,"station_id":"ce4bhq12rcd13ifvqhig","pricing_plan_id":"cebpf4jnsgd1na2vs0mg"},{"bike_id":"c541b45b-cb94-411d-a4e5-2a291b5b7285","system_id":"levelo_inurba_marseille","lat":43.323464,"lon":5.406297,"is_reserved":false,"is_disabled":false,"rental_uris":{"android":"levelo://app?vid=c541b45b-cb94-411d-a4e5-2a291b5b7285","ios":"levelo://app?vid=c541b45b-cb94-411d-a4e5-2a291b5b7285"},"vehicle_type_id":"4","last_reported":1720343328,"current_range_meters":26800,"station_id":"ce4bhq92rcd13ifvqhjg","pricing_plan_id":"cebpf4jnsgd1na2vs0mg"},{"bike_id":"8aab7efa-b8d0-481c-9a0a-18a4a2a1bc72","system_id":"levelo_inurba_marseille","lat":43.32336,"lon":5.406211,"is_reserved":false,"is_disabled":false,"rental_uris":{"android":"levelo://app?vid=8aab7efa-b8d0-481c-9a0a-18a4a2a1bc72","ios":"levelo://app?vid=8aab7efa-b8d0-481c-9a0a-18a4a2a1bc72"},"vehicle_type_id":"4","last_reported":1720343328,"current_range_meters":7200,"station_id":"ce4bhq92rcd13ifvqhjg","pricing_plan_id":"cebpf4jnsgd1na2vs0mg"},{"bike_id":"fe78eac6-8034-48df-af56-0c6a711583a9","system_id":"levelo_inurba_marseille","lat":43.284787,"lon":5.384116,"is_reserved":false,"is_disabled":false,"rental_uris":{"android":"levelo://app?vid=fe78eac6-8034-48df-af56-0c6a711583a9","ios":"levelo://app?vid=fe78eac6-8034-48df-af56-0c6a711583a9"},"vehicle_type_id":"4","last_reported":1720343328,"current_range_meters":20800,"station_id":"ce4bh512rcd13ifvqe3g","pricing_plan_id":"cebpf4jnsgd1na2vs0mg"},{"bike_id":"dd71164e-7bb4-4beb-a711-c97071666c07","system_id":"levelo_inurba_marseille","lat":43.323464,"lon":5.406297,"is_reserved":false,"is_disabled":false,"rental_uris":{"android":"levelo://app?vid=dd71164e-7bb4-4beb-a711-c97071666c07","ios":"levelo://app?vid=dd71164e-7bb4-4beb-a711-c97071666c07"},"vehicle_type_id":"4","last_reported":1720343328,"current_range_meters":2800,"station_id":"ce4bhq92rcd13ifvqhjg","pricing_plan_id":"cebpf4jnsgd1na2vs0mg"},{"bike_id":"fe4da7a1-8e9d-4c19-aaee-7bef6be74c44","system_id":"levelo_inurba_marseille","lat":43.284793,"lon":5.384113,"is_reserved":false,"is_disabled":false,"rental_uris":{"android":"levelo://app?vid=fe4da7a1-8e9d-4c19-aaee-7bef6be74c44","ios":"levelo://app?vid=fe4da7a1-8e9d-4c19-aaee-7bef6be74c44"},"vehicle_type_id":"4","last_reported":1720343328,"current_range_meters":3200,"station_id":"ce4bh512rcd13ifvqe3g","pricing_plan_id":"cebpf4jnsgd1na2vs0mg"},{"bike_id":"05ab0ff0-05e3-466c-a9dc-75f9e625793b","system_id":"levelo_inurba_marseille","lat":43.28474,"lon":5.38418,"is_reserved":false,"is_disabled":false,"rental_uris":{"android":"levelo://app?vid=05ab0ff0-05e3-466c-a9dc-75f9e625793b","ios":"levelo://app?vid=05ab0ff0-05e3-466c-a9dc-75f9e625793b"},"vehicle_type_id":"4","last_reported":1720343328,"current_range_meters":23600,"station_id":"ce4bh512rcd13ifvqe3g","pricing_plan_id":"cebpf4jnsgd1na2vs0mg"},{"bike_id":"66214efa-befc-441e-810e-53480e8dd5da","system_id":"levelo_inurba_marseille","lat":43.297946,"lon":5.404063,"is_reserved":false,"is_disabled":false,"rental_uris":{"android":"levelo://app?vid=66214efa-befc-441e-810e-53480e8dd5da","ios":"levelo://app?vid=66214efa-befc-441e-810e-53480e8dd5da"},"vehicle_type_id":"4","last_reported":1720343328,"current_range_meters":15600,"station_id":"ce4bh112rcd13ifvqd90","pricing_plan_id":"cebpf4jnsgd1na2vs0mg"},{"bike_id":"a4820f35-38a0-4bbe-9f7b-00294bae0986","system_id":"levelo_inurba_marseille","lat":43.284793,"lon":5.384119,"is_reserved":false,"is_disabled":false,"rental_uris":{"android":"levelo://app?vid=a4820f35-38a0-4bbe-9f7b-00294bae0986","ios":"levelo://app?vid=a4820f35-38a0-4bbe-9f7b-00294bae0986"},"vehicle_type_id":"4","last_reported":1720343328,"current_range_meters":15200,"station_id":"ce4bh512rcd13ifvqe3g","pricing_plan_id":"cebpf4jnsgd1na2vs0mg"},{"bike_id":"859d2d6a-8006-46a2-9bd7-303fa79c7565","system_id":"levelo_inurba_marseille","lat":43.29795,"lon":5.404086,"is_reserved":false,"is_disabled":false,"rental_uris":{"android":"levelo://app?vid=859d2d6a-8006-46a2-9bd7-303fa79c7565","ios":"levelo://app?vid=859d2d6a-8006-46a2-9bd7-303fa79c7565"},"vehicle_type_id":"4","last_reported":1720343328,"current_range_meters":18400,"station_id":"ce4bh112rcd13ifvqd90","pricing_plan_id":"cebpf4jnsgd1na2vs0mg"},{"bike_id":"422ee8ad-c289-4b1d-87f4-ad924c306104","system_id":"levelo_inurba_marseille","lat":43.29795,"lon":5.404086,"is_reserved":false,"is_disabled":false,"rental_uris":{"android":"levelo://app?vid=422ee8ad-c289-4b1d-87f4-ad924c306104","ios":"levelo://app?vid=422ee8ad-c289-4b1d-87f4-ad924c306104"},"vehicle_type_id":"4","last_reported":1720343328,"current_range_meters":14400,"station_id":"ce4bh112rcd13ifvqd90","pricing_plan_id":"cebpf4jnsgd1na2vs0mg"},{"bike_id":"04a1a321-df37-473f-961d-884e9063d136","system_id":"levelo_inurba_marseille","lat":43.283494,"lon":5.380945,"is_reserved":false,"is_disabled":false,"rental_uris":{"android":"levelo://app?vid=04a1a321-df37-473f-961d-884e9063d136","ios":"levelo://app?vid=04a1a321-df37-473f-961d-884e9063d136"},"vehicle_type_id":"4","last_reported":1720343328,"current_range_meters":18000,"station_id":"ce4bh412rcd13ifvqdr0","pricing_plan_id":"cebpf4jnsgd1na2vs0mg"},{"bike_id":"310dc54e-2f6c-499c-b36f-482b02c3329d","system_id":"levelo_inurba_marseille","lat":43.284776,"lon":5.385603,"is_reserved":false,"is_disabled":false,"rental_uris":{"android":"levelo://app?vid=310dc54e-2f6c-499c-b36f-482b02c3329d","ios":"levelo://app?vid=310dc54e-2f6c-499c-b36f-482b02c3329d"},"vehicle_type_id":"4","last_reported":1720343328,"current_range_meters":10400,"station_id":"ce4bh8p2rcd13ifvqeb0","pricing_plan_id":"cebpf4jnsgd1na2vs0mg"},{"bike_id":"c99a287c-f469-4c43-9cf9-c37ffc5890e4","system_id":"levelo_inurba_marseille","lat":43.284776,"lon":5.385603,"is_reserved":false,"is_disabled":false,"rental_uris":{"android":"levelo://app?vid=c99a287c-f469-4c43-9cf9-c37ffc5890e4","ios":"levelo://app?vid=c99a287c-f469-4c43-9cf9-c37ffc5890e4"},"vehicle_type_id":"4","last_reported":1720343328,"current_range_meters":12800,"station_id":"ce4bh8p2rcd13ifvqeb0","pricing_plan_id":"cebpf4jnsgd1na2vs0mg"},{"bike_id":"e250dd12-58eb-4470-9ef9-a9440051e13e","system_id":"levelo_inurba_marseille","lat":43.284776,"lon":5.385603,"is_reserved":false,"is_disabled":false,"rental_uris":{"android":"levelo://app?vid=e250dd12-58eb-4470-9ef9-a9440051e13e","ios":"levelo://app?vid=e250dd12-58eb-4470-9ef9-a9440051e13e"},"vehicle_type_id":"4","last_reported":1720343328,"current_range_meters":18000,"station_id":"ce4bh8p2rcd13ifvqeb0","pricing_plan_id":"cebpf4jnsgd1na2vs0mg"},{"bike_id":"45454e5f-19ee-45ff-82c6-74b47cef9315","system_id":"levelo_inurba_marseille","lat":43.284219,"lon":5.3497,"is_reserved":false,"is_disabled":false,"rental_uris":{"android":"levelo://app?vid=45454e5f-19ee-45ff-82c6-74b47cef9315","ios":"levelo://app?vid=45454e5f-19ee-45ff-82c6-74b47cef9315"},"vehicle_type_id":"4","last_reported":1720343328,"current_range_meters":28000,"station_id":"ce4bhbh2rcd13ifvqepg","pricing_plan_id":"cebpf4jnsgd1na2vs0mg"},{"bike_id":"c410ca6b-13b5-4361-b8d9-36277bbf6690","system_id":"levelo_inurba_marseille","lat":43.284217,"lon":5.349697,"is_reserved":false,"is_disabled":false,"rental_uris":{"android":"levelo://app?vid=c410ca6b-13b5-4361-b8d9-36277bbf6690","ios":"levelo://app?vid=c410ca6b-13b5-4361-b8d9-36277bbf6690"},"vehicle_type_id":"4","last_reported":1720343328,"current_range_meters":13600,"station_id":"ce4bhbh2rcd13ifvqepg","pricing_plan_id":"cebpf4jnsgd1na2vs0mg"},{"bike_id":"e8b70681-dca8-427f-a6f7-c9b1e1638279","system_id":"levelo_inurba_marseille","lat":43.284219,"lon":5.3497,"is_reserved":false,"is_disabled":false,"rental_uris":{"android":"levelo://app?vid=e8b70681-dca8-427f-a6f7-c9b1e1638279","ios":"levelo://app?vid=e8b70681-dca8-427f-a6f7-c9b1e1638279"},"vehicle_type_id":"4","last_reported":1720343328,"current_range_meters":13200,"station_id":"ce4bhbh2rcd13ifvqepg","pricing_plan_id":"cebpf4jnsgd1na2vs0mg"},