{"last_updated":1717344525,"ttl":30,"version":"2.2","data":{"bikes":[{"bike_id":"e31253be-4209-44a8-9204-49dbd006d6be","system_id":"levelo_inurba_marseille","lat":43.312239,"lon":5.368562,"is_reserved":false,"is_disabled":false,"rental_uris":{"android":"levelo://app?vid=e31253be-4209-44a8-9204-49dbd006d6be","ios":"levelo://app?vid=e31253be-4209-44a8-9204-49dbd006d6be"},"vehicle_type_id":"4","last_reported":1717344525,"current_range_meters":4000,"station_id":"ce4bgl92rcd13ifvqbq0","pricing_plan_id":"cebpf4jnsgd1na2vs0mg"},{"bike_id":"efdda2b6-cbd4-41d0-9c05-3800951e432d","system_id":"levelo_inurba_marseille","lat":43.312239,"lon":5.368562,"is_reserved":false,"is_disabled":false,"rental_uris":{"android":"levelo://app?vid=efdda2b6-cbd4-41d0-9c05-3800951e432d","ios":"levelo://app?vid=efdda2b6-cbd4-41d0-9c05-3800951e432d"},"vehicle_type_id":"4","last_reported":1717344525,"current_range_meters":18800,"station_id":"ce4bgl92rcd13ifvqbq0","pricing_plan_id":"cebpf4jnsgd1na2vs0mg"},{"bike_id":"69803961-be4c-4ba8-8a39-e73634e957ad","system_id":"levelo_inurba_marseille","lat":43.312239,"lon":5.368562,"is_reserved":false,"is_disabled":false,"rental_uris":{"android":"levelo://app?vid=69803961-be4c-4ba8-8a39-e73634e957ad","ios":"levelo://app?vid=69803961-be4c-4ba8-8a39-e73634e957ad"},"vehicle_type_id":"4","last_reported":1717344525,"current_range_meters":18800,"station_id":"ce4bgl92rcd13ifvqbq0","pricing_plan_id":"cebpf4jnsgd1na2vs0mg"},{"bike_id":"cb71cb8a-7b5d-4a37-9323-27661d127a55","system_id":"levelo_inurba_marseille","lat":43.312239,"lon":5.368562,"is_reserved":false,"is_disabled":false,"rental_uris":{"android":"levelo://app?vid=cb71cb8a-7b5d-4a37-9323-27661d127a55","ios":"levelo://app?vid=cb71cb8a-7b5d-4a37-9323-27661d127a55"},"vehicle_type_id":"4","last_reported":1717344525,"current_range_meters":18800,"station_id":"ce4bgl92rcd13ifvqbq0","pricing_plan_id":"cebpf4jnsgd1na2vs0mg"},{"bike_id":"4cac86ec-492a-42d3-95a2-a3a44fd8a413","system_id":"levelo_inurba_marseille","lat":43.314811,"lon":5.373103,"is_reserved":false,"is_disabled":false,"rental_uris":{"android":"levelo://app?vid=4cac86ec-492a-42d3-95a2-a3a44fd8a413","ios":"levelo://app?vid=4cac86ec-492a-42d3-95a2-a3a44fd8a413"},"vehicle_type_id":"4","last_reported":1717344525,"current_range_meters":25600,"station_id":"ce4bgt12rcd13ifvqcd0","pricing_plan_id":"cebpf4jnsgd1na2vs0mg"},{"bike_id":"7871e70d-6638-4e99-9212-b03d0afc36e0","system_id":"levelo_inurba_marseille","lat":43.314811,"lon":5.373103,"is_reserved":false,"is_disabled":false,"rental_uris":{"android":"levelo://app?vid=7871e70d-6638-4e99-9212-b03d0afc36e0","ios":"levelo://app?vid=7871e70d-6638-4e99-9212-b03d0afc36e0"},"vehicle_type_id":"4","last_reported":1717344525,"current_range_meters":9200,"station_id":"ce4bgt12rcd13ifvqcd0","pricing_plan_id":"cebpf4jnsgd1na2vs0mg"},{"bike_id":"45a0d4b0-eb0a-418a-966f-ed09d1fc012e","system_id":"levelo_inurba_marseille","lat":43.31501,"lon":5.37305,"is_reserved":false,"is_disabled":false,"rental_uris":{"android":"levelo://app?vid=45a0d4b0-eb0a-418a-966f-ed09d1fc012e","ios":"levelo://app?vid=45a0d4b0-eb0a-418a-966f-ed09d1fc012e"},"vehicle_type_id":"4","last_reported":1717344525,"current_range_meters":27600,"station_id":"ce4bgt12rcd13ifvqcd0","pricing_plan_id":"cebpf4jnsgd1na2vs0mg"},{"bike_id":"f3442c31-cc6e-4fb7-b566-c26961160a29","system_id":"levelo_inurba_marseille","lat":43.315545,"lon":5.37281,"is_reserved":false,"is_disabled":false,"rental_uris":{"android":"levelo://app?vid=f3442c31-cc6e-4fb7-b566-c26961160a29","ios":"levelo://app?vid=f3442c31-cc6e-4fb7-b566-c26961160a29"},"vehicle_type_id":"4","last_reported":1717344525,"current_range_meters":11600,"station_id":"","pricing_plan_id":"cebpf4jnsgd1na2vs0mg"},{"bike_id":"c2ee6dfb-4d0c-43af-bd4b-46eebd0362dc","system_id":"levelo_inurba_marseille","lat":43.309039,"lon":5.371797,"is_reserved":false,"is_disabled":false,"rental_uris":{"android":"levelo://app?vid=c2ee6dfb-4d0c-43af-bd4b-46eebd0362dc","ios":"levelo://app?vid=c2ee6dfb-4d0c-43af-bd4b-46eebd0362dc"},"vehicle_type_id":"4","last_reported":1717344525,"current_range_meters":8400,"station_id":"ce4bguh2rcd13ifvqckg","pricing_plan_id":"cebpf4jnsgd1na2vs0mg"},{"bike_id":"702bce9a-9773-4c4e-9440-421145980051","system_id":"levelo_inurba_marseille","lat":43.309039,"lon":5.371797,"is_reserved":false,"is_disabled":false,"rental_uris":{"android":"levelo://app?vid=702bce9a-9773-4c4e-9440-421145980051","ios":"levelo://app?vid=702bce9a-9773-4c4e-9440-421145980051"},"vehicle_type_id":"4","last_reported":1717344525,"current_range_meters":30400,"station_id":"ce4bguh2rcd13ifvqckg","pricing_plan_id":"cebpf4jnsgd1na2vs0mg"},{"bike_id":"73a88872-4a7c-4946-9401-f0eb531ff579","system_id":"levelo_inurba_marseille","lat":43.305368,"lon":5.367343,"is_reserved":false,"is_disabled":false,"rental_uris":{"android":"levelo://app?vid=73a88872-4a7c-4946-9401-f0eb531ff579","ios":"levelo://app?vid=73a88872-4a7c-4946-9401-f0eb531ff579"},"vehicle_type_id":"4","last_reported":1717344525,"current_range_meters":10800,"station_id":"ce4bgrp2rcd13ifvqc9g","pricing_plan_id":"cebpf4jnsgd1na2vs0mg"},{"bike_id":"89ec606c-32c7-49b6-a8f8-e8e2ba892353","system_id":"levelo_inurba_marseille","lat":43.30539,"lon":5.36701,"is_reserved":false,"is_disabled":false,"rental_uris":{"android":"levelo://app?vid=89ec606c-32c7-49b6-a8f8-e8e2ba892353","ios":"levelo://app?vid=89ec606c-32c7-49b6-a8f8-e8e2ba892353"},"vehicle_type_id":"4","last_reported":1717344525,"current_range_meters":25200,"station_id":"ce4bgrp2rcd13ifvqc9g","pricing_plan_id":"cebpf4jnsgd1na2vs0mg"},{"bike_id":"75d2a464-afc4-427d-aa2f-184013d7714a","system_id":"levelo_inurba_marseille","lat":43.30539,"lon":5.367128,"is_reserved":false,"is_disabled":false,"rental_uris":{"android":"levelo://app?vid=75d2a464-afc4-427d-aa2f-184013d7714a","ios":"levelo://app?vid=75d2a464-afc4-427d-aa2f-184013d7714a"},"vehicle_type_id":"4","last_reported":1717344525,"current_range_meters":0,"station_id":"ce4bgrp2rcd13ifvqc9g","pricing_plan_id":"cebpf4jnsgd1na2vs0mg"},{"bike_id":"a8c24e34-ce29-49d6-8fc3-9c07a0367942","system_id":"levelo_inurba_marseille","lat":43.305368,"lon":5.367343,"is_reserved":false,"is_disabled":false,"rental_uris":{"android":"levelo://app?vid=a8c24e34-ce29-49d6-8fc3-9c07a0367942","ios":"levelo://app?vid=a8c24e34-ce29-49d6-8fc3-9c07a0367942"},"vehicle_type_id":"4","last_reported":1717344525,"current_range_meters":25600,"station_id":"ce4bgrp2rcd13ifvqc9g","pricing_plan_id":"cebpf4jnsgd1na2vs0mg"},{"bike_id":"e3d448ee-ac31-469c-8995-b308bed306f9","system_id":"levelo_inurba_marseille","lat":43.305706,"lon":5.365654,"is_reserved":false,"is_disabled":false,"rental_uris":{"android":"levelo://app?vid=e3d448ee-ac31-469c-8995-b308bed306f9","ios":"levelo://app?vid=e3d448ee-ac31-469c-8995-b308bed306f9"},"vehicle_type_id":"4","last_reported":1717344525,"current_range_meters":4400,"station_id":"ce4bgs12rcd13ifvqcag","pricing_plan_id":"cebpf4jnsgd1na2vs0mg"},{"bike_id":"2600a26d-4b58-43ae-9a59-aa2fd8f0e6da","system_id":"levelo_inurba_marseille","lat":43.305706,"lon":5.365654,"is_reserved":false,"is_disabled":false,"rental_uris":{"android":"levelo://app?vid=2600a26d-4b58-43ae-9a59-aa2fd8f0e6da","ios":"levelo://app?vid=2600a26d-4b58-43ae-9a59-aa2fd8f0e6da"},"vehicle_type_id":"4","last_reported":1717344525,"current_range_meters":3600,"station_id":"ce4bgs12rcd13ifvqcag","pricing_plan_id":"cebpf4jnsgd1na2vs0mg"},{"bike_id":"ce1a02db-510e-4dd2-8332-e5e009cc4efa","system_id":"levelo_inurba_marseille","lat":43.305368,"lon":5.367343,"is_reserved":false,"is_disabled":false,"rental_uris":{"android":"levelo://app?vid=ce1a02db-510e-4dd2-8332-e5e009cc4efa","ios":"levelo://app?vid=ce1a02db-510e-4dd2-8332-e5e009cc4efa"},"vehicle_type_id":"4","last_reported":1717344525,"current_range_meters":4400,"station_id":"ce4bgrp2rcd13ifvqc9g","pricing_plan_id":"cebpf4jnsgd1na2vs0mg"},{"bike_id":"3754ebb2-e58c-46de-81da-b9f1954b499f","system_id":"levelo_inurba_marseille","lat":43.305706,"lon":5.365654,"is_reserved":false,"is_disabled":false,"rental_uris":{"android":"levelo://app?vid=3754ebb2-e58c-46de-81da-b9f1954b499f","ios":"levelo://app?vid=3754ebb2-e58c-46de-81da-b9f1954b499f"},"vehicle_type_id":"4","last_reported":1717344525,"current_range_meters":1600,"station_id":"ce4bgs12rcd13ifvqcag","pricing_plan_id":"cebpf4jnsgd1na2vs0mg"},{"bike_id":"eebdedde-51fd-450c-b505-999c1c253bf3","system_id":"levelo_inurba_marseille","lat":43.305989,"lon":5.37225,"is_reserved":false,"is_disabled":false,"rental_uris":{"android":"levelo://app?vid=eebdedde-51fd-450c-b505-999c1c253bf3","ios":"levelo://app?vid=eebdedde-51fd-450c-b505-999c1c253bf3"},"vehicle_type_id":"4","last_reported":1717344525,"current_range_meters":14000,"station_id":"ce4bgqh2rcd13ifvqc4g","pricing_plan_id":"cebpf4jnsgd1na2vs0mg"},{"bike_id":"56bb1c21-3ae5-4341-bc5e-e2389e4042c6","system_id":"levelo_inurba_marseille","lat":43.317075,"lon":5.377367,"is_reserved":false,"is_disabled":false,"rental_uris":{"android":"levelo://app?vid=56bb1c21-3ae5-4341-bc5e-e2389e4042c6","ios":"levelo://app?vid=56bb1c21-3ae5-4341-bc5e-e2389e4042c6"},"vehicle_type_id":"4","last_reported":1717344525,"current_range_meters":6800,"station_id":"ce4bgth2rcd13ifvqch0","pricing_plan_id":"cebpf4jnsgd1na2vs0mg"},{"bike_id":"dfc7254d-324f-4e8a-a0e2-73f5b7df5343","system_id":"levelo_inurba_marseille","lat":43.305989,"lon":5.37225,"is_reserved":false,"is_disabled":false,"rental_uris":{"android":"levelo://app?vid=dfc7254d-324f-4e8a-a0e2-73f5b7df5343","ios":"levelo://app?vid=dfc7254d-324f-4e8a-a0e2-73f5b7df5343"},"vehicle_type_id":"4","last_reported":1717344525,"current_range_meters":27600,"station_id":"ce4bgqh2rcd13ifvqc4g","pricing_plan_id":"cebpf4jnsgd1na2vs0mg"},{"bike_id":"9b20c35c-10a4-47b5-a396-742667045047","system_id":"levelo_inurba_marseille","lat":43.305989,"lon":5.37225,"is_reserved":false,"is_disabled":false,"rental_uris":{"android":"levelo://app?vid=9b20c35c-10a4-47b5-a396-742667045047","ios":"levelo://app?vid=9b20c35c-10a4-47b5-a396-742667045047"},"vehicle_type_id":"4","last_reported":1717344525,"current_range_meters":8000,"station_id":"ce4bgqh2rcd13ifvqc4g","pricing_plan_id":"cebpf4jnsgd1na2vs0mg"},{"bike_id":"763a1f16-0d83-45f2-8152-8900cdd95c53","system_id":"levelo_inurba_marseille","lat":43.30597,"lon":5.37238,"is_reserved":false,"is_disabled":false,"rental_uris":{"android":"levelo://app?vid=763a1f16-0d83-45f2-8152-8900cdd95c53","ios":"levelo://app?vid=763a1f16-0d83-45f2-8152-8900cdd95c53"},"vehicle_type_id":"4","last_reported":1717344525,"current_range_meters":1200,"station_id":"ce4bgqh2rcd13ifvqc4g","pricing_plan_id":"cebpf4jnsgd1na2vs0mg"},{"bike_id":"2762157c-c30b-47aa-90ff-ddabc730d189","system_id":"levelo_inurba_marseille","lat":43.30595,"lon":5.37244,"is_reserved":false,"is_disabled":false,"rental_uris":{"android":"levelo://app?vid=2762157c-c30b-47aa-90ff-ddabc730d189","ios":"levelo://app?vid=2762157c-c30b-47aa-90ff-ddabc730d189"},"vehicle_type_id":"4","last_reported":1717344525,"current_range_meters":400,"station_id":"ce4bgqh2rcd13ifvqc4g","pricing_plan_id":"cebpf4jnsgd1na2vs0mg"},{"bike_id":"e5ee99c4-edba-46c7-8dd9-29152f41061b","system_id":"levelo_inurba_marseille","lat":43.305989,"lon":5.37225,"is_reserved":false,"is_disabled":false,"rental_uris":{"android":"levelo://app?vid=e5ee99c4-edba-46c7-8dd9-29152f41061b","ios":"levelo://app?vid=e5ee99c4-edba-46c7-8dd9-29152f41061b"},"vehicle_type_id":"4","last_reported":1717344525,"current_range_meters":8400,"station_id":"ce4bgqh2rcd13ifvqc4g","pricing_plan_id":"cebpf4jnsgd1na2vs0mg"},{"bike_id":"50d80437-177a-470d-a397-2444e0ed5214","system_id":"levelo_inurba_marseille","lat":43.311131,"lon":5.377651,"is_reserved":false,"is_disabled":false,"rental_uris":{"android":"levelo://app?vid=50d80437-177a-470d-a397-2444e0ed5214","ios":"levelo://app?vid=50d80437-177a-470d-a397-2444e0ed5214"},"vehicle_type_id":"4","last_reported":1717344525,"current_range_meters":4800,"station_id":"ce4bgt92rcd13ifvqcg0","pricing_plan_id":"cebpf4jnsgd1na2vs0mg"},{"bike_id":"9cbda0e6-029c-4f89-bdd0-d7e0028bc5a3","system_id":"levelo_inurba_marseille","lat":43.305368,"lon":5.367343,"is_reserved":false,"is_disabled":false,"rental_uris":{"android":"levelo://app?vid=9cbda0e6-029c-4f89-bdd0-d7e0028bc5a3","ios":"levelo://app?vid=9cbda0e6-029c-4f89-bdd0-d7e0028bc5a3"},"vehicle_type_id":"4","last_reported":1717344525,"current_range_meters":12400,"station_id":"ce4bgrp2rcd13ifvqc9g","pricing_plan_id":"cebpf4jnsgd1na2vs0mg"},{"bike_id":"ecb8b6fa-442e-4caa-a500-d652467fa473","system_id":"levelo_inurba_marseille","lat":43.307945,"lon":5.376487,"is_reserved":false,"is_disabled":false,"rental_uris":{"android":"levelo://app?vid=ecb8b6fa-442e-4caa-a500-d652467fa473","ios":"levelo://app?vid=ecb8b6fa-442e-4caa-a500-d652467fa473"},"vehicle_type_id":"4","last_reported":1717344525,"current_range_meters":6800,"station_id":"ce4bgv92rcd13ifvqcq0","pricing_plan_id":"cebpf4jnsgd1na2vs0mg"},{"bike_id":"26e1df80-48f5-47ca-9c97-77cf1e82416f","system_id":"levelo_inurba_marseille","lat":43.307945,"lon":5.376487,"is_reserved":false,"is_disabled":false,"rental_uris":{"android":"levelo://app?vid=26e1df80-48f5-47ca-9c97-77cf1e82416f","ios":"levelo://app?vid=26e1df80-48f5-47ca-9c97-77cf1e82416f"},"vehicle_type_id":"4","last_reported":1717344525,"current_range_meters":4800,"station_id":"ce4bgv92rcd13ifvqcq0","pricing_plan_id":"cebpf4jnsgd1na2vs0mg"},{"bike_id":"05f2e305-e612-4306-9d40-bb75c79763b1","system_id":"levelo_inurba_marseille","lat":43.317075,"lon":5.377367,"is_reserved":false,"is_disabled":false,"rental_uris":{"android":"levelo://app?vid=05f2e305-e612-4306-9d40-bb75c79763b1","ios":"levelo://app?vid=05f2e305-e612-4306-9d40-bb75c79763b1"},"vehicle_type_id":"4","last_reported":1717344525,"current_range_meters":23200,"station_id":"ce4bgth2rcd13ifvqch0","pricing_plan_id":"cebpf4jnsgd1na2vs0mg"},{"bike_id":"fb218ff4-06ed-4a61-9e77-be10593f3df1","system_id":"levelo_inurba_marseille","lat":43.317075,"lon":5.377367,"is_reserved":false,"is_disabled":false,"rental_uris":{"android":"levelo://app?vid=fb218ff4-06ed-4a61-9e77-be10593f3df1","ios":"levelo://app?vid=fb218ff4-06ed-4a61-9e77-be10593f3df1"},"vehicle_type_id":"4","last_reported":1717344525,"current_range_meters":23600,"station_id":"ce4bgth2rcd13ifvqch0","pricing_plan_id":"cebpf4jnsgd1na2vs0mg"},{"bike_id":"5a9b55fd-5e44-4e48-a4f8-b6405d3d336a","system_id":"levelo_inurba_marseille","lat":43.317075,"lon":5.377367,"is_reserved":false,"is_disabled":false,"rental_uris":{"android":"levelo://app?vid=5a9b55fd-5e44-4e48-a4f8-b6405d3d336a","ios":"levelo://app?vid=5a9b55fd-5e44-4e48-a4f8-b6405d3d336a"},"vehicle_type_id":"4","last_reported":1717344525,"current_range_meters":6000,"station_id":"ce4bgth2rcd13ifvqch0","pricing_plan_id":"cebpf4jnsgd1na2vs0mg"},{"bike_id":"f2d8092a-4813-4845-855b-098f55470edc","system_id":"levelo_inurba_marseille","lat":43.31708,"lon":5.37775,"is_reserved":false,"is_disabled":false,"rental_uris":{"android":"levelo://app?vid=f2d8092a-4813-4845-855b-098f55470edc","ios":"levelo://app?vid=f2d8092a-4813-4845-855b-098f55470edc"},"vehicle_type_id":"4","last_reported":1717344525,"current_range_meters":12400,"station_id":"ce4bgth2rcd13ifvqch0","pricing_plan_id":"cebpf4jnsgd1na2vs0mg"},{"bike_id":"1ec1d6bd-220e-45bd-9aa5-5e86f0545a1f","system_id":"levelo_inurba_marseille","lat":43.303046,"lon":5.368981,"is_reserved":false,"is_disabled":false,"rental_uris":{"android":"levelo://app?vid=1ec1d6bd-220e-45bd-9aa5-5e86f0545a1f","ios":"levelo://app?vid=1ec1d6bd-220e-45bd-9aa5-5e86f0545a1f"},"vehicle_type_id":"4","last_reported":1717344525,"current_range_meters":18800,"station_id":"ce4bgqh2rcd13ifvqc5g","pricing_plan_id":"cebpf4jnsgd1na2vs0mg"},{"bike_id":"d53326c4-59ca-43eb-a7cd-31d41778a28e","system_id":"levelo_inurba_marseille","lat":43.303046,"lon":5.368981,"is_reserved":false,"is_disabled":false,"rental_uris":{"android":"levelo://app?vid=d53326c4-59ca-43eb-a7cd-31d41778a28e","ios":"levelo://app?vid=d53326c4-59ca-43eb-a7cd-31d41778a28e"},"vehicle_type_id":"4","last_reported":1717344525,"current_range_meters":400,"station_id":"ce4bgqh2rcd13ifvqc5g","pricing_plan_id":"cebpf4jnsgd1na2vs0mg"},{"bike_id":"0106d8b2-ffaf-4d47-9683-80a2bc69c105","system_id":"levelo_inurba_marseille","lat":43.315298,"lon":5.38029,"is_reserved":false,"is_disabled":false,"rental_uris":{"android":"levelo://app?vid=0106d8b2-ffaf-4d47-9683-80a2bc69c105","ios":"levelo://app?vid=0106d8b2-ffaf-4d47-9683-80a2bc69c105"},"vehicle_type_id":"4","last_reported":1717344525,"current_range_meters":17200,"station_id":"ce4bhsp2rcd13ifvqi50","pricing_plan_id":"cebpf4jnsgd1na2vs0mg"},{"bike_id":"8c2214db-d643-46a8-992f-d7311598519f","system_id":"levelo_inurba_marseille","lat":43.31531,"lon":5.38032,"is_reserved":false,"is_disabled":false,"rental_uris":{"android":"levelo://app?vid=8c2214db-d643-46a8-992f-d7311598519f","ios":"levelo://app?vid=8c2214db-d643-46a8-992f-d7311598519f"},"vehicle_type_id":"4","last_reported":1717344525,"current_range_meters":7200,"station_id":"ce4bhsp2rcd13ifvqi50","pricing_plan_id":"cebpf4jnsgd1na2vs0mg"},{"bike_id":"61ce56f3-8c27-423d-bbf1-b00ccc6cf763","system_id":"levelo_inurba_marseille","lat":43.315293,"lon":5.380349,"is_reserved":false,"is_disabled":false,"rental_uris":{"android":"levelo://app?vid=61ce56f3-8c27-423d-bbf1-b00ccc6cf763","ios":"levelo://app?vid=61ce56f3-8c27-423d-bbf1-b00ccc6cf763"},"vehicle_type_id":"4","last_reported":1717344525,"current_range_meters":400,"station_id":"ce4bhsp2rcd13ifvqi50","pricing_plan_id":"cebpf4jnsgd1na2vs0mg"},{"bike_id":"d8570b5d-57be-486a-92e4-2146efeeba61","system_id":"levelo_inurba_marseille","lat":43.308012,"lon":5.381511,"is_reserved":false,"is_disabled":false,"rental_uris":{"android":"levelo://app?vid=d8570b5d-57be-486a-92e4-2146efeeba61","ios":"levelo://app?vid=d8570b5d-57be-486a-92e4-2146efeeba61"},"vehicle_type_id":"4","last_reported":1717344525,"current_range_meters":6800,"station_id":"ce4bgt12rcd13ifvqce0","pricing_plan_id":"cebpf4jnsgd1na2vs0mg"},{"bike_id":"69d27ba0-cbd5-4af2-a854-81e5614f846c","system_id":"levelo_inurba_marseille","lat":43.308012,"lon":5.381511,"is_reserved":false,"is_disabled":false,"rental_uris":{"android":"levelo://app?vid=69d27ba0-cbd5-4af2-a854-81e5614f846c","ios":"levelo://app?vid=69d27ba0-cbd5-4af2-a854-81e5614f846c"},"vehicle_type_id":"4","last_reported":1717344525,"current_range_meters":800,"station_id":"ce4bgt12rcd13ifvqce0","pricing_plan_id":"cebpf4jnsgd1na2vs0mg"},{"bike_id":"c3eb85ba-031f-4ecb-88e3-578f6011cef1","system_id":"levelo_inurba_marseille","lat":43.305368,"lon":5.367343,"is_reserved":false,"is_disabled":false,"rental_uris":{"android":"levelo://app?vid=c3eb85ba-031f-4ecb-88e3-578f6011cef1","ios":"levelo://app?vid=c3eb85ba-031f-4ecb-88e3-578f6011cef1"},"vehicle_type_id":"4","last_reported":1717344525,"current_range_meters":8800,"station_id":"ce4bgrp2rcd13ifvqc9g","pricing_plan_id":"cebpf4jnsgd1na2vs0mg"},{"bike_id":"6e72d090-704c-460f-add7-b6d7aa854df2","system_id":"levelo_inurba_marseille","lat":43.304606,"lon":5.379026,"is_reserved":false,"is_disabled":false,"rental_uris":{"android":"levelo://app?vid=6e72d090-704c-460f-add7-b6d7aa854df2","ios":"levelo://app?vid=6e72d090-704c-460f-add7-b6d7aa854df2"},"vehicle_type_id":"4","last_reported":1717344525,"current_range_meters":20800,"station_id":"ce4bgup2rcd13ifvqcn0","pricing_plan_id":"cebpf4jnsgd1na2vs0mg"},{"bike_id":"ed7fc8f9-4463-4df0-b542-0c726672bb67","system_id":"levelo_inurba_marseille","lat":43.304606,"lon":5.379026,"is_reserved":false,"is_disabled":false,"rental_uris":{"android":"levelo://app?vid=ed7fc8f9-4463-4df0-b542-0c726672bb67","ios":"levelo://app?vid=ed7fc8f9-4463-4df0-b542-0c726672bb67"},"vehicle_type_id":"4","last_reported":1717344525,"current_range_meters":21600,"station_id":"ce4bgup2rcd13ifvqcn0","pricing_plan_id":"cebpf4jnsgd1na2vs0mg"},{"bike_id":"d1c61d00-296b-4fa6-8881-7936e3b326fa","system_id":"levelo_inurba_marseille","lat":43.304606,"lon":5.379026,"is_reserved":false,"is_disabled":false,"rental_uris":{"android":"levelo://app?vid=d1c61d00-296b-4fa6-8881-7936e3b326fa","ios":"levelo://app?vid=d1c61d00-296b-4fa6-8881-7936e3b326fa"},"vehicle_type_id":"4","last_reported":1717344525,"current_range_meters":6000,"station_id":"ce4bgup2rcd13ifvqcn0","pricing_plan_id":"cebpf4jnsgd1na2vs0mg"},{"bike_id":"3f2903e1-f804-4e98-9f9a-338b27a71850","system_id":"levelo_inurba_marseille","lat":43.304606,"lon":5.379026,"is_reserved":false,"is_disabled":false,"rental_uris":{"android":"levelo://app?vid=3f2903e1-f804-4e98-9f9a-338b27a71850","ios":"levelo://app?vid=3f2903e1-f804-4e98-9f9a-338b27a71850"},"vehicle_type_id":"4","last_reported":1717344525,"current_range_meters":31200,"station_id":"ce4bgup2rcd13ifvqcn0","pricing_plan_id":"cebpf4jnsgd1na2vs0mg"},{"bike_id":"fc52f5b4-963f-409c-8a0c-3fb13f39e826","system_id":"levelo_inurba_marseille","lat":43.30463,"lon":5.37896,"is_reserved":false,"is_disabled":false,"rental_uris":{"android":"levelo://app?vid=fc52f5b4-963f-409c-8a0c-3fb13f39e826","ios":"levelo://app?vid=fc52f5b4-963f-409c-8a0c-3fb13f39e826"},"vehicle_type_id":"4","last_reported":1717344525,"current_range_meters":10400,"station_id":"","pricing_plan_id":"cebpf4jnsgd1na2vs0mg"},{"bike_id":"9aa58740-d025-4762-949a-88b783f92f1c","system_id":"levelo_inurba_marseille","lat":43.3046,"lon":5.37897,"is_reserved":false,"is_disabled":false,"rental_uris":{"android":"levelo://app?vid=9aa58740-d025-4762-949a-88b783f92f1c","ios":"levelo://app?vid=9aa58740-d025-4762-949a-88b783f92f1c"},"vehicle_type_id":"4","last_reported":1717344525,"current_range_meters":10000,"station_id":"ce4bgup2rcd13ifvqcn0","pricing_plan_id":"cebpf4jnsgd1na2vs0mg"},{"bike_id":"8cbc0fc6-918d-4c69-8fdd-df42854ea7e1","system_id":"levelo_inurba_marseille","lat":43.32479,"lon":5.36562,"is_reserved":false,"is_disabled":false,"rental_uris":{"android":"levelo://app?vid=8cbc0fc6-918d-4c69-8fdd-df42854ea7e1","ios":"levelo://app?vid=8cbc0fc6-918d-4c69-8fdd-df42854ea7e1"},"vehicle_type_id":"4","last_reported":1717344525,"current_range_meters":16000,"station_id":"ce4bhs12rcd13ifvqhvg","pricing_plan_id":"cebpf4jnsgd1na2vs0mg"},{"bike_id":"cf434fde-e260-4dd6-aa84-f3036eb9872a","system_id":"levelo_inurba_marseille","lat":43.324812,"lon":5.365722,"is_reserved":false,"is_disabled":false,"rental_uris":{"android":"levelo://app?vid=cf434fde-e260-4dd6-aa84-f3036eb9872a","ios":"levelo://app?vid=cf434fde-e260-4dd6-aa84-f3036eb9872a"},"vehicle_type_id":"4","last_reported":1717344525,"current_range_meters":11200,"station_id":"ce4bhs12rcd13ifvqhvg","pricing_plan_id":"cebpf4jnsgd1na2vs0mg"},{"bike_id":"ab51a0e6-e773-4c0d-9a24-f30f50b49d80","system_id":"levelo_inurba_marseille","lat":43.304606,"lon":5.379026,"is_reserved":false,"is_disabled":false,"rental_uris":{"android":"levelo://app?vid=ab51a0e6-e773-4c0d-9a24-f30f50b49d80","ios":"levelo://app?vid=ab51a0e6-e773-4c0d-9a24-f30f50b49d80"},"vehicle_type_id":"4","last_reported":1717344525,"current_range_meters":12000,"station_id":"ce4bgup2rcd13ifvqcn0","pricing_plan_id":"cebpf4jnsgd1na2vs0mg"},{"bike_id":"760a3dff-4fd3-478b-bcb8-a8df2ebdcda7","system_id":"levelo_inurba_marseille","lat":43.32487,"lon":5.36573,"is_reserved":false,"is_disabled":false,"rental_uris":{"android":"levelo://app?vid=760a3dff-4fd3-478b-bcb8-a8df2ebdcda7","ios":"levelo://app?vid=760a3dff-4fd3-478b-bcb8-a8df2ebdcda7"},"vehicle_type_id":"4","last_reported":1717344525,"current_range_meters":16800,"station_id":"ce4bhs12rcd13ifvqhvg","pricing_plan_id":"cebpf4jnsgd1na2vs0mg"},{"bike_id":"23f021d1-a48f-4fb4-80b5-414ac8fbba54","system_id":"levelo_inurba_marseille","lat":43.310804,"lon":5.38359,"is_reserved":false,"is_disabled":false,"rental_uris":{"android":"levelo://app?vid=23f021d1-a48f-4fb4-80b5-414ac8fbba54","ios":"levelo://app?vid=23f021d1-a48f-4fb4-80b5-414ac8fbba54"},"vehicle_type_id":"4","last_reported":1717344525,"current_range_meters":24000,"station_id":"ce4bgv92rcd13ifvqcr0","pricing_plan_id":"cebpf4jnsgd1na2vs0mg"},{"bike_id":"7157b99c-a327-42ae-a279-ed5d7dac29cd","system_id":"levelo_inurba_marseille","lat":43.310804,"lon":5.38359,"is_reserved":false,"is_disabled":false,"rental_uris":{"android":"levelo://app?vid=7157b99c-a327-42ae-a279-ed5d7dac29cd","ios":"levelo://app?vid=7157b99c-a327-42ae-a279-ed5d7dac29cd"},"vehicle_type_id":"4","last_reported":1717344525,"current_range_meters":10800,"station_id":"ce4bgv92rcd13ifvqcr0","pricing_plan_id":"cebpf4jnsgd1na2vs0mg"},{"bike_id":"efa675af-d8a7-422a-93cc-a087b48e1f67","system_id":"levelo_inurba_marseille","lat":43.310804,"lon":5.38359,"is_reserved":false,"is_disabled":false,"rental_uris":{"android":"levelo://app?vid=efa675af-d8a7-422a-93cc-a087b48e1f67","ios":"levelo://app?vid=efa675af-d8a7-422a-93cc-a087b48e1f67"},"vehicle_type_id":"4","last_reported":1717344525,"current_range_meters":19200,"station_id":"ce4bgv92rcd13ifvqcr0","pricing_plan_id":"cebpf4jnsgd1na2vs0mg"},{"bike_id":"eaded5d0-6f46-4fe2-9e43-acce3f479470","system_id":"levelo_inurba_marseille","lat":43.301429,"lon":5.37413,"is_reserved":false,"is_disabled":false,"rental_uris":{"android":"levelo://app?vid=eaded5d0-6f46-4fe2-9e43-acce3f479470","ios":"levelo://app?vid=eaded5d0-6f46-4fe2-9e43-acce3f479470"},"vehicle_type_id":"4","last_reported":1717344525,"current_range_meters":5200,"station_id":"ce4bgs92rcd13ifvqcc0","pricing_plan_id":"cebpf4jnsgd1na2vs0mg"},{"bike_id":"0330a33b-9b03-4912-b47f-4d137f606942","system_id":"levelo_inurba_marseille","lat":43.30143,"lon":5.37413,"is_reserved":false,"is_disabled":false,"rental_uris":{"android":"levelo://app?vid=0330a33b-9b03-4912-b47f-4d137f606942","ios":"levelo://app?vid=0330a33b-9b03-4912-b47f-4d137f606942"},"vehicle_type_id":"4","last_reported":1717344525,"current_range_meters":2000,"station_id":"ce4bgs92rcd13ifvqcc0","pricing_plan_id":"cebpf4jnsgd1na2vs0mg"},{"bike_id":"bc15045e-7080-4cdd-9497-b1377fe29b6d","system_id":"levelo_inurba_marseille","lat":43.302784,"lon":5.377158,"is_reserved":false,"is_disabled":false,"rental_uris":{"android":"levelo://app?vid=bc15045e-7080-4cdd-9497-b1377fe29b6d","ios":"levelo://app?vid=bc15045e-7080-4cdd-9497-b1377fe29b6d"},"vehicle_type_id":"4","last_reported":1717344525,"current_range_meters":0,"station_id":"ce4bguh2rcd13ifvqcj0","pricing_plan_id":"cebpf4jnsgd1na2vs0mg"},{"bike_id":"9a3d30cc-2cb3-4229-8b80-e9e0b4bf0031","system_id":"levelo_inurba_marseille","lat":43.302784,"lon":5.377158,"is_reserved":false,"is_disabled":false,"rental_uris":{"android":"levelo://app?vid=9a3d30cc-2cb3-4229-8b80-e9e0b4bf0031","ios":"levelo://app?vid=9a3d30cc-2cb3-4229-8b80-e9e0b4bf0031"},"vehicle_type_id":"4","last_reported":1717344525,"current_range_meters":16800,"station_id":"ce4bguh2rcd13ifvqcj0","pricing_plan_id":"cebpf4jnsgd1na2vs0mg"},{"bike_id":"fc4d09f8-3bd6-400e-8d87-0e91f7891ebb","system_id":"levelo_inurba_marseille","lat":43.302784,"lon":5.377158,"is_reserved":false,"is_disabled":false,"rental_uris":{"android":"levelo://app?vid=fc4d09f8-3bd6-400e-8d87-0e91f7891ebb","ios":"levelo://app?vid=fc4d09f8-3bd6-400e-8d87-0e91f7891ebb"},"vehicle_type_id":"4","last_reported":1717344525,"current_range_meters":20000,"station_id":"ce4bguh2rcd13ifvqcj0","pricing_plan_id":"cebpf4jnsgd1na2vs0mg"},{"bike_id":"41f71f28-89c0-47d5-84d1-4c186c285185","system_id":"levelo_inurba_marseille","lat":43.310804,"lon":5.38359,"is_reserved":false,"is_disabled":false,"rental_uris":{"android":"levelo://app?vid=41f71f28-89c0-47d5-84d1-4c186c285185","ios":"levelo://app?vid=41f71f28-89c0-47d5-84d1-4c186c285185"},"vehicle_type_id":"4","last_reported":1717344525,"current_range_meters":11200,"station_id":"ce4bgv92rcd13ifvqcr0","pricing_plan_id":"cebpf4jnsgd1na2vs0mg"},{"bike_id":"7292d35d-e45c-4014-9534-1ff770cf666d","system_id":"levelo_inurba_marseille","lat":43.302784,"lon":5.377158,"is_reserved":false,"is_disabled":false,"rental_uris":{"android":"levelo://app?vid=7292d35d-e45c-4014-9534-1ff770cf666d","ios":"levelo://app?vid=7292d35d-e45c-4014-9534-1ff770cf666d"},"vehicle_type_id":"4","last_reported":1717344525,"current_range_meters":29600,"station_id":"ce4bguh2rcd13ifvqcj0","pricing_plan_id":"cebpf4jnsgd1na2vs0mg"},{"bike_id":"fdba4c59-849a-44a5-baff-899f39918679","system_id":"levelo_inurba_marseille","lat":43.319924,"lon":5.381677,"is_reserved":false,"is_disabled":false,"rental_uris":{"android":"levelo://app?vid=fdba4c59-849a-44a5-baff-899f39918679","ios":"levelo://app?vid=fdba4c59-849a-44a5-baff-899f39918679"},"vehicle_type_id":"4","last_reported":1717344525,"current_range_meters":19600,"station_id":"","pricing_plan_id":"cebpf4jnsgd1na2vs0mg"},{"bike_id":"0e7f4bcc-4806-4add-b595-fd726b6d2e52","system_id":"levelo_inurba_marseille","lat":43.319935,"lon":5.381699,"is_reserved":false,"is_disabled":false,"rental_uris":{"android":"levelo://app?vid=0e7f4bcc-4806-4add-b595-fd726b6d2e52","ios":"levelo://app?vid=0e7f4bcc-4806-4add-b595-fd726b6d2e52"},"vehicle_type_id":"4","last_reported":1717344525,"current_range_meters":14000,"station_id":"ce4bhr12rcd13ifvqhpg","pricing_plan_id":"cebpf4jnsgd1na2vs0mg"},{"bike_id":"a1b324c3-4672-4178-8f46-8f15d360dea8","system_id":"levelo_inurba_marseille","lat":43.303283,"lon":5.379279,"is_reserved":false,"is_disabled":false,"rental_uris":{"android":"levelo://app?vid=a1b324c3-4672-4178-8f46-8f15d360dea8","ios":"levelo://app?vid=a1b324c3-4672-4178-8f46-8f15d360dea8"},"vehicle_type_id":"4","last_reported":1717344525,"current_range_meters":16400,"station_id":"","pricing_plan_id":"cebpf4jnsgd1na2vs0mg"},{"bike_id":"beab82c7-84b5-4913-817e-b9929d6e89ad","system_id":"levelo_inurba_marseille","lat":43.313571,"lon":5.384829,"is_reserved":false,"is_disabled":false,"rental_uris":{"android":"levelo://app?vid=beab82c7-84b5-4913-817e-b9929d6e89ad","ios":"levelo://app?vid=beab82c7-84b5-4913-817e-b9929d6e89ad"},"vehicle_type_id":"4","last_reported":1717344525,"current_range_meters":26000,"station_id":"ce4bgt92rcd13ifvqcf0","pricing_plan_id":"cebpf4jnsgd1na2vs0mg"},{"bike_id":"abce06f2-be6c-4ac6-a9fa-f3f7ae2b24e1","system_id":"levelo_inurba_marseille","lat":43.299243,"lon":5.374807,"is_reserved":false,"is_disabled":false,"rental_uris":{"android":"levelo://app?vid=abce06f2-be6c-4ac6-a9fa-f3f7ae2b24e1","ios":"levelo://app?vid=abce06f2-be6c-4ac6-a9fa-f3f7ae2b24e1"},"vehicle_type_id":"4","last_reported":1717344525,"current_range_meters":0,"station_id":"ce4bgjh2rcd13ifvqbg0","pricing_plan_id":"cebpf4jnsgd1na2vs0mg"},{"bike_id":"0879834f-2217-41af-ad38-4dd287080272","system_id":"levelo_inurba_marseille","lat":43.299778,"lon":5.371814,"is_reserved":false,"is_disabled":false,"rental_uris":{"android":"levelo://app?vid=0879834f-2217-41af-ad38-4dd287080272","ios":"levelo://app?vid=0879834f-2217-41af-ad38-4dd287080272"},"vehicle_type_id":"4","last_reported":1717344525,"current_range_meters":25600,"station_id":"ce4bgjh2rcd13ifvqbg0","pricing_plan_id":"cebpf4jnsgd1na2vs0mg"},{"bike_id":"cc4b0899-079e-4267-ae5a-3e0861392f73","system_id":"levelo_inurba_marseille","lat":43.299222,"lon":5.365554,"is_reserved":false,"is_disabled":false,"rental_uris":{"android":"levelo://app?vid=cc4b0899-079e-4267-ae5a-3e0861392f73","ios":"levelo://app?vid=cc4b0899-079e-4267-ae5a-3e0861392f73"},"vehicle_type_id":"4","last_reported":1717344525,"current_range_meters":0,"station_id":"ce4bgm92rcd13ifvqbr0","pricing_plan_id":"cebpf4jnsgd1na2vs0mg"},{"bike_id":"da982bf3-34bc-48c0-9fdf-851fcf76025b","system_id":"levelo_inurba_marseille","lat":43.305364,"lon":5.384119,"is_reserved":false,"is_disabled":false,"rental_uris":{"android":"levelo://app?vid=da982bf3-34bc-48c0-9fdf-851fcf76025b","ios":"levelo://app?vid=da982bf3-34bc-48c0-9fdf-851fcf76025b"},"vehicle_type_id":"4","last_reported":1717344525,"current_range_meters":6800,"station_id":"ce4bgg92rcd13ifvqb30","pricing_plan_id":"cebpf4jnsgd1na2vs0mg"},{"bike_id":"7c0279c4-785e-41cc-9875-11b1aa5697b0","system_id":"levelo_inurba_marseille","lat":43.298433,"lon":5.362774,"is_reserved":false,"is_disabled":false,"rental_uris":{"android":"levelo://app?vid=7c0279c4-785e-41cc-9875-11b1aa5697b0","ios":"levelo://app?vid=7c0279c4-785e-41cc-9875-11b1aa5697b0"},"vehicle_type_id":"4","last_reported":1717344525,"current_range_meters":29600,"station_id":"ce4bgpp2rcd13ifvqc3g","pricing_plan_id":"cebpf4jnsgd1na2vs0mg"},{"bike_id":"5b5843f0-a616-4928-bcc4-73a2ade4f6fc","system_id":"levelo_inurba_marseille","lat":43.30537,"lon":5.38421,"is_reserved":false,"is_disabled":false,"rental_uris":{"android":"levelo://app?vid=5b5843f0-a616-4928-bcc4-73a2ade4f6fc","ios":"levelo://app?vid=5b5843f0-a616-4928-bcc4-73a2ade4f6fc"},"vehicle_type_id":"4","last_reported":1717344525,"current_range_meters":18000,"station_id":"ce4bgg92rcd13ifvqb30","pricing_plan_id":"cebpf4jnsgd1na2vs0mg"},{"bike_id":"0ace565f-e980-45b7-958f-244be4ab4a58","system_id":"levelo_inurba_marseille","lat":43.311722,"lon":5.387247,"is_reserved":false,"is_disabled":false,"rental_uris":{"android":"levelo://app?vid=0ace565f-e980-45b7-958f-244be4ab4a58","ios":"levelo://app?vid=0ace565f-e980-45b7-958f-244be4ab4a58"},"vehicle_type_id":"4","last_reported":1717344525,"current_range_meters":4400,"station_id":"ce4bgv12rcd13ifvqcp0","pricing_plan_id":"cebpf4jnsgd1na2vs0mg"},{"bike_id":"3925c7f2-7d83-40f0-90aa-cbf818921a4e","system_id":"levelo_inurba_marseille","lat":43.298393,"lon":5.362788,"is_reserved":false,"is_disabled":false,"rental_uris":{"android":"levelo://app?vid=3925c7f2-7d83-40f0-90aa-cbf818921a4e","ios":"levelo://app?vid=3925c7f2-7d83-40f0-90aa-cbf818921a4e"},"vehicle_type_id":"4","last_reported":1717344525,"current_range_meters":2800,"station_id":"ce4bgpp2rcd13ifvqc3g","pricing_plan_id":"cebpf4jnsgd1na2vs0mg"},{"bike_id":"50d9b3f4-29d1-4fc8-a0ec-55510c139211","system_id":"levelo_inurba_marseille","lat":43.305364,"lon":5.384119,"is_reserved":false,"is_disabled":false,"rental_uris":{"android":"levelo://app?vid=50d9b3f4-29d1-4fc8-a0ec-55510c139211","ios":"levelo://app?vid=50d9b3f4-29d1-4fc8-a0ec-55510c139211"},"vehicle_type_id":"4","last_reported":1717344525,"current_range_meters":22000,"station_id":"ce4bgg92rcd13ifvqb30","pricing_plan_id":"cebpf4jnsgd1na2vs0mg"},{"bike_id":"0870cf45-a72b-4979-966a-121161adf9d2","system_id":"levelo_inurba_marseille","lat":43.311722,"lon":5.387247,"is_reserved":false,"is_disabled":false,"rental_uris":{"android":"levelo://app?vid=0870cf45-a72b-4979-966a-121161adf9d2","ios":"levelo://app?vid=0870cf45-a72b-4979-966a-121161adf9d2"},"vehicle_type_id":"4","last_reported":1717344525,"current_range_meters":20000,"station_id":"ce4bgv12rcd13ifvqcp0","pricing_plan_id":"cebpf4jnsgd1na2vs0mg"},{"bike_id":"9e3ef64c-5e65-4d7a-a9a5-3bd3c4da7275","system_id":"levelo_inurba_marseille","lat":43.311722,"lon":5.387247,"is_reserved":false,"is_disabled":false,"rental_uris":{"android":"levelo://app?vid=9e3ef64c-5e65-4d7a-a9a5-3bd3c4da7275","ios":"levelo://app?vid=9e3ef64c-5e65-4d7a-a9a5-3bd3c4da7275"},"vehicle_type_id":"4","last_reported":1717344525,"current_range_meters":24800,"station_id":"ce4bgv12rcd13ifvqcp0","pricing_plan_id":"cebpf4jnsgd1na2vs0mg"},{"bike_id":"ba3df0d9-85b0-4acc-a7fb-339bc03f5629","system_id":"levelo_inurba_marseille","lat":43.311722,"lon":5.387247,"is_reserved":false,"is_disabled":false,"rental_uris":{"android":"levelo://app?vid=ba3df0d9-85b0-4acc-a7fb-339bc03f5629","ios":"levelo://app?vid=ba3df0d9-85b0-4acc-a7fb-339bc03f5629"},"vehicle_type_id":"4","last_reported":1717344525,"current_range_meters":8800,"station_id":"ce4bgv12rcd13ifvqcp0","pricing_plan_id":"cebpf4jnsgd1na2vs0mg"},{"bike_id":"0beb91d9-4ee6-4708-b88f-fa27eeb9b78c","system_id":"levelo_inurba_marseille","lat":43.322872,"lon":5.382756,"is_reserved":false,"is_disabled":false,"rental_uris":{"android":"levelo://app?vid=0beb91d9-4ee6-4708-b88f-fa27eeb9b78c","ios":"levelo://app?vid=0beb91d9-4ee6-4708-b88f-fa27eeb9b78c"},"vehicle_type_id":"4","last_reported":1717344525,"current_range_meters":18400,"station_id":"ce4bhr12rcd13ifvqhqg","pricing_plan_id":"cebpf4jnsgd1na2vs0mg"},{"bike_id":"10fb4334-c940-4455-979b-d3f1ca32e262","system_id":"levelo_inurba_marseille","lat":43.297774,"lon":5.370875,"is_reserved":false,"is_disabled":false,"rental_uris":{"android":"levelo://app?vid=10fb4334-c940-4455-979b-d3f1ca32e262","ios":"levelo://app?vid=10fb4334-c940-4455-979b-d3f1ca32e262"},"vehicle_type_id":"4","last_reported":1717344525,"current_range_meters":29200,"station_id":"ce4bgop2rcd13ifvqc1g","pricing_plan_id":"cebpf4jnsgd1na2vs0mg"},{"bike_id":"1659ce0c-fafb-47a0-b4bf-e6264ebd5cf0","system_id":"levelo_inurba_marseille","lat":43.322872,"lon":5.382756,"is_reserved":false,"is_disabled":false,"rental_uris":{"android":"levelo://app?vid=1659ce0c-fafb-47a0-b4bf-e6264ebd5cf0","ios":"levelo://app?vid=1659ce0c-fafb-47a0-b4bf-e6264ebd5cf0"},"vehicle_type_id":"4","last_reported":1717344525,"current_range_meters":2400,"station_id":"ce4bhr12rcd13ifvqhqg","pricing_plan_id":"cebpf4jnsgd1na2vs0mg"},{"bike_id":"2935268e-b2a7-4f3d-8748-23455793256c","system_id":"levelo_inurba_marseille","lat":43.322872,"lon":5.382756,"is_reserved":false,"is_disabled":false,"rental_uris":{"android":"levelo://app?vid=2935268e-b2a7-4f3d-8748-23455793256c","ios":"levelo://app?vid=2935268e-b2a7-4f3d-8748-23455793256c"},"vehicle_type_id":"4","last_reported":1717344525,"current_range_meters":30000,"station_id":"ce4bhr12rcd13ifvqhqg","pricing_plan_id":"cebpf4jnsgd1na2vs0mg"},{"bike_id":"327ee041-0cfc-4a49-a1fa-2ed52b8c571c","system_id":"levelo_inurba_marseille","lat":43.311722,"lon":5.387247,"is_reserved":false,"is_disabled":false,"rental_uris":{"android":"levelo://app?vid=327ee041-0cfc-4a49-a1fa-2ed52b8c571c","ios":"levelo://app?vid=327ee041-0cfc-4a49-a1fa-2ed52b8c571c"},"vehicle_type_id":"4","last_reported":1717344525,"current_range_meters":20000,"station_id":"ce4bgv12rcd13ifvqcp0","pricing_plan_id":"cebpf4jnsgd1na2vs0mg"},{"bike_id":"2fd2e74e-e2a1-40c1-b088-c5d706721fd8","system_id":"levelo_inurba_marseille","lat":43.322872,"lon":5.382756,"is_reserved":false,"is_disabled":false,"rental_uris":{"android":"levelo://app?vid=2fd2e74e-e2a1-40c1-b088-c5d706721fd8","ios":"levelo://app?vid=2fd2e74e-e2a1-40c1-b088-c5d706721fd8"},"vehicle_type_id":"4","last_reported":1717344525,"current_range_meters":9600,"station_id":"ce4bhr12rcd13ifvqhqg","pricing_plan_id":"cebpf4jnsgd1na2vs0mg"},{"bike_id":"dd7aeefe-a784-4478-b384-e99515794255","system_id":"levelo_inurba_marseille","lat":43.311722,"lon":5.387247,"is_reserved":false,"is_disabled":false,"rental_uris":{"android":"levelo://app?vid=dd7aeefe-a784-4478-b384-e99515794255","ios":"levelo://app?vid=dd7aeefe-a784-4478-b384-e99515794255"},"vehicle_type_id":"4","last_reported":1717344525,"current_range_meters":3600,"station_id":"ce4bgv12rcd13ifvqcp0","pricing_plan_id":"cebpf4jnsgd1na2vs0mg"},{"bike_id":"7e564c1f-7487-4e92-ac72-5335e531bc04","system_id":"levelo_inurba_marseille","lat":43.297163,"lon":5.365866,"is_reserved":false,"is_disabled":false,"rental_uris":{"android":"levelo://app?vid=7e564c1f-7487-4e92-ac72-5335e531bc04","ios":"levelo://app?vid=7e564c1f-7487-4e92-ac72-5335e531bc04"},"vehicle_type_id":"4","last_reported":1717344525,"current_range_meters":2800,"station_id":"ce4bgn12rcd13ifvqbt0","pricing_plan_id":"cebpf4jnsgd1na2vs0mg"},{"bike_id":"194455f8-d3c2-4a93-a886-aa175d1ed796","system_id":"levelo_inurba_marseille","lat":43.296129,"lon":5.370777,"is_reserved":false,"is_disabled":false,"rental_uris":{"android":"levelo://app?vid=194455f8-d3c2-4a93-a886-aa175d1ed796","ios":"levelo://app?vid=194455f8-d3c2-4a93-a886-aa175d1ed796"},"vehicle_type_id":"4","last_reported":1717344525,"current_range_meters":0,"station_id":"ce4bgnh2rcd13ifvqc0g","pricing_plan_id":"cebpf4jnsgd1na2vs0mg"},{"bike_id":"1ce7ee77-f1d3-4107-a99b-c42e947baf2c","system_id":"levelo_inurba_marseille","lat":43.29573,"lon":5.367355,"is_reserved":false,"is_disabled":false,"rental_uris":{"android":"levelo://app?vid=1ce7ee77-f1d3-4107-a99b-c42e947baf2c","ios":"levelo://app?vid=1ce7ee77-f1d3-4107-a99b-c42e947baf2c"},"vehicle_type_id":"4","last_reported":1717344525,"current_range_meters":29200,"station_id":"ce4bgph2rcd13ifvqc2g","pricing_plan_id":"cebpf4jnsgd1na2vs0mg"},{"bike_id":"7764532e-6f70-483a-8dbe-3fe446efb882","system_id":"levelo_inurba_marseille","lat":43.29573,"lon":5.367355,"is_reserved":false,"is_disabled":false,"rental_uris":{"android":"levelo://app?vid=7764532e-6f70-483a-8dbe-3fe446efb882","ios":"levelo://app?vid=7764532e-6f70-483a-8dbe-3fe446efb882"},"vehicle_type_id":"4","last_reported":1717344525,"current_range_meters":12000,"station_id":"ce4bgph2rcd13ifvqc2g","pricing_plan_id":"cebpf4jnsgd1na2vs0mg"},{"bike_id":"41fcf9ff-a062-47c1-94bb-2fee22ac952e","system_id":"levelo_inurba_marseille","lat":43.299028,"lon":5.381509,"is_reserved":false,"is_disabled":false,"rental_uris":{"android":"levelo://app?vid=41fcf9ff-a062-47c1-94bb-2fee22ac952e","ios":"levelo://app?vid=41fcf9ff-a062-47c1-94bb-2fee22ac952e"},"vehicle_type_id":"4","last_reported":1717344525,"current_range_meters":31200,"station_id":"ce4bgj12rcd13ifvqbc0","pricing_plan_id":"cebpf4jnsgd1na2vs0mg"},{"bike_id":"200339f0-3e55-471a-82c4-d8b0e40cb080","system_id":"levelo_inurba_marseille","lat":43.296935,"lon":5.376544,"is_reserved":false,"is_disabled":false,"rental_uris":{"android":"levelo://app?vid=200339f0-3e55-471a-82c4-d8b0e40cb080","ios":"levelo://app?vid=200339f0-3e55-471a-82c4-d8b0e40cb080"},"vehicle_type_id":"4","last_reported":1717344525,"current_range_meters":6000,"station_id":"ce4bgkh2rcd13ifvqbl0","pricing_plan_id":"cebpf4jnsgd1na2vs0mg"},{"bike_id":"4cfa5397-1a3e-4d52-853a-aa5e4c744516","system_id":"levelo_inurba_marseille","lat":43.309589,"lon":5.390258,"is_reserved":false,"is_disabled":false,"rental_uris":{"android":"levelo://app?vid=4cfa5397-1a3e-4d52-853a-aa5e4c744516","ios":"levelo://app?vid=4cfa5397-1a3e-4d52-853a-aa5e4c744516"},"vehicle_type_id":"4","last_reported":1717344525,"current_range_meters":2400,"station_id":"ce4bgup2rcd13ifvqco0","pricing_plan_id":"cebpf4jnsgd1na2vs0mg"},{"bike_id":"500af2b5-65d2-4827-a190-d2f1c3dc077a","system_id":"levelo_inurba_marseille","lat":43.296921,"lon":5.376579,"is_reserved":false,"is_disabled":false,"rental_uris":{"android":"levelo://app?vid=500af2b5-65d2-4827-a190-d2f1c3dc077a","ios":"levelo://app?vid=500af2b5-65d2-4827-a190-d2f1c3dc077a"},"vehicle_type_id":"4","last_reported":1717344525,"current_range_meters":20800,"station_id":"ce4bgkh2rcd13ifvqbl0","pricing_plan_id":"cebpf4jnsgd1na2vs0mg"},{"bike_id":"561dc7d8-f293-4770-aeae-ff7ead5b94f3","system_id":"levelo_inurba_marseille","lat":43.309589,"lon":5.390258,"is_reserved":false,"is_disabled":false,"rental_uris":{"android":"levelo://app?vid=561dc7d8-f293-4770-aeae-ff7ead5b94f3","ios":"levelo://app?vid=561dc7d8-f293-4770-aeae-ff7ead5b94f3"},"vehicle_type_id":"4","last_reported":1717344525,"current_range_meters":23600,"station_id":"ce4bgup2rcd13ifvqco0","pricing_plan_id":"cebpf4jnsgd1na2vs0mg"},{"bike_id":"68ecea9b-ec1a-4381-80b3-5a409e54fc35","system_id":"levelo_inurba_marseille","lat":43.309589,"lon":5.390258,"is_reserved":false,"is_disabled":false,"rental_uris":{"android":"levelo://app?vid=68ecea9b-ec1a-4381-80b3-5a409e54fc35","ios":"levelo://app?vid=68ecea9b-ec1a-4381-80b3-5a409e54fc35"},"vehicle_type_id":"4","last_reported":1717344525,"current_range_meters":18000,"station_id":"ce4bgup2rcd13ifvqco0","pricing_plan_id":"cebpf4jnsgd1na2vs0mg"},{"bike_id":"693976a8-ff92-4fca-8e97-e7f75d5838f6","system_id":"levelo_inurba_marseille","lat":43.309589,"lon":5.390258,"is_reserved":false,"is_disabled":false,"rental_uris":{"android":"levelo://app?vid=693976a8-ff92-4fca-8e97-e7f75d5838f6","ios":"levelo://app?vid=693976a8-ff92-4fca-8e97-e7f75d5838f6"},"vehicle_type_id":"4","last_reported":1717344525,"current_range_meters":5200,"station_id":"ce4bgup2rcd13ifvqco0","pricing_plan_id":"cebpf4jnsgd1na2vs0mg"},{"bike_id":"f53185d3-bed4-4004-9e58-8048a1494fda","system_id":"levelo_inurba_marseille","lat":43.309589,"lon":5.390258,"is_reserved":false,"is_disabled":false,"rental_uris":{"android":"levelo://app?vid=f53185d3-bed4-4004-9e58-8048a1494fda","ios":"levelo://app?vid=f53185d3-bed4-4004-9e58-8048a1494fda"},"vehicle_type_id":"4","last_reported":1717344525,"current_range_meters":5600,"station_id":"ce4bgup2rcd13ifvqco0","pricing_plan_id":"cebpf4jnsgd1na2vs0mg"},{"bike_id":"264d5031-f029-42ba-8ab9-221c2f94c49b","system_id":"levelo_inurba_marseille","lat":43.317557,"lon":5.390173,"is_reserved":false,"is_disabled":false,"rental_uris":{"android":"levelo://app?vid=264d5031-f029-42ba-8ab9-221c2f94c49b","ios":"levelo://app?vid=264d5031-f029-42ba-8ab9-221c2f94c49b"},"vehicle_type_id":"4","last_reported":1717344525,"current_range_meters":800,"station_id":"ce4bhqp2rcd13ifvqhng","pricing_plan_id":"cebpf4jnsgd1na2vs0mg"},{"bike_id":"fd7dd085-8c30-4d40-9c88-5849344cbde7","system_id":"levelo_inurba_marseille","lat":43.317557,"lon":5.390173,"is_reserved":false,"is_disabled":false,"rental_uris":{"android":"levelo://app?vid=fd7dd085-8c30-4d40-9c88-5849344cbde7","ios":"levelo://app?vid=fd7dd085-8c30-4d40-9c88-5849344cbde7"},"vehicle_type_id":"4","last_reported":1717344525,"current_range_meters":0,"station_id":"ce4bhqp2rcd13ifvqhng","pricing_plan_id":"cebpf4jnsgd1na2vs0mg"},{"bike_id":"5403c1cb-2c21-45c4-92d3-4ee40515b399","system_id":"levelo_inurba_marseille","lat":43.317557,"lon":5.390173,"is_reserved":false,"is_disabled":false,"rental_uris":{"android":"levelo://app?vid=5403c1cb-2c21-45c4-92d3-4ee40515b399","ios":"levelo://app?vid=5403c1cb-2c21-45c4-92d3-4ee40515b399"},"vehicle_type_id":"4","last_reported":1717344525,"current_range_meters":0,"station_id":"ce4bhqp2rcd13ifvqhng","pricing_plan_id":"cebpf4jnsgd1na2vs0mg"},{"bike_id":"2f7cbd42-5dd0-43ed-83f1-a960238b207f","system_id":"levelo_inurba_marseille","lat":43.298037,"lon":5.381066,"is_reserved":false,"is_disabled":false,"rental_uris":{"android":"levelo://app?vid=2f7cbd42-5dd0-43ed-83f1-a960238b207f","ios":"levelo://app?vid=2f7cbd42-5dd0-43ed-83f1-a960238b207f"},"vehicle_type_id":"4","last_reported":1717344525,"current_range_meters":0,"station_id":"ce4bgip2rcd13ifvqbb0","pricing_plan_id":"cebpf4jnsgd1na2vs0mg"},{"bike_id":"8d2607cc-ebd7-4fab-992c-fac6bfcb562e","system_id":"levelo_inurba_marseille","lat":43.29799,"lon":5.38087,"is_reserved":false,"is_disabled":false,"rental_uris":{"android":"levelo://app?vid=8d2607cc-ebd7-4fab-992c-fac6bfcb562e","ios":"levelo://app?vid=8d2607cc-ebd7-4fab-992c-fac6bfcb562e"},"vehicle_type_id":"4","last_reported":1717344525,"current_range_meters":24800,"station_id":"ce4bgip2rcd13ifvqbb0","pricing_plan_id":"cebpf4jnsgd1na2vs0mg"},{"bike_id":"23f93166-cf5f-4139-9eee-4314d65039fe","system_id":"levelo_inurba_marseille","lat":43.298037,"lon":5.381066,"is_reserved":false,"is_disabled":false,"rental_uris":{"android":"levelo://app?vid=23f93166-cf5f-4139-9eee-4314d65039fe","ios":"levelo://app?vid=23f93166-cf5f-4139-9eee-4314d65039fe"},"vehicle_type_id":"4","last_reported":1717344525,"current_range_meters":7600,"station_id":"ce4bgip2rcd13ifvqbb0","pricing_plan_id":"cebpf4jnsgd1na2vs0mg"},{"bike_id":"9fafa9af-2b9b-4a3f-9039-e8ff3bb31867","system_id":"levelo_inurba_marseille","lat":43.304274,"lon":5.388873,"is_reserved":false,"is_disabled":false,"rental_uris":{"android":"levelo://app?vid=9fafa9af-2b9b-4a3f-9039-e8ff3bb31867","ios":"levelo://app?vid=9fafa9af-2b9b-4a3f-9039-e8ff3bb31867"},"vehicle_type_id":"4","last_reported":1717344525,"current_range_meters":13600,"station_id":"ce4bgk12rcd13ifvqbi0","pricing_plan_id":"cebpf4jnsgd1na2vs0mg"},{"bike_id":"ce1e7e5a-d603-47e1-8c56-f0c5c6ef4e14","system_id":"levelo_inurba_marseille","lat":43.304278,"lon":5.388868,"is_reserved":false,"is_disabled":false,"rental_uris":{"android":"levelo://app?vid=ce1e7e5a-d603-47e1-8c56-f0c5c6ef4e14","ios":"levelo://app?vid=ce1e7e5a-d603-47e1-8c56-f0c5c6ef4e14"},"vehicle_type_id":"4","last_reported":1717344525,"current_range_meters":1600,"station_id":"ce4bgk12rcd13ifvqbi0","pricing_plan_id":"cebpf4jnsgd1na2vs0mg"},{"bike_id":"de841759-de47-4d92-b768-1dfd087580d0","system_id":"levelo_inurba_marseille","lat":43.29789,"lon":5.381214,"is_reserved":false,"is_disabled":false,"rental_uris":{"android":"levelo://app?vid=de841759-de47-4d92-b768-1dfd087580d0","ios":"levelo://app?vid=de841759-de47-4d92-b768-1dfd087580d0"},"vehicle_type_id":"4","last_reported":1717344525,"current_range_meters":0,"station_id":"ce4bgip2rcd13ifvqbb0","pricing_plan_id":"cebpf4jnsgd1na2vs0mg"},{"bike_id":"c7a4513b-a250-4974-836e-341796c7a07c","system_id":"levelo_inurba_marseille","lat":43.30044,"lon":5.38543,"is_reserved":false,"is_disabled":false,"rental_uris":{"android":"levelo://app?vid=c7a4513b-a250-4974-836e-341796c7a07c","ios":"levelo://app?vid=c7a4513b-a250-4974-836e-341796c7a07c"},"vehicle_type_id":"4","last_reported":1717344525,"current_range_meters":20000,"station_id":"","pricing_plan_id":"cebpf4jnsgd1na2vs0mg"},{"bike_id":"c1913276-c0c3-4abe-93fa-a0765b8afc76","system_id":"levelo_inurba_marseille","lat":43.298764,"lon":5.388973,"is_reserved":false,"is_disabled":false,"rental_uris":{"android":"levelo://app?vid=c1913276-c0c3-4abe-93fa-a0765b8afc76","ios":"levelo://app?vid=c1913276-c0c3-4abe-93fa-a0765b8afc76"},"vehicle_type_id":"4","last_reported":1717344525,"current_range_meters":5600,"station_id":"ce4bh392rcd13ifvqdl0","pricing_plan_id":"cebpf4jnsgd1na2vs0mg"},{"bike_id":"424ced4b-822d-40ca-a90a-85ae5e4867f9","system_id":"levelo_inurba_marseille","lat":43.299724,"lon":5.384848,"is_reserved":false,"is_disabled":false,"rental_uris":{"android":"levelo://app?vid=424ced4b-822d-40ca-a90a-85ae5e4867f9","ios":"levelo://app?vid=424ced4b-822d-40ca-a90a-85ae5e4867f9"},"vehicle_type_id":"4","last_reported":1717344525,"current_range_meters":26400,"station_id":"ce4bgj92rcd13ifvqbd0","pricing_plan_id":"cebpf4jnsgd1na2vs0mg"},{"bike_id":"dd6227b5-10c9-474f-b012-7565d64e7a12","system_id":"levelo_inurba_marseille","lat":43.299717,"lon":5.384845,"is_reserved":false,"is_disabled":false,"rental_uris":{"android":"levelo://app?vid=dd6227b5-10c9-474f-b012-7565d64e7a12","ios":"levelo://app?vid=dd6227b5-10c9-474f-b012-7565d64e7a12"},"vehicle_type_id":"4","last_reported":1717344525,"current_range_meters":30800,"station_id":"ce4bgj92rcd13ifvqbd0","pricing_plan_id":"cebpf4jnsgd1na2vs0mg"},{"bike_id":"8c3bc244-a6b2-415c-a937-f8c0366fe49e","system_id":"levelo_inurba_marseille","lat":43.303428,"lon":5.389095,"is_reserved":false,"is_disabled":false,"rental_uris":{"android":"levelo://app?vid=8c3bc244-a6b2-415c-a937-f8c0366fe49e","ios":"levelo://app?vid=8c3bc244-a6b2-415c-a937-f8c0366fe49e"},"vehicle_type_id":"4","last_reported":1717344525,"current_range_meters":1200,"station_id":"ce4bgvp2rcd13ifvqct0","pricing_plan_id":"cebpf4jnsgd1na2vs0mg"},{"bike_id":"41d394ed-0981-4280-ab65-dbdc53f9cd59","system_id":"levelo_inurba_marseille","lat":43.32367,"lon":5.388836,"is_reserved":false,"is_disabled":false,"rental_uris":{"android":"levelo://app?vid=41d394ed-0981-4280-ab65-dbdc53f9cd59","ios":"levelo://app?vid=41d394ed-0981-4280-ab65-dbdc53f9cd59"},"vehicle_type_id":"4","last_reported":1717344525,"current_range_meters":14000,"station_id":"ce4bhqp2rcd13ifvqhog","pricing_plan_id":"cebpf4jnsgd1na2vs0mg"},{"bike_id":"eb8684c1-79ec-4cff-babe-04ea4e268295","system_id":"levelo_inurba_marseille","lat":43.32367,"lon":5.388836,"is_reserved":false,"is_disabled":false,"rental_uris":{"android":"levelo://app?vid=eb8684c1-79ec-4cff-babe-04ea4e268295","ios":"levelo://app?vid=eb8684c1-79ec-4cff-babe-04ea4e268295"},"vehicle_type_id":"4","last_reported":1717344525,"current_range_meters":16400,"station_id":"ce4bhqp2rcd13ifvqhog","pricing_plan_id":"cebpf4jnsgd1na2vs0mg"},{"bike_id":"680a417d-8b48-4602-a1ce-013bb5365540","system_id":"levelo_inurba_marseille","lat":43.32367,"lon":5.388836,"is_reserved":false,"is_disabled":false,"rental_uris":{"android":"levelo://app?vid=680a417d-8b48-4602-a1ce-013bb5365540","ios":"levelo://app?vid=680a417d-8b48-4602-a1ce-013bb5365540"},"vehicle_type_id":"4","last_reported":1717344525,"current_range_meters":10000,"station_id":"ce4bhqp2rcd13ifvqhog","pricing_plan_id":"cebpf4jnsgd1na2vs0mg"},{"bike_id":"9acb491e-1894-4897-a5ff-a493317cbe92","system_id":"levelo_inurba_marseille","lat":43.32368,"lon":5.38871,"is_reserved":false,"is_disabled":false,"rental_uris":{"android":"levelo://app?vid=9acb491e-1894-4897-a5ff-a493317cbe92","ios":"levelo://app?vid=9acb491e-1894-4897-a5ff-a493317cbe92"},"vehicle_type_id":"4","last_reported":1717344525,"current_range_meters":0,"station_id":"ce4bhqp2rcd13ifvqhog","pricing_plan_id":"cebpf4jnsgd1na2vs0mg"},{"bike_id":"134a765e-cf16-413b-b1b5-6bc90178e621","system_id":"levelo_inurba_marseille","lat":43.323632,"lon":5.388773,"is_reserved":false,"is_disabled":false,"rental_uris":{"android":"levelo://app?vid=134a765e-cf16-413b-b1b5-6bc90178e621","ios":"levelo://app?vid=134a765e-cf16-413b-b1b5-6bc90178e621"},"vehicle_type_id":"4","last_reported":1717344525,"current_range_meters":4000,"station_id":"ce4bhqp2rcd13ifvqhog","pricing_plan_id":"cebpf4jnsgd1na2vs0mg"},{"bike_id":"4b96aa0d-9c02-4c62-a514-decebbc21ab7","system_id":"levelo_inurba_marseille","lat":43.32364,"lon":5.38885,"is_reserved":false,"is_disabled":false,"rental_uris":{"android":"levelo://app?vid=4b96aa0d-9c02-4c62-a514-decebbc21ab7","ios":"levelo://app?vid=4b96aa0d-9c02-4c62-a514-decebbc21ab7"},"vehicle_type_id":"4","last_reported":1717344525,"current_range_meters":4400,"station_id":"ce4bhqp2rcd13ifvqhog","pricing_plan_id":"cebpf4jnsgd1na2vs0mg"},{"bike_id":"e79cbb07-88eb-4c88-b0b4-c2129e0610ab","system_id":"levelo_inurba_marseille","lat":43.32367,"lon":5.388836,"is_reserved":false,"is_disabled":false,"rental_uris":{"android":"levelo://app?vid=e79cbb07-88eb-4c88-b0b4-c2129e0610ab","ios":"levelo://app?vid=e79cbb07-88eb-4c88-b0b4-c2129e0610ab"},"vehicle_type_id":"4","last_reported":1717344525,"current_range_meters":18000,"station_id":"ce4bhqp2rcd13ifvqhog","pricing_plan_id":"cebpf4jnsgd1na2vs0mg"},{"bike_id":"060e6b24-2c5c-4ad1-9419-91fbdc296b96","system_id":"levelo_inurba_marseille","lat":43.299724,"lon":5.384848,"is_reserved":false,"is_disabled":false,"rental_uris":{"android":"levelo://app?vid=060e6b24-2c5c-4ad1-9419-91fbdc296b96","ios":"levelo://app?vid=060e6b24-2c5c-4ad1-9419-91fbdc296b96"},"vehicle_type_id":"4","last_reported":1717344525,"current_range_meters":23600,"station_id":"ce4bgj92rcd13ifvqbd0","pricing_plan_id":"cebpf4jnsgd1na2vs0mg"},{"bike_id":"9dab7d0b-a845-4283-b2e8-84aac483ecda","system_id":"levelo_inurba_marseille","lat":43.292749,"lon":5.368402,"is_reserved":false,"is_disabled":false,"rental_uris":{"android":"levelo://app?vid=9dab7d0b-a845-4283-b2e8-84aac483ecda","ios":"levelo://app?vid=9dab7d0b-a845-4283-b2e8-84aac483ecda"},"vehicle_type_id":"4","last_reported":1717344525,"current_range_meters":20800,"station_id":"ce4bhbp2rcd13ifvqesg","pricing_plan_id":"cebpf4jnsgd1na2vs0mg"},{"bike_id":"8c4b82e3-c303-477b-989a-c02ef626b427","system_id":"levelo_inurba_marseille","lat":43.292749,"lon":5.368402,"is_reserved":false,"is_disabled":false,"rental_uris":{"android":"levelo://app?vid=8c4b82e3-c303-477b-989a-c02ef626b427","ios":"levelo://app?vid=8c4b82e3-c303-477b-989a-c02ef626b427"},"vehicle_type_id":"4","last_reported":1717344525,"current_range_meters":27200,"station_id":"ce4bhbp2rcd13ifvqesg","pricing_plan_id":"cebpf4jnsgd1na2vs0mg"},{"bike_id":"3504030c-ae0e-4fff-b768-633eb7167bbf","system_id":"levelo_inurba_marseille","lat":43.292749,"lon":5.368398,"is_reserved":false,"is_disabled":false,"rental_uris":{"android":"levelo://app?vid=3504030c-ae0e-4fff-b768-633eb7167bbf","ios":"levelo://app?vid=3504030c-ae0e-4fff-b768-633eb7167bbf"},"vehicle_type_id":"4","last_reported":1717344525,"current_range_meters":24000,"station_id":"ce4bhbp2rcd13ifvqesg","pricing_plan_id":"cebpf4jnsgd1na2vs0mg"},{"bike_id":"0616d569-9674-4777-b01f-2876f04424e1","system_id":"levelo_inurba_marseille","lat":43.29277,"lon":5.36836,"is_reserved":false,"is_disabled":false,"rental_uris":{"android":"levelo://app?vid=0616d569-9674-4777-b01f-2876f04424e1","ios":"levelo://app?vid=0616d569-9674-4777-b01f-2876f04424e1"},"vehicle_type_id":"4","last_reported":1717344525,"current_range_meters":24800,"station_id":"ce4bhbp2rcd13ifvqesg","pricing_plan_id":"cebpf4jnsgd1na2vs0mg"},{"bike_id":"8f7691d8-75a0-4810-8e2d-ccd6b48b0b7d","system_id":"levelo_inurba_marseille","lat":43.293259,"lon":5.371586,"is_reserved":false,"is_disabled":false,"rental_uris":{"android":"levelo://app?vid=8f7691d8-75a0-4810-8e2d-ccd6b48b0b7d","ios":"levelo://app?vid=8f7691d8-75a0-4810-8e2d-ccd6b48b0b7d"},"vehicle_type_id":"4","last_reported":1717344525,"current_range_meters":4000,"station_id":"ce4bgh92rcd13ifvqb40","pricing_plan_id":"cebpf4jnsgd1na2vs0mg"},{"bike_id":"8bd55be1-8930-4585-91a6-1662fff6cc05","system_id":"levelo_inurba_marseille","lat":43.29273,"lon":5.36837,"is_reserved":false,"is_disabled":false,"rental_uris":{"android":"levelo://app?vid=8bd55be1-8930-4585-91a6-1662fff6cc05","ios":"levelo://app?vid=8bd55be1-8930-4585-91a6-1662fff6cc05"},"vehicle_type_id":"4","last_reported":1717344525,"current_range_meters":28400,"station_id":"ce4bhbp2rcd13ifvqesg","pricing_plan_id":"cebpf4jnsgd1na2vs0mg"},{"bike_id":"fccfb0f1-2ad1-465f-aa1c-da61450983be","system_id":"levelo_inurba_marseille","lat":43.292749,"lon":5.368402,"is_reserved":false,"is_disabled":false,"rental_uris":{"android":"levelo://app?vid=fccfb0f1-2ad1-465f-aa1c-da61450983be","ios":"levelo://app?vid=fccfb0f1-2ad1-465f-aa1c-da61450983be"},"vehicle_type_id":"4","last_reported":1717344525,"current_range_meters":27600,"station_id":"ce4bhbp2rcd13ifvqesg","pricing_plan_id":"cebpf4jnsgd1na2vs0mg"},{"bike_id":"264d9589-745c-4a27-8cc3-dec1334db00f","system_id":"levelo_inurba_marseille","lat":43.292749,"lon":5.368402,"is_reserved":false,"is_disabled":false,"rental_uris":{"android":"levelo://app?vid=264d9589-745c-4a27-8cc3-dec1334db00f","ios":"levelo://app?vid=264d9589-745c-4a27-8cc3-dec1334db00f"},"vehicle_type_id":"4","last_reported":1717344525,"current_range_meters":26800,"station_id":"ce4bhbp2rcd13ifvqesg","pricing_plan_id":"cebpf4jnsgd1na2vs0mg"},{"bike_id":"821d9fb6-a40d-4a4d-8d53-870ffa0ae70c","system_id":"levelo_inurba_marseille","lat":43.292749,"lon":5.368402,"is_reserved":false,"is_disabled":false,"rental_uris":{"android":"levelo://app?vid=821d9fb6-a40d-4a4d-8d53-870ffa0ae70c","ios":"levelo://app?vid=821d9fb6-a40d-4a4d-8d53-870ffa0ae70c"},"vehicle_type_id":"4","last_reported":1717344525,"current_range_meters":28400,"station_id":"ce4bhbp2rcd13ifvqesg","pricing_plan_id":"cebpf4jnsgd1na2vs0mg"},{"bike_id":"ed3d0f12-282d-4214-92b3-22f2ab70bb08","system_id":"levelo_inurba_marseille","lat":43.292749,"lon":5.368402,"is_reserved":false,"is_disabled":false,"rental_uris":{"android":"levelo://app?vid=ed3d0f12-282d-4214-92b3-22f2ab70bb08","ios":"levelo://app?vid=ed3d0f12-282d-4214-92b3-22f2ab70bb08"},"vehicle_type_id":"4","last_reported":1717344525,"current_range_meters":12800,"station_id":"ce4bhbp2rcd13ifvqesg","pricing_plan_id":"cebpf4jnsgd1na2vs0mg"},{"bike_id":"4302636a-8ffc-4cbb-aae7-e0b282fda380","system_id":"levelo_inurba_marseille","lat":43.309589,"lon":5.390258,"is_reserved":false,"is_disabled":false,"rental_uris":{"android":"levelo://app?vid=4302636a-8ffc-4cbb-aae7-e0b282fda380","ios":"levelo://app?vid=4302636a-8ffc-4cbb-aae7-e0b282fda380"},"vehicle_type_id":"4","last_reported":1717344525,"current_range_meters":0,"station_id":"ce4bgup2rcd13ifvqco0","pricing_plan_id":"cebpf4jnsgd1na2vs0mg"},{"bike_id":"637f36b3-e267-4b0c-8e98-232b1c7f1cd5","system_id":"levelo_inurba_marseille","lat":43.305994,"lon":5.393687,"is_reserved":false,"is_disabled":false,"rental_uris":{"android":"levelo://app?vid=637f36b3-e267-4b0c-8e98-232b1c7f1cd5","ios":"levelo://app?vid=637f36b3-e267-4b0c-8e98-232b1c7f1cd5"},"vehicle_type_id":"4","last_reported":1717344525,"current_range_meters":3600,"station_id":"ce4bh0p2rcd13ifvqd80","pricing_plan_id":"cebpf4jnsgd1na2vs0mg"},{"bike_id":"d6e93422-042f-4916-ac5f-3a959b60f281","system_id":"levelo_inurba_marseille","lat":43.30308,"lon":5.39197,"is_reserved":false,"is_disabled":false,"rental_uris":{"android":"levelo://app?vid=d6e93422-042f-4916-ac5f-3a959b60f281","ios":"levelo://app?vid=d6e93422-042f-4916-ac5f-3a959b60f281"},"vehicle_type_id":"4","last_reported":1717344525,"current_range_meters":0,"station_id":"ce4bgkh2rcd13ifvqbk0","pricing_plan_id":"cebpf4jnsgd1na2vs0mg"},{"bike_id":"8a14c2ea-ad1d-48a8-8099-917e21b2dc2c","system_id":"levelo_inurba_marseille","lat":43.3032,"lon":5.39206,"is_reserved":false,"is_disabled":false,"rental_uris":{"android":"levelo://app?vid=8a14c2ea-ad1d-48a8-8099-917e21b2dc2c","ios":"levelo://app?vid=8a14c2ea-ad1d-48a8-8099-917e21b2dc2c"},"vehicle_type_id":"4","last_reported":1717344525,"current_range_meters":21600,"station_id":"ce4bgkh2rcd13ifvqbk0","pricing_plan_id":"cebpf4jnsgd1na2vs0mg"},{"bike_id":"004fdcb7-cade-4034-b229-f5cc9654896b","system_id":"levelo_inurba_marseille","lat":43.302992,"lon":5.392136,"is_reserved":false,"is_disabled":false,"rental_uris":{"android":"levelo://app?vid=004fdcb7-cade-4034-b229-f5cc9654896b","ios":"levelo://app?vid=004fdcb7-cade-4034-b229-f5cc9654896b"},"vehicle_type_id":"4","last_reported":1717344525,"current_range_meters":31200,"station_id":"ce4bgkh2rcd13ifvqbk0","pricing_plan_id":"cebpf4jnsgd1na2vs0mg"},{"bike_id":"81b2e167-32e5-4e0b-badd-efa699a6bece","system_id":"levelo_inurba_marseille","lat":43.303002,"lon":5.392142,"is_reserved":false,"is_disabled":false,"rental_uris":{"android":"levelo://app?vid=81b2e167-32e5-4e0b-badd-efa699a6bece","ios":"levelo://app?vid=81b2e167-32e5-4e0b-badd-efa699a6bece"},"vehicle_type_id":"4","last_reported":1717344525,"current_range_meters":31200,"station_id":"ce4bgkh2rcd13ifvqbk0","pricing_plan_id":"cebpf4jnsgd1na2vs0mg"},{"bike_id":"541c7351-8df5-4b93-9c52-a1f630411d67","system_id":"levelo_inurba_marseille","lat":43.292161,"lon":5.363267,"is_reserved":false,"is_disabled":false,"rental_uris":{"android":"levelo://app?vid=541c7351-8df5-4b93-9c52-a1f630411d67","ios":"levelo://app?vid=541c7351-8df5-4b93-9c52-a1f630411d67"},"vehicle_type_id":"4","last_reported":1717344525,"current_range_meters":0,"station_id":"","pricing_plan_id":"cebpf4jnsgd1na2vs0mg"},{"bike_id":"6e718009-90ad-4e69-b2d0-df30878953bc","system_id":"levelo_inurba_marseille","lat":43.302992,"lon":5.392136,"is_reserved":false,"is_disabled":false,"rental_uris":{"android":"levelo://app?vid=6e718009-90ad-4e69-b2d0-df30878953bc","ios":"levelo://app?vid=6e718009-90ad-4e69-b2d0-df30878953bc"},"vehicle_type_id":"4","last_reported":1717344525,"current_range_meters":0,"station_id":"ce4bgkh2rcd13ifvqbk0","pricing_plan_id":"cebpf4jnsgd1na2vs0mg"},{"bike_id":"a6e4eeb8-326a-4a6a-a841-afa445d29e4d","system_id":"levelo_inurba_marseille","lat":43.30296,"lon":5.39208,"is_reserved":false,"is_disabled":false,"rental_uris":{"android":"levelo://app?vid=a6e4eeb8-326a-4a6a-a841-afa445d29e4d","ios":"levelo://app?vid=a6e4eeb8-326a-4a6a-a841-afa445d29e4d"},"vehicle_type_id":"4","last_reported":1717344525,"current_range_meters":22400,"station_id":"ce4bgkh2rcd13ifvqbk0","pricing_plan_id":"cebpf4jnsgd1na2vs0mg"},{"bike_id":"75d8babc-02ae-4523-89e7-216d2817b66a","system_id":"levelo_inurba_marseille","lat":43.298764,"lon":5.388973,"is_reserved":false,"is_disabled":false,"rental_uris":{"android":"levelo://app?vid=75d8babc-02ae-4523-89e7-216d2817b66a","ios":"levelo://app?vid=75d8babc-02ae-4523-89e7-216d2817b66a"},"vehicle_type_id":"4","last_reported":1717344525,"current_range_meters":0,"station_id":"ce4bh392rcd13ifvqdl0","pricing_plan_id":"cebpf4jnsgd1na2vs0mg"},{"bike_id":"7fac36e8-5db2-41e8-a571-7f9ec2ee8526","system_id":"levelo_inurba_marseille","lat":43.2936,"lon":5.37835,"is_reserved":false,"is_disabled":false,"rental_uris":{"android":"levelo://app?vid=7fac36e8-5db2-41e8-a571-7f9ec2ee8526","ios":"levelo://app?vid=7fac36e8-5db2-41e8-a571-7f9ec2ee8526"},"vehicle_type_id":"4","last_reported":1717344525,"current_range_meters":13600,"station_id":"ce4bgjh2rcd13ifvqbf0","pricing_plan_id":"cebpf4jnsgd1na2vs0mg"},{"bike_id":"4c52d498-6dd7-4325-8268-2ebbe11a4968","system_id":"levelo_inurba_marseille","lat":43.30085,"lon":5.390856,"is_reserved":false,"is_disabled":false,"rental_uris":{"android":"levelo://app?vid=4c52d498-6dd7-4325-8268-2ebbe11a4968","ios":"levelo://app?vid=4c52d498-6dd7-4325-8268-2ebbe11a4968"},"vehicle_type_id":"4","last_reported":1717344525,"current_range_meters":31200,"station_id":"ce4bh192rcd13ifvqdb0","pricing_plan_id":"cebpf4jnsgd1na2vs0mg"},{"bike_id":"f7d155aa-6f01-4184-a08c-1c2995c8749b","system_id":"levelo_inurba_marseille","lat":43.292276,"lon":5.360646,"is_reserved":false,"is_disabled":false,"rental_uris":{"android":"levelo://app?vid=f7d155aa-6f01-4184-a08c-1c2995c8749b","ios":"levelo://app?vid=f7d155aa-6f01-4184-a08c-1c2995c8749b"},"vehicle_type_id":"4","last_reported":1717344525,"current_range_meters":22400,"station_id":"ce4bhbh2rcd13ifvqeqg","pricing_plan_id":"cebpf4jnsgd1na2vs0mg"},{"bike_id":"ddac518c-10ce-481e-bbbd-48e88c6784e1","system_id":"levelo_inurba_marseille","lat":43.30085,"lon":5.390856,"is_reserved":false,"is_disabled":false,"rental_uris":{"android":"levelo://app?vid=ddac518c-10ce-481e-bbbd-48e88c6784e1","ios":"levelo://app?vid=ddac518c-10ce-481e-bbbd-48e88c6784e1"},"vehicle_type_id":"4","last_reported":1717344525,"current_range_meters":23600,"station_id":"ce4bh192rcd13ifvqdb0","pricing_plan_id":"cebpf4jnsgd1na2vs0mg"},{"bike_id":"d7bc57a2-a90f-4dda-bee9-a21e8c05ad06","system_id":"levelo_inurba_marseille","lat":43.298764,"lon":5.388973,"is_reserved":false,"is_disabled":false,"rental_uris":{"android":"levelo://app?vid=d7bc57a2-a90f-4dda-bee9-a21e8c05ad06","ios":"levelo://app?vid=d7bc57a2-a90f-4dda-bee9-a21e8c05ad06"},"vehicle_type_id":"4","last_reported":1717344525,"current_range_meters":15600,"station_id":"ce4bh392rcd13ifvqdl0","pricing_plan_id":"cebpf4jnsgd1na2vs0mg"},{"bike_id":"14027279-adb1-4c13-94df-082f2cba02a7","system_id":"levelo_inurba_marseille","lat":43.298764,"lon":5.388973,"is_reserved":false,"is_disabled":false,"rental_uris":{"android":"levelo://app?vid=14027279-adb1-4c13-94df-082f2cba02a7","ios":"levelo://app?vid=14027279-adb1-4c13-94df-082f2cba02a7"},"vehicle_type_id":"4","last_reported":1717344525,"current_range_meters":18800,"station_id":"ce4bh392rcd13ifvqdl0","pricing_plan_id":"cebpf4jnsgd1na2vs0mg"},{"bike_id":"0107d8bc-8a74-4655-a057-cfb30a1b44df","system_id":"levelo_inurba_marseille","lat":43.313291,"lon":5.396838,"is_reserved":false,"is_disabled":false,"rental_uris":{"android":"levelo://app?vid=0107d8bc-8a74-4655-a057-cfb30a1b44df","ios":"levelo://app?vid=0107d8bc-8a74-4655-a057-cfb30a1b44df"},"vehicle_type_id":"4","last_reported":1717344525,"current_range_meters":4800,"station_id":"ce4bgvp2rcd13ifvqcu0","pricing_plan_id":"cebpf4jnsgd1na2vs0mg"},{"bike_id":"5490dd24-e620-420b-9d4c-2beb9d557b36","system_id":"levelo_inurba_marseille","lat":43.309038,"lon":5.396546,"is_reserved":false,"is_disabled":false,"rental_uris":{"android":"levelo://app?vid=5490dd24-e620-420b-9d4c-2beb9d557b36","ios":"levelo://app?vid=5490dd24-e620-420b-9d4c-2beb9d557b36"},"vehicle_type_id":"4","last_reported":1717344525,"current_range_meters":2400,"station_id":"ce4bh012rcd13ifvqcv0","pricing_plan_id":"cebpf4jnsgd1na2vs0mg"},{"bike_id":"247f89c4-a5af-41c6-a1c9-4ee9fd223bf3","system_id":"levelo_inurba_marseille","lat":43.29529,"lon":5.385581,"is_reserved":false,"is_disabled":false,"rental_uris":{"android":"levelo://app?vid=247f89c4-a5af-41c6-a1c9-4ee9fd223bf3","ios":"levelo://app?vid=247f89c4-a5af-41c6-a1c9-4ee9fd223bf3"},"vehicle_type_id":"4","last_reported":1717344525,"current_range_meters":16400,"station_id":"ce4bgih2rcd13ifvqba0","pricing_plan_id":"cebpf4jnsgd1na2vs0mg"},{"bike_id":"88d85188-9462-4941-8600-f60d2bfd0bdf","system_id":"levelo_inurba_marseille","lat":43.3132,"lon":5.39688,"is_reserved":false,"is_disabled":false,"rental_uris":{"android":"levelo://app?vid=88d85188-9462-4941-8600-f60d2bfd0bdf","ios":"levelo://app?vid=88d85188-9462-4941-8600-f60d2bfd0bdf"},"vehicle_type_id":"4","last_reported":1717344525,"current_range_meters":18400,"station_id":"","pricing_plan_id":"cebpf4jnsgd1na2vs0mg"},{"bike_id":"29aa0d3b-af83-4559-ae14-39a8831186e8","system_id":"levelo_inurba_marseille","lat":43.291994,"lon":5.357886,"is_reserved":false,"is_disabled":false,"rental_uris":{"android":"levelo://app?vid=29aa0d3b-af83-4559-ae14-39a8831186e8","ios":"levelo://app?vid=29aa0d3b-af83-4559-ae14-39a8831186e8"},"vehicle_type_id":"4","last_reported":1717344525,"current_range_meters":0,"station_id":"ce4bhb12rcd13ifvqel0","pricing_plan_id":"cebpf4jnsgd1na2vs0mg"},{"bike_id":"67df5e32-bf62-406b-9715-0b4f7348f322","system_id":"levelo_inurba_marseille","lat":43.309038,"lon":5.396546,"is_reserved":false,"is_disabled":false,"rental_uris":{"android":"levelo://app?vid=67df5e32-bf62-406b-9715-0b4f7348f322","ios":"levelo://app?vid=67df5e32-bf62-406b-9715-0b4f7348f322"},"vehicle_type_id":"4","last_reported":1717344525,"current_range_meters":19200,"station_id":"ce4bh012rcd13ifvqcv0","pricing_plan_id":"cebpf4jnsgd1na2vs0mg"},{"bike_id":"4d3c82a3-c6c6-4d5c-a61a-301f82f9bcdc","system_id":"levelo_inurba_marseille","lat":43.31333,"lon":5.39692,"is_reserved":false,"is_disabled":false,"rental_uris":{"android":"levelo://app?vid=4d3c82a3-c6c6-4d5c-a61a-301f82f9bcdc","ios":"levelo://app?vid=4d3c82a3-c6c6-4d5c-a61a-301f82f9bcdc"},"vehicle_type_id":"4","last_reported":1717344525,"current_range_meters":28000,"station_id":"ce4bgvp2rcd13ifvqcu0","pricing_plan_id":"cebpf4jnsgd1na2vs0mg"},{"bike_id":"8a70e2ca-1c1f-4416-a7b8-577c7052f57e","system_id":"levelo_inurba_marseille","lat":43.313291,"lon":5.396838,"is_reserved":false,"is_disabled":false,"rental_uris":{"android":"levelo://app?vid=8a70e2ca-1c1f-4416-a7b8-577c7052f57e","ios":"levelo://app?vid=8a70e2ca-1c1f-4416-a7b8-577c7052f57e"},"vehicle_type_id":"4","last_reported":1717344525,"current_range_meters":27600,"station_id":"ce4bgvp2rcd13ifvqcu0","pricing_plan_id":"cebpf4jnsgd1na2vs0mg"},{"bike_id":"ec216ce6-5c0a-4a27-af33-60f3c725e272","system_id":"levelo_inurba_marseille","lat":43.313291,"lon":5.396838,"is_reserved":false,"is_disabled":false,"rental_uris":{"android":"levelo://app?vid=ec216ce6-5c0a-4a27-af33-60f3c725e272","ios":"levelo://app?vid=ec216ce6-5c0a-4a27-af33-60f3c725e272"},"vehicle_type_id":"4","last_reported":1717344525,"current_range_meters":4000,"station_id":"ce4bgvp2rcd13ifvqcu0","pricing_plan_id":"cebpf4jnsgd1na2vs0mg"},{"bike_id":"e6b851dc-68b6-47b8-9f3a-3ec80018f39b","system_id":"levelo_inurba_marseille","lat":43.29529,"lon":5.385581,"is_reserved":false,"is_disabled":false,"rental_uris":{"android":"levelo://app?vid=e6b851dc-68b6-47b8-9f3a-3ec80018f39b","ios":"levelo://app?vid=e6b851dc-68b6-47b8-9f3a-3ec80018f39b"},"vehicle_type_id":"4","last_reported":1717344525,"current_range_meters":8400,"station_id":"ce4bgih2rcd13ifvqba0","pricing_plan_id":"cebpf4jnsgd1na2vs0mg"},{"bike_id":"2f9d9895-20ca-4c91-a56b-5caf9b8c90bb","system_id":"levelo_inurba_marseille","lat":43.309038,"lon":5.396546,"is_reserved":false,"is_disabled":false,"rental_uris":{"android":"levelo://app?vid=2f9d9895-20ca-4c91-a56b-5caf9b8c90bb","ios":"levelo://app?vid=2f9d9895-20ca-4c91-a56b-5caf9b8c90bb"},"vehicle_type_id":"4","last_reported":1717344525,"current_range_meters":1600,"station_id":"ce4bh012rcd13ifvqcv0","pricing_plan_id":"cebpf4jnsgd1na2vs0mg"},{"bike_id":"2d6b3a17-08fe-4a70-b823-e118e0bbce91","system_id":"levelo_inurba_marseille","lat":43.309038,"lon":5.396546,"is_reserved":false,"is_disabled":false,"rental_uris":{"android":"levelo://app?vid=2d6b3a17-08fe-4a70-b823-e118e0bbce91","ios":"levelo://app?vid=2d6b3a17-08fe-4a70-b823-e118e0bbce91"},"vehicle_type_id":"4","last_reported":1717344525,"current_range_meters":10400,"station_id":"ce4bh012rcd13ifvqcv0","pricing_plan_id":"cebpf4jnsgd1na2vs0mg"},{"bike_id":"7a619e24-770b-40cb-950f-f6703f3ae0c1","system_id":"levelo_inurba_marseille","lat":43.309047,"lon":5.396551,"is_reserved":false,"is_disabled":false,"rental_uris":{"android":"levelo://app?vid=7a619e24-770b-40cb-950f-f6703f3ae0c1","ios":"levelo://app?vid=7a619e24-770b-40cb-950f-f6703f3ae0c1"},"vehicle_type_id":"4","last_reported":1717344525,"current_range_meters":8800,"station_id":"ce4bh012rcd13ifvqcv0","pricing_plan_id":"cebpf4jnsgd1na2vs0mg"},{"bike_id":"41be1cd5-ee19-4ea4-8569-f3ebe41ae9d3","system_id":"levelo_inurba_marseille","lat":43.295511,"lon":5.385561,"is_reserved":false,"is_disabled":false,"rental_uris":{"android":"levelo://app?vid=41be1cd5-ee19-4ea4-8569-f3ebe41ae9d3","ios":"levelo://app?vid=41be1cd5-ee19-4ea4-8569-f3ebe41ae9d3"},"vehicle_type_id":"4","last_reported":1717344525,"current_range_meters":14400,"station_id":"ce4bgih2rcd13ifvqba0","pricing_plan_id":"cebpf4jnsgd1na2vs0mg"},{"bike_id":"5d9aedb5-4c94-421e-8926-3a63945bee51","system_id":"levelo_inurba_marseille","lat":43.29529,"lon":5.385581,"is_reserved":false,"is_disabled":false,"rental_uris":{"android":"levelo://app?vid=5d9aedb5-4c94-421e-8926-3a63945bee51","ios":"levelo://app?vid=5d9aedb5-4c94-421e-8926-3a63945bee51"},"vehicle_type_id":"4","last_reported":1717344525,"current_range_meters":6400,"station_id":"ce4bgih2rcd13ifvqba0","pricing_plan_id":"cebpf4jnsgd1na2vs0mg"},{"bike_id":"8454b2b7-ae92-4a30-a12a-fe644ddb82ac","system_id":"levelo_inurba_marseille","lat":43.309047,"lon":5.396551,"is_reserved":false,"is_disabled":false,"rental_uris":{"android":"levelo://app?vid=8454b2b7-ae92-4a30-a12a-fe644ddb82ac","ios":"levelo://app?vid=8454b2b7-ae92-4a30-a12a-fe644ddb82ac"},"vehicle_type_id":"4","last_reported":1717344525,"current_range_meters":15600,"station_id":"ce4bh012rcd13ifvqcv0","pricing_plan_id":"cebpf4jnsgd1na2vs0mg"},{"bike_id":"92d90cdc-297c-44d4-a692-694d9bd2f42b","system_id":"levelo_inurba_marseille","lat":43.29529,"lon":5.385581,"is_reserved":false,"is_disabled":false,"rental_uris":{"android":"levelo://app?vid=92d90cdc-297c-44d4-a692-694d9bd2f42b","ios":"levelo://app?vid=92d90cdc-297c-44d4-a692-694d9bd2f42b"},"vehicle_type_id":"4","last_reported":1717344525,"current_range_meters":26000,"station_id":"ce4bgih2rcd13ifvqba0","pricing_plan_id":"cebpf4jnsgd1na2vs0mg"},{"bike_id":"93df4ab7-311c-4047-82d0-266fedec7cb7","system_id":"levelo_inurba_marseille","lat":43.29535,"lon":5.38542,"is_reserved":false,"is_disabled":false,"rental_uris":{"android":"levelo://app?vid=93df4ab7-311c-4047-82d0-266fedec7cb7","ios":"levelo://app?vid=93df4ab7-311c-4047-82d0-266fedec7cb7"},"vehicle_type_id":"4","last_reported":1717344525,"current_range_meters":14800,"station_id":"ce4bgih2rcd13ifvqba0","pricing_plan_id":"cebpf4jnsgd1na2vs0mg"},{"bike_id":"9cf0532b-98a1-42da-b52d-971459a8efc2","system_id":"levelo_inurba_marseille","lat":43.29529,"lon":5.385581,"is_reserved":false,"is_disabled":false,"rental_uris":{"android":"levelo://app?vid=9cf0532b-98a1-42da-b52d-971459a8efc2","ios":"levelo://app?vid=9cf0532b-98a1-42da-b52d-971459a8efc2"},"vehicle_type_id":"4","last_reported":1717344525,"current_range_meters":11600,"station_id":"ce4bgih2rcd13ifvqba0","pricing_plan_id":"cebpf4jnsgd1na2vs0mg"},{"bike_id":"1427fc17-1c73-4d1d-baec-adf8f2925cb6","system_id":"levelo_inurba_marseille","lat":43.29529,"lon":5.385581,"is_reserved":false,"is_disabled":false,"rental_uris":{"android":"levelo://app?vid=1427fc17-1c73-4d1d-baec-adf8f2925cb6","ios":"levelo://app?vid=1427fc17-1c73-4d1d-baec-adf8f2925cb6"},"vehicle_type_id":"4","last_reported":1717344525,"current_range_meters":27600,"station_id":"ce4bgih2rcd13ifvqba0","pricing_plan_id":"cebpf4jnsgd1na2vs0mg"},{"bike_id":"d16e81ff-d18c-467e-a344-3e2568ad8872","system_id":"levelo_inurba_marseille","lat":43.29529,"lon":5.385581,"is_reserved":false,"is_disabled":false,"rental_uris":{"android":"levelo://app?vid=d16e81ff-d18c-467e-a344-3e2568ad8872","ios":"levelo://app?vid=d16e81ff-d18c-467e-a344-3e2568ad8872"},"vehicle_type_id":"4","last_reported":1717344525,"current_range_meters":21600,"station_id":"ce4bgih2rcd13ifvqba0","pricing_plan_id":"cebpf4jnsgd1na2vs0mg"},{"bike_id":"3522f09c-9d45-42a4-a967-e7b509cb5c13","system_id":"levelo_inurba_marseille","lat":43.29529,"lon":5.385581,"is_reserved":false,"is_disabled":false,"rental_uris":{"android":"levelo://app?vid=3522f09c-9d45-42a4-a967-e7b509cb5c13","ios":"levelo://app?vid=3522f09c-9d45-42a4-a967-e7b509cb5c13"},"vehicle_type_id":"4","last_reported":1717344525,"current_range_meters":12800,"station_id":"ce4bgih2rcd13ifvqba0","pricing_plan_id":"cebpf4jnsgd1na2vs0mg"},{"bike_id":"ce6c4163-0df9-4b8a-b3ec-eeedd5e1321e","system_id":"levelo_inurba_marseille","lat":43.29529,"lon":5.385581,"is_reserved":false,"is_disabled":false,"rental_uris":{"android":"levelo://app?vid=ce6c4163-0df9-4b8a-b3ec-eeedd5e1321e","ios":"levelo://app?vid=ce6c4163-0df9-4b8a-b3ec-eeedd5e1321e"},"vehicle_type_id":"4","last_reported":1717344525,"current_range_meters":28800,"station_id":"ce4bgih2rcd13ifvqba0","pricing_plan_id":"cebpf4jnsgd1na2vs0mg"},{"bike_id":"36bd49a5-bff8-4ee8-98e9-1dac350f17c3","system_id":"levelo_inurba_marseille","lat":43.29529,"lon":5.385581,"is_reserved":false,"is_disabled":false,"rental_uris":{"android":"levelo://app?vid=36bd49a5-bff8-4ee8-98e9-1dac350f17c3","ios":"levelo://app?vid=36bd49a5-bff8-4ee8-98e9-1dac350f17c3"},"vehicle_type_id":"4","last_reported":1717344525,"current_range_meters":14800,"station_id":"ce4bgih2rcd13ifvqba0","pricing_plan_id":"cebpf4jnsgd1na2vs0mg"},{"bike_id":"b087948c-74b0-41d3-af11-f011327b8779","system_id":"levelo_inurba_marseille","lat":43.29529,"lon":5.385581,"is_reserved":false,"is_disabled":false,"rental_uris":{"android":"levelo://app?vid=b087948c-74b0-41d3-af11-f011327b8779","ios":"levelo://app?vid=b087948c-74b0-41d3-af11-f011327b8779"},"vehicle_type_id":"4","last_reported":1717344525,"current_range_meters":28400,"station_id":"ce4bgih2rcd13ifvqba0","pricing_plan_id":"cebpf4jnsgd1na2vs0mg"},{"bike_id":"1b463e33-ce10-4e03-bddd-414d7fe54958","system_id":"levelo_inurba_marseille","lat":43.29383,"lon":5.38316,"is_reserved":false,"is_disabled":false,"rental_uris":{"android":"levelo://app?vid=1b463e33-ce10-4e03-bddd-414d7fe54958","ios":"levelo://app?vid=1b463e33-ce10-4e03-bddd-414d7fe54958"},"vehicle_type_id":"4","last_reported":1717344525,"current_range_meters":8400,"station_id":"","pricing_plan_id":"cebpf4jnsgd1na2vs0mg"},{"bike_id":"4e05977a-e4c5-4e6c-802b-3c770861ea06","system_id":"levelo_inurba_marseille","lat":43.290677,"lon":5.371624,"is_reserved":false,"is_disabled":false,"rental_uris":{"android":"levelo://app?vid=4e05977a-e4c5-4e6c-802b-3c770861ea06","ios":"levelo://app?vid=4e05977a-e4c5-4e6c-802b-3c770861ea06"},"vehicle_type_id":"4","last_reported":1717344525,"current_range_meters":6000,"station_id":"ce4bh5p2rcd13ifvqe4g","pricing_plan_id":"cebpf4jnsgd1na2vs0mg"},{"bike_id":"e9faa653-2efd-45ed-a3a2-671d5139ccb6","system_id":"levelo_inurba_marseille","lat":43.290606,"lon":5.371948,"is_reserved":false,"is_disabled":false,"rental_uris":{"android":"levelo://app?vid=e9faa653-2efd-45ed-a3a2-671d5139ccb6","ios":"levelo://app?vid=e9faa653-2efd-45ed-a3a2-671d5139ccb6"},"vehicle_type_id":"4","last_reported":1717344525,"current_range_meters":9200,"station_id":"ce4bh5p2rcd13ifvqe4g","pricing_plan_id":"cebpf4jnsgd1na2vs0mg"},{"bike_id":"a8fa1721-cee9-4b06-a141-333800fce390","system_id":"levelo_inurba_marseille","lat":43.289184,"lon":5.366408,"is_reserved":false,"is_disabled":false,"rental_uris":{"android":"levelo://app?vid=a8fa1721-cee9-4b06-a141-333800fce390","ios":"levelo://app?vid=a8fa1721-cee9-4b06-a141-333800fce390"},"vehicle_type_id":"4","last_reported":1717344525,"current_range_meters":16800,"station_id":"ce4bhap2rcd13ifvqek0","pricing_plan_id":"cebpf4jnsgd1na2vs0mg"},{"bike_id":"bbc83919-4447-4f6b-b030-44c1e162a638","system_id":"levelo_inurba_marseille","lat":43.302008,"lon":5.394694,"is_reserved":false,"is_disabled":false,"rental_uris":{"android":"levelo://app?vid=bbc83919-4447-4f6b-b030-44c1e162a638","ios":"levelo://app?vid=bbc83919-4447-4f6b-b030-44c1e162a638"},"vehicle_type_id":"4","last_reported":1717344525,"current_range_meters":4800,"station_id":"ce4bh0p2rcd13ifvqd70","pricing_plan_id":"cebpf4jnsgd1na2vs0mg"},{"bike_id":"ed59e8d8-e0aa-4533-b29a-06edf27dca46","system_id":"levelo_inurba_marseille","lat":43.289184,"lon":5.366408,"is_reserved":false,"is_disabled":false,"rental_uris":{"android":"levelo://app?vid=ed59e8d8-e0aa-4533-b29a-06edf27dca46","ios":"levelo://app?vid=ed59e8d8-e0aa-4533-b29a-06edf27dca46"},"vehicle_type_id":"4","last_reported":1717344525,"current_range_meters":800,"station_id":"ce4bhap2rcd13ifvqek0","pricing_plan_id":"cebpf4jnsgd1na2vs0mg"},{"bike_id":"cb673d92-09cb-4e6c-987f-ed00eabfb2f8","system_id":"levelo_inurba_marseille","lat":43.289983,"lon":5.37266,"is_reserved":false,"is_disabled":false,"rental_uris":{"android":"levelo://app?vid=cb673d92-09cb-4e6c-987f-ed00eabfb2f8","ios":"levelo://app?vid=cb673d92-09cb-4e6c-987f-ed00eabfb2f8"},"vehicle_type_id":"4","last_reported":1717344525,"current_range_meters":0,"station_id":"","pricing_plan_id":"cebpf4jnsgd1na2vs0mg"},{"bike_id":"97b62557-7326-404a-94db-b5ad5f05f836","system_id":"levelo_inurba_marseille","lat":43.294162,"lon":5.386292,"is_reserved":false,"is_disabled":false,"rental_uris":{"android":"levelo://app?vid=97b62557-7326-404a-94db-b5ad5f05f836","ios":"levelo://app?vid=97b62557-7326-404a-94db-b5ad5f05f836"},"vehicle_type_id":"4","last_reported":1717344525,"current_range_meters":0,"station_id":"ce4bh2h2rcd13ifvqdh0","pricing_plan_id":"cebpf4jnsgd1na2vs0mg"},{"bike_id":"4ad6040d-758b-4cd2-b55d-813ac8ebc790","system_id":"levelo_inurba_marseille","lat":43.294207,"lon":5.386061,"is_reserved":false,"is_disabled":false,"rental_uris":{"android":"levelo://app?vid=4ad6040d-758b-4cd2-b55d-813ac8ebc790","ios":"levelo://app?vid=4ad6040d-758b-4cd2-b55d-813ac8ebc790"},"vehicle_type_id":"4","last_reported":1717344525,"current_range_meters":1600,"station_id":"ce4bh2h2rcd13ifvqdh0","pricing_plan_id":"cebpf4jnsgd1na2vs0mg"},{"bike_id":"e6c0422f-49fe-4fc9-a83d-0b2f4029bf62","system_id":"levelo_inurba_marseille","lat":43.29422,"lon":5.38615,"is_reserved":false,"is_disabled":false,"rental_uris":{"android":"levelo://app?vid=e6c0422f-49fe-4fc9-a83d-0b2f4029bf62","ios":"levelo://app?vid=e6c0422f-49fe-4fc9-a83d-0b2f4029bf62"},"vehicle_type_id":"4","last_reported":1717344525,"current_range_meters":8400,"station_id":"ce4bh2h2rcd13ifvqdh0","pricing_plan_id":"cebpf4jnsgd1na2vs0mg"},{"bike_id":"0d9d9748-4e05-49ab-a69c-0aefe10e4a42","system_id":"levelo_inurba_marseille","lat":43.29416,"lon":5.38613,"is_reserved":false,"is_disabled":false,"rental_uris":{"android":"levelo://app?vid=0d9d9748-4e05-49ab-a69c-0aefe10e4a42","ios":"levelo://app?vid=0d9d9748-4e05-49ab-a69c-0aefe10e4a42"},"vehicle_type_id":"4","last_reported":1717344525,"current_range_meters":0,"station_id":"ce4bh2h2rcd13ifvqdh0","pricing_plan_id":"cebpf4jnsgd1na2vs0mg"},{"bike_id":"580131cd-1088-4958-aefc-a7594e72a11e","system_id":"levelo_inurba_marseille","lat":43.29419,"lon":5.38621,"is_reserved":false,"is_disabled":false,"rental_uris":{"android":"levelo://app?vid=580131cd-1088-4958-aefc-a7594e72a11e","ios":"levelo://app?vid=580131cd-1088-4958-aefc-a7594e72a11e"},"vehicle_type_id":"4","last_reported":1717344525,"current_range_meters":2800,"station_id":"ce4bh2h2rcd13ifvqdh0","pricing_plan_id":"cebpf4jnsgd1na2vs0mg"},{"bike_id":"dc2d6c1b-86cf-405a-a91b-c3be2e1221b9","system_id":"levelo_inurba_marseille","lat":43.294162,"lon":5.386292,"is_reserved":false,"is_disabled":false,"rental_uris":{"android":"levelo://app?vid=dc2d6c1b-86cf-405a-a91b-c3be2e1221b9","ios":"levelo://app?vid=dc2d6c1b-86cf-405a-a91b-c3be2e1221b9"},"vehicle_type_id":"4","last_reported":1717344525,"current_range_meters":3200,"station_id":"ce4bh2h2rcd13ifvqdh0","pricing_plan_id":"cebpf4jnsgd1na2vs0mg"},{"bike_id":"bd83b6cd-d578-495b-a2c2-f8cf4065df6c","system_id":"levelo_inurba_marseille","lat":43.294204,"lon":5.386235,"is_reserved":false,"is_disabled":false,"rental_uris":{"android":"levelo://app?vid=bd83b6cd-d578-495b-a2c2-f8cf4065df6c","ios":"levelo://app?vid=bd83b6cd-d578-495b-a2c2-f8cf4065df6c"},"vehicle_type_id":"4","last_reported":1717344525,"current_range_meters":0,"station_id":"ce4bh2h2rcd13ifvqdh0","pricing_plan_id":"cebpf4jnsgd1na2vs0mg"},{"bike_id":"6b0227e8-ffd1-4e6a-9353-54782ad360f9","system_id":"levelo_inurba_marseille","lat":43.29413,"lon":5.38615,"is_reserved":false,"is_disabled":false,"rental_uris":{"android":"levelo://app?vid=6b0227e8-ffd1-4e6a-9353-54782ad360f9","ios":"levelo://app?vid=6b0227e8-ffd1-4e6a-9353-54782ad360f9"},"vehicle_type_id":"4","last_reported":1717344525,"current_range_meters":12400,"station_id":"ce4bh2h2rcd13ifvqdh0","pricing_plan_id":"cebpf4jnsgd1na2vs0mg"},{"bike_id":"6cc137b9-3245-4b13-9c48-93b4a371511c","system_id":"levelo_inurba_marseille","lat":43.294129,"lon":5.386211,"is_reserved":false,"is_disabled":false,"rental_uris":{"android":"levelo://app?vid=6cc137b9-3245-4b13-9c48-93b4a371511c","ios":"levelo://app?vid=6cc137b9-3245-4b13-9c48-93b4a371511c"},"vehicle_type_id":"4","last_reported":1717344525,"current_range_meters":8400,"station_id":"ce4bh2h2rcd13ifvqdh0","pricing_plan_id":"cebpf4jnsgd1na2vs0mg"},{"bike_id":"1f559de1-384a-4ba6-acc8-c3b80a0aa8f7","system_id":"levelo_inurba_marseille","lat":43.29415,"lon":5.38626,"is_reserved":false,"is_disabled":false,"rental_uris":{"android":"levelo://app?vid=1f559de1-384a-4ba6-acc8-c3b80a0aa8f7","ios":"levelo://app?vid=1f559de1-384a-4ba6-acc8-c3b80a0aa8f7"},"vehicle_type_id":"4","last_reported":1717344525,"current_range_meters":5200,"station_id":"ce4bh2h2rcd13ifvqdh0","pricing_plan_id":"cebpf4jnsgd1na2vs0mg"},{"bike_id":"3293712f-34b5-4237-99a6-1f6bed6284ef","system_id":"levelo_inurba_marseille","lat":43.289184,"lon":5.366408,"is_reserved":false,"is_disabled":false,"rental_uris":{"android":"levelo://app?vid=3293712f-34b5-4237-99a6-1f6bed6284ef","ios":"levelo://app?vid=3293712f-34b5-4237-99a6-1f6bed6284ef"},"vehicle_type_id":"4","last_reported":1717344525,"current_range_meters":800,"station_id":"ce4bhap2rcd13ifvqek0","pricing_plan_id":"cebpf4jnsgd1na2vs0mg"},{"bike_id":"f44bcc55-b0fb-4ed4-8655-34b6773adc62","system_id":"levelo_inurba_marseille","lat":43.292724,"lon":5.401131,"is_reserved":false,"is_disabled":false,"rental_uris":{"android":"levelo://app?vid=f44bcc55-b0fb-4ed4-8655-34b6773adc62","ios":"levelo://app?vid=f44bcc55-b0fb-4ed4-8655-34b6773adc62"},"vehicle_type_id":"4","last_reported":1717344525,"current_range_meters":10800,"station_id":"ce4bh312rcd13ifvqdk0","pricing_plan_id":"cebpf4jnsgd1na2vs0mg"},{"bike_id":"f6906e28-dad8-4990-8bb8-5a81467eae44","system_id":"levelo_inurba_marseille","lat":43.29407,"lon":5.38624,"is_reserved":false,"is_disabled":false,"rental_uris":{"android":"levelo://app?vid=f6906e28-dad8-4990-8bb8-5a81467eae44","ios":"levelo://app?vid=f6906e28-dad8-4990-8bb8-5a81467eae44"},"vehicle_type_id":"4","last_reported":1717344525,"current_range_meters":11200,"station_id":"ce4bh2h2rcd13ifvqdh0","pricing_plan_id":"cebpf4jnsgd1na2vs0mg"},{"bike_id":"21d68d82-689c-453d-8247-73c603975f64","system_id":"levelo_inurba_marseille","lat":43.289397,"lon":5.364006,"is_reserved":false,"is_disabled":false,"rental_uris":{"android":"levelo://app?vid=21d68d82-689c-453d-8247-73c603975f64","ios":"levelo://app?vid=21d68d82-689c-453d-8247-73c603975f64"},"vehicle_type_id":"4","last_reported":1717344525,"current_range_meters":400,"station_id":"ce4bhc92rcd13ifvqetg","pricing_plan_id":"cebpf4jnsgd1na2vs0mg"},{"bike_id":"94c91f8b-61e9-469e-8456-ca131d41d425","system_id":"levelo_inurba_marseille","lat":43.289184,"lon":5.366408,"is_reserved":false,"is_disabled":false,"rental_uris":{"android":"levelo://app?vid=94c91f8b-61e9-469e-8456-ca131d41d425","ios":"levelo://app?vid=94c91f8b-61e9-469e-8456-ca131d41d425"},"vehicle_type_id":"4","last_reported":1717344525,"current_range_meters":14400,"station_id":"ce4bhap2rcd13ifvqek0","pricing_plan_id":"cebpf4jnsgd1na2vs0mg"},{"bike_id":"99901629-a8bf-4062-8d1b-3361a9385396","system_id":"levelo_inurba_marseille","lat":43.292644,"lon":5.384257,"is_reserved":false,"is_disabled":false,"rental_uris":{"android":"levelo://app?vid=99901629-a8bf-4062-8d1b-3361a9385396","ios":"levelo://app?vid=99901629-a8bf-4062-8d1b-3361a9385396"},"vehicle_type_id":"4","last_reported":1717344525,"current_range_meters":27600,"station_id":"ce4bh692rcd13ifvqea0","pricing_plan_id":"cebpf4jnsgd1na2vs0mg"},{"bike_id":"f9c45c5d-5b8a-4b5c-9ab9-d5c983690928","system_id":"levelo_inurba_marseille","lat":43.292644,"lon":5.384257,"is_reserved":false,"is_disabled":false,"rental_uris":{"android":"levelo://app?vid=f9c45c5d-5b8a-4b5c-9ab9-d5c983690928","ios":"levelo://app?vid=f9c45c5d-5b8a-4b5c-9ab9-d5c983690928"},"vehicle_type_id":"4","last_reported":1717344525,"current_range_meters":14800,"station_id":"ce4bh692rcd13ifvqea0","pricing_plan_id":"cebpf4jnsgd1na2vs0mg"},{"bike_id":"f4099601-98f4-4e49-b39e-3c713535b0f3","system_id":"levelo_inurba_marseille","lat":43.292644,"lon":5.384257,"is_reserved":false,"is_disabled":false,"rental_uris":{"android":"levelo://app?vid=f4099601-98f4-4e49-b39e-3c713535b0f3","ios":"levelo://app?vid=f4099601-98f4-4e49-b39e-3c713535b0f3"},"vehicle_type_id":"4","last_reported":1717344525,"current_range_meters":20800,"station_id":"ce4bh692rcd13ifvqea0","pricing_plan_id":"cebpf4jnsgd1na2vs0mg"},{"bike_id":"0170cd19-8fe5-4dfe-9513-8ad1bcd115f9","system_id":"levelo_inurba_marseille","lat":43.292644,"lon":5.384257,"is_reserved":false,"is_disabled":false,"rental_uris":{"android":"levelo://app?vid=0170cd19-8fe5-4dfe-9513-8ad1bcd115f9","ios":"levelo://app?vid=0170cd19-8fe5-4dfe-9513-8ad1bcd115f9"},"vehicle_type_id":"4","last_reported":1717344525,"current_range_meters":0,"station_id":"ce4bh692rcd13ifvqea0","pricing_plan_id":"cebpf4jnsgd1na2vs0mg"},{"bike_id":"9db0a60c-e86b-42ec-93a4-0bc1a565fece","system_id":"levelo_inurba_marseille","lat":43.292644,"lon":5.384257,"is_reserved":false,"is_disabled":false,"rental_uris":{"android":"levelo://app?vid=9db0a60c-e86b-42ec-93a4-0bc1a565fece","ios":"levelo://app?vid=9db0a60c-e86b-42ec-93a4-0bc1a565fece"},"vehicle_type_id":"4","last_reported":1717344525,"current_range_meters":15200,"station_id":"ce4bh692rcd13ifvqea0","pricing_plan_id":"cebpf4jnsgd1na2vs0mg"},{"bike_id":"eda1e853-73f0-48c8-b51e-161a2e3952a9","system_id":"levelo_inurba_marseille","lat":43.2927,"lon":5.38453,"is_reserved":false,"is_disabled":false,"rental_uris":{"android":"levelo://app?vid=eda1e853-73f0-48c8-b51e-161a2e3952a9","ios":"levelo://app?vid=eda1e853-73f0-48c8-b51e-161a2e3952a9"},"vehicle_type_id":"4","last_reported":1717344525,"current_range_meters":0,"station_id":"ce4bh692rcd13ifvqea0","pricing_plan_id":"cebpf4jnsgd1na2vs0mg"},{"bike_id":"e2409e5f-6888-44d6-aafa-ac04135a5b91","system_id":"levelo_inurba_marseille","lat":43.292644,"lon":5.384257,"is_reserved":false,"is_disabled":false,"rental_uris":{"android":"levelo://app?vid=e2409e5f-6888-44d6-aafa-ac04135a5b91","ios":"levelo://app?vid=e2409e5f-6888-44d6-aafa-ac04135a5b91"},"vehicle_type_id":"4","last_reported":1717344525,"current_range_meters":4400,"station_id":"ce4bh692rcd13ifvqea0","pricing_plan_id":"cebpf4jnsgd1na2vs0mg"},{"bike_id":"06dcef17-7e22-479b-8082-a98fd29caec5","system_id":"levelo_inurba_marseille","lat":43.292563,"lon":5.384278,"is_reserved":false,"is_disabled":false,"rental_uris":{"android":"levelo://app?vid=06dcef17-7e22-479b-8082-a98fd29caec5","ios":"levelo://app?vid=06dcef17-7e22-479b-8082-a98fd29caec5"},"vehicle_type_id":"4","last_reported":1717344525,"current_range_meters":0,"station_id":"ce4bh692rcd13ifvqea0","pricing_plan_id":"cebpf4jnsgd1na2vs0mg"},{"bike_id":"c7339a13-d1e6-4c09-85a7-2c580bdad0d8","system_id":"levelo_inurba_marseille","lat":43.292644,"lon":5.384257,"is_reserved":false,"is_disabled":false,"rental_uris":{"android":"levelo://app?vid=c7339a13-d1e6-4c09-85a7-2c580bdad0d8","ios":"levelo://app?vid=c7339a13-d1e6-4c09-85a7-2c580bdad0d8"},"vehicle_type_id":"4","last_reported":1717344525,"current_range_meters":30400,"station_id":"ce4bh692rcd13ifvqea0","pricing_plan_id":"cebpf4jnsgd1na2vs0mg"},{"bike_id":"e79ad575-3595-48da-bcab-012aa410bf2e","system_id":"levelo_inurba_marseille","lat":43.292644,"lon":5.384257,"is_reserved":false,"is_disabled":false,"rental_uris":{"android":"levelo://app?vid=e79ad575-3595-48da-bcab-012aa410bf2e","ios":"levelo://app?vid=e79ad575-3595-48da-bcab-012aa410bf2e"},"vehicle_type_id":"4","last_reported":1717344525,"current_range_meters":0,"station_id":"ce4bh692rcd13ifvqea0","pricing_plan_id":"cebpf4jnsgd1na2vs0mg"},{"bike_id":"f81bbc14-ef49-436e-be95-1a39d83446de","system_id":"levelo_inurba_marseille","lat":43.29263,"lon":5.38449,"is_reserved":false,"is_disabled":false,"rental_uris":{"android":"levelo://app?vid=f81bbc14-ef49-436e-be95-1a39d83446de","ios":"levelo://app?vid=f81bbc14-ef49-436e-be95-1a39d83446de"},"vehicle_type_id":"4","last_reported":1717344525,"current_range_meters":6800,"station_id":"ce4bh692rcd13ifvqea0","pricing_plan_id":"cebpf4jnsgd1na2vs0mg"},{"bike_id":"19f3059c-e634-4b73-80fd-ece0ff0ab76a","system_id":"levelo_inurba_marseille","lat":43.304296,"lon":5.397513,"is_reserved":false,"is_disabled":false,"rental_uris":{"android":"levelo://app?vid=19f3059c-e634-4b73-80fd-ece0ff0ab76a","ios":"levelo://app?vid=19f3059c-e634-4b73-80fd-ece0ff0ab76a"},"vehicle_type_id":"4","last_reported":1717344525,"current_range_meters":10800,"station_id":"ce4bh092rcd13ifvqd20","pricing_plan_id":"cebpf4jnsgd1na2vs0mg"},{"bike_id":"5045fc6f-cd5c-4f5d-b6ec-f4447e762c42","system_id":"levelo_inurba_marseille","lat":43.292642,"lon":5.384254,"is_reserved":false,"is_disabled":false,"rental_uris":{"android":"levelo://app?vid=5045fc6f-cd5c-4f5d-b6ec-f4447e762c42","ios":"levelo://app?vid=5045fc6f-cd5c-4f5d-b6ec-f4447e762c42"},"vehicle_type_id":"4","last_reported":1717344525,"current_range_meters":800,"station_id":"ce4bh692rcd13ifvqea0","pricing_plan_id":"cebpf4jnsgd1na2vs0mg"},{"bike_id":"36058f39-92cf-4fb0-a74c-bb424a868083","system_id":"levelo_inurba_marseille","lat":43.289972,"lon":5.356381,"is_reserved":false,"is_disabled":false,"rental_uris":{"android":"levelo://app?vid=36058f39-92cf-4fb0-a74c-bb424a868083","ios":"levelo://app?vid=36058f39-92cf-4fb0-a74c-bb424a868083"},"vehicle_type_id":"4","last_reported":1717344525,"current_range_meters":23200,"station_id":"ce4bhb92rcd13ifvqen0","pricing_plan_id":"cebpf4jnsgd1na2vs0mg"},{"bike_id":"75cfb162-c8e3-4085-96e3-6bd7cf07e1ba","system_id":"levelo_inurba_marseille","lat":43.291994,"lon":5.392907,"is_reserved":false,"is_disabled":false,"rental_uris":{"android":"levelo://app?vid=75cfb162-c8e3-4085-96e3-6bd7cf07e1ba","ios":"levelo://app?vid=75cfb162-c8e3-4085-96e3-6bd7cf07e1ba"},"vehicle_type_id":"4","last_reported":1717344525,"current_range_meters":2000,"station_id":"ce4bh192rcd13ifvqdd0","pricing_plan_id":"cebpf4jnsgd1na2vs0mg"},{"bike_id":"84246841-5436-4990-9d25-d431cbfe796f","system_id":"levelo_inurba_marseille","lat":43.290995,"lon":5.381361,"is_reserved":false,"is_disabled":false,"rental_uris":{"android":"levelo://app?vid=84246841-5436-4990-9d25-d431cbfe796f","ios":"levelo://app?vid=84246841-5436-4990-9d25-d431cbfe796f"},"vehicle_type_id":"4","last_reported":1717344525,"current_range_meters":24800,"station_id":"ce4bh512rcd13ifvqe2g","pricing_plan_id":"cebpf4jnsgd1na2vs0mg"},{"bike_id":"58559c12-4fb5-4bc0-9c05-b75bebb759c6","system_id":"levelo_inurba_marseille","lat":43.28981,"lon":5.35656,"is_reserved":false,"is_disabled":false,"rental_uris":{"android":"levelo://app?vid=58559c12-4fb5-4bc0-9c05-b75bebb759c6","ios":"levelo://app?vid=58559c12-4fb5-4bc0-9c05-b75bebb759c6"},"vehicle_type_id":"4","last_reported":1717344525,"current_range_meters":16800,"station_id":"","pricing_plan_id":"cebpf4jnsgd1na2vs0mg"},{"bike_id":"778deaee-524d-4f3e-8666-ec94a2702e3f","system_id":"levelo_inurba_marseille","lat":43.290995,"lon":5.381361,"is_reserved":false,"is_disabled":false,"rental_uris":{"android":"levelo://app?vid=778deaee-524d-4f3e-8666-ec94a2702e3f","ios":"levelo://app?vid=778deaee-524d-4f3e-8666-ec94a2702e3f"},"vehicle_type_id":"4","last_reported":1717344525,"current_range_meters":2800,"station_id":"ce4bh512rcd13ifvqe2g","pricing_plan_id":"cebpf4jnsgd1na2vs0mg"},{"bike_id":"9d469862-99b0-4801-ae11-b3d53f36ceea","system_id":"levelo_inurba_marseille","lat":43.297429,"lon":5.392694,"is_reserved":false,"is_disabled":false,"rental_uris":{"android":"levelo://app?vid=9d469862-99b0-4801-ae11-b3d53f36ceea","ios":"levelo://app?vid=9d469862-99b0-4801-ae11-b3d53f36ceea"},"vehicle_type_id":"4","last_reported":1717344525,"current_range_meters":13200,"station_id":"chh1huq6cuj3fo74tm60","pricing_plan_id":"cebpf4jnsgd1na2vs0mg"},{"bike_id":"72ecd401-cb06-44af-b862-ff8e7a654943","system_id":"levelo_inurba_marseille","lat":43.29092,"lon":5.381369,"is_reserved":false,"is_disabled":false,"rental_uris":{"android":"levelo://app?vid=72ecd401-cb06-44af-b862-ff8e7a654943","ios":"levelo://app?vid=72ecd401-cb06-44af-b862-ff8e7a654943"},"vehicle_type_id":"4","last_reported":1717344525,"current_range_meters":20800,"station_id":"ce4bh512rcd13ifvqe2g","pricing_plan_id":"cebpf4jnsgd1na2vs0mg"},{"bike_id":"54da4d88-44bb-497d-8f9e-f25533774e5f","system_id":"levelo_inurba_marseille","lat":43.290995,"lon":5.381361,"is_reserved":false,"is_disabled":false,"rental_uris":{"android":"levelo://app?vid=54da4d88-44bb-497d-8f9e-f25533774e5f","ios":"levelo://app?vid=54da4d88-44bb-497d-8f9e-f25533774e5f"},"vehicle_type_id":"4","last_reported":1717344525,"current_range_meters":7200,"station_id":"ce4bh512rcd13ifvqe2g","pricing_plan_id":"cebpf4jnsgd1na2vs0mg"},{"bike_id":"110193a6-9039-43b1-9157-aa4cef5689ab","system_id":"levelo_inurba_marseille","lat":43.290995,"lon":5.381361,"is_reserved":false,"is_disabled":false,"rental_uris":{"android":"levelo://app?vid=110193a6-9039-43b1-9157-aa4cef5689ab","ios":"levelo://app?vid=110193a6-9039-43b1-9157-aa4cef5689ab"},"vehicle_type_id":"4","last_reported":1717344525,"current_range_meters":29600,"station_id":"ce4bh512rcd13ifvqe2g","pricing_plan_id":"cebpf4jnsgd1na2vs0mg"},{"bike_id":"1927b0bf-ddf3-45b3-9145-73cbb725d359","system_id":"levelo_inurba_marseille","lat":43.29785,"lon":5.39338,"is_reserved":false,"is_disabled":false,"rental_uris":{"android":"levelo://app?vid=1927b0bf-ddf3-45b3-9145-73cbb725d359","ios":"levelo://app?vid=1927b0bf-ddf3-45b3-9145-73cbb725d359"},"vehicle_type_id":"4","last_reported":1717344525,"current_range_meters":25200,"station_id":"chh1huq6cuj3fo74tm60","pricing_plan_id":"cebpf4jnsgd1na2vs0mg"},{"bike_id":"37d341e0-fc6f-461d-8702-ee4d5ee3a13b","system_id":"levelo_inurba_marseille","lat":43.33024,"lon":5.39041,"is_reserved":false,"is_disabled":false,"rental_uris":{"android":"levelo://app?vid=37d341e0-fc6f-461d-8702-ee4d5ee3a13b","ios":"levelo://app?vid=37d341e0-fc6f-461d-8702-ee4d5ee3a13b"},"vehicle_type_id":"4","last_reported":1717344525,"current_range_meters":1600,"station_id":"ce4bhr92rcd13ifvqhrg","pricing_plan_id":"cebpf4jnsgd1na2vs0mg"},{"bike_id":"2298e4e9-33f1-4287-a823-5c6ad29c297c","system_id":"levelo_inurba_marseille","lat":43.29523,"lon":5.3904,"is_reserved":false,"is_disabled":false,"rental_uris":{"android":"levelo://app?vid=2298e4e9-33f1-4287-a823-5c6ad29c297c","ios":"levelo://app?vid=2298e4e9-33f1-4287-a823-5c6ad29c297c"},"vehicle_type_id":"4","last_reported":1717344525,"current_range_meters":5600,"station_id":"ce4bh3p2rcd13ifvqdp0","pricing_plan_id":"cebpf4jnsgd1na2vs0mg"},{"bike_id":"e71cef25-61d9-4f3e-a09b-7916d5af57f9","system_id":"levelo_inurba_marseille","lat":43.295169,"lon":5.390426,"is_reserved":false,"is_disabled":false,"rental_uris":{"android":"levelo://app?vid=e71cef25-61d9-4f3e-a09b-7916d5af57f9","ios":"levelo://app?vid=e71cef25-61d9-4f3e-a09b-7916d5af57f9"},"vehicle_type_id":"4","last_reported":1717344525,"current_range_meters":4800,"station_id":"ce4bh3p2rcd13ifvqdp0","pricing_plan_id":"cebpf4jnsgd1na2vs0mg"},{"bike_id":"f3bdb76c-131e-4499-bd3a-30f9ff4b326c","system_id":"levelo_inurba_marseille","lat":43.33026,"lon":5.39041,"is_reserved":false,"is_disabled":false,"rental_uris":{"android":"levelo://app?vid=f3bdb76c-131e-4499-bd3a-30f9ff4b326c","ios":"levelo://app?vid=f3bdb76c-131e-4499-bd3a-30f9ff4b326c"},"vehicle_type_id":"4","last_reported":1717344525,"current_range_meters":0,"station_id":"ce4bhr92rcd13ifvqhrg","pricing_plan_id":"cebpf4jnsgd1na2vs0mg"},{"bike_id":"62e5a21c-a2cd-4029-b7d7-3798ff07e5a6","system_id":"levelo_inurba_marseille","lat":43.330442,"lon":5.389148,"is_reserved":false,"is_disabled":false,"rental_uris":{"android":"levelo://app?vid=62e5a21c-a2cd-4029-b7d7-3798ff07e5a6","ios":"levelo://app?vid=62e5a21c-a2cd-4029-b7d7-3798ff07e5a6"},