{"last_updated":1741889586,"ttl":60,"version":"2.2","data":{"bikes":[{"bike_id":"ac47cb1f-8369-4902-bfd6-d73281a82d13","system_id":"levelo_inurba_marseille","lat":43.29422,"lon":5.38645,"is_reserved":false,"is_disabled":false,"rental_uris":{"android":"levelo://app?vid=ac47cb1f-8369-4902-bfd6-d73281a82d13","ios":"levelo://app?vid=ac47cb1f-8369-4902-bfd6-d73281a82d13"},"vehicle_type_id":"4","last_reported":1741889586,"current_range_meters":2800,"station_id":"ce4bh2h2rcd13ifvqdh0","pricing_plan_id":"cebpf4jnsgd1na2vs0mg"},{"bike_id":"51cb83c2-ce4b-4581-9fcc-7e9bd4a0cd03","system_id":"levelo_inurba_marseille","lat":43.302572,"lon":5.400887,"is_reserved":false,"is_disabled":false,"rental_uris":{"android":"levelo://app?vid=51cb83c2-ce4b-4581-9fcc-7e9bd4a0cd03","ios":"levelo://app?vid=51cb83c2-ce4b-4581-9fcc-7e9bd4a0cd03"},"vehicle_type_id":"4","last_reported":1741889586,"current_range_meters":2800,"station_id":"ce4bgvh2rcd13ifvqcs0","pricing_plan_id":"cebpf4jnsgd1na2vs0mg"},{"bike_id":"87a74980-22a5-4876-a33c-a8f3591da31b","system_id":"levelo_inurba_marseille","lat":43.24803,"lon":5.37456,"is_reserved":false,"is_disabled":false,"rental_uris":{"android":"levelo://app?vid=87a74980-22a5-4876-a33c-a8f3591da31b","ios":"levelo://app?vid=87a74980-22a5-4876-a33c-a8f3591da31b"},"vehicle_type_id":"4","last_reported":1741889586,"current_range_meters":2800,"station_id":"ce4bhgh2rcd13ifvqfb0","pricing_plan_id":"cebpf4jnsgd1na2vs0mg"},{"bike_id":"8b83a773-8070-4922-ae6d-61dd2e61d681","system_id":"levelo_inurba_marseille","lat":43.30645,"lon":5.40105,"is_reserved":false,"is_disabled":false,"rental_uris":{"android":"levelo://app?vid=8b83a773-8070-4922-ae6d-61dd2e61d681","ios":"levelo://app?vid=8b83a773-8070-4922-ae6d-61dd2e61d681"},"vehicle_type_id":"4","last_reported":1741889586,"current_range_meters":2800,"station_id":"ce4bh112rcd13ifvqda0","pricing_plan_id":"cebpf4jnsgd1na2vs0mg"},{"bike_id":"28d28e1d-393f-4a65-a45c-16f542f782e9","system_id":"levelo_inurba_marseille","lat":43.29274,"lon":5.38435,"is_reserved":false,"is_disabled":false,"rental_uris":{"android":"levelo://app?vid=28d28e1d-393f-4a65-a45c-16f542f782e9","ios":"levelo://app?vid=28d28e1d-393f-4a65-a45c-16f542f782e9"},"vehicle_type_id":"4","last_reported":1741889586,"current_range_meters":2800,"station_id":"ce4bh692rcd13ifvqea0","pricing_plan_id":"cebpf4jnsgd1na2vs0mg"},{"bike_id":"2e4488f0-755c-4164-8505-11693b58d5ec","system_id":"levelo_inurba_marseille","lat":43.31326,"lon":5.39688,"is_reserved":false,"is_disabled":false,"rental_uris":{"android":"levelo://app?vid=2e4488f0-755c-4164-8505-11693b58d5ec","ios":"levelo://app?vid=2e4488f0-755c-4164-8505-11693b58d5ec"},"vehicle_type_id":"4","last_reported":1741889586,"current_range_meters":2800,"station_id":"ce4bgvp2rcd13ifvqcu0","pricing_plan_id":"cebpf4jnsgd1na2vs0mg"},{"bike_id":"e37cb872-fb72-4704-8005-f1654ec11dda","system_id":"levelo_inurba_marseille","lat":43.32348,"lon":5.38919,"is_reserved":false,"is_disabled":false,"rental_uris":{"android":"levelo://app?vid=e37cb872-fb72-4704-8005-f1654ec11dda","ios":"levelo://app?vid=e37cb872-fb72-4704-8005-f1654ec11dda"},"vehicle_type_id":"4","last_reported":1741889586,"current_range_meters":2800,"station_id":"ce4bhqp2rcd13ifvqhog","pricing_plan_id":"cebpf4jnsgd1na2vs0mg"},{"bike_id":"8e4d589b-f0bc-48ce-9828-cd5a8970424d","system_id":"levelo_inurba_marseille","lat":43.28674,"lon":5.38657,"is_reserved":false,"is_disabled":false,"rental_uris":{"android":"levelo://app?vid=8e4d589b-f0bc-48ce-9828-cd5a8970424d","ios":"levelo://app?vid=8e4d589b-f0bc-48ce-9828-cd5a8970424d"},"vehicle_type_id":"4","last_reported":1741889586,"current_range_meters":3200,"station_id":"ce4bh492rcd13ifvqdug","pricing_plan_id":"cebpf4jnsgd1na2vs0mg"},{"bike_id":"420801db-9adf-4c25-bdcd-e152e91ef034","system_id":"levelo_inurba_marseille","lat":43.29421,"lon":5.38615,"is_reserved":false,"is_disabled":false,"rental_uris":{"android":"levelo://app?vid=420801db-9adf-4c25-bdcd-e152e91ef034","ios":"levelo://app?vid=420801db-9adf-4c25-bdcd-e152e91ef034"},"vehicle_type_id":"4","last_reported":1741889586,"current_range_meters":3200,"station_id":"ce4bh2h2rcd13ifvqdh0","pricing_plan_id":"cebpf4jnsgd1na2vs0mg"},{"bike_id":"54d97014-89bb-4f6a-85e6-7fd97f8a0def","system_id":"levelo_inurba_marseille","lat":43.33018,"lon":5.39053,"is_reserved":false,"is_disabled":false,"rental_uris":{"android":"levelo://app?vid=54d97014-89bb-4f6a-85e6-7fd97f8a0def","ios":"levelo://app?vid=54d97014-89bb-4f6a-85e6-7fd97f8a0def"},"vehicle_type_id":"4","last_reported":1741889586,"current_range_meters":3200,"station_id":"ce4bhr92rcd13ifvqhrg","pricing_plan_id":"cebpf4jnsgd1na2vs0mg"},{"bike_id":"a825249a-40ee-4bbb-93a2-58926f594d69","system_id":"levelo_inurba_marseille","lat":43.28107,"lon":5.3784,"is_reserved":false,"is_disabled":false,"rental_uris":{"android":"levelo://app?vid=a825249a-40ee-4bbb-93a2-58926f594d69","ios":"levelo://app?vid=a825249a-40ee-4bbb-93a2-58926f594d69"},"vehicle_type_id":"4","last_reported":1741889586,"current_range_meters":3200,"station_id":"ce4bha12rcd13ifvqee0","pricing_plan_id":"cebpf4jnsgd1na2vs0mg"},{"bike_id":"82b7f11a-b5d5-40d2-9b76-1a246a032a68","system_id":"levelo_inurba_marseille","lat":43.28705,"lon":5.39984,"is_reserved":false,"is_disabled":false,"rental_uris":{"android":"levelo://app?vid=82b7f11a-b5d5-40d2-9b76-1a246a032a68","ios":"levelo://app?vid=82b7f11a-b5d5-40d2-9b76-1a246a032a68"},"vehicle_type_id":"4","last_reported":1741889586,"current_range_meters":3200,"station_id":"ce4bho92rcd13ifvqh3g","pricing_plan_id":"cebpf4jnsgd1na2vs0mg"},{"bike_id":"d506a175-d16b-417e-8a3a-f2241e0e262e","system_id":"levelo_inurba_marseille","lat":43.30903,"lon":5.37893,"is_reserved":false,"is_disabled":false,"rental_uris":{"android":"levelo://app?vid=d506a175-d16b-417e-8a3a-f2241e0e262e","ios":"levelo://app?vid=d506a175-d16b-417e-8a3a-f2241e0e262e"},"vehicle_type_id":"4","last_reported":1741889586,"current_range_meters":4000,"station_id":"","pricing_plan_id":"cebpf4jnsgd1na2vs0mg"},{"bike_id":"f6f361fe-2170-4c6d-8233-5aeea0c65764","system_id":"levelo_inurba_marseille","lat":43.30591,"lon":5.37202,"is_reserved":false,"is_disabled":false,"rental_uris":{"android":"levelo://app?vid=f6f361fe-2170-4c6d-8233-5aeea0c65764","ios":"levelo://app?vid=f6f361fe-2170-4c6d-8233-5aeea0c65764"},"vehicle_type_id":"4","last_reported":1741889586,"current_range_meters":3600,"station_id":"ce4bgqh2rcd13ifvqc4g","pricing_plan_id":"cebpf4jnsgd1na2vs0mg"},{"bike_id":"b7750009-6836-4f4d-8e60-d86893e18e14","system_id":"levelo_inurba_marseille","lat":43.31063,"lon":5.37155,"is_reserved":false,"is_disabled":false,"rental_uris":{"android":"levelo://app?vid=b7750009-6836-4f4d-8e60-d86893e18e14","ios":"levelo://app?vid=b7750009-6836-4f4d-8e60-d86893e18e14"},"vehicle_type_id":"4","last_reported":1741889586,"current_range_meters":3600,"station_id":"","pricing_plan_id":"cebpf4jnsgd1na2vs0mg"},{"bike_id":"596ce979-bf41-4c30-891c-e06a426c4350","system_id":"levelo_inurba_marseille","lat":43.25721,"lon":5.41115,"is_reserved":false,"is_disabled":false,"rental_uris":{"android":"levelo://app?vid=596ce979-bf41-4c30-891c-e06a426c4350","ios":"levelo://app?vid=596ce979-bf41-4c30-891c-e06a426c4350"},"vehicle_type_id":"4","last_reported":1741889586,"current_range_meters":3600,"station_id":"ce4bhkp2rcd13ifvqgd0","pricing_plan_id":"cebpf4jnsgd1na2vs0mg"},{"bike_id":"8576b5be-fd6f-4ca2-99f3-709ec845b35f","system_id":"levelo_inurba_marseille","lat":43.30413,"lon":5.41286,"is_reserved":false,"is_disabled":false,"rental_uris":{"android":"levelo://app?vid=8576b5be-fd6f-4ca2-99f3-709ec845b35f","ios":"levelo://app?vid=8576b5be-fd6f-4ca2-99f3-709ec845b35f"},"vehicle_type_id":"4","last_reported":1741889586,"current_range_meters":3600,"station_id":"ce4bhop2rcd13ifvqh8g","pricing_plan_id":"cebpf4jnsgd1na2vs0mg"},{"bike_id":"c4899e92-c71c-46d3-bb96-93b87ad93421","system_id":"levelo_inurba_marseille","lat":43.25829,"lon":5.39442,"is_reserved":false,"is_disabled":false,"rental_uris":{"android":"levelo://app?vid=c4899e92-c71c-46d3-bb96-93b87ad93421","ios":"levelo://app?vid=c4899e92-c71c-46d3-bb96-93b87ad93421"},"vehicle_type_id":"4","last_reported":1741889586,"current_range_meters":4000,"station_id":"ce4bhip2rcd13ifvqft0","pricing_plan_id":"cebpf4jnsgd1na2vs0mg"},{"bike_id":"3aee6530-78d0-4575-864a-2abdd1663f62","system_id":"levelo_inurba_marseille","lat":43.24183,"lon":5.39757,"is_reserved":false,"is_disabled":false,"rental_uris":{"android":"levelo://app?vid=3aee6530-78d0-4575-864a-2abdd1663f62","ios":"levelo://app?vid=3aee6530-78d0-4575-864a-2abdd1663f62"},"vehicle_type_id":"4","last_reported":1741889586,"current_range_meters":4000,"station_id":"ce4bhn12rcd13ifvqgpg","pricing_plan_id":"cebpf4jnsgd1na2vs0mg"},{"bike_id":"9e14a799-51b1-4bcf-a09a-5227f59eea2c","system_id":"levelo_inurba_marseille","lat":43.23157,"lon":5.43702,"is_reserved":false,"is_disabled":false,"rental_uris":{"android":"levelo://app?vid=9e14a799-51b1-4bcf-a09a-5227f59eea2c","ios":"levelo://app?vid=9e14a799-51b1-4bcf-a09a-5227f59eea2c"},"vehicle_type_id":"4","last_reported":1741889586,"current_range_meters":4000,"station_id":"ce4bhmp2rcd13ifvqgog","pricing_plan_id":"cebpf4jnsgd1na2vs0mg"},{"bike_id":"4cda8bc3-cfb8-4db3-a198-0e6261d80513","system_id":"levelo_inurba_marseille","lat":43.28666,"lon":5.36352,"is_reserved":false,"is_disabled":false,"rental_uris":{"android":"levelo://app?vid=4cda8bc3-cfb8-4db3-a198-0e6261d80513","ios":"levelo://app?vid=4cda8bc3-cfb8-4db3-a198-0e6261d80513"},"vehicle_type_id":"4","last_reported":1741889586,"current_range_meters":3600,"station_id":"ce4bhah2rcd13ifvqej0","pricing_plan_id":"cebpf4jnsgd1na2vs0mg"},{"bike_id":"55b87d18-0004-462b-9483-15da611a00ce","system_id":"levelo_inurba_marseille","lat":43.31325,"lon":5.39697,"is_reserved":false,"is_disabled":false,"rental_uris":{"android":"levelo://app?vid=55b87d18-0004-462b-9483-15da611a00ce","ios":"levelo://app?vid=55b87d18-0004-462b-9483-15da611a00ce"},"vehicle_type_id":"4","last_reported":1741889586,"current_range_meters":4000,"station_id":"","pricing_plan_id":"cebpf4jnsgd1na2vs0mg"},{"bike_id":"ede9cdcd-d1e4-4cc0-90bd-cfb7cc135dc4","system_id":"levelo_inurba_marseille","lat":43.2418,"lon":5.39725,"is_reserved":false,"is_disabled":true,"rental_uris":{"android":"levelo://app?vid=ede9cdcd-d1e4-4cc0-90bd-cfb7cc135dc4","ios":"levelo://app?vid=ede9cdcd-d1e4-4cc0-90bd-cfb7cc135dc4"},"vehicle_type_id":"4","last_reported":1741889586,"current_range_meters":4400,"station_id":"ce4bhn12rcd13ifvqgpg","pricing_plan_id":"cebpf4jnsgd1na2vs0mg"},{"bike_id":"7d8e67f1-ebfe-4a94-9853-cc6995aa7f0b","system_id":"levelo_inurba_marseille","lat":43.28344,"lon":5.38114,"is_reserved":false,"is_disabled":false,"rental_uris":{"android":"levelo://app?vid=7d8e67f1-ebfe-4a94-9853-cc6995aa7f0b","ios":"levelo://app?vid=7d8e67f1-ebfe-4a94-9853-cc6995aa7f0b"},"vehicle_type_id":"4","last_reported":1741889586,"current_range_meters":4400,"station_id":"ce4bh412rcd13ifvqdr0","pricing_plan_id":"cebpf4jnsgd1na2vs0mg"},{"bike_id":"a3cb3571-e50e-4464-adad-64c92ff22ca0","system_id":"levelo_inurba_marseille","lat":43.29714,"lon":5.3661,"is_reserved":false,"is_disabled":false,"rental_uris":{"android":"levelo://app?vid=a3cb3571-e50e-4464-adad-64c92ff22ca0","ios":"levelo://app?vid=a3cb3571-e50e-4464-adad-64c92ff22ca0"},"vehicle_type_id":"4","last_reported":1741889586,"current_range_meters":4400,"station_id":"ce4bgn12rcd13ifvqbt0","pricing_plan_id":"cebpf4jnsgd1na2vs0mg"},{"bike_id":"a1edcaf6-8246-46a7-98c4-30a59854c5b6","system_id":"levelo_inurba_marseille","lat":43.2907,"lon":5.37169,"is_reserved":false,"is_disabled":false,"rental_uris":{"android":"levelo://app?vid=a1edcaf6-8246-46a7-98c4-30a59854c5b6","ios":"levelo://app?vid=a1edcaf6-8246-46a7-98c4-30a59854c5b6"},"vehicle_type_id":"4","last_reported":1741889586,"current_range_meters":4000,"station_id":"ce4bh5p2rcd13ifvqe4g","pricing_plan_id":"cebpf4jnsgd1na2vs0mg"},{"bike_id":"58f72e3b-4d12-456b-a693-6619aceed330","system_id":"levelo_inurba_marseille","lat":43.267846,"lon":5.394167,"is_reserved":false,"is_disabled":false,"rental_uris":{"android":"levelo://app?vid=58f72e3b-4d12-456b-a693-6619aceed330","ios":"levelo://app?vid=58f72e3b-4d12-456b-a693-6619aceed330"},"vehicle_type_id":"4","last_reported":1741889586,"current_range_meters":4400,"station_id":"ce4bhh12rcd13ifvqfg0","pricing_plan_id":"cebpf4jnsgd1na2vs0mg"},{"bike_id":"1199ee6c-c617-484f-a40a-f1f502777dc1","system_id":"levelo_inurba_marseille","lat":43.28666,"lon":5.38665,"is_reserved":false,"is_disabled":false,"rental_uris":{"android":"levelo://app?vid=1199ee6c-c617-484f-a40a-f1f502777dc1","ios":"levelo://app?vid=1199ee6c-c617-484f-a40a-f1f502777dc1"},"vehicle_type_id":"4","last_reported":1741889586,"current_range_meters":4800,"station_id":"","pricing_plan_id":"cebpf4jnsgd1na2vs0mg"},{"bike_id":"284bee4a-a1bd-4ec2-964d-7de53f268676","system_id":"levelo_inurba_marseille","lat":43.29599,"lon":5.38096,"is_reserved":false,"is_disabled":false,"rental_uris":{"android":"levelo://app?vid=284bee4a-a1bd-4ec2-964d-7de53f268676","ios":"levelo://app?vid=284bee4a-a1bd-4ec2-964d-7de53f268676"},"vehicle_type_id":"4","last_reported":1741889586,"current_range_meters":4800,"station_id":"ce4bgl12rcd13ifvqbo0","pricing_plan_id":"cebpf4jnsgd1na2vs0mg"},{"bike_id":"c90a3d95-3a8f-4d8e-96a4-e0902f8fa5e2","system_id":"levelo_inurba_marseille","lat":43.310264,"lon":5.375224,"is_reserved":false,"is_disabled":false,"rental_uris":{"android":"levelo://app?vid=c90a3d95-3a8f-4d8e-96a4-e0902f8fa5e2","ios":"levelo://app?vid=c90a3d95-3a8f-4d8e-96a4-e0902f8fa5e2"},"vehicle_type_id":"4","last_reported":1741889586,"current_range_meters":4800,"station_id":"","pricing_plan_id":"cebpf4jnsgd1na2vs0mg"},{"bike_id":"3248f2a4-d0ac-4e97-8558-71c1072fd105","system_id":"levelo_inurba_marseille","lat":43.31115,"lon":5.37768,"is_reserved":false,"is_disabled":false,"rental_uris":{"android":"levelo://app?vid=3248f2a4-d0ac-4e97-8558-71c1072fd105","ios":"levelo://app?vid=3248f2a4-d0ac-4e97-8558-71c1072fd105"},"vehicle_type_id":"4","last_reported":1741889586,"current_range_meters":4800,"station_id":"ce4bgt92rcd13ifvqcg0","pricing_plan_id":"cebpf4jnsgd1na2vs0mg"},{"bike_id":"f8073e6c-c0be-40cc-b1df-865d12063160","system_id":"levelo_inurba_marseille","lat":43.29288,"lon":5.3745,"is_reserved":false,"is_disabled":false,"rental_uris":{"android":"levelo://app?vid=f8073e6c-c0be-40cc-b1df-865d12063160","ios":"levelo://app?vid=f8073e6c-c0be-40cc-b1df-865d12063160"},"vehicle_type_id":"4","last_reported":1741889586,"current_range_meters":4400,"station_id":"ce4bgi12rcd13ifvqb70","pricing_plan_id":"cebpf4jnsgd1na2vs0mg"},{"bike_id":"e65f842e-69b2-436a-a201-83a06add3a55","system_id":"levelo_inurba_marseille","lat":43.2502,"lon":5.38933,"is_reserved":false,"is_disabled":false,"rental_uris":{"android":"levelo://app?vid=e65f842e-69b2-436a-a201-83a06add3a55","ios":"levelo://app?vid=e65f842e-69b2-436a-a201-83a06add3a55"},"vehicle_type_id":"4","last_reported":1741889586,"current_range_meters":4800,"station_id":"ce4bhgp2rcd13ifvqfd0","pricing_plan_id":"cebpf4jnsgd1na2vs0mg"},{"bike_id":"db15fbfd-f47d-4001-8e32-720d63f11405","system_id":"levelo_inurba_marseille","lat":43.33374,"lon":5.40071,"is_reserved":false,"is_disabled":false,"rental_uris":{"android":"levelo://app?vid=db15fbfd-f47d-4001-8e32-720d63f11405","ios":"levelo://app?vid=db15fbfd-f47d-4001-8e32-720d63f11405"},"vehicle_type_id":"4","last_reported":1741889586,"current_range_meters":5600,"station_id":"","pricing_plan_id":"cebpf4jnsgd1na2vs0mg"},{"bike_id":"b85d4ea3-efd4-4864-a7bb-eb90b3545d00","system_id":"levelo_inurba_marseille","lat":43.28726,"lon":5.36083,"is_reserved":false,"is_disabled":false,"rental_uris":{"android":"levelo://app?vid=b85d4ea3-efd4-4864-a7bb-eb90b3545d00","ios":"levelo://app?vid=b85d4ea3-efd4-4864-a7bb-eb90b3545d00"},"vehicle_type_id":"4","last_reported":1741889586,"current_range_meters":5600,"station_id":"cki0cbj6b192h4jlfktg","pricing_plan_id":"cebpf4jnsgd1na2vs0mg"},{"bike_id":"0e1454f0-c501-449b-b78c-ddfc8f4d9aab","system_id":"levelo_inurba_marseille","lat":43.33768,"lon":5.3749,"is_reserved":false,"is_disabled":false,"rental_uris":{"android":"levelo://app?vid=0e1454f0-c501-449b-b78c-ddfc8f4d9aab","ios":"levelo://app?vid=0e1454f0-c501-449b-b78c-ddfc8f4d9aab"},"vehicle_type_id":"4","last_reported":1741889586,"current_range_meters":5600,"station_id":"","pricing_plan_id":"cebpf4jnsgd1na2vs0mg"},{"bike_id":"2a69e639-a0be-4da5-b497-a75be2f56c13","system_id":"levelo_inurba_marseille","lat":43.250884,"lon":5.395202,"is_reserved":false,"is_disabled":false,"rental_uris":{"android":"levelo://app?vid=2a69e639-a0be-4da5-b497-a75be2f56c13","ios":"levelo://app?vid=2a69e639-a0be-4da5-b497-a75be2f56c13"},"vehicle_type_id":"4","last_reported":1741889586,"current_range_meters":5600,"station_id":"ce4bhm12rcd13ifvqgkg","pricing_plan_id":"cebpf4jnsgd1na2vs0mg"},{"bike_id":"807be765-9fa4-46ae-9767-cd0d7d3f07a2","system_id":"levelo_inurba_marseille","lat":43.30952,"lon":5.39027,"is_reserved":false,"is_disabled":false,"rental_uris":{"android":"levelo://app?vid=807be765-9fa4-46ae-9767-cd0d7d3f07a2","ios":"levelo://app?vid=807be765-9fa4-46ae-9767-cd0d7d3f07a2"},"vehicle_type_id":"4","last_reported":1741889586,"current_range_meters":5600,"station_id":"ce4bgup2rcd13ifvqco0","pricing_plan_id":"cebpf4jnsgd1na2vs0mg"},{"bike_id":"e292b439-d2fe-405b-964c-72d8bdb8254d","system_id":"levelo_inurba_marseille","lat":43.26562,"lon":5.39008,"is_reserved":false,"is_disabled":false,"rental_uris":{"android":"levelo://app?vid=e292b439-d2fe-405b-964c-72d8bdb8254d","ios":"levelo://app?vid=e292b439-d2fe-405b-964c-72d8bdb8254d"},"vehicle_type_id":"4","last_reported":1741889586,"current_range_meters":6000,"station_id":"ce4bhe12rcd13ifvqf30","pricing_plan_id":"cebpf4jnsgd1na2vs0mg"},{"bike_id":"6b709bee-02b2-46ef-a14a-dbc527824d2c","system_id":"levelo_inurba_marseille","lat":43.27836,"lon":5.39196,"is_reserved":false,"is_disabled":false,"rental_uris":{"android":"levelo://app?vid=6b709bee-02b2-46ef-a14a-dbc527824d2c","ios":"levelo://app?vid=6b709bee-02b2-46ef-a14a-dbc527824d2c"},"vehicle_type_id":"4","last_reported":1741889586,"current_range_meters":6000,"station_id":"ce4bhjp2rcd13ifvqga0","pricing_plan_id":"cebpf4jnsgd1na2vs0mg"},{"bike_id":"616a435f-89dc-43cc-870e-cd4d9550de2e","system_id":"levelo_inurba_marseille","lat":43.31411,"lon":5.37547,"is_reserved":false,"is_disabled":false,"rental_uris":{"android":"levelo://app?vid=616a435f-89dc-43cc-870e-cd4d9550de2e","ios":"levelo://app?vid=616a435f-89dc-43cc-870e-cd4d9550de2e"},"vehicle_type_id":"4","last_reported":1741889586,"current_range_meters":6000,"station_id":"","pricing_plan_id":"cebpf4jnsgd1na2vs0mg"},{"bike_id":"196af0f0-ec08-4989-85e5-5804a2d6b2e4","system_id":"levelo_inurba_marseille","lat":43.29895,"lon":5.4367,"is_reserved":false,"is_disabled":false,"rental_uris":{"android":"levelo://app?vid=196af0f0-ec08-4989-85e5-5804a2d6b2e4","ios":"levelo://app?vid=196af0f0-ec08-4989-85e5-5804a2d6b2e4"},"vehicle_type_id":"4","last_reported":1741889586,"current_range_meters":6000,"station_id":"ce4bhpp2rcd13ifvqhfg","pricing_plan_id":"cebpf4jnsgd1na2vs0mg"},{"bike_id":"2a84babd-c5d8-4061-b368-e698eb6c790b","system_id":"levelo_inurba_marseille","lat":43.245563,"lon":5.3952,"is_reserved":false,"is_disabled":false,"rental_uris":{"android":"levelo://app?vid=2a84babd-c5d8-4061-b368-e698eb6c790b","ios":"levelo://app?vid=2a84babd-c5d8-4061-b368-e698eb6c790b"},"vehicle_type_id":"4","last_reported":1741889586,"current_range_meters":6000,"station_id":"ce4bhlp2rcd13ifvqgjg","pricing_plan_id":"cebpf4jnsgd1na2vs0mg"},{"bike_id":"7a56e38a-cf34-42a1-8644-61558aee45db","system_id":"levelo_inurba_marseille","lat":43.28712,"lon":5.37402,"is_reserved":false,"is_disabled":false,"rental_uris":{"android":"levelo://app?vid=7a56e38a-cf34-42a1-8644-61558aee45db","ios":"levelo://app?vid=7a56e38a-cf34-42a1-8644-61558aee45db"},"vehicle_type_id":"4","last_reported":1741889586,"current_range_meters":6000,"station_id":"ce4bh3p2rcd13ifvqdq0","pricing_plan_id":"cebpf4jnsgd1na2vs0mg"},{"bike_id":"3a6f4a08-7097-425e-ba9b-503eb294df3b","system_id":"levelo_inurba_marseille","lat":43.27823,"lon":5.40655,"is_reserved":false,"is_disabled":false,"rental_uris":{"android":"levelo://app?vid=3a6f4a08-7097-425e-ba9b-503eb294df3b","ios":"levelo://app?vid=3a6f4a08-7097-425e-ba9b-503eb294df3b"},"vehicle_type_id":"4","last_reported":1741889586,"current_range_meters":6000,"station_id":"","pricing_plan_id":"cebpf4jnsgd1na2vs0mg"},{"bike_id":"cb567277-cc92-473f-ba27-13f9d7cbb613","system_id":"levelo_inurba_marseille","lat":43.25015,"lon":5.38916,"is_reserved":false,"is_disabled":false,"rental_uris":{"android":"levelo://app?vid=cb567277-cc92-473f-ba27-13f9d7cbb613","ios":"levelo://app?vid=cb567277-cc92-473f-ba27-13f9d7cbb613"},"vehicle_type_id":"4","last_reported":1741889586,"current_range_meters":6000,"station_id":"ce4bhgp2rcd13ifvqfd0","pricing_plan_id":"cebpf4jnsgd1na2vs0mg"},{"bike_id":"e9f933be-4af8-4ed8-b088-66f7d9aa36ff","system_id":"levelo_inurba_marseille","lat":43.248065,"lon":5.374644,"is_reserved":false,"is_disabled":false,"rental_uris":{"android":"levelo://app?vid=e9f933be-4af8-4ed8-b088-66f7d9aa36ff","ios":"levelo://app?vid=e9f933be-4af8-4ed8-b088-66f7d9aa36ff"},"vehicle_type_id":"4","last_reported":1741889586,"current_range_meters":6000,"station_id":"ce4bhb92rcd13ifvqen0","pricing_plan_id":"cebpf4jnsgd1na2vs0mg"},{"bike_id":"87a4e8e3-e6a6-493e-9587-0a5f9b2d4518","system_id":"levelo_inurba_marseille","lat":43.28866,"lon":5.35853,"is_reserved":false,"is_disabled":false,"rental_uris":{"android":"levelo://app?vid=87a4e8e3-e6a6-493e-9587-0a5f9b2d4518","ios":"levelo://app?vid=87a4e8e3-e6a6-493e-9587-0a5f9b2d4518"},"vehicle_type_id":"4","last_reported":1741889586,"current_range_meters":6000,"station_id":"ce4bhb12rcd13ifvqem0","pricing_plan_id":"cebpf4jnsgd1na2vs0mg"},{"bike_id":"86863c3b-26d2-4646-815d-0597b187b81c","system_id":"levelo_inurba_marseille","lat":43.28865,"lon":5.35855,"is_reserved":false,"is_disabled":false,"rental_uris":{"android":"levelo://app?vid=86863c3b-26d2-4646-815d-0597b187b81c","ios":"levelo://app?vid=86863c3b-26d2-4646-815d-0597b187b81c"},"vehicle_type_id":"4","last_reported":1741889586,"current_range_meters":6400,"station_id":"ce4bhb12rcd13ifvqem0","pricing_plan_id":"cebpf4jnsgd1na2vs0mg"},{"bike_id":"57dd54e3-4a62-4d62-a03b-5320a176e579","system_id":"levelo_inurba_marseille","lat":43.24179,"lon":5.3643,"is_reserved":false,"is_disabled":false,"rental_uris":{"android":"levelo://app?vid=57dd54e3-4a62-4d62-a03b-5320a176e579","ios":"levelo://app?vid=57dd54e3-4a62-4d62-a03b-5320a176e579"},"vehicle_type_id":"4","last_reported":1741889586,"current_range_meters":6400,"station_id":"cpo36qri1sfpv3e86is0","pricing_plan_id":"cebpf4jnsgd1na2vs0mg"},{"bike_id":"76e2c79b-b022-4f8b-86ec-fc89981219ef","system_id":"levelo_inurba_marseille","lat":43.24801,"lon":5.37455,"is_reserved":false,"is_disabled":false,"rental_uris":{"android":"levelo://app?vid=76e2c79b-b022-4f8b-86ec-fc89981219ef","ios":"levelo://app?vid=76e2c79b-b022-4f8b-86ec-fc89981219ef"},"vehicle_type_id":"4","last_reported":1741889586,"current_range_meters":6400,"station_id":"ce4bhgh2rcd13ifvqfb0","pricing_plan_id":"cebpf4jnsgd1na2vs0mg"},{"bike_id":"2983cd67-b878-442a-a5f1-edd993b911fa","system_id":"levelo_inurba_marseille","lat":43.2649,"lon":5.39559,"is_reserved":false,"is_disabled":false,"rental_uris":{"android":"levelo://app?vid=2983cd67-b878-442a-a5f1-edd993b911fa","ios":"levelo://app?vid=2983cd67-b878-442a-a5f1-edd993b911fa"},"vehicle_type_id":"4","last_reported":1741889586,"current_range_meters":6400,"station_id":"ce4bhi12rcd13ifvqfq0","pricing_plan_id":"cebpf4jnsgd1na2vs0mg"},{"bike_id":"0f3afe17-c906-4ce9-97c0-e7bc630fdc37","system_id":"levelo_inurba_marseille","lat":43.30146,"lon":5.380816,"is_reserved":false,"is_disabled":false,"rental_uris":{"android":"levelo://app?vid=0f3afe17-c906-4ce9-97c0-e7bc630fdc37","ios":"levelo://app?vid=0f3afe17-c906-4ce9-97c0-e7bc630fdc37"},"vehicle_type_id":"4","last_reported":1741889586,"current_range_meters":6400,"station_id":"ce4bghh2rcd13ifvqb60","pricing_plan_id":"cebpf4jnsgd1na2vs0mg"},{"bike_id":"cce5ede7-10c9-4560-8810-b0d1ec12cf88","system_id":"levelo_inurba_marseille","lat":43.28463,"lon":5.35879,"is_reserved":false,"is_disabled":false,"rental_uris":{"android":"levelo://app?vid=cce5ede7-10c9-4560-8810-b0d1ec12cf88","ios":"levelo://app?vid=cce5ede7-10c9-4560-8810-b0d1ec12cf88"},"vehicle_type_id":"4","last_reported":1741889586,"current_range_meters":6400,"station_id":"ce4bhah2rcd13ifvqei0","pricing_plan_id":"cebpf4jnsgd1na2vs0mg"},{"bike_id":"d0f37a2d-5920-4a00-ab9e-56f97581bf07","system_id":"levelo_inurba_marseille","lat":43.27823,"lon":5.40716,"is_reserved":false,"is_disabled":false,"rental_uris":{"android":"levelo://app?vid=d0f37a2d-5920-4a00-ab9e-56f97581bf07","ios":"levelo://app?vid=d0f37a2d-5920-4a00-ab9e-56f97581bf07"},"vehicle_type_id":"4","last_reported":1741889586,"current_range_meters":6800,"station_id":"ce4bhnh2rcd13ifvqgtg","pricing_plan_id":"cebpf4jnsgd1na2vs0mg"},{"bike_id":"5bb3c27d-a647-4339-b990-09273b326d15","system_id":"levelo_inurba_marseille","lat":43.29286,"lon":5.40122,"is_reserved":false,"is_disabled":false,"rental_uris":{"android":"levelo://app?vid=5bb3c27d-a647-4339-b990-09273b326d15","ios":"levelo://app?vid=5bb3c27d-a647-4339-b990-09273b326d15"},"vehicle_type_id":"4","last_reported":1741889586,"current_range_meters":6800,"station_id":"ce4bh312rcd13ifvqdk0","pricing_plan_id":"cebpf4jnsgd1na2vs0mg"},{"bike_id":"e872f5ef-8b73-4001-8ad4-057654930544","system_id":"levelo_inurba_marseille","lat":43.30241,"lon":5.40047,"is_reserved":false,"is_disabled":true,"rental_uris":{"android":"levelo://app?vid=e872f5ef-8b73-4001-8ad4-057654930544","ios":"levelo://app?vid=e872f5ef-8b73-4001-8ad4-057654930544"},"vehicle_type_id":"4","last_reported":1741889586,"current_range_meters":6800,"station_id":"ce4bgvh2rcd13ifvqcs0","pricing_plan_id":"cebpf4jnsgd1na2vs0mg"},{"bike_id":"05e8cc25-25f3-46ac-8f5f-38eae408bf93","system_id":"levelo_inurba_marseille","lat":43.31321,"lon":5.39694,"is_reserved":false,"is_disabled":false,"rental_uris":{"android":"levelo://app?vid=05e8cc25-25f3-46ac-8f5f-38eae408bf93","ios":"levelo://app?vid=05e8cc25-25f3-46ac-8f5f-38eae408bf93"},"vehicle_type_id":"4","last_reported":1741889586,"current_range_meters":6800,"station_id":"ce4bgvp2rcd13ifvqcu0","pricing_plan_id":"cebpf4jnsgd1na2vs0mg"},{"bike_id":"56b3543b-50d7-4c60-92c5-636769dc1933","system_id":"levelo_inurba_marseille","lat":43.30789,"lon":5.37656,"is_reserved":false,"is_disabled":false,"rental_uris":{"android":"levelo://app?vid=56b3543b-50d7-4c60-92c5-636769dc1933","ios":"levelo://app?vid=56b3543b-50d7-4c60-92c5-636769dc1933"},"vehicle_type_id":"4","last_reported":1741889586,"current_range_meters":6800,"station_id":"ce4bgv92rcd13ifvqcq0","pricing_plan_id":"cebpf4jnsgd1na2vs0mg"},{"bike_id":"ba1d0a48-0e70-4374-bccd-4a2f91a870b1","system_id":"levelo_inurba_marseille","lat":43.283661,"lon":5.386284,"is_reserved":false,"is_disabled":false,"rental_uris":{"android":"levelo://app?vid=ba1d0a48-0e70-4374-bccd-4a2f91a870b1","ios":"levelo://app?vid=ba1d0a48-0e70-4374-bccd-4a2f91a870b1"},"vehicle_type_id":"4","last_reported":1741889586,"current_range_meters":6800,"station_id":"ce4bh492rcd13ifvqdvg","pricing_plan_id":"cebpf4jnsgd1na2vs0mg"},{"bike_id":"7f97dab3-6641-4c6a-9b12-3940cae11793","system_id":"levelo_inurba_marseille","lat":43.24996,"lon":5.38927,"is_reserved":false,"is_disabled":false,"rental_uris":{"android":"levelo://app?vid=7f97dab3-6641-4c6a-9b12-3940cae11793","ios":"levelo://app?vid=7f97dab3-6641-4c6a-9b12-3940cae11793"},"vehicle_type_id":"4","last_reported":1741889586,"current_range_meters":6800,"station_id":"ce4bhgp2rcd13ifvqfd0","pricing_plan_id":"cebpf4jnsgd1na2vs0mg"},{"bike_id":"32aebc3a-14c2-412a-9dd1-139c73270c7f","system_id":"levelo_inurba_marseille","lat":43.24996,"lon":5.3893,"is_reserved":false,"is_disabled":false,"rental_uris":{"android":"levelo://app?vid=32aebc3a-14c2-412a-9dd1-139c73270c7f","ios":"levelo://app?vid=32aebc3a-14c2-412a-9dd1-139c73270c7f"},"vehicle_type_id":"4","last_reported":1741889586,"current_range_meters":6800,"station_id":"ce4bhgp2rcd13ifvqfd0","pricing_plan_id":"cebpf4jnsgd1na2vs0mg"},{"bike_id":"2fe54254-5b11-4939-bb74-6fb31c1295ea","system_id":"levelo_inurba_marseille","lat":43.22943,"lon":5.354,"is_reserved":false,"is_disabled":false,"rental_uris":{"android":"levelo://app?vid=2fe54254-5b11-4939-bb74-6fb31c1295ea","ios":"levelo://app?vid=2fe54254-5b11-4939-bb74-6fb31c1295ea"},"vehicle_type_id":"4","last_reported":1741889586,"current_range_meters":6800,"station_id":"cpo3532slgdg3j2ikp40","pricing_plan_id":"cebpf4jnsgd1na2vs0mg"},{"bike_id":"b03fbb95-7bb9-4d07-80df-a35111e8039c","system_id":"levelo_inurba_marseille","lat":43.30188,"lon":5.36616,"is_reserved":false,"is_disabled":false,"rental_uris":{"android":"levelo://app?vid=b03fbb95-7bb9-4d07-80df-a35111e8039c","ios":"levelo://app?vid=b03fbb95-7bb9-4d07-80df-a35111e8039c"},"vehicle_type_id":"4","last_reported":1741889586,"current_range_meters":6400,"station_id":"ce4bgrh2rcd13ifvqc8g","pricing_plan_id":"cebpf4jnsgd1na2vs0mg"},{"bike_id":"8e17715f-c74e-43f6-ada7-f6c63b953dbf","system_id":"levelo_inurba_marseille","lat":43.31036,"lon":5.37524,"is_reserved":false,"is_disabled":false,"rental_uris":{"android":"levelo://app?vid=8e17715f-c74e-43f6-ada7-f6c63b953dbf","ios":"levelo://app?vid=8e17715f-c74e-43f6-ada7-f6c63b953dbf"},"vehicle_type_id":"4","last_reported":1741889586,"current_range_meters":6800,"station_id":"","pricing_plan_id":"cebpf4jnsgd1na2vs0mg"},{"bike_id":"a081f3db-b088-489c-9bd0-f40a86452d9a","system_id":"levelo_inurba_marseille","lat":43.26487,"lon":5.39549,"is_reserved":false,"is_disabled":false,"rental_uris":{"android":"levelo://app?vid=a081f3db-b088-489c-9bd0-f40a86452d9a","ios":"levelo://app?vid=a081f3db-b088-489c-9bd0-f40a86452d9a"},"vehicle_type_id":"4","last_reported":1741889586,"current_range_meters":6800,"station_id":"ce4bhi12rcd13ifvqfq0","pricing_plan_id":"cebpf4jnsgd1na2vs0mg"},{"bike_id":"28cd2e82-5ec9-4af4-82a6-0279e5cdf721","system_id":"levelo_inurba_marseille","lat":43.27822,"lon":5.40716,"is_reserved":false,"is_disabled":false,"rental_uris":{"android":"levelo://app?vid=28cd2e82-5ec9-4af4-82a6-0279e5cdf721","ios":"levelo://app?vid=28cd2e82-5ec9-4af4-82a6-0279e5cdf721"},"vehicle_type_id":"4","last_reported":1741889586,"current_range_meters":6800,"station_id":"ce4bhnh2rcd13ifvqgtg","pricing_plan_id":"cebpf4jnsgd1na2vs0mg"},{"bike_id":"8a2c26c3-a450-4c21-b2d0-cce3838b4286","system_id":"levelo_inurba_marseille","lat":43.281198,"lon":5.360131,"is_reserved":false,"is_disabled":false,"rental_uris":{"android":"levelo://app?vid=8a2c26c3-a450-4c21-b2d0-cce3838b4286","ios":"levelo://app?vid=8a2c26c3-a450-4c21-b2d0-cce3838b4286"},"vehicle_type_id":"4","last_reported":1741889586,"current_range_meters":6400,"station_id":"ce4bgj92rcd13ifvqbe0","pricing_plan_id":"cebpf4jnsgd1na2vs0mg"},{"bike_id":"d290804a-c168-4067-8105-234b83d63f5f","system_id":"levelo_inurba_marseille","lat":43.28855,"lon":5.35846,"is_reserved":false,"is_disabled":false,"rental_uris":{"android":"levelo://app?vid=d290804a-c168-4067-8105-234b83d63f5f","ios":"levelo://app?vid=d290804a-c168-4067-8105-234b83d63f5f"},"vehicle_type_id":"4","last_reported":1741889586,"current_range_meters":6800,"station_id":"ce4bhb12rcd13ifvqem0","pricing_plan_id":"cebpf4jnsgd1na2vs0mg"},{"bike_id":"d5ae4600-476e-4c8a-b248-76c73ec9f040","system_id":"levelo_inurba_marseille","lat":43.25007,"lon":5.38914,"is_reserved":false,"is_disabled":false,"rental_uris":{"android":"levelo://app?vid=d5ae4600-476e-4c8a-b248-76c73ec9f040","ios":"levelo://app?vid=d5ae4600-476e-4c8a-b248-76c73ec9f040"},"vehicle_type_id":"4","last_reported":1741889586,"current_range_meters":7200,"station_id":"ce4bhgp2rcd13ifvqfd0","pricing_plan_id":"cebpf4jnsgd1na2vs0mg"},{"bike_id":"81ac0329-83b7-4a31-b8d0-f379d17c3e01","system_id":"levelo_inurba_marseille","lat":43.32341,"lon":5.40625,"is_reserved":false,"is_disabled":false,"rental_uris":{"android":"levelo://app?vid=81ac0329-83b7-4a31-b8d0-f379d17c3e01","ios":"levelo://app?vid=81ac0329-83b7-4a31-b8d0-f379d17c3e01"},"vehicle_type_id":"4","last_reported":1741889586,"current_range_meters":7200,"station_id":"ce4bhq92rcd13ifvqhjg","pricing_plan_id":"cebpf4jnsgd1na2vs0mg"},{"bike_id":"84e4d6fb-67b7-462e-8674-ef7698ddc83a","system_id":"levelo_inurba_marseille","lat":43.31706,"lon":5.43742,"is_reserved":false,"is_disabled":false,"rental_uris":{"android":"levelo://app?vid=84e4d6fb-67b7-462e-8674-ef7698ddc83a","ios":"levelo://app?vid=84e4d6fb-67b7-462e-8674-ef7698ddc83a"},"vehicle_type_id":"4","last_reported":1741889586,"current_range_meters":7200,"station_id":"ce4bhp92rcd13ifvqhcg","pricing_plan_id":"cebpf4jnsgd1na2vs0mg"},{"bike_id":"8ca720cf-8cc7-4201-a29c-e07b0ffda00a","system_id":"levelo_inurba_marseille","lat":43.2319,"lon":5.39993,"is_reserved":false,"is_disabled":false,"rental_uris":{"android":"levelo://app?vid=8ca720cf-8cc7-4201-a29c-e07b0ffda00a","ios":"levelo://app?vid=8ca720cf-8cc7-4201-a29c-e07b0ffda00a"},"vehicle_type_id":"4","last_reported":1741889586,"current_range_meters":7200,"station_id":"ce4bhn12rcd13ifvqgqg","pricing_plan_id":"cebpf4jnsgd1na2vs0mg"},{"bike_id":"9dd0d705-f3f0-4421-948d-d30b71ded0a6","system_id":"levelo_inurba_marseille","lat":43.302189,"lon":5.39467,"is_reserved":false,"is_disabled":false,"rental_uris":{"android":"levelo://app?vid=9dd0d705-f3f0-4421-948d-d30b71ded0a6","ios":"levelo://app?vid=9dd0d705-f3f0-4421-948d-d30b71ded0a6"},"vehicle_type_id":"4","last_reported":1741889586,"current_range_meters":7200,"station_id":"ce4bgn12rcd13ifvqbt0","pricing_plan_id":"cebpf4jnsgd1na2vs0mg"},{"bike_id":"580103a0-65d5-46d9-9982-05a3abb4f7ec","system_id":"levelo_inurba_marseille","lat":43.29534,"lon":5.39032,"is_reserved":false,"is_disabled":false,"rental_uris":{"android":"levelo://app?vid=580103a0-65d5-46d9-9982-05a3abb4f7ec","ios":"levelo://app?vid=580103a0-65d5-46d9-9982-05a3abb4f7ec"},"vehicle_type_id":"4","last_reported":1741889586,"current_range_meters":7200,"station_id":"ce4bh3p2rcd13ifvqdp0","pricing_plan_id":"cebpf4jnsgd1na2vs0mg"},{"bike_id":"931a65f6-98be-4189-b167-a49aeaf4dc43","system_id":"levelo_inurba_marseille","lat":43.25006,"lon":5.38944,"is_reserved":false,"is_disabled":false,"rental_uris":{"android":"levelo://app?vid=931a65f6-98be-4189-b167-a49aeaf4dc43","ios":"levelo://app?vid=931a65f6-98be-4189-b167-a49aeaf4dc43"},"vehicle_type_id":"4","last_reported":1741889586,"current_range_meters":7200,"station_id":"ce4bhgp2rcd13ifvqfd0","pricing_plan_id":"cebpf4jnsgd1na2vs0mg"},{"bike_id":"faa89f2e-08fc-49e1-880c-9ca2b500c06b","system_id":"levelo_inurba_marseille","lat":43.28727,"lon":5.37944,"is_reserved":false,"is_disabled":false,"rental_uris":{"android":"levelo://app?vid=faa89f2e-08fc-49e1-880c-9ca2b500c06b","ios":"levelo://app?vid=faa89f2e-08fc-49e1-880c-9ca2b500c06b"},"vehicle_type_id":"4","last_reported":1741889586,"current_range_meters":8000,"station_id":"ce4bh9p2rcd13ifvqec0","pricing_plan_id":"cebpf4jnsgd1na2vs0mg"},{"bike_id":"a4acc583-7b24-4665-929d-fada161a91f7","system_id":"levelo_inurba_marseille","lat":43.29486,"lon":5.44448,"is_reserved":false,"is_disabled":false,"rental_uris":{"android":"levelo://app?vid=a4acc583-7b24-4665-929d-fada161a91f7","ios":"levelo://app?vid=a4acc583-7b24-4665-929d-fada161a91f7"},"vehicle_type_id":"4","last_reported":1741889586,"current_range_meters":8000,"station_id":"","pricing_plan_id":"cebpf4jnsgd1na2vs0mg"},{"bike_id":"d7cf3da4-03cf-4eae-b183-47670a6b872f","system_id":"levelo_inurba_marseille","lat":43.23192,"lon":5.35549,"is_reserved":false,"is_disabled":false,"rental_uris":{"android":"levelo://app?vid=d7cf3da4-03cf-4eae-b183-47670a6b872f","ios":"levelo://app?vid=d7cf3da4-03cf-4eae-b183-47670a6b872f"},"vehicle_type_id":"4","last_reported":1741889586,"current_range_meters":8000,"station_id":"ce4bhu92rcd13ifvqi70","pricing_plan_id":"cebpf4jnsgd1na2vs0mg"},{"bike_id":"db7198b7-4986-487c-848f-b6fa2eea4556","system_id":"levelo_inurba_marseille","lat":43.31975,"lon":5.38109,"is_reserved":false,"is_disabled":false,"rental_uris":{"android":"levelo://app?vid=db7198b7-4986-487c-848f-b6fa2eea4556","ios":"levelo://app?vid=db7198b7-4986-487c-848f-b6fa2eea4556"},"vehicle_type_id":"4","last_reported":1741889586,"current_range_meters":8000,"station_id":"","pricing_plan_id":"cebpf4jnsgd1na2vs0mg"},{"bike_id":"ccde3be1-4144-427e-acc2-fed605e4915f","system_id":"levelo_inurba_marseille","lat":43.281102,"lon":5.398587,"is_reserved":false,"is_disabled":false,"rental_uris":{"android":"levelo://app?vid=ccde3be1-4144-427e-acc2-fed605e4915f","ios":"levelo://app?vid=ccde3be1-4144-427e-acc2-fed605e4915f"},"vehicle_type_id":"4","last_reported":1741889586,"current_range_meters":8000,"station_id":"","pricing_plan_id":"cebpf4jnsgd1na2vs0mg"},{"bike_id":"df2765ad-cfa7-43b2-80fb-8430e377ebdd","system_id":"levelo_inurba_marseille","lat":43.29254,"lon":5.38437,"is_reserved":false,"is_disabled":false,"rental_uris":{"android":"levelo://app?vid=df2765ad-cfa7-43b2-80fb-8430e377ebdd","ios":"levelo://app?vid=df2765ad-cfa7-43b2-80fb-8430e377ebdd"},"vehicle_type_id":"4","last_reported":1741889586,"current_range_meters":8000,"station_id":"ce4bh692rcd13ifvqea0","pricing_plan_id":"cebpf4jnsgd1na2vs0mg"},{"bike_id":"f759850b-eb65-4182-9f07-df3729b70f70","system_id":"levelo_inurba_marseille","lat":43.26062,"lon":5.39422,"is_reserved":false,"is_disabled":false,"rental_uris":{"android":"levelo://app?vid=f759850b-eb65-4182-9f07-df3729b70f70","ios":"levelo://app?vid=f759850b-eb65-4182-9f07-df3729b70f70"},"vehicle_type_id":"4","last_reported":1741889586,"current_range_meters":8000,"station_id":"ce4bhh92rcd13ifvqfj0","pricing_plan_id":"cebpf4jnsgd1na2vs0mg"},{"bike_id":"96bae133-2c88-4f4f-a72b-a62518ed1b8a","system_id":"levelo_inurba_marseille","lat":43.27495,"lon":5.42454,"is_reserved":false,"is_disabled":false,"rental_uris":{"android":"levelo://app?vid=96bae133-2c88-4f4f-a72b-a62518ed1b8a","ios":"levelo://app?vid=96bae133-2c88-4f4f-a72b-a62518ed1b8a"},"vehicle_type_id":"4","last_reported":1741889586,"current_range_meters":8000,"station_id":"ce4bhn92rcd13ifvqgrg","pricing_plan_id":"cebpf4jnsgd1na2vs0mg"},{"bike_id":"a2387310-c590-4da0-ba62-d20af2ce5b40","system_id":"levelo_inurba_marseille","lat":43.28435,"lon":5.39207,"is_reserved":false,"is_disabled":false,"rental_uris":{"android":"levelo://app?vid=a2387310-c590-4da0-ba62-d20af2ce5b40","ios":"levelo://app?vid=a2387310-c590-4da0-ba62-d20af2ce5b40"},"vehicle_type_id":"4","last_reported":1741889586,"current_range_meters":8000,"station_id":"ce4bhoh2rcd13ifvqh5g","pricing_plan_id":"cebpf4jnsgd1na2vs0mg"},{"bike_id":"9bb9ddd4-0eb2-4bcc-ad67-c893c3c95f3f","system_id":"levelo_inurba_marseille","lat":43.2731,"lon":5.39071,"is_reserved":false,"is_disabled":false,"rental_uris":{"android":"levelo://app?vid=9bb9ddd4-0eb2-4bcc-ad67-c893c3c95f3f","ios":"levelo://app?vid=9bb9ddd4-0eb2-4bcc-ad67-c893c3c95f3f"},"vehicle_type_id":"4","last_reported":1741889586,"current_range_meters":8400,"station_id":"ce4bhgp2rcd13ifvqfe0","pricing_plan_id":"cebpf4jnsgd1na2vs0mg"},{"bike_id":"646b2372-b559-48b3-b87a-c986e2e1cd4d","system_id":"levelo_inurba_marseille","lat":43.25004,"lon":5.38923,"is_reserved":false,"is_disabled":false,"rental_uris":{"android":"levelo://app?vid=646b2372-b559-48b3-b87a-c986e2e1cd4d","ios":"levelo://app?vid=646b2372-b559-48b3-b87a-c986e2e1cd4d"},"vehicle_type_id":"4","last_reported":1741889586,"current_range_meters":8400,"station_id":"ce4bhgp2rcd13ifvqfd0","pricing_plan_id":"cebpf4jnsgd1na2vs0mg"},{"bike_id":"e7a4b120-18d8-44f4-9662-22f38f4e3cd8","system_id":"levelo_inurba_marseille","lat":43.28072,"lon":5.39654,"is_reserved":false,"is_disabled":false,"rental_uris":{"android":"levelo://app?vid=e7a4b120-18d8-44f4-9662-22f38f4e3cd8","ios":"levelo://app?vid=e7a4b120-18d8-44f4-9662-22f38f4e3cd8"},"vehicle_type_id":"4","last_reported":1741889586,"current_range_meters":8400,"station_id":"ce4bho12rcd13ifvqh2g","pricing_plan_id":"cebpf4jnsgd1na2vs0mg"},{"bike_id":"2abd26f4-27c2-4b19-86d4-34edbc680742","system_id":"levelo_inurba_marseille","lat":43.311699,"lon":5.387193,"is_reserved":false,"is_disabled":false,"rental_uris":{"android":"levelo://app?vid=2abd26f4-27c2-4b19-86d4-34edbc680742","ios":"levelo://app?vid=2abd26f4-27c2-4b19-86d4-34edbc680742"},"vehicle_type_id":"4","last_reported":1741889586,"current_range_meters":8000,"station_id":"ce4bgv12rcd13ifvqcp0","pricing_plan_id":"cebpf4jnsgd1na2vs0mg"},{"bike_id":"f95bcfa9-c4f4-48a0-a907-e3c0755fc6d9","system_id":"levelo_inurba_marseille","lat":43.29421,"lon":5.38618,"is_reserved":false,"is_disabled":false,"rental_uris":{"android":"levelo://app?vid=f95bcfa9-c4f4-48a0-a907-e3c0755fc6d9","ios":"levelo://app?vid=f95bcfa9-c4f4-48a0-a907-e3c0755fc6d9"},"vehicle_type_id":"4","last_reported":1741889586,"current_range_meters":8400,"station_id":"ce4bh2h2rcd13ifvqdh0","pricing_plan_id":"cebpf4jnsgd1na2vs0mg"},{"bike_id":"3903ef33-b776-42c4-81c8-9b28f3e45200","system_id":"levelo_inurba_marseille","lat":43.29898,"lon":5.43661,"is_reserved":false,"is_disabled":false,"rental_uris":{"android":"levelo://app?vid=3903ef33-b776-42c4-81c8-9b28f3e45200","ios":"levelo://app?vid=3903ef33-b776-42c4-81c8-9b28f3e45200"},"vehicle_type_id":"4","last_reported":1741889586,"current_range_meters":8400,"station_id":"ce4bhpp2rcd13ifvqhfg","pricing_plan_id":"cebpf4jnsgd1na2vs0mg"},{"bike_id":"af653205-6ff5-4872-808e-1c43cb4b290e","system_id":"levelo_inurba_marseille","lat":43.2558,"lon":5.38234,"is_reserved":false,"is_disabled":false,"rental_uris":{"android":"levelo://app?vid=af653205-6ff5-4872-808e-1c43cb4b290e","ios":"levelo://app?vid=af653205-6ff5-4872-808e-1c43cb4b290e"},"vehicle_type_id":"4","last_reported":1741889586,"current_range_meters":8800,"station_id":"ce4bhih2rcd13ifvqfs0","pricing_plan_id":"cebpf4jnsgd1na2vs0mg"},{"bike_id":"b0440e8b-9e64-41e2-bf3c-4a0d655b7d3b","system_id":"levelo_inurba_marseille","lat":43.28414,"lon":5.34973,"is_reserved":false,"is_disabled":false,"rental_uris":{"android":"levelo://app?vid=b0440e8b-9e64-41e2-bf3c-4a0d655b7d3b","ios":"levelo://app?vid=b0440e8b-9e64-41e2-bf3c-4a0d655b7d3b"},"vehicle_type_id":"4","last_reported":1741889586,"current_range_meters":9200,"station_id":"ce4bhbh2rcd13ifvqepg","pricing_plan_id":"cebpf4jnsgd1na2vs0mg"},{"bike_id":"71d58b7f-1082-44b6-ae36-622f6323d2aa","system_id":"levelo_inurba_marseille","lat":43.25113,"lon":5.40333,"is_reserved":false,"is_disabled":false,"rental_uris":{"android":"levelo://app?vid=71d58b7f-1082-44b6-ae36-622f6323d2aa","ios":"levelo://app?vid=71d58b7f-1082-44b6-ae36-622f6323d2aa"},"vehicle_type_id":"4","last_reported":1741889586,"current_range_meters":8800,"station_id":"ce4bhlh2rcd13ifvqgig","pricing_plan_id":"cebpf4jnsgd1na2vs0mg"},{"bike_id":"7a8cb092-a6e8-4faa-8533-80d565407a3f","system_id":"levelo_inurba_marseille","lat":43.295684,"lon":5.375252,"is_reserved":false,"is_disabled":false,"rental_uris":{"android":"levelo://app?vid=7a8cb092-a6e8-4faa-8533-80d565407a3f","ios":"levelo://app?vid=7a8cb092-a6e8-4faa-8533-80d565407a3f"},"vehicle_type_id":"4","last_reported":1741889586,"current_range_meters":8400,"station_id":"ce4bgup2rcd13ifvqcn0","pricing_plan_id":"cebpf4jnsgd1na2vs0mg"},{"bike_id":"dd19c9f7-cac8-4e8b-ba7d-bd1548e52eb9","system_id":"levelo_inurba_marseille","lat":43.29981,"lon":5.37175,"is_reserved":false,"is_disabled":false,"rental_uris":{"android":"levelo://app?vid=dd19c9f7-cac8-4e8b-ba7d-bd1548e52eb9","ios":"levelo://app?vid=dd19c9f7-cac8-4e8b-ba7d-bd1548e52eb9"},"vehicle_type_id":"4","last_reported":1741889586,"current_range_meters":6000,"station_id":"ce4bgr92rcd13ifvqc7g","pricing_plan_id":"cebpf4jnsgd1na2vs0mg"},{"bike_id":"78a18e47-52fa-4117-b612-a033e00a07e2","system_id":"levelo_inurba_marseille","lat":43.24644,"lon":5.38901,"is_reserved":false,"is_disabled":false,"rental_uris":{"android":"levelo://app?vid=78a18e47-52fa-4117-b612-a033e00a07e2","ios":"levelo://app?vid=78a18e47-52fa-4117-b612-a033e00a07e2"},"vehicle_type_id":"4","last_reported":1741889586,"current_range_meters":8400,"station_id":"ce4bhg12rcd13ifvqf60","pricing_plan_id":"cebpf4jnsgd1na2vs0mg"},{"bike_id":"fe2dbfad-2b3c-45be-b26a-7ab6c0dcbc97","system_id":"levelo_inurba_marseille","lat":43.30145,"lon":5.37699,"is_reserved":false,"is_disabled":false,"rental_uris":{"android":"levelo://app?vid=fe2dbfad-2b3c-45be-b26a-7ab6c0dcbc97","ios":"levelo://app?vid=fe2dbfad-2b3c-45be-b26a-7ab6c0dcbc97"},"vehicle_type_id":"4","last_reported":1741889586,"current_range_meters":8800,"station_id":"","pricing_plan_id":"cebpf4jnsgd1na2vs0mg"},{"bike_id":"b3fead73-4c4c-401e-81a0-a7fad437c748","system_id":"levelo_inurba_marseille","lat":43.25008,"lon":5.38914,"is_reserved":false,"is_disabled":false,"rental_uris":{"android":"levelo://app?vid=b3fead73-4c4c-401e-81a0-a7fad437c748","ios":"levelo://app?vid=b3fead73-4c4c-401e-81a0-a7fad437c748"},"vehicle_type_id":"4","last_reported":1741889586,"current_range_meters":8800,"station_id":"ce4bhgp2rcd13ifvqfd0","pricing_plan_id":"cebpf4jnsgd1na2vs0mg"},{"bike_id":"455cc0c2-6b3e-42d8-a4df-d67b589abbf4","system_id":"levelo_inurba_marseille","lat":43.28731,"lon":5.3608,"is_reserved":false,"is_disabled":false,"rental_uris":{"android":"levelo://app?vid=455cc0c2-6b3e-42d8-a4df-d67b589abbf4","ios":"levelo://app?vid=455cc0c2-6b3e-42d8-a4df-d67b589abbf4"},"vehicle_type_id":"4","last_reported":1741889586,"current_range_meters":8800,"station_id":"cki0cbj6b192h4jlfktg","pricing_plan_id":"cebpf4jnsgd1na2vs0mg"},{"bike_id":"9f2f8d7d-4051-42ea-bbe5-2aca50ac04bd","system_id":"levelo_inurba_marseille","lat":43.25586,"lon":5.38223,"is_reserved":false,"is_disabled":false,"rental_uris":{"android":"levelo://app?vid=9f2f8d7d-4051-42ea-bbe5-2aca50ac04bd","ios":"levelo://app?vid=9f2f8d7d-4051-42ea-bbe5-2aca50ac04bd"},"vehicle_type_id":"4","last_reported":1741889586,"current_range_meters":9200,"station_id":"ce4bhih2rcd13ifvqfs0","pricing_plan_id":"cebpf4jnsgd1na2vs0mg"},{"bike_id":"8a141c16-df74-48b9-8469-d6f3445c0768","system_id":"levelo_inurba_marseille","lat":43.301943,"lon":5.366293,"is_reserved":false,"is_disabled":false,"rental_uris":{"android":"levelo://app?vid=8a141c16-df74-48b9-8469-d6f3445c0768","ios":"levelo://app?vid=8a141c16-df74-48b9-8469-d6f3445c0768"},"vehicle_type_id":"4","last_reported":1741889586,"current_range_meters":9200,"station_id":"ce4bgrh2rcd13ifvqc8g","pricing_plan_id":"cebpf4jnsgd1na2vs0mg"},{"bike_id":"629060eb-d4eb-49cd-bb94-19d9dec59452","system_id":"levelo_inurba_marseille","lat":43.29886,"lon":5.38893,"is_reserved":false,"is_disabled":false,"rental_uris":{"android":"levelo://app?vid=629060eb-d4eb-49cd-bb94-19d9dec59452","ios":"levelo://app?vid=629060eb-d4eb-49cd-bb94-19d9dec59452"},"vehicle_type_id":"4","last_reported":1741889586,"current_range_meters":9200,"station_id":"ce4bh392rcd13ifvqdl0","pricing_plan_id":"cebpf4jnsgd1na2vs0mg"},{"bike_id":"c928c59f-d25d-4ead-a02d-c3284ea6096c","system_id":"levelo_inurba_marseille","lat":43.31326,"lon":5.39724,"is_reserved":false,"is_disabled":false,"rental_uris":{"android":"levelo://app?vid=c928c59f-d25d-4ead-a02d-c3284ea6096c","ios":"levelo://app?vid=c928c59f-d25d-4ead-a02d-c3284ea6096c"},"vehicle_type_id":"4","last_reported":1741889586,"current_range_meters":9200,"station_id":"ce4bgvp2rcd13ifvqcu0","pricing_plan_id":"cebpf4jnsgd1na2vs0mg"},{"bike_id":"36ebfc17-b6ab-4767-a5e0-c94c11aba8a2","system_id":"levelo_inurba_marseille","lat":43.323679,"lon":5.388841,"is_reserved":false,"is_disabled":false,"rental_uris":{"android":"levelo://app?vid=36ebfc17-b6ab-4767-a5e0-c94c11aba8a2","ios":"levelo://app?vid=36ebfc17-b6ab-4767-a5e0-c94c11aba8a2"},"vehicle_type_id":"4","last_reported":1741889586,"current_range_meters":9600,"station_id":"ce4bhqp2rcd13ifvqhog","pricing_plan_id":"cebpf4jnsgd1na2vs0mg"},{"bike_id":"7b206628-3f93-430e-b262-d87f899b8630","system_id":"levelo_inurba_marseille","lat":43.29933,"lon":5.3655,"is_reserved":false,"is_disabled":false,"rental_uris":{"android":"levelo://app?vid=7b206628-3f93-430e-b262-d87f899b8630","ios":"levelo://app?vid=7b206628-3f93-430e-b262-d87f899b8630"},"vehicle_type_id":"4","last_reported":1741889586,"current_range_meters":9200,"station_id":"ce4bgm92rcd13ifvqbr0","pricing_plan_id":"cebpf4jnsgd1na2vs0mg"},{"bike_id":"54184fa2-bc10-4430-9b0e-4e689a6e5eb5","system_id":"levelo_inurba_marseille","lat":43.30303,"lon":5.36902,"is_reserved":false,"is_disabled":true,"rental_uris":{"android":"levelo://app?vid=54184fa2-bc10-4430-9b0e-4e689a6e5eb5","ios":"levelo://app?vid=54184fa2-bc10-4430-9b0e-4e689a6e5eb5"},"vehicle_type_id":"4","last_reported":1741889586,"current_range_meters":9200,"station_id":"ce4bgqh2rcd13ifvqc5g","pricing_plan_id":"cebpf4jnsgd1na2vs0mg"},{"bike_id":"a60c6b46-5df9-401b-b636-b38779ac6e3c","system_id":"levelo_inurba_marseille","lat":43.29535,"lon":5.38539,"is_reserved":false,"is_disabled":false,"rental_uris":{"android":"levelo://app?vid=a60c6b46-5df9-401b-b636-b38779ac6e3c","ios":"levelo://app?vid=a60c6b46-5df9-401b-b636-b38779ac6e3c"},"vehicle_type_id":"4","last_reported":1741889586,"current_range_meters":9200,"station_id":"ce4bgih2rcd13ifvqba0","pricing_plan_id":"cebpf4jnsgd1na2vs0mg"},{"bike_id":"de449842-94b7-4ef5-af31-b5f64143c24d","system_id":"levelo_inurba_marseille","lat":43.30415,"lon":5.41279,"is_reserved":false,"is_disabled":false,"rental_uris":{"android":"levelo://app?vid=de449842-94b7-4ef5-af31-b5f64143c24d","ios":"levelo://app?vid=de449842-94b7-4ef5-af31-b5f64143c24d"},"vehicle_type_id":"4","last_reported":1741889586,"current_range_meters":9200,"station_id":"ce4bhop2rcd13ifvqh8g","pricing_plan_id":"cebpf4jnsgd1na2vs0mg"},{"bike_id":"57c3c784-eda9-4425-aa14-fff9907e74da","system_id":"levelo_inurba_marseille","lat":43.2868,"lon":5.38662,"is_reserved":false,"is_disabled":false,"rental_uris":{"android":"levelo://app?vid=57c3c784-eda9-4425-aa14-fff9907e74da","ios":"levelo://app?vid=57c3c784-eda9-4425-aa14-fff9907e74da"},"vehicle_type_id":"4","last_reported":1741889586,"current_range_meters":9200,"station_id":"ce4bh492rcd13ifvqdug","pricing_plan_id":"cebpf4jnsgd1na2vs0mg"},{"bike_id":"ee5f35c2-46c0-4dd1-91ed-c09503a439d2","system_id":"levelo_inurba_marseille","lat":43.31367,"lon":5.38494,"is_reserved":false,"is_disabled":false,"rental_uris":{"android":"levelo://app?vid=ee5f35c2-46c0-4dd1-91ed-c09503a439d2","ios":"levelo://app?vid=ee5f35c2-46c0-4dd1-91ed-c09503a439d2"},"vehicle_type_id":"4","last_reported":1741889586,"current_range_meters":9200,"station_id":"ce4bgt92rcd13ifvqcf0","pricing_plan_id":"cebpf4jnsgd1na2vs0mg"},{"bike_id":"0297e90c-047d-4664-8459-5e09f0a1ae4a","system_id":"levelo_inurba_marseille","lat":43.30257,"lon":5.40093,"is_reserved":false,"is_disabled":false,"rental_uris":{"android":"levelo://app?vid=0297e90c-047d-4664-8459-5e09f0a1ae4a","ios":"levelo://app?vid=0297e90c-047d-4664-8459-5e09f0a1ae4a"},"vehicle_type_id":"4","last_reported":1741889586,"current_range_meters":9200,"station_id":"ce4bgvh2rcd13ifvqcs0","pricing_plan_id":"cebpf4jnsgd1na2vs0mg"},{"bike_id":"39df283f-35a5-4c44-9f0d-6dd6923a19a4","system_id":"levelo_inurba_marseille","lat":43.32114,"lon":5.36788,"is_reserved":false,"is_disabled":false,"rental_uris":{"android":"levelo://app?vid=39df283f-35a5-4c44-9f0d-6dd6923a19a4","ios":"levelo://app?vid=39df283f-35a5-4c44-9f0d-6dd6923a19a4"},"vehicle_type_id":"4","last_reported":1741889586,"current_range_meters":9200,"station_id":"ce4bhrh2rcd13ifvqhug","pricing_plan_id":"cebpf4jnsgd1na2vs0mg"},{"bike_id":"50b380bb-89c1-4784-bb85-891d5709afae","system_id":"levelo_inurba_marseille","lat":43.32335,"lon":5.4062,"is_reserved":false,"is_disabled":false,"rental_uris":{"android":"levelo://app?vid=50b380bb-89c1-4784-bb85-891d5709afae","ios":"levelo://app?vid=50b380bb-89c1-4784-bb85-891d5709afae"},"vehicle_type_id":"4","last_reported":1741889586,"current_range_meters":9600,"station_id":"ce4bhq92rcd13ifvqhjg","pricing_plan_id":"cebpf4jnsgd1na2vs0mg"},{"bike_id":"eb24c2a2-a62a-48d8-bdde-1c20d94cb744","system_id":"levelo_inurba_marseille","lat":43.30789,"lon":5.37643,"is_reserved":false,"is_disabled":false,"rental_uris":{"android":"levelo://app?vid=eb24c2a2-a62a-48d8-bdde-1c20d94cb744","ios":"levelo://app?vid=eb24c2a2-a62a-48d8-bdde-1c20d94cb744"},"vehicle_type_id":"4","last_reported":1741889586,"current_range_meters":9600,"station_id":"ce4bgv92rcd13ifvqcq0","pricing_plan_id":"cebpf4jnsgd1na2vs0mg"},{"bike_id":"e43c81c0-67a0-4c25-9297-ec248fcfb8d5","system_id":"levelo_inurba_marseille","lat":43.24078,"lon":5.37753,"is_reserved":false,"is_disabled":false,"rental_uris":{"android":"levelo://app?vid=e43c81c0-67a0-4c25-9297-ec248fcfb8d5","ios":"levelo://app?vid=e43c81c0-67a0-4c25-9297-ec248fcfb8d5"},"vehicle_type_id":"4","last_reported":1741889586,"current_range_meters":9600,"station_id":"ce4bhnp2rcd13ifvqgvg","pricing_plan_id":"cebpf4jnsgd1na2vs0mg"},{"bike_id":"93c52f56-a548-459b-89af-fe4ff223cdb7","system_id":"levelo_inurba_marseille","lat":43.23183,"lon":5.39987,"is_reserved":false,"is_disabled":false,"rental_uris":{"android":"levelo://app?vid=93c52f56-a548-459b-89af-fe4ff223cdb7","ios":"levelo://app?vid=93c52f56-a548-459b-89af-fe4ff223cdb7"},"vehicle_type_id":"4","last_reported":1741889586,"current_range_meters":9600,"station_id":"ce4bhn12rcd13ifvqgqg","pricing_plan_id":"cebpf4jnsgd1na2vs0mg"},{"bike_id":"e1da572f-ad8b-4742-b030-a06cb48803e5","system_id":"levelo_inurba_marseille","lat":43.28979,"lon":5.378221,"is_reserved":false,"is_disabled":false,"rental_uris":{"android":"levelo://app?vid=e1da572f-ad8b-4742-b030-a06cb48803e5","ios":"levelo://app?vid=e1da572f-ad8b-4742-b030-a06cb48803e5"},"vehicle_type_id":"4","last_reported":1741889586,"current_range_meters":9200,"station_id":"ce4bh9p2rcd13ifvqed0","pricing_plan_id":"cebpf4jnsgd1na2vs0mg"},{"bike_id":"410eb1d2-318c-4646-9e8a-d4ef69529af2","system_id":"levelo_inurba_marseille","lat":43.29787,"lon":5.37113,"is_reserved":false,"is_disabled":false,"rental_uris":{"android":"levelo://app?vid=410eb1d2-318c-4646-9e8a-d4ef69529af2","ios":"levelo://app?vid=410eb1d2-318c-4646-9e8a-d4ef69529af2"},"vehicle_type_id":"4","last_reported":1741889586,"current_range_meters":9200,"station_id":"ce4bgop2rcd13ifvqc1g","pricing_plan_id":"cebpf4jnsgd1na2vs0mg"},{"bike_id":"c2a123e4-4164-4701-9f6f-75a65a609146","system_id":"levelo_inurba_marseille","lat":43.30407,"lon":5.38887,"is_reserved":false,"is_disabled":false,"rental_uris":{"android":"levelo://app?vid=c2a123e4-4164-4701-9f6f-75a65a609146","ios":"levelo://app?vid=c2a123e4-4164-4701-9f6f-75a65a609146"},"vehicle_type_id":"4","last_reported":1741889586,"current_range_meters":9600,"station_id":"ce4bgk12rcd13ifvqbi0","pricing_plan_id":"cebpf4jnsgd1na2vs0mg"},{"bike_id":"154d0f4a-7cf1-4b4a-8919-807104d462e1","system_id":"levelo_inurba_marseille","lat":43.26653,"lon":5.38635,"is_reserved":false,"is_disabled":false,"rental_uris":{"android":"levelo://app?vid=154d0f4a-7cf1-4b4a-8919-807104d462e1","ios":"levelo://app?vid=154d0f4a-7cf1-4b4a-8919-807104d462e1"},"vehicle_type_id":"4","last_reported":1741889586,"current_range_meters":9600,"station_id":"","pricing_plan_id":"cebpf4jnsgd1na2vs0mg"},{"bike_id":"1cbeb49c-8d51-46f2-ad03-8af78ea79d9a","system_id":"levelo_inurba_marseille","lat":43.24166,"lon":5.39714,"is_reserved":false,"is_disabled":false,"rental_uris":{"android":"levelo://app?vid=1cbeb49c-8d51-46f2-ad03-8af78ea79d9a","ios":"levelo://app?vid=1cbeb49c-8d51-46f2-ad03-8af78ea79d9a"},"vehicle_type_id":"4","last_reported":1741889586,"current_range_meters":9600,"station_id":"ce4bhn12rcd13ifvqgpg","pricing_plan_id":"cebpf4jnsgd1na2vs0mg"},{"bike_id":"d0be61ee-8c6c-4bf7-99b6-f099a281a656","system_id":"levelo_inurba_marseille","lat":43.25005,"lon":5.38934,"is_reserved":false,"is_disabled":false,"rental_uris":{"android":"levelo://app?vid=d0be61ee-8c6c-4bf7-99b6-f099a281a656","ios":"levelo://app?vid=d0be61ee-8c6c-4bf7-99b6-f099a281a656"},"vehicle_type_id":"4","last_reported":1741889586,"current_range_meters":9600,"station_id":"ce4bhgp2rcd13ifvqfd0","pricing_plan_id":"cebpf4jnsgd1na2vs0mg"},{"bike_id":"ebf3efe3-fd16-4aca-960b-e888b29cb724","system_id":"levelo_inurba_marseille","lat":43.29722,"lon":5.36576,"is_reserved":false,"is_disabled":false,"rental_uris":{"android":"levelo://app?vid=ebf3efe3-fd16-4aca-960b-e888b29cb724","ios":"levelo://app?vid=ebf3efe3-fd16-4aca-960b-e888b29cb724"},"vehicle_type_id":"4","last_reported":1741889586,"current_range_meters":9600,"station_id":"ce4bgn12rcd13ifvqbt0","pricing_plan_id":"cebpf4jnsgd1na2vs0mg"},{"bike_id":"f882a392-ae78-4c80-be81-89add5ef550e","system_id":"levelo_inurba_marseille","lat":43.26069,"lon":5.39394,"is_reserved":false,"is_disabled":false,"rental_uris":{"android":"levelo://app?vid=f882a392-ae78-4c80-be81-89add5ef550e","ios":"levelo://app?vid=f882a392-ae78-4c80-be81-89add5ef550e"},"vehicle_type_id":"4","last_reported":1741889586,"current_range_meters":9600,"station_id":"ce4bhh92rcd13ifvqfj0","pricing_plan_id":"cebpf4jnsgd1na2vs0mg"},{"bike_id":"b3959688-4301-40dd-890d-d0b1d13ab48a","system_id":"levelo_inurba_marseille","lat":43.30944,"lon":5.39032,"is_reserved":false,"is_disabled":false,"rental_uris":{"android":"levelo://app?vid=b3959688-4301-40dd-890d-d0b1d13ab48a","ios":"levelo://app?vid=b3959688-4301-40dd-890d-d0b1d13ab48a"},"vehicle_type_id":"4","last_reported":1741889586,"current_range_meters":10000,"station_id":"ce4bgup2rcd13ifvqco0","pricing_plan_id":"cebpf4jnsgd1na2vs0mg"},{"bike_id":"76a1a065-7414-4909-8e1f-d9664a62f90e","system_id":"levelo_inurba_marseille","lat":43.2807,"lon":5.36935,"is_reserved":false,"is_disabled":false,"rental_uris":{"android":"levelo://app?vid=76a1a065-7414-4909-8e1f-d9664a62f90e","ios":"levelo://app?vid=76a1a065-7414-4909-8e1f-d9664a62f90e"},"vehicle_type_id":"4","last_reported":1741889586,"current_range_meters":10000,"station_id":"ce4bha12rcd13ifvqef0","pricing_plan_id":"cebpf4jnsgd1na2vs0mg"},{"bike_id":"4888b914-9ed1-405a-a877-d2c0a9a69bf5","system_id":"levelo_inurba_marseille","lat":43.27808,"lon":5.40706,"is_reserved":false,"is_disabled":false,"rental_uris":{"android":"levelo://app?vid=4888b914-9ed1-405a-a877-d2c0a9a69bf5","ios":"levelo://app?vid=4888b914-9ed1-405a-a877-d2c0a9a69bf5"},"vehicle_type_id":"4","last_reported":1741889586,"current_range_meters":10000,"station_id":"ce4bhnh2rcd13ifvqgtg","pricing_plan_id":"cebpf4jnsgd1na2vs0mg"},{"bike_id":"1179ea35-4831-4438-984a-d67269a5255b","system_id":"levelo_inurba_marseille","lat":43.232029,"lon":5.355498,"is_reserved":false,"is_disabled":false,"rental_uris":{"android":"levelo://app?vid=1179ea35-4831-4438-984a-d67269a5255b","ios":"levelo://app?vid=1179ea35-4831-4438-984a-d67269a5255b"},"vehicle_type_id":"4","last_reported":1741889586,"current_range_meters":10000,"station_id":"ce4bhu92rcd13ifvqi70","pricing_plan_id":"cebpf4jnsgd1na2vs0mg"},{"bike_id":"43835326-78b9-42ff-a7b6-1bd4a9d2b66e","system_id":"levelo_inurba_marseille","lat":43.27942,"lon":5.41045,"is_reserved":false,"is_disabled":false,"rental_uris":{"android":"levelo://app?vid=43835326-78b9-42ff-a7b6-1bd4a9d2b66e","ios":"levelo://app?vid=43835326-78b9-42ff-a7b6-1bd4a9d2b66e"},"vehicle_type_id":"4","last_reported":1741889586,"current_range_meters":10000,"station_id":"ce4bhnp2rcd13ifvqh0g","pricing_plan_id":"cebpf4jnsgd1na2vs0mg"},{"bike_id":"e7d1e906-9f9e-42fc-ac7a-19b7e1008bdf","system_id":"levelo_inurba_marseille","lat":43.29255,"lon":5.38456,"is_reserved":false,"is_disabled":false,"rental_uris":{"android":"levelo://app?vid=e7d1e906-9f9e-42fc-ac7a-19b7e1008bdf","ios":"levelo://app?vid=e7d1e906-9f9e-42fc-ac7a-19b7e1008bdf"},"vehicle_type_id":"4","last_reported":1741889586,"current_range_meters":10000,"station_id":"ce4bh692rcd13ifvqea0","pricing_plan_id":"cebpf4jnsgd1na2vs0mg"},{"bike_id":"a28114c5-42b0-4925-8a54-de3650b22fe9","system_id":"levelo_inurba_marseille","lat":43.30313,"lon":5.369,"is_reserved":false,"is_disabled":false,"rental_uris":{"android":"levelo://app?vid=a28114c5-42b0-4925-8a54-de3650b22fe9","ios":"levelo://app?vid=a28114c5-42b0-4925-8a54-de3650b22fe9"},"vehicle_type_id":"4","last_reported":1741889586,"current_range_meters":10000,"station_id":"ce4bgqh2rcd13ifvqc5g","pricing_plan_id":"cebpf4jnsgd1na2vs0mg"},{"bike_id":"6307ec30-142e-4380-a1b4-79305fa6f44a","system_id":"levelo_inurba_marseille","lat":43.25737,"lon":5.410985,"is_reserved":false,"is_disabled":true,"rental_uris":{"android":"levelo://app?vid=6307ec30-142e-4380-a1b4-79305fa6f44a","ios":"levelo://app?vid=6307ec30-142e-4380-a1b4-79305fa6f44a"},"vehicle_type_id":"4","last_reported":1741889586,"current_range_meters":10000,"station_id":"","pricing_plan_id":"cebpf4jnsgd1na2vs0mg"},{"bike_id":"5233e443-1736-449b-bfef-634509c8ee4b","system_id":"levelo_inurba_marseille","lat":43.294831,"lon":5.386464,"is_reserved":false,"is_disabled":false,"rental_uris":{"android":"levelo://app?vid=5233e443-1736-449b-bfef-634509c8ee4b","ios":"levelo://app?vid=5233e443-1736-449b-bfef-634509c8ee4b"},"vehicle_type_id":"4","last_reported":1741889586,"current_range_meters":10000,"station_id":"","pricing_plan_id":"cebpf4jnsgd1na2vs0mg"},{"bike_id":"8c4e2b01-9679-46b7-86e3-aa2306d13c64","system_id":"levelo_inurba_marseille","lat":43.27834,"lon":5.39204,"is_reserved":false,"is_disabled":false,"rental_uris":{"android":"levelo://app?vid=8c4e2b01-9679-46b7-86e3-aa2306d13c64","ios":"levelo://app?vid=8c4e2b01-9679-46b7-86e3-aa2306d13c64"},"vehicle_type_id":"4","last_reported":1741889586,"current_range_meters":10000,"station_id":"ce4bhjp2rcd13ifvqga0","pricing_plan_id":"cebpf4jnsgd1na2vs0mg"},{"bike_id":"db1d9945-452a-48d1-a218-9d250e8fb884","system_id":"levelo_inurba_marseille","lat":43.31337,"lon":5.39711,"is_reserved":false,"is_disabled":false,"rental_uris":{"android":"levelo://app?vid=db1d9945-452a-48d1-a218-9d250e8fb884","ios":"levelo://app?vid=db1d9945-452a-48d1-a218-9d250e8fb884"},"vehicle_type_id":"4","last_reported":1741889586,"current_range_meters":10000,"station_id":"ce4bgvp2rcd13ifvqcu0","pricing_plan_id":"cebpf4jnsgd1na2vs0mg"},{"bike_id":"4b112a33-2820-4625-96c9-8f07ae7ff329","system_id":"levelo_inurba_marseille","lat":43.308,"lon":5.43524,"is_reserved":false,"is_disabled":false,"rental_uris":{"android":"levelo://app?vid=4b112a33-2820-4625-96c9-8f07ae7ff329","ios":"levelo://app?vid=4b112a33-2820-4625-96c9-8f07ae7ff329"},"vehicle_type_id":"4","last_reported":1741889586,"current_range_meters":10000,"station_id":"ce4bhph2rcd13ifvqheg","pricing_plan_id":"cebpf4jnsgd1na2vs0mg"},{"bike_id":"c86e5fec-57ba-43cd-9720-fdc7c826c8d9","system_id":"levelo_inurba_marseille","lat":43.30413,"lon":5.41281,"is_reserved":false,"is_disabled":false,"rental_uris":{"android":"levelo://app?vid=c86e5fec-57ba-43cd-9720-fdc7c826c8d9","ios":"levelo://app?vid=c86e5fec-57ba-43cd-9720-fdc7c826c8d9"},"vehicle_type_id":"4","last_reported":1741889586,"current_range_meters":10800,"station_id":"ce4bhop2rcd13ifvqh8g","pricing_plan_id":"cebpf4jnsgd1na2vs0mg"},{"bike_id":"c5d803a6-9037-4407-aa7b-a5db118466b2","system_id":"levelo_inurba_marseille","lat":43.29971,"lon":5.3848,"is_reserved":false,"is_disabled":false,"rental_uris":{"android":"levelo://app?vid=c5d803a6-9037-4407-aa7b-a5db118466b2","ios":"levelo://app?vid=c5d803a6-9037-4407-aa7b-a5db118466b2"},"vehicle_type_id":"4","last_reported":1741889586,"current_range_meters":10800,"station_id":"ce4bgj92rcd13ifvqbd0","pricing_plan_id":"cebpf4jnsgd1na2vs0mg"},{"bike_id":"4760c4a3-2ebc-4787-9bfd-517781e41b15","system_id":"levelo_inurba_marseille","lat":43.28629,"lon":5.3709,"is_reserved":false,"is_disabled":false,"rental_uris":{"android":"levelo://app?vid=4760c4a3-2ebc-4787-9bfd-517781e41b15","ios":"levelo://app?vid=4760c4a3-2ebc-4787-9bfd-517781e41b15"},"vehicle_type_id":"4","last_reported":1741889586,"current_range_meters":10800,"station_id":"ce4bht12rcd13ifvqi60","pricing_plan_id":"cebpf4jnsgd1na2vs0mg"},{"bike_id":"abad49e6-1693-4c67-8b52-490406fea6ce","system_id":"levelo_inurba_marseille","lat":43.31474,"lon":5.37363,"is_reserved":false,"is_disabled":false,"rental_uris":{"android":"levelo://app?vid=abad49e6-1693-4c67-8b52-490406fea6ce","ios":"levelo://app?vid=abad49e6-1693-4c67-8b52-490406fea6ce"},"vehicle_type_id":"4","last_reported":1741889586,"current_range_meters":10800,"station_id":"","pricing_plan_id":"cebpf4jnsgd1na2vs0mg"},{"bike_id":"7e68ab91-64b1-4ca8-90d6-c2d2040b8729","system_id":"levelo_inurba_marseille","lat":43.23189,"lon":5.39982,"is_reserved":false,"is_disabled":false,"rental_uris":{"android":"levelo://app?vid=7e68ab91-64b1-4ca8-90d6-c2d2040b8729","ios":"levelo://app?vid=7e68ab91-64b1-4ca8-90d6-c2d2040b8729"},"vehicle_type_id":"4","last_reported":1741889586,"current_range_meters":10800,"station_id":"ce4bhn12rcd13ifvqgqg","pricing_plan_id":"cebpf4jnsgd1na2vs0mg"},{"bike_id":"a132a20a-0b84-4552-96cb-09a635ef7cdb","system_id":"levelo_inurba_marseille","lat":43.29263,"lon":5.38435,"is_reserved":false,"is_disabled":false,"rental_uris":{"android":"levelo://app?vid=a132a20a-0b84-4552-96cb-09a635ef7cdb","ios":"levelo://app?vid=a132a20a-0b84-4552-96cb-09a635ef7cdb"},"vehicle_type_id":"4","last_reported":1741889586,"current_range_meters":10800,"station_id":"ce4bh692rcd13ifvqea0","pricing_plan_id":"cebpf4jnsgd1na2vs0mg"},{"bike_id":"adc19d58-42fd-430c-add4-d7256db7f7d3","system_id":"levelo_inurba_marseille","lat":43.28691,"lon":5.37379,"is_reserved":false,"is_disabled":false,"rental_uris":{"android":"levelo://app?vid=adc19d58-42fd-430c-add4-d7256db7f7d3","ios":"levelo://app?vid=adc19d58-42fd-430c-add4-d7256db7f7d3"},"vehicle_type_id":"4","last_reported":1741889586,"current_range_meters":10000,"station_id":"ce4bh3p2rcd13ifvqdq0","pricing_plan_id":"cebpf4jnsgd1na2vs0mg"},{"bike_id":"f23ac278-792b-4ed4-8bb2-78d6569ebc9d","system_id":"levelo_inurba_marseille","lat":43.30883,"lon":5.39658,"is_reserved":false,"is_disabled":false,"rental_uris":{"android":"levelo://app?vid=f23ac278-792b-4ed4-8bb2-78d6569ebc9d","ios":"levelo://app?vid=f23ac278-792b-4ed4-8bb2-78d6569ebc9d"},"vehicle_type_id":"4","last_reported":1741889586,"current_range_meters":11200,"station_id":"ce4bh012rcd13ifvqcv0","pricing_plan_id":"cebpf4jnsgd1na2vs0mg"},{"bike_id":"0f35e426-0609-40e5-b230-c81618e6dcf5","system_id":"levelo_inurba_marseille","lat":43.279175,"lon":5.379911,"is_reserved":false,"is_disabled":false,"rental_uris":{"android":"levelo://app?vid=0f35e426-0609-40e5-b230-c81618e6dcf5","ios":"levelo://app?vid=0f35e426-0609-40e5-b230-c81618e6dcf5"},"vehicle_type_id":"4","last_reported":1741889586,"current_range_meters":11200,"station_id":"ce4bhf92rcd13ifvqf50","pricing_plan_id":"cebpf4jnsgd1na2vs0mg"},{"bike_id":"4f2ddad8-944b-4f7f-88fd-24992043188c","system_id":"levelo_inurba_marseille","lat":43.30923,"lon":5.4018,"is_reserved":false,"is_disabled":false,"rental_uris":{"android":"levelo://app?vid=4f2ddad8-944b-4f7f-88fd-24992043188c","ios":"levelo://app?vid=4f2ddad8-944b-4f7f-88fd-24992043188c"},"vehicle_type_id":"4","last_reported":1741889586,"current_range_meters":11200,"station_id":"ce4bgvp2rcd13ifvqct0","pricing_plan_id":"cebpf4jnsgd1na2vs0mg"},{"bike_id":"39004f47-d79c-4d17-a470-44421cbf407c","system_id":"levelo_inurba_marseille","lat":43.31995,"lon":5.38164,"is_reserved":false,"is_disabled":false,"rental_uris":{"android":"levelo://app?vid=39004f47-d79c-4d17-a470-44421cbf407c","ios":"levelo://app?vid=39004f47-d79c-4d17-a470-44421cbf407c"},"vehicle_type_id":"4","last_reported":1741889586,"current_range_meters":11200,"station_id":"ce4bhr12rcd13ifvqhpg","pricing_plan_id":"cebpf4jnsgd1na2vs0mg"},{"bike_id":"be032bdf-fb9e-4a87-aa6d-ada034ed44e6","system_id":"levelo_inurba_marseille","lat":43.27817,"lon":5.40715,"is_reserved":false,"is_disabled":false,"rental_uris":{"android":"levelo://app?vid=be032bdf-fb9e-4a87-aa6d-ada034ed44e6","ios":"levelo://app?vid=be032bdf-fb9e-4a87-aa6d-ada034ed44e6"},"vehicle_type_id":"4","last_reported":1741889586,"current_range_meters":11200,"station_id":"ce4bhnh2rcd13ifvqgtg","pricing_plan_id":"cebpf4jnsgd1na2vs0mg"},{"bike_id":"6944bb06-8a8c-4cf4-86a1-ca9561cf4ee4","system_id":"levelo_inurba_marseille","lat":43.23057,"lon":5.35478,"is_reserved":false,"is_disabled":false,"rental_uris":{"android":"levelo://app?vid=6944bb06-8a8c-4cf4-86a1-ca9561cf4ee4","ios":"levelo://app?vid=6944bb06-8a8c-4cf4-86a1-ca9561cf4ee4"},"vehicle_type_id":"4","last_reported":1741889586,"current_range_meters":11200,"station_id":"cpo3342slgdg3j2ifvpg","pricing_plan_id":"cebpf4jnsgd1na2vs0mg"},{"bike_id":"d2c1304d-c6de-4e19-a363-2c0c4bdd9fb1","system_id":"levelo_inurba_marseille","lat":43.24657,"lon":5.38904,"is_reserved":false,"is_disabled":false,"rental_uris":{"android":"levelo://app?vid=d2c1304d-c6de-4e19-a363-2c0c4bdd9fb1","ios":"levelo://app?vid=d2c1304d-c6de-4e19-a363-2c0c4bdd9fb1"},"vehicle_type_id":"4","last_reported":1741889586,"current_range_meters":11200,"station_id":"ce4bhg12rcd13ifvqf60","pricing_plan_id":"cebpf4jnsgd1na2vs0mg"},{"bike_id":"414a87d8-0320-4da5-94cb-1c2e9eb2c2e2","system_id":"levelo_inurba_marseille","lat":43.2582,"lon":5.39424,"is_reserved":false,"is_disabled":false,"rental_uris":{"android":"levelo://app?vid=414a87d8-0320-4da5-94cb-1c2e9eb2c2e2","ios":"levelo://app?vid=414a87d8-0320-4da5-94cb-1c2e9eb2c2e2"},"vehicle_type_id":"4","last_reported":1741889586,"current_range_meters":11600,"station_id":"ce4bhip2rcd13ifvqft0","pricing_plan_id":"cebpf4jnsgd1na2vs0mg"},{"bike_id":"ec96b214-56a6-4965-95d3-d0c013927455","system_id":"levelo_inurba_marseille","lat":43.27811,"lon":5.40714,"is_reserved":false,"is_disabled":false,"rental_uris":{"android":"levelo://app?vid=ec96b214-56a6-4965-95d3-d0c013927455","ios":"levelo://app?vid=ec96b214-56a6-4965-95d3-d0c013927455"},"vehicle_type_id":"4","last_reported":1741889586,"current_range_meters":11600,"station_id":"ce4bhnh2rcd13ifvqgtg","pricing_plan_id":"cebpf4jnsgd1na2vs0mg"},{"bike_id":"6cec560f-8635-4801-8462-637e6f2c72c5","system_id":"levelo_inurba_marseille","lat":43.232,"lon":5.35552,"is_reserved":false,"is_disabled":false,"rental_uris":{"android":"levelo://app?vid=6cec560f-8635-4801-8462-637e6f2c72c5","ios":"levelo://app?vid=6cec560f-8635-4801-8462-637e6f2c72c5"},"vehicle_type_id":"4","last_reported":1741889586,"current_range_meters":11600,"station_id":"ce4bhu92rcd13ifvqi70","pricing_plan_id":"cebpf4jnsgd1na2vs0mg"},{"bike_id":"317454e4-dd48-4611-814d-533bcc596415","system_id":"levelo_inurba_marseille","lat":43.29016,"lon":5.37559,"is_reserved":false,"is_disabled":false,"rental_uris":{"android":"levelo://app?vid=317454e4-dd48-4611-814d-533bcc596415","ios":"levelo://app?vid=317454e4-dd48-4611-814d-533bcc596415"},"vehicle_type_id":"4","last_reported":1741889586,"current_range_meters":11600,"station_id":"ce4bh692rcd13ifvqe90","pricing_plan_id":"cebpf4jnsgd1na2vs0mg"},{"bike_id":"b1ba3a54-c3c8-401a-b343-348633a347da","system_id":"levelo_inurba_marseille","lat":43.30879,"lon":5.39646,"is_reserved":false,"is_disabled":false,"rental_uris":{"android":"levelo://app?vid=b1ba3a54-c3c8-401a-b343-348633a347da","ios":"levelo://app?vid=b1ba3a54-c3c8-401a-b343-348633a347da"},"vehicle_type_id":"4","last_reported":1741889586,"current_range_meters":11600,"station_id":"ce4bh012rcd13ifvqcv0","pricing_plan_id":"cebpf4jnsgd1na2vs0mg"},{"bike_id":"2f66abe0-56a3-4fdd-bb4f-c39ce0ad834d","system_id":"levelo_inurba_marseille","lat":43.29281,"lon":5.4012,"is_reserved":false,"is_disabled":false,"rental_uris":{"android":"levelo://app?vid=2f66abe0-56a3-4fdd-bb4f-c39ce0ad834d","ios":"levelo://app?vid=2f66abe0-56a3-4fdd-bb4f-c39ce0ad834d"},"vehicle_type_id":"4","last_reported":1741889586,"current_range_meters":11600,"station_id":"ce4bh312rcd13ifvqdk0","pricing_plan_id":"cebpf4jnsgd1na2vs0mg"},{"bike_id":"5178dfd3-434d-4445-823f-02492d981732","system_id":"levelo_inurba_marseille","lat":43.290711,"lon":5.371561,"is_reserved":false,"is_disabled":false,"rental_uris":{"android":"levelo://app?vid=5178dfd3-434d-4445-823f-02492d981732","ios":"levelo://app?vid=5178dfd3-434d-4445-823f-02492d981732"},"vehicle_type_id":"4","last_reported":1741889586,"current_range_meters":11600,"station_id":"ce4bhgh2rcd13ifvqfb0","pricing_plan_id":"cebpf4jnsgd1na2vs0mg"},{"bike_id":"8a7d6fbc-9324-4554-9abc-ceeffff483c4","system_id":"levelo_inurba_marseille","lat":43.32361,"lon":5.38883,"is_reserved":false,"is_disabled":false,"rental_uris":{"android":"levelo://app?vid=8a7d6fbc-9324-4554-9abc-ceeffff483c4","ios":"levelo://app?vid=8a7d6fbc-9324-4554-9abc-ceeffff483c4"},"vehicle_type_id":"4","last_reported":1741889586,"current_range_meters":11600,"station_id":"ce4bhqp2rcd13ifvqhog","pricing_plan_id":"cebpf4jnsgd1na2vs0mg"},{"bike_id":"7121d818-13e2-43ed-b445-7134fefdd64f","system_id":"levelo_inurba_marseille","lat":43.23195,"lon":5.35545,"is_reserved":false,"is_disabled":false,"rental_uris":{"android":"levelo://app?vid=7121d818-13e2-43ed-b445-7134fefdd64f","ios":"levelo://app?vid=7121d818-13e2-43ed-b445-7134fefdd64f"},"vehicle_type_id":"4","last_reported":1741889586,"current_range_meters":12000,"station_id":"ce4bhu92rcd13ifvqi70","pricing_plan_id":"cebpf4jnsgd1na2vs0mg"},{"bike_id":"63767377-c964-4303-951f-282b026ac978","system_id":"levelo_inurba_marseille","lat":43.31119,"lon":5.37766,"is_reserved":false,"is_disabled":false,"rental_uris":{"android":"levelo://app?vid=63767377-c964-4303-951f-282b026ac978","ios":"levelo://app?vid=63767377-c964-4303-951f-282b026ac978"},"vehicle_type_id":"4","last_reported":1741889586,"current_range_meters":12000,"station_id":"ce4bgt92rcd13ifvqcg0","pricing_plan_id":"cebpf4jnsgd1na2vs0mg"},{"bike_id":"d775de8f-f8a5-4fcc-a58e-af1e3c8c2548","system_id":"levelo_inurba_marseille","lat":43.29023,"lon":5.38645,"is_reserved":false,"is_disabled":false,"rental_uris":{"android":"levelo://app?vid=d775de8f-f8a5-4fcc-a58e-af1e3c8c2548","ios":"levelo://app?vid=d775de8f-f8a5-4fcc-a58e-af1e3c8c2548"},"vehicle_type_id":"4","last_reported":1741889586,"current_range_meters":12000,"station_id":"ce4bh4p2rcd13ifvqe0g","pricing_plan_id":"cebpf4jnsgd1na2vs0mg"},{"bike_id":"d76c4db0-da30-4240-8188-16574b598496","system_id":"levelo_inurba_marseille","lat":43.28405,"lon":5.37513,"is_reserved":false,"is_disabled":false,"rental_uris":{"android":"levelo://app?vid=d76c4db0-da30-4240-8188-16574b598496","ios":"levelo://app?vid=d76c4db0-da30-4240-8188-16574b598496"},"vehicle_type_id":"4","last_reported":1741889586,"current_range_meters":12000,"station_id":"ce4bh412rcd13ifvqds0","pricing_plan_id":"cebpf4jnsgd1na2vs0mg"},{"bike_id":"028f17c7-850e-4aef-92ce-91714e3c8bd2","system_id":"levelo_inurba_marseille","lat":43.27308,"lon":5.39074,"is_reserved":false,"is_disabled":false,"rental_uris":{"android":"levelo://app?vid=028f17c7-850e-4aef-92ce-91714e3c8bd2","ios":"levelo://app?vid=028f17c7-850e-4aef-92ce-91714e3c8bd2"},"vehicle_type_id":"4","last_reported":1741889586,"current_range_meters":12000,"station_id":"ce4bhgp2rcd13ifvqfe0","pricing_plan_id":"cebpf4jnsgd1na2vs0mg"},{"bike_id":"6a2aebc8-555f-4cac-9b9d-413e1513cfdb","system_id":"levelo_inurba_marseille","lat":43.33022,"lon":5.39045,"is_reserved":false,"is_disabled":false,"rental_uris":{"android":"levelo://app?vid=6a2aebc8-555f-4cac-9b9d-413e1513cfdb","ios":"levelo://app?vid=6a2aebc8-555f-4cac-9b9d-413e1513cfdb"},"vehicle_type_id":"4","last_reported":1741889586,"current_range_meters":12400,"station_id":"ce4bhr92rcd13ifvqhrg","pricing_plan_id":"cebpf4jnsgd1na2vs0mg"},{"bike_id":"bf7035b0-43dc-4781-beb1-fc31690da7ef","system_id":"levelo_inurba_marseille","lat":43.2397,"lon":5.36615,"is_reserved":false,"is_disabled":false,"rental_uris":{"android":"levelo://app?vid=bf7035b0-43dc-4781-beb1-fc31690da7ef","ios":"levelo://app?vid=bf7035b0-43dc-4781-beb1-fc31690da7ef"},"vehicle_type_id":"4","last_reported":1741889586,"current_range_meters":12400,"station_id":"ce4bhi12rcd13ifvqfp0","pricing_plan_id":"cebpf4jnsgd1na2vs0mg"},{"bike_id":"1ae01e22-4c4d-4069-8bf6-0be88949011a","system_id":"levelo_inurba_marseille","lat":43.323697,"lon":5.388947,"is_reserved":false,"is_disabled":false,"rental_uris":{"android":"levelo://app?vid=1ae01e22-4c4d-4069-8bf6-0be88949011a","ios":"levelo://app?vid=1ae01e22-4c4d-4069-8bf6-0be88949011a"},"vehicle_type_id":"4","last_reported":1741889586,"current_range_meters":12400,"station_id":"ce4bhqp2rcd13ifvqhog","pricing_plan_id":"cebpf4jnsgd1na2vs0mg"},{"bike_id":"c9bf1c3d-7af7-4456-a1fc-5f3d548aaab1","system_id":"levelo_inurba_marseille","lat":43.28154,"lon":5.42641,"is_reserved":false,"is_disabled":false,"rental_uris":{"android":"levelo://app?vid=c9bf1c3d-7af7-4456-a1fc-5f3d548aaab1","ios":"levelo://app?vid=c9bf1c3d-7af7-4456-a1fc-5f3d548aaab1"},"vehicle_type_id":"4","last_reported":1741889586,"current_range_meters":12400,"station_id":"ce4bhnh2rcd13ifvqgug","pricing_plan_id":"cebpf4jnsgd1na2vs0mg"},{"bike_id":"3363e5ed-aafd-4c83-9f97-12270e6ffcf4","system_id":"levelo_inurba_marseille","lat":43.24874,"lon":5.40654,"is_reserved":false,"is_disabled":false,"rental_uris":{"android":"levelo://app?vid=3363e5ed-aafd-4c83-9f97-12270e6ffcf4","ios":"levelo://app?vid=3363e5ed-aafd-4c83-9f97-12270e6ffcf4"},"vehicle_type_id":"4","last_reported":1741889586,"current_range_meters":12400,"station_id":"","pricing_plan_id":"cebpf4jnsgd1na2vs0mg"},{"bike_id":"6713e28e-1653-4aa7-8df0-276d0831858a","system_id":"levelo_inurba_marseille","lat":43.29279,"lon":5.36841,"is_reserved":false,"is_disabled":false,"rental_uris":{"android":"levelo://app?vid=6713e28e-1653-4aa7-8df0-276d0831858a","ios":"levelo://app?vid=6713e28e-1653-4aa7-8df0-276d0831858a"},"vehicle_type_id":"4","last_reported":1741889586,"current_range_meters":12400,"station_id":"ce4bhbp2rcd13ifvqesg","pricing_plan_id":"cebpf4jnsgd1na2vs0mg"},{"bike_id":"e5776d5a-d701-4139-a360-510d4304b35b","system_id":"levelo_inurba_marseille","lat":43.28852,"lon":5.35849,"is_reserved":false,"is_disabled":false,"rental_uris":{"android":"levelo://app?vid=e5776d5a-d701-4139-a360-510d4304b35b","ios":"levelo://app?vid=e5776d5a-d701-4139-a360-510d4304b35b"},"vehicle_type_id":"4","last_reported":1741889586,"current_range_meters":12400,"station_id":"ce4bhb12rcd13ifvqem0","pricing_plan_id":"cebpf4jnsgd1na2vs0mg"},{"bike_id":"c42e69b2-4c11-404d-9514-65cdd7943e01","system_id":"levelo_inurba_marseille","lat":43.2416,"lon":5.36413,"is_reserved":false,"is_disabled":false,"rental_uris":{"android":"levelo://app?vid=c42e69b2-4c11-404d-9514-65cdd7943e01","ios":"levelo://app?vid=c42e69b2-4c11-404d-9514-65cdd7943e01"},"vehicle_type_id":"4","last_reported":1741889586,"current_range_meters":12400,"station_id":"cpo36qri1sfpv3e86is0","pricing_plan_id":"cebpf4jnsgd1na2vs0mg"},{"bike_id":"b4b3ef83-ad79-4dfa-97e2-a6f24424db6a","system_id":"levelo_inurba_marseille","lat":43.32338,"lon":5.40628,"is_reserved":false,"is_disabled":false,"rental_uris":{"android":"levelo://app?vid=b4b3ef83-ad79-4dfa-97e2-a6f24424db6a","ios":"levelo://app?vid=b4b3ef83-ad79-4dfa-97e2-a6f24424db6a"},"vehicle_type_id":"4","last_reported":1741889586,"current_range_meters":12400,"station_id":"ce4bhq92rcd13ifvqhjg","pricing_plan_id":"cebpf4jnsgd1na2vs0mg"},{"bike_id":"36ec5a15-215b-4367-a3ca-336aadd9a251","system_id":"levelo_inurba_marseille","lat":43.33746,"lon":5.3745,"is_reserved":false,"is_disabled":false,"rental_uris":{"android":"levelo://app?vid=36ec5a15-215b-4367-a3ca-336aadd9a251","ios":"levelo://app?vid=36ec5a15-215b-4367-a3ca-336aadd9a251"},"vehicle_type_id":"4","last_reported":1741889586,"current_range_meters":12400,"station_id":"","pricing_plan_id":"cebpf4jnsgd1na2vs0mg"},{"bike_id":"436bf6fd-98f0-4c70-968c-7fcac8f398a5","system_id":"levelo_inurba_marseille","lat":43.25075,"lon":5.41096,"is_reserved":false,"is_disabled":false,"rental_uris":{"android":"levelo://app?vid=436bf6fd-98f0-4c70-968c-7fcac8f398a5","ios":"levelo://app?vid=436bf6fd-98f0-4c70-968c-7fcac8f398a5"},"vehicle_type_id":"4","last_reported":1741889586,"current_range_meters":12800,"station_id":"","pricing_plan_id":"cebpf4jnsgd1na2vs0mg"},{"bike_id":"56c69cdd-79bc-48cf-907a-4c46378e273a","system_id":"levelo_inurba_marseille","lat":43.25576,"lon":5.38229,"is_reserved":false,"is_disabled":false,"rental_uris":{"android":"levelo://app?vid=56c69cdd-79bc-48cf-907a-4c46378e273a","ios":"levelo://app?vid=56c69cdd-79bc-48cf-907a-4c46378e273a"},"vehicle_type_id":"4","last_reported":1741889586,"current_range_meters":12800,"station_id":"ce4bhih2rcd13ifvqfs0","pricing_plan_id":"cebpf4jnsgd1na2vs0mg"},{"bike_id":"3e5fa927-36ba-4ce4-9475-b8585b3e9c84","system_id":"levelo_inurba_marseille","lat":43.27951,"lon":5.41049,"is_reserved":false,"is_disabled":false,"rental_uris":{"android":"levelo://app?vid=3e5fa927-36ba-4ce4-9475-b8585b3e9c84","ios":"levelo://app?vid=3e5fa927-36ba-4ce4-9475-b8585b3e9c84"},"vehicle_type_id":"4","last_reported":1741889586,"current_range_meters":12800,"station_id":"ce4bhnp2rcd13ifvqh0g","pricing_plan_id":"cebpf4jnsgd1na2vs0mg"},{"bike_id":"4078ae31-3c28-4811-a96d-e5898683501c","system_id":"levelo_inurba_marseille","lat":43.27832,"lon":5.40716,"is_reserved":false,"is_disabled":false,"rental_uris":{"android":"levelo://app?vid=4078ae31-3c28-4811-a96d-e5898683501c","ios":"levelo://app?vid=4078ae31-3c28-4811-a96d-e5898683501c"},"vehicle_type_id":"4","last_reported":1741889586,"current_range_meters":12800,"station_id":"ce4bhnh2rcd13ifvqgtg","pricing_plan_id":"cebpf4jnsgd1na2vs0mg"},{"bike_id":"b634fcd7-4303-4fed-a2f8-fcd04ed2a4dd","system_id":"levelo_inurba_marseille","lat":43.23057,"lon":5.35497,"is_reserved":false,"is_disabled":false,"rental_uris":{"android":"levelo://app?vid=b634fcd7-4303-4fed-a2f8-fcd04ed2a4dd","ios":"levelo://app?vid=b634fcd7-4303-4fed-a2f8-fcd04ed2a4dd"},"vehicle_type_id":"4","last_reported":1741889586,"current_range_meters":12800,"station_id":"cpo3342slgdg3j2ifvpg","pricing_plan_id":"cebpf4jnsgd1na2vs0mg"},{"bike_id":"5cc7458f-f066-4511-ae2c-1f6d5a0e7158","system_id":"levelo_inurba_marseille","lat":43.27564,"lon":5.38429,"is_reserved":false,"is_disabled":false,"rental_uris":{"android":"levelo://app?vid=5cc7458f-f066-4511-ae2c-1f6d5a0e7158","ios":"levelo://app?vid=5cc7458f-f066-4511-ae2c-1f6d5a0e7158"},"vehicle_type_id":"4","last_reported":1741889586,"current_range_meters":12800,"station_id":"ce4bhh92rcd13ifvqfi0","pricing_plan_id":"cebpf4jnsgd1na2vs0mg"},{"bike_id":"9a719051-5115-4a08-8e7b-ae42f9cbb7fe","system_id":"levelo_inurba_marseille","lat":43.311264,"lon":5.377852,"is_reserved":false,"is_disabled":false,"rental_uris":{"android":"levelo://app?vid=9a719051-5115-4a08-8e7b-ae42f9cbb7fe","ios":"levelo://app?vid=9a719051-5115-4a08-8e7b-ae42f9cbb7fe"},"vehicle_type_id":"4","last_reported":1741889586,"current_range_meters":12800,"station_id":"ce4bgt92rcd13ifvqcg0","pricing_plan_id":"cebpf4jnsgd1na2vs0mg"},{"bike_id":"484d62e3-8e92-4d73-971b-41c613b66c1b","system_id":"levelo_inurba_marseille","lat":43.28859,"lon":5.35839,"is_reserved":false,"is_disabled":false,"rental_uris":{"android":"levelo://app?vid=484d62e3-8e92-4d73-971b-41c613b66c1b","ios":"levelo://app?vid=484d62e3-8e92-4d73-971b-41c613b66c1b"},"vehicle_type_id":"4","last_reported":1741889586,"current_range_meters":12800,"station_id":"ce4bhb12rcd13ifvqem0","pricing_plan_id":"cebpf4jnsgd1na2vs0mg"},{"bike_id":"a1865482-901a-461f-bbbf-89cc5aaa4978","system_id":"levelo_inurba_marseille","lat":43.31275,"lon":5.37903,"is_reserved":false,"is_disabled":false,"rental_uris":{"android":"levelo://app?vid=a1865482-901a-461f-bbbf-89cc5aaa4978","ios":"levelo://app?vid=a1865482-901a-461f-bbbf-89cc5aaa4978"},"vehicle_type_id":"4","last_reported":1741889586,"current_range_meters":13600,"station_id":"ce4bgj92rcd13ifvqbd0","pricing_plan_id":"cebpf4jnsgd1na2vs0mg"},{"bike_id":"b6507af8-09e0-49c6-b113-a4572baeaf71","system_id":"levelo_inurba_marseille","lat":43.28922,"lon":5.36642,"is_reserved":false,"is_disabled":false,"rental_uris":{"android":"levelo://app?vid=b6507af8-09e0-49c6-b113-a4572baeaf71","ios":"levelo://app?vid=b6507af8-09e0-49c6-b113-a4572baeaf71"},"vehicle_type_id":"4","last_reported":1741889586,"current_range_meters":13600,"station_id":"ce4bhap2rcd13ifvqek0","pricing_plan_id":"cebpf4jnsgd1na2vs0mg"},{"bike_id":"7a5158c5-a332-40d9-b718-72571efee9d7","system_id":"levelo_inurba_marseille","lat":43.28172,"lon":5.42911,"is_reserved":false,"is_disabled":false,"rental_uris":{"android":"levelo://app?vid=7a5158c5-a332-40d9-b718-72571efee9d7","ios":"levelo://app?vid=7a5158c5-a332-40d9-b718-72571efee9d7"},"vehicle_type_id":"4","last_reported":1741889586,"current_range_meters":13600,"station_id":"","pricing_plan_id":"cebpf4jnsgd1na2vs0mg"},{"bike_id":"2d42a7ca-d2a4-4f06-9321-89376cdad323","system_id":"levelo_inurba_marseille","lat":43.25845,"lon":5.38381,"is_reserved":false,"is_disabled":false,"rental_uris":{"android":"levelo://app?vid=2d42a7ca-d2a4-4f06-9321-89376cdad323","ios":"levelo://app?vid=2d42a7ca-d2a4-4f06-9321-89376cdad323"},"vehicle_type_id":"4","last_reported":1741889586,"current_range_meters":13600,"station_id":"ce4bhih2rcd13ifvqfs0","pricing_plan_id":"cebpf4jnsgd1na2vs0mg"},{"bike_id":"0fdca04e-8a8a-4adc-ac0a-a540eb6914ea","system_id":"levelo_inurba_marseille","lat":43.308838,"lon":5.371883,"is_reserved":false,"is_disabled":false,"rental_uris":{"android":"levelo://app?vid=0fdca04e-8a8a-4adc-ac0a-a540eb6914ea","ios":"levelo://app?vid=0fdca04e-8a8a-4adc-ac0a-a540eb6914ea"},"vehicle_type_id":"4","last_reported":1741889586,"current_range_meters":14000,"station_id":"ce4bhb12rcd13ifvqel0","pricing_plan_id":"cebpf4jnsgd1na2vs0mg"},{"bike_id":"16bd8669-e8e5-4db9-8d19-b465f70492a2","system_id":"levelo_inurba_marseille","lat":43.31113,"lon":5.37769,"is_reserved":false,"is_disabled":false,"rental_uris":{"android":"levelo://app?vid=16bd8669-e8e5-4db9-8d19-b465f70492a2","ios":"levelo://app?vid=16bd8669-e8e5-4db9-8d19-b465f70492a2"},"vehicle_type_id":"4","last_reported":1741889586,"current_range_meters":14000,"station_id":"ce4bgt92rcd13ifvqcg0","pricing_plan_id":"cebpf4jnsgd1na2vs0mg"},{"bike_id":"a5e71948-735a-4229-b2ca-74d55fc62066","system_id":"levelo_inurba_marseille","lat":43.28037,"lon":5.36954,"is_reserved":false,"is_disabled":false,"rental_uris":{"android":"levelo://app?vid=a5e71948-735a-4229-b2ca-74d55fc62066","ios":"levelo://app?vid=a5e71948-735a-4229-b2ca-74d55fc62066"},"vehicle_type_id":"4","last_reported":1741889586,"current_range_meters":14000,"station_id":"ce4bha12rcd13ifvqef0","pricing_plan_id":"cebpf4jnsgd1na2vs0mg"},{"bike_id":"d71c7109-41aa-4810-80b5-3941266d1101","system_id":"levelo_inurba_marseille","lat":43.26834,"lon":5.40255,"is_reserved":false,"is_disabled":false,"rental_uris":{"android":"levelo://app?vid=d71c7109-41aa-4810-80b5-3941266d1101","ios":"levelo://app?vid=d71c7109-41aa-4810-80b5-3941266d1101"},"vehicle_type_id":"4","last_reported":1741889586,"current_range_meters":14000,"station_id":"ce501612rcd8frsf0b60","pricing_plan_id":"cebpf4jnsgd1na2vs0mg"},{"bike_id":"5b39c28e-1209-43eb-9663-d1b5beb09942","system_id":"levelo_inurba_marseille","lat":43.293132,"lon":5.369793,"is_reserved":false,"is_disabled":false,"rental_uris":{"android":"levelo://app?vid=5b39c28e-1209-43eb-9663-d1b5beb09942","ios":"levelo://app?vid=5b39c28e-1209-43eb-9663-d1b5beb09942"},"vehicle_type_id":"4","last_reported":1741889586,"current_range_meters":14000,"station_id":"ce4bha92rcd13ifvqeg0","pricing_plan_id":"cebpf4jnsgd1na2vs0mg"},{"bike_id":"840fe58d-702c-4643-802b-02b7904775ac","system_id":"levelo_inurba_marseille","lat":43.30792,"lon":5.43539,"is_reserved":false,"is_disabled":false,"rental_uris":{"android":"levelo://app?vid=840fe58d-702c-4643-802b-02b7904775ac","ios":"levelo://app?vid=840fe58d-702c-4643-802b-02b7904775ac"},"vehicle_type_id":"4","last_reported":1741889586,"current_range_meters":14000,"station_id":"ce4bhph2rcd13ifvqheg","pricing_plan_id":"cebpf4jnsgd1na2vs0mg"},{"bike_id":"609786cb-15df-4f88-b8c8-6c37cb502ffb","system_id":"levelo_inurba_marseille","lat":43.29888,"lon":5.38912,"is_reserved":false,"is_disabled":false,"rental_uris":{"android":"levelo://app?vid=609786cb-15df-4f88-b8c8-6c37cb502ffb","ios":"levelo://app?vid=609786cb-15df-4f88-b8c8-6c37cb502ffb"},"vehicle_type_id":"4","last_reported":1741889586,"current_range_meters":14000,"station_id":"ce4bh392rcd13ifvqdl0","pricing_plan_id":"cebpf4jnsgd1na2vs0mg"},{"bike_id":"83674e01-259c-4664-838a-55e1c60dcf80","system_id":"levelo_inurba_marseille","lat":43.30886,"lon":5.39635,"is_reserved":false,"is_disabled":false,"rental_uris":{"android":"levelo://app?vid=83674e01-259c-4664-838a-55e1c60dcf80","ios":"levelo://app?vid=83674e01-259c-4664-838a-55e1c60dcf80"},"vehicle_type_id":"4","last_reported":1741889586,"current_range_meters":14400,"station_id":"ce4bh012rcd13ifvqcv0","pricing_plan_id":"cebpf4jnsgd1na2vs0mg"},{"bike_id":"41872c87-b4c8-4d96-9d16-481d6b3b6144","system_id":"levelo_inurba_marseille","lat":43.27947,"lon":5.41051,"is_reserved":false,"is_disabled":false,"rental_uris":{"android":"levelo://app?vid=41872c87-b4c8-4d96-9d16-481d6b3b6144","ios":"levelo://app?vid=41872c87-b4c8-4d96-9d16-481d6b3b6144"},"vehicle_type_id":"4","last_reported":1741889586,"current_range_meters":14400,"station_id":"ce4bhnp2rcd13ifvqh0g","pricing_plan_id":"cebpf4jnsgd1na2vs0mg"},{"bike_id":"320ca91b-5cbf-4547-922c-16842260315a","system_id":"levelo_inurba_marseille","lat":43.29261,"lon":5.36835,"is_reserved":false,"is_disabled":false,"rental_uris":{"android":"levelo://app?vid=320ca91b-5cbf-4547-922c-16842260315a","ios":"levelo://app?vid=320ca91b-5cbf-4547-922c-16842260315a"},"vehicle_type_id":"4","last_reported":1741889586,"current_range_meters":14400,"station_id":"ce4bhbp2rcd13ifvqesg","pricing_plan_id":"cebpf4jnsgd1na2vs0mg"},{"bike_id":"87864843-93b4-492d-8b06-7e75676f9f88","system_id":"levelo_inurba_marseille","lat":43.28154,"lon":5.42649,"is_reserved":false,"is_disabled":false,"rental_uris":{"android":"levelo://app?vid=87864843-93b4-492d-8b06-7e75676f9f88","ios":"levelo://app?vid=87864843-93b4-492d-8b06-7e75676f9f88"},"vehicle_type_id":"4","last_reported":1741889586,"current_range_meters":14400,"station_id":"ce4bhnh2rcd13ifvqgug","pricing_plan_id":"cebpf4jnsgd1na2vs0mg"},{"bike_id":"db2bffad-877a-42e5-a050-6b633caf0b10","system_id":"levelo_inurba_marseille","lat":43.29069,"lon":5.37158,"is_reserved":false,"is_disabled":false,"rental_uris":{"android":"levelo://app?vid=db2bffad-877a-42e5-a050-6b633caf0b10","ios":"levelo://app?vid=db2bffad-877a-42e5-a050-6b633caf0b10"},"vehicle_type_id":"4","last_reported":1741889586,"current_range_meters":14400,"station_id":"ce4bh5p2rcd13ifvqe4g","pricing_plan_id":"cebpf4jnsgd1na2vs0mg"},{"bike_id":"97a3342f-3ca5-439d-8886-7bbabf5b6c98","system_id":"levelo_inurba_marseille","lat":43.32107,"lon":5.36777,"is_reserved":false,"is_disabled":false,"rental_uris":{"android":"levelo://app?vid=97a3342f-3ca5-439d-8886-7bbabf5b6c98","ios":"levelo://app?vid=97a3342f-3ca5-439d-8886-7bbabf5b6c98"},"vehicle_type_id":"4","last_reported":1741889586,"current_range_meters":14400,"station_id":"ce4bhrh2rcd13ifvqhug","pricing_plan_id":"cebpf4jnsgd1na2vs0mg"},{"bike_id":"594a33ea-5c85-49b0-893b-48b1f5e1011a","system_id":"levelo_inurba_marseille","lat":43.309251,"lon":5.401434,"is_reserved":false,"is_disabled":true,"rental_uris":{"android":"levelo://app?vid=594a33ea-5c85-49b0-893b-48b1f5e1011a","ios":"levelo://app?vid=594a33ea-5c85-49b0-893b-48b1f5e1011a"},"vehicle_type_id":"4","last_reported":1741889586,"current_range_meters":14400,"station_id":"ce4bgvp2rcd13ifvqct0","pricing_plan_id":"cebpf4jnsgd1na2vs0mg"},{"bike_id":"eedb89c2-4987-4e74-86ce-66f24b5483f9","system_id":"levelo_inurba_marseille","lat":43.2953,"lon":5.38542,"is_reserved":false,"is_disabled":false,"rental_uris":{"android":"levelo://app?vid=eedb89c2-4987-4e74-86ce-66f24b5483f9","ios":"levelo://app?vid=eedb89c2-4987-4e74-86ce-66f24b5483f9"},"vehicle_type_id":"4","last_reported":1741889586,"current_range_meters":14000,"station_id":"ce4bgih2rcd13ifvqba0","pricing_plan_id":"cebpf4jnsgd1na2vs0mg"},{"bike_id":"eb541eac-fb92-472d-88a4-1da0ee2b934f","system_id":"levelo_inurba_marseille","lat":43.22932,"lon":5.35383,"is_reserved":false,"is_disabled":false,"rental_uris":{"android":"levelo://app?vid=eb541eac-fb92-472d-88a4-1da0ee2b934f","ios":"levelo://app?vid=eb541eac-fb92-472d-88a4-1da0ee2b934f"},"vehicle_type_id":"4","last_reported":1741889586,"current_range_meters":14400,"station_id":"cpo3532slgdg3j2ikp40","pricing_plan_id":"cebpf4jnsgd1na2vs0mg"},{"bike_id":"dc2dc920-7061-4611-9ad3-02d4898aaa15","system_id":"levelo_inurba_marseille","lat":43.23194,"lon":5.39978,"is_reserved":false,"is_disabled":false,"rental_uris":{"android":"levelo://app?vid=dc2dc920-7061-4611-9ad3-02d4898aaa15","ios":"levelo://app?vid=dc2dc920-7061-4611-9ad3-02d4898aaa15"},"vehicle_type_id":"4","last_reported":1741889586,"current_range_meters":14800,"station_id":"ce4bhn12rcd13ifvqgqg","pricing_plan_id":"cebpf4jnsgd1na2vs0mg"},{"bike_id":"578afb0b-12e1-45ec-a75b-1edc8078130f","system_id":"levelo_inurba_marseille","lat":43.24999,"lon":5.3893,"is_reserved":false,"is_disabled":false,"rental_uris":{"android":"levelo://app?vid=578afb0b-12e1-45ec-a75b-1edc8078130f","ios":"levelo://app?vid=578afb0b-12e1-45ec-a75b-1edc8078130f"},"vehicle_type_id":"4","last_reported":1741889586,"current_range_meters":14800,"station_id":"ce4bhgp2rcd13ifvqfd0","pricing_plan_id":"cebpf4jnsgd1na2vs0mg"},{"bike_id":"5e7f8357-3b78-42d2-976d-01c7f24f64ef","system_id":"levelo_inurba_marseille","lat":43.28447,"lon":5.39204,"is_reserved":false,"is_disabled":false,"rental_uris":{"android":"levelo://app?vid=5e7f8357-3b78-42d2-976d-01c7f24f64ef","ios":"levelo://app?vid=5e7f8357-3b78-42d2-976d-01c7f24f64ef"},"vehicle_type_id":"4","last_reported":1741889586,"current_range_meters":14400,"station_id":"ce4bhoh2rcd13ifvqh5g","pricing_plan_id":"cebpf4jnsgd1na2vs0mg"},{"bike_id":"3e33256a-d861-45c0-af01-75642132ca20","system_id":"levelo_inurba_marseille","lat":43.3304,"lon":5.39422,"is_reserved":false,"is_disabled":false,"rental_uris":{"android":"levelo://app?vid=3e33256a-d861-45c0-af01-75642132ca20","ios":"levelo://app?vid=3e33256a-d861-45c0-af01-75642132ca20"},"vehicle_type_id":"4","last_reported":1741889586,"current_range_meters":14800,"station_id":"","pricing_plan_id":"cebpf4jnsgd1na2vs0mg"},{"bike_id":"a315b769-7a6c-41d7-ae67-072b04ad590d","system_id":"levelo_inurba_marseille","lat":43.27912,"lon":5.3957,"is_reserved":false,"is_disabled":false,"rental_uris":{"android":"levelo://app?vid=a315b769-7a6c-41d7-ae67-072b04ad590d","ios":"levelo://app?vid=a315b769-7a6c-41d7-ae67-072b04ad590d"},"vehicle_type_id":"4","last_reported":1741889586,"current_range_meters":15200,"station_id":"ce4bhf92rcd13ifvqf40","pricing_plan_id":"cebpf4jnsgd1na2vs0mg"},{"bike_id":"aeec4843-e0cf-441f-b4d2-907b0f5fbe59","system_id":"levelo_inurba_marseille","lat":43.25817,"lon":5.39428,"is_reserved":false,"is_disabled":false,"rental_uris":{"android":"levelo://app?vid=aeec4843-e0cf-441f-b4d2-907b0f5fbe59","ios":"levelo://app?vid=aeec4843-e0cf-441f-b4d2-907b0f5fbe59"},"vehicle_type_id":"4","last_reported":1741889586,"current_range_meters":15200,"station_id":"ce4bhip2rcd13ifvqft0","pricing_plan_id":"cebpf4jnsgd1na2vs0mg"},{"bike_id":"491400b7-47b7-4d62-8f28-71e22fe7e092","system_id":"levelo_inurba_marseille","lat":43.31319,"lon":5.3972,"is_reserved":false,"is_disabled":false,"rental_uris":{"android":"levelo://app?vid=491400b7-47b7-4d62-8f28-71e22fe7e092","ios":"levelo://app?vid=491400b7-47b7-4d62-8f28-71e22fe7e092"},"vehicle_type_id":"4","last_reported":1741889586,"current_range_meters":15200,"station_id":"ce4bgvp2rcd13ifvqcu0","pricing_plan_id":"cebpf4jnsgd1na2vs0mg"},{"bike_id":"fa4aaa6a-097c-4e83-bb9b-02a4ded09887","system_id":"levelo_inurba_marseille","lat":43.29034,"lon":5.38635,"is_reserved":false,"is_disabled":false,"rental_uris":{"android":"levelo://app?vid=fa4aaa6a-097c-4e83-bb9b-02a4ded09887","ios":"levelo://app?vid=fa4aaa6a-097c-4e83-bb9b-02a4ded09887"},"vehicle_type_id":"4","last_reported":1741889586,"current_range_meters":15200,"station_id":"ce4bh4p2rcd13ifvqe0g","pricing_plan_id":"cebpf4jnsgd1na2vs0mg"},{"bike_id":"dd34123f-d869-4bef-9d66-613d156adac5","system_id":"levelo_inurba_marseille","lat":43.28267,"lon":5.35059,"is_reserved":false,"is_disabled":false,"rental_uris":{"android":"levelo://app?vid=dd34123f-d869-4bef-9d66-613d156adac5","ios":"levelo://app?vid=dd34123f-d869-4bef-9d66-613d156adac5"},"vehicle_type_id":"4","last_reported":1741889586,"current_range_meters":15200,"station_id":"ce4bhbp2rcd13ifvqerg","pricing_plan_id":"cebpf4jnsgd1na2vs0mg"},{"bike_id":"61b90c38-6980-457e-90bd-6687b76599ab","system_id":"levelo_inurba_marseille","lat":43.295898,"lon":5.376141,"is_reserved":false,"is_disabled":false,"rental_uris":{"android":"levelo://app?vid=61b90c38-6980-457e-90bd-6687b76599ab","ios":"levelo://app?vid=61b90c38-6980-457e-90bd-6687b76599ab"},"vehicle_type_id":"4","last_reported":1741889586,"current_range_meters":15200,"station_id":"ce4bgi92rcd13ifvqb90","pricing_plan_id":"cebpf4jnsgd1na2vs0mg"},{"bike_id":"25a68369-58e9-48fb-8065-9b9bd102b80d","system_id":"levelo_inurba_marseille","lat":43.29255,"lon":5.37617,"is_reserved":false,"is_disabled":false,"rental_uris":{"android":"levelo://app?vid=25a68369-58e9-48fb-8065-9b9bd102b80d","ios":"levelo://app?vid=25a68369-58e9-48fb-8065-9b9bd102b80d"},"vehicle_type_id":"4","last_reported":1741889586,"current_range_meters":15200,"station_id":"ce4bgi12rcd13ifvqb80","pricing_plan_id":"cebpf4jnsgd1na2vs0mg"},{"bike_id":"20b2576e-7cfe-431c-a64b-9d615f5fadc9","system_id":"levelo_inurba_marseille","lat":43.29513,"lon":5.39412,"is_reserved":false,"is_disabled":false,"rental_uris":{"android":"levelo://app?vid=20b2576e-7cfe-431c-a64b-9d615f5fadc9","ios":"levelo://app?vid=20b2576e-7cfe-431c-a64b-9d615f5fadc9"},"vehicle_type_id":"4","last_reported":1741889586,"current_range_meters":16000,"station_id":"ce4bh292rcd13ifvqdf0","pricing_plan_id":"cebpf4jnsgd1na2vs0mg"},{"bike_id":"b051aa4a-8644-4303-b1dc-fc959a94c851","system_id":"levelo_inurba_marseille","lat":43.30887,"lon":5.39646,"is_reserved":false,"is_disabled":false,"rental_uris":{"android":"levelo://app?vid=b051aa4a-8644-4303-b1dc-fc959a94c851","ios":"levelo://app?vid=b051aa4a-8644-4303-b1dc-fc959a94c851"},"vehicle_type_id":"4","last_reported":1741889586,"current_range_meters":16000,"station_id":"ce4bh012rcd13ifvqcv0","pricing_plan_id":"cebpf4jnsgd1na2vs0mg"},{"bike_id":"78dce6e6-36eb-4d6b-a861-292dc7c9e479","system_id":"levelo_inurba_marseille","lat":43.254023,"lon":5.397433,"is_reserved":false,"is_disabled":false,"rental_uris":{"android":"levelo://app?vid=78dce6e6-36eb-4d6b-a861-292dc7c9e479","ios":"levelo://app?vid=78dce6e6-36eb-4d6b-a861-292dc7c9e479"},"vehicle_type_id":"4","last_reported":1741889586,"current_range_meters":16000,"station_id":"ce4bhgp2rcd13ifvqfd0","pricing_plan_id":"cebpf4jnsgd1na2vs0mg"},{"bike_id":"063e4670-bcb8-4d96-842b-4f2332300a56","system_id":"levelo_inurba_marseille","lat":43.28576,"lon":5.39492,"is_reserved":false,"is_disabled":false,"rental_uris":{"android":"levelo://app?vid=063e4670-bcb8-4d96-842b-4f2332300a56","ios":"levelo://app?vid=063e4670-bcb8-4d96-842b-4f2332300a56"},"vehicle_type_id":"4","last_reported":1741889586,"current_range_meters":15200,"station_id":"ce4bh292rcd13ifvqdg0","pricing_plan_id":"cebpf4jnsgd1na2vs0mg"},{"bike_id":"6e73a70f-a3bf-45da-bcd9-d7b1a75eaf06","system_id":"levelo_inurba_marseille","lat":43.28346,"lon":5.38106,"is_reserved":false,"is_disabled":false,"rental_uris":{"android":"levelo://app?vid=6e73a70f-a3bf-45da-bcd9-d7b1a75eaf06","ios":"levelo://app?vid=6e73a70f-a3bf-45da-bcd9-d7b1a75eaf06"},"vehicle_type_id":"4","last_reported":1741889586,"current_range_meters":15200,"station_id":"ce4bh412rcd13ifvqdr0","pricing_plan_id":"cebpf4jnsgd1na2vs0mg"},{"bike_id":"29832e81-b63f-44c3-a8ae-1ccbc505bd58","system_id":"levelo_inurba_marseille","lat":43.278211,"lon":5.407061,"is_reserved":false,"is_disabled":false,"rental_uris":{"android":"levelo://app?vid=29832e81-b63f-44c3-a8ae-1ccbc505bd58","ios":"levelo://app?vid=29832e81-b63f-44c3-a8ae-1ccbc505bd58"},"vehicle_type_id":"4","last_reported":1741889586,"current_range_meters":16000,"station_id":"ce4bhnh2rcd13ifvqgtg","pricing_plan_id":"cebpf4jnsgd1na2vs0mg"},{"bike_id":"f236c82e-3689-4472-b448-b0ed38163ce1","system_id":"levelo_inurba_marseille","lat":43.2466,"lon":5.38161,"is_reserved":false,"is_disabled":false,"rental_uris":{"android":"levelo://app?vid=f236c82e-3689-4472-b448-b0ed38163ce1","ios":"levelo://app?vid=f236c82e-3689-4472-b448-b0ed38163ce1"},