{"last_updated":1773566595,"ttl":60,"version":"2.2","data":{"bikes":[{"bike_id":"4853eebb-ab61-45f6-ad42-3d4e196de01e","system_id":"levelo_inurba_marseille","lat":43.30726,"lon":5.42422,"is_reserved":false,"is_disabled":false,"rental_uris":{"android":"levelo://app?vid=4853eebb-ab61-45f6-ad42-3d4e196de01e","ios":"levelo://app?vid=4853eebb-ab61-45f6-ad42-3d4e196de01e"},"vehicle_type_id":"4","last_reported":1773566596,"current_range_meters":38800,"station_id":"st_cvj6ca6bvosntc0bfgr0","pricing_plan_id":"cebpf4jnsgd1na2vs0mg"},{"bike_id":"fe375028-e243-48e9-ad43-142a75401e48","system_id":"levelo_inurba_marseille","lat":43.30367,"lon":5.41873,"is_reserved":false,"is_disabled":false,"rental_uris":{"android":"levelo://app?vid=fe375028-e243-48e9-ad43-142a75401e48","ios":"levelo://app?vid=fe375028-e243-48e9-ad43-142a75401e48"},"vehicle_type_id":"4","last_reported":1773566596,"current_range_meters":38400,"station_id":"ce4bhop2rcd13ifvqh7g","pricing_plan_id":"cebpf4jnsgd1na2vs0mg"},{"bike_id":"ab138826-abf2-4fd3-b2e0-b50cdb5947d7","system_id":"levelo_inurba_marseille","lat":43.3095,"lon":5.39037,"is_reserved":false,"is_disabled":false,"rental_uris":{"android":"levelo://app?vid=ab138826-abf2-4fd3-b2e0-b50cdb5947d7","ios":"levelo://app?vid=ab138826-abf2-4fd3-b2e0-b50cdb5947d7"},"vehicle_type_id":"4","last_reported":1773566596,"current_range_meters":40000,"station_id":"ce4bgup2rcd13ifvqco0","pricing_plan_id":"cebpf4jnsgd1na2vs0mg"},{"bike_id":"4ee1719e-9828-41ad-ab0e-ac501a6f8dcb","system_id":"levelo_inurba_marseille","lat":43.26054,"lon":5.39398,"is_reserved":false,"is_disabled":false,"rental_uris":{"android":"levelo://app?vid=4ee1719e-9828-41ad-ab0e-ac501a6f8dcb","ios":"levelo://app?vid=4ee1719e-9828-41ad-ab0e-ac501a6f8dcb"},"vehicle_type_id":"4","last_reported":1773566596,"current_range_meters":8000,"station_id":"ce4bhh92rcd13ifvqfj0","pricing_plan_id":"cebpf4jnsgd1na2vs0mg"},{"bike_id":"e4c6d513-0f75-4d36-ab87-e09b44465632","system_id":"levelo_inurba_marseille","lat":43.27383,"lon":5.36249,"is_reserved":false,"is_disabled":true,"rental_uris":{"android":"levelo://app?vid=e4c6d513-0f75-4d36-ab87-e09b44465632","ios":"levelo://app?vid=e4c6d513-0f75-4d36-ab87-e09b44465632"},"vehicle_type_id":"4","last_reported":1773566596,"current_range_meters":35200,"station_id":"ce4bhbh2rcd13ifvqeo0","pricing_plan_id":"cebpf4jnsgd1na2vs0mg"},{"bike_id":"dfd0a0f6-5285-4bd7-80a4-14fead877d67","system_id":"levelo_inurba_marseille","lat":43.25091,"lon":5.3951,"is_reserved":false,"is_disabled":false,"rental_uris":{"android":"levelo://app?vid=dfd0a0f6-5285-4bd7-80a4-14fead877d67","ios":"levelo://app?vid=dfd0a0f6-5285-4bd7-80a4-14fead877d67"},"vehicle_type_id":"4","last_reported":1773566596,"current_range_meters":29600,"station_id":"ce4bhm12rcd13ifvqgkg","pricing_plan_id":"cebpf4jnsgd1na2vs0mg"},{"bike_id":"9a7da94c-06ba-4f33-9843-7cc87e049986","system_id":"levelo_inurba_marseille","lat":43.31288,"lon":5.40177,"is_reserved":false,"is_disabled":false,"rental_uris":{"android":"levelo://app?vid=9a7da94c-06ba-4f33-9843-7cc87e049986","ios":"levelo://app?vid=9a7da94c-06ba-4f33-9843-7cc87e049986"},"vehicle_type_id":"4","last_reported":1773566596,"current_range_meters":7200,"station_id":"ce4bh092rcd13ifvqd30","pricing_plan_id":"cebpf4jnsgd1na2vs0mg"},{"bike_id":"18f35d94-7133-4b4b-a629-0bec9d48af36","system_id":"levelo_inurba_marseille","lat":43.28475,"lon":5.48389,"is_reserved":false,"is_disabled":false,"rental_uris":{"android":"levelo://app?vid=18f35d94-7133-4b4b-a629-0bec9d48af36","ios":"levelo://app?vid=18f35d94-7133-4b4b-a629-0bec9d48af36"},"vehicle_type_id":"4","last_reported":1773566596,"current_range_meters":23200,"station_id":"","pricing_plan_id":"cebpf4jnsgd1na2vs0mg"},{"bike_id":"058a40ef-aca0-46a1-b31e-3c5dc3514929","system_id":"levelo_inurba_marseille","lat":43.2844,"lon":5.34981,"is_reserved":false,"is_disabled":false,"rental_uris":{"android":"levelo://app?vid=058a40ef-aca0-46a1-b31e-3c5dc3514929","ios":"levelo://app?vid=058a40ef-aca0-46a1-b31e-3c5dc3514929"},"vehicle_type_id":"4","last_reported":1773566596,"current_range_meters":28800,"station_id":"ce4bhbh2rcd13ifvqepg","pricing_plan_id":"cebpf4jnsgd1na2vs0mg"},{"bike_id":"65d10f3b-fdb1-4316-80cd-8ee00585fdd2","system_id":"levelo_inurba_marseille","lat":43.31416,"lon":5.36705,"is_reserved":false,"is_disabled":false,"rental_uris":{"android":"levelo://app?vid=65d10f3b-fdb1-4316-80cd-8ee00585fdd2","ios":"levelo://app?vid=65d10f3b-fdb1-4316-80cd-8ee00585fdd2"},"vehicle_type_id":"4","last_reported":1773566596,"current_range_meters":37600,"station_id":"","pricing_plan_id":"cebpf4jnsgd1na2vs0mg"},{"bike_id":"7db92065-fd6e-4014-982f-daf9b3e1e88d","system_id":"levelo_inurba_marseille","lat":43.25835,"lon":5.39433,"is_reserved":false,"is_disabled":false,"rental_uris":{"android":"levelo://app?vid=7db92065-fd6e-4014-982f-daf9b3e1e88d","ios":"levelo://app?vid=7db92065-fd6e-4014-982f-daf9b3e1e88d"},"vehicle_type_id":"4","last_reported":1773566596,"current_range_meters":10800,"station_id":"ce4bhip2rcd13ifvqft0","pricing_plan_id":"cebpf4jnsgd1na2vs0mg"},{"bike_id":"430766cb-2d40-462d-be16-e37bcf55029f","system_id":"levelo_inurba_marseille","lat":43.30249,"lon":5.40057,"is_reserved":false,"is_disabled":false,"rental_uris":{"android":"levelo://app?vid=430766cb-2d40-462d-be16-e37bcf55029f","ios":"levelo://app?vid=430766cb-2d40-462d-be16-e37bcf55029f"},"vehicle_type_id":"4","last_reported":1773566596,"current_range_meters":5600,"station_id":"ce4bgvh2rcd13ifvqcs0","pricing_plan_id":"cebpf4jnsgd1na2vs0mg"},{"bike_id":"d69bc87a-4abe-4573-8c1d-eecdfac78f9e","system_id":"levelo_inurba_marseille","lat":43.31737,"lon":5.39054,"is_reserved":false,"is_disabled":false,"rental_uris":{"android":"levelo://app?vid=d69bc87a-4abe-4573-8c1d-eecdfac78f9e","ios":"levelo://app?vid=d69bc87a-4abe-4573-8c1d-eecdfac78f9e"},"vehicle_type_id":"4","last_reported":1773566596,"current_range_meters":38800,"station_id":"ce4bhqp2rcd13ifvqhng","pricing_plan_id":"cebpf4jnsgd1na2vs0mg"},{"bike_id":"33b16ff4-aa90-4e96-a65b-80fdeacb58de","system_id":"levelo_inurba_marseille","lat":43.30541,"lon":5.36537,"is_reserved":false,"is_disabled":false,"rental_uris":{"android":"levelo://app?vid=33b16ff4-aa90-4e96-a65b-80fdeacb58de","ios":"levelo://app?vid=33b16ff4-aa90-4e96-a65b-80fdeacb58de"},"vehicle_type_id":"4","last_reported":1773566596,"current_range_meters":25200,"station_id":"ce4bgs12rcd13ifvqcag","pricing_plan_id":"cebpf4jnsgd1na2vs0mg"},{"bike_id":"e573b9f8-2e55-460a-b105-e11639e7657a","system_id":"levelo_inurba_marseille","lat":43.29281,"lon":5.36857,"is_reserved":false,"is_disabled":false,"rental_uris":{"android":"levelo://app?vid=e573b9f8-2e55-460a-b105-e11639e7657a","ios":"levelo://app?vid=e573b9f8-2e55-460a-b105-e11639e7657a"},"vehicle_type_id":"4","last_reported":1773566596,"current_range_meters":34000,"station_id":"ce4bhbp2rcd13ifvqesg","pricing_plan_id":"cebpf4jnsgd1na2vs0mg"},{"bike_id":"a078ced6-d429-4156-85ab-301f40f9c90e","system_id":"levelo_inurba_marseille","lat":43.27067,"lon":5.38324,"is_reserved":false,"is_disabled":false,"rental_uris":{"android":"levelo://app?vid=a078ced6-d429-4156-85ab-301f40f9c90e","ios":"levelo://app?vid=a078ced6-d429-4156-85ab-301f40f9c90e"},"vehicle_type_id":"4","last_reported":1773566596,"current_range_meters":30800,"station_id":"st_d3n2fo6cfp8s73cte1j0","pricing_plan_id":"cebpf4jnsgd1na2vs0mg"},{"bike_id":"674e8b35-bca7-4ed8-ba45-7c86f71eaca5","system_id":"levelo_inurba_marseille","lat":43.2622,"lon":5.37416,"is_reserved":false,"is_disabled":false,"rental_uris":{"android":"levelo://app?vid=674e8b35-bca7-4ed8-ba45-7c86f71eaca5","ios":"levelo://app?vid=674e8b35-bca7-4ed8-ba45-7c86f71eaca5"},"vehicle_type_id":"4","last_reported":1773566596,"current_range_meters":18800,"station_id":"ce4bhgp2rcd13ifvqfc0","pricing_plan_id":"cebpf4jnsgd1na2vs0mg"},{"bike_id":"6f61d387-d66c-4612-94f7-67c0f0b415c5","system_id":"levelo_inurba_marseille","lat":43.3014,"lon":5.37429,"is_reserved":false,"is_disabled":false,"rental_uris":{"android":"levelo://app?vid=6f61d387-d66c-4612-94f7-67c0f0b415c5","ios":"levelo://app?vid=6f61d387-d66c-4612-94f7-67c0f0b415c5"},"vehicle_type_id":"4","last_reported":1773566596,"current_range_meters":27600,"station_id":"ce4bgs92rcd13ifvqcc0","pricing_plan_id":"cebpf4jnsgd1na2vs0mg"},{"bike_id":"15643cb0-ca44-4e67-8c97-15418479ee03","system_id":"levelo_inurba_marseille","lat":43.2866,"lon":5.36362,"is_reserved":false,"is_disabled":false,"rental_uris":{"android":"levelo://app?vid=15643cb0-ca44-4e67-8c97-15418479ee03","ios":"levelo://app?vid=15643cb0-ca44-4e67-8c97-15418479ee03"},"vehicle_type_id":"4","last_reported":1773566596,"current_range_meters":14400,"station_id":"ce4bhah2rcd13ifvqej0","pricing_plan_id":"cebpf4jnsgd1na2vs0mg"},{"bike_id":"76018294-dcc7-4c7d-ad2d-1448d43240dc","system_id":"levelo_inurba_marseille","lat":43.25106,"lon":5.40346,"is_reserved":false,"is_disabled":false,"rental_uris":{"android":"levelo://app?vid=76018294-dcc7-4c7d-ad2d-1448d43240dc","ios":"levelo://app?vid=76018294-dcc7-4c7d-ad2d-1448d43240dc"},"vehicle_type_id":"4","last_reported":1773566596,"current_range_meters":26000,"station_id":"ce4bhlh2rcd13ifvqgig","pricing_plan_id":"cebpf4jnsgd1na2vs0mg"},{"bike_id":"73dc7306-2d72-4617-beb5-4ff3bfd886a4","system_id":"levelo_inurba_marseille","lat":43.3014,"lon":5.39866,"is_reserved":false,"is_disabled":false,"rental_uris":{"android":"levelo://app?vid=73dc7306-2d72-4617-beb5-4ff3bfd886a4","ios":"levelo://app?vid=73dc7306-2d72-4617-beb5-4ff3bfd886a4"},"vehicle_type_id":"4","last_reported":1773566596,"current_range_meters":8800,"station_id":"ce4bh0h2rcd13ifvqd40","pricing_plan_id":"cebpf4jnsgd1na2vs0mg"},{"bike_id":"55ec29f4-7127-4c85-923d-63c34cba0677","system_id":"levelo_inurba_marseille","lat":43.3079,"lon":5.3766,"is_reserved":false,"is_disabled":false,"rental_uris":{"android":"levelo://app?vid=55ec29f4-7127-4c85-923d-63c34cba0677","ios":"levelo://app?vid=55ec29f4-7127-4c85-923d-63c34cba0677"},"vehicle_type_id":"4","last_reported":1773566596,"current_range_meters":39200,"station_id":"ce4bgv92rcd13ifvqcq0","pricing_plan_id":"cebpf4jnsgd1na2vs0mg"},{"bike_id":"bdc84d40-3efe-455b-919e-b15c539b144d","system_id":"levelo_inurba_marseille","lat":43.28652,"lon":5.35106,"is_reserved":false,"is_disabled":false,"rental_uris":{"android":"levelo://app?vid=bdc84d40-3efe-455b-919e-b15c539b144d","ios":"levelo://app?vid=bdc84d40-3efe-455b-919e-b15c539b144d"},"vehicle_type_id":"4","last_reported":1773566596,"current_range_meters":9200,"station_id":"ce4bhch2rcd13ifvqeug","pricing_plan_id":"cebpf4jnsgd1na2vs0mg"},{"bike_id":"cafeffd2-2947-4497-abe7-58df6be2b197","system_id":"levelo_inurba_marseille","lat":43.29618,"lon":5.37168,"is_reserved":false,"is_disabled":false,"rental_uris":{"android":"levelo://app?vid=cafeffd2-2947-4497-abe7-58df6be2b197","ios":"levelo://app?vid=cafeffd2-2947-4497-abe7-58df6be2b197"},"vehicle_type_id":"4","last_reported":1773566596,"current_range_meters":37600,"station_id":"ce4bgnh2rcd13ifvqc0g","pricing_plan_id":"cebpf4jnsgd1na2vs0mg"},{"bike_id":"18a594df-6c61-4fcc-bfe2-8a93ec98ac12","system_id":"levelo_inurba_marseille","lat":43.28723,"lon":5.37391,"is_reserved":false,"is_disabled":false,"rental_uris":{"android":"levelo://app?vid=18a594df-6c61-4fcc-bfe2-8a93ec98ac12","ios":"levelo://app?vid=18a594df-6c61-4fcc-bfe2-8a93ec98ac12"},"vehicle_type_id":"4","last_reported":1773566596,"current_range_meters":39200,"station_id":"ce4bh3p2rcd13ifvqdq0","pricing_plan_id":"cebpf4jnsgd1na2vs0mg"},{"bike_id":"df980ba6-a5e3-4d6c-ba7d-3005f70e10e2","system_id":"levelo_inurba_marseille","lat":43.31379,"lon":5.38487,"is_reserved":false,"is_disabled":false,"rental_uris":{"android":"levelo://app?vid=df980ba6-a5e3-4d6c-ba7d-3005f70e10e2","ios":"levelo://app?vid=df980ba6-a5e3-4d6c-ba7d-3005f70e10e2"},"vehicle_type_id":"4","last_reported":1773566596,"current_range_meters":25200,"station_id":"ce4bgt92rcd13ifvqcf0","pricing_plan_id":"cebpf4jnsgd1na2vs0mg"},{"bike_id":"3c7690d1-a097-4dc1-a920-49c74ad74917","system_id":"levelo_inurba_marseille","lat":43.29034,"lon":5.3717,"is_reserved":false,"is_disabled":true,"rental_uris":{"android":"levelo://app?vid=3c7690d1-a097-4dc1-a920-49c74ad74917","ios":"levelo://app?vid=3c7690d1-a097-4dc1-a920-49c74ad74917"},"vehicle_type_id":"4","last_reported":1773566596,"current_range_meters":27200,"station_id":"","pricing_plan_id":"cebpf4jnsgd1na2vs0mg"},{"bike_id":"543561df-af36-44fe-af79-6681c352e5e7","system_id":"levelo_inurba_marseille","lat":43.28622,"lon":5.35089,"is_reserved":false,"is_disabled":false,"rental_uris":{"android":"levelo://app?vid=543561df-af36-44fe-af79-6681c352e5e7","ios":"levelo://app?vid=543561df-af36-44fe-af79-6681c352e5e7"},"vehicle_type_id":"4","last_reported":1773566596,"current_range_meters":34800,"station_id":"ce4bhch2rcd13ifvqeug","pricing_plan_id":"cebpf4jnsgd1na2vs0mg"},{"bike_id":"42b0b6df-69b9-4ab0-83b2-a7d0d52313ec","system_id":"levelo_inurba_marseille","lat":43.25909,"lon":5.39909,"is_reserved":false,"is_disabled":false,"rental_uris":{"android":"levelo://app?vid=42b0b6df-69b9-4ab0-83b2-a7d0d52313ec","ios":"levelo://app?vid=42b0b6df-69b9-4ab0-83b2-a7d0d52313ec"},"vehicle_type_id":"4","last_reported":1773566596,"current_range_meters":39200,"station_id":"ce4bhl92rcd13ifvqghg","pricing_plan_id":"cebpf4jnsgd1na2vs0mg"},{"bike_id":"7e7249ab-ffda-4a8b-b45a-917693570120","system_id":"levelo_inurba_marseille","lat":43.28914,"lon":5.36419,"is_reserved":false,"is_disabled":false,"rental_uris":{"android":"levelo://app?vid=7e7249ab-ffda-4a8b-b45a-917693570120","ios":"levelo://app?vid=7e7249ab-ffda-4a8b-b45a-917693570120"},"vehicle_type_id":"4","last_reported":1773566596,"current_range_meters":28400,"station_id":"","pricing_plan_id":"cebpf4jnsgd1na2vs0mg"},{"bike_id":"ffad090c-cae3-4270-b25f-e63b153ea950","system_id":"levelo_inurba_marseille","lat":43.26758,"lon":5.39422,"is_reserved":false,"is_disabled":false,"rental_uris":{"android":"levelo://app?vid=ffad090c-cae3-4270-b25f-e63b153ea950","ios":"levelo://app?vid=ffad090c-cae3-4270-b25f-e63b153ea950"},"vehicle_type_id":"4","last_reported":1773566596,"current_range_meters":38400,"station_id":"ce4bhh12rcd13ifvqfg0","pricing_plan_id":"cebpf4jnsgd1na2vs0mg"},{"bike_id":"ced05e86-2551-48cf-8692-7f3559e5deac","system_id":"levelo_inurba_marseille","lat":43.29496,"lon":5.43298,"is_reserved":false,"is_disabled":false,"rental_uris":{"android":"levelo://app?vid=ced05e86-2551-48cf-8692-7f3559e5deac","ios":"levelo://app?vid=ced05e86-2551-48cf-8692-7f3559e5deac"},"vehicle_type_id":"4","last_reported":1773566596,"current_range_meters":6400,"station_id":"st_d3j5ugp08ojc73fj9d10","pricing_plan_id":"cebpf4jnsgd1na2vs0mg"},{"bike_id":"4d09abf9-95fe-4357-9203-06defa7ee080","system_id":"levelo_inurba_marseille","lat":43.30246,"lon":5.40088,"is_reserved":false,"is_disabled":false,"rental_uris":{"android":"levelo://app?vid=4d09abf9-95fe-4357-9203-06defa7ee080","ios":"levelo://app?vid=4d09abf9-95fe-4357-9203-06defa7ee080"},"vehicle_type_id":"4","last_reported":1773566596,"current_range_meters":39200,"station_id":"ce4bgvh2rcd13ifvqcs0","pricing_plan_id":"cebpf4jnsgd1na2vs0mg"},{"bike_id":"356ed127-0cc8-4188-9928-4acaa914e3bf","system_id":"levelo_inurba_marseille","lat":43.25884,"lon":5.39887,"is_reserved":false,"is_disabled":false,"rental_uris":{"android":"levelo://app?vid=356ed127-0cc8-4188-9928-4acaa914e3bf","ios":"levelo://app?vid=356ed127-0cc8-4188-9928-4acaa914e3bf"},"vehicle_type_id":"4","last_reported":1773566596,"current_range_meters":38400,"station_id":"ce4bhl92rcd13ifvqghg","pricing_plan_id":"cebpf4jnsgd1na2vs0mg"},{"bike_id":"e707ecb2-776e-4003-9b33-e407bbd4641f","system_id":"levelo_inurba_marseille","lat":43.29542,"lon":5.42299,"is_reserved":false,"is_disabled":false,"rental_uris":{"android":"levelo://app?vid=e707ecb2-776e-4003-9b33-e407bbd4641f","ios":"levelo://app?vid=e707ecb2-776e-4003-9b33-e407bbd4641f"},"vehicle_type_id":"4","last_reported":1773566596,"current_range_meters":35200,"station_id":"ce4bhph2rcd13ifvqhdg","pricing_plan_id":"cebpf4jnsgd1na2vs0mg"},{"bike_id":"41ae287c-9cc1-430a-84ca-70506bc523b6","system_id":"levelo_inurba_marseille","lat":43.22546,"lon":5.4165,"is_reserved":false,"is_disabled":false,"rental_uris":{"android":"levelo://app?vid=41ae287c-9cc1-430a-84ca-70506bc523b6","ios":"levelo://app?vid=41ae287c-9cc1-430a-84ca-70506bc523b6"},"vehicle_type_id":"4","last_reported":1773566596,"current_range_meters":35600,"station_id":"st_d2o4gvlbi1j2169b742g","pricing_plan_id":"cebpf4jnsgd1na2vs0mg"},{"bike_id":"fe8dfa27-62f0-46d6-ba43-c3127399aaa0","system_id":"levelo_inurba_marseille","lat":43.29613,"lon":5.42127,"is_reserved":false,"is_disabled":false,"rental_uris":{"android":"levelo://app?vid=fe8dfa27-62f0-46d6-ba43-c3127399aaa0","ios":"levelo://app?vid=fe8dfa27-62f0-46d6-ba43-c3127399aaa0"},"vehicle_type_id":"4","last_reported":1773566596,"current_range_meters":24000,"station_id":"","pricing_plan_id":"cebpf4jnsgd1na2vs0mg"},{"bike_id":"5c0630ed-bd2b-4642-b36b-ddb6b84186db","system_id":"levelo_inurba_marseille","lat":43.30717,"lon":5.4245,"is_reserved":false,"is_disabled":false,"rental_uris":{"android":"levelo://app?vid=5c0630ed-bd2b-4642-b36b-ddb6b84186db","ios":"levelo://app?vid=5c0630ed-bd2b-4642-b36b-ddb6b84186db"},"vehicle_type_id":"4","last_reported":1773566596,"current_range_meters":22800,"station_id":"st_cvj6ca6bvosntc0bfgr0","pricing_plan_id":"cebpf4jnsgd1na2vs0mg"},{"bike_id":"d5fb40dd-3b0a-4257-a6d9-57d2f91113e6","system_id":"levelo_inurba_marseille","lat":43.26224,"lon":5.37438,"is_reserved":false,"is_disabled":false,"rental_uris":{"android":"levelo://app?vid=d5fb40dd-3b0a-4257-a6d9-57d2f91113e6","ios":"levelo://app?vid=d5fb40dd-3b0a-4257-a6d9-57d2f91113e6"},"vehicle_type_id":"4","last_reported":1773566596,"current_range_meters":16800,"station_id":"ce4bhgp2rcd13ifvqfc0","pricing_plan_id":"cebpf4jnsgd1na2vs0mg"},{"bike_id":"3964a865-90e4-44ed-980e-9c2cd78cbbd7","system_id":"levelo_inurba_marseille","lat":43.30189,"lon":5.38626,"is_reserved":false,"is_disabled":false,"rental_uris":{"android":"levelo://app?vid=3964a865-90e4-44ed-980e-9c2cd78cbbd7","ios":"levelo://app?vid=3964a865-90e4-44ed-980e-9c2cd78cbbd7"},"vehicle_type_id":"4","last_reported":1773566596,"current_range_meters":19600,"station_id":"ce4bghh2rcd13ifvqb60","pricing_plan_id":"cebpf4jnsgd1na2vs0mg"},{"bike_id":"6cd1b79d-1347-474f-9698-eaf7241262db","system_id":"levelo_inurba_marseille","lat":43.2844,"lon":5.34967,"is_reserved":false,"is_disabled":false,"rental_uris":{"android":"levelo://app?vid=6cd1b79d-1347-474f-9698-eaf7241262db","ios":"levelo://app?vid=6cd1b79d-1347-474f-9698-eaf7241262db"},"vehicle_type_id":"4","last_reported":1773566596,"current_range_meters":39200,"station_id":"ce4bhbh2rcd13ifvqepg","pricing_plan_id":"cebpf4jnsgd1na2vs0mg"},{"bike_id":"bba2d762-24c5-424c-8885-ccb819513608","system_id":"levelo_inurba_marseille","lat":43.27672,"lon":5.38929,"is_reserved":false,"is_disabled":true,"rental_uris":{"android":"levelo://app?vid=bba2d762-24c5-424c-8885-ccb819513608","ios":"levelo://app?vid=bba2d762-24c5-424c-8885-ccb819513608"},"vehicle_type_id":"4","last_reported":1773566596,"current_range_meters":11200,"station_id":"ce4bhi12rcd13ifvqfo0","pricing_plan_id":"cebpf4jnsgd1na2vs0mg"},{"bike_id":"1217792c-987d-41a2-8823-875cdd503171","system_id":"levelo_inurba_marseille","lat":43.33157,"lon":5.37716,"is_reserved":false,"is_disabled":false,"rental_uris":{"android":"levelo://app?vid=1217792c-987d-41a2-8823-875cdd503171","ios":"levelo://app?vid=1217792c-987d-41a2-8823-875cdd503171"},"vehicle_type_id":"4","last_reported":1773566596,"current_range_meters":24400,"station_id":"st_d46cu089ee8s73dldbu0","pricing_plan_id":"cebpf4jnsgd1na2vs0mg"},{"bike_id":"8990b493-7154-4a79-b089-3dd1a50e7eea","system_id":"levelo_inurba_marseille","lat":43.30923,"lon":5.40171,"is_reserved":false,"is_disabled":false,"rental_uris":{"android":"levelo://app?vid=8990b493-7154-4a79-b089-3dd1a50e7eea","ios":"levelo://app?vid=8990b493-7154-4a79-b089-3dd1a50e7eea"},"vehicle_type_id":"4","last_reported":1773566596,"current_range_meters":27600,"station_id":"ce4bgvp2rcd13ifvqct0","pricing_plan_id":"cebpf4jnsgd1na2vs0mg"},{"bike_id":"1fa66c7c-5bbe-4c72-8397-ac5bb2c15dc7","system_id":"levelo_inurba_marseille","lat":43.32364,"lon":5.38887,"is_reserved":false,"is_disabled":false,"rental_uris":{"android":"levelo://app?vid=1fa66c7c-5bbe-4c72-8397-ac5bb2c15dc7","ios":"levelo://app?vid=1fa66c7c-5bbe-4c72-8397-ac5bb2c15dc7"},"vehicle_type_id":"4","last_reported":1773566596,"current_range_meters":36000,"station_id":"ce4bhqp2rcd13ifvqhog","pricing_plan_id":"cebpf4jnsgd1na2vs0mg"},{"bike_id":"ad85989a-f62a-47fc-af6d-45c25e9e9409","system_id":"levelo_inurba_marseille","lat":43.3132,"lon":5.39705,"is_reserved":false,"is_disabled":false,"rental_uris":{"android":"levelo://app?vid=ad85989a-f62a-47fc-af6d-45c25e9e9409","ios":"levelo://app?vid=ad85989a-f62a-47fc-af6d-45c25e9e9409"},"vehicle_type_id":"4","last_reported":1773566596,"current_range_meters":37600,"station_id":"ce4bgvp2rcd13ifvqcu0","pricing_plan_id":"cebpf4jnsgd1na2vs0mg"},{"bike_id":"aed4118b-a0e3-4071-9098-af6c6a632706","system_id":"levelo_inurba_marseille","lat":43.30134,"lon":5.43113,"is_reserved":false,"is_disabled":false,"rental_uris":{"android":"levelo://app?vid=aed4118b-a0e3-4071-9098-af6c6a632706","ios":"levelo://app?vid=aed4118b-a0e3-4071-9098-af6c6a632706"},"vehicle_type_id":"4","last_reported":1773566596,"current_range_meters":8400,"station_id":"st_d3js3co5814s73ftftug","pricing_plan_id":"cebpf4jnsgd1na2vs0mg"},{"bike_id":"ee97d76b-d430-4b45-b3b0-dd8a973c7e77","system_id":"levelo_inurba_marseille","lat":43.23965,"lon":5.36642,"is_reserved":false,"is_disabled":false,"rental_uris":{"android":"levelo://app?vid=ee97d76b-d430-4b45-b3b0-dd8a973c7e77","ios":"levelo://app?vid=ee97d76b-d430-4b45-b3b0-dd8a973c7e77"},"vehicle_type_id":"4","last_reported":1773566596,"current_range_meters":36000,"station_id":"ce4bhi12rcd13ifvqfp0","pricing_plan_id":"cebpf4jnsgd1na2vs0mg"},{"bike_id":"f8933b14-5f9c-4be3-aa46-974ef81c23b6","system_id":"levelo_inurba_marseille","lat":43.25713,"lon":5.41818,"is_reserved":false,"is_disabled":false,"rental_uris":{"android":"levelo://app?vid=f8933b14-5f9c-4be3-aa46-974ef81c23b6","ios":"levelo://app?vid=f8933b14-5f9c-4be3-aa46-974ef81c23b6"},"vehicle_type_id":"4","last_reported":1773566596,"current_range_meters":32800,"station_id":"","pricing_plan_id":"cebpf4jnsgd1na2vs0mg"},{"bike_id":"c4bf9557-32fa-47c0-82e6-cc65fc7a98d8","system_id":"levelo_inurba_marseille","lat":43.25497,"lon":5.37672,"is_reserved":false,"is_disabled":false,"rental_uris":{"android":"levelo://app?vid=c4bf9557-32fa-47c0-82e6-cc65fc7a98d8","ios":"levelo://app?vid=c4bf9557-32fa-47c0-82e6-cc65fc7a98d8"},"vehicle_type_id":"4","last_reported":1773566596,"current_range_meters":9200,"station_id":"ce4bhh12rcd13ifvqff0","pricing_plan_id":"cebpf4jnsgd1na2vs0mg"},{"bike_id":"2fd025c2-5d1f-404e-b401-f593d342fd66","system_id":"levelo_inurba_marseille","lat":43.30737,"lon":5.42453,"is_reserved":false,"is_disabled":false,"rental_uris":{"android":"levelo://app?vid=2fd025c2-5d1f-404e-b401-f593d342fd66","ios":"levelo://app?vid=2fd025c2-5d1f-404e-b401-f593d342fd66"},"vehicle_type_id":"4","last_reported":1773566596,"current_range_meters":36800,"station_id":"st_cvj6ca6bvosntc0bfgr0","pricing_plan_id":"cebpf4jnsgd1na2vs0mg"},{"bike_id":"d1615cfb-2c8e-4eb9-9b5f-5439933ffb39","system_id":"levelo_inurba_marseille","lat":43.28883,"lon":5.35834,"is_reserved":false,"is_disabled":false,"rental_uris":{"android":"levelo://app?vid=d1615cfb-2c8e-4eb9-9b5f-5439933ffb39","ios":"levelo://app?vid=d1615cfb-2c8e-4eb9-9b5f-5439933ffb39"},"vehicle_type_id":"4","last_reported":1773566596,"current_range_meters":27600,"station_id":"ce4bhb12rcd13ifvqem0","pricing_plan_id":"cebpf4jnsgd1na2vs0mg"},{"bike_id":"d81bade3-1f47-4f3b-a508-28c5f692db6c","system_id":"levelo_inurba_marseille","lat":43.31713,"lon":5.42391,"is_reserved":false,"is_disabled":false,"rental_uris":{"android":"levelo://app?vid=d81bade3-1f47-4f3b-a508-28c5f692db6c","ios":"levelo://app?vid=d81bade3-1f47-4f3b-a508-28c5f692db6c"},"vehicle_type_id":"4","last_reported":1773566596,"current_range_meters":35200,"station_id":"ce4bhp92rcd13ifvqhbg","pricing_plan_id":"cebpf4jnsgd1na2vs0mg"},{"bike_id":"114e304d-e20d-4f8a-9525-1a164e809dee","system_id":"levelo_inurba_marseille","lat":43.25526,"lon":5.37639,"is_reserved":false,"is_disabled":false,"rental_uris":{"android":"levelo://app?vid=114e304d-e20d-4f8a-9525-1a164e809dee","ios":"levelo://app?vid=114e304d-e20d-4f8a-9525-1a164e809dee"},"vehicle_type_id":"4","last_reported":1773566596,"current_range_meters":25200,"station_id":"ce4bhh12rcd13ifvqff0","pricing_plan_id":"cebpf4jnsgd1na2vs0mg"},{"bike_id":"ed805e5c-c91a-41a9-a21f-ce0355ac464f","system_id":"levelo_inurba_marseille","lat":43.28459,"lon":5.35903,"is_reserved":false,"is_disabled":false,"rental_uris":{"android":"levelo://app?vid=ed805e5c-c91a-41a9-a21f-ce0355ac464f","ios":"levelo://app?vid=ed805e5c-c91a-41a9-a21f-ce0355ac464f"},"vehicle_type_id":"4","last_reported":1773566596,"current_range_meters":13600,"station_id":"ce4bhah2rcd13ifvqei0","pricing_plan_id":"cebpf4jnsgd1na2vs0mg"},{"bike_id":"1a90a8d3-c56d-44f0-9e3d-eb117a0cebc5","system_id":"levelo_inurba_marseille","lat":43.2418,"lon":5.39718,"is_reserved":false,"is_disabled":false,"rental_uris":{"android":"levelo://app?vid=1a90a8d3-c56d-44f0-9e3d-eb117a0cebc5","ios":"levelo://app?vid=1a90a8d3-c56d-44f0-9e3d-eb117a0cebc5"},"vehicle_type_id":"4","last_reported":1773566596,"current_range_meters":32400,"station_id":"ce4bhn12rcd13ifvqgpg","pricing_plan_id":"cebpf4jnsgd1na2vs0mg"},{"bike_id":"0952a861-96c5-4b55-a131-b78d58f4f3c7","system_id":"levelo_inurba_marseille","lat":43.29899,"lon":5.39752,"is_reserved":false,"is_disabled":false,"rental_uris":{"android":"levelo://app?vid=0952a861-96c5-4b55-a131-b78d58f4f3c7","ios":"levelo://app?vid=0952a861-96c5-4b55-a131-b78d58f4f3c7"},"vehicle_type_id":"4","last_reported":1773566596,"current_range_meters":25600,"station_id":"ce4bh0h2rcd13ifvqd50","pricing_plan_id":"cebpf4jnsgd1na2vs0mg"},{"bike_id":"84f4a2bf-2617-4f6d-b5b2-52999d43fb4f","system_id":"levelo_inurba_marseille","lat":43.28072,"lon":5.39639,"is_reserved":false,"is_disabled":false,"rental_uris":{"android":"levelo://app?vid=84f4a2bf-2617-4f6d-b5b2-52999d43fb4f","ios":"levelo://app?vid=84f4a2bf-2617-4f6d-b5b2-52999d43fb4f"},"vehicle_type_id":"4","last_reported":1773566596,"current_range_meters":38800,"station_id":"ce4bho12rcd13ifvqh2g","pricing_plan_id":"cebpf4jnsgd1na2vs0mg"},{"bike_id":"3d951476-aa89-47f5-907d-0788c1744f09","system_id":"levelo_inurba_marseille","lat":43.25353,"lon":5.42163,"is_reserved":false,"is_disabled":false,"rental_uris":{"android":"levelo://app?vid=3d951476-aa89-47f5-907d-0788c1744f09","ios":"levelo://app?vid=3d951476-aa89-47f5-907d-0788c1744f09"},"vehicle_type_id":"4","last_reported":1773566596,"current_range_meters":24000,"station_id":"st_d2m65c5bi1j21697t3ng","pricing_plan_id":"cebpf4jnsgd1na2vs0mg"},{"bike_id":"959cb468-adf5-492c-a8a7-a3170c99be64","system_id":"levelo_inurba_marseille","lat":43.27082,"lon":5.38293,"is_reserved":false,"is_disabled":false,"rental_uris":{"android":"levelo://app?vid=959cb468-adf5-492c-a8a7-a3170c99be64","ios":"levelo://app?vid=959cb468-adf5-492c-a8a7-a3170c99be64"},"vehicle_type_id":"4","last_reported":1773566596,"current_range_meters":38000,"station_id":"st_d3n2fo6cfp8s73cte1j0","pricing_plan_id":"cebpf4jnsgd1na2vs0mg"},{"bike_id":"a8c21268-2edc-4550-9855-ee17f9a06fc5","system_id":"levelo_inurba_marseille","lat":43.28447,"lon":5.35895,"is_reserved":false,"is_disabled":false,"rental_uris":{"android":"levelo://app?vid=a8c21268-2edc-4550-9855-ee17f9a06fc5","ios":"levelo://app?vid=a8c21268-2edc-4550-9855-ee17f9a06fc5"},"vehicle_type_id":"4","last_reported":1773566596,"current_range_meters":39200,"station_id":"ce4bhah2rcd13ifvqei0","pricing_plan_id":"cebpf4jnsgd1na2vs0mg"},{"bike_id":"b72ddb5e-a931-44d4-b220-ff76b5486b06","system_id":"levelo_inurba_marseille","lat":43.27618,"lon":5.36112,"is_reserved":false,"is_disabled":false,"rental_uris":{"android":"levelo://app?vid=b72ddb5e-a931-44d4-b220-ff76b5486b06","ios":"levelo://app?vid=b72ddb5e-a931-44d4-b220-ff76b5486b06"},"vehicle_type_id":"4","last_reported":1773566596,"current_range_meters":39200,"station_id":"ce4bgj92rcd13ifvqbe0","pricing_plan_id":"cebpf4jnsgd1na2vs0mg"},{"bike_id":"cb7d2b92-dad7-4f1e-9d76-144bae66f1eb","system_id":"levelo_inurba_marseille","lat":43.21203,"lon":5.35087,"is_reserved":false,"is_disabled":true,"rental_uris":{"android":"levelo://app?vid=cb7d2b92-dad7-4f1e-9d76-144bae66f1eb","ios":"levelo://app?vid=cb7d2b92-dad7-4f1e-9d76-144bae66f1eb"},"vehicle_type_id":"4","last_reported":1773566596,"current_range_meters":0,"station_id":"st_cvj6sg6p6f1abm77japg","pricing_plan_id":"cebpf4jnsgd1na2vs0mg"},{"bike_id":"556e7a02-f3b4-4a4b-aba9-1ddeda9a2ff5","system_id":"levelo_inurba_marseille","lat":43.28448,"lon":5.35896,"is_reserved":false,"is_disabled":false,"rental_uris":{"android":"levelo://app?vid=556e7a02-f3b4-4a4b-aba9-1ddeda9a2ff5","ios":"levelo://app?vid=556e7a02-f3b4-4a4b-aba9-1ddeda9a2ff5"},"vehicle_type_id":"4","last_reported":1773566596,"current_range_meters":12800,"station_id":"ce4bhah2rcd13ifvqei0","pricing_plan_id":"cebpf4jnsgd1na2vs0mg"},{"bike_id":"968e0752-94e3-4427-8693-dccfb2dc93c6","system_id":"levelo_inurba_marseille","lat":43.32359,"lon":5.3887,"is_reserved":false,"is_disabled":false,"rental_uris":{"android":"levelo://app?vid=968e0752-94e3-4427-8693-dccfb2dc93c6","ios":"levelo://app?vid=968e0752-94e3-4427-8693-dccfb2dc93c6"},"vehicle_type_id":"4","last_reported":1773566596,"current_range_meters":36800,"station_id":"ce4bhqp2rcd13ifvqhog","pricing_plan_id":"cebpf4jnsgd1na2vs0mg"},{"bike_id":"49273576-06d6-42e9-a69a-23036da529eb","system_id":"levelo_inurba_marseille","lat":43.30602,"lon":5.37264,"is_reserved":false,"is_disabled":false,"rental_uris":{"android":"levelo://app?vid=49273576-06d6-42e9-a69a-23036da529eb","ios":"levelo://app?vid=49273576-06d6-42e9-a69a-23036da529eb"},"vehicle_type_id":"4","last_reported":1773566596,"current_range_meters":9600,"station_id":"ce4bgqh2rcd13ifvqc4g","pricing_plan_id":"cebpf4jnsgd1na2vs0mg"},{"bike_id":"98ff575e-e932-485c-a678-0a491cff6beb","system_id":"levelo_inurba_marseille","lat":43.26368,"lon":5.41076,"is_reserved":false,"is_disabled":false,"rental_uris":{"android":"levelo://app?vid=98ff575e-e932-485c-a678-0a491cff6beb","ios":"levelo://app?vid=98ff575e-e932-485c-a678-0a491cff6beb"},"vehicle_type_id":"4","last_reported":1773566596,"current_range_meters":30000,"station_id":"st_d4e5ca6na9uc73bfl5fg","pricing_plan_id":"cebpf4jnsgd1na2vs0mg"},{"bike_id":"2eb112e0-30fa-4776-b5a6-10d2c0c8b525","system_id":"levelo_inurba_marseille","lat":43.2903,"lon":5.39999,"is_reserved":false,"is_disabled":true,"rental_uris":{"android":"levelo://app?vid=2eb112e0-30fa-4776-b5a6-10d2c0c8b525","ios":"levelo://app?vid=2eb112e0-30fa-4776-b5a6-10d2c0c8b525"},"vehicle_type_id":"4","last_reported":1773566596,"current_range_meters":28000,"station_id":"ce4bh392rcd13ifvqdm0","pricing_plan_id":"cebpf4jnsgd1na2vs0mg"},{"bike_id":"5e37606c-cd45-4546-a107-12352d83874a","system_id":"levelo_inurba_marseille","lat":43.29221,"lon":5.39297,"is_reserved":false,"is_disabled":true,"rental_uris":{"android":"levelo://app?vid=5e37606c-cd45-4546-a107-12352d83874a","ios":"levelo://app?vid=5e37606c-cd45-4546-a107-12352d83874a"},"vehicle_type_id":"4","last_reported":1773566596,"current_range_meters":17200,"station_id":"ce4bh192rcd13ifvqdd0","pricing_plan_id":"cebpf4jnsgd1na2vs0mg"},{"bike_id":"71501c24-7c0d-4212-996a-19e1a1605792","system_id":"levelo_inurba_marseille","lat":43.29498,"lon":5.43302,"is_reserved":false,"is_disabled":true,"rental_uris":{"android":"levelo://app?vid=71501c24-7c0d-4212-996a-19e1a1605792","ios":"levelo://app?vid=71501c24-7c0d-4212-996a-19e1a1605792"},"vehicle_type_id":"4","last_reported":1773566596,"current_range_meters":0,"station_id":"st_d3j5ugp08ojc73fj9d10","pricing_plan_id":"cebpf4jnsgd1na2vs0mg"},{"bike_id":"4b77ff6b-7ad8-40ac-8852-ee5b19553dc1","system_id":"levelo_inurba_marseille","lat":43.30328,"lon":5.40445,"is_reserved":false,"is_disabled":false,"rental_uris":{"android":"levelo://app?vid=4b77ff6b-7ad8-40ac-8852-ee5b19553dc1","ios":"levelo://app?vid=4b77ff6b-7ad8-40ac-8852-ee5b19553dc1"},"vehicle_type_id":"4","last_reported":1773566596,"current_range_meters":10800,"station_id":"ce4bh012rcd13ifvqd10","pricing_plan_id":"cebpf4jnsgd1na2vs0mg"},{"bike_id":"d5455e83-72e4-4ef4-9233-f07b53171cfa","system_id":"levelo_inurba_marseille","lat":43.24937,"lon":5.40512,"is_reserved":false,"is_disabled":false,"rental_uris":{"android":"levelo://app?vid=d5455e83-72e4-4ef4-9233-f07b53171cfa","ios":"levelo://app?vid=d5455e83-72e4-4ef4-9233-f07b53171cfa"},"vehicle_type_id":"4","last_reported":1773566596,"current_range_meters":38400,"station_id":"st_d2ngiaodas8pm72gd1h0","pricing_plan_id":"cebpf4jnsgd1na2vs0mg"},{"bike_id":"c3a51489-0f5a-48ac-a8a7-6f935317a558","system_id":"levelo_inurba_marseille","lat":43.29683,"lon":5.36555,"is_reserved":false,"is_disabled":false,"rental_uris":{"android":"levelo://app?vid=c3a51489-0f5a-48ac-a8a7-6f935317a558","ios":"levelo://app?vid=c3a51489-0f5a-48ac-a8a7-6f935317a558"},"vehicle_type_id":"4","last_reported":1773566596,"current_range_meters":39200,"station_id":"ce4bgn12rcd13ifvqbt0","pricing_plan_id":"cebpf4jnsgd1na2vs0mg"},{"bike_id":"fab9d42d-0389-4e3c-b710-106effb7d2e6","system_id":"levelo_inurba_marseille","lat":43.27819,"lon":5.40712,"is_reserved":false,"is_disabled":false,"rental_uris":{"android":"levelo://app?vid=fab9d42d-0389-4e3c-b710-106effb7d2e6","ios":"levelo://app?vid=fab9d42d-0389-4e3c-b710-106effb7d2e6"},"vehicle_type_id":"4","last_reported":1773566596,"current_range_meters":30800,"station_id":"ce4bhnh2rcd13ifvqgtg","pricing_plan_id":"cebpf4jnsgd1na2vs0mg"},{"bike_id":"cbff1f1a-8782-4416-90f8-c7ed181fac0c","system_id":"levelo_inurba_marseille","lat":43.29638,"lon":5.3718,"is_reserved":false,"is_disabled":false,"rental_uris":{"android":"levelo://app?vid=cbff1f1a-8782-4416-90f8-c7ed181fac0c","ios":"levelo://app?vid=cbff1f1a-8782-4416-90f8-c7ed181fac0c"},"vehicle_type_id":"4","last_reported":1773566596,"current_range_meters":17600,"station_id":"ce4bgnh2rcd13ifvqc0g","pricing_plan_id":"cebpf4jnsgd1na2vs0mg"},{"bike_id":"a29b970f-b285-425f-be46-e5d395220578","system_id":"levelo_inurba_marseille","lat":43.25125,"lon":5.40324,"is_reserved":false,"is_disabled":false,"rental_uris":{"android":"levelo://app?vid=a29b970f-b285-425f-be46-e5d395220578","ios":"levelo://app?vid=a29b970f-b285-425f-be46-e5d395220578"},"vehicle_type_id":"4","last_reported":1773566596,"current_range_meters":25600,"station_id":"ce4bhlh2rcd13ifvqgig","pricing_plan_id":"cebpf4jnsgd1na2vs0mg"},{"bike_id":"c8e6709b-d18f-4ab7-84d0-50300418656b","system_id":"levelo_inurba_marseille","lat":43.2465,"lon":5.38161,"is_reserved":false,"is_disabled":false,"rental_uris":{"android":"levelo://app?vid=c8e6709b-d18f-4ab7-84d0-50300418656b","ios":"levelo://app?vid=c8e6709b-d18f-4ab7-84d0-50300418656b"},"vehicle_type_id":"4","last_reported":1773566596,"current_range_meters":24800,"station_id":"ce4bhih2rcd13ifvqfr0","pricing_plan_id":"cebpf4jnsgd1na2vs0mg"},{"bike_id":"1b76ca95-f18f-46ad-b5e2-115c03b09dc0","system_id":"levelo_inurba_marseille","lat":43.29757,"lon":5.42785,"is_reserved":false,"is_disabled":false,"rental_uris":{"android":"levelo://app?vid=1b76ca95-f18f-46ad-b5e2-115c03b09dc0","ios":"levelo://app?vid=1b76ca95-f18f-46ad-b5e2-115c03b09dc0"},"vehicle_type_id":"4","last_reported":1773566596,"current_range_meters":18000,"station_id":"st_d3md5207bmas73dh9klg","pricing_plan_id":"cebpf4jnsgd1na2vs0mg"},{"bike_id":"aa1ea814-effc-4a82-a7ce-fc6b0be25510","system_id":"levelo_inurba_marseille","lat":43.31858,"lon":5.3697,"is_reserved":false,"is_disabled":false,"rental_uris":{"android":"levelo://app?vid=aa1ea814-effc-4a82-a7ce-fc6b0be25510","ios":"levelo://app?vid=aa1ea814-effc-4a82-a7ce-fc6b0be25510"},"vehicle_type_id":"4","last_reported":1773566596,"current_range_meters":37600,"station_id":"","pricing_plan_id":"cebpf4jnsgd1na2vs0mg"},{"bike_id":"3c5163fb-64ec-4262-8689-0f25a2b855b0","system_id":"levelo_inurba_marseille","lat":43.299738,"lon":5.384833,"is_reserved":false,"is_disabled":false,"rental_uris":{"android":"levelo://app?vid=3c5163fb-64ec-4262-8689-0f25a2b855b0","ios":"levelo://app?vid=3c5163fb-64ec-4262-8689-0f25a2b855b0"},"vehicle_type_id":"4","last_reported":1773566596,"current_range_meters":24400,"station_id":"ce4bgj92rcd13ifvqbd0","pricing_plan_id":"cebpf4jnsgd1na2vs0mg"},{"bike_id":"ddec226d-ab17-4143-8526-b3b9f82a115d","system_id":"levelo_inurba_marseille","lat":43.30128,"lon":5.39849,"is_reserved":false,"is_disabled":false,"rental_uris":{"android":"levelo://app?vid=ddec226d-ab17-4143-8526-b3b9f82a115d","ios":"levelo://app?vid=ddec226d-ab17-4143-8526-b3b9f82a115d"},"vehicle_type_id":"4","last_reported":1773566596,"current_range_meters":16800,"station_id":"ce4bh0h2rcd13ifvqd40","pricing_plan_id":"cebpf4jnsgd1na2vs0mg"},{"bike_id":"fb572cf7-cf1a-4dfc-ac30-6f925bcd24fa","system_id":"levelo_inurba_marseille","lat":43.30586,"lon":5.37222,"is_reserved":false,"is_disabled":false,"rental_uris":{"android":"levelo://app?vid=fb572cf7-cf1a-4dfc-ac30-6f925bcd24fa","ios":"levelo://app?vid=fb572cf7-cf1a-4dfc-ac30-6f925bcd24fa"},"vehicle_type_id":"4","last_reported":1773566596,"current_range_meters":32000,"station_id":"ce4bgqh2rcd13ifvqc4g","pricing_plan_id":"cebpf4jnsgd1na2vs0mg"},{"bike_id":"adb3e066-3d52-48f2-aa5f-de1d01f85bb9","system_id":"levelo_inurba_marseille","lat":43.30195,"lon":5.37385,"is_reserved":false,"is_disabled":false,"rental_uris":{"android":"levelo://app?vid=adb3e066-3d52-48f2-aa5f-de1d01f85bb9","ios":"levelo://app?vid=adb3e066-3d52-48f2-aa5f-de1d01f85bb9"},"vehicle_type_id":"4","last_reported":1773566596,"current_range_meters":17200,"station_id":"","pricing_plan_id":"cebpf4jnsgd1na2vs0mg"},{"bike_id":"3782a432-3560-4a95-b99a-7cedcc489ddb","system_id":"levelo_inurba_marseille","lat":43.3014,"lon":5.3877,"is_reserved":false,"is_disabled":false,"rental_uris":{"android":"levelo://app?vid=3782a432-3560-4a95-b99a-7cedcc489ddb","ios":"levelo://app?vid=3782a432-3560-4a95-b99a-7cedcc489ddb"},"vehicle_type_id":"4","last_reported":1773566596,"current_range_meters":38400,"station_id":"ce4bghh2rcd13ifvqb60","pricing_plan_id":"cebpf4jnsgd1na2vs0mg"},{"bike_id":"9bb58202-02ff-4e31-a3eb-9587f79034ad","system_id":"levelo_inurba_marseille","lat":43.26947,"lon":5.38641,"is_reserved":false,"is_disabled":false,"rental_uris":{"android":"levelo://app?vid=9bb58202-02ff-4e31-a3eb-9587f79034ad","ios":"levelo://app?vid=9bb58202-02ff-4e31-a3eb-9587f79034ad"},"vehicle_type_id":"4","last_reported":1773566596,"current_range_meters":39200,"station_id":"ce4bhh92rcd13ifvqfh0","pricing_plan_id":"cebpf4jnsgd1na2vs0mg"},{"bike_id":"8d1d6e8b-5750-4bc4-847c-d5a2d80e3e6b","system_id":"levelo_inurba_marseille","lat":43.31521,"lon":5.37242,"is_reserved":false,"is_disabled":false,"rental_uris":{"android":"levelo://app?vid=8d1d6e8b-5750-4bc4-847c-d5a2d80e3e6b","ios":"levelo://app?vid=8d1d6e8b-5750-4bc4-847c-d5a2d80e3e6b"},"vehicle_type_id":"4","last_reported":1773566596,"current_range_meters":40000,"station_id":"ce4bgt12rcd13ifvqcd0","pricing_plan_id":"cebpf4jnsgd1na2vs0mg"},{"bike_id":"833ead7f-2cc1-415f-b495-f484e1825ff8","system_id":"levelo_inurba_marseille","lat":43.30734,"lon":5.42447,"is_reserved":false,"is_disabled":false,"rental_uris":{"android":"levelo://app?vid=833ead7f-2cc1-415f-b495-f484e1825ff8","ios":"levelo://app?vid=833ead7f-2cc1-415f-b495-f484e1825ff8"},"vehicle_type_id":"4","last_reported":1773566596,"current_range_meters":37600,"station_id":"st_cvj6ca6bvosntc0bfgr0","pricing_plan_id":"cebpf4jnsgd1na2vs0mg"},{"bike_id":"eb2f308c-8a12-4604-91b5-c6e7beca1962","system_id":"levelo_inurba_marseille","lat":43.25583,"lon":5.38228,"is_reserved":false,"is_disabled":false,"rental_uris":{"android":"levelo://app?vid=eb2f308c-8a12-4604-91b5-c6e7beca1962","ios":"levelo://app?vid=eb2f308c-8a12-4604-91b5-c6e7beca1962"},"vehicle_type_id":"4","last_reported":1773566596,"current_range_meters":24000,"station_id":"ce4bhih2rcd13ifvqfs0","pricing_plan_id":"cebpf4jnsgd1na2vs0mg"},{"bike_id":"ec062fde-2e15-4dbb-92cd-dbc3f4ead404","system_id":"levelo_inurba_marseille","lat":43.29116,"lon":5.43276,"is_reserved":false,"is_disabled":true,"rental_uris":{"android":"levelo://app?vid=ec062fde-2e15-4dbb-92cd-dbc3f4ead404","ios":"levelo://app?vid=ec062fde-2e15-4dbb-92cd-dbc3f4ead404"},"vehicle_type_id":"4","last_reported":1773566596,"current_range_meters":27200,"station_id":"","pricing_plan_id":"cebpf4jnsgd1na2vs0mg"},{"bike_id":"9a99be02-7fc5-4af9-836f-23a5fd9cab8b","system_id":"levelo_inurba_marseille","lat":43.24388,"lon":5.37059,"is_reserved":false,"is_disabled":false,"rental_uris":{"android":"levelo://app?vid=9a99be02-7fc5-4af9-836f-23a5fd9cab8b","ios":"levelo://app?vid=9a99be02-7fc5-4af9-836f-23a5fd9cab8b"},"vehicle_type_id":"4","last_reported":1773566596,"current_range_meters":39200,"station_id":"ce4bhhh2rcd13ifvqfk0","pricing_plan_id":"cebpf4jnsgd1na2vs0mg"},{"bike_id":"85f520fc-113e-4f17-b2a5-245ce16c5540","system_id":"levelo_inurba_marseille","lat":43.25334,"lon":5.42173,"is_reserved":false,"is_disabled":false,"rental_uris":{"android":"levelo://app?vid=85f520fc-113e-4f17-b2a5-245ce16c5540","ios":"levelo://app?vid=85f520fc-113e-4f17-b2a5-245ce16c5540"},"vehicle_type_id":"4","last_reported":1773566596,"current_range_meters":39200,"station_id":"st_d2m65c5bi1j21697t3ng","pricing_plan_id":"cebpf4jnsgd1na2vs0mg"},{"bike_id":"7e2af57d-1b95-4afe-8aab-fe55733493d4","system_id":"levelo_inurba_marseille","lat":43.26924,"lon":5.40255,"is_reserved":false,"is_disabled":false,"rental_uris":{"android":"levelo://app?vid=7e2af57d-1b95-4afe-8aab-fe55733493d4","ios":"levelo://app?vid=7e2af57d-1b95-4afe-8aab-fe55733493d4"},"vehicle_type_id":"4","last_reported":1773566596,"current_range_meters":20400,"station_id":"cjm6bp8fraef2m0cb0m0","pricing_plan_id":"cebpf4jnsgd1na2vs0mg"},{"bike_id":"be4b33f3-f666-4b28-9e53-550c3c6e8b23","system_id":"levelo_inurba_marseille","lat":43.28482,"lon":5.48406,"is_reserved":false,"is_disabled":false,"rental_uris":{"android":"levelo://app?vid=be4b33f3-f666-4b28-9e53-550c3c6e8b23","ios":"levelo://app?vid=be4b33f3-f666-4b28-9e53-550c3c6e8b23"},"vehicle_type_id":"4","last_reported":1773566596,"current_range_meters":12400,"station_id":"st_d3svhcjqgbts73a3dn0g","pricing_plan_id":"cebpf4jnsgd1na2vs0mg"},{"bike_id":"a5aff278-9967-49ae-ad5a-f6cdaa4e759d","system_id":"levelo_inurba_marseille","lat":43.29,"lon":5.35611,"is_reserved":false,"is_disabled":false,"rental_uris":{"android":"levelo://app?vid=a5aff278-9967-49ae-ad5a-f6cdaa4e759d","ios":"levelo://app?vid=a5aff278-9967-49ae-ad5a-f6cdaa4e759d"},"vehicle_type_id":"4","last_reported":1773566596,"current_range_meters":34800,"station_id":"ce4bhb92rcd13ifvqen0","pricing_plan_id":"cebpf4jnsgd1na2vs0mg"},{"bike_id":"12f1d2b1-fb1d-483c-863b-27f8c8a4a5fe","system_id":"levelo_inurba_marseille","lat":43.26186,"lon":5.37458,"is_reserved":false,"is_disabled":false,"rental_uris":{"android":"levelo://app?vid=12f1d2b1-fb1d-483c-863b-27f8c8a4a5fe","ios":"levelo://app?vid=12f1d2b1-fb1d-483c-863b-27f8c8a4a5fe"},"vehicle_type_id":"4","last_reported":1773566596,"current_range_meters":31200,"station_id":"ce4bhgp2rcd13ifvqfc0","pricing_plan_id":"cebpf4jnsgd1na2vs0mg"},{"bike_id":"26ec3725-c826-40e4-8423-caab5390d1ff","system_id":"levelo_inurba_marseille","lat":43.26706,"lon":5.38246,"is_reserved":false,"is_disabled":false,"rental_uris":{"android":"levelo://app?vid=26ec3725-c826-40e4-8423-caab5390d1ff","ios":"levelo://app?vid=26ec3725-c826-40e4-8423-caab5390d1ff"},"vehicle_type_id":"4","last_reported":1773566596,"current_range_meters":18800,"station_id":"ce4bhg92rcd13ifvqf90","pricing_plan_id":"cebpf4jnsgd1na2vs0mg"},{"bike_id":"193cbe9d-b7d2-421e-9f76-9c8c86aebb4a","system_id":"levelo_inurba_marseille","lat":43.33552,"lon":5.37463,"is_reserved":false,"is_disabled":false,"rental_uris":{"android":"levelo://app?vid=193cbe9d-b7d2-421e-9f76-9c8c86aebb4a","ios":"levelo://app?vid=193cbe9d-b7d2-421e-9f76-9c8c86aebb4a"},"vehicle_type_id":"4","last_reported":1773566596,"current_range_meters":14000,"station_id":"st_d46tts09ee8s73dlu43g","pricing_plan_id":"cebpf4jnsgd1na2vs0mg"},{"bike_id":"c3fda1dd-5225-4f7e-a7f9-21ab5cd7437f","system_id":"levelo_inurba_marseille","lat":43.29855,"lon":5.3629,"is_reserved":false,"is_disabled":false,"rental_uris":{"android":"levelo://app?vid=c3fda1dd-5225-4f7e-a7f9-21ab5cd7437f","ios":"levelo://app?vid=c3fda1dd-5225-4f7e-a7f9-21ab5cd7437f"},"vehicle_type_id":"4","last_reported":1773566596,"current_range_meters":36000,"station_id":"ce4bgpp2rcd13ifvqc3g","pricing_plan_id":"cebpf4jnsgd1na2vs0mg"},{"bike_id":"0c7cd06d-7279-4658-8a40-9f99bb5a36fc","system_id":"levelo_inurba_marseille","lat":43.29561,"lon":5.3755,"is_reserved":false,"is_disabled":false,"rental_uris":{"android":"levelo://app?vid=0c7cd06d-7279-4658-8a40-9f99bb5a36fc","ios":"levelo://app?vid=0c7cd06d-7279-4658-8a40-9f99bb5a36fc"},"vehicle_type_id":"4","last_reported":1773566596,"current_range_meters":14000,"station_id":"ce4bgh92rcd13ifvqb50","pricing_plan_id":"cebpf4jnsgd1na2vs0mg"},{"bike_id":"91de8c26-a4ae-4282-976b-d4b287103bef","system_id":"levelo_inurba_marseille","lat":43.29493,"lon":5.43319,"is_reserved":false,"is_disabled":false,"rental_uris":{"android":"levelo://app?vid=91de8c26-a4ae-4282-976b-d4b287103bef","ios":"levelo://app?vid=91de8c26-a4ae-4282-976b-d4b287103bef"},"vehicle_type_id":"4","last_reported":1773566596,"current_range_meters":10800,"station_id":"st_d3j5ugp08ojc73fj9d10","pricing_plan_id":"cebpf4jnsgd1na2vs0mg"},{"bike_id":"363eb9a8-8391-43a6-8dd0-57a9b8ddd213","system_id":"levelo_inurba_marseille","lat":43.29921,"lon":5.37479,"is_reserved":false,"is_disabled":false,"rental_uris":{"android":"levelo://app?vid=363eb9a8-8391-43a6-8dd0-57a9b8ddd213","ios":"levelo://app?vid=363eb9a8-8391-43a6-8dd0-57a9b8ddd213"},"vehicle_type_id":"4","last_reported":1773566596,"current_range_meters":24400,"station_id":"ce4bgjh2rcd13ifvqbg0","pricing_plan_id":"cebpf4jnsgd1na2vs0mg"},{"bike_id":"f57f089c-5335-43ff-9fb1-a5e6e8c70c5b","system_id":"levelo_inurba_marseille","lat":43.28703,"lon":5.37929,"is_reserved":false,"is_disabled":false,"rental_uris":{"android":"levelo://app?vid=f57f089c-5335-43ff-9fb1-a5e6e8c70c5b","ios":"levelo://app?vid=f57f089c-5335-43ff-9fb1-a5e6e8c70c5b"},"vehicle_type_id":"4","last_reported":1773566596,"current_range_meters":35600,"station_id":"ce4bh9p2rcd13ifvqec0","pricing_plan_id":"cebpf4jnsgd1na2vs0mg"},{"bike_id":"641cab82-5627-4c24-a3b6-dfa17af8941b","system_id":"levelo_inurba_marseille","lat":43.24545,"lon":5.39527,"is_reserved":false,"is_disabled":false,"rental_uris":{"android":"levelo://app?vid=641cab82-5627-4c24-a3b6-dfa17af8941b","ios":"levelo://app?vid=641cab82-5627-4c24-a3b6-dfa17af8941b"},"vehicle_type_id":"4","last_reported":1773566596,"current_range_meters":24800,"station_id":"ce4bhlp2rcd13ifvqgjg","pricing_plan_id":"cebpf4jnsgd1na2vs0mg"},{"bike_id":"215155e0-8b63-489e-836e-4a3192228481","system_id":"levelo_inurba_marseille","lat":43.28942,"lon":5.39632,"is_reserved":false,"is_disabled":false,"rental_uris":{"android":"levelo://app?vid=215155e0-8b63-489e-836e-4a3192228481","ios":"levelo://app?vid=215155e0-8b63-489e-836e-4a3192228481"},"vehicle_type_id":"4","last_reported":1773566596,"current_range_meters":39200,"station_id":"ce4bh3h2rcd13ifvqdn0","pricing_plan_id":"cebpf4jnsgd1na2vs0mg"},{"bike_id":"90cd78e0-b487-4118-aeed-b099744fa193","system_id":"levelo_inurba_marseille","lat":43.28444,"lon":5.39186,"is_reserved":false,"is_disabled":false,"rental_uris":{"android":"levelo://app?vid=90cd78e0-b487-4118-aeed-b099744fa193","ios":"levelo://app?vid=90cd78e0-b487-4118-aeed-b099744fa193"},"vehicle_type_id":"4","last_reported":1773566596,"current_range_meters":38000,"station_id":"ce4bhoh2rcd13ifvqh5g","pricing_plan_id":"cebpf4jnsgd1na2vs0mg"},{"bike_id":"4cae7835-8a59-413d-8c89-00d16035c594","system_id":"levelo_inurba_marseille","lat":43.29555,"lon":5.375,"is_reserved":false,"is_disabled":false,"rental_uris":{"android":"levelo://app?vid=4cae7835-8a59-413d-8c89-00d16035c594","ios":"levelo://app?vid=4cae7835-8a59-413d-8c89-00d16035c594"},"vehicle_type_id":"4","last_reported":1773566596,"current_range_meters":36000,"station_id":"ce4bgkp2rcd13ifvqbmg","pricing_plan_id":"cebpf4jnsgd1na2vs0mg"},{"bike_id":"3d7100c2-5bd5-4a18-a534-e313e8e3db75","system_id":"levelo_inurba_marseille","lat":43.28625,"lon":5.3511,"is_reserved":false,"is_disabled":false,"rental_uris":{"android":"levelo://app?vid=3d7100c2-5bd5-4a18-a534-e313e8e3db75","ios":"levelo://app?vid=3d7100c2-5bd5-4a18-a534-e313e8e3db75"},"vehicle_type_id":"4","last_reported":1773566596,"current_range_meters":27600,"station_id":"ce4bhch2rcd13ifvqeug","pricing_plan_id":"cebpf4jnsgd1na2vs0mg"},{"bike_id":"e339a24b-df7b-4de6-98b9-660e6308a031","system_id":"levelo_inurba_marseille","lat":43.22566,"lon":5.41614,"is_reserved":false,"is_disabled":false,"rental_uris":{"android":"levelo://app?vid=e339a24b-df7b-4de6-98b9-660e6308a031","ios":"levelo://app?vid=e339a24b-df7b-4de6-98b9-660e6308a031"},"vehicle_type_id":"4","last_reported":1773566596,"current_range_meters":34000,"station_id":"st_d2o4gvlbi1j2169b742g","pricing_plan_id":"cebpf4jnsgd1na2vs0mg"},{"bike_id":"acbbef11-1175-4fc2-be23-3149665f36b3","system_id":"levelo_inurba_marseille","lat":43.30544,"lon":5.36536,"is_reserved":false,"is_disabled":true,"rental_uris":{"android":"levelo://app?vid=acbbef11-1175-4fc2-be23-3149665f36b3","ios":"levelo://app?vid=acbbef11-1175-4fc2-be23-3149665f36b3"},"vehicle_type_id":"4","last_reported":1773566596,"current_range_meters":20800,"station_id":"ce4bgs12rcd13ifvqcag","pricing_plan_id":"cebpf4jnsgd1na2vs0mg"},{"bike_id":"9171b734-0df6-4ec4-9850-d0dfe5ba2365","system_id":"levelo_inurba_marseille","lat":43.30653,"lon":5.40077,"is_reserved":false,"is_disabled":false,"rental_uris":{"android":"levelo://app?vid=9171b734-0df6-4ec4-9850-d0dfe5ba2365","ios":"levelo://app?vid=9171b734-0df6-4ec4-9850-d0dfe5ba2365"},"vehicle_type_id":"4","last_reported":1773566596,"current_range_meters":39200,"station_id":"ce4bh112rcd13ifvqda0","pricing_plan_id":"cebpf4jnsgd1na2vs0mg"},{"bike_id":"0ed4cb71-7747-4bd4-a6af-33060dfbb309","system_id":"levelo_inurba_marseille","lat":43.27619,"lon":5.36104,"is_reserved":false,"is_disabled":false,"rental_uris":{"android":"levelo://app?vid=0ed4cb71-7747-4bd4-a6af-33060dfbb309","ios":"levelo://app?vid=0ed4cb71-7747-4bd4-a6af-33060dfbb309"},"vehicle_type_id":"4","last_reported":1773566596,"current_range_meters":39200,"station_id":"ce4bgj92rcd13ifvqbe0","pricing_plan_id":"cebpf4jnsgd1na2vs0mg"},{"bike_id":"040ebf91-65e6-4961-b3b8-9b42783730b4","system_id":"levelo_inurba_marseille","lat":43.30303,"lon":5.36864,"is_reserved":false,"is_disabled":false,"rental_uris":{"android":"levelo://app?vid=040ebf91-65e6-4961-b3b8-9b42783730b4","ios":"levelo://app?vid=040ebf91-65e6-4961-b3b8-9b42783730b4"},"vehicle_type_id":"4","last_reported":1773566596,"current_range_meters":32400,"station_id":"ce4bgqh2rcd13ifvqc5g","pricing_plan_id":"cebpf4jnsgd1na2vs0mg"},{"bike_id":"39511bac-a378-495c-8620-d864725c8485","system_id":"levelo_inurba_marseille","lat":43.25087,"lon":5.39505,"is_reserved":false,"is_disabled":false,"rental_uris":{"android":"levelo://app?vid=39511bac-a378-495c-8620-d864725c8485","ios":"levelo://app?vid=39511bac-a378-495c-8620-d864725c8485"},"vehicle_type_id":"4","last_reported":1773566596,"current_range_meters":38800,"station_id":"ce4bhm12rcd13ifvqgkg","pricing_plan_id":"cebpf4jnsgd1na2vs0mg"},{"bike_id":"3a46d46a-3434-4c09-9481-ae1049d546b0","system_id":"levelo_inurba_marseille","lat":43.31472,"lon":5.3726,"is_reserved":false,"is_disabled":false,"rental_uris":{"android":"levelo://app?vid=3a46d46a-3434-4c09-9481-ae1049d546b0","ios":"levelo://app?vid=3a46d46a-3434-4c09-9481-ae1049d546b0"},"vehicle_type_id":"4","last_reported":1773566596,"current_range_meters":38000,"station_id":"ce4bgt12rcd13ifvqcd0","pricing_plan_id":"cebpf4jnsgd1na2vs0mg"},{"bike_id":"64069c02-c977-4af0-a752-efe4502ec874","system_id":"levelo_inurba_marseille","lat":43.2848,"lon":5.48388,"is_reserved":false,"is_disabled":false,"rental_uris":{"android":"levelo://app?vid=64069c02-c977-4af0-a752-efe4502ec874","ios":"levelo://app?vid=64069c02-c977-4af0-a752-efe4502ec874"},"vehicle_type_id":"4","last_reported":1773566596,"current_range_meters":37600,"station_id":"","pricing_plan_id":"cebpf4jnsgd1na2vs0mg"},{"bike_id":"030d87a5-4fd6-406c-97be-8b1d2c082c10","system_id":"levelo_inurba_marseille","lat":43.2454,"lon":5.39524,"is_reserved":false,"is_disabled":false,"rental_uris":{"android":"levelo://app?vid=030d87a5-4fd6-406c-97be-8b1d2c082c10","ios":"levelo://app?vid=030d87a5-4fd6-406c-97be-8b1d2c082c10"},"vehicle_type_id":"4","last_reported":1773566596,"current_range_meters":38000,"station_id":"ce4bhlp2rcd13ifvqgjg","pricing_plan_id":"cebpf4jnsgd1na2vs0mg"},{"bike_id":"0c60e9f7-419a-402d-bbe7-ab8848add394","system_id":"levelo_inurba_marseille","lat":43.31624,"lon":5.40501,"is_reserved":false,"is_disabled":false,"rental_uris":{"android":"levelo://app?vid=0c60e9f7-419a-402d-bbe7-ab8848add394","ios":"levelo://app?vid=0c60e9f7-419a-402d-bbe7-ab8848add394"},"vehicle_type_id":"4","last_reported":1773566596,"current_range_meters":31200,"station_id":"","pricing_plan_id":"cebpf4jnsgd1na2vs0mg"},{"bike_id":"e666f2fc-c602-4b8d-91e3-0d86c3da7741","system_id":"levelo_inurba_marseille","lat":43.28476,"lon":5.39191,"is_reserved":false,"is_disabled":false,"rental_uris":{"android":"levelo://app?vid=e666f2fc-c602-4b8d-91e3-0d86c3da7741","ios":"levelo://app?vid=e666f2fc-c602-4b8d-91e3-0d86c3da7741"},"vehicle_type_id":"4","last_reported":1773566596,"current_range_meters":39200,"station_id":"ce4bhoh2rcd13ifvqh5g","pricing_plan_id":"cebpf4jnsgd1na2vs0mg"},{"bike_id":"6ba02607-5543-4986-b3cb-a1df5f02d1dd","system_id":"levelo_inurba_marseille","lat":43.31415,"lon":5.3672,"is_reserved":false,"is_disabled":false,"rental_uris":{"android":"levelo://app?vid=6ba02607-5543-4986-b3cb-a1df5f02d1dd","ios":"levelo://app?vid=6ba02607-5543-4986-b3cb-a1df5f02d1dd"},"vehicle_type_id":"4","last_reported":1773566596,"current_range_meters":38400,"station_id":"ce4bgr92rcd13ifvqc6g","pricing_plan_id":"cebpf4jnsgd1na2vs0mg"},{"bike_id":"68f8bcec-7291-4d62-b8e4-32de3382d5ae","system_id":"levelo_inurba_marseille","lat":43.30153,"lon":5.37289,"is_reserved":false,"is_disabled":false,"rental_uris":{"android":"levelo://app?vid=68f8bcec-7291-4d62-b8e4-32de3382d5ae","ios":"levelo://app?vid=68f8bcec-7291-4d62-b8e4-32de3382d5ae"},"vehicle_type_id":"4","last_reported":1773566596,"current_range_meters":9600,"station_id":"","pricing_plan_id":"cebpf4jnsgd1na2vs0mg"},{"bike_id":"7bf0a830-d498-457c-a030-91c3bd84fed4","system_id":"levelo_inurba_marseille","lat":43.23193,"lon":5.35562,"is_reserved":false,"is_disabled":false,"rental_uris":{"android":"levelo://app?vid=7bf0a830-d498-457c-a030-91c3bd84fed4","ios":"levelo://app?vid=7bf0a830-d498-457c-a030-91c3bd84fed4"},"vehicle_type_id":"4","last_reported":1773566596,"current_range_meters":31200,"station_id":"ce4bhu92rcd13ifvqi70","pricing_plan_id":"cebpf4jnsgd1na2vs0mg"},{"bike_id":"db5fc025-f609-443b-b481-2f6cefb137d4","system_id":"levelo_inurba_marseille","lat":43.28486,"lon":5.48395,"is_reserved":false,"is_disabled":false,"rental_uris":{"android":"levelo://app?vid=db5fc025-f609-443b-b481-2f6cefb137d4","ios":"levelo://app?vid=db5fc025-f609-443b-b481-2f6cefb137d4"},"vehicle_type_id":"4","last_reported":1773566596,"current_range_meters":28400,"station_id":"","pricing_plan_id":"cebpf4jnsgd1na2vs0mg"},{"bike_id":"3b85e9e8-4938-4ae7-a83e-c8e2526a550f","system_id":"levelo_inurba_marseille","lat":43.24171,"lon":5.36422,"is_reserved":false,"is_disabled":false,"rental_uris":{"android":"levelo://app?vid=3b85e9e8-4938-4ae7-a83e-c8e2526a550f","ios":"levelo://app?vid=3b85e9e8-4938-4ae7-a83e-c8e2526a550f"},"vehicle_type_id":"4","last_reported":1773566596,"current_range_meters":12400,"station_id":"cpo36qri1sfpv3e86is0","pricing_plan_id":"cebpf4jnsgd1na2vs0mg"},{"bike_id":"c6384ce6-6b54-4b6d-b227-3cffde6120a6","system_id":"levelo_inurba_marseille","lat":43.30909,"lon":5.40139,"is_reserved":false,"is_disabled":true,"rental_uris":{"android":"levelo://app?vid=c6384ce6-6b54-4b6d-b227-3cffde6120a6","ios":"levelo://app?vid=c6384ce6-6b54-4b6d-b227-3cffde6120a6"},"vehicle_type_id":"4","last_reported":1773566596,"current_range_meters":31200,"station_id":"ce4bgvp2rcd13ifvqct0","pricing_plan_id":"cebpf4jnsgd1na2vs0mg"},{"bike_id":"291874e8-1076-4212-bc5a-785d26390212","system_id":"levelo_inurba_marseille","lat":43.27949,"lon":5.41047,"is_reserved":false,"is_disabled":false,"rental_uris":{"android":"levelo://app?vid=291874e8-1076-4212-bc5a-785d26390212","ios":"levelo://app?vid=291874e8-1076-4212-bc5a-785d26390212"},"vehicle_type_id":"4","last_reported":1773566596,"current_range_meters":19600,"station_id":"ce4bhnp2rcd13ifvqh0g","pricing_plan_id":"cebpf4jnsgd1na2vs0mg"},{"bike_id":"4afcb84a-0db5-4ae3-ba90-2750739e856b","system_id":"levelo_inurba_marseille","lat":43.31487,"lon":5.37296,"is_reserved":false,"is_disabled":false,"rental_uris":{"android":"levelo://app?vid=4afcb84a-0db5-4ae3-ba90-2750739e856b","ios":"levelo://app?vid=4afcb84a-0db5-4ae3-ba90-2750739e856b"},"vehicle_type_id":"4","last_reported":1773566596,"current_range_meters":39200,"station_id":"ce4bgt12rcd13ifvqcd0","pricing_plan_id":"cebpf4jnsgd1na2vs0mg"},{"bike_id":"e3992951-2693-423e-8845-e8948be986e5","system_id":"levelo_inurba_marseille","lat":43.32483,"lon":5.36564,"is_reserved":false,"is_disabled":false,"rental_uris":{"android":"levelo://app?vid=e3992951-2693-423e-8845-e8948be986e5","ios":"levelo://app?vid=e3992951-2693-423e-8845-e8948be986e5"},"vehicle_type_id":"4","last_reported":1773566596,"current_range_meters":38800,"station_id":"ce4bhs12rcd13ifvqhvg","pricing_plan_id":"cebpf4jnsgd1na2vs0mg"},{"bike_id":"c578fcbe-c9ff-4b19-81dd-1247bddf8f7b","system_id":"levelo_inurba_marseille","lat":43.2919,"lon":5.35793,"is_reserved":false,"is_disabled":false,"rental_uris":{"android":"levelo://app?vid=c578fcbe-c9ff-4b19-81dd-1247bddf8f7b","ios":"levelo://app?vid=c578fcbe-c9ff-4b19-81dd-1247bddf8f7b"},"vehicle_type_id":"4","last_reported":1773566596,"current_range_meters":37600,"station_id":"ce4bhb12rcd13ifvqel0","pricing_plan_id":"cebpf4jnsgd1na2vs0mg"},{"bike_id":"39513cb6-3bc6-440f-aba3-05c67abcb751","system_id":"levelo_inurba_marseille","lat":43.29,"lon":5.35611,"is_reserved":false,"is_disabled":false,"rental_uris":{"android":"levelo://app?vid=39513cb6-3bc6-440f-aba3-05c67abcb751","ios":"levelo://app?vid=39513cb6-3bc6-440f-aba3-05c67abcb751"},"vehicle_type_id":"4","last_reported":1773566596,"current_range_meters":40000,"station_id":"ce4bhb92rcd13ifvqen0","pricing_plan_id":"cebpf4jnsgd1na2vs0mg"},{"bike_id":"c0c5d9dc-928d-48b1-bc04-fe5d71707694","system_id":"levelo_inurba_marseille","lat":43.32376,"lon":5.36739,"is_reserved":false,"is_disabled":false,"rental_uris":{"android":"levelo://app?vid=c0c5d9dc-928d-48b1-bc04-fe5d71707694","ios":"levelo://app?vid=c0c5d9dc-928d-48b1-bc04-fe5d71707694"},"vehicle_type_id":"4","last_reported":1773566596,"current_range_meters":34000,"station_id":"ce4bhsh2rcd13ifvqi2g","pricing_plan_id":"cebpf4jnsgd1na2vs0mg"},{"bike_id":"c4e6e4d4-68e7-41a7-aebb-da067ca2f711","system_id":"levelo_inurba_marseille","lat":43.28837,"lon":5.35865,"is_reserved":false,"is_disabled":false,"rental_uris":{"android":"levelo://app?vid=c4e6e4d4-68e7-41a7-aebb-da067ca2f711","ios":"levelo://app?vid=c4e6e4d4-68e7-41a7-aebb-da067ca2f711"},"vehicle_type_id":"4","last_reported":1773566596,"current_range_meters":37600,"station_id":"ce4bhb12rcd13ifvqem0","pricing_plan_id":"cebpf4jnsgd1na2vs0mg"},{"bike_id":"37d43fd8-cdec-4372-bbf9-45ba3794afe0","system_id":"levelo_inurba_marseille","lat":43.29424,"lon":5.39769,"is_reserved":false,"is_disabled":true,"rental_uris":{"android":"levelo://app?vid=37d43fd8-cdec-4372-bbf9-45ba3794afe0","ios":"levelo://app?vid=37d43fd8-cdec-4372-bbf9-45ba3794afe0"},"vehicle_type_id":"4","last_reported":1773566596,"current_range_meters":24800,"station_id":"ce4bh3h2rcd13ifvqdo0","pricing_plan_id":"cebpf4jnsgd1na2vs0mg"},{"bike_id":"475f6229-3b8f-4eab-b8fd-2fbd86f0fb75","system_id":"levelo_inurba_marseille","lat":43.24179,"lon":5.36366,"is_reserved":false,"is_disabled":false,"rental_uris":{"android":"levelo://app?vid=475f6229-3b8f-4eab-b8fd-2fbd86f0fb75","ios":"levelo://app?vid=475f6229-3b8f-4eab-b8fd-2fbd86f0fb75"},"vehicle_type_id":"4","last_reported":1773566596,"current_range_meters":36000,"station_id":"cpo36qri1sfpv3e86is0","pricing_plan_id":"cebpf4jnsgd1na2vs0mg"},{"bike_id":"aaf56433-ee77-470c-b7b6-221e680ae993","system_id":"levelo_inurba_marseille","lat":43.22562,"lon":5.41643,"is_reserved":false,"is_disabled":false,"rental_uris":{"android":"levelo://app?vid=aaf56433-ee77-470c-b7b6-221e680ae993","ios":"levelo://app?vid=aaf56433-ee77-470c-b7b6-221e680ae993"},"vehicle_type_id":"4","last_reported":1773566596,"current_range_meters":38000,"station_id":"st_d2o4gvlbi1j2169b742g","pricing_plan_id":"cebpf4jnsgd1na2vs0mg"},{"bike_id":"3ff3df78-eee4-4716-9de4-5e86fa44030b","system_id":"levelo_inurba_marseille","lat":43.30145,"lon":5.37416,"is_reserved":false,"is_disabled":false,"rental_uris":{"android":"levelo://app?vid=3ff3df78-eee4-4716-9de4-5e86fa44030b","ios":"levelo://app?vid=3ff3df78-eee4-4716-9de4-5e86fa44030b"},"vehicle_type_id":"4","last_reported":1773566596,"current_range_meters":39200,"station_id":"ce4bgs92rcd13ifvqcc0","pricing_plan_id":"cebpf4jnsgd1na2vs0mg"},{"bike_id":"45ecb43d-a240-4bee-a5ef-ce20abe4d1b3","system_id":"levelo_inurba_marseille","lat":43.28479,"lon":5.38424,"is_reserved":false,"is_disabled":false,"rental_uris":{"android":"levelo://app?vid=45ecb43d-a240-4bee-a5ef-ce20abe4d1b3","ios":"levelo://app?vid=45ecb43d-a240-4bee-a5ef-ce20abe4d1b3"},"vehicle_type_id":"4","last_reported":1773566596,"current_range_meters":36800,"station_id":"ce4bh512rcd13ifvqe3g","pricing_plan_id":"cebpf4jnsgd1na2vs0mg"},{"bike_id":"db71a0ea-8b57-4ffe-88a6-946ba0e510e2","system_id":"levelo_inurba_marseille","lat":43.30941,"lon":5.36861,"is_reserved":false,"is_disabled":false,"rental_uris":{"android":"levelo://app?vid=db71a0ea-8b57-4ffe-88a6-946ba0e510e2","ios":"levelo://app?vid=db71a0ea-8b57-4ffe-88a6-946ba0e510e2"},"vehicle_type_id":"4","last_reported":1773566596,"current_range_meters":24000,"station_id":"ce4bgn92rcd13ifvqbvg","pricing_plan_id":"cebpf4jnsgd1na2vs0mg"},{"bike_id":"eb259eb3-17cb-4932-bfd9-164bb2aaf2fe","system_id":"levelo_inurba_marseille","lat":43.23207,"lon":5.35559,"is_reserved":false,"is_disabled":false,"rental_uris":{"android":"levelo://app?vid=eb259eb3-17cb-4932-bfd9-164bb2aaf2fe","ios":"levelo://app?vid=eb259eb3-17cb-4932-bfd9-164bb2aaf2fe"},"vehicle_type_id":"4","last_reported":1773566596,"current_range_meters":38000,"station_id":"ce4bhu92rcd13ifvqi70","pricing_plan_id":"cebpf4jnsgd1na2vs0mg"},{"bike_id":"9f1129e7-2235-4faf-8100-e46743b37449","system_id":"levelo_inurba_marseille","lat":43.25735,"lon":5.41099,"is_reserved":false,"is_disabled":false,"rental_uris":{"android":"levelo://app?vid=9f1129e7-2235-4faf-8100-e46743b37449","ios":"levelo://app?vid=9f1129e7-2235-4faf-8100-e46743b37449"},"vehicle_type_id":"4","last_reported":1773566596,"current_range_meters":38800,"station_id":"ce4bhkp2rcd13ifvqgd0","pricing_plan_id":"cebpf4jnsgd1na2vs0mg"},{"bike_id":"41b16539-d93d-4e64-a8e4-b7d380ab4e3b","system_id":"levelo_inurba_marseille","lat":43.2498,"lon":5.38936,"is_reserved":false,"is_disabled":false,"rental_uris":{"android":"levelo://app?vid=41b16539-d93d-4e64-a8e4-b7d380ab4e3b","ios":"levelo://app?vid=41b16539-d93d-4e64-a8e4-b7d380ab4e3b"},"vehicle_type_id":"4","last_reported":1773566596,"current_range_meters":11200,"station_id":"ce4bhgp2rcd13ifvqfd0","pricing_plan_id":"cebpf4jnsgd1na2vs0mg"},{"bike_id":"f99da3b0-cfd6-4344-bb1c-6c34844412c7","system_id":"levelo_inurba_marseille","lat":43.3109,"lon":5.42434,"is_reserved":false,"is_disabled":false,"rental_uris":{"android":"levelo://app?vid=f99da3b0-cfd6-4344-bb1c-6c34844412c7","ios":"levelo://app?vid=f99da3b0-cfd6-4344-bb1c-6c34844412c7"},"vehicle_type_id":"4","last_reported":1773566596,"current_range_meters":27200,"station_id":"ce4bhp92rcd13ifvqhag","pricing_plan_id":"cebpf4jnsgd1na2vs0mg"},{"bike_id":"82cc6450-dfaa-4bb6-a088-0a631d97e42b","system_id":"levelo_inurba_marseille","lat":43.3266,"lon":5.40998,"is_reserved":false,"is_disabled":false,"rental_uris":{"android":"levelo://app?vid=82cc6450-dfaa-4bb6-a088-0a631d97e42b","ios":"levelo://app?vid=82cc6450-dfaa-4bb6-a088-0a631d97e42b"},"vehicle_type_id":"4","last_reported":1773566596,"current_range_meters":39200,"station_id":"ce4bhpp2rcd13ifvqhgg","pricing_plan_id":"cebpf4jnsgd1na2vs0mg"},{"bike_id":"27ac43ef-b310-4729-8ed6-886c4b81d2ae","system_id":"levelo_inurba_marseille","lat":43.23198,"lon":5.35548,"is_reserved":false,"is_disabled":false,"rental_uris":{"android":"levelo://app?vid=27ac43ef-b310-4729-8ed6-886c4b81d2ae","ios":"levelo://app?vid=27ac43ef-b310-4729-8ed6-886c4b81d2ae"},"vehicle_type_id":"4","last_reported":1773566596,"current_range_meters":20800,"station_id":"ce4bhu92rcd13ifvqi70","pricing_plan_id":"cebpf4jnsgd1na2vs0mg"},{"bike_id":"a4951a30-7084-4efc-835c-7b8db4704dd8","system_id":"levelo_inurba_marseille","lat":43.26947,"lon":5.40255,"is_reserved":false,"is_disabled":false,"rental_uris":{"android":"levelo://app?vid=a4951a30-7084-4efc-835c-7b8db4704dd8","ios":"levelo://app?vid=a4951a30-7084-4efc-835c-7b8db4704dd8"},"vehicle_type_id":"4","last_reported":1773566596,"current_range_meters":38800,"station_id":"cjm6bp8fraef2m0cb0m0","pricing_plan_id":"cebpf4jnsgd1na2vs0mg"},{"bike_id":"8f7a4dd9-ebf5-4f16-936d-241bfa909696","system_id":"levelo_inurba_marseille","lat":43.31327,"lon":5.39698,"is_reserved":false,"is_disabled":false,"rental_uris":{"android":"levelo://app?vid=8f7a4dd9-ebf5-4f16-936d-241bfa909696","ios":"levelo://app?vid=8f7a4dd9-ebf5-4f16-936d-241bfa909696"},"vehicle_type_id":"4","last_reported":1773566596,"current_range_meters":6800,"station_id":"ce4bgvp2rcd13ifvqcu0","pricing_plan_id":"cebpf4jnsgd1na2vs0mg"},{"bike_id":"675ca63a-82f7-43a0-aa02-8f6021231c80","system_id":"levelo_inurba_marseille","lat":43.28373,"lon":5.3862,"is_reserved":false,"is_disabled":false,"rental_uris":{"android":"levelo://app?vid=675ca63a-82f7-43a0-aa02-8f6021231c80","ios":"levelo://app?vid=675ca63a-82f7-43a0-aa02-8f6021231c80"},"vehicle_type_id":"4","last_reported":1773566596,"current_range_meters":37600,"station_id":"ce4bh492rcd13ifvqdvg","pricing_plan_id":"cebpf4jnsgd1na2vs0mg"},{"bike_id":"68909a52-a81a-47d2-a672-452ce92b3e14","system_id":"levelo_inurba_marseille","lat":43.29833,"lon":5.37137,"is_reserved":false,"is_disabled":false,"rental_uris":{"android":"levelo://app?vid=68909a52-a81a-47d2-a672-452ce92b3e14","ios":"levelo://app?vid=68909a52-a81a-47d2-a672-452ce92b3e14"},"vehicle_type_id":"4","last_reported":1773566596,"current_range_meters":6400,"station_id":"","pricing_plan_id":"cebpf4jnsgd1na2vs0mg"},{"bike_id":"6e8cbc55-1efb-4ebc-b70e-2a9253dbdc8a","system_id":"levelo_inurba_marseille","lat":43.30754,"lon":5.42437,"is_reserved":false,"is_disabled":false,"rental_uris":{"android":"levelo://app?vid=6e8cbc55-1efb-4ebc-b70e-2a9253dbdc8a","ios":"levelo://app?vid=6e8cbc55-1efb-4ebc-b70e-2a9253dbdc8a"},"vehicle_type_id":"4","last_reported":1773566596,"current_range_meters":25600,"station_id":"st_cvj6ca6bvosntc0bfgr0","pricing_plan_id":"cebpf4jnsgd1na2vs0mg"},{"bike_id":"fceacbae-990b-4213-8c3b-c375f2e5e911","system_id":"levelo_inurba_marseille","lat":43.29803,"lon":5.38068,"is_reserved":false,"is_disabled":true,"rental_uris":{"android":"levelo://app?vid=fceacbae-990b-4213-8c3b-c375f2e5e911","ios":"levelo://app?vid=fceacbae-990b-4213-8c3b-c375f2e5e911"},"vehicle_type_id":"4","last_reported":1773566596,"current_range_meters":18800,"station_id":"ce4bgip2rcd13ifvqbb0","pricing_plan_id":"cebpf4jnsgd1na2vs0mg"},{"bike_id":"88cb8c7f-0ccd-4a01-91f9-3a530d0e94ef","system_id":"levelo_inurba_marseille","lat":43.28567,"lon":5.35131,"is_reserved":false,"is_disabled":false,"rental_uris":{"android":"levelo://app?vid=88cb8c7f-0ccd-4a01-91f9-3a530d0e94ef","ios":"levelo://app?vid=88cb8c7f-0ccd-4a01-91f9-3a530d0e94ef"},"vehicle_type_id":"4","last_reported":1773566596,"current_range_meters":37600,"station_id":"","pricing_plan_id":"cebpf4jnsgd1na2vs0mg"},{"bike_id":"466d5686-152b-40db-b82b-75b5e82313ee","system_id":"levelo_inurba_marseille","lat":43.30131,"lon":5.37415,"is_reserved":false,"is_disabled":false,"rental_uris":{"android":"levelo://app?vid=466d5686-152b-40db-b82b-75b5e82313ee","ios":"levelo://app?vid=466d5686-152b-40db-b82b-75b5e82313ee"},"vehicle_type_id":"4","last_reported":1773566596,"current_range_meters":17600,"station_id":"ce4bgs92rcd13ifvqcc0","pricing_plan_id":"cebpf4jnsgd1na2vs0mg"},{"bike_id":"c19808e1-b08f-49c9-b303-f183f8de22cc","system_id":"levelo_inurba_marseille","lat":43.25085,"lon":5.39509,"is_reserved":false,"is_disabled":false,"rental_uris":{"android":"levelo://app?vid=c19808e1-b08f-49c9-b303-f183f8de22cc","ios":"levelo://app?vid=c19808e1-b08f-49c9-b303-f183f8de22cc"},"vehicle_type_id":"4","last_reported":1773566596,"current_range_meters":32000,"station_id":"ce4bhm12rcd13ifvqgkg","pricing_plan_id":"cebpf4jnsgd1na2vs0mg"},{"bike_id":"88baf1fe-4b9b-4c52-81f7-dd067c921a9f","system_id":"levelo_inurba_marseille","lat":43.29813,"lon":5.44051,"is_reserved":false,"is_disabled":false,"rental_uris":{"android":"levelo://app?vid=88baf1fe-4b9b-4c52-81f7-dd067c921a9f","ios":"levelo://app?vid=88baf1fe-4b9b-4c52-81f7-dd067c921a9f"},"vehicle_type_id":"4","last_reported":1773566596,"current_range_meters":10800,"station_id":"st_d3jp68qikq2c7381ktn0","pricing_plan_id":"cebpf4jnsgd1na2vs0mg"},{"bike_id":"aeffcf08-99e0-4bec-95fd-20a808a085b2","system_id":"levelo_inurba_marseille","lat":43.23951,"lon":5.36638,"is_reserved":false,"is_disabled":true,"rental_uris":{"android":"levelo://app?vid=aeffcf08-99e0-4bec-95fd-20a808a085b2","ios":"levelo://app?vid=aeffcf08-99e0-4bec-95fd-20a808a085b2"},"vehicle_type_id":"4","last_reported":1773566596,"current_range_meters":4400,"station_id":"ce4bhi12rcd13ifvqfp0","pricing_plan_id":"cebpf4jnsgd1na2vs0mg"},{"bike_id":"fc490484-a83d-4dbc-a9ca-17596f3ee413","system_id":"levelo_inurba_marseille","lat":43.24084,"lon":5.37731,"is_reserved":false,"is_disabled":false,"rental_uris":{"android":"levelo://app?vid=fc490484-a83d-4dbc-a9ca-17596f3ee413","ios":"levelo://app?vid=fc490484-a83d-4dbc-a9ca-17596f3ee413"},"vehicle_type_id":"4","last_reported":1773566596,"current_range_meters":37600,"station_id":"ce4bhnp2rcd13ifvqgvg","pricing_plan_id":"cebpf4jnsgd1na2vs0mg"},{"bike_id":"e4c5b372-6892-4028-8a07-7aa5c5a4433c","system_id":"levelo_inurba_marseille","lat":43.272,"lon":5.39158,"is_reserved":false,"is_disabled":true,"rental_uris":{"android":"levelo://app?vid=e4c5b372-6892-4028-8a07-7aa5c5a4433c","ios":"levelo://app?vid=e4c5b372-6892-4028-8a07-7aa5c5a4433c"},"vehicle_type_id":"4","last_reported":1773566596,"current_range_meters":0,"station_id":"ce4bhhp2rcd13ifvqfm0","pricing_plan_id":"cebpf4jnsgd1na2vs0mg"},{"bike_id":"574389cd-d5f7-4bb8-8e81-3a3b9218fbef","system_id":"levelo_inurba_marseille","lat":43.24165,"lon":5.36394,"is_reserved":false,"is_disabled":false,"rental_uris":{"android":"levelo://app?vid=574389cd-d5f7-4bb8-8e81-3a3b9218fbef","ios":"levelo://app?vid=574389cd-d5f7-4bb8-8e81-3a3b9218fbef"},"vehicle_type_id":"4","last_reported":1773566596,"current_range_meters":9200,"station_id":"cpo36qri1sfpv3e86is0","pricing_plan_id":"cebpf4jnsgd1na2vs0mg"},{"bike_id":"8cc80161-f05d-4510-84aa-0b6bd738d8d5","system_id":"levelo_inurba_marseille","lat":43.31411,"lon":5.38497,"is_reserved":false,"is_disabled":false,"rental_uris":{"android":"levelo://app?vid=8cc80161-f05d-4510-84aa-0b6bd738d8d5","ios":"levelo://app?vid=8cc80161-f05d-4510-84aa-0b6bd738d8d5"},"vehicle_type_id":"4","last_reported":1773566596,"current_range_meters":17600,"station_id":"","pricing_plan_id":"cebpf4jnsgd1na2vs0mg"},{"bike_id":"44502a88-b86f-48e4-8552-de8ca01c45de","system_id":"levelo_inurba_marseille","lat":43.25818,"lon":5.3943,"is_reserved":false,"is_disabled":false,"rental_uris":{"android":"levelo://app?vid=44502a88-b86f-48e4-8552-de8ca01c45de","ios":"levelo://app?vid=44502a88-b86f-48e4-8552-de8ca01c45de"},"vehicle_type_id":"4","last_reported":1773566596,"current_range_meters":38000,"station_id":"ce4bhip2rcd13ifvqft0","pricing_plan_id":"cebpf4jnsgd1na2vs0mg"},{"bike_id":"d008a3ca-bdab-43f7-957e-465391a2d48d","system_id":"levelo_inurba_marseille","lat":43.31718,"lon":5.42402,"is_reserved":false,"is_disabled":false,"rental_uris":{"android":"levelo://app?vid=d008a3ca-bdab-43f7-957e-465391a2d48d","ios":"levelo://app?vid=d008a3ca-bdab-43f7-957e-465391a2d48d"},"vehicle_type_id":"4","last_reported":1773566596,"current_range_meters":28000,"station_id":"ce4bhp92rcd13ifvqhbg","pricing_plan_id":"cebpf4jnsgd1na2vs0mg"},{"bike_id":"620ff2af-052e-41b1-a64f-0ec58b0cc2e0","system_id":"levelo_inurba_marseille","lat":43.30553,"lon":5.36537,"is_reserved":false,"is_disabled":false,"rental_uris":{"android":"levelo://app?vid=620ff2af-052e-41b1-a64f-0ec58b0cc2e0","ios":"levelo://app?vid=620ff2af-052e-41b1-a64f-0ec58b0cc2e0"},"vehicle_type_id":"4","last_reported":1773566596,"current_range_meters":24800,"station_id":"ce4bgs12rcd13ifvqcag","pricing_plan_id":"cebpf4jnsgd1na2vs0mg"},{"bike_id":"6a8a7c2a-8a7e-41a1-a4b5-7ca30327194c","system_id":"levelo_inurba_marseille","lat":43.25141,"lon":5.40337,"is_reserved":false,"is_disabled":false,"rental_uris":{"android":"levelo://app?vid=6a8a7c2a-8a7e-41a1-a4b5-7ca30327194c","ios":"levelo://app?vid=6a8a7c2a-8a7e-41a1-a4b5-7ca30327194c"},"vehicle_type_id":"4","last_reported":1773566596,"current_range_meters":39200,"station_id":"ce4bhlh2rcd13ifvqgig","pricing_plan_id":"cebpf4jnsgd1na2vs0mg"},{"bike_id":"2155aef1-73bb-4a0b-9841-6b3051394157","system_id":"levelo_inurba_marseille","lat":43.26057,"lon":5.37545,"is_reserved":false,"is_disabled":false,"rental_uris":{"android":"levelo://app?vid=2155aef1-73bb-4a0b-9841-6b3051394157","ios":"levelo://app?vid=2155aef1-73bb-4a0b-9841-6b3051394157"},"vehicle_type_id":"4","last_reported":1773566596,"current_range_meters":39200,"station_id":"ce4bhgh2rcd13ifvqfa0","pricing_plan_id":"cebpf4jnsgd1na2vs0mg"},{"bike_id":"a3ffdf59-9740-4b70-9c75-6a17f35023a3","system_id":"levelo_inurba_marseille","lat":43.31175,"lon":5.38719,"is_reserved":false,"is_disabled":false,"rental_uris":{"android":"levelo://app?vid=a3ffdf59-9740-4b70-9c75-6a17f35023a3","ios":"levelo://app?vid=a3ffdf59-9740-4b70-9c75-6a17f35023a3"},"vehicle_type_id":"4","last_reported":1773566596,"current_range_meters":25600,"station_id":"ce4bgv12rcd13ifvqcp0","pricing_plan_id":"cebpf4jnsgd1na2vs0mg"},{"bike_id":"2da74aad-d5d0-4aee-be79-0fb398f1f69b","system_id":"levelo_inurba_marseille","lat":43.29802,"lon":5.38117,"is_reserved":false,"is_disabled":true,"rental_uris":{"android":"levelo://app?vid=2da74aad-d5d0-4aee-be79-0fb398f1f69b","ios":"levelo://app?vid=2da74aad-d5d0-4aee-be79-0fb398f1f69b"},"vehicle_type_id":"4","last_reported":1773566596,"current_range_meters":22000,"station_id":"ce4bgip2rcd13ifvqbb0","pricing_plan_id":"cebpf4jnsgd1na2vs0mg"},{"bike_id":"38b12cbc-5d90-4180-b39e-1ff3e0d17bf2","system_id":"levelo_inurba_marseille","lat":43.27996,"lon":5.41648,"is_reserved":false,"is_disabled":false,"rental_uris":{"android":"levelo://app?vid=38b12cbc-5d90-4180-b39e-1ff3e0d17bf2","ios":"levelo://app?vid=38b12cbc-5d90-4180-b39e-1ff3e0d17bf2"},"vehicle_type_id":"4","last_reported":1773566596,"current_range_meters":31200,"station_id":"ce4bho12rcd13ifvqh1g","pricing_plan_id":"cebpf4jnsgd1na2vs0mg"},{"bike_id":"2444b383-186d-4aa9-ac23-06be09cc8c39","system_id":"levelo_inurba_marseille","lat":43.29773,"lon":5.37113,"is_reserved":false,"is_disabled":false,"rental_uris":{"android":"levelo://app?vid=2444b383-186d-4aa9-ac23-06be09cc8c39","ios":"levelo://app?vid=2444b383-186d-4aa9-ac23-06be09cc8c39"},"vehicle_type_id":"4","last_reported":1773566596,"current_range_meters":33200,"station_id":"ce4bgop2rcd13ifvqc1g","pricing_plan_id":"cebpf4jnsgd1na2vs0mg"},{"bike_id":"c5e75752-a286-449d-8e67-bace779c66a2","system_id":"levelo_inurba_marseille","lat":43.23194,"lon":5.39997,"is_reserved":false,"is_disabled":false,"rental_uris":{"android":"levelo://app?vid=c5e75752-a286-449d-8e67-bace779c66a2","ios":"levelo://app?vid=c5e75752-a286-449d-8e67-bace779c66a2"},"vehicle_type_id":"4","last_reported":1773566596,"current_range_meters":33600,"station_id":"ce4bhn12rcd13ifvqgqg","pricing_plan_id":"cebpf4jnsgd1na2vs0mg"},{"bike_id":"fd501590-7696-4af3-ab8c-7fdb344de8fb","system_id":"levelo_inurba_marseille","lat":43.27981,"lon":5.41661,"is_reserved":false,"is_disabled":false,"rental_uris":{"android":"levelo://app?vid=fd501590-7696-4af3-ab8c-7fdb344de8fb","ios":"levelo://app?vid=fd501590-7696-4af3-ab8c-7fdb344de8fb"},"vehicle_type_id":"4","last_reported":1773566596,"current_range_meters":39200,"station_id":"ce4bho12rcd13ifvqh1g","pricing_plan_id":"cebpf4jnsgd1na2vs0mg"},{"bike_id":"98ad7446-470a-466f-a232-159feeee00c6","system_id":"levelo_inurba_marseille","lat":43.27372,"lon":5.36252,"is_reserved":false,"is_disabled":false,"rental_uris":{"android":"levelo://app?vid=98ad7446-470a-466f-a232-159feeee00c6","ios":"levelo://app?vid=98ad7446-470a-466f-a232-159feeee00c6"},"vehicle_type_id":"4","last_reported":1773566596,"current_range_meters":26800,"station_id":"ce4bhbh2rcd13ifvqeo0","pricing_plan_id":"cebpf4jnsgd1na2vs0mg"},{"bike_id":"38b4eda8-06a1-488b-ae14-788d5c883747","system_id":"levelo_inurba_marseille","lat":43.29179,"lon":5.35821,"is_reserved":false,"is_disabled":false,"rental_uris":{"android":"levelo://app?vid=38b4eda8-06a1-488b-ae14-788d5c883747","ios":"levelo://app?vid=38b4eda8-06a1-488b-ae14-788d5c883747"},"vehicle_type_id":"4","last_reported":1773566596,"current_range_meters":38800,"station_id":"ce4bhb12rcd13ifvqel0","pricing_plan_id":"cebpf4jnsgd1na2vs0mg"},{"bike_id":"57bb4d9e-d4d4-4990-bab6-6d06f315dddc","system_id":"levelo_inurba_marseille","lat":43.30143,"lon":5.37423,"is_reserved":false,"is_disabled":false,"rental_uris":{"android":"levelo://app?vid=57bb4d9e-d4d4-4990-bab6-6d06f315dddc","ios":"levelo://app?vid=57bb4d9e-d4d4-4990-bab6-6d06f315dddc"},"vehicle_type_id":"4","last_reported":1773566596,"current_range_meters":35200,"station_id":"ce4bgs92rcd13ifvqcc0","pricing_plan_id":"cebpf4jnsgd1na2vs0mg"},{"bike_id":"2bab96cf-f3bd-4d1e-9a10-e0bfbf596746","system_id":"levelo_inurba_marseille","lat":43.23184,"lon":5.39984,"is_reserved":false,"is_disabled":false,"rental_uris":{"android":"levelo://app?vid=2bab96cf-f3bd-4d1e-9a10-e0bfbf596746","ios":"levelo://app?vid=2bab96cf-f3bd-4d1e-9a10-e0bfbf596746"},"vehicle_type_id":"4","last_reported":1773566596,"current_range_meters":30000,"station_id":"ce4bhn12rcd13ifvqgqg","pricing_plan_id":"cebpf4jnsgd1na2vs0mg"},{"bike_id":"ef364c26-b12f-4ac2-8385-acdb623c591d","system_id":"levelo_inurba_marseille","lat":43.22572,"lon":5.41647,"is_reserved":false,"is_disabled":false,"rental_uris":{"android":"levelo://app?vid=ef364c26-b12f-4ac2-8385-acdb623c591d","ios":"levelo://app?vid=ef364c26-b12f-4ac2-8385-acdb623c591d"},"vehicle_type_id":"4","last_reported":1773566596,"current_range_meters":10800,"station_id":"st_d2o4gvlbi1j2169b742g","pricing_plan_id":"cebpf4jnsgd1na2vs0mg"},{"bike_id":"7de1cf08-524a-4117-b363-0bfbe546af65","system_id":"levelo_inurba_marseille","lat":43.30604,"lon":5.3937,"is_reserved":false,"is_disabled":false,"rental_uris":{"android":"levelo://app?vid=7de1cf08-524a-4117-b363-0bfbe546af65","ios":"levelo://app?vid=7de1cf08-524a-4117-b363-0bfbe546af65"},"vehicle_type_id":"4","last_reported":1773566596,"current_range_meters":38400,"station_id":"ce4bh0p2rcd13ifvqd80","pricing_plan_id":"cebpf4jnsgd1na2vs0mg"},{"bike_id":"89873bfc-62cb-4d47-b15a-e058c012f70a","system_id":"levelo_inurba_marseille","lat":43.29521,"lon":5.37498,"is_reserved":false,"is_disabled":false,"rental_uris":{"android":"levelo://app?vid=89873bfc-62cb-4d47-b15a-e058c012f70a","ios":"levelo://app?vid=89873bfc-62cb-4d47-b15a-e058c012f70a"},"vehicle_type_id":"4","last_reported":1773566596,"current_range_meters":38400,"station_id":"ce4bgkp2rcd13ifvqbmg","pricing_plan_id":"cebpf4jnsgd1na2vs0mg"},{"bike_id":"33366443-6e47-469a-98dd-6e660d31792e","system_id":"levelo_inurba_marseille","lat":43.26564,"lon":5.37326,"is_reserved":false,"is_disabled":false,"rental_uris":{"android":"levelo://app?vid=33366443-6e47-469a-98dd-6e660d31792e","ios":"levelo://app?vid=33366443-6e47-469a-98dd-6e660d31792e"},"vehicle_type_id":"4","last_reported":1773566596,"current_range_meters":39200,"station_id":"ce4bhg12rcd13ifvqf70","pricing_plan_id":"cebpf4jnsgd1na2vs0mg"},{"bike_id":"8617b24d-bdd2-49e3-beda-5d74fc474252","system_id":"levelo_inurba_marseille","lat":43.28475,"lon":5.48401,"is_reserved":false,"is_disabled":false,"rental_uris":{"android":"levelo://app?vid=8617b24d-bdd2-49e3-beda-5d74fc474252","ios":"levelo://app?vid=8617b24d-bdd2-49e3-beda-5d74fc474252"},"vehicle_type_id":"4","last_reported":1773566596,"current_range_meters":24800,"station_id":"","pricing_plan_id":"cebpf4jnsgd1na2vs0mg"},{"bike_id":"75f14208-a968-40dc-80f8-68b063e0d714","system_id":"levelo_inurba_marseille","lat":43.23155,"lon":5.43709,"is_reserved":false,"is_disabled":false,"rental_uris":{"android":"levelo://app?vid=75f14208-a968-40dc-80f8-68b063e0d714","ios":"levelo://app?vid=75f14208-a968-40dc-80f8-68b063e0d714"},"vehicle_type_id":"4","last_reported":1773566596,"current_range_meters":8800,"station_id":"ce4bhmp2rcd13ifvqgog","pricing_plan_id":"cebpf4jnsgd1na2vs0mg"},{"bike_id":"a409c18d-73d9-4c02-b923-be6e3af18f8c","system_id":"levelo_inurba_marseille","lat":43.28631,"lon":5.35102,"is_reserved":false,"is_disabled":false,"rental_uris":{"android":"levelo://app?vid=a409c18d-73d9-4c02-b923-be6e3af18f8c","ios":"levelo://app?vid=a409c18d-73d9-4c02-b923-be6e3af18f8c"},"vehicle_type_id":"4","last_reported":1773566596,"current_range_meters":17200,"station_id":"ce4bhch2rcd13ifvqeug","pricing_plan_id":"cebpf4jnsgd1na2vs0mg"},{"bike_id":"5513dccf-31e4-4825-b6d2-d5fbbde55b2d","system_id":"levelo_inurba_marseille","lat":43.27182,"lon":5.40992,"is_reserved":false,"is_disabled":false,"rental_uris":{"android":"levelo://app?vid=5513dccf-31e4-4825-b6d2-d5fbbde55b2d","ios":"levelo://app?vid=5513dccf-31e4-4825-b6d2-d5fbbde55b2d"},"vehicle_type_id":"4","last_reported":1773566596,"current_range_meters":33200,"station_id":"ce4bhl12rcd13ifvqgf0","pricing_plan_id":"cebpf4jnsgd1na2vs0mg"},{"bike_id":"4a09330b-b9bf-424e-8693-aafe00acb3cd","system_id":"levelo_inurba_marseille","lat":43.29557,"lon":5.4228,"is_reserved":false,"is_disabled":false,"rental_uris":{"android":"levelo://app?vid=4a09330b-b9bf-424e-8693-aafe00acb3cd","ios":"levelo://app?vid=4a09330b-b9bf-424e-8693-aafe00acb3cd"},"vehicle_type_id":"4","last_reported":1773566596,"current_range_meters":39200,"station_id":"ce4bhph2rcd13ifvqhdg","pricing_plan_id":"cebpf4jnsgd1na2vs0mg"},{"bike_id":"e0f4c726-c891-4b59-a727-5f7bf2fb4325","system_id":"levelo_inurba_marseille","lat":43.28516,"lon":5.44126,"is_reserved":false,"is_disabled":false,"rental_uris":{"android":"levelo://app?vid=e0f4c726-c891-4b59-a727-5f7bf2fb4325","ios":"levelo://app?vid=e0f4c726-c891-4b59-a727-5f7bf2fb4325"},"vehicle_type_id":"4","last_reported":1773566596,"current_range_meters":36800,"station_id":"st_d3j3df2ikq2c7380ej80","pricing_plan_id":"cebpf4jnsgd1na2vs0mg"},{"bike_id":"fdb474a4-4731-4915-8696-0a7cb3f89d1c","system_id":"levelo_inurba_marseille","lat":43.24663,"lon":5.38176,"is_reserved":false,"is_disabled":false,"rental_uris":{"android":"levelo://app?vid=fdb474a4-4731-4915-8696-0a7cb3f89d1c","ios":"levelo://app?vid=fdb474a4-4731-4915-8696-0a7cb3f89d1c"},"vehicle_type_id":"4","last_reported":1773566596,"current_range_meters":12000,"station_id":"ce4bhih2rcd13ifvqfr0","pricing_plan_id":"cebpf4jnsgd1na2vs0mg"},{"bike_id":"3d4208c2-815f-40bf-8bb0-f78b87ee07d6","system_id":"levelo_inurba_marseille","lat":43.28401,"lon":5.34986,"is_reserved":false,"is_disabled":false,"rental_uris":{"android":"levelo://app?vid=3d4208c2-815f-40bf-8bb0-f78b87ee07d6","ios":"levelo://app?vid=3d4208c2-815f-40bf-8bb0-f78b87ee07d6"},"vehicle_type_id":"4","last_reported":1773566596,"current_range_meters":32800,"station_id":"ce4bhbh2rcd13ifvqepg","pricing_plan_id":"cebpf4jnsgd1na2vs0mg"},{"bike_id":"eb44c793-9865-4d59-9109-f53085ac6356","system_id":"levelo_inurba_marseille","lat":43.31171,"lon":5.38743,"is_reserved":false,"is_disabled":false,"rental_uris":{"android":"levelo://app?vid=eb44c793-9865-4d59-9109-f53085ac6356","ios":"levelo://app?vid=eb44c793-9865-4d59-9109-f53085ac6356"},"vehicle_type_id":"4","last_reported":1773566596,"current_range_meters":9200,"station_id":"ce4bgv12rcd13ifvqcp0","pricing_plan_id":"cebpf4jnsgd1na2vs0mg"},{"bike_id":"98617173-6fdc-4310-b875-4375e3808dce","system_id":"levelo_inurba_marseille","lat":43.3038,"lon":5.42489,"is_reserved":false,"is_disabled":false,"rental_uris":{"android":"levelo://app?vid=98617173-6fdc-4310-b875-4375e3808dce","ios":"levelo://app?vid=98617173-6fdc-4310-b875-4375e3808dce"},"vehicle_type_id":"4","last_reported":1773566596,"current_range_meters":30400,"station_id":"ce4bhoh2rcd13ifvqh6g","pricing_plan_id":"cebpf4jnsgd1na2vs0mg"},{"bike_id":"155725a2-4e9c-4e7c-942b-f2b8be31f206","system_id":"levelo_inurba_marseille","lat":43.21759,"lon":5.34606,"is_reserved":false,"is_disabled":false,"rental_uris":{"android":"levelo://app?vid=155725a2-4e9c-4e7c-942b-f2b8be31f206","ios":"levelo://app?vid=155725a2-4e9c-4e7c-942b-f2b8be31f206"},"vehicle_type_id":"4","last_reported":1773566596,"current_range_meters":39200,"station_id":"st_cvj6r9ubvosntc0bgbag","pricing_plan_id":"cebpf4jnsgd1na2vs0mg"},{"bike_id":"5b9c3f93-1599-4fd0-b513-558b424405ce","system_id":"levelo_inurba_marseille","lat":43.32479,"lon":5.36597,"is_reserved":false,"is_disabled":false,"rental_uris":{"android":"levelo://app?vid=5b9c3f93-1599-4fd0-b513-558b424405ce","ios":"levelo://app?vid=5b9c3f93-1599-4fd0-b513-558b424405ce"},"vehicle_type_id":"4","last_reported":1773566596,"current_range_meters":38800,"station_id":"ce4bhs12rcd13ifvqhvg","pricing_plan_id":"cebpf4jnsgd1na2vs0mg"},{"bike_id":"56fddcda-c541-44a5-8391-f7fbf087f4ed","system_id":"levelo_inurba_marseille","lat":43.2255,"lon":5.41628,"is_reserved":false,"is_disabled":false,"rental_uris":{"android":"levelo://app?vid=56fddcda-c541-44a5-8391-f7fbf087f4ed","ios":"levelo://app?vid=56fddcda-c541-44a5-8391-f7fbf087f4ed"},"vehicle_type_id":"4","last_reported":1773566596,"current_range_meters":37600,"station_id":"st_d2o4gvlbi1j2169b742g","pricing_plan_id":"cebpf4jnsgd1na2vs0mg"},{"bike_id":"4cbd8e90-f6b2-4a15-9171-587e8d204326","system_id":"levelo_inurba_marseille","lat":43.30283,"lon":5.37719,"is_reserved":false,"is_disabled":false,"rental_uris":{"android":"levelo://app?vid=4cbd8e90-f6b2-4a15-9171-587e8d204326","ios":"levelo://app?vid=4cbd8e90-f6b2-4a15-9171-587e8d204326"},"vehicle_type_id":"4","last_reported":1773566596,"current_range_meters":30000,"station_id":"ce4bguh2rcd13ifvqcj0","pricing_plan_id":"cebpf4jnsgd1na2vs0mg"},{"bike_id":"03a83542-630e-44b6-8f5c-63cdf9535b52","system_id":"levelo_inurba_marseille","lat":43.27184,"lon":5.40992,"is_reserved":false,"is_disabled":false,"rental_uris":{"android":"levelo://app?vid=03a83542-630e-44b6-8f5c-63cdf9535b52","ios":"levelo://app?vid=03a83542-630e-44b6-8f5c-63cdf9535b52"},"vehicle_type_id":"4","last_reported":1773566596,"current_range_meters":38000,"station_id":"ce4bhl12rcd13ifvqgf0","pricing_plan_id":"cebpf4jnsgd1na2vs0mg"},{"bike_id":"6132fa1e-e648-4f3f-bbe2-b73d4186c8f9","system_id":"levelo_inurba_marseille","lat":43.2694,"lon":5.38644,"is_reserved":false,"is_disabled":false,"rental_uris":{"android":"levelo://app?vid=6132fa1e-e648-4f3f-bbe2-b73d4186c8f9","ios":"levelo://app?vid=6132fa1e-e648-4f3f-bbe2-b73d4186c8f9"},"vehicle_type_id":"4","last_reported":1773566596,"current_range_meters":39200,"station_id":"ce4bhh92rcd13ifvqfh0","pricing_plan_id":"cebpf4jnsgd1na2vs0mg"},{"bike_id":"6417b1a1-014e-46d5-a190-408c4d247525","system_id":"levelo_inurba_marseille","lat":43.26215,"lon":5.3745,"is_reserved":false,"is_disabled":false,"rental_uris":{"android":"levelo://app?vid=6417b1a1-014e-46d5-a190-408c4d247525","ios":"levelo://app?vid=6417b1a1-014e-46d5-a190-408c4d247525"},"vehicle_type_id":"4","last_reported":1773566596,"current_range_meters":38800,"station_id":"ce4bhgp2rcd13ifvqfc0","pricing_plan_id":"cebpf4jnsgd1na2vs0mg"},{"bike_id":"d213d92d-5289-4183-93be-f84e36b07244","system_id":"levelo_inurba_marseille","lat":43.29006,"lon":5.35622,"is_reserved":false,"is_disabled":false,"rental_uris":{"android":"levelo://app?vid=d213d92d-5289-4183-93be-f84e36b07244","ios":"levelo://app?vid=d213d92d-5289-4183-93be-f84e36b07244"},"vehicle_type_id":"4","last_reported":1773566596,"current_range_meters":24800,"station_id":"ce4bhb92rcd13ifvqen0","pricing_plan_id":"cebpf4jnsgd1na2vs0mg"},{"bike_id":"f9091acf-5db4-4a20-b1ae-87d3b83f1b76","system_id":"levelo_inurba_marseille","lat":43.29645,"lon":5.3954,"is_reserved":false,"is_disabled":false,"rental_uris":{"android":"levelo://app?vid=f9091acf-5db4-4a20-b1ae-87d3b83f1b76","ios":"levelo://app?vid=f9091acf-5db4-4a20-b1ae-87d3b83f1b76"},"vehicle_type_id":"4","last_reported":1773566596,"current_range_meters":9600,"station_id":"","pricing_plan_id":"cebpf4jnsgd1na2vs0mg"},{"bike_id":"2e2cafb6-e5c3-479c-8a76-66c5dfecc926","system_id":"levelo_inurba_marseille","lat":43.26194,"lon":5.3746,"is_reserved":false,"is_disabled":true,"rental_uris":{"android":"levelo://app?vid=2e2cafb6-e5c3-479c-8a76-66c5dfecc926","ios":"levelo://app?vid=2e2cafb6-e5c3-479c-8a76-66c5dfecc926"},"vehicle_type_id":"4","last_reported":1773566596,"current_range_meters":29600,"station_id":"ce4bhgp2rcd13ifvqfc0","pricing_plan_id":"cebpf4jnsgd1na2vs0mg"},{"bike_id":"d82c8d0e-a151-4bb6-8123-c44e6aaa877b","system_id":"levelo_inurba_marseille","lat":43.28468,"lon":5.35892,"is_reserved":false,"is_disabled":false,"rental_uris":{"android":"levelo://app?vid=d82c8d0e-a151-4bb6-8123-c44e6aaa877b","ios":"levelo://app?vid=d82c8d0e-a151-4bb6-8123-c44e6aaa877b"},"vehicle_type_id":"4","last_reported":1773566596,"current_range_meters":39200,"station_id":"ce4bhah2rcd13ifvqei0","pricing_plan_id":"cebpf4jnsgd1na2vs0mg"},{"bike_id":"6cb9e4d4-e6d8-4d27-bbfe-db79800749e6","system_id":"levelo_inurba_marseille","lat":43.29303,"lon":5.39614,"is_reserved":false,"is_disabled":false,"rental_uris":{"android":"levelo://app?vid=6cb9e4d4-e6d8-4d27-bbfe-db79800749e6","ios":"levelo://app?vid=6cb9e4d4-e6d8-4d27-bbfe-db79800749e6"},"vehicle_type_id":"4","last_reported":1773566596,"current_range_meters":29600,"station_id":"","pricing_plan_id":"cebpf4jnsgd1na2vs0mg"},{"bike_id":"7b4f3785-c03f-4f66-b614-089b31933102","system_id":"levelo_inurba_marseille","lat":43.25515,"lon":5.37633,"is_reserved":false,"is_disabled":false,"rental_uris":{"android":"levelo://app?vid=7b4f3785-c03f-4f66-b614-089b31933102","ios":"levelo://app?vid=7b4f3785-c03f-4f66-b614-089b31933102"},"vehicle_type_id":"4","last_reported":1773566596,"current_range_meters":28800,"station_id":"ce4bhh12rcd13ifvqff0","pricing_plan_id":"cebpf4jnsgd1na2vs0mg"},{"bike_id":"64cb11d8-bc37-4a15-a669-e069df95243e","system_id":"levelo_inurba_marseille","lat":43.31904,"lon":5.40714,"is_reserved":false,"is_disabled":false,"rental_uris":{"android":"levelo://app?vid=64cb11d8-bc37-4a15-a669-e069df95243e","ios":"levelo://app?vid=64cb11d8-bc37-4a15-a669-e069df95243e"},"vehicle_type_id":"4","last_reported":1773566596,"current_range_meters":36800,"station_id":"ce4bhq12rcd13ifvqhig","pricing_plan_id":"cebpf4jnsgd1na2vs0mg"},{"bike_id":"242e55c9-ac4f-4aec-81c1-865b2142177b","system_id":"levelo_inurba_marseille","lat":43.22943,"lon":5.35376,"is_reserved":false,"is_disabled":false,"rental_uris":{"android":"levelo://app?vid=242e55c9-ac4f-4aec-81c1-865b2142177b","ios":"levelo://app?vid=242e55c9-ac4f-4aec-81c1-865b2142177b"},"vehicle_type_id":"4","last_reported":1773566596,"current_range_meters":9200,"station_id":"cpo3532slgdg3j2ikp40","pricing_plan_id":"cebpf4jnsgd1na2vs0mg"},{"bike_id":"9e663960-b898-4d9b-b3fc-cc012c944d0f","system_id":"levelo_inurba_marseille","lat":43.30306,"lon":5.36908,"is_reserved":false,"is_disabled":false,"rental_uris":{"android":"levelo://app?vid=9e663960-b898-4d9b-b3fc-cc012c944d0f","ios":"levelo://app?vid=9e663960-b898-4d9b-b3fc-cc012c944d0f"},"vehicle_type_id":"4","last_reported":1773566596,"current_range_meters":32400,"station_id":"ce4bgqh2rcd13ifvqc5g","pricing_plan_id":"cebpf4jnsgd1na2vs0mg"},{"bike_id":"ac325101-b5a7-4f5d-9bc7-aba501847b2e","system_id":"levelo_inurba_marseille","lat":43.27367,"lon":5.36245,"is_reserved":false,"is_disabled":true,"rental_uris":{"android":"levelo://app?vid=ac325101-b5a7-4f5d-9bc7-aba501847b2e","ios":"levelo://app?vid=ac325101-b5a7-4f5d-9bc7-aba501847b2e"},"vehicle_type_id":"4","last_reported":1773566596,"current_range_meters":38000,"station_id":"ce4bhbh2rcd13ifvqeo0","pricing_plan_id":"cebpf4jnsgd1na2vs0mg"},{"bike_id":"cffdf26c-1919-4029-87b5-8b45a2bc0447","system_id":"levelo_inurba_marseille","lat":43.29608,"lon":5.36732,"is_reserved":false,"is_disabled":true,"rental_uris":{"android":"levelo://app?vid=cffdf26c-1919-4029-87b5-8b45a2bc0447","ios":"levelo://app?vid=cffdf26c-1919-4029-87b5-8b45a2bc0447"},"vehicle_type_id":"4","last_reported":1773566596,"current_range_meters":38400,"station_id":"ce4bgph2rcd13ifvqc2g","pricing_plan_id":"cebpf4jnsgd1na2vs0mg"},{"bike_id":"cb969723-c1c1-4dae-93f6-1fb61cdfb887","system_id":"levelo_inurba_marseille","lat":43.23789,"lon":5.36632,"is_reserved":false,"is_disabled":false,"rental_uris":{"android":"levelo://app?vid=cb969723-c1c1-4dae-93f6-1fb61cdfb887","ios":"levelo://app?vid=cb969723-c1c1-4dae-93f6-1fb61cdfb887"},"vehicle_type_id":"4","last_reported":1773566596,"current_range_meters":28400,"station_id":"st_d3nk18o9ro0c73en2l3g","pricing_plan_id":"cebpf4jnsgd1na2vs0mg"},{"bike_id":"4cdd50c6-0946-4df7-b57f-26b837dc3d90","system_id":"levelo_inurba_marseille","lat":43.28076,"lon":5.39653,"is_reserved":false,"is_disabled":false,"rental_uris":{"android":"levelo://app?vid=4cdd50c6-0946-4df7-b57f-26b837dc3d90","ios":"levelo://app?vid=4cdd50c6-0946-4df7-b57f-26b837dc3d90"},"vehicle_type_id":"4","last_reported":1773566596,"current_range_meters":32800,"station_id":"ce4bho12rcd13ifvqh2g","pricing_plan_id":"cebpf4jnsgd1na2vs0mg"},{"bike_id":"b942e0d0-9e2e-455a-be25-3292fa32d5f9","system_id":"levelo_inurba_marseille","lat":43.31318,"lon":5.39731,"is_reserved":false,"is_disabled":false,"rental_uris":{"android":"levelo://app?vid=b942e0d0-9e2e-455a-be25-3292fa32d5f9","ios":"levelo://app?vid=b942e0d0-9e2e-455a-be25-3292fa32d5f9"},"vehicle_type_id":"4","last_reported":1773566596,"current_range_meters":25600,"station_id":"ce4bgvp2rcd13ifvqcu0","pricing_plan_id":"cebpf4jnsgd1na2vs0mg"},{"bike_id":"c94288f2-a497-4ad8-8895-742d04d19603","system_id":"levelo_inurba_marseille","lat":43.29184,"lon":5.35789,"is_reserved":false,"is_disabled":false,"rental_uris":{"android":"levelo://app?vid=c94288f2-a497-4ad8-8895-742d04d19603","ios":"levelo://app?vid=c94288f2-a497-4ad8-8895-742d04d19603"},"vehicle_type_id":"4","last_reported":1773566596,"current_range_meters":28400,"station_id":"ce4bhb12rcd13ifvqel0","pricing_plan_id":"cebpf4jnsgd1na2vs0mg"},{"bike_id":"35421bfe-0191-432b-8ecb-842605e3be68","system_id":"levelo_inurba_marseille","lat":43.26571,"lon":5.39038,"is_reserved":false,"is_disabled":false,"rental_uris":{"android":"levelo://app?vid=35421bfe-0191-432b-8ecb-842605e3be68","ios":"levelo://app?vid=35421bfe-0191-432b-8ecb-842605e3be68"},"vehicle_type_id":"4","last_reported":1773566596,"current_range_meters":39200,"station_id":"ce4bhe12rcd13ifvqf30","pricing_plan_id":"cebpf4jnsgd1na2vs0mg"},{"bike_id":"13b759af-9f39-4385-b233-8157f102d0b7","system_id":"levelo_inurba_marseille","lat":43.23966,"lon":5.36634,"is_reserved":false,"is_disabled":false,"rental_uris":{"android":"levelo://app?vid=13b759af-9f39-4385-b233-8157f102d0b7","ios":"levelo://app?vid=13b759af-9f39-4385-b233-8157f102d0b7"},"vehicle_type_id":"4","last_reported":1773566596,"current_range_meters":39200,"station_id":"ce4bhi12rcd13ifvqfp0","pricing_plan_id":"cebpf4jnsgd1na2vs0mg"},{"bike_id":"85f4745b-ab68-4297-8f93-949367de0bfe","system_id":"levelo_inurba_marseille","lat":43.28423,"lon":5.39217,"is_reserved":false,"is_disabled":false,"rental_uris":{"android":"levelo://app?vid=85f4745b-ab68-4297-8f93-949367de0bfe","ios":"levelo://app?vid=85f4745b-ab68-4297-8f93-949367de0bfe"},"vehicle_type_id":"4","last_reported":1773566596,"current_range_meters":35600,"station_id":"ce4bhoh2rcd13ifvqh5g","pricing_plan_id":"cebpf4jnsgd1na2vs0mg"},{"bike_id":"ce85a082-729f-4db7-99c1-d945817661a9","system_id":"levelo_inurba_marseille","lat":43.29601,"lon":5.36744,"is_reserved":false,"is_disabled":false,"rental_uris":{"android":"levelo://app?vid=ce85a082-729f-4db7-99c1-d945817661a9","ios":"levelo://app?vid=ce85a082-729f-4db7-99c1-d945817661a9"},"vehicle_type_id":"4","last_reported":1773566596,"current_range_meters":33200,"station_id":"ce4bgph2rcd13ifvqc2g","pricing_plan_id":"cebpf4jnsgd1na2vs0mg"},{"bike_id":"4750752f-43ad-45f1-98e9-dda63ab4c2f6","system_id":"levelo_inurba_marseille","lat":43.31296,"lon":5.40177,"is_reserved":false,"is_disabled":false,"rental_uris":{"android":"levelo://app?vid=4750752f-43ad-45f1-98e9-dda63ab4c2f6","ios":"levelo://app?vid=4750752f-43ad-45f1-98e9-dda63ab4c2f6"},"vehicle_type_id":"4","last_reported":1773566596,"current_range_meters":38000,"station_id":"ce4bh092rcd13ifvqd30","pricing_plan_id":"cebpf4jnsgd1na2vs0mg"},{"bike_id":"93c8107a-44d9-4b92-a485-08cbd24bb80c","system_id":"levelo_inurba_marseille","lat":43.28639,"lon":5.35136,"is_reserved":false,"is_disabled":false,"rental_uris":{"android":"levelo://app?vid=93c8107a-44d9-4b92-a485-08cbd24bb80c","ios":"levelo://app?vid=93c8107a-44d9-4b92-a485-08cbd24bb80c"},"vehicle_type_id":"4","last_reported":1773566596,"current_range_meters":10000,"station_id":"ce4bhch2rcd13ifvqeug","pricing_plan_id":"cebpf4jnsgd1na2vs0mg"},{"bike_id":"4605d0eb-aef4-494c-b103-fe3cbd9a939f","system_id":"levelo_inurba_marseille","lat":43.26067,"lon":5.39396,"is_reserved":false,"is_disabled":false,"rental_uris":{"android":"levelo://app?vid=4605d0eb-aef4-494c-b103-fe3cbd9a939f","ios":"levelo://app?vid=4605d0eb-aef4-494c-b103-fe3cbd9a939f"},"vehicle_type_id":"4","last_reported":1773566596,"current_range_meters":16800,"station_id":"ce4bhh92rcd13ifvqfj0","pricing_plan_id":"cebpf4jnsgd1na2vs0mg"},{"bike_id":"a21c9052-194a-4dba-83d6-8d833c630fff","system_id":"levelo_inurba_marseille","lat":43.24803,"lon":5.37459,"is_reserved":false,"is_disabled":false,"rental_uris":{"android":"levelo://app?vid=a21c9052-194a-4dba-83d6-8d833c630fff","ios":"levelo://app?vid=a21c9052-194a-4dba-83d6-8d833c630fff"},"vehicle_type_id":"4","last_reported":1773566596,"current_range_meters":38800,"station_id":"ce4bhgh2rcd13ifvqfb0","pricing_plan_id":"cebpf4jnsgd1na2vs0mg"},{"bike_id":"e2ff8fbe-6ee0-4693-94cc-f4a9ec9cf6bf","system_id":"levelo_inurba_marseille","lat":43.31287,"lon":5.40178,"is_reserved":false,"is_disabled":true,"rental_uris":{"android":"levelo://app?vid=e2ff8fbe-6ee0-4693-94cc-f4a9ec9cf6bf","ios":"levelo://app?vid=e2ff8fbe-6ee0-4693-94cc-f4a9ec9cf6bf"},"vehicle_type_id":"4","last_reported":1773566596,"current_range_meters":9200,"station_id":"ce4bh092rcd13ifvqd30","pricing_plan_id":"cebpf4jnsgd1na2vs0mg"},{"bike_id":"a4e1eda7-e339-4e89-aeab-5ba3de0c460b","system_id":"levelo_inurba_marseille","lat":43.28365,"lon":5.38121,"is_reserved":false,"is_disabled":true,"rental_uris":{"android":"levelo://app?vid=a4e1eda7-e339-4e89-aeab-5ba3de0c460b","ios":"levelo://app?vid=a4e1eda7-e339-4e89-aeab-5ba3de0c460b"},"vehicle_type_id":"4","last_reported":1773566596,"current_range_meters":32000,"station_id":"ce4bh412rcd13ifvqdr0","pricing_plan_id":"cebpf4jnsgd1na2vs0mg"},