{"last_updated":1741122551,"ttl":60,"version":"2.2","data":{"bikes":[{"bike_id":"51cd10ef-cb10-401c-a5d1-98eae4729644","system_id":"levelo_inurba_marseille","lat":43.27981,"lon":5.38694,"is_reserved":false,"is_disabled":true,"rental_uris":{"android":"levelo://app?vid=51cd10ef-cb10-401c-a5d1-98eae4729644","ios":"levelo://app?vid=51cd10ef-cb10-401c-a5d1-98eae4729644"},"vehicle_type_id":"4","last_reported":1741122551,"current_range_meters":2800,"station_id":"ce4bhg12rcd13ifvqf80","pricing_plan_id":"cebpf4jnsgd1na2vs0mg"},{"bike_id":"3b592065-43a4-406e-9fdb-ffe4c42b5c76","system_id":"levelo_inurba_marseille","lat":43.26224,"lon":5.4046,"is_reserved":false,"is_disabled":false,"rental_uris":{"android":"levelo://app?vid=3b592065-43a4-406e-9fdb-ffe4c42b5c76","ios":"levelo://app?vid=3b592065-43a4-406e-9fdb-ffe4c42b5c76"},"vehicle_type_id":"4","last_reported":1741122551,"current_range_meters":2800,"station_id":"ce4bhmh2rcd13ifvqgmg","pricing_plan_id":"cebpf4jnsgd1na2vs0mg"},{"bike_id":"5d6e7723-8748-47b1-a15b-5c719e60614f","system_id":"levelo_inurba_marseille","lat":43.30798,"lon":5.43562,"is_reserved":false,"is_disabled":false,"rental_uris":{"android":"levelo://app?vid=5d6e7723-8748-47b1-a15b-5c719e60614f","ios":"levelo://app?vid=5d6e7723-8748-47b1-a15b-5c719e60614f"},"vehicle_type_id":"4","last_reported":1741122551,"current_range_meters":3200,"station_id":"ce4bhph2rcd13ifvqheg","pricing_plan_id":"cebpf4jnsgd1na2vs0mg"},{"bike_id":"cba085f5-42f5-4ecf-9e0a-cc8a47f8be29","system_id":"levelo_inurba_marseille","lat":43.30138,"lon":5.38785,"is_reserved":false,"is_disabled":false,"rental_uris":{"android":"levelo://app?vid=cba085f5-42f5-4ecf-9e0a-cc8a47f8be29","ios":"levelo://app?vid=cba085f5-42f5-4ecf-9e0a-cc8a47f8be29"},"vehicle_type_id":"4","last_reported":1741122551,"current_range_meters":3600,"station_id":"ce4bghh2rcd13ifvqb60","pricing_plan_id":"cebpf4jnsgd1na2vs0mg"},{"bike_id":"c52a941a-85a1-404a-b5a1-06cd730834bc","system_id":"levelo_inurba_marseille","lat":43.28716,"lon":5.36062,"is_reserved":false,"is_disabled":false,"rental_uris":{"android":"levelo://app?vid=c52a941a-85a1-404a-b5a1-06cd730834bc","ios":"levelo://app?vid=c52a941a-85a1-404a-b5a1-06cd730834bc"},"vehicle_type_id":"4","last_reported":1741122551,"current_range_meters":2800,"station_id":"cki0cbj6b192h4jlfktg","pricing_plan_id":"cebpf4jnsgd1na2vs0mg"},{"bike_id":"c5e8cd2d-bc8c-432b-b100-b523341f5479","system_id":"levelo_inurba_marseille","lat":43.30865,"lon":5.38568,"is_reserved":false,"is_disabled":true,"rental_uris":{"android":"levelo://app?vid=c5e8cd2d-bc8c-432b-b100-b523341f5479","ios":"levelo://app?vid=c5e8cd2d-bc8c-432b-b100-b523341f5479"},"vehicle_type_id":"4","last_reported":1741122551,"current_range_meters":4000,"station_id":"","pricing_plan_id":"cebpf4jnsgd1na2vs0mg"},{"bike_id":"e7ec1ac1-2323-47bd-a2b5-7cd3afb282cf","system_id":"levelo_inurba_marseille","lat":43.26959,"lon":5.36673,"is_reserved":false,"is_disabled":false,"rental_uris":{"android":"levelo://app?vid=e7ec1ac1-2323-47bd-a2b5-7cd3afb282cf","ios":"levelo://app?vid=e7ec1ac1-2323-47bd-a2b5-7cd3afb282cf"},"vehicle_type_id":"4","last_reported":1741122551,"current_range_meters":4400,"station_id":"","pricing_plan_id":"cebpf4jnsgd1na2vs0mg"},{"bike_id":"38675ae3-db74-4f7b-b8af-30d28ceeb17d","system_id":"levelo_inurba_marseille","lat":43.29708,"lon":5.37688,"is_reserved":false,"is_disabled":false,"rental_uris":{"android":"levelo://app?vid=38675ae3-db74-4f7b-b8af-30d28ceeb17d","ios":"levelo://app?vid=38675ae3-db74-4f7b-b8af-30d28ceeb17d"},"vehicle_type_id":"4","last_reported":1741122551,"current_range_meters":4000,"station_id":"ce4bgkh2rcd13ifvqbl0","pricing_plan_id":"cebpf4jnsgd1na2vs0mg"},{"bike_id":"219d62ce-7b93-4c64-8d23-3e9d98cebec8","system_id":"levelo_inurba_marseille","lat":43.23199,"lon":5.39986,"is_reserved":false,"is_disabled":false,"rental_uris":{"android":"levelo://app?vid=219d62ce-7b93-4c64-8d23-3e9d98cebec8","ios":"levelo://app?vid=219d62ce-7b93-4c64-8d23-3e9d98cebec8"},"vehicle_type_id":"4","last_reported":1741122551,"current_range_meters":4800,"station_id":"ce4bhn12rcd13ifvqgqg","pricing_plan_id":"cebpf4jnsgd1na2vs0mg"},{"bike_id":"45640cfb-96fa-4825-b923-44ca7d68caf3","system_id":"levelo_inurba_marseille","lat":43.27954,"lon":5.4102,"is_reserved":false,"is_disabled":false,"rental_uris":{"android":"levelo://app?vid=45640cfb-96fa-4825-b923-44ca7d68caf3","ios":"levelo://app?vid=45640cfb-96fa-4825-b923-44ca7d68caf3"},"vehicle_type_id":"4","last_reported":1741122551,"current_range_meters":4800,"station_id":"ce4bhnp2rcd13ifvqh0g","pricing_plan_id":"cebpf4jnsgd1na2vs0mg"},{"bike_id":"81837559-78cb-4a14-a847-89a84b64c16b","system_id":"levelo_inurba_marseille","lat":43.25009,"lon":5.38941,"is_reserved":false,"is_disabled":false,"rental_uris":{"android":"levelo://app?vid=81837559-78cb-4a14-a847-89a84b64c16b","ios":"levelo://app?vid=81837559-78cb-4a14-a847-89a84b64c16b"},"vehicle_type_id":"4","last_reported":1741122551,"current_range_meters":4800,"station_id":"ce4bhgp2rcd13ifvqfd0","pricing_plan_id":"cebpf4jnsgd1na2vs0mg"},{"bike_id":"8bbef58b-16f0-4a65-a671-648d74f284f0","system_id":"levelo_inurba_marseille","lat":43.26495,"lon":5.39571,"is_reserved":false,"is_disabled":false,"rental_uris":{"android":"levelo://app?vid=8bbef58b-16f0-4a65-a671-648d74f284f0","ios":"levelo://app?vid=8bbef58b-16f0-4a65-a671-648d74f284f0"},"vehicle_type_id":"4","last_reported":1741122551,"current_range_meters":4800,"station_id":"ce4bhi12rcd13ifvqfq0","pricing_plan_id":"cebpf4jnsgd1na2vs0mg"},{"bike_id":"3fdc9a7e-2885-4db2-b302-c77e590b4771","system_id":"levelo_inurba_marseille","lat":43.31031,"lon":5.37578,"is_reserved":false,"is_disabled":false,"rental_uris":{"android":"levelo://app?vid=3fdc9a7e-2885-4db2-b302-c77e590b4771","ios":"levelo://app?vid=3fdc9a7e-2885-4db2-b302-c77e590b4771"},"vehicle_type_id":"4","last_reported":1741122551,"current_range_meters":4800,"station_id":"","pricing_plan_id":"cebpf4jnsgd1na2vs0mg"},{"bike_id":"6b77fe8b-fc4e-4a05-ad93-b1516eae6e0f","system_id":"levelo_inurba_marseille","lat":43.31491,"lon":5.373,"is_reserved":false,"is_disabled":false,"rental_uris":{"android":"levelo://app?vid=6b77fe8b-fc4e-4a05-ad93-b1516eae6e0f","ios":"levelo://app?vid=6b77fe8b-fc4e-4a05-ad93-b1516eae6e0f"},"vehicle_type_id":"4","last_reported":1741122551,"current_range_meters":4800,"station_id":"ce4bgt12rcd13ifvqcd0","pricing_plan_id":"cebpf4jnsgd1na2vs0mg"},{"bike_id":"905da3b5-ffda-4093-b252-634c59f7dd89","system_id":"levelo_inurba_marseille","lat":43.28617,"lon":5.35106,"is_reserved":false,"is_disabled":false,"rental_uris":{"android":"levelo://app?vid=905da3b5-ffda-4093-b252-634c59f7dd89","ios":"levelo://app?vid=905da3b5-ffda-4093-b252-634c59f7dd89"},"vehicle_type_id":"4","last_reported":1741122551,"current_range_meters":5600,"station_id":"ce4bhch2rcd13ifvqeug","pricing_plan_id":"cebpf4jnsgd1na2vs0mg"},{"bike_id":"bfe26a9a-f533-4fbe-b0b6-95a1e95a5f24","system_id":"levelo_inurba_marseille","lat":43.28101,"lon":5.39659,"is_reserved":false,"is_disabled":true,"rental_uris":{"android":"levelo://app?vid=bfe26a9a-f533-4fbe-b0b6-95a1e95a5f24","ios":"levelo://app?vid=bfe26a9a-f533-4fbe-b0b6-95a1e95a5f24"},"vehicle_type_id":"4","last_reported":1741122551,"current_range_meters":5600,"station_id":"ce4bho12rcd13ifvqh2g","pricing_plan_id":"cebpf4jnsgd1na2vs0mg"},{"bike_id":"3199d0b1-1880-4a09-9b73-b476aef89546","system_id":"levelo_inurba_marseille","lat":43.29967,"lon":5.37184,"is_reserved":false,"is_disabled":true,"rental_uris":{"android":"levelo://app?vid=3199d0b1-1880-4a09-9b73-b476aef89546","ios":"levelo://app?vid=3199d0b1-1880-4a09-9b73-b476aef89546"},"vehicle_type_id":"4","last_reported":1741122551,"current_range_meters":5600,"station_id":"ce4bgr92rcd13ifvqc7g","pricing_plan_id":"cebpf4jnsgd1na2vs0mg"},{"bike_id":"e65082d6-5529-479d-9979-0976e546b0b6","system_id":"levelo_inurba_marseille","lat":43.25575,"lon":5.38228,"is_reserved":false,"is_disabled":false,"rental_uris":{"android":"levelo://app?vid=e65082d6-5529-479d-9979-0976e546b0b6","ios":"levelo://app?vid=e65082d6-5529-479d-9979-0976e546b0b6"},"vehicle_type_id":"4","last_reported":1741122551,"current_range_meters":5600,"station_id":"ce4bhih2rcd13ifvqfs0","pricing_plan_id":"cebpf4jnsgd1na2vs0mg"},{"bike_id":"6169a194-4824-4479-86e0-8c45b7e3ac7b","system_id":"levelo_inurba_marseille","lat":43.23142,"lon":5.43732,"is_reserved":false,"is_disabled":false,"rental_uris":{"android":"levelo://app?vid=6169a194-4824-4479-86e0-8c45b7e3ac7b","ios":"levelo://app?vid=6169a194-4824-4479-86e0-8c45b7e3ac7b"},"vehicle_type_id":"4","last_reported":1741122551,"current_range_meters":4800,"station_id":"ce4bhmp2rcd13ifvqgog","pricing_plan_id":"cebpf4jnsgd1na2vs0mg"},{"bike_id":"79687e17-5ece-4f9c-9252-898196d1c2cb","system_id":"levelo_inurba_marseille","lat":43.29892,"lon":5.38506,"is_reserved":false,"is_disabled":false,"rental_uris":{"android":"levelo://app?vid=79687e17-5ece-4f9c-9252-898196d1c2cb","ios":"levelo://app?vid=79687e17-5ece-4f9c-9252-898196d1c2cb"},"vehicle_type_id":"4","last_reported":1741122551,"current_range_meters":6000,"station_id":"","pricing_plan_id":"cebpf4jnsgd1na2vs0mg"},{"bike_id":"9e6dbc2a-80eb-443b-bb2c-7b14a1ecc330","system_id":"levelo_inurba_marseille","lat":43.26801,"lon":5.40264,"is_reserved":false,"is_disabled":false,"rental_uris":{"android":"levelo://app?vid=9e6dbc2a-80eb-443b-bb2c-7b14a1ecc330","ios":"levelo://app?vid=9e6dbc2a-80eb-443b-bb2c-7b14a1ecc330"},"vehicle_type_id":"4","last_reported":1741122551,"current_range_meters":6000,"station_id":"ce501612rcd8frsf0b60","pricing_plan_id":"cebpf4jnsgd1na2vs0mg"},{"bike_id":"d04a2c1b-1e7b-4de2-8418-55b9815961bc","system_id":"levelo_inurba_marseille","lat":43.2953,"lon":5.38545,"is_reserved":false,"is_disabled":false,"rental_uris":{"android":"levelo://app?vid=d04a2c1b-1e7b-4de2-8418-55b9815961bc","ios":"levelo://app?vid=d04a2c1b-1e7b-4de2-8418-55b9815961bc"},"vehicle_type_id":"4","last_reported":1741122551,"current_range_meters":1200,"station_id":"ce4bgih2rcd13ifvqba0","pricing_plan_id":"cebpf4jnsgd1na2vs0mg"},{"bike_id":"ebd5a4cc-9448-442e-9931-6c7b22efa41f","system_id":"levelo_inurba_marseille","lat":43.32365,"lon":5.38883,"is_reserved":false,"is_disabled":false,"rental_uris":{"android":"levelo://app?vid=ebd5a4cc-9448-442e-9931-6c7b22efa41f","ios":"levelo://app?vid=ebd5a4cc-9448-442e-9931-6c7b22efa41f"},"vehicle_type_id":"4","last_reported":1741122551,"current_range_meters":6000,"station_id":"ce4bhqp2rcd13ifvqhog","pricing_plan_id":"cebpf4jnsgd1na2vs0mg"},{"bike_id":"cbeb989b-1e6f-48ed-998d-e2792887d159","system_id":"levelo_inurba_marseille","lat":43.28102,"lon":5.37892,"is_reserved":false,"is_disabled":false,"rental_uris":{"android":"levelo://app?vid=cbeb989b-1e6f-48ed-998d-e2792887d159","ios":"levelo://app?vid=cbeb989b-1e6f-48ed-998d-e2792887d159"},"vehicle_type_id":"4","last_reported":1741122551,"current_range_meters":6000,"station_id":"ce4bha12rcd13ifvqee0","pricing_plan_id":"cebpf4jnsgd1na2vs0mg"},{"bike_id":"ce8ef3d2-07e3-4512-8813-bcde53a01429","system_id":"levelo_inurba_marseille","lat":43.24124,"lon":5.36455,"is_reserved":false,"is_disabled":false,"rental_uris":{"android":"levelo://app?vid=ce8ef3d2-07e3-4512-8813-bcde53a01429","ios":"levelo://app?vid=ce8ef3d2-07e3-4512-8813-bcde53a01429"},"vehicle_type_id":"4","last_reported":1741122551,"current_range_meters":6400,"station_id":"cpo36qri1sfpv3e86is0","pricing_plan_id":"cebpf4jnsgd1na2vs0mg"},{"bike_id":"ecddc8a7-91af-4ea4-ba05-c8a5c9a398e9","system_id":"levelo_inurba_marseille","lat":43.31726,"lon":5.42404,"is_reserved":false,"is_disabled":false,"rental_uris":{"android":"levelo://app?vid=ecddc8a7-91af-4ea4-ba05-c8a5c9a398e9","ios":"levelo://app?vid=ecddc8a7-91af-4ea4-ba05-c8a5c9a398e9"},"vehicle_type_id":"4","last_reported":1741122551,"current_range_meters":6400,"station_id":"ce4bhp92rcd13ifvqhbg","pricing_plan_id":"cebpf4jnsgd1na2vs0mg"},{"bike_id":"10d61af2-a218-4397-b179-939c5dec9f2f","system_id":"levelo_inurba_marseille","lat":43.26502,"lon":5.39542,"is_reserved":false,"is_disabled":false,"rental_uris":{"android":"levelo://app?vid=10d61af2-a218-4397-b179-939c5dec9f2f","ios":"levelo://app?vid=10d61af2-a218-4397-b179-939c5dec9f2f"},"vehicle_type_id":"4","last_reported":1741122551,"current_range_meters":6400,"station_id":"ce4bhi12rcd13ifvqfq0","pricing_plan_id":"cebpf4jnsgd1na2vs0mg"},{"bike_id":"1961d1a4-3386-47f3-8c63-a28a2fa84fb6","system_id":"levelo_inurba_marseille","lat":43.28834,"lon":5.39318,"is_reserved":false,"is_disabled":false,"rental_uris":{"android":"levelo://app?vid=1961d1a4-3386-47f3-8c63-a28a2fa84fb6","ios":"levelo://app?vid=1961d1a4-3386-47f3-8c63-a28a2fa84fb6"},"vehicle_type_id":"4","last_reported":1741122551,"current_range_meters":5600,"station_id":"ce4bh2p2rcd13ifvqdi0","pricing_plan_id":"cebpf4jnsgd1na2vs0mg"},{"bike_id":"4a0af5ae-37f5-487c-8467-5f26b3bc48e8","system_id":"levelo_inurba_marseille","lat":43.30737,"lon":5.38113,"is_reserved":false,"is_disabled":false,"rental_uris":{"android":"levelo://app?vid=4a0af5ae-37f5-487c-8467-5f26b3bc48e8","ios":"levelo://app?vid=4a0af5ae-37f5-487c-8467-5f26b3bc48e8"},"vehicle_type_id":"4","last_reported":1741122551,"current_range_meters":6400,"station_id":"","pricing_plan_id":"cebpf4jnsgd1na2vs0mg"},{"bike_id":"cdfb91ec-7ee7-41b1-b614-7969d8e9230c","system_id":"levelo_inurba_marseille","lat":43.277,"lon":5.41192,"is_reserved":false,"is_disabled":false,"rental_uris":{"android":"levelo://app?vid=cdfb91ec-7ee7-41b1-b614-7969d8e9230c","ios":"levelo://app?vid=cdfb91ec-7ee7-41b1-b614-7969d8e9230c"},"vehicle_type_id":"4","last_reported":1741122551,"current_range_meters":6400,"station_id":"","pricing_plan_id":"cebpf4jnsgd1na2vs0mg"},{"bike_id":"83e13657-2b1f-4b00-8276-03c45d12c05c","system_id":"levelo_inurba_marseille","lat":43.23182,"lon":5.39985,"is_reserved":false,"is_disabled":false,"rental_uris":{"android":"levelo://app?vid=83e13657-2b1f-4b00-8276-03c45d12c05c","ios":"levelo://app?vid=83e13657-2b1f-4b00-8276-03c45d12c05c"},"vehicle_type_id":"4","last_reported":1741122551,"current_range_meters":6800,"station_id":"ce4bhn12rcd13ifvqgqg","pricing_plan_id":"cebpf4jnsgd1na2vs0mg"},{"bike_id":"831269aa-3afb-4be9-bf5b-d0a878769533","system_id":"levelo_inurba_marseille","lat":43.31695,"lon":5.40461,"is_reserved":false,"is_disabled":false,"rental_uris":{"android":"levelo://app?vid=831269aa-3afb-4be9-bf5b-d0a878769533","ios":"levelo://app?vid=831269aa-3afb-4be9-bf5b-d0a878769533"},"vehicle_type_id":"4","last_reported":1741122551,"current_range_meters":6800,"station_id":"ce4bh012rcd13ifvqd00","pricing_plan_id":"cebpf4jnsgd1na2vs0mg"},{"bike_id":"13c44e5e-5463-4505-ba1b-c0544af7d8ca","system_id":"levelo_inurba_marseille","lat":43.23191,"lon":5.35553,"is_reserved":false,"is_disabled":false,"rental_uris":{"android":"levelo://app?vid=13c44e5e-5463-4505-ba1b-c0544af7d8ca","ios":"levelo://app?vid=13c44e5e-5463-4505-ba1b-c0544af7d8ca"},"vehicle_type_id":"4","last_reported":1741122551,"current_range_meters":6800,"station_id":"ce4bhu92rcd13ifvqi70","pricing_plan_id":"cebpf4jnsgd1na2vs0mg"},{"bike_id":"6f359f76-3a72-41be-9552-f3e86e80f519","system_id":"levelo_inurba_marseille","lat":43.31271,"lon":5.38428,"is_reserved":false,"is_disabled":false,"rental_uris":{"android":"levelo://app?vid=6f359f76-3a72-41be-9552-f3e86e80f519","ios":"levelo://app?vid=6f359f76-3a72-41be-9552-f3e86e80f519"},"vehicle_type_id":"4","last_reported":1741122551,"current_range_meters":6800,"station_id":"","pricing_plan_id":"cebpf4jnsgd1na2vs0mg"},{"bike_id":"654ceeeb-be89-4748-81eb-c222511227da","system_id":"levelo_inurba_marseille","lat":43.30875,"lon":5.39657,"is_reserved":false,"is_disabled":false,"rental_uris":{"android":"levelo://app?vid=654ceeeb-be89-4748-81eb-c222511227da","ios":"levelo://app?vid=654ceeeb-be89-4748-81eb-c222511227da"},"vehicle_type_id":"4","last_reported":1741122551,"current_range_meters":7200,"station_id":"","pricing_plan_id":"cebpf4jnsgd1na2vs0mg"},{"bike_id":"c1c6d331-bef2-4ec2-b58e-cea42d9b5662","system_id":"levelo_inurba_marseille","lat":43.26782,"lon":5.39411,"is_reserved":false,"is_disabled":true,"rental_uris":{"android":"levelo://app?vid=c1c6d331-bef2-4ec2-b58e-cea42d9b5662","ios":"levelo://app?vid=c1c6d331-bef2-4ec2-b58e-cea42d9b5662"},"vehicle_type_id":"4","last_reported":1741122551,"current_range_meters":7200,"station_id":"ce4bhh12rcd13ifvqfg0","pricing_plan_id":"cebpf4jnsgd1na2vs0mg"},{"bike_id":"0b818497-4d97-451b-b637-cef3d02b5c9d","system_id":"levelo_inurba_marseille","lat":43.31707,"lon":5.43712,"is_reserved":false,"is_disabled":false,"rental_uris":{"android":"levelo://app?vid=0b818497-4d97-451b-b637-cef3d02b5c9d","ios":"levelo://app?vid=0b818497-4d97-451b-b637-cef3d02b5c9d"},"vehicle_type_id":"4","last_reported":1741122551,"current_range_meters":7200,"station_id":"ce4bhp92rcd13ifvqhcg","pricing_plan_id":"cebpf4jnsgd1na2vs0mg"},{"bike_id":"bc5234ec-45ff-48aa-9112-726b4a1ba4ea","system_id":"levelo_inurba_marseille","lat":43.28849,"lon":5.35859,"is_reserved":false,"is_disabled":false,"rental_uris":{"android":"levelo://app?vid=bc5234ec-45ff-48aa-9112-726b4a1ba4ea","ios":"levelo://app?vid=bc5234ec-45ff-48aa-9112-726b4a1ba4ea"},"vehicle_type_id":"4","last_reported":1741122551,"current_range_meters":7200,"station_id":"ce4bhb12rcd13ifvqem0","pricing_plan_id":"cebpf4jnsgd1na2vs0mg"},{"bike_id":"64953142-7637-42b4-b0d1-c449e63f1db7","system_id":"levelo_inurba_marseille","lat":43.29631,"lon":5.36015,"is_reserved":false,"is_disabled":false,"rental_uris":{"android":"levelo://app?vid=64953142-7637-42b4-b0d1-c449e63f1db7","ios":"levelo://app?vid=64953142-7637-42b4-b0d1-c449e63f1db7"},"vehicle_type_id":"4","last_reported":1741122551,"current_range_meters":7200,"station_id":"","pricing_plan_id":"cebpf4jnsgd1na2vs0mg"},{"bike_id":"4900e558-d896-4e88-a482-c92483d35a16","system_id":"levelo_inurba_marseille","lat":43.28121,"lon":5.44575,"is_reserved":false,"is_disabled":false,"rental_uris":{"android":"levelo://app?vid=4900e558-d896-4e88-a482-c92483d35a16","ios":"levelo://app?vid=4900e558-d896-4e88-a482-c92483d35a16"},"vehicle_type_id":"4","last_reported":1741122551,"current_range_meters":7200,"station_id":"","pricing_plan_id":"cebpf4jnsgd1na2vs0mg"},{"bike_id":"4953908e-c12d-41ee-881a-cce039598782","system_id":"levelo_inurba_marseille","lat":43.30795,"lon":5.43537,"is_reserved":false,"is_disabled":false,"rental_uris":{"android":"levelo://app?vid=4953908e-c12d-41ee-881a-cce039598782","ios":"levelo://app?vid=4953908e-c12d-41ee-881a-cce039598782"},"vehicle_type_id":"4","last_reported":1741122551,"current_range_meters":7200,"station_id":"ce4bhph2rcd13ifvqheg","pricing_plan_id":"cebpf4jnsgd1na2vs0mg"},{"bike_id":"5c62e162-d130-42e6-87eb-9d21ce491dff","system_id":"levelo_inurba_marseille","lat":43.2847,"lon":5.39894,"is_reserved":false,"is_disabled":false,"rental_uris":{"android":"levelo://app?vid=5c62e162-d130-42e6-87eb-9d21ce491dff","ios":"levelo://app?vid=5c62e162-d130-42e6-87eb-9d21ce491dff"},"vehicle_type_id":"4","last_reported":1741122551,"current_range_meters":7200,"station_id":"","pricing_plan_id":"cebpf4jnsgd1na2vs0mg"},{"bike_id":"e7354dad-9663-4e36-86b3-e94320664f74","system_id":"levelo_inurba_marseille","lat":43.28567,"lon":5.39491,"is_reserved":false,"is_disabled":false,"rental_uris":{"android":"levelo://app?vid=e7354dad-9663-4e36-86b3-e94320664f74","ios":"levelo://app?vid=e7354dad-9663-4e36-86b3-e94320664f74"},"vehicle_type_id":"4","last_reported":1741122551,"current_range_meters":7200,"station_id":"ce4bh292rcd13ifvqdg0","pricing_plan_id":"cebpf4jnsgd1na2vs0mg"},{"bike_id":"a7044ed3-d5ae-409b-9044-aa2ba47e6936","system_id":"levelo_inurba_marseille","lat":43.28258,"lon":5.35073,"is_reserved":false,"is_disabled":false,"rental_uris":{"android":"levelo://app?vid=a7044ed3-d5ae-409b-9044-aa2ba47e6936","ios":"levelo://app?vid=a7044ed3-d5ae-409b-9044-aa2ba47e6936"},"vehicle_type_id":"4","last_reported":1741122551,"current_range_meters":6800,"station_id":"ce4bhbp2rcd13ifvqerg","pricing_plan_id":"cebpf4jnsgd1na2vs0mg"},{"bike_id":"89318145-9eb0-465a-b07a-e13ca76565f9","system_id":"levelo_inurba_marseille","lat":43.28001,"lon":5.40062,"is_reserved":false,"is_disabled":false,"rental_uris":{"android":"levelo://app?vid=89318145-9eb0-465a-b07a-e13ca76565f9","ios":"levelo://app?vid=89318145-9eb0-465a-b07a-e13ca76565f9"},"vehicle_type_id":"4","last_reported":1741122551,"current_range_meters":8000,"station_id":"ce4bho92rcd13ifvqh4g","pricing_plan_id":"cebpf4jnsgd1na2vs0mg"},{"bike_id":"4d031821-b90c-420c-be9f-756d9af38822","system_id":"levelo_inurba_marseille","lat":43.27737,"lon":5.40729,"is_reserved":false,"is_disabled":false,"rental_uris":{"android":"levelo://app?vid=4d031821-b90c-420c-be9f-756d9af38822","ios":"levelo://app?vid=4d031821-b90c-420c-be9f-756d9af38822"},"vehicle_type_id":"4","last_reported":1741122551,"current_range_meters":8000,"station_id":"","pricing_plan_id":"cebpf4jnsgd1na2vs0mg"},{"bike_id":"a7e4c0d5-f8e4-4c3b-acad-9c7d5ce39506","system_id":"levelo_inurba_marseille","lat":43.31726,"lon":5.43703,"is_reserved":false,"is_disabled":false,"rental_uris":{"android":"levelo://app?vid=a7e4c0d5-f8e4-4c3b-acad-9c7d5ce39506","ios":"levelo://app?vid=a7e4c0d5-f8e4-4c3b-acad-9c7d5ce39506"},"vehicle_type_id":"4","last_reported":1741122551,"current_range_meters":8000,"station_id":"ce4bhp92rcd13ifvqhcg","pricing_plan_id":"cebpf4jnsgd1na2vs0mg"},{"bike_id":"7c56e753-c384-40ec-96b6-b270324269c6","system_id":"levelo_inurba_marseille","lat":43.26229,"lon":5.40451,"is_reserved":false,"is_disabled":false,"rental_uris":{"android":"levelo://app?vid=7c56e753-c384-40ec-96b6-b270324269c6","ios":"levelo://app?vid=7c56e753-c384-40ec-96b6-b270324269c6"},"vehicle_type_id":"4","last_reported":1741122551,"current_range_meters":8000,"station_id":"ce4bhmh2rcd13ifvqgmg","pricing_plan_id":"cebpf4jnsgd1na2vs0mg"},{"bike_id":"a21d80fa-a304-4401-8f70-3c0d7949bd39","system_id":"levelo_inurba_marseille","lat":43.29441,"lon":5.38727,"is_reserved":false,"is_disabled":false,"rental_uris":{"android":"levelo://app?vid=a21d80fa-a304-4401-8f70-3c0d7949bd39","ios":"levelo://app?vid=a21d80fa-a304-4401-8f70-3c0d7949bd39"},"vehicle_type_id":"4","last_reported":1741122551,"current_range_meters":8000,"station_id":"ce4bh2h2rcd13ifvqdh0","pricing_plan_id":"cebpf4jnsgd1na2vs0mg"},{"bike_id":"3ded77b2-2546-466b-86c8-ef9cfb4b4e63","system_id":"levelo_inurba_marseille","lat":43.2511,"lon":5.40322,"is_reserved":false,"is_disabled":false,"rental_uris":{"android":"levelo://app?vid=3ded77b2-2546-466b-86c8-ef9cfb4b4e63","ios":"levelo://app?vid=3ded77b2-2546-466b-86c8-ef9cfb4b4e63"},"vehicle_type_id":"4","last_reported":1741122551,"current_range_meters":8000,"station_id":"ce4bhlh2rcd13ifvqgig","pricing_plan_id":"cebpf4jnsgd1na2vs0mg"},{"bike_id":"ef586f23-ee4b-465a-84b4-b76ec36bdcf2","system_id":"levelo_inurba_marseille","lat":43.28424,"lon":5.3752,"is_reserved":false,"is_disabled":false,"rental_uris":{"android":"levelo://app?vid=ef586f23-ee4b-465a-84b4-b76ec36bdcf2","ios":"levelo://app?vid=ef586f23-ee4b-465a-84b4-b76ec36bdcf2"},"vehicle_type_id":"4","last_reported":1741122551,"current_range_meters":8000,"station_id":"ce4bh412rcd13ifvqds0","pricing_plan_id":"cebpf4jnsgd1na2vs0mg"},{"bike_id":"69a45762-5f23-4776-afba-9ebb25c1b6e5","system_id":"levelo_inurba_marseille","lat":43.29522,"lon":5.39055,"is_reserved":false,"is_disabled":false,"rental_uris":{"android":"levelo://app?vid=69a45762-5f23-4776-afba-9ebb25c1b6e5","ios":"levelo://app?vid=69a45762-5f23-4776-afba-9ebb25c1b6e5"},"vehicle_type_id":"4","last_reported":1741122551,"current_range_meters":8000,"station_id":"ce4bh3p2rcd13ifvqdp0","pricing_plan_id":"cebpf4jnsgd1na2vs0mg"},{"bike_id":"2f2997b2-435b-4046-83a1-e6ed0b0f0bde","system_id":"levelo_inurba_marseille","lat":43.24666,"lon":5.38127,"is_reserved":false,"is_disabled":false,"rental_uris":{"android":"levelo://app?vid=2f2997b2-435b-4046-83a1-e6ed0b0f0bde","ios":"levelo://app?vid=2f2997b2-435b-4046-83a1-e6ed0b0f0bde"},"vehicle_type_id":"4","last_reported":1741122551,"current_range_meters":8400,"station_id":"ce4bhih2rcd13ifvqfr0","pricing_plan_id":"cebpf4jnsgd1na2vs0mg"},{"bike_id":"7cf386a1-f879-4a1b-a7c4-9eebe0c89ca8","system_id":"levelo_inurba_marseille","lat":43.28075,"lon":5.39638,"is_reserved":false,"is_disabled":false,"rental_uris":{"android":"levelo://app?vid=7cf386a1-f879-4a1b-a7c4-9eebe0c89ca8","ios":"levelo://app?vid=7cf386a1-f879-4a1b-a7c4-9eebe0c89ca8"},"vehicle_type_id":"4","last_reported":1741122551,"current_range_meters":8400,"station_id":"ce4bho12rcd13ifvqh2g","pricing_plan_id":"cebpf4jnsgd1na2vs0mg"},{"bike_id":"7fd36018-1682-424c-94e6-c1b74147c997","system_id":"levelo_inurba_marseille","lat":43.28015,"lon":5.4001,"is_reserved":false,"is_disabled":false,"rental_uris":{"android":"levelo://app?vid=7fd36018-1682-424c-94e6-c1b74147c997","ios":"levelo://app?vid=7fd36018-1682-424c-94e6-c1b74147c997"},"vehicle_type_id":"4","last_reported":1741122551,"current_range_meters":8400,"station_id":"ce4bho92rcd13ifvqh4g","pricing_plan_id":"cebpf4jnsgd1na2vs0mg"},{"bike_id":"523797ee-a9f0-494d-a6a9-db807f9343e4","system_id":"levelo_inurba_marseille","lat":43.26558,"lon":5.39032,"is_reserved":false,"is_disabled":false,"rental_uris":{"android":"levelo://app?vid=523797ee-a9f0-494d-a6a9-db807f9343e4","ios":"levelo://app?vid=523797ee-a9f0-494d-a6a9-db807f9343e4"},"vehicle_type_id":"4","last_reported":1741122551,"current_range_meters":8400,"station_id":"ce4bhe12rcd13ifvqf30","pricing_plan_id":"cebpf4jnsgd1na2vs0mg"},{"bike_id":"60d031a8-24b1-4366-8e11-42c4737cb648","system_id":"levelo_inurba_marseille","lat":43.31366,"lon":5.38516,"is_reserved":false,"is_disabled":false,"rental_uris":{"android":"levelo://app?vid=60d031a8-24b1-4366-8e11-42c4737cb648","ios":"levelo://app?vid=60d031a8-24b1-4366-8e11-42c4737cb648"},"vehicle_type_id":"4","last_reported":1741122551,"current_range_meters":8400,"station_id":"ce4bgt92rcd13ifvqcf0","pricing_plan_id":"cebpf4jnsgd1na2vs0mg"},{"bike_id":"7f320169-016b-4b3e-a792-d0d62327dc94","system_id":"levelo_inurba_marseille","lat":43.2756,"lon":5.38423,"is_reserved":false,"is_disabled":false,"rental_uris":{"android":"levelo://app?vid=7f320169-016b-4b3e-a792-d0d62327dc94","ios":"levelo://app?vid=7f320169-016b-4b3e-a792-d0d62327dc94"},"vehicle_type_id":"4","last_reported":1741122551,"current_range_meters":8400,"station_id":"ce4bhh92rcd13ifvqfi0","pricing_plan_id":"cebpf4jnsgd1na2vs0mg"},{"bike_id":"5b72e45d-01fb-4eaf-8071-a1e78c4dc0c5","system_id":"levelo_inurba_marseille","lat":43.27951,"lon":5.41046,"is_reserved":false,"is_disabled":false,"rental_uris":{"android":"levelo://app?vid=5b72e45d-01fb-4eaf-8071-a1e78c4dc0c5","ios":"levelo://app?vid=5b72e45d-01fb-4eaf-8071-a1e78c4dc0c5"},"vehicle_type_id":"4","last_reported":1741122551,"current_range_meters":8400,"station_id":"ce4bhnp2rcd13ifvqh0g","pricing_plan_id":"cebpf4jnsgd1na2vs0mg"},{"bike_id":"32ec58ac-1836-4fb6-ae91-f231fbc95936","system_id":"levelo_inurba_marseille","lat":43.32107,"lon":5.40966,"is_reserved":false,"is_disabled":false,"rental_uris":{"android":"levelo://app?vid=32ec58ac-1836-4fb6-ae91-f231fbc95936","ios":"levelo://app?vid=32ec58ac-1836-4fb6-ae91-f231fbc95936"},"vehicle_type_id":"4","last_reported":1741122551,"current_range_meters":8400,"station_id":"","pricing_plan_id":"cebpf4jnsgd1na2vs0mg"},{"bike_id":"098e1208-3091-42bd-9bb4-612148ea4ada","system_id":"levelo_inurba_marseille","lat":43.23345,"lon":5.36017,"is_reserved":false,"is_disabled":false,"rental_uris":{"android":"levelo://app?vid=098e1208-3091-42bd-9bb4-612148ea4ada","ios":"levelo://app?vid=098e1208-3091-42bd-9bb4-612148ea4ada"},"vehicle_type_id":"4","last_reported":1741122551,"current_range_meters":8400,"station_id":"","pricing_plan_id":"cebpf4jnsgd1na2vs0mg"},{"bike_id":"1ce8b00b-4f50-40ae-9fd8-6b027ecfcc9f","system_id":"levelo_inurba_marseille","lat":43.32652,"lon":5.40991,"is_reserved":false,"is_disabled":false,"rental_uris":{"android":"levelo://app?vid=1ce8b00b-4f50-40ae-9fd8-6b027ecfcc9f","ios":"levelo://app?vid=1ce8b00b-4f50-40ae-9fd8-6b027ecfcc9f"},"vehicle_type_id":"4","last_reported":1741122551,"current_range_meters":8400,"station_id":"ce4bhpp2rcd13ifvqhgg","pricing_plan_id":"cebpf4jnsgd1na2vs0mg"},{"bike_id":"82cf1890-6fc9-45de-a4c6-a2860b6ad381","system_id":"levelo_inurba_marseille","lat":43.30884,"lon":5.39634,"is_reserved":false,"is_disabled":false,"rental_uris":{"android":"levelo://app?vid=82cf1890-6fc9-45de-a4c6-a2860b6ad381","ios":"levelo://app?vid=82cf1890-6fc9-45de-a4c6-a2860b6ad381"},"vehicle_type_id":"4","last_reported":1741122551,"current_range_meters":8800,"station_id":"ce4bh012rcd13ifvqcv0","pricing_plan_id":"cebpf4jnsgd1na2vs0mg"},{"bike_id":"afe37ceb-95ba-4f08-a1be-d4cf0e40900e","system_id":"levelo_inurba_marseille","lat":43.29523,"lon":5.37836,"is_reserved":false,"is_disabled":false,"rental_uris":{"android":"levelo://app?vid=afe37ceb-95ba-4f08-a1be-d4cf0e40900e","ios":"levelo://app?vid=afe37ceb-95ba-4f08-a1be-d4cf0e40900e"},"vehicle_type_id":"4","last_reported":1741122551,"current_range_meters":8800,"station_id":"","pricing_plan_id":"cebpf4jnsgd1na2vs0mg"},{"bike_id":"48d28e38-4ec2-4e1e-b64a-7d4b817a6fea","system_id":"levelo_inurba_marseille","lat":43.23174,"lon":5.39981,"is_reserved":false,"is_disabled":false,"rental_uris":{"android":"levelo://app?vid=48d28e38-4ec2-4e1e-b64a-7d4b817a6fea","ios":"levelo://app?vid=48d28e38-4ec2-4e1e-b64a-7d4b817a6fea"},"vehicle_type_id":"4","last_reported":1741122551,"current_range_meters":8800,"station_id":"ce4bhn12rcd13ifvqgqg","pricing_plan_id":"cebpf4jnsgd1na2vs0mg"},{"bike_id":"0f9ddea6-1d75-4d7a-86df-1ec423c3282c","system_id":"levelo_inurba_marseille","lat":43.27999,"lon":5.40052,"is_reserved":false,"is_disabled":false,"rental_uris":{"android":"levelo://app?vid=0f9ddea6-1d75-4d7a-86df-1ec423c3282c","ios":"levelo://app?vid=0f9ddea6-1d75-4d7a-86df-1ec423c3282c"},"vehicle_type_id":"4","last_reported":1741122551,"current_range_meters":8800,"station_id":"ce4bho92rcd13ifvqh4g","pricing_plan_id":"cebpf4jnsgd1na2vs0mg"},{"bike_id":"67f170b2-c527-4f82-a5e7-48060deabad3","system_id":"levelo_inurba_marseille","lat":43.2803,"lon":5.36943,"is_reserved":false,"is_disabled":false,"rental_uris":{"android":"levelo://app?vid=67f170b2-c527-4f82-a5e7-48060deabad3","ios":"levelo://app?vid=67f170b2-c527-4f82-a5e7-48060deabad3"},"vehicle_type_id":"4","last_reported":1741122551,"current_range_meters":8800,"station_id":"ce4bha12rcd13ifvqef0","pricing_plan_id":"cebpf4jnsgd1na2vs0mg"},{"bike_id":"a99b6ca0-cb75-4009-9bd5-71d003bb1668","system_id":"levelo_inurba_marseille","lat":43.24829,"lon":5.37462,"is_reserved":false,"is_disabled":false,"rental_uris":{"android":"levelo://app?vid=a99b6ca0-cb75-4009-9bd5-71d003bb1668","ios":"levelo://app?vid=a99b6ca0-cb75-4009-9bd5-71d003bb1668"},"vehicle_type_id":"4","last_reported":1741122551,"current_range_meters":8800,"station_id":"ce4bhgh2rcd13ifvqfb0","pricing_plan_id":"cebpf4jnsgd1na2vs0mg"},{"bike_id":"13cc4aae-49e8-44f7-bfab-719bb6820256","system_id":"levelo_inurba_marseille","lat":43.27832,"lon":5.40736,"is_reserved":false,"is_disabled":true,"rental_uris":{"android":"levelo://app?vid=13cc4aae-49e8-44f7-bfab-719bb6820256","ios":"levelo://app?vid=13cc4aae-49e8-44f7-bfab-719bb6820256"},"vehicle_type_id":"4","last_reported":1741122551,"current_range_meters":8800,"station_id":"ce4bhnh2rcd13ifvqgtg","pricing_plan_id":"cebpf4jnsgd1na2vs0mg"},{"bike_id":"af961a62-89ab-48c3-99b4-9e347c6b0fdf","system_id":"levelo_inurba_marseille","lat":43.28075,"lon":5.39638,"is_reserved":false,"is_disabled":false,"rental_uris":{"android":"levelo://app?vid=af961a62-89ab-48c3-99b4-9e347c6b0fdf","ios":"levelo://app?vid=af961a62-89ab-48c3-99b4-9e347c6b0fdf"},"vehicle_type_id":"4","last_reported":1741122551,"current_range_meters":8800,"station_id":"ce4bho12rcd13ifvqh2g","pricing_plan_id":"cebpf4jnsgd1na2vs0mg"},{"bike_id":"40592169-4d72-4b69-a512-be614d00ab33","system_id":"levelo_inurba_marseille","lat":43.28078,"lon":5.39629,"is_reserved":false,"is_disabled":false,"rental_uris":{"android":"levelo://app?vid=40592169-4d72-4b69-a512-be614d00ab33","ios":"levelo://app?vid=40592169-4d72-4b69-a512-be614d00ab33"},"vehicle_type_id":"4","last_reported":1741122551,"current_range_meters":8800,"station_id":"ce4bho12rcd13ifvqh2g","pricing_plan_id":"cebpf4jnsgd1na2vs0mg"},{"bike_id":"f9e6d230-69c5-4095-84ed-f5e6a773b409","system_id":"levelo_inurba_marseille","lat":43.31167,"lon":5.38706,"is_reserved":false,"is_disabled":false,"rental_uris":{"android":"levelo://app?vid=f9e6d230-69c5-4095-84ed-f5e6a773b409","ios":"levelo://app?vid=f9e6d230-69c5-4095-84ed-f5e6a773b409"},"vehicle_type_id":"4","last_reported":1741122551,"current_range_meters":9200,"station_id":"ce4bgv12rcd13ifvqcp0","pricing_plan_id":"cebpf4jnsgd1na2vs0mg"},{"bike_id":"cca3497d-37a2-41fa-bace-1f7c6cdcd8f5","system_id":"levelo_inurba_marseille","lat":43.27941,"lon":5.4105,"is_reserved":false,"is_disabled":false,"rental_uris":{"android":"levelo://app?vid=cca3497d-37a2-41fa-bace-1f7c6cdcd8f5","ios":"levelo://app?vid=cca3497d-37a2-41fa-bace-1f7c6cdcd8f5"},"vehicle_type_id":"4","last_reported":1741122551,"current_range_meters":9200,"station_id":"ce4bhnp2rcd13ifvqh0g","pricing_plan_id":"cebpf4jnsgd1na2vs0mg"},{"bike_id":"ea6a4a15-a453-498d-be30-f6d5d98c6c99","system_id":"levelo_inurba_marseille","lat":43.26812,"lon":5.40251,"is_reserved":false,"is_disabled":false,"rental_uris":{"android":"levelo://app?vid=ea6a4a15-a453-498d-be30-f6d5d98c6c99","ios":"levelo://app?vid=ea6a4a15-a453-498d-be30-f6d5d98c6c99"},"vehicle_type_id":"4","last_reported":1741122551,"current_range_meters":9200,"station_id":"ce501612rcd8frsf0b60","pricing_plan_id":"cebpf4jnsgd1na2vs0mg"},{"bike_id":"6178d4a3-6d1b-438c-ac71-a61f5db2dfc0","system_id":"levelo_inurba_marseille","lat":43.27815,"lon":5.40724,"is_reserved":false,"is_disabled":false,"rental_uris":{"android":"levelo://app?vid=6178d4a3-6d1b-438c-ac71-a61f5db2dfc0","ios":"levelo://app?vid=6178d4a3-6d1b-438c-ac71-a61f5db2dfc0"},"vehicle_type_id":"4","last_reported":1741122551,"current_range_meters":9200,"station_id":"ce4bhnh2rcd13ifvqgtg","pricing_plan_id":"cebpf4jnsgd1na2vs0mg"},{"bike_id":"39fbed77-4b9c-4f8d-bb61-98aaba0b0ee1","system_id":"levelo_inurba_marseille","lat":43.28086,"lon":5.39654,"is_reserved":false,"is_disabled":false,"rental_uris":{"android":"levelo://app?vid=39fbed77-4b9c-4f8d-bb61-98aaba0b0ee1","ios":"levelo://app?vid=39fbed77-4b9c-4f8d-bb61-98aaba0b0ee1"},"vehicle_type_id":"4","last_reported":1741122551,"current_range_meters":9200,"station_id":"ce4bho12rcd13ifvqh2g","pricing_plan_id":"cebpf4jnsgd1na2vs0mg"},{"bike_id":"28bd27ae-306d-48eb-8032-8f073e308d5f","system_id":"levelo_inurba_marseille","lat":43.30592,"lon":5.39351,"is_reserved":false,"is_disabled":false,"rental_uris":{"android":"levelo://app?vid=28bd27ae-306d-48eb-8032-8f073e308d5f","ios":"levelo://app?vid=28bd27ae-306d-48eb-8032-8f073e308d5f"},"vehicle_type_id":"4","last_reported":1741122551,"current_range_meters":9200,"station_id":"ce4bh0p2rcd13ifvqd80","pricing_plan_id":"cebpf4jnsgd1na2vs0mg"},{"bike_id":"16422601-b06e-4432-b609-e1ea0e7ea850","system_id":"levelo_inurba_marseille","lat":43.26208,"lon":5.40423,"is_reserved":false,"is_disabled":false,"rental_uris":{"android":"levelo://app?vid=16422601-b06e-4432-b609-e1ea0e7ea850","ios":"levelo://app?vid=16422601-b06e-4432-b609-e1ea0e7ea850"},"vehicle_type_id":"4","last_reported":1741122551,"current_range_meters":9200,"station_id":"ce4bhmh2rcd13ifvqgmg","pricing_plan_id":"cebpf4jnsgd1na2vs0mg"},{"bike_id":"41077412-3a41-4a40-8906-1b3127b18d15","system_id":"levelo_inurba_marseille","lat":43.2791,"lon":5.38011,"is_reserved":false,"is_disabled":false,"rental_uris":{"android":"levelo://app?vid=41077412-3a41-4a40-8906-1b3127b18d15","ios":"levelo://app?vid=41077412-3a41-4a40-8906-1b3127b18d15"},"vehicle_type_id":"4","last_reported":1741122551,"current_range_meters":9200,"station_id":"ce4bhf92rcd13ifvqf50","pricing_plan_id":"cebpf4jnsgd1na2vs0mg"},{"bike_id":"4bc22bc8-57d9-4e3e-bbf9-5bb2e57875a0","system_id":"levelo_inurba_marseille","lat":43.27817,"lon":5.40713,"is_reserved":false,"is_disabled":false,"rental_uris":{"android":"levelo://app?vid=4bc22bc8-57d9-4e3e-bbf9-5bb2e57875a0","ios":"levelo://app?vid=4bc22bc8-57d9-4e3e-bbf9-5bb2e57875a0"},"vehicle_type_id":"4","last_reported":1741122551,"current_range_meters":9200,"station_id":"ce4bhnh2rcd13ifvqgtg","pricing_plan_id":"cebpf4jnsgd1na2vs0mg"},{"bike_id":"b8dacfd7-6aa1-4cb2-ac25-dfdf82e53218","system_id":"levelo_inurba_marseille","lat":43.32355,"lon":5.38875,"is_reserved":false,"is_disabled":false,"rental_uris":{"android":"levelo://app?vid=b8dacfd7-6aa1-4cb2-ac25-dfdf82e53218","ios":"levelo://app?vid=b8dacfd7-6aa1-4cb2-ac25-dfdf82e53218"},"vehicle_type_id":"4","last_reported":1741122551,"current_range_meters":9200,"station_id":"ce4bhqp2rcd13ifvqhog","pricing_plan_id":"cebpf4jnsgd1na2vs0mg"},{"bike_id":"119408e4-7624-4320-bf5e-e4f029d82dc4","system_id":"levelo_inurba_marseille","lat":43.28728,"lon":5.39991,"is_reserved":false,"is_disabled":true,"rental_uris":{"android":"levelo://app?vid=119408e4-7624-4320-bf5e-e4f029d82dc4","ios":"levelo://app?vid=119408e4-7624-4320-bf5e-e4f029d82dc4"},"vehicle_type_id":"4","last_reported":1741122551,"current_range_meters":9200,"station_id":"ce4bho92rcd13ifvqh3g","pricing_plan_id":"cebpf4jnsgd1na2vs0mg"},{"bike_id":"673a0145-2d59-42c5-a9c3-2acb956f3a40","system_id":"levelo_inurba_marseille","lat":43.24836,"lon":5.37423,"is_reserved":false,"is_disabled":false,"rental_uris":{"android":"levelo://app?vid=673a0145-2d59-42c5-a9c3-2acb956f3a40","ios":"levelo://app?vid=673a0145-2d59-42c5-a9c3-2acb956f3a40"},"vehicle_type_id":"4","last_reported":1741122551,"current_range_meters":9200,"station_id":"","pricing_plan_id":"cebpf4jnsgd1na2vs0mg"},{"bike_id":"b06e6ff2-83d1-4cc8-ab3f-ae199b7d296e","system_id":"levelo_inurba_marseille","lat":43.28463,"lon":5.37842,"is_reserved":false,"is_disabled":false,"rental_uris":{"android":"levelo://app?vid=b06e6ff2-83d1-4cc8-ab3f-ae199b7d296e","ios":"levelo://app?vid=b06e6ff2-83d1-4cc8-ab3f-ae199b7d296e"},"vehicle_type_id":"4","last_reported":1741122551,"current_range_meters":10000,"station_id":"","pricing_plan_id":"cebpf4jnsgd1na2vs0mg"},{"bike_id":"ac1f1c84-3aae-4c70-9f6b-a8587e9e0747","system_id":"levelo_inurba_marseille","lat":43.31489,"lon":5.37294,"is_reserved":false,"is_disabled":false,"rental_uris":{"android":"levelo://app?vid=ac1f1c84-3aae-4c70-9f6b-a8587e9e0747","ios":"levelo://app?vid=ac1f1c84-3aae-4c70-9f6b-a8587e9e0747"},"vehicle_type_id":"4","last_reported":1741122551,"current_range_meters":9200,"station_id":"ce4bgt12rcd13ifvqcd0","pricing_plan_id":"cebpf4jnsgd1na2vs0mg"},{"bike_id":"5fe66964-a975-43f5-aeb3-6820638748c8","system_id":"levelo_inurba_marseille","lat":43.28847,"lon":5.39313,"is_reserved":false,"is_disabled":false,"rental_uris":{"android":"levelo://app?vid=5fe66964-a975-43f5-aeb3-6820638748c8","ios":"levelo://app?vid=5fe66964-a975-43f5-aeb3-6820638748c8"},"vehicle_type_id":"4","last_reported":1741122551,"current_range_meters":6800,"station_id":"ce4bh2p2rcd13ifvqdi0","pricing_plan_id":"cebpf4jnsgd1na2vs0mg"},{"bike_id":"ee1d2ad1-36ca-49dd-a328-f2a9a9994ecb","system_id":"levelo_inurba_marseille","lat":43.31082,"lon":5.38144,"is_reserved":false,"is_disabled":false,"rental_uris":{"android":"levelo://app?vid=ee1d2ad1-36ca-49dd-a328-f2a9a9994ecb","ios":"levelo://app?vid=ee1d2ad1-36ca-49dd-a328-f2a9a9994ecb"},"vehicle_type_id":"4","last_reported":1741122551,"current_range_meters":9600,"station_id":"","pricing_plan_id":"cebpf4jnsgd1na2vs0mg"},{"bike_id":"0d40529a-4ceb-4fe5-a173-9a9387273cfa","system_id":"levelo_inurba_marseille","lat":43.25733,"lon":5.4111,"is_reserved":false,"is_disabled":false,"rental_uris":{"android":"levelo://app?vid=0d40529a-4ceb-4fe5-a173-9a9387273cfa","ios":"levelo://app?vid=0d40529a-4ceb-4fe5-a173-9a9387273cfa"},"vehicle_type_id":"4","last_reported":1741122551,"current_range_meters":9600,"station_id":"ce4bhkp2rcd13ifvqgd0","pricing_plan_id":"cebpf4jnsgd1na2vs0mg"},{"bike_id":"fd3516c2-659f-4f44-8864-23880edf8400","system_id":"levelo_inurba_marseille","lat":43.29904,"lon":5.38141,"is_reserved":false,"is_disabled":false,"rental_uris":{"android":"levelo://app?vid=fd3516c2-659f-4f44-8864-23880edf8400","ios":"levelo://app?vid=fd3516c2-659f-4f44-8864-23880edf8400"},"vehicle_type_id":"4","last_reported":1741122551,"current_range_meters":9600,"station_id":"ce4bgj12rcd13ifvqbc0","pricing_plan_id":"cebpf4jnsgd1na2vs0mg"},{"bike_id":"061bfcef-11f4-443b-ad8b-02b5a5b6b6e8","system_id":"levelo_inurba_marseille","lat":43.24079,"lon":5.37742,"is_reserved":false,"is_disabled":false,"rental_uris":{"android":"levelo://app?vid=061bfcef-11f4-443b-ad8b-02b5a5b6b6e8","ios":"levelo://app?vid=061bfcef-11f4-443b-ad8b-02b5a5b6b6e8"},"vehicle_type_id":"4","last_reported":1741122551,"current_range_meters":9600,"station_id":"ce4bhnp2rcd13ifvqgvg","pricing_plan_id":"cebpf4jnsgd1na2vs0mg"},{"bike_id":"bf284b86-4ac3-4366-b668-6c33ec16b817","system_id":"levelo_inurba_marseille","lat":43.31734,"lon":5.39029,"is_reserved":false,"is_disabled":false,"rental_uris":{"android":"levelo://app?vid=bf284b86-4ac3-4366-b668-6c33ec16b817","ios":"levelo://app?vid=bf284b86-4ac3-4366-b668-6c33ec16b817"},"vehicle_type_id":"4","last_reported":1741122551,"current_range_meters":9600,"station_id":"ce4bhqp2rcd13ifvqhng","pricing_plan_id":"cebpf4jnsgd1na2vs0mg"},{"bike_id":"b5245d0d-e710-42a2-bf18-d3a01a8461ca","system_id":"levelo_inurba_marseille","lat":43.29971,"lon":5.37184,"is_reserved":false,"is_disabled":false,"rental_uris":{"android":"levelo://app?vid=b5245d0d-e710-42a2-bf18-d3a01a8461ca","ios":"levelo://app?vid=b5245d0d-e710-42a2-bf18-d3a01a8461ca"},"vehicle_type_id":"4","last_reported":1741122551,"current_range_meters":9600,"station_id":"ce4bgr92rcd13ifvqc7g","pricing_plan_id":"cebpf4jnsgd1na2vs0mg"},{"bike_id":"5d3e6fd1-d59d-494a-b7ae-de8150ce0ae7","system_id":"levelo_inurba_marseille","lat":43.28405,"lon":5.37515,"is_reserved":false,"is_disabled":false,"rental_uris":{"android":"levelo://app?vid=5d3e6fd1-d59d-494a-b7ae-de8150ce0ae7","ios":"levelo://app?vid=5d3e6fd1-d59d-494a-b7ae-de8150ce0ae7"},"vehicle_type_id":"4","last_reported":1741122551,"current_range_meters":9600,"station_id":"ce4bh412rcd13ifvqds0","pricing_plan_id":"cebpf4jnsgd1na2vs0mg"},{"bike_id":"b733ca8c-93af-4b91-899d-9cb251933370","system_id":"levelo_inurba_marseille","lat":43.2798,"lon":5.40021,"is_reserved":false,"is_disabled":false,"rental_uris":{"android":"levelo://app?vid=b733ca8c-93af-4b91-899d-9cb251933370","ios":"levelo://app?vid=b733ca8c-93af-4b91-899d-9cb251933370"},"vehicle_type_id":"4","last_reported":1741122551,"current_range_meters":9600,"station_id":"ce4bho92rcd13ifvqh4g","pricing_plan_id":"cebpf4jnsgd1na2vs0mg"},{"bike_id":"44a7153b-0fd7-4509-836b-676bbf84fb06","system_id":"levelo_inurba_marseille","lat":43.231879,"lon":5.355638,"is_reserved":false,"is_disabled":false,"rental_uris":{"android":"levelo://app?vid=44a7153b-0fd7-4509-836b-676bbf84fb06","ios":"levelo://app?vid=44a7153b-0fd7-4509-836b-676bbf84fb06"},"vehicle_type_id":"4","last_reported":1741122551,"current_range_meters":9600,"station_id":"ce4bhu92rcd13ifvqi70","pricing_plan_id":"cebpf4jnsgd1na2vs0mg"},{"bike_id":"c225e1a0-be98-446e-a697-333af943beb7","system_id":"levelo_inurba_marseille","lat":43.27922,"lon":5.396,"is_reserved":false,"is_disabled":false,"rental_uris":{"android":"levelo://app?vid=c225e1a0-be98-446e-a697-333af943beb7","ios":"levelo://app?vid=c225e1a0-be98-446e-a697-333af943beb7"},"vehicle_type_id":"4","last_reported":1741122551,"current_range_meters":10000,"station_id":"ce4bhf92rcd13ifvqf40","pricing_plan_id":"cebpf4jnsgd1na2vs0mg"},{"bike_id":"27c2d55e-b76d-4cd8-93c1-ca2e9a10f330","system_id":"levelo_inurba_marseille","lat":43.29436,"lon":5.38622,"is_reserved":false,"is_disabled":false,"rental_uris":{"android":"levelo://app?vid=27c2d55e-b76d-4cd8-93c1-ca2e9a10f330","ios":"levelo://app?vid=27c2d55e-b76d-4cd8-93c1-ca2e9a10f330"},"vehicle_type_id":"4","last_reported":1741122551,"current_range_meters":10000,"station_id":"ce4bh2h2rcd13ifvqdh0","pricing_plan_id":"cebpf4jnsgd1na2vs0mg"},{"bike_id":"004bb06e-beff-4104-bcf6-323d94d584aa","system_id":"levelo_inurba_marseille","lat":43.2468,"lon":5.38175,"is_reserved":false,"is_disabled":false,"rental_uris":{"android":"levelo://app?vid=004bb06e-beff-4104-bcf6-323d94d584aa","ios":"levelo://app?vid=004bb06e-beff-4104-bcf6-323d94d584aa"},"vehicle_type_id":"4","last_reported":1741122551,"current_range_meters":10000,"station_id":"ce4bhih2rcd13ifvqfr0","pricing_plan_id":"cebpf4jnsgd1na2vs0mg"},{"bike_id":"4e6eac08-b624-4f71-84f3-0c6188cb583d","system_id":"levelo_inurba_marseille","lat":43.33044,"lon":5.39049,"is_reserved":false,"is_disabled":false,"rental_uris":{"android":"levelo://app?vid=4e6eac08-b624-4f71-84f3-0c6188cb583d","ios":"levelo://app?vid=4e6eac08-b624-4f71-84f3-0c6188cb583d"},"vehicle_type_id":"4","last_reported":1741122551,"current_range_meters":10000,"station_id":"ce4bhr92rcd13ifvqhrg","pricing_plan_id":"cebpf4jnsgd1na2vs0mg"},{"bike_id":"b3e2a09d-27d2-45e0-ae52-ca4e141ad0cc","system_id":"levelo_inurba_marseille","lat":43.24071,"lon":5.37762,"is_reserved":false,"is_disabled":false,"rental_uris":{"android":"levelo://app?vid=b3e2a09d-27d2-45e0-ae52-ca4e141ad0cc","ios":"levelo://app?vid=b3e2a09d-27d2-45e0-ae52-ca4e141ad0cc"},"vehicle_type_id":"4","last_reported":1741122551,"current_range_meters":10000,"station_id":"ce4bhnp2rcd13ifvqgvg","pricing_plan_id":"cebpf4jnsgd1na2vs0mg"},{"bike_id":"cfd43b57-acb9-4795-bb97-5db36396f6ff","system_id":"levelo_inurba_marseille","lat":43.29532,"lon":5.38537,"is_reserved":false,"is_disabled":false,"rental_uris":{"android":"levelo://app?vid=cfd43b57-acb9-4795-bb97-5db36396f6ff","ios":"levelo://app?vid=cfd43b57-acb9-4795-bb97-5db36396f6ff"},"vehicle_type_id":"4","last_reported":1741122551,"current_range_meters":10000,"station_id":"ce4bgih2rcd13ifvqba0","pricing_plan_id":"cebpf4jnsgd1na2vs0mg"},{"bike_id":"a2e9312b-d692-42a0-9823-fe0aab56075b","system_id":"levelo_inurba_marseille","lat":43.23164,"lon":5.43687,"is_reserved":false,"is_disabled":true,"rental_uris":{"android":"levelo://app?vid=a2e9312b-d692-42a0-9823-fe0aab56075b","ios":"levelo://app?vid=a2e9312b-d692-42a0-9823-fe0aab56075b"},"vehicle_type_id":"4","last_reported":1741122551,"current_range_meters":10000,"station_id":"ce4bhmp2rcd13ifvqgog","pricing_plan_id":"cebpf4jnsgd1na2vs0mg"},{"bike_id":"97d0cc1e-b85b-4315-9149-86ad1aaf4246","system_id":"levelo_inurba_marseille","lat":43.28463,"lon":5.39184,"is_reserved":false,"is_disabled":false,"rental_uris":{"android":"levelo://app?vid=97d0cc1e-b85b-4315-9149-86ad1aaf4246","ios":"levelo://app?vid=97d0cc1e-b85b-4315-9149-86ad1aaf4246"},"vehicle_type_id":"4","last_reported":1741122551,"current_range_meters":10000,"station_id":"ce4bhoh2rcd13ifvqh5g","pricing_plan_id":"cebpf4jnsgd1na2vs0mg"},{"bike_id":"c72def86-b1d6-40b7-aba2-62fc1c6809bb","system_id":"levelo_inurba_marseille","lat":43.28003,"lon":5.40029,"is_reserved":false,"is_disabled":false,"rental_uris":{"android":"levelo://app?vid=c72def86-b1d6-40b7-aba2-62fc1c6809bb","ios":"levelo://app?vid=c72def86-b1d6-40b7-aba2-62fc1c6809bb"},"vehicle_type_id":"4","last_reported":1741122551,"current_range_meters":10000,"station_id":"ce4bho92rcd13ifvqh4g","pricing_plan_id":"cebpf4jnsgd1na2vs0mg"},{"bike_id":"ede61442-3229-4ac2-8d72-b654099eef6a","system_id":"levelo_inurba_marseille","lat":43.33045,"lon":5.39045,"is_reserved":false,"is_disabled":false,"rental_uris":{"android":"levelo://app?vid=ede61442-3229-4ac2-8d72-b654099eef6a","ios":"levelo://app?vid=ede61442-3229-4ac2-8d72-b654099eef6a"},"vehicle_type_id":"4","last_reported":1741122551,"current_range_meters":10000,"station_id":"ce4bhr92rcd13ifvqhrg","pricing_plan_id":"cebpf4jnsgd1na2vs0mg"},{"bike_id":"c05b2d08-bd31-479b-8742-979b003fe89f","system_id":"levelo_inurba_marseille","lat":43.30252,"lon":5.40072,"is_reserved":false,"is_disabled":false,"rental_uris":{"android":"levelo://app?vid=c05b2d08-bd31-479b-8742-979b003fe89f","ios":"levelo://app?vid=c05b2d08-bd31-479b-8742-979b003fe89f"},"vehicle_type_id":"4","last_reported":1741122551,"current_range_meters":10000,"station_id":"ce4bgvh2rcd13ifvqcs0","pricing_plan_id":"cebpf4jnsgd1na2vs0mg"},{"bike_id":"a8b144fc-d362-49eb-84e6-532427307e26","system_id":"levelo_inurba_marseille","lat":43.29521,"lon":5.39398,"is_reserved":false,"is_disabled":false,"rental_uris":{"android":"levelo://app?vid=a8b144fc-d362-49eb-84e6-532427307e26","ios":"levelo://app?vid=a8b144fc-d362-49eb-84e6-532427307e26"},"vehicle_type_id":"4","last_reported":1741122551,"current_range_meters":10000,"station_id":"ce4bh292rcd13ifvqdf0","pricing_plan_id":"cebpf4jnsgd1na2vs0mg"},{"bike_id":"b714427e-ba5b-4c6c-b9d4-f730c9ac010f","system_id":"levelo_inurba_marseille","lat":43.30093,"lon":5.39083,"is_reserved":false,"is_disabled":false,"rental_uris":{"android":"levelo://app?vid=b714427e-ba5b-4c6c-b9d4-f730c9ac010f","ios":"levelo://app?vid=b714427e-ba5b-4c6c-b9d4-f730c9ac010f"},"vehicle_type_id":"4","last_reported":1741122551,"current_range_meters":10000,"station_id":"ce4bh192rcd13ifvqdb0","pricing_plan_id":"cebpf4jnsgd1na2vs0mg"},{"bike_id":"21b19842-9ad9-4db0-bc46-3d2827c0069e","system_id":"levelo_inurba_marseille","lat":43.2319,"lon":5.35563,"is_reserved":false,"is_disabled":false,"rental_uris":{"android":"levelo://app?vid=21b19842-9ad9-4db0-bc46-3d2827c0069e","ios":"levelo://app?vid=21b19842-9ad9-4db0-bc46-3d2827c0069e"},"vehicle_type_id":"4","last_reported":1741122551,"current_range_meters":10000,"station_id":"ce4bhu92rcd13ifvqi70","pricing_plan_id":"cebpf4jnsgd1na2vs0mg"},{"bike_id":"332abda5-2296-4955-8d29-1593f717e1c9","system_id":"levelo_inurba_marseille","lat":43.27975,"lon":5.41583,"is_reserved":false,"is_disabled":false,"rental_uris":{"android":"levelo://app?vid=332abda5-2296-4955-8d29-1593f717e1c9","ios":"levelo://app?vid=332abda5-2296-4955-8d29-1593f717e1c9"},"vehicle_type_id":"4","last_reported":1741122551,"current_range_meters":10800,"station_id":"","pricing_plan_id":"cebpf4jnsgd1na2vs0mg"},{"bike_id":"2eb06f58-5635-4b38-9e70-44136c43d35c","system_id":"levelo_inurba_marseille","lat":43.30882,"lon":5.39663,"is_reserved":false,"is_disabled":false,"rental_uris":{"android":"levelo://app?vid=2eb06f58-5635-4b38-9e70-44136c43d35c","ios":"levelo://app?vid=2eb06f58-5635-4b38-9e70-44136c43d35c"},"vehicle_type_id":"4","last_reported":1741122551,"current_range_meters":10800,"station_id":"ce4bh012rcd13ifvqcv0","pricing_plan_id":"cebpf4jnsgd1na2vs0mg"},{"bike_id":"db99b6b9-a30e-45ea-a005-66ffba70fee3","system_id":"levelo_inurba_marseille","lat":43.27992,"lon":5.40026,"is_reserved":false,"is_disabled":false,"rental_uris":{"android":"levelo://app?vid=db99b6b9-a30e-45ea-a005-66ffba70fee3","ios":"levelo://app?vid=db99b6b9-a30e-45ea-a005-66ffba70fee3"},"vehicle_type_id":"4","last_reported":1741122551,"current_range_meters":10800,"station_id":"ce4bho92rcd13ifvqh4g","pricing_plan_id":"cebpf4jnsgd1na2vs0mg"},{"bike_id":"2a8cc652-f2e0-44b6-b4be-8aba943cd557","system_id":"levelo_inurba_marseille","lat":43.29259,"lon":5.3761,"is_reserved":false,"is_disabled":false,"rental_uris":{"android":"levelo://app?vid=2a8cc652-f2e0-44b6-b4be-8aba943cd557","ios":"levelo://app?vid=2a8cc652-f2e0-44b6-b4be-8aba943cd557"},"vehicle_type_id":"4","last_reported":1741122551,"current_range_meters":10800,"station_id":"ce4bgi12rcd13ifvqb80","pricing_plan_id":"cebpf4jnsgd1na2vs0mg"},{"bike_id":"cb1cd250-1c05-47e3-a818-4f19fe6f06a2","system_id":"levelo_inurba_marseille","lat":43.27994,"lon":5.40054,"is_reserved":false,"is_disabled":false,"rental_uris":{"android":"levelo://app?vid=cb1cd250-1c05-47e3-a818-4f19fe6f06a2","ios":"levelo://app?vid=cb1cd250-1c05-47e3-a818-4f19fe6f06a2"},"vehicle_type_id":"4","last_reported":1741122551,"current_range_meters":10800,"station_id":"ce4bho92rcd13ifvqh4g","pricing_plan_id":"cebpf4jnsgd1na2vs0mg"},{"bike_id":"913bb55b-2edb-4434-9d82-fe796f8d08f1","system_id":"levelo_inurba_marseille","lat":43.28619,"lon":5.35102,"is_reserved":false,"is_disabled":false,"rental_uris":{"android":"levelo://app?vid=913bb55b-2edb-4434-9d82-fe796f8d08f1","ios":"levelo://app?vid=913bb55b-2edb-4434-9d82-fe796f8d08f1"},"vehicle_type_id":"4","last_reported":1741122551,"current_range_meters":10800,"station_id":"ce4bhch2rcd13ifvqeug","pricing_plan_id":"cebpf4jnsgd1na2vs0mg"},{"bike_id":"3f3c1456-9049-45c0-983e-1e780cd7ac03","system_id":"levelo_inurba_marseille","lat":43.28058,"lon":5.39613,"is_reserved":false,"is_disabled":false,"rental_uris":{"android":"levelo://app?vid=3f3c1456-9049-45c0-983e-1e780cd7ac03","ios":"levelo://app?vid=3f3c1456-9049-45c0-983e-1e780cd7ac03"},"vehicle_type_id":"4","last_reported":1741122551,"current_range_meters":10800,"station_id":"ce4bho12rcd13ifvqh2g","pricing_plan_id":"cebpf4jnsgd1na2vs0mg"},{"bike_id":"3eb72fbf-7948-4624-8ffb-a8d97ab7c9e6","system_id":"levelo_inurba_marseille","lat":43.23963,"lon":5.36651,"is_reserved":false,"is_disabled":false,"rental_uris":{"android":"levelo://app?vid=3eb72fbf-7948-4624-8ffb-a8d97ab7c9e6","ios":"levelo://app?vid=3eb72fbf-7948-4624-8ffb-a8d97ab7c9e6"},"vehicle_type_id":"4","last_reported":1741122551,"current_range_meters":10800,"station_id":"ce4bhi12rcd13ifvqfp0","pricing_plan_id":"cebpf4jnsgd1na2vs0mg"},{"bike_id":"ed4c1c10-3fc3-47c0-be84-e8c73611bf7f","system_id":"levelo_inurba_marseille","lat":43.27046,"lon":5.4028,"is_reserved":false,"is_disabled":false,"rental_uris":{"android":"levelo://app?vid=ed4c1c10-3fc3-47c0-be84-e8c73611bf7f","ios":"levelo://app?vid=ed4c1c10-3fc3-47c0-be84-e8c73611bf7f"},"vehicle_type_id":"4","last_reported":1741122551,"current_range_meters":10800,"station_id":"ce4bhk92rcd13ifvqgc0","pricing_plan_id":"cebpf4jnsgd1na2vs0mg"},{"bike_id":"ceb5978b-80bd-4fc9-97eb-9be5a10aa63d","system_id":"levelo_inurba_marseille","lat":43.2856,"lon":5.39492,"is_reserved":false,"is_disabled":false,"rental_uris":{"android":"levelo://app?vid=ceb5978b-80bd-4fc9-97eb-9be5a10aa63d","ios":"levelo://app?vid=ceb5978b-80bd-4fc9-97eb-9be5a10aa63d"},"vehicle_type_id":"4","last_reported":1741122551,"current_range_meters":11200,"station_id":"ce4bh292rcd13ifvqdg0","pricing_plan_id":"cebpf4jnsgd1na2vs0mg"},{"bike_id":"c39e2295-e7a5-4c5b-833a-007e71b3658e","system_id":"levelo_inurba_marseille","lat":43.308032,"lon":5.435273,"is_reserved":false,"is_disabled":false,"rental_uris":{"android":"levelo://app?vid=c39e2295-e7a5-4c5b-833a-007e71b3658e","ios":"levelo://app?vid=c39e2295-e7a5-4c5b-833a-007e71b3658e"},"vehicle_type_id":"4","last_reported":1741122551,"current_range_meters":11200,"station_id":"ce4bhph2rcd13ifvqheg","pricing_plan_id":"cebpf4jnsgd1na2vs0mg"},{"bike_id":"e7957d0f-a31a-4207-826c-0ed3efd2ad40","system_id":"levelo_inurba_marseille","lat":43.29007,"lon":5.35612,"is_reserved":false,"is_disabled":false,"rental_uris":{"android":"levelo://app?vid=e7957d0f-a31a-4207-826c-0ed3efd2ad40","ios":"levelo://app?vid=e7957d0f-a31a-4207-826c-0ed3efd2ad40"},"vehicle_type_id":"4","last_reported":1741122551,"current_range_meters":11200,"station_id":"ce4bhb92rcd13ifvqen0","pricing_plan_id":"cebpf4jnsgd1na2vs0mg"},{"bike_id":"80e8e7ae-53b5-4b6e-bbb9-289a53dff2f7","system_id":"levelo_inurba_marseille","lat":43.27994,"lon":5.40015,"is_reserved":false,"is_disabled":false,"rental_uris":{"android":"levelo://app?vid=80e8e7ae-53b5-4b6e-bbb9-289a53dff2f7","ios":"levelo://app?vid=80e8e7ae-53b5-4b6e-bbb9-289a53dff2f7"},"vehicle_type_id":"4","last_reported":1741122551,"current_range_meters":11200,"station_id":"ce4bho92rcd13ifvqh4g","pricing_plan_id":"cebpf4jnsgd1na2vs0mg"},{"bike_id":"02a51163-5d8f-417d-bd4c-874554181068","system_id":"levelo_inurba_marseille","lat":43.288549,"lon":5.358484,"is_reserved":false,"is_disabled":false,"rental_uris":{"android":"levelo://app?vid=02a51163-5d8f-417d-bd4c-874554181068","ios":"levelo://app?vid=02a51163-5d8f-417d-bd4c-874554181068"},"vehicle_type_id":"4","last_reported":1741122551,"current_range_meters":11200,"station_id":"ce4bhh92rcd13ifvqfj0","pricing_plan_id":"cebpf4jnsgd1na2vs0mg"},{"bike_id":"0596970d-6eb4-4331-8d1d-96c25a649f4a","system_id":"levelo_inurba_marseille","lat":43.286676,"lon":5.363416,"is_reserved":false,"is_disabled":false,"rental_uris":{"android":"levelo://app?vid=0596970d-6eb4-4331-8d1d-96c25a649f4a","ios":"levelo://app?vid=0596970d-6eb4-4331-8d1d-96c25a649f4a"},"vehicle_type_id":"4","last_reported":1741122551,"current_range_meters":11200,"station_id":"ce4bhah2rcd13ifvqej0","pricing_plan_id":"cebpf4jnsgd1na2vs0mg"},{"bike_id":"891d4632-f0a6-4752-943b-f639ac2b49bc","system_id":"levelo_inurba_marseille","lat":43.28003,"lon":5.40015,"is_reserved":false,"is_disabled":false,"rental_uris":{"android":"levelo://app?vid=891d4632-f0a6-4752-943b-f639ac2b49bc","ios":"levelo://app?vid=891d4632-f0a6-4752-943b-f639ac2b49bc"},"vehicle_type_id":"4","last_reported":1741122551,"current_range_meters":11200,"station_id":"ce4bho92rcd13ifvqh4g","pricing_plan_id":"cebpf4jnsgd1na2vs0mg"},{"bike_id":"53f986b5-b4ac-4e4d-bde6-b88e844ffa37","system_id":"levelo_inurba_marseille","lat":43.24079,"lon":5.37771,"is_reserved":false,"is_disabled":false,"rental_uris":{"android":"levelo://app?vid=53f986b5-b4ac-4e4d-bde6-b88e844ffa37","ios":"levelo://app?vid=53f986b5-b4ac-4e4d-bde6-b88e844ffa37"},"vehicle_type_id":"4","last_reported":1741122551,"current_range_meters":11200,"station_id":"ce4bhnp2rcd13ifvqgvg","pricing_plan_id":"cebpf4jnsgd1na2vs0mg"},{"bike_id":"751a62ab-1e4a-40bc-943c-e6bef006076e","system_id":"levelo_inurba_marseille","lat":43.3033,"lon":5.40421,"is_reserved":false,"is_disabled":false,"rental_uris":{"android":"levelo://app?vid=751a62ab-1e4a-40bc-943c-e6bef006076e","ios":"levelo://app?vid=751a62ab-1e4a-40bc-943c-e6bef006076e"},"vehicle_type_id":"4","last_reported":1741122551,"current_range_meters":11200,"station_id":"ce4bh012rcd13ifvqd10","pricing_plan_id":"cebpf4jnsgd1na2vs0mg"},{"bike_id":"ec1930f4-7944-4e1a-8967-bad6e440e5c9","system_id":"levelo_inurba_marseille","lat":43.2467,"lon":5.38171,"is_reserved":false,"is_disabled":false,"rental_uris":{"android":"levelo://app?vid=ec1930f4-7944-4e1a-8967-bad6e440e5c9","ios":"levelo://app?vid=ec1930f4-7944-4e1a-8967-bad6e440e5c9"},"vehicle_type_id":"4","last_reported":1741122551,"current_range_meters":11200,"station_id":"ce4bhih2rcd13ifvqfr0","pricing_plan_id":"cebpf4jnsgd1na2vs0mg"},{"bike_id":"0122c1c3-b417-4093-9107-12ae15086493","system_id":"levelo_inurba_marseille","lat":43.3133,"lon":5.39701,"is_reserved":false,"is_disabled":false,"rental_uris":{"android":"levelo://app?vid=0122c1c3-b417-4093-9107-12ae15086493","ios":"levelo://app?vid=0122c1c3-b417-4093-9107-12ae15086493"},"vehicle_type_id":"4","last_reported":1741122551,"current_range_meters":11600,"station_id":"ce4bgvp2rcd13ifvqcu0","pricing_plan_id":"cebpf4jnsgd1na2vs0mg"},{"bike_id":"d7527d7b-d40c-41ab-aeb5-cac021160e30","system_id":"levelo_inurba_marseille","lat":43.28032,"lon":5.36948,"is_reserved":false,"is_disabled":false,"rental_uris":{"android":"levelo://app?vid=d7527d7b-d40c-41ab-aeb5-cac021160e30","ios":"levelo://app?vid=d7527d7b-d40c-41ab-aeb5-cac021160e30"},"vehicle_type_id":"4","last_reported":1741122551,"current_range_meters":11600,"station_id":"ce4bha12rcd13ifvqef0","pricing_plan_id":"cebpf4jnsgd1na2vs0mg"},{"bike_id":"51f6f578-8898-487a-9da7-ff3d6d379d1b","system_id":"levelo_inurba_marseille","lat":43.32098,"lon":5.36768,"is_reserved":false,"is_disabled":false,"rental_uris":{"android":"levelo://app?vid=51f6f578-8898-487a-9da7-ff3d6d379d1b","ios":"levelo://app?vid=51f6f578-8898-487a-9da7-ff3d6d379d1b"},"vehicle_type_id":"4","last_reported":1741122551,"current_range_meters":11600,"station_id":"ce4bhrh2rcd13ifvqhug","pricing_plan_id":"cebpf4jnsgd1na2vs0mg"},{"bike_id":"4c0e314a-87e2-48f0-a7b0-ec6605046de8","system_id":"levelo_inurba_marseille","lat":43.32116,"lon":5.36785,"is_reserved":false,"is_disabled":false,"rental_uris":{"android":"levelo://app?vid=4c0e314a-87e2-48f0-a7b0-ec6605046de8","ios":"levelo://app?vid=4c0e314a-87e2-48f0-a7b0-ec6605046de8"},"vehicle_type_id":"4","last_reported":1741122551,"current_range_meters":11600,"station_id":"ce4bhrh2rcd13ifvqhug","pricing_plan_id":"cebpf4jnsgd1na2vs0mg"},{"bike_id":"b84d05cc-d77a-4bbc-8ae9-c939fdac8f3b","system_id":"levelo_inurba_marseille","lat":43.28936,"lon":5.36633,"is_reserved":false,"is_disabled":false,"rental_uris":{"android":"levelo://app?vid=b84d05cc-d77a-4bbc-8ae9-c939fdac8f3b","ios":"levelo://app?vid=b84d05cc-d77a-4bbc-8ae9-c939fdac8f3b"},"vehicle_type_id":"4","last_reported":1741122551,"current_range_meters":12000,"station_id":"ce4bhap2rcd13ifvqek0","pricing_plan_id":"cebpf4jnsgd1na2vs0mg"},{"bike_id":"66d9fe15-52e4-4838-8bd9-44dfb30f83a0","system_id":"levelo_inurba_marseille","lat":43.28416,"lon":5.3751,"is_reserved":false,"is_disabled":false,"rental_uris":{"android":"levelo://app?vid=66d9fe15-52e4-4838-8bd9-44dfb30f83a0","ios":"levelo://app?vid=66d9fe15-52e4-4838-8bd9-44dfb30f83a0"},"vehicle_type_id":"4","last_reported":1741122551,"current_range_meters":12000,"station_id":"ce4bh412rcd13ifvqds0","pricing_plan_id":"cebpf4jnsgd1na2vs0mg"},{"bike_id":"ecc67670-f015-4159-b502-e41b4d94ff40","system_id":"levelo_inurba_marseille","lat":43.3088,"lon":5.39661,"is_reserved":false,"is_disabled":false,"rental_uris":{"android":"levelo://app?vid=ecc67670-f015-4159-b502-e41b4d94ff40","ios":"levelo://app?vid=ecc67670-f015-4159-b502-e41b4d94ff40"},"vehicle_type_id":"4","last_reported":1741122551,"current_range_meters":12000,"station_id":"ce4bh012rcd13ifvqcv0","pricing_plan_id":"cebpf4jnsgd1na2vs0mg"},{"bike_id":"6ea8ab5c-65c2-4db6-8cb6-dfdbe5b30189","system_id":"levelo_inurba_marseille","lat":43.3236,"lon":5.38891,"is_reserved":false,"is_disabled":false,"rental_uris":{"android":"levelo://app?vid=6ea8ab5c-65c2-4db6-8cb6-dfdbe5b30189","ios":"levelo://app?vid=6ea8ab5c-65c2-4db6-8cb6-dfdbe5b30189"},"vehicle_type_id":"4","last_reported":1741122551,"current_range_meters":12000,"station_id":"ce4bhqp2rcd13ifvqhog","pricing_plan_id":"cebpf4jnsgd1na2vs0mg"},{"bike_id":"feade93c-2b8a-432f-a399-54c9bbb34191","system_id":"levelo_inurba_marseille","lat":43.26059,"lon":5.39396,"is_reserved":false,"is_disabled":false,"rental_uris":{"android":"levelo://app?vid=feade93c-2b8a-432f-a399-54c9bbb34191","ios":"levelo://app?vid=feade93c-2b8a-432f-a399-54c9bbb34191"},"vehicle_type_id":"4","last_reported":1741122551,"current_range_meters":12000,"station_id":"ce4bhh92rcd13ifvqfj0","pricing_plan_id":"cebpf4jnsgd1na2vs0mg"},{"bike_id":"0ab62a13-61d4-442e-b065-01c191abaaaa","system_id":"levelo_inurba_marseille","lat":43.30247,"lon":5.40062,"is_reserved":false,"is_disabled":false,"rental_uris":{"android":"levelo://app?vid=0ab62a13-61d4-442e-b065-01c191abaaaa","ios":"levelo://app?vid=0ab62a13-61d4-442e-b065-01c191abaaaa"},"vehicle_type_id":"4","last_reported":1741122551,"current_range_meters":11200,"station_id":"ce4bgvh2rcd13ifvqcs0","pricing_plan_id":"cebpf4jnsgd1na2vs0mg"},{"bike_id":"391744a2-abab-4ab2-a32e-38c6ddee882a","system_id":"levelo_inurba_marseille","lat":43.29972,"lon":5.38483,"is_reserved":false,"is_disabled":true,"rental_uris":{"android":"levelo://app?vid=391744a2-abab-4ab2-a32e-38c6ddee882a","ios":"levelo://app?vid=391744a2-abab-4ab2-a32e-38c6ddee882a"},"vehicle_type_id":"4","last_reported":1741122551,"current_range_meters":12400,"station_id":"ce4bgj92rcd13ifvqbd0","pricing_plan_id":"cebpf4jnsgd1na2vs0mg"},{"bike_id":"fa00760a-3a61-4c7a-8148-e9ea0f8a5891","system_id":"levelo_inurba_marseille","lat":43.2439,"lon":5.37061,"is_reserved":false,"is_disabled":false,"rental_uris":{"android":"levelo://app?vid=fa00760a-3a61-4c7a-8148-e9ea0f8a5891","ios":"levelo://app?vid=fa00760a-3a61-4c7a-8148-e9ea0f8a5891"},"vehicle_type_id":"4","last_reported":1741122551,"current_range_meters":12000,"station_id":"ce4bhhh2rcd13ifvqfk0","pricing_plan_id":"cebpf4jnsgd1na2vs0mg"},{"bike_id":"4167f6bd-40b7-45c1-950d-68f467926bd6","system_id":"levelo_inurba_marseille","lat":43.28985,"lon":5.37849,"is_reserved":false,"is_disabled":true,"rental_uris":{"android":"levelo://app?vid=4167f6bd-40b7-45c1-950d-68f467926bd6","ios":"levelo://app?vid=4167f6bd-40b7-45c1-950d-68f467926bd6"},"vehicle_type_id":"4","last_reported":1741122551,"current_range_meters":12400,"station_id":"ce4bh9p2rcd13ifvqed0","pricing_plan_id":"cebpf4jnsgd1na2vs0mg"},{"bike_id":"6061c82f-63ed-42ba-870f-42df5f1a263a","system_id":"levelo_inurba_marseille","lat":43.28838,"lon":5.35867,"is_reserved":false,"is_disabled":false,"rental_uris":{"android":"levelo://app?vid=6061c82f-63ed-42ba-870f-42df5f1a263a","ios":"levelo://app?vid=6061c82f-63ed-42ba-870f-42df5f1a263a"},"vehicle_type_id":"4","last_reported":1741122551,"current_range_meters":12400,"station_id":"ce4bhb12rcd13ifvqem0","pricing_plan_id":"cebpf4jnsgd1na2vs0mg"},{"bike_id":"a47a13a9-c176-4f2b-bca1-9dd7e5a64881","system_id":"levelo_inurba_marseille","lat":43.30927,"lon":5.40154,"is_reserved":false,"is_disabled":true,"rental_uris":{"android":"levelo://app?vid=a47a13a9-c176-4f2b-bca1-9dd7e5a64881","ios":"levelo://app?vid=a47a13a9-c176-4f2b-bca1-9dd7e5a64881"},"vehicle_type_id":"4","last_reported":1741122551,"current_range_meters":12400,"station_id":"ce4bgvp2rcd13ifvqct0","pricing_plan_id":"cebpf4jnsgd1na2vs0mg"},{"bike_id":"f8b34b05-3ce8-4023-b46a-493d367bd4f6","system_id":"levelo_inurba_marseille","lat":43.27186,"lon":5.40993,"is_reserved":false,"is_disabled":false,"rental_uris":{"android":"levelo://app?vid=f8b34b05-3ce8-4023-b46a-493d367bd4f6","ios":"levelo://app?vid=f8b34b05-3ce8-4023-b46a-493d367bd4f6"},"vehicle_type_id":"4","last_reported":1741122551,"current_range_meters":12400,"station_id":"ce4bhl12rcd13ifvqgf0","pricing_plan_id":"cebpf4jnsgd1na2vs0mg"},{"bike_id":"0eb9fef3-83c8-47c8-ad9e-cfe2998c47d1","system_id":"levelo_inurba_marseille","lat":43.31044,"lon":5.3755,"is_reserved":false,"is_disabled":false,"rental_uris":{"android":"levelo://app?vid=0eb9fef3-83c8-47c8-ad9e-cfe2998c47d1","ios":"levelo://app?vid=0eb9fef3-83c8-47c8-ad9e-cfe2998c47d1"},"vehicle_type_id":"4","last_reported":1741122551,"current_range_meters":12800,"station_id":"","pricing_plan_id":"cebpf4jnsgd1na2vs0mg"},{"bike_id":"c27d1c0e-c626-46ed-8da3-378ad0dc0b0a","system_id":"levelo_inurba_marseille","lat":43.30314,"lon":5.36888,"is_reserved":false,"is_disabled":false,"rental_uris":{"android":"levelo://app?vid=c27d1c0e-c626-46ed-8da3-378ad0dc0b0a","ios":"levelo://app?vid=c27d1c0e-c626-46ed-8da3-378ad0dc0b0a"},"vehicle_type_id":"4","last_reported":1741122551,"current_range_meters":12800,"station_id":"ce4bgqh2rcd13ifvqc5g","pricing_plan_id":"cebpf4jnsgd1na2vs0mg"},{"bike_id":"c19d2d03-17b5-4949-b7dc-22a7fd555156","system_id":"levelo_inurba_marseille","lat":43.30049,"lon":5.39955,"is_reserved":false,"is_disabled":false,"rental_uris":{"android":"levelo://app?vid=c19d2d03-17b5-4949-b7dc-22a7fd555156","ios":"levelo://app?vid=c19d2d03-17b5-4949-b7dc-22a7fd555156"},"vehicle_type_id":"4","last_reported":1741122551,"current_range_meters":12800,"station_id":"","pricing_plan_id":"cebpf4jnsgd1na2vs0mg"},{"bike_id":"6d43b52d-edb7-44c3-8ec8-85fd8093a142","system_id":"levelo_inurba_marseille","lat":43.28096,"lon":5.37826,"is_reserved":false,"is_disabled":false,"rental_uris":{"android":"levelo://app?vid=6d43b52d-edb7-44c3-8ec8-85fd8093a142","ios":"levelo://app?vid=6d43b52d-edb7-44c3-8ec8-85fd8093a142"},"vehicle_type_id":"4","last_reported":1741122551,"current_range_meters":12800,"station_id":"ce4bha12rcd13ifvqee0","pricing_plan_id":"cebpf4jnsgd1na2vs0mg"},{"bike_id":"62abbf65-fdb4-4039-8d17-a6787ca98437","system_id":"levelo_inurba_marseille","lat":43.26511,"lon":5.39559,"is_reserved":false,"is_disabled":true,"rental_uris":{"android":"levelo://app?vid=62abbf65-fdb4-4039-8d17-a6787ca98437","ios":"levelo://app?vid=62abbf65-fdb4-4039-8d17-a6787ca98437"},"vehicle_type_id":"4","last_reported":1741122551,"current_range_meters":12800,"station_id":"ce4bhi12rcd13ifvqfq0","pricing_plan_id":"cebpf4jnsgd1na2vs0mg"},{"bike_id":"f82ced27-8e79-4389-b0a0-c023d547ec4d","system_id":"levelo_inurba_marseille","lat":43.24992,"lon":5.3893,"is_reserved":false,"is_disabled":false,"rental_uris":{"android":"levelo://app?vid=f82ced27-8e79-4389-b0a0-c023d547ec4d","ios":"levelo://app?vid=f82ced27-8e79-4389-b0a0-c023d547ec4d"},"vehicle_type_id":"4","last_reported":1741122551,"current_range_meters":12400,"station_id":"ce4bhgp2rcd13ifvqfd0","pricing_plan_id":"cebpf4jnsgd1na2vs0mg"},{"bike_id":"d571166c-77a4-4a91-b051-9cc34ad31336","system_id":"levelo_inurba_marseille","lat":43.30192,"lon":5.39341,"is_reserved":false,"is_disabled":false,"rental_uris":{"android":"levelo://app?vid=d571166c-77a4-4a91-b051-9cc34ad31336","ios":"levelo://app?vid=d571166c-77a4-4a91-b051-9cc34ad31336"},"vehicle_type_id":"4","last_reported":1741122551,"current_range_meters":12800,"station_id":"","pricing_plan_id":"cebpf4jnsgd1na2vs0mg"},{"bike_id":"dccd09ed-dee2-423f-97df-2e14820ac772","system_id":"levelo_inurba_marseille","lat":43.306,"lon":5.37228,"is_reserved":false,"is_disabled":false,"rental_uris":{"android":"levelo://app?vid=dccd09ed-dee2-423f-97df-2e14820ac772","ios":"levelo://app?vid=dccd09ed-dee2-423f-97df-2e14820ac772"},"vehicle_type_id":"4","last_reported":1741122551,"current_range_meters":11600,"station_id":"ce4bgqh2rcd13ifvqc4g","pricing_plan_id":"cebpf4jnsgd1na2vs0mg"},{"bike_id":"e948d0d2-9d60-4e0f-8f45-dc40fd7ec45c","system_id":"levelo_inurba_marseille","lat":43.27999,"lon":5.40008,"is_reserved":false,"is_disabled":false,"rental_uris":{"android":"levelo://app?vid=e948d0d2-9d60-4e0f-8f45-dc40fd7ec45c","ios":"levelo://app?vid=e948d0d2-9d60-4e0f-8f45-dc40fd7ec45c"},"vehicle_type_id":"4","last_reported":1741122551,"current_range_meters":12800,"station_id":"ce4bho92rcd13ifvqh4g","pricing_plan_id":"cebpf4jnsgd1na2vs0mg"},{"bike_id":"65454335-2b8f-41a7-9a83-ad755de99323","system_id":"levelo_inurba_marseille","lat":43.24807,"lon":5.3746,"is_reserved":false,"is_disabled":false,"rental_uris":{"android":"levelo://app?vid=65454335-2b8f-41a7-9a83-ad755de99323","ios":"levelo://app?vid=65454335-2b8f-41a7-9a83-ad755de99323"},"vehicle_type_id":"4","last_reported":1741122551,"current_range_meters":12800,"station_id":"ce4bhgh2rcd13ifvqfb0","pricing_plan_id":"cebpf4jnsgd1na2vs0mg"},{"bike_id":"b40a6ded-869c-470f-8de8-3722bbab9ffe","system_id":"levelo_inurba_marseille","lat":43.301347,"lon":5.387796,"is_reserved":false,"is_disabled":false,"rental_uris":{"android":"levelo://app?vid=b40a6ded-869c-470f-8de8-3722bbab9ffe","ios":"levelo://app?vid=b40a6ded-869c-470f-8de8-3722bbab9ffe"},"vehicle_type_id":"4","last_reported":1741122551,"current_range_meters":14000,"station_id":"ce4bghh2rcd13ifvqb60","pricing_plan_id":"cebpf4jnsgd1na2vs0mg"},{"bike_id":"7cd5e07c-ad2a-4af8-99d9-77c41335ce79","system_id":"levelo_inurba_marseille","lat":43.2417,"lon":5.36406,"is_reserved":false,"is_disabled":false,"rental_uris":{"android":"levelo://app?vid=7cd5e07c-ad2a-4af8-99d9-77c41335ce79","ios":"levelo://app?vid=7cd5e07c-ad2a-4af8-99d9-77c41335ce79"},"vehicle_type_id":"4","last_reported":1741122551,"current_range_meters":13600,"station_id":"cpo36qri1sfpv3e86is0","pricing_plan_id":"cebpf4jnsgd1na2vs0mg"},{"bike_id":"8441514c-4110-42af-a6dc-85606173b4cc","system_id":"levelo_inurba_marseille","lat":43.24663,"lon":5.38162,"is_reserved":false,"is_disabled":false,"rental_uris":{"android":"levelo://app?vid=8441514c-4110-42af-a6dc-85606173b4cc","ios":"levelo://app?vid=8441514c-4110-42af-a6dc-85606173b4cc"},"vehicle_type_id":"4","last_reported":1741122551,"current_range_meters":13600,"station_id":"ce4bhih2rcd13ifvqfr0","pricing_plan_id":"cebpf4jnsgd1na2vs0mg"},{"bike_id":"3e606d5f-ea0c-41c8-b2c9-6b22a464b627","system_id":"levelo_inurba_marseille","lat":43.28001,"lon":5.40009,"is_reserved":false,"is_disabled":false,"rental_uris":{"android":"levelo://app?vid=3e606d5f-ea0c-41c8-b2c9-6b22a464b627","ios":"levelo://app?vid=3e606d5f-ea0c-41c8-b2c9-6b22a464b627"},"vehicle_type_id":"4","last_reported":1741122551,"current_range_meters":13600,"station_id":"ce4bho92rcd13ifvqh4g","pricing_plan_id":"cebpf4jnsgd1na2vs0mg"},{"bike_id":"c55557ad-1ed5-4997-aee7-ac92107f14b6","system_id":"levelo_inurba_marseille","lat":43.26449,"lon":5.37498,"is_reserved":false,"is_disabled":false,"rental_uris":{"android":"levelo://app?vid=c55557ad-1ed5-4997-aee7-ac92107f14b6","ios":"levelo://app?vid=c55557ad-1ed5-4997-aee7-ac92107f14b6"},"vehicle_type_id":"4","last_reported":1741122551,"current_range_meters":14000,"station_id":"","pricing_plan_id":"cebpf4jnsgd1na2vs0mg"},{"bike_id":"402b8a2d-7e40-44a7-9272-72ff7630ae6e","system_id":"levelo_inurba_marseille","lat":43.27985,"lon":5.41665,"is_reserved":false,"is_disabled":false,"rental_uris":{"android":"levelo://app?vid=402b8a2d-7e40-44a7-9272-72ff7630ae6e","ios":"levelo://app?vid=402b8a2d-7e40-44a7-9272-72ff7630ae6e"},"vehicle_type_id":"4","last_reported":1741122551,"current_range_meters":13600,"station_id":"ce4bho12rcd13ifvqh1g","pricing_plan_id":"cebpf4jnsgd1na2vs0mg"},{"bike_id":"9664280c-ec19-44a4-9913-206ac50d66b9","system_id":"levelo_inurba_marseille","lat":43.26226,"lon":5.40452,"is_reserved":false,"is_disabled":false,"rental_uris":{"android":"levelo://app?vid=9664280c-ec19-44a4-9913-206ac50d66b9","ios":"levelo://app?vid=9664280c-ec19-44a4-9913-206ac50d66b9"},"vehicle_type_id":"4","last_reported":1741122551,"current_range_meters":14000,"station_id":"ce4bhmh2rcd13ifvqgmg","pricing_plan_id":"cebpf4jnsgd1na2vs0mg"},{"bike_id":"28096b7f-96ae-4ea2-8ceb-2396385a6306","system_id":"levelo_inurba_marseille","lat":43.24645,"lon":5.38895,"is_reserved":false,"is_disabled":true,"rental_uris":{"android":"levelo://app?vid=28096b7f-96ae-4ea2-8ceb-2396385a6306","ios":"levelo://app?vid=28096b7f-96ae-4ea2-8ceb-2396385a6306"},"vehicle_type_id":"4","last_reported":1741122551,"current_range_meters":14000,"station_id":"ce4bhg12rcd13ifvqf60","pricing_plan_id":"cebpf4jnsgd1na2vs0mg"},{"bike_id":"6929c11c-b9fc-4ee3-9d53-d7028b4dbf8d","system_id":"levelo_inurba_marseille","lat":43.29552,"lon":5.42277,"is_reserved":false,"is_disabled":false,"rental_uris":{"android":"levelo://app?vid=6929c11c-b9fc-4ee3-9d53-d7028b4dbf8d","ios":"levelo://app?vid=6929c11c-b9fc-4ee3-9d53-d7028b4dbf8d"},"vehicle_type_id":"4","last_reported":1741122551,"current_range_meters":14000,"station_id":"ce4bhph2rcd13ifvqhdg","pricing_plan_id":"cebpf4jnsgd1na2vs0mg"},{"bike_id":"2456e801-a91a-462b-b8b0-f1d3a84e6dee","system_id":"levelo_inurba_marseille","lat":43.28706,"lon":5.40005,"is_reserved":false,"is_disabled":false,"rental_uris":{"android":"levelo://app?vid=2456e801-a91a-462b-b8b0-f1d3a84e6dee","ios":"levelo://app?vid=2456e801-a91a-462b-b8b0-f1d3a84e6dee"},"vehicle_type_id":"4","last_reported":1741122551,"current_range_meters":14000,"station_id":"ce4bho92rcd13ifvqh3g","pricing_plan_id":"cebpf4jnsgd1na2vs0mg"},{"bike_id":"0e29acd6-00fd-4cf4-8232-d5715cfd0a6d","system_id":"levelo_inurba_marseille","lat":43.25823,"lon":5.39434,"is_reserved":false,"is_disabled":false,"rental_uris":{"android":"levelo://app?vid=0e29acd6-00fd-4cf4-8232-d5715cfd0a6d","ios":"levelo://app?vid=0e29acd6-00fd-4cf4-8232-d5715cfd0a6d"},"vehicle_type_id":"4","last_reported":1741122551,"current_range_meters":14000,"station_id":"ce4bhip2rcd13ifvqft0","pricing_plan_id":"cebpf4jnsgd1na2vs0mg"},{"bike_id":"03d5bd23-db2c-4a3d-9573-a1403447f741","system_id":"levelo_inurba_marseille","lat":43.27806,"lon":5.40722,"is_reserved":false,"is_disabled":false,"rental_uris":{"android":"levelo://app?vid=03d5bd23-db2c-4a3d-9573-a1403447f741","ios":"levelo://app?vid=03d5bd23-db2c-4a3d-9573-a1403447f741"},"vehicle_type_id":"4","last_reported":1741122551,"current_range_meters":14000,"station_id":"ce4bhnh2rcd13ifvqgtg","pricing_plan_id":"cebpf4jnsgd1na2vs0mg"},{"bike_id":"15d8cf60-e2c6-4878-b1df-683348cc043e","system_id":"levelo_inurba_marseille","lat":43.24812,"lon":5.37458,"is_reserved":false,"is_disabled":false,"rental_uris":{"android":"levelo://app?vid=15d8cf60-e2c6-4878-b1df-683348cc043e","ios":"levelo://app?vid=15d8cf60-e2c6-4878-b1df-683348cc043e"},"vehicle_type_id":"4","last_reported":1741122551,"current_range_meters":14000,"station_id":"ce4bhgh2rcd13ifvqfb0","pricing_plan_id":"cebpf4jnsgd1na2vs0mg"},{"bike_id":"1d3c954b-23d1-4e67-ba13-22809127597c","system_id":"levelo_inurba_marseille","lat":43.290366,"lon":5.386306,"is_reserved":false,"is_disabled":false,"rental_uris":{"android":"levelo://app?vid=1d3c954b-23d1-4e67-ba13-22809127597c","ios":"levelo://app?vid=1d3c954b-23d1-4e67-ba13-22809127597c"},"vehicle_type_id":"4","last_reported":1741122551,"current_range_meters":12400,"station_id":"ce4bh4p2rcd13ifvqe0g","pricing_plan_id":"cebpf4jnsgd1na2vs0mg"},{"bike_id":"e126cf9b-9912-4c39-ab86-baa13346af6b","system_id":"levelo_inurba_marseille","lat":43.30871,"lon":5.39641,"is_reserved":false,"is_disabled":false,"rental_uris":{"android":"levelo://app?vid=e126cf9b-9912-4c39-ab86-baa13346af6b","ios":"levelo://app?vid=e126cf9b-9912-4c39-ab86-baa13346af6b"},"vehicle_type_id":"4","last_reported":1741122551,"current_range_meters":14000,"station_id":"ce4bh012rcd13ifvqcv0","pricing_plan_id":"cebpf4jnsgd1na2vs0mg"},{"bike_id":"5bec1b6f-2cbf-47ff-a1c7-9594824bfe74","system_id":"levelo_inurba_marseille","lat":43.28841,"lon":5.35875,"is_reserved":false,"is_disabled":false,"rental_uris":{"android":"levelo://app?vid=5bec1b6f-2cbf-47ff-a1c7-9594824bfe74","ios":"levelo://app?vid=5bec1b6f-2cbf-47ff-a1c7-9594824bfe74"},"vehicle_type_id":"4","last_reported":1741122551,"current_range_meters":14000,"station_id":"ce4bhb12rcd13ifvqem0","pricing_plan_id":"cebpf4jnsgd1na2vs0mg"},{"bike_id":"59265087-e393-4063-9d20-fa507a2a898c","system_id":"levelo_inurba_marseille","lat":43.27818,"lon":5.40703,"is_reserved":false,"is_disabled":false,"rental_uris":{"android":"levelo://app?vid=59265087-e393-4063-9d20-fa507a2a898c","ios":"levelo://app?vid=59265087-e393-4063-9d20-fa507a2a898c"},"vehicle_type_id":"4","last_reported":1741122551,"current_range_meters":14400,"station_id":"ce4bhnh2rcd13ifvqgtg","pricing_plan_id":"cebpf4jnsgd1na2vs0mg"},{"bike_id":"e1cdc4f0-509b-415c-9592-9c6eaf597898","system_id":"levelo_inurba_marseille","lat":43.27817,"lon":5.40733,"is_reserved":false,"is_disabled":false,"rental_uris":{"android":"levelo://app?vid=e1cdc4f0-509b-415c-9592-9c6eaf597898","ios":"levelo://app?vid=e1cdc4f0-509b-415c-9592-9c6eaf597898"},"vehicle_type_id":"4","last_reported":1741122551,"current_range_meters":14400,"station_id":"ce4bhnh2rcd13ifvqgtg","pricing_plan_id":"cebpf4jnsgd1na2vs0mg"},{"bike_id":"c8cde401-392f-4424-ab6f-9347e43fda2c","system_id":"levelo_inurba_marseille","lat":43.31171,"lon":5.38704,"is_reserved":false,"is_disabled":false,"rental_uris":{"android":"levelo://app?vid=c8cde401-392f-4424-ab6f-9347e43fda2c","ios":"levelo://app?vid=c8cde401-392f-4424-ab6f-9347e43fda2c"},"vehicle_type_id":"4","last_reported":1741122551,"current_range_meters":14000,"station_id":"ce4bgv12rcd13ifvqcp0","pricing_plan_id":"cebpf4jnsgd1na2vs0mg"},{"bike_id":"092e6bfd-e0c3-4db4-a853-cc3c00d77276","system_id":"levelo_inurba_marseille","lat":43.26512,"lon":5.39084,"is_reserved":false,"is_disabled":false,"rental_uris":{"android":"levelo://app?vid=092e6bfd-e0c3-4db4-a853-cc3c00d77276","ios":"levelo://app?vid=092e6bfd-e0c3-4db4-a853-cc3c00d77276"},"vehicle_type_id":"4","last_reported":1741122551,"current_range_meters":14800,"station_id":"ce4bhh92rcd13ifvqfj0","pricing_plan_id":"cebpf4jnsgd1na2vs0mg"},{"bike_id":"185159e2-fef0-45ed-88fa-3809164a844a","system_id":"levelo_inurba_marseille","lat":43.24828,"lon":5.3746,"is_reserved":false,"is_disabled":false,"rental_uris":{"android":"levelo://app?vid=185159e2-fef0-45ed-88fa-3809164a844a","ios":"levelo://app?vid=185159e2-fef0-45ed-88fa-3809164a844a"},"vehicle_type_id":"4","last_reported":1741122551,"current_range_meters":14800,"station_id":"ce4bhgh2rcd13ifvqfb0","pricing_plan_id":"cebpf4jnsgd1na2vs0mg"},{"bike_id":"72a592d7-0f42-4cd6-846f-1db5fc3d2c3e","system_id":"levelo_inurba_marseille","lat":43.30252,"lon":5.40068,"is_reserved":false,"is_disabled":false,"rental_uris":{"android":"levelo://app?vid=72a592d7-0f42-4cd6-846f-1db5fc3d2c3e","ios":"levelo://app?vid=72a592d7-0f42-4cd6-846f-1db5fc3d2c3e"},"vehicle_type_id":"4","last_reported":1741122551,"current_range_meters":16000,"station_id":"ce4bgkh2rcd13ifvqbl0","pricing_plan_id":"cebpf4jnsgd1na2vs0mg"},{"bike_id":"5c0d7678-af0d-4c07-ba6d-73e21c2b49b7","system_id":"levelo_inurba_marseille","lat":43.28559,"lon":5.395,"is_reserved":false,"is_disabled":false,"rental_uris":{"android":"levelo://app?vid=5c0d7678-af0d-4c07-ba6d-73e21c2b49b7","ios":"levelo://app?vid=5c0d7678-af0d-4c07-ba6d-73e21c2b49b7"},"vehicle_type_id":"4","last_reported":1741122551,"current_range_meters":14800,"station_id":"ce4bh292rcd13ifvqdg0","pricing_plan_id":"cebpf4jnsgd1na2vs0mg"},{"bike_id":"892cd4cc-09bf-4c71-bb11-9df83de773e0","system_id":"levelo_inurba_marseille","lat":43.31327,"lon":5.39685,"is_reserved":false,"is_disabled":false,"rental_uris":{"android":"levelo://app?vid=892cd4cc-09bf-4c71-bb11-9df83de773e0","ios":"levelo://app?vid=892cd4cc-09bf-4c71-bb11-9df83de773e0"},"vehicle_type_id":"4","last_reported":1741122551,"current_range_meters":14800,"station_id":"ce4bgvp2rcd13ifvqcu0","pricing_plan_id":"cebpf4jnsgd1na2vs0mg"},{"bike_id":"16dc710b-709c-4399-ad1f-8536c910d58f","system_id":"levelo_inurba_marseille","lat":43.30305,"lon":5.39201,"is_reserved":false,"is_disabled":false,"rental_uris":{"android":"levelo://app?vid=16dc710b-709c-4399-ad1f-8536c910d58f","ios":"levelo://app?vid=16dc710b-709c-4399-ad1f-8536c910d58f"},"vehicle_type_id":"4","last_reported":1741122551,"current_range_meters":15200,"station_id":"ce4bgkh2rcd13ifvqbk0","pricing_plan_id":"cebpf4jnsgd1na2vs0mg"},{"bike_id":"ad84434d-20fb-4dcc-8def-077a9f6fa45b","system_id":"levelo_inurba_marseille","lat":43.284061,"lon":5.375022,"is_reserved":false,"is_disabled":false,"rental_uris":{"android":"levelo://app?vid=ad84434d-20fb-4dcc-8def-077a9f6fa45b","ios":"levelo://app?vid=ad84434d-20fb-4dcc-8def-077a9f6fa45b"},"vehicle_type_id":"4","last_reported":1741122551,"current_range_meters":15200,"station_id":"","pricing_plan_id":"cebpf4jnsgd1na2vs0mg"},{"bike_id":"cd6daa3a-07f9-42ed-90a2-4f41a2e8d311","system_id":"levelo_inurba_marseille","lat":43.30207,"lon":5.39483,"is_reserved":false,"is_disabled":false,"rental_uris":{"android":"levelo://app?vid=cd6daa3a-07f9-42ed-90a2-4f41a2e8d311","ios":"levelo://app?vid=cd6daa3a-07f9-42ed-90a2-4f41a2e8d311"},"vehicle_type_id":"4","last_reported":1741122551,"current_range_meters":15200,"station_id":"ce4bh0p2rcd13ifvqd70","pricing_plan_id":"cebpf4jnsgd1na2vs0mg"},{"bike_id":"3c0c83c5-ab80-4377-a80d-6db8ea5c21e9","system_id":"levelo_inurba_marseille","lat":43.308563,"lon":5.396624,"is_reserved":false,"is_disabled":false,"rental_uris":{"android":"levelo://app?vid=3c0c83c5-ab80-4377-a80d-6db8ea5c21e9","ios":"levelo://app?vid=3c0c83c5-ab80-4377-a80d-6db8ea5c21e9"},"vehicle_type_id":"4","last_reported":1741122551,"current_range_meters":15200,"station_id":"ce4bh012rcd13ifvqcv0","pricing_plan_id":"cebpf4jnsgd1na2vs0mg"},{"bike_id":"95af3f61-11f3-48c0-a765-258073df16be","system_id":"levelo_inurba_marseille","lat":43.24802,"lon":5.37448,"is_reserved":false,"is_disabled":false,"rental_uris":{"android":"levelo://app?vid=95af3f61-11f3-48c0-a765-258073df16be","ios":"levelo://app?vid=95af3f61-11f3-48c0-a765-258073df16be"},"vehicle_type_id":"4","last_reported":1741122551,"current_range_meters":15200,"station_id":"ce4bhgh2rcd13ifvqfb0","pricing_plan_id":"cebpf4jnsgd1na2vs0mg"},{"bike_id":"4e099002-469e-40dd-a988-90ba29d19792","system_id":"levelo_inurba_marseille","lat":43.24558,"lon":5.39548,"is_reserved":false,"is_disabled":false,"rental_uris":{"android":"levelo://app?vid=4e099002-469e-40dd-a988-90ba29d19792","ios":"levelo://app?vid=4e099002-469e-40dd-a988-90ba29d19792"},"vehicle_type_id":"4","last_reported":1741122551,"current_range_meters":15200,"station_id":"ce4bhlp2rcd13ifvqgjg","pricing_plan_id":"cebpf4jnsgd1na2vs0mg"},{"bike_id":"2227c538-770c-479b-ada4-e4d08befc53c","system_id":"levelo_inurba_marseille","lat":43.27614,"lon":5.36104,"is_reserved":false,"is_disabled":false,"rental_uris":{"android":"levelo://app?vid=2227c538-770c-479b-ada4-e4d08befc53c","ios":"levelo://app?vid=2227c538-770c-479b-ada4-e4d08befc53c"},"vehicle_type_id":"4","last_reported":1741122551,"current_range_meters":15200,"station_id":"ce4bgj92rcd13ifvqbe0","pricing_plan_id":"cebpf4jnsgd1na2vs0mg"},{"bike_id":"b1d883b0-0d9d-4a9f-aa16-523f564c3fb3","system_id":"levelo_inurba_marseille","lat":43.29609,"lon":5.38101,"is_reserved":false,"is_disabled":false,"rental_uris":{"android":"levelo://app?vid=b1d883b0-0d9d-4a9f-aa16-523f564c3fb3","ios":"levelo://app?vid=b1d883b0-0d9d-4a9f-aa16-523f564c3fb3"},"vehicle_type_id":"4","last_reported":1741122551,"current_range_meters":15200,"station_id":"ce4bgl12rcd13ifvqbo0","pricing_plan_id":"cebpf4jnsgd1na2vs0mg"},{"bike_id":"4c318e6f-45ad-4827-bf6b-ffb0059697a8","system_id":"levelo_inurba_marseille","lat":43.32291,"lon":5.40627,"is_reserved":false,"is_disabled":false,"rental_uris":{"android":"levelo://app?vid=4c318e6f-45ad-4827-bf6b-ffb0059697a8","ios":"levelo://app?vid=4c318e6f-45ad-4827-bf6b-ffb0059697a8"},"vehicle_type_id":"4","last_reported":1741122551,"current_range_meters":15200,"station_id":"","pricing_plan_id":"cebpf4jnsgd1na2vs0mg"},{"bike_id":"0887995a-7163-48cf-a17f-e3237da9ea00","system_id":"levelo_inurba_marseille","lat":43.23218,"lon":5.39971,"is_reserved":false,"is_disabled":false,"rental_uris":{"android":"levelo://app?vid=0887995a-7163-48cf-a17f-e3237da9ea00","ios":"levelo://app?vid=0887995a-7163-48cf-a17f-e3237da9ea00"},"vehicle_type_id":"4","last_reported":1741122551,"current_range_meters":15200,"station_id":"","pricing_plan_id":"cebpf4jnsgd1na2vs0mg"},{"bike_id":"a4bdfb6f-4204-49ee-ba23-42c2071e5ef0","system_id":"levelo_inurba_marseille","lat":43.29566,"lon":5.39986,"is_reserved":false,"is_disabled":false,"rental_uris":{"android":"levelo://app?vid=a4bdfb6f-4204-49ee-ba23-42c2071e5ef0","ios":"levelo://app?vid=a4bdfb6f-4204-49ee-ba23-42c2071e5ef0"},"vehicle_type_id":"4","last_reported":1741122551,"current_range_meters":15200,"station_id":"ce4bh312rcd13ifvqdj0","pricing_plan_id":"cebpf4jnsgd1na2vs0mg"},{"bike_id":"322a9756-c329-42ae-9e63-220fa56f0d6b","system_id":"levelo_inurba_marseille","lat":43.298,"lon":5.4041,"is_reserved":false,"is_disabled":false,"rental_uris":{"android":"levelo://app?vid=322a9756-c329-42ae-9e63-220fa56f0d6b","ios":"levelo://app?vid=322a9756-c329-42ae-9e63-220fa56f0d6b"},"vehicle_type_id":"4","last_reported":1741122551,"current_range_meters":15200,"station_id":"ce4bh112rcd13ifvqd90","pricing_plan_id":"cebpf4jnsgd1na2vs0mg"},{"bike_id":"21f40bc2-71f2-4511-82ad-bf1469de6469","system_id":"levelo_inurba_marseille","lat":43.30259,"lon":5.40061,"is_reserved":false,"is_disabled":false,"rental_uris":{"android":"levelo://app?vid=21f40bc2-71f2-4511-82ad-bf1469de6469","ios":"levelo://app?vid=21f40bc2-71f2-4511-82ad-bf1469de6469"},"vehicle_type_id":"4","last_reported":1741122551,"current_range_meters":16000,"station_id":"ce4bgvh2rcd13ifvqcs0","pricing_plan_id":"cebpf4jnsgd1na2vs0mg"},{"bike_id":"79ad4526-135b-4b53-9e21-d3b2fe547392","system_id":"levelo_inurba_marseille","lat":43.30881,"lon":5.3964,"is_reserved":false,"is_disabled":false,"rental_uris":{"android":"levelo://app?vid=79ad4526-135b-4b53-9e21-d3b2fe547392","ios":"levelo://app?vid=79ad4526-135b-4b53-9e21-d3b2fe547392"},"vehicle_type_id":"4","last_reported":1741122551,"current_range_meters":16000,"station_id":"ce4bh012rcd13ifvqcv0","pricing_plan_id":"cebpf4jnsgd1na2vs0mg"},{"bike_id":"ad024729-5b2a-4823-b232-88199eed1cfc","system_id":"levelo_inurba_marseille","lat":43.27985,"lon":5.40015,"is_reserved":false,"is_disabled":false,"rental_uris":{"android":"levelo://app?vid=ad024729-5b2a-4823-b232-88199eed1cfc","ios":"levelo://app?vid=ad024729-5b2a-4823-b232-88199eed1cfc"},"vehicle_type_id":"4","last_reported":1741122551,"current_range_meters":16000,"station_id":"ce4bho92rcd13ifvqh4g","pricing_plan_id":"cebpf4jnsgd1na2vs0mg"},{"bike_id":"162806bb-e50d-497c-bc47-205e7b0aa7b1","system_id":"levelo_inurba_marseille","lat":43.25106,"lon":5.40321,"is_reserved":false,"is_disabled":false,"rental_uris":{"android":"levelo://app?vid=162806bb-e50d-497c-bc47-205e7b0aa7b1","ios":"levelo://app?vid=162806bb-e50d-497c-bc47-205e7b0aa7b1"},"vehicle_type_id":"4","last_reported":1741122551,"current_range_meters":16000,"station_id":"ce4bhlh2rcd13ifvqgig","pricing_plan_id":"cebpf4jnsgd1na2vs0mg"},{"bike_id":"ce89444c-adf8-416c-8dea-aee5022336da","system_id":"levelo_inurba_marseille","lat":43.2869,"lon":5.3739,"is_reserved":false,"is_disabled":false,"rental_uris":{"android":"levelo://app?vid=ce89444c-adf8-416c-8dea-aee5022336da","ios":"levelo://app?vid=ce89444c-adf8-416c-8dea-aee5022336da"},"vehicle_type_id":"4","last_reported":1741122551,"current_range_meters":16000,"station_id":"ce4bh3p2rcd13ifvqdq0","pricing_plan_id":"cebpf4jnsgd1na2vs0mg"},{"bike_id":"45531899-b171-4b11-9743-5e84d77c8538","system_id":"levelo_inurba_marseille","lat":43.27826,"lon":5.40729,"is_reserved":false,"is_disabled":false,"rental_uris":{"android":"levelo://app?vid=45531899-b171-4b11-9743-5e84d77c8538","ios":"levelo://app?vid=45531899-b171-4b11-9743-5e84d77c8538"},"vehicle_type_id":"4","last_reported":1741122551,"current_range_meters":16000,"station_id":"ce4bhnh2rcd13ifvqgtg","pricing_plan_id":"cebpf4jnsgd1na2vs0mg"},{"bike_id":"59dde47a-f49e-477d-b91c-eb1792d32685","system_id":"levelo_inurba_marseille","lat":43.30262,"lon":5.40063,"is_reserved":false,"is_disabled":false,"rental_uris":{"android":"levelo://app?vid=59dde47a-f49e-477d-b91c-eb1792d32685","ios":"levelo://app?vid=59dde47a-f49e-477d-b91c-eb1792d32685"},"vehicle_type_id":"4","last_reported":1741122551,"current_range_meters":16000,"station_id":"ce4bgvh2rcd13ifvqcs0","pricing_plan_id":"cebpf4jnsgd1na2vs0mg"},{"bike_id":"330426bc-0af9-4c3e-8e4c-6ec10833df11","system_id":"levelo_inurba_marseille","lat":43.298991,"lon":5.436692,"is_reserved":false,"is_disabled":false,"rental_uris":{"android":"levelo://app?vid=330426bc-0af9-4c3e-8e4c-6ec10833df11","ios":"levelo://app?vid=330426bc-0af9-4c3e-8e4c-6ec10833df11"},"vehicle_type_id":"4","last_reported":1741122551,"current_range_meters":16000,"station_id":"ce4bhpp2rcd13ifvqhfg","pricing_plan_id":"cebpf4jnsgd1na2vs0mg"},{"bike_id":"414aa6ff-4992-4e38-96ea-c06239c48aac","system_id":"levelo_inurba_marseille","lat":43.29034,"lon":5.38647,"is_reserved":false,"is_disabled":false,"rental_uris":{"android":"levelo://app?vid=414aa6ff-4992-4e38-96ea-c06239c48aac","ios":"levelo://app?vid=414aa6ff-4992-4e38-96ea-c06239c48aac"},"vehicle_type_id":"4","last_reported":1741122551,"current_range_meters":15200,"station_id":"ce4bh4p2rcd13ifvqe0g","pricing_plan_id":"cebpf4jnsgd1na2vs0mg"},{"bike_id":"253377e6-7164-4811-973b-4d94bddbeffc","system_id":"levelo_inurba_marseille","lat":43.30507,"lon":5.37466,"is_reserved":false,"is_disabled":false,"rental_uris":{"android":"levelo://app?vid=253377e6-7164-4811-973b-4d94bddbeffc","ios":"levelo://app?vid=253377e6-7164-4811-973b-4d94bddbeffc"},"vehicle_type_id":"4","last_reported":1741122551,"current_range_meters":16000,"station_id":"","pricing_plan_id":"cebpf4jnsgd1na2vs0mg"},{"bike_id":"c6762606-6123-4176-98c0-430a38ac0378","system_id":"levelo_inurba_marseille","lat":43.247296,"lon":5.411648,"is_reserved":false,"is_disabled":false,"rental_uris":{"android":"levelo://app?vid=c6762606-6123-4176-98c0-430a38ac0378","ios":"levelo://app?vid=c6762606-6123-4176-98c0-430a38ac0378"},"vehicle_type_id":"4","last_reported":1741122551,"current_range_meters":16000,"station_id":"","pricing_plan_id":"cebpf4jnsgd1na2vs0mg"},{"bike_id":"98539589-5f30-45f5-b2a6-ae8b0bce6460","system_id":"levelo_inurba_marseille","lat":43.27995,"lon":5.40079,"is_reserved":false,"is_disabled":false,"rental_uris":{"android":"levelo://app?vid=98539589-5f30-45f5-b2a6-ae8b0bce6460","ios":"levelo://app?vid=98539589-5f30-45f5-b2a6-ae8b0bce6460"},"vehicle_type_id":"4","last_reported":1741122551,"current_range_meters":16000,"station_id":"","pricing_plan_id":"cebpf4jnsgd1na2vs0mg"},{"bike_id":"15ea5e98-b126-4e51-a853-e9bcdbacfda6","system_id":"levelo_inurba_marseille","lat":43.29304,"lon":5.37451,"is_reserved":false,"is_disabled":false,"rental_uris":{"android":"levelo://app?vid=15ea5e98-b126-4e51-a853-e9bcdbacfda6","ios":"levelo://app?vid=15ea5e98-b126-4e51-a853-e9bcdbacfda6"},"vehicle_type_id":"4","last_reported":1741122551,"current_range_meters":16000,"station_id":"ce4bgi12rcd13ifvqb70","pricing_plan_id":"cebpf4jnsgd1na2vs0mg"},{"bike_id":"8e67c6c2-1f86-420e-855b-676e159ed831","system_id":"levelo_inurba_marseille","lat":43.23066,"lon":5.35506,"is_reserved":false,"is_disabled":false,"rental_uris":{"android":"levelo://app?vid=8e67c6c2-1f86-420e-855b-676e159ed831","ios":"levelo://app?vid=8e67c6c2-1f86-420e-855b-676e159ed831"},"vehicle_type_id":"4","last_reported":1741122551,"current_range_meters":16400,"station_id":"cpo3342slgdg3j2ifvpg","pricing_plan_id":"cebpf4jnsgd1na2vs0mg"},{"bike_id":"e8fb3957-55aa-4712-b8af-a6da8b77890f","system_id":"levelo_inurba_marseille","lat":43.30158,"lon":5.38104,"is_reserved":false,"is_disabled":false,"rental_uris":{"android":"levelo://app?vid=e8fb3957-55aa-4712-b8af-a6da8b77890f","ios":"levelo://app?vid=e8fb3957-55aa-4712-b8af-a6da8b77890f"},"vehicle_type_id":"4","last_reported":1741122551,"current_range_meters":16400,"station_id":"ce4bgjp2rcd13ifvqbh0","pricing_plan_id":"cebpf4jnsgd1na2vs0mg"},{"bike_id":"9cbb5914-3ce0-45a9-bfe4-895657d5f46f","system_id":"levelo_inurba_marseille","lat":43.23188,"lon":5.35556,"is_reserved":false,"is_disabled":false,"rental_uris":{"android":"levelo://app?vid=9cbb5914-3ce0-45a9-bfe4-895657d5f46f","ios":"levelo://app?vid=9cbb5914-3ce0-45a9-bfe4-895657d5f46f"},"vehicle_type_id":"4","last_reported":1741122551,"current_range_meters":16400,"station_id":"ce4bhu92rcd13ifvqi70","pricing_plan_id":"cebpf4jnsgd1na2vs0mg"},{"bike_id":"116e8357-d15a-44a2-86b9-73c64f087fb6","system_id":"levelo_inurba_marseille","lat":43.27828,"lon":5.39214,"is_reserved":false,"is_disabled":false,"rental_uris":{"android":"levelo://app?vid=116e8357-d15a-44a2-86b9-73c64f087fb6","ios":"levelo://app?vid=116e8357-d15a-44a2-86b9-73c64f087fb6"},"vehicle_type_id":"4","last_reported":1741122551,"current_range_meters":16000,"station_id":"ce4bhjp2rcd13ifvqga0","pricing_plan_id":"cebpf4jnsgd1na2vs0mg"},{"bike_id":"d1f3ea58-563c-453c-97be-a763f0255e51","system_id":"levelo_inurba_marseille","lat":43.25002,"lon":5.38929,"is_reserved":false,"is_disabled":false,"rental_uris":{"android":"levelo://app?vid=d1f3ea58-563c-453c-97be-a763f0255e51","ios":"levelo://app?vid=d1f3ea58-563c-453c-97be-a763f0255e51"},"vehicle_type_id":"4","last_reported":1741122551,"current_range_meters":16400,"station_id":"ce4bhgp2rcd13ifvqfd0","pricing_plan_id":"cebpf4jnsgd1na2vs0mg"},{"bike_id":"dc3a6b58-5b31-44a7-ac04-275ce482a815","system_id":"levelo_inurba_marseille","lat":43.27924,"lon":5.39582,"is_reserved":false,"is_disabled":false,"rental_uris":{"android":"levelo://app?vid=dc3a6b58-5b31-44a7-ac04-275ce482a815","ios":"levelo://app?vid=dc3a6b58-5b31-44a7-ac04-275ce482a815"},"vehicle_type_id":"4","last_reported":1741122551,"current_range_meters":16400,"station_id":"ce4bhf92rcd13ifvqf40","pricing_plan_id":"cebpf4jnsgd1na2vs0mg"},{"bike_id":"cba6a766-3158-4fdc-849a-5887af830bdc","system_id":"levelo_inurba_marseille","lat":43.29237,"lon":5.38199,"is_reserved":false,"is_disabled":false,"rental_uris":{"android":"levelo://app?vid=cba6a766-3158-4fdc-849a-5887af830bdc","ios":"levelo://app?vid=cba6a766-3158-4fdc-849a-5887af830bdc"},"vehicle_type_id":"4","last_reported":1741122551,"current_range_meters":16400,"station_id":"","pricing_plan_id":"cebpf4jnsgd1na2vs0mg"},{"bike_id":"56d91efa-2eb7-4e4a-9db2-55b2e1600603","system_id":"levelo_inurba_marseille","lat":43.28843,"lon":5.35872,"is_reserved":false,"is_disabled":false,"rental_uris":{"android":"levelo://app?vid=56d91efa-2eb7-4e4a-9db2-55b2e1600603","ios":"levelo://app?vid=56d91efa-2eb7-4e4a-9db2-55b2e1600603"},"vehicle_type_id":"4","last_reported":1741122551,"current_range_meters":16400,"station_id":"ce4bhb12rcd13ifvqem0","pricing_plan_id":"cebpf4jnsgd1na2vs0mg"},{"bike_id":"bfaefdd0-de3c-401c-9815-bd6ab825eef1","system_id":"levelo_inurba_marseille","lat":43.31758,"lon":5.39017,"is_reserved":false,"is_disabled":false,"rental_uris":{"android":"levelo://app?vid=bfaefdd0-de3c-401c-9815-bd6ab825eef1","ios":"levelo://app?vid=bfaefdd0-de3c-401c-9815-bd6ab825eef1"},"vehicle_type_id":"4","last_reported":1741122551,"current_range_meters":16400,"station_id":"ce4bhqp2rcd13ifvqhng","pricing_plan_id":"cebpf4jnsgd1na2vs0mg"},{"bike_id":"57cc304b-570e-47e0-b58a-584691de5475","system_id":"levelo_inurba_marseille","lat":43.27995,"lon":5.40016,"is_reserved":false,"is_disabled":false,"rental_uris":{"android":"levelo://app?vid=57cc304b-570e-47e0-b58a-584691de5475","ios":"levelo://app?vid=57cc304b-570e-47e0-b58a-584691de5475"},"vehicle_type_id":"4","last_reported":1741122551,"current_range_meters":16400,"station_id":"ce4bho92rcd13ifvqh4g","pricing_plan_id":"cebpf4jnsgd1na2vs0mg"},{"bike_id":"50fc5146-a9b1-4e3e-a764-8124f688ceb4","system_id":"levelo_inurba_marseille","lat":43.29427,"lon":5.38612,"is_reserved":false,"is_disabled":false,"rental_uris":{"android":"levelo://app?vid=50fc5146-a9b1-4e3e-a764-8124f688ceb4","ios":"levelo://app?vid=50fc5146-a9b1-4e3e-a764-8124f688ceb4"},"vehicle_type_id":"4","last_reported":1741122551,"current_range_meters":16400,"station_id":"ce4bh2h2rcd13ifvqdh0","pricing_plan_id":"cebpf4jnsgd1na2vs0mg"},{"bike_id":"c5210ea6-b1fe-4d62-b58d-b2ef401f0e23","system_id":"levelo_inurba_marseille","lat":43.30461,"lon":5.37901,"is_reserved":false,"is_disabled":false,"rental_uris":{"android":"levelo://app?vid=c5210ea6-b1fe-4d62-b58d-b2ef401f0e23","ios":"levelo://app?vid=c5210ea6-b1fe-4d62-b58d-b2ef401f0e23"},"vehicle_type_id":"4","last_reported":1741122551,"current_range_meters":14800,"station_id":"ce4bgup2rcd13ifvqcn0","pricing_plan_id":"cebpf4jnsgd1na2vs0mg"},{"bike_id":"212b5183-5ac7-49f2-ba6d-2e785ac346da","system_id":"levelo_inurba_marseille","lat":43.29431,"lon":5.38636,"is_reserved":false,"is_disabled":false,"rental_uris":{"android":"levelo://app?vid=212b5183-5ac7-49f2-ba6d-2e785ac346da","ios":"levelo://app?vid=212b5183-5ac7-49f2-ba6d-2e785ac346da"},"vehicle_type_id":"4","last_reported":1741122551,"current_range_meters":16400,"station_id":"ce4bh2h2rcd13ifvqdh0","pricing_plan_id":"cebpf4jnsgd1na2vs0mg"},{"bike_id":"8479d310-69c3-461f-820a-fc2b327af55a","system_id":"levelo_inurba_marseille","lat":43.25871,"lon":5.39909,"is_reserved":false,"is_disabled":false,"rental_uris":{"android":"levelo://app?vid=8479d310-69c3-461f-820a-fc2b327af55a","ios":"levelo://app?vid=8479d310-69c3-461f-820a-fc2b327af55a"},"vehicle_type_id":"4","last_reported":1741122551,"current_range_meters":16800,"station_id":"ce4bhl92rcd13ifvqghg","pricing_plan_id":"cebpf4jnsgd1na2vs0mg"},{"bike_id":"6be2d959-3029-43e5-9ca2-a3dfb9eee01b","system_id":"levelo_inurba_marseille","lat":43.30787,"lon":5.43528,"is_reserved":false,"is_disabled":false,"rental_uris":{"android":"levelo://app?vid=6be2d959-3029-43e5-9ca2-a3dfb9eee01b","ios":"levelo://app?vid=6be2d959-3029-43e5-9ca2-a3dfb9eee01b"},"vehicle_type_id":"4","last_reported":1741122551,"current_range_meters":16800,"station_id":"ce4bhph2rcd13ifvqheg","pricing_plan_id":"cebpf4jnsgd1na2vs0mg"},{"bike_id":"7648a690-e079-4051-81ee-1d89d5d250c8","system_id":"levelo_inurba_marseille","lat":43.27916,"lon":5.39603,"is_reserved":false,"is_disabled":false,"rental_uris":{"android":"levelo://app?vid=7648a690-e079-4051-81ee-1d89d5d250c8","ios":"levelo://app?vid=7648a690-e079-4051-81ee-1d89d5d250c8"},"vehicle_type_id":"4","last_reported":1741122551,"current_range_meters":16800,"station_id":"ce4bhf92rcd13ifvqf40","pricing_plan_id":"cebpf4jnsgd1na2vs0mg"},{"bike_id":"a490f13d-ff40-47b1-9376-19fb2024ec77","system_id":"levelo_inurba_marseille","lat":43.28543,"lon":5.39482,"is_reserved":false,"is_disabled":true,"rental_uris":{"android":"levelo://app?vid=a490f13d-ff40-47b1-9376-19fb2024ec77","ios":"levelo://app?vid=a490f13d-ff40-47b1-9376-19fb2024ec77"},"vehicle_type_id":"4","last_reported":1741122551,"current_range_meters":16800,"station_id":"ce4bh292rcd13ifvqdg0","pricing_plan_id":"cebpf4jnsgd1na2vs0mg"},