{"last_updated":1687107899,"ttl":30,"version":"2.2","data":{"bikes":[{"bike_id":"3e276c88-69f7-4ce6-8ab9-1adc048d59fc","system_id":"levelo_inurba_marseille","lat":43.305368,"lon":5.367343,"is_reserved":false,"is_disabled":false,"rental_uris":{"android":"levelo://app?vid=3e276c88-69f7-4ce6-8ab9-1adc048d59fc","ios":"levelo://app?vid=3e276c88-69f7-4ce6-8ab9-1adc048d59fc"},"vehicle_type_id":"4","last_reported":1687107899,"current_range_meters":0,"station_id":"ce4bgrp2rcd13ifvqc9g","pricing_plan_id":"free"},{"bike_id":"a34bb6d9-da91-483c-b620-94ec0b8b3136","system_id":"levelo_inurba_marseille","lat":43.311125,"lon":5.377624,"is_reserved":false,"is_disabled":false,"rental_uris":{"android":"levelo://app?vid=a34bb6d9-da91-483c-b620-94ec0b8b3136","ios":"levelo://app?vid=a34bb6d9-da91-483c-b620-94ec0b8b3136"},"vehicle_type_id":"4","last_reported":1687107899,"current_range_meters":18800,"station_id":"ce4bgt92rcd13ifvqcg0","pricing_plan_id":"free"},{"bike_id":"2424216c-0462-4ad0-b127-d0366c91b61c","system_id":"levelo_inurba_marseille","lat":43.31699,"lon":5.37674,"is_reserved":false,"is_disabled":false,"rental_uris":{"android":"levelo://app?vid=2424216c-0462-4ad0-b127-d0366c91b61c","ios":"levelo://app?vid=2424216c-0462-4ad0-b127-d0366c91b61c"},"vehicle_type_id":"4","last_reported":1687107899,"current_range_meters":27600,"station_id":"","pricing_plan_id":"free"},{"bike_id":"b48459f9-b0d0-4408-a23f-f04fe16e41c6","system_id":"levelo_inurba_marseille","lat":43.317075,"lon":5.377367,"is_reserved":false,"is_disabled":false,"rental_uris":{"android":"levelo://app?vid=b48459f9-b0d0-4408-a23f-f04fe16e41c6","ios":"levelo://app?vid=b48459f9-b0d0-4408-a23f-f04fe16e41c6"},"vehicle_type_id":"4","last_reported":1687107899,"current_range_meters":13200,"station_id":"ce4bgth2rcd13ifvqch0","pricing_plan_id":"free"},{"bike_id":"fbdf099f-c4c0-4f97-8218-abb637169eea","system_id":"levelo_inurba_marseille","lat":43.30305,"lon":5.36892,"is_reserved":false,"is_disabled":false,"rental_uris":{"android":"levelo://app?vid=fbdf099f-c4c0-4f97-8218-abb637169eea","ios":"levelo://app?vid=fbdf099f-c4c0-4f97-8218-abb637169eea"},"vehicle_type_id":"4","last_reported":1687107899,"current_range_meters":8000,"station_id":"ce4bgqh2rcd13ifvqc5g","pricing_plan_id":"free"},{"bike_id":"cada2054-cd0b-4ffd-b35d-70e3683fc5a7","system_id":"levelo_inurba_marseille","lat":43.31539,"lon":5.38041,"is_reserved":false,"is_disabled":false,"rental_uris":{"android":"levelo://app?vid=cada2054-cd0b-4ffd-b35d-70e3683fc5a7","ios":"levelo://app?vid=cada2054-cd0b-4ffd-b35d-70e3683fc5a7"},"vehicle_type_id":"4","last_reported":1687107899,"current_range_meters":28400,"station_id":"ce4bhsp2rcd13ifvqi50","pricing_plan_id":"free"},{"bike_id":"8d51db3c-ddf0-4868-a42f-0868b9c8ed86","system_id":"levelo_inurba_marseille","lat":43.31526,"lon":5.38046,"is_reserved":false,"is_disabled":false,"rental_uris":{"android":"levelo://app?vid=8d51db3c-ddf0-4868-a42f-0868b9c8ed86","ios":"levelo://app?vid=8d51db3c-ddf0-4868-a42f-0868b9c8ed86"},"vehicle_type_id":"4","last_reported":1687107899,"current_range_meters":29600,"station_id":"ce4bhsp2rcd13ifvqi50","pricing_plan_id":"free"},{"bike_id":"5ed20484-f703-4dcb-b061-18252be4f2eb","system_id":"levelo_inurba_marseille","lat":43.308012,"lon":5.381511,"is_reserved":false,"is_disabled":false,"rental_uris":{"android":"levelo://app?vid=5ed20484-f703-4dcb-b061-18252be4f2eb","ios":"levelo://app?vid=5ed20484-f703-4dcb-b061-18252be4f2eb"},"vehicle_type_id":"4","last_reported":1687107899,"current_range_meters":7200,"station_id":"ce4bgt12rcd13ifvqce0","pricing_plan_id":"free"},{"bike_id":"ae33307b-fcd5-479b-9ae1-9002ed226c6e","system_id":"levelo_inurba_marseille","lat":43.308012,"lon":5.381511,"is_reserved":false,"is_disabled":false,"rental_uris":{"android":"levelo://app?vid=ae33307b-fcd5-479b-9ae1-9002ed226c6e","ios":"levelo://app?vid=ae33307b-fcd5-479b-9ae1-9002ed226c6e"},"vehicle_type_id":"4","last_reported":1687107899,"current_range_meters":29600,"station_id":"ce4bgt12rcd13ifvqce0","pricing_plan_id":"free"},{"bike_id":"5fbcce35-5c8f-48bd-8137-cd58a278e2bb","system_id":"levelo_inurba_marseille","lat":43.304606,"lon":5.379026,"is_reserved":false,"is_disabled":false,"rental_uris":{"android":"levelo://app?vid=5fbcce35-5c8f-48bd-8137-cd58a278e2bb","ios":"levelo://app?vid=5fbcce35-5c8f-48bd-8137-cd58a278e2bb"},"vehicle_type_id":"4","last_reported":1687107899,"current_range_meters":14000,"station_id":"ce4bgup2rcd13ifvqcn0","pricing_plan_id":"free"},{"bike_id":"43fc693e-f2a9-4aec-8fd9-d094bb02cb70","system_id":"levelo_inurba_marseille","lat":43.304606,"lon":5.379026,"is_reserved":false,"is_disabled":false,"rental_uris":{"android":"levelo://app?vid=43fc693e-f2a9-4aec-8fd9-d094bb02cb70","ios":"levelo://app?vid=43fc693e-f2a9-4aec-8fd9-d094bb02cb70"},"vehicle_type_id":"4","last_reported":1687107899,"current_range_meters":16800,"station_id":"ce4bgup2rcd13ifvqcn0","pricing_plan_id":"free"},{"bike_id":"2f52c7b2-cd86-4520-a9b8-ef8d0fae313b","system_id":"levelo_inurba_marseille","lat":43.319935,"lon":5.381699,"is_reserved":false,"is_disabled":false,"rental_uris":{"android":"levelo://app?vid=2f52c7b2-cd86-4520-a9b8-ef8d0fae313b","ios":"levelo://app?vid=2f52c7b2-cd86-4520-a9b8-ef8d0fae313b"},"vehicle_type_id":"4","last_reported":1687107899,"current_range_meters":21200,"station_id":"ce4bhr12rcd13ifvqhpg","pricing_plan_id":"free"},{"bike_id":"1d47b2e2-b6b2-467e-89b2-30c2b3dd988b","system_id":"levelo_inurba_marseille","lat":43.31378,"lon":5.38517,"is_reserved":false,"is_disabled":false,"rental_uris":{"android":"levelo://app?vid=1d47b2e2-b6b2-467e-89b2-30c2b3dd988b","ios":"levelo://app?vid=1d47b2e2-b6b2-467e-89b2-30c2b3dd988b"},"vehicle_type_id":"4","last_reported":1687107899,"current_range_meters":10800,"station_id":"","pricing_plan_id":"free"},{"bike_id":"330412da-b9eb-49fa-9ba0-9288ee9ddd31","system_id":"levelo_inurba_marseille","lat":43.30042,"lon":5.37531,"is_reserved":false,"is_disabled":false,"rental_uris":{"android":"levelo://app?vid=330412da-b9eb-49fa-9ba0-9288ee9ddd31","ios":"levelo://app?vid=330412da-b9eb-49fa-9ba0-9288ee9ddd31"},"vehicle_type_id":"4","last_reported":1687107899,"current_range_meters":14000,"station_id":"","pricing_plan_id":"free"},{"bike_id":"392deff4-8ed0-4a1e-a708-ce1ab4715e27","system_id":"levelo_inurba_marseille","lat":43.3032,"lon":5.38151,"is_reserved":false,"is_disabled":false,"rental_uris":{"android":"levelo://app?vid=392deff4-8ed0-4a1e-a708-ce1ab4715e27","ios":"levelo://app?vid=392deff4-8ed0-4a1e-a708-ce1ab4715e27"},"vehicle_type_id":"4","last_reported":1687107899,"current_range_meters":2400,"station_id":"ce4bhjp2rcd13ifvqg90","pricing_plan_id":"free"},{"bike_id":"b080dce7-cd6f-45a9-8e96-16c1913721ee","system_id":"levelo_inurba_marseille","lat":43.298433,"lon":5.362774,"is_reserved":false,"is_disabled":false,"rental_uris":{"android":"levelo://app?vid=b080dce7-cd6f-45a9-8e96-16c1913721ee","ios":"levelo://app?vid=b080dce7-cd6f-45a9-8e96-16c1913721ee"},"vehicle_type_id":"4","last_reported":1687107899,"current_range_meters":22400,"station_id":"ce4bgpp2rcd13ifvqc3g","pricing_plan_id":"free"},{"bike_id":"10f31dc2-c530-41f6-902b-812403916303","system_id":"levelo_inurba_marseille","lat":43.298433,"lon":5.362774,"is_reserved":false,"is_disabled":false,"rental_uris":{"android":"levelo://app?vid=10f31dc2-c530-41f6-902b-812403916303","ios":"levelo://app?vid=10f31dc2-c530-41f6-902b-812403916303"},"vehicle_type_id":"4","last_reported":1687107899,"current_range_meters":24000,"station_id":"ce4bgpp2rcd13ifvqc3g","pricing_plan_id":"free"},{"bike_id":"0910fe1d-dea2-477e-84bb-af6826c7eb1c","system_id":"levelo_inurba_marseille","lat":43.298433,"lon":5.362774,"is_reserved":false,"is_disabled":false,"rental_uris":{"android":"levelo://app?vid=0910fe1d-dea2-477e-84bb-af6826c7eb1c","ios":"levelo://app?vid=0910fe1d-dea2-477e-84bb-af6826c7eb1c"},"vehicle_type_id":"4","last_reported":1687107899,"current_range_meters":19200,"station_id":"ce4bgpp2rcd13ifvqc3g","pricing_plan_id":"free"},{"bike_id":"547abba5-8e84-4ffc-8324-e743ab411d1e","system_id":"levelo_inurba_marseille","lat":43.298433,"lon":5.362774,"is_reserved":false,"is_disabled":false,"rental_uris":{"android":"levelo://app?vid=547abba5-8e84-4ffc-8324-e743ab411d1e","ios":"levelo://app?vid=547abba5-8e84-4ffc-8324-e743ab411d1e"},"vehicle_type_id":"4","last_reported":1687107899,"current_range_meters":4400,"station_id":"ce4bgpp2rcd13ifvqc3g","pricing_plan_id":"free"},{"bike_id":"0c472b68-61e0-4aeb-b983-ed7df98453e6","system_id":"levelo_inurba_marseille","lat":43.311722,"lon":5.387247,"is_reserved":false,"is_disabled":false,"rental_uris":{"android":"levelo://app?vid=0c472b68-61e0-4aeb-b983-ed7df98453e6","ios":"levelo://app?vid=0c472b68-61e0-4aeb-b983-ed7df98453e6"},"vehicle_type_id":"4","last_reported":1687107899,"current_range_meters":8000,"station_id":"ce4bgv12rcd13ifvqcp0","pricing_plan_id":"free"},{"bike_id":"5d978d20-1efc-4e84-9287-921c48134645","system_id":"levelo_inurba_marseille","lat":43.311722,"lon":5.387247,"is_reserved":false,"is_disabled":false,"rental_uris":{"android":"levelo://app?vid=5d978d20-1efc-4e84-9287-921c48134645","ios":"levelo://app?vid=5d978d20-1efc-4e84-9287-921c48134645"},"vehicle_type_id":"4","last_reported":1687107899,"current_range_meters":4800,"station_id":"ce4bgv12rcd13ifvqcp0","pricing_plan_id":"free"},{"bike_id":"bc0f2c12-e9a5-4d22-8fcc-fd9f79786983","system_id":"levelo_inurba_marseille","lat":43.311722,"lon":5.387247,"is_reserved":false,"is_disabled":false,"rental_uris":{"android":"levelo://app?vid=bc0f2c12-e9a5-4d22-8fcc-fd9f79786983","ios":"levelo://app?vid=bc0f2c12-e9a5-4d22-8fcc-fd9f79786983"},"vehicle_type_id":"4","last_reported":1687107899,"current_range_meters":12400,"station_id":"ce4bgv12rcd13ifvqcp0","pricing_plan_id":"free"},{"bike_id":"512b8ce8-d154-42ec-a05f-ca49af50d1ab","system_id":"levelo_inurba_marseille","lat":43.297774,"lon":5.370875,"is_reserved":false,"is_disabled":false,"rental_uris":{"android":"levelo://app?vid=512b8ce8-d154-42ec-a05f-ca49af50d1ab","ios":"levelo://app?vid=512b8ce8-d154-42ec-a05f-ca49af50d1ab"},"vehicle_type_id":"4","last_reported":1687107899,"current_range_meters":0,"station_id":"ce4bgop2rcd13ifvqc1g","pricing_plan_id":"free"},{"bike_id":"26de6171-9838-47bd-824f-0ba55469082e","system_id":"levelo_inurba_marseille","lat":43.32827,"lon":5.36676,"is_reserved":false,"is_disabled":false,"rental_uris":{"android":"levelo://app?vid=26de6171-9838-47bd-824f-0ba55469082e","ios":"levelo://app?vid=26de6171-9838-47bd-824f-0ba55469082e"},"vehicle_type_id":"4","last_reported":1687107899,"current_range_meters":21600,"station_id":"ce4bhs92rcd13ifvqi0g","pricing_plan_id":"free"},{"bike_id":"3b343a5c-8423-476a-a7c8-83278a85a66d","system_id":"levelo_inurba_marseille","lat":43.328371,"lon":5.366909,"is_reserved":false,"is_disabled":false,"rental_uris":{"android":"levelo://app?vid=3b343a5c-8423-476a-a7c8-83278a85a66d","ios":"levelo://app?vid=3b343a5c-8423-476a-a7c8-83278a85a66d"},"vehicle_type_id":"4","last_reported":1687107899,"current_range_meters":29600,"station_id":"ce4bhs92rcd13ifvqi0g","pricing_plan_id":"free"},{"bike_id":"6d5ccf33-759a-4c7a-af82-9f67388b4177","system_id":"levelo_inurba_marseille","lat":43.328371,"lon":5.366909,"is_reserved":false,"is_disabled":false,"rental_uris":{"android":"levelo://app?vid=6d5ccf33-759a-4c7a-af82-9f67388b4177","ios":"levelo://app?vid=6d5ccf33-759a-4c7a-af82-9f67388b4177"},"vehicle_type_id":"4","last_reported":1687107899,"current_range_meters":30000,"station_id":"ce4bhs92rcd13ifvqi0g","pricing_plan_id":"free"},{"bike_id":"c4c82479-60a6-4390-8970-3229e3eebb9c","system_id":"levelo_inurba_marseille","lat":43.3283,"lon":5.36678,"is_reserved":false,"is_disabled":false,"rental_uris":{"android":"levelo://app?vid=c4c82479-60a6-4390-8970-3229e3eebb9c","ios":"levelo://app?vid=c4c82479-60a6-4390-8970-3229e3eebb9c"},"vehicle_type_id":"4","last_reported":1687107899,"current_range_meters":18400,"station_id":"ce4bhs92rcd13ifvqi0g","pricing_plan_id":"free"},{"bike_id":"69bf5c29-7e5d-45c7-b1b2-514d42707ee7","system_id":"levelo_inurba_marseille","lat":43.328371,"lon":5.366909,"is_reserved":false,"is_disabled":false,"rental_uris":{"android":"levelo://app?vid=69bf5c29-7e5d-45c7-b1b2-514d42707ee7","ios":"levelo://app?vid=69bf5c29-7e5d-45c7-b1b2-514d42707ee7"},"vehicle_type_id":"4","last_reported":1687107899,"current_range_meters":30000,"station_id":"ce4bhs92rcd13ifvqi0g","pricing_plan_id":"free"},{"bike_id":"731cce5d-c725-402d-b941-54910a08f036","system_id":"levelo_inurba_marseille","lat":43.3283,"lon":5.36677,"is_reserved":false,"is_disabled":false,"rental_uris":{"android":"levelo://app?vid=731cce5d-c725-402d-b941-54910a08f036","ios":"levelo://app?vid=731cce5d-c725-402d-b941-54910a08f036"},"vehicle_type_id":"4","last_reported":1687107899,"current_range_meters":29600,"station_id":"ce4bhs92rcd13ifvqi0g","pricing_plan_id":"free"},{"bike_id":"78911849-321a-41c5-b67b-eefecdab885b","system_id":"levelo_inurba_marseille","lat":43.328371,"lon":5.366909,"is_reserved":false,"is_disabled":false,"rental_uris":{"android":"levelo://app?vid=78911849-321a-41c5-b67b-eefecdab885b","ios":"levelo://app?vid=78911849-321a-41c5-b67b-eefecdab885b"},"vehicle_type_id":"4","last_reported":1687107899,"current_range_meters":12400,"station_id":"ce4bhs92rcd13ifvqi0g","pricing_plan_id":"free"},{"bike_id":"eb463cab-b54c-4ed2-a710-d6d777606789","system_id":"levelo_inurba_marseille","lat":43.32832,"lon":5.36685,"is_reserved":false,"is_disabled":false,"rental_uris":{"android":"levelo://app?vid=eb463cab-b54c-4ed2-a710-d6d777606789","ios":"levelo://app?vid=eb463cab-b54c-4ed2-a710-d6d777606789"},"vehicle_type_id":"4","last_reported":1687107899,"current_range_meters":17200,"station_id":"ce4bhs92rcd13ifvqi0g","pricing_plan_id":"free"},{"bike_id":"27e857a0-6074-435d-85c0-7fc3761f1cbb","system_id":"levelo_inurba_marseille","lat":43.32833,"lon":5.3668,"is_reserved":false,"is_disabled":false,"rental_uris":{"android":"levelo://app?vid=27e857a0-6074-435d-85c0-7fc3761f1cbb","ios":"levelo://app?vid=27e857a0-6074-435d-85c0-7fc3761f1cbb"},"vehicle_type_id":"4","last_reported":1687107899,"current_range_meters":29200,"station_id":"ce4bhs92rcd13ifvqi0g","pricing_plan_id":"free"},{"bike_id":"7305d8d9-7d56-41c2-ae77-869303774f4d","system_id":"levelo_inurba_marseille","lat":43.328371,"lon":5.366909,"is_reserved":false,"is_disabled":false,"rental_uris":{"android":"levelo://app?vid=7305d8d9-7d56-41c2-ae77-869303774f4d","ios":"levelo://app?vid=7305d8d9-7d56-41c2-ae77-869303774f4d"},"vehicle_type_id":"4","last_reported":1687107899,"current_range_meters":14800,"station_id":"ce4bhs92rcd13ifvqi0g","pricing_plan_id":"free"},{"bike_id":"dba9e30e-a749-43fa-a75b-51b691339771","system_id":"levelo_inurba_marseille","lat":43.328371,"lon":5.366909,"is_reserved":false,"is_disabled":false,"rental_uris":{"android":"levelo://app?vid=dba9e30e-a749-43fa-a75b-51b691339771","ios":"levelo://app?vid=dba9e30e-a749-43fa-a75b-51b691339771"},"vehicle_type_id":"4","last_reported":1687107899,"current_range_meters":30000,"station_id":"ce4bhs92rcd13ifvqi0g","pricing_plan_id":"free"},{"bike_id":"01003604-ca83-4a0f-a050-81143b6da389","system_id":"levelo_inurba_marseille","lat":43.32834,"lon":5.36671,"is_reserved":false,"is_disabled":false,"rental_uris":{"android":"levelo://app?vid=01003604-ca83-4a0f-a050-81143b6da389","ios":"levelo://app?vid=01003604-ca83-4a0f-a050-81143b6da389"},"vehicle_type_id":"4","last_reported":1687107899,"current_range_meters":31200,"station_id":"ce4bhs92rcd13ifvqi0g","pricing_plan_id":"free"},{"bike_id":"9e60ff88-fe04-4b70-9af4-05a83fe316c7","system_id":"levelo_inurba_marseille","lat":43.32836,"lon":5.36695,"is_reserved":false,"is_disabled":false,"rental_uris":{"android":"levelo://app?vid=9e60ff88-fe04-4b70-9af4-05a83fe316c7","ios":"levelo://app?vid=9e60ff88-fe04-4b70-9af4-05a83fe316c7"},"vehicle_type_id":"4","last_reported":1687107899,"current_range_meters":28400,"station_id":"ce4bhs92rcd13ifvqi0g","pricing_plan_id":"free"},{"bike_id":"176f4894-d7fc-460e-aa5d-7c8c1e206dc3","system_id":"levelo_inurba_marseille","lat":43.297163,"lon":5.365866,"is_reserved":false,"is_disabled":false,"rental_uris":{"android":"levelo://app?vid=176f4894-d7fc-460e-aa5d-7c8c1e206dc3","ios":"levelo://app?vid=176f4894-d7fc-460e-aa5d-7c8c1e206dc3"},"vehicle_type_id":"4","last_reported":1687107899,"current_range_meters":10400,"station_id":"ce4bgn12rcd13ifvqbt0","pricing_plan_id":"free"},{"bike_id":"bc0b6ddd-9051-414d-b646-556d8643dd39","system_id":"levelo_inurba_marseille","lat":43.297163,"lon":5.365866,"is_reserved":false,"is_disabled":false,"rental_uris":{"android":"levelo://app?vid=bc0b6ddd-9051-414d-b646-556d8643dd39","ios":"levelo://app?vid=bc0b6ddd-9051-414d-b646-556d8643dd39"},"vehicle_type_id":"4","last_reported":1687107899,"current_range_meters":2400,"station_id":"ce4bgn12rcd13ifvqbt0","pricing_plan_id":"free"},{"bike_id":"88d0330c-5bb0-4a19-9b65-d4683b42e015","system_id":"levelo_inurba_marseille","lat":43.29683,"lon":5.36046,"is_reserved":false,"is_disabled":false,"rental_uris":{"android":"levelo://app?vid=88d0330c-5bb0-4a19-9b65-d4683b42e015","ios":"levelo://app?vid=88d0330c-5bb0-4a19-9b65-d4683b42e015"},"vehicle_type_id":"4","last_reported":1687107899,"current_range_meters":2000,"station_id":"","pricing_plan_id":"free"},{"bike_id":"2a4926db-1653-4ca1-99d5-9ba14c4787a0","system_id":"levelo_inurba_marseille","lat":43.29573,"lon":5.367355,"is_reserved":false,"is_disabled":false,"rental_uris":{"android":"levelo://app?vid=2a4926db-1653-4ca1-99d5-9ba14c4787a0","ios":"levelo://app?vid=2a4926db-1653-4ca1-99d5-9ba14c4787a0"},"vehicle_type_id":"4","last_reported":1687107899,"current_range_meters":11600,"station_id":"ce4bgph2rcd13ifvqc2g","pricing_plan_id":"free"},{"bike_id":"24f41ca5-b432-4feb-a0c8-a15026b97306","system_id":"levelo_inurba_marseille","lat":43.296131,"lon":5.370773,"is_reserved":false,"is_disabled":false,"rental_uris":{"android":"levelo://app?vid=24f41ca5-b432-4feb-a0c8-a15026b97306","ios":"levelo://app?vid=24f41ca5-b432-4feb-a0c8-a15026b97306"},"vehicle_type_id":"4","last_reported":1687107899,"current_range_meters":11600,"station_id":"ce4bgnh2rcd13ifvqc0g","pricing_plan_id":"free"},{"bike_id":"cfb909ab-d2a0-4097-bd01-467087ea210a","system_id":"levelo_inurba_marseille","lat":43.296921,"lon":5.376579,"is_reserved":false,"is_disabled":false,"rental_uris":{"android":"levelo://app?vid=cfb909ab-d2a0-4097-bd01-467087ea210a","ios":"levelo://app?vid=cfb909ab-d2a0-4097-bd01-467087ea210a"},"vehicle_type_id":"4","last_reported":1687107899,"current_range_meters":8800,"station_id":"ce4bgkh2rcd13ifvqbl0","pricing_plan_id":"free"},{"bike_id":"664edea4-e0e1-4e88-ae3b-17e632f4428c","system_id":"levelo_inurba_marseille","lat":43.309589,"lon":5.390258,"is_reserved":false,"is_disabled":false,"rental_uris":{"android":"levelo://app?vid=664edea4-e0e1-4e88-ae3b-17e632f4428c","ios":"levelo://app?vid=664edea4-e0e1-4e88-ae3b-17e632f4428c"},"vehicle_type_id":"4","last_reported":1687107899,"current_range_meters":15600,"station_id":"ce4bgup2rcd13ifvqco0","pricing_plan_id":"free"},{"bike_id":"241539c4-4853-4239-b46f-bb04dcc16875","system_id":"levelo_inurba_marseille","lat":43.309589,"lon":5.390258,"is_reserved":false,"is_disabled":false,"rental_uris":{"android":"levelo://app?vid=241539c4-4853-4239-b46f-bb04dcc16875","ios":"levelo://app?vid=241539c4-4853-4239-b46f-bb04dcc16875"},"vehicle_type_id":"4","last_reported":1687107899,"current_range_meters":8800,"station_id":"ce4bgup2rcd13ifvqco0","pricing_plan_id":"free"},{"bike_id":"1d046f5d-b79d-4866-b4ed-b5ecf0eaf34d","system_id":"levelo_inurba_marseille","lat":43.309589,"lon":5.390258,"is_reserved":false,"is_disabled":false,"rental_uris":{"android":"levelo://app?vid=1d046f5d-b79d-4866-b4ed-b5ecf0eaf34d","ios":"levelo://app?vid=1d046f5d-b79d-4866-b4ed-b5ecf0eaf34d"},"vehicle_type_id":"4","last_reported":1687107899,"current_range_meters":16400,"station_id":"ce4bgup2rcd13ifvqco0","pricing_plan_id":"free"},{"bike_id":"83f6075d-3e24-4cf1-a7cb-da5638440d94","system_id":"levelo_inurba_marseille","lat":43.31758,"lon":5.39016,"is_reserved":false,"is_disabled":false,"rental_uris":{"android":"levelo://app?vid=83f6075d-3e24-4cf1-a7cb-da5638440d94","ios":"levelo://app?vid=83f6075d-3e24-4cf1-a7cb-da5638440d94"},"vehicle_type_id":"4","last_reported":1687107899,"current_range_meters":19200,"station_id":"ce4bhqp2rcd13ifvqhng","pricing_plan_id":"free"},{"bike_id":"d89a6111-594c-4044-bab7-fa8ad5f81068","system_id":"levelo_inurba_marseille","lat":43.317557,"lon":5.390173,"is_reserved":false,"is_disabled":false,"rental_uris":{"android":"levelo://app?vid=d89a6111-594c-4044-bab7-fa8ad5f81068","ios":"levelo://app?vid=d89a6111-594c-4044-bab7-fa8ad5f81068"},"vehicle_type_id":"4","last_reported":1687107899,"current_range_meters":30000,"station_id":"ce4bhqp2rcd13ifvqhng","pricing_plan_id":"free"},{"bike_id":"e5a24d86-f8f4-45cf-b00a-056051f637b5","system_id":"levelo_inurba_marseille","lat":43.295748,"lon":5.37522,"is_reserved":false,"is_disabled":false,"rental_uris":{"android":"levelo://app?vid=e5a24d86-f8f4-45cf-b00a-056051f637b5","ios":"levelo://app?vid=e5a24d86-f8f4-45cf-b00a-056051f637b5"},"vehicle_type_id":"4","last_reported":1687107899,"current_range_meters":8000,"station_id":"ce4bgh92rcd13ifvqb50","pricing_plan_id":"free"},{"bike_id":"f85b5e27-06fd-4818-9238-234ae4fdb275","system_id":"levelo_inurba_marseille","lat":43.298037,"lon":5.381066,"is_reserved":false,"is_disabled":false,"rental_uris":{"android":"levelo://app?vid=f85b5e27-06fd-4818-9238-234ae4fdb275","ios":"levelo://app?vid=f85b5e27-06fd-4818-9238-234ae4fdb275"},"vehicle_type_id":"4","last_reported":1687107899,"current_range_meters":0,"station_id":"ce4bgip2rcd13ifvqbb0","pricing_plan_id":"free"},{"bike_id":"250c8a96-8498-4211-b8f3-1b00a8d1fbaf","system_id":"levelo_inurba_marseille","lat":43.296477,"lon":5.37768,"is_reserved":false,"is_disabled":false,"rental_uris":{"android":"levelo://app?vid=250c8a96-8498-4211-b8f3-1b00a8d1fbaf","ios":"levelo://app?vid=250c8a96-8498-4211-b8f3-1b00a8d1fbaf"},"vehicle_type_id":"4","last_reported":1687107899,"current_range_meters":12000,"station_id":"","pricing_plan_id":"free"},{"bike_id":"0c784bde-d055-4619-be6b-ba3f9476276a","system_id":"levelo_inurba_marseille","lat":43.295748,"lon":5.37522,"is_reserved":false,"is_disabled":false,"rental_uris":{"android":"levelo://app?vid=0c784bde-d055-4619-be6b-ba3f9476276a","ios":"levelo://app?vid=0c784bde-d055-4619-be6b-ba3f9476276a"},"vehicle_type_id":"4","last_reported":1687107899,"current_range_meters":1200,"station_id":"ce4bgh92rcd13ifvqb50","pricing_plan_id":"free"},{"bike_id":"a9b61367-2003-4a66-a9f8-aa692cfb3abb","system_id":"levelo_inurba_marseille","lat":43.295748,"lon":5.37522,"is_reserved":false,"is_disabled":false,"rental_uris":{"android":"levelo://app?vid=a9b61367-2003-4a66-a9f8-aa692cfb3abb","ios":"levelo://app?vid=a9b61367-2003-4a66-a9f8-aa692cfb3abb"},"vehicle_type_id":"4","last_reported":1687107899,"current_range_meters":3600,"station_id":"ce4bgh92rcd13ifvqb50","pricing_plan_id":"free"},{"bike_id":"c8dc5e2d-9371-41e0-9446-9f2c813bdcef","system_id":"levelo_inurba_marseille","lat":43.304274,"lon":5.388873,"is_reserved":false,"is_disabled":false,"rental_uris":{"android":"levelo://app?vid=c8dc5e2d-9371-41e0-9446-9f2c813bdcef","ios":"levelo://app?vid=c8dc5e2d-9371-41e0-9446-9f2c813bdcef"},"vehicle_type_id":"4","last_reported":1687107899,"current_range_meters":21200,"station_id":"ce4bgk12rcd13ifvqbi0","pricing_plan_id":"free"},{"bike_id":"25ac0f48-0847-41b5-a604-3624024803fb","system_id":"levelo_inurba_marseille","lat":43.296263,"lon":5.377094,"is_reserved":false,"is_disabled":false,"rental_uris":{"android":"levelo://app?vid=25ac0f48-0847-41b5-a604-3624024803fb","ios":"levelo://app?vid=25ac0f48-0847-41b5-a604-3624024803fb"},"vehicle_type_id":"4","last_reported":1687107899,"current_range_meters":0,"station_id":"ce4bgi92rcd13ifvqb90","pricing_plan_id":"free"},{"bike_id":"2309643d-f297-4ac5-b6c1-4be4289bf393","system_id":"levelo_inurba_marseille","lat":43.296263,"lon":5.377094,"is_reserved":false,"is_disabled":false,"rental_uris":{"android":"levelo://app?vid=2309643d-f297-4ac5-b6c1-4be4289bf393","ios":"levelo://app?vid=2309643d-f297-4ac5-b6c1-4be4289bf393"},"vehicle_type_id":"4","last_reported":1687107899,"current_range_meters":2400,"station_id":"ce4bgi92rcd13ifvqb90","pricing_plan_id":"free"},{"bike_id":"eb56f040-d7e3-440c-9d05-82afe187dd21","system_id":"levelo_inurba_marseille","lat":43.299707,"lon":5.384859,"is_reserved":false,"is_disabled":false,"rental_uris":{"android":"levelo://app?vid=eb56f040-d7e3-440c-9d05-82afe187dd21","ios":"levelo://app?vid=eb56f040-d7e3-440c-9d05-82afe187dd21"},"vehicle_type_id":"4","last_reported":1687107899,"current_range_meters":27600,"station_id":"ce4bgj92rcd13ifvqbd0","pricing_plan_id":"free"},{"bike_id":"902ad9e1-b349-4620-8b91-6ae16482858a","system_id":"levelo_inurba_marseille","lat":43.29532,"lon":5.37504,"is_reserved":false,"is_disabled":false,"rental_uris":{"android":"levelo://app?vid=902ad9e1-b349-4620-8b91-6ae16482858a","ios":"levelo://app?vid=902ad9e1-b349-4620-8b91-6ae16482858a"},"vehicle_type_id":"4","last_reported":1687107899,"current_range_meters":10000,"station_id":"ce4bgkp2rcd13ifvqbmg","pricing_plan_id":"free"},{"bike_id":"992a9430-936b-4ac7-b193-a404dd4c74ea","system_id":"levelo_inurba_marseille","lat":43.2953,"lon":5.37509,"is_reserved":false,"is_disabled":false,"rental_uris":{"android":"levelo://app?vid=992a9430-936b-4ac7-b193-a404dd4c74ea","ios":"levelo://app?vid=992a9430-936b-4ac7-b193-a404dd4c74ea"},"vehicle_type_id":"4","last_reported":1687107899,"current_range_meters":16800,"station_id":"ce4bgkp2rcd13ifvqbmg","pricing_plan_id":"free"},{"bike_id":"eaedd4c5-03f7-479d-ad4f-00b530bb038b","system_id":"levelo_inurba_marseille","lat":43.295279,"lon":5.375048,"is_reserved":false,"is_disabled":false,"rental_uris":{"android":"levelo://app?vid=eaedd4c5-03f7-479d-ad4f-00b530bb038b","ios":"levelo://app?vid=eaedd4c5-03f7-479d-ad4f-00b530bb038b"},"vehicle_type_id":"4","last_reported":1687107899,"current_range_meters":6400,"station_id":"ce4bgkp2rcd13ifvqbmg","pricing_plan_id":"free"},{"bike_id":"bb335696-9086-470f-9c5f-1244bc2e0b8f","system_id":"levelo_inurba_marseille","lat":43.299717,"lon":5.384845,"is_reserved":false,"is_disabled":false,"rental_uris":{"android":"levelo://app?vid=bb335696-9086-470f-9c5f-1244bc2e0b8f","ios":"levelo://app?vid=bb335696-9086-470f-9c5f-1244bc2e0b8f"},"vehicle_type_id":"4","last_reported":1687107899,"current_range_meters":27600,"station_id":"ce4bgj92rcd13ifvqbd0","pricing_plan_id":"free"},{"bike_id":"c25bbca6-334a-48c9-b2aa-c69eb97c9d81","system_id":"levelo_inurba_marseille","lat":43.32367,"lon":5.388836,"is_reserved":false,"is_disabled":false,"rental_uris":{"android":"levelo://app?vid=c25bbca6-334a-48c9-b2aa-c69eb97c9d81","ios":"levelo://app?vid=c25bbca6-334a-48c9-b2aa-c69eb97c9d81"},"vehicle_type_id":"4","last_reported":1687107899,"current_range_meters":29200,"station_id":"ce4bhqp2rcd13ifvqhog","pricing_plan_id":"free"},{"bike_id":"992db36a-7a22-4520-a1f4-2dd688c5eaa3","system_id":"levelo_inurba_marseille","lat":43.2936,"lon":5.37835,"is_reserved":false,"is_disabled":false,"rental_uris":{"android":"levelo://app?vid=992db36a-7a22-4520-a1f4-2dd688c5eaa3","ios":"levelo://app?vid=992db36a-7a22-4520-a1f4-2dd688c5eaa3"},"vehicle_type_id":"4","last_reported":1687107899,"current_range_meters":9200,"station_id":"ce4bgjh2rcd13ifvqbf0","pricing_plan_id":"free"},{"bike_id":"f24bc3f9-2146-4e18-9b40-5afcfc55bb81","system_id":"levelo_inurba_marseille","lat":43.292311,"lon":5.360731,"is_reserved":false,"is_disabled":false,"rental_uris":{"android":"levelo://app?vid=f24bc3f9-2146-4e18-9b40-5afcfc55bb81","ios":"levelo://app?vid=f24bc3f9-2146-4e18-9b40-5afcfc55bb81"},"vehicle_type_id":"4","last_reported":1687107899,"current_range_meters":4800,"station_id":"ce4bhbh2rcd13ifvqeqg","pricing_plan_id":"free"},{"bike_id":"f190d65d-b73a-4481-9253-fee629e9d337","system_id":"levelo_inurba_marseille","lat":43.29173,"lon":5.37156,"is_reserved":false,"is_disabled":false,"rental_uris":{"android":"levelo://app?vid=f190d65d-b73a-4481-9253-fee629e9d337","ios":"levelo://app?vid=f190d65d-b73a-4481-9253-fee629e9d337"},"vehicle_type_id":"4","last_reported":1687107899,"current_range_meters":29600,"station_id":"ce4bha92rcd13ifvqeh0","pricing_plan_id":"free"},{"bike_id":"6a823635-0af9-47b3-87f5-94a26ee7c19b","system_id":"levelo_inurba_marseille","lat":43.31333,"lon":5.397,"is_reserved":false,"is_disabled":false,"rental_uris":{"android":"levelo://app?vid=6a823635-0af9-47b3-87f5-94a26ee7c19b","ios":"levelo://app?vid=6a823635-0af9-47b3-87f5-94a26ee7c19b"},"vehicle_type_id":"4","last_reported":1687107899,"current_range_meters":0,"station_id":"ce4bgvp2rcd13ifvqcu0","pricing_plan_id":"free"},{"bike_id":"acc8a4fa-c31e-4015-b498-8a28a59a95b7","system_id":"levelo_inurba_marseille","lat":43.290327,"lon":5.375711,"is_reserved":false,"is_disabled":false,"rental_uris":{"android":"levelo://app?vid=acc8a4fa-c31e-4015-b498-8a28a59a95b7","ios":"levelo://app?vid=acc8a4fa-c31e-4015-b498-8a28a59a95b7"},"vehicle_type_id":"4","last_reported":1687107899,"current_range_meters":13600,"station_id":"ce4bh692rcd13ifvqe90","pricing_plan_id":"free"},{"bike_id":"7f026ab5-0235-45a5-acf2-e34441457df2","system_id":"levelo_inurba_marseille","lat":43.289184,"lon":5.366408,"is_reserved":false,"is_disabled":false,"rental_uris":{"android":"levelo://app?vid=7f026ab5-0235-45a5-acf2-e34441457df2","ios":"levelo://app?vid=7f026ab5-0235-45a5-acf2-e34441457df2"},"vehicle_type_id":"4","last_reported":1687107899,"current_range_meters":8000,"station_id":"ce4bhap2rcd13ifvqek0","pricing_plan_id":"free"},{"bike_id":"bff17b05-6d9e-4404-8315-acced4e2d3b2","system_id":"levelo_inurba_marseille","lat":43.289468,"lon":5.363719,"is_reserved":false,"is_disabled":false,"rental_uris":{"android":"levelo://app?vid=bff17b05-6d9e-4404-8315-acced4e2d3b2","ios":"levelo://app?vid=bff17b05-6d9e-4404-8315-acced4e2d3b2"},"vehicle_type_id":"4","last_reported":1687107899,"current_range_meters":19600,"station_id":"ce4bhc92rcd13ifvqetg","pricing_plan_id":"free"},{"bike_id":"839ebc16-d9bd-4972-9186-0ff3ffafd320","system_id":"levelo_inurba_marseille","lat":43.304296,"lon":5.397513,"is_reserved":false,"is_disabled":false,"rental_uris":{"android":"levelo://app?vid=839ebc16-d9bd-4972-9186-0ff3ffafd320","ios":"levelo://app?vid=839ebc16-d9bd-4972-9186-0ff3ffafd320"},"vehicle_type_id":"4","last_reported":1687107899,"current_range_meters":2000,"station_id":"ce4bh092rcd13ifvqd20","pricing_plan_id":"free"},{"bike_id":"1c6e7875-a203-4a5f-8c4e-96a39d18950b","system_id":"levelo_inurba_marseille","lat":43.304296,"lon":5.397513,"is_reserved":false,"is_disabled":false,"rental_uris":{"android":"levelo://app?vid=1c6e7875-a203-4a5f-8c4e-96a39d18950b","ios":"levelo://app?vid=1c6e7875-a203-4a5f-8c4e-96a39d18950b"},"vehicle_type_id":"4","last_reported":1687107899,"current_range_meters":400,"station_id":"ce4bh092rcd13ifvqd20","pricing_plan_id":"free"},{"bike_id":"38eb09af-7166-42b9-865e-84246929498f","system_id":"levelo_inurba_marseille","lat":43.292644,"lon":5.384257,"is_reserved":false,"is_disabled":false,"rental_uris":{"android":"levelo://app?vid=38eb09af-7166-42b9-865e-84246929498f","ios":"levelo://app?vid=38eb09af-7166-42b9-865e-84246929498f"},"vehicle_type_id":"4","last_reported":1687107899,"current_range_meters":31200,"station_id":"ce4bh692rcd13ifvqea0","pricing_plan_id":"free"},{"bike_id":"ae3cfb17-ac07-4acf-8d45-c2a04670ee66","system_id":"levelo_inurba_marseille","lat":43.28913,"lon":5.37142,"is_reserved":false,"is_disabled":false,"rental_uris":{"android":"levelo://app?vid=ae3cfb17-ac07-4acf-8d45-c2a04670ee66","ios":"levelo://app?vid=ae3cfb17-ac07-4acf-8d45-c2a04670ee66"},"vehicle_type_id":"4","last_reported":1687107899,"current_range_meters":20000,"station_id":"","pricing_plan_id":"free"},{"bike_id":"9513c0b3-925c-4e9f-8f43-7e4b37467361","system_id":"levelo_inurba_marseille","lat":43.29004,"lon":5.35612,"is_reserved":false,"is_disabled":false,"rental_uris":{"android":"levelo://app?vid=9513c0b3-925c-4e9f-8f43-7e4b37467361","ios":"levelo://app?vid=9513c0b3-925c-4e9f-8f43-7e4b37467361"},"vehicle_type_id":"4","last_reported":1687107899,"current_range_meters":0,"station_id":"ce4bhb92rcd13ifvqen0","pricing_plan_id":"free"},{"bike_id":"b4ec27c4-aa0e-4493-aba0-e5a2b543265c","system_id":"levelo_inurba_marseille","lat":43.290104,"lon":5.356111,"is_reserved":false,"is_disabled":false,"rental_uris":{"android":"levelo://app?vid=b4ec27c4-aa0e-4493-aba0-e5a2b543265c","ios":"levelo://app?vid=b4ec27c4-aa0e-4493-aba0-e5a2b543265c"},"vehicle_type_id":"4","last_reported":1687107899,"current_range_meters":19600,"station_id":"ce4bhb92rcd13ifvqen0","pricing_plan_id":"free"},{"bike_id":"b9b44b37-7edf-4ab6-8685-17eb58a26dbc","system_id":"levelo_inurba_marseille","lat":43.295169,"lon":5.390426,"is_reserved":false,"is_disabled":false,"rental_uris":{"android":"levelo://app?vid=b9b44b37-7edf-4ab6-8685-17eb58a26dbc","ios":"levelo://app?vid=b9b44b37-7edf-4ab6-8685-17eb58a26dbc"},"vehicle_type_id":"4","last_reported":1687107899,"current_range_meters":30000,"station_id":"ce4bh3p2rcd13ifvqdp0","pricing_plan_id":"free"},{"bike_id":"e4fecffe-2c9c-4f00-9765-613f94451d93","system_id":"levelo_inurba_marseille","lat":43.293009,"lon":5.374584,"is_reserved":false,"is_disabled":false,"rental_uris":{"android":"levelo://app?vid=e4fecffe-2c9c-4f00-9765-613f94451d93","ios":"levelo://app?vid=e4fecffe-2c9c-4f00-9765-613f94451d93"},"vehicle_type_id":"4","last_reported":1687107899,"current_range_meters":12800,"station_id":"ce4bgi12rcd13ifvqb70","pricing_plan_id":"free"},{"bike_id":"cac1b2c8-c2bb-45ff-8641-e6d638547753","system_id":"levelo_inurba_marseille","lat":43.29026,"lon":5.38129,"is_reserved":false,"is_disabled":false,"rental_uris":{"android":"levelo://app?vid=cac1b2c8-c2bb-45ff-8641-e6d638547753","ios":"levelo://app?vid=cac1b2c8-c2bb-45ff-8641-e6d638547753"},"vehicle_type_id":"4","last_reported":1687107899,"current_range_meters":4400,"station_id":"ce4bh4p2rcd13ifvqe1g","pricing_plan_id":"free"},{"bike_id":"6ba6170e-4f18-4860-8fcb-a68f1945b751","system_id":"levelo_inurba_marseille","lat":43.297163,"lon":5.365866,"is_reserved":false,"is_disabled":false,"rental_uris":{"android":"levelo://app?vid=6ba6170e-4f18-4860-8fcb-a68f1945b751","ios":"levelo://app?vid=6ba6170e-4f18-4860-8fcb-a68f1945b751"},"vehicle_type_id":"4","last_reported":1687107899,"current_range_meters":14400,"station_id":"ce4bgn12rcd13ifvqbt0","pricing_plan_id":"free"},{"bike_id":"a95b56b6-8a29-46a4-af2b-6064ca78935b","system_id":"levelo_inurba_marseille","lat":43.28852,"lon":5.35836,"is_reserved":false,"is_disabled":false,"rental_uris":{"android":"levelo://app?vid=a95b56b6-8a29-46a4-af2b-6064ca78935b","ios":"levelo://app?vid=a95b56b6-8a29-46a4-af2b-6064ca78935b"},"vehicle_type_id":"4","last_reported":1687107899,"current_range_meters":11200,"station_id":"ce4bhb12rcd13ifvqem0","pricing_plan_id":"free"},{"bike_id":"f6fdb2e2-83f1-4d11-ab19-3693541f697a","system_id":"levelo_inurba_marseille","lat":43.28856,"lon":5.358371,"is_reserved":false,"is_disabled":false,"rental_uris":{"android":"levelo://app?vid=f6fdb2e2-83f1-4d11-ab19-3693541f697a","ios":"levelo://app?vid=f6fdb2e2-83f1-4d11-ab19-3693541f697a"},"vehicle_type_id":"4","last_reported":1687107899,"current_range_meters":4800,"station_id":"ce4bhb12rcd13ifvqem0","pricing_plan_id":"free"},{"bike_id":"c0fb8083-e02d-4dec-b1b9-fa095e6c5b75","system_id":"levelo_inurba_marseille","lat":43.337396,"lon":5.374526,"is_reserved":false,"is_disabled":false,"rental_uris":{"android":"levelo://app?vid=c0fb8083-e02d-4dec-b1b9-fa095e6c5b75","ios":"levelo://app?vid=c0fb8083-e02d-4dec-b1b9-fa095e6c5b75"},"vehicle_type_id":"4","last_reported":1687107899,"current_range_meters":0,"station_id":"ce4bhp92rcd13ifvqhag","pricing_plan_id":"free"},{"bike_id":"b69e1b52-fa04-4d28-84d9-250b65900b8f","system_id":"levelo_inurba_marseille","lat":43.309371,"lon":5.401449,"is_reserved":false,"is_disabled":false,"rental_uris":{"android":"levelo://app?vid=b69e1b52-fa04-4d28-84d9-250b65900b8f","ios":"levelo://app?vid=b69e1b52-fa04-4d28-84d9-250b65900b8f"},"vehicle_type_id":"4","last_reported":1687107899,"current_range_meters":5200,"station_id":"ce4bgvp2rcd13ifvqct0","pricing_plan_id":"free"},{"bike_id":"f40041df-a438-42f6-b415-1daea0cb0177","system_id":"levelo_inurba_marseille","lat":43.309371,"lon":5.401449,"is_reserved":false,"is_disabled":false,"rental_uris":{"android":"levelo://app?vid=f40041df-a438-42f6-b415-1daea0cb0177","ios":"levelo://app?vid=f40041df-a438-42f6-b415-1daea0cb0177"},"vehicle_type_id":"4","last_reported":1687107899,"current_range_meters":2800,"station_id":"ce4bgvp2rcd13ifvqct0","pricing_plan_id":"free"},{"bike_id":"41a8749b-6d93-4d1b-8e52-c5f60f65ae7c","system_id":"levelo_inurba_marseille","lat":43.33752,"lon":5.37443,"is_reserved":false,"is_disabled":false,"rental_uris":{"android":"levelo://app?vid=41a8749b-6d93-4d1b-8e52-c5f60f65ae7c","ios":"levelo://app?vid=41a8749b-6d93-4d1b-8e52-c5f60f65ae7c"},"vehicle_type_id":"4","last_reported":1687107899,"current_range_meters":26400,"station_id":"","pricing_plan_id":"free"},{"bike_id":"ae6e8fb4-89d1-4db2-9c19-b7d15d3ed259","system_id":"levelo_inurba_marseille","lat":43.309371,"lon":5.401449,"is_reserved":false,"is_disabled":false,"rental_uris":{"android":"levelo://app?vid=ae6e8fb4-89d1-4db2-9c19-b7d15d3ed259","ios":"levelo://app?vid=ae6e8fb4-89d1-4db2-9c19-b7d15d3ed259"},"vehicle_type_id":"4","last_reported":1687107899,"current_range_meters":10400,"station_id":"ce4bgvp2rcd13ifvqct0","pricing_plan_id":"free"},{"bike_id":"5d63da09-4cfa-4ddb-89cb-197bdc92550c","system_id":"levelo_inurba_marseille","lat":43.290336,"lon":5.386425,"is_reserved":false,"is_disabled":false,"rental_uris":{"android":"levelo://app?vid=5d63da09-4cfa-4ddb-89cb-197bdc92550c","ios":"levelo://app?vid=5d63da09-4cfa-4ddb-89cb-197bdc92550c"},"vehicle_type_id":"4","last_reported":1687107899,"current_range_meters":18400,"station_id":"ce4bh4p2rcd13ifvqe0g","pricing_plan_id":"free"},{"bike_id":"19c83bbe-28b7-4081-bd0c-2ff39be54bd1","system_id":"levelo_inurba_marseille","lat":43.290336,"lon":5.386425,"is_reserved":false,"is_disabled":false,"rental_uris":{"android":"levelo://app?vid=19c83bbe-28b7-4081-bd0c-2ff39be54bd1","ios":"levelo://app?vid=19c83bbe-28b7-4081-bd0c-2ff39be54bd1"},"vehicle_type_id":"4","last_reported":1687107899,"current_range_meters":20800,"station_id":"ce4bh4p2rcd13ifvqe0g","pricing_plan_id":"free"},{"bike_id":"b5ae55e7-2b74-4dc9-9ce7-77a5da983c6d","system_id":"levelo_inurba_marseille","lat":43.287184,"lon":5.37937,"is_reserved":false,"is_disabled":false,"rental_uris":{"android":"levelo://app?vid=b5ae55e7-2b74-4dc9-9ce7-77a5da983c6d","ios":"levelo://app?vid=b5ae55e7-2b74-4dc9-9ce7-77a5da983c6d"},"vehicle_type_id":"4","last_reported":1687107899,"current_range_meters":14400,"station_id":"ce4bh9p2rcd13ifvqec0","pricing_plan_id":"free"},{"bike_id":"395d2c54-2000-4ee8-a3b2-747e17c82d94","system_id":"levelo_inurba_marseille","lat":43.287184,"lon":5.37937,"is_reserved":false,"is_disabled":false,"rental_uris":{"android":"levelo://app?vid=395d2c54-2000-4ee8-a3b2-747e17c82d94","ios":"levelo://app?vid=395d2c54-2000-4ee8-a3b2-747e17c82d94"},"vehicle_type_id":"4","last_reported":1687107899,"current_range_meters":0,"station_id":"ce4bh9p2rcd13ifvqec0","pricing_plan_id":"free"},{"bike_id":"1828c6d5-6942-4c14-92c5-9d194b26debd","system_id":"levelo_inurba_marseille","lat":43.291994,"lon":5.392907,"is_reserved":false,"is_disabled":false,"rental_uris":{"android":"levelo://app?vid=1828c6d5-6942-4c14-92c5-9d194b26debd","ios":"levelo://app?vid=1828c6d5-6942-4c14-92c5-9d194b26debd"},"vehicle_type_id":"4","last_reported":1687107899,"current_range_meters":9600,"station_id":"ce4bh192rcd13ifvqdd0","pricing_plan_id":"free"},{"bike_id":"2003d9fa-437d-45a2-a968-6be6774039fa","system_id":"levelo_inurba_marseille","lat":43.284534,"lon":5.358662,"is_reserved":false,"is_disabled":false,"rental_uris":{"android":"levelo://app?vid=2003d9fa-437d-45a2-a968-6be6774039fa","ios":"levelo://app?vid=2003d9fa-437d-45a2-a968-6be6774039fa"},"vehicle_type_id":"4","last_reported":1687107899,"current_range_meters":22000,"station_id":"ce4bhah2rcd13ifvqei0","pricing_plan_id":"free"},{"bike_id":"f8896b7d-1752-4816-8247-b59ff789e8eb","system_id":"levelo_inurba_marseille","lat":43.285856,"lon":5.350771,"is_reserved":false,"is_disabled":false,"rental_uris":{"android":"levelo://app?vid=f8896b7d-1752-4816-8247-b59ff789e8eb","ios":"levelo://app?vid=f8896b7d-1752-4816-8247-b59ff789e8eb"},"vehicle_type_id":"4","last_reported":1687107899,"current_range_meters":18000,"station_id":"ce4bhch2rcd13ifvqeug","pricing_plan_id":"free"},{"bike_id":"8ccd7c34-8984-46c7-a9f8-1e799f46af09","system_id":"levelo_inurba_marseille","lat":43.28519,"lon":5.35096,"is_reserved":false,"is_disabled":false,"rental_uris":{"android":"levelo://app?vid=8ccd7c34-8984-46c7-a9f8-1e799f46af09","ios":"levelo://app?vid=8ccd7c34-8984-46c7-a9f8-1e799f46af09"},"vehicle_type_id":"4","last_reported":1687107899,"current_range_meters":4800,"station_id":"","pricing_plan_id":"free"},{"bike_id":"43275ef6-770c-4f0e-926c-1c3aecd7abec","system_id":"levelo_inurba_marseille","lat":43.287909,"lon":5.390554,"is_reserved":false,"is_disabled":false,"rental_uris":{"android":"levelo://app?vid=43275ef6-770c-4f0e-926c-1c3aecd7abec","ios":"levelo://app?vid=43275ef6-770c-4f0e-926c-1c3aecd7abec"},"vehicle_type_id":"4","last_reported":1687107899,"current_range_meters":12000,"station_id":"","pricing_plan_id":"free"},{"bike_id":"536b47a7-25f9-49cb-9608-1b3c49b68cf4","system_id":"levelo_inurba_marseille","lat":43.33727,"lon":5.39192,"is_reserved":false,"is_disabled":false,"rental_uris":{"android":"levelo://app?vid=536b47a7-25f9-49cb-9608-1b3c49b68cf4","ios":"levelo://app?vid=536b47a7-25f9-49cb-9608-1b3c49b68cf4"},"vehicle_type_id":"4","last_reported":1687107899,"current_range_meters":9600,"station_id":"","pricing_plan_id":"free"},{"bike_id":"25b56d81-fc32-46b0-a7eb-bd02a282c6e2","system_id":"levelo_inurba_marseille","lat":43.288501,"lon":5.393087,"is_reserved":false,"is_disabled":false,"rental_uris":{"android":"levelo://app?vid=25b56d81-fc32-46b0-a7eb-bd02a282c6e2","ios":"levelo://app?vid=25b56d81-fc32-46b0-a7eb-bd02a282c6e2"},"vehicle_type_id":"4","last_reported":1687107899,"current_range_meters":4400,"station_id":"ce4bh2p2rcd13ifvqdi0","pricing_plan_id":"free"},{"bike_id":"eaf55baf-3e9f-4aed-8e9d-e3ef26584c47","system_id":"levelo_inurba_marseille","lat":43.288501,"lon":5.393087,"is_reserved":false,"is_disabled":false,"rental_uris":{"android":"levelo://app?vid=eaf55baf-3e9f-4aed-8e9d-e3ef26584c47","ios":"levelo://app?vid=eaf55baf-3e9f-4aed-8e9d-e3ef26584c47"},"vehicle_type_id":"4","last_reported":1687107899,"current_range_meters":19200,"station_id":"ce4bh2p2rcd13ifvqdi0","pricing_plan_id":"free"},{"bike_id":"4dc4142d-0a06-4638-b758-7b22f1c473e9","system_id":"levelo_inurba_marseille","lat":43.288501,"lon":5.393087,"is_reserved":false,"is_disabled":false,"rental_uris":{"android":"levelo://app?vid=4dc4142d-0a06-4638-b758-7b22f1c473e9","ios":"levelo://app?vid=4dc4142d-0a06-4638-b758-7b22f1c473e9"},"vehicle_type_id":"4","last_reported":1687107899,"current_range_meters":6800,"station_id":"ce4bh2p2rcd13ifvqdi0","pricing_plan_id":"free"},{"bike_id":"00b4d942-d645-4a17-a320-9c02b5ecca68","system_id":"levelo_inurba_marseille","lat":43.288501,"lon":5.393087,"is_reserved":false,"is_disabled":false,"rental_uris":{"android":"levelo://app?vid=00b4d942-d645-4a17-a320-9c02b5ecca68","ios":"levelo://app?vid=00b4d942-d645-4a17-a320-9c02b5ecca68"},"vehicle_type_id":"4","last_reported":1687107899,"current_range_meters":21200,"station_id":"ce4bh2p2rcd13ifvqdi0","pricing_plan_id":"free"},{"bike_id":"16e5fedd-6e86-436a-a0a2-72c7cd60a6ea","system_id":"levelo_inurba_marseille","lat":43.32194,"lon":5.40786,"is_reserved":false,"is_disabled":false,"rental_uris":{"android":"levelo://app?vid=16e5fedd-6e86-436a-a0a2-72c7cd60a6ea","ios":"levelo://app?vid=16e5fedd-6e86-436a-a0a2-72c7cd60a6ea"},"vehicle_type_id":"4","last_reported":1687107899,"current_range_meters":31200,"station_id":"","pricing_plan_id":"free"},{"bike_id":"aa6d9301-a524-4ff6-8e4e-7484a4503089","system_id":"levelo_inurba_marseille","lat":43.284217,"lon":5.349697,"is_reserved":false,"is_disabled":false,"rental_uris":{"android":"levelo://app?vid=aa6d9301-a524-4ff6-8e4e-7484a4503089","ios":"levelo://app?vid=aa6d9301-a524-4ff6-8e4e-7484a4503089"},"vehicle_type_id":"4","last_reported":1687107899,"current_range_meters":10400,"station_id":"ce4bhbh2rcd13ifvqepg","pricing_plan_id":"free"},{"bike_id":"8cd22278-e69e-4639-a329-40d54e6be62d","system_id":"levelo_inurba_marseille","lat":43.283502,"lon":5.386471,"is_reserved":false,"is_disabled":false,"rental_uris":{"android":"levelo://app?vid=8cd22278-e69e-4639-a329-40d54e6be62d","ios":"levelo://app?vid=8cd22278-e69e-4639-a329-40d54e6be62d"},"vehicle_type_id":"4","last_reported":1687107899,"current_range_meters":12800,"station_id":"ce4bh492rcd13ifvqdvg","pricing_plan_id":"free"},{"bike_id":"fcb79012-0347-4567-9912-0621765655ea","system_id":"levelo_inurba_marseille","lat":43.282744,"lon":5.350533,"is_reserved":false,"is_disabled":false,"rental_uris":{"android":"levelo://app?vid=fcb79012-0347-4567-9912-0621765655ea","ios":"levelo://app?vid=fcb79012-0347-4567-9912-0621765655ea"},"vehicle_type_id":"4","last_reported":1687107899,"current_range_meters":0,"station_id":"ce4bhbp2rcd13ifvqerg","pricing_plan_id":"free"},{"bike_id":"1e3c6b06-1d07-4b6b-ba81-01f8eeaeea43","system_id":"levelo_inurba_marseille","lat":43.28039,"lon":5.369297,"is_reserved":false,"is_disabled":false,"rental_uris":{"android":"levelo://app?vid=1e3c6b06-1d07-4b6b-ba81-01f8eeaeea43","ios":"levelo://app?vid=1e3c6b06-1d07-4b6b-ba81-01f8eeaeea43"},"vehicle_type_id":"4","last_reported":1687107899,"current_range_meters":15200,"station_id":"ce4bha12rcd13ifvqef0","pricing_plan_id":"free"},{"bike_id":"93f1203e-a9a5-4fe0-a665-4a188e4b3232","system_id":"levelo_inurba_marseille","lat":43.28042,"lon":5.36942,"is_reserved":false,"is_disabled":false,"rental_uris":{"android":"levelo://app?vid=93f1203e-a9a5-4fe0-a665-4a188e4b3232","ios":"levelo://app?vid=93f1203e-a9a5-4fe0-a665-4a188e4b3232"},"vehicle_type_id":"4","last_reported":1687107899,"current_range_meters":10000,"station_id":"ce4bha12rcd13ifvqef0","pricing_plan_id":"free"},{"bike_id":"e96429ac-7052-4230-ae79-b292b7775607","system_id":"levelo_inurba_marseille","lat":43.28041,"lon":5.36935,"is_reserved":false,"is_disabled":false,"rental_uris":{"android":"levelo://app?vid=e96429ac-7052-4230-ae79-b292b7775607","ios":"levelo://app?vid=e96429ac-7052-4230-ae79-b292b7775607"},"vehicle_type_id":"4","last_reported":1687107899,"current_range_meters":16800,"station_id":"ce4bha12rcd13ifvqef0","pricing_plan_id":"free"},{"bike_id":"0485fab0-b1a8-45b3-98a0-2ffcc76c3c8f","system_id":"levelo_inurba_marseille","lat":43.280382,"lon":5.369291,"is_reserved":false,"is_disabled":false,"rental_uris":{"android":"levelo://app?vid=0485fab0-b1a8-45b3-98a0-2ffcc76c3c8f","ios":"levelo://app?vid=0485fab0-b1a8-45b3-98a0-2ffcc76c3c8f"},"vehicle_type_id":"4","last_reported":1687107899,"current_range_meters":6400,"station_id":"ce4bha12rcd13ifvqef0","pricing_plan_id":"free"},{"bike_id":"aea2675c-7cab-4487-8d05-d42976007e92","system_id":"levelo_inurba_marseille","lat":43.28034,"lon":5.36931,"is_reserved":false,"is_disabled":false,"rental_uris":{"android":"levelo://app?vid=aea2675c-7cab-4487-8d05-d42976007e92","ios":"levelo://app?vid=aea2675c-7cab-4487-8d05-d42976007e92"},"vehicle_type_id":"4","last_reported":1687107899,"current_range_meters":2000,"station_id":"ce4bha12rcd13ifvqef0","pricing_plan_id":"free"},{"bike_id":"3eb1515c-403b-4705-b1e7-2cf49cafc1a7","system_id":"levelo_inurba_marseille","lat":43.281044,"lon":5.378308,"is_reserved":false,"is_disabled":false,"rental_uris":{"android":"levelo://app?vid=3eb1515c-403b-4705-b1e7-2cf49cafc1a7","ios":"levelo://app?vid=3eb1515c-403b-4705-b1e7-2cf49cafc1a7"},"vehicle_type_id":"4","last_reported":1687107899,"current_range_meters":3200,"station_id":"ce4bha12rcd13ifvqee0","pricing_plan_id":"free"},{"bike_id":"f9bbb0ea-4e51-41f2-88f8-78866b0294ee","system_id":"levelo_inurba_marseille","lat":43.284462,"lon":5.392121,"is_reserved":false,"is_disabled":false,"rental_uris":{"android":"levelo://app?vid=f9bbb0ea-4e51-41f2-88f8-78866b0294ee","ios":"levelo://app?vid=f9bbb0ea-4e51-41f2-88f8-78866b0294ee"},"vehicle_type_id":"4","last_reported":1687107899,"current_range_meters":0,"station_id":"ce4bhoh2rcd13ifvqh5g","pricing_plan_id":"free"},{"bike_id":"e7607c34-2658-48c5-8894-429c92362894","system_id":"levelo_inurba_marseille","lat":43.285742,"lon":5.395004,"is_reserved":false,"is_disabled":false,"rental_uris":{"android":"levelo://app?vid=e7607c34-2658-48c5-8894-429c92362894","ios":"levelo://app?vid=e7607c34-2658-48c5-8894-429c92362894"},"vehicle_type_id":"4","last_reported":1687107899,"current_range_meters":12800,"station_id":"ce4bh292rcd13ifvqdg0","pricing_plan_id":"free"},{"bike_id":"d852f400-3f6d-410c-b0a0-e8cefa552d0b","system_id":"levelo_inurba_marseille","lat":43.28568,"lon":5.39497,"is_reserved":false,"is_disabled":false,"rental_uris":{"android":"levelo://app?vid=d852f400-3f6d-410c-b0a0-e8cefa552d0b","ios":"levelo://app?vid=d852f400-3f6d-410c-b0a0-e8cefa552d0b"},"vehicle_type_id":"4","last_reported":1687107899,"current_range_meters":8000,"station_id":"","pricing_plan_id":"free"},{"bike_id":"672ca5d9-8b55-4ab1-836e-86961f106880","system_id":"levelo_inurba_marseille","lat":43.32653,"lon":5.40997,"is_reserved":false,"is_disabled":false,"rental_uris":{"android":"levelo://app?vid=672ca5d9-8b55-4ab1-836e-86961f106880","ios":"levelo://app?vid=672ca5d9-8b55-4ab1-836e-86961f106880"},"vehicle_type_id":"4","last_reported":1687107899,"current_range_meters":29200,"station_id":"ce4bhpp2rcd13ifvqhgg","pricing_plan_id":"free"},{"bike_id":"a3da8216-1249-455b-b949-9e5893b42718","system_id":"levelo_inurba_marseille","lat":43.3266,"lon":5.40993,"is_reserved":false,"is_disabled":false,"rental_uris":{"android":"levelo://app?vid=a3da8216-1249-455b-b949-9e5893b42718","ios":"levelo://app?vid=a3da8216-1249-455b-b949-9e5893b42718"},"vehicle_type_id":"4","last_reported":1687107899,"current_range_meters":24800,"station_id":"ce4bhpp2rcd13ifvqhgg","pricing_plan_id":"free"},{"bike_id":"0f1036b8-e561-4078-8678-2d094e6d0668","system_id":"levelo_inurba_marseille","lat":43.304188,"lon":5.412904,"is_reserved":false,"is_disabled":false,"rental_uris":{"android":"levelo://app?vid=0f1036b8-e561-4078-8678-2d094e6d0668","ios":"levelo://app?vid=0f1036b8-e561-4078-8678-2d094e6d0668"},"vehicle_type_id":"4","last_reported":1687107899,"current_range_meters":14000,"station_id":"ce4bhop2rcd13ifvqh8g","pricing_plan_id":"free"},{"bike_id":"abe0cb22-604f-4912-a059-7319753bd9f3","system_id":"levelo_inurba_marseille","lat":43.304188,"lon":5.412904,"is_reserved":false,"is_disabled":false,"rental_uris":{"android":"levelo://app?vid=abe0cb22-604f-4912-a059-7319753bd9f3","ios":"levelo://app?vid=abe0cb22-604f-4912-a059-7319753bd9f3"},"vehicle_type_id":"4","last_reported":1687107899,"current_range_meters":5200,"station_id":"ce4bhop2rcd13ifvqh8g","pricing_plan_id":"free"},{"bike_id":"642a746c-523a-4cb2-b6ed-594b53ad81da","system_id":"levelo_inurba_marseille","lat":43.304188,"lon":5.412904,"is_reserved":false,"is_disabled":false,"rental_uris":{"android":"levelo://app?vid=642a746c-523a-4cb2-b6ed-594b53ad81da","ios":"levelo://app?vid=642a746c-523a-4cb2-b6ed-594b53ad81da"},"vehicle_type_id":"4","last_reported":1687107899,"current_range_meters":22400,"station_id":"ce4bhop2rcd13ifvqh8g","pricing_plan_id":"free"},{"bike_id":"348eff14-e285-49de-8665-b8d168202af1","system_id":"levelo_inurba_marseille","lat":43.27909,"lon":5.38013,"is_reserved":false,"is_disabled":false,"rental_uris":{"android":"levelo://app?vid=348eff14-e285-49de-8665-b8d168202af1","ios":"levelo://app?vid=348eff14-e285-49de-8665-b8d168202af1"},"vehicle_type_id":"4","last_reported":1687107899,"current_range_meters":1200,"station_id":"","pricing_plan_id":"free"},{"bike_id":"2a851b19-969c-44c6-a85f-0d220ef48f87","system_id":"levelo_inurba_marseille","lat":43.287154,"lon":5.399979,"is_reserved":false,"is_disabled":false,"rental_uris":{"android":"levelo://app?vid=2a851b19-969c-44c6-a85f-0d220ef48f87","ios":"levelo://app?vid=2a851b19-969c-44c6-a85f-0d220ef48f87"},"vehicle_type_id":"4","last_reported":1687107899,"current_range_meters":4000,"station_id":"ce4bho92rcd13ifvqh3g","pricing_plan_id":"free"},{"bike_id":"b9340faf-573b-4c94-bdda-41ff6cea8c76","system_id":"levelo_inurba_marseille","lat":43.320045,"lon":5.415046,"is_reserved":false,"is_disabled":false,"rental_uris":{"android":"levelo://app?vid=b9340faf-573b-4c94-bdda-41ff6cea8c76","ios":"levelo://app?vid=b9340faf-573b-4c94-bdda-41ff6cea8c76"},"vehicle_type_id":"4","last_reported":1687107899,"current_range_meters":30000,"station_id":"ce4bhq92rcd13ifvqhkg","pricing_plan_id":"free"},{"bike_id":"f3c266f2-b110-4e76-afb8-70d063259de9","system_id":"levelo_inurba_marseille","lat":43.29256,"lon":5.40906,"is_reserved":false,"is_disabled":false,"rental_uris":{"android":"levelo://app?vid=f3c266f2-b110-4e76-afb8-70d063259de9","ios":"levelo://app?vid=f3c266f2-b110-4e76-afb8-70d063259de9"},"vehicle_type_id":"4","last_reported":1687107899,"current_range_meters":0,"station_id":"ce4bh192rcd13ifvqdc0","pricing_plan_id":"free"},{"bike_id":"34d1f018-02be-40c1-9497-0e26f40b281f","system_id":"levelo_inurba_marseille","lat":43.27663,"lon":5.35762,"is_reserved":false,"is_disabled":false,"rental_uris":{"android":"levelo://app?vid=34d1f018-02be-40c1-9497-0e26f40b281f","ios":"levelo://app?vid=34d1f018-02be-40c1-9497-0e26f40b281f"},"vehicle_type_id":"4","last_reported":1687107899,"current_range_meters":22000,"station_id":"","pricing_plan_id":"free"},{"bike_id":"80d5e0f3-d3fb-4c1c-bfa6-4b6034cfea56","system_id":"levelo_inurba_marseille","lat":43.27615,"lon":5.36105,"is_reserved":false,"is_disabled":false,"rental_uris":{"android":"levelo://app?vid=80d5e0f3-d3fb-4c1c-bfa6-4b6034cfea56","ios":"levelo://app?vid=80d5e0f3-d3fb-4c1c-bfa6-4b6034cfea56"},"vehicle_type_id":"4","last_reported":1687107899,"current_range_meters":5200,"station_id":"ce4bgj92rcd13ifvqbe0","pricing_plan_id":"free"},{"bike_id":"f1823d82-43dc-4984-9359-7a508e9d8409","system_id":"levelo_inurba_marseille","lat":43.32549,"lon":5.41445,"is_reserved":false,"is_disabled":false,"rental_uris":{"android":"levelo://app?vid=f1823d82-43dc-4984-9359-7a508e9d8409","ios":"levelo://app?vid=f1823d82-43dc-4984-9359-7a508e9d8409"},"vehicle_type_id":"4","last_reported":1687107899,"current_range_meters":31200,"station_id":"ce4bhq12rcd13ifvqhhg","pricing_plan_id":"free"},{"bike_id":"ced32f98-29a4-4d6a-97da-6141dc726f17","system_id":"levelo_inurba_marseille","lat":43.278401,"lon":5.392152,"is_reserved":false,"is_disabled":false,"rental_uris":{"android":"levelo://app?vid=ced32f98-29a4-4d6a-97da-6141dc726f17","ios":"levelo://app?vid=ced32f98-29a4-4d6a-97da-6141dc726f17"},"vehicle_type_id":"4","last_reported":1687107899,"current_range_meters":800,"station_id":"ce4bhjp2rcd13ifvqga0","pricing_plan_id":"free"},{"bike_id":"23ff1f89-baad-4e98-bfbe-cb3d10eb118d","system_id":"levelo_inurba_marseille","lat":43.27381,"lon":5.36253,"is_reserved":false,"is_disabled":false,"rental_uris":{"android":"levelo://app?vid=23ff1f89-baad-4e98-bfbe-cb3d10eb118d","ios":"levelo://app?vid=23ff1f89-baad-4e98-bfbe-cb3d10eb118d"},"vehicle_type_id":"4","last_reported":1687107899,"current_range_meters":22800,"station_id":"ce4bhbh2rcd13ifvqeo0","pricing_plan_id":"free"},{"bike_id":"6275aaca-a354-407f-be44-df40f2969d44","system_id":"levelo_inurba_marseille","lat":43.273613,"lon":5.362705,"is_reserved":false,"is_disabled":false,"rental_uris":{"android":"levelo://app?vid=6275aaca-a354-407f-be44-df40f2969d44","ios":"levelo://app?vid=6275aaca-a354-407f-be44-df40f2969d44"},"vehicle_type_id":"4","last_reported":1687107899,"current_range_meters":31200,"station_id":"ce4bhbh2rcd13ifvqeo0","pricing_plan_id":"free"},{"bike_id":"9f42d45c-1aa5-411c-b465-4efdcdb8c07f","system_id":"levelo_inurba_marseille","lat":43.273613,"lon":5.362705,"is_reserved":false,"is_disabled":false,"rental_uris":{"android":"levelo://app?vid=9f42d45c-1aa5-411c-b465-4efdcdb8c07f","ios":"levelo://app?vid=9f42d45c-1aa5-411c-b465-4efdcdb8c07f"},"vehicle_type_id":"4","last_reported":1687107899,"current_range_meters":0,"station_id":"ce4bhbh2rcd13ifvqeo0","pricing_plan_id":"free"},{"bike_id":"3c778a55-138b-465a-b21b-5d6b6ffc7481","system_id":"levelo_inurba_marseille","lat":43.273613,"lon":5.362705,"is_reserved":false,"is_disabled":false,"rental_uris":{"android":"levelo://app?vid=3c778a55-138b-465a-b21b-5d6b6ffc7481","ios":"levelo://app?vid=3c778a55-138b-465a-b21b-5d6b6ffc7481"},"vehicle_type_id":"4","last_reported":1687107899,"current_range_meters":1200,"station_id":"ce4bhbh2rcd13ifvqeo0","pricing_plan_id":"free"},{"bike_id":"986e68ee-2366-40a1-a480-fd4070c67d95","system_id":"levelo_inurba_marseille","lat":43.310785,"lon":5.424305,"is_reserved":false,"is_disabled":false,"rental_uris":{"android":"levelo://app?vid=986e68ee-2366-40a1-a480-fd4070c67d95","ios":"levelo://app?vid=986e68ee-2366-40a1-a480-fd4070c67d95"},"vehicle_type_id":"4","last_reported":1687107899,"current_range_meters":23200,"station_id":"ce4bhp92rcd13ifvqhag","pricing_plan_id":"free"},{"bike_id":"c9118ee2-e487-41b2-adb4-b8e2b83b57d2","system_id":"levelo_inurba_marseille","lat":43.310785,"lon":5.424305,"is_reserved":false,"is_disabled":false,"rental_uris":{"android":"levelo://app?vid=c9118ee2-e487-41b2-adb4-b8e2b83b57d2","ios":"levelo://app?vid=c9118ee2-e487-41b2-adb4-b8e2b83b57d2"},"vehicle_type_id":"4","last_reported":1687107899,"current_range_meters":31600,"station_id":"ce4bhp92rcd13ifvqhag","pricing_plan_id":"free"},{"bike_id":"a670ef55-fa28-46ef-be87-f2b252cb9a4f","system_id":"levelo_inurba_marseille","lat":43.2743,"lon":5.39413,"is_reserved":false,"is_disabled":false,"rental_uris":{"android":"levelo://app?vid=a670ef55-fa28-46ef-be87-f2b252cb9a4f","ios":"levelo://app?vid=a670ef55-fa28-46ef-be87-f2b252cb9a4f"},"vehicle_type_id":"4","last_reported":1687107899,"current_range_meters":2400,"station_id":"","pricing_plan_id":"free"},{"bike_id":"f82c4e0b-ce86-4de4-962b-f266d6ba506e","system_id":"levelo_inurba_marseille","lat":43.273129,"lon":5.390725,"is_reserved":false,"is_disabled":false,"rental_uris":{"android":"levelo://app?vid=f82c4e0b-ce86-4de4-962b-f266d6ba506e","ios":"levelo://app?vid=f82c4e0b-ce86-4de4-962b-f266d6ba506e"},"vehicle_type_id":"4","last_reported":1687107899,"current_range_meters":28800,"station_id":"ce4bhgp2rcd13ifvqfe0","pricing_plan_id":"free"},{"bike_id":"d5fd97ff-3adc-446c-9878-876cc19b66ce","system_id":"levelo_inurba_marseille","lat":43.30415,"lon":5.42536,"is_reserved":false,"is_disabled":false,"rental_uris":{"android":"levelo://app?vid=d5fd97ff-3adc-446c-9878-876cc19b66ce","ios":"levelo://app?vid=d5fd97ff-3adc-446c-9878-876cc19b66ce"},"vehicle_type_id":"4","last_reported":1687107899,"current_range_meters":0,"station_id":"ce4bhoh2rcd13ifvqh6g","pricing_plan_id":"free"},{"bike_id":"d6320716-b7b0-416f-ab6f-a8e3e956c6c9","system_id":"levelo_inurba_marseille","lat":43.2948,"lon":5.42178,"is_reserved":false,"is_disabled":false,"rental_uris":{"android":"levelo://app?vid=d6320716-b7b0-416f-ab6f-a8e3e956c6c9","ios":"levelo://app?vid=d6320716-b7b0-416f-ab6f-a8e3e956c6c9"},"vehicle_type_id":"4","last_reported":1687107899,"current_range_meters":3200,"station_id":"ce4bhph2rcd13ifvqhdg","pricing_plan_id":"free"},{"bike_id":"f6885f60-4a02-4a78-b3a2-901947603464","system_id":"levelo_inurba_marseille","lat":43.2956,"lon":5.42281,"is_reserved":false,"is_disabled":false,"rental_uris":{"android":"levelo://app?vid=f6885f60-4a02-4a78-b3a2-901947603464","ios":"levelo://app?vid=f6885f60-4a02-4a78-b3a2-901947603464"},"vehicle_type_id":"4","last_reported":1687107899,"current_range_meters":21200,"station_id":"ce4bhph2rcd13ifvqhdg","pricing_plan_id":"free"},{"bike_id":"26c0ba09-8a22-4985-917c-0fb0f009e202","system_id":"levelo_inurba_marseille","lat":43.272118,"lon":5.391758,"is_reserved":false,"is_disabled":false,"rental_uris":{"android":"levelo://app?vid=26c0ba09-8a22-4985-917c-0fb0f009e202","ios":"levelo://app?vid=26c0ba09-8a22-4985-917c-0fb0f009e202"},"vehicle_type_id":"4","last_reported":1687107899,"current_range_meters":29200,"station_id":"ce4bhhp2rcd13ifvqfm0","pricing_plan_id":"free"},{"bike_id":"ecbdbd8e-ffaa-4a2e-99ab-73216c6d63a3","system_id":"levelo_inurba_marseille","lat":43.278128,"lon":5.407195,"is_reserved":false,"is_disabled":false,"rental_uris":{"android":"levelo://app?vid=ecbdbd8e-ffaa-4a2e-99ab-73216c6d63a3","ios":"levelo://app?vid=ecbdbd8e-ffaa-4a2e-99ab-73216c6d63a3"},"vehicle_type_id":"4","last_reported":1687107899,"current_range_meters":5600,"station_id":"ce4bhnh2rcd13ifvqgtg","pricing_plan_id":"free"},{"bike_id":"bb318764-e038-46c1-bc8c-18d5b1d91037","system_id":"levelo_inurba_marseille","lat":43.278128,"lon":5.407195,"is_reserved":false,"is_disabled":false,"rental_uris":{"android":"levelo://app?vid=bb318764-e038-46c1-bc8c-18d5b1d91037","ios":"levelo://app?vid=bb318764-e038-46c1-bc8c-18d5b1d91037"},"vehicle_type_id":"4","last_reported":1687107899,"current_range_meters":800,"station_id":"ce4bhnh2rcd13ifvqgtg","pricing_plan_id":"free"},{"bike_id":"7ad74ffc-e489-40a3-9249-1e93ad98a4ae","system_id":"levelo_inurba_marseille","lat":43.269319,"lon":5.389397,"is_reserved":false,"is_disabled":false,"rental_uris":{"android":"levelo://app?vid=7ad74ffc-e489-40a3-9249-1e93ad98a4ae","ios":"levelo://app?vid=7ad74ffc-e489-40a3-9249-1e93ad98a4ae"},"vehicle_type_id":"4","last_reported":1687107899,"current_range_meters":29200,"station_id":"ce4bhhh2rcd13ifvqfl0","pricing_plan_id":"free"},{"bike_id":"34c8d362-f70f-4afd-90b8-382a46ff09d9","system_id":"levelo_inurba_marseille","lat":43.26681,"lon":5.382694,"is_reserved":false,"is_disabled":false,"rental_uris":{"android":"levelo://app?vid=34c8d362-f70f-4afd-90b8-382a46ff09d9","ios":"levelo://app?vid=34c8d362-f70f-4afd-90b8-382a46ff09d9"},"vehicle_type_id":"4","last_reported":1687107899,"current_range_meters":27600,"station_id":"ce4bhg92rcd13ifvqf90","pricing_plan_id":"free"},{"bike_id":"249afd22-becd-4fbb-bf5a-7dd674f35f2f","system_id":"levelo_inurba_marseille","lat":43.26685,"lon":5.38273,"is_reserved":false,"is_disabled":false,"rental_uris":{"android":"levelo://app?vid=249afd22-becd-4fbb-bf5a-7dd674f35f2f","ios":"levelo://app?vid=249afd22-becd-4fbb-bf5a-7dd674f35f2f"},"vehicle_type_id":"4","last_reported":1687107899,"current_range_meters":28000,"station_id":"ce4bhg92rcd13ifvqf90","pricing_plan_id":"free"},{"bike_id":"c0eb1fd9-f42f-4c8b-ba57-ddf8a7ab4550","system_id":"levelo_inurba_marseille","lat":43.26681,"lon":5.382694,"is_reserved":false,"is_disabled":false,"rental_uris":{"android":"levelo://app?vid=c0eb1fd9-f42f-4c8b-ba57-ddf8a7ab4550","ios":"levelo://app?vid=c0eb1fd9-f42f-4c8b-ba57-ddf8a7ab4550"},"vehicle_type_id":"4","last_reported":1687107899,"current_range_meters":9200,"station_id":"ce4bhg92rcd13ifvqf90","pricing_plan_id":"free"},{"bike_id":"d36b9714-d288-49ca-a757-6d5f9b5af55f","system_id":"levelo_inurba_marseille","lat":43.26681,"lon":5.382694,"is_reserved":false,"is_disabled":false,"rental_uris":{"android":"levelo://app?vid=d36b9714-d288-49ca-a757-6d5f9b5af55f","ios":"levelo://app?vid=d36b9714-d288-49ca-a757-6d5f9b5af55f"},"vehicle_type_id":"4","last_reported":1687107899,"current_range_meters":31200,"station_id":"ce4bhg92rcd13ifvqf90","pricing_plan_id":"free"},{"bike_id":"e89b33fc-b662-4b58-b81e-ed81e6c6fac9","system_id":"levelo_inurba_marseille","lat":43.26681,"lon":5.382694,"is_reserved":false,"is_disabled":false,"rental_uris":{"android":"levelo://app?vid=e89b33fc-b662-4b58-b81e-ed81e6c6fac9","ios":"levelo://app?vid=e89b33fc-b662-4b58-b81e-ed81e6c6fac9"},"vehicle_type_id":"4","last_reported":1687107899,"current_range_meters":20800,"station_id":"ce4bhg92rcd13ifvqf90","pricing_plan_id":"free"},{"bike_id":"2cc79cf9-bec1-4444-9b4d-dd5c0ec59b62","system_id":"levelo_inurba_marseille","lat":43.26681,"lon":5.382694,"is_reserved":false,"is_disabled":false,"rental_uris":{"android":"levelo://app?vid=2cc79cf9-bec1-4444-9b4d-dd5c0ec59b62","ios":"levelo://app?vid=2cc79cf9-bec1-4444-9b4d-dd5c0ec59b62"},"vehicle_type_id":"4","last_reported":1687107899,"current_range_meters":0,"station_id":"ce4bhg92rcd13ifvqf90","pricing_plan_id":"free"},{"bike_id":"23486143-4ae4-40ce-bd13-350650ce6227","system_id":"levelo_inurba_marseille","lat":43.26681,"lon":5.382694,"is_reserved":false,"is_disabled":false,"rental_uris":{"android":"levelo://app?vid=23486143-4ae4-40ce-bd13-350650ce6227","ios":"levelo://app?vid=23486143-4ae4-40ce-bd13-350650ce6227"},"vehicle_type_id":"4","last_reported":1687107899,"current_range_meters":20400,"station_id":"ce4bhg92rcd13ifvqf90","pricing_plan_id":"free"},{"bike_id":"777f4b71-b492-4bc1-a6e9-1d4f74aa6180","system_id":"levelo_inurba_marseille","lat":43.26681,"lon":5.38268,"is_reserved":false,"is_disabled":false,"rental_uris":{"android":"levelo://app?vid=777f4b71-b492-4bc1-a6e9-1d4f74aa6180","ios":"levelo://app?vid=777f4b71-b492-4bc1-a6e9-1d4f74aa6180"},"vehicle_type_id":"4","last_reported":1687107899,"current_range_meters":15600,"station_id":"ce4bhg92rcd13ifvqf90","pricing_plan_id":"free"},{"bike_id":"750955c3-1c36-4a5d-82f0-d5d01fada0ed","system_id":"levelo_inurba_marseille","lat":43.26681,"lon":5.382694,"is_reserved":false,"is_disabled":false,"rental_uris":{"android":"levelo://app?vid=750955c3-1c36-4a5d-82f0-d5d01fada0ed","ios":"levelo://app?vid=750955c3-1c36-4a5d-82f0-d5d01fada0ed"},"vehicle_type_id":"4","last_reported":1687107899,"current_range_meters":6000,"station_id":"ce4bhg92rcd13ifvqf90","pricing_plan_id":"free"},{"bike_id":"5d506141-e999-4b02-9f40-89cccf14f51d","system_id":"levelo_inurba_marseille","lat":43.26681,"lon":5.382694,"is_reserved":false,"is_disabled":false,"rental_uris":{"android":"levelo://app?vid=5d506141-e999-4b02-9f40-89cccf14f51d","ios":"levelo://app?vid=5d506141-e999-4b02-9f40-89cccf14f51d"},"vehicle_type_id":"4","last_reported":1687107899,"current_range_meters":17600,"station_id":"ce4bhg92rcd13ifvqf90","pricing_plan_id":"free"},{"bike_id":"30db2ede-c6f8-4d72-9ef5-568e7fcd31b8","system_id":"levelo_inurba_marseille","lat":43.26681,"lon":5.382694,"is_reserved":false,"is_disabled":false,"rental_uris":{"android":"levelo://app?vid=30db2ede-c6f8-4d72-9ef5-568e7fcd31b8","ios":"levelo://app?vid=30db2ede-c6f8-4d72-9ef5-568e7fcd31b8"},"vehicle_type_id":"4","last_reported":1687107899,"current_range_meters":400,"station_id":"ce4bhg92rcd13ifvqf90","pricing_plan_id":"free"},{"bike_id":"ef41304f-8056-41b5-a52c-703c4019cc39","system_id":"levelo_inurba_marseille","lat":43.26681,"lon":5.382694,"is_reserved":false,"is_disabled":false,"rental_uris":{"android":"levelo://app?vid=ef41304f-8056-41b5-a52c-703c4019cc39","ios":"levelo://app?vid=ef41304f-8056-41b5-a52c-703c4019cc39"},"vehicle_type_id":"4","last_reported":1687107899,"current_range_meters":16400,"station_id":"ce4bhg92rcd13ifvqf90","pricing_plan_id":"free"},{"bike_id":"db51d217-b07d-4e23-bd46-7c69e52a71a1","system_id":"levelo_inurba_marseille","lat":43.26681,"lon":5.382694,"is_reserved":false,"is_disabled":false,"rental_uris":{"android":"levelo://app?vid=db51d217-b07d-4e23-bd46-7c69e52a71a1","ios":"levelo://app?vid=db51d217-b07d-4e23-bd46-7c69e52a71a1"},"vehicle_type_id":"4","last_reported":1687107899,"current_range_meters":4400,"station_id":"ce4bhg92rcd13ifvqf90","pricing_plan_id":"free"},{"bike_id":"cfba2fbe-9ed5-423f-b411-8d6c38451715","system_id":"levelo_inurba_marseille","lat":43.27995,"lon":5.41662,"is_reserved":false,"is_disabled":false,"rental_uris":{"android":"levelo://app?vid=cfba2fbe-9ed5-423f-b411-8d6c38451715","ios":"levelo://app?vid=cfba2fbe-9ed5-423f-b411-8d6c38451715"},"vehicle_type_id":"4","last_reported":1687107899,"current_range_meters":21200,"station_id":"ce4bho12rcd13ifvqh1g","pricing_plan_id":"free"},{"bike_id":"3987290e-fd4b-4f2b-81c0-57fca98f9cde","system_id":"levelo_inurba_marseille","lat":43.267966,"lon":5.393976,"is_reserved":false,"is_disabled":false,"rental_uris":{"android":"levelo://app?vid=3987290e-fd4b-4f2b-81c0-57fca98f9cde","ios":"levelo://app?vid=3987290e-fd4b-4f2b-81c0-57fca98f9cde"},"vehicle_type_id":"4","last_reported":1687107899,"current_range_meters":30800,"station_id":"ce4bhh12rcd13ifvqfg0","pricing_plan_id":"free"},{"bike_id":"e09ee2df-5eb5-400b-b4e8-a2efdba018fe","system_id":"levelo_inurba_marseille","lat":43.308,"lon":5.43518,"is_reserved":false,"is_disabled":false,"rental_uris":{"android":"levelo://app?vid=e09ee2df-5eb5-400b-b4e8-a2efdba018fe","ios":"levelo://app?vid=e09ee2df-5eb5-400b-b4e8-a2efdba018fe"},"vehicle_type_id":"4","last_reported":1687107899,"current_range_meters":4000,"station_id":"ce4bhph2rcd13ifvqheg","pricing_plan_id":"free"},{"bike_id":"4ddd4752-b84f-490d-8ec4-60a4fe6f37c8","system_id":"levelo_inurba_marseille","lat":43.26575,"lon":5.39014,"is_reserved":false,"is_disabled":false,"rental_uris":{"android":"levelo://app?vid=4ddd4752-b84f-490d-8ec4-60a4fe6f37c8","ios":"levelo://app?vid=4ddd4752-b84f-490d-8ec4-60a4fe6f37c8"},"vehicle_type_id":"4","last_reported":1687107899,"current_range_meters":0,"station_id":"ce4bhe12rcd13ifvqf30","pricing_plan_id":"free"},{"bike_id":"935a4aec-1547-4073-a330-9bf4a8e0fb00","system_id":"levelo_inurba_marseille","lat":43.30801,"lon":5.43532,"is_reserved":false,"is_disabled":false,"rental_uris":{"android":"levelo://app?vid=935a4aec-1547-4073-a330-9bf4a8e0fb00","ios":"levelo://app?vid=935a4aec-1547-4073-a330-9bf4a8e0fb00"},"vehicle_type_id":"4","last_reported":1687107899,"current_range_meters":22800,"station_id":"ce4bhph2rcd13ifvqheg","pricing_plan_id":"free"},{"bike_id":"eea33470-c6e0-4f3a-ac68-473e707efc5a","system_id":"levelo_inurba_marseille","lat":43.265687,"lon":5.390158,"is_reserved":false,"is_disabled":false,"rental_uris":{"android":"levelo://app?vid=eea33470-c6e0-4f3a-ac68-473e707efc5a","ios":"levelo://app?vid=eea33470-c6e0-4f3a-ac68-473e707efc5a"},"vehicle_type_id":"4","last_reported":1687107899,"current_range_meters":31200,"station_id":"ce4bhe12rcd13ifvqf30","pricing_plan_id":"free"},{"bike_id":"9a577e3b-a3d5-4d5e-a01c-e02d8a6f7649","system_id":"levelo_inurba_marseille","lat":43.26567,"lon":5.39017,"is_reserved":false,"is_disabled":false,"rental_uris":{"android":"levelo://app?vid=9a577e3b-a3d5-4d5e-a01c-e02d8a6f7649","ios":"levelo://app?vid=9a577e3b-a3d5-4d5e-a01c-e02d8a6f7649"},"vehicle_type_id":"4","last_reported":1687107899,"current_range_meters":6400,"station_id":"ce4bhe12rcd13ifvqf30","pricing_plan_id":"free"},{"bike_id":"e8213767-474f-48b0-9d64-4a8bb5be0898","system_id":"levelo_inurba_marseille","lat":43.265569,"lon":5.390047,"is_reserved":false,"is_disabled":false,"rental_uris":{"android":"levelo://app?vid=e8213767-474f-48b0-9d64-4a8bb5be0898","ios":"levelo://app?vid=e8213767-474f-48b0-9d64-4a8bb5be0898"},"vehicle_type_id":"4","last_reported":1687107899,"current_range_meters":6400,"station_id":"ce4bhe12rcd13ifvqf30","pricing_plan_id":"free"},{"bike_id":"cda28a23-f977-444e-be81-0c35c0e3524a","system_id":"levelo_inurba_marseille","lat":43.30828,"lon":5.43556,"is_reserved":false,"is_disabled":false,"rental_uris":{"android":"levelo://app?vid=cda28a23-f977-444e-be81-0c35c0e3524a","ios":"levelo://app?vid=cda28a23-f977-444e-be81-0c35c0e3524a"},"vehicle_type_id":"4","last_reported":1687107899,"current_range_meters":0,"station_id":"","pricing_plan_id":"free"},{"bike_id":"14a96aa8-d56f-45ac-80c6-7323bd822b13","system_id":"levelo_inurba_marseille","lat":43.261782,"lon":5.374515,"is_reserved":false,"is_disabled":false,"rental_uris":{"android":"levelo://app?vid=14a96aa8-d56f-45ac-80c6-7323bd822b13","ios":"levelo://app?vid=14a96aa8-d56f-45ac-80c6-7323bd822b13"},"vehicle_type_id":"4","last_reported":1687107899,"current_range_meters":6400,"station_id":"ce4bhgp2rcd13ifvqfc0","pricing_plan_id":"free"},{"bike_id":"0581af41-d9b0-4f11-9f70-3a90fb3a4a8d","system_id":"levelo_inurba_marseille","lat":43.26189,"lon":5.3744,"is_reserved":false,"is_disabled":false,"rental_uris":{"android":"levelo://app?vid=0581af41-d9b0-4f11-9f70-3a90fb3a4a8d","ios":"levelo://app?vid=0581af41-d9b0-4f11-9f70-3a90fb3a4a8d"},"vehicle_type_id":"4","last_reported":1687107899,"current_range_meters":14000,"station_id":"ce4bhgp2rcd13ifvqfc0","pricing_plan_id":"free"},{"bike_id":"9bf905c2-7b41-48ec-bfc6-155ec656c7ee","system_id":"levelo_inurba_marseille","lat":43.317104,"lon":5.436818,"is_reserved":false,"is_disabled":false,"rental_uris":{"android":"levelo://app?vid=9bf905c2-7b41-48ec-bfc6-155ec656c7ee","ios":"levelo://app?vid=9bf905c2-7b41-48ec-bfc6-155ec656c7ee"},"vehicle_type_id":"4","last_reported":1687107899,"current_range_meters":31600,"station_id":"ce4bhp92rcd13ifvqhcg","pricing_plan_id":"free"},{"bike_id":"e3b905f4-e8c9-4df7-8d63-0c27cca62271","system_id":"levelo_inurba_marseille","lat":43.317104,"lon":5.436818,"is_reserved":false,"is_disabled":false,"rental_uris":{"android":"levelo://app?vid=e3b905f4-e8c9-4df7-8d63-0c27cca62271","ios":"levelo://app?vid=e3b905f4-e8c9-4df7-8d63-0c27cca62271"},"vehicle_type_id":"4","last_reported":1687107899,"current_range_meters":22000,"station_id":"ce4bhp92rcd13ifvqhcg","pricing_plan_id":"free"},{"bike_id":"af1328ab-99bf-476a-8b3a-6528a652e4e3","system_id":"levelo_inurba_marseille","lat":43.317104,"lon":5.436818,"is_reserved":false,"is_disabled":false,"rental_uris":{"android":"levelo://app?vid=af1328ab-99bf-476a-8b3a-6528a652e4e3","ios":"levelo://app?vid=af1328ab-99bf-476a-8b3a-6528a652e4e3"},"vehicle_type_id":"4","last_reported":1687107899,"current_range_meters":28800,"station_id":"ce4bhp92rcd13ifvqhcg","pricing_plan_id":"free"},{"bike_id":"e96a64f3-07cb-45e5-a9e2-76966b0746f5","system_id":"levelo_inurba_marseille","lat":43.26217,"lon":5.37928,"is_reserved":false,"is_disabled":false,"rental_uris":{"android":"levelo://app?vid=e96a64f3-07cb-45e5-a9e2-76966b0746f5","ios":"levelo://app?vid=e96a64f3-07cb-45e5-a9e2-76966b0746f5"},"vehicle_type_id":"4","last_reported":1687107899,"current_range_meters":26000,"station_id":"ce4bhjp2rcd13ifvqg90","pricing_plan_id":"free"},{"bike_id":"df937aa2-e5ca-492d-b726-b96bea986152","system_id":"levelo_inurba_marseille","lat":43.26213,"lon":5.37922,"is_reserved":false,"is_disabled":false,"rental_uris":{"android":"levelo://app?vid=df937aa2-e5ca-492d-b726-b96bea986152","ios":"levelo://app?vid=df937aa2-e5ca-492d-b726-b96bea986152"},"vehicle_type_id":"4","last_reported":1687107899,"current_range_meters":12800,"station_id":"ce4bhjp2rcd13ifvqg90","pricing_plan_id":"free"},{"bike_id":"fc7bd63b-73f7-401f-8c62-5b0338652175","system_id":"levelo_inurba_marseille","lat":43.26213,"lon":5.37922,"is_reserved":false,"is_disabled":false,"rental_uris":{"android":"levelo://app?vid=fc7bd63b-73f7-401f-8c62-5b0338652175","ios":"levelo://app?vid=fc7bd63b-73f7-401f-8c62-5b0338652175"},"vehicle_type_id":"4","last_reported":1687107899,"current_range_meters":13200,"station_id":"ce4bhjp2rcd13ifvqg90","pricing_plan_id":"free"},{"bike_id":"ddf5275b-ae97-4120-9de2-5166c65ab873","system_id":"levelo_inurba_marseille","lat":43.26213,"lon":5.37925,"is_reserved":false,"is_disabled":false,"rental_uris":{"android":"levelo://app?vid=ddf5275b-ae97-4120-9de2-5166c65ab873","ios":"levelo://app?vid=ddf5275b-ae97-4120-9de2-5166c65ab873"},"vehicle_type_id":"4","last_reported":1687107899,"current_range_meters":0,"station_id":"ce4bhjp2rcd13ifvqg90","pricing_plan_id":"free"},{"bike_id":"df5d3469-5fc9-4609-8e68-89374d07e24a","system_id":"levelo_inurba_marseille","lat":43.26213,"lon":5.37926,"is_reserved":false,"is_disabled":false,"rental_uris":{"android":"levelo://app?vid=df5d3469-5fc9-4609-8e68-89374d07e24a","ios":"levelo://app?vid=df5d3469-5fc9-4609-8e68-89374d07e24a"},"vehicle_type_id":"4","last_reported":1687107899,"current_range_meters":0,"station_id":"ce4bhjp2rcd13ifvqg90","pricing_plan_id":"free"},{"bike_id":"7e62eef8-7ea4-42f8-87ba-4097c26363bb","system_id":"levelo_inurba_marseille","lat":43.26213,"lon":5.37929,"is_reserved":false,"is_disabled":false,"rental_uris":{"android":"levelo://app?vid=7e62eef8-7ea4-42f8-87ba-4097c26363bb","ios":"levelo://app?vid=7e62eef8-7ea4-42f8-87ba-4097c26363bb"},"vehicle_type_id":"4","last_reported":1687107899,"current_range_meters":7600,"station_id":"ce4bhjp2rcd13ifvqg90","pricing_plan_id":"free"},{"bike_id":"76e1c873-036c-4884-b45e-02a107f007b1","system_id":"levelo_inurba_marseille","lat":43.26213,"lon":5.3793,"is_reserved":false,"is_disabled":false,"rental_uris":{"android":"levelo://app?vid=76e1c873-036c-4884-b45e-02a107f007b1","ios":"levelo://app?vid=76e1c873-036c-4884-b45e-02a107f007b1"},"vehicle_type_id":"4","last_reported":1687107899,"current_range_meters":2800,"station_id":"ce4bhjp2rcd13ifvqg90","pricing_plan_id":"free"},{"bike_id":"bfce0a8a-377b-40a8-b89b-d4d178818a55","system_id":"levelo_inurba_marseille","lat":43.26213,"lon":5.37931,"is_reserved":false,"is_disabled":false,"rental_uris":{"android":"levelo://app?vid=bfce0a8a-377b-40a8-b89b-d4d178818a55","ios":"levelo://app?vid=bfce0a8a-377b-40a8-b89b-d4d178818a55"},"vehicle_type_id":"4","last_reported":1687107899,"current_range_meters":1200,"station_id":"ce4bhjp2rcd13ifvqg90","pricing_plan_id":"free"},{"bike_id":"f1ab7711-710b-4353-8066-0674123a7482","system_id":"levelo_inurba_marseille","lat":43.26212,"lon":5.37924,"is_reserved":false,"is_disabled":false,"rental_uris":{"android":"levelo://app?vid=f1ab7711-710b-4353-8066-0674123a7482","ios":"levelo://app?vid=f1ab7711-710b-4353-8066-0674123a7482"},"vehicle_type_id":"4","last_reported":1687107899,"current_range_meters":21200,"station_id":"ce4bhjp2rcd13ifvqg90","pricing_plan_id":"free"},{"bike_id":"3053fd1f-c758-4165-9477-50a7f61aa137","system_id":"levelo_inurba_marseille","lat":43.26213,"lon":5.37934,"is_reserved":false,"is_disabled":false,"rental_uris":{"android":"levelo://app?vid=3053fd1f-c758-4165-9477-50a7f61aa137","ios":"levelo://app?vid=3053fd1f-c758-4165-9477-50a7f61aa137"},"vehicle_type_id":"4","last_reported":1687107899,"current_range_meters":12000,"station_id":"ce4bhjp2rcd13ifvqg90","pricing_plan_id":"free"},{"bike_id":"d54b6070-f92d-46b7-9d8e-dd2a2c443c43","system_id":"levelo_inurba_marseille","lat":43.26212,"lon":5.37928,"is_reserved":false,"is_disabled":false,"rental_uris":{"android":"levelo://app?vid=d54b6070-f92d-46b7-9d8e-dd2a2c443c43","ios":"levelo://app?vid=d54b6070-f92d-46b7-9d8e-dd2a2c443c43"},"vehicle_type_id":"4","last_reported":1687107899,"current_range_meters":19600,"station_id":"ce4bhjp2rcd13ifvqg90","pricing_plan_id":"free"},{"bike_id":"5df8c538-dccf-496a-8562-cbed2b2120d4","system_id":"levelo_inurba_marseille","lat":43.26211,"lon":5.37921,"is_reserved":false,"is_disabled":false,"rental_uris":{"android":"levelo://app?vid=5df8c538-dccf-496a-8562-cbed2b2120d4","ios":"levelo://app?vid=5df8c538-dccf-496a-8562-cbed2b2120d4"},"vehicle_type_id":"4","last_reported":1687107899,"current_range_meters":10400,"station_id":"ce4bhjp2rcd13ifvqg90","pricing_plan_id":"free"},{"bike_id":"0564c76b-75c5-4cf4-9b4d-fadf4ba608d5","system_id":"levelo_inurba_marseille","lat":43.26212,"lon":5.37932,"is_reserved":false,"is_disabled":false,"rental_uris":{"android":"levelo://app?vid=0564c76b-75c5-4cf4-9b4d-fadf4ba608d5","ios":"levelo://app?vid=0564c76b-75c5-4cf4-9b4d-fadf4ba608d5"},"vehicle_type_id":"4","last_reported":1687107899,"current_range_meters":7200,"station_id":"ce4bhjp2rcd13ifvqg90","pricing_plan_id":"free"},{"bike_id":"0531736f-8d2d-4926-9ba0-8853709f3afa","system_id":"levelo_inurba_marseille","lat":43.26211,"lon":5.37927,"is_reserved":false,"is_disabled":false,"rental_uris":{"android":"levelo://app?vid=0531736f-8d2d-4926-9ba0-8853709f3afa","ios":"levelo://app?vid=0531736f-8d2d-4926-9ba0-8853709f3afa"},"vehicle_type_id":"4","last_reported":1687107899,"current_range_meters":10000,"station_id":"ce4bhjp2rcd13ifvqg90","pricing_plan_id":"free"},{"bike_id":"b353b798-e889-4861-a62e-7f8dce0c4b66","system_id":"levelo_inurba_marseille","lat":43.26211,"lon":5.37929,"is_reserved":false,"is_disabled":false,"rental_uris":{"android":"levelo://app?vid=b353b798-e889-4861-a62e-7f8dce0c4b66","ios":"levelo://app?vid=b353b798-e889-4861-a62e-7f8dce0c4b66"},"vehicle_type_id":"4","last_reported":1687107899,"current_range_meters":24400,"station_id":"ce4bhjp2rcd13ifvqg90","pricing_plan_id":"free"},{"bike_id":"e89dc400-4e85-4b02-b53a-1128a777718d","system_id":"levelo_inurba_marseille","lat":43.26211,"lon":5.3793,"is_reserved":false,"is_disabled":false,"rental_uris":{"android":"levelo://app?vid=e89dc400-4e85-4b02-b53a-1128a777718d","ios":"levelo://app?vid=e89dc400-4e85-4b02-b53a-1128a777718d"},"vehicle_type_id":"4","last_reported":1687107899,"current_range_meters":12000,"station_id":"ce4bhjp2rcd13ifvqg90","pricing_plan_id":"free"},{"bike_id":"2b677860-e715-4f30-9ae1-355c88799c66","system_id":"levelo_inurba_marseille","lat":43.2621,"lon":5.37923,"is_reserved":false,"is_disabled":false,"rental_uris":{"android":"levelo://app?vid=2b677860-e715-4f30-9ae1-355c88799c66","ios":"levelo://app?vid=2b677860-e715-4f30-9ae1-355c88799c66"},"vehicle_type_id":"4","last_reported":1687107899,"current_range_meters":8800,"station_id":"ce4bhjp2rcd13ifvqg90","pricing_plan_id":"free"},{"bike_id":"2468fa3b-11a7-4887-9be2-f6e527838d7d","system_id":"levelo_inurba_marseille","lat":43.2621,"lon":5.37924,"is_reserved":false,"is_disabled":false,"rental_uris":{"android":"levelo://app?vid=2468fa3b-11a7-4887-9be2-f6e527838d7d","ios":"levelo://app?vid=2468fa3b-11a7-4887-9be2-f6e527838d7d"},"vehicle_type_id":"4","last_reported":1687107899,"current_range_meters":23600,"station_id":"ce4bhjp2rcd13ifvqg90","pricing_plan_id":"free"},{"bike_id":"1b32d6aa-b30d-45ea-9285-88dc8a39ebcc","system_id":"levelo_inurba_marseille","lat":43.2621,"lon":5.37926,"is_reserved":false,"is_disabled":false,"rental_uris":{"android":"levelo://app?vid=1b32d6aa-b30d-45ea-9285-88dc8a39ebcc","ios":"levelo://app?vid=1b32d6aa-b30d-45ea-9285-88dc8a39ebcc"},"vehicle_type_id":"4","last_reported":1687107899,"current_range_meters":19200,"station_id":"ce4bhjp2rcd13ifvqg90","pricing_plan_id":"free"},{"bike_id":"5a12dbb4-e9b5-4d43-abdc-8fc43f29ddcd","system_id":"levelo_inurba_marseille","lat":43.26209,"lon":5.37921,"is_reserved":false,"is_disabled":false,"rental_uris":{"android":"levelo://app?vid=5a12dbb4-e9b5-4d43-abdc-8fc43f29ddcd","ios":"levelo://app?vid=5a12dbb4-e9b5-4d43-abdc-8fc43f29ddcd"},"vehicle_type_id":"4","last_reported":1687107899,"current_range_meters":17600,"station_id":"ce4bhjp2rcd13ifvqg90","pricing_plan_id":"free"},{"bike_id":"6957e070-7462-40b4-ba7f-c41a028599e3","system_id":"levelo_inurba_marseille","lat":43.26209,"lon":5.37924,"is_reserved":false,"is_disabled":false,"rental_uris":{"android":"levelo://app?vid=6957e070-7462-40b4-ba7f-c41a028599e3","ios":"levelo://app?vid=6957e070-7462-40b4-ba7f-c41a028599e3"},"vehicle_type_id":"4","last_reported":1687107899,"current_range_meters":11200,"station_id":"ce4bhjp2rcd13ifvqg90","pricing_plan_id":"free"},{"bike_id":"ef5dbf20-3dc5-425a-b05b-6f6cdc409ba8","system_id":"levelo_inurba_marseille","lat":43.26209,"lon":5.37926,"is_reserved":false,"is_disabled":false,"rental_uris":{"android":"levelo://app?vid=ef5dbf20-3dc5-425a-b05b-6f6cdc409ba8","ios":"levelo://app?vid=ef5dbf20-3dc5-425a-b05b-6f6cdc409ba8"},"vehicle_type_id":"4","last_reported":1687107899,"current_range_meters":25600,"station_id":"ce4bhjp2rcd13ifvqg90","pricing_plan_id":"free"},{"bike_id":"5a5ec0d3-95f6-49f0-891b-57641d5e3e08","system_id":"levelo_inurba_marseille","lat":43.26209,"lon":5.37927,"is_reserved":false,"is_disabled":false,"rental_uris":{"android":"levelo://app?vid=5a5ec0d3-95f6-49f0-891b-57641d5e3e08","ios":"levelo://app?vid=5a5ec0d3-95f6-49f0-891b-57641d5e3e08"},"vehicle_type_id":"4","last_reported":1687107899,"current_range_meters":14400,"station_id":"ce4bhjp2rcd13ifvqg90","pricing_plan_id":"free"},{"bike_id":"a2aa8dff-5710-427d-9c2f-054af99bcb4f","system_id":"levelo_inurba_marseille","lat":43.262096,"lon":5.379335,"is_reserved":false,"is_disabled":false,"rental_uris":{"android":"levelo://app?vid=a2aa8dff-5710-427d-9c2f-054af99bcb4f","ios":"levelo://app?vid=a2aa8dff-5710-427d-9c2f-054af99bcb4f"},"vehicle_type_id":"4","last_reported":1687107899,"current_range_meters":0,"station_id":"ce4bhjp2rcd13ifvqg90","pricing_plan_id":"free"},{"bike_id":"8bd42547-bbd1-45e7-9d41-b4cc9c5b76b8","system_id":"levelo_inurba_marseille","lat":43.26208,"lon":5.37924,"is_reserved":false,"is_disabled":false,"rental_uris":{"android":"levelo://app?vid=8bd42547-bbd1-45e7-9d41-b4cc9c5b76b8","ios":"levelo://app?vid=8bd42547-bbd1-45e7-9d41-b4cc9c5b76b8"},"vehicle_type_id":"4","last_reported":1687107899,"current_range_meters":14000,"station_id":"ce4bhjp2rcd13ifvqg90","pricing_plan_id":"free"},{"bike_id":"c97c56e9-5352-4102-b685-b5690dd175eb","system_id":"levelo_inurba_marseille","lat":43.26208,"lon":5.37926,"is_reserved":false,"is_disabled":false,"rental_uris":{"android":"levelo://app?vid=c97c56e9-5352-4102-b685-b5690dd175eb","ios":"levelo://app?vid=c97c56e9-5352-4102-b685-b5690dd175eb"},"vehicle_type_id":"4","last_reported":1687107899,"current_range_meters":7600,"station_id":"ce4bhjp2rcd13ifvqg90","pricing_plan_id":"free"},{"bike_id":"225d7332-cba1-4ddb-9cb0-9cd8ad5ce47a","system_id":"levelo_inurba_marseille","lat":43.26208,"lon":5.37927,"is_reserved":false,"is_disabled":false,"rental_uris":{"android":"levelo://app?vid=225d7332-cba1-4ddb-9cb0-9cd8ad5ce47a","ios":"levelo://app?vid=225d7332-cba1-4ddb-9cb0-9cd8ad5ce47a"},"vehicle_type_id":"4","last_reported":1687107899,"current_range_meters":14400,"station_id":"ce4bhjp2rcd13ifvqg90","pricing_plan_id":"free"},{"bike_id":"a5e999ca-5f3c-4ad6-a4ca-02aa81b8247f","system_id":"levelo_inurba_marseille","lat":43.26208,"lon":5.37928,"is_reserved":false,"is_disabled":false,"rental_uris":{"android":"levelo://app?vid=a5e999ca-5f3c-4ad6-a4ca-02aa81b8247f","ios":"levelo://app?vid=a5e999ca-5f3c-4ad6-a4ca-02aa81b8247f"},"vehicle_type_id":"4","last_reported":1687107899,"current_range_meters":14800,"station_id":"ce4bhjp2rcd13ifvqg90","pricing_plan_id":"free"},{"bike_id":"b565cc05-4131-442b-a318-fc0277dba6de","system_id":"levelo_inurba_marseille","lat":43.26208,"lon":5.3793,"is_reserved":false,"is_disabled":false,"rental_uris":{"android":"levelo://app?vid=b565cc05-4131-442b-a318-fc0277dba6de","ios":"levelo://app?vid=b565cc05-4131-442b-a318-fc0277dba6de"},"vehicle_type_id":"4","last_reported":1687107899,"current_range_meters":10000,"station_id":"ce4bhjp2rcd13ifvqg90","pricing_plan_id":"free"},{"bike_id":"7213ade1-abd2-4857-85cd-797e09e13f7a","system_id":"levelo_inurba_marseille","lat":43.26208,"lon":5.37932,"is_reserved":false,"is_disabled":false,"rental_uris":{"android":"levelo://app?vid=7213ade1-abd2-4857-85cd-797e09e13f7a","ios":"levelo://app?vid=7213ade1-abd2-4857-85cd-797e09e13f7a"},"vehicle_type_id":"4","last_reported":1687107899,"current_range_meters":22400,"station_id":"ce4bhjp2rcd13ifvqg90","pricing_plan_id":"free"},{"bike_id":"c946daf2-5581-4b50-94b3-ad69d30f204d","system_id":"levelo_inurba_marseille","lat":43.26207,"lon":5.37927,"is_reserved":false,"is_disabled":false,"rental_uris":{"android":"levelo://app?vid=c946daf2-5581-4b50-94b3-ad69d30f204d","ios":"levelo://app?vid=c946daf2-5581-4b50-94b3-ad69d30f204d"},"vehicle_type_id":"4","last_reported":1687107899,"current_range_meters":12400,"station_id":"ce4bhjp2rcd13ifvqg90","pricing_plan_id":"free"},{"bike_id":"4f3865cb-5c93-4b02-af96-405243cc878a","system_id":"levelo_inurba_marseille","lat":43.26207,"lon":5.37929,"is_reserved":false,"is_disabled":false,"rental_uris":{"android":"levelo://app?vid=4f3865cb-5c93-4b02-af96-405243cc878a","ios":"levelo://app?vid=4f3865cb-5c93-4b02-af96-405243cc878a"},"vehicle_type_id":"4","last_reported":1687107899,"current_range_meters":26000,"station_id":"ce4bhjp2rcd13ifvqg90","pricing_plan_id":"free"},{"bike_id":"5864008a-3833-47f8-adb5-d70fa1b44ffb","system_id":"levelo_inurba_marseille","lat":43.26207,"lon":5.3793,"is_reserved":false,"is_disabled":false,"rental_uris":{"android":"levelo://app?vid=5864008a-3833-47f8-adb5-d70fa1b44ffb","ios":"levelo://app?vid=5864008a-3833-47f8-adb5-d70fa1b44ffb"},"vehicle_type_id":"4","last_reported":1687107899,"current_range_meters":0,"station_id":"ce4bhjp2rcd13ifvqg90","pricing_plan_id":"free"},{"bike_id":"a9092a4f-c201-496f-a723-08aae3eb2399","system_id":"levelo_inurba_marseille","lat":43.26209,"lon":5.37946,"is_reserved":false,"is_disabled":false,"rental_uris":{"android":"levelo://app?vid=a9092a4f-c201-496f-a723-08aae3eb2399","ios":"levelo://app?vid=a9092a4f-c201-496f-a723-08aae3eb2399"},"vehicle_type_id":"4","last_reported":1687107899,"current_range_meters":20000,"station_id":"ce4bhjp2rcd13ifvqg90","pricing_plan_id":"free"},{"bike_id":"631ea9e1-2501-4022-872d-bf722cfc9749","system_id":"levelo_inurba_marseille","lat":43.26207,"lon":5.37931,"is_reserved":false,"is_disabled":false,"rental_uris":{"android":"levelo://app?vid=631ea9e1-2501-4022-872d-bf722cfc9749","ios":"levelo://app?vid=631ea9e1-2501-4022-872d-bf722cfc9749"},"vehicle_type_id":"4","last_reported":1687107899,"current_range_meters":8800,"station_id":"ce4bhjp2rcd13ifvqg90","pricing_plan_id":"free"},{"bike_id":"859afd7c-66a4-4819-a42c-60f431f43db7","system_id":"levelo_inurba_marseille","lat":43.26206,"lon":5.37924,"is_reserved":false,"is_disabled":false,"rental_uris":{"android":"levelo://app?vid=859afd7c-66a4-4819-a42c-60f431f43db7","ios":"levelo://app?vid=859afd7c-66a4-4819-a42c-60f431f43db7"},"vehicle_type_id":"4","last_reported":1687107899,"current_range_meters":15200,"station_id":"ce4bhjp2rcd13ifvqg90","pricing_plan_id":"free"},{"bike_id":"be546f46-3fdb-4c89-a8dc-172750bde002","system_id":"levelo_inurba_marseille","lat":43.26206,"lon":5.37925,"is_reserved":false,"is_disabled":false,"rental_uris":{"android":"levelo://app?vid=be546f46-3fdb-4c89-a8dc-172750bde002","ios":"levelo://app?vid=be546f46-3fdb-4c89-a8dc-172750bde002"},"vehicle_type_id":"4","last_reported":1687107899,"current_range_meters":2400,"station_id":"ce4bhjp2rcd13ifvqg90","pricing_plan_id":"free"},{"bike_id":"cf861f45-a4df-4d03-8b9b-8ec50b197908","system_id":"levelo_inurba_marseille","lat":43.26202,"lon":5.379299,"is_reserved":false,"is_disabled":false,"rental_uris":{"android":"levelo://app?vid=cf861f45-a4df-4d03-8b9b-8ec50b197908","ios":"levelo://app?vid=cf861f45-a4df-4d03-8b9b-8ec50b197908"},"vehicle_type_id":"4","last_reported":1687107899,"current_range_meters":29600,"station_id":"ce4bhjp2rcd13ifvqg90","pricing_plan_id":"free"},{"bike_id":"98ebd77c-56e3-4a4c-bc02-3016ce73cc07","system_id":"levelo_inurba_marseille","lat":43.26206,"lon":5.37927,"is_reserved":false,"is_disabled":false,"rental_uris":{"android":"levelo://app?vid=98ebd77c-56e3-4a4c-bc02-3016ce73cc07","ios":"levelo://app?vid=98ebd77c-56e3-4a4c-bc02-3016ce73cc07"},"vehicle_type_id":"4","last_reported":1687107899,"current_range_meters":20000,"station_id":"ce4bhjp2rcd13ifvqg90","pricing_plan_id":"free"},{"bike_id":"8081bf1c-8398-4271-bc8a-0c53b16bfae6","system_id":"levelo_inurba_marseille","lat":43.26206,"lon":5.37928,"is_reserved":false,"is_disabled":false,"rental_uris":{"android":"levelo://app?vid=8081bf1c-8398-4271-bc8a-0c53b16bfae6","ios":"levelo://app?vid=8081bf1c-8398-4271-bc8a-0c53b16bfae6"},"vehicle_type_id":"4","last_reported":1687107899,"current_range_meters":17200,"station_id":"ce4bhjp2rcd13ifvqg90","pricing_plan_id":"free"},{"bike_id":"c30fbcd2-2556-43fd-92fc-47b98954db22","system_id":"levelo_inurba_marseille","lat":43.26206,"lon":5.37931,"is_reserved":false,"is_disabled":false,"rental_uris":{"android":"levelo://app?vid=c30fbcd2-2556-43fd-92fc-47b98954db22","ios":"levelo://app?vid=c30fbcd2-2556-43fd-92fc-47b98954db22"},"vehicle_type_id":"4","last_reported":1687107899,"current_range_meters":24000,"station_id":"ce4bhjp2rcd13ifvqg90","pricing_plan_id":"free"},{"bike_id":"d5cb9e2f-e0d2-4ba1-a4a3-ff9c59eb3b53","system_id":"levelo_inurba_marseille","lat":43.26205,"lon":5.37924,"is_reserved":false,"is_disabled":false,"rental_uris":{"android":"levelo://app?vid=d5cb9e2f-e0d2-4ba1-a4a3-ff9c59eb3b53","ios":"levelo://app?vid=d5cb9e2f-e0d2-4ba1-a4a3-ff9c59eb3b53"},"vehicle_type_id":"4","last_reported":1687107899,"current_range_meters":21200,"station_id":"ce4bhjp2rcd13ifvqg90","pricing_plan_id":"free"},{"bike_id":"051dc262-f782-4f3c-a536-9685bbaeac9c","system_id":"levelo_inurba_marseille","lat":43.26205,"lon":5.37925,"is_reserved":false,"is_disabled":false,"rental_uris":{"android":"levelo://app?vid=051dc262-f782-4f3c-a536-9685bbaeac9c","ios":"levelo://app?vid=051dc262-f782-4f3c-a536-9685bbaeac9c"},"vehicle_type_id":"4","last_reported":1687107899,"current_range_meters":14400,"station_id":"ce4bhjp2rcd13ifvqg90","pricing_plan_id":"free"},{"bike_id":"6ccac4a1-6ca6-4789-bfe7-b553907f46ef","system_id":"levelo_inurba_marseille","lat":43.26205,"lon":5.37927,"is_reserved":false,"is_disabled":false,"rental_uris":{"android":"levelo://app?vid=6ccac4a1-6ca6-4789-bfe7-b553907f46ef","ios":"levelo://app?vid=6ccac4a1-6ca6-4789-bfe7-b553907f46ef"},"vehicle_type_id":"4","last_reported":1687107899,"current_range_meters":400,"station_id":"ce4bhjp2rcd13ifvqg90","pricing_plan_id":"free"},{"bike_id":"1db470a6-99f2-40ce-be5d-dd0f59ed17f6","system_id":"levelo_inurba_marseille","lat":43.26205,"lon":5.37928,"is_reserved":false,"is_disabled":false,"rental_uris":{"android":"levelo://app?vid=1db470a6-99f2-40ce-be5d-dd0f59ed17f6","ios":"levelo://app?vid=1db470a6-99f2-40ce-be5d-dd0f59ed17f6"},"vehicle_type_id":"4","last_reported":1687107899,"current_range_meters":22800,"station_id":"ce4bhjp2rcd13ifvqg90","pricing_plan_id":"free"},{"bike_id":"a9656abd-c999-4cca-856e-9f99b39b6bc4","system_id":"levelo_inurba_marseille","lat":43.26204,"lon":5.37923,"is_reserved":false,"is_disabled":false,"rental_uris":{"android":"levelo://app?vid=a9656abd-c999-4cca-856e-9f99b39b6bc4","ios":"levelo://app?vid=a9656abd-c999-4cca-856e-9f99b39b6bc4"},"vehicle_type_id":"4","last_reported":1687107899,"current_range_meters":31200,"station_id":"ce4bhjp2rcd13ifvqg90","pricing_plan_id":"free"},{"bike_id":"53f4b59d-fc7a-466c-8aab-848626dba241","system_id":"levelo_inurba_marseille","lat":43.26202,"lon":5.379299,"is_reserved":false,"is_disabled":false,"rental_uris":{"android":"levelo://app?vid=53f4b59d-fc7a-466c-8aab-848626dba241","ios":"levelo://app?vid=53f4b59d-fc7a-466c-8aab-848626dba241"},"vehicle_type_id":"4","last_reported":1687107899,"current_range_meters":6000,"station_id":"ce4bhjp2rcd13ifvqg90","pricing_plan_id":"free"},{"bike_id":"63c3083a-a1ad-4e3f-9a6b-00ff3996911f","system_id":"levelo_inurba_marseille","lat":43.26205,"lon":5.37933,"is_reserved":false,"is_disabled":false,"rental_uris":{"android":"levelo://app?vid=63c3083a-a1ad-4e3f-9a6b-00ff3996911f","ios":"levelo://app?vid=63c3083a-a1ad-4e3f-9a6b-00ff3996911f"},"vehicle_type_id":"4","last_reported":1687107899,"current_range_meters":4800,"station_id":"ce4bhjp2rcd13ifvqg90","pricing_plan_id":"free"},{"bike_id":"eca9837a-da44-414b-bd58-7876449b6a4b","system_id":"levelo_inurba_marseille","lat":43.26204,"lon":5.37926,"is_reserved":false,"is_disabled":false,"rental_uris":{"android":"levelo://app?vid=eca9837a-da44-414b-bd58-7876449b6a4b","ios":"levelo://app?vid=eca9837a-da44-414b-bd58-7876449b6a4b"},"vehicle_type_id":"4","last_reported":1687107899,"current_range_meters":28400,"station_id":"ce4bhjp2rcd13ifvqg90","pricing_plan_id":"free"},{"bike_id":"78fcb92f-0468-4f5d-937f-d3cb7c87d972","system_id":"levelo_inurba_marseille","lat":43.26205,"lon":5.37934,"is_reserved":false,"is_disabled":false,"rental_uris":{"android":"levelo://app?vid=78fcb92f-0468-4f5d-937f-d3cb7c87d972","ios":"levelo://app?vid=78fcb92f-0468-4f5d-937f-d3cb7c87d972"},"vehicle_type_id":"4","last_reported":1687107899,"current_range_meters":800,"station_id":"ce4bhjp2rcd13ifvqg90","pricing_plan_id":"free"},{"bike_id":"0a938d4c-4899-4f5a-bdc3-9246531bf0dc","system_id":"levelo_inurba_marseille","lat":43.26204,"lon":5.3793,"is_reserved":false,"is_disabled":false,"rental_uris":{"android":"levelo://app?vid=0a938d4c-4899-4f5a-bdc3-9246531bf0dc","ios":"levelo://app?vid=0a938d4c-4899-4f5a-bdc3-9246531bf0dc"},"vehicle_type_id":"4","last_reported":1687107899,"current_range_meters":11600,"station_id":"ce4bhjp2rcd13ifvqg90","pricing_plan_id":"free"},{"bike_id":"9fe2f556-b711-4aff-a541-a760419c2fb0","system_id":"levelo_inurba_marseille","lat":43.26202,"lon":5.379299,"is_reserved":false,"is_disabled":false,"rental_uris":{"android":"levelo://app?vid=9fe2f556-b711-4aff-a541-a760419c2fb0","ios":"levelo://app?vid=9fe2f556-b711-4aff-a541-a760419c2fb0"},"vehicle_type_id":"4","last_reported":1687107899,"current_range_meters":26400,"station_id":"ce4bhjp2rcd13ifvqg90","pricing_plan_id":"free"},{"bike_id":"0deaae11-c264-4187-a71d-582596381a84","system_id":"levelo_inurba_marseille","lat":43.26202,"lon":5.379299,"is_reserved":false,"is_disabled":false,"rental_uris":{"android":"levelo://app?vid=0deaae11-c264-4187-a71d-582596381a84","ios":"levelo://app?vid=0deaae11-c264-4187-a71d-582596381a84"},"vehicle_type_id":"4","last_reported":1687107899,"current_range_meters":31200,"station_id":"ce4bhjp2rcd13ifvqg90","pricing_plan_id":"free"},{"bike_id":"43dea6e9-628e-4e4d-97e3-47be8678110d","system_id":"levelo_inurba_marseille","lat":43.26202,"lon":5.37933,"is_reserved":false,"is_disabled":false,"rental_uris":{"android":"levelo://app?vid=43dea6e9-628e-4e4d-97e3-47be8678110d","ios":"levelo://app?vid=43dea6e9-628e-4e4d-97e3-47be8678110d"},"vehicle_type_id":"4","last_reported":1687107899,"current_range_meters":1200,"station_id":"ce4bhjp2rcd13ifvqg90","pricing_plan_id":"free"},{"bike_id":"5648b3af-1986-40f6-8b5e-87f404992f56","system_id":"levelo_inurba_marseille","lat":43.26202,"lon":5.379299,"is_reserved":false,"is_disabled":false,"rental_uris":{"android":"levelo://app?vid=5648b3af-1986-40f6-8b5e-87f404992f56","ios":"levelo://app?vid=5648b3af-1986-40f6-8b5e-87f404992f56"},"vehicle_type_id":"4","last_reported":1687107899,"current_range_meters":11600,"station_id":"ce4bhjp2rcd13ifvqg90","pricing_plan_id":"free"},{"bike_id":"202763cc-76ec-4a5e-84bc-5d378695846b","system_id":"levelo_inurba_marseille","lat":43.26201,"lon":5.37929,"is_reserved":false,"is_disabled":false,"rental_uris":{"android":"levelo://app?vid=202763cc-76ec-4a5e-84bc-5d378695846b","ios":"levelo://app?vid=202763cc-76ec-4a5e-84bc-5d378695846b"},"vehicle_type_id":"4","last_reported":1687107899,"current_range_meters":30800,"station_id":"ce4bhjp2rcd13ifvqg90","pricing_plan_id":"free"},{"bike_id":"d098c8e3-32b1-4032-9ab7-2e8612c6beb3","system_id":"levelo_inurba_marseille","lat":43.26202,"lon":5.379299,"is_reserved":false,"is_disabled":false,"rental_uris":{"android":"levelo://app?vid=d098c8e3-32b1-4032-9ab7-2e8612c6beb3","ios":"levelo://app?vid=d098c8e3-32b1-4032-9ab7-2e8612c6beb3"},"vehicle_type_id":"4","last_reported":1687107899,"current_range_meters":24800,"station_id":"ce4bhjp2rcd13ifvqg90","pricing_plan_id":"free"},{"bike_id":"2c84b48f-7b05-449a-94ed-65d80302819a","system_id":"levelo_inurba_marseille","lat":43.26202,"lon":5.379299,"is_reserved":false,"is_disabled":false,"rental_uris":{"android":"levelo://app?vid=2c84b48f-7b05-449a-94ed-65d80302819a","ios":"levelo://app?vid=2c84b48f-7b05-449a-94ed-65d80302819a"},"vehicle_type_id":"4","last_reported":1687107899,"current_range_meters":20000,"station_id":"ce4bhjp2rcd13ifvqg90","pricing_plan_id":"free"},{"bike_id":"d8cf7e6d-f933-4afc-9a82-55bbac115ffc","system_id":"levelo_inurba_marseille","lat":43.262,"lon":5.37936,"is_reserved":false,"is_disabled":false,"rental_uris":{"android":"levelo://app?vid=d8cf7e6d-f933-4afc-9a82-55bbac115ffc","ios":"levelo://app?vid=d8cf7e6d-f933-4afc-9a82-55bbac115ffc"},"vehicle_type_id":"4","last_reported":1687107899,"current_range_meters":24000,"station_id":"ce4bhjp2rcd13ifvqg90","pricing_plan_id":"free"},{"bike_id":"3df4b959-e062-4b40-a2a2-634fb26ed55d","system_id":"levelo_inurba_marseille","lat":43.27178,"lon":5.40991,"is_reserved":false,"is_disabled":false,"rental_uris":{"android":"levelo://app?vid=3df4b959-e062-4b40-a2a2-634fb26ed55d","ios":"levelo://app?vid=3df4b959-e062-4b40-a2a2-634fb26ed55d"},"vehicle_type_id":"4","last_reported":1687107899,"current_range_meters":17600,"station_id":"","pricing_plan_id":"free"},