{"last_updated":1746288675,"ttl":60,"version":"2.2","data":{"bikes":[{"bike_id":"f73daf93-45c7-48c0-a61a-2d28ac89db8d","system_id":"levelo_inurba_marseille","lat":43.3395,"lon":5.42155,"is_reserved":false,"is_disabled":false,"rental_uris":{"android":"levelo://app?vid=f73daf93-45c7-48c0-a61a-2d28ac89db8d","ios":"levelo://app?vid=f73daf93-45c7-48c0-a61a-2d28ac89db8d"},"vehicle_type_id":"4","last_reported":1746288675,"current_range_meters":2800,"station_id":"","pricing_plan_id":"cebpf4jnsgd1na2vs0mg"},{"bike_id":"ab7b53a6-e7af-478f-b7b7-b6499ec6bf83","system_id":"levelo_inurba_marseille","lat":43.22929,"lon":5.35376,"is_reserved":false,"is_disabled":false,"rental_uris":{"android":"levelo://app?vid=ab7b53a6-e7af-478f-b7b7-b6499ec6bf83","ios":"levelo://app?vid=ab7b53a6-e7af-478f-b7b7-b6499ec6bf83"},"vehicle_type_id":"4","last_reported":1746288675,"current_range_meters":2800,"station_id":"cpo3532slgdg3j2ikp40","pricing_plan_id":"cebpf4jnsgd1na2vs0mg"},{"bike_id":"5a11d5fd-a52a-4ae7-ac2c-6cad27e18060","system_id":"levelo_inurba_marseille","lat":43.24663,"lon":5.38166,"is_reserved":false,"is_disabled":false,"rental_uris":{"android":"levelo://app?vid=5a11d5fd-a52a-4ae7-ac2c-6cad27e18060","ios":"levelo://app?vid=5a11d5fd-a52a-4ae7-ac2c-6cad27e18060"},"vehicle_type_id":"4","last_reported":1746288675,"current_range_meters":2800,"station_id":"ce4bhih2rcd13ifvqfr0","pricing_plan_id":"cebpf4jnsgd1na2vs0mg"},{"bike_id":"f851999d-a28a-4f48-8596-22b6c7355db5","system_id":"levelo_inurba_marseille","lat":43.22507,"lon":5.34781,"is_reserved":false,"is_disabled":false,"rental_uris":{"android":"levelo://app?vid=f851999d-a28a-4f48-8596-22b6c7355db5","ios":"levelo://app?vid=f851999d-a28a-4f48-8596-22b6c7355db5"},"vehicle_type_id":"4","last_reported":1746288675,"current_range_meters":3200,"station_id":"st_cvj5dfep6f1abm77gieg","pricing_plan_id":"cebpf4jnsgd1na2vs0mg"},{"bike_id":"c7726d1d-9192-46a0-aefa-3eee6302a158","system_id":"levelo_inurba_marseille","lat":43.29518,"lon":5.39403,"is_reserved":false,"is_disabled":false,"rental_uris":{"android":"levelo://app?vid=c7726d1d-9192-46a0-aefa-3eee6302a158","ios":"levelo://app?vid=c7726d1d-9192-46a0-aefa-3eee6302a158"},"vehicle_type_id":"4","last_reported":1746288675,"current_range_meters":3200,"station_id":"ce4bh292rcd13ifvqdf0","pricing_plan_id":"cebpf4jnsgd1na2vs0mg"},{"bike_id":"9eb207b7-fef9-47db-890d-ac270d1efebe","system_id":"levelo_inurba_marseille","lat":43.25817,"lon":5.39438,"is_reserved":false,"is_disabled":false,"rental_uris":{"android":"levelo://app?vid=9eb207b7-fef9-47db-890d-ac270d1efebe","ios":"levelo://app?vid=9eb207b7-fef9-47db-890d-ac270d1efebe"},"vehicle_type_id":"4","last_reported":1746288675,"current_range_meters":3200,"station_id":"ce4bhip2rcd13ifvqft0","pricing_plan_id":"cebpf4jnsgd1na2vs0mg"},{"bike_id":"5633d4f2-340d-4c6f-b7fb-974be9f1023d","system_id":"levelo_inurba_marseille","lat":43.2319,"lon":5.35562,"is_reserved":false,"is_disabled":false,"rental_uris":{"android":"levelo://app?vid=5633d4f2-340d-4c6f-b7fb-974be9f1023d","ios":"levelo://app?vid=5633d4f2-340d-4c6f-b7fb-974be9f1023d"},"vehicle_type_id":"4","last_reported":1746288675,"current_range_meters":3200,"station_id":"ce4bhu92rcd13ifvqi70","pricing_plan_id":"cebpf4jnsgd1na2vs0mg"},{"bike_id":"d2eeb1d4-f0b6-4cd9-ac88-4d26b669f59e","system_id":"levelo_inurba_marseille","lat":43.25088,"lon":5.39526,"is_reserved":false,"is_disabled":false,"rental_uris":{"android":"levelo://app?vid=d2eeb1d4-f0b6-4cd9-ac88-4d26b669f59e","ios":"levelo://app?vid=d2eeb1d4-f0b6-4cd9-ac88-4d26b669f59e"},"vehicle_type_id":"4","last_reported":1746288675,"current_range_meters":3600,"station_id":"ce4bhm12rcd13ifvqgkg","pricing_plan_id":"cebpf4jnsgd1na2vs0mg"},{"bike_id":"71c0e919-a7e6-4877-bc4a-a63952859afe","system_id":"levelo_inurba_marseille","lat":43.31073,"lon":5.38365,"is_reserved":false,"is_disabled":false,"rental_uris":{"android":"levelo://app?vid=71c0e919-a7e6-4877-bc4a-a63952859afe","ios":"levelo://app?vid=71c0e919-a7e6-4877-bc4a-a63952859afe"},"vehicle_type_id":"4","last_reported":1746288675,"current_range_meters":3600,"station_id":"ce4bgv92rcd13ifvqcr0","pricing_plan_id":"cebpf4jnsgd1na2vs0mg"},{"bike_id":"6d5abced-a128-4fec-b298-250c5ec5ab83","system_id":"levelo_inurba_marseille","lat":43.24806,"lon":5.37456,"is_reserved":false,"is_disabled":false,"rental_uris":{"android":"levelo://app?vid=6d5abced-a128-4fec-b298-250c5ec5ab83","ios":"levelo://app?vid=6d5abced-a128-4fec-b298-250c5ec5ab83"},"vehicle_type_id":"4","last_reported":1746288675,"current_range_meters":4800,"station_id":"ce4bhgh2rcd13ifvqfb0","pricing_plan_id":"cebpf4jnsgd1na2vs0mg"},{"bike_id":"2d87f24b-bb92-4f5a-9c64-611905425c8d","system_id":"levelo_inurba_marseille","lat":43.23667,"lon":5.39143,"is_reserved":false,"is_disabled":false,"rental_uris":{"android":"levelo://app?vid=2d87f24b-bb92-4f5a-9c64-611905425c8d","ios":"levelo://app?vid=2d87f24b-bb92-4f5a-9c64-611905425c8d"},"vehicle_type_id":"4","last_reported":1746288675,"current_range_meters":4000,"station_id":"","pricing_plan_id":"cebpf4jnsgd1na2vs0mg"},{"bike_id":"4c57b383-0098-4623-b161-3ff927a24f1c","system_id":"levelo_inurba_marseille","lat":43.284684,"lon":5.384181,"is_reserved":false,"is_disabled":false,"rental_uris":{"android":"levelo://app?vid=4c57b383-0098-4623-b161-3ff927a24f1c","ios":"levelo://app?vid=4c57b383-0098-4623-b161-3ff927a24f1c"},"vehicle_type_id":"4","last_reported":1746288675,"current_range_meters":4000,"station_id":"ce4bh512rcd13ifvqe3g","pricing_plan_id":"cebpf4jnsgd1na2vs0mg"},{"bike_id":"7971fe93-5f1d-4a59-8508-b415e64fcb18","system_id":"levelo_inurba_marseille","lat":43.30937,"lon":5.37367,"is_reserved":false,"is_disabled":false,"rental_uris":{"android":"levelo://app?vid=7971fe93-5f1d-4a59-8508-b415e64fcb18","ios":"levelo://app?vid=7971fe93-5f1d-4a59-8508-b415e64fcb18"},"vehicle_type_id":"4","last_reported":1746288675,"current_range_meters":4000,"station_id":"","pricing_plan_id":"cebpf4jnsgd1na2vs0mg"},{"bike_id":"beea89c3-2514-4c8b-88d8-c85f64ff7b67","system_id":"levelo_inurba_marseille","lat":43.23964,"lon":5.36635,"is_reserved":false,"is_disabled":false,"rental_uris":{"android":"levelo://app?vid=beea89c3-2514-4c8b-88d8-c85f64ff7b67","ios":"levelo://app?vid=beea89c3-2514-4c8b-88d8-c85f64ff7b67"},"vehicle_type_id":"4","last_reported":1746288675,"current_range_meters":4000,"station_id":"ce4bhi12rcd13ifvqfp0","pricing_plan_id":"cebpf4jnsgd1na2vs0mg"},{"bike_id":"363385df-731c-4505-9755-2d7ef7268ec7","system_id":"levelo_inurba_marseille","lat":43.31176,"lon":5.38714,"is_reserved":false,"is_disabled":false,"rental_uris":{"android":"levelo://app?vid=363385df-731c-4505-9755-2d7ef7268ec7","ios":"levelo://app?vid=363385df-731c-4505-9755-2d7ef7268ec7"},"vehicle_type_id":"4","last_reported":1746288675,"current_range_meters":4400,"station_id":"ce4bgv12rcd13ifvqcp0","pricing_plan_id":"cebpf4jnsgd1na2vs0mg"},{"bike_id":"2a84e15f-6e81-4dcd-b2b1-4445d454ba16","system_id":"levelo_inurba_marseille","lat":43.22504,"lon":5.34803,"is_reserved":false,"is_disabled":false,"rental_uris":{"android":"levelo://app?vid=2a84e15f-6e81-4dcd-b2b1-4445d454ba16","ios":"levelo://app?vid=2a84e15f-6e81-4dcd-b2b1-4445d454ba16"},"vehicle_type_id":"4","last_reported":1746288675,"current_range_meters":4400,"station_id":"st_cvj5dfep6f1abm77gieg","pricing_plan_id":"cebpf4jnsgd1na2vs0mg"},{"bike_id":"7157d416-cd7f-4874-ab34-fc7308e54eb6","system_id":"levelo_inurba_marseille","lat":43.26785,"lon":5.39414,"is_reserved":false,"is_disabled":false,"rental_uris":{"android":"levelo://app?vid=7157d416-cd7f-4874-ab34-fc7308e54eb6","ios":"levelo://app?vid=7157d416-cd7f-4874-ab34-fc7308e54eb6"},"vehicle_type_id":"4","last_reported":1746288675,"current_range_meters":4000,"station_id":"ce4bhh12rcd13ifvqfg0","pricing_plan_id":"cebpf4jnsgd1na2vs0mg"},{"bike_id":"b25514cf-25ad-4dbc-a753-aaffb206b9d5","system_id":"levelo_inurba_marseille","lat":43.29566,"lon":5.37534,"is_reserved":false,"is_disabled":false,"rental_uris":{"android":"levelo://app?vid=b25514cf-25ad-4dbc-a753-aaffb206b9d5","ios":"levelo://app?vid=b25514cf-25ad-4dbc-a753-aaffb206b9d5"},"vehicle_type_id":"4","last_reported":1746288675,"current_range_meters":4400,"station_id":"ce4bgh92rcd13ifvqb50","pricing_plan_id":"cebpf4jnsgd1na2vs0mg"},{"bike_id":"6d998530-799b-4cce-b1d9-07d975694b33","system_id":"levelo_inurba_marseille","lat":43.28405,"lon":5.34979,"is_reserved":false,"is_disabled":false,"rental_uris":{"android":"levelo://app?vid=6d998530-799b-4cce-b1d9-07d975694b33","ios":"levelo://app?vid=6d998530-799b-4cce-b1d9-07d975694b33"},"vehicle_type_id":"4","last_reported":1746288675,"current_range_meters":4400,"station_id":"ce4bhbh2rcd13ifvqepg","pricing_plan_id":"cebpf4jnsgd1na2vs0mg"},{"bike_id":"3a12b86d-0fdf-4eea-b902-74551e85ec0a","system_id":"levelo_inurba_marseille","lat":43.31329,"lon":5.39685,"is_reserved":false,"is_disabled":false,"rental_uris":{"android":"levelo://app?vid=3a12b86d-0fdf-4eea-b902-74551e85ec0a","ios":"levelo://app?vid=3a12b86d-0fdf-4eea-b902-74551e85ec0a"},"vehicle_type_id":"4","last_reported":1746288675,"current_range_meters":7200,"station_id":"ce4bgvp2rcd13ifvqcu0","pricing_plan_id":"cebpf4jnsgd1na2vs0mg"},{"bike_id":"4341dfab-438e-4d1a-8a6a-87a65b8fed8c","system_id":"levelo_inurba_marseille","lat":43.29909,"lon":5.38149,"is_reserved":false,"is_disabled":true,"rental_uris":{"android":"levelo://app?vid=4341dfab-438e-4d1a-8a6a-87a65b8fed8c","ios":"levelo://app?vid=4341dfab-438e-4d1a-8a6a-87a65b8fed8c"},"vehicle_type_id":"4","last_reported":1746288675,"current_range_meters":5600,"station_id":"ce4bgj12rcd13ifvqbc0","pricing_plan_id":"cebpf4jnsgd1na2vs0mg"},{"bike_id":"7c3efffb-05f6-42b5-91cd-baa68e225089","system_id":"levelo_inurba_marseille","lat":43.30905,"lon":5.37271,"is_reserved":false,"is_disabled":false,"rental_uris":{"android":"levelo://app?vid=7c3efffb-05f6-42b5-91cd-baa68e225089","ios":"levelo://app?vid=7c3efffb-05f6-42b5-91cd-baa68e225089"},"vehicle_type_id":"4","last_reported":1746288675,"current_range_meters":5600,"station_id":"","pricing_plan_id":"cebpf4jnsgd1na2vs0mg"},{"bike_id":"540b421e-4237-4daa-bd82-1e2a8870634a","system_id":"levelo_inurba_marseille","lat":43.25499,"lon":5.37646,"is_reserved":false,"is_disabled":false,"rental_uris":{"android":"levelo://app?vid=540b421e-4237-4daa-bd82-1e2a8870634a","ios":"levelo://app?vid=540b421e-4237-4daa-bd82-1e2a8870634a"},"vehicle_type_id":"4","last_reported":1746288675,"current_range_meters":5600,"station_id":"ce4bhh12rcd13ifvqff0","pricing_plan_id":"cebpf4jnsgd1na2vs0mg"},{"bike_id":"97502ad9-7fbb-483d-b486-f8ec6a8d81c5","system_id":"levelo_inurba_marseille","lat":43.24389,"lon":5.37066,"is_reserved":false,"is_disabled":false,"rental_uris":{"android":"levelo://app?vid=97502ad9-7fbb-483d-b486-f8ec6a8d81c5","ios":"levelo://app?vid=97502ad9-7fbb-483d-b486-f8ec6a8d81c5"},"vehicle_type_id":"4","last_reported":1746288675,"current_range_meters":4000,"station_id":"ce4bhhh2rcd13ifvqfk0","pricing_plan_id":"cebpf4jnsgd1na2vs0mg"},{"bike_id":"5c02a7a8-8955-4fa2-bbbd-8a52dcc653ee","system_id":"levelo_inurba_marseille","lat":43.292645,"lon":5.409025,"is_reserved":false,"is_disabled":false,"rental_uris":{"android":"levelo://app?vid=5c02a7a8-8955-4fa2-bbbd-8a52dcc653ee","ios":"levelo://app?vid=5c02a7a8-8955-4fa2-bbbd-8a52dcc653ee"},"vehicle_type_id":"4","last_reported":1746288675,"current_range_meters":5600,"station_id":"ce4bh192rcd13ifvqdc0","pricing_plan_id":"cebpf4jnsgd1na2vs0mg"},{"bike_id":"cf6f10e3-3381-49fb-9261-d64e1e4f4ed0","system_id":"levelo_inurba_marseille","lat":43.25937,"lon":5.375884,"is_reserved":false,"is_disabled":false,"rental_uris":{"android":"levelo://app?vid=cf6f10e3-3381-49fb-9261-d64e1e4f4ed0","ios":"levelo://app?vid=cf6f10e3-3381-49fb-9261-d64e1e4f4ed0"},"vehicle_type_id":"4","last_reported":1746288675,"current_range_meters":6000,"station_id":"ce4bhgh2rcd13ifvqfa0","pricing_plan_id":"cebpf4jnsgd1na2vs0mg"},{"bike_id":"1c8df2fd-d126-498d-be97-40ddb0f363c5","system_id":"levelo_inurba_marseille","lat":43.22509,"lon":5.34783,"is_reserved":false,"is_disabled":false,"rental_uris":{"android":"levelo://app?vid=1c8df2fd-d126-498d-be97-40ddb0f363c5","ios":"levelo://app?vid=1c8df2fd-d126-498d-be97-40ddb0f363c5"},"vehicle_type_id":"4","last_reported":1746288675,"current_range_meters":6000,"station_id":"st_cvj5dfep6f1abm77gieg","pricing_plan_id":"cebpf4jnsgd1na2vs0mg"},{"bike_id":"450eca99-1baf-4bb3-ba0b-a9536c64c860","system_id":"levelo_inurba_marseille","lat":43.217439,"lon":5.346062,"is_reserved":false,"is_disabled":false,"rental_uris":{"android":"levelo://app?vid=450eca99-1baf-4bb3-ba0b-a9536c64c860","ios":"levelo://app?vid=450eca99-1baf-4bb3-ba0b-a9536c64c860"},"vehicle_type_id":"4","last_reported":1746288675,"current_range_meters":6000,"station_id":"","pricing_plan_id":"cebpf4jnsgd1na2vs0mg"},{"bike_id":"2b7c2bee-62cf-407e-8384-eb0e6ed04f38","system_id":"levelo_inurba_marseille","lat":43.26784,"lon":5.39415,"is_reserved":false,"is_disabled":false,"rental_uris":{"android":"levelo://app?vid=2b7c2bee-62cf-407e-8384-eb0e6ed04f38","ios":"levelo://app?vid=2b7c2bee-62cf-407e-8384-eb0e6ed04f38"},"vehicle_type_id":"4","last_reported":1746288675,"current_range_meters":6400,"station_id":"ce4bhh12rcd13ifvqfg0","pricing_plan_id":"cebpf4jnsgd1na2vs0mg"},{"bike_id":"e1807cc9-c88d-4fab-9e90-3553410f9bd5","system_id":"levelo_inurba_marseille","lat":43.27378,"lon":5.36257,"is_reserved":false,"is_disabled":false,"rental_uris":{"android":"levelo://app?vid=e1807cc9-c88d-4fab-9e90-3553410f9bd5","ios":"levelo://app?vid=e1807cc9-c88d-4fab-9e90-3553410f9bd5"},"vehicle_type_id":"4","last_reported":1746288675,"current_range_meters":6400,"station_id":"ce4bhbh2rcd13ifvqeo0","pricing_plan_id":"cebpf4jnsgd1na2vs0mg"},{"bike_id":"000680cf-eb00-4f3f-b2e1-6f1f75efd0e5","system_id":"levelo_inurba_marseille","lat":43.31909,"lon":5.3714,"is_reserved":false,"is_disabled":false,"rental_uris":{"android":"levelo://app?vid=000680cf-eb00-4f3f-b2e1-6f1f75efd0e5","ios":"levelo://app?vid=000680cf-eb00-4f3f-b2e1-6f1f75efd0e5"},"vehicle_type_id":"4","last_reported":1746288675,"current_range_meters":6400,"station_id":"","pricing_plan_id":"cebpf4jnsgd1na2vs0mg"},{"bike_id":"a9a798d4-6d3d-4c94-bfaf-1a25128a47c8","system_id":"levelo_inurba_marseille","lat":43.22933,"lon":5.35376,"is_reserved":false,"is_disabled":false,"rental_uris":{"android":"levelo://app?vid=a9a798d4-6d3d-4c94-bfaf-1a25128a47c8","ios":"levelo://app?vid=a9a798d4-6d3d-4c94-bfaf-1a25128a47c8"},"vehicle_type_id":"4","last_reported":1746288675,"current_range_meters":6400,"station_id":"cpo3532slgdg3j2ikp40","pricing_plan_id":"cebpf4jnsgd1na2vs0mg"},{"bike_id":"547afe9e-0138-45e6-8c74-380441a9f414","system_id":"levelo_inurba_marseille","lat":43.29529,"lon":5.39039,"is_reserved":false,"is_disabled":false,"rental_uris":{"android":"levelo://app?vid=547afe9e-0138-45e6-8c74-380441a9f414","ios":"levelo://app?vid=547afe9e-0138-45e6-8c74-380441a9f414"},"vehicle_type_id":"4","last_reported":1746288675,"current_range_meters":6000,"station_id":"ce4bh3p2rcd13ifvqdp0","pricing_plan_id":"cebpf4jnsgd1na2vs0mg"},{"bike_id":"fb558e9a-ec08-4437-a7c4-d79df351a90c","system_id":"levelo_inurba_marseille","lat":43.28568,"lon":5.39498,"is_reserved":false,"is_disabled":false,"rental_uris":{"android":"levelo://app?vid=fb558e9a-ec08-4437-a7c4-d79df351a90c","ios":"levelo://app?vid=fb558e9a-ec08-4437-a7c4-d79df351a90c"},"vehicle_type_id":"4","last_reported":1746288675,"current_range_meters":6400,"station_id":"ce4bh292rcd13ifvqdg0","pricing_plan_id":"cebpf4jnsgd1na2vs0mg"},{"bike_id":"62b6a680-5f99-465a-98b6-0efe3ef83813","system_id":"levelo_inurba_marseille","lat":43.23193,"lon":5.35553,"is_reserved":false,"is_disabled":false,"rental_uris":{"android":"levelo://app?vid=62b6a680-5f99-465a-98b6-0efe3ef83813","ios":"levelo://app?vid=62b6a680-5f99-465a-98b6-0efe3ef83813"},"vehicle_type_id":"4","last_reported":1746288675,"current_range_meters":6800,"station_id":"ce4bhu92rcd13ifvqi70","pricing_plan_id":"cebpf4jnsgd1na2vs0mg"},{"bike_id":"10664c03-6a56-4ff9-97c5-7c4b9fbea670","system_id":"levelo_inurba_marseille","lat":43.22504,"lon":5.34768,"is_reserved":false,"is_disabled":false,"rental_uris":{"android":"levelo://app?vid=10664c03-6a56-4ff9-97c5-7c4b9fbea670","ios":"levelo://app?vid=10664c03-6a56-4ff9-97c5-7c4b9fbea670"},"vehicle_type_id":"4","last_reported":1746288675,"current_range_meters":6800,"station_id":"st_cvj5dfep6f1abm77gieg","pricing_plan_id":"cebpf4jnsgd1na2vs0mg"},{"bike_id":"2c49cca2-b13e-4a9e-ac6b-214ee9c0fafa","system_id":"levelo_inurba_marseille","lat":43.22931,"lon":5.35412,"is_reserved":false,"is_disabled":true,"rental_uris":{"android":"levelo://app?vid=2c49cca2-b13e-4a9e-ac6b-214ee9c0fafa","ios":"levelo://app?vid=2c49cca2-b13e-4a9e-ac6b-214ee9c0fafa"},"vehicle_type_id":"4","last_reported":1746288675,"current_range_meters":7200,"station_id":"cpo3532slgdg3j2ikp40","pricing_plan_id":"cebpf4jnsgd1na2vs0mg"},{"bike_id":"efd81572-6c53-467a-a944-259ecc96e087","system_id":"levelo_inurba_marseille","lat":43.32056,"lon":5.41542,"is_reserved":false,"is_disabled":false,"rental_uris":{"android":"levelo://app?vid=efd81572-6c53-467a-a944-259ecc96e087","ios":"levelo://app?vid=efd81572-6c53-467a-a944-259ecc96e087"},"vehicle_type_id":"4","last_reported":1746288675,"current_range_meters":7200,"station_id":"ce4bhq92rcd13ifvqhkg","pricing_plan_id":"cebpf4jnsgd1na2vs0mg"},{"bike_id":"04d2ef5e-941e-4a65-9127-ba5d10a66443","system_id":"levelo_inurba_marseille","lat":43.22931,"lon":5.35376,"is_reserved":false,"is_disabled":false,"rental_uris":{"android":"levelo://app?vid=04d2ef5e-941e-4a65-9127-ba5d10a66443","ios":"levelo://app?vid=04d2ef5e-941e-4a65-9127-ba5d10a66443"},"vehicle_type_id":"4","last_reported":1746288675,"current_range_meters":7200,"station_id":"cpo3532slgdg3j2ikp40","pricing_plan_id":"cebpf4jnsgd1na2vs0mg"},{"bike_id":"b6fcc368-d669-4a30-a903-3eed1f7d337b","system_id":"levelo_inurba_marseille","lat":43.32213,"lon":5.3761,"is_reserved":false,"is_disabled":false,"rental_uris":{"android":"levelo://app?vid=b6fcc368-d669-4a30-a903-3eed1f7d337b","ios":"levelo://app?vid=b6fcc368-d669-4a30-a903-3eed1f7d337b"},"vehicle_type_id":"4","last_reported":1746288675,"current_range_meters":7200,"station_id":"","pricing_plan_id":"cebpf4jnsgd1na2vs0mg"},{"bike_id":"55d4740b-e3a5-4c30-95bb-4a535b736665","system_id":"levelo_inurba_marseille","lat":43.24386,"lon":5.37056,"is_reserved":false,"is_disabled":false,"rental_uris":{"android":"levelo://app?vid=55d4740b-e3a5-4c30-95bb-4a535b736665","ios":"levelo://app?vid=55d4740b-e3a5-4c30-95bb-4a535b736665"},"vehicle_type_id":"4","last_reported":1746288675,"current_range_meters":6800,"station_id":"ce4bhhh2rcd13ifvqfk0","pricing_plan_id":"cebpf4jnsgd1na2vs0mg"},{"bike_id":"a8af436f-b656-4752-9baa-06640bfb2701","system_id":"levelo_inurba_marseille","lat":43.29956,"lon":5.41323,"is_reserved":false,"is_disabled":false,"rental_uris":{"android":"levelo://app?vid=a8af436f-b656-4752-9baa-06640bfb2701","ios":"levelo://app?vid=a8af436f-b656-4752-9baa-06640bfb2701"},"vehicle_type_id":"4","last_reported":1746288675,"current_range_meters":8000,"station_id":"ce4bhp12rcd13ifvqh9g","pricing_plan_id":"cebpf4jnsgd1na2vs0mg"},{"bike_id":"473b347d-b3a4-4f3f-b754-cdc131a4d656","system_id":"levelo_inurba_marseille","lat":43.29892,"lon":5.43657,"is_reserved":false,"is_disabled":false,"rental_uris":{"android":"levelo://app?vid=473b347d-b3a4-4f3f-b754-cdc131a4d656","ios":"levelo://app?vid=473b347d-b3a4-4f3f-b754-cdc131a4d656"},"vehicle_type_id":"4","last_reported":1746288675,"current_range_meters":8000,"station_id":"ce4bhpp2rcd13ifvqhfg","pricing_plan_id":"cebpf4jnsgd1na2vs0mg"},{"bike_id":"1d3f7cbf-3db7-496b-a367-24c92f5a7d89","system_id":"levelo_inurba_marseille","lat":43.21173,"lon":5.35075,"is_reserved":false,"is_disabled":false,"rental_uris":{"android":"levelo://app?vid=1d3f7cbf-3db7-496b-a367-24c92f5a7d89","ios":"levelo://app?vid=1d3f7cbf-3db7-496b-a367-24c92f5a7d89"},"vehicle_type_id":"4","last_reported":1746288675,"current_range_meters":8000,"station_id":"st_cvj6sg6p6f1abm77japg","pricing_plan_id":"cebpf4jnsgd1na2vs0mg"},{"bike_id":"a5a463a9-c5a7-4107-9ea2-0bb5b0532663","system_id":"levelo_inurba_marseille","lat":43.29418,"lon":5.38627,"is_reserved":false,"is_disabled":false,"rental_uris":{"android":"levelo://app?vid=a5a463a9-c5a7-4107-9ea2-0bb5b0532663","ios":"levelo://app?vid=a5a463a9-c5a7-4107-9ea2-0bb5b0532663"},"vehicle_type_id":"4","last_reported":1746288675,"current_range_meters":8000,"station_id":"ce4bh2h2rcd13ifvqdh0","pricing_plan_id":"cebpf4jnsgd1na2vs0mg"},{"bike_id":"3f3d768b-2506-435a-99e1-f3cb0a95037a","system_id":"levelo_inurba_marseille","lat":43.27817,"lon":5.40718,"is_reserved":false,"is_disabled":false,"rental_uris":{"android":"levelo://app?vid=3f3d768b-2506-435a-99e1-f3cb0a95037a","ios":"levelo://app?vid=3f3d768b-2506-435a-99e1-f3cb0a95037a"},"vehicle_type_id":"4","last_reported":1746288675,"current_range_meters":8000,"station_id":"ce4bhnh2rcd13ifvqgtg","pricing_plan_id":"cebpf4jnsgd1na2vs0mg"},{"bike_id":"9fcd81c8-dd84-44af-a54e-dc0a64ea3b2b","system_id":"levelo_inurba_marseille","lat":43.287194,"lon":5.379366,"is_reserved":false,"is_disabled":false,"rental_uris":{"android":"levelo://app?vid=9fcd81c8-dd84-44af-a54e-dc0a64ea3b2b","ios":"levelo://app?vid=9fcd81c8-dd84-44af-a54e-dc0a64ea3b2b"},"vehicle_type_id":"4","last_reported":1746288675,"current_range_meters":8800,"station_id":"ce4bh9p2rcd13ifvqec0","pricing_plan_id":"cebpf4jnsgd1na2vs0mg"},{"bike_id":"480699bd-f906-4c90-b736-ae6901b738d4","system_id":"levelo_inurba_marseille","lat":43.292725,"lon":5.36838,"is_reserved":false,"is_disabled":false,"rental_uris":{"android":"levelo://app?vid=480699bd-f906-4c90-b736-ae6901b738d4","ios":"levelo://app?vid=480699bd-f906-4c90-b736-ae6901b738d4"},"vehicle_type_id":"4","last_reported":1746288675,"current_range_meters":8000,"station_id":"ce4bhbp2rcd13ifvqesg","pricing_plan_id":"cebpf4jnsgd1na2vs0mg"},{"bike_id":"dcf471e5-50d7-4c6d-8c76-01b9d58b8521","system_id":"levelo_inurba_marseille","lat":43.21751,"lon":5.34621,"is_reserved":false,"is_disabled":false,"rental_uris":{"android":"levelo://app?vid=dcf471e5-50d7-4c6d-8c76-01b9d58b8521","ios":"levelo://app?vid=dcf471e5-50d7-4c6d-8c76-01b9d58b8521"},"vehicle_type_id":"4","last_reported":1746288675,"current_range_meters":8000,"station_id":"st_cvj6r9ubvosntc0bgbag","pricing_plan_id":"cebpf4jnsgd1na2vs0mg"},{"bike_id":"3e053f62-681e-4bbd-93cd-c03264809cc7","system_id":"levelo_inurba_marseille","lat":43.29276,"lon":5.36835,"is_reserved":false,"is_disabled":false,"rental_uris":{"android":"levelo://app?vid=3e053f62-681e-4bbd-93cd-c03264809cc7","ios":"levelo://app?vid=3e053f62-681e-4bbd-93cd-c03264809cc7"},"vehicle_type_id":"4","last_reported":1746288675,"current_range_meters":8000,"station_id":"ce4bhbp2rcd13ifvqesg","pricing_plan_id":"cebpf4jnsgd1na2vs0mg"},{"bike_id":"4999f7c8-4ea8-445b-a302-bd1c1f9d6d63","system_id":"levelo_inurba_marseille","lat":43.27912,"lon":5.39582,"is_reserved":false,"is_disabled":false,"rental_uris":{"android":"levelo://app?vid=4999f7c8-4ea8-445b-a302-bd1c1f9d6d63","ios":"levelo://app?vid=4999f7c8-4ea8-445b-a302-bd1c1f9d6d63"},"vehicle_type_id":"4","last_reported":1746288675,"current_range_meters":8000,"station_id":"ce4bhf92rcd13ifvqf40","pricing_plan_id":"cebpf4jnsgd1na2vs0mg"},{"bike_id":"eb3d7b54-4e16-400f-8de8-71adc3c238d8","system_id":"levelo_inurba_marseille","lat":43.29955,"lon":5.38492,"is_reserved":false,"is_disabled":false,"rental_uris":{"android":"levelo://app?vid=eb3d7b54-4e16-400f-8de8-71adc3c238d8","ios":"levelo://app?vid=eb3d7b54-4e16-400f-8de8-71adc3c238d8"},"vehicle_type_id":"4","last_reported":1746288675,"current_range_meters":8000,"station_id":"ce4bgj92rcd13ifvqbd0","pricing_plan_id":"cebpf4jnsgd1na2vs0mg"},{"bike_id":"347774bc-e50c-43ac-9ef7-55b8bd83ec9c","system_id":"levelo_inurba_marseille","lat":43.2418,"lon":5.39735,"is_reserved":false,"is_disabled":false,"rental_uris":{"android":"levelo://app?vid=347774bc-e50c-43ac-9ef7-55b8bd83ec9c","ios":"levelo://app?vid=347774bc-e50c-43ac-9ef7-55b8bd83ec9c"},"vehicle_type_id":"4","last_reported":1746288675,"current_range_meters":8400,"station_id":"ce4bhn12rcd13ifvqgpg","pricing_plan_id":"cebpf4jnsgd1na2vs0mg"},{"bike_id":"c811b81b-299d-4f8d-b843-ae1756353fd2","system_id":"levelo_inurba_marseille","lat":43.211889,"lon":5.350667,"is_reserved":false,"is_disabled":false,"rental_uris":{"android":"levelo://app?vid=c811b81b-299d-4f8d-b843-ae1756353fd2","ios":"levelo://app?vid=c811b81b-299d-4f8d-b843-ae1756353fd2"},"vehicle_type_id":"4","last_reported":1746288675,"current_range_meters":8400,"station_id":"st_cvj6sg6p6f1abm77japg","pricing_plan_id":"cebpf4jnsgd1na2vs0mg"},{"bike_id":"0777686a-2273-4f8c-9672-d24f9af38203","system_id":"levelo_inurba_marseille","lat":43.324739,"lon":5.365592,"is_reserved":false,"is_disabled":false,"rental_uris":{"android":"levelo://app?vid=0777686a-2273-4f8c-9672-d24f9af38203","ios":"levelo://app?vid=0777686a-2273-4f8c-9672-d24f9af38203"},"vehicle_type_id":"4","last_reported":1746288675,"current_range_meters":8400,"station_id":"","pricing_plan_id":"cebpf4jnsgd1na2vs0mg"},{"bike_id":"4d2fe1ca-70c8-4826-aba6-9aa47bdf7f8c","system_id":"levelo_inurba_marseille","lat":43.26197,"lon":5.37453,"is_reserved":false,"is_disabled":false,"rental_uris":{"android":"levelo://app?vid=4d2fe1ca-70c8-4826-aba6-9aa47bdf7f8c","ios":"levelo://app?vid=4d2fe1ca-70c8-4826-aba6-9aa47bdf7f8c"},"vehicle_type_id":"4","last_reported":1746288675,"current_range_meters":8400,"station_id":"ce4bhgp2rcd13ifvqfc0","pricing_plan_id":"cebpf4jnsgd1na2vs0mg"},{"bike_id":"e3462c87-87c9-4837-a441-3715569adec9","system_id":"levelo_inurba_marseille","lat":43.28399,"lon":5.34984,"is_reserved":false,"is_disabled":false,"rental_uris":{"android":"levelo://app?vid=e3462c87-87c9-4837-a441-3715569adec9","ios":"levelo://app?vid=e3462c87-87c9-4837-a441-3715569adec9"},"vehicle_type_id":"4","last_reported":1746288675,"current_range_meters":8400,"station_id":"ce4bhbh2rcd13ifvqepg","pricing_plan_id":"cebpf4jnsgd1na2vs0mg"},{"bike_id":"dd10cf19-cfbe-4f42-8412-a58919a9738a","system_id":"levelo_inurba_marseille","lat":43.29198,"lon":5.35812,"is_reserved":false,"is_disabled":false,"rental_uris":{"android":"levelo://app?vid=dd10cf19-cfbe-4f42-8412-a58919a9738a","ios":"levelo://app?vid=dd10cf19-cfbe-4f42-8412-a58919a9738a"},"vehicle_type_id":"4","last_reported":1746288675,"current_range_meters":6400,"station_id":"ce4bhb12rcd13ifvqel0","pricing_plan_id":"cebpf4jnsgd1na2vs0mg"},{"bike_id":"48dcd8be-c85f-4364-8d04-1f2ef2ebf87e","system_id":"levelo_inurba_marseille","lat":43.28469,"lon":5.35874,"is_reserved":false,"is_disabled":false,"rental_uris":{"android":"levelo://app?vid=48dcd8be-c85f-4364-8d04-1f2ef2ebf87e","ios":"levelo://app?vid=48dcd8be-c85f-4364-8d04-1f2ef2ebf87e"},"vehicle_type_id":"4","last_reported":1746288675,"current_range_meters":8000,"station_id":"ce4bhah2rcd13ifvqei0","pricing_plan_id":"cebpf4jnsgd1na2vs0mg"},{"bike_id":"c92a47ce-f4fb-49bd-a12b-7815bdf9b875","system_id":"levelo_inurba_marseille","lat":43.254548,"lon":5.377139,"is_reserved":false,"is_disabled":false,"rental_uris":{"android":"levelo://app?vid=c92a47ce-f4fb-49bd-a12b-7815bdf9b875","ios":"levelo://app?vid=c92a47ce-f4fb-49bd-a12b-7815bdf9b875"},"vehicle_type_id":"4","last_reported":1746288675,"current_range_meters":8400,"station_id":"ce4bhih2rcd13ifvqfr0","pricing_plan_id":"cebpf4jnsgd1na2vs0mg"},{"bike_id":"993409f2-b888-4d0c-b975-d32cc36f82e3","system_id":"levelo_inurba_marseille","lat":43.28269,"lon":5.35073,"is_reserved":false,"is_disabled":false,"rental_uris":{"android":"levelo://app?vid=993409f2-b888-4d0c-b975-d32cc36f82e3","ios":"levelo://app?vid=993409f2-b888-4d0c-b975-d32cc36f82e3"},"vehicle_type_id":"4","last_reported":1746288675,"current_range_meters":8400,"station_id":"ce4bhbp2rcd13ifvqerg","pricing_plan_id":"cebpf4jnsgd1na2vs0mg"},{"bike_id":"20ccbdaf-8a76-4cd4-87af-fb59c08e81dc","system_id":"levelo_inurba_marseille","lat":43.231947,"lon":5.355565,"is_reserved":false,"is_disabled":false,"rental_uris":{"android":"levelo://app?vid=20ccbdaf-8a76-4cd4-87af-fb59c08e81dc","ios":"levelo://app?vid=20ccbdaf-8a76-4cd4-87af-fb59c08e81dc"},"vehicle_type_id":"4","last_reported":1746288675,"current_range_meters":8400,"station_id":"ce4bhu92rcd13ifvqi70","pricing_plan_id":"cebpf4jnsgd1na2vs0mg"},{"bike_id":"6b953996-96c0-47a2-a704-4c05a0a00230","system_id":"levelo_inurba_marseille","lat":43.27379,"lon":5.3626,"is_reserved":false,"is_disabled":false,"rental_uris":{"android":"levelo://app?vid=6b953996-96c0-47a2-a704-4c05a0a00230","ios":"levelo://app?vid=6b953996-96c0-47a2-a704-4c05a0a00230"},"vehicle_type_id":"4","last_reported":1746288675,"current_range_meters":8400,"station_id":"ce4bhbh2rcd13ifvqeo0","pricing_plan_id":"cebpf4jnsgd1na2vs0mg"},{"bike_id":"e27ce41e-d31e-4411-a762-387f29d91877","system_id":"levelo_inurba_marseille","lat":43.29565,"lon":5.42292,"is_reserved":false,"is_disabled":false,"rental_uris":{"android":"levelo://app?vid=e27ce41e-d31e-4411-a762-387f29d91877","ios":"levelo://app?vid=e27ce41e-d31e-4411-a762-387f29d91877"},"vehicle_type_id":"4","last_reported":1746288675,"current_range_meters":8800,"station_id":"ce4bhph2rcd13ifvqhdg","pricing_plan_id":"cebpf4jnsgd1na2vs0mg"},{"bike_id":"51c2e6ff-d822-4a06-aee7-33bcb7337aa5","system_id":"levelo_inurba_marseille","lat":43.29594,"lon":5.38107,"is_reserved":false,"is_disabled":false,"rental_uris":{"android":"levelo://app?vid=51c2e6ff-d822-4a06-aee7-33bcb7337aa5","ios":"levelo://app?vid=51c2e6ff-d822-4a06-aee7-33bcb7337aa5"},"vehicle_type_id":"4","last_reported":1746288675,"current_range_meters":8800,"station_id":"ce4bgl12rcd13ifvqbo0","pricing_plan_id":"cebpf4jnsgd1na2vs0mg"},{"bike_id":"e0e163c0-b70c-478b-a240-966060226969","system_id":"levelo_inurba_marseille","lat":43.29238,"lon":5.36193,"is_reserved":false,"is_disabled":false,"rental_uris":{"android":"levelo://app?vid=e0e163c0-b70c-478b-a240-966060226969","ios":"levelo://app?vid=e0e163c0-b70c-478b-a240-966060226969"},"vehicle_type_id":"4","last_reported":1746288675,"current_range_meters":8800,"station_id":"","pricing_plan_id":"cebpf4jnsgd1na2vs0mg"},{"bike_id":"cc22c719-5bfe-4229-9ed9-2a3a344bc323","system_id":"levelo_inurba_marseille","lat":43.29274,"lon":5.36843,"is_reserved":false,"is_disabled":false,"rental_uris":{"android":"levelo://app?vid=cc22c719-5bfe-4229-9ed9-2a3a344bc323","ios":"levelo://app?vid=cc22c719-5bfe-4229-9ed9-2a3a344bc323"},"vehicle_type_id":"4","last_reported":1746288675,"current_range_meters":8800,"station_id":"ce4bhbp2rcd13ifvqesg","pricing_plan_id":"cebpf4jnsgd1na2vs0mg"},{"bike_id":"abd0ed6c-21f8-4ec6-9765-1a0b4645a052","system_id":"levelo_inurba_marseille","lat":43.211925,"lon":5.350727,"is_reserved":false,"is_disabled":false,"rental_uris":{"android":"levelo://app?vid=abd0ed6c-21f8-4ec6-9765-1a0b4645a052","ios":"levelo://app?vid=abd0ed6c-21f8-4ec6-9765-1a0b4645a052"},"vehicle_type_id":"4","last_reported":1746288675,"current_range_meters":8800,"station_id":"","pricing_plan_id":"cebpf4jnsgd1na2vs0mg"},{"bike_id":"0b82354c-4fec-41fb-8b67-e697965d3b2e","system_id":"levelo_inurba_marseille","lat":43.24173,"lon":5.36407,"is_reserved":false,"is_disabled":false,"rental_uris":{"android":"levelo://app?vid=0b82354c-4fec-41fb-8b67-e697965d3b2e","ios":"levelo://app?vid=0b82354c-4fec-41fb-8b67-e697965d3b2e"},"vehicle_type_id":"4","last_reported":1746288675,"current_range_meters":8800,"station_id":"cpo36qri1sfpv3e86is0","pricing_plan_id":"cebpf4jnsgd1na2vs0mg"},{"bike_id":"065b3415-b276-4283-892b-081dcac8ca4a","system_id":"levelo_inurba_marseille","lat":43.26214,"lon":5.37442,"is_reserved":false,"is_disabled":false,"rental_uris":{"android":"levelo://app?vid=065b3415-b276-4283-892b-081dcac8ca4a","ios":"levelo://app?vid=065b3415-b276-4283-892b-081dcac8ca4a"},"vehicle_type_id":"4","last_reported":1746288675,"current_range_meters":8800,"station_id":"ce4bhgp2rcd13ifvqfc0","pricing_plan_id":"cebpf4jnsgd1na2vs0mg"},{"bike_id":"42fbd5a7-4c92-4446-a80d-65e6b95a4f91","system_id":"levelo_inurba_marseille","lat":43.28473,"lon":5.38418,"is_reserved":false,"is_disabled":false,"rental_uris":{"android":"levelo://app?vid=42fbd5a7-4c92-4446-a80d-65e6b95a4f91","ios":"levelo://app?vid=42fbd5a7-4c92-4446-a80d-65e6b95a4f91"},"vehicle_type_id":"4","last_reported":1746288675,"current_range_meters":8800,"station_id":"ce4bh512rcd13ifvqe3g","pricing_plan_id":"cebpf4jnsgd1na2vs0mg"},{"bike_id":"570b486c-50df-4f1f-97df-caa86c0d419e","system_id":"levelo_inurba_marseille","lat":43.33743,"lon":5.35589,"is_reserved":false,"is_disabled":false,"rental_uris":{"android":"levelo://app?vid=570b486c-50df-4f1f-97df-caa86c0d419e","ios":"levelo://app?vid=570b486c-50df-4f1f-97df-caa86c0d419e"},"vehicle_type_id":"4","last_reported":1746288675,"current_range_meters":9200,"station_id":"","pricing_plan_id":"cebpf4jnsgd1na2vs0mg"},{"bike_id":"c6d75acf-3212-4f91-9f29-1ad05c85d9bf","system_id":"levelo_inurba_marseille","lat":43.29889,"lon":5.3891,"is_reserved":false,"is_disabled":false,"rental_uris":{"android":"levelo://app?vid=c6d75acf-3212-4f91-9f29-1ad05c85d9bf","ios":"levelo://app?vid=c6d75acf-3212-4f91-9f29-1ad05c85d9bf"},"vehicle_type_id":"4","last_reported":1746288675,"current_range_meters":9200,"station_id":"ce4bh392rcd13ifvqdl0","pricing_plan_id":"cebpf4jnsgd1na2vs0mg"},{"bike_id":"dfb3396e-96f5-457c-af11-f6f27dad33e9","system_id":"levelo_inurba_marseille","lat":43.27199,"lon":5.364731,"is_reserved":false,"is_disabled":false,"rental_uris":{"android":"levelo://app?vid=dfb3396e-96f5-457c-af11-f6f27dad33e9","ios":"levelo://app?vid=dfb3396e-96f5-457c-af11-f6f27dad33e9"},"vehicle_type_id":"4","last_reported":1746288675,"current_range_meters":9600,"station_id":"","pricing_plan_id":"cebpf4jnsgd1na2vs0mg"},{"bike_id":"ef69e7cc-37df-4e66-bd4f-a85ef9d1ea7e","system_id":"levelo_inurba_marseille","lat":43.27497,"lon":5.42451,"is_reserved":false,"is_disabled":false,"rental_uris":{"android":"levelo://app?vid=ef69e7cc-37df-4e66-bd4f-a85ef9d1ea7e","ios":"levelo://app?vid=ef69e7cc-37df-4e66-bd4f-a85ef9d1ea7e"},"vehicle_type_id":"4","last_reported":1746288675,"current_range_meters":9600,"station_id":"ce4bhn92rcd13ifvqgrg","pricing_plan_id":"cebpf4jnsgd1na2vs0mg"},{"bike_id":"a39d444c-1077-47b2-93cf-5701c379aa66","system_id":"levelo_inurba_marseille","lat":43.2119,"lon":5.35088,"is_reserved":false,"is_disabled":false,"rental_uris":{"android":"levelo://app?vid=a39d444c-1077-47b2-93cf-5701c379aa66","ios":"levelo://app?vid=a39d444c-1077-47b2-93cf-5701c379aa66"},"vehicle_type_id":"4","last_reported":1746288675,"current_range_meters":9600,"station_id":"st_cvj6sg6p6f1abm77japg","pricing_plan_id":"cebpf4jnsgd1na2vs0mg"},{"bike_id":"dd5aaaf9-fdaa-4c19-a2ee-f0edeb6be294","system_id":"levelo_inurba_marseille","lat":43.28617,"lon":5.35101,"is_reserved":false,"is_disabled":false,"rental_uris":{"android":"levelo://app?vid=dd5aaaf9-fdaa-4c19-a2ee-f0edeb6be294","ios":"levelo://app?vid=dd5aaaf9-fdaa-4c19-a2ee-f0edeb6be294"},"vehicle_type_id":"4","last_reported":1746288675,"current_range_meters":9600,"station_id":"ce4bhch2rcd13ifvqeug","pricing_plan_id":"cebpf4jnsgd1na2vs0mg"},{"bike_id":"07dd4d6f-d264-4e0e-a216-a64419e78ce6","system_id":"levelo_inurba_marseille","lat":43.29479,"lon":5.4338,"is_reserved":false,"is_disabled":false,"rental_uris":{"android":"levelo://app?vid=07dd4d6f-d264-4e0e-a216-a64419e78ce6","ios":"levelo://app?vid=07dd4d6f-d264-4e0e-a216-a64419e78ce6"},"vehicle_type_id":"4","last_reported":1746288675,"current_range_meters":9600,"station_id":"","pricing_plan_id":"cebpf4jnsgd1na2vs0mg"},{"bike_id":"6a8e57dd-9a83-4d13-af65-10cbc5382ab3","system_id":"levelo_inurba_marseille","lat":43.24536,"lon":5.39502,"is_reserved":false,"is_disabled":false,"rental_uris":{"android":"levelo://app?vid=6a8e57dd-9a83-4d13-af65-10cbc5382ab3","ios":"levelo://app?vid=6a8e57dd-9a83-4d13-af65-10cbc5382ab3"},"vehicle_type_id":"4","last_reported":1746288675,"current_range_meters":9600,"station_id":"ce4bhlp2rcd13ifvqgjg","pricing_plan_id":"cebpf4jnsgd1na2vs0mg"},{"bike_id":"f6136f00-b6b5-48ee-b9f8-5a00e87db14b","system_id":"levelo_inurba_marseille","lat":43.229265,"lon":5.353772,"is_reserved":false,"is_disabled":false,"rental_uris":{"android":"levelo://app?vid=f6136f00-b6b5-48ee-b9f8-5a00e87db14b","ios":"levelo://app?vid=f6136f00-b6b5-48ee-b9f8-5a00e87db14b"},"vehicle_type_id":"4","last_reported":1746288675,"current_range_meters":9600,"station_id":"cpo3532slgdg3j2ikp40","pricing_plan_id":"cebpf4jnsgd1na2vs0mg"},{"bike_id":"711cfe90-0717-406f-bf9e-e696f05c7806","system_id":"levelo_inurba_marseille","lat":43.26202,"lon":5.37929,"is_reserved":false,"is_disabled":false,"rental_uris":{"android":"levelo://app?vid=711cfe90-0717-406f-bf9e-e696f05c7806","ios":"levelo://app?vid=711cfe90-0717-406f-bf9e-e696f05c7806"},"vehicle_type_id":"4","last_reported":1746288675,"current_range_meters":9600,"station_id":"ce4bhjp2rcd13ifvqg90","pricing_plan_id":"cebpf4jnsgd1na2vs0mg"},{"bike_id":"db7b819f-e29b-40c0-a7c3-b6a4087601d3","system_id":"levelo_inurba_marseille","lat":43.26941,"lon":5.40244,"is_reserved":false,"is_disabled":false,"rental_uris":{"android":"levelo://app?vid=db7b819f-e29b-40c0-a7c3-b6a4087601d3","ios":"levelo://app?vid=db7b819f-e29b-40c0-a7c3-b6a4087601d3"},"vehicle_type_id":"4","last_reported":1746288675,"current_range_meters":9600,"station_id":"cjm6bp8fraef2m0cb0m0","pricing_plan_id":"cebpf4jnsgd1na2vs0mg"},{"bike_id":"137940ec-429b-4f71-a9e6-68ab74c90b29","system_id":"levelo_inurba_marseille","lat":43.25869,"lon":5.39906,"is_reserved":false,"is_disabled":false,"rental_uris":{"android":"levelo://app?vid=137940ec-429b-4f71-a9e6-68ab74c90b29","ios":"levelo://app?vid=137940ec-429b-4f71-a9e6-68ab74c90b29"},"vehicle_type_id":"4","last_reported":1746288675,"current_range_meters":10000,"station_id":"ce4bhl92rcd13ifvqghg","pricing_plan_id":"cebpf4jnsgd1na2vs0mg"},{"bike_id":"f1ffd2b9-91e9-4bf5-a319-6e95940b0de6","system_id":"levelo_inurba_marseille","lat":43.2956,"lon":5.42286,"is_reserved":false,"is_disabled":false,"rental_uris":{"android":"levelo://app?vid=f1ffd2b9-91e9-4bf5-a319-6e95940b0de6","ios":"levelo://app?vid=f1ffd2b9-91e9-4bf5-a319-6e95940b0de6"},"vehicle_type_id":"4","last_reported":1746288675,"current_range_meters":10000,"station_id":"ce4bhph2rcd13ifvqhdg","pricing_plan_id":"cebpf4jnsgd1na2vs0mg"},{"bike_id":"d11ad4ed-5483-4abb-b8ae-c4e0f73880b4","system_id":"levelo_inurba_marseille","lat":43.31714,"lon":5.43722,"is_reserved":false,"is_disabled":false,"rental_uris":{"android":"levelo://app?vid=d11ad4ed-5483-4abb-b8ae-c4e0f73880b4","ios":"levelo://app?vid=d11ad4ed-5483-4abb-b8ae-c4e0f73880b4"},"vehicle_type_id":"4","last_reported":1746288675,"current_range_meters":10000,"station_id":"ce4bhp92rcd13ifvqhcg","pricing_plan_id":"cebpf4jnsgd1na2vs0mg"},{"bike_id":"3b447428-b77d-4475-a261-92ab21855f81","system_id":"levelo_inurba_marseille","lat":43.23206,"lon":5.35555,"is_reserved":false,"is_disabled":false,"rental_uris":{"android":"levelo://app?vid=3b447428-b77d-4475-a261-92ab21855f81","ios":"levelo://app?vid=3b447428-b77d-4475-a261-92ab21855f81"},"vehicle_type_id":"4","last_reported":1746288675,"current_range_meters":10000,"station_id":"ce4bhu92rcd13ifvqi70","pricing_plan_id":"cebpf4jnsgd1na2vs0mg"},{"bike_id":"4870592d-a8f6-45fd-93b0-ac88ec3c99b6","system_id":"levelo_inurba_marseille","lat":43.28272,"lon":5.3506,"is_reserved":false,"is_disabled":false,"rental_uris":{"android":"levelo://app?vid=4870592d-a8f6-45fd-93b0-ac88ec3c99b6","ios":"levelo://app?vid=4870592d-a8f6-45fd-93b0-ac88ec3c99b6"},"vehicle_type_id":"4","last_reported":1746288675,"current_range_meters":10000,"station_id":"ce4bhbp2rcd13ifvqerg","pricing_plan_id":"cebpf4jnsgd1na2vs0mg"},{"bike_id":"a692b93c-2a7d-4710-96ea-d7d12706d8b4","system_id":"levelo_inurba_marseille","lat":43.21551,"lon":5.347217,"is_reserved":false,"is_disabled":false,"rental_uris":{"android":"levelo://app?vid=a692b93c-2a7d-4710-96ea-d7d12706d8b4","ios":"levelo://app?vid=a692b93c-2a7d-4710-96ea-d7d12706d8b4"},"vehicle_type_id":"4","last_reported":1746288675,"current_range_meters":10000,"station_id":"","pricing_plan_id":"cebpf4jnsgd1na2vs0mg"},{"bike_id":"0a4d6f6e-11d4-4a79-b0bd-0940e7cb7ff0","system_id":"levelo_inurba_marseille","lat":43.30875,"lon":5.37192,"is_reserved":false,"is_disabled":false,"rental_uris":{"android":"levelo://app?vid=0a4d6f6e-11d4-4a79-b0bd-0940e7cb7ff0","ios":"levelo://app?vid=0a4d6f6e-11d4-4a79-b0bd-0940e7cb7ff0"},"vehicle_type_id":"4","last_reported":1746288675,"current_range_meters":10800,"station_id":"ce4bguh2rcd13ifvqckg","pricing_plan_id":"cebpf4jnsgd1na2vs0mg"},{"bike_id":"9e4e1c7f-4bf1-4684-be56-22814378db28","system_id":"levelo_inurba_marseille","lat":43.27938,"lon":5.41049,"is_reserved":false,"is_disabled":false,"rental_uris":{"android":"levelo://app?vid=9e4e1c7f-4bf1-4684-be56-22814378db28","ios":"levelo://app?vid=9e4e1c7f-4bf1-4684-be56-22814378db28"},"vehicle_type_id":"4","last_reported":1746288675,"current_range_meters":7200,"station_id":"ce4bhnp2rcd13ifvqh0g","pricing_plan_id":"cebpf4jnsgd1na2vs0mg"},{"bike_id":"ad4b4a34-cfd9-4789-8868-a7402b9726e4","system_id":"levelo_inurba_marseille","lat":43.26206,"lon":5.37449,"is_reserved":false,"is_disabled":false,"rental_uris":{"android":"levelo://app?vid=ad4b4a34-cfd9-4789-8868-a7402b9726e4","ios":"levelo://app?vid=ad4b4a34-cfd9-4789-8868-a7402b9726e4"},"vehicle_type_id":"4","last_reported":1746288675,"current_range_meters":12000,"station_id":"ce4bhgp2rcd13ifvqfc0","pricing_plan_id":"cebpf4jnsgd1na2vs0mg"},{"bike_id":"25430ffe-82b1-47fa-b721-aedd0adf11a2","system_id":"levelo_inurba_marseille","lat":43.32361,"lon":5.38908,"is_reserved":false,"is_disabled":false,"rental_uris":{"android":"levelo://app?vid=25430ffe-82b1-47fa-b721-aedd0adf11a2","ios":"levelo://app?vid=25430ffe-82b1-47fa-b721-aedd0adf11a2"},"vehicle_type_id":"4","last_reported":1746288675,"current_range_meters":10800,"station_id":"ce4bhqp2rcd13ifvqhog","pricing_plan_id":"cebpf4jnsgd1na2vs0mg"},{"bike_id":"28b8babb-e145-495e-99b3-057fb00ba174","system_id":"levelo_inurba_marseille","lat":43.23067,"lon":5.35486,"is_reserved":false,"is_disabled":false,"rental_uris":{"android":"levelo://app?vid=28b8babb-e145-495e-99b3-057fb00ba174","ios":"levelo://app?vid=28b8babb-e145-495e-99b3-057fb00ba174"},"vehicle_type_id":"4","last_reported":1746288675,"current_range_meters":10800,"station_id":"cpo3342slgdg3j2ifvpg","pricing_plan_id":"cebpf4jnsgd1na2vs0mg"},{"bike_id":"6ae9068b-8534-47e2-832a-cb0e5255371d","system_id":"levelo_inurba_marseille","lat":43.337444,"lon":5.374475,"is_reserved":false,"is_disabled":false,"rental_uris":{"android":"levelo://app?vid=6ae9068b-8534-47e2-832a-cb0e5255371d","ios":"levelo://app?vid=6ae9068b-8534-47e2-832a-cb0e5255371d"},"vehicle_type_id":"4","last_reported":1746288675,"current_range_meters":11200,"station_id":"ce4bgvp2rcd13ifvqct0","pricing_plan_id":"cebpf4jnsgd1na2vs0mg"},{"bike_id":"d2e32d12-8a68-4254-94ca-8f801266e49b","system_id":"levelo_inurba_marseille","lat":43.23055,"lon":5.35492,"is_reserved":false,"is_disabled":false,"rental_uris":{"android":"levelo://app?vid=d2e32d12-8a68-4254-94ca-8f801266e49b","ios":"levelo://app?vid=d2e32d12-8a68-4254-94ca-8f801266e49b"},"vehicle_type_id":"4","last_reported":1746288675,"current_range_meters":11200,"station_id":"cpo3342slgdg3j2ifvpg","pricing_plan_id":"cebpf4jnsgd1na2vs0mg"},{"bike_id":"fd2c3c67-23a6-4380-b7ca-8f23c8f78921","system_id":"levelo_inurba_marseille","lat":43.32389,"lon":5.36757,"is_reserved":false,"is_disabled":false,"rental_uris":{"android":"levelo://app?vid=fd2c3c67-23a6-4380-b7ca-8f23c8f78921","ios":"levelo://app?vid=fd2c3c67-23a6-4380-b7ca-8f23c8f78921"},"vehicle_type_id":"4","last_reported":1746288675,"current_range_meters":11200,"station_id":"ce4bhsh2rcd13ifvqi2g","pricing_plan_id":"cebpf4jnsgd1na2vs0mg"},{"bike_id":"8360111a-7ff5-4fa7-b38e-1b7cb4d0bdff","system_id":"levelo_inurba_marseille","lat":43.32046,"lon":5.41555,"is_reserved":false,"is_disabled":false,"rental_uris":{"android":"levelo://app?vid=8360111a-7ff5-4fa7-b38e-1b7cb4d0bdff","ios":"levelo://app?vid=8360111a-7ff5-4fa7-b38e-1b7cb4d0bdff"},"vehicle_type_id":"4","last_reported":1746288675,"current_range_meters":11600,"station_id":"ce4bhq92rcd13ifvqhkg","pricing_plan_id":"cebpf4jnsgd1na2vs0mg"},{"bike_id":"31e1b253-afad-40b9-91ae-4452ceefd704","system_id":"levelo_inurba_marseille","lat":43.22934,"lon":5.35381,"is_reserved":false,"is_disabled":false,"rental_uris":{"android":"levelo://app?vid=31e1b253-afad-40b9-91ae-4452ceefd704","ios":"levelo://app?vid=31e1b253-afad-40b9-91ae-4452ceefd704"},"vehicle_type_id":"4","last_reported":1746288675,"current_range_meters":11600,"station_id":"cpo3532slgdg3j2ikp40","pricing_plan_id":"cebpf4jnsgd1na2vs0mg"},{"bike_id":"97343e8a-4ce2-44f0-b696-1020ae302f20","system_id":"levelo_inurba_marseille","lat":43.28155,"lon":5.42649,"is_reserved":false,"is_disabled":false,"rental_uris":{"android":"levelo://app?vid=97343e8a-4ce2-44f0-b696-1020ae302f20","ios":"levelo://app?vid=97343e8a-4ce2-44f0-b696-1020ae302f20"},"vehicle_type_id":"4","last_reported":1746288675,"current_range_meters":11600,"station_id":"ce4bhnh2rcd13ifvqgug","pricing_plan_id":"cebpf4jnsgd1na2vs0mg"},{"bike_id":"68009f65-0558-4602-b442-3c5ed9143dc8","system_id":"levelo_inurba_marseille","lat":43.303768,"lon":5.424888,"is_reserved":false,"is_disabled":false,"rental_uris":{"android":"levelo://app?vid=68009f65-0558-4602-b442-3c5ed9143dc8","ios":"levelo://app?vid=68009f65-0558-4602-b442-3c5ed9143dc8"},"vehicle_type_id":"4","last_reported":1746288675,"current_range_meters":11600,"station_id":"ce4bhoh2rcd13ifvqh6g","pricing_plan_id":"cebpf4jnsgd1na2vs0mg"},{"bike_id":"3a6c1c4a-dd80-4e9d-9632-aaca59f6d0aa","system_id":"levelo_inurba_marseille","lat":43.32365,"lon":5.388835,"is_reserved":false,"is_disabled":false,"rental_uris":{"android":"levelo://app?vid=3a6c1c4a-dd80-4e9d-9632-aaca59f6d0aa","ios":"levelo://app?vid=3a6c1c4a-dd80-4e9d-9632-aaca59f6d0aa"},"vehicle_type_id":"4","last_reported":1746288675,"current_range_meters":11600,"station_id":"ce4bhqp2rcd13ifvqhog","pricing_plan_id":"cebpf4jnsgd1na2vs0mg"},{"bike_id":"707ace9b-569e-485f-a00e-a0e281f4a901","system_id":"levelo_inurba_marseille","lat":43.26562,"lon":5.37269,"is_reserved":false,"is_disabled":false,"rental_uris":{"android":"levelo://app?vid=707ace9b-569e-485f-a00e-a0e281f4a901","ios":"levelo://app?vid=707ace9b-569e-485f-a00e-a0e281f4a901"},"vehicle_type_id":"4","last_reported":1746288675,"current_range_meters":11600,"station_id":"ce4bhg12rcd13ifvqf70","pricing_plan_id":"cebpf4jnsgd1na2vs0mg"},{"bike_id":"10da8216-9002-4719-92a4-e3878da240df","system_id":"levelo_inurba_marseille","lat":43.22502,"lon":5.34787,"is_reserved":false,"is_disabled":false,"rental_uris":{"android":"levelo://app?vid=10da8216-9002-4719-92a4-e3878da240df","ios":"levelo://app?vid=10da8216-9002-4719-92a4-e3878da240df"},"vehicle_type_id":"4","last_reported":1746288675,"current_range_meters":11600,"station_id":"st_cvj5dfep6f1abm77gieg","pricing_plan_id":"cebpf4jnsgd1na2vs0mg"},{"bike_id":"482f00aa-c3ee-446b-8f24-a1d4dffa2e19","system_id":"levelo_inurba_marseille","lat":43.29847,"lon":5.37671,"is_reserved":false,"is_disabled":false,"rental_uris":{"android":"levelo://app?vid=482f00aa-c3ee-446b-8f24-a1d4dffa2e19","ios":"levelo://app?vid=482f00aa-c3ee-446b-8f24-a1d4dffa2e19"},"vehicle_type_id":"4","last_reported":1746288675,"current_range_meters":11600,"station_id":"","pricing_plan_id":"cebpf4jnsgd1na2vs0mg"},{"bike_id":"4a54f0ef-ab55-41ca-bc0c-3c861dc4d47c","system_id":"levelo_inurba_marseille","lat":43.25123,"lon":5.40322,"is_reserved":false,"is_disabled":false,"rental_uris":{"android":"levelo://app?vid=4a54f0ef-ab55-41ca-bc0c-3c861dc4d47c","ios":"levelo://app?vid=4a54f0ef-ab55-41ca-bc0c-3c861dc4d47c"},"vehicle_type_id":"4","last_reported":1746288675,"current_range_meters":11200,"station_id":"ce4bhlh2rcd13ifvqgig","pricing_plan_id":"cebpf4jnsgd1na2vs0mg"},{"bike_id":"15ac047c-c8da-4e99-8d29-cf8dac012ab8","system_id":"levelo_inurba_marseille","lat":43.230682,"lon":5.35485,"is_reserved":false,"is_disabled":false,"rental_uris":{"android":"levelo://app?vid=15ac047c-c8da-4e99-8d29-cf8dac012ab8","ios":"levelo://app?vid=15ac047c-c8da-4e99-8d29-cf8dac012ab8"},"vehicle_type_id":"4","last_reported":1746288675,"current_range_meters":12000,"station_id":"ce4bhbh2rcd13ifvqeo0","pricing_plan_id":"cebpf4jnsgd1na2vs0mg"},{"bike_id":"37d7367a-95db-4a64-9e5f-76b211db7064","system_id":"levelo_inurba_marseille","lat":43.32288,"lon":5.38265,"is_reserved":false,"is_disabled":false,"rental_uris":{"android":"levelo://app?vid=37d7367a-95db-4a64-9e5f-76b211db7064","ios":"levelo://app?vid=37d7367a-95db-4a64-9e5f-76b211db7064"},"vehicle_type_id":"4","last_reported":1746288675,"current_range_meters":11600,"station_id":"ce4bhr12rcd13ifvqhqg","pricing_plan_id":"cebpf4jnsgd1na2vs0mg"},{"bike_id":"441fbbd2-0e4f-4fc0-90c7-18568695f93a","system_id":"levelo_inurba_marseille","lat":43.29711,"lon":5.37931,"is_reserved":false,"is_disabled":false,"rental_uris":{"android":"levelo://app?vid=441fbbd2-0e4f-4fc0-90c7-18568695f93a","ios":"levelo://app?vid=441fbbd2-0e4f-4fc0-90c7-18568695f93a"},"vehicle_type_id":"4","last_reported":1746288675,"current_range_meters":12800,"station_id":"","pricing_plan_id":"cebpf4jnsgd1na2vs0mg"},{"bike_id":"3964ce93-501c-4103-919a-9c218304cee3","system_id":"levelo_inurba_marseille","lat":43.21743,"lon":5.346033,"is_reserved":false,"is_disabled":false,"rental_uris":{"android":"levelo://app?vid=3964ce93-501c-4103-919a-9c218304cee3","ios":"levelo://app?vid=3964ce93-501c-4103-919a-9c218304cee3"},"vehicle_type_id":"4","last_reported":1746288675,"current_range_meters":12400,"station_id":"st_cvj6r9ubvosntc0bgbag","pricing_plan_id":"cebpf4jnsgd1na2vs0mg"},{"bike_id":"63020a1a-f455-4183-b40d-7d16034f5037","system_id":"levelo_inurba_marseille","lat":43.24802,"lon":5.37452,"is_reserved":false,"is_disabled":false,"rental_uris":{"android":"levelo://app?vid=63020a1a-f455-4183-b40d-7d16034f5037","ios":"levelo://app?vid=63020a1a-f455-4183-b40d-7d16034f5037"},"vehicle_type_id":"4","last_reported":1746288675,"current_range_meters":12400,"station_id":"ce4bhgh2rcd13ifvqfb0","pricing_plan_id":"cebpf4jnsgd1na2vs0mg"},{"bike_id":"24bdbb0e-62f8-45fd-92de-6c0cb99f2644","system_id":"levelo_inurba_marseille","lat":43.28273,"lon":5.35067,"is_reserved":false,"is_disabled":false,"rental_uris":{"android":"levelo://app?vid=24bdbb0e-62f8-45fd-92de-6c0cb99f2644","ios":"levelo://app?vid=24bdbb0e-62f8-45fd-92de-6c0cb99f2644"},"vehicle_type_id":"4","last_reported":1746288675,"current_range_meters":12400,"station_id":"ce4bhbp2rcd13ifvqerg","pricing_plan_id":"cebpf4jnsgd1na2vs0mg"},{"bike_id":"8df6e310-0880-40a9-a691-cd475dfa3928","system_id":"levelo_inurba_marseille","lat":43.28315,"lon":5.43272,"is_reserved":false,"is_disabled":false,"rental_uris":{"android":"levelo://app?vid=8df6e310-0880-40a9-a691-cd475dfa3928","ios":"levelo://app?vid=8df6e310-0880-40a9-a691-cd475dfa3928"},"vehicle_type_id":"4","last_reported":1746288675,"current_range_meters":12800,"station_id":"","pricing_plan_id":"cebpf4jnsgd1na2vs0mg"},{"bike_id":"ade73078-32be-4de3-83be-46f458332f33","system_id":"levelo_inurba_marseille","lat":43.225069,"lon":5.347849,"is_reserved":false,"is_disabled":false,"rental_uris":{"android":"levelo://app?vid=ade73078-32be-4de3-83be-46f458332f33","ios":"levelo://app?vid=ade73078-32be-4de3-83be-46f458332f33"},"vehicle_type_id":"4","last_reported":1746288675,"current_range_meters":12800,"station_id":"st_cvj5dfep6f1abm77gieg","pricing_plan_id":"cebpf4jnsgd1na2vs0mg"},{"bike_id":"40791b4e-3991-483d-8fec-62062befe4d1","system_id":"levelo_inurba_marseille","lat":43.28406,"lon":5.34996,"is_reserved":false,"is_disabled":false,"rental_uris":{"android":"levelo://app?vid=40791b4e-3991-483d-8fec-62062befe4d1","ios":"levelo://app?vid=40791b4e-3991-483d-8fec-62062befe4d1"},"vehicle_type_id":"4","last_reported":1746288675,"current_range_meters":12800,"station_id":"ce4bhbh2rcd13ifvqepg","pricing_plan_id":"cebpf4jnsgd1na2vs0mg"},{"bike_id":"a37779e7-3d8a-4c82-9997-3090313b05d7","system_id":"levelo_inurba_marseille","lat":43.22928,"lon":5.35377,"is_reserved":false,"is_disabled":true,"rental_uris":{"android":"levelo://app?vid=a37779e7-3d8a-4c82-9997-3090313b05d7","ios":"levelo://app?vid=a37779e7-3d8a-4c82-9997-3090313b05d7"},"vehicle_type_id":"4","last_reported":1746288675,"current_range_meters":12800,"station_id":"cpo3532slgdg3j2ikp40","pricing_plan_id":"cebpf4jnsgd1na2vs0mg"},{"bike_id":"c01597f0-00ef-4c4b-ab5c-45f3a48f8461","system_id":"levelo_inurba_marseille","lat":43.26222,"lon":5.37461,"is_reserved":false,"is_disabled":false,"rental_uris":{"android":"levelo://app?vid=c01597f0-00ef-4c4b-ab5c-45f3a48f8461","ios":"levelo://app?vid=c01597f0-00ef-4c4b-ab5c-45f3a48f8461"},"vehicle_type_id":"4","last_reported":1746288675,"current_range_meters":12800,"station_id":"ce4bhgp2rcd13ifvqfc0","pricing_plan_id":"cebpf4jnsgd1na2vs0mg"},{"bike_id":"d1425f8b-4ee2-4234-adf2-33ee09f6306d","system_id":"levelo_inurba_marseille","lat":43.231583,"lon":5.436997,"is_reserved":false,"is_disabled":false,"rental_uris":{"android":"levelo://app?vid=d1425f8b-4ee2-4234-adf2-33ee09f6306d","ios":"levelo://app?vid=d1425f8b-4ee2-4234-adf2-33ee09f6306d"},"vehicle_type_id":"4","last_reported":1746288675,"current_range_meters":13600,"station_id":"ce4bhmp2rcd13ifvqgog","pricing_plan_id":"cebpf4jnsgd1na2vs0mg"},{"bike_id":"ad2b5cf8-97db-4503-987e-d1c43875d4d5","system_id":"levelo_inurba_marseille","lat":43.2843,"lon":5.34989,"is_reserved":false,"is_disabled":false,"rental_uris":{"android":"levelo://app?vid=ad2b5cf8-97db-4503-987e-d1c43875d4d5","ios":"levelo://app?vid=ad2b5cf8-97db-4503-987e-d1c43875d4d5"},"vehicle_type_id":"4","last_reported":1746288675,"current_range_meters":13600,"station_id":"ce4bhbh2rcd13ifvqepg","pricing_plan_id":"cebpf4jnsgd1na2vs0mg"},{"bike_id":"4c304fd3-48ab-44cb-9347-998d36466e09","system_id":"levelo_inurba_marseille","lat":43.31829,"lon":5.37364,"is_reserved":false,"is_disabled":false,"rental_uris":{"android":"levelo://app?vid=4c304fd3-48ab-44cb-9347-998d36466e09","ios":"levelo://app?vid=4c304fd3-48ab-44cb-9347-998d36466e09"},"vehicle_type_id":"4","last_reported":1746288675,"current_range_meters":13600,"station_id":"","pricing_plan_id":"cebpf4jnsgd1na2vs0mg"},{"bike_id":"fb80c1da-d845-467b-9c3b-2f591f4d56ae","system_id":"levelo_inurba_marseille","lat":43.323406,"lon":5.37422,"is_reserved":false,"is_disabled":false,"rental_uris":{"android":"levelo://app?vid=fb80c1da-d845-467b-9c3b-2f591f4d56ae","ios":"levelo://app?vid=fb80c1da-d845-467b-9c3b-2f591f4d56ae"},"vehicle_type_id":"4","last_reported":1746288675,"current_range_meters":14000,"station_id":"","pricing_plan_id":"cebpf4jnsgd1na2vs0mg"},{"bike_id":"aedf206f-89f3-4f30-9da6-56fb7ff8915b","system_id":"levelo_inurba_marseille","lat":43.28094,"lon":5.40401,"is_reserved":false,"is_disabled":false,"rental_uris":{"android":"levelo://app?vid=aedf206f-89f3-4f30-9da6-56fb7ff8915b","ios":"levelo://app?vid=aedf206f-89f3-4f30-9da6-56fb7ff8915b"},"vehicle_type_id":"4","last_reported":1746288675,"current_range_meters":14000,"station_id":"","pricing_plan_id":"cebpf4jnsgd1na2vs0mg"},{"bike_id":"0c9d6c7c-fd78-4aeb-a3f8-af2c188466be","system_id":"levelo_inurba_marseille","lat":43.299133,"lon":5.381005,"is_reserved":false,"is_disabled":false,"rental_uris":{"android":"levelo://app?vid=0c9d6c7c-fd78-4aeb-a3f8-af2c188466be","ios":"levelo://app?vid=0c9d6c7c-fd78-4aeb-a3f8-af2c188466be"},"vehicle_type_id":"4","last_reported":1746288675,"current_range_meters":14000,"station_id":"","pricing_plan_id":"cebpf4jnsgd1na2vs0mg"},{"bike_id":"274ad913-cb5d-44ea-8484-26eae07424ea","system_id":"levelo_inurba_marseille","lat":43.25869,"lon":5.39922,"is_reserved":false,"is_disabled":true,"rental_uris":{"android":"levelo://app?vid=274ad913-cb5d-44ea-8484-26eae07424ea","ios":"levelo://app?vid=274ad913-cb5d-44ea-8484-26eae07424ea"},"vehicle_type_id":"4","last_reported":1746288675,"current_range_meters":14000,"station_id":"ce4bhl92rcd13ifvqghg","pricing_plan_id":"cebpf4jnsgd1na2vs0mg"},{"bike_id":"31c54918-ec32-4234-94e4-ab9da1be312c","system_id":"levelo_inurba_marseille","lat":43.241743,"lon":5.36387,"is_reserved":false,"is_disabled":false,"rental_uris":{"android":"levelo://app?vid=31c54918-ec32-4234-94e4-ab9da1be312c","ios":"levelo://app?vid=31c54918-ec32-4234-94e4-ab9da1be312c"},"vehicle_type_id":"4","last_reported":1746288675,"current_range_meters":14000,"station_id":"cpo36qri1sfpv3e86is0","pricing_plan_id":"cebpf4jnsgd1na2vs0mg"},{"bike_id":"24cc82ac-cb19-4e51-8103-cfd4c34c0b6d","system_id":"levelo_inurba_marseille","lat":43.3073,"lon":5.42447,"is_reserved":false,"is_disabled":false,"rental_uris":{"android":"levelo://app?vid=24cc82ac-cb19-4e51-8103-cfd4c34c0b6d","ios":"levelo://app?vid=24cc82ac-cb19-4e51-8103-cfd4c34c0b6d"},"vehicle_type_id":"4","last_reported":1746288675,"current_range_meters":14400,"station_id":"st_cvj6ca6bvosntc0bfgr0","pricing_plan_id":"cebpf4jnsgd1na2vs0mg"},{"bike_id":"1a4d8e8b-8dc3-4ea1-b297-14f6f0064b33","system_id":"levelo_inurba_marseille","lat":43.25863,"lon":5.39894,"is_reserved":false,"is_disabled":false,"rental_uris":{"android":"levelo://app?vid=1a4d8e8b-8dc3-4ea1-b297-14f6f0064b33","ios":"levelo://app?vid=1a4d8e8b-8dc3-4ea1-b297-14f6f0064b33"},"vehicle_type_id":"4","last_reported":1746288675,"current_range_meters":14400,"station_id":"ce4bhl92rcd13ifvqghg","pricing_plan_id":"cebpf4jnsgd1na2vs0mg"},{"bike_id":"6c6ba5e4-9b65-4e92-8f5e-56623c99b653","system_id":"levelo_inurba_marseille","lat":43.22509,"lon":5.34783,"is_reserved":false,"is_disabled":false,"rental_uris":{"android":"levelo://app?vid=6c6ba5e4-9b65-4e92-8f5e-56623c99b653","ios":"levelo://app?vid=6c6ba5e4-9b65-4e92-8f5e-56623c99b653"},"vehicle_type_id":"4","last_reported":1746288675,"current_range_meters":14400,"station_id":"st_cvj5dfep6f1abm77gieg","pricing_plan_id":"cebpf4jnsgd1na2vs0mg"},{"bike_id":"210b0af9-dc7e-4d0f-b694-514f4e488ca0","system_id":"levelo_inurba_marseille","lat":43.3133,"lon":5.39702,"is_reserved":false,"is_disabled":false,"rental_uris":{"android":"levelo://app?vid=210b0af9-dc7e-4d0f-b694-514f4e488ca0","ios":"levelo://app?vid=210b0af9-dc7e-4d0f-b694-514f4e488ca0"},"vehicle_type_id":"4","last_reported":1746288675,"current_range_meters":14400,"station_id":"ce4bgvp2rcd13ifvqcu0","pricing_plan_id":"cebpf4jnsgd1na2vs0mg"},{"bike_id":"440da13a-6acf-4de4-b07e-8c6d6ef37668","system_id":"levelo_inurba_marseille","lat":43.3042,"lon":5.38883,"is_reserved":false,"is_disabled":false,"rental_uris":{"android":"levelo://app?vid=440da13a-6acf-4de4-b07e-8c6d6ef37668","ios":"levelo://app?vid=440da13a-6acf-4de4-b07e-8c6d6ef37668"},"vehicle_type_id":"4","last_reported":1746288675,"current_range_meters":11600,"station_id":"ce4bgk12rcd13ifvqbi0","pricing_plan_id":"cebpf4jnsgd1na2vs0mg"},{"bike_id":"472064b1-758f-4cb3-8708-e72232c2319a","system_id":"levelo_inurba_marseille","lat":43.273784,"lon":5.362603,"is_reserved":false,"is_disabled":false,"rental_uris":{"android":"levelo://app?vid=472064b1-758f-4cb3-8708-e72232c2319a","ios":"levelo://app?vid=472064b1-758f-4cb3-8708-e72232c2319a"},"vehicle_type_id":"4","last_reported":1746288675,"current_range_meters":14800,"station_id":"ce4bhbh2rcd13ifvqeo0","pricing_plan_id":"cebpf4jnsgd1na2vs0mg"},{"bike_id":"d52b2d27-f93b-44d6-ab41-3c6a28a6ee41","system_id":"levelo_inurba_marseille","lat":43.23198,"lon":5.35554,"is_reserved":false,"is_disabled":false,"rental_uris":{"android":"levelo://app?vid=d52b2d27-f93b-44d6-ab41-3c6a28a6ee41","ios":"levelo://app?vid=d52b2d27-f93b-44d6-ab41-3c6a28a6ee41"},"vehicle_type_id":"4","last_reported":1746288675,"current_range_meters":14800,"station_id":"ce4bhu92rcd13ifvqi70","pricing_plan_id":"cebpf4jnsgd1na2vs0mg"},{"bike_id":"da45a4f6-b553-47a1-9969-5f25236b0e8e","system_id":"levelo_inurba_marseille","lat":43.29976,"lon":5.38498,"is_reserved":false,"is_disabled":true,"rental_uris":{"android":"levelo://app?vid=da45a4f6-b553-47a1-9969-5f25236b0e8e","ios":"levelo://app?vid=da45a4f6-b553-47a1-9969-5f25236b0e8e"},"vehicle_type_id":"4","last_reported":1746288675,"current_range_meters":15200,"station_id":"ce4bgj92rcd13ifvqbd0","pricing_plan_id":"cebpf4jnsgd1na2vs0mg"},{"bike_id":"ba4b0941-886b-4e94-8c4e-654fd65d3d95","system_id":"levelo_inurba_marseille","lat":43.29962,"lon":5.41327,"is_reserved":false,"is_disabled":false,"rental_uris":{"android":"levelo://app?vid=ba4b0941-886b-4e94-8c4e-654fd65d3d95","ios":"levelo://app?vid=ba4b0941-886b-4e94-8c4e-654fd65d3d95"},"vehicle_type_id":"4","last_reported":1746288675,"current_range_meters":15200,"station_id":"ce4bhp12rcd13ifvqh9g","pricing_plan_id":"cebpf4jnsgd1na2vs0mg"},{"bike_id":"6fc56ba2-dc01-414f-b4f3-979b99cba3a4","system_id":"levelo_inurba_marseille","lat":43.28023,"lon":5.36923,"is_reserved":false,"is_disabled":false,"rental_uris":{"android":"levelo://app?vid=6fc56ba2-dc01-414f-b4f3-979b99cba3a4","ios":"levelo://app?vid=6fc56ba2-dc01-414f-b4f3-979b99cba3a4"},"vehicle_type_id":"4","last_reported":1746288675,"current_range_meters":15200,"station_id":"ce4bha12rcd13ifvqef0","pricing_plan_id":"cebpf4jnsgd1na2vs0mg"},{"bike_id":"e7061e18-ac4e-46b7-92e8-430d3604c3dd","system_id":"levelo_inurba_marseille","lat":43.23211,"lon":5.3552,"is_reserved":false,"is_disabled":false,"rental_uris":{"android":"levelo://app?vid=e7061e18-ac4e-46b7-92e8-430d3604c3dd","ios":"levelo://app?vid=e7061e18-ac4e-46b7-92e8-430d3604c3dd"},"vehicle_type_id":"4","last_reported":1746288675,"current_range_meters":15200,"station_id":"ce4bhu92rcd13ifvqi70","pricing_plan_id":"cebpf4jnsgd1na2vs0mg"},{"bike_id":"a5f7767c-0a3c-479f-9854-71eb47d5dc82","system_id":"levelo_inurba_marseille","lat":43.32329,"lon":5.4063,"is_reserved":false,"is_disabled":false,"rental_uris":{"android":"levelo://app?vid=a5f7767c-0a3c-479f-9854-71eb47d5dc82","ios":"levelo://app?vid=a5f7767c-0a3c-479f-9854-71eb47d5dc82"},"vehicle_type_id":"4","last_reported":1746288675,"current_range_meters":15200,"station_id":"ce4bhq92rcd13ifvqhjg","pricing_plan_id":"cebpf4jnsgd1na2vs0mg"},{"bike_id":"3e84121a-71ad-4261-b6a9-37316f8cbd59","system_id":"levelo_inurba_marseille","lat":43.29028,"lon":5.38637,"is_reserved":false,"is_disabled":true,"rental_uris":{"android":"levelo://app?vid=3e84121a-71ad-4261-b6a9-37316f8cbd59","ios":"levelo://app?vid=3e84121a-71ad-4261-b6a9-37316f8cbd59"},"vehicle_type_id":"4","last_reported":1746288675,"current_range_meters":15200,"station_id":"ce4bh4p2rcd13ifvqe0g","pricing_plan_id":"cebpf4jnsgd1na2vs0mg"},{"bike_id":"b61a9672-bd96-4c2d-bb21-2ebbe15879f9","system_id":"levelo_inurba_marseille","lat":43.29605,"lon":5.37721,"is_reserved":false,"is_disabled":false,"rental_uris":{"android":"levelo://app?vid=b61a9672-bd96-4c2d-bb21-2ebbe15879f9","ios":"levelo://app?vid=b61a9672-bd96-4c2d-bb21-2ebbe15879f9"},"vehicle_type_id":"4","last_reported":1746288675,"current_range_meters":15200,"station_id":"ce4bgi92rcd13ifvqb90","pricing_plan_id":"cebpf4jnsgd1na2vs0mg"},{"bike_id":"c095cf57-5ebc-45e3-a4e2-576a1c12ba6f","system_id":"levelo_inurba_marseille","lat":43.2827,"lon":5.35077,"is_reserved":false,"is_disabled":false,"rental_uris":{"android":"levelo://app?vid=c095cf57-5ebc-45e3-a4e2-576a1c12ba6f","ios":"levelo://app?vid=c095cf57-5ebc-45e3-a4e2-576a1c12ba6f"},"vehicle_type_id":"4","last_reported":1746288675,"current_range_meters":16000,"station_id":"ce4bhbp2rcd13ifvqerg","pricing_plan_id":"cebpf4jnsgd1na2vs0mg"},{"bike_id":"e34635f3-8b2d-4d19-b499-3d4413f28d2f","system_id":"levelo_inurba_marseille","lat":43.212,"lon":5.35048,"is_reserved":false,"is_disabled":false,"rental_uris":{"android":"levelo://app?vid=e34635f3-8b2d-4d19-b499-3d4413f28d2f","ios":"levelo://app?vid=e34635f3-8b2d-4d19-b499-3d4413f28d2f"},"vehicle_type_id":"4","last_reported":1746288675,"current_range_meters":16400,"station_id":"st_cvj6sg6p6f1abm77japg","pricing_plan_id":"cebpf4jnsgd1na2vs0mg"},{"bike_id":"1c0b57b6-0efd-4b1e-9e96-2a310ce89219","system_id":"levelo_inurba_marseille","lat":43.28264,"lon":5.35059,"is_reserved":false,"is_disabled":false,"rental_uris":{"android":"levelo://app?vid=1c0b57b6-0efd-4b1e-9e96-2a310ce89219","ios":"levelo://app?vid=1c0b57b6-0efd-4b1e-9e96-2a310ce89219"},"vehicle_type_id":"4","last_reported":1746288675,"current_range_meters":16400,"station_id":"ce4bhbp2rcd13ifvqerg","pricing_plan_id":"cebpf4jnsgd1na2vs0mg"},{"bike_id":"57b577a6-05e4-403f-8e08-8a8bb593ff51","system_id":"levelo_inurba_marseille","lat":43.28932,"lon":5.36682,"is_reserved":false,"is_disabled":true,"rental_uris":{"android":"levelo://app?vid=57b577a6-05e4-403f-8e08-8a8bb593ff51","ios":"levelo://app?vid=57b577a6-05e4-403f-8e08-8a8bb593ff51"},"vehicle_type_id":"4","last_reported":1746288675,"current_range_meters":16400,"station_id":"ce4bhap2rcd13ifvqek0","pricing_plan_id":"cebpf4jnsgd1na2vs0mg"},{"bike_id":"695a597b-0626-43a2-b120-5ccc8bd55e4c","system_id":"levelo_inurba_marseille","lat":43.31613,"lon":5.38903,"is_reserved":false,"is_disabled":false,"rental_uris":{"android":"levelo://app?vid=695a597b-0626-43a2-b120-5ccc8bd55e4c","ios":"levelo://app?vid=695a597b-0626-43a2-b120-5ccc8bd55e4c"},"vehicle_type_id":"4","last_reported":1746288675,"current_range_meters":16400,"station_id":"","pricing_plan_id":"cebpf4jnsgd1na2vs0mg"},{"bike_id":"43580de2-2781-4103-8514-2bfafc9158a6","system_id":"levelo_inurba_marseille","lat":43.2417,"lon":5.36408,"is_reserved":false,"is_disabled":false,"rental_uris":{"android":"levelo://app?vid=43580de2-2781-4103-8514-2bfafc9158a6","ios":"levelo://app?vid=43580de2-2781-4103-8514-2bfafc9158a6"},"vehicle_type_id":"4","last_reported":1746288675,"current_range_meters":16400,"station_id":"cpo36qri1sfpv3e86is0","pricing_plan_id":"cebpf4jnsgd1na2vs0mg"},{"bike_id":"65c22352-3f61-475c-8a78-61784ce99098","system_id":"levelo_inurba_marseille","lat":43.303059,"lon":5.369021,"is_reserved":false,"is_disabled":false,"rental_uris":{"android":"levelo://app?vid=65c22352-3f61-475c-8a78-61784ce99098","ios":"levelo://app?vid=65c22352-3f61-475c-8a78-61784ce99098"},"vehicle_type_id":"4","last_reported":1746288675,"current_range_meters":16400,"station_id":"ce4bgqh2rcd13ifvqc5g","pricing_plan_id":"cebpf4jnsgd1na2vs0mg"},{"bike_id":"a3bc2359-39e4-4d03-aa5e-8ffa409341e2","system_id":"levelo_inurba_marseille","lat":43.298954,"lon":5.436651,"is_reserved":false,"is_disabled":false,"rental_uris":{"android":"levelo://app?vid=a3bc2359-39e4-4d03-aa5e-8ffa409341e2","ios":"levelo://app?vid=a3bc2359-39e4-4d03-aa5e-8ffa409341e2"},"vehicle_type_id":"4","last_reported":1746288675,"current_range_meters":16400,"station_id":"ce4bhpp2rcd13ifvqhfg","pricing_plan_id":"cebpf4jnsgd1na2vs0mg"},{"bike_id":"d192124d-4f77-4e6b-9ce6-25e35abb4f22","system_id":"levelo_inurba_marseille","lat":43.24389,"lon":5.37059,"is_reserved":false,"is_disabled":false,"rental_uris":{"android":"levelo://app?vid=d192124d-4f77-4e6b-9ce6-25e35abb4f22","ios":"levelo://app?vid=d192124d-4f77-4e6b-9ce6-25e35abb4f22"},"vehicle_type_id":"4","last_reported":1746288675,"current_range_meters":16400,"station_id":"ce4bhhh2rcd13ifvqfk0","pricing_plan_id":"cebpf4jnsgd1na2vs0mg"},{"bike_id":"b51e8583-0fb2-49ca-9c11-9dbce28dfa5d","system_id":"levelo_inurba_marseille","lat":43.23209,"lon":5.35556,"is_reserved":false,"is_disabled":false,"rental_uris":{"android":"levelo://app?vid=b51e8583-0fb2-49ca-9c11-9dbce28dfa5d","ios":"levelo://app?vid=b51e8583-0fb2-49ca-9c11-9dbce28dfa5d"},"vehicle_type_id":"4","last_reported":1746288675,"current_range_meters":16800,"station_id":"ce4bhu92rcd13ifvqi70","pricing_plan_id":"cebpf4jnsgd1na2vs0mg"},{"bike_id":"f4f8d7a1-d3a3-4920-88bf-e6bbeecd7a01","system_id":"levelo_inurba_marseille","lat":43.26565,"lon":5.37278,"is_reserved":false,"is_disabled":false,"rental_uris":{"android":"levelo://app?vid=f4f8d7a1-d3a3-4920-88bf-e6bbeecd7a01","ios":"levelo://app?vid=f4f8d7a1-d3a3-4920-88bf-e6bbeecd7a01"},"vehicle_type_id":"4","last_reported":1746288675,"current_range_meters":16800,"station_id":"ce4bhg12rcd13ifvqf70","pricing_plan_id":"cebpf4jnsgd1na2vs0mg"},{"bike_id":"dbc4e466-826b-47cd-b913-e5a022bcb00b","system_id":"levelo_inurba_marseille","lat":43.28408,"lon":5.34993,"is_reserved":false,"is_disabled":false,"rental_uris":{"android":"levelo://app?vid=dbc4e466-826b-47cd-b913-e5a022bcb00b","ios":"levelo://app?vid=dbc4e466-826b-47cd-b913-e5a022bcb00b"},"vehicle_type_id":"4","last_reported":1746288675,"current_range_meters":16800,"station_id":"ce4bhbh2rcd13ifvqepg","pricing_plan_id":"cebpf4jnsgd1na2vs0mg"},{"bike_id":"765f3a11-3610-43e9-b363-8793c90f63f6","system_id":"levelo_inurba_marseille","lat":43.21198,"lon":5.35079,"is_reserved":false,"is_disabled":false,"rental_uris":{"android":"levelo://app?vid=765f3a11-3610-43e9-b363-8793c90f63f6","ios":"levelo://app?vid=765f3a11-3610-43e9-b363-8793c90f63f6"},"vehicle_type_id":"4","last_reported":1746288675,"current_range_meters":16800,"station_id":"st_cvj6sg6p6f1abm77japg","pricing_plan_id":"cebpf4jnsgd1na2vs0mg"},{"bike_id":"7a957aca-2238-44a4-9438-9e8e914ee727","system_id":"levelo_inurba_marseille","lat":43.28423,"lon":5.34978,"is_reserved":false,"is_disabled":false,"rental_uris":{"android":"levelo://app?vid=7a957aca-2238-44a4-9438-9e8e914ee727","ios":"levelo://app?vid=7a957aca-2238-44a4-9438-9e8e914ee727"},"vehicle_type_id":"4","last_reported":1746288675,"current_range_meters":16800,"station_id":"ce4bhbh2rcd13ifvqepg","pricing_plan_id":"cebpf4jnsgd1na2vs0mg"},{"bike_id":"b757d212-da02-4833-afc7-306e48fdcc7e","system_id":"levelo_inurba_marseille","lat":43.28941,"lon":5.36637,"is_reserved":false,"is_disabled":false,"rental_uris":{"android":"levelo://app?vid=b757d212-da02-4833-afc7-306e48fdcc7e","ios":"levelo://app?vid=b757d212-da02-4833-afc7-306e48fdcc7e"},"vehicle_type_id":"4","last_reported":1746288675,"current_range_meters":16800,"station_id":"ce4bhap2rcd13ifvqek0","pricing_plan_id":"cebpf4jnsgd1na2vs0mg"},{"bike_id":"cec6854f-8197-4617-b725-c5e64b57fa41","system_id":"levelo_inurba_marseille","lat":43.28564,"lon":5.395,"is_reserved":false,"is_disabled":false,"rental_uris":{"android":"levelo://app?vid=cec6854f-8197-4617-b725-c5e64b57fa41","ios":"levelo://app?vid=cec6854f-8197-4617-b725-c5e64b57fa41"},"vehicle_type_id":"4","last_reported":1746288675,"current_range_meters":17200,"station_id":"ce4bh292rcd13ifvqdg0","pricing_plan_id":"cebpf4jnsgd1na2vs0mg"},{"bike_id":"9629b8c9-922a-41fc-9a6b-ad1dd6b28955","system_id":"levelo_inurba_marseille","lat":43.28267,"lon":5.35067,"is_reserved":false,"is_disabled":false,"rental_uris":{"android":"levelo://app?vid=9629b8c9-922a-41fc-9a6b-ad1dd6b28955","ios":"levelo://app?vid=9629b8c9-922a-41fc-9a6b-ad1dd6b28955"},"vehicle_type_id":"4","last_reported":1746288675,"current_range_meters":17200,"station_id":"ce4bhbp2rcd13ifvqerg","pricing_plan_id":"cebpf4jnsgd1na2vs0mg"},{"bike_id":"461bc8a4-4e6e-4661-a332-8bc290742838","system_id":"levelo_inurba_marseille","lat":43.29277,"lon":5.36835,"is_reserved":false,"is_disabled":false,"rental_uris":{"android":"levelo://app?vid=461bc8a4-4e6e-4661-a332-8bc290742838","ios":"levelo://app?vid=461bc8a4-4e6e-4661-a332-8bc290742838"},"vehicle_type_id":"4","last_reported":1746288675,"current_range_meters":17200,"station_id":"ce4bhbp2rcd13ifvqesg","pricing_plan_id":"cebpf4jnsgd1na2vs0mg"},{"bike_id":"5467dde2-972b-4e69-9e96-eb7101eea2df","system_id":"levelo_inurba_marseille","lat":43.28271,"lon":5.35094,"is_reserved":false,"is_disabled":false,"rental_uris":{"android":"levelo://app?vid=5467dde2-972b-4e69-9e96-eb7101eea2df","ios":"levelo://app?vid=5467dde2-972b-4e69-9e96-eb7101eea2df"},"vehicle_type_id":"4","last_reported":1746288675,"current_range_meters":17200,"station_id":"ce4bhbp2rcd13ifvqerg","pricing_plan_id":"cebpf4jnsgd1na2vs0mg"},{"bike_id":"be6773de-c835-4a89-b968-e92acff56e35","system_id":"levelo_inurba_marseille","lat":43.21752,"lon":5.34598,"is_reserved":false,"is_disabled":false,"rental_uris":{"android":"levelo://app?vid=be6773de-c835-4a89-b968-e92acff56e35","ios":"levelo://app?vid=be6773de-c835-4a89-b968-e92acff56e35"},"vehicle_type_id":"4","last_reported":1746288675,"current_range_meters":17200,"station_id":"st_cvj6r9ubvosntc0bgbag","pricing_plan_id":"cebpf4jnsgd1na2vs0mg"},{"bike_id":"c8e16fcb-5510-4723-b6e7-2aa49c1b3b8d","system_id":"levelo_inurba_marseille","lat":43.31974,"lon":5.37047,"is_reserved":false,"is_disabled":false,"rental_uris":{"android":"levelo://app?vid=c8e16fcb-5510-4723-b6e7-2aa49c1b3b8d","ios":"levelo://app?vid=c8e16fcb-5510-4723-b6e7-2aa49c1b3b8d"},"vehicle_type_id":"4","last_reported":1746288675,"current_range_meters":17200,"station_id":"","pricing_plan_id":"cebpf4jnsgd1na2vs0mg"},{"bike_id":"8ef8e415-3a8e-4e37-94d1-5c69550e4819","system_id":"levelo_inurba_marseille","lat":43.28605,"lon":5.3511,"is_reserved":false,"is_disabled":false,"rental_uris":{"android":"levelo://app?vid=8ef8e415-3a8e-4e37-94d1-5c69550e4819","ios":"levelo://app?vid=8ef8e415-3a8e-4e37-94d1-5c69550e4819"},"vehicle_type_id":"4","last_reported":1746288675,"current_range_meters":17200,"station_id":"ce4bhch2rcd13ifvqeug","pricing_plan_id":"cebpf4jnsgd1na2vs0mg"},{"bike_id":"5143ce13-2df0-4726-8d98-6c8d933897a7","system_id":"levelo_inurba_marseille","lat":43.28433,"lon":5.35002,"is_reserved":false,"is_disabled":false,"rental_uris":{"android":"levelo://app?vid=5143ce13-2df0-4726-8d98-6c8d933897a7","ios":"levelo://app?vid=5143ce13-2df0-4726-8d98-6c8d933897a7"},"vehicle_type_id":"4","last_reported":1746288675,"current_range_meters":17200,"station_id":"ce4bhbh2rcd13ifvqepg","pricing_plan_id":"cebpf4jnsgd1na2vs0mg"},{"bike_id":"de1cf387-c5a1-45ac-9d4a-33011c1ce23f","system_id":"levelo_inurba_marseille","lat":43.267783,"lon":5.394168,"is_reserved":false,"is_disabled":false,"rental_uris":{"android":"levelo://app?vid=de1cf387-c5a1-45ac-9d4a-33011c1ce23f","ios":"levelo://app?vid=de1cf387-c5a1-45ac-9d4a-33011c1ce23f"},"vehicle_type_id":"4","last_reported":1746288675,"current_range_meters":17600,"station_id":"ce4bhh12rcd13ifvqfg0","pricing_plan_id":"cebpf4jnsgd1na2vs0mg"},{"bike_id":"71b672b6-6521-4894-b592-e17918c2cd7d","system_id":"levelo_inurba_marseille","lat":43.32365,"lon":5.38886,"is_reserved":false,"is_disabled":false,"rental_uris":{"android":"levelo://app?vid=71b672b6-6521-4894-b592-e17918c2cd7d","ios":"levelo://app?vid=71b672b6-6521-4894-b592-e17918c2cd7d"},"vehicle_type_id":"4","last_reported":1746288675,"current_range_meters":17600,"station_id":"ce4bhqp2rcd13ifvqhog","pricing_plan_id":"cebpf4jnsgd1na2vs0mg"},{"bike_id":"b44f9884-ad91-4c4f-8556-0c40c7f3c478","system_id":"levelo_inurba_marseille","lat":43.2319,"lon":5.35556,"is_reserved":false,"is_disabled":false,"rental_uris":{"android":"levelo://app?vid=b44f9884-ad91-4c4f-8556-0c40c7f3c478","ios":"levelo://app?vid=b44f9884-ad91-4c4f-8556-0c40c7f3c478"},"vehicle_type_id":"4","last_reported":1746288675,"current_range_meters":17600,"station_id":"ce4bhu92rcd13ifvqi70","pricing_plan_id":"cebpf4jnsgd1na2vs0mg"},{"bike_id":"0ece0f79-2288-4394-8960-a0b2b0a34975","system_id":"levelo_inurba_marseille","lat":43.251287,"lon":5.403442,"is_reserved":false,"is_disabled":false,"rental_uris":{"android":"levelo://app?vid=0ece0f79-2288-4394-8960-a0b2b0a34975","ios":"levelo://app?vid=0ece0f79-2288-4394-8960-a0b2b0a34975"},"vehicle_type_id":"4","last_reported":1746288675,"current_range_meters":17600,"station_id":"ce4bhlh2rcd13ifvqgig","pricing_plan_id":"cebpf4jnsgd1na2vs0mg"},{"bike_id":"29f06628-d8f0-4bdf-beb6-1d980ac4244a","system_id":"levelo_inurba_marseille","lat":43.24069,"lon":5.37765,"is_reserved":false,"is_disabled":false,"rental_uris":{"android":"levelo://app?vid=29f06628-d8f0-4bdf-beb6-1d980ac4244a","ios":"levelo://app?vid=29f06628-d8f0-4bdf-beb6-1d980ac4244a"},"vehicle_type_id":"4","last_reported":1746288675,"current_range_meters":18000,"station_id":"ce4bhnp2rcd13ifvqgvg","pricing_plan_id":"cebpf4jnsgd1na2vs0mg"},{"bike_id":"9e3cf5c3-e9e0-49db-beeb-970ca4ff1fd0","system_id":"levelo_inurba_marseille","lat":43.27566,"lon":5.38428,"is_reserved":false,"is_disabled":false,"rental_uris":{"android":"levelo://app?vid=9e3cf5c3-e9e0-49db-beeb-970ca4ff1fd0","ios":"levelo://app?vid=9e3cf5c3-e9e0-49db-beeb-970ca4ff1fd0"},"vehicle_type_id":"4","last_reported":1746288675,"current_range_meters":17600,"station_id":"ce4bhh92rcd13ifvqfi0","pricing_plan_id":"cebpf4jnsgd1na2vs0mg"},{"bike_id":"3cfe8f65-b62c-4123-a3ff-5194ce80bce9","system_id":"levelo_inurba_marseille","lat":43.27973,"lon":5.41653,"is_reserved":false,"is_disabled":false,"rental_uris":{"android":"levelo://app?vid=3cfe8f65-b62c-4123-a3ff-5194ce80bce9","ios":"levelo://app?vid=3cfe8f65-b62c-4123-a3ff-5194ce80bce9"},"vehicle_type_id":"4","last_reported":1746288675,"current_range_meters":18000,"station_id":"ce4bho12rcd13ifvqh1g","pricing_plan_id":"cebpf4jnsgd1na2vs0mg"},{"bike_id":"40fd19f4-44fe-44e9-821b-b3af5edff61f","system_id":"levelo_inurba_marseille","lat":43.21186,"lon":5.350667,"is_reserved":false,"is_disabled":false,"rental_uris":{"android":"levelo://app?vid=40fd19f4-44fe-44e9-821b-b3af5edff61f","ios":"levelo://app?vid=40fd19f4-44fe-44e9-821b-b3af5edff61f"},"vehicle_type_id":"4","last_reported":1746288675,"current_range_meters":18800,"station_id":"st_cvj6sg6p6f1abm77japg","pricing_plan_id":"cebpf4jnsgd1na2vs0mg"},{"bike_id":"9058cf03-9d59-417a-96ae-628aa2063439","system_id":"levelo_inurba_marseille","lat":43.33608,"lon":5.41038,"is_reserved":false,"is_disabled":false,"rental_uris":{"android":"levelo://app?vid=9058cf03-9d59-417a-96ae-628aa2063439","ios":"levelo://app?vid=9058cf03-9d59-417a-96ae-628aa2063439"},"vehicle_type_id":"4","last_reported":1746288675,"current_range_meters":18800,"station_id":"ce4bhqh2rcd13ifvqhmg","pricing_plan_id":"cebpf4jnsgd1na2vs0mg"},{"bike_id":"e0eb2257-89c1-4851-bec9-ef9639111322","system_id":"levelo_inurba_marseille","lat":43.29992,"lon":5.37294,"is_reserved":false,"is_disabled":false,"rental_uris":{"android":"levelo://app?vid=e0eb2257-89c1-4851-bec9-ef9639111322","ios":"levelo://app?vid=e0eb2257-89c1-4851-bec9-ef9639111322"},"vehicle_type_id":"4","last_reported":1746288675,"current_range_meters":18800,"station_id":"","pricing_plan_id":"cebpf4jnsgd1na2vs0mg"},{"bike_id":"80451389-f927-44cb-99c0-98d31f27ad3e","system_id":"levelo_inurba_marseille","lat":43.296295,"lon":5.377134,"is_reserved":false,"is_disabled":false,"rental_uris":{"android":"levelo://app?vid=80451389-f927-44cb-99c0-98d31f27ad3e","ios":"levelo://app?vid=80451389-f927-44cb-99c0-98d31f27ad3e"},"vehicle_type_id":"4","last_reported":1746288675,"current_range_meters":18800,"station_id":"","pricing_plan_id":"cebpf4jnsgd1na2vs0mg"},{"bike_id":"62e4f73a-6502-4a39-902c-d8c40732e2d1","system_id":"levelo_inurba_marseille","lat":43.27426,"lon":5.39416,"is_reserved":false,"is_disabled":false,"rental_uris":{"android":"levelo://app?vid=62e4f73a-6502-4a39-902c-d8c40732e2d1","ios":"levelo://app?vid=62e4f73a-6502-4a39-902c-d8c40732e2d1"},"vehicle_type_id":"4","last_reported":1746288675,"current_range_meters":18800,"station_id":"ce4bhdp2rcd13ifvqf20","pricing_plan_id":"cebpf4jnsgd1na2vs0mg"},{"bike_id":"7ef9e443-1b5f-4ae0-9105-f0c61d8b282c","system_id":"levelo_inurba_marseille","lat":43.30433,"lon":5.38888,"is_reserved":false,"is_disabled":false,"rental_uris":{"android":"levelo://app?vid=7ef9e443-1b5f-4ae0-9105-f0c61d8b282c","ios":"levelo://app?vid=7ef9e443-1b5f-4ae0-9105-f0c61d8b282c"},"vehicle_type_id":"4","last_reported":1746288675,"current_range_meters":20000,"station_id":"ce4bgk12rcd13ifvqbi0","pricing_plan_id":"cebpf4jnsgd1na2vs0mg"},{"bike_id":"914988da-27b7-4490-a625-37d49c85c3e5","system_id":"levelo_inurba_marseille","lat":43.28565,"lon":5.39502,"is_reserved":false,"is_disabled":false,"rental_uris":{"android":"levelo://app?vid=914988da-27b7-4490-a625-37d49c85c3e5","ios":"levelo://app?vid=914988da-27b7-4490-a625-37d49c85c3e5"},"vehicle_type_id":"4","last_reported":1746288675,"current_range_meters":18800,"station_id":"ce4bh292rcd13ifvqdg0","pricing_plan_id":"cebpf4jnsgd1na2vs0mg"},{"bike_id":"af01df2a-e7f6-4f27-9345-fde248b1130a","system_id":"levelo_inurba_marseille","lat":43.27382,"lon":5.36264,"is_reserved":false,"is_disabled":false,"rental_uris":{"android":"levelo://app?vid=af01df2a-e7f6-4f27-9345-fde248b1130a","ios":"levelo://app?vid=af01df2a-e7f6-4f27-9345-fde248b1130a"},"vehicle_type_id":"4","last_reported":1746288675,"current_range_meters":19200,"station_id":"ce4bhbh2rcd13ifvqeo0","pricing_plan_id":"cebpf4jnsgd1na2vs0mg"},{"bike_id":"633f4cac-9696-4e15-bb10-152509541b56","system_id":"levelo_inurba_marseille","lat":43.3237,"lon":5.36763,"is_reserved":false,"is_disabled":false,"rental_uris":{"android":"levelo://app?vid=633f4cac-9696-4e15-bb10-152509541b56","ios":"levelo://app?vid=633f4cac-9696-4e15-bb10-152509541b56"},"vehicle_type_id":"4","last_reported":1746288675,"current_range_meters":19200,"station_id":"ce4bhsh2rcd13ifvqi2g","pricing_plan_id":"cebpf4jnsgd1na2vs0mg"},{"bike_id":"5e189715-974a-4c05-b0f5-d5171e5a41bc","system_id":"levelo_inurba_marseille","lat":43.28716,"lon":5.37938,"is_reserved":false,"is_disabled":false,"rental_uris":{"android":"levelo://app?vid=5e189715-974a-4c05-b0f5-d5171e5a41bc","ios":"levelo://app?vid=5e189715-974a-4c05-b0f5-d5171e5a41bc"},"vehicle_type_id":"4","last_reported":1746288675,"current_range_meters":19200,"station_id":"ce4bh9p2rcd13ifvqec0","pricing_plan_id":"cebpf4jnsgd1na2vs0mg"},{"bike_id":"fabf2925-9bd4-424b-868f-8f1d1e6774c1","system_id":"levelo_inurba_marseille","lat":43.22923,"lon":5.35383,"is_reserved":false,"is_disabled":false,"rental_uris":{"android":"levelo://app?vid=fabf2925-9bd4-424b-868f-8f1d1e6774c1","ios":"levelo://app?vid=fabf2925-9bd4-424b-868f-8f1d1e6774c1"},"vehicle_type_id":"4","last_reported":1746288675,"current_range_meters":19200,"station_id":"cpo3532slgdg3j2ikp40","pricing_plan_id":"cebpf4jnsgd1na2vs0mg"},{"bike_id":"ac33d6ff-248a-4d8b-b9cc-5ce6164a8602","system_id":"levelo_inurba_marseille","lat":43.29256,"lon":5.37627,"is_reserved":false,"is_disabled":false,"rental_uris":{"android":"levelo://app?vid=ac33d6ff-248a-4d8b-b9cc-5ce6164a8602","ios":"levelo://app?vid=ac33d6ff-248a-4d8b-b9cc-5ce6164a8602"},"vehicle_type_id":"4","last_reported":1746288675,"current_range_meters":19200,"station_id":"ce4bgi12rcd13ifvqb80","pricing_plan_id":"cebpf4jnsgd1na2vs0mg"},{"bike_id":"75fbdfb5-7bac-4425-a62c-ce609da9425d","system_id":"levelo_inurba_marseille","lat":43.225021,"lon":5.347758,"is_reserved":false,"is_disabled":false,"rental_uris":{"android":"levelo://app?vid=75fbdfb5-7bac-4425-a62c-ce609da9425d","ios":"levelo://app?vid=75fbdfb5-7bac-4425-a62c-ce609da9425d"},"vehicle_type_id":"4","last_reported":1746288675,"current_range_meters":19200,"station_id":"st_cvj5dfep6f1abm77gieg","pricing_plan_id":"cebpf4jnsgd1na2vs0mg"},{"bike_id":"43f220ab-0408-46b3-abe5-60437ce3bc1e","system_id":"levelo_inurba_marseille","lat":43.23203,"lon":5.35569,"is_reserved":false,"is_disabled":false,"rental_uris":{"android":"levelo://app?vid=43f220ab-0408-46b3-abe5-60437ce3bc1e","ios":"levelo://app?vid=43f220ab-0408-46b3-abe5-60437ce3bc1e"},"vehicle_type_id":"4","last_reported":1746288675,"current_range_meters":19600,"station_id":"ce4bhu92rcd13ifvqi70","pricing_plan_id":"cebpf4jnsgd1na2vs0mg"},{"bike_id":"a65fd9fe-7875-4c29-a528-ef09d63467a7","system_id":"levelo_inurba_marseille","lat":43.23062,"lon":5.35495,"is_reserved":false,"is_disabled":false,"rental_uris":{"android":"levelo://app?vid=a65fd9fe-7875-4c29-a528-ef09d63467a7","ios":"levelo://app?vid=a65fd9fe-7875-4c29-a528-ef09d63467a7"},"vehicle_type_id":"4","last_reported":1746288675,"current_range_meters":19600,"station_id":"cpo3342slgdg3j2ifvpg","pricing_plan_id":"cebpf4jnsgd1na2vs0mg"},{"bike_id":"a628d473-eafc-4cc7-bbd0-fbf9ad5aa29f","system_id":"levelo_inurba_marseille","lat":43.31354,"lon":5.36704,"is_reserved":false,"is_disabled":false,"rental_uris":{"android":"levelo://app?vid=a628d473-eafc-4cc7-bbd0-fbf9ad5aa29f","ios":"levelo://app?vid=a628d473-eafc-4cc7-bbd0-fbf9ad5aa29f"},"vehicle_type_id":"4","last_reported":1746288675,"current_range_meters":20000,"station_id":"ce4bgr92rcd13ifvqc6g","pricing_plan_id":"cebpf4jnsgd1na2vs0mg"},{"bike_id":"6ed6519d-6b88-4855-9483-f94ae3923e18","system_id":"levelo_inurba_marseille","lat":43.28624,"lon":5.35082,"is_reserved":false,"is_disabled":false,"rental_uris":{"android":"levelo://app?vid=6ed6519d-6b88-4855-9483-f94ae3923e18","ios":"levelo://app?vid=6ed6519d-6b88-4855-9483-f94ae3923e18"},"vehicle_type_id":"4","last_reported":1746288675,"current_range_meters":19600,"station_id":"ce4bhch2rcd13ifvqeug","pricing_plan_id":"cebpf4jnsgd1na2vs0mg"},{"bike_id":"92c76956-e82d-4cef-bb89-e64c17e2ae6b","system_id":"levelo_inurba_marseille","lat":43.24387,"lon":5.37065,"is_reserved":false,"is_disabled":false,"rental_uris":{"android":"levelo://app?vid=92c76956-e82d-4cef-bb89-e64c17e2ae6b","ios":"levelo://app?vid=92c76956-e82d-4cef-bb89-e64c17e2ae6b"},"vehicle_type_id":"4","last_reported":1746288675,"current_range_meters":19600,"station_id":"ce4bhhh2rcd13ifvqfk0","pricing_plan_id":"cebpf4jnsgd1na2vs0mg"},{"bike_id":"b914072c-1a8b-40c8-a84b-6de711eafd34","system_id":"levelo_inurba_marseille","lat":43.2396,"lon":5.36625,"is_reserved":false,"is_disabled":false,"rental_uris":{"android":"levelo://app?vid=b914072c-1a8b-40c8-a84b-6de711eafd34","ios":"levelo://app?vid=b914072c-1a8b-40c8-a84b-6de711eafd34"},"vehicle_type_id":"4","last_reported":1746288675,"current_range_meters":19600,"station_id":"ce4bhi12rcd13ifvqfp0","pricing_plan_id":"cebpf4jnsgd1na2vs0mg"},{"bike_id":"3e58778c-8c4f-4680-9c35-d12b3ba7cade","system_id":"levelo_inurba_marseille","lat":43.30329,"lon":5.40444,"is_reserved":false,"is_disabled":false,"rental_uris":{"android":"levelo://app?vid=3e58778c-8c4f-4680-9c35-d12b3ba7cade","ios":"levelo://app?vid=3e58778c-8c4f-4680-9c35-d12b3ba7cade"},"vehicle_type_id":"4","last_reported":1746288675,"current_range_meters":19600,"station_id":"ce4bh012rcd13ifvqd10","pricing_plan_id":"cebpf4jnsgd1na2vs0mg"},{"bike_id":"fbc42da3-919b-4483-a985-ddac661f56eb","system_id":"levelo_inurba_marseille","lat":43.27366,"lon":5.36259,"is_reserved":false,"is_disabled":false,"rental_uris":{"android":"levelo://app?vid=fbc42da3-919b-4483-a985-ddac661f56eb","ios":"levelo://app?vid=fbc42da3-919b-4483-a985-ddac661f56eb"},"vehicle_type_id":"4","last_reported":1746288675,"current_range_meters":19600,"station_id":"ce4bhbh2rcd13ifvqeo0","pricing_plan_id":"cebpf4jnsgd1na2vs0mg"},{"bike_id":"574e711c-fa4e-4bf9-84b3-4ae402691bae","system_id":"levelo_inurba_marseille","lat":43.212,"lon":5.35092,"is_reserved":false,"is_disabled":false,"rental_uris":{"android":"levelo://app?vid=574e711c-fa4e-4bf9-84b3-4ae402691bae","ios":"levelo://app?vid=574e711c-fa4e-4bf9-84b3-4ae402691bae"},"vehicle_type_id":"4","last_reported":1746288675,"current_range_meters":20000,"station_id":"st_cvj6sg6p6f1abm77japg","pricing_plan_id":"cebpf4jnsgd1na2vs0mg"},{"bike_id":"439c3f75-613c-45c5-bce8-ead29e1df63f","system_id":"levelo_inurba_marseille","lat":43.231914,"lon":5.355539,"is_reserved":false,"is_disabled":false,"rental_uris":{"android":"levelo://app?vid=439c3f75-613c-45c5-bce8-ead29e1df63f","ios":"levelo://app?vid=439c3f75-613c-45c5-bce8-ead29e1df63f"},"vehicle_type_id":"4","last_reported":1746288675,"current_range_meters":20000,"station_id":"ce4bhu92rcd13ifvqi70","pricing_plan_id":"cebpf4jnsgd1na2vs0mg"},{"bike_id":"1ebe9c13-4ecd-4344-890b-0b4710bebfbc","system_id":"levelo_inurba_marseille","lat":43.28618,"lon":5.35094,"is_reserved":false,"is_disabled":false,"rental_uris":{"android":"levelo://app?vid=1ebe9c13-4ecd-4344-890b-0b4710bebfbc","ios":"levelo://app?vid=1ebe9c13-4ecd-4344-890b-0b4710bebfbc"},"vehicle_type_id":"4","last_reported":1746288675,"current_range_meters":20000,"station_id":"ce4bhch2rcd13ifvqeug","pricing_plan_id":"cebpf4jnsgd1na2vs0mg"},{"bike_id":"bfd567d5-7918-448e-909b-38f0cf156b1a","system_id":"levelo_inurba_marseille","lat":43.28266,"lon":5.35066,"is_reserved":false,"is_disabled":false,"rental_uris":{"android":"levelo://app?vid=bfd567d5-7918-448e-909b-38f0cf156b1a","ios":"levelo://app?vid=bfd567d5-7918-448e-909b-38f0cf156b1a"},"vehicle_type_id":"4","last_reported":1746288675,"current_range_meters":20000,"station_id":"ce4bhbp2rcd13ifvqerg","pricing_plan_id":"cebpf4jnsgd1na2vs0mg"},{"bike_id":"a99060cb-ec8b-41ef-a3c6-c6e536aecc12","system_id":"levelo_inurba_marseille","lat":43.29578,"lon":5.36742,"is_reserved":false,"is_disabled":false,"rental_uris":{"android":"levelo://app?vid=a99060cb-ec8b-41ef-a3c6-c6e536aecc12","ios":"levelo://app?vid=a99060cb-ec8b-41ef-a3c6-c6e536aecc12"},"vehicle_type_id":"4","last_reported":1746288675,"current_range_meters":20000,"station_id":"ce4bgph2rcd13ifvqc2g","pricing_plan_id":"cebpf4jnsgd1na2vs0mg"},{"bike_id":"8cc644bc-d688-4af9-809d-0339a6579ece","system_id":"levelo_inurba_marseille","lat":43.29039,"lon":5.38652,"is_reserved":false,"is_disabled":false,"rental_uris":{"android":"levelo://app?vid=8cc644bc-d688-4af9-809d-0339a6579ece","ios":"levelo://app?vid=8cc644bc-d688-4af9-809d-0339a6579ece"},"vehicle_type_id":"4","last_reported":1746288675,"current_range_meters":20400,"station_id":"ce4bh4p2rcd13ifvqe0g","pricing_plan_id":"cebpf4jnsgd1na2vs0mg"},{"bike_id":"d16265c5-986e-42bd-bd15-79c2b1c65d0d","system_id":"levelo_inurba_marseille","lat":43.290043,"lon":5.35615,"is_reserved":false,"is_disabled":false,"rental_uris":{"android":"levelo://app?vid=d16265c5-986e-42bd-bd15-79c2b1c65d0d","ios":"levelo://app?vid=d16265c5-986e-42bd-bd15-79c2b1c65d0d"},"vehicle_type_id":"4","last_reported":1746288675,"current_range_meters":20400,"station_id":"ce4bhb92rcd13ifvqen0","pricing_plan_id":"cebpf4jnsgd1na2vs0mg"},{"bike_id":"e451410e-400f-4e61-a6ae-3f9513bdd074","system_id":"levelo_inurba_marseille","lat":43.31835,"lon":5.37395,"is_reserved":false,"is_disabled":false,"rental_uris":{"android":"levelo://app?vid=e451410e-400f-4e61-a6ae-3f9513bdd074","ios":"levelo://app?vid=e451410e-400f-4e61-a6ae-3f9513bdd074"},"vehicle_type_id":"4","last_reported":1746288675,"current_range_meters":20800,"station_id":"","pricing_plan_id":"cebpf4jnsgd1na2vs0mg"},{"bike_id":"453b4bd3-02b8-4590-96d2-ef277f473ecf","system_id":"levelo_inurba_marseille","lat":43.295227,"lon":5.374986,"is_reserved":false,"is_disabled":false,"rental_uris":{"android":"levelo://app?vid=453b4bd3-02b8-4590-96d2-ef277f473ecf","ios":"levelo://app?vid=453b4bd3-02b8-4590-96d2-ef277f473ecf"},"vehicle_type_id":"4","last_reported":1746288675,"current_range_meters":20400,"station_id":"ce4bgkp2rcd13ifvqbmg","pricing_plan_id":"cebpf4jnsgd1na2vs0mg"},{"bike_id":"3a95f255-5cd0-42d7-872b-866c10a66c97","system_id":"levelo_inurba_marseille","lat":43.26559,"lon":5.37272,"is_reserved":false,"is_disabled":false,"rental_uris":{"android":"levelo://app?vid=3a95f255-5cd0-42d7-872b-866c10a66c97","ios":"levelo://app?vid=3a95f255-5cd0-42d7-872b-866c10a66c97"},"vehicle_type_id":"4","last_reported":1746288675,"current_range_meters":20800,"station_id":"ce4bhg12rcd13ifvqf70","pricing_plan_id":"cebpf4jnsgd1na2vs0mg"},{"bike_id":"34d007d6-b258-4b25-8226-4dd9afd6cfa5","system_id":"levelo_inurba_marseille","lat":43.22931,"lon":5.35376,"is_reserved":false,"is_disabled":false,"rental_uris":{"android":"levelo://app?vid=34d007d6-b258-4b25-8226-4dd9afd6cfa5","ios":"levelo://app?vid=34d007d6-b258-4b25-8226-4dd9afd6cfa5"},"vehicle_type_id":"4","last_reported":1746288675,"current_range_meters":20800,"station_id":"cpo3532slgdg3j2ikp40","pricing_plan_id":"cebpf4jnsgd1na2vs0mg"},{"bike_id":"58bdfe6f-82e2-4289-8ae1-0261eafd46c9","system_id":"levelo_inurba_marseille","lat":43.23063,"lon":5.35488,"is_reserved":false,"is_disabled":false,"rental_uris":{"android":"levelo://app?vid=58bdfe6f-82e2-4289-8ae1-0261eafd46c9","ios":"levelo://app?vid=58bdfe6f-82e2-4289-8ae1-0261eafd46c9"},"vehicle_type_id":"4","last_reported":1746288675,"current_range_meters":20800,"station_id":"cpo3342slgdg3j2ifvpg","pricing_plan_id":"cebpf4jnsgd1na2vs0mg"},{"bike_id":"e42f3486-39fc-4eb0-81b3-0577001761a6","system_id":"levelo_inurba_marseille","lat":43.26213,"lon":5.37443,"is_reserved":false,"is_disabled":false,"rental_uris":{"android":"levelo://app?vid=e42f3486-39fc-4eb0-81b3-0577001761a6","ios":"levelo://app?vid=e42f3486-39fc-4eb0-81b3-0577001761a6"},"vehicle_type_id":"4","last_reported":1746288675,"current_range_meters":20800,"station_id":"ce4bhgp2rcd13ifvqfc0","pricing_plan_id":"cebpf4jnsgd1na2vs0mg"},{"bike_id":"3ede2edc-dcbc-495c-a819-dfdd70c8d6ae","system_id":"levelo_inurba_marseille","lat":43.2862,"lon":5.35109,"is_reserved":false,"is_disabled":false,"rental_uris":{"android":"levelo://app?vid=3ede2edc-dcbc-495c-a819-dfdd70c8d6ae","ios":"levelo://app?vid=3ede2edc-dcbc-495c-a819-dfdd70c8d6ae"},"vehicle_type_id":"4","last_reported":1746288675,"current_range_meters":21600,"station_id":"ce4bhch2rcd13ifvqeug","pricing_plan_id":"cebpf4jnsgd1na2vs0mg"},{"bike_id":"0045ae2f-3c69-4171-869a-9908549384e6","system_id":"levelo_inurba_marseille","lat":43.30813,"lon":5.38168,"is_reserved":false,"is_disabled":false,"rental_uris":{"android":"levelo://app?vid=0045ae2f-3c69-4171-869a-9908549384e6","ios":"levelo://app?vid=0045ae2f-3c69-4171-869a-9908549384e6"},"vehicle_type_id":"4","last_reported":1746288675,"current_range_meters":21600,"station_id":"ce4bgt12rcd13ifvqce0","pricing_plan_id":"cebpf4jnsgd1na2vs0mg"},{"bike_id":"0abe7365-362a-4c2d-949a-e32faf9d4099","system_id":"levelo_inurba_marseille","lat":43.21192,"lon":5.35071,"is_reserved":false,"is_disabled":true,"rental_uris":{"android":"levelo://app?vid=0abe7365-362a-4c2d-949a-e32faf9d4099","ios":"levelo://app?vid=0abe7365-362a-4c2d-949a-e32faf9d4099"},"vehicle_type_id":"4","last_reported":1746288675,"current_range_meters":22000,"station_id":"st_cvj6sg6p6f1abm77japg","pricing_plan_id":"cebpf4jnsgd1na2vs0mg"},{"bike_id":"03a9c148-5833-484a-bf3a-171832951f57","system_id":"levelo_inurba_marseille","lat":43.23158,"lon":5.43702,"is_reserved":false,"is_disabled":false,"rental_uris":{"android":"levelo://app?vid=03a9c148-5833-484a-bf3a-171832951f57","ios":"levelo://app?vid=03a9c148-5833-484a-bf3a-171832951f57"},"vehicle_type_id":"4","last_reported":1746288675,"current_range_meters":22000,"station_id":"ce4bhmp2rcd13ifvqgog","pricing_plan_id":"cebpf4jnsgd1na2vs0mg"},{"bike_id":"58bd9ba8-440a-4ef9-9721-a060535e6955","system_id":"levelo_inurba_marseille","lat":43.24073,"lon":5.37767,"is_reserved":false,"is_disabled":false,"rental_uris":{"android":"levelo://app?vid=58bd9ba8-440a-4ef9-9721-a060535e6955","ios":"levelo://app?vid=58bd9ba8-440a-4ef9-9721-a060535e6955"},"vehicle_type_id":"4","last_reported":1746288675,"current_range_meters":22000,"station_id":"ce4bhnp2rcd13ifvqgvg","pricing_plan_id":"cebpf4jnsgd1na2vs0mg"},{"bike_id":"ac08739b-f2c4-4748-ac21-ca5f5437a2bd","system_id":"levelo_inurba_marseille","lat":43.33022,"lon":5.39028,"is_reserved":false,"is_disabled":false,"rental_uris":{"android":"levelo://app?vid=ac08739b-f2c4-4748-ac21-ca5f5437a2bd","ios":"levelo://app?vid=ac08739b-f2c4-4748-ac21-ca5f5437a2bd"},"vehicle_type_id":"4","last_reported":1746288675,"current_range_meters":21600,"station_id":"ce4bhr92rcd13ifvqhrg","pricing_plan_id":"cebpf4jnsgd1na2vs0mg"},{"bike_id":"5a2e7511-70fa-4f50-aed5-285adf8b306e","system_id":"levelo_inurba_marseille","lat":43.28411,"lon":5.34983,"is_reserved":false,"is_disabled":false,"rental_uris":{"android":"levelo://app?vid=5a2e7511-70fa-4f50-aed5-285adf8b306e","ios":"levelo://app?vid=5a2e7511-70fa-4f50-aed5-285adf8b306e"},"vehicle_type_id":"4","last_reported":1746288675,"current_range_meters":22000,"station_id":"ce4bhbh2rcd13ifvqepg","pricing_plan_id":"cebpf4jnsgd1na2vs0mg"},{"bike_id":"f6c1dcb0-1295-4680-af32-4dc24d6ef29b","system_id":"levelo_inurba_marseille","lat":43.27193,"lon":5.39159,"is_reserved":false,"is_disabled":true,"rental_uris":{"android":"levelo://app?vid=f6c1dcb0-1295-4680-af32-4dc24d6ef29b","ios":"levelo://app?vid=f6c1dcb0-1295-4680-af32-4dc24d6ef29b"},"vehicle_type_id":"4","last_reported":1746288675,"current_range_meters":22000,"station_id":"ce4bhhp2rcd13ifvqfm0","pricing_plan_id":"cebpf4jnsgd1na2vs0mg"},{"bike_id":"4d6a8d04-0b75-435e-94f3-3de19211845c","system_id":"levelo_inurba_marseille","lat":43.26208,"lon":5.37442,"is_reserved":false,"is_disabled":false,"rental_uris":{"android":"levelo://app?vid=4d6a8d04-0b75-435e-94f3-3de19211845c","ios":"levelo://app?vid=4d6a8d04-0b75-435e-94f3-3de19211845c"},"vehicle_type_id":"4","last_reported":1746288675,"current_range_meters":20800,"station_id":"ce4bhgp2rcd13ifvqfc0","pricing_plan_id":"cebpf4jnsgd1na2vs0mg"},{"bike_id":"e51f556c-53d1-4f72-b950-b979422f1f9d","system_id":"levelo_inurba_marseille","lat":43.311676,"lon":5.401371,"is_reserved":false,"is_disabled":false,"rental_uris":{"android":"levelo://app?vid=e51f556c-53d1-4f72-b950-b979422f1f9d","ios":"levelo://app?vid=e51f556c-53d1-4f72-b950-b979422f1f9d"},"vehicle_type_id":"4","last_reported":1746288675,"current_range_meters":22400,"station_id":"ce4bh092rcd13ifvqd30","pricing_plan_id":"cebpf4jnsgd1na2vs0mg"},{"bike_id":"e5955dff-51cc-4b73-9da1-20094be74272","system_id":"levelo_inurba_marseille","lat":43.22511,"lon":5.34794,"is_reserved":false,"is_disabled":false,"rental_uris":{"android":"levelo://app?vid=e5955dff-51cc-4b73-9da1-20094be74272","ios":"levelo://app?vid=e5955dff-51cc-4b73-9da1-20094be74272"},"vehicle_type_id":"4","last_reported":1746288675,"current_range_meters":22800,"station_id":"st_cvj5dfep6f1abm77gieg","pricing_plan_id":"cebpf4jnsgd1na2vs0mg"},{"bike_id":"f708677b-46b2-4715-8dd2-6ca643733cc4","system_id":"levelo_inurba_marseille","lat":43.27811,"lon":5.40712,"is_reserved":false,"is_disabled":false,"rental_uris":{"android":"levelo://app?vid=f708677b-46b2-4715-8dd2-6ca643733cc4","ios":"levelo://app?vid=f708677b-46b2-4715-8dd2-6ca643733cc4"},"vehicle_type_id":"4","last_reported":1746288675,"current_range_meters":22800,"station_id":"ce4bhnh2rcd13ifvqgtg","pricing_plan_id":"cebpf4jnsgd1na2vs0mg"},{"bike_id":"fa039a04-d770-4559-a8e9-94351309aac0","system_id":"levelo_inurba_marseille","lat":43.28422,"lon":5.34983,"is_reserved":false,"is_disabled":false,"rental_uris":{"android":"levelo://app?vid=fa039a04-d770-4559-a8e9-94351309aac0","ios":"levelo://app?vid=fa039a04-d770-4559-a8e9-94351309aac0"},"vehicle_type_id":"4","last_reported":1746288675,"current_range_meters":22800,"station_id":"ce4bhbh2rcd13ifvqepg","pricing_plan_id":"cebpf4jnsgd1na2vs0mg"},{"bike_id":"b7ee3071-2f94-41e5-bab4-359c67601ef0","system_id":"levelo_inurba_marseille","lat":43.22928,"lon":5.35377,"is_reserved":false,"is_disabled":false,"rental_uris":{"android":"levelo://app?vid=b7ee3071-2f94-41e5-bab4-359c67601ef0","ios":"levelo://app?vid=b7ee3071-2f94-41e5-bab4-359c67601ef0"},"vehicle_type_id":"4","last_reported":1746288675,"current_range_meters":22800,"station_id":"cpo3532slgdg3j2ikp40","pricing_plan_id":"cebpf4jnsgd1na2vs0mg"},{"bike_id":"219dd564-69eb-4d95-bb9c-d0bd43fb666f","system_id":"levelo_inurba_marseille","lat":43.286133,"lon":5.351012,"is_reserved":false,"is_disabled":false,"rental_uris":{"android":"levelo://app?vid=219dd564-69eb-4d95-bb9c-d0bd43fb666f","ios":"levelo://app?vid=219dd564-69eb-4d95-bb9c-d0bd43fb666f"},"vehicle_type_id":"4","last_reported":1746288675,"current_range_meters":23200,"station_id":"ce4bhch2rcd13ifvqeug","pricing_plan_id":"cebpf4jnsgd1na2vs0mg"},{"bike_id":"d9a0dcb9-6821-4f0a-82ee-f6d4aa87b6c7","system_id":"levelo_inurba_marseille","lat":43.28573,"lon":5.395,"is_reserved":false,"is_disabled":false,"rental_uris":{"android":"levelo://app?vid=d9a0dcb9-6821-4f0a-82ee-f6d4aa87b6c7","ios":"levelo://app?vid=d9a0dcb9-6821-4f0a-82ee-f6d4aa87b6c7"},"vehicle_type_id":"4","last_reported":1746288675,"current_range_meters":24800,"station_id":"ce4bh292rcd13ifvqdg0","pricing_plan_id":"cebpf4jnsgd1na2vs0mg"},{"bike_id":"d6fca117-0b75-4d46-b112-e4517691aa07","system_id":"levelo_inurba_marseille","lat":43.2322,"lon":5.35572,"is_reserved":false,"is_disabled":false,"rental_uris":{"android":"levelo://app?vid=d6fca117-0b75-4d46-b112-e4517691aa07","ios":"levelo://app?vid=d6fca117-0b75-4d46-b112-e4517691aa07"},"vehicle_type_id":"4","last_reported":1746288675,"current_range_meters":22800,"station_id":"ce4bhu92rcd13ifvqi70","pricing_plan_id":"cebpf4jnsgd1na2vs0mg"},{"bike_id":"a64ab4f9-de71-492e-b284-6d9d321afc88","system_id":"levelo_inurba_marseille","lat":43.24168,"lon":5.36393,"is_reserved":false,"is_disabled":false,"rental_uris":{"android":"levelo://app?vid=a64ab4f9-de71-492e-b284-6d9d321afc88","ios":"levelo://app?vid=a64ab4f9-de71-492e-b284-6d9d321afc88"},