{"last_updated":1685142363,"ttl":30,"version":"2.2","data":{"bikes":[{"bike_id":"349c46e8-67c1-4d60-9fd6-650467b3992a","system_id":"levelo_inurba_marseille","lat":43.314811,"lon":5.373104,"is_reserved":false,"is_disabled":false,"rental_uris":{"android":"levelo://app?vid=349c46e8-67c1-4d60-9fd6-650467b3992a","ios":"levelo://app?vid=349c46e8-67c1-4d60-9fd6-650467b3992a"},"vehicle_type_id":"4","last_reported":1685142364,"current_range_meters":26000,"station_id":"ce4bgt12rcd13ifvqcd0","pricing_plan_id":"free"},{"bike_id":"1c2de123-dcec-464d-97ba-bfd2d9dd076b","system_id":"levelo_inurba_marseille","lat":43.308614,"lon":5.372098,"is_reserved":false,"is_disabled":false,"rental_uris":{"android":"levelo://app?vid=1c2de123-dcec-464d-97ba-bfd2d9dd076b","ios":"levelo://app?vid=1c2de123-dcec-464d-97ba-bfd2d9dd076b"},"vehicle_type_id":"4","last_reported":1685142364,"current_range_meters":1200,"station_id":"ce4bguh2rcd13ifvqckg","pricing_plan_id":"free"},{"bike_id":"5921b083-e155-411c-bed6-98f631b3efdd","system_id":"levelo_inurba_marseille","lat":43.305989,"lon":5.37225,"is_reserved":false,"is_disabled":false,"rental_uris":{"android":"levelo://app?vid=5921b083-e155-411c-bed6-98f631b3efdd","ios":"levelo://app?vid=5921b083-e155-411c-bed6-98f631b3efdd"},"vehicle_type_id":"4","last_reported":1685142364,"current_range_meters":10800,"station_id":"ce4bgqh2rcd13ifvqc4g","pricing_plan_id":"free"},{"bike_id":"84504c2d-a8c0-4da1-a46d-eb981dc59c92","system_id":"levelo_inurba_marseille","lat":43.30596,"lon":5.37228,"is_reserved":false,"is_disabled":false,"rental_uris":{"android":"levelo://app?vid=84504c2d-a8c0-4da1-a46d-eb981dc59c92","ios":"levelo://app?vid=84504c2d-a8c0-4da1-a46d-eb981dc59c92"},"vehicle_type_id":"4","last_reported":1685142364,"current_range_meters":8000,"station_id":"ce4bgqh2rcd13ifvqc4g","pricing_plan_id":"free"},{"bike_id":"b046c666-e1ca-44a1-bc5a-5b257bbc90d2","system_id":"levelo_inurba_marseille","lat":43.31123,"lon":5.37765,"is_reserved":false,"is_disabled":false,"rental_uris":{"android":"levelo://app?vid=b046c666-e1ca-44a1-bc5a-5b257bbc90d2","ios":"levelo://app?vid=b046c666-e1ca-44a1-bc5a-5b257bbc90d2"},"vehicle_type_id":"4","last_reported":1685142364,"current_range_meters":11200,"station_id":"ce4bgt92rcd13ifvqcg0","pricing_plan_id":"free"},{"bike_id":"9228354f-aee1-4f6d-bf9a-8f82b491c6d3","system_id":"levelo_inurba_marseille","lat":43.31702,"lon":5.37726,"is_reserved":false,"is_disabled":false,"rental_uris":{"android":"levelo://app?vid=9228354f-aee1-4f6d-bf9a-8f82b491c6d3","ios":"levelo://app?vid=9228354f-aee1-4f6d-bf9a-8f82b491c6d3"},"vehicle_type_id":"4","last_reported":1685142364,"current_range_meters":13600,"station_id":"ce4bgth2rcd13ifvqch0","pricing_plan_id":"free"},{"bike_id":"f47b8c93-abbd-42bc-9979-f8f6f8e17204","system_id":"levelo_inurba_marseille","lat":43.31706,"lon":5.37745,"is_reserved":false,"is_disabled":false,"rental_uris":{"android":"levelo://app?vid=f47b8c93-abbd-42bc-9979-f8f6f8e17204","ios":"levelo://app?vid=f47b8c93-abbd-42bc-9979-f8f6f8e17204"},"vehicle_type_id":"4","last_reported":1685142364,"current_range_meters":12000,"station_id":"ce4bgth2rcd13ifvqch0","pricing_plan_id":"free"},{"bike_id":"c0b0d062-8275-40cf-8874-7d9d55ab7e88","system_id":"levelo_inurba_marseille","lat":43.31713,"lon":5.37832,"is_reserved":false,"is_disabled":false,"rental_uris":{"android":"levelo://app?vid=c0b0d062-8275-40cf-8874-7d9d55ab7e88","ios":"levelo://app?vid=c0b0d062-8275-40cf-8874-7d9d55ab7e88"},"vehicle_type_id":"4","last_reported":1685142364,"current_range_meters":23200,"station_id":"","pricing_plan_id":"free"},{"bike_id":"5c6d3410-9c43-4d50-bb24-06969f52b17c","system_id":"levelo_inurba_marseille","lat":43.315289,"lon":5.380349,"is_reserved":false,"is_disabled":false,"rental_uris":{"android":"levelo://app?vid=5c6d3410-9c43-4d50-bb24-06969f52b17c","ios":"levelo://app?vid=5c6d3410-9c43-4d50-bb24-06969f52b17c"},"vehicle_type_id":"4","last_reported":1685142364,"current_range_meters":28000,"station_id":"ce4bhsp2rcd13ifvqi50","pricing_plan_id":"free"},{"bike_id":"225d8a01-bc78-4e23-af85-dbe6f04179a1","system_id":"levelo_inurba_marseille","lat":43.311131,"lon":5.377651,"is_reserved":false,"is_disabled":false,"rental_uris":{"android":"levelo://app?vid=225d8a01-bc78-4e23-af85-dbe6f04179a1","ios":"levelo://app?vid=225d8a01-bc78-4e23-af85-dbe6f04179a1"},"vehicle_type_id":"4","last_reported":1685142364,"current_range_meters":13600,"station_id":"ce4bgt92rcd13ifvqcg0","pricing_plan_id":"free"},{"bike_id":"93657a05-bf4d-4dfa-800b-ab8d89e4a182","system_id":"levelo_inurba_marseille","lat":43.301939,"lon":5.366286,"is_reserved":false,"is_disabled":false,"rental_uris":{"android":"levelo://app?vid=93657a05-bf4d-4dfa-800b-ab8d89e4a182","ios":"levelo://app?vid=93657a05-bf4d-4dfa-800b-ab8d89e4a182"},"vehicle_type_id":"4","last_reported":1685142364,"current_range_meters":0,"station_id":"ce4bgrh2rcd13ifvqc8g","pricing_plan_id":"free"},{"bike_id":"ccf140ab-f962-4ee0-bf85-f637e1bbb912","system_id":"levelo_inurba_marseille","lat":43.30795,"lon":5.38151,"is_reserved":false,"is_disabled":false,"rental_uris":{"android":"levelo://app?vid=ccf140ab-f962-4ee0-bf85-f637e1bbb912","ios":"levelo://app?vid=ccf140ab-f962-4ee0-bf85-f637e1bbb912"},"vehicle_type_id":"4","last_reported":1685142364,"current_range_meters":1200,"station_id":"ce4bgt12rcd13ifvqce0","pricing_plan_id":"free"},{"bike_id":"2073d5c1-19c3-4bb1-939f-332e6ec02d38","system_id":"levelo_inurba_marseille","lat":43.3079,"lon":5.38155,"is_reserved":false,"is_disabled":false,"rental_uris":{"android":"levelo://app?vid=2073d5c1-19c3-4bb1-939f-332e6ec02d38","ios":"levelo://app?vid=2073d5c1-19c3-4bb1-939f-332e6ec02d38"},"vehicle_type_id":"4","last_reported":1685142364,"current_range_meters":8000,"station_id":"ce4bgt12rcd13ifvqce0","pricing_plan_id":"free"},{"bike_id":"46349676-80ed-44a7-9bea-3a55a4175303","system_id":"levelo_inurba_marseille","lat":43.31996,"lon":5.38144,"is_reserved":false,"is_disabled":false,"rental_uris":{"android":"levelo://app?vid=46349676-80ed-44a7-9bea-3a55a4175303","ios":"levelo://app?vid=46349676-80ed-44a7-9bea-3a55a4175303"},"vehicle_type_id":"4","last_reported":1685142364,"current_range_meters":8400,"station_id":"ce4bhr12rcd13ifvqhpg","pricing_plan_id":"free"},{"bike_id":"5f66b5c8-c13e-4e6a-af73-99f8edb1fe4e","system_id":"levelo_inurba_marseille","lat":43.31993,"lon":5.38148,"is_reserved":false,"is_disabled":false,"rental_uris":{"android":"levelo://app?vid=5f66b5c8-c13e-4e6a-af73-99f8edb1fe4e","ios":"levelo://app?vid=5f66b5c8-c13e-4e6a-af73-99f8edb1fe4e"},"vehicle_type_id":"4","last_reported":1685142364,"current_range_meters":19200,"station_id":"ce4bhr12rcd13ifvqhpg","pricing_plan_id":"free"},{"bike_id":"15085faf-94d1-454c-8de1-c9482918e24b","system_id":"levelo_inurba_marseille","lat":43.31992,"lon":5.38151,"is_reserved":false,"is_disabled":false,"rental_uris":{"android":"levelo://app?vid=15085faf-94d1-454c-8de1-c9482918e24b","ios":"levelo://app?vid=15085faf-94d1-454c-8de1-c9482918e24b"},"vehicle_type_id":"4","last_reported":1685142364,"current_range_meters":7200,"station_id":"ce4bhr12rcd13ifvqhpg","pricing_plan_id":"free"},{"bike_id":"e5571f58-adb6-49b7-8c86-2d757ae8e1a0","system_id":"levelo_inurba_marseille","lat":43.31998,"lon":5.38148,"is_reserved":false,"is_disabled":false,"rental_uris":{"android":"levelo://app?vid=e5571f58-adb6-49b7-8c86-2d757ae8e1a0","ios":"levelo://app?vid=e5571f58-adb6-49b7-8c86-2d757ae8e1a0"},"vehicle_type_id":"4","last_reported":1685142364,"current_range_meters":16400,"station_id":"ce4bhr12rcd13ifvqhpg","pricing_plan_id":"free"},{"bike_id":"657c6dfd-7474-4835-9c70-8a2e16836d6c","system_id":"levelo_inurba_marseille","lat":43.313571,"lon":5.384829,"is_reserved":false,"is_disabled":false,"rental_uris":{"android":"levelo://app?vid=657c6dfd-7474-4835-9c70-8a2e16836d6c","ios":"levelo://app?vid=657c6dfd-7474-4835-9c70-8a2e16836d6c"},"vehicle_type_id":"4","last_reported":1685142364,"current_range_meters":4800,"station_id":"ce4bgt92rcd13ifvqcf0","pricing_plan_id":"free"},{"bike_id":"282e49a3-da6d-4821-a4f5-b04fc5157ca6","system_id":"levelo_inurba_marseille","lat":43.313571,"lon":5.384829,"is_reserved":false,"is_disabled":false,"rental_uris":{"android":"levelo://app?vid=282e49a3-da6d-4821-a4f5-b04fc5157ca6","ios":"levelo://app?vid=282e49a3-da6d-4821-a4f5-b04fc5157ca6"},"vehicle_type_id":"4","last_reported":1685142364,"current_range_meters":29200,"station_id":"ce4bgt92rcd13ifvqcf0","pricing_plan_id":"free"},{"bike_id":"97b214bf-1b61-4e27-8be9-9ee88855c248","system_id":"levelo_inurba_marseille","lat":43.313571,"lon":5.384829,"is_reserved":false,"is_disabled":false,"rental_uris":{"android":"levelo://app?vid=97b214bf-1b61-4e27-8be9-9ee88855c248","ios":"levelo://app?vid=97b214bf-1b61-4e27-8be9-9ee88855c248"},"vehicle_type_id":"4","last_reported":1685142364,"current_range_meters":16400,"station_id":"ce4bgt92rcd13ifvqcf0","pricing_plan_id":"free"},{"bike_id":"ec866d0b-5e0f-4332-bf16-e9ce8a76cbc3","system_id":"levelo_inurba_marseille","lat":43.313571,"lon":5.384829,"is_reserved":false,"is_disabled":false,"rental_uris":{"android":"levelo://app?vid=ec866d0b-5e0f-4332-bf16-e9ce8a76cbc3","ios":"levelo://app?vid=ec866d0b-5e0f-4332-bf16-e9ce8a76cbc3"},"vehicle_type_id":"4","last_reported":1685142364,"current_range_meters":4000,"station_id":"ce4bgt92rcd13ifvqcf0","pricing_plan_id":"free"},{"bike_id":"48dcd346-2153-4058-8ad0-8be5a4f1cc28","system_id":"levelo_inurba_marseille","lat":43.313571,"lon":5.384829,"is_reserved":false,"is_disabled":false,"rental_uris":{"android":"levelo://app?vid=48dcd346-2153-4058-8ad0-8be5a4f1cc28","ios":"levelo://app?vid=48dcd346-2153-4058-8ad0-8be5a4f1cc28"},"vehicle_type_id":"4","last_reported":1685142364,"current_range_meters":12000,"station_id":"ce4bgt92rcd13ifvqcf0","pricing_plan_id":"free"},{"bike_id":"c54a9467-eb1a-467c-b99a-2911073c7cb1","system_id":"levelo_inurba_marseille","lat":43.313571,"lon":5.384829,"is_reserved":false,"is_disabled":false,"rental_uris":{"android":"levelo://app?vid=c54a9467-eb1a-467c-b99a-2911073c7cb1","ios":"levelo://app?vid=c54a9467-eb1a-467c-b99a-2911073c7cb1"},"vehicle_type_id":"4","last_reported":1685142364,"current_range_meters":16800,"station_id":"ce4bgt92rcd13ifvqcf0","pricing_plan_id":"free"},{"bike_id":"7efe62c0-b2f0-4a0b-b673-f79ab860cb0d","system_id":"levelo_inurba_marseille","lat":43.313571,"lon":5.384829,"is_reserved":false,"is_disabled":false,"rental_uris":{"android":"levelo://app?vid=7efe62c0-b2f0-4a0b-b673-f79ab860cb0d","ios":"levelo://app?vid=7efe62c0-b2f0-4a0b-b673-f79ab860cb0d"},"vehicle_type_id":"4","last_reported":1685142364,"current_range_meters":14800,"station_id":"ce4bgt92rcd13ifvqcf0","pricing_plan_id":"free"},{"bike_id":"25c40156-ec88-4069-8e0b-b9271ac43ac0","system_id":"levelo_inurba_marseille","lat":43.313571,"lon":5.384829,"is_reserved":false,"is_disabled":false,"rental_uris":{"android":"levelo://app?vid=25c40156-ec88-4069-8e0b-b9271ac43ac0","ios":"levelo://app?vid=25c40156-ec88-4069-8e0b-b9271ac43ac0"},"vehicle_type_id":"4","last_reported":1685142364,"current_range_meters":8000,"station_id":"ce4bgt92rcd13ifvqcf0","pricing_plan_id":"free"},{"bike_id":"c404da12-457f-4ee5-a986-c74a743b5f93","system_id":"levelo_inurba_marseille","lat":43.313571,"lon":5.384829,"is_reserved":false,"is_disabled":false,"rental_uris":{"android":"levelo://app?vid=c404da12-457f-4ee5-a986-c74a743b5f93","ios":"levelo://app?vid=c404da12-457f-4ee5-a986-c74a743b5f93"},"vehicle_type_id":"4","last_reported":1685142364,"current_range_meters":8400,"station_id":"ce4bgt92rcd13ifvqcf0","pricing_plan_id":"free"},{"bike_id":"c7781619-e55e-4ac4-b8b3-4561d131adca","system_id":"levelo_inurba_marseille","lat":43.313571,"lon":5.384829,"is_reserved":false,"is_disabled":false,"rental_uris":{"android":"levelo://app?vid=c7781619-e55e-4ac4-b8b3-4561d131adca","ios":"levelo://app?vid=c7781619-e55e-4ac4-b8b3-4561d131adca"},"vehicle_type_id":"4","last_reported":1685142364,"current_range_meters":9600,"station_id":"ce4bgt92rcd13ifvqcf0","pricing_plan_id":"free"},{"bike_id":"13408754-b1d8-4efa-bb51-c6435a1dfd06","system_id":"levelo_inurba_marseille","lat":43.299243,"lon":5.374807,"is_reserved":false,"is_disabled":false,"rental_uris":{"android":"levelo://app?vid=13408754-b1d8-4efa-bb51-c6435a1dfd06","ios":"levelo://app?vid=13408754-b1d8-4efa-bb51-c6435a1dfd06"},"vehicle_type_id":"4","last_reported":1685142364,"current_range_meters":8800,"station_id":"ce4bgjh2rcd13ifvqbg0","pricing_plan_id":"free"},{"bike_id":"04e0eaad-e904-4500-aace-9c4504be684d","system_id":"levelo_inurba_marseille","lat":43.311722,"lon":5.387247,"is_reserved":false,"is_disabled":false,"rental_uris":{"android":"levelo://app?vid=04e0eaad-e904-4500-aace-9c4504be684d","ios":"levelo://app?vid=04e0eaad-e904-4500-aace-9c4504be684d"},"vehicle_type_id":"4","last_reported":1685142364,"current_range_meters":29200,"station_id":"ce4bgv12rcd13ifvqcp0","pricing_plan_id":"free"},{"bike_id":"dd0c32eb-8cac-4b97-9064-bb4f748ffd7b","system_id":"levelo_inurba_marseille","lat":43.31177,"lon":5.38709,"is_reserved":false,"is_disabled":false,"rental_uris":{"android":"levelo://app?vid=dd0c32eb-8cac-4b97-9064-bb4f748ffd7b","ios":"levelo://app?vid=dd0c32eb-8cac-4b97-9064-bb4f748ffd7b"},"vehicle_type_id":"4","last_reported":1685142364,"current_range_meters":7600,"station_id":"ce4bgv12rcd13ifvqcp0","pricing_plan_id":"free"},{"bike_id":"987ab992-a693-4911-9172-eb63749184d5","system_id":"levelo_inurba_marseille","lat":43.311722,"lon":5.387247,"is_reserved":false,"is_disabled":false,"rental_uris":{"android":"levelo://app?vid=987ab992-a693-4911-9172-eb63749184d5","ios":"levelo://app?vid=987ab992-a693-4911-9172-eb63749184d5"},"vehicle_type_id":"4","last_reported":1685142364,"current_range_meters":30000,"station_id":"ce4bgv12rcd13ifvqcp0","pricing_plan_id":"free"},{"bike_id":"2c0c5287-f10f-469c-a32a-4527f5465581","system_id":"levelo_inurba_marseille","lat":43.311722,"lon":5.387247,"is_reserved":false,"is_disabled":false,"rental_uris":{"android":"levelo://app?vid=2c0c5287-f10f-469c-a32a-4527f5465581","ios":"levelo://app?vid=2c0c5287-f10f-469c-a32a-4527f5465581"},"vehicle_type_id":"4","last_reported":1685142364,"current_range_meters":12800,"station_id":"ce4bgv12rcd13ifvqcp0","pricing_plan_id":"free"},{"bike_id":"eff6ca2d-1f27-4115-93a1-cf1c14eea6f2","system_id":"levelo_inurba_marseille","lat":43.31168,"lon":5.38715,"is_reserved":false,"is_disabled":false,"rental_uris":{"android":"levelo://app?vid=eff6ca2d-1f27-4115-93a1-cf1c14eea6f2","ios":"levelo://app?vid=eff6ca2d-1f27-4115-93a1-cf1c14eea6f2"},"vehicle_type_id":"4","last_reported":1685142364,"current_range_meters":13600,"station_id":"ce4bgv12rcd13ifvqcp0","pricing_plan_id":"free"},{"bike_id":"190410d1-af5f-407f-ae9d-b5fe6746b45c","system_id":"levelo_inurba_marseille","lat":43.299243,"lon":5.37481,"is_reserved":false,"is_disabled":false,"rental_uris":{"android":"levelo://app?vid=190410d1-af5f-407f-ae9d-b5fe6746b45c","ios":"levelo://app?vid=190410d1-af5f-407f-ae9d-b5fe6746b45c"},"vehicle_type_id":"4","last_reported":1685142364,"current_range_meters":19200,"station_id":"ce4bgjh2rcd13ifvqbg0","pricing_plan_id":"free"},{"bike_id":"15bdd509-ac6b-486d-a3af-74b1c552f2cb","system_id":"levelo_inurba_marseille","lat":43.32833,"lon":5.36689,"is_reserved":false,"is_disabled":false,"rental_uris":{"android":"levelo://app?vid=15bdd509-ac6b-486d-a3af-74b1c552f2cb","ios":"levelo://app?vid=15bdd509-ac6b-486d-a3af-74b1c552f2cb"},"vehicle_type_id":"4","last_reported":1685142364,"current_range_meters":14000,"station_id":"ce4bhs92rcd13ifvqi0g","pricing_plan_id":"free"},{"bike_id":"521a2ae4-946b-47bf-ba22-cf10bef5a9f9","system_id":"levelo_inurba_marseille","lat":43.29623,"lon":5.37149,"is_reserved":false,"is_disabled":false,"rental_uris":{"android":"levelo://app?vid=521a2ae4-946b-47bf-ba22-cf10bef5a9f9","ios":"levelo://app?vid=521a2ae4-946b-47bf-ba22-cf10bef5a9f9"},"vehicle_type_id":"4","last_reported":1685142364,"current_range_meters":12800,"station_id":"ce4bgk12rcd13ifvqbj0","pricing_plan_id":"free"},{"bike_id":"d7f266a6-ce15-437e-86aa-7112b7a80e12","system_id":"levelo_inurba_marseille","lat":43.3097,"lon":5.39003,"is_reserved":false,"is_disabled":false,"rental_uris":{"android":"levelo://app?vid=d7f266a6-ce15-437e-86aa-7112b7a80e12","ios":"levelo://app?vid=d7f266a6-ce15-437e-86aa-7112b7a80e12"},"vehicle_type_id":"4","last_reported":1685142364,"current_range_meters":0,"station_id":"ce4bgup2rcd13ifvqco0","pricing_plan_id":"free"},{"bike_id":"d5e3d038-e1e1-4c35-80f7-e5ded1ca8f8d","system_id":"levelo_inurba_marseille","lat":43.299028,"lon":5.381509,"is_reserved":false,"is_disabled":false,"rental_uris":{"android":"levelo://app?vid=d5e3d038-e1e1-4c35-80f7-e5ded1ca8f8d","ios":"levelo://app?vid=d5e3d038-e1e1-4c35-80f7-e5ded1ca8f8d"},"vehicle_type_id":"4","last_reported":1685142364,"current_range_meters":23200,"station_id":"ce4bgj12rcd13ifvqbc0","pricing_plan_id":"free"},{"bike_id":"5f671d25-257b-4c34-905d-3c1dc8f12f71","system_id":"levelo_inurba_marseille","lat":43.29715,"lon":5.37693,"is_reserved":false,"is_disabled":false,"rental_uris":{"android":"levelo://app?vid=5f671d25-257b-4c34-905d-3c1dc8f12f71","ios":"levelo://app?vid=5f671d25-257b-4c34-905d-3c1dc8f12f71"},"vehicle_type_id":"4","last_reported":1685142364,"current_range_meters":14400,"station_id":"","pricing_plan_id":"free"},{"bike_id":"87234a43-449f-4c89-9a99-940eb3eddebb","system_id":"levelo_inurba_marseille","lat":43.29612,"lon":5.37333,"is_reserved":false,"is_disabled":false,"rental_uris":{"android":"levelo://app?vid=87234a43-449f-4c89-9a99-940eb3eddebb","ios":"levelo://app?vid=87234a43-449f-4c89-9a99-940eb3eddebb"},"vehicle_type_id":"4","last_reported":1685142364,"current_range_meters":1200,"station_id":"","pricing_plan_id":"free"},{"bike_id":"590e460c-4668-4aee-b083-b2d0f8e0976b","system_id":"levelo_inurba_marseille","lat":43.309589,"lon":5.390258,"is_reserved":false,"is_disabled":false,"rental_uris":{"android":"levelo://app?vid=590e460c-4668-4aee-b083-b2d0f8e0976b","ios":"levelo://app?vid=590e460c-4668-4aee-b083-b2d0f8e0976b"},"vehicle_type_id":"4","last_reported":1685142364,"current_range_meters":22800,"station_id":"ce4bgup2rcd13ifvqco0","pricing_plan_id":"free"},{"bike_id":"210c85bb-fe3d-4a5e-93a8-0f61f249b038","system_id":"levelo_inurba_marseille","lat":43.309589,"lon":5.390258,"is_reserved":false,"is_disabled":false,"rental_uris":{"android":"levelo://app?vid=210c85bb-fe3d-4a5e-93a8-0f61f249b038","ios":"levelo://app?vid=210c85bb-fe3d-4a5e-93a8-0f61f249b038"},"vehicle_type_id":"4","last_reported":1685142364,"current_range_meters":6400,"station_id":"ce4bgup2rcd13ifvqco0","pricing_plan_id":"free"},{"bike_id":"1369c5d2-b398-41de-9b14-64a559e974f1","system_id":"levelo_inurba_marseille","lat":43.309589,"lon":5.390258,"is_reserved":false,"is_disabled":false,"rental_uris":{"android":"levelo://app?vid=1369c5d2-b398-41de-9b14-64a559e974f1","ios":"levelo://app?vid=1369c5d2-b398-41de-9b14-64a559e974f1"},"vehicle_type_id":"4","last_reported":1685142364,"current_range_meters":2400,"station_id":"ce4bgup2rcd13ifvqco0","pricing_plan_id":"free"},{"bike_id":"76b6e55f-2900-4abe-b944-87c2d29d343e","system_id":"levelo_inurba_marseille","lat":43.309589,"lon":5.390258,"is_reserved":false,"is_disabled":false,"rental_uris":{"android":"levelo://app?vid=76b6e55f-2900-4abe-b944-87c2d29d343e","ios":"levelo://app?vid=76b6e55f-2900-4abe-b944-87c2d29d343e"},"vehicle_type_id":"4","last_reported":1685142364,"current_range_meters":9200,"station_id":"ce4bgup2rcd13ifvqco0","pricing_plan_id":"free"},{"bike_id":"cf1e6ba6-2d61-4285-95d3-eb9b767af4f5","system_id":"levelo_inurba_marseille","lat":43.30965,"lon":5.39034,"is_reserved":false,"is_disabled":false,"rental_uris":{"android":"levelo://app?vid=cf1e6ba6-2d61-4285-95d3-eb9b767af4f5","ios":"levelo://app?vid=cf1e6ba6-2d61-4285-95d3-eb9b767af4f5"},"vehicle_type_id":"4","last_reported":1685142364,"current_range_meters":0,"station_id":"ce4bgup2rcd13ifvqco0","pricing_plan_id":"free"},{"bike_id":"59a4a35e-0f2c-4a7a-80ac-79dfce367a2e","system_id":"levelo_inurba_marseille","lat":43.309589,"lon":5.390258,"is_reserved":false,"is_disabled":false,"rental_uris":{"android":"levelo://app?vid=59a4a35e-0f2c-4a7a-80ac-79dfce367a2e","ios":"levelo://app?vid=59a4a35e-0f2c-4a7a-80ac-79dfce367a2e"},"vehicle_type_id":"4","last_reported":1685142364,"current_range_meters":26000,"station_id":"ce4bgup2rcd13ifvqco0","pricing_plan_id":"free"},{"bike_id":"74fe64af-5612-4b54-98ce-dfccde8ccadc","system_id":"levelo_inurba_marseille","lat":43.309589,"lon":5.390258,"is_reserved":false,"is_disabled":false,"rental_uris":{"android":"levelo://app?vid=74fe64af-5612-4b54-98ce-dfccde8ccadc","ios":"levelo://app?vid=74fe64af-5612-4b54-98ce-dfccde8ccadc"},"vehicle_type_id":"4","last_reported":1685142364,"current_range_meters":2000,"station_id":"ce4bgup2rcd13ifvqco0","pricing_plan_id":"free"},{"bike_id":"5f2afe27-931c-4297-b850-fbdd545e9dc9","system_id":"levelo_inurba_marseille","lat":43.296935,"lon":5.376544,"is_reserved":false,"is_disabled":false,"rental_uris":{"android":"levelo://app?vid=5f2afe27-931c-4297-b850-fbdd545e9dc9","ios":"levelo://app?vid=5f2afe27-931c-4297-b850-fbdd545e9dc9"},"vehicle_type_id":"4","last_reported":1685142364,"current_range_meters":3200,"station_id":"ce4bgkh2rcd13ifvqbl0","pricing_plan_id":"free"},{"bike_id":"cf3fb89a-c959-4f23-8f03-a98d306de8af","system_id":"levelo_inurba_marseille","lat":43.317557,"lon":5.390173,"is_reserved":false,"is_disabled":false,"rental_uris":{"android":"levelo://app?vid=cf3fb89a-c959-4f23-8f03-a98d306de8af","ios":"levelo://app?vid=cf3fb89a-c959-4f23-8f03-a98d306de8af"},"vehicle_type_id":"4","last_reported":1685142364,"current_range_meters":24000,"station_id":"ce4bhqp2rcd13ifvqhng","pricing_plan_id":"free"},{"bike_id":"b760dc60-6d37-49c7-8dde-1a371397cdb8","system_id":"levelo_inurba_marseille","lat":43.317557,"lon":5.390173,"is_reserved":false,"is_disabled":false,"rental_uris":{"android":"levelo://app?vid=b760dc60-6d37-49c7-8dde-1a371397cdb8","ios":"levelo://app?vid=b760dc60-6d37-49c7-8dde-1a371397cdb8"},"vehicle_type_id":"4","last_reported":1685142364,"current_range_meters":28800,"station_id":"ce4bhqp2rcd13ifvqhng","pricing_plan_id":"free"},{"bike_id":"0a80d5e9-ad49-415c-9ece-72c4359f066d","system_id":"levelo_inurba_marseille","lat":43.317557,"lon":5.390173,"is_reserved":false,"is_disabled":false,"rental_uris":{"android":"levelo://app?vid=0a80d5e9-ad49-415c-9ece-72c4359f066d","ios":"levelo://app?vid=0a80d5e9-ad49-415c-9ece-72c4359f066d"},"vehicle_type_id":"4","last_reported":1685142364,"current_range_meters":28400,"station_id":"ce4bhqp2rcd13ifvqhng","pricing_plan_id":"free"},{"bike_id":"774ce504-2767-4c7f-b9b2-adba2127074c","system_id":"levelo_inurba_marseille","lat":43.317557,"lon":5.390173,"is_reserved":false,"is_disabled":false,"rental_uris":{"android":"levelo://app?vid=774ce504-2767-4c7f-b9b2-adba2127074c","ios":"levelo://app?vid=774ce504-2767-4c7f-b9b2-adba2127074c"},"vehicle_type_id":"4","last_reported":1685142364,"current_range_meters":29200,"station_id":"ce4bhqp2rcd13ifvqhng","pricing_plan_id":"free"},{"bike_id":"4c10f4ab-aebe-4140-a261-21b9d10c3ae8","system_id":"levelo_inurba_marseille","lat":43.298037,"lon":5.381066,"is_reserved":false,"is_disabled":false,"rental_uris":{"android":"levelo://app?vid=4c10f4ab-aebe-4140-a261-21b9d10c3ae8","ios":"levelo://app?vid=4c10f4ab-aebe-4140-a261-21b9d10c3ae8"},"vehicle_type_id":"4","last_reported":1685142364,"current_range_meters":0,"station_id":"ce4bgip2rcd13ifvqbb0","pricing_plan_id":"free"},{"bike_id":"3457a307-36c1-42f4-917e-2b0badbdad21","system_id":"levelo_inurba_marseille","lat":43.304278,"lon":5.388868,"is_reserved":false,"is_disabled":false,"rental_uris":{"android":"levelo://app?vid=3457a307-36c1-42f4-917e-2b0badbdad21","ios":"levelo://app?vid=3457a307-36c1-42f4-917e-2b0badbdad21"},"vehicle_type_id":"4","last_reported":1685142364,"current_range_meters":21600,"station_id":"ce4bgk12rcd13ifvqbi0","pricing_plan_id":"free"},{"bike_id":"aaa07f33-70d0-4050-834b-b434b6d5466b","system_id":"levelo_inurba_marseille","lat":43.30436,"lon":5.38886,"is_reserved":false,"is_disabled":false,"rental_uris":{"android":"levelo://app?vid=aaa07f33-70d0-4050-834b-b434b6d5466b","ios":"levelo://app?vid=aaa07f33-70d0-4050-834b-b434b6d5466b"},"vehicle_type_id":"4","last_reported":1685142364,"current_range_meters":14000,"station_id":"ce4bgk12rcd13ifvqbi0","pricing_plan_id":"free"},{"bike_id":"3fdf7676-e3cb-40b8-aa47-40c7c9f4b198","system_id":"levelo_inurba_marseille","lat":43.304278,"lon":5.388868,"is_reserved":false,"is_disabled":false,"rental_uris":{"android":"levelo://app?vid=3fdf7676-e3cb-40b8-aa47-40c7c9f4b198","ios":"levelo://app?vid=3fdf7676-e3cb-40b8-aa47-40c7c9f4b198"},"vehicle_type_id":"4","last_reported":1685142364,"current_range_meters":28800,"station_id":"ce4bgk12rcd13ifvqbi0","pricing_plan_id":"free"},{"bike_id":"a06f3196-7c2e-4a4d-ac82-0f64612f3159","system_id":"levelo_inurba_marseille","lat":43.304278,"lon":5.388868,"is_reserved":false,"is_disabled":false,"rental_uris":{"android":"levelo://app?vid=a06f3196-7c2e-4a4d-ac82-0f64612f3159","ios":"levelo://app?vid=a06f3196-7c2e-4a4d-ac82-0f64612f3159"},"vehicle_type_id":"4","last_reported":1685142364,"current_range_meters":5600,"station_id":"ce4bgk12rcd13ifvqbi0","pricing_plan_id":"free"},{"bike_id":"9b0c161e-c0da-4e1d-984b-9720e5351b58","system_id":"levelo_inurba_marseille","lat":43.299707,"lon":5.384859,"is_reserved":false,"is_disabled":false,"rental_uris":{"android":"levelo://app?vid=9b0c161e-c0da-4e1d-984b-9720e5351b58","ios":"levelo://app?vid=9b0c161e-c0da-4e1d-984b-9720e5351b58"},"vehicle_type_id":"4","last_reported":1685142364,"current_range_meters":27200,"station_id":"ce4bgj92rcd13ifvqbd0","pricing_plan_id":"free"},{"bike_id":"61511c77-b678-4352-af26-2e699a1d0fa5","system_id":"levelo_inurba_marseille","lat":43.293249,"lon":5.371578,"is_reserved":false,"is_disabled":false,"rental_uris":{"android":"levelo://app?vid=61511c77-b678-4352-af26-2e699a1d0fa5","ios":"levelo://app?vid=61511c77-b678-4352-af26-2e699a1d0fa5"},"vehicle_type_id":"4","last_reported":1685142364,"current_range_meters":3600,"station_id":"ce4bgh92rcd13ifvqb40","pricing_plan_id":"free"},{"bike_id":"02298e77-7833-4f80-9507-2794b8030a1f","system_id":"levelo_inurba_marseille","lat":43.305994,"lon":5.393687,"is_reserved":false,"is_disabled":false,"rental_uris":{"android":"levelo://app?vid=02298e77-7833-4f80-9507-2794b8030a1f","ios":"levelo://app?vid=02298e77-7833-4f80-9507-2794b8030a1f"},"vehicle_type_id":"4","last_reported":1685142364,"current_range_meters":28800,"station_id":"ce4bh0p2rcd13ifvqd80","pricing_plan_id":"free"},{"bike_id":"d75db189-e801-4c1d-a918-dd1b6882b4a1","system_id":"levelo_inurba_marseille","lat":43.2936,"lon":5.37835,"is_reserved":false,"is_disabled":false,"rental_uris":{"android":"levelo://app?vid=d75db189-e801-4c1d-a918-dd1b6882b4a1","ios":"levelo://app?vid=d75db189-e801-4c1d-a918-dd1b6882b4a1"},"vehicle_type_id":"4","last_reported":1685142364,"current_range_meters":23600,"station_id":"ce4bgjh2rcd13ifvqbf0","pricing_plan_id":"free"},{"bike_id":"aadf27cc-5db4-42eb-8733-763857df27aa","system_id":"levelo_inurba_marseille","lat":43.300852,"lon":5.390859,"is_reserved":false,"is_disabled":false,"rental_uris":{"android":"levelo://app?vid=aadf27cc-5db4-42eb-8733-763857df27aa","ios":"levelo://app?vid=aadf27cc-5db4-42eb-8733-763857df27aa"},"vehicle_type_id":"4","last_reported":1685142364,"current_range_meters":0,"station_id":"ce4bh192rcd13ifvqdb0","pricing_plan_id":"free"},{"bike_id":"fe3613ba-e557-44d4-91f9-0781c919e764","system_id":"levelo_inurba_marseille","lat":43.25102,"lon":5.403214,"is_reserved":false,"is_disabled":false,"rental_uris":{"android":"levelo://app?vid=fe3613ba-e557-44d4-91f9-0781c919e764","ios":"levelo://app?vid=fe3613ba-e557-44d4-91f9-0781c919e764"},"vehicle_type_id":"4","last_reported":1685142364,"current_range_meters":0,"station_id":"ce4bhlh2rcd13ifvqgig","pricing_plan_id":"free"},{"bike_id":"e83efb7a-b88f-4299-9dc5-8a967077d059","system_id":"levelo_inurba_marseille","lat":43.309038,"lon":5.396546,"is_reserved":false,"is_disabled":false,"rental_uris":{"android":"levelo://app?vid=e83efb7a-b88f-4299-9dc5-8a967077d059","ios":"levelo://app?vid=e83efb7a-b88f-4299-9dc5-8a967077d059"},"vehicle_type_id":"4","last_reported":1685142364,"current_range_meters":6000,"station_id":"ce4bh012rcd13ifvqcv0","pricing_plan_id":"free"},{"bike_id":"18ed3bb2-12e7-491c-8c4f-55f6c405d52f","system_id":"levelo_inurba_marseille","lat":43.313669,"lon":5.396747,"is_reserved":false,"is_disabled":false,"rental_uris":{"android":"levelo://app?vid=18ed3bb2-12e7-491c-8c4f-55f6c405d52f","ios":"levelo://app?vid=18ed3bb2-12e7-491c-8c4f-55f6c405d52f"},"vehicle_type_id":"4","last_reported":1685142364,"current_range_meters":1600,"station_id":"","pricing_plan_id":"free"},{"bike_id":"91251e0d-693c-48c7-a8af-45ec73cdd651","system_id":"levelo_inurba_marseille","lat":43.309038,"lon":5.396546,"is_reserved":false,"is_disabled":false,"rental_uris":{"android":"levelo://app?vid=91251e0d-693c-48c7-a8af-45ec73cdd651","ios":"levelo://app?vid=91251e0d-693c-48c7-a8af-45ec73cdd651"},"vehicle_type_id":"4","last_reported":1685142364,"current_range_meters":0,"station_id":"ce4bh012rcd13ifvqcv0","pricing_plan_id":"free"},{"bike_id":"81cafedd-d75d-4d0c-8ed9-cccd8d82cb84","system_id":"levelo_inurba_marseille","lat":43.309144,"lon":5.396464,"is_reserved":false,"is_disabled":false,"rental_uris":{"android":"levelo://app?vid=81cafedd-d75d-4d0c-8ed9-cccd8d82cb84","ios":"levelo://app?vid=81cafedd-d75d-4d0c-8ed9-cccd8d82cb84"},"vehicle_type_id":"4","last_reported":1685142364,"current_range_meters":14000,"station_id":"ce4bh012rcd13ifvqcv0","pricing_plan_id":"free"},{"bike_id":"79b6c3cc-698d-4491-91ea-ce04996035c8","system_id":"levelo_inurba_marseille","lat":43.31326,"lon":5.39687,"is_reserved":false,"is_disabled":false,"rental_uris":{"android":"levelo://app?vid=79b6c3cc-698d-4491-91ea-ce04996035c8","ios":"levelo://app?vid=79b6c3cc-698d-4491-91ea-ce04996035c8"},"vehicle_type_id":"4","last_reported":1685142364,"current_range_meters":24000,"station_id":"ce4bgvp2rcd13ifvqcu0","pricing_plan_id":"free"},{"bike_id":"d2f9afe7-7a68-4ce8-b722-5b950087a3b1","system_id":"levelo_inurba_marseille","lat":43.30888,"lon":5.39644,"is_reserved":false,"is_disabled":false,"rental_uris":{"android":"levelo://app?vid=d2f9afe7-7a68-4ce8-b722-5b950087a3b1","ios":"levelo://app?vid=d2f9afe7-7a68-4ce8-b722-5b950087a3b1"},"vehicle_type_id":"4","last_reported":1685142364,"current_range_meters":10000,"station_id":"ce4bh012rcd13ifvqcv0","pricing_plan_id":"free"},{"bike_id":"f11bd125-d0cf-458a-b939-a63fa0ed69bf","system_id":"levelo_inurba_marseille","lat":43.30881,"lon":5.39644,"is_reserved":false,"is_disabled":false,"rental_uris":{"android":"levelo://app?vid=f11bd125-d0cf-458a-b939-a63fa0ed69bf","ios":"levelo://app?vid=f11bd125-d0cf-458a-b939-a63fa0ed69bf"},"vehicle_type_id":"4","last_reported":1685142364,"current_range_meters":1200,"station_id":"","pricing_plan_id":"free"},{"bike_id":"71db31b8-daf0-4fa8-b1dc-837820a25bdf","system_id":"levelo_inurba_marseille","lat":43.309038,"lon":5.396546,"is_reserved":false,"is_disabled":false,"rental_uris":{"android":"levelo://app?vid=71db31b8-daf0-4fa8-b1dc-837820a25bdf","ios":"levelo://app?vid=71db31b8-daf0-4fa8-b1dc-837820a25bdf"},"vehicle_type_id":"4","last_reported":1685142364,"current_range_meters":1600,"station_id":"ce4bh012rcd13ifvqcv0","pricing_plan_id":"free"},{"bike_id":"dd6e6398-6ee1-45fa-bc10-ee4df4c49a3f","system_id":"levelo_inurba_marseille","lat":43.29529,"lon":5.385581,"is_reserved":false,"is_disabled":false,"rental_uris":{"android":"levelo://app?vid=dd6e6398-6ee1-45fa-bc10-ee4df4c49a3f","ios":"levelo://app?vid=dd6e6398-6ee1-45fa-bc10-ee4df4c49a3f"},"vehicle_type_id":"4","last_reported":1685142364,"current_range_meters":0,"station_id":"ce4bgih2rcd13ifvqba0","pricing_plan_id":"free"},{"bike_id":"01f89ae4-6af3-4309-90e5-0b3a6bfdb489","system_id":"levelo_inurba_marseille","lat":43.290779,"lon":5.371482,"is_reserved":false,"is_disabled":false,"rental_uris":{"android":"levelo://app?vid=01f89ae4-6af3-4309-90e5-0b3a6bfdb489","ios":"levelo://app?vid=01f89ae4-6af3-4309-90e5-0b3a6bfdb489"},"vehicle_type_id":"4","last_reported":1685142364,"current_range_meters":0,"station_id":"ce4bh5p2rcd13ifvqe4g","pricing_plan_id":"free"},{"bike_id":"b0da0a31-9ae0-45ab-bad1-b98e8e64a771","system_id":"levelo_inurba_marseille","lat":43.29419,"lon":5.38611,"is_reserved":false,"is_disabled":false,"rental_uris":{"android":"levelo://app?vid=b0da0a31-9ae0-45ab-bad1-b98e8e64a771","ios":"levelo://app?vid=b0da0a31-9ae0-45ab-bad1-b98e8e64a771"},"vehicle_type_id":"4","last_reported":1685142364,"current_range_meters":25200,"station_id":"ce4bh2h2rcd13ifvqdh0","pricing_plan_id":"free"},{"bike_id":"aec70947-83bd-4be5-a5ee-c92c6a16264f","system_id":"levelo_inurba_marseille","lat":43.28933,"lon":5.36396,"is_reserved":false,"is_disabled":false,"rental_uris":{"android":"levelo://app?vid=aec70947-83bd-4be5-a5ee-c92c6a16264f","ios":"levelo://app?vid=aec70947-83bd-4be5-a5ee-c92c6a16264f"},"vehicle_type_id":"4","last_reported":1685142364,"current_range_meters":9200,"station_id":"ce4bhc92rcd13ifvqetg","pricing_plan_id":"free"},{"bike_id":"45965492-6db7-4b9c-828f-19d1b9ad4ff1","system_id":"levelo_inurba_marseille","lat":43.33048,"lon":5.38911,"is_reserved":false,"is_disabled":false,"rental_uris":{"android":"levelo://app?vid=45965492-6db7-4b9c-828f-19d1b9ad4ff1","ios":"levelo://app?vid=45965492-6db7-4b9c-828f-19d1b9ad4ff1"},"vehicle_type_id":"4","last_reported":1685142364,"current_range_meters":4000,"station_id":"ce4bhr92rcd13ifvqhrg","pricing_plan_id":"free"},{"bike_id":"f445296b-8f7c-42f6-82cf-090bfc4f7485","system_id":"levelo_inurba_marseille","lat":43.33048,"lon":5.38912,"is_reserved":false,"is_disabled":false,"rental_uris":{"android":"levelo://app?vid=f445296b-8f7c-42f6-82cf-090bfc4f7485","ios":"levelo://app?vid=f445296b-8f7c-42f6-82cf-090bfc4f7485"},"vehicle_type_id":"4","last_reported":1685142364,"current_range_meters":12400,"station_id":"ce4bhr92rcd13ifvqhrg","pricing_plan_id":"free"},{"bike_id":"351acc09-8a17-4508-bb95-e897624cde5b","system_id":"levelo_inurba_marseille","lat":43.33051,"lon":5.38912,"is_reserved":false,"is_disabled":false,"rental_uris":{"android":"levelo://app?vid=351acc09-8a17-4508-bb95-e897624cde5b","ios":"levelo://app?vid=351acc09-8a17-4508-bb95-e897624cde5b"},"vehicle_type_id":"4","last_reported":1685142364,"current_range_meters":6400,"station_id":"ce4bhr92rcd13ifvqhrg","pricing_plan_id":"free"},{"bike_id":"21efc011-d086-4018-b6a5-c79dce63722d","system_id":"levelo_inurba_marseille","lat":43.28856,"lon":5.358371,"is_reserved":false,"is_disabled":false,"rental_uris":{"android":"levelo://app?vid=21efc011-d086-4018-b6a5-c79dce63722d","ios":"levelo://app?vid=21efc011-d086-4018-b6a5-c79dce63722d"},"vehicle_type_id":"4","last_reported":1685142364,"current_range_meters":0,"station_id":"ce4bhb12rcd13ifvqem0","pricing_plan_id":"free"},{"bike_id":"9f7f2bc9-dfe4-452c-b9ba-465c1a9cd419","system_id":"levelo_inurba_marseille","lat":43.28856,"lon":5.358371,"is_reserved":false,"is_disabled":false,"rental_uris":{"android":"levelo://app?vid=9f7f2bc9-dfe4-452c-b9ba-465c1a9cd419","ios":"levelo://app?vid=9f7f2bc9-dfe4-452c-b9ba-465c1a9cd419"},"vehicle_type_id":"4","last_reported":1685142364,"current_range_meters":0,"station_id":"ce4bhb12rcd13ifvqem0","pricing_plan_id":"free"},{"bike_id":"556c6db1-2600-4c2b-9521-aae8453517c1","system_id":"levelo_inurba_marseille","lat":43.33747,"lon":5.37436,"is_reserved":false,"is_disabled":false,"rental_uris":{"android":"levelo://app?vid=556c6db1-2600-4c2b-9521-aae8453517c1","ios":"levelo://app?vid=556c6db1-2600-4c2b-9521-aae8453517c1"},"vehicle_type_id":"4","last_reported":1685142364,"current_range_meters":20000,"station_id":"","pricing_plan_id":"free"},{"bike_id":"141c14ea-594b-43ee-894e-8c44af1dcd73","system_id":"levelo_inurba_marseille","lat":43.3375,"lon":5.37433,"is_reserved":false,"is_disabled":false,"rental_uris":{"android":"levelo://app?vid=141c14ea-594b-43ee-894e-8c44af1dcd73","ios":"levelo://app?vid=141c14ea-594b-43ee-894e-8c44af1dcd73"},"vehicle_type_id":"4","last_reported":1685142364,"current_range_meters":14000,"station_id":"","pricing_plan_id":"free"},{"bike_id":"02362672-78e1-4667-9a77-d71f91f94365","system_id":"levelo_inurba_marseille","lat":43.33755,"lon":5.3743,"is_reserved":false,"is_disabled":false,"rental_uris":{"android":"levelo://app?vid=02362672-78e1-4667-9a77-d71f91f94365","ios":"levelo://app?vid=02362672-78e1-4667-9a77-d71f91f94365"},"vehicle_type_id":"4","last_reported":1685142364,"current_range_meters":18400,"station_id":"","pricing_plan_id":"free"},{"bike_id":"31f720de-218a-4b5b-b0aa-c3e6fae4c874","system_id":"levelo_inurba_marseille","lat":43.30642,"lon":5.401031,"is_reserved":false,"is_disabled":false,"rental_uris":{"android":"levelo://app?vid=31f720de-218a-4b5b-b0aa-c3e6fae4c874","ios":"levelo://app?vid=31f720de-218a-4b5b-b0aa-c3e6fae4c874"},"vehicle_type_id":"4","last_reported":1685142364,"current_range_meters":30000,"station_id":"ce4bh112rcd13ifvqda0","pricing_plan_id":"free"},{"bike_id":"5232e414-de7a-4323-a120-c55243939717","system_id":"levelo_inurba_marseille","lat":43.30642,"lon":5.401031,"is_reserved":false,"is_disabled":false,"rental_uris":{"android":"levelo://app?vid=5232e414-de7a-4323-a120-c55243939717","ios":"levelo://app?vid=5232e414-de7a-4323-a120-c55243939717"},"vehicle_type_id":"4","last_reported":1685142364,"current_range_meters":3200,"station_id":"ce4bh112rcd13ifvqda0","pricing_plan_id":"free"},{"bike_id":"1490fad1-fe90-4399-a2f2-79545cf03a2b","system_id":"levelo_inurba_marseille","lat":43.337578,"lon":5.374791,"is_reserved":false,"is_disabled":false,"rental_uris":{"android":"levelo://app?vid=1490fad1-fe90-4399-a2f2-79545cf03a2b","ios":"levelo://app?vid=1490fad1-fe90-4399-a2f2-79545cf03a2b"},"vehicle_type_id":"4","last_reported":1685142364,"current_range_meters":29600,"station_id":"","pricing_plan_id":"free"},{"bike_id":"0f915385-1fd5-4f54-896c-f56a11a31d3d","system_id":"levelo_inurba_marseille","lat":43.33771,"lon":5.37404,"is_reserved":false,"is_disabled":false,"rental_uris":{"android":"levelo://app?vid=0f915385-1fd5-4f54-896c-f56a11a31d3d","ios":"levelo://app?vid=0f915385-1fd5-4f54-896c-f56a11a31d3d"},"vehicle_type_id":"4","last_reported":1685142364,"current_range_meters":21200,"station_id":"","pricing_plan_id":"free"},{"bike_id":"5bd96745-9a19-4fe7-b597-4db9cabdc957","system_id":"levelo_inurba_marseille","lat":43.33772,"lon":5.37428,"is_reserved":false,"is_disabled":false,"rental_uris":{"android":"levelo://app?vid=5bd96745-9a19-4fe7-b597-4db9cabdc957","ios":"levelo://app?vid=5bd96745-9a19-4fe7-b597-4db9cabdc957"},"vehicle_type_id":"4","last_reported":1685142364,"current_range_meters":27600,"station_id":"","pricing_plan_id":"free"},{"bike_id":"eb8ac404-8a95-4fc7-819a-ea19315069af","system_id":"levelo_inurba_marseille","lat":43.33774,"lon":5.37428,"is_reserved":false,"is_disabled":false,"rental_uris":{"android":"levelo://app?vid=eb8ac404-8a95-4fc7-819a-ea19315069af","ios":"levelo://app?vid=eb8ac404-8a95-4fc7-819a-ea19315069af"},"vehicle_type_id":"4","last_reported":1685142364,"current_range_meters":26000,"station_id":"","pricing_plan_id":"free"},{"bike_id":"9da7a875-6e1d-4587-873d-904ca3c8042a","system_id":"levelo_inurba_marseille","lat":43.298681,"lon":5.397225,"is_reserved":false,"is_disabled":false,"rental_uris":{"android":"levelo://app?vid=9da7a875-6e1d-4587-873d-904ca3c8042a","ios":"levelo://app?vid=9da7a875-6e1d-4587-873d-904ca3c8042a"},"vehicle_type_id":"4","last_reported":1685142364,"current_range_meters":10400,"station_id":"ce4bh0h2rcd13ifvqd50","pricing_plan_id":"free"},{"bike_id":"4d10c0e5-929e-4710-8c03-e1ff207f124f","system_id":"levelo_inurba_marseille","lat":43.298681,"lon":5.397225,"is_reserved":false,"is_disabled":false,"rental_uris":{"android":"levelo://app?vid=4d10c0e5-929e-4710-8c03-e1ff207f124f","ios":"levelo://app?vid=4d10c0e5-929e-4710-8c03-e1ff207f124f"},"vehicle_type_id":"4","last_reported":1685142364,"current_range_meters":30800,"station_id":"ce4bh0h2rcd13ifvqd50","pricing_plan_id":"free"},{"bike_id":"d700810d-1a84-46f0-ab23-bd976de0ca01","system_id":"levelo_inurba_marseille","lat":43.298681,"lon":5.397225,"is_reserved":false,"is_disabled":false,"rental_uris":{"android":"levelo://app?vid=d700810d-1a84-46f0-ab23-bd976de0ca01","ios":"levelo://app?vid=d700810d-1a84-46f0-ab23-bd976de0ca01"},"vehicle_type_id":"4","last_reported":1685142364,"current_range_meters":5600,"station_id":"ce4bh0h2rcd13ifvqd50","pricing_plan_id":"free"},{"bike_id":"f51f25d6-0ef6-496e-ac0a-4b6fef334b92","system_id":"levelo_inurba_marseille","lat":43.286591,"lon":5.363346,"is_reserved":false,"is_disabled":false,"rental_uris":{"android":"levelo://app?vid=f51f25d6-0ef6-496e-ac0a-4b6fef334b92","ios":"levelo://app?vid=f51f25d6-0ef6-496e-ac0a-4b6fef334b92"},"vehicle_type_id":"4","last_reported":1685142364,"current_range_meters":18400,"station_id":"ce4bhah2rcd13ifvqej0","pricing_plan_id":"free"},{"bike_id":"c90037cd-a76f-4d3e-8909-e4e10cbd2318","system_id":"levelo_inurba_marseille","lat":43.30243,"lon":5.40062,"is_reserved":false,"is_disabled":false,"rental_uris":{"android":"levelo://app?vid=c90037cd-a76f-4d3e-8909-e4e10cbd2318","ios":"levelo://app?vid=c90037cd-a76f-4d3e-8909-e4e10cbd2318"},"vehicle_type_id":"4","last_reported":1685142364,"current_range_meters":6000,"station_id":"","pricing_plan_id":"free"},{"bike_id":"709f07da-ef7c-44a3-98cb-10b97d904ce4","system_id":"levelo_inurba_marseille","lat":43.302759,"lon":5.400793,"is_reserved":false,"is_disabled":false,"rental_uris":{"android":"levelo://app?vid=709f07da-ef7c-44a3-98cb-10b97d904ce4","ios":"levelo://app?vid=709f07da-ef7c-44a3-98cb-10b97d904ce4"},"vehicle_type_id":"4","last_reported":1685142364,"current_range_meters":4000,"station_id":"ce4bgvh2rcd13ifvqcs0","pricing_plan_id":"free"},{"bike_id":"3e2808df-2835-407b-a81f-c3d5a6a19e85","system_id":"levelo_inurba_marseille","lat":43.3024,"lon":5.40064,"is_reserved":false,"is_disabled":false,"rental_uris":{"android":"levelo://app?vid=3e2808df-2835-407b-a81f-c3d5a6a19e85","ios":"levelo://app?vid=3e2808df-2835-407b-a81f-c3d5a6a19e85"},"vehicle_type_id":"4","last_reported":1685142364,"current_range_meters":0,"station_id":"","pricing_plan_id":"free"},{"bike_id":"f9ddc6be-9649-48bf-9675-35f6871cfd7b","system_id":"levelo_inurba_marseille","lat":43.287184,"lon":5.37937,"is_reserved":false,"is_disabled":false,"rental_uris":{"android":"levelo://app?vid=f9ddc6be-9649-48bf-9675-35f6871cfd7b","ios":"levelo://app?vid=f9ddc6be-9649-48bf-9675-35f6871cfd7b"},"vehicle_type_id":"4","last_reported":1685142364,"current_range_meters":3600,"station_id":"ce4bh9p2rcd13ifvqec0","pricing_plan_id":"free"},{"bike_id":"da7fe3fc-c9bc-4fc9-b57d-c9ca98ecf3de","system_id":"levelo_inurba_marseille","lat":43.287184,"lon":5.37937,"is_reserved":false,"is_disabled":false,"rental_uris":{"android":"levelo://app?vid=da7fe3fc-c9bc-4fc9-b57d-c9ca98ecf3de","ios":"levelo://app?vid=da7fe3fc-c9bc-4fc9-b57d-c9ca98ecf3de"},"vehicle_type_id":"4","last_reported":1685142364,"current_range_meters":6000,"station_id":"ce4bh9p2rcd13ifvqec0","pricing_plan_id":"free"},{"bike_id":"b830f429-8de6-4b3d-b448-51ae7e970b1d","system_id":"levelo_inurba_marseille","lat":43.287184,"lon":5.37937,"is_reserved":false,"is_disabled":false,"rental_uris":{"android":"levelo://app?vid=b830f429-8de6-4b3d-b448-51ae7e970b1d","ios":"levelo://app?vid=b830f429-8de6-4b3d-b448-51ae7e970b1d"},"vehicle_type_id":"4","last_reported":1685142364,"current_range_meters":13600,"station_id":"ce4bh9p2rcd13ifvqec0","pricing_plan_id":"free"},{"bike_id":"25f47f24-e7cf-4d36-b790-f2cf3d18d10f","system_id":"levelo_inurba_marseille","lat":43.291994,"lon":5.392907,"is_reserved":false,"is_disabled":false,"rental_uris":{"android":"levelo://app?vid=25f47f24-e7cf-4d36-b790-f2cf3d18d10f","ios":"levelo://app?vid=25f47f24-e7cf-4d36-b790-f2cf3d18d10f"},"vehicle_type_id":"4","last_reported":1685142364,"current_range_meters":25600,"station_id":"ce4bh192rcd13ifvqdd0","pricing_plan_id":"free"},{"bike_id":"454db105-e909-46c0-85ce-46951d32743e","system_id":"levelo_inurba_marseille","lat":43.291994,"lon":5.392907,"is_reserved":false,"is_disabled":false,"rental_uris":{"android":"levelo://app?vid=454db105-e909-46c0-85ce-46951d32743e","ios":"levelo://app?vid=454db105-e909-46c0-85ce-46951d32743e"},"vehicle_type_id":"4","last_reported":1685142364,"current_range_meters":28000,"station_id":"ce4bh192rcd13ifvqdd0","pricing_plan_id":"free"},{"bike_id":"c3f8ae2f-da75-4d9f-b3ba-7824f84ddc81","system_id":"levelo_inurba_marseille","lat":43.285856,"lon":5.350771,"is_reserved":false,"is_disabled":false,"rental_uris":{"android":"levelo://app?vid=c3f8ae2f-da75-4d9f-b3ba-7824f84ddc81","ios":"levelo://app?vid=c3f8ae2f-da75-4d9f-b3ba-7824f84ddc81"},"vehicle_type_id":"4","last_reported":1685142364,"current_range_meters":18400,"station_id":"ce4bhch2rcd13ifvqeug","pricing_plan_id":"free"},{"bike_id":"06e6e26d-96ae-49d7-9878-3272901e73b0","system_id":"levelo_inurba_marseille","lat":43.286595,"lon":5.386795,"is_reserved":false,"is_disabled":false,"rental_uris":{"android":"levelo://app?vid=06e6e26d-96ae-49d7-9878-3272901e73b0","ios":"levelo://app?vid=06e6e26d-96ae-49d7-9878-3272901e73b0"},"vehicle_type_id":"4","last_reported":1685142364,"current_range_meters":400,"station_id":"ce4bh492rcd13ifvqdug","pricing_plan_id":"free"},{"bike_id":"974e396c-3fc4-4987-859b-bfc16d65ad49","system_id":"levelo_inurba_marseille","lat":43.286595,"lon":5.386795,"is_reserved":false,"is_disabled":false,"rental_uris":{"android":"levelo://app?vid=974e396c-3fc4-4987-859b-bfc16d65ad49","ios":"levelo://app?vid=974e396c-3fc4-4987-859b-bfc16d65ad49"},"vehicle_type_id":"4","last_reported":1685142364,"current_range_meters":10400,"station_id":"ce4bh492rcd13ifvqdug","pricing_plan_id":"free"},{"bike_id":"b2b4c97d-4feb-49ce-8ac2-9614480a179c","system_id":"levelo_inurba_marseille","lat":43.323464,"lon":5.406297,"is_reserved":false,"is_disabled":false,"rental_uris":{"android":"levelo://app?vid=b2b4c97d-4feb-49ce-8ac2-9614480a179c","ios":"levelo://app?vid=b2b4c97d-4feb-49ce-8ac2-9614480a179c"},"vehicle_type_id":"4","last_reported":1685142364,"current_range_meters":26400,"station_id":"ce4bhq92rcd13ifvqhjg","pricing_plan_id":"free"},{"bike_id":"5371bbd7-c92f-4fd0-bddb-eca2c7cd5808","system_id":"levelo_inurba_marseille","lat":43.323464,"lon":5.406297,"is_reserved":false,"is_disabled":false,"rental_uris":{"android":"levelo://app?vid=5371bbd7-c92f-4fd0-bddb-eca2c7cd5808","ios":"levelo://app?vid=5371bbd7-c92f-4fd0-bddb-eca2c7cd5808"},"vehicle_type_id":"4","last_reported":1685142364,"current_range_meters":31200,"station_id":"ce4bhq92rcd13ifvqhjg","pricing_plan_id":"free"},{"bike_id":"d5fd31a8-b7a4-48f5-9751-f4ba7b16e78e","system_id":"levelo_inurba_marseille","lat":43.323464,"lon":5.406297,"is_reserved":false,"is_disabled":false,"rental_uris":{"android":"levelo://app?vid=d5fd31a8-b7a4-48f5-9751-f4ba7b16e78e","ios":"levelo://app?vid=d5fd31a8-b7a4-48f5-9751-f4ba7b16e78e"},"vehicle_type_id":"4","last_reported":1685142364,"current_range_meters":31200,"station_id":"ce4bhq92rcd13ifvqhjg","pricing_plan_id":"free"},{"bike_id":"05535726-18cf-4c4e-a127-a20c64b49b2f","system_id":"levelo_inurba_marseille","lat":43.288501,"lon":5.393087,"is_reserved":false,"is_disabled":false,"rental_uris":{"android":"levelo://app?vid=05535726-18cf-4c4e-a127-a20c64b49b2f","ios":"levelo://app?vid=05535726-18cf-4c4e-a127-a20c64b49b2f"},"vehicle_type_id":"4","last_reported":1685142364,"current_range_meters":21200,"station_id":"ce4bh2p2rcd13ifvqdi0","pricing_plan_id":"free"},{"bike_id":"0b05c968-cd6a-4e95-8036-39a56cbb4427","system_id":"levelo_inurba_marseille","lat":43.2884,"lon":5.39296,"is_reserved":false,"is_disabled":false,"rental_uris":{"android":"levelo://app?vid=0b05c968-cd6a-4e95-8036-39a56cbb4427","ios":"levelo://app?vid=0b05c968-cd6a-4e95-8036-39a56cbb4427"},"vehicle_type_id":"4","last_reported":1685142364,"current_range_meters":30400,"station_id":"ce4bh2p2rcd13ifvqdi0","pricing_plan_id":"free"},{"bike_id":"a54c0a1e-47ff-4ddc-8250-f565d379869f","system_id":"levelo_inurba_marseille","lat":43.283498,"lon":5.380948,"is_reserved":false,"is_disabled":false,"rental_uris":{"android":"levelo://app?vid=a54c0a1e-47ff-4ddc-8250-f565d379869f","ios":"levelo://app?vid=a54c0a1e-47ff-4ddc-8250-f565d379869f"},"vehicle_type_id":"4","last_reported":1685142364,"current_range_meters":16800,"station_id":"ce4bh412rcd13ifvqdr0","pricing_plan_id":"free"},{"bike_id":"7a8007ab-81ef-4f23-a4b4-b0f1f0b59da8","system_id":"levelo_inurba_marseille","lat":43.284217,"lon":5.349697,"is_reserved":false,"is_disabled":false,"rental_uris":{"android":"levelo://app?vid=7a8007ab-81ef-4f23-a4b4-b0f1f0b59da8","ios":"levelo://app?vid=7a8007ab-81ef-4f23-a4b4-b0f1f0b59da8"},"vehicle_type_id":"4","last_reported":1685142364,"current_range_meters":5600,"station_id":"ce4bhbh2rcd13ifvqepg","pricing_plan_id":"free"},{"bike_id":"89e96f4b-6760-4eeb-9902-1454bc5d5a32","system_id":"levelo_inurba_marseille","lat":43.292724,"lon":5.401131,"is_reserved":false,"is_disabled":false,"rental_uris":{"android":"levelo://app?vid=89e96f4b-6760-4eeb-9902-1454bc5d5a32","ios":"levelo://app?vid=89e96f4b-6760-4eeb-9902-1454bc5d5a32"},"vehicle_type_id":"4","last_reported":1685142364,"current_range_meters":20000,"station_id":"ce4bh312rcd13ifvqdk0","pricing_plan_id":"free"},{"bike_id":"e520ef4d-d807-42dc-9bb0-762954ca27aa","system_id":"levelo_inurba_marseille","lat":43.292724,"lon":5.401131,"is_reserved":false,"is_disabled":false,"rental_uris":{"android":"levelo://app?vid=e520ef4d-d807-42dc-9bb0-762954ca27aa","ios":"levelo://app?vid=e520ef4d-d807-42dc-9bb0-762954ca27aa"},"vehicle_type_id":"4","last_reported":1685142364,"current_range_meters":21200,"station_id":"ce4bh312rcd13ifvqdk0","pricing_plan_id":"free"},{"bike_id":"9c5935b0-fdff-49bb-ba73-826a8c968ac8","system_id":"levelo_inurba_marseille","lat":43.28267,"lon":5.35057,"is_reserved":false,"is_disabled":false,"rental_uris":{"android":"levelo://app?vid=9c5935b0-fdff-49bb-ba73-826a8c968ac8","ios":"levelo://app?vid=9c5935b0-fdff-49bb-ba73-826a8c968ac8"},"vehicle_type_id":"4","last_reported":1685142364,"current_range_meters":18800,"station_id":"ce4bhbp2rcd13ifvqerg","pricing_plan_id":"free"},{"bike_id":"5357f3b5-90b4-4106-a8e4-4f9bfaea1e40","system_id":"levelo_inurba_marseille","lat":43.2826,"lon":5.35059,"is_reserved":false,"is_disabled":false,"rental_uris":{"android":"levelo://app?vid=5357f3b5-90b4-4106-a8e4-4f9bfaea1e40","ios":"levelo://app?vid=5357f3b5-90b4-4106-a8e4-4f9bfaea1e40"},"vehicle_type_id":"4","last_reported":1685142364,"current_range_meters":24400,"station_id":"ce4bhbp2rcd13ifvqerg","pricing_plan_id":"free"},{"bike_id":"4d86ce40-e406-44d0-9e2e-59dcfae65e59","system_id":"levelo_inurba_marseille","lat":43.29041,"lon":5.39947,"is_reserved":false,"is_disabled":false,"rental_uris":{"android":"levelo://app?vid=4d86ce40-e406-44d0-9e2e-59dcfae65e59","ios":"levelo://app?vid=4d86ce40-e406-44d0-9e2e-59dcfae65e59"},"vehicle_type_id":"4","last_reported":1685142364,"current_range_meters":0,"station_id":"ce4bh392rcd13ifvqdm0","pricing_plan_id":"free"},{"bike_id":"ebbe35db-eef8-45ad-a3cd-e1b62f21b52d","system_id":"levelo_inurba_marseille","lat":43.296263,"lon":5.40601,"is_reserved":false,"is_disabled":false,"rental_uris":{"android":"levelo://app?vid=ebbe35db-eef8-45ad-a3cd-e1b62f21b52d","ios":"levelo://app?vid=ebbe35db-eef8-45ad-a3cd-e1b62f21b52d"},"vehicle_type_id":"4","last_reported":1685142364,"current_range_meters":14400,"station_id":"ce4bh0h2rcd13ifvqd60","pricing_plan_id":"free"},{"bike_id":"d75c5d2c-e2c1-4449-83d9-e6ab0f3fbc7e","system_id":"levelo_inurba_marseille","lat":43.28105,"lon":5.37833,"is_reserved":false,"is_disabled":false,"rental_uris":{"android":"levelo://app?vid=d75c5d2c-e2c1-4449-83d9-e6ab0f3fbc7e","ios":"levelo://app?vid=d75c5d2c-e2c1-4449-83d9-e6ab0f3fbc7e"},"vehicle_type_id":"4","last_reported":1685142364,"current_range_meters":12800,"station_id":"ce4bha12rcd13ifvqee0","pricing_plan_id":"free"},{"bike_id":"b3c90014-3ac3-4705-93f7-60526c4323b1","system_id":"levelo_inurba_marseille","lat":43.296263,"lon":5.40601,"is_reserved":false,"is_disabled":false,"rental_uris":{"android":"levelo://app?vid=b3c90014-3ac3-4705-93f7-60526c4323b1","ios":"levelo://app?vid=b3c90014-3ac3-4705-93f7-60526c4323b1"},"vehicle_type_id":"4","last_reported":1685142364,"current_range_meters":26400,"station_id":"ce4bh0h2rcd13ifvqd60","pricing_plan_id":"free"},{"bike_id":"2f42fb67-7e50-4a9a-be8a-e4b1dab1832d","system_id":"levelo_inurba_marseille","lat":43.28105,"lon":5.37836,"is_reserved":false,"is_disabled":false,"rental_uris":{"android":"levelo://app?vid=2f42fb67-7e50-4a9a-be8a-e4b1dab1832d","ios":"levelo://app?vid=2f42fb67-7e50-4a9a-be8a-e4b1dab1832d"},"vehicle_type_id":"4","last_reported":1685142364,"current_range_meters":8000,"station_id":"ce4bha12rcd13ifvqee0","pricing_plan_id":"free"},{"bike_id":"706e6d23-2dfe-4e81-b82a-316ebd97974f","system_id":"levelo_inurba_marseille","lat":43.28105,"lon":5.37839,"is_reserved":false,"is_disabled":false,"rental_uris":{"android":"levelo://app?vid=706e6d23-2dfe-4e81-b82a-316ebd97974f","ios":"levelo://app?vid=706e6d23-2dfe-4e81-b82a-316ebd97974f"},"vehicle_type_id":"4","last_reported":1685142364,"current_range_meters":13600,"station_id":"ce4bha12rcd13ifvqee0","pricing_plan_id":"free"},{"bike_id":"02a6fc98-a76d-410e-847a-f73467d55c6f","system_id":"levelo_inurba_marseille","lat":43.296263,"lon":5.40601,"is_reserved":false,"is_disabled":false,"rental_uris":{"android":"levelo://app?vid=02a6fc98-a76d-410e-847a-f73467d55c6f","ios":"levelo://app?vid=02a6fc98-a76d-410e-847a-f73467d55c6f"},"vehicle_type_id":"4","last_reported":1685142364,"current_range_meters":9200,"station_id":"ce4bh0h2rcd13ifvqd60","pricing_plan_id":"free"},{"bike_id":"dd539151-9889-4d1c-bf4b-668228a4c597","system_id":"levelo_inurba_marseille","lat":43.296263,"lon":5.40601,"is_reserved":false,"is_disabled":false,"rental_uris":{"android":"levelo://app?vid=dd539151-9889-4d1c-bf4b-668228a4c597","ios":"levelo://app?vid=dd539151-9889-4d1c-bf4b-668228a4c597"},"vehicle_type_id":"4","last_reported":1685142364,"current_range_meters":21600,"station_id":"ce4bh0h2rcd13ifvqd60","pricing_plan_id":"free"},{"bike_id":"df03f69d-d32b-49e2-8dcc-c0beceb30041","system_id":"levelo_inurba_marseille","lat":43.28099,"lon":5.3784,"is_reserved":false,"is_disabled":false,"rental_uris":{"android":"levelo://app?vid=df03f69d-d32b-49e2-8dcc-c0beceb30041","ios":"levelo://app?vid=df03f69d-d32b-49e2-8dcc-c0beceb30041"},"vehicle_type_id":"4","last_reported":1685142364,"current_range_meters":17200,"station_id":"ce4bha12rcd13ifvqee0","pricing_plan_id":"free"},{"bike_id":"976254bc-d84c-40e7-88b6-52c03416c965","system_id":"levelo_inurba_marseille","lat":43.32136,"lon":5.41078,"is_reserved":false,"is_disabled":false,"rental_uris":{"android":"levelo://app?vid=976254bc-d84c-40e7-88b6-52c03416c965","ios":"levelo://app?vid=976254bc-d84c-40e7-88b6-52c03416c965"},"vehicle_type_id":"4","last_reported":1685142364,"current_range_meters":10800,"station_id":"","pricing_plan_id":"free"},{"bike_id":"c9890851-61ba-4366-b00a-e964dbe97002","system_id":"levelo_inurba_marseille","lat":43.284462,"lon":5.392121,"is_reserved":false,"is_disabled":false,"rental_uris":{"android":"levelo://app?vid=c9890851-61ba-4366-b00a-e964dbe97002","ios":"levelo://app?vid=c9890851-61ba-4366-b00a-e964dbe97002"},"vehicle_type_id":"4","last_reported":1685142364,"current_range_meters":800,"station_id":"ce4bhoh2rcd13ifvqh5g","pricing_plan_id":"free"},{"bike_id":"a64971d0-cbb1-4172-819f-6cbf335f6a4c","system_id":"levelo_inurba_marseille","lat":43.28573,"lon":5.394992,"is_reserved":false,"is_disabled":false,"rental_uris":{"android":"levelo://app?vid=a64971d0-cbb1-4172-819f-6cbf335f6a4c","ios":"levelo://app?vid=a64971d0-cbb1-4172-819f-6cbf335f6a4c"},"vehicle_type_id":"4","last_reported":1685142364,"current_range_meters":5200,"station_id":"ce4bh292rcd13ifvqdg0","pricing_plan_id":"free"},{"bike_id":"7e66b6b5-700c-4328-a5da-b67e1e8507c9","system_id":"levelo_inurba_marseille","lat":43.284462,"lon":5.392121,"is_reserved":false,"is_disabled":false,"rental_uris":{"android":"levelo://app?vid=7e66b6b5-700c-4328-a5da-b67e1e8507c9","ios":"levelo://app?vid=7e66b6b5-700c-4328-a5da-b67e1e8507c9"},"vehicle_type_id":"4","last_reported":1685142364,"current_range_meters":0,"station_id":"ce4bhoh2rcd13ifvqh5g","pricing_plan_id":"free"},{"bike_id":"e3a68845-096f-484e-a2eb-a878577c5104","system_id":"levelo_inurba_marseille","lat":43.284462,"lon":5.392121,"is_reserved":false,"is_disabled":false,"rental_uris":{"android":"levelo://app?vid=e3a68845-096f-484e-a2eb-a878577c5104","ios":"levelo://app?vid=e3a68845-096f-484e-a2eb-a878577c5104"},"vehicle_type_id":"4","last_reported":1685142364,"current_range_meters":0,"station_id":"ce4bhoh2rcd13ifvqh5g","pricing_plan_id":"free"},{"bike_id":"3bee7284-f2b3-4c4e-ab2b-e118cf93a7f2","system_id":"levelo_inurba_marseille","lat":43.278401,"lon":5.392152,"is_reserved":false,"is_disabled":false,"rental_uris":{"android":"levelo://app?vid=3bee7284-f2b3-4c4e-ab2b-e118cf93a7f2","ios":"levelo://app?vid=3bee7284-f2b3-4c4e-ab2b-e118cf93a7f2"},"vehicle_type_id":"4","last_reported":1685142364,"current_range_meters":2800,"station_id":"ce4bhjp2rcd13ifvqga0","pricing_plan_id":"free"},{"bike_id":"3d6afcea-6ab8-4617-bbdf-9ad70ac4187b","system_id":"levelo_inurba_marseille","lat":43.304188,"lon":5.412904,"is_reserved":false,"is_disabled":false,"rental_uris":{"android":"levelo://app?vid=3d6afcea-6ab8-4617-bbdf-9ad70ac4187b","ios":"levelo://app?vid=3d6afcea-6ab8-4617-bbdf-9ad70ac4187b"},"vehicle_type_id":"4","last_reported":1685142364,"current_range_meters":11200,"station_id":"ce4bhop2rcd13ifvqh8g","pricing_plan_id":"free"},{"bike_id":"12ed4811-d4f0-43aa-9a13-aa3cc3c6a097","system_id":"levelo_inurba_marseille","lat":43.27907,"lon":5.37997,"is_reserved":false,"is_disabled":false,"rental_uris":{"android":"levelo://app?vid=12ed4811-d4f0-43aa-9a13-aa3cc3c6a097","ios":"levelo://app?vid=12ed4811-d4f0-43aa-9a13-aa3cc3c6a097"},"vehicle_type_id":"4","last_reported":1685142364,"current_range_meters":0,"station_id":"","pricing_plan_id":"free"},{"bike_id":"9141fa08-2742-4e51-9f6a-3c7faafab04b","system_id":"levelo_inurba_marseille","lat":43.287154,"lon":5.399979,"is_reserved":false,"is_disabled":false,"rental_uris":{"android":"levelo://app?vid=9141fa08-2742-4e51-9f6a-3c7faafab04b","ios":"levelo://app?vid=9141fa08-2742-4e51-9f6a-3c7faafab04b"},"vehicle_type_id":"4","last_reported":1685142364,"current_range_meters":30000,"station_id":"ce4bho92rcd13ifvqh3g","pricing_plan_id":"free"},{"bike_id":"43dcc7f7-48f1-404c-b9e5-cfdfde26f758","system_id":"levelo_inurba_marseille","lat":43.287154,"lon":5.399979,"is_reserved":false,"is_disabled":false,"rental_uris":{"android":"levelo://app?vid=43dcc7f7-48f1-404c-b9e5-cfdfde26f758","ios":"levelo://app?vid=43dcc7f7-48f1-404c-b9e5-cfdfde26f758"},"vehicle_type_id":"4","last_reported":1685142364,"current_range_meters":7200,"station_id":"ce4bho92rcd13ifvqh3g","pricing_plan_id":"free"},{"bike_id":"262dbbd3-9fa9-4a78-845b-a8f6a77c68bc","system_id":"levelo_inurba_marseille","lat":43.287154,"lon":5.399979,"is_reserved":false,"is_disabled":false,"rental_uris":{"android":"levelo://app?vid=262dbbd3-9fa9-4a78-845b-a8f6a77c68bc","ios":"levelo://app?vid=262dbbd3-9fa9-4a78-845b-a8f6a77c68bc"},"vehicle_type_id":"4","last_reported":1685142364,"current_range_meters":2000,"station_id":"ce4bho92rcd13ifvqh3g","pricing_plan_id":"free"},{"bike_id":"d5481f23-2e90-49e5-90f9-50629faff775","system_id":"levelo_inurba_marseille","lat":43.287154,"lon":5.399979,"is_reserved":false,"is_disabled":false,"rental_uris":{"android":"levelo://app?vid=d5481f23-2e90-49e5-90f9-50629faff775","ios":"levelo://app?vid=d5481f23-2e90-49e5-90f9-50629faff775"},"vehicle_type_id":"4","last_reported":1685142364,"current_range_meters":31200,"station_id":"ce4bho92rcd13ifvqh3g","pricing_plan_id":"free"},{"bike_id":"4fcbbd2a-fd77-4b8b-8966-4187f423eae8","system_id":"levelo_inurba_marseille","lat":43.287154,"lon":5.399979,"is_reserved":false,"is_disabled":false,"rental_uris":{"android":"levelo://app?vid=4fcbbd2a-fd77-4b8b-8966-4187f423eae8","ios":"levelo://app?vid=4fcbbd2a-fd77-4b8b-8966-4187f423eae8"},"vehicle_type_id":"4","last_reported":1685142364,"current_range_meters":4400,"station_id":"ce4bho92rcd13ifvqh3g","pricing_plan_id":"free"},{"bike_id":"cb956b86-65f4-4da8-b5c5-c7452cd50080","system_id":"levelo_inurba_marseille","lat":43.287154,"lon":5.399979,"is_reserved":false,"is_disabled":false,"rental_uris":{"android":"levelo://app?vid=cb956b86-65f4-4da8-b5c5-c7452cd50080","ios":"levelo://app?vid=cb956b86-65f4-4da8-b5c5-c7452cd50080"},"vehicle_type_id":"4","last_reported":1685142364,"current_range_meters":21200,"station_id":"ce4bho92rcd13ifvqh3g","pricing_plan_id":"free"},{"bike_id":"6ced8e10-0f5d-426c-94e4-36e0006b0884","system_id":"levelo_inurba_marseille","lat":43.287154,"lon":5.399979,"is_reserved":false,"is_disabled":false,"rental_uris":{"android":"levelo://app?vid=6ced8e10-0f5d-426c-94e4-36e0006b0884","ios":"levelo://app?vid=6ced8e10-0f5d-426c-94e4-36e0006b0884"},"vehicle_type_id":"4","last_reported":1685142364,"current_range_meters":30400,"station_id":"ce4bho92rcd13ifvqh3g","pricing_plan_id":"free"},{"bike_id":"ac3963b2-be8c-498c-ae2f-09e027148ade","system_id":"levelo_inurba_marseille","lat":43.287061,"lon":5.399911,"is_reserved":false,"is_disabled":false,"rental_uris":{"android":"levelo://app?vid=ac3963b2-be8c-498c-ae2f-09e027148ade","ios":"levelo://app?vid=ac3963b2-be8c-498c-ae2f-09e027148ade"},"vehicle_type_id":"4","last_reported":1685142364,"current_range_meters":7200,"station_id":"","pricing_plan_id":"free"},{"bike_id":"ede29c99-b1e0-423e-9d45-e216622c8664","system_id":"levelo_inurba_marseille","lat":43.287154,"lon":5.399979,"is_reserved":false,"is_disabled":false,"rental_uris":{"android":"levelo://app?vid=ede29c99-b1e0-423e-9d45-e216622c8664","ios":"levelo://app?vid=ede29c99-b1e0-423e-9d45-e216622c8664"},"vehicle_type_id":"4","last_reported":1685142364,"current_range_meters":3600,"station_id":"ce4bho92rcd13ifvqh3g","pricing_plan_id":"free"},{"bike_id":"4208cf45-bfb2-42b4-a59e-2d870a44089d","system_id":"levelo_inurba_marseille","lat":43.287154,"lon":5.399979,"is_reserved":false,"is_disabled":false,"rental_uris":{"android":"levelo://app?vid=4208cf45-bfb2-42b4-a59e-2d870a44089d","ios":"levelo://app?vid=4208cf45-bfb2-42b4-a59e-2d870a44089d"},"vehicle_type_id":"4","last_reported":1685142364,"current_range_meters":2800,"station_id":"ce4bho92rcd13ifvqh3g","pricing_plan_id":"free"},{"bike_id":"0fae5c3c-8cda-4fed-bb9d-5de0527d7332","system_id":"levelo_inurba_marseille","lat":43.279742,"lon":5.38744,"is_reserved":false,"is_disabled":false,"rental_uris":{"android":"levelo://app?vid=0fae5c3c-8cda-4fed-bb9d-5de0527d7332","ios":"levelo://app?vid=0fae5c3c-8cda-4fed-bb9d-5de0527d7332"},"vehicle_type_id":"4","last_reported":1685142364,"current_range_meters":0,"station_id":"ce4bhg12rcd13ifvqf80","pricing_plan_id":"free"},{"bike_id":"2ae5ada2-7875-4056-a935-955d6e721c13","system_id":"levelo_inurba_marseille","lat":43.320045,"lon":5.415046,"is_reserved":false,"is_disabled":false,"rental_uris":{"android":"levelo://app?vid=2ae5ada2-7875-4056-a935-955d6e721c13","ios":"levelo://app?vid=2ae5ada2-7875-4056-a935-955d6e721c13"},"vehicle_type_id":"4","last_reported":1685142364,"current_range_meters":10800,"station_id":"ce4bhq92rcd13ifvqhkg","pricing_plan_id":"free"},{"bike_id":"135aefec-8cce-4af4-ac8d-109c9598d86c","system_id":"levelo_inurba_marseille","lat":43.279742,"lon":5.38744,"is_reserved":false,"is_disabled":false,"rental_uris":{"android":"levelo://app?vid=135aefec-8cce-4af4-ac8d-109c9598d86c","ios":"levelo://app?vid=135aefec-8cce-4af4-ac8d-109c9598d86c"},"vehicle_type_id":"4","last_reported":1685142364,"current_range_meters":5600,"station_id":"ce4bhg12rcd13ifvqf80","pricing_plan_id":"free"},{"bike_id":"3cb4d181-b72e-4846-9b16-a561cee71083","system_id":"levelo_inurba_marseille","lat":43.278401,"lon":5.392152,"is_reserved":false,"is_disabled":false,"rental_uris":{"android":"levelo://app?vid=3cb4d181-b72e-4846-9b16-a561cee71083","ios":"levelo://app?vid=3cb4d181-b72e-4846-9b16-a561cee71083"},"vehicle_type_id":"4","last_reported":1685142364,"current_range_meters":10000,"station_id":"ce4bhjp2rcd13ifvqga0","pricing_plan_id":"free"},{"bike_id":"e3ea8822-ee12-4363-a348-8c95c9a72bf9","system_id":"levelo_inurba_marseille","lat":43.30448,"lon":5.41991,"is_reserved":false,"is_disabled":false,"rental_uris":{"android":"levelo://app?vid=e3ea8822-ee12-4363-a348-8c95c9a72bf9","ios":"levelo://app?vid=e3ea8822-ee12-4363-a348-8c95c9a72bf9"},"vehicle_type_id":"4","last_reported":1685142364,"current_range_meters":20800,"station_id":"","pricing_plan_id":"free"},{"bike_id":"163fad4d-bd56-4a07-8a23-1a46296f67f7","system_id":"levelo_inurba_marseille","lat":43.317121,"lon":5.423936,"is_reserved":false,"is_disabled":false,"rental_uris":{"android":"levelo://app?vid=163fad4d-bd56-4a07-8a23-1a46296f67f7","ios":"levelo://app?vid=163fad4d-bd56-4a07-8a23-1a46296f67f7"},"vehicle_type_id":"4","last_reported":1685142364,"current_range_meters":20800,"station_id":"ce4bhp92rcd13ifvqhbg","pricing_plan_id":"free"},{"bike_id":"861329e4-ad11-429d-b8ea-90476abd2c56","system_id":"levelo_inurba_marseille","lat":43.317121,"lon":5.423936,"is_reserved":false,"is_disabled":false,"rental_uris":{"android":"levelo://app?vid=861329e4-ad11-429d-b8ea-90476abd2c56","ios":"levelo://app?vid=861329e4-ad11-429d-b8ea-90476abd2c56"},"vehicle_type_id":"4","last_reported":1685142364,"current_range_meters":6000,"station_id":"ce4bhp92rcd13ifvqhbg","pricing_plan_id":"free"},{"bike_id":"1b3a9706-1d75-49da-b04f-a8d2d21f8a41","system_id":"levelo_inurba_marseille","lat":43.31084,"lon":5.42427,"is_reserved":false,"is_disabled":false,"rental_uris":{"android":"levelo://app?vid=1b3a9706-1d75-49da-b04f-a8d2d21f8a41","ios":"levelo://app?vid=1b3a9706-1d75-49da-b04f-a8d2d21f8a41"},"vehicle_type_id":"4","last_reported":1685142364,"current_range_meters":28000,"station_id":"ce4bhp92rcd13ifvqhag","pricing_plan_id":"free"},{"bike_id":"465a24c4-7fb8-4fe2-99e5-9c8cd6870d6a","system_id":"levelo_inurba_marseille","lat":43.31083,"lon":5.42428,"is_reserved":false,"is_disabled":false,"rental_uris":{"android":"levelo://app?vid=465a24c4-7fb8-4fe2-99e5-9c8cd6870d6a","ios":"levelo://app?vid=465a24c4-7fb8-4fe2-99e5-9c8cd6870d6a"},"vehicle_type_id":"4","last_reported":1685142364,"current_range_meters":15200,"station_id":"ce4bhp92rcd13ifvqhag","pricing_plan_id":"free"},{"bike_id":"25e6c62a-239c-4bb1-9cdd-05ae9326c2e5","system_id":"levelo_inurba_marseille","lat":43.31081,"lon":5.42429,"is_reserved":false,"is_disabled":false,"rental_uris":{"android":"levelo://app?vid=25e6c62a-239c-4bb1-9cdd-05ae9326c2e5","ios":"levelo://app?vid=25e6c62a-239c-4bb1-9cdd-05ae9326c2e5"},"vehicle_type_id":"4","last_reported":1685142364,"current_range_meters":17600,"station_id":"ce4bhp92rcd13ifvqhag","pricing_plan_id":"free"},{"bike_id":"aa48024b-638e-4c91-8341-bb88b8e8aa05","system_id":"levelo_inurba_marseille","lat":43.295511,"lon":5.422926,"is_reserved":false,"is_disabled":false,"rental_uris":{"android":"levelo://app?vid=aa48024b-638e-4c91-8341-bb88b8e8aa05","ios":"levelo://app?vid=aa48024b-638e-4c91-8341-bb88b8e8aa05"},"vehicle_type_id":"4","last_reported":1685142364,"current_range_meters":0,"station_id":"ce4bhph2rcd13ifvqhdg","pricing_plan_id":"free"},{"bike_id":"6d713c6e-b9c6-4bb9-9970-dd3ec8ae03ba","system_id":"levelo_inurba_marseille","lat":43.295511,"lon":5.422926,"is_reserved":false,"is_disabled":false,"rental_uris":{"android":"levelo://app?vid=6d713c6e-b9c6-4bb9-9970-dd3ec8ae03ba","ios":"levelo://app?vid=6d713c6e-b9c6-4bb9-9970-dd3ec8ae03ba"},"vehicle_type_id":"4","last_reported":1685142364,"current_range_meters":5200,"station_id":"ce4bhph2rcd13ifvqhdg","pricing_plan_id":"free"},{"bike_id":"de79f32b-5b48-49af-978b-7aeae2c3cc2e","system_id":"levelo_inurba_marseille","lat":43.295523,"lon":5.422926,"is_reserved":false,"is_disabled":false,"rental_uris":{"android":"levelo://app?vid=de79f32b-5b48-49af-978b-7aeae2c3cc2e","ios":"levelo://app?vid=de79f32b-5b48-49af-978b-7aeae2c3cc2e"},"vehicle_type_id":"4","last_reported":1685142364,"current_range_meters":0,"station_id":"ce4bhph2rcd13ifvqhdg","pricing_plan_id":"free"},{"bike_id":"50706940-6398-4557-8706-67cebd7fd3aa","system_id":"levelo_inurba_marseille","lat":43.2721,"lon":5.39185,"is_reserved":false,"is_disabled":false,"rental_uris":{"android":"levelo://app?vid=50706940-6398-4557-8706-67cebd7fd3aa","ios":"levelo://app?vid=50706940-6398-4557-8706-67cebd7fd3aa"},"vehicle_type_id":"4","last_reported":1685142364,"current_range_meters":0,"station_id":"ce4bhhp2rcd13ifvqfm0","pricing_plan_id":"free"},{"bike_id":"8e31ad95-1f20-4617-98f8-eed31bc66ca3","system_id":"levelo_inurba_marseille","lat":43.278128,"lon":5.407195,"is_reserved":false,"is_disabled":false,"rental_uris":{"android":"levelo://app?vid=8e31ad95-1f20-4617-98f8-eed31bc66ca3","ios":"levelo://app?vid=8e31ad95-1f20-4617-98f8-eed31bc66ca3"},"vehicle_type_id":"4","last_reported":1685142364,"current_range_meters":6400,"station_id":"ce4bhnh2rcd13ifvqgtg","pricing_plan_id":"free"},{"bike_id":"de3a8f84-22e2-4639-8b7c-600a488f198b","system_id":"levelo_inurba_marseille","lat":43.27813,"lon":5.40708,"is_reserved":false,"is_disabled":false,"rental_uris":{"android":"levelo://app?vid=de3a8f84-22e2-4639-8b7c-600a488f198b","ios":"levelo://app?vid=de3a8f84-22e2-4639-8b7c-600a488f198b"},"vehicle_type_id":"4","last_reported":1685142364,"current_range_meters":18400,"station_id":"ce4bhnh2rcd13ifvqgtg","pricing_plan_id":"free"},{"bike_id":"ab960695-bb73-4430-bd6c-3f5b51e7531f","system_id":"levelo_inurba_marseille","lat":43.278128,"lon":5.407195,"is_reserved":false,"is_disabled":false,"rental_uris":{"android":"levelo://app?vid=ab960695-bb73-4430-bd6c-3f5b51e7531f","ios":"levelo://app?vid=ab960695-bb73-4430-bd6c-3f5b51e7531f"},"vehicle_type_id":"4","last_reported":1685142364,"current_range_meters":27200,"station_id":"ce4bhnh2rcd13ifvqgtg","pricing_plan_id":"free"},{"bike_id":"25271acb-97f4-4ad9-960f-72cc8d401c92","system_id":"levelo_inurba_marseille","lat":43.278128,"lon":5.407195,"is_reserved":false,"is_disabled":false,"rental_uris":{"android":"levelo://app?vid=25271acb-97f4-4ad9-960f-72cc8d401c92","ios":"levelo://app?vid=25271acb-97f4-4ad9-960f-72cc8d401c92"},"vehicle_type_id":"4","last_reported":1685142364,"current_range_meters":0,"station_id":"ce4bhnh2rcd13ifvqgtg","pricing_plan_id":"free"},{"bike_id":"7abe2a19-f858-4e9c-9973-b0953bfb83f2","system_id":"levelo_inurba_marseille","lat":43.269467,"lon":5.386439,"is_reserved":false,"is_disabled":false,"rental_uris":{"android":"levelo://app?vid=7abe2a19-f858-4e9c-9973-b0953bfb83f2","ios":"levelo://app?vid=7abe2a19-f858-4e9c-9973-b0953bfb83f2"},"vehicle_type_id":"4","last_reported":1685142364,"current_range_meters":10000,"station_id":"ce4bhh92rcd13ifvqfh0","pricing_plan_id":"free"},{"bike_id":"dea5ccc9-39c4-41d8-bcdb-94e3906a7f2f","system_id":"levelo_inurba_marseille","lat":43.269467,"lon":5.386439,"is_reserved":false,"is_disabled":false,"rental_uris":{"android":"levelo://app?vid=dea5ccc9-39c4-41d8-bcdb-94e3906a7f2f","ios":"levelo://app?vid=dea5ccc9-39c4-41d8-bcdb-94e3906a7f2f"},"vehicle_type_id":"4","last_reported":1685142364,"current_range_meters":0,"station_id":"ce4bhh92rcd13ifvqfh0","pricing_plan_id":"free"},{"bike_id":"32688e47-734b-4009-b026-1325ac36bcde","system_id":"levelo_inurba_marseille","lat":43.26681,"lon":5.382694,"is_reserved":false,"is_disabled":false,"rental_uris":{"android":"levelo://app?vid=32688e47-734b-4009-b026-1325ac36bcde","ios":"levelo://app?vid=32688e47-734b-4009-b026-1325ac36bcde"},"vehicle_type_id":"4","last_reported":1685142364,"current_range_meters":0,"station_id":"ce4bhg92rcd13ifvqf90","pricing_plan_id":"free"},{"bike_id":"8f493818-f303-4cf1-8240-4de5c23d40d2","system_id":"levelo_inurba_marseille","lat":43.27996,"lon":5.416624,"is_reserved":false,"is_disabled":false,"rental_uris":{"android":"levelo://app?vid=8f493818-f303-4cf1-8240-4de5c23d40d2","ios":"levelo://app?vid=8f493818-f303-4cf1-8240-4de5c23d40d2"},"vehicle_type_id":"4","last_reported":1685142364,"current_range_meters":21600,"station_id":"ce4bho12rcd13ifvqh1g","pricing_plan_id":"free"},{"bike_id":"eb1e7463-04a7-4eb1-b297-dd018c79d527","system_id":"levelo_inurba_marseille","lat":43.30794,"lon":5.43518,"is_reserved":false,"is_disabled":false,"rental_uris":{"android":"levelo://app?vid=eb1e7463-04a7-4eb1-b297-dd018c79d527","ios":"levelo://app?vid=eb1e7463-04a7-4eb1-b297-dd018c79d527"},"vehicle_type_id":"4","last_reported":1685142364,"current_range_meters":0,"station_id":"","pricing_plan_id":"free"},{"bike_id":"b35a7040-bbda-43db-9397-f046555e255b","system_id":"levelo_inurba_marseille","lat":43.30798,"lon":5.43521,"is_reserved":false,"is_disabled":false,"rental_uris":{"android":"levelo://app?vid=b35a7040-bbda-43db-9397-f046555e255b","ios":"levelo://app?vid=b35a7040-bbda-43db-9397-f046555e255b"},"vehicle_type_id":"4","last_reported":1685142364,"current_range_meters":22400,"station_id":"","pricing_plan_id":"free"},{"bike_id":"c4a37d8e-056c-4196-a8ac-4655f442a076","system_id":"levelo_inurba_marseille","lat":43.261782,"lon":5.374515,"is_reserved":false,"is_disabled":false,"rental_uris":{"android":"levelo://app?vid=c4a37d8e-056c-4196-a8ac-4655f442a076","ios":"levelo://app?vid=c4a37d8e-056c-4196-a8ac-4655f442a076"},"vehicle_type_id":"4","last_reported":1685142364,"current_range_meters":5600,"station_id":"ce4bhgp2rcd13ifvqfc0","pricing_plan_id":"free"},{"bike_id":"97f92444-dc7f-4ac8-885e-43ac50454dc0","system_id":"levelo_inurba_marseille","lat":43.31709,"lon":5.43695,"is_reserved":false,"is_disabled":false,"rental_uris":{"android":"levelo://app?vid=97f92444-dc7f-4ac8-885e-43ac50454dc0","ios":"levelo://app?vid=97f92444-dc7f-4ac8-885e-43ac50454dc0"},"vehicle_type_id":"4","last_reported":1685142364,"current_range_meters":0,"station_id":"ce4bhp92rcd13ifvqhcg","pricing_plan_id":"free"},{"bike_id":"da1b46c5-324d-40e2-abc5-419e4221fc12","system_id":"levelo_inurba_marseille","lat":43.317104,"lon":5.436818,"is_reserved":false,"is_disabled":false,"rental_uris":{"android":"levelo://app?vid=da1b46c5-324d-40e2-abc5-419e4221fc12","ios":"levelo://app?vid=da1b46c5-324d-40e2-abc5-419e4221fc12"},"vehicle_type_id":"4","last_reported":1685142364,"current_range_meters":28400,"station_id":"ce4bhp92rcd13ifvqhcg","pricing_plan_id":"free"},{"bike_id":"a40b814c-8d11-48f9-af9c-8f2d70505adb","system_id":"levelo_inurba_marseille","lat":43.31705,"lon":5.43705,"is_reserved":false,"is_disabled":false,"rental_uris":{"android":"levelo://app?vid=a40b814c-8d11-48f9-af9c-8f2d70505adb","ios":"levelo://app?vid=a40b814c-8d11-48f9-af9c-8f2d70505adb"},"vehicle_type_id":"4","last_reported":1685142364,"current_range_meters":24800,"station_id":"ce4bhp92rcd13ifvqhcg","pricing_plan_id":"free"},{"bike_id":"677fe151-801a-4d73-9e92-e9bc07905498","system_id":"levelo_inurba_marseille","lat":43.31718,"lon":5.43707,"is_reserved":false,"is_disabled":false,"rental_uris":{"android":"levelo://app?vid=677fe151-801a-4d73-9e92-e9bc07905498","ios":"levelo://app?vid=677fe151-801a-4d73-9e92-e9bc07905498"},"vehicle_type_id":"4","last_reported":1685142364,"current_range_meters":29600,"station_id":"ce4bhp92rcd13ifvqhcg","pricing_plan_id":"free"},{"bike_id":"20f577de-5147-4873-9845-df04d4fb0009","system_id":"levelo_inurba_marseille","lat":43.317104,"lon":5.436818,"is_reserved":false,"is_disabled":false,"rental_uris":{"android":"levelo://app?vid=20f577de-5147-4873-9845-df04d4fb0009","ios":"levelo://app?vid=20f577de-5147-4873-9845-df04d4fb0009"},"vehicle_type_id":"4","last_reported":1685142364,"current_range_meters":17200,"station_id":"ce4bhp92rcd13ifvqhcg","pricing_plan_id":"free"},{"bike_id":"2fcb005b-eb15-46f5-bc53-9d2cc35779da","system_id":"levelo_inurba_marseille","lat":43.271388,"lon":5.409269,"is_reserved":false,"is_disabled":false,"rental_uris":{"android":"levelo://app?vid=2fcb005b-eb15-46f5-bc53-9d2cc35779da","ios":"levelo://app?vid=2fcb005b-eb15-46f5-bc53-9d2cc35779da"},"vehicle_type_id":"4","last_reported":1685142364,"current_range_meters":13600,"station_id":"ce4bhl12rcd13ifvqgf0","pricing_plan_id":"free"},{"bike_id":"a7888e89-b39a-43b1-b69c-1f8318600eee","system_id":"levelo_inurba_marseille","lat":43.267959,"lon":5.402687,"is_reserved":false,"is_disabled":false,"rental_uris":{"android":"levelo://app?vid=a7888e89-b39a-43b1-b69c-1f8318600eee","ios":"levelo://app?vid=a7888e89-b39a-43b1-b69c-1f8318600eee"},"vehicle_type_id":"4","last_reported":1685142364,"current_range_meters":6000,"station_id":"ce501612rcd8frsf0b60","pricing_plan_id":"free"},{"bike_id":"c0b1d61f-95d0-43f1-8852-8a7f67e94801","system_id":"levelo_inurba_marseille","lat":43.267959,"lon":5.402687,"is_reserved":false,"is_disabled":false,"rental_uris":{"android":"levelo://app?vid=c0b1d61f-95d0-43f1-8852-8a7f67e94801","ios":"levelo://app?vid=c0b1d61f-95d0-43f1-8852-8a7f67e94801"},"vehicle_type_id":"4","last_reported":1685142364,"current_range_meters":31200,"station_id":"ce501612rcd8frsf0b60","pricing_plan_id":"free"},{"bike_id":"e6f0d5a2-53e3-4624-b094-33844a880739","system_id":"levelo_inurba_marseille","lat":43.267959,"lon":5.402685,"is_reserved":false,"is_disabled":false,"rental_uris":{"android":"levelo://app?vid=e6f0d5a2-53e3-4624-b094-33844a880739","ios":"levelo://app?vid=e6f0d5a2-53e3-4624-b094-33844a880739"},"vehicle_type_id":"4","last_reported":1685142364,"current_range_meters":17200,"station_id":"ce501612rcd8frsf0b60","pricing_plan_id":"free"},{"bike_id":"7018540e-22fd-4855-9d5d-6d4e9895522b","system_id":"levelo_inurba_marseille","lat":43.267959,"lon":5.402687,"is_reserved":false,"is_disabled":false,"rental_uris":{"android":"levelo://app?vid=7018540e-22fd-4855-9d5d-6d4e9895522b","ios":"levelo://app?vid=7018540e-22fd-4855-9d5d-6d4e9895522b"},"vehicle_type_id":"4","last_reported":1685142364,"current_range_meters":1200,"station_id":"ce501612rcd8frsf0b60","pricing_plan_id":"free"},{"bike_id":"a09c2fb7-fa01-4ddb-ade6-04db0857aafa","system_id":"levelo_inurba_marseille","lat":43.267959,"lon":5.402687,"is_reserved":false,"is_disabled":false,"rental_uris":{"android":"levelo://app?vid=a09c2fb7-fa01-4ddb-ade6-04db0857aafa","ios":"levelo://app?vid=a09c2fb7-fa01-4ddb-ade6-04db0857aafa"},"vehicle_type_id":"4","last_reported":1685142364,"current_range_meters":4800,"station_id":"ce501612rcd8frsf0b60","pricing_plan_id":"free"},{"bike_id":"625cf51e-ab1a-4754-ae5a-a72655adf3ff","system_id":"levelo_inurba_marseille","lat":43.29896,"lon":5.43655,"is_reserved":false,"is_disabled":false,"rental_uris":{"android":"levelo://app?vid=625cf51e-ab1a-4754-ae5a-a72655adf3ff","ios":"levelo://app?vid=625cf51e-ab1a-4754-ae5a-a72655adf3ff"},"vehicle_type_id":"4","last_reported":1685142364,"current_range_meters":10000,"station_id":"ce4bhpp2rcd13ifvqhfg","pricing_plan_id":"free"},{"bike_id":"141abb9c-baa0-4410-bbbc-e3f6497daf31","system_id":"levelo_inurba_marseille","lat":43.29897,"lon":5.43657,"is_reserved":false,"is_disabled":false,"rental_uris":{"android":"levelo://app?vid=141abb9c-baa0-4410-bbbc-e3f6497daf31","ios":"levelo://app?vid=141abb9c-baa0-4410-bbbc-e3f6497daf31"},"vehicle_type_id":"4","last_reported":1685142364,"current_range_meters":5600,"station_id":"ce4bhpp2rcd13ifvqhfg","pricing_plan_id":"free"},{"bike_id":"4e1b86b6-b12c-441f-b5c1-ba0a90fca197","system_id":"levelo_inurba_marseille","lat":43.298768,"lon":5.43643,"is_reserved":false,"is_disabled":false,"rental_uris":{"android":"levelo://app?vid=4e1b86b6-b12c-441f-b5c1-ba0a90fca197","ios":"levelo://app?vid=4e1b86b6-b12c-441f-b5c1-ba0a90fca197"},"vehicle_type_id":"4","last_reported":1685142364,"current_range_meters":30400,"station_id":"ce4bhpp2rcd13ifvqhfg","pricing_plan_id":"free"},{"bike_id":"dde9f2f0-56ac-4fd7-8d1e-ed84b13d9718","system_id":"levelo_inurba_marseille","lat":43.29897,"lon":5.4366,"is_reserved":false,"is_disabled":false,"rental_uris":{"android":"levelo://app?vid=dde9f2f0-56ac-4fd7-8d1e-ed84b13d9718","ios":"levelo://app?vid=dde9f2f0-56ac-4fd7-8d1e-ed84b13d9718"},"vehicle_type_id":"4","last_reported":1685142364,"current_range_meters":29600,"station_id":"ce4bhpp2rcd13ifvqhfg","pricing_plan_id":"free"},{"bike_id":"2bbf39e5-5485-4880-b9ce-9ba5fff1a707","system_id":"levelo_inurba_marseille","lat":43.29898,"lon":5.43662,"is_reserved":false,"is_disabled":false,"rental_uris":{"android":"levelo://app?vid=2bbf39e5-5485-4880-b9ce-9ba5fff1a707","ios":"levelo://app?vid=2bbf39e5-5485-4880-b9ce-9ba5fff1a707"},"vehicle_type_id":"4","last_reported":1685142364,"current_range_meters":16000,"station_id":"","pricing_plan_id":"free"},{"bike_id":"2bec87da-92f9-4fd1-a31d-4f8c41246cb1","system_id":"levelo_inurba_marseille","lat":43.29895,"lon":5.43662,"is_reserved":false,"is_disabled":false,"rental_uris":{"android":"levelo://app?vid=2bec87da-92f9-4fd1-a31d-4f8c41246cb1","ios":"levelo://app?vid=2bec87da-92f9-4fd1-a31d-4f8c41246cb1"},"vehicle_type_id":"4","last_reported":1685142364,"current_range_meters":6000,"station_id":"ce4bhpp2rcd13ifvqhfg","pricing_plan_id":"free"},{"bike_id":"57572c88-3708-4036-891a-204b9f884608","system_id":"levelo_inurba_marseille","lat":43.29895,"lon":5.43662,"is_reserved":false,"is_disabled":false,"rental_uris":{"android":"levelo://app?vid=57572c88-3708-4036-891a-204b9f884608","ios":"levelo://app?vid=57572c88-3708-4036-891a-204b9f884608"},"vehicle_type_id":"4","last_reported":1685142364,"current_range_meters":12400,"station_id":"ce4bhpp2rcd13ifvqhfg","pricing_plan_id":"free"},{"bike_id":"a01b8269-cd6f-432a-9c44-37513ea96cd0","system_id":"levelo_inurba_marseille","lat":43.298768,"lon":5.43643,"is_reserved":false,"is_disabled":false,"rental_uris":{"android":"levelo://app?vid=a01b8269-cd6f-432a-9c44-37513ea96cd0","ios":"levelo://app?vid=a01b8269-cd6f-432a-9c44-37513ea96cd0"},"vehicle_type_id":"4","last_reported":1685142364,"current_range_meters":23600,"station_id":"ce4bhpp2rcd13ifvqhfg","pricing_plan_id":"free"},{"bike_id":"c8de2773-0f39-49ca-aaaa-0510f3608265","system_id":"levelo_inurba_marseille","lat":43.29899,"lon":5.43667,"is_reserved":false,"is_disabled":false,"rental_uris":{"android":"levelo://app?vid=c8de2773-0f39-49ca-aaaa-0510f3608265","ios":"levelo://app?vid=c8de2773-0f39-49ca-aaaa-0510f3608265"},"vehicle_type_id":"4","last_reported":1685142364,"current_range_meters":24400,"station_id":"","pricing_plan_id":"free"},{"bike_id":"608b499d-e068-453a-896b-74bff4555044","system_id":"levelo_inurba_marseille","lat":43.29899,"lon":5.43668,"is_reserved":false,"is_disabled":false,"rental_uris":{"android":"levelo://app?vid=608b499d-e068-453a-896b-74bff4555044","ios":"levelo://app?vid=608b499d-e068-453a-896b-74bff4555044"},"vehicle_type_id":"4","last_reported":1685142364,"current_range_meters":20400,"station_id":"","pricing_plan_id":"free"},{"bike_id":"1522e6fe-e66c-4a0c-a606-391cd3d5a93b","system_id":"levelo_inurba_marseille","lat":43.298768,"lon":5.43643,"is_reserved":false,"is_disabled":false,"rental_uris":{"android":"levelo://app?vid=1522e6fe-e66c-4a0c-a606-391cd3d5a93b","ios":"levelo://app?vid=1522e6fe-e66c-4a0c-a606-391cd3d5a93b"},"vehicle_type_id":"4","last_reported":1685142364,"current_range_meters":18400,"station_id":"ce4bhpp2rcd13ifvqhfg","pricing_plan_id":"free"},{"bike_id":"21a94e83-2bcf-4902-8a6a-85407ac0d3c9","system_id":"levelo_inurba_marseille","lat":43.254952,"lon":5.376471,"is_reserved":false,"is_disabled":false,"rental_uris":{"android":"levelo://app?vid=21a94e83-2bcf-4902-8a6a-85407ac0d3c9","ios":"levelo://app?vid=21a94e83-2bcf-4902-8a6a-85407ac0d3c9"},"vehicle_type_id":"4","last_reported":1685142364,"current_range_meters":6800,"station_id":"","pricing_plan_id":"free"},{"bike_id":"f70a446e-f90f-41e1-bb60-69406fd70c14","system_id":"levelo_inurba_marseille","lat":43.270721,"lon":5.422764,"is_reserved":false,"is_disabled":false,"rental_uris":{"android":"levelo://app?vid=f70a446e-f90f-41e1-bb60-69406fd70c14","ios":"levelo://app?vid=f70a446e-f90f-41e1-bb60-69406fd70c14"},"vehicle_type_id":"4","last_reported":1685142364,"current_range_meters":4400,"station_id":"ce4bhk92rcd13ifvqgb0","pricing_plan_id":"free"},{"bike_id":"783ca787-6440-405d-808e-48711cfe8ddc","system_id":"levelo_inurba_marseille","lat":43.270721,"lon":5.422764,"is_reserved":false,"is_disabled":false,"rental_uris":{"android":"levelo://app?vid=783ca787-6440-405d-808e-48711cfe8ddc","ios":"levelo://app?vid=783ca787-6440-405d-808e-48711cfe8ddc"},"vehicle_type_id":"4","last_reported":1685142364,"current_range_meters":31600,"station_id":"ce4bhk92rcd13ifvqgb0","pricing_plan_id":"free"},{"bike_id":"e07724f5-d80a-4c8d-b1c3-67b7d1904c8b","system_id":"levelo_inurba_marseille","lat":43.270721,"lon":5.422764,"is_reserved":false,"is_disabled":false,"rental_uris":{"android":"levelo://app?vid=e07724f5-d80a-4c8d-b1c3-67b7d1904c8b","ios":"levelo://app?vid=e07724f5-d80a-4c8d-b1c3-67b7d1904c8b"},"vehicle_type_id":"4","last_reported":1685142364,"current_range_meters":22800,"station_id":"ce4bhk92rcd13ifvqgb0","pricing_plan_id":"free"},{"bike_id":"fb391ea4-e81d-46d6-bf8b-15607b8eba32","system_id":"levelo_inurba_marseille","lat":43.2707,"lon":5.42279,"is_reserved":false,"is_disabled":false,"rental_uris":{"android":"levelo://app?vid=fb391ea4-e81d-46d6-bf8b-15607b8eba32","ios":"levelo://app?vid=fb391ea4-e81d-46d6-bf8b-15607b8eba32"},"vehicle_type_id":"4","last_reported":1685142364,"current_range_meters":24000,"station_id":"ce4bhk92rcd13ifvqgb0","pricing_plan_id":"free"},{"bike_id":"3583dbe0-433b-4cf5-8a78-02a3550f1dd8","system_id":"levelo_inurba_marseille","lat":43.27439,"lon":5.42943,"is_reserved":false,"is_disabled":false,"rental_uris":{"android":"levelo://app?vid=3583dbe0-433b-4cf5-8a78-02a3550f1dd8","ios":"levelo://app?vid=3583dbe0-433b-4cf5-8a78-02a3550f1dd8"},"vehicle_type_id":"4","last_reported":1685142364,"current_range_meters":1200,"station_id":"","pricing_plan_id":"free"},{"bike_id":"141f1402-22c0-4bcf-b91d-794031261f7b","system_id":"levelo_inurba_marseille","lat":43.250086,"lon":5.389467,"is_reserved":false,"is_disabled":false,"rental_uris":{"android":"levelo://app?vid=141f1402-22c0-4bcf-b91d-794031261f7b","ios":"levelo://app?vid=141f1402-22c0-4bcf-b91d-794031261f7b"},"vehicle_type_id":"4","last_reported":1685142364,"current_range_meters":0,"station_id":"","pricing_plan_id":"free"},{"bike_id":"c18ce366-9a27-4947-8c99-1e2c7bf9165e","system_id":"levelo_inurba_marseille","lat":43.25102,"lon":5.403214,"is_reserved":false,"is_disabled":false,"rental_uris":{"android":"levelo://app?vid=c18ce366-9a27-4947-8c99-1e2c7bf9165e","ios":"levelo://app?vid=c18ce366-9a27-4947-8c99-1e2c7bf9165e"},"vehicle_type_id":"4","last_reported":1685142364,"current_range_meters":11200,"station_id":"ce4bhlh2rcd13ifvqgig","pricing_plan_id":"free"},{"bike_id":"def8f5c8-dc85-435c-a1ff-21ce59098fc5","system_id":"levelo_inurba_marseille","lat":43.246629,"lon":5.381738,"is_reserved":false,"is_disabled":false,"rental_uris":{"android":"levelo://app?vid=def8f5c8-dc85-435c-a1ff-21ce59098fc5","ios":"levelo://app?vid=def8f5c8-dc85-435c-a1ff-21ce59098fc5"},"vehicle_type_id":"4","last_reported":1685142364,"current_range_meters":21600,"station_id":"ce4bhih2rcd13ifvqfr0","pricing_plan_id":"free"},{"bike_id":"67f5d558-ac67-47d0-94dd-672f1ad10b6c","system_id":"levelo_inurba_marseille","lat":43.24693,"lon":5.382096,"is_reserved":false,"is_disabled":false,"rental_uris":{"android":"levelo://app?vid=67f5d558-ac67-47d0-94dd-672f1ad10b6c","ios":"levelo://app?vid=67f5d558-ac67-47d0-94dd-672f1ad10b6c"},"vehicle_type_id":"4","last_reported":1685142364,"current_range_meters":7200,"station_id":"ce4bhih2rcd13ifvqfr0","pricing_plan_id":"free"},{"bike_id":"77a1adff-4568-49f8-b1a6-57ab17c81988","system_id":"levelo_inurba_marseille","lat":43.25102,"lon":5.403214,"is_reserved":false,"is_disabled":false,"rental_uris":{"android":"levelo://app?vid=77a1adff-4568-49f8-b1a6-57ab17c81988","ios":"levelo://app?vid=77a1adff-4568-49f8-b1a6-57ab17c81988"},"vehicle_type_id":"4","last_reported":1685142364,"current_range_meters":10400,"station_id":"ce4bhlh2rcd13ifvqgig","pricing_plan_id":"free"},{"bike_id":"972926a4-188b-4ee8-a672-be376bf7185d","system_id":"levelo_inurba_marseille","lat":43.25102,"lon":5.403214,"is_reserved":false,"is_disabled":false,"rental_uris":{"android":"levelo://app?vid=972926a4-188b-4ee8-a672-be376bf7185d","ios":"levelo://app?vid=972926a4-188b-4ee8-a672-be376bf7185d"},"vehicle_type_id":"4","last_reported":1685142364,"current_range_meters":20400,"station_id":"ce4bhlh2rcd13ifvqgig","pricing_plan_id":"free"},{"bike_id":"63fbb90b-8313-4d55-ab5d-c516f6b654f9","system_id":"levelo_inurba_marseille","lat":43.25102,"lon":5.403214,"is_reserved":false,"is_disabled":false,"rental_uris":{"android":"levelo://app?vid=63fbb90b-8313-4d55-ab5d-c516f6b654f9","ios":"levelo://app?vid=63fbb90b-8313-4d55-ab5d-c516f6b654f9"},"vehicle_type_id":"4","last_reported":1685142364,"current_range_meters":4000,"station_id":"ce4bhlh2rcd13ifvqgig","pricing_plan_id":"free"},{"bike_id":"17aa1c36-c50e-42b1-b898-8255382a64f7","system_id":"levelo_inurba_marseille","lat":43.239588,"lon":5.366238,"is_reserved":false,"is_disabled":false,"rental_uris":{"android":"levelo://app?vid=17aa1c36-c50e-42b1-b898-8255382a64f7","ios":"levelo://app?vid=17aa1c36-c50e-42b1-b898-8255382a64f7"},"vehicle_type_id":"4","last_reported":1685142364,"current_range_meters":14400,"station_id":"ce4bhi12rcd13ifvqfp0","pricing_plan_id":"free"},{"bike_id":"1ce486f4-31c8-4d50-b008-a1e8063c2ecf","system_id":"levelo_inurba_marseille","lat":43.239588,"lon":5.366238,"is_reserved":false,"is_disabled":false,"rental_uris":{"android":"levelo://app?vid=1ce486f4-31c8-4d50-b008-a1e8063c2ecf","ios":"levelo://app?vid=1ce486f4-31c8-4d50-b008-a1e8063c2ecf"},"vehicle_type_id":"4","last_reported":1685142364,"current_range_meters":4800,"station_id":"ce4bhi12rcd13ifvqfp0","pricing_plan_id":"free"},{"bike_id":"7ca703b9-8cdc-4f9f-9414-c70be982fc50","system_id":"levelo_inurba_marseille","lat":43.239588,"lon":5.366238,"is_reserved":false,"is_disabled":false,"rental_uris":{"android":"levelo://app?vid=7ca703b9-8cdc-4f9f-9414-c70be982fc50","ios":"levelo://app?vid=7ca703b9-8cdc-4f9f-9414-c70be982fc50"},"vehicle_type_id":"4","last_reported":1685142364,"current_range_meters":26400,"station_id":"ce4bhi12rcd13ifvqfp0","pricing_plan_id":"free"},{"bike_id":"0161b986-500f-4679-ab1a-4af7cb757c32","system_id":"levelo_inurba_marseille","lat":43.241782,"lon":5.397261,"is_reserved":false,"is_disabled":false,"rental_uris":{"android":"levelo://app?vid=0161b986-500f-4679-ab1a-4af7cb757c32","ios":"levelo://app?vid=0161b986-500f-4679-ab1a-4af7cb757c32"},"vehicle_type_id":"4","last_reported":1685142364,"current_range_meters":31200,"station_id":"ce4bhn12rcd13ifvqgpg","pricing_plan_id":"free"},{"bike_id":"50a99997-35db-4059-b225-16c1df05f698","system_id":"levelo_inurba_marseille","lat":43.241782,"lon":5.397261,"is_reserved":false,"is_disabled":false,"rental_uris":{"android":"levelo://app?vid=50a99997-35db-4059-b225-16c1df05f698","ios":"levelo://app?vid=50a99997-35db-4059-b225-16c1df05f698"},"vehicle_type_id":"4","last_reported":1685142364,"current_range_meters":4000,"station_id":"ce4bhn12rcd13ifvqgpg","pricing_plan_id":"free"},{"bike_id":"017cbb90-9d16-469d-ab9b-008c01d90208","system_id":"levelo_inurba_marseille","lat":43.23893,"lon":5.38445,"is_reserved":false,"is_disabled":false,"rental_uris":{"android":"levelo://app?vid=017cbb90-9d16-469d-ab9b-008c01d90208","ios":"levelo://app?vid=017cbb90-9d16-469d-ab9b-008c01d90208"},"vehicle_type_id":"4","last_reported":1685142364,"current_range_meters":7200,"station_id":"","pricing_plan_id":"free"},{"bike_id":"50387e49-f9cb-45f2-830b-f9804e09b35a","system_id":"levelo_inurba_marseille","lat":43.23197,"lon":5.35553,"is_reserved":false,"is_disabled":false,"rental_uris":{"android":"levelo://app?vid=50387e49-f9cb-45f2-830b-f9804e09b35a","ios":"levelo://app?vid=50387e49-f9cb-45f2-830b-f9804e09b35a"},"vehicle_type_id":"4","last_reported":1685142364,"current_range_meters":3600,"station_id":"ce4bhu92rcd13ifvqi70","pricing_plan_id":"free"},{"bike_id":"06cc29fe-4669-4afc-bb35-a5e1af0a1bc4","system_id":"levelo_inurba_marseille","lat":43.23196,"lon":5.35546,"is_reserved":false,"is_disabled":false,"rental_uris":{"android":"levelo://app?vid=06cc29fe-4669-4afc-bb35-a5e1af0a1bc4","ios":"levelo://app?vid=06cc29fe-4669-4afc-bb35-a5e1af0a1bc4"},"vehicle_type_id":"4","last_reported":1685142364,"current_range_meters":4400,"station_id":"ce4bhu92rcd13ifvqi70","pricing_plan_id":"free"},{"bike_id":"b3218611-a475-42a9-92c5-070141c073f0","system_id":"levelo_inurba_marseille","lat":43.23196,"lon":5.3554,"is_reserved":false,"is_disabled":false,"rental_uris":{"android":"levelo://app?vid=b3218611-a475-42a9-92c5-070141c073f0","ios":"levelo://app?vid=b3218611-a475-42a9-92c5-070141c073f0"},"vehicle_type_id":"4","last_reported":1685142364,"current_range_meters":25200,"station_id":"ce4bhu92rcd13ifvqi70","pricing_plan_id":"free"},{"bike_id":"16e751e9-9edd-4155-bc9f-8de735fe1021","system_id":"levelo_inurba_marseille","lat":43.231919,"lon":5.355532,"is_reserved":false,"is_disabled":false,"rental_uris":{"android":"levelo://app?vid=16e751e9-9edd-4155-bc9f-8de735fe1021","ios":"levelo://app?vid=16e751e9-9edd-4155-bc9f-8de735fe1021"},"vehicle_type_id":"4","last_reported":1685142364,"current_range_meters":30000,"station_id":"ce4bhu92rcd13ifvqi70","pricing_plan_id":"free"},{"bike_id":"6ed80210-e865-4830-a64d-7a44325491b1","system_id":"levelo_inurba_marseille","lat":43.23193,"lon":5.35549,"is_reserved":false,"is_disabled":false,"rental_uris":{"android":"levelo://app?vid=6ed80210-e865-4830-a64d-7a44325491b1","ios":"levelo://app?vid=6ed80210-e865-4830-a64d-7a44325491b1"},"vehicle_type_id":"4","last_reported":1685142364,"current_range_meters":28000,"station_id":"ce4bhu92rcd13ifvqi70","pricing_plan_id":"free"},{"bike_id":"ba4d59a8-54c3-439d-b6ce-459d537c072d","system_id":"levelo_inurba_marseille","lat":43.23192,"lon":5.35557,"is_reserved":false,"is_disabled":false,"rental_uris":{"android":"levelo://app?vid=ba4d59a8-54c3-439d-b6ce-459d537c072d","ios":"levelo://app?vid=ba4d59a8-54c3-439d-b6ce-459d537c072d"},"vehicle_type_id":"4","last_reported":1685142364,"current_range_meters":11600,"station_id":"ce4bhu92rcd13ifvqi70","pricing_plan_id":"free"},{"bike_id":"81d4dcc7-3fc7-449d-ab1e-2ea2b47e5952","system_id":"levelo_inurba_marseille","lat":43.2319,"lon":5.35553,"is_reserved":false,"is_disabled":false,"rental_uris":{"android":"levelo://app?vid=81d4dcc7-3fc7-449d-ab1e-2ea2b47e5952","ios":"levelo://app?vid=81d4dcc7-3fc7-449d-ab1e-2ea2b47e5952"},"vehicle_type_id":"4","last_reported":1685142364,"current_range_meters":16400,"station_id":"ce4bhu92rcd13ifvqi70","pricing_plan_id":"free"},{"bike_id":"5c272820-3a04-409e-a879-87b2d365273d","system_id":"levelo_inurba_marseille","lat":43.23135,"lon":5.35496,"is_reserved":false,"is_disabled":false,"rental_uris":{"android":"levelo://app?vid=5c272820-3a04-409e-a879-87b2d365273d","ios":"levelo://app?vid=5c272820-3a04-409e-a879-87b2d365273d"},"vehicle_type_id":"4","last_reported":1685142364,"current_range_meters":14000,"station_id":"","pricing_plan_id":"free"},{"bike_id":"6909e9f4-7190-4de5-9454-7cc1785d277a","system_id":"levelo_inurba_marseille","lat":43.231794,"lon":5.400052,"is_reserved":false,"is_disabled":false,"rental_uris":{"android":"levelo://app?vid=6909e9f4-7190-4de5-9454-7cc1785d277a","ios":"levelo://app?vid=6909e9f4-7190-4de5-9454-7cc1785d277a"},"vehicle_type_id":"4","last_reported":1685142364,"current_range_meters":31600,"station_id":"ce4bhn12rcd13ifvqgqg","pricing_plan_id":"free"},{"bike_id":"0098075c-728f-4919-85e5-a85abece1c10","system_id":"levelo_inurba_marseille","lat":43.231793,"lon":5.400044,"is_reserved":false,"is_disabled":false,"rental_uris":{"android":"levelo://app?vid=0098075c-728f-4919-85e5-a85abece1c10","ios":"levelo://app?vid=0098075c-728f-4919-85e5-a85abece1c10"},"vehicle_type_id":"4","last_reported":1685142364,"current_range_meters":2000,"station_id":"ce4bhn12rcd13ifvqgqg","pricing_plan_id":"free"},{"bike_id":"b8c47a34-ff34-4067-b87c-33640e964fbc","system_id":"levelo_inurba_marseille","lat":43.231794,"lon":5.400052,"is_reserved":false,"is_disabled":false,"rental_uris":{"android":"levelo://app?vid=b8c47a34-ff34-4067-b87c-33640e964fbc","ios":"levelo://app?vid=b8c47a34-ff34-4067-b87c-33640e964fbc"},"vehicle_type_id":"4","last_reported":1685142364,"current_range_meters":31200,"station_id":"ce4bhn12rcd13ifvqgqg","pricing_plan_id":"free"},{"bike_id":"6bf87b3f-2e5e-484d-9f73-d12a90c06e2e","system_id":"levelo_inurba_marseille","lat":43.231794,"lon":5.400052,"is_reserved":false,"is_disabled":false,"rental_uris":{"android":"levelo://app?vid=6bf87b3f-2e5e-484d-9f73-d12a90c06e2e","ios":"levelo://app?vid=6bf87b3f-2e5e-484d-9f73-d12a90c06e2e"},"vehicle_type_id":"4","last_reported":1685142364,"current_range_meters":31600,"station_id":"ce4bhn12rcd13ifvqgqg","pricing_plan_id":"free"},{"bike_id":"7dcc073b-b41d-40ec-9cbd-380dfe07c27c","system_id":"levelo_inurba_marseille","lat":43.231793,"lon":5.400044,"is_reserved":false,"is_disabled":false,"rental_uris":{"android":"levelo://app?vid=7dcc073b-b41d-40ec-9cbd-380dfe07c27c","ios":"levelo://app?vid=7dcc073b-b41d-40ec-9cbd-380dfe07c27c"},"vehicle_type_id":"4","last_reported":1685142364,"current_range_meters":9600,"station_id":"ce4bhn12rcd13ifvqgqg","pricing_plan_id":"free"},{"bike_id":"1e8bd4c3-40cb-4655-8b71-9004c0667763","system_id":"levelo_inurba_marseille","lat":43.231793,"lon":5.400044,"is_reserved":false,"is_disabled":false,"rental_uris":{"android":"levelo://app?vid=1e8bd4c3-40cb-4655-8b71-9004c0667763","ios":"levelo://app?vid=1e8bd4c3-40cb-4655-8b71-9004c0667763"},"vehicle_type_id":"4","last_reported":1685142364,"current_range_meters":30800,"station_id":"ce4bhn12rcd13ifvqgqg","pricing_plan_id":"free"},{"bike_id":"fa025f6b-9b72-4047-81a2-78b1accb1a5e","system_id":"levelo_inurba_marseille","lat":43.231793,"lon":5.400044,"is_reserved":false,"is_disabled":false,"rental_uris":{"android":"levelo://app?vid=fa025f6b-9b72-4047-81a2-78b1accb1a5e","ios":"levelo://app?vid=fa025f6b-9b72-4047-81a2-78b1accb1a5e"},"vehicle_type_id":"4","last_reported":1685142364,"current_range_meters":14400,"station_id":"ce4bhn12rcd13ifvqgqg","pricing_plan_id":"free"},{"bike_id":"a07f019b-9568-41d4-a110-5874a4b39346","system_id":"levelo_inurba_marseille","lat":43.231793,"lon":5.400044,"is_reserved":false,"is_disabled":false,"rental_uris":{"android":"levelo://app?vid=a07f019b-9568-41d4-a110-5874a4b39346","ios":"levelo://app?vid=a07f019b-9568-41d4-a110-5874a4b39346"},"vehicle_type_id":"4","last_reported":1685142364,"current_range_meters":31600,"station_id":"ce4bhn12rcd13ifvqgqg","pricing_plan_id":"free"},{"bike_id":"a7fbfb05-3a72-4dea-b5c9-12ad7997a8ad","system_id":"levelo_inurba_marseille","lat":43.231794,"lon":5.400052,"is_reserved":false,"is_disabled":false,"rental_uris":{"android":"levelo://app?vid=a7fbfb05-3a72-4dea-b5c9-12ad7997a8ad","ios":"levelo://app?vid=a7fbfb05-3a72-4dea-b5c9-12ad7997a8ad"},"vehicle_type_id":"4","last_reported":1685142364,"current_range_meters":27600,"station_id":"ce4bhn12rcd13ifvqgqg","pricing_plan_id":"free"},{"bike_id":"1420567d-5493-4112-adec-f09973b532e9","system_id":"levelo_inurba_marseille","lat":43.231793,"lon":5.400044,"is_reserved":false,"is_disabled":false,"rental_uris":{"android":"levelo://app?vid=1420567d-5493-4112-adec-f09973b532e9","ios":"levelo://app?vid=1420567d-5493-4112-adec-f09973b532e9"},"vehicle_type_id":"4","last_reported":1685142364,"current_range_meters":24800,"station_id":"ce4bhn12rcd13ifvqgqg","pricing_plan_id":"free"},{"bike_id":"b10c561f-d3c4-4914-b7f7-f4a5a2a5d820","system_id":"levelo_inurba_marseille","lat":43.231793,"lon":5.400044,"is_reserved":false,"is_disabled":false,"rental_uris":{"android":"levelo://app?vid=b10c561f-d3c4-4914-b7f7-f4a5a2a5d820","ios":"levelo://app?vid=b10c561f-d3c4-4914-b7f7-f4a5a2a5d820"},"vehicle_type_id":"4","last_reported":1685142364,"current_range_meters":24000,"station_id":"ce4bhn12rcd13ifvqgqg","pricing_plan_id":"free"},