{"last_updated":1760188465,"ttl":60,"version":"2.2","data":{"bikes":[{"bike_id":"5516e87b-8441-4871-bd1c-dcd0126e113d","system_id":"levelo_inurba_marseille","lat":43.337444,"lon":5.374475,"is_reserved":false,"is_disabled":true,"rental_uris":{"android":"levelo://app?vid=5516e87b-8441-4871-bd1c-dcd0126e113d","ios":"levelo://app?vid=5516e87b-8441-4871-bd1c-dcd0126e113d"},"vehicle_type_id":"4","last_reported":1760188465,"current_range_meters":0,"station_id":"","pricing_plan_id":"cebpf4jnsgd1na2vs0mg"},{"bike_id":"f9ef6a8c-cc82-49e4-96c2-f46e0950a0fc","system_id":"levelo_inurba_marseille","lat":43.33771,"lon":5.37424,"is_reserved":false,"is_disabled":true,"rental_uris":{"android":"levelo://app?vid=f9ef6a8c-cc82-49e4-96c2-f46e0950a0fc","ios":"levelo://app?vid=f9ef6a8c-cc82-49e4-96c2-f46e0950a0fc"},"vehicle_type_id":"4","last_reported":1760188465,"current_range_meters":0,"station_id":"","pricing_plan_id":"cebpf4jnsgd1na2vs0mg"},{"bike_id":"f92995dc-d2e7-4f2e-bcaf-27995c98a1de","system_id":"levelo_inurba_marseille","lat":43.33751,"lon":5.37456,"is_reserved":false,"is_disabled":true,"rental_uris":{"android":"levelo://app?vid=f92995dc-d2e7-4f2e-bcaf-27995c98a1de","ios":"levelo://app?vid=f92995dc-d2e7-4f2e-bcaf-27995c98a1de"},"vehicle_type_id":"4","last_reported":1760188465,"current_range_meters":0,"station_id":"","pricing_plan_id":"cebpf4jnsgd1na2vs0mg"},{"bike_id":"092183e8-1e36-4ece-a29a-68743a5820f6","system_id":"levelo_inurba_marseille","lat":43.33747,"lon":5.37463,"is_reserved":false,"is_disabled":true,"rental_uris":{"android":"levelo://app?vid=092183e8-1e36-4ece-a29a-68743a5820f6","ios":"levelo://app?vid=092183e8-1e36-4ece-a29a-68743a5820f6"},"vehicle_type_id":"1","last_reported":1760188465,"current_range_meters":0,"station_id":"","pricing_plan_id":"cebpf4jnsgd1na2vs0mg"},{"bike_id":"268f0f13-c790-4518-9f6a-1fe45b445342","system_id":"levelo_inurba_marseille","lat":43.33737,"lon":5.37465,"is_reserved":false,"is_disabled":true,"rental_uris":{"android":"levelo://app?vid=268f0f13-c790-4518-9f6a-1fe45b445342","ios":"levelo://app?vid=268f0f13-c790-4518-9f6a-1fe45b445342"},"vehicle_type_id":"4","last_reported":1760188465,"current_range_meters":0,"station_id":"","pricing_plan_id":"cebpf4jnsgd1na2vs0mg"},{"bike_id":"844de8fa-b1ed-4b48-bbb0-8ea30f04e6fa","system_id":"levelo_inurba_marseille","lat":43.33755,"lon":5.37468,"is_reserved":false,"is_disabled":false,"rental_uris":{"android":"levelo://app?vid=844de8fa-b1ed-4b48-bbb0-8ea30f04e6fa","ios":"levelo://app?vid=844de8fa-b1ed-4b48-bbb0-8ea30f04e6fa"},"vehicle_type_id":"4","last_reported":1760188465,"current_range_meters":4800,"station_id":"","pricing_plan_id":"cebpf4jnsgd1na2vs0mg"},{"bike_id":"affea08d-2e61-49ad-9018-2db734fe38fb","system_id":"levelo_inurba_marseille","lat":43.337444,"lon":5.374475,"is_reserved":false,"is_disabled":true,"rental_uris":{"android":"levelo://app?vid=affea08d-2e61-49ad-9018-2db734fe38fb","ios":"levelo://app?vid=affea08d-2e61-49ad-9018-2db734fe38fb"},"vehicle_type_id":"4","last_reported":1760188465,"current_range_meters":0,"station_id":"","pricing_plan_id":"cebpf4jnsgd1na2vs0mg"},{"bike_id":"c80be3e3-26c1-4fd2-ab94-730bb8638bdc","system_id":"levelo_inurba_marseille","lat":43.337444,"lon":5.374475,"is_reserved":false,"is_disabled":true,"rental_uris":{"android":"levelo://app?vid=c80be3e3-26c1-4fd2-ab94-730bb8638bdc","ios":"levelo://app?vid=c80be3e3-26c1-4fd2-ab94-730bb8638bdc"},"vehicle_type_id":"4","last_reported":1760188465,"current_range_meters":0,"station_id":"","pricing_plan_id":"cebpf4jnsgd1na2vs0mg"},{"bike_id":"1d6245e4-562b-49a1-9e17-90a195bca958","system_id":"levelo_inurba_marseille","lat":43.225333,"lon":5.348353,"is_reserved":false,"is_disabled":true,"rental_uris":{"android":"levelo://app?vid=1d6245e4-562b-49a1-9e17-90a195bca958","ios":"levelo://app?vid=1d6245e4-562b-49a1-9e17-90a195bca958"},"vehicle_type_id":"4","last_reported":1760188465,"current_range_meters":0,"station_id":"","pricing_plan_id":"cebpf4jnsgd1na2vs0mg"},{"bike_id":"1c560a38-7ef3-4e44-b456-36993b5ca4af","system_id":"levelo_inurba_marseille","lat":43.337444,"lon":5.374475,"is_reserved":false,"is_disabled":true,"rental_uris":{"android":"levelo://app?vid=1c560a38-7ef3-4e44-b456-36993b5ca4af","ios":"levelo://app?vid=1c560a38-7ef3-4e44-b456-36993b5ca4af"},"vehicle_type_id":"4","last_reported":1760188465,"current_range_meters":0,"station_id":"","pricing_plan_id":"cebpf4jnsgd1na2vs0mg"},{"bike_id":"f8726700-64d6-4ff8-acc0-9adfce94dbe9","system_id":"levelo_inurba_marseille","lat":43.27847,"lon":5.38288,"is_reserved":false,"is_disabled":true,"rental_uris":{"android":"levelo://app?vid=f8726700-64d6-4ff8-acc0-9adfce94dbe9","ios":"levelo://app?vid=f8726700-64d6-4ff8-acc0-9adfce94dbe9"},"vehicle_type_id":"4","last_reported":1760188465,"current_range_meters":0,"station_id":"","pricing_plan_id":"cebpf4jnsgd1na2vs0mg"},{"bike_id":"b4e7ef10-af79-4cf8-a207-60ed0a922607","system_id":"levelo_inurba_marseille","lat":43.337444,"lon":5.374475,"is_reserved":false,"is_disabled":true,"rental_uris":{"android":"levelo://app?vid=b4e7ef10-af79-4cf8-a207-60ed0a922607","ios":"levelo://app?vid=b4e7ef10-af79-4cf8-a207-60ed0a922607"},"vehicle_type_id":"4","last_reported":1760188465,"current_range_meters":0,"station_id":"","pricing_plan_id":"cebpf4jnsgd1na2vs0mg"},{"bike_id":"603a8e6a-0cf0-459c-a975-5af59d0d295f","system_id":"levelo_inurba_marseille","lat":43.2175,"lon":5.346,"is_reserved":false,"is_disabled":true,"rental_uris":{"android":"levelo://app?vid=603a8e6a-0cf0-459c-a975-5af59d0d295f","ios":"levelo://app?vid=603a8e6a-0cf0-459c-a975-5af59d0d295f"},"vehicle_type_id":"4","last_reported":1760188465,"current_range_meters":0,"station_id":"","pricing_plan_id":"cebpf4jnsgd1na2vs0mg"},{"bike_id":"4ccf7a59-029f-457f-b839-dc6f11286326","system_id":"levelo_inurba_marseille","lat":43.31769,"lon":5.42198,"is_reserved":false,"is_disabled":true,"rental_uris":{"android":"levelo://app?vid=4ccf7a59-029f-457f-b839-dc6f11286326","ios":"levelo://app?vid=4ccf7a59-029f-457f-b839-dc6f11286326"},"vehicle_type_id":"4","last_reported":1760188465,"current_range_meters":0,"station_id":"","pricing_plan_id":"cebpf4jnsgd1na2vs0mg"},{"bike_id":"c31f5b0e-d798-4f12-be52-283c24a28126","system_id":"levelo_inurba_marseille","lat":43.21193,"lon":5.35072,"is_reserved":false,"is_disabled":true,"rental_uris":{"android":"levelo://app?vid=c31f5b0e-d798-4f12-be52-283c24a28126","ios":"levelo://app?vid=c31f5b0e-d798-4f12-be52-283c24a28126"},"vehicle_type_id":"4","last_reported":1760188465,"current_range_meters":0,"station_id":"","pricing_plan_id":"cebpf4jnsgd1na2vs0mg"},{"bike_id":"bf0cd1f5-4a2b-4aae-9f11-cde060414574","system_id":"levelo_inurba_marseille","lat":43.2254,"lon":5.34825,"is_reserved":false,"is_disabled":true,"rental_uris":{"android":"levelo://app?vid=bf0cd1f5-4a2b-4aae-9f11-cde060414574","ios":"levelo://app?vid=bf0cd1f5-4a2b-4aae-9f11-cde060414574"},"vehicle_type_id":"4","last_reported":1760188465,"current_range_meters":0,"station_id":"","pricing_plan_id":"cebpf4jnsgd1na2vs0mg"},{"bike_id":"faf21e59-73fe-43ba-965b-23c7230d33c8","system_id":"levelo_inurba_marseille","lat":43.270557,"lon":5.392632,"is_reserved":false,"is_disabled":true,"rental_uris":{"android":"levelo://app?vid=faf21e59-73fe-43ba-965b-23c7230d33c8","ios":"levelo://app?vid=faf21e59-73fe-43ba-965b-23c7230d33c8"},"vehicle_type_id":"4","last_reported":1760188465,"current_range_meters":0,"station_id":"","pricing_plan_id":"cebpf4jnsgd1na2vs0mg"},{"bike_id":"ec39affe-5e48-4259-a225-7a0d248d923e","system_id":"levelo_inurba_marseille","lat":43.29679,"lon":5.38025,"is_reserved":false,"is_disabled":true,"rental_uris":{"android":"levelo://app?vid=ec39affe-5e48-4259-a225-7a0d248d923e","ios":"levelo://app?vid=ec39affe-5e48-4259-a225-7a0d248d923e"},"vehicle_type_id":"4","last_reported":1760188465,"current_range_meters":0,"station_id":"","pricing_plan_id":"cebpf4jnsgd1na2vs0mg"},{"bike_id":"7dda0a36-9ac4-4c85-88bd-d79f4d4dc056","system_id":"levelo_inurba_marseille","lat":43.292619,"lon":5.376064,"is_reserved":false,"is_disabled":true,"rental_uris":{"android":"levelo://app?vid=7dda0a36-9ac4-4c85-88bd-d79f4d4dc056","ios":"levelo://app?vid=7dda0a36-9ac4-4c85-88bd-d79f4d4dc056"},"vehicle_type_id":"4","last_reported":1760188465,"current_range_meters":0,"station_id":"ce4bgi12rcd13ifvqb80","pricing_plan_id":"cebpf4jnsgd1na2vs0mg"},{"bike_id":"71137f1c-d804-4cac-b568-4fd10b3a0a17","system_id":"levelo_inurba_marseille","lat":43.30544,"lon":5.36543,"is_reserved":false,"is_disabled":true,"rental_uris":{"android":"levelo://app?vid=71137f1c-d804-4cac-b568-4fd10b3a0a17","ios":"levelo://app?vid=71137f1c-d804-4cac-b568-4fd10b3a0a17"},"vehicle_type_id":"4","last_reported":1760188465,"current_range_meters":0,"station_id":"ce4bgs12rcd13ifvqcag","pricing_plan_id":"cebpf4jnsgd1na2vs0mg"},{"bike_id":"01dfdfb0-f870-48b5-af2a-f7e6ab2d7a92","system_id":"levelo_inurba_marseille","lat":43.30273,"lon":5.37705,"is_reserved":false,"is_disabled":true,"rental_uris":{"android":"levelo://app?vid=01dfdfb0-f870-48b5-af2a-f7e6ab2d7a92","ios":"levelo://app?vid=01dfdfb0-f870-48b5-af2a-f7e6ab2d7a92"},"vehicle_type_id":"4","last_reported":1760188465,"current_range_meters":0,"station_id":"ce4bguh2rcd13ifvqcj0","pricing_plan_id":"cebpf4jnsgd1na2vs0mg"},{"bike_id":"90bee144-32cd-4cdf-922d-2257ff3b894f","system_id":"levelo_inurba_marseille","lat":43.31323,"lon":5.39688,"is_reserved":false,"is_disabled":true,"rental_uris":{"android":"levelo://app?vid=90bee144-32cd-4cdf-922d-2257ff3b894f","ios":"levelo://app?vid=90bee144-32cd-4cdf-922d-2257ff3b894f"},"vehicle_type_id":"4","last_reported":1760188465,"current_range_meters":0,"station_id":"ce4bgvp2rcd13ifvqcu0","pricing_plan_id":"cebpf4jnsgd1na2vs0mg"},{"bike_id":"c899cea1-1887-4962-a32a-d9f481b940cb","system_id":"levelo_inurba_marseille","lat":43.292,"lon":5.39307,"is_reserved":false,"is_disabled":true,"rental_uris":{"android":"levelo://app?vid=c899cea1-1887-4962-a32a-d9f481b940cb","ios":"levelo://app?vid=c899cea1-1887-4962-a32a-d9f481b940cb"},"vehicle_type_id":"4","last_reported":1760188465,"current_range_meters":0,"station_id":"ce4bh192rcd13ifvqdd0","pricing_plan_id":"cebpf4jnsgd1na2vs0mg"},{"bike_id":"33f47225-167c-4a2d-ab47-56c230e0cbd6","system_id":"levelo_inurba_marseille","lat":43.29263,"lon":5.38447,"is_reserved":false,"is_disabled":true,"rental_uris":{"android":"levelo://app?vid=33f47225-167c-4a2d-ab47-56c230e0cbd6","ios":"levelo://app?vid=33f47225-167c-4a2d-ab47-56c230e0cbd6"},"vehicle_type_id":"4","last_reported":1760188465,"current_range_meters":0,"station_id":"ce4bh692rcd13ifvqea0","pricing_plan_id":"cebpf4jnsgd1na2vs0mg"},{"bike_id":"ec6c447b-22b5-4fad-84f1-b467607d1893","system_id":"levelo_inurba_marseille","lat":43.284153,"lon":5.375022,"is_reserved":false,"is_disabled":true,"rental_uris":{"android":"levelo://app?vid=ec6c447b-22b5-4fad-84f1-b467607d1893","ios":"levelo://app?vid=ec6c447b-22b5-4fad-84f1-b467607d1893"},"vehicle_type_id":"4","last_reported":1760188465,"current_range_meters":0,"station_id":"ce4bhap2rcd13ifvqek0","pricing_plan_id":"cebpf4jnsgd1na2vs0mg"},{"bike_id":"d4afe6f0-0de0-4e3b-bfa2-9eba61daf3a2","system_id":"levelo_inurba_marseille","lat":43.29008,"lon":5.35609,"is_reserved":false,"is_disabled":true,"rental_uris":{"android":"levelo://app?vid=d4afe6f0-0de0-4e3b-bfa2-9eba61daf3a2","ios":"levelo://app?vid=d4afe6f0-0de0-4e3b-bfa2-9eba61daf3a2"},"vehicle_type_id":"4","last_reported":1760188465,"current_range_meters":0,"station_id":"ce4bhb92rcd13ifvqen0","pricing_plan_id":"cebpf4jnsgd1na2vs0mg"},{"bike_id":"ba00c55b-f9cf-4350-9a97-7538530d5dc8","system_id":"levelo_inurba_marseille","lat":43.289554,"lon":5.354867,"is_reserved":false,"is_disabled":true,"rental_uris":{"android":"levelo://app?vid=ba00c55b-f9cf-4350-9a97-7538530d5dc8","ios":"levelo://app?vid=ba00c55b-f9cf-4350-9a97-7538530d5dc8"},"vehicle_type_id":"4","last_reported":1760188465,"current_range_meters":0,"station_id":"ce4bhbp2rcd13ifvqerg","pricing_plan_id":"cebpf4jnsgd1na2vs0mg"},{"bike_id":"d3d434db-8806-49c7-88ae-b6391a974063","system_id":"levelo_inurba_marseille","lat":43.2863,"lon":5.35123,"is_reserved":false,"is_disabled":true,"rental_uris":{"android":"levelo://app?vid=d3d434db-8806-49c7-88ae-b6391a974063","ios":"levelo://app?vid=d3d434db-8806-49c7-88ae-b6391a974063"},"vehicle_type_id":"4","last_reported":1760188465,"current_range_meters":0,"station_id":"ce4bhch2rcd13ifvqeug","pricing_plan_id":"cebpf4jnsgd1na2vs0mg"},{"bike_id":"9a4429d1-232c-4519-8ed9-312533b588c9","system_id":"levelo_inurba_marseille","lat":43.26225,"lon":5.404432,"is_reserved":false,"is_disabled":true,"rental_uris":{"android":"levelo://app?vid=9a4429d1-232c-4519-8ed9-312533b588c9","ios":"levelo://app?vid=9a4429d1-232c-4519-8ed9-312533b588c9"},"vehicle_type_id":"4","last_reported":1760188465,"current_range_meters":0,"station_id":"ce4bhmh2rcd13ifvqgmg","pricing_plan_id":"cebpf4jnsgd1na2vs0mg"},{"bike_id":"72ffe01d-71cc-4106-a02b-823a7320009f","system_id":"levelo_inurba_marseille","lat":43.23149,"lon":5.43702,"is_reserved":false,"is_disabled":true,"rental_uris":{"android":"levelo://app?vid=72ffe01d-71cc-4106-a02b-823a7320009f","ios":"levelo://app?vid=72ffe01d-71cc-4106-a02b-823a7320009f"},"vehicle_type_id":"4","last_reported":1760188465,"current_range_meters":0,"station_id":"ce4bhmp2rcd13ifvqgog","pricing_plan_id":"cebpf4jnsgd1na2vs0mg"},{"bike_id":"71adf011-375e-40dc-9f02-5f5866d7a20c","system_id":"levelo_inurba_marseille","lat":43.22925,"lon":5.35386,"is_reserved":false,"is_disabled":true,"rental_uris":{"android":"levelo://app?vid=71adf011-375e-40dc-9f02-5f5866d7a20c","ios":"levelo://app?vid=71adf011-375e-40dc-9f02-5f5866d7a20c"},"vehicle_type_id":"4","last_reported":1760188465,"current_range_meters":0,"station_id":"cpo3532slgdg3j2ikp40","pricing_plan_id":"cebpf4jnsgd1na2vs0mg"},{"bike_id":"4c380478-825a-4f4f-b122-4ea4a46ac72c","system_id":"levelo_inurba_marseille","lat":43.24172,"lon":5.36395,"is_reserved":false,"is_disabled":true,"rental_uris":{"android":"levelo://app?vid=4c380478-825a-4f4f-b122-4ea4a46ac72c","ios":"levelo://app?vid=4c380478-825a-4f4f-b122-4ea4a46ac72c"},"vehicle_type_id":"4","last_reported":1760188465,"current_range_meters":0,"station_id":"cpo36qri1sfpv3e86is0","pricing_plan_id":"cebpf4jnsgd1na2vs0mg"},{"bike_id":"0ff28379-d69e-46fd-a711-ef84b1b06a74","system_id":"levelo_inurba_marseille","lat":43.21754,"lon":5.34599,"is_reserved":false,"is_disabled":true,"rental_uris":{"android":"levelo://app?vid=0ff28379-d69e-46fd-a711-ef84b1b06a74","ios":"levelo://app?vid=0ff28379-d69e-46fd-a711-ef84b1b06a74"},"vehicle_type_id":"4","last_reported":1760188465,"current_range_meters":0,"station_id":"st_cvj6r9ubvosntc0bgbag","pricing_plan_id":"cebpf4jnsgd1na2vs0mg"},{"bike_id":"133d7506-6317-4410-9fd4-a13902f83db9","system_id":"levelo_inurba_marseille","lat":43.21761,"lon":5.34585,"is_reserved":false,"is_disabled":true,"rental_uris":{"android":"levelo://app?vid=133d7506-6317-4410-9fd4-a13902f83db9","ios":"levelo://app?vid=133d7506-6317-4410-9fd4-a13902f83db9"},"vehicle_type_id":"4","last_reported":1760188465,"current_range_meters":0,"station_id":"st_cvj6r9ubvosntc0bgbag","pricing_plan_id":"cebpf4jnsgd1na2vs0mg"},{"bike_id":"fc87f29b-9c8d-4328-a892-37bcf1edda9b","system_id":"levelo_inurba_marseille","lat":43.21743,"lon":5.34587,"is_reserved":false,"is_disabled":true,"rental_uris":{"android":"levelo://app?vid=fc87f29b-9c8d-4328-a892-37bcf1edda9b","ios":"levelo://app?vid=fc87f29b-9c8d-4328-a892-37bcf1edda9b"},"vehicle_type_id":"4","last_reported":1760188465,"current_range_meters":0,"station_id":"st_cvj6r9ubvosntc0bgbag","pricing_plan_id":"cebpf4jnsgd1na2vs0mg"},{"bike_id":"86eca012-edfb-4c20-9aef-d37ce3cadbda","system_id":"levelo_inurba_marseille","lat":43.21183,"lon":5.35074,"is_reserved":false,"is_disabled":true,"rental_uris":{"android":"levelo://app?vid=86eca012-edfb-4c20-9aef-d37ce3cadbda","ios":"levelo://app?vid=86eca012-edfb-4c20-9aef-d37ce3cadbda"},"vehicle_type_id":"4","last_reported":1760188465,"current_range_meters":0,"station_id":"st_cvj6sg6p6f1abm77japg","pricing_plan_id":"cebpf4jnsgd1na2vs0mg"},{"bike_id":"5206f34d-5c08-42bd-b24d-21b13734d2e6","system_id":"levelo_inurba_marseille","lat":43.21187,"lon":5.3507,"is_reserved":false,"is_disabled":true,"rental_uris":{"android":"levelo://app?vid=5206f34d-5c08-42bd-b24d-21b13734d2e6","ios":"levelo://app?vid=5206f34d-5c08-42bd-b24d-21b13734d2e6"},"vehicle_type_id":"4","last_reported":1760188465,"current_range_meters":0,"station_id":"st_cvj6sg6p6f1abm77japg","pricing_plan_id":"cebpf4jnsgd1na2vs0mg"},{"bike_id":"5a1f50b1-f1f9-4f02-a3c5-363250f2c45b","system_id":"levelo_inurba_marseille","lat":43.21191,"lon":5.35071,"is_reserved":false,"is_disabled":true,"rental_uris":{"android":"levelo://app?vid=5a1f50b1-f1f9-4f02-a3c5-363250f2c45b","ios":"levelo://app?vid=5a1f50b1-f1f9-4f02-a3c5-363250f2c45b"},"vehicle_type_id":"4","last_reported":1760188465,"current_range_meters":0,"station_id":"st_cvj6sg6p6f1abm77japg","pricing_plan_id":"cebpf4jnsgd1na2vs0mg"},{"bike_id":"9b38626a-c092-4ef3-89f6-ce0a28e7daf5","system_id":"levelo_inurba_marseille","lat":43.2533,"lon":5.4217,"is_reserved":false,"is_disabled":true,"rental_uris":{"android":"levelo://app?vid=9b38626a-c092-4ef3-89f6-ce0a28e7daf5","ios":"levelo://app?vid=9b38626a-c092-4ef3-89f6-ce0a28e7daf5"},"vehicle_type_id":"4","last_reported":1760188465,"current_range_meters":0,"station_id":"st_d2m65c5bi1j21697t3ng","pricing_plan_id":"cebpf4jnsgd1na2vs0mg"},{"bike_id":"5033aa7c-b4ff-46c3-8063-9a70f908ee32","system_id":"levelo_inurba_marseille","lat":43.29229,"lon":5.360662,"is_reserved":false,"is_disabled":true,"rental_uris":{"android":"levelo://app?vid=5033aa7c-b4ff-46c3-8063-9a70f908ee32","ios":"levelo://app?vid=5033aa7c-b4ff-46c3-8063-9a70f908ee32"},"vehicle_type_id":"4","last_reported":1760188465,"current_range_meters":400,"station_id":"ce4bhbh2rcd13ifvqeqg","pricing_plan_id":"cebpf4jnsgd1na2vs0mg"},{"bike_id":"b2e2b38d-36f4-4e15-986e-723132819a60","system_id":"levelo_inurba_marseille","lat":43.3082,"lon":5.43541,"is_reserved":false,"is_disabled":true,"rental_uris":{"android":"levelo://app?vid=b2e2b38d-36f4-4e15-986e-723132819a60","ios":"levelo://app?vid=b2e2b38d-36f4-4e15-986e-723132819a60"},"vehicle_type_id":"4","last_reported":1760188465,"current_range_meters":400,"station_id":"ce4bhph2rcd13ifvqheg","pricing_plan_id":"cebpf4jnsgd1na2vs0mg"},{"bike_id":"9d0fad03-63a6-494f-9149-4682b4930204","system_id":"levelo_inurba_marseille","lat":43.22932,"lon":5.35366,"is_reserved":false,"is_disabled":true,"rental_uris":{"android":"levelo://app?vid=9d0fad03-63a6-494f-9149-4682b4930204","ios":"levelo://app?vid=9d0fad03-63a6-494f-9149-4682b4930204"},"vehicle_type_id":"4","last_reported":1760188465,"current_range_meters":400,"station_id":"cpo3532slgdg3j2ikp40","pricing_plan_id":"cebpf4jnsgd1na2vs0mg"},{"bike_id":"9a9f181b-3cce-4cb3-b8f6-be1762c120ec","system_id":"levelo_inurba_marseille","lat":43.22568,"lon":5.41619,"is_reserved":false,"is_disabled":true,"rental_uris":{"android":"levelo://app?vid=9a9f181b-3cce-4cb3-b8f6-be1762c120ec","ios":"levelo://app?vid=9a9f181b-3cce-4cb3-b8f6-be1762c120ec"},"vehicle_type_id":"4","last_reported":1760188465,"current_range_meters":400,"station_id":"st_d2o4gvlbi1j2169b742g","pricing_plan_id":"cebpf4jnsgd1na2vs0mg"},{"bike_id":"98d4fc45-11b6-4af9-956d-0c495383a6ee","system_id":"levelo_inurba_marseille","lat":43.29169,"lon":5.37162,"is_reserved":false,"is_disabled":true,"rental_uris":{"android":"levelo://app?vid=98d4fc45-11b6-4af9-956d-0c495383a6ee","ios":"levelo://app?vid=98d4fc45-11b6-4af9-956d-0c495383a6ee"},"vehicle_type_id":"4","last_reported":1760188465,"current_range_meters":800,"station_id":"ce4bha92rcd13ifvqeh0","pricing_plan_id":"cebpf4jnsgd1na2vs0mg"},{"bike_id":"af6297b2-58ca-4751-b758-2ced6d8ad5cb","system_id":"levelo_inurba_marseille","lat":43.262082,"lon":5.374461,"is_reserved":false,"is_disabled":true,"rental_uris":{"android":"levelo://app?vid=af6297b2-58ca-4751-b758-2ced6d8ad5cb","ios":"levelo://app?vid=af6297b2-58ca-4751-b758-2ced6d8ad5cb"},"vehicle_type_id":"4","last_reported":1760188465,"current_range_meters":800,"station_id":"ce4bhgp2rcd13ifvqfc0","pricing_plan_id":"cebpf4jnsgd1na2vs0mg"},{"bike_id":"11df2912-c630-4d84-95f8-dc8cf12dbe6b","system_id":"levelo_inurba_marseille","lat":43.26935,"lon":5.38915,"is_reserved":false,"is_disabled":true,"rental_uris":{"android":"levelo://app?vid=11df2912-c630-4d84-95f8-dc8cf12dbe6b","ios":"levelo://app?vid=11df2912-c630-4d84-95f8-dc8cf12dbe6b"},"vehicle_type_id":"4","last_reported":1760188465,"current_range_meters":800,"station_id":"ce4bhhh2rcd13ifvqfl0","pricing_plan_id":"cebpf4jnsgd1na2vs0mg"},{"bike_id":"2eb9f51b-7328-483d-8572-c61e7a9615a1","system_id":"levelo_inurba_marseille","lat":43.27201,"lon":5.39199,"is_reserved":false,"is_disabled":true,"rental_uris":{"android":"levelo://app?vid=2eb9f51b-7328-483d-8572-c61e7a9615a1","ios":"levelo://app?vid=2eb9f51b-7328-483d-8572-c61e7a9615a1"},"vehicle_type_id":"4","last_reported":1760188465,"current_range_meters":800,"station_id":"ce4bhhp2rcd13ifvqfm0","pricing_plan_id":"cebpf4jnsgd1na2vs0mg"},{"bike_id":"5d0db4cc-b74a-4268-9082-44720fd06cc4","system_id":"levelo_inurba_marseille","lat":43.23062,"lon":5.35548,"is_reserved":false,"is_disabled":true,"rental_uris":{"android":"levelo://app?vid=5d0db4cc-b74a-4268-9082-44720fd06cc4","ios":"levelo://app?vid=5d0db4cc-b74a-4268-9082-44720fd06cc4"},"vehicle_type_id":"4","last_reported":1760188465,"current_range_meters":800,"station_id":"cpo3342slgdg3j2ifvpg","pricing_plan_id":"cebpf4jnsgd1na2vs0mg"},{"bike_id":"a9dd0207-4537-4709-9252-789d1dd6f16e","system_id":"levelo_inurba_marseille","lat":43.21742,"lon":5.34589,"is_reserved":false,"is_disabled":true,"rental_uris":{"android":"levelo://app?vid=a9dd0207-4537-4709-9252-789d1dd6f16e","ios":"levelo://app?vid=a9dd0207-4537-4709-9252-789d1dd6f16e"},"vehicle_type_id":"4","last_reported":1760188465,"current_range_meters":800,"station_id":"st_cvj6r9ubvosntc0bgbag","pricing_plan_id":"cebpf4jnsgd1na2vs0mg"},{"bike_id":"bc3f26e6-e751-4b6b-963c-dde1fcea9387","system_id":"levelo_inurba_marseille","lat":43.2987,"lon":5.36267,"is_reserved":false,"is_disabled":true,"rental_uris":{"android":"levelo://app?vid=bc3f26e6-e751-4b6b-963c-dde1fcea9387","ios":"levelo://app?vid=bc3f26e6-e751-4b6b-963c-dde1fcea9387"},"vehicle_type_id":"4","last_reported":1760188465,"current_range_meters":1200,"station_id":"ce4bgpp2rcd13ifvqc3g","pricing_plan_id":"cebpf4jnsgd1na2vs0mg"},{"bike_id":"cab81908-22ab-45d0-a774-5bc4e1b4e137","system_id":"levelo_inurba_marseille","lat":43.28407,"lon":5.37505,"is_reserved":false,"is_disabled":true,"rental_uris":{"android":"levelo://app?vid=cab81908-22ab-45d0-a774-5bc4e1b4e137","ios":"levelo://app?vid=cab81908-22ab-45d0-a774-5bc4e1b4e137"},"vehicle_type_id":"4","last_reported":1760188465,"current_range_meters":1200,"station_id":"ce4bh412rcd13ifvqds0","pricing_plan_id":"cebpf4jnsgd1na2vs0mg"},{"bike_id":"8e033d07-6455-4150-afe6-4d0f578e80d6","system_id":"levelo_inurba_marseille","lat":43.23959,"lon":5.36625,"is_reserved":false,"is_disabled":true,"rental_uris":{"android":"levelo://app?vid=8e033d07-6455-4150-afe6-4d0f578e80d6","ios":"levelo://app?vid=8e033d07-6455-4150-afe6-4d0f578e80d6"},"vehicle_type_id":"4","last_reported":1760188465,"current_range_meters":1200,"station_id":"ce4bhi12rcd13ifvqfp0","pricing_plan_id":"cebpf4jnsgd1na2vs0mg"},{"bike_id":"fda14b0a-4c91-4700-9b92-0c43a1c84067","system_id":"levelo_inurba_marseille","lat":43.25338,"lon":5.42168,"is_reserved":false,"is_disabled":true,"rental_uris":{"android":"levelo://app?vid=fda14b0a-4c91-4700-9b92-0c43a1c84067","ios":"levelo://app?vid=fda14b0a-4c91-4700-9b92-0c43a1c84067"},"vehicle_type_id":"4","last_reported":1760188465,"current_range_meters":1200,"station_id":"st_d2m65c5bi1j21697t3ng","pricing_plan_id":"cebpf4jnsgd1na2vs0mg"},{"bike_id":"4de9bb2c-153d-477b-bb89-ff8edd4891d6","system_id":"levelo_inurba_marseille","lat":43.3137,"lon":5.38492,"is_reserved":false,"is_disabled":true,"rental_uris":{"android":"levelo://app?vid=4de9bb2c-153d-477b-bb89-ff8edd4891d6","ios":"levelo://app?vid=4de9bb2c-153d-477b-bb89-ff8edd4891d6"},"vehicle_type_id":"4","last_reported":1760188465,"current_range_meters":1600,"station_id":"ce4bgt92rcd13ifvqcf0","pricing_plan_id":"cebpf4jnsgd1na2vs0mg"},{"bike_id":"994a33a7-2943-4903-ba33-8f0d3daafc22","system_id":"levelo_inurba_marseille","lat":43.337444,"lon":5.374475,"is_reserved":false,"is_disabled":true,"rental_uris":{"android":"levelo://app?vid=994a33a7-2943-4903-ba33-8f0d3daafc22","ios":"levelo://app?vid=994a33a7-2943-4903-ba33-8f0d3daafc22"},"vehicle_type_id":"4","last_reported":1760188465,"current_range_meters":2000,"station_id":"","pricing_plan_id":"cebpf4jnsgd1na2vs0mg"},{"bike_id":"90a4fafb-f832-4f56-ba3c-f332fd27910c","system_id":"levelo_inurba_marseille","lat":43.30646,"lon":5.40085,"is_reserved":false,"is_disabled":false,"rental_uris":{"android":"levelo://app?vid=90a4fafb-f832-4f56-ba3c-f332fd27910c","ios":"levelo://app?vid=90a4fafb-f832-4f56-ba3c-f332fd27910c"},"vehicle_type_id":"4","last_reported":1760188465,"current_range_meters":2000,"station_id":"ce4bh112rcd13ifvqda0","pricing_plan_id":"cebpf4jnsgd1na2vs0mg"},{"bike_id":"87724ff1-a432-4898-a7ab-45ad73ab0708","system_id":"levelo_inurba_marseille","lat":43.29278,"lon":5.36847,"is_reserved":false,"is_disabled":true,"rental_uris":{"android":"levelo://app?vid=87724ff1-a432-4898-a7ab-45ad73ab0708","ios":"levelo://app?vid=87724ff1-a432-4898-a7ab-45ad73ab0708"},"vehicle_type_id":"4","last_reported":1760188465,"current_range_meters":2000,"station_id":"ce4bhbp2rcd13ifvqesg","pricing_plan_id":"cebpf4jnsgd1na2vs0mg"},{"bike_id":"d75fb7f0-6f3f-4cac-86db-fac81037a457","system_id":"levelo_inurba_marseille","lat":43.2621,"lon":5.37921,"is_reserved":false,"is_disabled":true,"rental_uris":{"android":"levelo://app?vid=d75fb7f0-6f3f-4cac-86db-fac81037a457","ios":"levelo://app?vid=d75fb7f0-6f3f-4cac-86db-fac81037a457"},"vehicle_type_id":"4","last_reported":1760188465,"current_range_meters":2000,"station_id":"ce4bhjp2rcd13ifvqg90","pricing_plan_id":"cebpf4jnsgd1na2vs0mg"},{"bike_id":"a608ce2e-0cbc-4e7c-af96-b5c51fc19c58","system_id":"levelo_inurba_marseille","lat":43.30129,"lon":5.38774,"is_reserved":false,"is_disabled":false,"rental_uris":{"android":"levelo://app?vid=a608ce2e-0cbc-4e7c-af96-b5c51fc19c58","ios":"levelo://app?vid=a608ce2e-0cbc-4e7c-af96-b5c51fc19c58"},"vehicle_type_id":"4","last_reported":1760188465,"current_range_meters":2800,"station_id":"ce4bghh2rcd13ifvqb60","pricing_plan_id":"cebpf4jnsgd1na2vs0mg"},{"bike_id":"d2217ccc-31ec-443e-81f3-48009f9c851b","system_id":"levelo_inurba_marseille","lat":43.29373,"lon":5.37862,"is_reserved":false,"is_disabled":false,"rental_uris":{"android":"levelo://app?vid=d2217ccc-31ec-443e-81f3-48009f9c851b","ios":"levelo://app?vid=d2217ccc-31ec-443e-81f3-48009f9c851b"},"vehicle_type_id":"4","last_reported":1760188465,"current_range_meters":2800,"station_id":"ce4bgjh2rcd13ifvqbf0","pricing_plan_id":"cebpf4jnsgd1na2vs0mg"},{"bike_id":"f5309034-2842-42bb-9bfd-7efe76f4098a","system_id":"levelo_inurba_marseille","lat":43.27207,"lon":5.39187,"is_reserved":false,"is_disabled":false,"rental_uris":{"android":"levelo://app?vid=f5309034-2842-42bb-9bfd-7efe76f4098a","ios":"levelo://app?vid=f5309034-2842-42bb-9bfd-7efe76f4098a"},"vehicle_type_id":"4","last_reported":1760188465,"current_range_meters":2800,"station_id":"ce4bhhp2rcd13ifvqfm0","pricing_plan_id":"cebpf4jnsgd1na2vs0mg"},{"bike_id":"0776a256-c3d4-4dbe-905a-28405807d8be","system_id":"levelo_inurba_marseille","lat":43.28267,"lon":5.3507,"is_reserved":false,"is_disabled":false,"rental_uris":{"android":"levelo://app?vid=0776a256-c3d4-4dbe-905a-28405807d8be","ios":"levelo://app?vid=0776a256-c3d4-4dbe-905a-28405807d8be"},"vehicle_type_id":"4","last_reported":1760188465,"current_range_meters":3200,"station_id":"ce4bhbp2rcd13ifvqerg","pricing_plan_id":"cebpf4jnsgd1na2vs0mg"},{"bike_id":"23f15c4d-3aab-43e2-8825-d491160ecaf9","system_id":"levelo_inurba_marseille","lat":43.21185,"lon":5.35072,"is_reserved":false,"is_disabled":false,"rental_uris":{"android":"levelo://app?vid=23f15c4d-3aab-43e2-8825-d491160ecaf9","ios":"levelo://app?vid=23f15c4d-3aab-43e2-8825-d491160ecaf9"},"vehicle_type_id":"4","last_reported":1760188465,"current_range_meters":3200,"station_id":"st_cvj6sg6p6f1abm77japg","pricing_plan_id":"cebpf4jnsgd1na2vs0mg"},{"bike_id":"6e6d17e4-c4de-4544-9781-d60e02407307","system_id":"levelo_inurba_marseille","lat":43.30377,"lon":5.42478,"is_reserved":false,"is_disabled":false,"rental_uris":{"android":"levelo://app?vid=6e6d17e4-c4de-4544-9781-d60e02407307","ios":"levelo://app?vid=6e6d17e4-c4de-4544-9781-d60e02407307"},"vehicle_type_id":"4","last_reported":1760188465,"current_range_meters":3600,"station_id":"ce4bhoh2rcd13ifvqh6g","pricing_plan_id":"cebpf4jnsgd1na2vs0mg"},{"bike_id":"1508e37c-ddee-4fca-a836-8777a02263a4","system_id":"levelo_inurba_marseille","lat":43.297229,"lon":5.380115,"is_reserved":false,"is_disabled":false,"rental_uris":{"android":"levelo://app?vid=1508e37c-ddee-4fca-a836-8777a02263a4","ios":"levelo://app?vid=1508e37c-ddee-4fca-a836-8777a02263a4"},"vehicle_type_id":"4","last_reported":1760188465,"current_range_meters":4000,"station_id":"","pricing_plan_id":"cebpf4jnsgd1na2vs0mg"},{"bike_id":"42500951-210f-4506-b37d-e5f9ed0848c8","system_id":"levelo_inurba_marseille","lat":43.23197,"lon":5.3555,"is_reserved":false,"is_disabled":false,"rental_uris":{"android":"levelo://app?vid=42500951-210f-4506-b37d-e5f9ed0848c8","ios":"levelo://app?vid=42500951-210f-4506-b37d-e5f9ed0848c8"},"vehicle_type_id":"4","last_reported":1760188465,"current_range_meters":4000,"station_id":"ce4bhu92rcd13ifvqi70","pricing_plan_id":"cebpf4jnsgd1na2vs0mg"},{"bike_id":"7d9d94cb-2f09-43b4-bedc-3c7f12ef77e6","system_id":"levelo_inurba_marseille","lat":43.29264,"lon":5.40905,"is_reserved":false,"is_disabled":false,"rental_uris":{"android":"levelo://app?vid=7d9d94cb-2f09-43b4-bedc-3c7f12ef77e6","ios":"levelo://app?vid=7d9d94cb-2f09-43b4-bedc-3c7f12ef77e6"},"vehicle_type_id":"4","last_reported":1760188465,"current_range_meters":4400,"station_id":"ce4bh192rcd13ifvqdc0","pricing_plan_id":"cebpf4jnsgd1na2vs0mg"},{"bike_id":"426ae459-bdd3-41a6-86fe-0a9afbe8d303","system_id":"levelo_inurba_marseille","lat":43.23061,"lon":5.3549,"is_reserved":false,"is_disabled":false,"rental_uris":{"android":"levelo://app?vid=426ae459-bdd3-41a6-86fe-0a9afbe8d303","ios":"levelo://app?vid=426ae459-bdd3-41a6-86fe-0a9afbe8d303"},"vehicle_type_id":"4","last_reported":1760188465,"current_range_meters":4400,"station_id":"cpo3342slgdg3j2ifvpg","pricing_plan_id":"cebpf4jnsgd1na2vs0mg"},{"bike_id":"66ebf68c-5915-4632-ac85-ad168186e4f8","system_id":"levelo_inurba_marseille","lat":43.21753,"lon":5.34597,"is_reserved":false,"is_disabled":false,"rental_uris":{"android":"levelo://app?vid=66ebf68c-5915-4632-ac85-ad168186e4f8","ios":"levelo://app?vid=66ebf68c-5915-4632-ac85-ad168186e4f8"},"vehicle_type_id":"4","last_reported":1760188465,"current_range_meters":4400,"station_id":"st_cvj6r9ubvosntc0bgbag","pricing_plan_id":"cebpf4jnsgd1na2vs0mg"},{"bike_id":"c19915a3-9d36-4556-bafe-c7863ff90ad4","system_id":"levelo_inurba_marseille","lat":43.21753,"lon":5.34593,"is_reserved":false,"is_disabled":false,"rental_uris":{"android":"levelo://app?vid=c19915a3-9d36-4556-bafe-c7863ff90ad4","ios":"levelo://app?vid=c19915a3-9d36-4556-bafe-c7863ff90ad4"},"vehicle_type_id":"4","last_reported":1760188465,"current_range_meters":4400,"station_id":"st_cvj6r9ubvosntc0bgbag","pricing_plan_id":"cebpf4jnsgd1na2vs0mg"},{"bike_id":"e7ee1a5b-e8ac-4add-9a5a-a3ba37643bbf","system_id":"levelo_inurba_marseille","lat":43.25869,"lon":5.39889,"is_reserved":false,"is_disabled":false,"rental_uris":{"android":"levelo://app?vid=e7ee1a5b-e8ac-4add-9a5a-a3ba37643bbf","ios":"levelo://app?vid=e7ee1a5b-e8ac-4add-9a5a-a3ba37643bbf"},"vehicle_type_id":"4","last_reported":1760188465,"current_range_meters":4800,"station_id":"ce4bhl92rcd13ifvqghg","pricing_plan_id":"cebpf4jnsgd1na2vs0mg"},{"bike_id":"e10fd455-8fc2-49a5-981f-070e3a539641","system_id":"levelo_inurba_marseille","lat":43.23962,"lon":5.36623,"is_reserved":false,"is_disabled":false,"rental_uris":{"android":"levelo://app?vid=e10fd455-8fc2-49a5-981f-070e3a539641","ios":"levelo://app?vid=e10fd455-8fc2-49a5-981f-070e3a539641"},"vehicle_type_id":"4","last_reported":1760188465,"current_range_meters":5600,"station_id":"ce4bhi12rcd13ifvqfp0","pricing_plan_id":"cebpf4jnsgd1na2vs0mg"},{"bike_id":"8f3397a7-6be1-436d-972d-993eeb83afde","system_id":"levelo_inurba_marseille","lat":43.23194,"lon":5.35558,"is_reserved":false,"is_disabled":false,"rental_uris":{"android":"levelo://app?vid=8f3397a7-6be1-436d-972d-993eeb83afde","ios":"levelo://app?vid=8f3397a7-6be1-436d-972d-993eeb83afde"},"vehicle_type_id":"4","last_reported":1760188465,"current_range_meters":5600,"station_id":"ce4bhu92rcd13ifvqi70","pricing_plan_id":"cebpf4jnsgd1na2vs0mg"},{"bike_id":"973d8d5f-ceaf-4023-aa9c-d8193b78b2e7","system_id":"levelo_inurba_marseille","lat":43.22562,"lon":5.41625,"is_reserved":false,"is_disabled":false,"rental_uris":{"android":"levelo://app?vid=973d8d5f-ceaf-4023-aa9c-d8193b78b2e7","ios":"levelo://app?vid=973d8d5f-ceaf-4023-aa9c-d8193b78b2e7"},"vehicle_type_id":"4","last_reported":1760188465,"current_range_meters":5600,"station_id":"st_d2o4gvlbi1j2169b742g","pricing_plan_id":"cebpf4jnsgd1na2vs0mg"},{"bike_id":"ad0344d1-d554-4cc6-80e8-80ccc53748e4","system_id":"levelo_inurba_marseille","lat":43.299056,"lon":5.365511,"is_reserved":false,"is_disabled":false,"rental_uris":{"android":"levelo://app?vid=ad0344d1-d554-4cc6-80e8-80ccc53748e4","ios":"levelo://app?vid=ad0344d1-d554-4cc6-80e8-80ccc53748e4"},"vehicle_type_id":"4","last_reported":1760188465,"current_range_meters":6000,"station_id":"ce4bgm92rcd13ifvqbr0","pricing_plan_id":"cebpf4jnsgd1na2vs0mg"},{"bike_id":"c8adeef5-d325-4303-b2a1-fe0955f40a77","system_id":"levelo_inurba_marseille","lat":43.2791,"lon":5.38004,"is_reserved":false,"is_disabled":false,"rental_uris":{"android":"levelo://app?vid=c8adeef5-d325-4303-b2a1-fe0955f40a77","ios":"levelo://app?vid=c8adeef5-d325-4303-b2a1-fe0955f40a77"},"vehicle_type_id":"4","last_reported":1760188465,"current_range_meters":6000,"station_id":"ce4bhf92rcd13ifvqf50","pricing_plan_id":"cebpf4jnsgd1na2vs0mg"},{"bike_id":"12073df2-017e-4415-89ee-ea6c575eaac0","system_id":"levelo_inurba_marseille","lat":43.23149,"lon":5.43714,"is_reserved":false,"is_disabled":false,"rental_uris":{"android":"levelo://app?vid=12073df2-017e-4415-89ee-ea6c575eaac0","ios":"levelo://app?vid=12073df2-017e-4415-89ee-ea6c575eaac0"},"vehicle_type_id":"4","last_reported":1760188465,"current_range_meters":6000,"station_id":"ce4bhmp2rcd13ifvqgog","pricing_plan_id":"cebpf4jnsgd1na2vs0mg"},{"bike_id":"dcf26a5b-b8ed-42bb-ad77-12eab8688ea3","system_id":"levelo_inurba_marseille","lat":43.21753,"lon":5.34611,"is_reserved":false,"is_disabled":false,"rental_uris":{"android":"levelo://app?vid=dcf26a5b-b8ed-42bb-ad77-12eab8688ea3","ios":"levelo://app?vid=dcf26a5b-b8ed-42bb-ad77-12eab8688ea3"},"vehicle_type_id":"4","last_reported":1760188465,"current_range_meters":6000,"station_id":"st_cvj6r9ubvosntc0bgbag","pricing_plan_id":"cebpf4jnsgd1na2vs0mg"},{"bike_id":"56067302-a89f-4b50-b106-e744626d84de","system_id":"levelo_inurba_marseille","lat":43.31075,"lon":5.38358,"is_reserved":false,"is_disabled":false,"rental_uris":{"android":"levelo://app?vid=56067302-a89f-4b50-b106-e744626d84de","ios":"levelo://app?vid=56067302-a89f-4b50-b106-e744626d84de"},"vehicle_type_id":"4","last_reported":1760188465,"current_range_meters":6400,"station_id":"ce4bgv92rcd13ifvqcr0","pricing_plan_id":"cebpf4jnsgd1na2vs0mg"},{"bike_id":"71c99e3a-4c5e-4263-89da-b0e8f9f3e714","system_id":"levelo_inurba_marseille","lat":43.30934,"lon":5.4013,"is_reserved":false,"is_disabled":false,"rental_uris":{"android":"levelo://app?vid=71c99e3a-4c5e-4263-89da-b0e8f9f3e714","ios":"levelo://app?vid=71c99e3a-4c5e-4263-89da-b0e8f9f3e714"},"vehicle_type_id":"4","last_reported":1760188465,"current_range_meters":6400,"station_id":"ce4bgvp2rcd13ifvqct0","pricing_plan_id":"cebpf4jnsgd1na2vs0mg"},{"bike_id":"6f9b265f-54a4-4410-8794-2022b667b884","system_id":"levelo_inurba_marseille","lat":43.284129,"lon":5.349752,"is_reserved":false,"is_disabled":false,"rental_uris":{"android":"levelo://app?vid=6f9b265f-54a4-4410-8794-2022b667b884","ios":"levelo://app?vid=6f9b265f-54a4-4410-8794-2022b667b884"},"vehicle_type_id":"4","last_reported":1760188465,"current_range_meters":6400,"station_id":"ce4bhbh2rcd13ifvqepg","pricing_plan_id":"cebpf4jnsgd1na2vs0mg"},{"bike_id":"97c6b585-5f00-42f4-9b5b-a42b41a6e57f","system_id":"levelo_inurba_marseille","lat":43.26209,"lon":5.37441,"is_reserved":false,"is_disabled":false,"rental_uris":{"android":"levelo://app?vid=97c6b585-5f00-42f4-9b5b-a42b41a6e57f","ios":"levelo://app?vid=97c6b585-5f00-42f4-9b5b-a42b41a6e57f"},"vehicle_type_id":"4","last_reported":1760188465,"current_range_meters":6400,"station_id":"ce4bhgp2rcd13ifvqfc0","pricing_plan_id":"cebpf4jnsgd1na2vs0mg"},{"bike_id":"34b7bc01-9bee-4dfc-ada2-12169adef2cd","system_id":"levelo_inurba_marseille","lat":43.28443,"lon":5.39205,"is_reserved":false,"is_disabled":false,"rental_uris":{"android":"levelo://app?vid=34b7bc01-9bee-4dfc-ada2-12169adef2cd","ios":"levelo://app?vid=34b7bc01-9bee-4dfc-ada2-12169adef2cd"},"vehicle_type_id":"4","last_reported":1760188465,"current_range_meters":6400,"station_id":"ce4bhoh2rcd13ifvqh5g","pricing_plan_id":"cebpf4jnsgd1na2vs0mg"},{"bike_id":"c1850418-2bc0-4b54-95d2-984a6e34538c","system_id":"levelo_inurba_marseille","lat":43.23194,"lon":5.35548,"is_reserved":false,"is_disabled":false,"rental_uris":{"android":"levelo://app?vid=c1850418-2bc0-4b54-95d2-984a6e34538c","ios":"levelo://app?vid=c1850418-2bc0-4b54-95d2-984a6e34538c"},"vehicle_type_id":"4","last_reported":1760188465,"current_range_meters":6400,"station_id":"ce4bhu92rcd13ifvqi70","pricing_plan_id":"cebpf4jnsgd1na2vs0mg"},{"bike_id":"6f8d1492-f613-4280-9344-73a49201319b","system_id":"levelo_inurba_marseille","lat":43.21751,"lon":5.34597,"is_reserved":false,"is_disabled":false,"rental_uris":{"android":"levelo://app?vid=6f8d1492-f613-4280-9344-73a49201319b","ios":"levelo://app?vid=6f8d1492-f613-4280-9344-73a49201319b"},"vehicle_type_id":"4","last_reported":1760188465,"current_range_meters":6800,"station_id":"st_cvj6r9ubvosntc0bgbag","pricing_plan_id":"cebpf4jnsgd1na2vs0mg"},{"bike_id":"2bc038b1-519b-42b1-9bd4-7d2b97044996","system_id":"levelo_inurba_marseille","lat":43.29292,"lon":5.4104,"is_reserved":false,"is_disabled":false,"rental_uris":{"android":"levelo://app?vid=2bc038b1-519b-42b1-9bd4-7d2b97044996","ios":"levelo://app?vid=2bc038b1-519b-42b1-9bd4-7d2b97044996"},"vehicle_type_id":"4","last_reported":1760188465,"current_range_meters":7200,"station_id":"","pricing_plan_id":"cebpf4jnsgd1na2vs0mg"},{"bike_id":"64d05fdc-7c44-47c0-a923-e806e50ca367","system_id":"levelo_inurba_marseille","lat":43.28661,"lon":5.36343,"is_reserved":false,"is_disabled":false,"rental_uris":{"android":"levelo://app?vid=64d05fdc-7c44-47c0-a923-e806e50ca367","ios":"levelo://app?vid=64d05fdc-7c44-47c0-a923-e806e50ca367"},"vehicle_type_id":"4","last_reported":1760188465,"current_range_meters":7200,"station_id":"ce4bhah2rcd13ifvqej0","pricing_plan_id":"cebpf4jnsgd1na2vs0mg"},{"bike_id":"87d5fbb3-d910-4550-9adb-817c4ee05549","system_id":"levelo_inurba_marseille","lat":43.28266,"lon":5.35062,"is_reserved":false,"is_disabled":false,"rental_uris":{"android":"levelo://app?vid=87d5fbb3-d910-4550-9adb-817c4ee05549","ios":"levelo://app?vid=87d5fbb3-d910-4550-9adb-817c4ee05549"},"vehicle_type_id":"4","last_reported":1760188465,"current_range_meters":7200,"station_id":"ce4bhbp2rcd13ifvqerg","pricing_plan_id":"cebpf4jnsgd1na2vs0mg"},{"bike_id":"286e15cd-84d2-453c-94e7-d09eaa8c91d3","system_id":"levelo_inurba_marseille","lat":43.21189,"lon":5.35068,"is_reserved":false,"is_disabled":false,"rental_uris":{"android":"levelo://app?vid=286e15cd-84d2-453c-94e7-d09eaa8c91d3","ios":"levelo://app?vid=286e15cd-84d2-453c-94e7-d09eaa8c91d3"},"vehicle_type_id":"4","last_reported":1760188465,"current_range_meters":7200,"station_id":"st_cvj6sg6p6f1abm77japg","pricing_plan_id":"cebpf4jnsgd1na2vs0mg"},{"bike_id":"de7fe69b-047c-4fe9-8d8c-7f9147568258","system_id":"levelo_inurba_marseille","lat":43.22571,"lon":5.41623,"is_reserved":false,"is_disabled":false,"rental_uris":{"android":"levelo://app?vid=de7fe69b-047c-4fe9-8d8c-7f9147568258","ios":"levelo://app?vid=de7fe69b-047c-4fe9-8d8c-7f9147568258"},"vehicle_type_id":"4","last_reported":1760188465,"current_range_meters":7200,"station_id":"st_d2o4gvlbi1j2169b742g","pricing_plan_id":"cebpf4jnsgd1na2vs0mg"},{"bike_id":"b7844ae4-20d5-4d81-8f4d-cd146b6f58ee","system_id":"levelo_inurba_marseille","lat":43.31797,"lon":5.37632,"is_reserved":false,"is_disabled":false,"rental_uris":{"android":"levelo://app?vid=b7844ae4-20d5-4d81-8f4d-cd146b6f58ee","ios":"levelo://app?vid=b7844ae4-20d5-4d81-8f4d-cd146b6f58ee"},"vehicle_type_id":"4","last_reported":1760188465,"current_range_meters":8000,"station_id":"","pricing_plan_id":"cebpf4jnsgd1na2vs0mg"},{"bike_id":"e9e42d2d-7e53-4efc-b575-031b106766c7","system_id":"levelo_inurba_marseille","lat":43.297386,"lon":5.36875,"is_reserved":false,"is_disabled":false,"rental_uris":{"android":"levelo://app?vid=e9e42d2d-7e53-4efc-b575-031b106766c7","ios":"levelo://app?vid=e9e42d2d-7e53-4efc-b575-031b106766c7"},"vehicle_type_id":"4","last_reported":1760188465,"current_range_meters":8000,"station_id":"","pricing_plan_id":"cebpf4jnsgd1na2vs0mg"},{"bike_id":"5ccc7909-a5b3-4035-995d-3377d5b9c3fc","system_id":"levelo_inurba_marseille","lat":43.22924,"lon":5.35372,"is_reserved":false,"is_disabled":false,"rental_uris":{"android":"levelo://app?vid=5ccc7909-a5b3-4035-995d-3377d5b9c3fc","ios":"levelo://app?vid=5ccc7909-a5b3-4035-995d-3377d5b9c3fc"},"vehicle_type_id":"4","last_reported":1760188465,"current_range_meters":8000,"station_id":"cpo3532slgdg3j2ikp40","pricing_plan_id":"cebpf4jnsgd1na2vs0mg"},{"bike_id":"3023cdbd-b46e-4166-9052-1b4c5f087d64","system_id":"levelo_inurba_marseille","lat":43.28423,"lon":5.34983,"is_reserved":false,"is_disabled":false,"rental_uris":{"android":"levelo://app?vid=3023cdbd-b46e-4166-9052-1b4c5f087d64","ios":"levelo://app?vid=3023cdbd-b46e-4166-9052-1b4c5f087d64"},"vehicle_type_id":"4","last_reported":1760188465,"current_range_meters":8400,"station_id":"ce4bhbh2rcd13ifvqepg","pricing_plan_id":"cebpf4jnsgd1na2vs0mg"},{"bike_id":"5b3bb1e2-271f-4440-b875-4f6020a66735","system_id":"levelo_inurba_marseille","lat":43.25003,"lon":5.38922,"is_reserved":false,"is_disabled":false,"rental_uris":{"android":"levelo://app?vid=5b3bb1e2-271f-4440-b875-4f6020a66735","ios":"levelo://app?vid=5b3bb1e2-271f-4440-b875-4f6020a66735"},"vehicle_type_id":"4","last_reported":1760188465,"current_range_meters":8400,"station_id":"ce4bhgp2rcd13ifvqfd0","pricing_plan_id":"cebpf4jnsgd1na2vs0mg"},{"bike_id":"12ffbdf7-d631-41cd-abfc-6e57387a22b0","system_id":"levelo_inurba_marseille","lat":43.24166,"lon":5.36389,"is_reserved":false,"is_disabled":false,"rental_uris":{"android":"levelo://app?vid=12ffbdf7-d631-41cd-abfc-6e57387a22b0","ios":"levelo://app?vid=12ffbdf7-d631-41cd-abfc-6e57387a22b0"},"vehicle_type_id":"4","last_reported":1760188465,"current_range_meters":8400,"station_id":"cpo36qri1sfpv3e86is0","pricing_plan_id":"cebpf4jnsgd1na2vs0mg"},{"bike_id":"92a30c30-f0b8-473f-9db4-cad408eac6b7","system_id":"levelo_inurba_marseille","lat":43.21748,"lon":5.34594,"is_reserved":false,"is_disabled":false,"rental_uris":{"android":"levelo://app?vid=92a30c30-f0b8-473f-9db4-cad408eac6b7","ios":"levelo://app?vid=92a30c30-f0b8-473f-9db4-cad408eac6b7"},"vehicle_type_id":"4","last_reported":1760188465,"current_range_meters":8400,"station_id":"st_cvj6r9ubvosntc0bgbag","pricing_plan_id":"cebpf4jnsgd1na2vs0mg"},{"bike_id":"ab39e7be-c709-417b-8585-a40c41c27372","system_id":"levelo_inurba_marseille","lat":43.22569,"lon":5.41644,"is_reserved":false,"is_disabled":false,"rental_uris":{"android":"levelo://app?vid=ab39e7be-c709-417b-8585-a40c41c27372","ios":"levelo://app?vid=ab39e7be-c709-417b-8585-a40c41c27372"},"vehicle_type_id":"4","last_reported":1760188465,"current_range_meters":8400,"station_id":"st_d2o4gvlbi1j2169b742g","pricing_plan_id":"cebpf4jnsgd1na2vs0mg"},{"bike_id":"7ecce9b3-6d8a-4b46-9e3e-06d9c28c905f","system_id":"levelo_inurba_marseille","lat":43.289129,"lon":5.390776,"is_reserved":false,"is_disabled":false,"rental_uris":{"android":"levelo://app?vid=7ecce9b3-6d8a-4b46-9e3e-06d9c28c905f","ios":"levelo://app?vid=7ecce9b3-6d8a-4b46-9e3e-06d9c28c905f"},"vehicle_type_id":"4","last_reported":1760188465,"current_range_meters":8800,"station_id":"","pricing_plan_id":"cebpf4jnsgd1na2vs0mg"},{"bike_id":"840f5367-4a8b-4bf8-aed3-ddf295d75be0","system_id":"levelo_inurba_marseille","lat":43.30428,"lon":5.371896,"is_reserved":false,"is_disabled":false,"rental_uris":{"android":"levelo://app?vid=840f5367-4a8b-4bf8-aed3-ddf295d75be0","ios":"levelo://app?vid=840f5367-4a8b-4bf8-aed3-ddf295d75be0"},"vehicle_type_id":"4","last_reported":1760188465,"current_range_meters":8800,"station_id":"","pricing_plan_id":"cebpf4jnsgd1na2vs0mg"},{"bike_id":"f9965906-ccac-494c-a66c-6be8afd300df","system_id":"levelo_inurba_marseille","lat":43.27376,"lon":5.36252,"is_reserved":false,"is_disabled":false,"rental_uris":{"android":"levelo://app?vid=f9965906-ccac-494c-a66c-6be8afd300df","ios":"levelo://app?vid=f9965906-ccac-494c-a66c-6be8afd300df"},"vehicle_type_id":"4","last_reported":1760188465,"current_range_meters":8800,"station_id":"ce4bhbh2rcd13ifvqeo0","pricing_plan_id":"cebpf4jnsgd1na2vs0mg"},{"bike_id":"0a59c676-deb7-4a38-b822-5872e5c3c8d5","system_id":"levelo_inurba_marseille","lat":43.26212,"lon":5.3744,"is_reserved":false,"is_disabled":false,"rental_uris":{"android":"levelo://app?vid=0a59c676-deb7-4a38-b822-5872e5c3c8d5","ios":"levelo://app?vid=0a59c676-deb7-4a38-b822-5872e5c3c8d5"},"vehicle_type_id":"4","last_reported":1760188465,"current_range_meters":8800,"station_id":"ce4bhgp2rcd13ifvqfc0","pricing_plan_id":"cebpf4jnsgd1na2vs0mg"},{"bike_id":"e69857b2-722c-4d3e-ba60-818b5ac8a550","system_id":"levelo_inurba_marseille","lat":43.22526,"lon":5.34816,"is_reserved":false,"is_disabled":false,"rental_uris":{"android":"levelo://app?vid=e69857b2-722c-4d3e-ba60-818b5ac8a550","ios":"levelo://app?vid=e69857b2-722c-4d3e-ba60-818b5ac8a550"},"vehicle_type_id":"4","last_reported":1760188465,"current_range_meters":8800,"station_id":"st_cvj5dfep6f1abm77gieg","pricing_plan_id":"cebpf4jnsgd1na2vs0mg"},{"bike_id":"65de34ce-6450-4e56-a6fe-251627e07b88","system_id":"levelo_inurba_marseille","lat":43.21733,"lon":5.34599,"is_reserved":false,"is_disabled":false,"rental_uris":{"android":"levelo://app?vid=65de34ce-6450-4e56-a6fe-251627e07b88","ios":"levelo://app?vid=65de34ce-6450-4e56-a6fe-251627e07b88"},"vehicle_type_id":"4","last_reported":1760188465,"current_range_meters":8800,"station_id":"st_cvj6r9ubvosntc0bgbag","pricing_plan_id":"cebpf4jnsgd1na2vs0mg"},{"bike_id":"0458f03b-1910-440f-9167-c00670fba699","system_id":"levelo_inurba_marseille","lat":43.337444,"lon":5.374475,"is_reserved":false,"is_disabled":false,"rental_uris":{"android":"levelo://app?vid=0458f03b-1910-440f-9167-c00670fba699","ios":"levelo://app?vid=0458f03b-1910-440f-9167-c00670fba699"},"vehicle_type_id":"4","last_reported":1760188465,"current_range_meters":9200,"station_id":"","pricing_plan_id":"cebpf4jnsgd1na2vs0mg"},{"bike_id":"a6460e6c-51d5-4440-9f02-30b5a38b5e70","system_id":"levelo_inurba_marseille","lat":43.29715,"lon":5.36611,"is_reserved":false,"is_disabled":false,"rental_uris":{"android":"levelo://app?vid=a6460e6c-51d5-4440-9f02-30b5a38b5e70","ios":"levelo://app?vid=a6460e6c-51d5-4440-9f02-30b5a38b5e70"},"vehicle_type_id":"4","last_reported":1760188465,"current_range_meters":9200,"station_id":"ce4bgn12rcd13ifvqbt0","pricing_plan_id":"cebpf4jnsgd1na2vs0mg"},{"bike_id":"5e529ba1-3783-41af-86fa-a5f3a77a378b","system_id":"levelo_inurba_marseille","lat":43.26029,"lon":5.37544,"is_reserved":false,"is_disabled":false,"rental_uris":{"android":"levelo://app?vid=5e529ba1-3783-41af-86fa-a5f3a77a378b","ios":"levelo://app?vid=5e529ba1-3783-41af-86fa-a5f3a77a378b"},"vehicle_type_id":"4","last_reported":1760188465,"current_range_meters":9200,"station_id":"ce4bhgh2rcd13ifvqfa0","pricing_plan_id":"cebpf4jnsgd1na2vs0mg"},{"bike_id":"226f9861-d66c-4c69-b23f-48aa5532ae82","system_id":"levelo_inurba_marseille","lat":43.28166,"lon":5.42638,"is_reserved":false,"is_disabled":false,"rental_uris":{"android":"levelo://app?vid=226f9861-d66c-4c69-b23f-48aa5532ae82","ios":"levelo://app?vid=226f9861-d66c-4c69-b23f-48aa5532ae82"},"vehicle_type_id":"4","last_reported":1760188465,"current_range_meters":9200,"station_id":"ce4bhnh2rcd13ifvqgug","pricing_plan_id":"cebpf4jnsgd1na2vs0mg"},{"bike_id":"567535da-e28c-4727-a5a6-665654600220","system_id":"levelo_inurba_marseille","lat":43.21748,"lon":5.34592,"is_reserved":false,"is_disabled":false,"rental_uris":{"android":"levelo://app?vid=567535da-e28c-4727-a5a6-665654600220","ios":"levelo://app?vid=567535da-e28c-4727-a5a6-665654600220"},"vehicle_type_id":"4","last_reported":1760188465,"current_range_meters":9200,"station_id":"st_cvj6r9ubvosntc0bgbag","pricing_plan_id":"cebpf4jnsgd1na2vs0mg"},{"bike_id":"d68e7603-56a3-4319-ac1f-576c83ee5a67","system_id":"levelo_inurba_marseille","lat":43.313599,"lon":5.384819,"is_reserved":false,"is_disabled":false,"rental_uris":{"android":"levelo://app?vid=d68e7603-56a3-4319-ac1f-576c83ee5a67","ios":"levelo://app?vid=d68e7603-56a3-4319-ac1f-576c83ee5a67"},"vehicle_type_id":"4","last_reported":1760188465,"current_range_meters":9600,"station_id":"ce4bgt92rcd13ifvqcf0","pricing_plan_id":"cebpf4jnsgd1na2vs0mg"},{"bike_id":"2876bad9-dd89-40c4-b35e-3d2dc7a0e71e","system_id":"levelo_inurba_marseille","lat":43.28855,"lon":5.35845,"is_reserved":false,"is_disabled":false,"rental_uris":{"android":"levelo://app?vid=2876bad9-dd89-40c4-b35e-3d2dc7a0e71e","ios":"levelo://app?vid=2876bad9-dd89-40c4-b35e-3d2dc7a0e71e"},"vehicle_type_id":"4","last_reported":1760188465,"current_range_meters":9600,"station_id":"ce4bhb12rcd13ifvqem0","pricing_plan_id":"cebpf4jnsgd1na2vs0mg"},{"bike_id":"6a5336f2-bb35-4f12-9ba7-e08733bd3005","system_id":"levelo_inurba_marseille","lat":43.24647,"lon":5.38886,"is_reserved":false,"is_disabled":false,"rental_uris":{"android":"levelo://app?vid=6a5336f2-bb35-4f12-9ba7-e08733bd3005","ios":"levelo://app?vid=6a5336f2-bb35-4f12-9ba7-e08733bd3005"},"vehicle_type_id":"4","last_reported":1760188465,"current_range_meters":9600,"station_id":"ce4bhg12rcd13ifvqf60","pricing_plan_id":"cebpf4jnsgd1na2vs0mg"},{"bike_id":"e5ad2935-533c-49d8-b0d0-e58e86735d74","system_id":"levelo_inurba_marseille","lat":43.26195,"lon":5.37446,"is_reserved":false,"is_disabled":false,"rental_uris":{"android":"levelo://app?vid=e5ad2935-533c-49d8-b0d0-e58e86735d74","ios":"levelo://app?vid=e5ad2935-533c-49d8-b0d0-e58e86735d74"},"vehicle_type_id":"4","last_reported":1760188465,"current_range_meters":9600,"station_id":"ce4bhgp2rcd13ifvqfc0","pricing_plan_id":"cebpf4jnsgd1na2vs0mg"},{"bike_id":"a091fa2a-de07-4635-870e-3375376348fb","system_id":"levelo_inurba_marseille","lat":43.30059,"lon":5.38654,"is_reserved":false,"is_disabled":false,"rental_uris":{"android":"levelo://app?vid=a091fa2a-de07-4635-870e-3375376348fb","ios":"levelo://app?vid=a091fa2a-de07-4635-870e-3375376348fb"},"vehicle_type_id":"4","last_reported":1760188465,"current_range_meters":10000,"station_id":"","pricing_plan_id":"cebpf4jnsgd1na2vs0mg"},{"bike_id":"f84db39b-1588-467c-a7d6-3417c55d68b1","system_id":"levelo_inurba_marseille","lat":43.2939,"lon":5.37483,"is_reserved":false,"is_disabled":false,"rental_uris":{"android":"levelo://app?vid=f84db39b-1588-467c-a7d6-3417c55d68b1","ios":"levelo://app?vid=f84db39b-1588-467c-a7d6-3417c55d68b1"},"vehicle_type_id":"4","last_reported":1760188465,"current_range_meters":10000,"station_id":"","pricing_plan_id":"cebpf4jnsgd1na2vs0mg"},{"bike_id":"431c2e70-433d-4af0-acf4-957ec8670f40","system_id":"levelo_inurba_marseille","lat":43.2954,"lon":5.383068,"is_reserved":false,"is_disabled":false,"rental_uris":{"android":"levelo://app?vid=431c2e70-433d-4af0-acf4-957ec8670f40","ios":"levelo://app?vid=431c2e70-433d-4af0-acf4-957ec8670f40"},"vehicle_type_id":"4","last_reported":1760188465,"current_range_meters":10000,"station_id":"","pricing_plan_id":"cebpf4jnsgd1na2vs0mg"},{"bike_id":"664f4c83-7e56-4dc2-b510-8aacbb3c3a4a","system_id":"levelo_inurba_marseille","lat":43.295277,"lon":5.385447,"is_reserved":false,"is_disabled":false,"rental_uris":{"android":"levelo://app?vid=664f4c83-7e56-4dc2-b510-8aacbb3c3a4a","ios":"levelo://app?vid=664f4c83-7e56-4dc2-b510-8aacbb3c3a4a"},"vehicle_type_id":"4","last_reported":1760188465,"current_range_meters":10000,"station_id":"ce4bgih2rcd13ifvqba0","pricing_plan_id":"cebpf4jnsgd1na2vs0mg"},{"bike_id":"44fedc2c-c245-476d-9a21-a621b056e5f0","system_id":"levelo_inurba_marseille","lat":43.29708,"lon":5.37701,"is_reserved":false,"is_disabled":false,"rental_uris":{"android":"levelo://app?vid=44fedc2c-c245-476d-9a21-a621b056e5f0","ios":"levelo://app?vid=44fedc2c-c245-476d-9a21-a621b056e5f0"},"vehicle_type_id":"4","last_reported":1760188465,"current_range_meters":10000,"station_id":"ce4bgkh2rcd13ifvqbl0","pricing_plan_id":"cebpf4jnsgd1na2vs0mg"},{"bike_id":"efc1e7c6-9c05-4697-a348-5cdedc13f9a9","system_id":"levelo_inurba_marseille","lat":43.30423,"lon":5.39746,"is_reserved":false,"is_disabled":false,"rental_uris":{"android":"levelo://app?vid=efc1e7c6-9c05-4697-a348-5cdedc13f9a9","ios":"levelo://app?vid=efc1e7c6-9c05-4697-a348-5cdedc13f9a9"},"vehicle_type_id":"4","last_reported":1760188465,"current_range_meters":10000,"station_id":"ce4bh092rcd13ifvqd20","pricing_plan_id":"cebpf4jnsgd1na2vs0mg"},{"bike_id":"6fd6dea3-d148-4db8-86ca-bc606e7fc665","system_id":"levelo_inurba_marseille","lat":43.28279,"lon":5.35059,"is_reserved":false,"is_disabled":false,"rental_uris":{"android":"levelo://app?vid=6fd6dea3-d148-4db8-86ca-bc606e7fc665","ios":"levelo://app?vid=6fd6dea3-d148-4db8-86ca-bc606e7fc665"},"vehicle_type_id":"4","last_reported":1760188465,"current_range_meters":10000,"station_id":"ce4bhbp2rcd13ifvqerg","pricing_plan_id":"cebpf4jnsgd1na2vs0mg"},{"bike_id":"69cf4469-3bb1-4821-ba8a-1b3e65220d23","system_id":"levelo_inurba_marseille","lat":43.24651,"lon":5.38886,"is_reserved":false,"is_disabled":false,"rental_uris":{"android":"levelo://app?vid=69cf4469-3bb1-4821-ba8a-1b3e65220d23","ios":"levelo://app?vid=69cf4469-3bb1-4821-ba8a-1b3e65220d23"},"vehicle_type_id":"4","last_reported":1760188465,"current_range_meters":10000,"station_id":"ce4bhg12rcd13ifvqf60","pricing_plan_id":"cebpf4jnsgd1na2vs0mg"},{"bike_id":"569b0767-5594-4cd5-9819-4e09c06e16b2","system_id":"levelo_inurba_marseille","lat":43.24811,"lon":5.3746,"is_reserved":false,"is_disabled":false,"rental_uris":{"android":"levelo://app?vid=569b0767-5594-4cd5-9819-4e09c06e16b2","ios":"levelo://app?vid=569b0767-5594-4cd5-9819-4e09c06e16b2"},"vehicle_type_id":"4","last_reported":1760188465,"current_range_meters":10000,"station_id":"ce4bhgh2rcd13ifvqfb0","pricing_plan_id":"cebpf4jnsgd1na2vs0mg"},{"bike_id":"9f9edaa2-34b7-4837-8925-898705819e49","system_id":"levelo_inurba_marseille","lat":43.323604,"lon":5.367607,"is_reserved":false,"is_disabled":false,"rental_uris":{"android":"levelo://app?vid=9f9edaa2-34b7-4837-8925-898705819e49","ios":"levelo://app?vid=9f9edaa2-34b7-4837-8925-898705819e49"},"vehicle_type_id":"4","last_reported":1760188465,"current_range_meters":10000,"station_id":"ce4bhsh2rcd13ifvqi2g","pricing_plan_id":"cebpf4jnsgd1na2vs0mg"},{"bike_id":"9ffee93c-9f40-4f78-9b73-036c629fc6e7","system_id":"levelo_inurba_marseille","lat":43.23201,"lon":5.35544,"is_reserved":false,"is_disabled":false,"rental_uris":{"android":"levelo://app?vid=9ffee93c-9f40-4f78-9b73-036c629fc6e7","ios":"levelo://app?vid=9ffee93c-9f40-4f78-9b73-036c629fc6e7"},"vehicle_type_id":"4","last_reported":1760188465,"current_range_meters":10000,"station_id":"ce4bhu92rcd13ifvqi70","pricing_plan_id":"cebpf4jnsgd1na2vs0mg"},{"bike_id":"4cabc875-1c19-4d46-8bb3-0dac71274948","system_id":"levelo_inurba_marseille","lat":43.231903,"lon":5.355544,"is_reserved":false,"is_disabled":false,"rental_uris":{"android":"levelo://app?vid=4cabc875-1c19-4d46-8bb3-0dac71274948","ios":"levelo://app?vid=4cabc875-1c19-4d46-8bb3-0dac71274948"},"vehicle_type_id":"4","last_reported":1760188465,"current_range_meters":10000,"station_id":"ce4bhu92rcd13ifvqi70","pricing_plan_id":"cebpf4jnsgd1na2vs0mg"},{"bike_id":"a0751e22-b05e-4f86-8571-0bd1d0cb6aca","system_id":"levelo_inurba_marseille","lat":43.22555,"lon":5.41635,"is_reserved":false,"is_disabled":false,"rental_uris":{"android":"levelo://app?vid=a0751e22-b05e-4f86-8571-0bd1d0cb6aca","ios":"levelo://app?vid=a0751e22-b05e-4f86-8571-0bd1d0cb6aca"},"vehicle_type_id":"4","last_reported":1760188465,"current_range_meters":10000,"station_id":"st_d2o4gvlbi1j2169b742g","pricing_plan_id":"cebpf4jnsgd1na2vs0mg"},{"bike_id":"1de09a72-2355-4388-b836-cf8ce2f15a4a","system_id":"levelo_inurba_marseille","lat":43.29632,"lon":5.40593,"is_reserved":false,"is_disabled":false,"rental_uris":{"android":"levelo://app?vid=1de09a72-2355-4388-b836-cf8ce2f15a4a","ios":"levelo://app?vid=1de09a72-2355-4388-b836-cf8ce2f15a4a"},"vehicle_type_id":"4","last_reported":1760188465,"current_range_meters":10800,"station_id":"ce4bh0h2rcd13ifvqd60","pricing_plan_id":"cebpf4jnsgd1na2vs0mg"},{"bike_id":"15754622-cdce-4945-a782-c23b9ffdb693","system_id":"levelo_inurba_marseille","lat":43.28417,"lon":5.34967,"is_reserved":false,"is_disabled":false,"rental_uris":{"android":"levelo://app?vid=15754622-cdce-4945-a782-c23b9ffdb693","ios":"levelo://app?vid=15754622-cdce-4945-a782-c23b9ffdb693"},"vehicle_type_id":"4","last_reported":1760188465,"current_range_meters":10800,"station_id":"ce4bhbh2rcd13ifvqepg","pricing_plan_id":"cebpf4jnsgd1na2vs0mg"},{"bike_id":"64610375-1e78-47fe-84a7-a9712a922f0a","system_id":"levelo_inurba_marseille","lat":43.27914,"lon":5.39576,"is_reserved":false,"is_disabled":false,"rental_uris":{"android":"levelo://app?vid=64610375-1e78-47fe-84a7-a9712a922f0a","ios":"levelo://app?vid=64610375-1e78-47fe-84a7-a9712a922f0a"},"vehicle_type_id":"4","last_reported":1760188465,"current_range_meters":10800,"station_id":"ce4bhf92rcd13ifvqf40","pricing_plan_id":"cebpf4jnsgd1na2vs0mg"},{"bike_id":"d5fe4478-abdf-4106-aac7-4fe57715000f","system_id":"levelo_inurba_marseille","lat":43.26191,"lon":5.37442,"is_reserved":false,"is_disabled":false,"rental_uris":{"android":"levelo://app?vid=d5fe4478-abdf-4106-aac7-4fe57715000f","ios":"levelo://app?vid=d5fe4478-abdf-4106-aac7-4fe57715000f"},"vehicle_type_id":"4","last_reported":1760188465,"current_range_meters":10800,"station_id":"ce4bhgp2rcd13ifvqfc0","pricing_plan_id":"cebpf4jnsgd1na2vs0mg"},{"bike_id":"d0541185-1ae0-4b7a-85f0-f156ffc178f8","system_id":"levelo_inurba_marseille","lat":43.3204,"lon":5.41579,"is_reserved":false,"is_disabled":false,"rental_uris":{"android":"levelo://app?vid=d0541185-1ae0-4b7a-85f0-f156ffc178f8","ios":"levelo://app?vid=d0541185-1ae0-4b7a-85f0-f156ffc178f8"},"vehicle_type_id":"4","last_reported":1760188465,"current_range_meters":10800,"station_id":"ce4bhq92rcd13ifvqhkg","pricing_plan_id":"cebpf4jnsgd1na2vs0mg"},{"bike_id":"724f6d89-771d-4a94-a335-9d318e319d54","system_id":"levelo_inurba_marseille","lat":43.25869,"lon":5.39894,"is_reserved":false,"is_disabled":false,"rental_uris":{"android":"levelo://app?vid=724f6d89-771d-4a94-a335-9d318e319d54","ios":"levelo://app?vid=724f6d89-771d-4a94-a335-9d318e319d54"},"vehicle_type_id":"4","last_reported":1760188465,"current_range_meters":11200,"station_id":"ce4bhl92rcd13ifvqghg","pricing_plan_id":"cebpf4jnsgd1na2vs0mg"},{"bike_id":"dd23990c-02d8-4bc8-a16f-0d225bc17379","system_id":"levelo_inurba_marseille","lat":43.28441,"lon":5.39203,"is_reserved":false,"is_disabled":false,"rental_uris":{"android":"levelo://app?vid=dd23990c-02d8-4bc8-a16f-0d225bc17379","ios":"levelo://app?vid=dd23990c-02d8-4bc8-a16f-0d225bc17379"},"vehicle_type_id":"4","last_reported":1760188465,"current_range_meters":11200,"station_id":"ce4bhoh2rcd13ifvqh5g","pricing_plan_id":"cebpf4jnsgd1na2vs0mg"},{"bike_id":"8482c7fc-cae1-421d-909c-59f847f96804","system_id":"levelo_inurba_marseille","lat":43.22927,"lon":5.35373,"is_reserved":false,"is_disabled":false,"rental_uris":{"android":"levelo://app?vid=8482c7fc-cae1-421d-909c-59f847f96804","ios":"levelo://app?vid=8482c7fc-cae1-421d-909c-59f847f96804"},"vehicle_type_id":"4","last_reported":1760188465,"current_range_meters":11200,"station_id":"cpo3532slgdg3j2ikp40","pricing_plan_id":"cebpf4jnsgd1na2vs0mg"},{"bike_id":"7034bd41-5d1e-426a-959f-605d1108a176","system_id":"levelo_inurba_marseille","lat":43.225354,"lon":5.348305,"is_reserved":false,"is_disabled":false,"rental_uris":{"android":"levelo://app?vid=7034bd41-5d1e-426a-959f-605d1108a176","ios":"levelo://app?vid=7034bd41-5d1e-426a-959f-605d1108a176"},"vehicle_type_id":"4","last_reported":1760188465,"current_range_meters":11600,"station_id":"","pricing_plan_id":"cebpf4jnsgd1na2vs0mg"},{"bike_id":"80b5fdd6-8044-4280-9733-7a4992e6b8f6","system_id":"levelo_inurba_marseille","lat":43.292676,"lon":5.376168,"is_reserved":false,"is_disabled":false,"rental_uris":{"android":"levelo://app?vid=80b5fdd6-8044-4280-9733-7a4992e6b8f6","ios":"levelo://app?vid=80b5fdd6-8044-4280-9733-7a4992e6b8f6"},"vehicle_type_id":"4","last_reported":1760188465,"current_range_meters":11600,"station_id":"","pricing_plan_id":"cebpf4jnsgd1na2vs0mg"},{"bike_id":"cb7a87e1-161d-40c0-b72d-0992f07c0c46","system_id":"levelo_inurba_marseille","lat":43.211916,"lon":5.350756,"is_reserved":false,"is_disabled":false,"rental_uris":{"android":"levelo://app?vid=cb7a87e1-161d-40c0-b72d-0992f07c0c46","ios":"levelo://app?vid=cb7a87e1-161d-40c0-b72d-0992f07c0c46"},"vehicle_type_id":"4","last_reported":1760188465,"current_range_meters":11600,"station_id":"","pricing_plan_id":"cebpf4jnsgd1na2vs0mg"},{"bike_id":"0524c653-a71a-4543-a659-f56f3fe2b1fe","system_id":"levelo_inurba_marseille","lat":43.30922,"lon":5.40139,"is_reserved":false,"is_disabled":false,"rental_uris":{"android":"levelo://app?vid=0524c653-a71a-4543-a659-f56f3fe2b1fe","ios":"levelo://app?vid=0524c653-a71a-4543-a659-f56f3fe2b1fe"},"vehicle_type_id":"4","last_reported":1760188465,"current_range_meters":11600,"station_id":"ce4bgvp2rcd13ifvqct0","pricing_plan_id":"cebpf4jnsgd1na2vs0mg"},{"bike_id":"ebaec1f4-b98c-478e-af34-00941127f063","system_id":"levelo_inurba_marseille","lat":43.2572,"lon":5.41103,"is_reserved":false,"is_disabled":false,"rental_uris":{"android":"levelo://app?vid=ebaec1f4-b98c-478e-af34-00941127f063","ios":"levelo://app?vid=ebaec1f4-b98c-478e-af34-00941127f063"},"vehicle_type_id":"4","last_reported":1760188465,"current_range_meters":11600,"station_id":"ce4bhkp2rcd13ifvqgd0","pricing_plan_id":"cebpf4jnsgd1na2vs0mg"},{"bike_id":"a301e0f2-321c-40e4-bce9-2fca52035756","system_id":"levelo_inurba_marseille","lat":43.21757,"lon":5.34606,"is_reserved":false,"is_disabled":false,"rental_uris":{"android":"levelo://app?vid=a301e0f2-321c-40e4-bce9-2fca52035756","ios":"levelo://app?vid=a301e0f2-321c-40e4-bce9-2fca52035756"},"vehicle_type_id":"4","last_reported":1760188465,"current_range_meters":11600,"station_id":"ce4bhnp2rcd13ifvqgvg","pricing_plan_id":"cebpf4jnsgd1na2vs0mg"},{"bike_id":"d1a54783-e0e1-4cc9-b0e2-5a7720c6a813","system_id":"levelo_inurba_marseille","lat":43.217391,"lon":5.346066,"is_reserved":false,"is_disabled":false,"rental_uris":{"android":"levelo://app?vid=d1a54783-e0e1-4cc9-b0e2-5a7720c6a813","ios":"levelo://app?vid=d1a54783-e0e1-4cc9-b0e2-5a7720c6a813"},"vehicle_type_id":"4","last_reported":1760188465,"current_range_meters":11600,"station_id":"st_cvj6r9ubvosntc0bgbag","pricing_plan_id":"cebpf4jnsgd1na2vs0mg"},{"bike_id":"68c0b6a3-a9d2-47a1-bccd-2b46e24f2696","system_id":"levelo_inurba_marseille","lat":43.22565,"lon":5.41621,"is_reserved":false,"is_disabled":false,"rental_uris":{"android":"levelo://app?vid=68c0b6a3-a9d2-47a1-bccd-2b46e24f2696","ios":"levelo://app?vid=68c0b6a3-a9d2-47a1-bccd-2b46e24f2696"},"vehicle_type_id":"4","last_reported":1760188465,"current_range_meters":11600,"station_id":"st_d2o4gvlbi1j2169b742g","pricing_plan_id":"cebpf4jnsgd1na2vs0mg"},{"bike_id":"51045c3d-f30b-4d9a-bded-533fcd94eafb","system_id":"levelo_inurba_marseille","lat":43.29843,"lon":5.36273,"is_reserved":false,"is_disabled":false,"rental_uris":{"android":"levelo://app?vid=51045c3d-f30b-4d9a-bded-533fcd94eafb","ios":"levelo://app?vid=51045c3d-f30b-4d9a-bded-533fcd94eafb"},"vehicle_type_id":"4","last_reported":1760188465,"current_range_meters":12000,"station_id":"ce4bgpp2rcd13ifvqc3g","pricing_plan_id":"cebpf4jnsgd1na2vs0mg"},{"bike_id":"b94209b1-e421-40e8-9cb4-962181fc4122","system_id":"levelo_inurba_marseille","lat":43.28422,"lon":5.34978,"is_reserved":false,"is_disabled":false,"rental_uris":{"android":"levelo://app?vid=b94209b1-e421-40e8-9cb4-962181fc4122","ios":"levelo://app?vid=b94209b1-e421-40e8-9cb4-962181fc4122"},"vehicle_type_id":"4","last_reported":1760188465,"current_range_meters":12000,"station_id":"ce4bhbh2rcd13ifvqepg","pricing_plan_id":"cebpf4jnsgd1na2vs0mg"},{"bike_id":"30bd0872-4a7a-4238-b145-b5b9792dc539","system_id":"levelo_inurba_marseille","lat":43.26211,"lon":5.37426,"is_reserved":false,"is_disabled":false,"rental_uris":{"android":"levelo://app?vid=30bd0872-4a7a-4238-b145-b5b9792dc539","ios":"levelo://app?vid=30bd0872-4a7a-4238-b145-b5b9792dc539"},"vehicle_type_id":"4","last_reported":1760188465,"current_range_meters":12400,"station_id":"ce4bhgp2rcd13ifvqfc0","pricing_plan_id":"cebpf4jnsgd1na2vs0mg"},{"bike_id":"b7d0c42e-fa3f-44f6-bdd4-773d0c42b760","system_id":"levelo_inurba_marseille","lat":43.24073,"lon":5.37762,"is_reserved":false,"is_disabled":false,"rental_uris":{"android":"levelo://app?vid=b7d0c42e-fa3f-44f6-bdd4-773d0c42b760","ios":"levelo://app?vid=b7d0c42e-fa3f-44f6-bdd4-773d0c42b760"},"vehicle_type_id":"4","last_reported":1760188465,"current_range_meters":12400,"station_id":"ce4bhnp2rcd13ifvqgvg","pricing_plan_id":"cebpf4jnsgd1na2vs0mg"},{"bike_id":"8c7b3ab2-9d6a-4242-94af-a7910498585f","system_id":"levelo_inurba_marseille","lat":43.29003,"lon":5.35612,"is_reserved":false,"is_disabled":false,"rental_uris":{"android":"levelo://app?vid=8c7b3ab2-9d6a-4242-94af-a7910498585f","ios":"levelo://app?vid=8c7b3ab2-9d6a-4242-94af-a7910498585f"},"vehicle_type_id":"4","last_reported":1760188465,"current_range_meters":12800,"station_id":"ce4bhb92rcd13ifvqen0","pricing_plan_id":"cebpf4jnsgd1na2vs0mg"},{"bike_id":"3aee201c-eced-4867-b84a-9c76c962f6e2","system_id":"levelo_inurba_marseille","lat":43.24167,"lon":5.36397,"is_reserved":false,"is_disabled":false,"rental_uris":{"android":"levelo://app?vid=3aee201c-eced-4867-b84a-9c76c962f6e2","ios":"levelo://app?vid=3aee201c-eced-4867-b84a-9c76c962f6e2"},"vehicle_type_id":"4","last_reported":1760188465,"current_range_meters":12800,"station_id":"cpo36qri1sfpv3e86is0","pricing_plan_id":"cebpf4jnsgd1na2vs0mg"},{"bike_id":"4c2ea989-f363-4d09-a5d9-340a713e1403","system_id":"levelo_inurba_marseille","lat":43.28419,"lon":5.34989,"is_reserved":false,"is_disabled":false,"rental_uris":{"android":"levelo://app?vid=4c2ea989-f363-4d09-a5d9-340a713e1403","ios":"levelo://app?vid=4c2ea989-f363-4d09-a5d9-340a713e1403"},"vehicle_type_id":"4","last_reported":1760188465,"current_range_meters":13600,"station_id":"ce4bhbh2rcd13ifvqepg","pricing_plan_id":"cebpf4jnsgd1na2vs0mg"},{"bike_id":"bba518c9-6b41-4f52-bbd2-7ca9cdbd7c63","system_id":"levelo_inurba_marseille","lat":43.28277,"lon":5.3508,"is_reserved":false,"is_disabled":false,"rental_uris":{"android":"levelo://app?vid=bba518c9-6b41-4f52-bbd2-7ca9cdbd7c63","ios":"levelo://app?vid=bba518c9-6b41-4f52-bbd2-7ca9cdbd7c63"},"vehicle_type_id":"4","last_reported":1760188465,"current_range_meters":13600,"station_id":"ce4bhbp2rcd13ifvqerg","pricing_plan_id":"cebpf4jnsgd1na2vs0mg"},{"bike_id":"996f9f46-e0ea-4e4d-bf22-c899d0b79667","system_id":"levelo_inurba_marseille","lat":43.2293,"lon":5.35373,"is_reserved":false,"is_disabled":false,"rental_uris":{"android":"levelo://app?vid=996f9f46-e0ea-4e4d-bf22-c899d0b79667","ios":"levelo://app?vid=996f9f46-e0ea-4e4d-bf22-c899d0b79667"},"vehicle_type_id":"4","last_reported":1760188465,"current_range_meters":13600,"station_id":"cpo3532slgdg3j2ikp40","pricing_plan_id":"cebpf4jnsgd1na2vs0mg"},{"bike_id":"96189567-9f56-4467-99e1-85c33efa20b5","system_id":"levelo_inurba_marseille","lat":43.22569,"lon":5.4162,"is_reserved":false,"is_disabled":false,"rental_uris":{"android":"levelo://app?vid=96189567-9f56-4467-99e1-85c33efa20b5","ios":"levelo://app?vid=96189567-9f56-4467-99e1-85c33efa20b5"},"vehicle_type_id":"4","last_reported":1760188465,"current_range_meters":13600,"station_id":"st_d2o4gvlbi1j2169b742g","pricing_plan_id":"cebpf4jnsgd1na2vs0mg"},{"bike_id":"08fcdb32-2bb9-48aa-82a9-a8f703dd0269","system_id":"levelo_inurba_marseille","lat":43.25404,"lon":5.41875,"is_reserved":false,"is_disabled":false,"rental_uris":{"android":"levelo://app?vid=08fcdb32-2bb9-48aa-82a9-a8f703dd0269","ios":"levelo://app?vid=08fcdb32-2bb9-48aa-82a9-a8f703dd0269"},"vehicle_type_id":"4","last_reported":1760188465,"current_range_meters":14000,"station_id":"","pricing_plan_id":"cebpf4jnsgd1na2vs0mg"},{"bike_id":"70fb8661-6215-415a-b5b0-8b5a38249465","system_id":"levelo_inurba_marseille","lat":43.29036,"lon":5.35924,"is_reserved":false,"is_disabled":false,"rental_uris":{"android":"levelo://app?vid=70fb8661-6215-415a-b5b0-8b5a38249465","ios":"levelo://app?vid=70fb8661-6215-415a-b5b0-8b5a38249465"},"vehicle_type_id":"4","last_reported":1760188465,"current_range_meters":14000,"station_id":"ce4bha92rcd13ifvqeg0","pricing_plan_id":"cebpf4jnsgd1na2vs0mg"},{"bike_id":"15451fa0-fcd8-4d45-8db6-456dca15837d","system_id":"levelo_inurba_marseille","lat":43.28401,"lon":5.34983,"is_reserved":false,"is_disabled":false,"rental_uris":{"android":"levelo://app?vid=15451fa0-fcd8-4d45-8db6-456dca15837d","ios":"levelo://app?vid=15451fa0-fcd8-4d45-8db6-456dca15837d"},"vehicle_type_id":"4","last_reported":1760188465,"current_range_meters":14000,"station_id":"ce4bhbh2rcd13ifvqepg","pricing_plan_id":"cebpf4jnsgd1na2vs0mg"},{"bike_id":"2c4b2638-6ca0-492d-ba12-8da2147de5c2","system_id":"levelo_inurba_marseille","lat":43.24072,"lon":5.37758,"is_reserved":false,"is_disabled":false,"rental_uris":{"android":"levelo://app?vid=2c4b2638-6ca0-492d-ba12-8da2147de5c2","ios":"levelo://app?vid=2c4b2638-6ca0-492d-ba12-8da2147de5c2"},"vehicle_type_id":"4","last_reported":1760188465,"current_range_meters":14000,"station_id":"ce4bhnp2rcd13ifvqgvg","pricing_plan_id":"cebpf4jnsgd1na2vs0mg"},{"bike_id":"c39df3bb-01b0-4775-a701-339d4b4fe32d","system_id":"levelo_inurba_marseille","lat":43.23198,"lon":5.35578,"is_reserved":false,"is_disabled":false,"rental_uris":{"android":"levelo://app?vid=c39df3bb-01b0-4775-a701-339d4b4fe32d","ios":"levelo://app?vid=c39df3bb-01b0-4775-a701-339d4b4fe32d"},"vehicle_type_id":"4","last_reported":1760188465,"current_range_meters":14000,"station_id":"ce4bhu92rcd13ifvqi70","pricing_plan_id":"cebpf4jnsgd1na2vs0mg"},{"bike_id":"cc731a5b-ec15-4e39-8ce8-518c53a81ef3","system_id":"levelo_inurba_marseille","lat":43.21755,"lon":5.34589,"is_reserved":false,"is_disabled":false,"rental_uris":{"android":"levelo://app?vid=cc731a5b-ec15-4e39-8ce8-518c53a81ef3","ios":"levelo://app?vid=cc731a5b-ec15-4e39-8ce8-518c53a81ef3"},"vehicle_type_id":"4","last_reported":1760188465,"current_range_meters":14000,"station_id":"st_cvj6r9ubvosntc0bgbag","pricing_plan_id":"cebpf4jnsgd1na2vs0mg"},{"bike_id":"85a1ee1d-dda2-4de7-81f8-a5546f79bc76","system_id":"levelo_inurba_marseille","lat":43.23965,"lon":5.36634,"is_reserved":false,"is_disabled":false,"rental_uris":{"android":"levelo://app?vid=85a1ee1d-dda2-4de7-81f8-a5546f79bc76","ios":"levelo://app?vid=85a1ee1d-dda2-4de7-81f8-a5546f79bc76"},"vehicle_type_id":"4","last_reported":1760188465,"current_range_meters":14400,"station_id":"ce4bhi12rcd13ifvqfp0","pricing_plan_id":"cebpf4jnsgd1na2vs0mg"},{"bike_id":"1e3adb23-ca90-4fd2-a039-d5c01fd02274","system_id":"levelo_inurba_marseille","lat":43.2408,"lon":5.37741,"is_reserved":false,"is_disabled":false,"rental_uris":{"android":"levelo://app?vid=1e3adb23-ca90-4fd2-a039-d5c01fd02274","ios":"levelo://app?vid=1e3adb23-ca90-4fd2-a039-d5c01fd02274"},"vehicle_type_id":"4","last_reported":1760188465,"current_range_meters":14400,"station_id":"ce4bhnp2rcd13ifvqgvg","pricing_plan_id":"cebpf4jnsgd1na2vs0mg"},{"bike_id":"9a3f78ca-b0c6-4f72-8a79-592b18fbedf7","system_id":"levelo_inurba_marseille","lat":43.2407,"lon":5.37731,"is_reserved":false,"is_disabled":false,"rental_uris":{"android":"levelo://app?vid=9a3f78ca-b0c6-4f72-8a79-592b18fbedf7","ios":"levelo://app?vid=9a3f78ca-b0c6-4f72-8a79-592b18fbedf7"},"vehicle_type_id":"4","last_reported":1760188465,"current_range_meters":14400,"station_id":"ce4bhnp2rcd13ifvqgvg","pricing_plan_id":"cebpf4jnsgd1na2vs0mg"},{"bike_id":"963f2540-5fa7-4d25-bcfd-b0e2fd2ae75d","system_id":"levelo_inurba_marseille","lat":43.21752,"lon":5.34592,"is_reserved":false,"is_disabled":false,"rental_uris":{"android":"levelo://app?vid=963f2540-5fa7-4d25-bcfd-b0e2fd2ae75d","ios":"levelo://app?vid=963f2540-5fa7-4d25-bcfd-b0e2fd2ae75d"},"vehicle_type_id":"4","last_reported":1760188465,"current_range_meters":14400,"station_id":"st_cvj6r9ubvosntc0bgbag","pricing_plan_id":"cebpf4jnsgd1na2vs0mg"},{"bike_id":"8dc0c13a-1042-4c67-b7b2-fb8ee98dc388","system_id":"levelo_inurba_marseille","lat":43.21767,"lon":5.34604,"is_reserved":false,"is_disabled":false,"rental_uris":{"android":"levelo://app?vid=8dc0c13a-1042-4c67-b7b2-fb8ee98dc388","ios":"levelo://app?vid=8dc0c13a-1042-4c67-b7b2-fb8ee98dc388"},"vehicle_type_id":"4","last_reported":1760188465,"current_range_meters":14400,"station_id":"st_cvj6r9ubvosntc0bgbag","pricing_plan_id":"cebpf4jnsgd1na2vs0mg"},{"bike_id":"36852a13-f383-442f-9a01-f153febeeef2","system_id":"levelo_inurba_marseille","lat":43.301981,"lon":5.368795,"is_reserved":false,"is_disabled":false,"rental_uris":{"android":"levelo://app?vid=36852a13-f383-442f-9a01-f153febeeef2","ios":"levelo://app?vid=36852a13-f383-442f-9a01-f153febeeef2"},"vehicle_type_id":"4","last_reported":1760188465,"current_range_meters":14800,"station_id":"","pricing_plan_id":"cebpf4jnsgd1na2vs0mg"},{"bike_id":"88c521f8-520e-449c-b9cb-43294fad39e5","system_id":"levelo_inurba_marseille","lat":43.28409,"lon":5.34975,"is_reserved":false,"is_disabled":false,"rental_uris":{"android":"levelo://app?vid=88c521f8-520e-449c-b9cb-43294fad39e5","ios":"levelo://app?vid=88c521f8-520e-449c-b9cb-43294fad39e5"},"vehicle_type_id":"4","last_reported":1760188465,"current_range_meters":14800,"station_id":"ce4bhbh2rcd13ifvqepg","pricing_plan_id":"cebpf4jnsgd1na2vs0mg"},{"bike_id":"abce8d14-bfd1-4430-9043-646c1fb6b882","system_id":"levelo_inurba_marseille","lat":43.2481,"lon":5.37457,"is_reserved":false,"is_disabled":false,"rental_uris":{"android":"levelo://app?vid=abce8d14-bfd1-4430-9043-646c1fb6b882","ios":"levelo://app?vid=abce8d14-bfd1-4430-9043-646c1fb6b882"},"vehicle_type_id":"4","last_reported":1760188465,"current_range_meters":14800,"station_id":"ce4bhgh2rcd13ifvqfb0","pricing_plan_id":"cebpf4jnsgd1na2vs0mg"},{"bike_id":"305fb9c4-3b39-469a-8341-f8abd1af35d5","system_id":"levelo_inurba_marseille","lat":43.2481,"lon":5.37458,"is_reserved":false,"is_disabled":false,"rental_uris":{"android":"levelo://app?vid=305fb9c4-3b39-469a-8341-f8abd1af35d5","ios":"levelo://app?vid=305fb9c4-3b39-469a-8341-f8abd1af35d5"},"vehicle_type_id":"4","last_reported":1760188465,"current_range_meters":14800,"station_id":"ce4bhgh2rcd13ifvqfb0","pricing_plan_id":"cebpf4jnsgd1na2vs0mg"},{"bike_id":"461d6440-5738-4dd8-9ccb-a1d747e039d4","system_id":"levelo_inurba_marseille","lat":43.2619,"lon":5.3745,"is_reserved":false,"is_disabled":false,"rental_uris":{"android":"levelo://app?vid=461d6440-5738-4dd8-9ccb-a1d747e039d4","ios":"levelo://app?vid=461d6440-5738-4dd8-9ccb-a1d747e039d4"},"vehicle_type_id":"4","last_reported":1760188465,"current_range_meters":14800,"station_id":"ce4bhgp2rcd13ifvqfc0","pricing_plan_id":"cebpf4jnsgd1na2vs0mg"},{"bike_id":"1274341e-f484-48bd-95e5-e905ccbea7d0","system_id":"levelo_inurba_marseille","lat":43.2799,"lon":5.41671,"is_reserved":false,"is_disabled":false,"rental_uris":{"android":"levelo://app?vid=1274341e-f484-48bd-95e5-e905ccbea7d0","ios":"levelo://app?vid=1274341e-f484-48bd-95e5-e905ccbea7d0"},"vehicle_type_id":"4","last_reported":1760188465,"current_range_meters":14800,"station_id":"ce4bho12rcd13ifvqh1g","pricing_plan_id":"cebpf4jnsgd1na2vs0mg"},{"bike_id":"5f2f1c1c-aae9-42d9-9683-aee6c96dc20e","system_id":"levelo_inurba_marseille","lat":43.317587,"lon":5.39015,"is_reserved":false,"is_disabled":false,"rental_uris":{"android":"levelo://app?vid=5f2f1c1c-aae9-42d9-9683-aee6c96dc20e","ios":"levelo://app?vid=5f2f1c1c-aae9-42d9-9683-aee6c96dc20e"},"vehicle_type_id":"4","last_reported":1760188465,"current_range_meters":14800,"station_id":"ce4bhqp2rcd13ifvqhng","pricing_plan_id":"cebpf4jnsgd1na2vs0mg"},{"bike_id":"b6bb6b7a-5b62-4eea-bdcd-350fb33f76e6","system_id":"levelo_inurba_marseille","lat":43.23199,"lon":5.3555,"is_reserved":false,"is_disabled":false,"rental_uris":{"android":"levelo://app?vid=b6bb6b7a-5b62-4eea-bdcd-350fb33f76e6","ios":"levelo://app?vid=b6bb6b7a-5b62-4eea-bdcd-350fb33f76e6"},"vehicle_type_id":"4","last_reported":1760188465,"current_range_meters":14800,"station_id":"ce4bhu92rcd13ifvqi70","pricing_plan_id":"cebpf4jnsgd1na2vs0mg"},{"bike_id":"17c12004-9ed4-4b1f-b1bf-3cb4f120663b","system_id":"levelo_inurba_marseille","lat":43.2257,"lon":5.41618,"is_reserved":false,"is_disabled":false,"rental_uris":{"android":"levelo://app?vid=17c12004-9ed4-4b1f-b1bf-3cb4f120663b","ios":"levelo://app?vid=17c12004-9ed4-4b1f-b1bf-3cb4f120663b"},"vehicle_type_id":"4","last_reported":1760188465,"current_range_meters":14800,"station_id":"st_d2o4gvlbi1j2169b742g","pricing_plan_id":"cebpf4jnsgd1na2vs0mg"},{"bike_id":"187cf0d8-0607-43fc-8eaa-6af12fda0dee","system_id":"levelo_inurba_marseille","lat":43.22428,"lon":5.34657,"is_reserved":false,"is_disabled":false,"rental_uris":{"android":"levelo://app?vid=187cf0d8-0607-43fc-8eaa-6af12fda0dee","ios":"levelo://app?vid=187cf0d8-0607-43fc-8eaa-6af12fda0dee"},"vehicle_type_id":"4","last_reported":1760188465,"current_range_meters":15200,"station_id":"","pricing_plan_id":"cebpf4jnsgd1na2vs0mg"},{"bike_id":"f643732a-737c-4023-9ce1-91073dd626a3","system_id":"levelo_inurba_marseille","lat":43.31598,"lon":5.38135,"is_reserved":false,"is_disabled":false,"rental_uris":{"android":"levelo://app?vid=f643732a-737c-4023-9ce1-91073dd626a3","ios":"levelo://app?vid=f643732a-737c-4023-9ce1-91073dd626a3"},"vehicle_type_id":"4","last_reported":1760188465,"current_range_meters":15200,"station_id":"","pricing_plan_id":"cebpf4jnsgd1na2vs0mg"},{"bike_id":"ac126244-2e00-4589-a00e-b9ffa772eb22","system_id":"levelo_inurba_marseille","lat":43.31143,"lon":5.3974,"is_reserved":false,"is_disabled":false,"rental_uris":{"android":"levelo://app?vid=ac126244-2e00-4589-a00e-b9ffa772eb22","ios":"levelo://app?vid=ac126244-2e00-4589-a00e-b9ffa772eb22"},"vehicle_type_id":"4","last_reported":1760188465,"current_range_meters":15200,"station_id":"","pricing_plan_id":"cebpf4jnsgd1na2vs0mg"},{"bike_id":"f92716c4-7d61-4a44-a003-4f53ce5444b2","system_id":"levelo_inurba_marseille","lat":43.24815,"lon":5.37441,"is_reserved":false,"is_disabled":false,"rental_uris":{"android":"levelo://app?vid=f92716c4-7d61-4a44-a003-4f53ce5444b2","ios":"levelo://app?vid=f92716c4-7d61-4a44-a003-4f53ce5444b2"},"vehicle_type_id":"4","last_reported":1760188465,"current_range_meters":15200,"station_id":"ce4bhgh2rcd13ifvqfb0","pricing_plan_id":"cebpf4jnsgd1na2vs0mg"},{"bike_id":"4fe8ebe8-dc7a-4dde-a9ea-f665f98c5b37","system_id":"levelo_inurba_marseille","lat":43.23152,"lon":5.43716,"is_reserved":false,"is_disabled":false,"rental_uris":{"android":"levelo://app?vid=4fe8ebe8-dc7a-4dde-a9ea-f665f98c5b37","ios":"levelo://app?vid=4fe8ebe8-dc7a-4dde-a9ea-f665f98c5b37"},"vehicle_type_id":"4","last_reported":1760188465,"current_range_meters":15200,"station_id":"ce4bhmp2rcd13ifvqgog","pricing_plan_id":"cebpf4jnsgd1na2vs0mg"},{"bike_id":"54aab29b-b822-4f38-bda8-7ca583f39fd5","system_id":"levelo_inurba_marseille","lat":43.2408,"lon":5.37754,"is_reserved":false,"is_disabled":false,"rental_uris":{"android":"levelo://app?vid=54aab29b-b822-4f38-bda8-7ca583f39fd5","ios":"levelo://app?vid=54aab29b-b822-4f38-bda8-7ca583f39fd5"},"vehicle_type_id":"4","last_reported":1760188465,"current_range_meters":15200,"station_id":"ce4bhnp2rcd13ifvqgvg","pricing_plan_id":"cebpf4jnsgd1na2vs0mg"},{"bike_id":"7be0f6bf-6c6b-4bc2-8340-976d6be916ea","system_id":"levelo_inurba_marseille","lat":43.22925,"lon":5.3537,"is_reserved":false,"is_disabled":false,"rental_uris":{"android":"levelo://app?vid=7be0f6bf-6c6b-4bc2-8340-976d6be916ea","ios":"levelo://app?vid=7be0f6bf-6c6b-4bc2-8340-976d6be916ea"},"vehicle_type_id":"4","last_reported":1760188465,"current_range_meters":15200,"station_id":"cpo3532slgdg3j2ikp40","pricing_plan_id":"cebpf4jnsgd1na2vs0mg"},{"bike_id":"72742d15-c839-436d-8cfb-707cbbf42740","system_id":"levelo_inurba_marseille","lat":43.21748,"lon":5.34599,"is_reserved":false,"is_disabled":false,"rental_uris":{"android":"levelo://app?vid=72742d15-c839-436d-8cfb-707cbbf42740","ios":"levelo://app?vid=72742d15-c839-436d-8cfb-707cbbf42740"},"vehicle_type_id":"4","last_reported":1760188465,"current_range_meters":15200,"station_id":"st_cvj6r9ubvosntc0bgbag","pricing_plan_id":"cebpf4jnsgd1na2vs0mg"},{"bike_id":"338d22d1-d917-41b0-bd23-0264004b2593","system_id":"levelo_inurba_marseille","lat":43.22561,"lon":5.4163,"is_reserved":false,"is_disabled":false,"rental_uris":{"android":"levelo://app?vid=338d22d1-d917-41b0-bd23-0264004b2593","ios":"levelo://app?vid=338d22d1-d917-41b0-bd23-0264004b2593"},"vehicle_type_id":"4","last_reported":1760188465,"current_range_meters":15200,"station_id":"st_d2o4gvlbi1j2169b742g","pricing_plan_id":"cebpf4jnsgd1na2vs0mg"},{"bike_id":"daca0046-00af-4c3d-97a3-9a04d8ad7588","system_id":"levelo_inurba_marseille","lat":43.2256,"lon":5.41638,"is_reserved":false,"is_disabled":false,"rental_uris":{"android":"levelo://app?vid=daca0046-00af-4c3d-97a3-9a04d8ad7588","ios":"levelo://app?vid=daca0046-00af-4c3d-97a3-9a04d8ad7588"},"vehicle_type_id":"4","last_reported":1760188465,"current_range_meters":15200,"station_id":"st_d2o4gvlbi1j2169b742g","pricing_plan_id":"cebpf4jnsgd1na2vs0mg"},{"bike_id":"d450faec-bf95-41b5-bd5a-258b856397d3","system_id":"levelo_inurba_marseille","lat":43.337444,"lon":5.374475,"is_reserved":false,"is_disabled":false,"rental_uris":{"android":"levelo://app?vid=d450faec-bf95-41b5-bd5a-258b856397d3","ios":"levelo://app?vid=d450faec-bf95-41b5-bd5a-258b856397d3"},"vehicle_type_id":"4","last_reported":1760188465,"current_range_meters":16000,"station_id":"","pricing_plan_id":"cebpf4jnsgd1na2vs0mg"},{"bike_id":"b78fc6de-8c66-40b1-bc7e-1794eacc6804","system_id":"levelo_inurba_marseille","lat":43.28141,"lon":5.35018,"is_reserved":false,"is_disabled":false,"rental_uris":{"android":"levelo://app?vid=b78fc6de-8c66-40b1-bc7e-1794eacc6804","ios":"levelo://app?vid=b78fc6de-8c66-40b1-bc7e-1794eacc6804"},"vehicle_type_id":"4","last_reported":1760188465,"current_range_meters":16000,"station_id":"","pricing_plan_id":"cebpf4jnsgd1na2vs0mg"},{"bike_id":"a2545f9d-0827-4de7-8305-928725d77ec3","system_id":"levelo_inurba_marseille","lat":43.27619,"lon":5.36102,"is_reserved":false,"is_disabled":false,"rental_uris":{"android":"levelo://app?vid=a2545f9d-0827-4de7-8305-928725d77ec3","ios":"levelo://app?vid=a2545f9d-0827-4de7-8305-928725d77ec3"},"vehicle_type_id":"4","last_reported":1760188465,"current_range_meters":16000,"station_id":"ce4bgj92rcd13ifvqbe0","pricing_plan_id":"cebpf4jnsgd1na2vs0mg"},{"bike_id":"502aa0d6-40e9-4d07-9fc1-9b85ae0f20d4","system_id":"levelo_inurba_marseille","lat":43.280426,"lon":5.369551,"is_reserved":false,"is_disabled":false,"rental_uris":{"android":"levelo://app?vid=502aa0d6-40e9-4d07-9fc1-9b85ae0f20d4","ios":"levelo://app?vid=502aa0d6-40e9-4d07-9fc1-9b85ae0f20d4"},"vehicle_type_id":"4","last_reported":1760188465,"current_range_meters":16000,"station_id":"ce4bha12rcd13ifvqef0","pricing_plan_id":"cebpf4jnsgd1na2vs0mg"},{"bike_id":"7d1bf354-3a9d-45a5-b2a7-bad182116775","system_id":"levelo_inurba_marseille","lat":43.29004,"lon":5.35616,"is_reserved":false,"is_disabled":false,"rental_uris":{"android":"levelo://app?vid=7d1bf354-3a9d-45a5-b2a7-bad182116775","ios":"levelo://app?vid=7d1bf354-3a9d-45a5-b2a7-bad182116775"},"vehicle_type_id":"4","last_reported":1760188465,"current_range_meters":16000,"station_id":"ce4bhb92rcd13ifvqen0","pricing_plan_id":"cebpf4jnsgd1na2vs0mg"},{"bike_id":"38720d81-9550-44e3-bdec-f09caaf3da58","system_id":"levelo_inurba_marseille","lat":43.246595,"lon":5.381651,"is_reserved":false,"is_disabled":false,"rental_uris":{"android":"levelo://app?vid=38720d81-9550-44e3-bdec-f09caaf3da58","ios":"levelo://app?vid=38720d81-9550-44e3-bdec-f09caaf3da58"},"vehicle_type_id":"4","last_reported":1760188465,"current_range_meters":16000,"station_id":"ce4bhih2rcd13ifvqfr0","pricing_plan_id":"cebpf4jnsgd1na2vs0mg"},{"bike_id":"bf3e6031-a4b5-4d11-9089-ea468e967475","system_id":"levelo_inurba_marseille","lat":43.24175,"lon":5.36392,"is_reserved":false,"is_disabled":false,"rental_uris":{"android":"levelo://app?vid=bf3e6031-a4b5-4d11-9089-ea468e967475","ios":"levelo://app?vid=bf3e6031-a4b5-4d11-9089-ea468e967475"},"vehicle_type_id":"4","last_reported":1760188465,"current_range_meters":16000,"station_id":"cpo36qri1sfpv3e86is0","pricing_plan_id":"cebpf4jnsgd1na2vs0mg"},{"bike_id":"d5aa1ce2-c6fd-4a6f-b955-7d8d35750943","system_id":"levelo_inurba_marseille","lat":43.22559,"lon":5.41627,"is_reserved":false,"is_disabled":false,"rental_uris":{"android":"levelo://app?vid=d5aa1ce2-c6fd-4a6f-b955-7d8d35750943","ios":"levelo://app?vid=d5aa1ce2-c6fd-4a6f-b955-7d8d35750943"},"vehicle_type_id":"4","last_reported":1760188465,"current_range_meters":16000,"station_id":"st_d2o4gvlbi1j2169b742g","pricing_plan_id":"cebpf4jnsgd1na2vs0mg"},{"bike_id":"2d47de9e-e33d-477c-8917-7d91ac05947a","system_id":"levelo_inurba_marseille","lat":43.29711,"lon":5.39824,"is_reserved":false,"is_disabled":false,"rental_uris":{"android":"levelo://app?vid=2d47de9e-e33d-477c-8917-7d91ac05947a","ios":"levelo://app?vid=2d47de9e-e33d-477c-8917-7d91ac05947a"},"vehicle_type_id":"4","last_reported":1760188465,"current_range_meters":16400,"station_id":"","pricing_plan_id":"cebpf4jnsgd1na2vs0mg"},{"bike_id":"4bf86abf-d7f2-45f3-9e8d-2c3f45d84204","system_id":"levelo_inurba_marseille","lat":43.29002,"lon":5.35613,"is_reserved":false,"is_disabled":false,"rental_uris":{"android":"levelo://app?vid=4bf86abf-d7f2-45f3-9e8d-2c3f45d84204","ios":"levelo://app?vid=4bf86abf-d7f2-45f3-9e8d-2c3f45d84204"},"vehicle_type_id":"4","last_reported":1760188465,"current_range_meters":16400,"station_id":"ce4bhb92rcd13ifvqen0","pricing_plan_id":"cebpf4jnsgd1na2vs0mg"},{"bike_id":"b477631f-0f39-493c-ac11-80575d39629c","system_id":"levelo_inurba_marseille","lat":43.284177,"lon":5.349767,"is_reserved":false,"is_disabled":false,"rental_uris":{"android":"levelo://app?vid=b477631f-0f39-493c-ac11-80575d39629c","ios":"levelo://app?vid=b477631f-0f39-493c-ac11-80575d39629c"},"vehicle_type_id":"4","last_reported":1760188465,"current_range_meters":16400,"station_id":"ce4bhbh2rcd13ifvqepg","pricing_plan_id":"cebpf4jnsgd1na2vs0mg"},{"bike_id":"3c296a21-fc7f-4ea1-b63f-bab951af21f7","system_id":"levelo_inurba_marseille","lat":43.26552,"lon":5.37284,"is_reserved":false,"is_disabled":false,"rental_uris":{"android":"levelo://app?vid=3c296a21-fc7f-4ea1-b63f-bab951af21f7","ios":"levelo://app?vid=3c296a21-fc7f-4ea1-b63f-bab951af21f7"},"vehicle_type_id":"4","last_reported":1760188465,"current_range_meters":16400,"station_id":"ce4bhg12rcd13ifvqf70","pricing_plan_id":"cebpf4jnsgd1na2vs0mg"},{"bike_id":"b7beb4e8-058e-45b5-ba9a-d411cd9da5a0","system_id":"levelo_inurba_marseille","lat":43.239639,"lon":5.366295,"is_reserved":false,"is_disabled":false,"rental_uris":{"android":"levelo://app?vid=b7beb4e8-058e-45b5-ba9a-d411cd9da5a0","ios":"levelo://app?vid=b7beb4e8-058e-45b5-ba9a-d411cd9da5a0"},"vehicle_type_id":"4","last_reported":1760188465,"current_range_meters":16400,"station_id":"ce4bhi12rcd13ifvqfp0","pricing_plan_id":"cebpf4jnsgd1na2vs0mg"},{"bike_id":"132bbb81-f6b5-4160-8904-f6529da5fb3e","system_id":"levelo_inurba_marseille","lat":43.317155,"lon":5.437111,"is_reserved":false,"is_disabled":false,"rental_uris":{"android":"levelo://app?vid=132bbb81-f6b5-4160-8904-f6529da5fb3e","ios":"levelo://app?vid=132bbb81-f6b5-4160-8904-f6529da5fb3e"},"vehicle_type_id":"4","last_reported":1760188465,"current_range_meters":16400,"station_id":"ce4bhp92rcd13ifvqhcg","pricing_plan_id":"cebpf4jnsgd1na2vs0mg"},{"bike_id":"694547b5-a972-4858-8070-97658603f337","system_id":"levelo_inurba_marseille","lat":43.23184,"lon":5.35572,"is_reserved":false,"is_disabled":false,"rental_uris":{"android":"levelo://app?vid=694547b5-a972-4858-8070-97658603f337","ios":"levelo://app?vid=694547b5-a972-4858-8070-97658603f337"},"vehicle_type_id":"4","last_reported":1760188465,"current_range_meters":16400,"station_id":"ce4bhu92rcd13ifvqi70","pricing_plan_id":"cebpf4jnsgd1na2vs0mg"},{"bike_id":"0d125caf-5238-4006-bbc8-77c21e114e38","system_id":"levelo_inurba_marseille","lat":43.24165,"lon":5.36386,"is_reserved":false,"is_disabled":false,"rental_uris":{"android":"levelo://app?vid=0d125caf-5238-4006-bbc8-77c21e114e38","ios":"levelo://app?vid=0d125caf-5238-4006-bbc8-77c21e114e38"},"vehicle_type_id":"4","last_reported":1760188465,"current_range_meters":16400,"station_id":"cpo36qri1sfpv3e86is0","pricing_plan_id":"cebpf4jnsgd1na2vs0mg"},{"bike_id":"83e214c2-0ada-4351-8a27-d8d9e569d46f","system_id":"levelo_inurba_marseille","lat":43.24184,"lon":5.36391,"is_reserved":false,"is_disabled":false,"rental_uris":{"android":"levelo://app?vid=83e214c2-0ada-4351-8a27-d8d9e569d46f","ios":"levelo://app?vid=83e214c2-0ada-4351-8a27-d8d9e569d46f"},"vehicle_type_id":"4","last_reported":1760188465,"current_range_meters":16400,"station_id":"cpo36qri1sfpv3e86is0","pricing_plan_id":"cebpf4jnsgd1na2vs0mg"},{"bike_id":"4834a710-f242-4b0f-9ef7-9d6d9f7a4b7b","system_id":"levelo_inurba_marseille","lat":43.22577,"lon":5.41628,"is_reserved":false,"is_disabled":false,"rental_uris":{"android":"levelo://app?vid=4834a710-f242-4b0f-9ef7-9d6d9f7a4b7b","ios":"levelo://app?vid=4834a710-f242-4b0f-9ef7-9d6d9f7a4b7b"},"vehicle_type_id":"4","last_reported":1760188465,"current_range_meters":16400,"station_id":"st_d2o4gvlbi1j2169b742g","pricing_plan_id":"cebpf4jnsgd1na2vs0mg"},{"bike_id":"2dc00089-aefe-4105-a375-078c8525529c","system_id":"levelo_inurba_marseille","lat":43.29047,"lon":5.35899,"is_reserved":false,"is_disabled":false,"rental_uris":{"android":"levelo://app?vid=2dc00089-aefe-4105-a375-078c8525529c","ios":"levelo://app?vid=2dc00089-aefe-4105-a375-078c8525529c"},"vehicle_type_id":"4","last_reported":1760188465,"current_range_meters":16800,"station_id":"ce4bha92rcd13ifvqeg0","pricing_plan_id":"cebpf4jnsgd1na2vs0mg"},{"bike_id":"ea919d10-013a-44c6-a86f-84a4456a5fdf","system_id":"levelo_inurba_marseille","lat":43.29007,"lon":5.35611,"is_reserved":false,"is_disabled":false,"rental_uris":{"android":"levelo://app?vid=ea919d10-013a-44c6-a86f-84a4456a5fdf","ios":"levelo://app?vid=ea919d10-013a-44c6-a86f-84a4456a5fdf"},"vehicle_type_id":"4","last_reported":1760188465,"current_range_meters":16800,"station_id":"ce4bhb92rcd13ifvqen0","pricing_plan_id":"cebpf4jnsgd1na2vs0mg"},{"bike_id":"6a5168bc-dfb3-44f7-8262-8346f72d3469","system_id":"levelo_inurba_marseille","lat":43.26217,"lon":5.37435,"is_reserved":false,"is_disabled":false,"rental_uris":{"android":"levelo://app?vid=6a5168bc-dfb3-44f7-8262-8346f72d3469","ios":"levelo://app?vid=6a5168bc-dfb3-44f7-8262-8346f72d3469"},"vehicle_type_id":"4","last_reported":1760188465,"current_range_meters":16800,"station_id":"ce4bhgp2rcd13ifvqfc0","pricing_plan_id":"cebpf4jnsgd1na2vs0mg"},{"bike_id":"7751baab-a497-4d3d-9af4-24c53748a14b","system_id":"levelo_inurba_marseille","lat":43.249969,"lon":5.38926,"is_reserved":false,"is_disabled":false,"rental_uris":{"android":"levelo://app?vid=7751baab-a497-4d3d-9af4-24c53748a14b","ios":"levelo://app?vid=7751baab-a497-4d3d-9af4-24c53748a14b"},"vehicle_type_id":"4","last_reported":1760188465,"current_range_meters":16800,"station_id":"ce4bhgp2rcd13ifvqfd0","pricing_plan_id":"cebpf4jnsgd1na2vs0mg"},{"bike_id":"33f89483-ce28-4491-a3c7-f0cdbc13e3ff","system_id":"levelo_inurba_marseille","lat":43.26494,"lon":5.39538,"is_reserved":false,"is_disabled":false,"rental_uris":{"android":"levelo://app?vid=33f89483-ce28-4491-a3c7-f0cdbc13e3ff","ios":"levelo://app?vid=33f89483-ce28-4491-a3c7-f0cdbc13e3ff"},"vehicle_type_id":"4","last_reported":1760188465,"current_range_meters":16800,"station_id":"ce4bhi12rcd13ifvqfq0","pricing_plan_id":"cebpf4jnsgd1na2vs0mg"},{"bike_id":"90a7399f-67eb-4ed6-8265-2126a88abadc","system_id":"levelo_inurba_marseille","lat":43.22567,"lon":5.41618,"is_reserved":false,"is_disabled":false,"rental_uris":{"android":"levelo://app?vid=90a7399f-67eb-4ed6-8265-2126a88abadc","ios":"levelo://app?vid=90a7399f-67eb-4ed6-8265-2126a88abadc"},"vehicle_type_id":"4","last_reported":1760188465,"current_range_meters":16800,"station_id":"st_d2o4gvlbi1j2169b742g","pricing_plan_id":"cebpf4jnsgd1na2vs0mg"},{"bike_id":"a10dabe4-e9de-4ff3-9dc9-8a21e2d7ddb0","system_id":"levelo_inurba_marseille","lat":43.21192,"lon":5.350707,"is_reserved":false,"is_disabled":false,"rental_uris":{"android":"levelo://app?vid=a10dabe4-e9de-4ff3-9dc9-8a21e2d7ddb0","ios":"levelo://app?vid=a10dabe4-e9de-4ff3-9dc9-8a21e2d7ddb0"},"vehicle_type_id":"4","last_reported":1760188465,"current_range_meters":17200,"station_id":"","pricing_plan_id":"cebpf4jnsgd1na2vs0mg"},{"bike_id":"86a4bea7-9767-4547-8c07-1d563c513adc","system_id":"levelo_inurba_marseille","lat":43.2904,"lon":5.37554,"is_reserved":false,"is_disabled":false,"rental_uris":{"android":"levelo://app?vid=86a4bea7-9767-4547-8c07-1d563c513adc","ios":"levelo://app?vid=86a4bea7-9767-4547-8c07-1d563c513adc"},"vehicle_type_id":"4","last_reported":1760188465,"current_range_meters":17200,"station_id":"ce4bh692rcd13ifvqe90","pricing_plan_id":"cebpf4jnsgd1na2vs0mg"},{"bike_id":"7591e1b9-39da-4bb9-bfef-91d026a9b9cc","system_id":"levelo_inurba_marseille","lat":43.29054,"lon":5.35899,"is_reserved":false,"is_disabled":false,"rental_uris":{"android":"levelo://app?vid=7591e1b9-39da-4bb9-bfef-91d026a9b9cc","ios":"levelo://app?vid=7591e1b9-39da-4bb9-bfef-91d026a9b9cc"},"vehicle_type_id":"4","last_reported":1760188465,"current_range_meters":17200,"station_id":"ce4bha92rcd13ifvqeg0","pricing_plan_id":"cebpf4jnsgd1na2vs0mg"},{"bike_id":"261a3eeb-f4b7-48d4-a8dd-b1d2b673dd88","system_id":"levelo_inurba_marseille","lat":43.28853,"lon":5.35844,"is_reserved":false,"is_disabled":false,"rental_uris":{"android":"levelo://app?vid=261a3eeb-f4b7-48d4-a8dd-b1d2b673dd88","ios":"levelo://app?vid=261a3eeb-f4b7-48d4-a8dd-b1d2b673dd88"},"vehicle_type_id":"4","last_reported":1760188465,"current_range_meters":17200,"station_id":"ce4bhb12rcd13ifvqem0","pricing_plan_id":"cebpf4jnsgd1na2vs0mg"},{"bike_id":"7c9fea27-db5e-4091-abf0-1fb490e96df5","system_id":"levelo_inurba_marseille","lat":43.29007,"lon":5.35609,"is_reserved":false,"is_disabled":false,"rental_uris":{"android":"levelo://app?vid=7c9fea27-db5e-4091-abf0-1fb490e96df5","ios":"levelo://app?vid=7c9fea27-db5e-4091-abf0-1fb490e96df5"},"vehicle_type_id":"4","last_reported":1760188465,"current_range_meters":17200,"station_id":"ce4bhb92rcd13ifvqen0","pricing_plan_id":"cebpf4jnsgd1na2vs0mg"},{"bike_id":"99746e17-b393-4d04-bc88-1f345f10e6d5","system_id":"levelo_inurba_marseille","lat":43.27321,"lon":5.39069,"is_reserved":false,"is_disabled":false,"rental_uris":{"android":"levelo://app?vid=99746e17-b393-4d04-bc88-1f345f10e6d5","ios":"levelo://app?vid=99746e17-b393-4d04-bc88-1f345f10e6d5"},"vehicle_type_id":"4","last_reported":1760188465,"current_range_meters":17200,"station_id":"ce4bhgp2rcd13ifvqfe0","pricing_plan_id":"cebpf4jnsgd1na2vs0mg"},{"bike_id":"a0b1f95c-fc33-48bc-b8ee-2c6f42d5e304","system_id":"levelo_inurba_marseille","lat":43.24371,"lon":5.37029,"is_reserved":false,"is_disabled":false,"rental_uris":{"android":"levelo://app?vid=a0b1f95c-fc33-48bc-b8ee-2c6f42d5e304","ios":"levelo://app?vid=a0b1f95c-fc33-48bc-b8ee-2c6f42d5e304"},"vehicle_type_id":"4","last_reported":1760188465,"current_range_meters":17200,"station_id":"ce4bhhh2rcd13ifvqfk0","pricing_plan_id":"cebpf4jnsgd1na2vs0mg"},{"bike_id":"fdca1f07-adcd-4be1-adaf-021612064854","system_id":"levelo_inurba_marseille","lat":43.23151,"lon":5.43708,"is_reserved":false,"is_disabled":false,"rental_uris":{"android":"levelo://app?vid=fdca1f07-adcd-4be1-adaf-021612064854","ios":"levelo://app?vid=fdca1f07-adcd-4be1-adaf-021612064854"},"vehicle_type_id":"4","last_reported":1760188465,"current_range_meters":17200,"station_id":"ce4bhmp2rcd13ifvqgog","pricing_plan_id":"cebpf4jnsgd1na2vs0mg"},{"bike_id":"fecedf8e-e76a-462a-89b1-b16abd90f988","system_id":"levelo_inurba_marseille","lat":43.23064,"lon":5.35477,"is_reserved":false,"is_disabled":false,"rental_uris":{"android":"levelo://app?vid=fecedf8e-e76a-462a-89b1-b16abd90f988","ios":"levelo://app?vid=fecedf8e-e76a-462a-89b1-b16abd90f988"},"vehicle_type_id":"4","last_reported":1760188465,"current_range_meters":17200,"station_id":"cpo3342slgdg3j2ifvpg","pricing_plan_id":"cebpf4jnsgd1na2vs0mg"},{"bike_id":"3017431a-1237-4842-a66d-718891ed2371","system_id":"levelo_inurba_marseille","lat":43.21743,"lon":5.34603,"is_reserved":false,"is_disabled":false,"rental_uris":{"android":"levelo://app?vid=3017431a-1237-4842-a66d-718891ed2371","ios":"levelo://app?vid=3017431a-1237-4842-a66d-718891ed2371"},"vehicle_type_id":"4","last_reported":1760188465,"current_range_meters":17200,"station_id":"st_cvj6r9ubvosntc0bgbag","pricing_plan_id":"cebpf4jnsgd1na2vs0mg"},{"bike_id":"bf1566bd-22f9-416e-98dc-04b2c8f4ead7","system_id":"levelo_inurba_marseille","lat":43.21196,"lon":5.35072,"is_reserved":false,"is_disabled":false,"rental_uris":{"android":"levelo://app?vid=bf1566bd-22f9-416e-98dc-04b2c8f4ead7","ios":"levelo://app?vid=bf1566bd-22f9-416e-98dc-04b2c8f4ead7"},"vehicle_type_id":"4","last_reported":1760188465,"current_range_meters":17600,"station_id":"","pricing_plan_id":"cebpf4jnsgd1na2vs0mg"},{"bike_id":"cf5aced5-5f98-40b0-9f06-81f022b00ee3","system_id":"levelo_inurba_marseille","lat":43.29581,"lon":5.36745,"is_reserved":false,"is_disabled":false,"rental_uris":{"android":"levelo://app?vid=cf5aced5-5f98-40b0-9f06-81f022b00ee3","ios":"levelo://app?vid=cf5aced5-5f98-40b0-9f06-81f022b00ee3"},"vehicle_type_id":"4","last_reported":1760188465,"current_range_meters":17600,"station_id":"ce4bgph2rcd13ifvqc2g","pricing_plan_id":"cebpf4jnsgd1na2vs0mg"},{"bike_id":"c2159ce0-acf3-448f-91aa-fbc7b50be1bc","system_id":"levelo_inurba_marseille","lat":43.2826,"lon":5.35066,"is_reserved":false,"is_disabled":false,"rental_uris":{"android":"levelo://app?vid=c2159ce0-acf3-448f-91aa-fbc7b50be1bc","ios":"levelo://app?vid=c2159ce0-acf3-448f-91aa-fbc7b50be1bc"},"vehicle_type_id":"4","last_reported":1760188465,"current_range_meters":17600,"station_id":"ce4bhbp2rcd13ifvqerg","pricing_plan_id":"cebpf4jnsgd1na2vs0mg"},{"bike_id":"87a2afbe-65eb-4f71-b21e-40efbb59899e","system_id":"levelo_inurba_marseille","lat":43.27929,"lon":5.39557,"is_reserved":false,"is_disabled":false,"rental_uris":{"android":"levelo://app?vid=87a2afbe-65eb-4f71-b21e-40efbb59899e","ios":"levelo://app?vid=87a2afbe-65eb-4f71-b21e-40efbb59899e"},"vehicle_type_id":"4","last_reported":1760188465,"current_range_meters":17600,"station_id":"ce4bhf92rcd13ifvqf40","pricing_plan_id":"cebpf4jnsgd1na2vs0mg"},{"bike_id":"3272e5cb-e544-4bac-866a-624239b9225a","system_id":"levelo_inurba_marseille","lat":43.217475,"lon":5.346024,"is_reserved":false,"is_disabled":false,"rental_uris":{"android":"levelo://app?vid=3272e5cb-e544-4bac-866a-624239b9225a","ios":"levelo://app?vid=3272e5cb-e544-4bac-866a-624239b9225a"},