{"last_updated":1677351946,"ttl":30,"version":"2.2","data":{"bikes":[{"bike_id":"e6bc9468-5d85-4c6c-99c3-64210d66f291","system_id":"levelo_inurba_marseille","lat":43.312239,"lon":5.368562,"is_reserved":false,"is_disabled":false,"rental_uris":{"android":"levelo://app?vid=e6bc9468-5d85-4c6c-99c3-64210d66f291","ios":"levelo://app?vid=e6bc9468-5d85-4c6c-99c3-64210d66f291"},"vehicle_type_id":"4","last_reported":1677351946,"current_range_meters":20000,"station_id":"ce4bgl92rcd13ifvqbq0","pricing_plan_id":"free"},{"bike_id":"a48a7b46-6025-45a4-a8ca-b3731837b5e9","system_id":"levelo_inurba_marseille","lat":43.312239,"lon":5.368562,"is_reserved":false,"is_disabled":false,"rental_uris":{"android":"levelo://app?vid=a48a7b46-6025-45a4-a8ca-b3731837b5e9","ios":"levelo://app?vid=a48a7b46-6025-45a4-a8ca-b3731837b5e9"},"vehicle_type_id":"4","last_reported":1677351946,"current_range_meters":24400,"station_id":"ce4bgl92rcd13ifvqbq0","pricing_plan_id":"free"},{"bike_id":"43932b1a-6f52-44e7-9c74-00fa27b5dfbc","system_id":"levelo_inurba_marseille","lat":43.312065,"lon":5.368585,"is_reserved":false,"is_disabled":false,"rental_uris":{"android":"levelo://app?vid=43932b1a-6f52-44e7-9c74-00fa27b5dfbc","ios":"levelo://app?vid=43932b1a-6f52-44e7-9c74-00fa27b5dfbc"},"vehicle_type_id":"4","last_reported":1677351946,"current_range_meters":800,"station_id":"ce4bgl92rcd13ifvqbq0","pricing_plan_id":"free"},{"bike_id":"72fa6e88-d9e5-4b03-8c26-b177eb96779c","system_id":"levelo_inurba_marseille","lat":43.316517,"lon":5.404375,"is_reserved":false,"is_disabled":false,"rental_uris":{"android":"levelo://app?vid=72fa6e88-d9e5-4b03-8c26-b177eb96779c","ios":"levelo://app?vid=72fa6e88-d9e5-4b03-8c26-b177eb96779c"},"vehicle_type_id":"4","last_reported":1677351946,"current_range_meters":20400,"station_id":"ce4bh012rcd13ifvqd00","pricing_plan_id":"free"},{"bike_id":"7dfd4d7a-e63d-4de4-8b5d-176371824ce3","system_id":"levelo_inurba_marseille","lat":43.30911,"lon":5.36851,"is_reserved":false,"is_disabled":false,"rental_uris":{"android":"levelo://app?vid=7dfd4d7a-e63d-4de4-8b5d-176371824ce3","ios":"levelo://app?vid=7dfd4d7a-e63d-4de4-8b5d-176371824ce3"},"vehicle_type_id":"4","last_reported":1677351946,"current_range_meters":23600,"station_id":"ce4bgn92rcd13ifvqbvg","pricing_plan_id":"free"},{"bike_id":"12968513-37ef-418e-8ac9-a50a21d84b0d","system_id":"levelo_inurba_marseille","lat":43.3091,"lon":5.3685,"is_reserved":false,"is_disabled":false,"rental_uris":{"android":"levelo://app?vid=12968513-37ef-418e-8ac9-a50a21d84b0d","ios":"levelo://app?vid=12968513-37ef-418e-8ac9-a50a21d84b0d"},"vehicle_type_id":"4","last_reported":1677351946,"current_range_meters":30400,"station_id":"","pricing_plan_id":"free"},{"bike_id":"7d87f035-42bb-4244-839f-4cb181cbfab9","system_id":"levelo_inurba_marseille","lat":43.308961,"lon":5.368555,"is_reserved":false,"is_disabled":false,"rental_uris":{"android":"levelo://app?vid=7d87f035-42bb-4244-839f-4cb181cbfab9","ios":"levelo://app?vid=7d87f035-42bb-4244-839f-4cb181cbfab9"},"vehicle_type_id":"4","last_reported":1677351946,"current_range_meters":8800,"station_id":"ce4bgn92rcd13ifvqbvg","pricing_plan_id":"free"},{"bike_id":"c44c5d3d-82dc-4ea8-8b13-4dee7205ea0f","system_id":"levelo_inurba_marseille","lat":43.314811,"lon":5.373103,"is_reserved":false,"is_disabled":false,"rental_uris":{"android":"levelo://app?vid=c44c5d3d-82dc-4ea8-8b13-4dee7205ea0f","ios":"levelo://app?vid=c44c5d3d-82dc-4ea8-8b13-4dee7205ea0f"},"vehicle_type_id":"4","last_reported":1677351946,"current_range_meters":20800,"station_id":"ce4bgt12rcd13ifvqcd0","pricing_plan_id":"free"},{"bike_id":"1c4b9904-834e-4823-9c07-7ded20cc61cc","system_id":"levelo_inurba_marseille","lat":43.314811,"lon":5.373103,"is_reserved":false,"is_disabled":false,"rental_uris":{"android":"levelo://app?vid=1c4b9904-834e-4823-9c07-7ded20cc61cc","ios":"levelo://app?vid=1c4b9904-834e-4823-9c07-7ded20cc61cc"},"vehicle_type_id":"4","last_reported":1677351946,"current_range_meters":5200,"station_id":"ce4bgt12rcd13ifvqcd0","pricing_plan_id":"free"},{"bike_id":"634fbe71-2b95-4a18-abfe-aec8694e3e7e","system_id":"levelo_inurba_marseille","lat":43.314811,"lon":5.373103,"is_reserved":false,"is_disabled":false,"rental_uris":{"android":"levelo://app?vid=634fbe71-2b95-4a18-abfe-aec8694e3e7e","ios":"levelo://app?vid=634fbe71-2b95-4a18-abfe-aec8694e3e7e"},"vehicle_type_id":"4","last_reported":1677351946,"current_range_meters":1200,"station_id":"ce4bgt12rcd13ifvqcd0","pricing_plan_id":"free"},{"bike_id":"97061380-4627-446f-8689-36e7fbca27a3","system_id":"levelo_inurba_marseille","lat":43.314826,"lon":5.373108,"is_reserved":false,"is_disabled":false,"rental_uris":{"android":"levelo://app?vid=97061380-4627-446f-8689-36e7fbca27a3","ios":"levelo://app?vid=97061380-4627-446f-8689-36e7fbca27a3"},"vehicle_type_id":"4","last_reported":1677351946,"current_range_meters":8800,"station_id":"","pricing_plan_id":"free"},{"bike_id":"cbe353d1-2330-4dc5-90c2-3720b6fcfc90","system_id":"levelo_inurba_marseille","lat":43.314811,"lon":5.373103,"is_reserved":false,"is_disabled":false,"rental_uris":{"android":"levelo://app?vid=cbe353d1-2330-4dc5-90c2-3720b6fcfc90","ios":"levelo://app?vid=cbe353d1-2330-4dc5-90c2-3720b6fcfc90"},"vehicle_type_id":"4","last_reported":1677351946,"current_range_meters":10000,"station_id":"ce4bgt12rcd13ifvqcd0","pricing_plan_id":"free"},{"bike_id":"fddc9025-f725-4762-af23-e0c8a13e3be5","system_id":"levelo_inurba_marseille","lat":43.314811,"lon":5.373103,"is_reserved":false,"is_disabled":false,"rental_uris":{"android":"levelo://app?vid=fddc9025-f725-4762-af23-e0c8a13e3be5","ios":"levelo://app?vid=fddc9025-f725-4762-af23-e0c8a13e3be5"},"vehicle_type_id":"4","last_reported":1677351946,"current_range_meters":8400,"station_id":"ce4bgt12rcd13ifvqcd0","pricing_plan_id":"free"},{"bike_id":"5f196673-b131-4e13-8a66-3f0501b1b94f","system_id":"levelo_inurba_marseille","lat":43.31491,"lon":5.37307,"is_reserved":false,"is_disabled":false,"rental_uris":{"android":"levelo://app?vid=5f196673-b131-4e13-8a66-3f0501b1b94f","ios":"levelo://app?vid=5f196673-b131-4e13-8a66-3f0501b1b94f"},"vehicle_type_id":"4","last_reported":1677351946,"current_range_meters":14000,"station_id":"","pricing_plan_id":"free"},{"bike_id":"3fa7b068-2934-4513-b7d4-5bfdad127f05","system_id":"levelo_inurba_marseille","lat":43.314811,"lon":5.373103,"is_reserved":false,"is_disabled":false,"rental_uris":{"android":"levelo://app?vid=3fa7b068-2934-4513-b7d4-5bfdad127f05","ios":"levelo://app?vid=3fa7b068-2934-4513-b7d4-5bfdad127f05"},"vehicle_type_id":"4","last_reported":1677351946,"current_range_meters":12400,"station_id":"ce4bgt12rcd13ifvqcd0","pricing_plan_id":"free"},{"bike_id":"ec7c3694-7b1e-434a-a374-1dc644138bf2","system_id":"levelo_inurba_marseille","lat":43.308614,"lon":5.372098,"is_reserved":false,"is_disabled":false,"rental_uris":{"android":"levelo://app?vid=ec7c3694-7b1e-434a-a374-1dc644138bf2","ios":"levelo://app?vid=ec7c3694-7b1e-434a-a374-1dc644138bf2"},"vehicle_type_id":"4","last_reported":1677351946,"current_range_meters":6000,"station_id":"ce4bguh2rcd13ifvqckg","pricing_plan_id":"free"},{"bike_id":"d4a2f901-63c3-4299-a3e5-a0118ab1b7b2","system_id":"levelo_inurba_marseille","lat":43.308614,"lon":5.372098,"is_reserved":false,"is_disabled":false,"rental_uris":{"android":"levelo://app?vid=d4a2f901-63c3-4299-a3e5-a0118ab1b7b2","ios":"levelo://app?vid=d4a2f901-63c3-4299-a3e5-a0118ab1b7b2"},"vehicle_type_id":"4","last_reported":1677351946,"current_range_meters":6800,"station_id":"ce4bguh2rcd13ifvqckg","pricing_plan_id":"free"},{"bike_id":"404d15c1-0188-47ae-a648-8b980adb7f5a","system_id":"levelo_inurba_marseille","lat":43.305989,"lon":5.37225,"is_reserved":false,"is_disabled":false,"rental_uris":{"android":"levelo://app?vid=404d15c1-0188-47ae-a648-8b980adb7f5a","ios":"levelo://app?vid=404d15c1-0188-47ae-a648-8b980adb7f5a"},"vehicle_type_id":"4","last_reported":1677351946,"current_range_meters":10000,"station_id":"ce4bgqh2rcd13ifvqc4g","pricing_plan_id":"free"},{"bike_id":"96789492-3ce2-47bf-b3cb-31c06984387e","system_id":"levelo_inurba_marseille","lat":43.305989,"lon":5.37225,"is_reserved":false,"is_disabled":false,"rental_uris":{"android":"levelo://app?vid=96789492-3ce2-47bf-b3cb-31c06984387e","ios":"levelo://app?vid=96789492-3ce2-47bf-b3cb-31c06984387e"},"vehicle_type_id":"4","last_reported":1677351946,"current_range_meters":18400,"station_id":"ce4bgqh2rcd13ifvqc4g","pricing_plan_id":"free"},{"bike_id":"112954d6-51b7-438f-8f73-16c6c82c214f","system_id":"levelo_inurba_marseille","lat":43.30596,"lon":5.37225,"is_reserved":false,"is_disabled":false,"rental_uris":{"android":"levelo://app?vid=112954d6-51b7-438f-8f73-16c6c82c214f","ios":"levelo://app?vid=112954d6-51b7-438f-8f73-16c6c82c214f"},"vehicle_type_id":"4","last_reported":1677351946,"current_range_meters":8000,"station_id":"","pricing_plan_id":"free"},{"bike_id":"4e7c24b5-9242-41f5-9778-cd55ab68ab93","system_id":"levelo_inurba_marseille","lat":43.31695,"lon":5.37659,"is_reserved":false,"is_disabled":false,"rental_uris":{"android":"levelo://app?vid=4e7c24b5-9242-41f5-9778-cd55ab68ab93","ios":"levelo://app?vid=4e7c24b5-9242-41f5-9778-cd55ab68ab93"},"vehicle_type_id":"4","last_reported":1677351946,"current_range_meters":0,"station_id":"","pricing_plan_id":"free"},{"bike_id":"8b5f69cd-cdd6-47ee-8e48-580b6f5c1b20","system_id":"levelo_inurba_marseille","lat":43.317075,"lon":5.377367,"is_reserved":false,"is_disabled":false,"rental_uris":{"android":"levelo://app?vid=8b5f69cd-cdd6-47ee-8e48-580b6f5c1b20","ios":"levelo://app?vid=8b5f69cd-cdd6-47ee-8e48-580b6f5c1b20"},"vehicle_type_id":"4","last_reported":1677351946,"current_range_meters":18000,"station_id":"ce4bgth2rcd13ifvqch0","pricing_plan_id":"free"},{"bike_id":"1175f3d2-7d88-4393-a11e-512ccb9c8ff8","system_id":"levelo_inurba_marseille","lat":43.319066,"lon":5.375348,"is_reserved":false,"is_disabled":false,"rental_uris":{"android":"levelo://app?vid=1175f3d2-7d88-4393-a11e-512ccb9c8ff8","ios":"levelo://app?vid=1175f3d2-7d88-4393-a11e-512ccb9c8ff8"},"vehicle_type_id":"4","last_reported":1677351946,"current_range_meters":0,"station_id":"","pricing_plan_id":"free"},{"bike_id":"2ba43bd1-aa5f-4c41-a0d1-e2a72428517a","system_id":"levelo_inurba_marseille","lat":43.317075,"lon":5.377367,"is_reserved":false,"is_disabled":false,"rental_uris":{"android":"levelo://app?vid=2ba43bd1-aa5f-4c41-a0d1-e2a72428517a","ios":"levelo://app?vid=2ba43bd1-aa5f-4c41-a0d1-e2a72428517a"},"vehicle_type_id":"4","last_reported":1677351946,"current_range_meters":30400,"station_id":"ce4bgth2rcd13ifvqch0","pricing_plan_id":"free"},{"bike_id":"a149c288-daa6-4edb-899e-d71521da3d39","system_id":"levelo_inurba_marseille","lat":43.317075,"lon":5.377367,"is_reserved":false,"is_disabled":false,"rental_uris":{"android":"levelo://app?vid=a149c288-daa6-4edb-899e-d71521da3d39","ios":"levelo://app?vid=a149c288-daa6-4edb-899e-d71521da3d39"},"vehicle_type_id":"4","last_reported":1677351946,"current_range_meters":19600,"station_id":"ce4bgth2rcd13ifvqch0","pricing_plan_id":"free"},{"bike_id":"cbafca45-dba5-487d-9f5d-c266616b0c89","system_id":"levelo_inurba_marseille","lat":43.317075,"lon":5.377367,"is_reserved":false,"is_disabled":false,"rental_uris":{"android":"levelo://app?vid=cbafca45-dba5-487d-9f5d-c266616b0c89","ios":"levelo://app?vid=cbafca45-dba5-487d-9f5d-c266616b0c89"},"vehicle_type_id":"4","last_reported":1677351946,"current_range_meters":14400,"station_id":"ce4bgth2rcd13ifvqch0","pricing_plan_id":"free"},{"bike_id":"be007542-e9bd-4106-9429-2dfeee1dcaf0","system_id":"levelo_inurba_marseille","lat":43.301939,"lon":5.366286,"is_reserved":false,"is_disabled":false,"rental_uris":{"android":"levelo://app?vid=be007542-e9bd-4106-9429-2dfeee1dcaf0","ios":"levelo://app?vid=be007542-e9bd-4106-9429-2dfeee1dcaf0"},"vehicle_type_id":"4","last_reported":1677351946,"current_range_meters":9200,"station_id":"ce4bgrh2rcd13ifvqc8g","pricing_plan_id":"free"},{"bike_id":"1f1371b1-2468-49d3-85dd-86536e4f0aa2","system_id":"levelo_inurba_marseille","lat":43.301939,"lon":5.366286,"is_reserved":false,"is_disabled":false,"rental_uris":{"android":"levelo://app?vid=1f1371b1-2468-49d3-85dd-86536e4f0aa2","ios":"levelo://app?vid=1f1371b1-2468-49d3-85dd-86536e4f0aa2"},"vehicle_type_id":"4","last_reported":1677351946,"current_range_meters":2000,"station_id":"ce4bgrh2rcd13ifvqc8g","pricing_plan_id":"free"},{"bike_id":"1a1af4d7-01e9-48cf-840d-1eebd5e7e70c","system_id":"levelo_inurba_marseille","lat":43.301939,"lon":5.366286,"is_reserved":false,"is_disabled":false,"rental_uris":{"android":"levelo://app?vid=1a1af4d7-01e9-48cf-840d-1eebd5e7e70c","ios":"levelo://app?vid=1a1af4d7-01e9-48cf-840d-1eebd5e7e70c"},"vehicle_type_id":"4","last_reported":1677351946,"current_range_meters":11200,"station_id":"ce4bgrh2rcd13ifvqc8g","pricing_plan_id":"free"},{"bike_id":"5f1dfe38-b8d5-4e67-8340-6b6f8c472aea","system_id":"levelo_inurba_marseille","lat":43.301939,"lon":5.366286,"is_reserved":false,"is_disabled":false,"rental_uris":{"android":"levelo://app?vid=5f1dfe38-b8d5-4e67-8340-6b6f8c472aea","ios":"levelo://app?vid=5f1dfe38-b8d5-4e67-8340-6b6f8c472aea"},"vehicle_type_id":"4","last_reported":1677351946,"current_range_meters":28400,"station_id":"ce4bgrh2rcd13ifvqc8g","pricing_plan_id":"free"},{"bike_id":"6a08fd4d-df42-4b31-947c-7649b9f4a576","system_id":"levelo_inurba_marseille","lat":43.301939,"lon":5.366286,"is_reserved":false,"is_disabled":false,"rental_uris":{"android":"levelo://app?vid=6a08fd4d-df42-4b31-947c-7649b9f4a576","ios":"levelo://app?vid=6a08fd4d-df42-4b31-947c-7649b9f4a576"},"vehicle_type_id":"4","last_reported":1677351946,"current_range_meters":21600,"station_id":"ce4bgrh2rcd13ifvqc8g","pricing_plan_id":"free"},{"bike_id":"802ec80e-c121-485b-a4d8-4dc343598833","system_id":"levelo_inurba_marseille","lat":43.308012,"lon":5.381511,"is_reserved":false,"is_disabled":false,"rental_uris":{"android":"levelo://app?vid=802ec80e-c121-485b-a4d8-4dc343598833","ios":"levelo://app?vid=802ec80e-c121-485b-a4d8-4dc343598833"},"vehicle_type_id":"4","last_reported":1677351946,"current_range_meters":25600,"station_id":"ce4bgt12rcd13ifvqce0","pricing_plan_id":"free"},{"bike_id":"10a95505-2376-493f-acdd-32f3abde618d","system_id":"levelo_inurba_marseille","lat":43.301429,"lon":5.37413,"is_reserved":false,"is_disabled":false,"rental_uris":{"android":"levelo://app?vid=10a95505-2376-493f-acdd-32f3abde618d","ios":"levelo://app?vid=10a95505-2376-493f-acdd-32f3abde618d"},"vehicle_type_id":"4","last_reported":1677351946,"current_range_meters":5200,"station_id":"ce4bgs92rcd13ifvqcc0","pricing_plan_id":"free"},{"bike_id":"3ea22166-fa42-48ee-bfd8-07198ee0dd1a","system_id":"levelo_inurba_marseille","lat":43.301429,"lon":5.37413,"is_reserved":false,"is_disabled":false,"rental_uris":{"android":"levelo://app?vid=3ea22166-fa42-48ee-bfd8-07198ee0dd1a","ios":"levelo://app?vid=3ea22166-fa42-48ee-bfd8-07198ee0dd1a"},"vehicle_type_id":"4","last_reported":1677351946,"current_range_meters":18000,"station_id":"ce4bgs92rcd13ifvqcc0","pricing_plan_id":"free"},{"bike_id":"276effe3-36e3-49e2-ad16-60c71096680f","system_id":"levelo_inurba_marseille","lat":43.301429,"lon":5.37413,"is_reserved":false,"is_disabled":false,"rental_uris":{"android":"levelo://app?vid=276effe3-36e3-49e2-ad16-60c71096680f","ios":"levelo://app?vid=276effe3-36e3-49e2-ad16-60c71096680f"},"vehicle_type_id":"4","last_reported":1677351946,"current_range_meters":27600,"station_id":"ce4bgs92rcd13ifvqcc0","pricing_plan_id":"free"},{"bike_id":"5fc40874-2556-4551-a67a-0e08e015cbdc","system_id":"levelo_inurba_marseille","lat":43.313571,"lon":5.384829,"is_reserved":false,"is_disabled":false,"rental_uris":{"android":"levelo://app?vid=5fc40874-2556-4551-a67a-0e08e015cbdc","ios":"levelo://app?vid=5fc40874-2556-4551-a67a-0e08e015cbdc"},"vehicle_type_id":"4","last_reported":1677351946,"current_range_meters":17200,"station_id":"ce4bgt92rcd13ifvqcf0","pricing_plan_id":"free"},{"bike_id":"99f7e0cb-080c-406a-963c-200f1ba29635","system_id":"levelo_inurba_marseille","lat":43.313571,"lon":5.384829,"is_reserved":false,"is_disabled":false,"rental_uris":{"android":"levelo://app?vid=99f7e0cb-080c-406a-963c-200f1ba29635","ios":"levelo://app?vid=99f7e0cb-080c-406a-963c-200f1ba29635"},"vehicle_type_id":"4","last_reported":1677351946,"current_range_meters":14800,"station_id":"ce4bgt92rcd13ifvqcf0","pricing_plan_id":"free"},{"bike_id":"682b838c-0edc-4745-92f0-9a2a68267e89","system_id":"levelo_inurba_marseille","lat":43.313571,"lon":5.384829,"is_reserved":false,"is_disabled":false,"rental_uris":{"android":"levelo://app?vid=682b838c-0edc-4745-92f0-9a2a68267e89","ios":"levelo://app?vid=682b838c-0edc-4745-92f0-9a2a68267e89"},"vehicle_type_id":"4","last_reported":1677351946,"current_range_meters":0,"station_id":"ce4bgt92rcd13ifvqcf0","pricing_plan_id":"free"},{"bike_id":"adbf74f4-f5d7-4ef9-8db2-da338f824a7d","system_id":"levelo_inurba_marseille","lat":43.299997,"lon":5.374886,"is_reserved":false,"is_disabled":false,"rental_uris":{"android":"levelo://app?vid=adbf74f4-f5d7-4ef9-8db2-da338f824a7d","ios":"levelo://app?vid=adbf74f4-f5d7-4ef9-8db2-da338f824a7d"},"vehicle_type_id":"4","last_reported":1677351946,"current_range_meters":15200,"station_id":"","pricing_plan_id":"free"},{"bike_id":"c206b564-2e9b-4a16-bd6d-8b8f94496151","system_id":"levelo_inurba_marseille","lat":43.298433,"lon":5.362774,"is_reserved":false,"is_disabled":false,"rental_uris":{"android":"levelo://app?vid=c206b564-2e9b-4a16-bd6d-8b8f94496151","ios":"levelo://app?vid=c206b564-2e9b-4a16-bd6d-8b8f94496151"},"vehicle_type_id":"4","last_reported":1677351946,"current_range_meters":31600,"station_id":"ce4bgpp2rcd13ifvqc3g","pricing_plan_id":"free"},{"bike_id":"c34d9359-7f76-40b3-8fcf-20b2858ff9b7","system_id":"levelo_inurba_marseille","lat":43.29848,"lon":5.36286,"is_reserved":false,"is_disabled":false,"rental_uris":{"android":"levelo://app?vid=c34d9359-7f76-40b3-8fcf-20b2858ff9b7","ios":"levelo://app?vid=c34d9359-7f76-40b3-8fcf-20b2858ff9b7"},"vehicle_type_id":"4","last_reported":1677351946,"current_range_meters":26800,"station_id":"","pricing_plan_id":"free"},{"bike_id":"7b0fd652-a395-4217-ba66-b2058b3e2c03","system_id":"levelo_inurba_marseille","lat":43.298433,"lon":5.362774,"is_reserved":false,"is_disabled":false,"rental_uris":{"android":"levelo://app?vid=7b0fd652-a395-4217-ba66-b2058b3e2c03","ios":"levelo://app?vid=7b0fd652-a395-4217-ba66-b2058b3e2c03"},"vehicle_type_id":"4","last_reported":1677351946,"current_range_meters":14000,"station_id":"ce4bgpp2rcd13ifvqc3g","pricing_plan_id":"free"},{"bike_id":"dd481308-6964-42ad-aa0e-c64861b2f32c","system_id":"levelo_inurba_marseille","lat":43.29844,"lon":5.36275,"is_reserved":false,"is_disabled":false,"rental_uris":{"android":"levelo://app?vid=dd481308-6964-42ad-aa0e-c64861b2f32c","ios":"levelo://app?vid=dd481308-6964-42ad-aa0e-c64861b2f32c"},"vehicle_type_id":"4","last_reported":1677351946,"current_range_meters":12000,"station_id":"","pricing_plan_id":"free"},{"bike_id":"bc89541d-5d53-4f3c-bf53-8fbfa9b94172","system_id":"levelo_inurba_marseille","lat":43.298433,"lon":5.362774,"is_reserved":false,"is_disabled":false,"rental_uris":{"android":"levelo://app?vid=bc89541d-5d53-4f3c-bf53-8fbfa9b94172","ios":"levelo://app?vid=bc89541d-5d53-4f3c-bf53-8fbfa9b94172"},"vehicle_type_id":"4","last_reported":1677351946,"current_range_meters":6000,"station_id":"ce4bgpp2rcd13ifvqc3g","pricing_plan_id":"free"},{"bike_id":"4958645e-d87b-46ee-8a31-e167f2686df8","system_id":"levelo_inurba_marseille","lat":43.298433,"lon":5.362774,"is_reserved":false,"is_disabled":false,"rental_uris":{"android":"levelo://app?vid=4958645e-d87b-46ee-8a31-e167f2686df8","ios":"levelo://app?vid=4958645e-d87b-46ee-8a31-e167f2686df8"},"vehicle_type_id":"4","last_reported":1677351946,"current_range_meters":31600,"station_id":"ce4bgpp2rcd13ifvqc3g","pricing_plan_id":"free"},{"bike_id":"4cb17a48-51b0-469f-9b56-d23f1c60d955","system_id":"levelo_inurba_marseille","lat":43.298433,"lon":5.362774,"is_reserved":false,"is_disabled":false,"rental_uris":{"android":"levelo://app?vid=4cb17a48-51b0-469f-9b56-d23f1c60d955","ios":"levelo://app?vid=4cb17a48-51b0-469f-9b56-d23f1c60d955"},"vehicle_type_id":"4","last_reported":1677351946,"current_range_meters":8000,"station_id":"ce4bgpp2rcd13ifvqc3g","pricing_plan_id":"free"},{"bike_id":"f6270b2c-8b6a-4203-9046-1364c5203b59","system_id":"levelo_inurba_marseille","lat":43.298433,"lon":5.362774,"is_reserved":false,"is_disabled":false,"rental_uris":{"android":"levelo://app?vid=f6270b2c-8b6a-4203-9046-1364c5203b59","ios":"levelo://app?vid=f6270b2c-8b6a-4203-9046-1364c5203b59"},"vehicle_type_id":"4","last_reported":1677351946,"current_range_meters":28800,"station_id":"ce4bgpp2rcd13ifvqc3g","pricing_plan_id":"free"},{"bike_id":"da3fcb5a-4f30-491d-8b90-c843c8fac9fc","system_id":"levelo_inurba_marseille","lat":43.2984,"lon":5.36264,"is_reserved":false,"is_disabled":false,"rental_uris":{"android":"levelo://app?vid=da3fcb5a-4f30-491d-8b90-c843c8fac9fc","ios":"levelo://app?vid=da3fcb5a-4f30-491d-8b90-c843c8fac9fc"},"vehicle_type_id":"4","last_reported":1677351946,"current_range_meters":27600,"station_id":"ce4bgpp2rcd13ifvqc3g","pricing_plan_id":"free"},{"bike_id":"a91238f2-e902-43fe-a378-88cebe8d8d54","system_id":"levelo_inurba_marseille","lat":43.311722,"lon":5.387247,"is_reserved":false,"is_disabled":false,"rental_uris":{"android":"levelo://app?vid=a91238f2-e902-43fe-a378-88cebe8d8d54","ios":"levelo://app?vid=a91238f2-e902-43fe-a378-88cebe8d8d54"},"vehicle_type_id":"4","last_reported":1677351946,"current_range_meters":27600,"station_id":"ce4bgv12rcd13ifvqcp0","pricing_plan_id":"free"},{"bike_id":"fb7c1281-44b6-48f3-a05f-cc21e6fd009b","system_id":"levelo_inurba_marseille","lat":43.328371,"lon":5.366909,"is_reserved":false,"is_disabled":false,"rental_uris":{"android":"levelo://app?vid=fb7c1281-44b6-48f3-a05f-cc21e6fd009b","ios":"levelo://app?vid=fb7c1281-44b6-48f3-a05f-cc21e6fd009b"},"vehicle_type_id":"4","last_reported":1677351946,"current_range_meters":16000,"station_id":"ce4bhs92rcd13ifvqi0g","pricing_plan_id":"free"},{"bike_id":"bc9c1b55-928c-4fce-a6ef-d6a72636c5c8","system_id":"levelo_inurba_marseille","lat":43.328371,"lon":5.366909,"is_reserved":false,"is_disabled":false,"rental_uris":{"android":"levelo://app?vid=bc9c1b55-928c-4fce-a6ef-d6a72636c5c8","ios":"levelo://app?vid=bc9c1b55-928c-4fce-a6ef-d6a72636c5c8"},"vehicle_type_id":"4","last_reported":1677351946,"current_range_meters":1600,"station_id":"ce4bhs92rcd13ifvqi0g","pricing_plan_id":"free"},{"bike_id":"bc69dcbf-c5e7-473e-9c3a-5cb1899b37fd","system_id":"levelo_inurba_marseille","lat":43.328371,"lon":5.366909,"is_reserved":false,"is_disabled":false,"rental_uris":{"android":"levelo://app?vid=bc69dcbf-c5e7-473e-9c3a-5cb1899b37fd","ios":"levelo://app?vid=bc69dcbf-c5e7-473e-9c3a-5cb1899b37fd"},"vehicle_type_id":"4","last_reported":1677351946,"current_range_meters":10000,"station_id":"ce4bhs92rcd13ifvqi0g","pricing_plan_id":"free"},{"bike_id":"e6b3f4ea-1861-433c-a8e8-62d731ab80e1","system_id":"levelo_inurba_marseille","lat":43.328371,"lon":5.366909,"is_reserved":false,"is_disabled":false,"rental_uris":{"android":"levelo://app?vid=e6b3f4ea-1861-433c-a8e8-62d731ab80e1","ios":"levelo://app?vid=e6b3f4ea-1861-433c-a8e8-62d731ab80e1"},"vehicle_type_id":"4","last_reported":1677351946,"current_range_meters":22400,"station_id":"ce4bhs92rcd13ifvqi0g","pricing_plan_id":"free"},{"bike_id":"b0fdd08f-ad1c-4f07-8737-19a1b8e7f7a3","system_id":"levelo_inurba_marseille","lat":43.328371,"lon":5.366909,"is_reserved":false,"is_disabled":false,"rental_uris":{"android":"levelo://app?vid=b0fdd08f-ad1c-4f07-8737-19a1b8e7f7a3","ios":"levelo://app?vid=b0fdd08f-ad1c-4f07-8737-19a1b8e7f7a3"},"vehicle_type_id":"4","last_reported":1677351946,"current_range_meters":8400,"station_id":"ce4bhs92rcd13ifvqi0g","pricing_plan_id":"free"},{"bike_id":"197af0d6-5467-4203-a676-cdf599dc91a3","system_id":"levelo_inurba_marseille","lat":43.328371,"lon":5.366909,"is_reserved":false,"is_disabled":false,"rental_uris":{"android":"levelo://app?vid=197af0d6-5467-4203-a676-cdf599dc91a3","ios":"levelo://app?vid=197af0d6-5467-4203-a676-cdf599dc91a3"},"vehicle_type_id":"4","last_reported":1677351946,"current_range_meters":24800,"station_id":"ce4bhs92rcd13ifvqi0g","pricing_plan_id":"free"},{"bike_id":"45ea00c2-1072-4a0b-acc6-56898a9f5178","system_id":"levelo_inurba_marseille","lat":43.328371,"lon":5.366909,"is_reserved":false,"is_disabled":false,"rental_uris":{"android":"levelo://app?vid=45ea00c2-1072-4a0b-acc6-56898a9f5178","ios":"levelo://app?vid=45ea00c2-1072-4a0b-acc6-56898a9f5178"},"vehicle_type_id":"4","last_reported":1677351946,"current_range_meters":18000,"station_id":"ce4bhs92rcd13ifvqi0g","pricing_plan_id":"free"},{"bike_id":"37b329ef-726b-45ed-8520-2998c5c0e83b","system_id":"levelo_inurba_marseille","lat":43.328371,"lon":5.366909,"is_reserved":false,"is_disabled":false,"rental_uris":{"android":"levelo://app?vid=37b329ef-726b-45ed-8520-2998c5c0e83b","ios":"levelo://app?vid=37b329ef-726b-45ed-8520-2998c5c0e83b"},"vehicle_type_id":"4","last_reported":1677351946,"current_range_meters":14400,"station_id":"ce4bhs92rcd13ifvqi0g","pricing_plan_id":"free"},{"bike_id":"1d264247-bd52-4a78-bfd0-64324839d730","system_id":"levelo_inurba_marseille","lat":43.328371,"lon":5.366909,"is_reserved":false,"is_disabled":false,"rental_uris":{"android":"levelo://app?vid=1d264247-bd52-4a78-bfd0-64324839d730","ios":"levelo://app?vid=1d264247-bd52-4a78-bfd0-64324839d730"},"vehicle_type_id":"4","last_reported":1677351946,"current_range_meters":11200,"station_id":"ce4bhs92rcd13ifvqi0g","pricing_plan_id":"free"},{"bike_id":"52f5446f-7797-46b6-81be-14f4f341e138","system_id":"levelo_inurba_marseille","lat":43.328371,"lon":5.366909,"is_reserved":false,"is_disabled":false,"rental_uris":{"android":"levelo://app?vid=52f5446f-7797-46b6-81be-14f4f341e138","ios":"levelo://app?vid=52f5446f-7797-46b6-81be-14f4f341e138"},"vehicle_type_id":"4","last_reported":1677351946,"current_range_meters":19600,"station_id":"ce4bhs92rcd13ifvqi0g","pricing_plan_id":"free"},{"bike_id":"7908e3b6-6a1b-410a-b0cf-10555ecdf433","system_id":"levelo_inurba_marseille","lat":43.328371,"lon":5.366909,"is_reserved":false,"is_disabled":false,"rental_uris":{"android":"levelo://app?vid=7908e3b6-6a1b-410a-b0cf-10555ecdf433","ios":"levelo://app?vid=7908e3b6-6a1b-410a-b0cf-10555ecdf433"},"vehicle_type_id":"4","last_reported":1677351946,"current_range_meters":7200,"station_id":"ce4bhs92rcd13ifvqi0g","pricing_plan_id":"free"},{"bike_id":"ebd11181-84a3-47b4-8b2e-bf6d389cfbcd","system_id":"levelo_inurba_marseille","lat":43.328371,"lon":5.366909,"is_reserved":false,"is_disabled":false,"rental_uris":{"android":"levelo://app?vid=ebd11181-84a3-47b4-8b2e-bf6d389cfbcd","ios":"levelo://app?vid=ebd11181-84a3-47b4-8b2e-bf6d389cfbcd"},"vehicle_type_id":"4","last_reported":1677351946,"current_range_meters":18400,"station_id":"ce4bhs92rcd13ifvqi0g","pricing_plan_id":"free"},{"bike_id":"ea0e675a-6b3e-4aac-812d-51d81478604c","system_id":"levelo_inurba_marseille","lat":43.328371,"lon":5.366909,"is_reserved":false,"is_disabled":false,"rental_uris":{"android":"levelo://app?vid=ea0e675a-6b3e-4aac-812d-51d81478604c","ios":"levelo://app?vid=ea0e675a-6b3e-4aac-812d-51d81478604c"},"vehicle_type_id":"4","last_reported":1677351946,"current_range_meters":0,"station_id":"ce4bhs92rcd13ifvqi0g","pricing_plan_id":"free"},{"bike_id":"218a05ce-8586-4f32-9372-c7107147f694","system_id":"levelo_inurba_marseille","lat":43.298029,"lon":5.376882,"is_reserved":false,"is_disabled":false,"rental_uris":{"android":"levelo://app?vid=218a05ce-8586-4f32-9372-c7107147f694","ios":"levelo://app?vid=218a05ce-8586-4f32-9372-c7107147f694"},"vehicle_type_id":"4","last_reported":1677351946,"current_range_meters":5600,"station_id":"ce4bgip2rcd13ifvqbb0","pricing_plan_id":"free"},{"bike_id":"0018b626-bf4c-4218-ac03-2b8726637430","system_id":"levelo_inurba_marseille","lat":43.29674,"lon":5.37281,"is_reserved":false,"is_disabled":false,"rental_uris":{"android":"levelo://app?vid=0018b626-bf4c-4218-ac03-2b8726637430","ios":"levelo://app?vid=0018b626-bf4c-4218-ac03-2b8726637430"},"vehicle_type_id":"4","last_reported":1677351946,"current_range_meters":11600,"station_id":"ce4bgk12rcd13ifvqbj0","pricing_plan_id":"free"},{"bike_id":"96b7693e-44fe-4105-abfa-3e8945e68e10","system_id":"levelo_inurba_marseille","lat":43.30403,"lon":5.38703,"is_reserved":false,"is_disabled":false,"rental_uris":{"android":"levelo://app?vid=96b7693e-44fe-4105-abfa-3e8945e68e10","ios":"levelo://app?vid=96b7693e-44fe-4105-abfa-3e8945e68e10"},"vehicle_type_id":"4","last_reported":1677351946,"current_range_meters":10800,"station_id":"","pricing_plan_id":"free"},{"bike_id":"8a55470f-fba2-4c9b-bf0c-4716988ff4bc","system_id":"levelo_inurba_marseille","lat":43.299028,"lon":5.381509,"is_reserved":false,"is_disabled":false,"rental_uris":{"android":"levelo://app?vid=8a55470f-fba2-4c9b-bf0c-4716988ff4bc","ios":"levelo://app?vid=8a55470f-fba2-4c9b-bf0c-4716988ff4bc"},"vehicle_type_id":"4","last_reported":1677351946,"current_range_meters":31600,"station_id":"ce4bgj12rcd13ifvqbc0","pricing_plan_id":"free"},{"bike_id":"5ae85c05-a8e1-4768-854d-09c265713f88","system_id":"levelo_inurba_marseille","lat":43.299028,"lon":5.381509,"is_reserved":false,"is_disabled":false,"rental_uris":{"android":"levelo://app?vid=5ae85c05-a8e1-4768-854d-09c265713f88","ios":"levelo://app?vid=5ae85c05-a8e1-4768-854d-09c265713f88"},"vehicle_type_id":"4","last_reported":1677351946,"current_range_meters":28800,"station_id":"ce4bgj12rcd13ifvqbc0","pricing_plan_id":"free"},{"bike_id":"de1d6efe-cc5b-47b4-832f-453ca72bd49d","system_id":"levelo_inurba_marseille","lat":43.299028,"lon":5.381509,"is_reserved":false,"is_disabled":false,"rental_uris":{"android":"levelo://app?vid=de1d6efe-cc5b-47b4-832f-453ca72bd49d","ios":"levelo://app?vid=de1d6efe-cc5b-47b4-832f-453ca72bd49d"},"vehicle_type_id":"4","last_reported":1677351946,"current_range_meters":31200,"station_id":"ce4bgj12rcd13ifvqbc0","pricing_plan_id":"free"},{"bike_id":"f72cd52f-928d-4cda-a05b-e90f874b794d","system_id":"levelo_inurba_marseille","lat":43.299028,"lon":5.381509,"is_reserved":false,"is_disabled":false,"rental_uris":{"android":"levelo://app?vid=f72cd52f-928d-4cda-a05b-e90f874b794d","ios":"levelo://app?vid=f72cd52f-928d-4cda-a05b-e90f874b794d"},"vehicle_type_id":"4","last_reported":1677351946,"current_range_meters":1200,"station_id":"ce4bgj12rcd13ifvqbc0","pricing_plan_id":"free"},{"bike_id":"921640df-5c01-48cb-b299-2414f2cb09bd","system_id":"levelo_inurba_marseille","lat":43.299028,"lon":5.381509,"is_reserved":false,"is_disabled":false,"rental_uris":{"android":"levelo://app?vid=921640df-5c01-48cb-b299-2414f2cb09bd","ios":"levelo://app?vid=921640df-5c01-48cb-b299-2414f2cb09bd"},"vehicle_type_id":"4","last_reported":1677351946,"current_range_meters":4800,"station_id":"ce4bgj12rcd13ifvqbc0","pricing_plan_id":"free"},{"bike_id":"bc10e66a-705b-48d4-bb88-4a0a57d7c42c","system_id":"levelo_inurba_marseille","lat":43.299028,"lon":5.381509,"is_reserved":false,"is_disabled":false,"rental_uris":{"android":"levelo://app?vid=bc10e66a-705b-48d4-bb88-4a0a57d7c42c","ios":"levelo://app?vid=bc10e66a-705b-48d4-bb88-4a0a57d7c42c"},"vehicle_type_id":"4","last_reported":1677351946,"current_range_meters":31600,"station_id":"ce4bgj12rcd13ifvqbc0","pricing_plan_id":"free"},{"bike_id":"63399e6b-fc56-4058-9ac5-d340c27a4ee8","system_id":"levelo_inurba_marseille","lat":43.29901,"lon":5.38155,"is_reserved":false,"is_disabled":false,"rental_uris":{"android":"levelo://app?vid=63399e6b-fc56-4058-9ac5-d340c27a4ee8","ios":"levelo://app?vid=63399e6b-fc56-4058-9ac5-d340c27a4ee8"},"vehicle_type_id":"4","last_reported":1677351946,"current_range_meters":12000,"station_id":"ce4bgj12rcd13ifvqbc0","pricing_plan_id":"free"},{"bike_id":"5218c5e8-8f3a-4564-b931-80786a5ed59f","system_id":"levelo_inurba_marseille","lat":43.299031,"lon":5.381719,"is_reserved":false,"is_disabled":false,"rental_uris":{"android":"levelo://app?vid=5218c5e8-8f3a-4564-b931-80786a5ed59f","ios":"levelo://app?vid=5218c5e8-8f3a-4564-b931-80786a5ed59f"},"vehicle_type_id":"4","last_reported":1677351946,"current_range_meters":8400,"station_id":"ce4bgj12rcd13ifvqbc0","pricing_plan_id":"free"},{"bike_id":"2462aeb6-1704-4631-ace6-35607356d0b8","system_id":"levelo_inurba_marseille","lat":43.31755,"lon":5.39013,"is_reserved":false,"is_disabled":false,"rental_uris":{"android":"levelo://app?vid=2462aeb6-1704-4631-ace6-35607356d0b8","ios":"levelo://app?vid=2462aeb6-1704-4631-ace6-35607356d0b8"},"vehicle_type_id":"4","last_reported":1677351946,"current_range_meters":21200,"station_id":"ce4bhqp2rcd13ifvqhng","pricing_plan_id":"free"},{"bike_id":"5663270b-2716-4ab6-980e-429515c52785","system_id":"levelo_inurba_marseille","lat":43.317557,"lon":5.390173,"is_reserved":false,"is_disabled":false,"rental_uris":{"android":"levelo://app?vid=5663270b-2716-4ab6-980e-429515c52785","ios":"levelo://app?vid=5663270b-2716-4ab6-980e-429515c52785"},"vehicle_type_id":"4","last_reported":1677351946,"current_range_meters":10000,"station_id":"ce4bhqp2rcd13ifvqhng","pricing_plan_id":"free"},{"bike_id":"1a2b00bc-908a-4a86-9ee9-b40d16f29e0d","system_id":"levelo_inurba_marseille","lat":43.317557,"lon":5.390173,"is_reserved":false,"is_disabled":false,"rental_uris":{"android":"levelo://app?vid=1a2b00bc-908a-4a86-9ee9-b40d16f29e0d","ios":"levelo://app?vid=1a2b00bc-908a-4a86-9ee9-b40d16f29e0d"},"vehicle_type_id":"4","last_reported":1677351946,"current_range_meters":14400,"station_id":"ce4bhqp2rcd13ifvqhng","pricing_plan_id":"free"},{"bike_id":"b89171df-5f7e-4a7d-9c17-57c3788b09bb","system_id":"levelo_inurba_marseille","lat":43.317557,"lon":5.390173,"is_reserved":false,"is_disabled":false,"rental_uris":{"android":"levelo://app?vid=b89171df-5f7e-4a7d-9c17-57c3788b09bb","ios":"levelo://app?vid=b89171df-5f7e-4a7d-9c17-57c3788b09bb"},"vehicle_type_id":"4","last_reported":1677351946,"current_range_meters":15200,"station_id":"ce4bhqp2rcd13ifvqhng","pricing_plan_id":"free"},{"bike_id":"f9a9e3f9-6e1a-4198-9a72-588053242598","system_id":"levelo_inurba_marseille","lat":43.317584,"lon":5.390212,"is_reserved":false,"is_disabled":false,"rental_uris":{"android":"levelo://app?vid=f9a9e3f9-6e1a-4198-9a72-588053242598","ios":"levelo://app?vid=f9a9e3f9-6e1a-4198-9a72-588053242598"},"vehicle_type_id":"4","last_reported":1677351946,"current_range_meters":23200,"station_id":"ce4bhqp2rcd13ifvqhng","pricing_plan_id":"free"},{"bike_id":"e243036c-cce6-42ac-8687-d275e78800c7","system_id":"levelo_inurba_marseille","lat":43.31755,"lon":5.39023,"is_reserved":false,"is_disabled":false,"rental_uris":{"android":"levelo://app?vid=e243036c-cce6-42ac-8687-d275e78800c7","ios":"levelo://app?vid=e243036c-cce6-42ac-8687-d275e78800c7"},"vehicle_type_id":"4","last_reported":1677351946,"current_range_meters":19200,"station_id":"ce4bhqp2rcd13ifvqhng","pricing_plan_id":"free"},{"bike_id":"599496d7-56e1-4a76-8768-f04cd9ef75e3","system_id":"levelo_inurba_marseille","lat":43.31757,"lon":5.39024,"is_reserved":false,"is_disabled":false,"rental_uris":{"android":"levelo://app?vid=599496d7-56e1-4a76-8768-f04cd9ef75e3","ios":"levelo://app?vid=599496d7-56e1-4a76-8768-f04cd9ef75e3"},"vehicle_type_id":"4","last_reported":1677351946,"current_range_meters":12000,"station_id":"ce4bhqp2rcd13ifvqhng","pricing_plan_id":"free"},{"bike_id":"87772f18-9dab-44b7-9a12-4ef0c7d43669","system_id":"levelo_inurba_marseille","lat":43.31755,"lon":5.39026,"is_reserved":false,"is_disabled":false,"rental_uris":{"android":"levelo://app?vid=87772f18-9dab-44b7-9a12-4ef0c7d43669","ios":"levelo://app?vid=87772f18-9dab-44b7-9a12-4ef0c7d43669"},"vehicle_type_id":"4","last_reported":1677351946,"current_range_meters":18400,"station_id":"ce4bhqp2rcd13ifvqhng","pricing_plan_id":"free"},{"bike_id":"6997492c-4dda-40a8-b571-b6e07b6b5987","system_id":"levelo_inurba_marseille","lat":43.295748,"lon":5.37522,"is_reserved":false,"is_disabled":false,"rental_uris":{"android":"levelo://app?vid=6997492c-4dda-40a8-b571-b6e07b6b5987","ios":"levelo://app?vid=6997492c-4dda-40a8-b571-b6e07b6b5987"},"vehicle_type_id":"4","last_reported":1677351946,"current_range_meters":9200,"station_id":"ce4bgh92rcd13ifvqb50","pricing_plan_id":"free"},{"bike_id":"0cdfc193-5d11-4e50-b2f7-d9514b0139c5","system_id":"levelo_inurba_marseille","lat":43.298037,"lon":5.381066,"is_reserved":false,"is_disabled":false,"rental_uris":{"android":"levelo://app?vid=0cdfc193-5d11-4e50-b2f7-d9514b0139c5","ios":"levelo://app?vid=0cdfc193-5d11-4e50-b2f7-d9514b0139c5"},"vehicle_type_id":"4","last_reported":1677351946,"current_range_meters":7200,"station_id":"ce4bgip2rcd13ifvqbb0","pricing_plan_id":"free"},{"bike_id":"bdc4978a-7dcd-48c7-aeb9-9cdc6c93ca66","system_id":"levelo_inurba_marseille","lat":43.298037,"lon":5.381066,"is_reserved":false,"is_disabled":false,"rental_uris":{"android":"levelo://app?vid=bdc4978a-7dcd-48c7-aeb9-9cdc6c93ca66","ios":"levelo://app?vid=bdc4978a-7dcd-48c7-aeb9-9cdc6c93ca66"},"vehicle_type_id":"4","last_reported":1677351946,"current_range_meters":26800,"station_id":"ce4bgip2rcd13ifvqbb0","pricing_plan_id":"free"},{"bike_id":"d546535c-265d-48a9-b9c8-2ffee3426151","system_id":"levelo_inurba_marseille","lat":43.298037,"lon":5.381066,"is_reserved":false,"is_disabled":false,"rental_uris":{"android":"levelo://app?vid=d546535c-265d-48a9-b9c8-2ffee3426151","ios":"levelo://app?vid=d546535c-265d-48a9-b9c8-2ffee3426151"},"vehicle_type_id":"4","last_reported":1677351946,"current_range_meters":9200,"station_id":"ce4bgip2rcd13ifvqbb0","pricing_plan_id":"free"},{"bike_id":"635797dc-3c55-4ea2-b363-b546af2cca44","system_id":"levelo_inurba_marseille","lat":43.296263,"lon":5.377094,"is_reserved":false,"is_disabled":false,"rental_uris":{"android":"levelo://app?vid=635797dc-3c55-4ea2-b363-b546af2cca44","ios":"levelo://app?vid=635797dc-3c55-4ea2-b363-b546af2cca44"},"vehicle_type_id":"4","last_reported":1677351946,"current_range_meters":12000,"station_id":"ce4bgi92rcd13ifvqb90","pricing_plan_id":"free"},{"bike_id":"d151584d-238c-44d9-aa61-5a02d49943f2","system_id":"levelo_inurba_marseille","lat":43.298037,"lon":5.381066,"is_reserved":false,"is_disabled":false,"rental_uris":{"android":"levelo://app?vid=d151584d-238c-44d9-aa61-5a02d49943f2","ios":"levelo://app?vid=d151584d-238c-44d9-aa61-5a02d49943f2"},"vehicle_type_id":"4","last_reported":1677351946,"current_range_meters":13600,"station_id":"ce4bgip2rcd13ifvqbb0","pricing_plan_id":"free"},{"bike_id":"8783627d-7494-4aac-8a16-961bd92e7f26","system_id":"levelo_inurba_marseille","lat":43.298037,"lon":5.381066,"is_reserved":false,"is_disabled":false,"rental_uris":{"android":"levelo://app?vid=8783627d-7494-4aac-8a16-961bd92e7f26","ios":"levelo://app?vid=8783627d-7494-4aac-8a16-961bd92e7f26"},"vehicle_type_id":"4","last_reported":1677351946,"current_range_meters":26800,"station_id":"ce4bgip2rcd13ifvqbb0","pricing_plan_id":"free"},{"bike_id":"c54d884a-45e9-4314-8e65-a74e7f3b5bdc","system_id":"levelo_inurba_marseille","lat":43.298037,"lon":5.381066,"is_reserved":false,"is_disabled":false,"rental_uris":{"android":"levelo://app?vid=c54d884a-45e9-4314-8e65-a74e7f3b5bdc","ios":"levelo://app?vid=c54d884a-45e9-4314-8e65-a74e7f3b5bdc"},"vehicle_type_id":"4","last_reported":1677351946,"current_range_meters":6800,"station_id":"ce4bgip2rcd13ifvqbb0","pricing_plan_id":"free"},{"bike_id":"8ce5eb87-1bbe-455c-bac0-8823c78cea31","system_id":"levelo_inurba_marseille","lat":43.296277,"lon":5.377108,"is_reserved":false,"is_disabled":false,"rental_uris":{"android":"levelo://app?vid=8ce5eb87-1bbe-455c-bac0-8823c78cea31","ios":"levelo://app?vid=8ce5eb87-1bbe-455c-bac0-8823c78cea31"},"vehicle_type_id":"4","last_reported":1677351946,"current_range_meters":13600,"station_id":"ce4bgi92rcd13ifvqb90","pricing_plan_id":"free"},{"bike_id":"ad1af457-f87b-4f8a-9dae-effbcf131be0","system_id":"levelo_inurba_marseille","lat":43.298037,"lon":5.381066,"is_reserved":false,"is_disabled":false,"rental_uris":{"android":"levelo://app?vid=ad1af457-f87b-4f8a-9dae-effbcf131be0","ios":"levelo://app?vid=ad1af457-f87b-4f8a-9dae-effbcf131be0"},"vehicle_type_id":"4","last_reported":1677351946,"current_range_meters":0,"station_id":"ce4bgip2rcd13ifvqbb0","pricing_plan_id":"free"},{"bike_id":"92837e8e-4a06-4483-bbfe-884cd92522d7","system_id":"levelo_inurba_marseille","lat":43.296277,"lon":5.377108,"is_reserved":false,"is_disabled":false,"rental_uris":{"android":"levelo://app?vid=92837e8e-4a06-4483-bbfe-884cd92522d7","ios":"levelo://app?vid=92837e8e-4a06-4483-bbfe-884cd92522d7"},"vehicle_type_id":"4","last_reported":1677351946,"current_range_meters":7600,"station_id":"ce4bgi92rcd13ifvqb90","pricing_plan_id":"free"},{"bike_id":"39cd3186-fe56-48c8-b958-57e137689403","system_id":"levelo_inurba_marseille","lat":43.298037,"lon":5.381066,"is_reserved":false,"is_disabled":false,"rental_uris":{"android":"levelo://app?vid=39cd3186-fe56-48c8-b958-57e137689403","ios":"levelo://app?vid=39cd3186-fe56-48c8-b958-57e137689403"},"vehicle_type_id":"4","last_reported":1677351946,"current_range_meters":0,"station_id":"ce4bgip2rcd13ifvqbb0","pricing_plan_id":"free"},{"bike_id":"826d2491-923f-4ec5-b217-8bab8481881a","system_id":"levelo_inurba_marseille","lat":43.29564,"lon":5.37522,"is_reserved":false,"is_disabled":false,"rental_uris":{"android":"levelo://app?vid=826d2491-923f-4ec5-b217-8bab8481881a","ios":"levelo://app?vid=826d2491-923f-4ec5-b217-8bab8481881a"},"vehicle_type_id":"4","last_reported":1677351946,"current_range_meters":15200,"station_id":"","pricing_plan_id":"free"},{"bike_id":"8bf22aa1-5e0d-481a-b6fc-af38534f678d","system_id":"levelo_inurba_marseille","lat":43.296277,"lon":5.377108,"is_reserved":false,"is_disabled":false,"rental_uris":{"android":"levelo://app?vid=8bf22aa1-5e0d-481a-b6fc-af38534f678d","ios":"levelo://app?vid=8bf22aa1-5e0d-481a-b6fc-af38534f678d"},"vehicle_type_id":"4","last_reported":1677351946,"current_range_meters":10000,"station_id":"ce4bgi92rcd13ifvqb90","pricing_plan_id":"free"},{"bike_id":"cb48afb7-5520-4a02-8694-316689480855","system_id":"levelo_inurba_marseille","lat":43.296263,"lon":5.377094,"is_reserved":false,"is_disabled":false,"rental_uris":{"android":"levelo://app?vid=cb48afb7-5520-4a02-8694-316689480855","ios":"levelo://app?vid=cb48afb7-5520-4a02-8694-316689480855"},"vehicle_type_id":"4","last_reported":1677351946,"current_range_meters":30400,"station_id":"ce4bgi92rcd13ifvqb90","pricing_plan_id":"free"},{"bike_id":"a803216b-4579-4514-a85d-0efed7caec0d","system_id":"levelo_inurba_marseille","lat":43.296263,"lon":5.377094,"is_reserved":false,"is_disabled":false,"rental_uris":{"android":"levelo://app?vid=a803216b-4579-4514-a85d-0efed7caec0d","ios":"levelo://app?vid=a803216b-4579-4514-a85d-0efed7caec0d"},"vehicle_type_id":"4","last_reported":1677351946,"current_range_meters":800,"station_id":"ce4bgi92rcd13ifvqb90","pricing_plan_id":"free"},{"bike_id":"057a2110-7afe-45bd-89d4-bf0ef45c2a17","system_id":"levelo_inurba_marseille","lat":43.296263,"lon":5.377094,"is_reserved":false,"is_disabled":false,"rental_uris":{"android":"levelo://app?vid=057a2110-7afe-45bd-89d4-bf0ef45c2a17","ios":"levelo://app?vid=057a2110-7afe-45bd-89d4-bf0ef45c2a17"},"vehicle_type_id":"4","last_reported":1677351946,"current_range_meters":3200,"station_id":"ce4bgi92rcd13ifvqb90","pricing_plan_id":"free"},{"bike_id":"fd33f6b1-e804-4eb5-ba23-efdf020ec22e","system_id":"levelo_inurba_marseille","lat":43.296263,"lon":5.377094,"is_reserved":false,"is_disabled":false,"rental_uris":{"android":"levelo://app?vid=fd33f6b1-e804-4eb5-ba23-efdf020ec22e","ios":"levelo://app?vid=fd33f6b1-e804-4eb5-ba23-efdf020ec22e"},"vehicle_type_id":"4","last_reported":1677351946,"current_range_meters":7600,"station_id":"ce4bgi92rcd13ifvqb90","pricing_plan_id":"free"},{"bike_id":"c2c674c8-4019-4f90-b374-f6eb2822d796","system_id":"levelo_inurba_marseille","lat":43.296277,"lon":5.377108,"is_reserved":false,"is_disabled":false,"rental_uris":{"android":"levelo://app?vid=c2c674c8-4019-4f90-b374-f6eb2822d796","ios":"levelo://app?vid=c2c674c8-4019-4f90-b374-f6eb2822d796"},"vehicle_type_id":"4","last_reported":1677351946,"current_range_meters":4800,"station_id":"ce4bgi92rcd13ifvqb90","pricing_plan_id":"free"},{"bike_id":"dcd9fed0-5e18-4648-97e5-a5b03c5bb6e1","system_id":"levelo_inurba_marseille","lat":43.29524,"lon":5.375043,"is_reserved":false,"is_disabled":false,"rental_uris":{"android":"levelo://app?vid=dcd9fed0-5e18-4648-97e5-a5b03c5bb6e1","ios":"levelo://app?vid=dcd9fed0-5e18-4648-97e5-a5b03c5bb6e1"},"vehicle_type_id":"4","last_reported":1677351946,"current_range_meters":2400,"station_id":"","pricing_plan_id":"free"},{"bike_id":"be43b5e5-5d66-45ba-9d2c-cfdf756e82ec","system_id":"levelo_inurba_marseille","lat":43.295279,"lon":5.375048,"is_reserved":false,"is_disabled":false,"rental_uris":{"android":"levelo://app?vid=be43b5e5-5d66-45ba-9d2c-cfdf756e82ec","ios":"levelo://app?vid=be43b5e5-5d66-45ba-9d2c-cfdf756e82ec"},"vehicle_type_id":"4","last_reported":1677351946,"current_range_meters":26000,"station_id":"ce4bgkp2rcd13ifvqbmg","pricing_plan_id":"free"},{"bike_id":"1cce62d7-3443-4a72-9a7d-b60b57359377","system_id":"levelo_inurba_marseille","lat":43.295279,"lon":5.375048,"is_reserved":false,"is_disabled":false,"rental_uris":{"android":"levelo://app?vid=1cce62d7-3443-4a72-9a7d-b60b57359377","ios":"levelo://app?vid=1cce62d7-3443-4a72-9a7d-b60b57359377"},"vehicle_type_id":"4","last_reported":1677351946,"current_range_meters":7600,"station_id":"ce4bgkp2rcd13ifvqbmg","pricing_plan_id":"free"},{"bike_id":"823c33d8-7b06-4087-a395-ed49fa4afb2d","system_id":"levelo_inurba_marseille","lat":43.29517,"lon":5.37513,"is_reserved":false,"is_disabled":false,"rental_uris":{"android":"levelo://app?vid=823c33d8-7b06-4087-a395-ed49fa4afb2d","ios":"levelo://app?vid=823c33d8-7b06-4087-a395-ed49fa4afb2d"},"vehicle_type_id":"4","last_reported":1677351946,"current_range_meters":18400,"station_id":"","pricing_plan_id":"free"},{"bike_id":"f0c5b6ea-5625-4b8e-a11b-79d47cbc2512","system_id":"levelo_inurba_marseille","lat":43.295279,"lon":5.375048,"is_reserved":false,"is_disabled":false,"rental_uris":{"android":"levelo://app?vid=f0c5b6ea-5625-4b8e-a11b-79d47cbc2512","ios":"levelo://app?vid=f0c5b6ea-5625-4b8e-a11b-79d47cbc2512"},"vehicle_type_id":"4","last_reported":1677351946,"current_range_meters":0,"station_id":"ce4bgkp2rcd13ifvqbmg","pricing_plan_id":"free"},{"bike_id":"ce5e51e5-c769-4fa6-965b-b6f223865c60","system_id":"levelo_inurba_marseille","lat":43.29532,"lon":5.37598,"is_reserved":false,"is_disabled":false,"rental_uris":{"android":"levelo://app?vid=ce5e51e5-c769-4fa6-965b-b6f223865c60","ios":"levelo://app?vid=ce5e51e5-c769-4fa6-965b-b6f223865c60"},"vehicle_type_id":"4","last_reported":1677351946,"current_range_meters":4400,"station_id":"","pricing_plan_id":"free"},{"bike_id":"c6f7abb0-98ee-43df-942d-e0e8af31b251","system_id":"levelo_inurba_marseille","lat":43.295279,"lon":5.375048,"is_reserved":false,"is_disabled":false,"rental_uris":{"android":"levelo://app?vid=c6f7abb0-98ee-43df-942d-e0e8af31b251","ios":"levelo://app?vid=c6f7abb0-98ee-43df-942d-e0e8af31b251"},"vehicle_type_id":"4","last_reported":1677351946,"current_range_meters":24400,"station_id":"ce4bgkp2rcd13ifvqbmg","pricing_plan_id":"free"},{"bike_id":"28b099a1-5913-444c-972c-14da9e033704","system_id":"levelo_inurba_marseille","lat":43.32367,"lon":5.388836,"is_reserved":false,"is_disabled":false,"rental_uris":{"android":"levelo://app?vid=28b099a1-5913-444c-972c-14da9e033704","ios":"levelo://app?vid=28b099a1-5913-444c-972c-14da9e033704"},"vehicle_type_id":"4","last_reported":1677351946,"current_range_meters":20400,"station_id":"ce4bhqp2rcd13ifvqhog","pricing_plan_id":"free"},{"bike_id":"2a49910c-3ed8-4103-aa66-407d82c9c65b","system_id":"levelo_inurba_marseille","lat":43.32367,"lon":5.388836,"is_reserved":false,"is_disabled":false,"rental_uris":{"android":"levelo://app?vid=2a49910c-3ed8-4103-aa66-407d82c9c65b","ios":"levelo://app?vid=2a49910c-3ed8-4103-aa66-407d82c9c65b"},"vehicle_type_id":"4","last_reported":1677351946,"current_range_meters":14400,"station_id":"ce4bhqp2rcd13ifvqhog","pricing_plan_id":"free"},{"bike_id":"28776fb4-0ae8-44dc-b7d7-08dc007fcbf7","system_id":"levelo_inurba_marseille","lat":43.32367,"lon":5.388836,"is_reserved":false,"is_disabled":false,"rental_uris":{"android":"levelo://app?vid=28776fb4-0ae8-44dc-b7d7-08dc007fcbf7","ios":"levelo://app?vid=28776fb4-0ae8-44dc-b7d7-08dc007fcbf7"},"vehicle_type_id":"4","last_reported":1677351946,"current_range_meters":14400,"station_id":"ce4bhqp2rcd13ifvqhog","pricing_plan_id":"free"},{"bike_id":"4735e82d-bbe8-42b2-a67c-e92248e4784c","system_id":"levelo_inurba_marseille","lat":43.32367,"lon":5.388836,"is_reserved":false,"is_disabled":false,"rental_uris":{"android":"levelo://app?vid=4735e82d-bbe8-42b2-a67c-e92248e4784c","ios":"levelo://app?vid=4735e82d-bbe8-42b2-a67c-e92248e4784c"},"vehicle_type_id":"4","last_reported":1677351946,"current_range_meters":2000,"station_id":"ce4bhqp2rcd13ifvqhog","pricing_plan_id":"free"},{"bike_id":"f453c687-7c1d-47c7-9222-bd062c3e7ed6","system_id":"levelo_inurba_marseille","lat":43.32367,"lon":5.388836,"is_reserved":false,"is_disabled":false,"rental_uris":{"android":"levelo://app?vid=f453c687-7c1d-47c7-9222-bd062c3e7ed6","ios":"levelo://app?vid=f453c687-7c1d-47c7-9222-bd062c3e7ed6"},"vehicle_type_id":"4","last_reported":1677351946,"current_range_meters":3600,"station_id":"ce4bhqp2rcd13ifvqhog","pricing_plan_id":"free"},{"bike_id":"b0e467e3-64f5-4407-92e3-08ad49e4d550","system_id":"levelo_inurba_marseille","lat":43.32367,"lon":5.388836,"is_reserved":false,"is_disabled":false,"rental_uris":{"android":"levelo://app?vid=b0e467e3-64f5-4407-92e3-08ad49e4d550","ios":"levelo://app?vid=b0e467e3-64f5-4407-92e3-08ad49e4d550"},"vehicle_type_id":"4","last_reported":1677351946,"current_range_meters":18800,"station_id":"ce4bhqp2rcd13ifvqhog","pricing_plan_id":"free"},{"bike_id":"3988895e-fc8a-48c3-81bd-783ac9a24d5e","system_id":"levelo_inurba_marseille","lat":43.323643,"lon":5.38885,"is_reserved":false,"is_disabled":false,"rental_uris":{"android":"levelo://app?vid=3988895e-fc8a-48c3-81bd-783ac9a24d5e","ios":"levelo://app?vid=3988895e-fc8a-48c3-81bd-783ac9a24d5e"},"vehicle_type_id":"4","last_reported":1677351946,"current_range_meters":19200,"station_id":"","pricing_plan_id":"free"},{"bike_id":"23aee82b-940e-4b7a-9da3-eac043665492","system_id":"levelo_inurba_marseille","lat":43.32367,"lon":5.388836,"is_reserved":false,"is_disabled":false,"rental_uris":{"android":"levelo://app?vid=23aee82b-940e-4b7a-9da3-eac043665492","ios":"levelo://app?vid=23aee82b-940e-4b7a-9da3-eac043665492"},"vehicle_type_id":"4","last_reported":1677351946,"current_range_meters":30000,"station_id":"ce4bhqp2rcd13ifvqhog","pricing_plan_id":"free"},{"bike_id":"b11777e5-6592-4a32-9271-8fd7fb345e14","system_id":"levelo_inurba_marseille","lat":43.32367,"lon":5.388836,"is_reserved":false,"is_disabled":false,"rental_uris":{"android":"levelo://app?vid=b11777e5-6592-4a32-9271-8fd7fb345e14","ios":"levelo://app?vid=b11777e5-6592-4a32-9271-8fd7fb345e14"},"vehicle_type_id":"4","last_reported":1677351946,"current_range_meters":12000,"station_id":"ce4bhqp2rcd13ifvqhog","pricing_plan_id":"free"},{"bike_id":"bca13de0-db2d-44a3-bb73-4d8f4cf973e4","system_id":"levelo_inurba_marseille","lat":43.32367,"lon":5.388836,"is_reserved":false,"is_disabled":false,"rental_uris":{"android":"levelo://app?vid=bca13de0-db2d-44a3-bb73-4d8f4cf973e4","ios":"levelo://app?vid=bca13de0-db2d-44a3-bb73-4d8f4cf973e4"},"vehicle_type_id":"4","last_reported":1677351946,"current_range_meters":27200,"station_id":"ce4bhqp2rcd13ifvqhog","pricing_plan_id":"free"},{"bike_id":"7a0840c5-cf4c-47d9-b114-4f8a03e1f171","system_id":"levelo_inurba_marseille","lat":43.29389,"lon":5.37301,"is_reserved":false,"is_disabled":false,"rental_uris":{"android":"levelo://app?vid=7a0840c5-cf4c-47d9-b114-4f8a03e1f171","ios":"levelo://app?vid=7a0840c5-cf4c-47d9-b114-4f8a03e1f171"},"vehicle_type_id":"4","last_reported":1677351946,"current_range_meters":13600,"station_id":"","pricing_plan_id":"free"},{"bike_id":"ea8bdd10-4bc6-49ce-8fb6-cf808ec64aaf","system_id":"levelo_inurba_marseille","lat":43.32367,"lon":5.388836,"is_reserved":false,"is_disabled":false,"rental_uris":{"android":"levelo://app?vid=ea8bdd10-4bc6-49ce-8fb6-cf808ec64aaf","ios":"levelo://app?vid=ea8bdd10-4bc6-49ce-8fb6-cf808ec64aaf"},"vehicle_type_id":"4","last_reported":1677351946,"current_range_meters":25200,"station_id":"ce4bhqp2rcd13ifvqhog","pricing_plan_id":"free"},{"bike_id":"67a30ae5-e09c-4194-b75f-cfac96dfe31c","system_id":"levelo_inurba_marseille","lat":43.314137,"lon":5.393623,"is_reserved":false,"is_disabled":false,"rental_uris":{"android":"levelo://app?vid=67a30ae5-e09c-4194-b75f-cfac96dfe31c","ios":"levelo://app?vid=67a30ae5-e09c-4194-b75f-cfac96dfe31c"},"vehicle_type_id":"4","last_reported":1677351946,"current_range_meters":18800,"station_id":"","pricing_plan_id":"free"},{"bike_id":"0f0429c5-028e-4be4-8dfa-e4aefa05d4b3","system_id":"levelo_inurba_marseille","lat":43.293009,"lon":5.374584,"is_reserved":false,"is_disabled":false,"rental_uris":{"android":"levelo://app?vid=0f0429c5-028e-4be4-8dfa-e4aefa05d4b3","ios":"levelo://app?vid=0f0429c5-028e-4be4-8dfa-e4aefa05d4b3"},"vehicle_type_id":"4","last_reported":1677351946,"current_range_meters":10000,"station_id":"ce4bgi12rcd13ifvqb70","pricing_plan_id":"free"},{"bike_id":"8e5a9a42-8c87-4b6e-ac48-79b426cbc311","system_id":"levelo_inurba_marseille","lat":43.293009,"lon":5.374584,"is_reserved":false,"is_disabled":false,"rental_uris":{"android":"levelo://app?vid=8e5a9a42-8c87-4b6e-ac48-79b426cbc311","ios":"levelo://app?vid=8e5a9a42-8c87-4b6e-ac48-79b426cbc311"},"vehicle_type_id":"4","last_reported":1677351946,"current_range_meters":17200,"station_id":"ce4bgi12rcd13ifvqb70","pricing_plan_id":"free"},{"bike_id":"27b9a35b-b018-4def-af4a-7467278a5d4b","system_id":"levelo_inurba_marseille","lat":43.293009,"lon":5.374584,"is_reserved":false,"is_disabled":false,"rental_uris":{"android":"levelo://app?vid=27b9a35b-b018-4def-af4a-7467278a5d4b","ios":"levelo://app?vid=27b9a35b-b018-4def-af4a-7467278a5d4b"},"vehicle_type_id":"4","last_reported":1677351946,"current_range_meters":2800,"station_id":"ce4bgi12rcd13ifvqb70","pricing_plan_id":"free"},{"bike_id":"1100632c-8db8-4717-9b17-f1dfba904b32","system_id":"levelo_inurba_marseille","lat":43.305994,"lon":5.393687,"is_reserved":false,"is_disabled":false,"rental_uris":{"android":"levelo://app?vid=1100632c-8db8-4717-9b17-f1dfba904b32","ios":"levelo://app?vid=1100632c-8db8-4717-9b17-f1dfba904b32"},"vehicle_type_id":"4","last_reported":1677351946,"current_range_meters":30000,"station_id":"ce4bh0p2rcd13ifvqd80","pricing_plan_id":"free"},{"bike_id":"7732c9e6-d0fb-48a8-ade1-eb60968a6d8a","system_id":"levelo_inurba_marseille","lat":43.293009,"lon":5.374584,"is_reserved":false,"is_disabled":false,"rental_uris":{"android":"levelo://app?vid=7732c9e6-d0fb-48a8-ade1-eb60968a6d8a","ios":"levelo://app?vid=7732c9e6-d0fb-48a8-ade1-eb60968a6d8a"},"vehicle_type_id":"4","last_reported":1677351946,"current_range_meters":8000,"station_id":"ce4bgi12rcd13ifvqb70","pricing_plan_id":"free"},{"bike_id":"556b70a1-a019-4f58-ac9c-21aa77ad2d2b","system_id":"levelo_inurba_marseille","lat":43.30589,"lon":5.39355,"is_reserved":false,"is_disabled":false,"rental_uris":{"android":"levelo://app?vid=556b70a1-a019-4f58-ac9c-21aa77ad2d2b","ios":"levelo://app?vid=556b70a1-a019-4f58-ac9c-21aa77ad2d2b"},"vehicle_type_id":"4","last_reported":1677351946,"current_range_meters":28400,"station_id":"","pricing_plan_id":"free"},{"bike_id":"8e141ab0-26f6-4870-8280-64847b4ea617","system_id":"levelo_inurba_marseille","lat":43.30601,"lon":5.39361,"is_reserved":false,"is_disabled":false,"rental_uris":{"android":"levelo://app?vid=8e141ab0-26f6-4870-8280-64847b4ea617","ios":"levelo://app?vid=8e141ab0-26f6-4870-8280-64847b4ea617"},"vehicle_type_id":"4","last_reported":1677351946,"current_range_meters":16400,"station_id":"ce4bh0p2rcd13ifvqd80","pricing_plan_id":"free"},{"bike_id":"0618fc7a-17ff-4dff-88d3-1c10fef37f71","system_id":"levelo_inurba_marseille","lat":43.30595,"lon":5.393587,"is_reserved":false,"is_disabled":false,"rental_uris":{"android":"levelo://app?vid=0618fc7a-17ff-4dff-88d3-1c10fef37f71","ios":"levelo://app?vid=0618fc7a-17ff-4dff-88d3-1c10fef37f71"},"vehicle_type_id":"4","last_reported":1677351946,"current_range_meters":0,"station_id":"","pricing_plan_id":"free"},{"bike_id":"e36d04d9-42c8-4296-a16e-01f77c9bca6f","system_id":"levelo_inurba_marseille","lat":43.305994,"lon":5.393687,"is_reserved":false,"is_disabled":false,"rental_uris":{"android":"levelo://app?vid=e36d04d9-42c8-4296-a16e-01f77c9bca6f","ios":"levelo://app?vid=e36d04d9-42c8-4296-a16e-01f77c9bca6f"},"vehicle_type_id":"4","last_reported":1677351946,"current_range_meters":2800,"station_id":"ce4bh0p2rcd13ifvqd80","pricing_plan_id":"free"},{"bike_id":"8884ffdb-e382-4e61-90e9-99c285b157ab","system_id":"levelo_inurba_marseille","lat":43.305994,"lon":5.393687,"is_reserved":false,"is_disabled":false,"rental_uris":{"android":"levelo://app?vid=8884ffdb-e382-4e61-90e9-99c285b157ab","ios":"levelo://app?vid=8884ffdb-e382-4e61-90e9-99c285b157ab"},"vehicle_type_id":"4","last_reported":1677351946,"current_range_meters":31600,"station_id":"ce4bh0p2rcd13ifvqd80","pricing_plan_id":"free"},{"bike_id":"4a11d14d-aac6-401c-a4ef-51e2ccfa9e1e","system_id":"levelo_inurba_marseille","lat":43.305994,"lon":5.393687,"is_reserved":false,"is_disabled":false,"rental_uris":{"android":"levelo://app?vid=4a11d14d-aac6-401c-a4ef-51e2ccfa9e1e","ios":"levelo://app?vid=4a11d14d-aac6-401c-a4ef-51e2ccfa9e1e"},"vehicle_type_id":"4","last_reported":1677351946,"current_range_meters":31600,"station_id":"ce4bh0p2rcd13ifvqd80","pricing_plan_id":"free"},{"bike_id":"fea6a02c-c5ae-46ac-965b-7f3d4dc79468","system_id":"levelo_inurba_marseille","lat":43.305994,"lon":5.393687,"is_reserved":false,"is_disabled":false,"rental_uris":{"android":"levelo://app?vid=fea6a02c-c5ae-46ac-965b-7f3d4dc79468","ios":"levelo://app?vid=fea6a02c-c5ae-46ac-965b-7f3d4dc79468"},"vehicle_type_id":"4","last_reported":1677351946,"current_range_meters":31600,"station_id":"ce4bh0p2rcd13ifvqd80","pricing_plan_id":"free"},{"bike_id":"1c2827e0-4cd2-4e8c-a480-3aaf948e4d9f","system_id":"levelo_inurba_marseille","lat":43.30596,"lon":5.393634,"is_reserved":false,"is_disabled":false,"rental_uris":{"android":"levelo://app?vid=1c2827e0-4cd2-4e8c-a480-3aaf948e4d9f","ios":"levelo://app?vid=1c2827e0-4cd2-4e8c-a480-3aaf948e4d9f"},"vehicle_type_id":"4","last_reported":1677351946,"current_range_meters":800,"station_id":"","pricing_plan_id":"free"},{"bike_id":"b474fc78-5718-41a0-9265-22f3e655f1c3","system_id":"levelo_inurba_marseille","lat":43.305994,"lon":5.393687,"is_reserved":false,"is_disabled":false,"rental_uris":{"android":"levelo://app?vid=b474fc78-5718-41a0-9265-22f3e655f1c3","ios":"levelo://app?vid=b474fc78-5718-41a0-9265-22f3e655f1c3"},"vehicle_type_id":"4","last_reported":1677351946,"current_range_meters":12400,"station_id":"ce4bh0p2rcd13ifvqd80","pricing_plan_id":"free"},{"bike_id":"cf8644be-5587-40fb-9815-e0bea64700d9","system_id":"levelo_inurba_marseille","lat":43.306,"lon":5.39367,"is_reserved":false,"is_disabled":false,"rental_uris":{"android":"levelo://app?vid=cf8644be-5587-40fb-9815-e0bea64700d9","ios":"levelo://app?vid=cf8644be-5587-40fb-9815-e0bea64700d9"},"vehicle_type_id":"4","last_reported":1677351946,"current_range_meters":31200,"station_id":"ce4bh0p2rcd13ifvqd80","pricing_plan_id":"free"},{"bike_id":"3987ce44-1761-4d15-a37d-dec0cb41315a","system_id":"levelo_inurba_marseille","lat":43.305994,"lon":5.393687,"is_reserved":false,"is_disabled":false,"rental_uris":{"android":"levelo://app?vid=3987ce44-1761-4d15-a37d-dec0cb41315a","ios":"levelo://app?vid=3987ce44-1761-4d15-a37d-dec0cb41315a"},"vehicle_type_id":"4","last_reported":1677351946,"current_range_meters":22800,"station_id":"ce4bh0p2rcd13ifvqd80","pricing_plan_id":"free"},{"bike_id":"469d9c99-e68f-4001-ae5f-63e3f4672d30","system_id":"levelo_inurba_marseille","lat":43.305994,"lon":5.393687,"is_reserved":false,"is_disabled":false,"rental_uris":{"android":"levelo://app?vid=469d9c99-e68f-4001-ae5f-63e3f4672d30","ios":"levelo://app?vid=469d9c99-e68f-4001-ae5f-63e3f4672d30"},"vehicle_type_id":"4","last_reported":1677351946,"current_range_meters":24800,"station_id":"ce4bh0p2rcd13ifvqd80","pricing_plan_id":"free"},{"bike_id":"623640b6-4c84-4c65-8a16-013ca2b355f2","system_id":"levelo_inurba_marseille","lat":43.292311,"lon":5.360731,"is_reserved":false,"is_disabled":false,"rental_uris":{"android":"levelo://app?vid=623640b6-4c84-4c65-8a16-013ca2b355f2","ios":"levelo://app?vid=623640b6-4c84-4c65-8a16-013ca2b355f2"},"vehicle_type_id":"4","last_reported":1677351946,"current_range_meters":27600,"station_id":"ce4bhbh2rcd13ifvqeqg","pricing_plan_id":"free"},{"bike_id":"601a1525-14c7-4f35-83dd-9ed60dd5b273","system_id":"levelo_inurba_marseille","lat":43.29225,"lon":5.36059,"is_reserved":false,"is_disabled":false,"rental_uris":{"android":"levelo://app?vid=601a1525-14c7-4f35-83dd-9ed60dd5b273","ios":"levelo://app?vid=601a1525-14c7-4f35-83dd-9ed60dd5b273"},"vehicle_type_id":"4","last_reported":1677351946,"current_range_meters":12800,"station_id":"ce4bhbh2rcd13ifvqeqg","pricing_plan_id":"free"},{"bike_id":"78499da1-29d4-4af9-993f-b1c11b02da34","system_id":"levelo_inurba_marseille","lat":43.30085,"lon":5.390856,"is_reserved":false,"is_disabled":false,"rental_uris":{"android":"levelo://app?vid=78499da1-29d4-4af9-993f-b1c11b02da34","ios":"levelo://app?vid=78499da1-29d4-4af9-993f-b1c11b02da34"},"vehicle_type_id":"4","last_reported":1677351946,"current_range_meters":7600,"station_id":"ce4bh192rcd13ifvqdb0","pricing_plan_id":"free"},{"bike_id":"068322a2-a86b-485e-9964-ab647e067726","system_id":"levelo_inurba_marseille","lat":43.292311,"lon":5.360731,"is_reserved":false,"is_disabled":false,"rental_uris":{"android":"levelo://app?vid=068322a2-a86b-485e-9964-ab647e067726","ios":"levelo://app?vid=068322a2-a86b-485e-9964-ab647e067726"},"vehicle_type_id":"4","last_reported":1677351946,"current_range_meters":12000,"station_id":"ce4bhbh2rcd13ifvqeqg","pricing_plan_id":"free"},{"bike_id":"d7b45f0e-113a-47b7-a804-ab1938e5e64d","system_id":"levelo_inurba_marseille","lat":43.30085,"lon":5.390856,"is_reserved":false,"is_disabled":false,"rental_uris":{"android":"levelo://app?vid=d7b45f0e-113a-47b7-a804-ab1938e5e64d","ios":"levelo://app?vid=d7b45f0e-113a-47b7-a804-ab1938e5e64d"},"vehicle_type_id":"4","last_reported":1677351946,"current_range_meters":27600,"station_id":"ce4bh192rcd13ifvqdb0","pricing_plan_id":"free"},{"bike_id":"8f7aa0a8-b916-4363-8898-8e5f14298fc3","system_id":"levelo_inurba_marseille","lat":43.298732,"lon":5.388807,"is_reserved":false,"is_disabled":false,"rental_uris":{"android":"levelo://app?vid=8f7aa0a8-b916-4363-8898-8e5f14298fc3","ios":"levelo://app?vid=8f7aa0a8-b916-4363-8898-8e5f14298fc3"},"vehicle_type_id":"4","last_reported":1677351946,"current_range_meters":20800,"station_id":"ce4bh392rcd13ifvqdl0","pricing_plan_id":"free"},{"bike_id":"b7ed9a32-4581-4eec-b9e8-2aa93cca4468","system_id":"levelo_inurba_marseille","lat":43.29165,"lon":5.371597,"is_reserved":false,"is_disabled":false,"rental_uris":{"android":"levelo://app?vid=b7ed9a32-4581-4eec-b9e8-2aa93cca4468","ios":"levelo://app?vid=b7ed9a32-4581-4eec-b9e8-2aa93cca4468"},"vehicle_type_id":"4","last_reported":1677351946,"current_range_meters":15600,"station_id":"ce4bha92rcd13ifvqeh0","pricing_plan_id":"free"},{"bike_id":"4214dcd4-08a4-467a-a560-8f4f6232dbef","system_id":"levelo_inurba_marseille","lat":43.291675,"lon":5.371583,"is_reserved":false,"is_disabled":false,"rental_uris":{"android":"levelo://app?vid=4214dcd4-08a4-467a-a560-8f4f6232dbef","ios":"levelo://app?vid=4214dcd4-08a4-467a-a560-8f4f6232dbef"},"vehicle_type_id":"4","last_reported":1677351946,"current_range_meters":11600,"station_id":"ce4bha92rcd13ifvqeh0","pricing_plan_id":"free"},{"bike_id":"108c081e-adf5-4fbf-acdc-f8589f1f68e3","system_id":"levelo_inurba_marseille","lat":43.31329,"lon":5.39698,"is_reserved":false,"is_disabled":false,"rental_uris":{"android":"levelo://app?vid=108c081e-adf5-4fbf-acdc-f8589f1f68e3","ios":"levelo://app?vid=108c081e-adf5-4fbf-acdc-f8589f1f68e3"},"vehicle_type_id":"4","last_reported":1677351946,"current_range_meters":31200,"station_id":"","pricing_plan_id":"free"},{"bike_id":"63b8ca21-08f2-4acb-bef6-e44c1fad0377","system_id":"levelo_inurba_marseille","lat":43.29537,"lon":5.38538,"is_reserved":false,"is_disabled":false,"rental_uris":{"android":"levelo://app?vid=63b8ca21-08f2-4acb-bef6-e44c1fad0377","ios":"levelo://app?vid=63b8ca21-08f2-4acb-bef6-e44c1fad0377"},"vehicle_type_id":"4","last_reported":1677351946,"current_range_meters":24000,"station_id":"ce4bgih2rcd13ifvqba0","pricing_plan_id":"free"},{"bike_id":"d7fc917a-9f69-4c43-82bf-7cf578a7cdcf","system_id":"levelo_inurba_marseille","lat":43.295349,"lon":5.38537,"is_reserved":false,"is_disabled":false,"rental_uris":{"android":"levelo://app?vid=d7fc917a-9f69-4c43-82bf-7cf578a7cdcf","ios":"levelo://app?vid=d7fc917a-9f69-4c43-82bf-7cf578a7cdcf"},"vehicle_type_id":"4","last_reported":1677351946,"current_range_meters":31600,"station_id":"","pricing_plan_id":"free"},{"bike_id":"acd92e58-0bc8-407f-80c2-4c48e124d5de","system_id":"levelo_inurba_marseille","lat":43.295339,"lon":5.385376,"is_reserved":false,"is_disabled":false,"rental_uris":{"android":"levelo://app?vid=acd92e58-0bc8-407f-80c2-4c48e124d5de","ios":"levelo://app?vid=acd92e58-0bc8-407f-80c2-4c48e124d5de"},"vehicle_type_id":"4","last_reported":1677351946,"current_range_meters":30000,"station_id":"ce4bgih2rcd13ifvqba0","pricing_plan_id":"free"},{"bike_id":"26e9147b-d822-4dcb-a300-c181976f6f2c","system_id":"levelo_inurba_marseille","lat":43.295348,"lon":5.385405,"is_reserved":false,"is_disabled":false,"rental_uris":{"android":"levelo://app?vid=26e9147b-d822-4dcb-a300-c181976f6f2c","ios":"levelo://app?vid=26e9147b-d822-4dcb-a300-c181976f6f2c"},"vehicle_type_id":"4","last_reported":1677351946,"current_range_meters":31600,"station_id":"ce4bgih2rcd13ifvqba0","pricing_plan_id":"free"},{"bike_id":"e4e1f33b-a46f-4d8e-a384-b6fa7c186476","system_id":"levelo_inurba_marseille","lat":43.295357,"lon":5.385426,"is_reserved":false,"is_disabled":false,"rental_uris":{"android":"levelo://app?vid=e4e1f33b-a46f-4d8e-a384-b6fa7c186476","ios":"levelo://app?vid=e4e1f33b-a46f-4d8e-a384-b6fa7c186476"},"vehicle_type_id":"4","last_reported":1677351946,"current_range_meters":22000,"station_id":"ce4bhbp2rcd13ifvqerg","pricing_plan_id":"free"},{"bike_id":"c9d978f7-b440-4eef-9b19-703b5ba1ca35","system_id":"levelo_inurba_marseille","lat":43.29534,"lon":5.385401,"is_reserved":false,"is_disabled":false,"rental_uris":{"android":"levelo://app?vid=c9d978f7-b440-4eef-9b19-703b5ba1ca35","ios":"levelo://app?vid=c9d978f7-b440-4eef-9b19-703b5ba1ca35"},"vehicle_type_id":"4","last_reported":1677351946,"current_range_meters":18400,"station_id":"","pricing_plan_id":"free"},{"bike_id":"1677c53d-9e44-4244-a6ff-1b6c7a2b0b6b","system_id":"levelo_inurba_marseille","lat":43.295346,"lon":5.385421,"is_reserved":false,"is_disabled":false,"rental_uris":{"android":"levelo://app?vid=1677c53d-9e44-4244-a6ff-1b6c7a2b0b6b","ios":"levelo://app?vid=1677c53d-9e44-4244-a6ff-1b6c7a2b0b6b"},"vehicle_type_id":"4","last_reported":1677351946,"current_range_meters":18800,"station_id":"","pricing_plan_id":"free"},{"bike_id":"a0e5fccd-d04f-4e7f-994a-ae0b2b09ef50","system_id":"levelo_inurba_marseille","lat":43.295327,"lon":5.3854,"is_reserved":false,"is_disabled":false,"rental_uris":{"android":"levelo://app?vid=a0e5fccd-d04f-4e7f-994a-ae0b2b09ef50","ios":"levelo://app?vid=a0e5fccd-d04f-4e7f-994a-ae0b2b09ef50"},"vehicle_type_id":"4","last_reported":1677351946,"current_range_meters":29200,"station_id":"ce4bgih2rcd13ifvqba0","pricing_plan_id":"free"},{"bike_id":"425cfebd-a96e-46d0-995d-e6f108aa12ea","system_id":"levelo_inurba_marseille","lat":43.295331,"lon":5.385423,"is_reserved":false,"is_disabled":false,"rental_uris":{"android":"levelo://app?vid=425cfebd-a96e-46d0-995d-e6f108aa12ea","ios":"levelo://app?vid=425cfebd-a96e-46d0-995d-e6f108aa12ea"},"vehicle_type_id":"4","last_reported":1677351946,"current_range_meters":14000,"station_id":"","pricing_plan_id":"free"},{"bike_id":"14e7eefb-7948-4b7f-ad4d-965ed562c636","system_id":"levelo_inurba_marseille","lat":43.295301,"lon":5.385389,"is_reserved":false,"is_disabled":false,"rental_uris":{"android":"levelo://app?vid=14e7eefb-7948-4b7f-ad4d-965ed562c636","ios":"levelo://app?vid=14e7eefb-7948-4b7f-ad4d-965ed562c636"},"vehicle_type_id":"4","last_reported":1677351946,"current_range_meters":11200,"station_id":"","pricing_plan_id":"free"},{"bike_id":"62602b01-4686-4419-986b-44e7aae7a708","system_id":"levelo_inurba_marseille","lat":43.295327,"lon":5.38544,"is_reserved":false,"is_disabled":false,"rental_uris":{"android":"levelo://app?vid=62602b01-4686-4419-986b-44e7aae7a708","ios":"levelo://app?vid=62602b01-4686-4419-986b-44e7aae7a708"},"vehicle_type_id":"4","last_reported":1677351946,"current_range_meters":29600,"station_id":"ce4bgih2rcd13ifvqba0","pricing_plan_id":"free"},{"bike_id":"36f1abb9-baed-4733-a1ea-5af4e3460d4f","system_id":"levelo_inurba_marseille","lat":43.29531,"lon":5.38542,"is_reserved":false,"is_disabled":false,"rental_uris":{"android":"levelo://app?vid=36f1abb9-baed-4733-a1ea-5af4e3460d4f","ios":"levelo://app?vid=36f1abb9-baed-4733-a1ea-5af4e3460d4f"},"vehicle_type_id":"4","last_reported":1677351946,"current_range_meters":25600,"station_id":"ce4bgih2rcd13ifvqba0","pricing_plan_id":"free"},{"bike_id":"4f09490e-911a-4270-aba9-c29e3a571692","system_id":"levelo_inurba_marseille","lat":43.295338,"lon":5.385473,"is_reserved":false,"is_disabled":false,"rental_uris":{"android":"levelo://app?vid=4f09490e-911a-4270-aba9-c29e3a571692","ios":"levelo://app?vid=4f09490e-911a-4270-aba9-c29e3a571692"},"vehicle_type_id":"4","last_reported":1677351946,"current_range_meters":24400,"station_id":"","pricing_plan_id":"free"},{"bike_id":"34928781-32b9-433a-a6b7-adc852f91074","system_id":"levelo_inurba_marseille","lat":43.29532,"lon":5.38547,"is_reserved":false,"is_disabled":false,"rental_uris":{"android":"levelo://app?vid=34928781-32b9-433a-a6b7-adc852f91074","ios":"levelo://app?vid=34928781-32b9-433a-a6b7-adc852f91074"},"vehicle_type_id":"4","last_reported":1677351946,"current_range_meters":15200,"station_id":"ce4bgih2rcd13ifvqba0","pricing_plan_id":"free"},{"bike_id":"339282f3-3c94-4595-8f3f-2f37855c77d8","system_id":"levelo_inurba_marseille","lat":43.2953,"lon":5.38545,"is_reserved":false,"is_disabled":false,"rental_uris":{"android":"levelo://app?vid=339282f3-3c94-4595-8f3f-2f37855c77d8","ios":"levelo://app?vid=339282f3-3c94-4595-8f3f-2f37855c77d8"},"vehicle_type_id":"4","last_reported":1677351946,"current_range_meters":11600,"station_id":"ce4bgih2rcd13ifvqba0","pricing_plan_id":"free"},{"bike_id":"a15ef9d0-0a02-47d4-a3d7-fe2d25b27b87","system_id":"levelo_inurba_marseille","lat":43.29531,"lon":5.38551,"is_reserved":false,"is_disabled":false,"rental_uris":{"android":"levelo://app?vid=a15ef9d0-0a02-47d4-a3d7-fe2d25b27b87","ios":"levelo://app?vid=a15ef9d0-0a02-47d4-a3d7-fe2d25b27b87"},"vehicle_type_id":"4","last_reported":1677351946,"current_range_meters":15200,"station_id":"ce4bgih2rcd13ifvqba0","pricing_plan_id":"free"},{"bike_id":"ac9784e4-cbc0-468a-baf3-7be646c9ed64","system_id":"levelo_inurba_marseille","lat":43.29522,"lon":5.38535,"is_reserved":false,"is_disabled":false,"rental_uris":{"android":"levelo://app?vid=ac9784e4-cbc0-468a-baf3-7be646c9ed64","ios":"levelo://app?vid=ac9784e4-cbc0-468a-baf3-7be646c9ed64"},"vehicle_type_id":"4","last_reported":1677351946,"current_range_meters":18000,"station_id":"ce4bgih2rcd13ifvqba0","pricing_plan_id":"free"},{"bike_id":"c35e17b0-2b40-4da0-9f1f-acf908fdb557","system_id":"levelo_inurba_marseille","lat":43.29528,"lon":5.38557,"is_reserved":false,"is_disabled":false,"rental_uris":{"android":"levelo://app?vid=c35e17b0-2b40-4da0-9f1f-acf908fdb557","ios":"levelo://app?vid=c35e17b0-2b40-4da0-9f1f-acf908fdb557"},"vehicle_type_id":"4","last_reported":1677351946,"current_range_meters":12000,"station_id":"ce4bgih2rcd13ifvqba0","pricing_plan_id":"free"},{"bike_id":"f10a00e5-4c72-4e62-afa6-cda0ce3c3276","system_id":"levelo_inurba_marseille","lat":43.302008,"lon":5.394694,"is_reserved":false,"is_disabled":false,"rental_uris":{"android":"levelo://app?vid=f10a00e5-4c72-4e62-afa6-cda0ce3c3276","ios":"levelo://app?vid=f10a00e5-4c72-4e62-afa6-cda0ce3c3276"},"vehicle_type_id":"4","last_reported":1677351946,"current_range_meters":22000,"station_id":"ce4bh0p2rcd13ifvqd70","pricing_plan_id":"free"},{"bike_id":"a94fa393-0a0a-4cc8-9288-833a3d4f18bc","system_id":"levelo_inurba_marseille","lat":43.302008,"lon":5.394694,"is_reserved":false,"is_disabled":false,"rental_uris":{"android":"levelo://app?vid=a94fa393-0a0a-4cc8-9288-833a3d4f18bc","ios":"levelo://app?vid=a94fa393-0a0a-4cc8-9288-833a3d4f18bc"},"vehicle_type_id":"4","last_reported":1677351946,"current_range_meters":17600,"station_id":"ce4bh0p2rcd13ifvqd70","pricing_plan_id":"free"},{"bike_id":"e9e7c60f-bf0e-4c72-b8de-ac5904cbb77e","system_id":"levelo_inurba_marseille","lat":43.30208,"lon":5.39473,"is_reserved":false,"is_disabled":false,"rental_uris":{"android":"levelo://app?vid=e9e7c60f-bf0e-4c72-b8de-ac5904cbb77e","ios":"levelo://app?vid=e9e7c60f-bf0e-4c72-b8de-ac5904cbb77e"},"vehicle_type_id":"4","last_reported":1677351946,"current_range_meters":6000,"station_id":"ce4bh0p2rcd13ifvqd70","pricing_plan_id":"free"},{"bike_id":"cfa72737-1166-4150-b59b-fd5254501ca8","system_id":"levelo_inurba_marseille","lat":43.29044,"lon":5.35914,"is_reserved":false,"is_disabled":false,"rental_uris":{"android":"levelo://app?vid=cfa72737-1166-4150-b59b-fd5254501ca8","ios":"levelo://app?vid=cfa72737-1166-4150-b59b-fd5254501ca8"},"vehicle_type_id":"4","last_reported":1677351946,"current_range_meters":30400,"station_id":"ce4bha92rcd13ifvqeg0","pricing_plan_id":"free"},{"bike_id":"fd153ad4-5bb8-49e3-94d4-e91bb0e637be","system_id":"levelo_inurba_marseille","lat":43.290624,"lon":5.359245,"is_reserved":false,"is_disabled":false,"rental_uris":{"android":"levelo://app?vid=fd153ad4-5bb8-49e3-94d4-e91bb0e637be","ios":"levelo://app?vid=fd153ad4-5bb8-49e3-94d4-e91bb0e637be"},"vehicle_type_id":"4","last_reported":1677351946,"current_range_meters":0,"station_id":"ce4bha92rcd13ifvqeg0","pricing_plan_id":"free"},{"bike_id":"a1ca50f1-80b1-4ff7-8ba3-02cba54a2d46","system_id":"levelo_inurba_marseille","lat":43.290624,"lon":5.359245,"is_reserved":false,"is_disabled":false,"rental_uris":{"android":"levelo://app?vid=a1ca50f1-80b1-4ff7-8ba3-02cba54a2d46","ios":"levelo://app?vid=a1ca50f1-80b1-4ff7-8ba3-02cba54a2d46"},"vehicle_type_id":"4","last_reported":1677351946,"current_range_meters":4400,"station_id":"ce4bha92rcd13ifvqeg0","pricing_plan_id":"free"},{"bike_id":"158291d2-7e20-405c-b21a-4ac081d034f6","system_id":"levelo_inurba_marseille","lat":43.290327,"lon":5.375711,"is_reserved":false,"is_disabled":false,"rental_uris":{"android":"levelo://app?vid=158291d2-7e20-405c-b21a-4ac081d034f6","ios":"levelo://app?vid=158291d2-7e20-405c-b21a-4ac081d034f6"},"vehicle_type_id":"4","last_reported":1677351946,"current_range_meters":6800,"station_id":"ce4bh692rcd13ifvqe90","pricing_plan_id":"free"},{"bike_id":"af8fdeb6-ef5f-4c98-a1f2-49b167e9d8f1","system_id":"levelo_inurba_marseille","lat":43.29149,"lon":5.37987,"is_reserved":false,"is_disabled":false,"rental_uris":{"android":"levelo://app?vid=af8fdeb6-ef5f-4c98-a1f2-49b167e9d8f1","ios":"levelo://app?vid=af8fdeb6-ef5f-4c98-a1f2-49b167e9d8f1"},"vehicle_type_id":"4","last_reported":1677351946,"current_range_meters":24400,"station_id":"","pricing_plan_id":"free"},{"bike_id":"dee62480-d1c3-45ed-88f2-fb33f09d9ad8","system_id":"levelo_inurba_marseille","lat":43.290319,"lon":5.375732,"is_reserved":false,"is_disabled":false,"rental_uris":{"android":"levelo://app?vid=dee62480-d1c3-45ed-88f2-fb33f09d9ad8","ios":"levelo://app?vid=dee62480-d1c3-45ed-88f2-fb33f09d9ad8"},"vehicle_type_id":"4","last_reported":1677351946,"current_range_meters":18800,"station_id":"ce4bh692rcd13ifvqe90","pricing_plan_id":"free"},{"bike_id":"c407ed04-b336-4267-8211-47ea143d94eb","system_id":"levelo_inurba_marseille","lat":43.290319,"lon":5.375732,"is_reserved":false,"is_disabled":false,"rental_uris":{"android":"levelo://app?vid=c407ed04-b336-4267-8211-47ea143d94eb","ios":"levelo://app?vid=c407ed04-b336-4267-8211-47ea143d94eb"},"vehicle_type_id":"4","last_reported":1677351946,"current_range_meters":800,"station_id":"ce4bh692rcd13ifvqe90","pricing_plan_id":"free"},{"bike_id":"c5b5ecdc-e495-45a3-b084-9a4e41567a3f","system_id":"levelo_inurba_marseille","lat":43.290319,"lon":5.375732,"is_reserved":false,"is_disabled":false,"rental_uris":{"android":"levelo://app?vid=c5b5ecdc-e495-45a3-b084-9a4e41567a3f","ios":"levelo://app?vid=c5b5ecdc-e495-45a3-b084-9a4e41567a3f"},"vehicle_type_id":"4","last_reported":1677351946,"current_range_meters":24800,"station_id":"ce4bh692rcd13ifvqe90","pricing_plan_id":"free"},{"bike_id":"8c97db1d-3062-4b0c-9bf4-2b4e40b6b9c5","system_id":"levelo_inurba_marseille","lat":43.290319,"lon":5.375732,"is_reserved":false,"is_disabled":false,"rental_uris":{"android":"levelo://app?vid=8c97db1d-3062-4b0c-9bf4-2b4e40b6b9c5","ios":"levelo://app?vid=8c97db1d-3062-4b0c-9bf4-2b4e40b6b9c5"},"vehicle_type_id":"4","last_reported":1677351946,"current_range_meters":10400,"station_id":"ce4bh692rcd13ifvqe90","pricing_plan_id":"free"},{"bike_id":"28344d51-a7c9-4959-bd17-80c009f878bb","system_id":"levelo_inurba_marseille","lat":43.290255,"lon":5.375508,"is_reserved":false,"is_disabled":false,"rental_uris":{"android":"levelo://app?vid=28344d51-a7c9-4959-bd17-80c009f878bb","ios":"levelo://app?vid=28344d51-a7c9-4959-bd17-80c009f878bb"},"vehicle_type_id":"4","last_reported":1677351946,"current_range_meters":0,"station_id":"ce4bh692rcd13ifvqe90","pricing_plan_id":"free"},{"bike_id":"8aeb7149-885f-4b83-b3b6-668f8ee51a69","system_id":"levelo_inurba_marseille","lat":43.292644,"lon":5.384257,"is_reserved":false,"is_disabled":false,"rental_uris":{"android":"levelo://app?vid=8aeb7149-885f-4b83-b3b6-668f8ee51a69","ios":"levelo://app?vid=8aeb7149-885f-4b83-b3b6-668f8ee51a69"},"vehicle_type_id":"4","last_reported":1677351946,"current_range_meters":31600,"station_id":"ce4bh692rcd13ifvqea0","pricing_plan_id":"free"},{"bike_id":"a5d88055-7f8e-47a8-9794-90c23749660e","system_id":"levelo_inurba_marseille","lat":43.292644,"lon":5.384257,"is_reserved":false,"is_disabled":false,"rental_uris":{"android":"levelo://app?vid=a5d88055-7f8e-47a8-9794-90c23749660e","ios":"levelo://app?vid=a5d88055-7f8e-47a8-9794-90c23749660e"},"vehicle_type_id":"4","last_reported":1677351946,"current_range_meters":31600,"station_id":"ce4bh692rcd13ifvqea0","pricing_plan_id":"free"},{"bike_id":"fce376f5-fc87-4acd-abdb-9821884e89b6","system_id":"levelo_inurba_marseille","lat":43.292644,"lon":5.384257,"is_reserved":false,"is_disabled":false,"rental_uris":{"android":"levelo://app?vid=fce376f5-fc87-4acd-abdb-9821884e89b6","ios":"levelo://app?vid=fce376f5-fc87-4acd-abdb-9821884e89b6"},"vehicle_type_id":"4","last_reported":1677351946,"current_range_meters":27200,"station_id":"ce4bh692rcd13ifvqea0","pricing_plan_id":"free"},{"bike_id":"11e032fc-f9ae-4a1b-8340-0031672a4f69","system_id":"levelo_inurba_marseille","lat":43.292644,"lon":5.384257,"is_reserved":false,"is_disabled":false,"rental_uris":{"android":"levelo://app?vid=11e032fc-f9ae-4a1b-8340-0031672a4f69","ios":"levelo://app?vid=11e032fc-f9ae-4a1b-8340-0031672a4f69"},"vehicle_type_id":"4","last_reported":1677351946,"current_range_meters":30400,"station_id":"ce4bh692rcd13ifvqea0","pricing_plan_id":"free"},{"bike_id":"95c8a24a-7125-4b93-8543-f1618029aed5","system_id":"levelo_inurba_marseille","lat":43.292644,"lon":5.384257,"is_reserved":false,"is_disabled":false,"rental_uris":{"android":"levelo://app?vid=95c8a24a-7125-4b93-8543-f1618029aed5","ios":"levelo://app?vid=95c8a24a-7125-4b93-8543-f1618029aed5"},"vehicle_type_id":"4","last_reported":1677351946,"current_range_meters":29200,"station_id":"ce4bh692rcd13ifvqea0","pricing_plan_id":"free"},{"bike_id":"0e964c4f-5609-46fd-ba52-77e16ae054c2","system_id":"levelo_inurba_marseille","lat":43.292644,"lon":5.384257,"is_reserved":false,"is_disabled":false,"rental_uris":{"android":"levelo://app?vid=0e964c4f-5609-46fd-ba52-77e16ae054c2","ios":"levelo://app?vid=0e964c4f-5609-46fd-ba52-77e16ae054c2"},"vehicle_type_id":"4","last_reported":1677351946,"current_range_meters":31600,"station_id":"ce4bh692rcd13ifvqea0","pricing_plan_id":"free"},{"bike_id":"2d241117-b6c9-473f-98e1-fbd7fdc75c5d","system_id":"levelo_inurba_marseille","lat":43.292644,"lon":5.384257,"is_reserved":false,"is_disabled":false,"rental_uris":{"android":"levelo://app?vid=2d241117-b6c9-473f-98e1-fbd7fdc75c5d","ios":"levelo://app?vid=2d241117-b6c9-473f-98e1-fbd7fdc75c5d"},"vehicle_type_id":"4","last_reported":1677351946,"current_range_meters":30800,"station_id":"ce4bh692rcd13ifvqea0","pricing_plan_id":"free"},{"bike_id":"036cbfbe-a4fa-48b9-97ed-7692155967ff","system_id":"levelo_inurba_marseille","lat":43.292644,"lon":5.384257,"is_reserved":false,"is_disabled":false,"rental_uris":{"android":"levelo://app?vid=036cbfbe-a4fa-48b9-97ed-7692155967ff","ios":"levelo://app?vid=036cbfbe-a4fa-48b9-97ed-7692155967ff"},"vehicle_type_id":"4","last_reported":1677351946,"current_range_meters":1200,"station_id":"ce4bh692rcd13ifvqea0","pricing_plan_id":"free"},{"bike_id":"191c7be4-d19c-4671-8fe0-888945de6b27","system_id":"levelo_inurba_marseille","lat":43.292644,"lon":5.384257,"is_reserved":false,"is_disabled":false,"rental_uris":{"android":"levelo://app?vid=191c7be4-d19c-4671-8fe0-888945de6b27","ios":"levelo://app?vid=191c7be4-d19c-4671-8fe0-888945de6b27"},"vehicle_type_id":"4","last_reported":1677351946,"current_range_meters":24000,"station_id":"ce4bh692rcd13ifvqea0","pricing_plan_id":"free"},{"bike_id":"f9107c29-670b-4049-947f-01b1adb41f99","system_id":"levelo_inurba_marseille","lat":43.292644,"lon":5.384257,"is_reserved":false,"is_disabled":false,"rental_uris":{"android":"levelo://app?vid=f9107c29-670b-4049-947f-01b1adb41f99","ios":"levelo://app?vid=f9107c29-670b-4049-947f-01b1adb41f99"},"vehicle_type_id":"4","last_reported":1677351946,"current_range_meters":13200,"station_id":"ce4bh692rcd13ifvqea0","pricing_plan_id":"free"},{"bike_id":"b4239bcc-b3e6-4844-ba8d-5dd4001206c9","system_id":"levelo_inurba_marseille","lat":43.292644,"lon":5.384257,"is_reserved":false,"is_disabled":false,"rental_uris":{"android":"levelo://app?vid=b4239bcc-b3e6-4844-ba8d-5dd4001206c9","ios":"levelo://app?vid=b4239bcc-b3e6-4844-ba8d-5dd4001206c9"},"vehicle_type_id":"4","last_reported":1677351946,"current_range_meters":17600,"station_id":"ce4bh692rcd13ifvqea0","pricing_plan_id":"free"},{"bike_id":"9a0b37df-8c42-4ab6-8548-9adf7df23e87","system_id":"levelo_inurba_marseille","lat":43.292644,"lon":5.384257,"is_reserved":false,"is_disabled":false,"rental_uris":{"android":"levelo://app?vid=9a0b37df-8c42-4ab6-8548-9adf7df23e87","ios":"levelo://app?vid=9a0b37df-8c42-4ab6-8548-9adf7df23e87"},"vehicle_type_id":"4","last_reported":1677351946,"current_range_meters":24000,"station_id":"ce4bh692rcd13ifvqea0","pricing_plan_id":"free"},{"bike_id":"128819f1-9e49-4c67-897e-7f5f78d9e4f3","system_id":"levelo_inurba_marseille","lat":43.292644,"lon":5.384257,"is_reserved":false,"is_disabled":false,"rental_uris":{"android":"levelo://app?vid=128819f1-9e49-4c67-897e-7f5f78d9e4f3","ios":"levelo://app?vid=128819f1-9e49-4c67-897e-7f5f78d9e4f3"},"vehicle_type_id":"4","last_reported":1677351946,"current_range_meters":3600,"station_id":"ce4bh692rcd13ifvqea0","pricing_plan_id":"free"},{"bike_id":"6bb407d4-e428-4134-bcfd-629613bb2ebb","system_id":"levelo_inurba_marseille","lat":43.292644,"lon":5.384257,"is_reserved":false,"is_disabled":false,"rental_uris":{"android":"levelo://app?vid=6bb407d4-e428-4134-bcfd-629613bb2ebb","ios":"levelo://app?vid=6bb407d4-e428-4134-bcfd-629613bb2ebb"},"vehicle_type_id":"4","last_reported":1677351946,"current_range_meters":31600,"station_id":"ce4bh692rcd13ifvqea0","pricing_plan_id":"free"},{"bike_id":"6d64b5f7-6cfa-46ed-95ce-6b96258e097e","system_id":"levelo_inurba_marseille","lat":43.292644,"lon":5.384257,"is_reserved":false,"is_disabled":false,"rental_uris":{"android":"levelo://app?vid=6d64b5f7-6cfa-46ed-95ce-6b96258e097e","ios":"levelo://app?vid=6d64b5f7-6cfa-46ed-95ce-6b96258e097e"},"vehicle_type_id":"4","last_reported":1677351946,"current_range_meters":16800,"station_id":"ce4bh692rcd13ifvqea0","pricing_plan_id":"free"},{"bike_id":"b7431bfd-d510-4766-ab64-43f4b08bac68","system_id":"levelo_inurba_marseille","lat":43.292644,"lon":5.384257,"is_reserved":false,"is_disabled":false,"rental_uris":{"android":"levelo://app?vid=b7431bfd-d510-4766-ab64-43f4b08bac68","ios":"levelo://app?vid=b7431bfd-d510-4766-ab64-43f4b08bac68"},"vehicle_type_id":"4","last_reported":1677351946,"current_range_meters":29200,"station_id":"ce4bh692rcd13ifvqea0","pricing_plan_id":"free"},{"bike_id":"bd38917c-c448-45ef-9d7c-d8dacb318224","system_id":"levelo_inurba_marseille","lat":43.292644,"lon":5.384257,"is_reserved":false,"is_disabled":false,"rental_uris":{"android":"levelo://app?vid=bd38917c-c448-45ef-9d7c-d8dacb318224","ios":"levelo://app?vid=bd38917c-c448-45ef-9d7c-d8dacb318224"},"vehicle_type_id":"4","last_reported":1677351946,"current_range_meters":27200,"station_id":"ce4bh692rcd13ifvqea0","pricing_plan_id":"free"},{"bike_id":"480bd594-16f0-44c0-80f4-519958442aad","system_id":"levelo_inurba_marseille","lat":43.292644,"lon":5.384257,"is_reserved":false,"is_disabled":false,"rental_uris":{"android":"levelo://app?vid=480bd594-16f0-44c0-80f4-519958442aad","ios":"levelo://app?vid=480bd594-16f0-44c0-80f4-519958442aad"},"vehicle_type_id":"4","last_reported":1677351946,"current_range_meters":29200,"station_id":"ce4bh692rcd13ifvqea0","pricing_plan_id":"free"},{"bike_id":"395d9b35-52f5-411a-944d-07ae513be6d0","system_id":"levelo_inurba_marseille","lat":43.330442,"lon":5.389148,"is_reserved":false,"is_disabled":false,"rental_uris":{"android":"levelo://app?vid=395d9b35-52f5-411a-944d-07ae513be6d0","ios":"levelo://app?vid=395d9b35-52f5-411a-944d-07ae513be6d0"},"vehicle_type_id":"4","last_reported":1677351946,"current_range_meters":20800,"station_id":"ce4bhr92rcd13ifvqhrg","pricing_plan_id":"free"},{"bike_id":"d18b8f8c-a421-4dbf-a7dd-6c439f04d5b7","system_id":"levelo_inurba_marseille","lat":43.330455,"lon":5.389108,"is_reserved":false,"is_disabled":false,"rental_uris":{"android":"levelo://app?vid=d18b8f8c-a421-4dbf-a7dd-6c439f04d5b7","ios":"levelo://app?vid=d18b8f8c-a421-4dbf-a7dd-6c439f04d5b7"},"vehicle_type_id":"4","last_reported":1677351946,"current_range_meters":24800,"station_id":"ce4bhr92rcd13ifvqhrg","pricing_plan_id":"free"},{"bike_id":"2b863f53-57c1-44f7-b7c8-600df4e99549","system_id":"levelo_inurba_marseille","lat":43.33046,"lon":5.3891,"is_reserved":false,"is_disabled":false,"rental_uris":{"android":"levelo://app?vid=2b863f53-57c1-44f7-b7c8-600df4e99549","ios":"levelo://app?vid=2b863f53-57c1-44f7-b7c8-600df4e99549"},"vehicle_type_id":"4","last_reported":1677351946,"current_range_meters":23600,"station_id":"ce4bhr92rcd13ifvqhrg","pricing_plan_id":"free"},{"bike_id":"6eff16cf-b95f-4647-917b-82ba5d44eb74","system_id":"levelo_inurba_marseille","lat":43.33041,"lon":5.38918,"is_reserved":false,"is_disabled":false,"rental_uris":{"android":"levelo://app?vid=6eff16cf-b95f-4647-917b-82ba5d44eb74","ios":"levelo://app?vid=6eff16cf-b95f-4647-917b-82ba5d44eb74"},"vehicle_type_id":"4","last_reported":1677351946,"current_range_meters":25200,"station_id":"ce4bhr92rcd13ifvqhrg","pricing_plan_id":"free"},{"bike_id":"0925cf84-77d7-4d6c-925a-5b61d352e742","system_id":"levelo_inurba_marseille","lat":43.330423,"lon":5.38916,"is_reserved":false,"is_disabled":false,"rental_uris":{"android":"levelo://app?vid=0925cf84-77d7-4d6c-925a-5b61d352e742","ios":"levelo://app?vid=0925cf84-77d7-4d6c-925a-5b61d352e742"},"vehicle_type_id":"4","last_reported":1677351946,"current_range_meters":29200,"station_id":"ce4bhr92rcd13ifvqhrg","pricing_plan_id":"free"},{"bike_id":"15c5e29d-d5d9-413a-81f9-91860e739b12","system_id":"levelo_inurba_marseille","lat":43.330442,"lon":5.389148,"is_reserved":false,"is_disabled":false,"rental_uris":{"android":"levelo://app?vid=15c5e29d-d5d9-413a-81f9-91860e739b12","ios":"levelo://app?vid=15c5e29d-d5d9-413a-81f9-91860e739b12"},"vehicle_type_id":"4","last_reported":1677351946,"current_range_meters":8000,"station_id":"ce4bhr92rcd13ifvqhrg","pricing_plan_id":"free"},{"bike_id":"1d865dd6-ff67-4c9d-99dc-5d97286d7632","system_id":"levelo_inurba_marseille","lat":43.330442,"lon":5.389148,"is_reserved":false,"is_disabled":false,"rental_uris":{"android":"levelo://app?vid=1d865dd6-ff67-4c9d-99dc-5d97286d7632","ios":"levelo://app?vid=1d865dd6-ff67-4c9d-99dc-5d97286d7632"},"vehicle_type_id":"4","last_reported":1677351946,"current_range_meters":27600,"station_id":"ce4bhr92rcd13ifvqhrg","pricing_plan_id":"free"},{"bike_id":"dc7005b4-0ad4-4588-84be-cdf49e6b3034","system_id":"levelo_inurba_marseille","lat":43.330453,"lon":5.389127,"is_reserved":false,"is_disabled":false,"rental_uris":{"android":"levelo://app?vid=dc7005b4-0ad4-4588-84be-cdf49e6b3034","ios":"levelo://app?vid=dc7005b4-0ad4-4588-84be-cdf49e6b3034"},"vehicle_type_id":"4","last_reported":1677351946,"current_range_meters":12400,"station_id":"ce4bhr92rcd13ifvqhrg","pricing_plan_id":"free"},{"bike_id":"8461d0f6-110a-4de9-b117-fd3aa336038d","system_id":"levelo_inurba_marseille","lat":43.33042,"lon":5.38918,"is_reserved":false,"is_disabled":false,"rental_uris":{"android":"levelo://app?vid=8461d0f6-110a-4de9-b117-fd3aa336038d","ios":"levelo://app?vid=8461d0f6-110a-4de9-b117-fd3aa336038d"},"vehicle_type_id":"4","last_reported":1677351946,"current_range_meters":28000,"station_id":"ce4bhr92rcd13ifvqhrg","pricing_plan_id":"free"},{"bike_id":"5501c4b9-f6e9-465e-ab63-aa699ee9e63d","system_id":"levelo_inurba_marseille","lat":43.33047,"lon":5.38911,"is_reserved":false,"is_disabled":false,"rental_uris":{"android":"levelo://app?vid=5501c4b9-f6e9-465e-ab63-aa699ee9e63d","ios":"levelo://app?vid=5501c4b9-f6e9-465e-ab63-aa699ee9e63d"},"vehicle_type_id":"4","last_reported":1677351946,"current_range_meters":29200,"station_id":"ce4bhr92rcd13ifvqhrg","pricing_plan_id":"free"},{"bike_id":"8cc8f183-c3b4-4bfa-91ca-5093726b7cc1","system_id":"levelo_inurba_marseille","lat":43.33046,"lon":5.38913,"is_reserved":false,"is_disabled":false,"rental_uris":{"android":"levelo://app?vid=8cc8f183-c3b4-4bfa-91ca-5093726b7cc1","ios":"levelo://app?vid=8cc8f183-c3b4-4bfa-91ca-5093726b7cc1"},"vehicle_type_id":"4","last_reported":1677351946,"current_range_meters":22000,"station_id":"ce4bhr92rcd13ifvqhrg","pricing_plan_id":"free"},{"bike_id":"0058f929-a4f4-406f-b23b-9a33c244f448","system_id":"levelo_inurba_marseille","lat":43.33046,"lon":5.38913,"is_reserved":false,"is_disabled":false,"rental_uris":{"android":"levelo://app?vid=0058f929-a4f4-406f-b23b-9a33c244f448","ios":"levelo://app?vid=0058f929-a4f4-406f-b23b-9a33c244f448"},"vehicle_type_id":"4","last_reported":1677351946,"current_range_meters":16400,"station_id":"ce4bhr92rcd13ifvqhrg","pricing_plan_id":"free"},{"bike_id":"39b8c3a8-bf9d-4e69-aaa8-f6ed0b40ab72","system_id":"levelo_inurba_marseille","lat":43.330468,"lon":5.389123,"is_reserved":false,"is_disabled":false,"rental_uris":{"android":"levelo://app?vid=39b8c3a8-bf9d-4e69-aaa8-f6ed0b40ab72","ios":"levelo://app?vid=39b8c3a8-bf9d-4e69-aaa8-f6ed0b40ab72"},"vehicle_type_id":"4","last_reported":1677351946,"current_range_meters":21200,"station_id":"ce4bhr92rcd13ifvqhrg","pricing_plan_id":"free"},{"bike_id":"3865cb84-cc40-40a3-80b0-00a7b1446131","system_id":"levelo_inurba_marseille","lat":43.33039,"lon":5.38924,"is_reserved":false,"is_disabled":false,"rental_uris":{"android":"levelo://app?vid=3865cb84-cc40-40a3-80b0-00a7b1446131","ios":"levelo://app?vid=3865cb84-cc40-40a3-80b0-00a7b1446131"},"vehicle_type_id":"4","last_reported":1677351946,"current_range_meters":29600,"station_id":"ce4bhr92rcd13ifvqhrg","pricing_plan_id":"free"},{"bike_id":"be71a320-75a7-41b6-8bdb-d0d2bb66a24f","system_id":"levelo_inurba_marseille","lat":43.33046,"lon":5.389137,"is_reserved":false,"is_disabled":false,"rental_uris":{"android":"levelo://app?vid=be71a320-75a7-41b6-8bdb-d0d2bb66a24f","ios":"levelo://app?vid=be71a320-75a7-41b6-8bdb-d0d2bb66a24f"},"vehicle_type_id":"4","last_reported":1677351946,"current_range_meters":20400,"station_id":"ce4bhr92rcd13ifvqhrg","pricing_plan_id":"free"},{"bike_id":"32dd0ea3-ccb7-4190-bcff-ac3eb04fd5f2","system_id":"levelo_inurba_marseille","lat":43.330442,"lon":5.389148,"is_reserved":false,"is_disabled":false,"rental_uris":{"android":"levelo://app?vid=32dd0ea3-ccb7-4190-bcff-ac3eb04fd5f2","ios":"levelo://app?vid=32dd0ea3-ccb7-4190-bcff-ac3eb04fd5f2"},"vehicle_type_id":"4","last_reported":1677351946,"current_range_meters":26000,"station_id":"ce4bhr92rcd13ifvqhrg","pricing_plan_id":"free"},{"bike_id":"78d54cf5-9503-486e-90a1-743cf3cf28a2","system_id":"levelo_inurba_marseille","lat":43.330425,"lon":5.389195,"is_reserved":false,"is_disabled":false,"rental_uris":{"android":"levelo://app?vid=78d54cf5-9503-486e-90a1-743cf3cf28a2","ios":"levelo://app?vid=78d54cf5-9503-486e-90a1-743cf3cf28a2"},"vehicle_type_id":"4","last_reported":1677351946,"current_range_meters":23600,"station_id":"ce4bhr92rcd13ifvqhrg","pricing_plan_id":"free"},{"bike_id":"3ba821fc-3587-4c55-ac4e-9e6c1727f494","system_id":"levelo_inurba_marseille","lat":43.330442,"lon":5.389148,"is_reserved":false,"is_disabled":false,"rental_uris":{"android":"levelo://app?vid=3ba821fc-3587-4c55-ac4e-9e6c1727f494","ios":"levelo://app?vid=3ba821fc-3587-4c55-ac4e-9e6c1727f494"},"vehicle_type_id":"4","last_reported":1677351946,"current_range_meters":18000,"station_id":"ce4bhr92rcd13ifvqhrg","pricing_plan_id":"free"},{"bike_id":"4a05fafd-097c-491d-b0ce-4e444805fac9","system_id":"levelo_inurba_marseille","lat":43.330422,"lon":5.38921,"is_reserved":false,"is_disabled":false,"rental_uris":{"android":"levelo://app?vid=4a05fafd-097c-491d-b0ce-4e444805fac9","ios":"levelo://app?vid=4a05fafd-097c-491d-b0ce-4e444805fac9"},"vehicle_type_id":"4","last_reported":1677351946,"current_range_meters":23600,"station_id":"ce4bhr92rcd13ifvqhrg","pricing_plan_id":"free"},{"bike_id":"e8b96989-a206-4e6e-96de-45ccb611757d","system_id":"levelo_inurba_marseille","lat":43.33047,"lon":5.38914,"is_reserved":false,"is_disabled":false,"rental_uris":{"android":"levelo://app?vid=e8b96989-a206-4e6e-96de-45ccb611757d","ios":"levelo://app?vid=e8b96989-a206-4e6e-96de-45ccb611757d"},"vehicle_type_id":"4","last_reported":1677351946,"current_range_meters":24000,"station_id":"ce4bhr92rcd13ifvqhrg","pricing_plan_id":"free"},{"bike_id":"505d1333-12e8-4c53-85df-319b762b0fc5","system_id":"levelo_inurba_marseille","lat":43.33042,"lon":5.38922,"is_reserved":false,"is_disabled":false,"rental_uris":{"android":"levelo://app?vid=505d1333-12e8-4c53-85df-319b762b0fc5","ios":"levelo://app?vid=505d1333-12e8-4c53-85df-319b762b0fc5"},"vehicle_type_id":"4","last_reported":1677351946,"current_range_meters":18800,"station_id":"ce4bhr92rcd13ifvqhrg","pricing_plan_id":"free"},{"bike_id":"71985252-e8ed-4633-ae2c-0c3f20833843","system_id":"levelo_inurba_marseille","lat":43.330442,"lon":5.389148,"is_reserved":false,"is_disabled":false,"rental_uris":{"android":"levelo://app?vid=71985252-e8ed-4633-ae2c-0c3f20833843","ios":"levelo://app?vid=71985252-e8ed-4633-ae2c-0c3f20833843"},"vehicle_type_id":"4","last_reported":1677351946,"current_range_meters":30400,"station_id":"ce4bhr92rcd13ifvqhrg","pricing_plan_id":"free"},{"bike_id":"e5b56d11-91b9-4806-bc8e-991a030edc14","system_id":"levelo_inurba_marseille","lat":43.33041,"lon":5.38925,"is_reserved":false,"is_disabled":false,"rental_uris":{"android":"levelo://app?vid=e5b56d11-91b9-4806-bc8e-991a030edc14","ios":"levelo://app?vid=e5b56d11-91b9-4806-bc8e-991a030edc14"},"vehicle_type_id":"4","last_reported":1677351946,"current_range_meters":21200,"station_id":"ce4bhr92rcd13ifvqhrg","pricing_plan_id":"free"},{"bike_id":"4ff4b905-6214-4d55-8490-50f1aa552805","system_id":"levelo_inurba_marseille","lat":43.33051,"lon":5.38911,"is_reserved":false,"is_disabled":false,"rental_uris":{"android":"levelo://app?vid=4ff4b905-6214-4d55-8490-50f1aa552805","ios":"levelo://app?vid=4ff4b905-6214-4d55-8490-50f1aa552805"},"vehicle_type_id":"4","last_reported":1677351946,"current_range_meters":28000,"station_id":"","pricing_plan_id":"free"},{"bike_id":"3a4c893b-fce2-4c75-9ff9-bd099a3a2923","system_id":"levelo_inurba_marseille","lat":43.290995,"lon":5.381361,"is_reserved":false,"is_disabled":false,"rental_uris":{"android":"levelo://app?vid=3a4c893b-fce2-4c75-9ff9-bd099a3a2923","ios":"levelo://app?vid=3a4c893b-fce2-4c75-9ff9-bd099a3a2923"},"vehicle_type_id":"4","last_reported":1677351946,"current_range_meters":8400,"station_id":"ce4bh512rcd13ifvqe2g","pricing_plan_id":"free"},{"bike_id":"cdd42808-e159-4792-9173-7de4b68dbbc3","system_id":"levelo_inurba_marseille","lat":43.291,"lon":5.38137,"is_reserved":false,"is_disabled":false,"rental_uris":{"android":"levelo://app?vid=cdd42808-e159-4792-9173-7de4b68dbbc3","ios":"levelo://app?vid=cdd42808-e159-4792-9173-7de4b68dbbc3"},"vehicle_type_id":"4","last_reported":1677351946,"current_range_meters":26800,"station_id":"ce4bh512rcd13ifvqe2g","pricing_plan_id":"free"},{"bike_id":"e0f231d3-3c81-4341-9ec0-0b0a40b158d0","system_id":"levelo_inurba_marseille","lat":43.290995,"lon":5.381361,"is_reserved":false,"is_disabled":false,"rental_uris":{"android":"levelo://app?vid=e0f231d3-3c81-4341-9ec0-0b0a40b158d0","ios":"levelo://app?vid=e0f231d3-3c81-4341-9ec0-0b0a40b158d0"},"vehicle_type_id":"4","last_reported":1677351946,"current_range_meters":7600,"station_id":"ce4bh512rcd13ifvqe2g","pricing_plan_id":"free"},{"bike_id":"0f7bd569-3ed3-4471-b34d-cdc51f318145","system_id":"levelo_inurba_marseille","lat":43.29102,"lon":5.38159,"is_reserved":false,"is_disabled":false,"rental_uris":{"android":"levelo://app?vid=0f7bd569-3ed3-4471-b34d-cdc51f318145","ios":"levelo://app?vid=0f7bd569-3ed3-4471-b34d-cdc51f318145"},"vehicle_type_id":"4","last_reported":1677351946,"current_range_meters":19200,"station_id":"ce4bh512rcd13ifvqe2g","pricing_plan_id":"free"},{"bike_id":"e46d96ba-0b40-4e21-9220-69c18b1ced94","system_id":"levelo_inurba_marseille","lat":43.29094,"lon":5.38141,"is_reserved":false,"is_disabled":false,"rental_uris":{"android":"levelo://app?vid=e46d96ba-0b40-4e21-9220-69c18b1ced94","ios":"levelo://app?vid=e46d96ba-0b40-4e21-9220-69c18b1ced94"},"vehicle_type_id":"4","last_reported":1677351946,"current_range_meters":6000,"station_id":"ce4bh512rcd13ifvqe2g","pricing_plan_id":"free"},{"bike_id":"1b33da67-6063-4a35-9c7b-1e02803dec59","system_id":"levelo_inurba_marseille","lat":43.29095,"lon":5.38144,"is_reserved":false,"is_disabled":false,"rental_uris":{"android":"levelo://app?vid=1b33da67-6063-4a35-9c7b-1e02803dec59","ios":"levelo://app?vid=1b33da67-6063-4a35-9c7b-1e02803dec59"},"vehicle_type_id":"4","last_reported":1677351946,"current_range_meters":18800,"station_id":"","pricing_plan_id":"free"},{"bike_id":"50525121-94dd-4ee9-b721-1022eed8e6c4","system_id":"levelo_inurba_marseille","lat":43.290995,"lon":5.381361,"is_reserved":false,"is_disabled":false,"rental_uris":{"android":"levelo://app?vid=50525121-94dd-4ee9-b721-1022eed8e6c4","ios":"levelo://app?vid=50525121-94dd-4ee9-b721-1022eed8e6c4"},"vehicle_type_id":"4","last_reported":1677351946,"current_range_meters":12000,"station_id":"ce4bh512rcd13ifvqe2g","pricing_plan_id":"free"},{"bike_id":"dd170a63-ede8-47d9-976f-c8bb58530bfb","system_id":"levelo_inurba_marseille","lat":43.289741,"lon":5.378306,"is_reserved":false,"is_disabled":false,"rental_uris":{"android":"levelo://app?vid=dd170a63-ede8-47d9-976f-c8bb58530bfb","ios":"levelo://app?vid=dd170a63-ede8-47d9-976f-c8bb58530bfb"},"vehicle_type_id":"4","last_reported":1677351946,"current_range_meters":0,"station_id":"ce4bh9p2rcd13ifvqed0","pricing_plan_id":"free"},