{"last_updated":1779071178,"ttl":60,"version":"2.2","data":{"bikes":[{"bike_id":"53cb8f98-99ad-4f8c-93af-9b64102affd5","system_id":"levelo_inurba_marseille","lat":43.29181,"lon":5.39318,"is_reserved":false,"is_disabled":true,"rental_uris":{"android":"levelo://app?vid=53cb8f98-99ad-4f8c-93af-9b64102affd5","ios":"levelo://app?vid=53cb8f98-99ad-4f8c-93af-9b64102affd5"},"vehicle_type_id":"4","last_reported":1779071178,"current_range_meters":400,"station_id":"ce4bh192rcd13ifvqdd0","pricing_plan_id":"cebpf4jnsgd1na2vs0mg"},{"bike_id":"885c0cb4-31f4-4128-bac1-a3052e2db0e1","system_id":"levelo_inurba_marseille","lat":43.29015,"lon":5.38631,"is_reserved":false,"is_disabled":false,"rental_uris":{"android":"levelo://app?vid=885c0cb4-31f4-4128-bac1-a3052e2db0e1","ios":"levelo://app?vid=885c0cb4-31f4-4128-bac1-a3052e2db0e1"},"vehicle_type_id":"4","last_reported":1779071178,"current_range_meters":2800,"station_id":"ce4bh4p2rcd13ifvqe0g","pricing_plan_id":"cebpf4jnsgd1na2vs0mg"},{"bike_id":"01f589ec-ac46-4fec-a563-1933494f594d","system_id":"levelo_inurba_marseille","lat":43.31708,"lon":5.40454,"is_reserved":false,"is_disabled":false,"rental_uris":{"android":"levelo://app?vid=01f589ec-ac46-4fec-a563-1933494f594d","ios":"levelo://app?vid=01f589ec-ac46-4fec-a563-1933494f594d"},"vehicle_type_id":"4","last_reported":1779071178,"current_range_meters":2800,"station_id":"ce4bh012rcd13ifvqd00","pricing_plan_id":"cebpf4jnsgd1na2vs0mg"},{"bike_id":"6a8e851b-a690-4ba7-af2f-05d1e01786b2","system_id":"levelo_inurba_marseille","lat":43.27677,"lon":5.41388,"is_reserved":false,"is_disabled":false,"rental_uris":{"android":"levelo://app?vid=6a8e851b-a690-4ba7-af2f-05d1e01786b2","ios":"levelo://app?vid=6a8e851b-a690-4ba7-af2f-05d1e01786b2"},"vehicle_type_id":"4","last_reported":1779071178,"current_range_meters":2800,"station_id":"","pricing_plan_id":"cebpf4jnsgd1na2vs0mg"},{"bike_id":"1556bc79-472d-46c8-b0be-7c6bd5281f5e","system_id":"levelo_inurba_marseille","lat":43.23863,"lon":5.3753,"is_reserved":false,"is_disabled":true,"rental_uris":{"android":"levelo://app?vid=1556bc79-472d-46c8-b0be-7c6bd5281f5e","ios":"levelo://app?vid=1556bc79-472d-46c8-b0be-7c6bd5281f5e"},"vehicle_type_id":"4","last_reported":1779071178,"current_range_meters":2800,"station_id":"","pricing_plan_id":"cebpf4jnsgd1na2vs0mg"},{"bike_id":"e80bd363-0308-4c5f-8fcf-172cc2917ad1","system_id":"levelo_inurba_marseille","lat":43.26022,"lon":5.37558,"is_reserved":false,"is_disabled":true,"rental_uris":{"android":"levelo://app?vid=e80bd363-0308-4c5f-8fcf-172cc2917ad1","ios":"levelo://app?vid=e80bd363-0308-4c5f-8fcf-172cc2917ad1"},"vehicle_type_id":"4","last_reported":1779071178,"current_range_meters":2800,"station_id":"ce4bhgh2rcd13ifvqfa0","pricing_plan_id":"cebpf4jnsgd1na2vs0mg"},{"bike_id":"639c7ba9-c619-4227-9c31-3be8fdc2a814","system_id":"levelo_inurba_marseille","lat":43.25503,"lon":5.37663,"is_reserved":false,"is_disabled":false,"rental_uris":{"android":"levelo://app?vid=639c7ba9-c619-4227-9c31-3be8fdc2a814","ios":"levelo://app?vid=639c7ba9-c619-4227-9c31-3be8fdc2a814"},"vehicle_type_id":"4","last_reported":1779071178,"current_range_meters":2800,"station_id":"ce4bhh12rcd13ifvqff0","pricing_plan_id":"cebpf4jnsgd1na2vs0mg"},{"bike_id":"297af1d5-186c-470c-b151-3e57b1d0528a","system_id":"levelo_inurba_marseille","lat":43.3188,"lon":5.40752,"is_reserved":false,"is_disabled":true,"rental_uris":{"android":"levelo://app?vid=297af1d5-186c-470c-b151-3e57b1d0528a","ios":"levelo://app?vid=297af1d5-186c-470c-b151-3e57b1d0528a"},"vehicle_type_id":"4","last_reported":1779071178,"current_range_meters":2800,"station_id":"ce4bhq12rcd13ifvqhig","pricing_plan_id":"cebpf4jnsgd1na2vs0mg"},{"bike_id":"b63eece1-081f-455c-bc80-249d31a13a7f","system_id":"levelo_inurba_marseille","lat":43.25542,"lon":5.38235,"is_reserved":false,"is_disabled":false,"rental_uris":{"android":"levelo://app?vid=b63eece1-081f-455c-bc80-249d31a13a7f","ios":"levelo://app?vid=b63eece1-081f-455c-bc80-249d31a13a7f"},"vehicle_type_id":"4","last_reported":1779071178,"current_range_meters":3200,"station_id":"ce4bhih2rcd13ifvqfs0","pricing_plan_id":"cebpf4jnsgd1na2vs0mg"},{"bike_id":"680a2b69-ffde-4a8d-a0e0-23280e1844d2","system_id":"levelo_inurba_marseille","lat":43.29275,"lon":5.40111,"is_reserved":false,"is_disabled":false,"rental_uris":{"android":"levelo://app?vid=680a2b69-ffde-4a8d-a0e0-23280e1844d2","ios":"levelo://app?vid=680a2b69-ffde-4a8d-a0e0-23280e1844d2"},"vehicle_type_id":"4","last_reported":1779071178,"current_range_meters":3200,"station_id":"ce4bh312rcd13ifvqdk0","pricing_plan_id":"cebpf4jnsgd1na2vs0mg"},{"bike_id":"b2b0831e-f772-4bcc-955b-91eeedd82565","system_id":"levelo_inurba_marseille","lat":43.25101,"lon":5.39513,"is_reserved":false,"is_disabled":false,"rental_uris":{"android":"levelo://app?vid=b2b0831e-f772-4bcc-955b-91eeedd82565","ios":"levelo://app?vid=b2b0831e-f772-4bcc-955b-91eeedd82565"},"vehicle_type_id":"4","last_reported":1779071178,"current_range_meters":3200,"station_id":"ce4bhm12rcd13ifvqgkg","pricing_plan_id":"cebpf4jnsgd1na2vs0mg"},{"bike_id":"70753a4c-9a5b-4f1b-b381-d107a5f6b7f5","system_id":"levelo_inurba_marseille","lat":43.28728,"lon":5.37943,"is_reserved":false,"is_disabled":false,"rental_uris":{"android":"levelo://app?vid=70753a4c-9a5b-4f1b-b381-d107a5f6b7f5","ios":"levelo://app?vid=70753a4c-9a5b-4f1b-b381-d107a5f6b7f5"},"vehicle_type_id":"4","last_reported":1779071178,"current_range_meters":3200,"station_id":"ce4bh9p2rcd13ifvqec0","pricing_plan_id":"cebpf4jnsgd1na2vs0mg"},{"bike_id":"c0b2c43e-7a6e-4b46-a000-67f826556fe5","system_id":"levelo_inurba_marseille","lat":43.28404,"lon":5.37507,"is_reserved":false,"is_disabled":false,"rental_uris":{"android":"levelo://app?vid=c0b2c43e-7a6e-4b46-a000-67f826556fe5","ios":"levelo://app?vid=c0b2c43e-7a6e-4b46-a000-67f826556fe5"},"vehicle_type_id":"4","last_reported":1779071178,"current_range_meters":3200,"station_id":"ce4bh412rcd13ifvqds0","pricing_plan_id":"cebpf4jnsgd1na2vs0mg"},{"bike_id":"e80bb0ce-537b-43dc-882b-6af3e92d0b3b","system_id":"levelo_inurba_marseille","lat":43.25089,"lon":5.39525,"is_reserved":false,"is_disabled":false,"rental_uris":{"android":"levelo://app?vid=e80bb0ce-537b-43dc-882b-6af3e92d0b3b","ios":"levelo://app?vid=e80bb0ce-537b-43dc-882b-6af3e92d0b3b"},"vehicle_type_id":"4","last_reported":1779071178,"current_range_meters":3200,"station_id":"ce4bhm12rcd13ifvqgkg","pricing_plan_id":"cebpf4jnsgd1na2vs0mg"},{"bike_id":"14e2ba7c-5380-4511-9d0d-27ca0d4a7fc3","system_id":"levelo_inurba_marseille","lat":43.32554,"lon":5.41484,"is_reserved":false,"is_disabled":false,"rental_uris":{"android":"levelo://app?vid=14e2ba7c-5380-4511-9d0d-27ca0d4a7fc3","ios":"levelo://app?vid=14e2ba7c-5380-4511-9d0d-27ca0d4a7fc3"},"vehicle_type_id":"4","last_reported":1779071178,"current_range_meters":3600,"station_id":"","pricing_plan_id":"cebpf4jnsgd1na2vs0mg"},{"bike_id":"e007366d-ee94-411b-8cbe-4adb420da398","system_id":"levelo_inurba_marseille","lat":43.29592,"lon":5.38109,"is_reserved":false,"is_disabled":false,"rental_uris":{"android":"levelo://app?vid=e007366d-ee94-411b-8cbe-4adb420da398","ios":"levelo://app?vid=e007366d-ee94-411b-8cbe-4adb420da398"},"vehicle_type_id":"4","last_reported":1779071178,"current_range_meters":3600,"station_id":"ce4bgl12rcd13ifvqbo0","pricing_plan_id":"cebpf4jnsgd1na2vs0mg"},{"bike_id":"c44618c4-4e7d-46c8-b51f-66c2d9f98a8a","system_id":"levelo_inurba_marseille","lat":43.22582,"lon":5.41647,"is_reserved":false,"is_disabled":false,"rental_uris":{"android":"levelo://app?vid=c44618c4-4e7d-46c8-b51f-66c2d9f98a8a","ios":"levelo://app?vid=c44618c4-4e7d-46c8-b51f-66c2d9f98a8a"},"vehicle_type_id":"4","last_reported":1779071178,"current_range_meters":3600,"station_id":"st_d2o4gvlbi1j2169b742g","pricing_plan_id":"cebpf4jnsgd1na2vs0mg"},{"bike_id":"720e7835-e0d4-483f-8d4f-aa8fa3899f04","system_id":"levelo_inurba_marseille","lat":43.24521,"lon":5.40219,"is_reserved":false,"is_disabled":false,"rental_uris":{"android":"levelo://app?vid=720e7835-e0d4-483f-8d4f-aa8fa3899f04","ios":"levelo://app?vid=720e7835-e0d4-483f-8d4f-aa8fa3899f04"},"vehicle_type_id":"4","last_reported":1779071178,"current_range_meters":3600,"station_id":"","pricing_plan_id":"cebpf4jnsgd1na2vs0mg"},{"bike_id":"b5afc4e4-4b8e-41bf-9118-9e0cdc3bcdca","system_id":"levelo_inurba_marseille","lat":43.290672,"lon":5.37572,"is_reserved":false,"is_disabled":false,"rental_uris":{"android":"levelo://app?vid=b5afc4e4-4b8e-41bf-9118-9e0cdc3bcdca","ios":"levelo://app?vid=b5afc4e4-4b8e-41bf-9118-9e0cdc3bcdca"},"vehicle_type_id":"4","last_reported":1779071178,"current_range_meters":3600,"station_id":"ce4bh692rcd13ifvqe90","pricing_plan_id":"cebpf4jnsgd1na2vs0mg"},{"bike_id":"4b2c22d4-a591-4d2d-8261-a6ca5bb8c11b","system_id":"levelo_inurba_marseille","lat":43.23966,"lon":5.36621,"is_reserved":false,"is_disabled":false,"rental_uris":{"android":"levelo://app?vid=4b2c22d4-a591-4d2d-8261-a6ca5bb8c11b","ios":"levelo://app?vid=4b2c22d4-a591-4d2d-8261-a6ca5bb8c11b"},"vehicle_type_id":"4","last_reported":1779071178,"current_range_meters":3600,"station_id":"ce4bhi12rcd13ifvqfp0","pricing_plan_id":"cebpf4jnsgd1na2vs0mg"},{"bike_id":"107618ed-c573-4025-b588-1c428ee5ee76","system_id":"levelo_inurba_marseille","lat":43.30138,"lon":5.37426,"is_reserved":false,"is_disabled":false,"rental_uris":{"android":"levelo://app?vid=107618ed-c573-4025-b588-1c428ee5ee76","ios":"levelo://app?vid=107618ed-c573-4025-b588-1c428ee5ee76"},"vehicle_type_id":"4","last_reported":1779071178,"current_range_meters":3600,"station_id":"ce4bgs92rcd13ifvqcc0","pricing_plan_id":"cebpf4jnsgd1na2vs0mg"},{"bike_id":"87416f26-4d40-4514-b540-0c37d39aab4a","system_id":"levelo_inurba_marseille","lat":43.304,"lon":5.4129,"is_reserved":false,"is_disabled":false,"rental_uris":{"android":"levelo://app?vid=87416f26-4d40-4514-b540-0c37d39aab4a","ios":"levelo://app?vid=87416f26-4d40-4514-b540-0c37d39aab4a"},"vehicle_type_id":"4","last_reported":1779071178,"current_range_meters":3600,"station_id":"ce4bhop2rcd13ifvqh8g","pricing_plan_id":"cebpf4jnsgd1na2vs0mg"},{"bike_id":"db84d3fb-d461-4f77-9421-ad71db9c45ae","system_id":"levelo_inurba_marseille","lat":43.28388,"lon":5.45954,"is_reserved":false,"is_disabled":false,"rental_uris":{"android":"levelo://app?vid=db84d3fb-d461-4f77-9421-ad71db9c45ae","ios":"levelo://app?vid=db84d3fb-d461-4f77-9421-ad71db9c45ae"},"vehicle_type_id":"4","last_reported":1779071178,"current_range_meters":3600,"station_id":"ce4bhgh2rcd13ifvqfa0","pricing_plan_id":"cebpf4jnsgd1na2vs0mg"},{"bike_id":"ab685129-51d2-470a-898d-6e8a21c7bebe","system_id":"levelo_inurba_marseille","lat":43.28711,"lon":5.46701,"is_reserved":false,"is_disabled":false,"rental_uris":{"android":"levelo://app?vid=ab685129-51d2-470a-898d-6e8a21c7bebe","ios":"levelo://app?vid=ab685129-51d2-470a-898d-6e8a21c7bebe"},"vehicle_type_id":"4","last_reported":1779071178,"current_range_meters":3600,"station_id":"st_d6tc3vkotcvc738tfjhg","pricing_plan_id":"cebpf4jnsgd1na2vs0mg"},{"bike_id":"500d4514-39d6-46a9-b3a4-7170cff08b92","system_id":"levelo_inurba_marseille","lat":43.24746,"lon":5.37462,"is_reserved":false,"is_disabled":false,"rental_uris":{"android":"levelo://app?vid=500d4514-39d6-46a9-b3a4-7170cff08b92","ios":"levelo://app?vid=500d4514-39d6-46a9-b3a4-7170cff08b92"},"vehicle_type_id":"4","last_reported":1779071178,"current_range_meters":4000,"station_id":"","pricing_plan_id":"cebpf4jnsgd1na2vs0mg"},{"bike_id":"89424039-8de3-4863-a0cd-5928fc1d9eda","system_id":"levelo_inurba_marseille","lat":43.30781,"lon":5.37063,"is_reserved":false,"is_disabled":false,"rental_uris":{"android":"levelo://app?vid=89424039-8de3-4863-a0cd-5928fc1d9eda","ios":"levelo://app?vid=89424039-8de3-4863-a0cd-5928fc1d9eda"},"vehicle_type_id":"4","last_reported":1779071178,"current_range_meters":4000,"station_id":"","pricing_plan_id":"cebpf4jnsgd1na2vs0mg"},{"bike_id":"50aaf4f8-23e4-4752-9718-860aa83f1c8b","system_id":"levelo_inurba_marseille","lat":43.29043,"lon":5.37139,"is_reserved":false,"is_disabled":true,"rental_uris":{"android":"levelo://app?vid=50aaf4f8-23e4-4752-9718-860aa83f1c8b","ios":"levelo://app?vid=50aaf4f8-23e4-4752-9718-860aa83f1c8b"},"vehicle_type_id":"4","last_reported":1779071178,"current_range_meters":4000,"station_id":"ce4bh5p2rcd13ifvqe4g","pricing_plan_id":"cebpf4jnsgd1na2vs0mg"},{"bike_id":"b591c7e4-e1a1-4cad-9e64-e36047c1cca9","system_id":"levelo_inurba_marseille","lat":43.27969,"lon":5.38723,"is_reserved":false,"is_disabled":true,"rental_uris":{"android":"levelo://app?vid=b591c7e4-e1a1-4cad-9e64-e36047c1cca9","ios":"levelo://app?vid=b591c7e4-e1a1-4cad-9e64-e36047c1cca9"},"vehicle_type_id":"4","last_reported":1779071178,"current_range_meters":4000,"station_id":"ce4bhg12rcd13ifvqf80","pricing_plan_id":"cebpf4jnsgd1na2vs0mg"},{"bike_id":"0bc8309a-95e1-47ab-b821-50c4ccf145d8","system_id":"levelo_inurba_marseille","lat":43.31689,"lon":5.43703,"is_reserved":false,"is_disabled":false,"rental_uris":{"android":"levelo://app?vid=0bc8309a-95e1-47ab-b821-50c4ccf145d8","ios":"levelo://app?vid=0bc8309a-95e1-47ab-b821-50c4ccf145d8"},"vehicle_type_id":"4","last_reported":1779071178,"current_range_meters":4000,"station_id":"ce4bhp92rcd13ifvqhcg","pricing_plan_id":"cebpf4jnsgd1na2vs0mg"},{"bike_id":"53bddc6e-e4c7-45f2-9b30-4e6715512203","system_id":"levelo_inurba_marseille","lat":43.31035,"lon":5.37166,"is_reserved":false,"is_disabled":false,"rental_uris":{"android":"levelo://app?vid=53bddc6e-e4c7-45f2-9b30-4e6715512203","ios":"levelo://app?vid=53bddc6e-e4c7-45f2-9b30-4e6715512203"},"vehicle_type_id":"4","last_reported":1779071178,"current_range_meters":4000,"station_id":"st_d4kl2rp97mjs73e7tdfg","pricing_plan_id":"cebpf4jnsgd1na2vs0mg"},{"bike_id":"0c231844-a4e0-43a7-887b-17ea2d7aa889","system_id":"levelo_inurba_marseille","lat":43.30356,"lon":5.42459,"is_reserved":false,"is_disabled":false,"rental_uris":{"android":"levelo://app?vid=0c231844-a4e0-43a7-887b-17ea2d7aa889","ios":"levelo://app?vid=0c231844-a4e0-43a7-887b-17ea2d7aa889"},"vehicle_type_id":"4","last_reported":1779071178,"current_range_meters":4000,"station_id":"ce4bhoh2rcd13ifvqh6g","pricing_plan_id":"cebpf4jnsgd1na2vs0mg"},{"bike_id":"e522d3ee-37ce-4dc6-aeaf-6fff7c2be437","system_id":"levelo_inurba_marseille","lat":43.28707,"lon":5.39984,"is_reserved":false,"is_disabled":false,"rental_uris":{"android":"levelo://app?vid=e522d3ee-37ce-4dc6-aeaf-6fff7c2be437","ios":"levelo://app?vid=e522d3ee-37ce-4dc6-aeaf-6fff7c2be437"},"vehicle_type_id":"4","last_reported":1779071178,"current_range_meters":4000,"station_id":"ce4bho92rcd13ifvqh3g","pricing_plan_id":"cebpf4jnsgd1na2vs0mg"},{"bike_id":"8baacc2a-f8a3-4e01-9797-71a915d0d1dd","system_id":"levelo_inurba_marseille","lat":43.24389,"lon":5.37071,"is_reserved":false,"is_disabled":false,"rental_uris":{"android":"levelo://app?vid=8baacc2a-f8a3-4e01-9797-71a915d0d1dd","ios":"levelo://app?vid=8baacc2a-f8a3-4e01-9797-71a915d0d1dd"},"vehicle_type_id":"4","last_reported":1779071178,"current_range_meters":4000,"station_id":"ce4bhhh2rcd13ifvqfk0","pricing_plan_id":"cebpf4jnsgd1na2vs0mg"},{"bike_id":"e1cb5f88-d507-43a7-8617-b5445f9b9057","system_id":"levelo_inurba_marseille","lat":43.24057,"lon":5.37763,"is_reserved":false,"is_disabled":false,"rental_uris":{"android":"levelo://app?vid=e1cb5f88-d507-43a7-8617-b5445f9b9057","ios":"levelo://app?vid=e1cb5f88-d507-43a7-8617-b5445f9b9057"},"vehicle_type_id":"4","last_reported":1779071178,"current_range_meters":4000,"station_id":"ce4bhnp2rcd13ifvqgvg","pricing_plan_id":"cebpf4jnsgd1na2vs0mg"},{"bike_id":"d114623f-77ac-4a84-b537-40acd1678c98","system_id":"levelo_inurba_marseille","lat":43.26806,"lon":5.4083,"is_reserved":false,"is_disabled":false,"rental_uris":{"android":"levelo://app?vid=d114623f-77ac-4a84-b537-40acd1678c98","ios":"levelo://app?vid=d114623f-77ac-4a84-b537-40acd1678c98"},"vehicle_type_id":"4","last_reported":1779071178,"current_range_meters":4000,"station_id":"","pricing_plan_id":"cebpf4jnsgd1na2vs0mg"},{"bike_id":"656a127d-8bc0-41ee-967f-acaa8844d3c0","system_id":"levelo_inurba_marseille","lat":43.30098,"lon":5.39074,"is_reserved":false,"is_disabled":false,"rental_uris":{"android":"levelo://app?vid=656a127d-8bc0-41ee-967f-acaa8844d3c0","ios":"levelo://app?vid=656a127d-8bc0-41ee-967f-acaa8844d3c0"},"vehicle_type_id":"4","last_reported":1779071178,"current_range_meters":4000,"station_id":"ce4bh192rcd13ifvqdb0","pricing_plan_id":"cebpf4jnsgd1na2vs0mg"},{"bike_id":"330a636a-41f6-4ce4-8589-430c5d2cb25b","system_id":"levelo_inurba_marseille","lat":43.28866,"lon":5.42522,"is_reserved":false,"is_disabled":false,"rental_uris":{"android":"levelo://app?vid=330a636a-41f6-4ce4-8589-430c5d2cb25b","ios":"levelo://app?vid=330a636a-41f6-4ce4-8589-430c5d2cb25b"},"vehicle_type_id":"4","last_reported":1779071178,"current_range_meters":4400,"station_id":"st_d3b462108ojc7389ooeg","pricing_plan_id":"cebpf4jnsgd1na2vs0mg"},{"bike_id":"c8722e29-d9c5-42ad-ba5c-829da629eec6","system_id":"levelo_inurba_marseille","lat":43.30187,"lon":5.36627,"is_reserved":false,"is_disabled":false,"rental_uris":{"android":"levelo://app?vid=c8722e29-d9c5-42ad-ba5c-829da629eec6","ios":"levelo://app?vid=c8722e29-d9c5-42ad-ba5c-829da629eec6"},"vehicle_type_id":"4","last_reported":1779071178,"current_range_meters":4400,"station_id":"ce4bgrh2rcd13ifvqc8g","pricing_plan_id":"cebpf4jnsgd1na2vs0mg"},{"bike_id":"58f139ed-a9db-46fe-b024-cc6d01799291","system_id":"levelo_inurba_marseille","lat":43.29303,"lon":5.37446,"is_reserved":false,"is_disabled":true,"rental_uris":{"android":"levelo://app?vid=58f139ed-a9db-46fe-b024-cc6d01799291","ios":"levelo://app?vid=58f139ed-a9db-46fe-b024-cc6d01799291"},"vehicle_type_id":"4","last_reported":1779071178,"current_range_meters":4400,"station_id":"ce4bgi12rcd13ifvqb70","pricing_plan_id":"cebpf4jnsgd1na2vs0mg"},{"bike_id":"93f06b47-0428-4328-8d59-8e9d9224b7f4","system_id":"levelo_inurba_marseille","lat":43.29894,"lon":5.39736,"is_reserved":false,"is_disabled":false,"rental_uris":{"android":"levelo://app?vid=93f06b47-0428-4328-8d59-8e9d9224b7f4","ios":"levelo://app?vid=93f06b47-0428-4328-8d59-8e9d9224b7f4"},"vehicle_type_id":"4","last_reported":1779071178,"current_range_meters":4400,"station_id":"ce4bh0h2rcd13ifvqd50","pricing_plan_id":"cebpf4jnsgd1na2vs0mg"},{"bike_id":"ddda8e1c-61d4-4732-b02e-5188cbbcd733","system_id":"levelo_inurba_marseille","lat":43.24941,"lon":5.38903,"is_reserved":false,"is_disabled":false,"rental_uris":{"android":"levelo://app?vid=ddda8e1c-61d4-4732-b02e-5188cbbcd733","ios":"levelo://app?vid=ddda8e1c-61d4-4732-b02e-5188cbbcd733"},"vehicle_type_id":"4","last_reported":1779071178,"current_range_meters":4400,"station_id":"","pricing_plan_id":"cebpf4jnsgd1na2vs0mg"},{"bike_id":"59e5f34c-5ac9-4602-b469-00eca3aae2d3","system_id":"levelo_inurba_marseille","lat":43.28682,"lon":5.36363,"is_reserved":false,"is_disabled":false,"rental_uris":{"android":"levelo://app?vid=59e5f34c-5ac9-4602-b469-00eca3aae2d3","ios":"levelo://app?vid=59e5f34c-5ac9-4602-b469-00eca3aae2d3"},"vehicle_type_id":"4","last_reported":1779071178,"current_range_meters":4400,"station_id":"ce4bhah2rcd13ifvqej0","pricing_plan_id":"cebpf4jnsgd1na2vs0mg"},{"bike_id":"c9e9fdd5-9999-4049-89c9-d33f10650123","system_id":"levelo_inurba_marseille","lat":43.27379,"lon":5.39404,"is_reserved":false,"is_disabled":true,"rental_uris":{"android":"levelo://app?vid=c9e9fdd5-9999-4049-89c9-d33f10650123","ios":"levelo://app?vid=c9e9fdd5-9999-4049-89c9-d33f10650123"},"vehicle_type_id":"4","last_reported":1779071178,"current_range_meters":4400,"station_id":"ce4bhdp2rcd13ifvqf20","pricing_plan_id":"cebpf4jnsgd1na2vs0mg"},{"bike_id":"4f505cbc-1f62-402e-838c-0f0a99cb3ab6","system_id":"levelo_inurba_marseille","lat":43.29057,"lon":5.37539,"is_reserved":false,"is_disabled":false,"rental_uris":{"android":"levelo://app?vid=4f505cbc-1f62-402e-838c-0f0a99cb3ab6","ios":"levelo://app?vid=4f505cbc-1f62-402e-838c-0f0a99cb3ab6"},"vehicle_type_id":"4","last_reported":1779071178,"current_range_meters":4400,"station_id":"ce4bh692rcd13ifvqe90","pricing_plan_id":"cebpf4jnsgd1na2vs0mg"},{"bike_id":"c89cc93f-e8ae-4ec3-b764-fb2e4c5487e0","system_id":"levelo_inurba_marseille","lat":43.27381,"lon":5.36262,"is_reserved":false,"is_disabled":false,"rental_uris":{"android":"levelo://app?vid=c89cc93f-e8ae-4ec3-b764-fb2e4c5487e0","ios":"levelo://app?vid=c89cc93f-e8ae-4ec3-b764-fb2e4c5487e0"},"vehicle_type_id":"4","last_reported":1779071178,"current_range_meters":4400,"station_id":"ce4bhbh2rcd13ifvqeo0","pricing_plan_id":"cebpf4jnsgd1na2vs0mg"},{"bike_id":"e31133fa-834a-42ba-bf55-ad118de5acb7","system_id":"levelo_inurba_marseille","lat":43.292801,"lon":5.401149,"is_reserved":false,"is_disabled":true,"rental_uris":{"android":"levelo://app?vid=e31133fa-834a-42ba-bf55-ad118de5acb7","ios":"levelo://app?vid=e31133fa-834a-42ba-bf55-ad118de5acb7"},"vehicle_type_id":"4","last_reported":1779071178,"current_range_meters":4800,"station_id":"ce4bh312rcd13ifvqdk0","pricing_plan_id":"cebpf4jnsgd1na2vs0mg"},{"bike_id":"95429a0d-7a20-424d-8b0a-71c7e3c0fa8e","system_id":"levelo_inurba_marseille","lat":43.29491,"lon":5.43294,"is_reserved":false,"is_disabled":false,"rental_uris":{"android":"levelo://app?vid=95429a0d-7a20-424d-8b0a-71c7e3c0fa8e","ios":"levelo://app?vid=95429a0d-7a20-424d-8b0a-71c7e3c0fa8e"},"vehicle_type_id":"4","last_reported":1779071178,"current_range_meters":4800,"station_id":"st_d3j5ugp08ojc73fj9d10","pricing_plan_id":"cebpf4jnsgd1na2vs0mg"},{"bike_id":"6e69c60a-c3ba-484c-aea6-94bd593ebc9c","system_id":"levelo_inurba_marseille","lat":43.27617,"lon":5.361,"is_reserved":false,"is_disabled":false,"rental_uris":{"android":"levelo://app?vid=6e69c60a-c3ba-484c-aea6-94bd593ebc9c","ios":"levelo://app?vid=6e69c60a-c3ba-484c-aea6-94bd593ebc9c"},"vehicle_type_id":"4","last_reported":1779071178,"current_range_meters":4800,"station_id":"ce4bhbh2rcd13ifvqeqg","pricing_plan_id":"cebpf4jnsgd1na2vs0mg"},{"bike_id":"b0b32c28-46aa-4d47-99a7-750f19df7701","system_id":"levelo_inurba_marseille","lat":43.25204,"lon":5.37418,"is_reserved":false,"is_disabled":false,"rental_uris":{"android":"levelo://app?vid=b0b32c28-46aa-4d47-99a7-750f19df7701","ios":"levelo://app?vid=b0b32c28-46aa-4d47-99a7-750f19df7701"},"vehicle_type_id":"4","last_reported":1779071178,"current_range_meters":4800,"station_id":"","pricing_plan_id":"cebpf4jnsgd1na2vs0mg"},{"bike_id":"8c240bb7-ac48-48dd-b7c1-1519c2b2db9f","system_id":"levelo_inurba_marseille","lat":43.2292,"lon":5.35382,"is_reserved":false,"is_disabled":false,"rental_uris":{"android":"levelo://app?vid=8c240bb7-ac48-48dd-b7c1-1519c2b2db9f","ios":"levelo://app?vid=8c240bb7-ac48-48dd-b7c1-1519c2b2db9f"},"vehicle_type_id":"4","last_reported":1779071178,"current_range_meters":4800,"station_id":"cpo3532slgdg3j2ikp40","pricing_plan_id":"cebpf4jnsgd1na2vs0mg"},{"bike_id":"e6462e92-c425-4790-b88f-f87f060dd5f1","system_id":"levelo_inurba_marseille","lat":43.25345,"lon":5.42174,"is_reserved":false,"is_disabled":false,"rental_uris":{"android":"levelo://app?vid=e6462e92-c425-4790-b88f-f87f060dd5f1","ios":"levelo://app?vid=e6462e92-c425-4790-b88f-f87f060dd5f1"},"vehicle_type_id":"4","last_reported":1779071178,"current_range_meters":4800,"station_id":"st_d2m65c5bi1j21697t3ng","pricing_plan_id":"cebpf4jnsgd1na2vs0mg"},{"bike_id":"8679d5c2-59e6-4d42-bafc-1828e297af0f","system_id":"levelo_inurba_marseille","lat":43.2117,"lon":5.35093,"is_reserved":false,"is_disabled":false,"rental_uris":{"android":"levelo://app?vid=8679d5c2-59e6-4d42-bafc-1828e297af0f","ios":"levelo://app?vid=8679d5c2-59e6-4d42-bafc-1828e297af0f"},"vehicle_type_id":"4","last_reported":1779071178,"current_range_meters":4800,"station_id":"st_cvj6sg6p6f1abm77japg","pricing_plan_id":"cebpf4jnsgd1na2vs0mg"},{"bike_id":"a028d3fc-9924-4f4f-acb6-07b1b4bf908b","system_id":"levelo_inurba_marseille","lat":43.26551,"lon":5.42181,"is_reserved":false,"is_disabled":false,"rental_uris":{"android":"levelo://app?vid=a028d3fc-9924-4f4f-acb6-07b1b4bf908b","ios":"levelo://app?vid=a028d3fc-9924-4f4f-acb6-07b1b4bf908b"},"vehicle_type_id":"4","last_reported":1779071178,"current_range_meters":4800,"station_id":"","pricing_plan_id":"cebpf4jnsgd1na2vs0mg"},{"bike_id":"ac2eb11b-78d9-4096-a01e-37e944678f0a","system_id":"levelo_inurba_marseille","lat":43.29194,"lon":5.39314,"is_reserved":false,"is_disabled":false,"rental_uris":{"android":"levelo://app?vid=ac2eb11b-78d9-4096-a01e-37e944678f0a","ios":"levelo://app?vid=ac2eb11b-78d9-4096-a01e-37e944678f0a"},"vehicle_type_id":"4","last_reported":1779071178,"current_range_meters":4800,"station_id":"ce4bh192rcd13ifvqdd0","pricing_plan_id":"cebpf4jnsgd1na2vs0mg"},{"bike_id":"08fea3f0-cdb3-4db3-9cb8-34088a767d42","system_id":"levelo_inurba_marseille","lat":43.28933,"lon":5.36628,"is_reserved":false,"is_disabled":false,"rental_uris":{"android":"levelo://app?vid=08fea3f0-cdb3-4db3-9cb8-34088a767d42","ios":"levelo://app?vid=08fea3f0-cdb3-4db3-9cb8-34088a767d42"},"vehicle_type_id":"4","last_reported":1779071178,"current_range_meters":4800,"station_id":"ce4bhap2rcd13ifvqek0","pricing_plan_id":"cebpf4jnsgd1na2vs0mg"},{"bike_id":"caf002ad-eeb8-4a56-ad5c-5c9d23cac3c3","system_id":"levelo_inurba_marseille","lat":43.23967,"lon":5.36624,"is_reserved":false,"is_disabled":false,"rental_uris":{"android":"levelo://app?vid=caf002ad-eeb8-4a56-ad5c-5c9d23cac3c3","ios":"levelo://app?vid=caf002ad-eeb8-4a56-ad5c-5c9d23cac3c3"},"vehicle_type_id":"4","last_reported":1779071178,"current_range_meters":5600,"station_id":"ce4bhi12rcd13ifvqfp0","pricing_plan_id":"cebpf4jnsgd1na2vs0mg"},{"bike_id":"e1e68090-4a20-492e-97b8-e1e63906ec2e","system_id":"levelo_inurba_marseille","lat":43.22559,"lon":5.41642,"is_reserved":false,"is_disabled":false,"rental_uris":{"android":"levelo://app?vid=e1e68090-4a20-492e-97b8-e1e63906ec2e","ios":"levelo://app?vid=e1e68090-4a20-492e-97b8-e1e63906ec2e"},"vehicle_type_id":"4","last_reported":1779071178,"current_range_meters":5600,"station_id":"st_d2o4gvlbi1j2169b742g","pricing_plan_id":"cebpf4jnsgd1na2vs0mg"},{"bike_id":"7e9108b7-826c-4ee3-915c-23f98ef2ac43","system_id":"levelo_inurba_marseille","lat":43.23972,"lon":5.36613,"is_reserved":false,"is_disabled":false,"rental_uris":{"android":"levelo://app?vid=7e9108b7-826c-4ee3-915c-23f98ef2ac43","ios":"levelo://app?vid=7e9108b7-826c-4ee3-915c-23f98ef2ac43"},"vehicle_type_id":"4","last_reported":1779071178,"current_range_meters":5600,"station_id":"ce4bhi12rcd13ifvqfp0","pricing_plan_id":"cebpf4jnsgd1na2vs0mg"},{"bike_id":"7fc61087-1778-4591-85ac-2c7856928f89","system_id":"levelo_inurba_marseille","lat":43.24381,"lon":5.37081,"is_reserved":false,"is_disabled":false,"rental_uris":{"android":"levelo://app?vid=7fc61087-1778-4591-85ac-2c7856928f89","ios":"levelo://app?vid=7fc61087-1778-4591-85ac-2c7856928f89"},"vehicle_type_id":"4","last_reported":1779071178,"current_range_meters":5600,"station_id":"ce4bhhh2rcd13ifvqfk0","pricing_plan_id":"cebpf4jnsgd1na2vs0mg"},{"bike_id":"83ae9548-04d4-41cc-a2c8-af86179673ba","system_id":"levelo_inurba_marseille","lat":43.32106,"lon":5.36772,"is_reserved":false,"is_disabled":false,"rental_uris":{"android":"levelo://app?vid=83ae9548-04d4-41cc-a2c8-af86179673ba","ios":"levelo://app?vid=83ae9548-04d4-41cc-a2c8-af86179673ba"},"vehicle_type_id":"4","last_reported":1779071178,"current_range_meters":5600,"station_id":"ce4bhrh2rcd13ifvqhug","pricing_plan_id":"cebpf4jnsgd1na2vs0mg"},{"bike_id":"a142cd85-20b9-45e5-bde1-80872eecd1e2","system_id":"levelo_inurba_marseille","lat":43.2389,"lon":5.37495,"is_reserved":false,"is_disabled":true,"rental_uris":{"android":"levelo://app?vid=a142cd85-20b9-45e5-bde1-80872eecd1e2","ios":"levelo://app?vid=a142cd85-20b9-45e5-bde1-80872eecd1e2"},"vehicle_type_id":"4","last_reported":1779071178,"current_range_meters":5600,"station_id":"st_d6sm7csbq4hs73f8fpjg","pricing_plan_id":"cebpf4jnsgd1na2vs0mg"},{"bike_id":"a8bdc8a9-1a0b-4746-9d1e-ab6cbd3da065","system_id":"levelo_inurba_marseille","lat":43.29796,"lon":5.39352,"is_reserved":false,"is_disabled":false,"rental_uris":{"android":"levelo://app?vid=a8bdc8a9-1a0b-4746-9d1e-ab6cbd3da065","ios":"levelo://app?vid=a8bdc8a9-1a0b-4746-9d1e-ab6cbd3da065"},"vehicle_type_id":"4","last_reported":1779071178,"current_range_meters":5600,"station_id":"chh1huq6cuj3fo74tm60","pricing_plan_id":"cebpf4jnsgd1na2vs0mg"},{"bike_id":"ad19ddb5-7958-4017-afc1-51f9c561149c","system_id":"levelo_inurba_marseille","lat":43.29263,"lon":5.40168,"is_reserved":false,"is_disabled":false,"rental_uris":{"android":"levelo://app?vid=ad19ddb5-7958-4017-afc1-51f9c561149c","ios":"levelo://app?vid=ad19ddb5-7958-4017-afc1-51f9c561149c"},"vehicle_type_id":"4","last_reported":1779071178,"current_range_meters":5600,"station_id":"ce4bh312rcd13ifvqdk0","pricing_plan_id":"cebpf4jnsgd1na2vs0mg"},{"bike_id":"b5ec3fbc-395f-4cab-9d6d-c5a0cbbd6aec","system_id":"levelo_inurba_marseille","lat":43.25076,"lon":5.3952,"is_reserved":false,"is_disabled":false,"rental_uris":{"android":"levelo://app?vid=b5ec3fbc-395f-4cab-9d6d-c5a0cbbd6aec","ios":"levelo://app?vid=b5ec3fbc-395f-4cab-9d6d-c5a0cbbd6aec"},"vehicle_type_id":"4","last_reported":1779071178,"current_range_meters":5600,"station_id":"ce4bhm12rcd13ifvqgkg","pricing_plan_id":"cebpf4jnsgd1na2vs0mg"},{"bike_id":"cf97b3db-28c6-4e31-9c20-8d584913c7e8","system_id":"levelo_inurba_marseille","lat":43.32116,"lon":5.3677,"is_reserved":false,"is_disabled":false,"rental_uris":{"android":"levelo://app?vid=cf97b3db-28c6-4e31-9c20-8d584913c7e8","ios":"levelo://app?vid=cf97b3db-28c6-4e31-9c20-8d584913c7e8"},"vehicle_type_id":"4","last_reported":1779071178,"current_range_meters":5600,"station_id":"ce4bhrh2rcd13ifvqhug","pricing_plan_id":"cebpf4jnsgd1na2vs0mg"},{"bike_id":"5b55812d-5d14-4481-a122-b5efaee7e31a","system_id":"levelo_inurba_marseille","lat":43.24388,"lon":5.37058,"is_reserved":false,"is_disabled":false,"rental_uris":{"android":"levelo://app?vid=5b55812d-5d14-4481-a122-b5efaee7e31a","ios":"levelo://app?vid=5b55812d-5d14-4481-a122-b5efaee7e31a"},"vehicle_type_id":"4","last_reported":1779071178,"current_range_meters":6000,"station_id":"ce4bhhh2rcd13ifvqfk0","pricing_plan_id":"cebpf4jnsgd1na2vs0mg"},{"bike_id":"068286b4-bde0-4de1-9e57-6b7d365461ce","system_id":"levelo_inurba_marseille","lat":43.26228,"lon":5.40445,"is_reserved":false,"is_disabled":false,"rental_uris":{"android":"levelo://app?vid=068286b4-bde0-4de1-9e57-6b7d365461ce","ios":"levelo://app?vid=068286b4-bde0-4de1-9e57-6b7d365461ce"},"vehicle_type_id":"4","last_reported":1779071178,"current_range_meters":6000,"station_id":"ce4bhmh2rcd13ifvqgmg","pricing_plan_id":"cebpf4jnsgd1na2vs0mg"},{"bike_id":"52e6d760-657f-4bf5-bb05-128eefc50784","system_id":"levelo_inurba_marseille","lat":43.28297,"lon":5.35086,"is_reserved":false,"is_disabled":true,"rental_uris":{"android":"levelo://app?vid=52e6d760-657f-4bf5-bb05-128eefc50784","ios":"levelo://app?vid=52e6d760-657f-4bf5-bb05-128eefc50784"},"vehicle_type_id":"4","last_reported":1779071178,"current_range_meters":6000,"station_id":"ce4bhbp2rcd13ifvqerg","pricing_plan_id":"cebpf4jnsgd1na2vs0mg"},{"bike_id":"3421a668-584b-401c-9591-86d441505b26","system_id":"levelo_inurba_marseille","lat":43.27205,"lon":5.39161,"is_reserved":false,"is_disabled":true,"rental_uris":{"android":"levelo://app?vid=3421a668-584b-401c-9591-86d441505b26","ios":"levelo://app?vid=3421a668-584b-401c-9591-86d441505b26"},"vehicle_type_id":"4","last_reported":1779071178,"current_range_meters":6000,"station_id":"ce4bhhp2rcd13ifvqfm0","pricing_plan_id":"cebpf4jnsgd1na2vs0mg"},{"bike_id":"e0bb6494-3107-45d5-bf57-d23876a00455","system_id":"levelo_inurba_marseille","lat":43.21197,"lon":5.35067,"is_reserved":false,"is_disabled":false,"rental_uris":{"android":"levelo://app?vid=e0bb6494-3107-45d5-bf57-d23876a00455","ios":"levelo://app?vid=e0bb6494-3107-45d5-bf57-d23876a00455"},"vehicle_type_id":"4","last_reported":1779071178,"current_range_meters":6000,"station_id":"st_cvj6sg6p6f1abm77japg","pricing_plan_id":"cebpf4jnsgd1na2vs0mg"},{"bike_id":"f1f7fb90-be60-48a2-8089-e3c448e711d9","system_id":"levelo_inurba_marseille","lat":43.24643,"lon":5.38889,"is_reserved":false,"is_disabled":false,"rental_uris":{"android":"levelo://app?vid=f1f7fb90-be60-48a2-8089-e3c448e711d9","ios":"levelo://app?vid=f1f7fb90-be60-48a2-8089-e3c448e711d9"},"vehicle_type_id":"4","last_reported":1779071178,"current_range_meters":6000,"station_id":"ce4bhg12rcd13ifvqf60","pricing_plan_id":"cebpf4jnsgd1na2vs0mg"},{"bike_id":"383c3d15-466e-4d8a-8871-a01eca50184f","system_id":"levelo_inurba_marseille","lat":43.27824,"lon":5.39203,"is_reserved":false,"is_disabled":true,"rental_uris":{"android":"levelo://app?vid=383c3d15-466e-4d8a-8871-a01eca50184f","ios":"levelo://app?vid=383c3d15-466e-4d8a-8871-a01eca50184f"},"vehicle_type_id":"4","last_reported":1779071178,"current_range_meters":6000,"station_id":"ce4bhjp2rcd13ifvqga0","pricing_plan_id":"cebpf4jnsgd1na2vs0mg"},{"bike_id":"f262cf4f-72e2-4b37-b8fc-e600808c4245","system_id":"levelo_inurba_marseille","lat":43.32463,"lon":5.3657,"is_reserved":false,"is_disabled":false,"rental_uris":{"android":"levelo://app?vid=f262cf4f-72e2-4b37-b8fc-e600808c4245","ios":"levelo://app?vid=f262cf4f-72e2-4b37-b8fc-e600808c4245"},"vehicle_type_id":"4","last_reported":1779071178,"current_range_meters":6000,"station_id":"ce4bhs12rcd13ifvqhvg","pricing_plan_id":"cebpf4jnsgd1na2vs0mg"},{"bike_id":"975c32da-bc0e-4804-975e-028d209beec9","system_id":"levelo_inurba_marseille","lat":43.24319,"lon":5.38444,"is_reserved":false,"is_disabled":false,"rental_uris":{"android":"levelo://app?vid=975c32da-bc0e-4804-975e-028d209beec9","ios":"levelo://app?vid=975c32da-bc0e-4804-975e-028d209beec9"},"vehicle_type_id":"4","last_reported":1779071178,"current_range_meters":6000,"station_id":"","pricing_plan_id":"cebpf4jnsgd1na2vs0mg"},{"bike_id":"d69f8340-624c-4b92-9c37-234c230a2c39","system_id":"levelo_inurba_marseille","lat":43.26855,"lon":5.3948,"is_reserved":false,"is_disabled":false,"rental_uris":{"android":"levelo://app?vid=d69f8340-624c-4b92-9c37-234c230a2c39","ios":"levelo://app?vid=d69f8340-624c-4b92-9c37-234c230a2c39"},"vehicle_type_id":"4","last_reported":1779071178,"current_range_meters":6000,"station_id":"","pricing_plan_id":"cebpf4jnsgd1na2vs0mg"},{"bike_id":"442d25f5-ee87-4d25-ae0b-f36831517685","system_id":"levelo_inurba_marseille","lat":43.26388,"lon":5.41036,"is_reserved":false,"is_disabled":false,"rental_uris":{"android":"levelo://app?vid=442d25f5-ee87-4d25-ae0b-f36831517685","ios":"levelo://app?vid=442d25f5-ee87-4d25-ae0b-f36831517685"},"vehicle_type_id":"4","last_reported":1779071178,"current_range_meters":6000,"station_id":"st_d4e5ca6na9uc73bfl5fg","pricing_plan_id":"cebpf4jnsgd1na2vs0mg"},{"bike_id":"f59c7161-21bd-43e4-8c60-3bc55c092ecb","system_id":"levelo_inurba_marseille","lat":43.30262,"lon":5.4007,"is_reserved":false,"is_disabled":false,"rental_uris":{"android":"levelo://app?vid=f59c7161-21bd-43e4-8c60-3bc55c092ecb","ios":"levelo://app?vid=f59c7161-21bd-43e4-8c60-3bc55c092ecb"},"vehicle_type_id":"4","last_reported":1779071178,"current_range_meters":6000,"station_id":"ce4bgvh2rcd13ifvqcs0","pricing_plan_id":"cebpf4jnsgd1na2vs0mg"},{"bike_id":"db751bc9-a69e-40db-9518-549c75ff7b61","system_id":"levelo_inurba_marseille","lat":43.23192,"lon":5.40003,"is_reserved":false,"is_disabled":false,"rental_uris":{"android":"levelo://app?vid=db751bc9-a69e-40db-9518-549c75ff7b61","ios":"levelo://app?vid=db751bc9-a69e-40db-9518-549c75ff7b61"},"vehicle_type_id":"4","last_reported":1779071178,"current_range_meters":6000,"station_id":"ce4bhn12rcd13ifvqgqg","pricing_plan_id":"cebpf4jnsgd1na2vs0mg"},{"bike_id":"2cd48a35-42f5-4905-a545-77ef65266664","system_id":"levelo_inurba_marseille","lat":43.29664,"lon":5.37769,"is_reserved":false,"is_disabled":false,"rental_uris":{"android":"levelo://app?vid=2cd48a35-42f5-4905-a545-77ef65266664","ios":"levelo://app?vid=2cd48a35-42f5-4905-a545-77ef65266664"},"vehicle_type_id":"4","last_reported":1779071178,"current_range_meters":6400,"station_id":"","pricing_plan_id":"cebpf4jnsgd1na2vs0mg"},{"bike_id":"0653cc9c-ee76-4190-9468-b41e06261835","system_id":"levelo_inurba_marseille","lat":43.28015,"lon":5.4002,"is_reserved":false,"is_disabled":false,"rental_uris":{"android":"levelo://app?vid=0653cc9c-ee76-4190-9468-b41e06261835","ios":"levelo://app?vid=0653cc9c-ee76-4190-9468-b41e06261835"},"vehicle_type_id":"4","last_reported":1779071178,"current_range_meters":6400,"station_id":"ce4bho92rcd13ifvqh4g","pricing_plan_id":"cebpf4jnsgd1na2vs0mg"},{"bike_id":"a9fc6d07-7edc-4f60-8bd9-a9fed771cb2d","system_id":"levelo_inurba_marseille","lat":43.29593,"lon":5.36745,"is_reserved":false,"is_disabled":false,"rental_uris":{"android":"levelo://app?vid=a9fc6d07-7edc-4f60-8bd9-a9fed771cb2d","ios":"levelo://app?vid=a9fc6d07-7edc-4f60-8bd9-a9fed771cb2d"},"vehicle_type_id":"4","last_reported":1779071178,"current_range_meters":6400,"station_id":"ce4bgph2rcd13ifvqc2g","pricing_plan_id":"cebpf4jnsgd1na2vs0mg"},{"bike_id":"40f74f74-2d6c-4b4c-b136-34ac295e635a","system_id":"levelo_inurba_marseille","lat":43.26539,"lon":5.37313,"is_reserved":false,"is_disabled":false,"rental_uris":{"android":"levelo://app?vid=40f74f74-2d6c-4b4c-b136-34ac295e635a","ios":"levelo://app?vid=40f74f74-2d6c-4b4c-b136-34ac295e635a"},"vehicle_type_id":"4","last_reported":1779071178,"current_range_meters":6400,"station_id":"ce4bhg12rcd13ifvqf70","pricing_plan_id":"cebpf4jnsgd1na2vs0mg"},{"bike_id":"e3c732ea-c110-47ac-a22b-470a9e3a6943","system_id":"levelo_inurba_marseille","lat":43.30972,"lon":5.39079,"is_reserved":false,"is_disabled":true,"rental_uris":{"android":"levelo://app?vid=e3c732ea-c110-47ac-a22b-470a9e3a6943","ios":"levelo://app?vid=e3c732ea-c110-47ac-a22b-470a9e3a6943"},"vehicle_type_id":"4","last_reported":1779071178,"current_range_meters":6400,"station_id":"ce4bgup2rcd13ifvqco0","pricing_plan_id":"cebpf4jnsgd1na2vs0mg"},{"bike_id":"9abe2848-1087-4066-b606-b619af5b8a5a","system_id":"levelo_inurba_marseille","lat":43.30205,"lon":5.3947,"is_reserved":false,"is_disabled":false,"rental_uris":{"android":"levelo://app?vid=9abe2848-1087-4066-b606-b619af5b8a5a","ios":"levelo://app?vid=9abe2848-1087-4066-b606-b619af5b8a5a"},"vehicle_type_id":"4","last_reported":1779071178,"current_range_meters":6400,"station_id":"ce4bh0p2rcd13ifvqd70","pricing_plan_id":"cebpf4jnsgd1na2vs0mg"},{"bike_id":"7c8d919c-3131-49ff-a1de-5b70b4f3d8cd","system_id":"levelo_inurba_marseille","lat":43.24955,"lon":5.40487,"is_reserved":false,"is_disabled":false,"rental_uris":{"android":"levelo://app?vid=7c8d919c-3131-49ff-a1de-5b70b4f3d8cd","ios":"levelo://app?vid=7c8d919c-3131-49ff-a1de-5b70b4f3d8cd"},"vehicle_type_id":"4","last_reported":1779071178,"current_range_meters":6400,"station_id":"st_d2ngiaodas8pm72gd1h0","pricing_plan_id":"cebpf4jnsgd1na2vs0mg"},{"bike_id":"d4e5493c-beb0-44dd-8026-90bced6da08c","system_id":"levelo_inurba_marseille","lat":43.337444,"lon":5.374475,"is_reserved":false,"is_disabled":false,"rental_uris":{"android":"levelo://app?vid=d4e5493c-beb0-44dd-8026-90bced6da08c","ios":"levelo://app?vid=d4e5493c-beb0-44dd-8026-90bced6da08c"},"vehicle_type_id":"4","last_reported":1779071178,"current_range_meters":6400,"station_id":"","pricing_plan_id":"cebpf4jnsgd1na2vs0mg"},{"bike_id":"954afde0-1918-4c55-84e0-90d945ace172","system_id":"levelo_inurba_marseille","lat":43.28418,"lon":5.3755,"is_reserved":false,"is_disabled":false,"rental_uris":{"android":"levelo://app?vid=954afde0-1918-4c55-84e0-90d945ace172","ios":"levelo://app?vid=954afde0-1918-4c55-84e0-90d945ace172"},"vehicle_type_id":"4","last_reported":1779071178,"current_range_meters":6400,"station_id":"ce4bh412rcd13ifvqds0","pricing_plan_id":"cebpf4jnsgd1na2vs0mg"},{"bike_id":"d6fd37f0-c381-45ab-a4cb-251bbb7687f0","system_id":"levelo_inurba_marseille","lat":43.31268,"lon":5.36854,"is_reserved":false,"is_disabled":false,"rental_uris":{"android":"levelo://app?vid=d6fd37f0-c381-45ab-a4cb-251bbb7687f0","ios":"levelo://app?vid=d6fd37f0-c381-45ab-a4cb-251bbb7687f0"},"vehicle_type_id":"4","last_reported":1779071178,"current_range_meters":6400,"station_id":"ce4bgl92rcd13ifvqbq0","pricing_plan_id":"cebpf4jnsgd1na2vs0mg"},{"bike_id":"c3f0931a-b98e-4ec6-aa39-67278fb8aaff","system_id":"levelo_inurba_marseille","lat":43.31901,"lon":5.36796,"is_reserved":false,"is_disabled":false,"rental_uris":{"android":"levelo://app?vid=c3f0931a-b98e-4ec6-aa39-67278fb8aaff","ios":"levelo://app?vid=c3f0931a-b98e-4ec6-aa39-67278fb8aaff"},"vehicle_type_id":"4","last_reported":1779071178,"current_range_meters":6800,"station_id":"st_d6o2h0d0559c73evc1b0","pricing_plan_id":"cebpf4jnsgd1na2vs0mg"},{"bike_id":"7361a77a-14ff-4601-9191-51d1c23d1a3b","system_id":"levelo_inurba_marseille","lat":43.26583,"lon":5.39669,"is_reserved":false,"is_disabled":false,"rental_uris":{"android":"levelo://app?vid=7361a77a-14ff-4601-9191-51d1c23d1a3b","ios":"levelo://app?vid=7361a77a-14ff-4601-9191-51d1c23d1a3b"},"vehicle_type_id":"4","last_reported":1779071178,"current_range_meters":6800,"station_id":"","pricing_plan_id":"cebpf4jnsgd1na2vs0mg"},{"bike_id":"a37c765c-5ae2-49cd-bd99-2c0aa0db5f69","system_id":"levelo_inurba_marseille","lat":43.31712,"lon":5.40478,"is_reserved":false,"is_disabled":false,"rental_uris":{"android":"levelo://app?vid=a37c765c-5ae2-49cd-bd99-2c0aa0db5f69","ios":"levelo://app?vid=a37c765c-5ae2-49cd-bd99-2c0aa0db5f69"},"vehicle_type_id":"4","last_reported":1779071178,"current_range_meters":6800,"station_id":"ce4bh012rcd13ifvqd00","pricing_plan_id":"cebpf4jnsgd1na2vs0mg"},{"bike_id":"b8dde72b-f81f-4599-b802-b9494d90c5ca","system_id":"levelo_inurba_marseille","lat":43.27993,"lon":5.40014,"is_reserved":false,"is_disabled":false,"rental_uris":{"android":"levelo://app?vid=b8dde72b-f81f-4599-b802-b9494d90c5ca","ios":"levelo://app?vid=b8dde72b-f81f-4599-b802-b9494d90c5ca"},"vehicle_type_id":"4","last_reported":1779071178,"current_range_meters":6800,"station_id":"ce4bho92rcd13ifvqh4g","pricing_plan_id":"cebpf4jnsgd1na2vs0mg"},{"bike_id":"7df43883-c1e0-4da1-a102-d45e33555e9a","system_id":"levelo_inurba_marseille","lat":43.30209,"lon":5.39915,"is_reserved":false,"is_disabled":false,"rental_uris":{"android":"levelo://app?vid=7df43883-c1e0-4da1-a102-d45e33555e9a","ios":"levelo://app?vid=7df43883-c1e0-4da1-a102-d45e33555e9a"},"vehicle_type_id":"4","last_reported":1779071178,"current_range_meters":6800,"station_id":"","pricing_plan_id":"cebpf4jnsgd1na2vs0mg"},{"bike_id":"3ae4ae59-23d9-4497-b29e-5a0624077ddc","system_id":"levelo_inurba_marseille","lat":43.21176,"lon":5.35096,"is_reserved":false,"is_disabled":false,"rental_uris":{"android":"levelo://app?vid=3ae4ae59-23d9-4497-b29e-5a0624077ddc","ios":"levelo://app?vid=3ae4ae59-23d9-4497-b29e-5a0624077ddc"},"vehicle_type_id":"4","last_reported":1779071178,"current_range_meters":6800,"station_id":"st_cvj6sg6p6f1abm77japg","pricing_plan_id":"cebpf4jnsgd1na2vs0mg"},{"bike_id":"8b48a820-6d69-4b9c-8d09-87369418f7df","system_id":"levelo_inurba_marseille","lat":43.24813,"lon":5.37471,"is_reserved":false,"is_disabled":false,"rental_uris":{"android":"levelo://app?vid=8b48a820-6d69-4b9c-8d09-87369418f7df","ios":"levelo://app?vid=8b48a820-6d69-4b9c-8d09-87369418f7df"},"vehicle_type_id":"4","last_reported":1779071178,"current_range_meters":6800,"station_id":"ce4bhgh2rcd13ifvqfb0","pricing_plan_id":"cebpf4jnsgd1na2vs0mg"},{"bike_id":"36dbd5c1-ebea-44c2-904d-c22e6829467f","system_id":"levelo_inurba_marseille","lat":43.28276,"lon":5.35065,"is_reserved":false,"is_disabled":true,"rental_uris":{"android":"levelo://app?vid=36dbd5c1-ebea-44c2-904d-c22e6829467f","ios":"levelo://app?vid=36dbd5c1-ebea-44c2-904d-c22e6829467f"},"vehicle_type_id":"4","last_reported":1779071178,"current_range_meters":6800,"station_id":"ce4bhbp2rcd13ifvqerg","pricing_plan_id":"cebpf4jnsgd1na2vs0mg"},{"bike_id":"4bfa6e69-e134-4175-94d9-9af7b3c312bd","system_id":"levelo_inurba_marseille","lat":43.24654,"lon":5.41618,"is_reserved":false,"is_disabled":false,"rental_uris":{"android":"levelo://app?vid=4bfa6e69-e134-4175-94d9-9af7b3c312bd","ios":"levelo://app?vid=4bfa6e69-e134-4175-94d9-9af7b3c312bd"},"vehicle_type_id":"4","last_reported":1779071178,"current_range_meters":6800,"station_id":"","pricing_plan_id":"cebpf4jnsgd1na2vs0mg"},{"bike_id":"e09fc845-acb9-4182-a012-74ab3070d472","system_id":"levelo_inurba_marseille","lat":43.30393,"lon":5.41339,"is_reserved":false,"is_disabled":false,"rental_uris":{"android":"levelo://app?vid=e09fc845-acb9-4182-a012-74ab3070d472","ios":"levelo://app?vid=e09fc845-acb9-4182-a012-74ab3070d472"},"vehicle_type_id":"4","last_reported":1779071178,"current_range_meters":6800,"station_id":"ce4bhop2rcd13ifvqh8g","pricing_plan_id":"cebpf4jnsgd1na2vs0mg"},{"bike_id":"68bc3ef2-95fd-44cb-9820-eb8fad69dbcd","system_id":"levelo_inurba_marseille","lat":43.29878,"lon":5.38898,"is_reserved":false,"is_disabled":false,"rental_uris":{"android":"levelo://app?vid=68bc3ef2-95fd-44cb-9820-eb8fad69dbcd","ios":"levelo://app?vid=68bc3ef2-95fd-44cb-9820-eb8fad69dbcd"},"vehicle_type_id":"4","last_reported":1779071178,"current_range_meters":6800,"station_id":"ce4bh392rcd13ifvqdl0","pricing_plan_id":"cebpf4jnsgd1na2vs0mg"},{"bike_id":"c40b2763-b8ba-48e1-895b-77c372fb180e","system_id":"levelo_inurba_marseille","lat":43.29813,"lon":5.41693,"is_reserved":false,"is_disabled":false,"rental_uris":{"android":"levelo://app?vid=c40b2763-b8ba-48e1-895b-77c372fb180e","ios":"levelo://app?vid=c40b2763-b8ba-48e1-895b-77c372fb180e"},"vehicle_type_id":"4","last_reported":1779071178,"current_range_meters":6800,"station_id":"","pricing_plan_id":"cebpf4jnsgd1na2vs0mg"},{"bike_id":"2ada72d8-d1c3-4ec8-812f-8b5c1ee6feff","system_id":"levelo_inurba_marseille","lat":43.28678,"lon":5.36344,"is_reserved":false,"is_disabled":false,"rental_uris":{"android":"levelo://app?vid=2ada72d8-d1c3-4ec8-812f-8b5c1ee6feff","ios":"levelo://app?vid=2ada72d8-d1c3-4ec8-812f-8b5c1ee6feff"},"vehicle_type_id":"4","last_reported":1779071178,"current_range_meters":6800,"station_id":"ce4bhah2rcd13ifvqej0","pricing_plan_id":"cebpf4jnsgd1na2vs0mg"},{"bike_id":"91358317-7e6f-4ec7-9a09-ece832f095a8","system_id":"levelo_inurba_marseille","lat":43.26372,"lon":5.41079,"is_reserved":false,"is_disabled":false,"rental_uris":{"android":"levelo://app?vid=91358317-7e6f-4ec7-9a09-ece832f095a8","ios":"levelo://app?vid=91358317-7e6f-4ec7-9a09-ece832f095a8"},"vehicle_type_id":"4","last_reported":1779071178,"current_range_meters":6800,"station_id":"st_d4e5ca6na9uc73bfl5fg","pricing_plan_id":"cebpf4jnsgd1na2vs0mg"},{"bike_id":"3b1fac7e-bb0d-4512-ba87-baefa0eca969","system_id":"levelo_inurba_marseille","lat":43.2505,"lon":5.39631,"is_reserved":false,"is_disabled":false,"rental_uris":{"android":"levelo://app?vid=3b1fac7e-bb0d-4512-ba87-baefa0eca969","ios":"levelo://app?vid=3b1fac7e-bb0d-4512-ba87-baefa0eca969"},"vehicle_type_id":"4","last_reported":1779071178,"current_range_meters":7200,"station_id":"","pricing_plan_id":"cebpf4jnsgd1na2vs0mg"},{"bike_id":"f023083b-549c-49fd-b5c5-dae1366cc4b8","system_id":"levelo_inurba_marseille","lat":43.23977,"lon":5.3661,"is_reserved":false,"is_disabled":false,"rental_uris":{"android":"levelo://app?vid=f023083b-549c-49fd-b5c5-dae1366cc4b8","ios":"levelo://app?vid=f023083b-549c-49fd-b5c5-dae1366cc4b8"},"vehicle_type_id":"4","last_reported":1779071178,"current_range_meters":7200,"station_id":"ce4bhi12rcd13ifvqfp0","pricing_plan_id":"cebpf4jnsgd1na2vs0mg"},{"bike_id":"05ada3a6-0182-4603-b475-bce553c6af12","system_id":"levelo_inurba_marseille","lat":43.25568,"lon":5.38245,"is_reserved":false,"is_disabled":false,"rental_uris":{"android":"levelo://app?vid=05ada3a6-0182-4603-b475-bce553c6af12","ios":"levelo://app?vid=05ada3a6-0182-4603-b475-bce553c6af12"},"vehicle_type_id":"4","last_reported":1779071178,"current_range_meters":7200,"station_id":"ce4bhih2rcd13ifvqfs0","pricing_plan_id":"cebpf4jnsgd1na2vs0mg"},{"bike_id":"60f91493-2198-4320-a4bd-f5b1f899c535","system_id":"levelo_inurba_marseille","lat":43.27911,"lon":5.39593,"is_reserved":false,"is_disabled":false,"rental_uris":{"android":"levelo://app?vid=60f91493-2198-4320-a4bd-f5b1f899c535","ios":"levelo://app?vid=60f91493-2198-4320-a4bd-f5b1f899c535"},"vehicle_type_id":"4","last_reported":1779071178,"current_range_meters":7200,"station_id":"ce4bhf92rcd13ifvqf40","pricing_plan_id":"cebpf4jnsgd1na2vs0mg"},{"bike_id":"38170eab-f94b-4e19-9e49-18db0df3e8da","system_id":"levelo_inurba_marseille","lat":43.239647,"lon":5.366361,"is_reserved":false,"is_disabled":false,"rental_uris":{"android":"levelo://app?vid=38170eab-f94b-4e19-9e49-18db0df3e8da","ios":"levelo://app?vid=38170eab-f94b-4e19-9e49-18db0df3e8da"},"vehicle_type_id":"4","last_reported":1779071178,"current_range_meters":7200,"station_id":"ce4bhi12rcd13ifvqfp0","pricing_plan_id":"cebpf4jnsgd1na2vs0mg"},{"bike_id":"7b6b191c-2196-4eff-a204-e6551d1afb89","system_id":"levelo_inurba_marseille","lat":43.27064,"lon":5.38331,"is_reserved":false,"is_disabled":false,"rental_uris":{"android":"levelo://app?vid=7b6b191c-2196-4eff-a204-e6551d1afb89","ios":"levelo://app?vid=7b6b191c-2196-4eff-a204-e6551d1afb89"},"vehicle_type_id":"4","last_reported":1779071178,"current_range_meters":7200,"station_id":"st_d3n2fo6cfp8s73cte1j0","pricing_plan_id":"cebpf4jnsgd1na2vs0mg"},{"bike_id":"982c83ce-39cc-44c7-acf6-9d12e5e39673","system_id":"levelo_inurba_marseille","lat":43.28611,"lon":5.39922,"is_reserved":false,"is_disabled":false,"rental_uris":{"android":"levelo://app?vid=982c83ce-39cc-44c7-acf6-9d12e5e39673","ios":"levelo://app?vid=982c83ce-39cc-44c7-acf6-9d12e5e39673"},"vehicle_type_id":"4","last_reported":1779071178,"current_range_meters":7200,"station_id":"st_d4a7ka997mjs738ck50g","pricing_plan_id":"cebpf4jnsgd1na2vs0mg"},{"bike_id":"3b6b498c-50c0-4e2a-a27e-00b316f42ae6","system_id":"levelo_inurba_marseille","lat":43.24171,"lon":5.36398,"is_reserved":false,"is_disabled":true,"rental_uris":{"android":"levelo://app?vid=3b6b498c-50c0-4e2a-a27e-00b316f42ae6","ios":"levelo://app?vid=3b6b498c-50c0-4e2a-a27e-00b316f42ae6"},"vehicle_type_id":"4","last_reported":1779071178,"current_range_meters":7200,"station_id":"cpo36qri1sfpv3e86is0","pricing_plan_id":"cebpf4jnsgd1na2vs0mg"},{"bike_id":"139c03ce-3b69-40e9-aa02-266d7d0e5627","system_id":"levelo_inurba_marseille","lat":43.288587,"lon":5.425307,"is_reserved":false,"is_disabled":false,"rental_uris":{"android":"levelo://app?vid=139c03ce-3b69-40e9-aa02-266d7d0e5627","ios":"levelo://app?vid=139c03ce-3b69-40e9-aa02-266d7d0e5627"},"vehicle_type_id":"4","last_reported":1779071178,"current_range_meters":7200,"station_id":"st_d3b462108ojc7389ooeg","pricing_plan_id":"cebpf4jnsgd1na2vs0mg"},{"bike_id":"9e4605bd-fb5f-4dea-85c6-6d392142aaa8","system_id":"levelo_inurba_marseille","lat":43.29753,"lon":5.41612,"is_reserved":false,"is_disabled":false,"rental_uris":{"android":"levelo://app?vid=9e4605bd-fb5f-4dea-85c6-6d392142aaa8","ios":"levelo://app?vid=9e4605bd-fb5f-4dea-85c6-6d392142aaa8"},"vehicle_type_id":"4","last_reported":1779071178,"current_range_meters":7200,"station_id":"","pricing_plan_id":"cebpf4jnsgd1na2vs0mg"},{"bike_id":"31876785-fbd3-4ff1-9fef-682d60c63a40","system_id":"levelo_inurba_marseille","lat":43.29253,"lon":5.40125,"is_reserved":false,"is_disabled":false,"rental_uris":{"android":"levelo://app?vid=31876785-fbd3-4ff1-9fef-682d60c63a40","ios":"levelo://app?vid=31876785-fbd3-4ff1-9fef-682d60c63a40"},"vehicle_type_id":"4","last_reported":1779071178,"current_range_meters":7200,"station_id":"ce4bh312rcd13ifvqdk0","pricing_plan_id":"cebpf4jnsgd1na2vs0mg"},{"bike_id":"55fd0741-f693-4c0e-bc61-157606e04439","system_id":"levelo_inurba_marseille","lat":43.32569,"lon":5.39935,"is_reserved":false,"is_disabled":false,"rental_uris":{"android":"levelo://app?vid=55fd0741-f693-4c0e-bc61-157606e04439","ios":"levelo://app?vid=55fd0741-f693-4c0e-bc61-157606e04439"},"vehicle_type_id":"4","last_reported":1779071178,"current_range_meters":7200,"station_id":"","pricing_plan_id":"cebpf4jnsgd1na2vs0mg"},{"bike_id":"cf27e955-0a06-415c-b8ef-4a3adbe0d78d","system_id":"levelo_inurba_marseille","lat":43.22554,"lon":5.41632,"is_reserved":false,"is_disabled":false,"rental_uris":{"android":"levelo://app?vid=cf27e955-0a06-415c-b8ef-4a3adbe0d78d","ios":"levelo://app?vid=cf27e955-0a06-415c-b8ef-4a3adbe0d78d"},"vehicle_type_id":"4","last_reported":1779071178,"current_range_meters":7200,"station_id":"st_d2o4gvlbi1j2169b742g","pricing_plan_id":"cebpf4jnsgd1na2vs0mg"},{"bike_id":"9d18dc58-248c-49c8-a233-5fa2af77daec","system_id":"levelo_inurba_marseille","lat":43.28633,"lon":5.37795,"is_reserved":false,"is_disabled":false,"rental_uris":{"android":"levelo://app?vid=9d18dc58-248c-49c8-a233-5fa2af77daec","ios":"levelo://app?vid=9d18dc58-248c-49c8-a233-5fa2af77daec"},"vehicle_type_id":"4","last_reported":1779071178,"current_range_meters":7200,"station_id":"","pricing_plan_id":"cebpf4jnsgd1na2vs0mg"},{"bike_id":"6f02c462-5be8-4fd9-bd86-49563918d3d3","system_id":"levelo_inurba_marseille","lat":43.31929,"lon":5.36845,"is_reserved":false,"is_disabled":false,"rental_uris":{"android":"levelo://app?vid=6f02c462-5be8-4fd9-bd86-49563918d3d3","ios":"levelo://app?vid=6f02c462-5be8-4fd9-bd86-49563918d3d3"},"vehicle_type_id":"4","last_reported":1779071178,"current_range_meters":7200,"station_id":"","pricing_plan_id":"cebpf4jnsgd1na2vs0mg"},{"bike_id":"a35cea59-0baa-40b4-a92b-d90605140752","system_id":"levelo_inurba_marseille","lat":43.29578,"lon":5.38119,"is_reserved":false,"is_disabled":false,"rental_uris":{"android":"levelo://app?vid=a35cea59-0baa-40b4-a92b-d90605140752","ios":"levelo://app?vid=a35cea59-0baa-40b4-a92b-d90605140752"},"vehicle_type_id":"4","last_reported":1779071178,"current_range_meters":7200,"station_id":"ce4bgl12rcd13ifvqbo0","pricing_plan_id":"cebpf4jnsgd1na2vs0mg"},{"bike_id":"6d075009-f033-4cb4-a689-a3c374a9cf0d","system_id":"levelo_inurba_marseille","lat":43.27865,"lon":5.38592,"is_reserved":false,"is_disabled":false,"rental_uris":{"android":"levelo://app?vid=6d075009-f033-4cb4-a689-a3c374a9cf0d","ios":"levelo://app?vid=6d075009-f033-4cb4-a689-a3c374a9cf0d"},"vehicle_type_id":"4","last_reported":1779071178,"current_range_meters":7200,"station_id":"","pricing_plan_id":"cebpf4jnsgd1na2vs0mg"},{"bike_id":"b92a21d3-7b69-445c-a358-48cd346a6e33","system_id":"levelo_inurba_marseille","lat":43.2396,"lon":5.36616,"is_reserved":false,"is_disabled":false,"rental_uris":{"android":"levelo://app?vid=b92a21d3-7b69-445c-a358-48cd346a6e33","ios":"levelo://app?vid=b92a21d3-7b69-445c-a358-48cd346a6e33"},"vehicle_type_id":"4","last_reported":1779071178,"current_range_meters":7200,"station_id":"ce4bhi12rcd13ifvqfp0","pricing_plan_id":"cebpf4jnsgd1na2vs0mg"},{"bike_id":"350f0fe8-39d6-4df9-9091-5088e71d702c","system_id":"levelo_inurba_marseille","lat":43.24948,"lon":5.40496,"is_reserved":false,"is_disabled":false,"rental_uris":{"android":"levelo://app?vid=350f0fe8-39d6-4df9-9091-5088e71d702c","ios":"levelo://app?vid=350f0fe8-39d6-4df9-9091-5088e71d702c"},"vehicle_type_id":"4","last_reported":1779071178,"current_range_meters":7200,"station_id":"st_d2ngiaodas8pm72gd1h0","pricing_plan_id":"cebpf4jnsgd1na2vs0mg"},{"bike_id":"e480fd22-7226-47e4-9645-c36013d96dda","system_id":"levelo_inurba_marseille","lat":43.22567,"lon":5.41642,"is_reserved":false,"is_disabled":false,"rental_uris":{"android":"levelo://app?vid=e480fd22-7226-47e4-9645-c36013d96dda","ios":"levelo://app?vid=e480fd22-7226-47e4-9645-c36013d96dda"},"vehicle_type_id":"4","last_reported":1779071178,"current_range_meters":7200,"station_id":"st_d2o4gvlbi1j2169b742g","pricing_plan_id":"cebpf4jnsgd1na2vs0mg"},{"bike_id":"bb0fb0c4-d920-4cac-9810-3ca69427fb0f","system_id":"levelo_inurba_marseille","lat":43.28916,"lon":5.36615,"is_reserved":false,"is_disabled":false,"rental_uris":{"android":"levelo://app?vid=bb0fb0c4-d920-4cac-9810-3ca69427fb0f","ios":"levelo://app?vid=bb0fb0c4-d920-4cac-9810-3ca69427fb0f"},"vehicle_type_id":"4","last_reported":1779071178,"current_range_meters":7200,"station_id":"ce4bhap2rcd13ifvqek0","pricing_plan_id":"cebpf4jnsgd1na2vs0mg"},{"bike_id":"df9b7d78-609d-4371-bfae-2834693c948b","system_id":"levelo_inurba_marseille","lat":43.29191,"lon":5.39323,"is_reserved":false,"is_disabled":false,"rental_uris":{"android":"levelo://app?vid=df9b7d78-609d-4371-bfae-2834693c948b","ios":"levelo://app?vid=df9b7d78-609d-4371-bfae-2834693c948b"},"vehicle_type_id":"4","last_reported":1779071178,"current_range_meters":7200,"station_id":"ce4bh192rcd13ifvqdd0","pricing_plan_id":"cebpf4jnsgd1na2vs0mg"},{"bike_id":"4fc79a0b-a889-4b07-94ad-10d4b0f67722","system_id":"levelo_inurba_marseille","lat":43.29556,"lon":5.42276,"is_reserved":false,"is_disabled":false,"rental_uris":{"android":"levelo://app?vid=4fc79a0b-a889-4b07-94ad-10d4b0f67722","ios":"levelo://app?vid=4fc79a0b-a889-4b07-94ad-10d4b0f67722"},"vehicle_type_id":"4","last_reported":1779071178,"current_range_meters":7200,"station_id":"ce4bhph2rcd13ifvqhdg","pricing_plan_id":"cebpf4jnsgd1na2vs0mg"},{"bike_id":"32f85f5f-b69c-4a87-beeb-2bb2eb4b3d3b","system_id":"levelo_inurba_marseille","lat":43.32102,"lon":5.36773,"is_reserved":false,"is_disabled":false,"rental_uris":{"android":"levelo://app?vid=32f85f5f-b69c-4a87-beeb-2bb2eb4b3d3b","ios":"levelo://app?vid=32f85f5f-b69c-4a87-beeb-2bb2eb4b3d3b"},"vehicle_type_id":"4","last_reported":1779071178,"current_range_meters":7200,"station_id":"ce4bhrh2rcd13ifvqhug","pricing_plan_id":"cebpf4jnsgd1na2vs0mg"},{"bike_id":"2ff20ed5-be39-446e-879e-77efef83c760","system_id":"levelo_inurba_marseille","lat":43.2869,"lon":5.46692,"is_reserved":false,"is_disabled":false,"rental_uris":{"android":"levelo://app?vid=2ff20ed5-be39-446e-879e-77efef83c760","ios":"levelo://app?vid=2ff20ed5-be39-446e-879e-77efef83c760"},"vehicle_type_id":"4","last_reported":1779071178,"current_range_meters":7200,"station_id":"st_d6tc3vkotcvc738tfjhg","pricing_plan_id":"cebpf4jnsgd1na2vs0mg"},{"bike_id":"59b2432e-f424-4c75-ba04-57a073a9c3ce","system_id":"levelo_inurba_marseille","lat":43.31339,"lon":5.44105,"is_reserved":false,"is_disabled":false,"rental_uris":{"android":"levelo://app?vid=59b2432e-f424-4c75-ba04-57a073a9c3ce","ios":"levelo://app?vid=59b2432e-f424-4c75-ba04-57a073a9c3ce"},"vehicle_type_id":"4","last_reported":1779071178,"current_range_meters":7200,"station_id":"","pricing_plan_id":"cebpf4jnsgd1na2vs0mg"},{"bike_id":"86f1dc22-88fd-48a5-9fbe-a5776408d581","system_id":"levelo_inurba_marseille","lat":43.29995,"lon":5.37174,"is_reserved":false,"is_disabled":false,"rental_uris":{"android":"levelo://app?vid=86f1dc22-88fd-48a5-9fbe-a5776408d581","ios":"levelo://app?vid=86f1dc22-88fd-48a5-9fbe-a5776408d581"},"vehicle_type_id":"4","last_reported":1779071178,"current_range_meters":7200,"station_id":"ce4bgr92rcd13ifvqc7g","pricing_plan_id":"cebpf4jnsgd1na2vs0mg"},{"bike_id":"ca8deebd-3892-4cd3-95b9-93993366f63e","system_id":"levelo_inurba_marseille","lat":43.26198,"lon":5.40429,"is_reserved":false,"is_disabled":true,"rental_uris":{"android":"levelo://app?vid=ca8deebd-3892-4cd3-95b9-93993366f63e","ios":"levelo://app?vid=ca8deebd-3892-4cd3-95b9-93993366f63e"},"vehicle_type_id":"4","last_reported":1779071178,"current_range_meters":7200,"station_id":"ce4bhmh2rcd13ifvqgmg","pricing_plan_id":"cebpf4jnsgd1na2vs0mg"},{"bike_id":"d052ee41-af9a-4344-9b91-3e497122f672","system_id":"levelo_inurba_marseille","lat":43.28138,"lon":5.42648,"is_reserved":false,"is_disabled":false,"rental_uris":{"android":"levelo://app?vid=d052ee41-af9a-4344-9b91-3e497122f672","ios":"levelo://app?vid=d052ee41-af9a-4344-9b91-3e497122f672"},"vehicle_type_id":"4","last_reported":1779071178,"current_range_meters":7200,"station_id":"ce4bhnh2rcd13ifvqgug","pricing_plan_id":"cebpf4jnsgd1na2vs0mg"},{"bike_id":"ff330b01-1f36-42eb-95f5-912102a1304b","system_id":"levelo_inurba_marseille","lat":43.31214,"lon":5.3782,"is_reserved":false,"is_disabled":false,"rental_uris":{"android":"levelo://app?vid=ff330b01-1f36-42eb-95f5-912102a1304b","ios":"levelo://app?vid=ff330b01-1f36-42eb-95f5-912102a1304b"},"vehicle_type_id":"4","last_reported":1779071178,"current_range_meters":7200,"station_id":"","pricing_plan_id":"cebpf4jnsgd1na2vs0mg"},{"bike_id":"6eaf0be9-907a-44b3-806b-23a3536b38d4","system_id":"levelo_inurba_marseille","lat":43.29759,"lon":5.39376,"is_reserved":false,"is_disabled":false,"rental_uris":{"android":"levelo://app?vid=6eaf0be9-907a-44b3-806b-23a3536b38d4","ios":"levelo://app?vid=6eaf0be9-907a-44b3-806b-23a3536b38d4"},"vehicle_type_id":"4","last_reported":1779071178,"current_range_meters":8000,"station_id":"chh1huq6cuj3fo74tm60","pricing_plan_id":"cebpf4jnsgd1na2vs0mg"},{"bike_id":"ed898295-d21b-4eff-a3b3-f2d79a2598bd","system_id":"levelo_inurba_marseille","lat":43.29189,"lon":5.39316,"is_reserved":false,"is_disabled":false,"rental_uris":{"android":"levelo://app?vid=ed898295-d21b-4eff-a3b3-f2d79a2598bd","ios":"levelo://app?vid=ed898295-d21b-4eff-a3b3-f2d79a2598bd"},"vehicle_type_id":"4","last_reported":1779071178,"current_range_meters":8000,"station_id":"ce4bh192rcd13ifvqdd0","pricing_plan_id":"cebpf4jnsgd1na2vs0mg"},{"bike_id":"c1224642-d4b6-4364-9e15-5ab4e10f334e","system_id":"levelo_inurba_marseille","lat":43.33531,"lon":5.37449,"is_reserved":false,"is_disabled":false,"rental_uris":{"android":"levelo://app?vid=c1224642-d4b6-4364-9e15-5ab4e10f334e","ios":"levelo://app?vid=c1224642-d4b6-4364-9e15-5ab4e10f334e"},"vehicle_type_id":"4","last_reported":1779071178,"current_range_meters":8000,"station_id":"st_d46tts09ee8s73dlu43g","pricing_plan_id":"cebpf4jnsgd1na2vs0mg"},{"bike_id":"da4ff507-22a4-4d29-acb9-63cb28111054","system_id":"levelo_inurba_marseille","lat":43.29285,"lon":5.40138,"is_reserved":false,"is_disabled":false,"rental_uris":{"android":"levelo://app?vid=da4ff507-22a4-4d29-acb9-63cb28111054","ios":"levelo://app?vid=da4ff507-22a4-4d29-acb9-63cb28111054"},"vehicle_type_id":"4","last_reported":1779071178,"current_range_meters":8000,"station_id":"ce4bh312rcd13ifvqdk0","pricing_plan_id":"cebpf4jnsgd1na2vs0mg"},{"bike_id":"3e21f974-f9aa-4653-83c2-4ce584ab12f5","system_id":"levelo_inurba_marseille","lat":43.30954,"lon":5.39028,"is_reserved":false,"is_disabled":false,"rental_uris":{"android":"levelo://app?vid=3e21f974-f9aa-4653-83c2-4ce584ab12f5","ios":"levelo://app?vid=3e21f974-f9aa-4653-83c2-4ce584ab12f5"},"vehicle_type_id":"4","last_reported":1779071178,"current_range_meters":8000,"station_id":"ce4bgup2rcd13ifvqco0","pricing_plan_id":"cebpf4jnsgd1na2vs0mg"},{"bike_id":"a66f92ff-0a18-4aa0-ae06-2ce2dcd954a9","system_id":"levelo_inurba_marseille","lat":43.337444,"lon":5.374475,"is_reserved":false,"is_disabled":false,"rental_uris":{"android":"levelo://app?vid=a66f92ff-0a18-4aa0-ae06-2ce2dcd954a9","ios":"levelo://app?vid=a66f92ff-0a18-4aa0-ae06-2ce2dcd954a9"},"vehicle_type_id":"4","last_reported":1779071178,"current_range_meters":8000,"station_id":"","pricing_plan_id":"cebpf4jnsgd1na2vs0mg"},{"bike_id":"5651d086-20fd-4403-83d0-940570cdc72a","system_id":"levelo_inurba_marseille","lat":43.28585,"lon":5.39442,"is_reserved":false,"is_disabled":false,"rental_uris":{"android":"levelo://app?vid=5651d086-20fd-4403-83d0-940570cdc72a","ios":"levelo://app?vid=5651d086-20fd-4403-83d0-940570cdc72a"},"vehicle_type_id":"4","last_reported":1779071178,"current_range_meters":8000,"station_id":"ce4bh292rcd13ifvqdg0","pricing_plan_id":"cebpf4jnsgd1na2vs0mg"},{"bike_id":"0212ed67-83ec-423e-9ec1-46b70d5c3816","system_id":"levelo_inurba_marseille","lat":43.3066,"lon":5.40068,"is_reserved":false,"is_disabled":false,"rental_uris":{"android":"levelo://app?vid=0212ed67-83ec-423e-9ec1-46b70d5c3816","ios":"levelo://app?vid=0212ed67-83ec-423e-9ec1-46b70d5c3816"},"vehicle_type_id":"4","last_reported":1779071178,"current_range_meters":8000,"station_id":"ce4bh112rcd13ifvqda0","pricing_plan_id":"cebpf4jnsgd1na2vs0mg"},{"bike_id":"a0e41433-0f11-4704-a094-867d9bfda51d","system_id":"levelo_inurba_marseille","lat":43.300128,"lon":5.388946,"is_reserved":false,"is_disabled":false,"rental_uris":{"android":"levelo://app?vid=a0e41433-0f11-4704-a094-867d9bfda51d","ios":"levelo://app?vid=a0e41433-0f11-4704-a094-867d9bfda51d"},"vehicle_type_id":"4","last_reported":1779071178,"current_range_meters":8000,"station_id":"","pricing_plan_id":"cebpf4jnsgd1na2vs0mg"},{"bike_id":"e7b8e8a8-726f-4158-bc8a-da283d11f755","system_id":"levelo_inurba_marseille","lat":43.26214,"lon":5.37476,"is_reserved":false,"is_disabled":false,"rental_uris":{"android":"levelo://app?vid=e7b8e8a8-726f-4158-bc8a-da283d11f755","ios":"levelo://app?vid=e7b8e8a8-726f-4158-bc8a-da283d11f755"},"vehicle_type_id":"4","last_reported":1779071178,"current_range_meters":8000,"station_id":"ce4bhgp2rcd13ifvqfc0","pricing_plan_id":"cebpf4jnsgd1na2vs0mg"},{"bike_id":"54d9f9e5-0de0-458f-b2e8-975da826d2f0","system_id":"levelo_inurba_marseille","lat":43.2945,"lon":5.39744,"is_reserved":false,"is_disabled":false,"rental_uris":{"android":"levelo://app?vid=54d9f9e5-0de0-458f-b2e8-975da826d2f0","ios":"levelo://app?vid=54d9f9e5-0de0-458f-b2e8-975da826d2f0"},"vehicle_type_id":"4","last_reported":1779071178,"current_range_meters":8000,"station_id":"ce4bh3h2rcd13ifvqdo0","pricing_plan_id":"cebpf4jnsgd1na2vs0mg"},{"bike_id":"5fcb808e-817c-4970-948b-98f3a12d54fe","system_id":"levelo_inurba_marseille","lat":43.24645,"lon":5.38171,"is_reserved":false,"is_disabled":false,"rental_uris":{"android":"levelo://app?vid=5fcb808e-817c-4970-948b-98f3a12d54fe","ios":"levelo://app?vid=5fcb808e-817c-4970-948b-98f3a12d54fe"},"vehicle_type_id":"4","last_reported":1779071178,"current_range_meters":8000,"station_id":"ce4bhih2rcd13ifvqfr0","pricing_plan_id":"cebpf4jnsgd1na2vs0mg"},{"bike_id":"c8285c1f-86d5-41f6-8319-9b80e3266155","system_id":"levelo_inurba_marseille","lat":43.24792,"lon":5.37461,"is_reserved":false,"is_disabled":false,"rental_uris":{"android":"levelo://app?vid=c8285c1f-86d5-41f6-8319-9b80e3266155","ios":"levelo://app?vid=c8285c1f-86d5-41f6-8319-9b80e3266155"},"vehicle_type_id":"4","last_reported":1779071178,"current_range_meters":8000,"station_id":"ce4bhgh2rcd13ifvqfb0","pricing_plan_id":"cebpf4jnsgd1na2vs0mg"},{"bike_id":"d38099c2-1142-42c4-85f3-f5b4b8485bfe","system_id":"levelo_inurba_marseille","lat":43.29255,"lon":5.36015,"is_reserved":false,"is_disabled":true,"rental_uris":{"android":"levelo://app?vid=d38099c2-1142-42c4-85f3-f5b4b8485bfe","ios":"levelo://app?vid=d38099c2-1142-42c4-85f3-f5b4b8485bfe"},"vehicle_type_id":"4","last_reported":1779071178,"current_range_meters":8000,"station_id":"","pricing_plan_id":"cebpf4jnsgd1na2vs0mg"},{"bike_id":"c116f9e1-b7b6-42e1-996b-569c372ff11a","system_id":"levelo_inurba_marseille","lat":43.29262,"lon":5.36829,"is_reserved":false,"is_disabled":true,"rental_uris":{"android":"levelo://app?vid=c116f9e1-b7b6-42e1-996b-569c372ff11a","ios":"levelo://app?vid=c116f9e1-b7b6-42e1-996b-569c372ff11a"},"vehicle_type_id":"4","last_reported":1779071178,"current_range_meters":8000,"station_id":"ce4bhbp2rcd13ifvqesg","pricing_plan_id":"cebpf4jnsgd1na2vs0mg"},{"bike_id":"e5d3f8e5-7fc2-4063-b550-2d1f9611ba34","system_id":"levelo_inurba_marseille","lat":43.21167,"lon":5.35115,"is_reserved":false,"is_disabled":false,"rental_uris":{"android":"levelo://app?vid=e5d3f8e5-7fc2-4063-b550-2d1f9611ba34","ios":"levelo://app?vid=e5d3f8e5-7fc2-4063-b550-2d1f9611ba34"},"vehicle_type_id":"4","last_reported":1779071178,"current_range_meters":8000,"station_id":"st_cvj6sg6p6f1abm77japg","pricing_plan_id":"cebpf4jnsgd1na2vs0mg"},{"bike_id":"cc133572-8492-48b3-9ded-a69bee23d34f","system_id":"levelo_inurba_marseille","lat":43.25334,"lon":5.41348,"is_reserved":false,"is_disabled":false,"rental_uris":{"android":"levelo://app?vid=cc133572-8492-48b3-9ded-a69bee23d34f","ios":"levelo://app?vid=cc133572-8492-48b3-9ded-a69bee23d34f"},"vehicle_type_id":"4","last_reported":1779071178,"current_range_meters":8000,"station_id":"","pricing_plan_id":"cebpf4jnsgd1na2vs0mg"},{"bike_id":"ab186b43-665e-40a5-ba53-2f582e97d90e","system_id":"levelo_inurba_marseille","lat":43.24388,"lon":5.37053,"is_reserved":false,"is_disabled":false,"rental_uris":{"android":"levelo://app?vid=ab186b43-665e-40a5-ba53-2f582e97d90e","ios":"levelo://app?vid=ab186b43-665e-40a5-ba53-2f582e97d90e"},"vehicle_type_id":"4","last_reported":1779071178,"current_range_meters":8000,"station_id":"ce4bhhh2rcd13ifvqfk0","pricing_plan_id":"cebpf4jnsgd1na2vs0mg"},{"bike_id":"56611aee-4a97-497f-a541-b301e0a4b4f4","system_id":"levelo_inurba_marseille","lat":43.33249,"lon":5.40576,"is_reserved":false,"is_disabled":false,"rental_uris":{"android":"levelo://app?vid=56611aee-4a97-497f-a541-b301e0a4b4f4","ios":"levelo://app?vid=56611aee-4a97-497f-a541-b301e0a4b4f4"},"vehicle_type_id":"4","last_reported":1779071178,"current_range_meters":8000,"station_id":"","pricing_plan_id":"cebpf4jnsgd1na2vs0mg"},{"bike_id":"f4c24d52-7b35-403b-916a-9166090c7fb9","system_id":"levelo_inurba_marseille","lat":43.28464,"lon":5.38567,"is_reserved":false,"is_disabled":false,"rental_uris":{"android":"levelo://app?vid=f4c24d52-7b35-403b-916a-9166090c7fb9","ios":"levelo://app?vid=f4c24d52-7b35-403b-916a-9166090c7fb9"},"vehicle_type_id":"4","last_reported":1779071178,"current_range_meters":8000,"station_id":"ce4bh8p2rcd13ifvqeb0","pricing_plan_id":"cebpf4jnsgd1na2vs0mg"},{"bike_id":"2dfb8d61-a819-4507-a1cd-30ecbeb78fbb","system_id":"levelo_inurba_marseille","lat":43.32466,"lon":5.36574,"is_reserved":false,"is_disabled":false,"rental_uris":{"android":"levelo://app?vid=2dfb8d61-a819-4507-a1cd-30ecbeb78fbb","ios":"levelo://app?vid=2dfb8d61-a819-4507-a1cd-30ecbeb78fbb"},"vehicle_type_id":"4","last_reported":1779071178,"current_range_meters":8000,"station_id":"ce4bhs12rcd13ifvqhvg","pricing_plan_id":"cebpf4jnsgd1na2vs0mg"},{"bike_id":"f46dc198-f447-4b28-8d13-72a1d78dd32a","system_id":"levelo_inurba_marseille","lat":43.28942,"lon":5.35499,"is_reserved":false,"is_disabled":false,"rental_uris":{"android":"levelo://app?vid=f46dc198-f447-4b28-8d13-72a1d78dd32a","ios":"levelo://app?vid=f46dc198-f447-4b28-8d13-72a1d78dd32a"},"vehicle_type_id":"4","last_reported":1779071178,"current_range_meters":8400,"station_id":"","pricing_plan_id":"cebpf4jnsgd1na2vs0mg"},{"bike_id":"dd33d9f6-cb51-466c-83d6-542cc7778413","system_id":"levelo_inurba_marseille","lat":43.26544,"lon":5.37292,"is_reserved":false,"is_disabled":false,"rental_uris":{"android":"levelo://app?vid=dd33d9f6-cb51-466c-83d6-542cc7778413","ios":"levelo://app?vid=dd33d9f6-cb51-466c-83d6-542cc7778413"},"vehicle_type_id":"4","last_reported":1779071178,"current_range_meters":8400,"station_id":"ce4bhg12rcd13ifvqf70","pricing_plan_id":"cebpf4jnsgd1na2vs0mg"},{"bike_id":"3f1e9230-0054-41dd-9adb-c5e0dd73c158","system_id":"levelo_inurba_marseille","lat":43.28634,"lon":5.39864,"is_reserved":false,"is_disabled":false,"rental_uris":{"android":"levelo://app?vid=3f1e9230-0054-41dd-9adb-c5e0dd73c158","ios":"levelo://app?vid=3f1e9230-0054-41dd-9adb-c5e0dd73c158"},"vehicle_type_id":"4","last_reported":1779071178,"current_range_meters":8400,"station_id":"st_d4a7ka997mjs738ck50g","pricing_plan_id":"cebpf4jnsgd1na2vs0mg"},{"bike_id":"939dc495-8ff1-461c-bd1b-e08a849fe42b","system_id":"levelo_inurba_marseille","lat":43.29878,"lon":5.38907,"is_reserved":false,"is_disabled":false,"rental_uris":{"android":"levelo://app?vid=939dc495-8ff1-461c-bd1b-e08a849fe42b","ios":"levelo://app?vid=939dc495-8ff1-461c-bd1b-e08a849fe42b"},"vehicle_type_id":"4","last_reported":1779071178,"current_range_meters":8400,"station_id":"ce4bh392rcd13ifvqdl0","pricing_plan_id":"cebpf4jnsgd1na2vs0mg"},{"bike_id":"60621dd8-bb25-4e93-8481-f67038336e3f","system_id":"levelo_inurba_marseille","lat":43.29192,"lon":5.36058,"is_reserved":false,"is_disabled":false,"rental_uris":{"android":"levelo://app?vid=60621dd8-bb25-4e93-8481-f67038336e3f","ios":"levelo://app?vid=60621dd8-bb25-4e93-8481-f67038336e3f"},"vehicle_type_id":"4","last_reported":1779071178,"current_range_meters":8400,"station_id":"ce4bhbh2rcd13ifvqeqg","pricing_plan_id":"cebpf4jnsgd1na2vs0mg"},{"bike_id":"a6b9e1d9-6a82-4e29-bc1a-b954c4448693","system_id":"levelo_inurba_marseille","lat":43.253381,"lon":5.421728,"is_reserved":false,"is_disabled":false,"rental_uris":{"android":"levelo://app?vid=a6b9e1d9-6a82-4e29-bc1a-b954c4448693","ios":"levelo://app?vid=a6b9e1d9-6a82-4e29-bc1a-b954c4448693"},"vehicle_type_id":"4","last_reported":1779071178,"current_range_meters":8400,"station_id":"st_d2m65c5bi1j21697t3ng","pricing_plan_id":"cebpf4jnsgd1na2vs0mg"},{"bike_id":"64195df3-c7cd-4883-97ec-c57629e4bb5b","system_id":"levelo_inurba_marseille","lat":43.30932,"lon":5.40159,"is_reserved":false,"is_disabled":false,"rental_uris":{"android":"levelo://app?vid=64195df3-c7cd-4883-97ec-c57629e4bb5b","ios":"levelo://app?vid=64195df3-c7cd-4883-97ec-c57629e4bb5b"},"vehicle_type_id":"4","last_reported":1779071178,"current_range_meters":8400,"station_id":"ce4bgvp2rcd13ifvqct0","pricing_plan_id":"cebpf4jnsgd1na2vs0mg"},{"bike_id":"53d328e6-3061-4556-b395-9c640e554306","system_id":"levelo_inurba_marseille","lat":43.30897,"lon":5.37162,"is_reserved":false,"is_disabled":false,"rental_uris":{"android":"levelo://app?vid=53d328e6-3061-4556-b395-9c640e554306","ios":"levelo://app?vid=53d328e6-3061-4556-b395-9c640e554306"},"vehicle_type_id":"4","last_reported":1779071178,"current_range_meters":8400,"station_id":"ce4bguh2rcd13ifvqckg","pricing_plan_id":"cebpf4jnsgd1na2vs0mg"},{"bike_id":"5802454b-7604-47bb-90de-123e69c13e73","system_id":"levelo_inurba_marseille","lat":43.295445,"lon":5.393946,"is_reserved":false,"is_disabled":false,"rental_uris":{"android":"levelo://app?vid=5802454b-7604-47bb-90de-123e69c13e73","ios":"levelo://app?vid=5802454b-7604-47bb-90de-123e69c13e73"},"vehicle_type_id":"4","last_reported":1779071178,"current_range_meters":8400,"station_id":"ce4bh292rcd13ifvqdf0","pricing_plan_id":"cebpf4jnsgd1na2vs0mg"},{"bike_id":"f0155b3f-a757-41e6-a885-d929684d0a3c","system_id":"levelo_inurba_marseille","lat":43.30574,"lon":5.36597,"is_reserved":false,"is_disabled":false,"rental_uris":{"android":"levelo://app?vid=f0155b3f-a757-41e6-a885-d929684d0a3c","ios":"levelo://app?vid=f0155b3f-a757-41e6-a885-d929684d0a3c"},"vehicle_type_id":"4","last_reported":1779071178,"current_range_meters":8400,"station_id":"ce4bgs12rcd13ifvqcag","pricing_plan_id":"cebpf4jnsgd1na2vs0mg"},{"bike_id":"d44560ef-91da-49bd-a364-a5b2d02ccdca","system_id":"levelo_inurba_marseille","lat":43.32322,"lon":5.36768,"is_reserved":false,"is_disabled":false,"rental_uris":{"android":"levelo://app?vid=d44560ef-91da-49bd-a364-a5b2d02ccdca","ios":"levelo://app?vid=d44560ef-91da-49bd-a364-a5b2d02ccdca"},"vehicle_type_id":"4","last_reported":1779071178,"current_range_meters":8400,"station_id":"ce4bhsh2rcd13ifvqi2g","pricing_plan_id":"cebpf4jnsgd1na2vs0mg"},{"bike_id":"2278a426-4e38-4079-a063-7477fd184679","system_id":"levelo_inurba_marseille","lat":43.278128,"lon":5.407079,"is_reserved":false,"is_disabled":false,"rental_uris":{"android":"levelo://app?vid=2278a426-4e38-4079-a063-7477fd184679","ios":"levelo://app?vid=2278a426-4e38-4079-a063-7477fd184679"},"vehicle_type_id":"4","last_reported":1779071178,"current_range_meters":8400,"station_id":"ce4bhnh2rcd13ifvqgtg","pricing_plan_id":"cebpf4jnsgd1na2vs0mg"},{"bike_id":"6af654b7-7a8b-457b-ad58-fba21b09801a","system_id":"levelo_inurba_marseille","lat":43.3211,"lon":5.36773,"is_reserved":false,"is_disabled":false,"rental_uris":{"android":"levelo://app?vid=6af654b7-7a8b-457b-ad58-fba21b09801a","ios":"levelo://app?vid=6af654b7-7a8b-457b-ad58-fba21b09801a"},"vehicle_type_id":"4","last_reported":1779071178,"current_range_meters":8400,"station_id":"ce4bhrh2rcd13ifvqhug","pricing_plan_id":"cebpf4jnsgd1na2vs0mg"},{"bike_id":"798da074-2928-4049-8acd-b5e87e9605d0","system_id":"levelo_inurba_marseille","lat":43.29257,"lon":5.37614,"is_reserved":false,"is_disabled":true,"rental_uris":{"android":"levelo://app?vid=798da074-2928-4049-8acd-b5e87e9605d0","ios":"levelo://app?vid=798da074-2928-4049-8acd-b5e87e9605d0"},"vehicle_type_id":"4","last_reported":1779071178,"current_range_meters":8400,"station_id":"ce4bgi12rcd13ifvqb80","pricing_plan_id":"cebpf4jnsgd1na2vs0mg"},{"bike_id":"24cfa1b7-2231-4d99-bb9f-0be0d89d10e2","system_id":"levelo_inurba_marseille","lat":43.29166,"lon":5.38584,"is_reserved":false,"is_disabled":false,"rental_uris":{"android":"levelo://app?vid=24cfa1b7-2231-4d99-bb9f-0be0d89d10e2","ios":"levelo://app?vid=24cfa1b7-2231-4d99-bb9f-0be0d89d10e2"},"vehicle_type_id":"4","last_reported":1779071178,"current_range_meters":8400,"station_id":"","pricing_plan_id":"cebpf4jnsgd1na2vs0mg"},{"bike_id":"4186dfeb-6486-452a-b576-6d84b6f3abc3","system_id":"levelo_inurba_marseille","lat":43.26196,"lon":5.37444,"is_reserved":false,"is_disabled":false,"rental_uris":{"android":"levelo://app?vid=4186dfeb-6486-452a-b576-6d84b6f3abc3","ios":"levelo://app?vid=4186dfeb-6486-452a-b576-6d84b6f3abc3"},"vehicle_type_id":"4","last_reported":1779071178,"current_range_meters":8400,"station_id":"ce4bhgp2rcd13ifvqfc0","pricing_plan_id":"cebpf4jnsgd1na2vs0mg"},{"bike_id":"a6da276e-77b7-4835-9c60-ea98a9773108","system_id":"levelo_inurba_marseille","lat":43.30902,"lon":5.37189,"is_reserved":false,"is_disabled":false,"rental_uris":{"android":"levelo://app?vid=a6da276e-77b7-4835-9c60-ea98a9773108","ios":"levelo://app?vid=a6da276e-77b7-4835-9c60-ea98a9773108"},"vehicle_type_id":"4","last_reported":1779071178,"current_range_meters":8400,"station_id":"ce4bguh2rcd13ifvqckg","pricing_plan_id":"cebpf4jnsgd1na2vs0mg"},{"bike_id":"768c2783-7d24-499f-bf66-dc3759c5242d","system_id":"levelo_inurba_marseille","lat":43.30887,"lon":5.37192,"is_reserved":false,"is_disabled":false,"rental_uris":{"android":"levelo://app?vid=768c2783-7d24-499f-bf66-dc3759c5242d","ios":"levelo://app?vid=768c2783-7d24-499f-bf66-dc3759c5242d"},"vehicle_type_id":"4","last_reported":1779071178,"current_range_meters":8400,"station_id":"ce4bguh2rcd13ifvqckg","pricing_plan_id":"cebpf4jnsgd1na2vs0mg"},{"bike_id":"a1c3165e-fc91-45f9-a3df-a22c1ec2551b","system_id":"levelo_inurba_marseille","lat":43.29763,"lon":5.37095,"is_reserved":false,"is_disabled":false,"rental_uris":{"android":"levelo://app?vid=a1c3165e-fc91-45f9-a3df-a22c1ec2551b","ios":"levelo://app?vid=a1c3165e-fc91-45f9-a3df-a22c1ec2551b"},"vehicle_type_id":"4","last_reported":1779071178,"current_range_meters":8400,"station_id":"ce4bgop2rcd13ifvqc1g","pricing_plan_id":"cebpf4jnsgd1na2vs0mg"},{"bike_id":"b87b6bb0-ac8d-40ae-a743-44ff42d82ec9","system_id":"levelo_inurba_marseille","lat":43.30208,"lon":5.39464,"is_reserved":false,"is_disabled":false,"rental_uris":{"android":"levelo://app?vid=b87b6bb0-ac8d-40ae-a743-44ff42d82ec9","ios":"levelo://app?vid=b87b6bb0-ac8d-40ae-a743-44ff42d82ec9"},"vehicle_type_id":"4","last_reported":1779071178,"current_range_meters":8400,"station_id":"ce4bh0p2rcd13ifvqd70","pricing_plan_id":"cebpf4jnsgd1na2vs0mg"},{"bike_id":"033509a1-ede6-4701-8a20-cefe5dd573c1","system_id":"levelo_inurba_marseille","lat":43.21167,"lon":5.35104,"is_reserved":false,"is_disabled":false,"rental_uris":{"android":"levelo://app?vid=033509a1-ede6-4701-8a20-cefe5dd573c1","ios":"levelo://app?vid=033509a1-ede6-4701-8a20-cefe5dd573c1"},"vehicle_type_id":"4","last_reported":1779071178,"current_range_meters":8400,"station_id":"st_cvj6sg6p6f1abm77japg","pricing_plan_id":"cebpf4jnsgd1na2vs0mg"},{"bike_id":"f812c619-1840-4fe8-80ce-17ce041f133c","system_id":"levelo_inurba_marseille","lat":43.24071,"lon":5.37756,"is_reserved":false,"is_disabled":false,"rental_uris":{"android":"levelo://app?vid=f812c619-1840-4fe8-80ce-17ce041f133c","ios":"levelo://app?vid=f812c619-1840-4fe8-80ce-17ce041f133c"},"vehicle_type_id":"4","last_reported":1779071178,"current_range_meters":8400,"station_id":"ce4bhnp2rcd13ifvqgvg","pricing_plan_id":"cebpf4jnsgd1na2vs0mg"},{"bike_id":"5a1c8a28-d79f-4b07-a4d8-bce75ba2c426","system_id":"levelo_inurba_marseille","lat":43.25862,"lon":5.39896,"is_reserved":false,"is_disabled":true,"rental_uris":{"android":"levelo://app?vid=5a1c8a28-d79f-4b07-a4d8-bce75ba2c426","ios":"levelo://app?vid=5a1c8a28-d79f-4b07-a4d8-bce75ba2c426"},"vehicle_type_id":"4","last_reported":1779071178,"current_range_meters":8800,"station_id":"ce4bhl92rcd13ifvqghg","pricing_plan_id":"cebpf4jnsgd1na2vs0mg"},{"bike_id":"f2f3f8f6-38fc-47c9-826f-e86b969b86a1","system_id":"levelo_inurba_marseille","lat":43.266793,"lon":5.382684,"is_reserved":false,"is_disabled":false,"rental_uris":{"android":"levelo://app?vid=f2f3f8f6-38fc-47c9-826f-e86b969b86a1","ios":"levelo://app?vid=f2f3f8f6-38fc-47c9-826f-e86b969b86a1"},"vehicle_type_id":"4","last_reported":1779071178,"current_range_meters":8800,"station_id":"ce4bhgh2rcd13ifvqfa0","pricing_plan_id":"cebpf4jnsgd1na2vs0mg"},{"bike_id":"627f4b9b-0360-4562-aa3f-e8a63fb722ac","system_id":"levelo_inurba_marseille","lat":43.28602,"lon":5.39919,"is_reserved":false,"is_disabled":false,"rental_uris":{"android":"levelo://app?vid=627f4b9b-0360-4562-aa3f-e8a63fb722ac","ios":"levelo://app?vid=627f4b9b-0360-4562-aa3f-e8a63fb722ac"},"vehicle_type_id":"4","last_reported":1779071178,"current_range_meters":8800,"station_id":"st_d4a7ka997mjs738ck50g","pricing_plan_id":"cebpf4jnsgd1na2vs0mg"},{"bike_id":"1f8259a9-7e55-4812-b53f-6d999496a759","system_id":"levelo_inurba_marseille","lat":43.2871,"lon":5.46689,"is_reserved":false,"is_disabled":false,"rental_uris":{"android":"levelo://app?vid=1f8259a9-7e55-4812-b53f-6d999496a759","ios":"levelo://app?vid=1f8259a9-7e55-4812-b53f-6d999496a759"},"vehicle_type_id":"4","last_reported":1779071178,"current_range_meters":8800,"station_id":"st_d6tc3vkotcvc738tfjhg","pricing_plan_id":"cebpf4jnsgd1na2vs0mg"},{"bike_id":"b370e321-f021-4e9b-9435-f1c4663337e2","system_id":"levelo_inurba_marseille","lat":43.29419,"lon":5.39763,"is_reserved":false,"is_disabled":false,"rental_uris":{"android":"levelo://app?vid=b370e321-f021-4e9b-9435-f1c4663337e2","ios":"levelo://app?vid=b370e321-f021-4e9b-9435-f1c4663337e2"},"vehicle_type_id":"4","last_reported":1779071178,"current_range_meters":8800,"station_id":"ce4bh3h2rcd13ifvqdo0","pricing_plan_id":"cebpf4jnsgd1na2vs0mg"},{"bike_id":"117b70b8-f633-43dd-bae9-a0a267e25eed","system_id":"levelo_inurba_marseille","lat":43.23868,"lon":5.37482,"is_reserved":false,"is_disabled":false,"rental_uris":{"android":"levelo://app?vid=117b70b8-f633-43dd-bae9-a0a267e25eed","ios":"levelo://app?vid=117b70b8-f633-43dd-bae9-a0a267e25eed"},"vehicle_type_id":"4","last_reported":1779071178,"current_range_meters":8800,"station_id":"st_d6sm7csbq4hs73f8fpjg","pricing_plan_id":"cebpf4jnsgd1na2vs0mg"},{"bike_id":"075e7f75-4dd3-41da-9c0b-9dc6a8e7d0f6","system_id":"levelo_inurba_marseille","lat":43.28451,"lon":5.38549,"is_reserved":false,"is_disabled":false,"rental_uris":{"android":"levelo://app?vid=075e7f75-4dd3-41da-9c0b-9dc6a8e7d0f6","ios":"levelo://app?vid=075e7f75-4dd3-41da-9c0b-9dc6a8e7d0f6"},"vehicle_type_id":"4","last_reported":1779071178,"current_range_meters":8800,"station_id":"ce4bh8p2rcd13ifvqeb0","pricing_plan_id":"cebpf4jnsgd1na2vs0mg"},{"bike_id":"1c2eb4d1-e613-4047-a77c-317fbe0accea","system_id":"levelo_inurba_marseille","lat":43.29248,"lon":5.38428,"is_reserved":false,"is_disabled":true,"rental_uris":{"android":"levelo://app?vid=1c2eb4d1-e613-4047-a77c-317fbe0accea","ios":"levelo://app?vid=1c2eb4d1-e613-4047-a77c-317fbe0accea"},"vehicle_type_id":"4","last_reported":1779071178,"current_range_meters":8800,"station_id":"ce4bh692rcd13ifvqea0","pricing_plan_id":"cebpf4jnsgd1na2vs0mg"},{"bike_id":"1a1ba533-80a9-4052-840b-41348399a807","system_id":"levelo_inurba_marseille","lat":43.29203,"lon":5.39325,"is_reserved":false,"is_disabled":false,"rental_uris":{"android":"levelo://app?vid=1a1ba533-80a9-4052-840b-41348399a807","ios":"levelo://app?vid=1a1ba533-80a9-4052-840b-41348399a807"},"vehicle_type_id":"4","last_reported":1779071178,"current_range_meters":8800,"station_id":"ce4bh192rcd13ifvqdd0","pricing_plan_id":"cebpf4jnsgd1na2vs0mg"},{"bike_id":"457ef386-5127-4e9c-a249-548ebc726408","system_id":"levelo_inurba_marseille","lat":43.27833,"lon":5.39215,"is_reserved":false,"is_disabled":false,"rental_uris":{"android":"levelo://app?vid=457ef386-5127-4e9c-a249-548ebc726408","ios":"levelo://app?vid=457ef386-5127-4e9c-a249-548ebc726408"},"vehicle_type_id":"4","last_reported":1779071178,"current_range_meters":8800,"station_id":"ce4bhjp2rcd13ifvqga0","pricing_plan_id":"cebpf4jnsgd1na2vs0mg"},{"bike_id":"fbce2b4c-1c4b-47da-9c26-3740070dbcf5","system_id":"levelo_inurba_marseille","lat":43.2872,"lon":5.3998,"is_reserved":false,"is_disabled":false,"rental_uris":{"android":"levelo://app?vid=fbce2b4c-1c4b-47da-9c26-3740070dbcf5","ios":"levelo://app?vid=fbce2b4c-1c4b-47da-9c26-3740070dbcf5"},"vehicle_type_id":"4","last_reported":1779071178,"current_range_meters":8800,"station_id":"ce4bho92rcd13ifvqh3g","pricing_plan_id":"cebpf4jnsgd1na2vs0mg"},{"bike_id":"3ffbca03-d979-4d9f-9fc0-f4a4f9b37c11","system_id":"levelo_inurba_marseille","lat":43.21166,"lon":5.35087,"is_reserved":false,"is_disabled":false,"rental_uris":{"android":"levelo://app?vid=3ffbca03-d979-4d9f-9fc0-f4a4f9b37c11","ios":"levelo://app?vid=3ffbca03-d979-4d9f-9fc0-f4a4f9b37c11"},"vehicle_type_id":"4","last_reported":1779071178,"current_range_meters":8800,"station_id":"st_cvj6sg6p6f1abm77japg","pricing_plan_id":"cebpf4jnsgd1na2vs0mg"},{"bike_id":"834d1570-77e9-4a87-8064-1daef3d55117","system_id":"levelo_inurba_marseille","lat":43.28614,"lon":5.35103,"is_reserved":false,"is_disabled":false,"rental_uris":{"android":"levelo://app?vid=834d1570-77e9-4a87-8064-1daef3d55117","ios":"levelo://app?vid=834d1570-77e9-4a87-8064-1daef3d55117"},"vehicle_type_id":"4","last_reported":1779071178,"current_range_meters":8800,"station_id":"ce4bhch2rcd13ifvqeug","pricing_plan_id":"cebpf4jnsgd1na2vs0mg"},{"bike_id":"434c7eae-7ae8-45a1-b0f2-9e8633562c91","system_id":"levelo_inurba_marseille","lat":43.3063,"lon":5.39873,"is_reserved":false,"is_disabled":false,"rental_uris":{"android":"levelo://app?vid=434c7eae-7ae8-45a1-b0f2-9e8633562c91","ios":"levelo://app?vid=434c7eae-7ae8-45a1-b0f2-9e8633562c91"},"vehicle_type_id":"4","last_reported":1779071178,"current_range_meters":8800,"station_id":"","pricing_plan_id":"cebpf4jnsgd1na2vs0mg"},{"bike_id":"dee94901-d300-4bde-bc3b-d6b937eca99a","system_id":"levelo_inurba_marseille","lat":43.30833,"lon":5.3961,"is_reserved":false,"is_disabled":false,"rental_uris":{"android":"levelo://app?vid=dee94901-d300-4bde-bc3b-d6b937eca99a","ios":"levelo://app?vid=dee94901-d300-4bde-bc3b-d6b937eca99a"},"vehicle_type_id":"4","last_reported":1779071178,"current_range_meters":8800,"station_id":"","pricing_plan_id":"cebpf4jnsgd1na2vs0mg"},{"bike_id":"c53171e6-0e0c-45d8-91a9-47d6bce532ad","system_id":"levelo_inurba_marseille","lat":43.27978,"lon":5.38688,"is_reserved":false,"is_disabled":true,"rental_uris":{"android":"levelo://app?vid=c53171e6-0e0c-45d8-91a9-47d6bce532ad","ios":"levelo://app?vid=c53171e6-0e0c-45d8-91a9-47d6bce532ad"},"vehicle_type_id":"4","last_reported":1779071178,"current_range_meters":8800,"station_id":"ce4bhg12rcd13ifvqf80","pricing_plan_id":"cebpf4jnsgd1na2vs0mg"},{"bike_id":"27747ea1-6338-4dbc-ae01-536d8cdaa730","system_id":"levelo_inurba_marseille","lat":43.29282,"lon":5.40108,"is_reserved":false,"is_disabled":false,"rental_uris":{"android":"levelo://app?vid=27747ea1-6338-4dbc-ae01-536d8cdaa730","ios":"levelo://app?vid=27747ea1-6338-4dbc-ae01-536d8cdaa730"},"vehicle_type_id":"4","last_reported":1779071178,"current_range_meters":8800,"station_id":"ce4bh312rcd13ifvqdk0","pricing_plan_id":"cebpf4jnsgd1na2vs0mg"},{"bike_id":"cd219607-773c-4799-a92d-dbc4c52ab9bd","system_id":"levelo_inurba_marseille","lat":43.26564,"lon":5.3729,"is_reserved":false,"is_disabled":false,"rental_uris":{"android":"levelo://app?vid=cd219607-773c-4799-a92d-dbc4c52ab9bd","ios":"levelo://app?vid=cd219607-773c-4799-a92d-dbc4c52ab9bd"},"vehicle_type_id":"4","last_reported":1779071178,"current_range_meters":8800,"station_id":"ce4bhg12rcd13ifvqf70","pricing_plan_id":"cebpf4jnsgd1na2vs0mg"},{"bike_id":"9c0b5568-112f-4925-adf1-e9e3b0d18590","system_id":"levelo_inurba_marseille","lat":43.21189,"lon":5.35076,"is_reserved":false,"is_disabled":false,"rental_uris":{"android":"levelo://app?vid=9c0b5568-112f-4925-adf1-e9e3b0d18590","ios":"levelo://app?vid=9c0b5568-112f-4925-adf1-e9e3b0d18590"},"vehicle_type_id":"4","last_reported":1779071178,"current_range_meters":8800,"station_id":"st_cvj6sg6p6f1abm77japg","pricing_plan_id":"cebpf4jnsgd1na2vs0mg"},{"bike_id":"2645d477-87b8-4b40-9903-de1fc4e086c1","system_id":"levelo_inurba_marseille","lat":43.29592,"lon":5.38092,"is_reserved":false,"is_disabled":false,"rental_uris":{"android":"levelo://app?vid=2645d477-87b8-4b40-9903-de1fc4e086c1","ios":"levelo://app?vid=2645d477-87b8-4b40-9903-de1fc4e086c1"},"vehicle_type_id":"4","last_reported":1779071178,"current_range_meters":8800,"station_id":"ce4bgl12rcd13ifvqbo0","pricing_plan_id":"cebpf4jnsgd1na2vs0mg"},{"bike_id":"ba66949b-746e-4011-a580-de13e981a5fa","system_id":"levelo_inurba_marseille","lat":43.30942,"lon":5.4015,"is_reserved":false,"is_disabled":false,"rental_uris":{"android":"levelo://app?vid=ba66949b-746e-4011-a580-de13e981a5fa","ios":"levelo://app?vid=ba66949b-746e-4011-a580-de13e981a5fa"},"vehicle_type_id":"4","last_reported":1779071178,"current_range_meters":8800,"station_id":"ce4bgvp2rcd13ifvqct0","pricing_plan_id":"cebpf4jnsgd1na2vs0mg"},{"bike_id":"2eeb2bbf-1556-4ef3-ae1d-3e0071d80639","system_id":"levelo_inurba_marseille","lat":43.29778,"lon":5.38083,"is_reserved":false,"is_disabled":true,"rental_uris":{"android":"levelo://app?vid=2eeb2bbf-1556-4ef3-ae1d-3e0071d80639","ios":"levelo://app?vid=2eeb2bbf-1556-4ef3-ae1d-3e0071d80639"},"vehicle_type_id":"4","last_reported":1779071178,"current_range_meters":8800,"station_id":"ce4bgip2rcd13ifvqbb0","pricing_plan_id":"cebpf4jnsgd1na2vs0mg"},{"bike_id":"75efe605-5258-498d-bb66-7e6c47458e93","system_id":"levelo_inurba_marseille","lat":43.2257,"lon":5.4162,"is_reserved":false,"is_disabled":false,"rental_uris":{"android":"levelo://app?vid=75efe605-5258-498d-bb66-7e6c47458e93","ios":"levelo://app?vid=75efe605-5258-498d-bb66-7e6c47458e93"},"vehicle_type_id":"4","last_reported":1779071178,"current_range_meters":9200,"station_id":"st_d2o4gvlbi1j2169b742g","pricing_plan_id":"cebpf4jnsgd1na2vs0mg"},{"bike_id":"8230f30e-4478-4fee-a10b-0de3352570b4","system_id":"levelo_inurba_marseille","lat":43.2119,"lon":5.35077,"is_reserved":false,"is_disabled":true,"rental_uris":{"android":"levelo://app?vid=8230f30e-4478-4fee-a10b-0de3352570b4","ios":"levelo://app?vid=8230f30e-4478-4fee-a10b-0de3352570b4"},"vehicle_type_id":"4","last_reported":1779071178,"current_range_meters":9200,"station_id":"st_cvj6sg6p6f1abm77japg","pricing_plan_id":"cebpf4jnsgd1na2vs0mg"},{"bike_id":"7104400b-8be0-422b-a12b-aa96d7afc5dc","system_id":"levelo_inurba_marseille","lat":43.24553,"lon":5.39534,"is_reserved":false,"is_disabled":false,"rental_uris":{"android":"levelo://app?vid=7104400b-8be0-422b-a12b-aa96d7afc5dc","ios":"levelo://app?vid=7104400b-8be0-422b-a12b-aa96d7afc5dc"},"vehicle_type_id":"4","last_reported":1779071178,"current_range_meters":9200,"station_id":"ce4bhlp2rcd13ifvqgjg","pricing_plan_id":"cebpf4jnsgd1na2vs0mg"},{"bike_id":"17ba3c19-387f-4e2e-b73c-a02294ccdd28","system_id":"levelo_inurba_marseille","lat":43.22563,"lon":5.41627,"is_reserved":false,"is_disabled":false,"rental_uris":{"android":"levelo://app?vid=17ba3c19-387f-4e2e-b73c-a02294ccdd28","ios":"levelo://app?vid=17ba3c19-387f-4e2e-b73c-a02294ccdd28"},"vehicle_type_id":"4","last_reported":1779071178,"current_range_meters":9200,"station_id":"st_d2o4gvlbi1j2169b742g","pricing_plan_id":"cebpf4jnsgd1na2vs0mg"},{"bike_id":"17c4348f-d2f5-43e4-a9a5-1d16f09b9b85","system_id":"levelo_inurba_marseille","lat":43.29025,"lon":5.39988,"is_reserved":false,"is_disabled":false,"rental_uris":{"android":"levelo://app?vid=17c4348f-d2f5-43e4-a9a5-1d16f09b9b85","ios":"levelo://app?vid=17c4348f-d2f5-43e4-a9a5-1d16f09b9b85"},"vehicle_type_id":"4","last_reported":1779071178,"current_range_meters":9200,"station_id":"ce4bh392rcd13ifvqdm0","pricing_plan_id":"cebpf4jnsgd1na2vs0mg"},{"bike_id":"045cb5aa-dd76-4bc3-acdc-8dd92238b0e6","system_id":"levelo_inurba_marseille","lat":43.24382,"lon":5.37062,"is_reserved":false,"is_disabled":false,"rental_uris":{"android":"levelo://app?vid=045cb5aa-dd76-4bc3-acdc-8dd92238b0e6","ios":"levelo://app?vid=045cb5aa-dd76-4bc3-acdc-8dd92238b0e6"},"vehicle_type_id":"4","last_reported":1779071178,"current_range_meters":9200,"station_id":"ce4bhhh2rcd13ifvqfk0","pricing_plan_id":"cebpf4jnsgd1na2vs0mg"},{"bike_id":"9e2fe2f7-d6df-4ab9-966a-e0a262530a00","system_id":"levelo_inurba_marseille","lat":43.24804,"lon":5.37463,"is_reserved":false,"is_disabled":false,"rental_uris":{"android":"levelo://app?vid=9e2fe2f7-d6df-4ab9-966a-e0a262530a00","ios":"levelo://app?vid=9e2fe2f7-d6df-4ab9-966a-e0a262530a00"},"vehicle_type_id":"4","last_reported":1779071178,"current_range_meters":9200,"station_id":"ce4bhgh2rcd13ifvqfb0","pricing_plan_id":"cebpf4jnsgd1na2vs0mg"},{"bike_id":"fecbad9b-de34-45b5-aec9-0d12e826acd8","system_id":"levelo_inurba_marseille","lat":43.21193,"lon":5.35086,"is_reserved":false,"is_disabled":true,"rental_uris":{"android":"levelo://app?vid=fecbad9b-de34-45b5-aec9-0d12e826acd8","ios":"levelo://app?vid=fecbad9b-de34-45b5-aec9-0d12e826acd8"},"vehicle_type_id":"4","last_reported":1779071178,"current_range_meters":9200,"station_id":"st_cvj6sg6p6f1abm77japg","pricing_plan_id":"cebpf4jnsgd1na2vs0mg"},{"bike_id":"23255414-2d93-40a8-92fd-7a8114aa338c","system_id":"levelo_inurba_marseille","lat":43.30305,"lon":5.40446,"is_reserved":false,"is_disabled":false,"rental_uris":{"android":"levelo://app?vid=23255414-2d93-40a8-92fd-7a8114aa338c","ios":"levelo://app?vid=23255414-2d93-40a8-92fd-7a8114aa338c"},"vehicle_type_id":"4","last_reported":1779071178,"current_range_meters":9200,"station_id":"ce4bh012rcd13ifvqd10","pricing_plan_id":"cebpf4jnsgd1na2vs0mg"},{"bike_id":"44eeaa05-498c-44d2-b86e-caba013d027b","system_id":"levelo_inurba_marseille","lat":43.29776,"lon":5.42778,"is_reserved":false,"is_disabled":false,"rental_uris":{"android":"levelo://app?vid=44eeaa05-498c-44d2-b86e-caba013d027b","ios":"levelo://app?vid=44eeaa05-498c-44d2-b86e-caba013d027b"},"vehicle_type_id":"4","last_reported":1779071178,"current_range_meters":9200,"station_id":"st_d3md5207bmas73dh9klg","pricing_plan_id":"cebpf4jnsgd1na2vs0mg"},{"bike_id":"629d6bcb-91f0-4ae2-9282-59e0c256b391","system_id":"levelo_inurba_marseille","lat":43.32369,"lon":5.3672,"is_reserved":false,"is_disabled":false,"rental_uris":{"android":"levelo://app?vid=629d6bcb-91f0-4ae2-9282-59e0c256b391","ios":"levelo://app?vid=629d6bcb-91f0-4ae2-9282-59e0c256b391"},"vehicle_type_id":"4","last_reported":1779071178,"current_range_meters":9200,"station_id":"ce4bhsh2rcd13ifvqi2g","pricing_plan_id":"cebpf4jnsgd1na2vs0mg"},{"bike_id":"1778bc71-bd85-4eb7-9ae8-824d7542fb47","system_id":"levelo_inurba_marseille","lat":43.28698,"lon":5.46685,"is_reserved":false,"is_disabled":false,"rental_uris":{"android":"levelo://app?vid=1778bc71-bd85-4eb7-9ae8-824d7542fb47","ios":"levelo://app?vid=1778bc71-bd85-4eb7-9ae8-824d7542fb47"},"vehicle_type_id":"4","last_reported":1779071178,"current_range_meters":9200,"station_id":"st_d6tc3vkotcvc738tfjhg","pricing_plan_id":"cebpf4jnsgd1na2vs0mg"},{"bike_id":"bd4b018c-532e-4daf-b051-e3b8c6846f03","system_id":"levelo_inurba_marseille","lat":43.29773,"lon":5.39358,"is_reserved":false,"is_disabled":false,"rental_uris":{"android":"levelo://app?vid=bd4b018c-532e-4daf-b051-e3b8c6846f03","ios":"levelo://app?vid=bd4b018c-532e-4daf-b051-e3b8c6846f03"},"vehicle_type_id":"4","last_reported":1779071178,"current_range_meters":9200,"station_id":"chh1huq6cuj3fo74tm60","pricing_plan_id":"cebpf4jnsgd1na2vs0mg"},{"bike_id":"650d4325-cb16-45bb-bf60-9df050ade8d6","system_id":"levelo_inurba_marseille","lat":43.28154,"lon":5.42659,"is_reserved":false,"is_disabled":false,"rental_uris":{"android":"levelo://app?vid=650d4325-cb16-45bb-bf60-9df050ade8d6","ios":"levelo://app?vid=650d4325-cb16-45bb-bf60-9df050ade8d6"},"vehicle_type_id":"4","last_reported":1779071178,"current_range_meters":9200,"station_id":"ce4bhnh2rcd13ifvqgug","pricing_plan_id":"cebpf4jnsgd1na2vs0mg"},{"bike_id":"227b126f-efaf-422d-a694-0785dbb77026","system_id":"levelo_inurba_marseille","lat":43.24383,"lon":5.37061,"is_reserved":false,"is_disabled":false,"rental_uris":{"android":"levelo://app?vid=227b126f-efaf-422d-a694-0785dbb77026","ios":"levelo://app?vid=227b126f-efaf-422d-a694-0785dbb77026"},"vehicle_type_id":"4","last_reported":1779071178,"current_range_meters":9200,"station_id":"ce4bhhh2rcd13ifvqfk0","pricing_plan_id":"cebpf4jnsgd1na2vs0mg"},{"bike_id":"0996956d-2f84-4490-b61d-b12efce54d59","system_id":"levelo_inurba_marseille","lat":43.23965,"lon":5.36631,"is_reserved":false,"is_disabled":false,"rental_uris":{"android":"levelo://app?vid=0996956d-2f84-4490-b61d-b12efce54d59","ios":"levelo://app?vid=0996956d-2f84-4490-b61d-b12efce54d59"},"vehicle_type_id":"4","last_reported":1779071178,"current_range_meters":9600,"station_id":"ce4bhi12rcd13ifvqfp0","pricing_plan_id":"cebpf4jnsgd1na2vs0mg"},{"bike_id":"d330ebaf-89a2-4938-8fb2-a03c97594a54","system_id":"levelo_inurba_marseille","lat":43.28985,"lon":5.37593,"is_reserved":false,"is_disabled":false,"rental_uris":{"android":"levelo://app?vid=d330ebaf-89a2-4938-8fb2-a03c97594a54","ios":"levelo://app?vid=d330ebaf-89a2-4938-8fb2-a03c97594a54"},"vehicle_type_id":"4","last_reported":1779071178,"current_range_meters":9600,"station_id":"","pricing_plan_id":"cebpf4jnsgd1na2vs0mg"},{"bike_id":"d3379d6e-5735-411b-aac0-419d2af946d9","system_id":"levelo_inurba_marseille","lat":43.25108,"lon":5.40327,"is_reserved":false,"is_disabled":false,"rental_uris":{"android":"levelo://app?vid=d3379d6e-5735-411b-aac0-419d2af946d9","ios":"levelo://app?vid=d3379d6e-5735-411b-aac0-419d2af946d9"},"vehicle_type_id":"4","last_reported":1779071178,"current_range_meters":9600,"station_id":"ce4bhlh2rcd13ifvqgig","pricing_plan_id":"cebpf4jnsgd1na2vs0mg"},{"bike_id":"2dce65cd-bdd0-4a47-9756-d5f1f5f9ad1e","system_id":"levelo_inurba_marseille","lat":43.225329,"lon":5.348395,"is_reserved":false,"is_disabled":false,"rental_uris":{"android":"levelo://app?vid=2dce65cd-bdd0-4a47-9756-d5f1f5f9ad1e","ios":"levelo://app?vid=2dce65cd-bdd0-4a47-9756-d5f1f5f9ad1e"},"vehicle_type_id":"4","last_reported":1779071178,"current_range_meters":9600,"station_id":"st_cvj5dfep6f1abm77gieg","pricing_plan_id":"cebpf4jnsgd1na2vs0mg"},{"bike_id":"d7f84437-27f6-4086-9005-3a852630f4d0","system_id":"levelo_inurba_marseille","lat":43.24449,"lon":5.42558,"is_reserved":false,"is_disabled":false,"rental_uris":{"android":"levelo://app?vid=d7f84437-27f6-4086-9005-3a852630f4d0","ios":"levelo://app?vid=d7f84437-27f6-4086-9005-3a852630f4d0"},"vehicle_type_id":"4","last_reported":1779071178,"current_range_meters":9600,"station_id":"st_d4a3vfp97mjs738cd8kg","pricing_plan_id":"cebpf4jnsgd1na2vs0mg"},{"bike_id":"adcaa26e-ac75-4bb5-8820-bf51f351640c","system_id":"levelo_inurba_marseille","lat":43.24624,"lon":5.43153,"is_reserved":false,"is_disabled":false,"rental_uris":{"android":"levelo://app?vid=adcaa26e-ac75-4bb5-8820-bf51f351640c","ios":"levelo://app?vid=adcaa26e-ac75-4bb5-8820-bf51f351640c"},"vehicle_type_id":"4","last_reported":1779071178,"current_range_meters":9600,"station_id":"st_d2m6c4gdas8pm72e190g","pricing_plan_id":"cebpf4jnsgd1na2vs0mg"},{"bike_id":"2d60a571-892f-4ebc-8155-08c09c5dedc1","system_id":"levelo_inurba_marseille","lat":43.25331,"lon":5.42157,"is_reserved":false,"is_disabled":false,"rental_uris":{"android":"levelo://app?vid=2d60a571-892f-4ebc-8155-08c09c5dedc1","ios":"levelo://app?vid=2d60a571-892f-4ebc-8155-08c09c5dedc1"},"vehicle_type_id":"4","last_reported":1779071178,"current_range_meters":9600,"station_id":"st_d2m65c5bi1j21697t3ng","pricing_plan_id":"cebpf4jnsgd1na2vs0mg"},{"bike_id":"c0d467e6-6fef-4d21-8af4-af3c30cfe717","system_id":"levelo_inurba_marseille","lat":43.29794,"lon":5.36497,"is_reserved":false,"is_disabled":false,"rental_uris":{"android":"levelo://app?vid=c0d467e6-6fef-4d21-8af4-af3c30cfe717","ios":"levelo://app?vid=c0d467e6-6fef-4d21-8af4-af3c30cfe717"},"vehicle_type_id":"4","last_reported":1779071178,"current_range_meters":9600,"station_id":"","pricing_plan_id":"cebpf4jnsgd1na2vs0mg"},