{"last_updated":1747120268,"ttl":60,"version":"2.2","data":{"bikes":[{"bike_id":"6c9c5746-e74c-4820-9dc7-4ec2a2cb98ba","system_id":"levelo_inurba_marseille","lat":43.24179,"lon":5.36413,"is_reserved":false,"is_disabled":false,"rental_uris":{"android":"levelo://app?vid=6c9c5746-e74c-4820-9dc7-4ec2a2cb98ba","ios":"levelo://app?vid=6c9c5746-e74c-4820-9dc7-4ec2a2cb98ba"},"vehicle_type_id":"4","last_reported":1747120268,"current_range_meters":2800,"station_id":"cpo36qri1sfpv3e86is0","pricing_plan_id":"cebpf4jnsgd1na2vs0mg"},{"bike_id":"8927ea8d-cb3e-40cb-9a06-8fbdb405c32b","system_id":"levelo_inurba_marseille","lat":43.319904,"lon":5.381649,"is_reserved":false,"is_disabled":true,"rental_uris":{"android":"levelo://app?vid=8927ea8d-cb3e-40cb-9a06-8fbdb405c32b","ios":"levelo://app?vid=8927ea8d-cb3e-40cb-9a06-8fbdb405c32b"},"vehicle_type_id":"4","last_reported":1747120268,"current_range_meters":2800,"station_id":"ce4bhr12rcd13ifvqhpg","pricing_plan_id":"cebpf4jnsgd1na2vs0mg"},{"bike_id":"1838afde-afc3-4eda-8678-62b4dcd0e305","system_id":"levelo_inurba_marseille","lat":43.24062,"lon":5.37767,"is_reserved":false,"is_disabled":false,"rental_uris":{"android":"levelo://app?vid=1838afde-afc3-4eda-8678-62b4dcd0e305","ios":"levelo://app?vid=1838afde-afc3-4eda-8678-62b4dcd0e305"},"vehicle_type_id":"4","last_reported":1747120268,"current_range_meters":2800,"station_id":"ce4bhnp2rcd13ifvqgvg","pricing_plan_id":"cebpf4jnsgd1na2vs0mg"},{"bike_id":"b1b8c807-8597-4a9c-bbcd-a2746fd63865","system_id":"levelo_inurba_marseille","lat":43.25274,"lon":5.39928,"is_reserved":false,"is_disabled":false,"rental_uris":{"android":"levelo://app?vid=b1b8c807-8597-4a9c-bbcd-a2746fd63865","ios":"levelo://app?vid=b1b8c807-8597-4a9c-bbcd-a2746fd63865"},"vehicle_type_id":"4","last_reported":1747120268,"current_range_meters":2800,"station_id":"","pricing_plan_id":"cebpf4jnsgd1na2vs0mg"},{"bike_id":"6565061b-6b1b-4e18-8d40-30c3940683e2","system_id":"levelo_inurba_marseille","lat":43.29097,"lon":5.38113,"is_reserved":false,"is_disabled":false,"rental_uris":{"android":"levelo://app?vid=6565061b-6b1b-4e18-8d40-30c3940683e2","ios":"levelo://app?vid=6565061b-6b1b-4e18-8d40-30c3940683e2"},"vehicle_type_id":"4","last_reported":1747120268,"current_range_meters":2800,"station_id":"ce4bh512rcd13ifvqe2g","pricing_plan_id":"cebpf4jnsgd1na2vs0mg"},{"bike_id":"e8394423-7a50-49f8-8964-2b75986aec02","system_id":"levelo_inurba_marseille","lat":43.301987,"lon":5.366087,"is_reserved":false,"is_disabled":false,"rental_uris":{"android":"levelo://app?vid=e8394423-7a50-49f8-8964-2b75986aec02","ios":"levelo://app?vid=e8394423-7a50-49f8-8964-2b75986aec02"},"vehicle_type_id":"4","last_reported":1747120268,"current_range_meters":2800,"station_id":"ce4bgrh2rcd13ifvqc8g","pricing_plan_id":"cebpf4jnsgd1na2vs0mg"},{"bike_id":"129c03ab-3dcf-46d9-96ab-a3c8ac304f4a","system_id":"levelo_inurba_marseille","lat":43.26572,"lon":5.390023,"is_reserved":false,"is_disabled":true,"rental_uris":{"android":"levelo://app?vid=129c03ab-3dcf-46d9-96ab-a3c8ac304f4a","ios":"levelo://app?vid=129c03ab-3dcf-46d9-96ab-a3c8ac304f4a"},"vehicle_type_id":"4","last_reported":1747120268,"current_range_meters":2800,"station_id":"ce4bhe12rcd13ifvqf30","pricing_plan_id":"cebpf4jnsgd1na2vs0mg"},{"bike_id":"0cb18bf1-82bb-40aa-8b15-a1ada9e81ef7","system_id":"levelo_inurba_marseille","lat":43.30602,"lon":5.37229,"is_reserved":false,"is_disabled":false,"rental_uris":{"android":"levelo://app?vid=0cb18bf1-82bb-40aa-8b15-a1ada9e81ef7","ios":"levelo://app?vid=0cb18bf1-82bb-40aa-8b15-a1ada9e81ef7"},"vehicle_type_id":"4","last_reported":1747120268,"current_range_meters":4800,"station_id":"ce4bgqh2rcd13ifvqc4g","pricing_plan_id":"cebpf4jnsgd1na2vs0mg"},{"bike_id":"3b66b2b3-48f1-466a-948d-7e5b5e83ffc5","system_id":"levelo_inurba_marseille","lat":43.26686,"lon":5.3827,"is_reserved":false,"is_disabled":false,"rental_uris":{"android":"levelo://app?vid=3b66b2b3-48f1-466a-948d-7e5b5e83ffc5","ios":"levelo://app?vid=3b66b2b3-48f1-466a-948d-7e5b5e83ffc5"},"vehicle_type_id":"4","last_reported":1747120268,"current_range_meters":3600,"station_id":"ce4bhg92rcd13ifvqf90","pricing_plan_id":"cebpf4jnsgd1na2vs0mg"},{"bike_id":"83a81ffb-3d1c-4122-a406-60b114a380fc","system_id":"levelo_inurba_marseille","lat":43.212038,"lon":5.350774,"is_reserved":false,"is_disabled":false,"rental_uris":{"android":"levelo://app?vid=83a81ffb-3d1c-4122-a406-60b114a380fc","ios":"levelo://app?vid=83a81ffb-3d1c-4122-a406-60b114a380fc"},"vehicle_type_id":"4","last_reported":1747120268,"current_range_meters":3200,"station_id":"st_cvj6sg6p6f1abm77japg","pricing_plan_id":"cebpf4jnsgd1na2vs0mg"},{"bike_id":"dd03de54-abbd-4017-b90b-3915fbd6f4b3","system_id":"levelo_inurba_marseille","lat":43.243811,"lon":5.370534,"is_reserved":false,"is_disabled":false,"rental_uris":{"android":"levelo://app?vid=dd03de54-abbd-4017-b90b-3915fbd6f4b3","ios":"levelo://app?vid=dd03de54-abbd-4017-b90b-3915fbd6f4b3"},"vehicle_type_id":"4","last_reported":1747120268,"current_range_meters":3200,"station_id":"ce4bhhh2rcd13ifvqfk0","pricing_plan_id":"cebpf4jnsgd1na2vs0mg"},{"bike_id":"b71b6f97-f3bb-4883-8fe0-39f9738620f1","system_id":"levelo_inurba_marseille","lat":43.30252,"lon":5.40046,"is_reserved":false,"is_disabled":false,"rental_uris":{"android":"levelo://app?vid=b71b6f97-f3bb-4883-8fe0-39f9738620f1","ios":"levelo://app?vid=b71b6f97-f3bb-4883-8fe0-39f9738620f1"},"vehicle_type_id":"4","last_reported":1747120268,"current_range_meters":3200,"station_id":"ce4bgvh2rcd13ifvqcs0","pricing_plan_id":"cebpf4jnsgd1na2vs0mg"},{"bike_id":"036e3a63-c6d5-411d-8851-c6b3ac64af60","system_id":"levelo_inurba_marseille","lat":43.29305,"lon":5.37165,"is_reserved":false,"is_disabled":false,"rental_uris":{"android":"levelo://app?vid=036e3a63-c6d5-411d-8851-c6b3ac64af60","ios":"levelo://app?vid=036e3a63-c6d5-411d-8851-c6b3ac64af60"},"vehicle_type_id":"4","last_reported":1747120268,"current_range_meters":3600,"station_id":"ce4bgh92rcd13ifvqb40","pricing_plan_id":"cebpf4jnsgd1na2vs0mg"},{"bike_id":"5c5ab66f-5c67-4c80-a9ab-f32a3d166b35","system_id":"levelo_inurba_marseille","lat":43.28932,"lon":5.36638,"is_reserved":false,"is_disabled":false,"rental_uris":{"android":"levelo://app?vid=5c5ab66f-5c67-4c80-a9ab-f32a3d166b35","ios":"levelo://app?vid=5c5ab66f-5c67-4c80-a9ab-f32a3d166b35"},"vehicle_type_id":"4","last_reported":1747120268,"current_range_meters":3600,"station_id":"ce4bhap2rcd13ifvqek0","pricing_plan_id":"cebpf4jnsgd1na2vs0mg"},{"bike_id":"d566379e-4341-446c-9c83-32ffb278b99e","system_id":"levelo_inurba_marseille","lat":43.30538,"lon":5.36728,"is_reserved":false,"is_disabled":false,"rental_uris":{"android":"levelo://app?vid=d566379e-4341-446c-9c83-32ffb278b99e","ios":"levelo://app?vid=d566379e-4341-446c-9c83-32ffb278b99e"},"vehicle_type_id":"4","last_reported":1747120268,"current_range_meters":3200,"station_id":"ce4bgrp2rcd13ifvqc9g","pricing_plan_id":"cebpf4jnsgd1na2vs0mg"},{"bike_id":"c80c0838-15c5-4f44-b583-74505054b5cb","system_id":"levelo_inurba_marseille","lat":43.30791,"lon":5.38161,"is_reserved":false,"is_disabled":false,"rental_uris":{"android":"levelo://app?vid=c80c0838-15c5-4f44-b583-74505054b5cb","ios":"levelo://app?vid=c80c0838-15c5-4f44-b583-74505054b5cb"},"vehicle_type_id":"4","last_reported":1747120268,"current_range_meters":3600,"station_id":"ce4bgt12rcd13ifvqce0","pricing_plan_id":"cebpf4jnsgd1na2vs0mg"},{"bike_id":"b421c83b-afbc-4bd4-9c57-649f891268eb","system_id":"levelo_inurba_marseille","lat":43.27811,"lon":5.40712,"is_reserved":false,"is_disabled":false,"rental_uris":{"android":"levelo://app?vid=b421c83b-afbc-4bd4-9c57-649f891268eb","ios":"levelo://app?vid=b421c83b-afbc-4bd4-9c57-649f891268eb"},"vehicle_type_id":"4","last_reported":1747120268,"current_range_meters":3600,"station_id":"ce4bhnh2rcd13ifvqgtg","pricing_plan_id":"cebpf4jnsgd1na2vs0mg"},{"bike_id":"72d39711-5736-4943-a25f-a4b9a3eb78cb","system_id":"levelo_inurba_marseille","lat":43.27666,"lon":5.38867,"is_reserved":false,"is_disabled":false,"rental_uris":{"android":"levelo://app?vid=72d39711-5736-4943-a25f-a4b9a3eb78cb","ios":"levelo://app?vid=72d39711-5736-4943-a25f-a4b9a3eb78cb"},"vehicle_type_id":"4","last_reported":1747120268,"current_range_meters":4400,"station_id":"ce4bhi12rcd13ifvqfo0","pricing_plan_id":"cebpf4jnsgd1na2vs0mg"},{"bike_id":"07f4e1a4-6053-4f5d-987c-f7c9b01c4468","system_id":"levelo_inurba_marseille","lat":43.26952,"lon":5.38632,"is_reserved":false,"is_disabled":false,"rental_uris":{"android":"levelo://app?vid=07f4e1a4-6053-4f5d-987c-f7c9b01c4468","ios":"levelo://app?vid=07f4e1a4-6053-4f5d-987c-f7c9b01c4468"},"vehicle_type_id":"4","last_reported":1747120268,"current_range_meters":4000,"station_id":"ce4bhh92rcd13ifvqfh0","pricing_plan_id":"cebpf4jnsgd1na2vs0mg"},{"bike_id":"4d418ac2-bb41-4cf5-8347-d28642f73acd","system_id":"levelo_inurba_marseille","lat":43.24543,"lon":5.39521,"is_reserved":false,"is_disabled":false,"rental_uris":{"android":"levelo://app?vid=4d418ac2-bb41-4cf5-8347-d28642f73acd","ios":"levelo://app?vid=4d418ac2-bb41-4cf5-8347-d28642f73acd"},"vehicle_type_id":"4","last_reported":1747120268,"current_range_meters":4000,"station_id":"ce4bhlp2rcd13ifvqgjg","pricing_plan_id":"cebpf4jnsgd1na2vs0mg"},{"bike_id":"675ffaa2-5e67-4fa4-bf52-fc3c96b11e79","system_id":"levelo_inurba_marseille","lat":43.304223,"lon":5.397371,"is_reserved":false,"is_disabled":true,"rental_uris":{"android":"levelo://app?vid=675ffaa2-5e67-4fa4-bf52-fc3c96b11e79","ios":"levelo://app?vid=675ffaa2-5e67-4fa4-bf52-fc3c96b11e79"},"vehicle_type_id":"4","last_reported":1747120268,"current_range_meters":4400,"station_id":"ce4bh092rcd13ifvqd20","pricing_plan_id":"cebpf4jnsgd1na2vs0mg"},{"bike_id":"8e821a46-8b71-462c-baaa-368d6f642a60","system_id":"levelo_inurba_marseille","lat":43.290643,"lon":5.371269,"is_reserved":false,"is_disabled":false,"rental_uris":{"android":"levelo://app?vid=8e821a46-8b71-462c-baaa-368d6f642a60","ios":"levelo://app?vid=8e821a46-8b71-462c-baaa-368d6f642a60"},"vehicle_type_id":"4","last_reported":1747120268,"current_range_meters":4400,"station_id":"ce4bh5p2rcd13ifvqe4g","pricing_plan_id":"cebpf4jnsgd1na2vs0mg"},{"bike_id":"54e81f89-d660-44d3-8f7a-f048ea47fa82","system_id":"levelo_inurba_marseille","lat":43.29972,"lon":5.37187,"is_reserved":false,"is_disabled":true,"rental_uris":{"android":"levelo://app?vid=54e81f89-d660-44d3-8f7a-f048ea47fa82","ios":"levelo://app?vid=54e81f89-d660-44d3-8f7a-f048ea47fa82"},"vehicle_type_id":"4","last_reported":1747120268,"current_range_meters":4400,"station_id":"ce4bgr92rcd13ifvqc7g","pricing_plan_id":"cebpf4jnsgd1na2vs0mg"},{"bike_id":"c166edd6-904a-4bc0-bde0-4462b8738864","system_id":"levelo_inurba_marseille","lat":43.24169,"lon":5.36406,"is_reserved":false,"is_disabled":false,"rental_uris":{"android":"levelo://app?vid=c166edd6-904a-4bc0-bde0-4462b8738864","ios":"levelo://app?vid=c166edd6-904a-4bc0-bde0-4462b8738864"},"vehicle_type_id":"4","last_reported":1747120268,"current_range_meters":4400,"station_id":"cpo36qri1sfpv3e86is0","pricing_plan_id":"cebpf4jnsgd1na2vs0mg"},{"bike_id":"51669dff-192b-4b6a-a294-00a4a1891f87","system_id":"levelo_inurba_marseille","lat":43.31342,"lon":5.36718,"is_reserved":false,"is_disabled":false,"rental_uris":{"android":"levelo://app?vid=51669dff-192b-4b6a-a294-00a4a1891f87","ios":"levelo://app?vid=51669dff-192b-4b6a-a294-00a4a1891f87"},"vehicle_type_id":"4","last_reported":1747120268,"current_range_meters":4400,"station_id":"ce4bgr92rcd13ifvqc6g","pricing_plan_id":"cebpf4jnsgd1na2vs0mg"},{"bike_id":"33a545ff-6bb3-4b83-bd30-0a98fdfe7d18","system_id":"levelo_inurba_marseille","lat":43.27495,"lon":5.4245,"is_reserved":false,"is_disabled":false,"rental_uris":{"android":"levelo://app?vid=33a545ff-6bb3-4b83-bd30-0a98fdfe7d18","ios":"levelo://app?vid=33a545ff-6bb3-4b83-bd30-0a98fdfe7d18"},"vehicle_type_id":"4","last_reported":1747120268,"current_range_meters":4000,"station_id":"ce4bhn92rcd13ifvqgrg","pricing_plan_id":"cebpf4jnsgd1na2vs0mg"},{"bike_id":"2deb1013-2a4e-4281-83f4-5de1b133ca70","system_id":"levelo_inurba_marseille","lat":43.299041,"lon":5.436517,"is_reserved":false,"is_disabled":false,"rental_uris":{"android":"levelo://app?vid=2deb1013-2a4e-4281-83f4-5de1b133ca70","ios":"levelo://app?vid=2deb1013-2a4e-4281-83f4-5de1b133ca70"},"vehicle_type_id":"4","last_reported":1747120268,"current_range_meters":4400,"station_id":"ce4bhpp2rcd13ifvqhfg","pricing_plan_id":"cebpf4jnsgd1na2vs0mg"},{"bike_id":"fd2fa3b7-24c0-4b16-84e9-15418a3d3d06","system_id":"levelo_inurba_marseille","lat":43.303384,"lon":5.404126,"is_reserved":false,"is_disabled":false,"rental_uris":{"android":"levelo://app?vid=fd2fa3b7-24c0-4b16-84e9-15418a3d3d06","ios":"levelo://app?vid=fd2fa3b7-24c0-4b16-84e9-15418a3d3d06"},"vehicle_type_id":"4","last_reported":1747120268,"current_range_meters":1600,"station_id":"","pricing_plan_id":"cebpf4jnsgd1na2vs0mg"},{"bike_id":"5e28a68f-8a82-4792-a6da-29e458ce4b88","system_id":"levelo_inurba_marseille","lat":43.323665,"lon":5.388832,"is_reserved":false,"is_disabled":false,"rental_uris":{"android":"levelo://app?vid=5e28a68f-8a82-4792-a6da-29e458ce4b88","ios":"levelo://app?vid=5e28a68f-8a82-4792-a6da-29e458ce4b88"},"vehicle_type_id":"4","last_reported":1747120268,"current_range_meters":4800,"station_id":"ce4bhqp2rcd13ifvqhog","pricing_plan_id":"cebpf4jnsgd1na2vs0mg"},{"bike_id":"eed97d04-55c9-4469-844e-e04e6b043690","system_id":"levelo_inurba_marseille","lat":43.23963,"lon":5.3663,"is_reserved":false,"is_disabled":false,"rental_uris":{"android":"levelo://app?vid=eed97d04-55c9-4469-844e-e04e6b043690","ios":"levelo://app?vid=eed97d04-55c9-4469-844e-e04e6b043690"},"vehicle_type_id":"4","last_reported":1747120268,"current_range_meters":4400,"station_id":"ce4bhi12rcd13ifvqfp0","pricing_plan_id":"cebpf4jnsgd1na2vs0mg"},{"bike_id":"dcf57f3c-3012-4f9c-8b5a-64f283cdfafa","system_id":"levelo_inurba_marseille","lat":43.30146,"lon":5.37408,"is_reserved":false,"is_disabled":false,"rental_uris":{"android":"levelo://app?vid=dcf57f3c-3012-4f9c-8b5a-64f283cdfafa","ios":"levelo://app?vid=dcf57f3c-3012-4f9c-8b5a-64f283cdfafa"},"vehicle_type_id":"4","last_reported":1747120268,"current_range_meters":4800,"station_id":"ce4bgs92rcd13ifvqcc0","pricing_plan_id":"cebpf4jnsgd1na2vs0mg"},{"bike_id":"50fa94fa-436d-4d58-860f-5c7c89139a70","system_id":"levelo_inurba_marseille","lat":43.30155,"lon":5.38072,"is_reserved":false,"is_disabled":false,"rental_uris":{"android":"levelo://app?vid=50fa94fa-436d-4d58-860f-5c7c89139a70","ios":"levelo://app?vid=50fa94fa-436d-4d58-860f-5c7c89139a70"},"vehicle_type_id":"4","last_reported":1747120268,"current_range_meters":5600,"station_id":"ce4bgjp2rcd13ifvqbh0","pricing_plan_id":"cebpf4jnsgd1na2vs0mg"},{"bike_id":"63e9444f-c14c-435d-9c33-22d8afa9b431","system_id":"levelo_inurba_marseille","lat":43.28595,"lon":5.39481,"is_reserved":false,"is_disabled":true,"rental_uris":{"android":"levelo://app?vid=63e9444f-c14c-435d-9c33-22d8afa9b431","ios":"levelo://app?vid=63e9444f-c14c-435d-9c33-22d8afa9b431"},"vehicle_type_id":"4","last_reported":1747120268,"current_range_meters":5600,"station_id":"ce4bh292rcd13ifvqdg0","pricing_plan_id":"cebpf4jnsgd1na2vs0mg"},{"bike_id":"864ce70f-1098-4973-90a9-d5c9b927170c","system_id":"levelo_inurba_marseille","lat":43.303903,"lon":5.42472,"is_reserved":false,"is_disabled":false,"rental_uris":{"android":"levelo://app?vid=864ce70f-1098-4973-90a9-d5c9b927170c","ios":"levelo://app?vid=864ce70f-1098-4973-90a9-d5c9b927170c"},"vehicle_type_id":"4","last_reported":1747120268,"current_range_meters":6000,"station_id":"ce4bhoh2rcd13ifvqh6g","pricing_plan_id":"cebpf4jnsgd1na2vs0mg"},{"bike_id":"0f7a187f-a153-4607-b550-4d0dc5ab9aa0","system_id":"levelo_inurba_marseille","lat":43.32288,"lon":5.38264,"is_reserved":false,"is_disabled":false,"rental_uris":{"android":"levelo://app?vid=0f7a187f-a153-4607-b550-4d0dc5ab9aa0","ios":"levelo://app?vid=0f7a187f-a153-4607-b550-4d0dc5ab9aa0"},"vehicle_type_id":"4","last_reported":1747120268,"current_range_meters":5600,"station_id":"ce4bhr12rcd13ifvqhqg","pricing_plan_id":"cebpf4jnsgd1na2vs0mg"},{"bike_id":"f9b5b3d3-81b1-4a38-9805-052f399c819c","system_id":"levelo_inurba_marseille","lat":43.27949,"lon":5.41043,"is_reserved":false,"is_disabled":true,"rental_uris":{"android":"levelo://app?vid=f9b5b3d3-81b1-4a38-9805-052f399c819c","ios":"levelo://app?vid=f9b5b3d3-81b1-4a38-9805-052f399c819c"},"vehicle_type_id":"4","last_reported":1747120268,"current_range_meters":6000,"station_id":"ce4bhnp2rcd13ifvqh0g","pricing_plan_id":"cebpf4jnsgd1na2vs0mg"},{"bike_id":"df2492a6-3ff4-487b-a47a-8da25dbeb14c","system_id":"levelo_inurba_marseille","lat":43.26507,"lon":5.39538,"is_reserved":false,"is_disabled":false,"rental_uris":{"android":"levelo://app?vid=df2492a6-3ff4-487b-a47a-8da25dbeb14c","ios":"levelo://app?vid=df2492a6-3ff4-487b-a47a-8da25dbeb14c"},"vehicle_type_id":"4","last_reported":1747120268,"current_range_meters":6000,"station_id":"ce4bhi12rcd13ifvqfq0","pricing_plan_id":"cebpf4jnsgd1na2vs0mg"},{"bike_id":"671f1f53-8d82-4ed4-ade1-f1720e0973b5","system_id":"levelo_inurba_marseille","lat":43.28158,"lon":5.42632,"is_reserved":false,"is_disabled":false,"rental_uris":{"android":"levelo://app?vid=671f1f53-8d82-4ed4-ade1-f1720e0973b5","ios":"levelo://app?vid=671f1f53-8d82-4ed4-ade1-f1720e0973b5"},"vehicle_type_id":"4","last_reported":1747120268,"current_range_meters":6400,"station_id":"ce4bhnh2rcd13ifvqgug","pricing_plan_id":"cebpf4jnsgd1na2vs0mg"},{"bike_id":"0cc4eb21-80ad-4141-8799-66402bf47bda","system_id":"levelo_inurba_marseille","lat":43.324793,"lon":5.365613,"is_reserved":false,"is_disabled":false,"rental_uris":{"android":"levelo://app?vid=0cc4eb21-80ad-4141-8799-66402bf47bda","ios":"levelo://app?vid=0cc4eb21-80ad-4141-8799-66402bf47bda"},"vehicle_type_id":"4","last_reported":1747120268,"current_range_meters":6400,"station_id":"ce4bhs12rcd13ifvqhvg","pricing_plan_id":"cebpf4jnsgd1na2vs0mg"},{"bike_id":"b0ac8040-90e0-41ee-a2e3-e5462910fefc","system_id":"levelo_inurba_marseille","lat":43.275417,"lon":5.412951,"is_reserved":false,"is_disabled":false,"rental_uris":{"android":"levelo://app?vid=b0ac8040-90e0-41ee-a2e3-e5462910fefc","ios":"levelo://app?vid=b0ac8040-90e0-41ee-a2e3-e5462910fefc"},"vehicle_type_id":"4","last_reported":1747120268,"current_range_meters":6400,"station_id":"","pricing_plan_id":"cebpf4jnsgd1na2vs0mg"},{"bike_id":"7e8c3c01-68d4-4786-baf3-baa30f37590e","system_id":"levelo_inurba_marseille","lat":43.29554,"lon":5.42281,"is_reserved":false,"is_disabled":false,"rental_uris":{"android":"levelo://app?vid=7e8c3c01-68d4-4786-baf3-baa30f37590e","ios":"levelo://app?vid=7e8c3c01-68d4-4786-baf3-baa30f37590e"},"vehicle_type_id":"4","last_reported":1747120268,"current_range_meters":6400,"station_id":"ce4bhph2rcd13ifvqhdg","pricing_plan_id":"cebpf4jnsgd1na2vs0mg"},{"bike_id":"1f35958b-2021-453e-b7ff-a564dca8f83f","system_id":"levelo_inurba_marseille","lat":43.324713,"lon":5.365717,"is_reserved":false,"is_disabled":false,"rental_uris":{"android":"levelo://app?vid=1f35958b-2021-453e-b7ff-a564dca8f83f","ios":"levelo://app?vid=1f35958b-2021-453e-b7ff-a564dca8f83f"},"vehicle_type_id":"4","last_reported":1747120268,"current_range_meters":6800,"station_id":"ce4bhs12rcd13ifvqhvg","pricing_plan_id":"cebpf4jnsgd1na2vs0mg"},{"bike_id":"3f9fc2f0-9223-4e10-83fe-f5bf34ba666b","system_id":"levelo_inurba_marseille","lat":43.2408,"lon":5.37748,"is_reserved":false,"is_disabled":false,"rental_uris":{"android":"levelo://app?vid=3f9fc2f0-9223-4e10-83fe-f5bf34ba666b","ios":"levelo://app?vid=3f9fc2f0-9223-4e10-83fe-f5bf34ba666b"},"vehicle_type_id":"4","last_reported":1747120268,"current_range_meters":6800,"station_id":"ce4bhnp2rcd13ifvqgvg","pricing_plan_id":"cebpf4jnsgd1na2vs0mg"},{"bike_id":"7165daf2-8527-4ce4-9f66-4e6a5f61ab31","system_id":"levelo_inurba_marseille","lat":43.26686,"lon":5.38275,"is_reserved":false,"is_disabled":false,"rental_uris":{"android":"levelo://app?vid=7165daf2-8527-4ce4-9f66-4e6a5f61ab31","ios":"levelo://app?vid=7165daf2-8527-4ce4-9f66-4e6a5f61ab31"},"vehicle_type_id":"4","last_reported":1747120268,"current_range_meters":6800,"station_id":"ce4bhg92rcd13ifvqf90","pricing_plan_id":"cebpf4jnsgd1na2vs0mg"},{"bike_id":"8534897d-9fdb-4eac-8c37-b54f61827d72","system_id":"levelo_inurba_marseille","lat":43.268817,"lon":5.385939,"is_reserved":false,"is_disabled":false,"rental_uris":{"android":"levelo://app?vid=8534897d-9fdb-4eac-8c37-b54f61827d72","ios":"levelo://app?vid=8534897d-9fdb-4eac-8c37-b54f61827d72"},"vehicle_type_id":"4","last_reported":1747120268,"current_range_meters":6400,"station_id":"ce4bhh92rcd13ifvqfh0","pricing_plan_id":"cebpf4jnsgd1na2vs0mg"},{"bike_id":"0a7e584e-880e-41a6-aef5-ff83f35e27d8","system_id":"levelo_inurba_marseille","lat":43.306106,"lon":5.40459,"is_reserved":false,"is_disabled":false,"rental_uris":{"android":"levelo://app?vid=0a7e584e-880e-41a6-aef5-ff83f35e27d8","ios":"levelo://app?vid=0a7e584e-880e-41a6-aef5-ff83f35e27d8"},"vehicle_type_id":"4","last_reported":1747120268,"current_range_meters":6800,"station_id":"","pricing_plan_id":"cebpf4jnsgd1na2vs0mg"},{"bike_id":"4564575c-59a8-40ae-89ca-046fe907335e","system_id":"levelo_inurba_marseille","lat":43.317592,"lon":5.39005,"is_reserved":false,"is_disabled":false,"rental_uris":{"android":"levelo://app?vid=4564575c-59a8-40ae-89ca-046fe907335e","ios":"levelo://app?vid=4564575c-59a8-40ae-89ca-046fe907335e"},"vehicle_type_id":"4","last_reported":1747120268,"current_range_meters":6400,"station_id":"ce4bhqp2rcd13ifvqhng","pricing_plan_id":"cebpf4jnsgd1na2vs0mg"},{"bike_id":"ea43783d-8b54-48fc-b7dc-9031385273ca","system_id":"levelo_inurba_marseille","lat":43.260679,"lon":5.393964,"is_reserved":false,"is_disabled":true,"rental_uris":{"android":"levelo://app?vid=ea43783d-8b54-48fc-b7dc-9031385273ca","ios":"levelo://app?vid=ea43783d-8b54-48fc-b7dc-9031385273ca"},"vehicle_type_id":"4","last_reported":1747120268,"current_range_meters":6800,"station_id":"ce4bhh92rcd13ifvqfj0","pricing_plan_id":"cebpf4jnsgd1na2vs0mg"},{"bike_id":"b30f391a-af9d-4674-a2e3-40864566bbcb","system_id":"levelo_inurba_marseille","lat":43.27503,"lon":5.42463,"is_reserved":false,"is_disabled":false,"rental_uris":{"android":"levelo://app?vid=b30f391a-af9d-4674-a2e3-40864566bbcb","ios":"levelo://app?vid=b30f391a-af9d-4674-a2e3-40864566bbcb"},"vehicle_type_id":"4","last_reported":1747120268,"current_range_meters":6800,"station_id":"ce4bhn92rcd13ifvqgrg","pricing_plan_id":"cebpf4jnsgd1na2vs0mg"},{"bike_id":"de4a530f-3b17-41b9-bd98-d22e64d46bdc","system_id":"levelo_inurba_marseille","lat":43.32061,"lon":5.36732,"is_reserved":false,"is_disabled":false,"rental_uris":{"android":"levelo://app?vid=de4a530f-3b17-41b9-bd98-d22e64d46bdc","ios":"levelo://app?vid=de4a530f-3b17-41b9-bd98-d22e64d46bdc"},"vehicle_type_id":"4","last_reported":1747120268,"current_range_meters":6800,"station_id":"ce4bhrh2rcd13ifvqhug","pricing_plan_id":"cebpf4jnsgd1na2vs0mg"},{"bike_id":"e522f549-aea3-4856-aa16-462daf267737","system_id":"levelo_inurba_marseille","lat":43.3168,"lon":5.40472,"is_reserved":false,"is_disabled":false,"rental_uris":{"android":"levelo://app?vid=e522f549-aea3-4856-aa16-462daf267737","ios":"levelo://app?vid=e522f549-aea3-4856-aa16-462daf267737"},"vehicle_type_id":"4","last_reported":1747120268,"current_range_meters":6800,"station_id":"ce4bh012rcd13ifvqd00","pricing_plan_id":"cebpf4jnsgd1na2vs0mg"},{"bike_id":"a9fdfac9-13ae-4a51-8f3d-a89bb8a08b3d","system_id":"levelo_inurba_marseille","lat":43.23134,"lon":5.43699,"is_reserved":false,"is_disabled":false,"rental_uris":{"android":"levelo://app?vid=a9fdfac9-13ae-4a51-8f3d-a89bb8a08b3d","ios":"levelo://app?vid=a9fdfac9-13ae-4a51-8f3d-a89bb8a08b3d"},"vehicle_type_id":"4","last_reported":1747120268,"current_range_meters":7200,"station_id":"ce4bhmp2rcd13ifvqgog","pricing_plan_id":"cebpf4jnsgd1na2vs0mg"},{"bike_id":"8126fd84-b570-4073-bcca-f09af128c1b1","system_id":"levelo_inurba_marseille","lat":43.29556,"lon":5.42289,"is_reserved":false,"is_disabled":false,"rental_uris":{"android":"levelo://app?vid=8126fd84-b570-4073-bcca-f09af128c1b1","ios":"levelo://app?vid=8126fd84-b570-4073-bcca-f09af128c1b1"},"vehicle_type_id":"4","last_reported":1747120268,"current_range_meters":7200,"station_id":"ce4bhph2rcd13ifvqhdg","pricing_plan_id":"cebpf4jnsgd1na2vs0mg"},{"bike_id":"c5eb53b8-783c-4568-bc58-af7e2dd00aa0","system_id":"levelo_inurba_marseille","lat":43.32364,"lon":5.36723,"is_reserved":false,"is_disabled":false,"rental_uris":{"android":"levelo://app?vid=c5eb53b8-783c-4568-bc58-af7e2dd00aa0","ios":"levelo://app?vid=c5eb53b8-783c-4568-bc58-af7e2dd00aa0"},"vehicle_type_id":"4","last_reported":1747120268,"current_range_meters":7200,"station_id":"ce4bhsh2rcd13ifvqi2g","pricing_plan_id":"cebpf4jnsgd1na2vs0mg"},{"bike_id":"5a04eff3-734f-4092-938c-e764e0d2b451","system_id":"levelo_inurba_marseille","lat":43.29224,"lon":5.3606,"is_reserved":false,"is_disabled":false,"rental_uris":{"android":"levelo://app?vid=5a04eff3-734f-4092-938c-e764e0d2b451","ios":"levelo://app?vid=5a04eff3-734f-4092-938c-e764e0d2b451"},"vehicle_type_id":"4","last_reported":1747120268,"current_range_meters":7200,"station_id":"ce4bhbh2rcd13ifvqeqg","pricing_plan_id":"cebpf4jnsgd1na2vs0mg"},{"bike_id":"8b3eac21-bb1f-4170-9c40-95292bcf13c4","system_id":"levelo_inurba_marseille","lat":43.317134,"lon":5.404298,"is_reserved":false,"is_disabled":false,"rental_uris":{"android":"levelo://app?vid=8b3eac21-bb1f-4170-9c40-95292bcf13c4","ios":"levelo://app?vid=8b3eac21-bb1f-4170-9c40-95292bcf13c4"},"vehicle_type_id":"4","last_reported":1747120268,"current_range_meters":7200,"station_id":"ce4bh012rcd13ifvqd00","pricing_plan_id":"cebpf4jnsgd1na2vs0mg"},{"bike_id":"97ec37fd-dc7e-48df-8a28-0d7ad917cff8","system_id":"levelo_inurba_marseille","lat":43.30142,"lon":5.37408,"is_reserved":false,"is_disabled":false,"rental_uris":{"android":"levelo://app?vid=97ec37fd-dc7e-48df-8a28-0d7ad917cff8","ios":"levelo://app?vid=97ec37fd-dc7e-48df-8a28-0d7ad917cff8"},"vehicle_type_id":"4","last_reported":1747120268,"current_range_meters":3600,"station_id":"ce4bgs92rcd13ifvqcc0","pricing_plan_id":"cebpf4jnsgd1na2vs0mg"},{"bike_id":"2ce2457d-52c5-4ded-8902-9b0c18b24edc","system_id":"levelo_inurba_marseille","lat":43.28722,"lon":5.39998,"is_reserved":false,"is_disabled":true,"rental_uris":{"android":"levelo://app?vid=2ce2457d-52c5-4ded-8902-9b0c18b24edc","ios":"levelo://app?vid=2ce2457d-52c5-4ded-8902-9b0c18b24edc"},"vehicle_type_id":"4","last_reported":1747120268,"current_range_meters":7200,"station_id":"ce4bho92rcd13ifvqh3g","pricing_plan_id":"cebpf4jnsgd1na2vs0mg"},{"bike_id":"d0a588e0-7e62-4c58-bb05-703ea488762e","system_id":"levelo_inurba_marseille","lat":43.26953,"lon":5.3863,"is_reserved":false,"is_disabled":false,"rental_uris":{"android":"levelo://app?vid=d0a588e0-7e62-4c58-bb05-703ea488762e","ios":"levelo://app?vid=d0a588e0-7e62-4c58-bb05-703ea488762e"},"vehicle_type_id":"4","last_reported":1747120268,"current_range_meters":8000,"station_id":"ce4bhh92rcd13ifvqfh0","pricing_plan_id":"cebpf4jnsgd1na2vs0mg"},{"bike_id":"a70a465d-4c17-47a7-b84c-843e3deb8697","system_id":"levelo_inurba_marseille","lat":43.27493,"lon":5.42456,"is_reserved":false,"is_disabled":true,"rental_uris":{"android":"levelo://app?vid=a70a465d-4c17-47a7-b84c-843e3deb8697","ios":"levelo://app?vid=a70a465d-4c17-47a7-b84c-843e3deb8697"},"vehicle_type_id":"4","last_reported":1747120268,"current_range_meters":8000,"station_id":"ce4bhn92rcd13ifvqgrg","pricing_plan_id":"cebpf4jnsgd1na2vs0mg"},{"bike_id":"cf119389-8c06-4449-a205-2b18fbb577ee","system_id":"levelo_inurba_marseille","lat":43.31692,"lon":5.40453,"is_reserved":false,"is_disabled":false,"rental_uris":{"android":"levelo://app?vid=cf119389-8c06-4449-a205-2b18fbb577ee","ios":"levelo://app?vid=cf119389-8c06-4449-a205-2b18fbb577ee"},"vehicle_type_id":"4","last_reported":1747120268,"current_range_meters":8000,"station_id":"ce4bh012rcd13ifvqd00","pricing_plan_id":"cebpf4jnsgd1na2vs0mg"},{"bike_id":"ae5d261e-b8bf-4a95-9db2-fe39b5a025e6","system_id":"levelo_inurba_marseille","lat":43.30153,"lon":5.38089,"is_reserved":false,"is_disabled":false,"rental_uris":{"android":"levelo://app?vid=ae5d261e-b8bf-4a95-9db2-fe39b5a025e6","ios":"levelo://app?vid=ae5d261e-b8bf-4a95-9db2-fe39b5a025e6"},"vehicle_type_id":"4","last_reported":1747120268,"current_range_meters":8400,"station_id":"ce4bgjp2rcd13ifvqbh0","pricing_plan_id":"cebpf4jnsgd1na2vs0mg"},{"bike_id":"7f605161-e837-422c-a372-58f35a633349","system_id":"levelo_inurba_marseille","lat":43.29969,"lon":5.38494,"is_reserved":false,"is_disabled":false,"rental_uris":{"android":"levelo://app?vid=7f605161-e837-422c-a372-58f35a633349","ios":"levelo://app?vid=7f605161-e837-422c-a372-58f35a633349"},"vehicle_type_id":"4","last_reported":1747120268,"current_range_meters":8400,"station_id":"ce4bgj92rcd13ifvqbd0","pricing_plan_id":"cebpf4jnsgd1na2vs0mg"},{"bike_id":"34dd0b61-4d53-48ae-977d-84c8d9fa88f8","system_id":"levelo_inurba_marseille","lat":43.24174,"lon":5.36385,"is_reserved":false,"is_disabled":false,"rental_uris":{"android":"levelo://app?vid=34dd0b61-4d53-48ae-977d-84c8d9fa88f8","ios":"levelo://app?vid=34dd0b61-4d53-48ae-977d-84c8d9fa88f8"},"vehicle_type_id":"4","last_reported":1747120268,"current_range_meters":8400,"station_id":"cpo36qri1sfpv3e86is0","pricing_plan_id":"cebpf4jnsgd1na2vs0mg"},{"bike_id":"cbc7eed1-f7c6-43f2-b64f-3b59b18e7401","system_id":"levelo_inurba_marseille","lat":43.22497,"lon":5.34767,"is_reserved":false,"is_disabled":true,"rental_uris":{"android":"levelo://app?vid=cbc7eed1-f7c6-43f2-b64f-3b59b18e7401","ios":"levelo://app?vid=cbc7eed1-f7c6-43f2-b64f-3b59b18e7401"},"vehicle_type_id":"4","last_reported":1747120268,"current_range_meters":8400,"station_id":"st_cvj5dfep6f1abm77gieg","pricing_plan_id":"cebpf4jnsgd1na2vs0mg"},{"bike_id":"2ee4d910-0ee1-4bc5-86c8-c77afad12b4f","system_id":"levelo_inurba_marseille","lat":43.32109,"lon":5.36783,"is_reserved":false,"is_disabled":false,"rental_uris":{"android":"levelo://app?vid=2ee4d910-0ee1-4bc5-86c8-c77afad12b4f","ios":"levelo://app?vid=2ee4d910-0ee1-4bc5-86c8-c77afad12b4f"},"vehicle_type_id":"4","last_reported":1747120268,"current_range_meters":8400,"station_id":"ce4bhrh2rcd13ifvqhug","pricing_plan_id":"cebpf4jnsgd1na2vs0mg"},{"bike_id":"fea5ad89-86d1-427f-ae6d-8122fdb3b395","system_id":"levelo_inurba_marseille","lat":43.3107,"lon":5.36732,"is_reserved":false,"is_disabled":false,"rental_uris":{"android":"levelo://app?vid=fea5ad89-86d1-427f-ae6d-8122fdb3b395","ios":"levelo://app?vid=fea5ad89-86d1-427f-ae6d-8122fdb3b395"},"vehicle_type_id":"4","last_reported":1747120268,"current_range_meters":8800,"station_id":"ce4bgr92rcd13ifvqc6g","pricing_plan_id":"cebpf4jnsgd1na2vs0mg"},{"bike_id":"4d42a573-7ea3-48b5-a447-4fda0af734fb","system_id":"levelo_inurba_marseille","lat":43.25925,"lon":5.40877,"is_reserved":false,"is_disabled":false,"rental_uris":{"android":"levelo://app?vid=4d42a573-7ea3-48b5-a447-4fda0af734fb","ios":"levelo://app?vid=4d42a573-7ea3-48b5-a447-4fda0af734fb"},"vehicle_type_id":"4","last_reported":1747120268,"current_range_meters":9200,"station_id":"ce4bhm92rcd13ifvqglg","pricing_plan_id":"cebpf4jnsgd1na2vs0mg"},{"bike_id":"6b0a2887-7565-43a6-949c-d6ae4fe9866e","system_id":"levelo_inurba_marseille","lat":43.26815,"lon":5.40284,"is_reserved":false,"is_disabled":false,"rental_uris":{"android":"levelo://app?vid=6b0a2887-7565-43a6-949c-d6ae4fe9866e","ios":"levelo://app?vid=6b0a2887-7565-43a6-949c-d6ae4fe9866e"},"vehicle_type_id":"4","last_reported":1747120268,"current_range_meters":9200,"station_id":"ce501612rcd8frsf0b60","pricing_plan_id":"cebpf4jnsgd1na2vs0mg"},{"bike_id":"7e0a4aee-c233-4422-b318-f49623265f19","system_id":"levelo_inurba_marseille","lat":43.28482,"lon":5.38429,"is_reserved":false,"is_disabled":true,"rental_uris":{"android":"levelo://app?vid=7e0a4aee-c233-4422-b318-f49623265f19","ios":"levelo://app?vid=7e0a4aee-c233-4422-b318-f49623265f19"},"vehicle_type_id":"4","last_reported":1747120268,"current_range_meters":9200,"station_id":"ce4bh512rcd13ifvqe3g","pricing_plan_id":"cebpf4jnsgd1na2vs0mg"},{"bike_id":"4f7ccdd1-3052-4a82-902f-7f90786820e4","system_id":"levelo_inurba_marseille","lat":43.31217,"lon":5.36842,"is_reserved":false,"is_disabled":false,"rental_uris":{"android":"levelo://app?vid=4f7ccdd1-3052-4a82-902f-7f90786820e4","ios":"levelo://app?vid=4f7ccdd1-3052-4a82-902f-7f90786820e4"},"vehicle_type_id":"4","last_reported":1747120268,"current_range_meters":9200,"station_id":"ce4bgl92rcd13ifvqbq0","pricing_plan_id":"cebpf4jnsgd1na2vs0mg"},{"bike_id":"ed540130-b78f-4c87-8f88-0c0211b93e1c","system_id":"levelo_inurba_marseille","lat":43.25931,"lon":5.40909,"is_reserved":false,"is_disabled":false,"rental_uris":{"android":"levelo://app?vid=ed540130-b78f-4c87-8f88-0c0211b93e1c","ios":"levelo://app?vid=ed540130-b78f-4c87-8f88-0c0211b93e1c"},"vehicle_type_id":"4","last_reported":1747120268,"current_range_meters":9200,"station_id":"ce4bhm92rcd13ifvqglg","pricing_plan_id":"cebpf4jnsgd1na2vs0mg"},{"bike_id":"5f0845b4-b8de-4040-b561-a9af4b828831","system_id":"levelo_inurba_marseille","lat":43.30474,"lon":5.37912,"is_reserved":false,"is_disabled":false,"rental_uris":{"android":"levelo://app?vid=5f0845b4-b8de-4040-b561-a9af4b828831","ios":"levelo://app?vid=5f0845b4-b8de-4040-b561-a9af4b828831"},"vehicle_type_id":"4","last_reported":1747120268,"current_range_meters":9200,"station_id":"ce4bgup2rcd13ifvqcn0","pricing_plan_id":"cebpf4jnsgd1na2vs0mg"},{"bike_id":"1391eea0-6035-42b6-878e-780fe3b6610f","system_id":"levelo_inurba_marseille","lat":43.30547,"lon":5.36695,"is_reserved":false,"is_disabled":false,"rental_uris":{"android":"levelo://app?vid=1391eea0-6035-42b6-878e-780fe3b6610f","ios":"levelo://app?vid=1391eea0-6035-42b6-878e-780fe3b6610f"},"vehicle_type_id":"4","last_reported":1747120268,"current_range_meters":9600,"station_id":"ce4bgrp2rcd13ifvqc9g","pricing_plan_id":"cebpf4jnsgd1na2vs0mg"},{"bike_id":"b6a34b9f-55ea-4a2b-b0ef-ca81c1bf74cb","system_id":"levelo_inurba_marseille","lat":43.31341,"lon":5.36732,"is_reserved":false,"is_disabled":false,"rental_uris":{"android":"levelo://app?vid=b6a34b9f-55ea-4a2b-b0ef-ca81c1bf74cb","ios":"levelo://app?vid=b6a34b9f-55ea-4a2b-b0ef-ca81c1bf74cb"},"vehicle_type_id":"4","last_reported":1747120268,"current_range_meters":9600,"station_id":"ce4bgr92rcd13ifvqc6g","pricing_plan_id":"cebpf4jnsgd1na2vs0mg"},{"bike_id":"480977bd-d894-40ad-9026-4ea290dc9528","system_id":"levelo_inurba_marseille","lat":43.241738,"lon":5.364009,"is_reserved":false,"is_disabled":false,"rental_uris":{"android":"levelo://app?vid=480977bd-d894-40ad-9026-4ea290dc9528","ios":"levelo://app?vid=480977bd-d894-40ad-9026-4ea290dc9528"},"vehicle_type_id":"4","last_reported":1747120268,"current_range_meters":10000,"station_id":"cpo36qri1sfpv3e86is0","pricing_plan_id":"cebpf4jnsgd1na2vs0mg"},{"bike_id":"ac0112c9-313e-422c-910b-a3523b05b0c9","system_id":"levelo_inurba_marseille","lat":43.24082,"lon":5.37748,"is_reserved":false,"is_disabled":false,"rental_uris":{"android":"levelo://app?vid=ac0112c9-313e-422c-910b-a3523b05b0c9","ios":"levelo://app?vid=ac0112c9-313e-422c-910b-a3523b05b0c9"},"vehicle_type_id":"4","last_reported":1747120268,"current_range_meters":10000,"station_id":"ce4bhnp2rcd13ifvqgvg","pricing_plan_id":"cebpf4jnsgd1na2vs0mg"},{"bike_id":"581fa52b-d332-45e3-9d7f-f18fbfd08e95","system_id":"levelo_inurba_marseille","lat":43.34158,"lon":5.40925,"is_reserved":false,"is_disabled":true,"rental_uris":{"android":"levelo://app?vid=581fa52b-d332-45e3-9d7f-f18fbfd08e95","ios":"levelo://app?vid=581fa52b-d332-45e3-9d7f-f18fbfd08e95"},"vehicle_type_id":"4","last_reported":1747120268,"current_range_meters":10000,"station_id":"ce4bhqh2rcd13ifvqhlg","pricing_plan_id":"cebpf4jnsgd1na2vs0mg"},{"bike_id":"0f760a05-8688-4092-988b-8aa98d007cb1","system_id":"levelo_inurba_marseille","lat":43.3134,"lon":5.36703,"is_reserved":false,"is_disabled":false,"rental_uris":{"android":"levelo://app?vid=0f760a05-8688-4092-988b-8aa98d007cb1","ios":"levelo://app?vid=0f760a05-8688-4092-988b-8aa98d007cb1"},"vehicle_type_id":"4","last_reported":1747120268,"current_range_meters":10000,"station_id":"ce4bgr92rcd13ifvqc6g","pricing_plan_id":"cebpf4jnsgd1na2vs0mg"},{"bike_id":"40093641-a413-410f-b6ab-4e6a24ea2573","system_id":"levelo_inurba_marseille","lat":43.30537,"lon":5.367006,"is_reserved":false,"is_disabled":false,"rental_uris":{"android":"levelo://app?vid=40093641-a413-410f-b6ab-4e6a24ea2573","ios":"levelo://app?vid=40093641-a413-410f-b6ab-4e6a24ea2573"},"vehicle_type_id":"4","last_reported":1747120268,"current_range_meters":10800,"station_id":"ce4bgrp2rcd13ifvqc9g","pricing_plan_id":"cebpf4jnsgd1na2vs0mg"},{"bike_id":"ac3030fa-1740-4828-ad83-daded8929ecc","system_id":"levelo_inurba_marseille","lat":43.255194,"lon":5.4009,"is_reserved":false,"is_disabled":false,"rental_uris":{"android":"levelo://app?vid=ac3030fa-1740-4828-ad83-daded8929ecc","ios":"levelo://app?vid=ac3030fa-1740-4828-ad83-daded8929ecc"},"vehicle_type_id":"4","last_reported":1747120268,"current_range_meters":10800,"station_id":"","pricing_plan_id":"cebpf4jnsgd1na2vs0mg"},{"bike_id":"37947ea2-4144-498b-9773-6d6e7497365c","system_id":"levelo_inurba_marseille","lat":43.31473,"lon":5.37288,"is_reserved":false,"is_disabled":false,"rental_uris":{"android":"levelo://app?vid=37947ea2-4144-498b-9773-6d6e7497365c","ios":"levelo://app?vid=37947ea2-4144-498b-9773-6d6e7497365c"},"vehicle_type_id":"4","last_reported":1747120268,"current_range_meters":10800,"station_id":"ce4bgt12rcd13ifvqcd0","pricing_plan_id":"cebpf4jnsgd1na2vs0mg"},{"bike_id":"0e89a721-196d-4572-b905-e39e1dafff7a","system_id":"levelo_inurba_marseille","lat":43.32102,"lon":5.36765,"is_reserved":false,"is_disabled":false,"rental_uris":{"android":"levelo://app?vid=0e89a721-196d-4572-b905-e39e1dafff7a","ios":"levelo://app?vid=0e89a721-196d-4572-b905-e39e1dafff7a"},"vehicle_type_id":"4","last_reported":1747120268,"current_range_meters":10800,"station_id":"ce4bhrh2rcd13ifvqhug","pricing_plan_id":"cebpf4jnsgd1na2vs0mg"},{"bike_id":"dea06cdc-c232-4f83-a671-b62ad3b4bce5","system_id":"levelo_inurba_marseille","lat":43.28942,"lon":5.36636,"is_reserved":false,"is_disabled":false,"rental_uris":{"android":"levelo://app?vid=dea06cdc-c232-4f83-a671-b62ad3b4bce5","ios":"levelo://app?vid=dea06cdc-c232-4f83-a671-b62ad3b4bce5"},"vehicle_type_id":"4","last_reported":1747120268,"current_range_meters":7200,"station_id":"ce4bhap2rcd13ifvqek0","pricing_plan_id":"cebpf4jnsgd1na2vs0mg"},{"bike_id":"5de1e8df-cec1-47cf-b554-41f6e726d337","system_id":"levelo_inurba_marseille","lat":43.274116,"lon":5.406158,"is_reserved":false,"is_disabled":false,"rental_uris":{"android":"levelo://app?vid=5de1e8df-cec1-47cf-b554-41f6e726d337","ios":"levelo://app?vid=5de1e8df-cec1-47cf-b554-41f6e726d337"},"vehicle_type_id":"4","last_reported":1747120268,"current_range_meters":10800,"station_id":"","pricing_plan_id":"cebpf4jnsgd1na2vs0mg"},{"bike_id":"65755069-00c9-42c1-a16f-a282d15ebed5","system_id":"levelo_inurba_marseille","lat":43.34141,"lon":5.40907,"is_reserved":false,"is_disabled":false,"rental_uris":{"android":"levelo://app?vid=65755069-00c9-42c1-a16f-a282d15ebed5","ios":"levelo://app?vid=65755069-00c9-42c1-a16f-a282d15ebed5"},"vehicle_type_id":"4","last_reported":1747120268,"current_range_meters":11600,"station_id":"ce4bhqh2rcd13ifvqhlg","pricing_plan_id":"cebpf4jnsgd1na2vs0mg"},{"bike_id":"3b5fc1fc-ce92-4848-955a-32d53b23baec","system_id":"levelo_inurba_marseille","lat":43.25575,"lon":5.38229,"is_reserved":false,"is_disabled":false,"rental_uris":{"android":"levelo://app?vid=3b5fc1fc-ce92-4848-955a-32d53b23baec","ios":"levelo://app?vid=3b5fc1fc-ce92-4848-955a-32d53b23baec"},"vehicle_type_id":"4","last_reported":1747120268,"current_range_meters":11600,"station_id":"ce4bhih2rcd13ifvqfs0","pricing_plan_id":"cebpf4jnsgd1na2vs0mg"},{"bike_id":"1f6c8b6d-922c-466f-bf09-dfb7253bda7d","system_id":"levelo_inurba_marseille","lat":43.32534,"lon":5.41421,"is_reserved":false,"is_disabled":false,"rental_uris":{"android":"levelo://app?vid=1f6c8b6d-922c-466f-bf09-dfb7253bda7d","ios":"levelo://app?vid=1f6c8b6d-922c-466f-bf09-dfb7253bda7d"},"vehicle_type_id":"4","last_reported":1747120268,"current_range_meters":11600,"station_id":"ce4bhq12rcd13ifvqhhg","pricing_plan_id":"cebpf4jnsgd1na2vs0mg"},{"bike_id":"fc6855b8-a118-4656-9d6a-06e52d59a4c2","system_id":"levelo_inurba_marseille","lat":43.32475,"lon":5.36559,"is_reserved":false,"is_disabled":false,"rental_uris":{"android":"levelo://app?vid=fc6855b8-a118-4656-9d6a-06e52d59a4c2","ios":"levelo://app?vid=fc6855b8-a118-4656-9d6a-06e52d59a4c2"},"vehicle_type_id":"4","last_reported":1747120268,"current_range_meters":12000,"station_id":"ce4bhs12rcd13ifvqhvg","pricing_plan_id":"cebpf4jnsgd1na2vs0mg"},{"bike_id":"40e8fd56-8c57-4e1c-bdf7-929a0cd84c0a","system_id":"levelo_inurba_marseille","lat":43.24106,"lon":5.37747,"is_reserved":false,"is_disabled":false,"rental_uris":{"android":"levelo://app?vid=40e8fd56-8c57-4e1c-bdf7-929a0cd84c0a","ios":"levelo://app?vid=40e8fd56-8c57-4e1c-bdf7-929a0cd84c0a"},"vehicle_type_id":"4","last_reported":1747120268,"current_range_meters":12000,"station_id":"ce4bhnp2rcd13ifvqgvg","pricing_plan_id":"cebpf4jnsgd1na2vs0mg"},{"bike_id":"02024662-9a31-46ed-8876-edfe0397794c","system_id":"levelo_inurba_marseille","lat":43.27943,"lon":5.41049,"is_reserved":false,"is_disabled":false,"rental_uris":{"android":"levelo://app?vid=02024662-9a31-46ed-8876-edfe0397794c","ios":"levelo://app?vid=02024662-9a31-46ed-8876-edfe0397794c"},"vehicle_type_id":"4","last_reported":1747120268,"current_range_meters":12000,"station_id":"ce4bhnp2rcd13ifvqh0g","pricing_plan_id":"cebpf4jnsgd1na2vs0mg"},{"bike_id":"245602b8-136f-44db-9082-23bacd9e4c4b","system_id":"levelo_inurba_marseille","lat":43.25719,"lon":5.41112,"is_reserved":false,"is_disabled":false,"rental_uris":{"android":"levelo://app?vid=245602b8-136f-44db-9082-23bacd9e4c4b","ios":"levelo://app?vid=245602b8-136f-44db-9082-23bacd9e4c4b"},"vehicle_type_id":"4","last_reported":1747120268,"current_range_meters":12400,"station_id":"ce4bhkp2rcd13ifvqgd0","pricing_plan_id":"cebpf4jnsgd1na2vs0mg"},{"bike_id":"55b1b548-d42b-4dfc-9dcd-e7a761287329","system_id":"levelo_inurba_marseille","lat":43.24071,"lon":5.37762,"is_reserved":false,"is_disabled":false,"rental_uris":{"android":"levelo://app?vid=55b1b548-d42b-4dfc-9dcd-e7a761287329","ios":"levelo://app?vid=55b1b548-d42b-4dfc-9dcd-e7a761287329"},"vehicle_type_id":"4","last_reported":1747120268,"current_range_meters":12400,"station_id":"ce4bhnp2rcd13ifvqgvg","pricing_plan_id":"cebpf4jnsgd1na2vs0mg"},{"bike_id":"f702f1f1-baff-4710-b092-d4b131f8acb6","system_id":"levelo_inurba_marseille","lat":43.30392,"lon":5.42499,"is_reserved":false,"is_disabled":true,"rental_uris":{"android":"levelo://app?vid=f702f1f1-baff-4710-b092-d4b131f8acb6","ios":"levelo://app?vid=f702f1f1-baff-4710-b092-d4b131f8acb6"},"vehicle_type_id":"4","last_reported":1747120268,"current_range_meters":12800,"station_id":"ce4bhoh2rcd13ifvqh6g","pricing_plan_id":"cebpf4jnsgd1na2vs0mg"},{"bike_id":"2fdc8039-2a91-416c-8148-d1e7c0df93ae","system_id":"levelo_inurba_marseille","lat":43.22927,"lon":5.35365,"is_reserved":false,"is_disabled":true,"rental_uris":{"android":"levelo://app?vid=2fdc8039-2a91-416c-8148-d1e7c0df93ae","ios":"levelo://app?vid=2fdc8039-2a91-416c-8148-d1e7c0df93ae"},"vehicle_type_id":"4","last_reported":1747120268,"current_range_meters":12800,"station_id":"cpo3532slgdg3j2ikp40","pricing_plan_id":"cebpf4jnsgd1na2vs0mg"},{"bike_id":"d7a37c2e-8327-4dcf-abde-a72dc4825934","system_id":"levelo_inurba_marseille","lat":43.30915,"lon":5.36846,"is_reserved":false,"is_disabled":false,"rental_uris":{"android":"levelo://app?vid=d7a37c2e-8327-4dcf-abde-a72dc4825934","ios":"levelo://app?vid=d7a37c2e-8327-4dcf-abde-a72dc4825934"},"vehicle_type_id":"4","last_reported":1747120268,"current_range_meters":12800,"station_id":"ce4bgn92rcd13ifvqbvg","pricing_plan_id":"cebpf4jnsgd1na2vs0mg"},{"bike_id":"ba514e44-6b68-46f5-98bc-d99c9a5ef0e7","system_id":"levelo_inurba_marseille","lat":43.24179,"lon":5.39726,"is_reserved":false,"is_disabled":false,"rental_uris":{"android":"levelo://app?vid=ba514e44-6b68-46f5-98bc-d99c9a5ef0e7","ios":"levelo://app?vid=ba514e44-6b68-46f5-98bc-d99c9a5ef0e7"},"vehicle_type_id":"4","last_reported":1747120268,"current_range_meters":13600,"station_id":"ce4bhn12rcd13ifvqgpg","pricing_plan_id":"cebpf4jnsgd1na2vs0mg"},{"bike_id":"594573a6-84a2-4905-916c-17d9a6a266cd","system_id":"levelo_inurba_marseille","lat":43.2593,"lon":5.40908,"is_reserved":false,"is_disabled":false,"rental_uris":{"android":"levelo://app?vid=594573a6-84a2-4905-916c-17d9a6a266cd","ios":"levelo://app?vid=594573a6-84a2-4905-916c-17d9a6a266cd"},"vehicle_type_id":"4","last_reported":1747120268,"current_range_meters":14000,"station_id":"ce4bhm92rcd13ifvqglg","pricing_plan_id":"cebpf4jnsgd1na2vs0mg"},{"bike_id":"d47e0ef5-128e-4c82-8e08-c07c79e20732","system_id":"levelo_inurba_marseille","lat":43.32479,"lon":5.36573,"is_reserved":false,"is_disabled":false,"rental_uris":{"android":"levelo://app?vid=d47e0ef5-128e-4c82-8e08-c07c79e20732","ios":"levelo://app?vid=d47e0ef5-128e-4c82-8e08-c07c79e20732"},"vehicle_type_id":"4","last_reported":1747120268,"current_range_meters":14000,"station_id":"ce4bhs12rcd13ifvqhvg","pricing_plan_id":"cebpf4jnsgd1na2vs0mg"},{"bike_id":"42557dae-bbe0-42c6-8015-b1021735213b","system_id":"levelo_inurba_marseille","lat":43.28491,"lon":5.35896,"is_reserved":false,"is_disabled":true,"rental_uris":{"android":"levelo://app?vid=42557dae-bbe0-42c6-8015-b1021735213b","ios":"levelo://app?vid=42557dae-bbe0-42c6-8015-b1021735213b"},"vehicle_type_id":"4","last_reported":1747120268,"current_range_meters":14000,"station_id":"ce4bhah2rcd13ifvqei0","pricing_plan_id":"cebpf4jnsgd1na2vs0mg"},{"bike_id":"a52a97d6-c741-45d4-9f88-94220339da81","system_id":"levelo_inurba_marseille","lat":43.27068,"lon":5.42277,"is_reserved":false,"is_disabled":false,"rental_uris":{"android":"levelo://app?vid=a52a97d6-c741-45d4-9f88-94220339da81","ios":"levelo://app?vid=a52a97d6-c741-45d4-9f88-94220339da81"},"vehicle_type_id":"4","last_reported":1747120268,"current_range_meters":14000,"station_id":"ce4bhk92rcd13ifvqgb0","pricing_plan_id":"cebpf4jnsgd1na2vs0mg"},{"bike_id":"1b333191-0165-4827-b024-3123f8947dd3","system_id":"levelo_inurba_marseille","lat":43.33597,"lon":5.40967,"is_reserved":false,"is_disabled":false,"rental_uris":{"android":"levelo://app?vid=1b333191-0165-4827-b024-3123f8947dd3","ios":"levelo://app?vid=1b333191-0165-4827-b024-3123f8947dd3"},"vehicle_type_id":"4","last_reported":1747120268,"current_range_meters":13600,"station_id":"ce4bhqh2rcd13ifvqhmg","pricing_plan_id":"cebpf4jnsgd1na2vs0mg"},{"bike_id":"304fc888-8031-42c6-ac94-c248632c4501","system_id":"levelo_inurba_marseille","lat":43.33609,"lon":5.41029,"is_reserved":false,"is_disabled":false,"rental_uris":{"android":"levelo://app?vid=304fc888-8031-42c6-ac94-c248632c4501","ios":"levelo://app?vid=304fc888-8031-42c6-ac94-c248632c4501"},"vehicle_type_id":"4","last_reported":1747120268,"current_range_meters":14000,"station_id":"ce4bhqh2rcd13ifvqhmg","pricing_plan_id":"cebpf4jnsgd1na2vs0mg"},{"bike_id":"d6a18a5a-d20b-4f79-b88d-c2bc621caa23","system_id":"levelo_inurba_marseille","lat":43.29969,"lon":5.38492,"is_reserved":false,"is_disabled":false,"rental_uris":{"android":"levelo://app?vid=d6a18a5a-d20b-4f79-b88d-c2bc621caa23","ios":"levelo://app?vid=d6a18a5a-d20b-4f79-b88d-c2bc621caa23"},"vehicle_type_id":"4","last_reported":1747120268,"current_range_meters":14000,"station_id":"ce4bgj92rcd13ifvqbd0","pricing_plan_id":"cebpf4jnsgd1na2vs0mg"},{"bike_id":"92afb81e-0740-4403-a739-dfce020b88ef","system_id":"levelo_inurba_marseille","lat":43.30899,"lon":5.36842,"is_reserved":false,"is_disabled":false,"rental_uris":{"android":"levelo://app?vid=92afb81e-0740-4403-a739-dfce020b88ef","ios":"levelo://app?vid=92afb81e-0740-4403-a739-dfce020b88ef"},"vehicle_type_id":"4","last_reported":1747120268,"current_range_meters":14000,"station_id":"ce4bgn92rcd13ifvqbvg","pricing_plan_id":"cebpf4jnsgd1na2vs0mg"},{"bike_id":"4e332590-245b-4e77-b004-6ad41a786ce7","system_id":"levelo_inurba_marseille","lat":43.30463,"lon":5.37901,"is_reserved":false,"is_disabled":false,"rental_uris":{"android":"levelo://app?vid=4e332590-245b-4e77-b004-6ad41a786ce7","ios":"levelo://app?vid=4e332590-245b-4e77-b004-6ad41a786ce7"},"vehicle_type_id":"4","last_reported":1747120268,"current_range_meters":15200,"station_id":"ce4bgup2rcd13ifvqcn0","pricing_plan_id":"cebpf4jnsgd1na2vs0mg"},{"bike_id":"da18d5b1-a1e0-4788-b49e-8a8e3d5203f9","system_id":"levelo_inurba_marseille","lat":43.24079,"lon":5.37734,"is_reserved":false,"is_disabled":false,"rental_uris":{"android":"levelo://app?vid=da18d5b1-a1e0-4788-b49e-8a8e3d5203f9","ios":"levelo://app?vid=da18d5b1-a1e0-4788-b49e-8a8e3d5203f9"},"vehicle_type_id":"4","last_reported":1747120268,"current_range_meters":14400,"station_id":"ce4bhnp2rcd13ifvqgvg","pricing_plan_id":"cebpf4jnsgd1na2vs0mg"},{"bike_id":"152a8b5e-e8fc-4c70-a7fd-9add15ef06b9","system_id":"levelo_inurba_marseille","lat":43.3018,"lon":5.36625,"is_reserved":false,"is_disabled":true,"rental_uris":{"android":"levelo://app?vid=152a8b5e-e8fc-4c70-a7fd-9add15ef06b9","ios":"levelo://app?vid=152a8b5e-e8fc-4c70-a7fd-9add15ef06b9"},"vehicle_type_id":"4","last_reported":1747120268,"current_range_meters":14400,"station_id":"ce4bgrh2rcd13ifvqc8g","pricing_plan_id":"cebpf4jnsgd1na2vs0mg"},{"bike_id":"9420b0c0-ccad-448f-a4af-df39081e63e0","system_id":"levelo_inurba_marseille","lat":43.29583,"lon":5.36744,"is_reserved":false,"is_disabled":false,"rental_uris":{"android":"levelo://app?vid=9420b0c0-ccad-448f-a4af-df39081e63e0","ios":"levelo://app?vid=9420b0c0-ccad-448f-a4af-df39081e63e0"},"vehicle_type_id":"4","last_reported":1747120268,"current_range_meters":14800,"station_id":"ce4bgph2rcd13ifvqc2g","pricing_plan_id":"cebpf4jnsgd1na2vs0mg"},{"bike_id":"baad1b6a-a349-4fe8-9ca8-4efec80c64fe","system_id":"levelo_inurba_marseille","lat":43.30922,"lon":5.36848,"is_reserved":false,"is_disabled":false,"rental_uris":{"android":"levelo://app?vid=baad1b6a-a349-4fe8-9ca8-4efec80c64fe","ios":"levelo://app?vid=baad1b6a-a349-4fe8-9ca8-4efec80c64fe"},"vehicle_type_id":"4","last_reported":1747120268,"current_range_meters":14800,"station_id":"ce4bgn92rcd13ifvqbvg","pricing_plan_id":"cebpf4jnsgd1na2vs0mg"},{"bike_id":"399268fe-a414-4b83-a343-fc93fa41eaf4","system_id":"levelo_inurba_marseille","lat":43.28616,"lon":5.35105,"is_reserved":false,"is_disabled":false,"rental_uris":{"android":"levelo://app?vid=399268fe-a414-4b83-a343-fc93fa41eaf4","ios":"levelo://app?vid=399268fe-a414-4b83-a343-fc93fa41eaf4"},"vehicle_type_id":"4","last_reported":1747120268,"current_range_meters":14800,"station_id":"ce4bhch2rcd13ifvqeug","pricing_plan_id":"cebpf4jnsgd1na2vs0mg"},{"bike_id":"ef0f891e-d6e3-4198-aa9f-2547ee9950fb","system_id":"levelo_inurba_marseille","lat":43.28183,"lon":5.426607,"is_reserved":false,"is_disabled":true,"rental_uris":{"android":"levelo://app?vid=ef0f891e-d6e3-4198-aa9f-2547ee9950fb","ios":"levelo://app?vid=ef0f891e-d6e3-4198-aa9f-2547ee9950fb"},"vehicle_type_id":"4","last_reported":1747120268,"current_range_meters":14800,"station_id":"ce4bhnh2rcd13ifvqgug","pricing_plan_id":"cebpf4jnsgd1na2vs0mg"},{"bike_id":"386d5dbf-2a14-4801-8ee7-a8f50e4a87d8","system_id":"levelo_inurba_marseille","lat":43.217517,"lon":5.345967,"is_reserved":false,"is_disabled":true,"rental_uris":{"android":"levelo://app?vid=386d5dbf-2a14-4801-8ee7-a8f50e4a87d8","ios":"levelo://app?vid=386d5dbf-2a14-4801-8ee7-a8f50e4a87d8"},"vehicle_type_id":"4","last_reported":1747120268,"current_range_meters":15200,"station_id":"st_cvj6r9ubvosntc0bgbag","pricing_plan_id":"cebpf4jnsgd1na2vs0mg"},{"bike_id":"423d6e82-1559-4745-bd1d-c39d16e91885","system_id":"levelo_inurba_marseille","lat":43.30962,"lon":5.39036,"is_reserved":false,"is_disabled":true,"rental_uris":{"android":"levelo://app?vid=423d6e82-1559-4745-bd1d-c39d16e91885","ios":"levelo://app?vid=423d6e82-1559-4745-bd1d-c39d16e91885"},"vehicle_type_id":"4","last_reported":1747120268,"current_range_meters":15200,"station_id":"ce4bgup2rcd13ifvqco0","pricing_plan_id":"cebpf4jnsgd1na2vs0mg"},{"bike_id":"8136a806-37ea-4bbf-8997-2ad9f811c3c7","system_id":"levelo_inurba_marseille","lat":43.28422,"lon":5.34991,"is_reserved":false,"is_disabled":true,"rental_uris":{"android":"levelo://app?vid=8136a806-37ea-4bbf-8997-2ad9f811c3c7","ios":"levelo://app?vid=8136a806-37ea-4bbf-8997-2ad9f811c3c7"},"vehicle_type_id":"4","last_reported":1747120268,"current_range_meters":16000,"station_id":"ce4bhbh2rcd13ifvqepg","pricing_plan_id":"cebpf4jnsgd1na2vs0mg"},{"bike_id":"10034673-7722-4559-90e1-f34dd962d7f6","system_id":"levelo_inurba_marseille","lat":43.23151,"lon":5.43719,"is_reserved":false,"is_disabled":false,"rental_uris":{"android":"levelo://app?vid=10034673-7722-4559-90e1-f34dd962d7f6","ios":"levelo://app?vid=10034673-7722-4559-90e1-f34dd962d7f6"},"vehicle_type_id":"4","last_reported":1747120268,"current_range_meters":16000,"station_id":"","pricing_plan_id":"cebpf4jnsgd1na2vs0mg"},{"bike_id":"3cb26124-2446-4a74-9563-870f4a755105","system_id":"levelo_inurba_marseille","lat":43.29555,"lon":5.38528,"is_reserved":false,"is_disabled":false,"rental_uris":{"android":"levelo://app?vid=3cb26124-2446-4a74-9563-870f4a755105","ios":"levelo://app?vid=3cb26124-2446-4a74-9563-870f4a755105"},"vehicle_type_id":"4","last_reported":1747120268,"current_range_meters":16000,"station_id":"ce4bgih2rcd13ifvqba0","pricing_plan_id":"cebpf4jnsgd1na2vs0mg"},{"bike_id":"68cba90a-f341-46b7-8447-66a01a4dc908","system_id":"levelo_inurba_marseille","lat":43.31233,"lon":5.36832,"is_reserved":false,"is_disabled":false,"rental_uris":{"android":"levelo://app?vid=68cba90a-f341-46b7-8447-66a01a4dc908","ios":"levelo://app?vid=68cba90a-f341-46b7-8447-66a01a4dc908"},"vehicle_type_id":"4","last_reported":1747120268,"current_range_meters":16000,"station_id":"ce4bgl92rcd13ifvqbq0","pricing_plan_id":"cebpf4jnsgd1na2vs0mg"},{"bike_id":"98210ef9-eac4-4d62-8f9b-b9545a42446e","system_id":"levelo_inurba_marseille","lat":43.26787,"lon":5.39413,"is_reserved":false,"is_disabled":false,"rental_uris":{"android":"levelo://app?vid=98210ef9-eac4-4d62-8f9b-b9545a42446e","ios":"levelo://app?vid=98210ef9-eac4-4d62-8f9b-b9545a42446e"},"vehicle_type_id":"4","last_reported":1747120268,"current_range_meters":15200,"station_id":"ce4bhh12rcd13ifvqfg0","pricing_plan_id":"cebpf4jnsgd1na2vs0mg"},{"bike_id":"6849816a-14a2-4736-aae2-e7373738bc80","system_id":"levelo_inurba_marseille","lat":43.261092,"lon":5.409172,"is_reserved":false,"is_disabled":false,"rental_uris":{"android":"levelo://app?vid=6849816a-14a2-4736-aae2-e7373738bc80","ios":"levelo://app?vid=6849816a-14a2-4736-aae2-e7373738bc80"},"vehicle_type_id":"4","last_reported":1747120268,"current_range_meters":16000,"station_id":"ce4bhm92rcd13ifvqglg","pricing_plan_id":"cebpf4jnsgd1na2vs0mg"},{"bike_id":"0e123c4d-e8d0-4826-91b5-bc1bd261f062","system_id":"levelo_inurba_marseille","lat":43.292671,"lon":5.40134,"is_reserved":false,"is_disabled":true,"rental_uris":{"android":"levelo://app?vid=0e123c4d-e8d0-4826-91b5-bc1bd261f062","ios":"levelo://app?vid=0e123c4d-e8d0-4826-91b5-bc1bd261f062"},"vehicle_type_id":"4","last_reported":1747120268,"current_range_meters":16000,"station_id":"ce4bh312rcd13ifvqdk0","pricing_plan_id":"cebpf4jnsgd1na2vs0mg"},{"bike_id":"520f07fc-e2a5-442e-bcdc-caa8376efe3e","system_id":"levelo_inurba_marseille","lat":43.31682,"lon":5.40442,"is_reserved":false,"is_disabled":false,"rental_uris":{"android":"levelo://app?vid=520f07fc-e2a5-442e-bcdc-caa8376efe3e","ios":"levelo://app?vid=520f07fc-e2a5-442e-bcdc-caa8376efe3e"},"vehicle_type_id":"4","last_reported":1747120268,"current_range_meters":16000,"station_id":"ce4bh012rcd13ifvqd00","pricing_plan_id":"cebpf4jnsgd1na2vs0mg"},{"bike_id":"9d352004-7b2c-43e3-9328-20e4f737c9c4","system_id":"levelo_inurba_marseille","lat":43.262294,"lon":5.404539,"is_reserved":false,"is_disabled":false,"rental_uris":{"android":"levelo://app?vid=9d352004-7b2c-43e3-9328-20e4f737c9c4","ios":"levelo://app?vid=9d352004-7b2c-43e3-9328-20e4f737c9c4"},"vehicle_type_id":"4","last_reported":1747120268,"current_range_meters":16400,"station_id":"","pricing_plan_id":"cebpf4jnsgd1na2vs0mg"},{"bike_id":"c6e102e4-bc3a-4986-9cc1-ef27b6e789ed","system_id":"levelo_inurba_marseille","lat":43.25581,"lon":5.38227,"is_reserved":false,"is_disabled":false,"rental_uris":{"android":"levelo://app?vid=c6e102e4-bc3a-4986-9cc1-ef27b6e789ed","ios":"levelo://app?vid=c6e102e4-bc3a-4986-9cc1-ef27b6e789ed"},"vehicle_type_id":"4","last_reported":1747120268,"current_range_meters":16400,"station_id":"ce4bhih2rcd13ifvqfs0","pricing_plan_id":"cebpf4jnsgd1na2vs0mg"},{"bike_id":"1acfd386-7d38-4928-ad74-5021194967c2","system_id":"levelo_inurba_marseille","lat":43.3044,"lon":5.38878,"is_reserved":false,"is_disabled":true,"rental_uris":{"android":"levelo://app?vid=1acfd386-7d38-4928-ad74-5021194967c2","ios":"levelo://app?vid=1acfd386-7d38-4928-ad74-5021194967c2"},"vehicle_type_id":"4","last_reported":1747120268,"current_range_meters":16400,"station_id":"ce4bgk12rcd13ifvqbi0","pricing_plan_id":"cebpf4jnsgd1na2vs0mg"},{"bike_id":"42adceba-f4f5-4653-9a35-d6a660ec7789","system_id":"levelo_inurba_marseille","lat":43.281519,"lon":5.426415,"is_reserved":false,"is_disabled":false,"rental_uris":{"android":"levelo://app?vid=42adceba-f4f5-4653-9a35-d6a660ec7789","ios":"levelo://app?vid=42adceba-f4f5-4653-9a35-d6a660ec7789"},"vehicle_type_id":"4","last_reported":1747120268,"current_range_meters":16400,"station_id":"ce4bhnh2rcd13ifvqgug","pricing_plan_id":"cebpf4jnsgd1na2vs0mg"},{"bike_id":"2064d8ad-c121-472c-a67d-5dfda4a122da","system_id":"levelo_inurba_marseille","lat":43.29576,"lon":5.3751,"is_reserved":false,"is_disabled":true,"rental_uris":{"android":"levelo://app?vid=2064d8ad-c121-472c-a67d-5dfda4a122da","ios":"levelo://app?vid=2064d8ad-c121-472c-a67d-5dfda4a122da"},"vehicle_type_id":"4","last_reported":1747120268,"current_range_meters":16400,"station_id":"ce4bgh92rcd13ifvqb50","pricing_plan_id":"cebpf4jnsgd1na2vs0mg"},{"bike_id":"370f62b0-8ff8-4ce1-b00f-3b9934275e4d","system_id":"levelo_inurba_marseille","lat":43.26685,"lon":5.38273,"is_reserved":false,"is_disabled":false,"rental_uris":{"android":"levelo://app?vid=370f62b0-8ff8-4ce1-b00f-3b9934275e4d","ios":"levelo://app?vid=370f62b0-8ff8-4ce1-b00f-3b9934275e4d"},"vehicle_type_id":"4","last_reported":1747120268,"current_range_meters":16400,"station_id":"ce4bhg92rcd13ifvqf90","pricing_plan_id":"cebpf4jnsgd1na2vs0mg"},{"bike_id":"1809c357-d3a0-49fc-8ce5-d0d0accf9b3a","system_id":"levelo_inurba_marseille","lat":43.30467,"lon":5.3788,"is_reserved":false,"is_disabled":false,"rental_uris":{"android":"levelo://app?vid=1809c357-d3a0-49fc-8ce5-d0d0accf9b3a","ios":"levelo://app?vid=1809c357-d3a0-49fc-8ce5-d0d0accf9b3a"},"vehicle_type_id":"4","last_reported":1747120268,"current_range_meters":16800,"station_id":"ce4bgup2rcd13ifvqcn0","pricing_plan_id":"cebpf4jnsgd1na2vs0mg"},{"bike_id":"9e10921d-d693-409f-8777-722cd03590de","system_id":"levelo_inurba_marseille","lat":43.24083,"lon":5.3775,"is_reserved":false,"is_disabled":true,"rental_uris":{"android":"levelo://app?vid=9e10921d-d693-409f-8777-722cd03590de","ios":"levelo://app?vid=9e10921d-d693-409f-8777-722cd03590de"},"vehicle_type_id":"4","last_reported":1747120268,"current_range_meters":17200,"station_id":"ce4bhnp2rcd13ifvqgvg","pricing_plan_id":"cebpf4jnsgd1na2vs0mg"},{"bike_id":"8aea1482-d83c-43a6-9b4d-74632d7dcd35","system_id":"levelo_inurba_marseille","lat":43.25582,"lon":5.38223,"is_reserved":false,"is_disabled":false,"rental_uris":{"android":"levelo://app?vid=8aea1482-d83c-43a6-9b4d-74632d7dcd35","ios":"levelo://app?vid=8aea1482-d83c-43a6-9b4d-74632d7dcd35"},"vehicle_type_id":"4","last_reported":1747120268,"current_range_meters":17200,"station_id":"ce4bhih2rcd13ifvqfs0","pricing_plan_id":"cebpf4jnsgd1na2vs0mg"},{"bike_id":"625bf33b-dc2e-4284-b561-fdcce2330f7e","system_id":"levelo_inurba_marseille","lat":43.30903,"lon":5.36844,"is_reserved":false,"is_disabled":false,"rental_uris":{"android":"levelo://app?vid=625bf33b-dc2e-4284-b561-fdcce2330f7e","ios":"levelo://app?vid=625bf33b-dc2e-4284-b561-fdcce2330f7e"},"vehicle_type_id":"4","last_reported":1747120268,"current_range_meters":17200,"station_id":"ce4bgn92rcd13ifvqbvg","pricing_plan_id":"cebpf4jnsgd1na2vs0mg"},{"bike_id":"28003968-a2b0-481a-8857-d168805002b0","system_id":"levelo_inurba_marseille","lat":43.31355,"lon":5.36774,"is_reserved":false,"is_disabled":false,"rental_uris":{"android":"levelo://app?vid=28003968-a2b0-481a-8857-d168805002b0","ios":"levelo://app?vid=28003968-a2b0-481a-8857-d168805002b0"},"vehicle_type_id":"4","last_reported":1747120268,"current_range_meters":17600,"station_id":"","pricing_plan_id":"cebpf4jnsgd1na2vs0mg"},{"bike_id":"23648922-7d15-4b5e-adc5-e423f642fbe5","system_id":"levelo_inurba_marseille","lat":43.27978,"lon":5.38732,"is_reserved":false,"is_disabled":false,"rental_uris":{"android":"levelo://app?vid=23648922-7d15-4b5e-adc5-e423f642fbe5","ios":"levelo://app?vid=23648922-7d15-4b5e-adc5-e423f642fbe5"},"vehicle_type_id":"4","last_reported":1747120268,"current_range_meters":17200,"station_id":"ce4bhg12rcd13ifvqf80","pricing_plan_id":"cebpf4jnsgd1na2vs0mg"},{"bike_id":"a9a3c033-b9ce-4dee-bd49-e3d24094d09c","system_id":"levelo_inurba_marseille","lat":43.25933,"lon":5.40904,"is_reserved":false,"is_disabled":false,"rental_uris":{"android":"levelo://app?vid=a9a3c033-b9ce-4dee-bd49-e3d24094d09c","ios":"levelo://app?vid=a9a3c033-b9ce-4dee-bd49-e3d24094d09c"},"vehicle_type_id":"4","last_reported":1747120268,"current_range_meters":17200,"station_id":"ce4bhm92rcd13ifvqglg","pricing_plan_id":"cebpf4jnsgd1na2vs0mg"},{"bike_id":"4c96e461-6918-437d-b1d1-c5c7db68aa93","system_id":"levelo_inurba_marseille","lat":43.25936,"lon":5.40907,"is_reserved":false,"is_disabled":false,"rental_uris":{"android":"levelo://app?vid=4c96e461-6918-437d-b1d1-c5c7db68aa93","ios":"levelo://app?vid=4c96e461-6918-437d-b1d1-c5c7db68aa93"},"vehicle_type_id":"4","last_reported":1747120268,"current_range_meters":17600,"station_id":"ce4bhm92rcd13ifvqglg","pricing_plan_id":"cebpf4jnsgd1na2vs0mg"},{"bike_id":"af4abb17-1c65-4810-a22e-a9a0d1f2172d","system_id":"levelo_inurba_marseille","lat":43.29264,"lon":5.38444,"is_reserved":false,"is_disabled":false,"rental_uris":{"android":"levelo://app?vid=af4abb17-1c65-4810-a22e-a9a0d1f2172d","ios":"levelo://app?vid=af4abb17-1c65-4810-a22e-a9a0d1f2172d"},"vehicle_type_id":"4","last_reported":1747120268,"current_range_meters":17600,"station_id":"ce4bh692rcd13ifvqea0","pricing_plan_id":"cebpf4jnsgd1na2vs0mg"},{"bike_id":"a7f2adff-b0fb-4b55-8fee-0d531e1deed5","system_id":"levelo_inurba_marseille","lat":43.24166,"lon":5.36391,"is_reserved":false,"is_disabled":false,"rental_uris":{"android":"levelo://app?vid=a7f2adff-b0fb-4b55-8fee-0d531e1deed5","ios":"levelo://app?vid=a7f2adff-b0fb-4b55-8fee-0d531e1deed5"},"vehicle_type_id":"4","last_reported":1747120268,"current_range_meters":17600,"station_id":"cpo36qri1sfpv3e86is0","pricing_plan_id":"cebpf4jnsgd1na2vs0mg"},{"bike_id":"cb15221d-1ef6-4006-8e3a-d528e80c97db","system_id":"levelo_inurba_marseille","lat":43.24071,"lon":5.37766,"is_reserved":false,"is_disabled":false,"rental_uris":{"android":"levelo://app?vid=cb15221d-1ef6-4006-8e3a-d528e80c97db","ios":"levelo://app?vid=cb15221d-1ef6-4006-8e3a-d528e80c97db"},"vehicle_type_id":"4","last_reported":1747120268,"current_range_meters":18000,"station_id":"ce4bhnp2rcd13ifvqgvg","pricing_plan_id":"cebpf4jnsgd1na2vs0mg"},{"bike_id":"a9a5e0ad-4f27-4ae0-bbcd-b699ceb58dc4","system_id":"levelo_inurba_marseille","lat":43.30279,"lon":5.37727,"is_reserved":false,"is_disabled":false,"rental_uris":{"android":"levelo://app?vid=a9a5e0ad-4f27-4ae0-bbcd-b699ceb58dc4","ios":"levelo://app?vid=a9a5e0ad-4f27-4ae0-bbcd-b699ceb58dc4"},"vehicle_type_id":"4","last_reported":1747120268,"current_range_meters":18000,"station_id":"ce4bguh2rcd13ifvqcj0","pricing_plan_id":"cebpf4jnsgd1na2vs0mg"},{"bike_id":"d3768589-0594-48f6-adbe-f5694b3f5a7d","system_id":"levelo_inurba_marseille","lat":43.30905,"lon":5.3684,"is_reserved":false,"is_disabled":false,"rental_uris":{"android":"levelo://app?vid=d3768589-0594-48f6-adbe-f5694b3f5a7d","ios":"levelo://app?vid=d3768589-0594-48f6-adbe-f5694b3f5a7d"},"vehicle_type_id":"4","last_reported":1747120268,"current_range_meters":18000,"station_id":"ce4bgn92rcd13ifvqbvg","pricing_plan_id":"cebpf4jnsgd1na2vs0mg"},{"bike_id":"36477034-e452-4f47-963f-4b78db5513d1","system_id":"levelo_inurba_marseille","lat":43.27497,"lon":5.42447,"is_reserved":false,"is_disabled":false,"rental_uris":{"android":"levelo://app?vid=36477034-e452-4f47-963f-4b78db5513d1","ios":"levelo://app?vid=36477034-e452-4f47-963f-4b78db5513d1"},"vehicle_type_id":"4","last_reported":1747120268,"current_range_meters":18000,"station_id":"ce4bhn92rcd13ifvqgrg","pricing_plan_id":"cebpf4jnsgd1na2vs0mg"},{"bike_id":"71406401-17bd-4c8b-9ee0-bfc94d969e96","system_id":"levelo_inurba_marseille","lat":43.23154,"lon":5.4371,"is_reserved":false,"is_disabled":false,"rental_uris":{"android":"levelo://app?vid=71406401-17bd-4c8b-9ee0-bfc94d969e96","ios":"levelo://app?vid=71406401-17bd-4c8b-9ee0-bfc94d969e96"},"vehicle_type_id":"4","last_reported":1747120268,"current_range_meters":17600,"station_id":"ce4bhmp2rcd13ifvqgog","pricing_plan_id":"cebpf4jnsgd1na2vs0mg"},{"bike_id":"3b63f4ae-0677-4efd-acaa-ccdbe55fa68d","system_id":"levelo_inurba_marseille","lat":43.29616,"lon":5.37153,"is_reserved":false,"is_disabled":false,"rental_uris":{"android":"levelo://app?vid=3b63f4ae-0677-4efd-acaa-ccdbe55fa68d","ios":"levelo://app?vid=3b63f4ae-0677-4efd-acaa-ccdbe55fa68d"},"vehicle_type_id":"4","last_reported":1747120268,"current_range_meters":18000,"station_id":"ce4bgnh2rcd13ifvqc0g","pricing_plan_id":"cebpf4jnsgd1na2vs0mg"},{"bike_id":"9d76660f-c284-49a2-8765-48337aa51471","system_id":"levelo_inurba_marseille","lat":43.32104,"lon":5.36795,"is_reserved":false,"is_disabled":false,"rental_uris":{"android":"levelo://app?vid=9d76660f-c284-49a2-8765-48337aa51471","ios":"levelo://app?vid=9d76660f-c284-49a2-8765-48337aa51471"},"vehicle_type_id":"4","last_reported":1747120268,"current_range_meters":18000,"station_id":"ce4bhrh2rcd13ifvqhug","pricing_plan_id":"cebpf4jnsgd1na2vs0mg"},{"bike_id":"a63a3a58-236e-4f56-8a36-c502516fb8a2","system_id":"levelo_inurba_marseille","lat":43.269388,"lon":5.386593,"is_reserved":false,"is_disabled":false,"rental_uris":{"android":"levelo://app?vid=a63a3a58-236e-4f56-8a36-c502516fb8a2","ios":"levelo://app?vid=a63a3a58-236e-4f56-8a36-c502516fb8a2"},"vehicle_type_id":"4","last_reported":1747120268,"current_range_meters":18000,"station_id":"ce4bhh92rcd13ifvqfh0","pricing_plan_id":"cebpf4jnsgd1na2vs0mg"},{"bike_id":"354f0639-e2ee-49bc-b649-f0d89cf9efb0","system_id":"levelo_inurba_marseille","lat":43.32457,"lon":5.36584,"is_reserved":false,"is_disabled":false,"rental_uris":{"android":"levelo://app?vid=354f0639-e2ee-49bc-b649-f0d89cf9efb0","ios":"levelo://app?vid=354f0639-e2ee-49bc-b649-f0d89cf9efb0"},"vehicle_type_id":"4","last_reported":1747120268,"current_range_meters":18000,"station_id":"ce4bhs12rcd13ifvqhvg","pricing_plan_id":"cebpf4jnsgd1na2vs0mg"},{"bike_id":"ab37f6e7-56ff-4a90-a22e-b5cee4f79770","system_id":"levelo_inurba_marseille","lat":43.30286,"lon":5.37685,"is_reserved":false,"is_disabled":false,"rental_uris":{"android":"levelo://app?vid=ab37f6e7-56ff-4a90-a22e-b5cee4f79770","ios":"levelo://app?vid=ab37f6e7-56ff-4a90-a22e-b5cee4f79770"},"vehicle_type_id":"4","last_reported":1747120268,"current_range_meters":18800,"station_id":"ce4bguh2rcd13ifvqcj0","pricing_plan_id":"cebpf4jnsgd1na2vs0mg"},{"bike_id":"d32141a3-bc2d-4773-a44e-5bf9a3ff868b","system_id":"levelo_inurba_marseille","lat":43.25713,"lon":5.41099,"is_reserved":false,"is_disabled":true,"rental_uris":{"android":"levelo://app?vid=d32141a3-bc2d-4773-a44e-5bf9a3ff868b","ios":"levelo://app?vid=d32141a3-bc2d-4773-a44e-5bf9a3ff868b"},"vehicle_type_id":"4","last_reported":1747120268,"current_range_meters":18800,"station_id":"ce4bhkp2rcd13ifvqgd0","pricing_plan_id":"cebpf4jnsgd1na2vs0mg"},{"bike_id":"8afdb18d-2f4f-4f8c-ae02-dbccef950d20","system_id":"levelo_inurba_marseille","lat":43.261994,"lon":5.37934,"is_reserved":false,"is_disabled":false,"rental_uris":{"android":"levelo://app?vid=8afdb18d-2f4f-4f8c-ae02-dbccef950d20","ios":"levelo://app?vid=8afdb18d-2f4f-4f8c-ae02-dbccef950d20"},"vehicle_type_id":"4","last_reported":1747120268,"current_range_meters":18800,"station_id":"ce4bhjp2rcd13ifvqg90","pricing_plan_id":"cebpf4jnsgd1na2vs0mg"},{"bike_id":"6447add0-127c-4a23-a543-5a6bd78c604f","system_id":"levelo_inurba_marseille","lat":43.23153,"lon":5.43726,"is_reserved":false,"is_disabled":false,"rental_uris":{"android":"levelo://app?vid=6447add0-127c-4a23-a543-5a6bd78c604f","ios":"levelo://app?vid=6447add0-127c-4a23-a543-5a6bd78c604f"},"vehicle_type_id":"4","last_reported":1747120268,"current_range_meters":18800,"station_id":"ce4bhmp2rcd13ifvqgog","pricing_plan_id":"cebpf4jnsgd1na2vs0mg"},{"bike_id":"0c893fb7-8626-4706-85bf-f404b871dea5","system_id":"levelo_inurba_marseille","lat":43.28121,"lon":5.44593,"is_reserved":false,"is_disabled":false,"rental_uris":{"android":"levelo://app?vid=0c893fb7-8626-4706-85bf-f404b871dea5","ios":"levelo://app?vid=0c893fb7-8626-4706-85bf-f404b871dea5"},"vehicle_type_id":"4","last_reported":1747120268,"current_range_meters":18800,"station_id":"","pricing_plan_id":"cebpf4jnsgd1na2vs0mg"},{"bike_id":"a5aaf42f-63b7-46db-a612-60915ca21e9a","system_id":"levelo_inurba_marseille","lat":43.23961,"lon":5.36636,"is_reserved":false,"is_disabled":false,"rental_uris":{"android":"levelo://app?vid=a5aaf42f-63b7-46db-a612-60915ca21e9a","ios":"levelo://app?vid=a5aaf42f-63b7-46db-a612-60915ca21e9a"},"vehicle_type_id":"4","last_reported":1747120268,"current_range_meters":18800,"station_id":"ce4bhi12rcd13ifvqfp0","pricing_plan_id":"cebpf4jnsgd1na2vs0mg"},{"bike_id":"85bb6071-e792-4f67-a718-8548b40eced6","system_id":"levelo_inurba_marseille","lat":43.28685,"lon":5.38639,"is_reserved":false,"is_disabled":true,"rental_uris":{"android":"levelo://app?vid=85bb6071-e792-4f67-a718-8548b40eced6","ios":"levelo://app?vid=85bb6071-e792-4f67-a718-8548b40eced6"},"vehicle_type_id":"4","last_reported":1747120268,"current_range_meters":18800,"station_id":"ce4bh492rcd13ifvqdug","pricing_plan_id":"cebpf4jnsgd1na2vs0mg"},{"bike_id":"37d0afeb-c3a4-49cc-b9d5-5b02dbd06a5f","system_id":"levelo_inurba_marseille","lat":43.30307,"lon":5.36885,"is_reserved":false,"is_disabled":false,"rental_uris":{"android":"levelo://app?vid=37d0afeb-c3a4-49cc-b9d5-5b02dbd06a5f","ios":"levelo://app?vid=37d0afeb-c3a4-49cc-b9d5-5b02dbd06a5f"},"vehicle_type_id":"4","last_reported":1747120268,"current_range_meters":16800,"station_id":"ce4bgqh2rcd13ifvqc5g","pricing_plan_id":"cebpf4jnsgd1na2vs0mg"},{"bike_id":"eeb882a8-fe36-4d5c-a964-fc0d0f965523","system_id":"levelo_inurba_marseille","lat":43.306784,"lon":5.366961,"is_reserved":false,"is_disabled":false,"rental_uris":{"android":"levelo://app?vid=eeb882a8-fe36-4d5c-a964-fc0d0f965523","ios":"levelo://app?vid=eeb882a8-fe36-4d5c-a964-fc0d0f965523"},"vehicle_type_id":"4","last_reported":1747120268,"current_range_meters":18800,"station_id":"","pricing_plan_id":"cebpf4jnsgd1na2vs0mg"},{"bike_id":"687d78f7-3517-403a-a139-1e6be83b5fe8","system_id":"levelo_inurba_marseille","lat":43.30536,"lon":5.36691,"is_reserved":false,"is_disabled":false,"rental_uris":{"android":"levelo://app?vid=687d78f7-3517-403a-a139-1e6be83b5fe8","ios":"levelo://app?vid=687d78f7-3517-403a-a139-1e6be83b5fe8"},"vehicle_type_id":"4","last_reported":1747120268,"current_range_meters":19200,"station_id":"ce4bgrp2rcd13ifvqc9g","pricing_plan_id":"cebpf4jnsgd1na2vs0mg"},{"bike_id":"1e297e0e-a907-489c-9a22-1dfb89bfb64f","system_id":"levelo_inurba_marseille","lat":43.292253,"lon":5.364281,"is_reserved":false,"is_disabled":true,"rental_uris":{"android":"levelo://app?vid=1e297e0e-a907-489c-9a22-1dfb89bfb64f","ios":"levelo://app?vid=1e297e0e-a907-489c-9a22-1dfb89bfb64f"},"vehicle_type_id":"4","last_reported":1747120268,"current_range_meters":19200,"station_id":"","pricing_plan_id":"cebpf4jnsgd1na2vs0mg"},{"bike_id":"09e60dc0-1eac-4ef5-b2b0-ce0b5323703b","system_id":"levelo_inurba_marseille","lat":43.27496,"lon":5.42454,"is_reserved":false,"is_disabled":false,"rental_uris":{"android":"levelo://app?vid=09e60dc0-1eac-4ef5-b2b0-ce0b5323703b","ios":"levelo://app?vid=09e60dc0-1eac-4ef5-b2b0-ce0b5323703b"},"vehicle_type_id":"4","last_reported":1747120268,"current_range_meters":19200,"station_id":"","pricing_plan_id":"cebpf4jnsgd1na2vs0mg"},{"bike_id":"5f5ac247-1071-4d23-8ca6-638af0ae1394","system_id":"levelo_inurba_marseille","lat":43.31688,"lon":5.40474,"is_reserved":false,"is_disabled":false,"rental_uris":{"android":"levelo://app?vid=5f5ac247-1071-4d23-8ca6-638af0ae1394","ios":"levelo://app?vid=5f5ac247-1071-4d23-8ca6-638af0ae1394"},"vehicle_type_id":"4","last_reported":1747120268,"current_range_meters":19200,"station_id":"ce4bh012rcd13ifvqd00","pricing_plan_id":"cebpf4jnsgd1na2vs0mg"},{"bike_id":"d0e68e99-0d56-43d7-9cdb-17944059d354","system_id":"levelo_inurba_marseille","lat":43.23957,"lon":5.3663,"is_reserved":false,"is_disabled":false,"rental_uris":{"android":"levelo://app?vid=d0e68e99-0d56-43d7-9cdb-17944059d354","ios":"levelo://app?vid=d0e68e99-0d56-43d7-9cdb-17944059d354"},"vehicle_type_id":"4","last_reported":1747120268,"current_range_meters":19200,"station_id":"ce4bhi12rcd13ifvqfp0","pricing_plan_id":"cebpf4jnsgd1na2vs0mg"},{"bike_id":"9e7ebd91-af82-4549-976b-c088b359c00b","system_id":"levelo_inurba_marseille","lat":43.32106,"lon":5.36772,"is_reserved":false,"is_disabled":false,"rental_uris":{"android":"levelo://app?vid=9e7ebd91-af82-4549-976b-c088b359c00b","ios":"levelo://app?vid=9e7ebd91-af82-4549-976b-c088b359c00b"},"vehicle_type_id":"4","last_reported":1747120268,"current_range_meters":19200,"station_id":"ce4bhrh2rcd13ifvqhug","pricing_plan_id":"cebpf4jnsgd1na2vs0mg"},{"bike_id":"bd88d41b-f29d-44c2-8d5d-19a0735af1da","system_id":"levelo_inurba_marseille","lat":43.2595,"lon":5.4091,"is_reserved":false,"is_disabled":true,"rental_uris":{"android":"levelo://app?vid=bd88d41b-f29d-44c2-8d5d-19a0735af1da","ios":"levelo://app?vid=bd88d41b-f29d-44c2-8d5d-19a0735af1da"},"vehicle_type_id":"4","last_reported":1747120268,"current_range_meters":19200,"station_id":"ce4bhm92rcd13ifvqglg","pricing_plan_id":"cebpf4jnsgd1na2vs0mg"},{"bike_id":"581a76c6-406f-436c-80cf-424046378536","system_id":"levelo_inurba_marseille","lat":43.231409,"lon":5.437153,"is_reserved":false,"is_disabled":false,"rental_uris":{"android":"levelo://app?vid=581a76c6-406f-436c-80cf-424046378536","ios":"levelo://app?vid=581a76c6-406f-436c-80cf-424046378536"},"vehicle_type_id":"4","last_reported":1747120268,"current_range_meters":19200,"station_id":"ce4bhmp2rcd13ifvqgog","pricing_plan_id":"cebpf4jnsgd1na2vs0mg"},{"bike_id":"56804647-9200-40e3-b22d-163739b0e936","system_id":"levelo_inurba_marseille","lat":43.30646,"lon":5.4008,"is_reserved":false,"is_disabled":true,"rental_uris":{"android":"levelo://app?vid=56804647-9200-40e3-b22d-163739b0e936","ios":"levelo://app?vid=56804647-9200-40e3-b22d-163739b0e936"},"vehicle_type_id":"4","last_reported":1747120268,"current_range_meters":19600,"station_id":"ce4bh112rcd13ifvqda0","pricing_plan_id":"cebpf4jnsgd1na2vs0mg"},{"bike_id":"4fd621e0-8bc7-4ef4-b86e-940c38d6e3f8","system_id":"levelo_inurba_marseille","lat":43.28365,"lon":5.43234,"is_reserved":false,"is_disabled":false,"rental_uris":{"android":"levelo://app?vid=4fd621e0-8bc7-4ef4-b86e-940c38d6e3f8","ios":"levelo://app?vid=4fd621e0-8bc7-4ef4-b86e-940c38d6e3f8"},"vehicle_type_id":"4","last_reported":1747120268,"current_range_meters":19600,"station_id":"","pricing_plan_id":"cebpf4jnsgd1na2vs0mg"},{"bike_id":"1cd58358-721b-4bc9-b989-1428aeed66f2","system_id":"levelo_inurba_marseille","lat":43.30556,"lon":5.36524,"is_reserved":false,"is_disabled":true,"rental_uris":{"android":"levelo://app?vid=1cd58358-721b-4bc9-b989-1428aeed66f2","ios":"levelo://app?vid=1cd58358-721b-4bc9-b989-1428aeed66f2"},"vehicle_type_id":"4","last_reported":1747120268,"current_range_meters":19600,"station_id":"","pricing_plan_id":"cebpf4jnsgd1na2vs0mg"},{"bike_id":"3015caa5-c6e8-446b-ada8-4c9f9c36d485","system_id":"levelo_inurba_marseille","lat":43.23963,"lon":5.36628,"is_reserved":false,"is_disabled":false,"rental_uris":{"android":"levelo://app?vid=3015caa5-c6e8-446b-ada8-4c9f9c36d485","ios":"levelo://app?vid=3015caa5-c6e8-446b-ada8-4c9f9c36d485"},"vehicle_type_id":"4","last_reported":1747120268,"current_range_meters":19200,"station_id":"ce4bhi12rcd13ifvqfp0","pricing_plan_id":"cebpf4jnsgd1na2vs0mg"},{"bike_id":"34275d03-580c-4cfa-af69-732b5634e104","system_id":"levelo_inurba_marseille","lat":43.28006,"lon":5.40002,"is_reserved":false,"is_disabled":false,"rental_uris":{"android":"levelo://app?vid=34275d03-580c-4cfa-af69-732b5634e104","ios":"levelo://app?vid=34275d03-580c-4cfa-af69-732b5634e104"},"vehicle_type_id":"4","last_reported":1747120268,"current_range_meters":20000,"station_id":"ce4bho92rcd13ifvqh4g","pricing_plan_id":"cebpf4jnsgd1na2vs0mg"},{"bike_id":"e46db928-c25e-4dfe-8a70-2fa26a1d146b","system_id":"levelo_inurba_marseille","lat":43.26503,"lon":5.39533,"is_reserved":false,"is_disabled":false,"rental_uris":{"android":"levelo://app?vid=e46db928-c25e-4dfe-8a70-2fa26a1d146b","ios":"levelo://app?vid=e46db928-c25e-4dfe-8a70-2fa26a1d146b"},"vehicle_type_id":"4","last_reported":1747120268,"current_range_meters":18800,"station_id":"ce4bhi12rcd13ifvqfq0","pricing_plan_id":"cebpf4jnsgd1na2vs0mg"},{"bike_id":"41a4bf39-49b2-4db9-8370-a61b5011ecbd","system_id":"levelo_inurba_marseille","lat":43.28988,"lon":5.37848,"is_reserved":false,"is_disabled":true,"rental_uris":{"android":"levelo://app?vid=41a4bf39-49b2-4db9-8370-a61b5011ecbd","ios":"levelo://app?vid=41a4bf39-49b2-4db9-8370-a61b5011ecbd"},"vehicle_type_id":"4","last_reported":1747120268,"current_range_meters":20000,"station_id":"ce4bh9p2rcd13ifvqed0","pricing_plan_id":"cebpf4jnsgd1na2vs0mg"},{"bike_id":"a5e11739-9f4e-4a5c-a67a-316bdd3705d0","system_id":"levelo_inurba_marseille","lat":43.26821,"lon":5.4029,"is_reserved":false,"is_disabled":false,"rental_uris":{"android":"levelo://app?vid=a5e11739-9f4e-4a5c-a67a-316bdd3705d0","ios":"levelo://app?vid=a5e11739-9f4e-4a5c-a67a-316bdd3705d0"},"vehicle_type_id":"4","last_reported":1747120268,"current_range_meters":20000,"station_id":"ce501612rcd8frsf0b60","pricing_plan_id":"cebpf4jnsgd1na2vs0mg"},{"bike_id":"9419948e-4bd4-4fc8-849a-66bff1b9465e","system_id":"levelo_inurba_marseille","lat":43.27489,"lon":5.42416,"is_reserved":false,"is_disabled":false,"rental_uris":{"android":"levelo://app?vid=9419948e-4bd4-4fc8-849a-66bff1b9465e","ios":"levelo://app?vid=9419948e-4bd4-4fc8-849a-66bff1b9465e"},"vehicle_type_id":"4","last_reported":1747120268,"current_range_meters":20000,"station_id":"ce4bhn92rcd13ifvqgrg","pricing_plan_id":"cebpf4jnsgd1na2vs0mg"},{"bike_id":"8d52e627-ecf1-493d-a183-cccbbadf7ce1","system_id":"levelo_inurba_marseille","lat":43.28176,"lon":5.42642,"is_reserved":false,"is_disabled":false,"rental_uris":{"android":"levelo://app?vid=8d52e627-ecf1-493d-a183-cccbbadf7ce1","ios":"levelo://app?vid=8d52e627-ecf1-493d-a183-cccbbadf7ce1"},"vehicle_type_id":"4","last_reported":1747120268,"current_range_meters":20400,"station_id":"ce4bhnh2rcd13ifvqgug","pricing_plan_id":"cebpf4jnsgd1na2vs0mg"},{"bike_id":"ffa64399-e8aa-4682-a9ff-872ec34e41fe","system_id":"levelo_inurba_marseille","lat":43.30462,"lon":5.37909,"is_reserved":false,"is_disabled":false,"rental_uris":{"android":"levelo://app?vid=ffa64399-e8aa-4682-a9ff-872ec34e41fe","ios":"levelo://app?vid=ffa64399-e8aa-4682-a9ff-872ec34e41fe"},"vehicle_type_id":"4","last_reported":1747120268,"current_range_meters":20400,"station_id":"ce4bgup2rcd13ifvqcn0","pricing_plan_id":"cebpf4jnsgd1na2vs0mg"},{"bike_id":"1b428821-d222-47f7-8992-820861a1f155","system_id":"levelo_inurba_marseille","lat":43.33608,"lon":5.41029,"is_reserved":false,"is_disabled":false,"rental_uris":{"android":"levelo://app?vid=1b428821-d222-47f7-8992-820861a1f155","ios":"levelo://app?vid=1b428821-d222-47f7-8992-820861a1f155"},"vehicle_type_id":"4","last_reported":1747120268,"current_range_meters":20400,"station_id":"ce4bhqh2rcd13ifvqhmg","pricing_plan_id":"cebpf4jnsgd1na2vs0mg"},{"bike_id":"6e3094ae-584b-4b23-8747-809792d486b5","system_id":"levelo_inurba_marseille","lat":43.21191,"lon":5.35071,"is_reserved":false,"is_disabled":false,"rental_uris":{"android":"levelo://app?vid=6e3094ae-584b-4b23-8747-809792d486b5","ios":"levelo://app?vid=6e3094ae-584b-4b23-8747-809792d486b5"},"vehicle_type_id":"4","last_reported":1747120268,"current_range_meters":20400,"station_id":"st_cvj6sg6p6f1abm77japg","pricing_plan_id":"cebpf4jnsgd1na2vs0mg"},{"bike_id":"d94ade41-3bd8-41db-87eb-ae1253102bdc","system_id":"levelo_inurba_marseille","lat":43.27501,"lon":5.42448,"is_reserved":false,"is_disabled":true,"rental_uris":{"android":"levelo://app?vid=d94ade41-3bd8-41db-87eb-ae1253102bdc","ios":"levelo://app?vid=d94ade41-3bd8-41db-87eb-ae1253102bdc"},"vehicle_type_id":"4","last_reported":1747120268,"current_range_meters":20400,"station_id":"ce4bhn92rcd13ifvqgrg","pricing_plan_id":"cebpf4jnsgd1na2vs0mg"},{"bike_id":"007b7e69-ac64-47d2-9811-36001b949ea4","system_id":"levelo_inurba_marseille","lat":43.28944,"lon":5.36398,"is_reserved":false,"is_disabled":false,"rental_uris":{"android":"levelo://app?vid=007b7e69-ac64-47d2-9811-36001b949ea4","ios":"levelo://app?vid=007b7e69-ac64-47d2-9811-36001b949ea4"},"vehicle_type_id":"4","last_reported":1747120268,"current_range_meters":20400,"station_id":"ce4bhc92rcd13ifvqetg","pricing_plan_id":"cebpf4jnsgd1na2vs0mg"},{"bike_id":"3224db34-9504-4e69-8482-2c2b7db78856","system_id":"levelo_inurba_marseille","lat":43.25494,"lon":5.37649,"is_reserved":false,"is_disabled":false,"rental_uris":{"android":"levelo://app?vid=3224db34-9504-4e69-8482-2c2b7db78856","ios":"levelo://app?vid=3224db34-9504-4e69-8482-2c2b7db78856"},"vehicle_type_id":"4","last_reported":1747120268,"current_range_meters":20400,"station_id":"ce4bhh12rcd13ifvqff0","pricing_plan_id":"cebpf4jnsgd1na2vs0mg"},{"bike_id":"11b308cc-473e-46e0-b5fa-f4741241916f","system_id":"levelo_inurba_marseille","lat":43.24387,"lon":5.37052,"is_reserved":false,"is_disabled":false,"rental_uris":{"android":"levelo://app?vid=11b308cc-473e-46e0-b5fa-f4741241916f","ios":"levelo://app?vid=11b308cc-473e-46e0-b5fa-f4741241916f"},"vehicle_type_id":"4","last_reported":1747120268,"current_range_meters":20400,"station_id":"ce4bhhh2rcd13ifvqfk0","pricing_plan_id":"cebpf4jnsgd1na2vs0mg"},{"bike_id":"ac558684-447f-4a75-8757-43949ea6d255","system_id":"levelo_inurba_marseille","lat":43.30542,"lon":5.38431,"is_reserved":false,"is_disabled":false,"rental_uris":{"android":"levelo://app?vid=ac558684-447f-4a75-8757-43949ea6d255","ios":"levelo://app?vid=ac558684-447f-4a75-8757-43949ea6d255"},"vehicle_type_id":"4","last_reported":1747120268,"current_range_meters":20400,"station_id":"ce4bgg92rcd13ifvqb30","pricing_plan_id":"cebpf4jnsgd1na2vs0mg"},{"bike_id":"ee053146-50bf-4c06-80c5-c37a39f2509a","system_id":"levelo_inurba_marseille","lat":43.26561,"lon":5.3728,"is_reserved":false,"is_disabled":false,"rental_uris":{"android":"levelo://app?vid=ee053146-50bf-4c06-80c5-c37a39f2509a","ios":"levelo://app?vid=ee053146-50bf-4c06-80c5-c37a39f2509a"},"vehicle_type_id":"4","last_reported":1747120268,"current_range_meters":20400,"station_id":"ce4bhg12rcd13ifvqf70","pricing_plan_id":"cebpf4jnsgd1na2vs0mg"},{"bike_id":"7edae4e3-02d9-44f7-8013-99c1fec4bf3b","system_id":"levelo_inurba_marseille","lat":43.31702,"lon":5.40459,"is_reserved":false,"is_disabled":false,"rental_uris":{"android":"levelo://app?vid=7edae4e3-02d9-44f7-8013-99c1fec4bf3b","ios":"levelo://app?vid=7edae4e3-02d9-44f7-8013-99c1fec4bf3b"},"vehicle_type_id":"4","last_reported":1747120268,"current_range_meters":20400,"station_id":"ce4bh012rcd13ifvqd00","pricing_plan_id":"cebpf4jnsgd1na2vs0mg"},{"bike_id":"ff7320e0-8e9c-483f-b6b8-d48de2e220d0","system_id":"levelo_inurba_marseille","lat":43.28718,"lon":5.37937,"is_reserved":false,"is_disabled":false,"rental_uris":{"android":"levelo://app?vid=ff7320e0-8e9c-483f-b6b8-d48de2e220d0","ios":"levelo://app?vid=ff7320e0-8e9c-483f-b6b8-d48de2e220d0"},"vehicle_type_id":"4","last_reported":1747120268,"current_range_meters":20800,"station_id":"ce4bh9p2rcd13ifvqec0","pricing_plan_id":"cebpf4jnsgd1na2vs0mg"},{"bike_id":"7d281acf-757f-4c4b-8cfd-840e752550e5","system_id":"levelo_inurba_marseille","lat":43.31338,"lon":5.36709,"is_reserved":false,"is_disabled":false,"rental_uris":{"android":"levelo://app?vid=7d281acf-757f-4c4b-8cfd-840e752550e5","ios":"levelo://app?vid=7d281acf-757f-4c4b-8cfd-840e752550e5"},"vehicle_type_id":"4","last_reported":1747120268,"current_range_meters":20800,"station_id":"ce4bgr92rcd13ifvqc6g","pricing_plan_id":"cebpf4jnsgd1na2vs0mg"},{"bike_id":"72a871df-0d08-4681-96f6-3e5d02d69707","system_id":"levelo_inurba_marseille","lat":43.26954,"lon":5.38638,"is_reserved":false,"is_disabled":false,"rental_uris":{"android":"levelo://app?vid=72a871df-0d08-4681-96f6-3e5d02d69707","ios":"levelo://app?vid=72a871df-0d08-4681-96f6-3e5d02d69707"},"vehicle_type_id":"4","last_reported":1747120268,"current_range_meters":20800,"station_id":"ce4bhh92rcd13ifvqfh0","pricing_plan_id":"cebpf4jnsgd1na2vs0mg"},{"bike_id":"d3ee0d64-5680-4380-93bd-954f0eacacee","system_id":"levelo_inurba_marseille","lat":43.29557,"lon":5.422905,"is_reserved":false,"is_disabled":false,"rental_uris":{"android":"levelo://app?vid=d3ee0d64-5680-4380-93bd-954f0eacacee","ios":"levelo://app?vid=d3ee0d64-5680-4380-93bd-954f0eacacee"},"vehicle_type_id":"4","last_reported":1747120268,"current_range_meters":20800,"station_id":"ce4bhph2rcd13ifvqhdg","pricing_plan_id":"cebpf4jnsgd1na2vs0mg"},{"bike_id":"c80b3654-d955-4be9-ad5a-c04d48f3520e","system_id":"levelo_inurba_marseille","lat":43.316895,"lon":5.404595,"is_reserved":false,"is_disabled":false,"rental_uris":{"android":"levelo://app?vid=c80b3654-d955-4be9-ad5a-c04d48f3520e","ios":"levelo://app?vid=c80b3654-d955-4be9-ad5a-c04d48f3520e"},"vehicle_type_id":"4","last_reported":1747120268,"current_range_meters":20800,"station_id":"","pricing_plan_id":"cebpf4jnsgd1na2vs0mg"},{"bike_id":"63bf3578-8331-4f5c-9837-4398bf1e6e37","system_id":"levelo_inurba_marseille","lat":43.30545,"lon":5.36544,"is_reserved":false,"is_disabled":false,"rental_uris":{"android":"levelo://app?vid=63bf3578-8331-4f5c-9837-4398bf1e6e37","ios":"levelo://app?vid=63bf3578-8331-4f5c-9837-4398bf1e6e37"},"vehicle_type_id":"4","last_reported":1747120268,"current_range_meters":21600,"station_id":"ce4bgs12rcd13ifvqcag","pricing_plan_id":"cebpf4jnsgd1na2vs0mg"},{"bike_id":"a1811688-68e4-477a-bc8b-271e96fe4451","system_id":"levelo_inurba_marseille","lat":43.29029,"lon":5.38624,"is_reserved":false,"is_disabled":true,"rental_uris":{"android":"levelo://app?vid=a1811688-68e4-477a-bc8b-271e96fe4451","ios":"levelo://app?vid=a1811688-68e4-477a-bc8b-271e96fe4451"},"vehicle_type_id":"4","last_reported":1747120268,"current_range_meters":21600,"station_id":"ce4bh4p2rcd13ifvqe0g","pricing_plan_id":"cebpf4jnsgd1na2vs0mg"},{"bike_id":"ae0510dd-41be-4f58-95f7-feea4be11841","system_id":"levelo_inurba_marseille","lat":43.231453,"lon":5.437147,"is_reserved":false,"is_disabled":false,"rental_uris":{"android":"levelo://app?vid=ae0510dd-41be-4f58-95f7-feea4be11841","ios":"levelo://app?vid=ae0510dd-41be-4f58-95f7-feea4be11841"},"vehicle_type_id":"4","last_reported":1747120268,"current_range_meters":21600,"station_id":"ce4bhmp2rcd13ifvqgog","pricing_plan_id":"cebpf4jnsgd1na2vs0mg"},{"bike_id":"ab9ec616-eeb0-462d-b0f9-a766f4cb52ab","system_id":"levelo_inurba_marseille","lat":43.299499,"lon":5.371462,"is_reserved":false,"is_disabled":false,"rental_uris":{"android":"levelo://app?vid=ab9ec616-eeb0-462d-b0f9-a766f4cb52ab","ios":"levelo://app?vid=ab9ec616-eeb0-462d-b0f9-a766f4cb52ab"},"vehicle_type_id":"4","last_reported":1747120268,"current_range_meters":21600,"station_id":"ce4bgn92rcd13ifvqbvg","pricing_plan_id":"cebpf4jnsgd1na2vs0mg"},{"bike_id":"3c8b2a8e-116b-4783-8030-383508abd82e","system_id":"levelo_inurba_marseille","lat":43.30904,"lon":5.36838,"is_reserved":false,"is_disabled":false,"rental_uris":{"android":"levelo://app?vid=3c8b2a8e-116b-4783-8030-383508abd82e","ios":"levelo://app?vid=3c8b2a8e-116b-4783-8030-383508abd82e"},"vehicle_type_id":"4","last_reported":1747120268,"current_range_meters":21600,"station_id":"ce4bgn92rcd13ifvqbvg","pricing_plan_id":"cebpf4jnsgd1na2vs0mg"},{"bike_id":"d3a5cc3e-354c-4da0-b869-05d11eee5ad3","system_id":"levelo_inurba_marseille","lat":43.30906,"lon":5.36845,"is_reserved":false,"is_disabled":false,"rental_uris":{"android":"levelo://app?vid=d3a5cc3e-354c-4da0-b869-05d11eee5ad3","ios":"levelo://app?vid=d3a5cc3e-354c-4da0-b869-05d11eee5ad3"},"vehicle_type_id":"4","last_reported":1747120268,"current_range_meters":21600,"station_id":"ce4bgn92rcd13ifvqbvg","pricing_plan_id":"cebpf4jnsgd1na2vs0mg"},{"bike_id":"c5a6038e-e242-4c42-a6da-186787771b16","system_id":"levelo_inurba_marseille","lat":43.21757,"lon":5.34599,"is_reserved":false,"is_disabled":true,"rental_uris":{"android":"levelo://app?vid=c5a6038e-e242-4c42-a6da-186787771b16","ios":"levelo://app?vid=c5a6038e-e242-4c42-a6da-186787771b16"},"vehicle_type_id":"4","last_reported":1747120268,"current_range_meters":22000,"station_id":"st_cvj6r9ubvosntc0bgbag","pricing_plan_id":"cebpf4jnsgd1na2vs0mg"},{"bike_id":"5586737f-6455-4ea2-9af8-69a63f84810a","system_id":"levelo_inurba_marseille","lat":43.23964,"lon":5.36632,"is_reserved":false,"is_disabled":false,"rental_uris":{"android":"levelo://app?vid=5586737f-6455-4ea2-9af8-69a63f84810a","ios":"levelo://app?vid=5586737f-6455-4ea2-9af8-69a63f84810a"},"vehicle_type_id":"4","last_reported":1747120268,"current_range_meters":22000,"station_id":"ce4bhi12rcd13ifvqfp0","pricing_plan_id":"cebpf4jnsgd1na2vs0mg"},{"bike_id":"4fd79603-ca8e-4915-930b-24722973e863","system_id":"levelo_inurba_marseille","lat":43.28349,"lon":5.3809,"is_reserved":false,"is_disabled":false,"rental_uris":{"android":"levelo://app?vid=4fd79603-ca8e-4915-930b-24722973e863","ios":"levelo://app?vid=4fd79603-ca8e-4915-930b-24722973e863"},"vehicle_type_id":"4","last_reported":1747120268,"current_range_meters":22400,"station_id":"ce4bh412rcd13ifvqdr0","pricing_plan_id":"cebpf4jnsgd1na2vs0mg"},{"bike_id":"8c722dff-ecd8-4688-a87a-8abea7d3e4c5","system_id":"levelo_inurba_marseille","lat":43.24386,"lon":5.37062,"is_reserved":false,"is_disabled":false,"rental_uris":{"android":"levelo://app?vid=8c722dff-ecd8-4688-a87a-8abea7d3e4c5","ios":"levelo://app?vid=8c722dff-ecd8-4688-a87a-8abea7d3e4c5"},"vehicle_type_id":"4","last_reported":1747120268,"current_range_meters":21600,"station_id":"ce4bhhh2rcd13ifvqfk0","pricing_plan_id":"cebpf4jnsgd1na2vs0mg"},{"bike_id":"c7d2adf1-6f29-499b-a0dc-801275eb9e83","system_id":"levelo_inurba_marseille","lat":43.31081,"lon":5.42427,"is_reserved":false,"is_disabled":false,"rental_uris":{"android":"levelo://app?vid=c7d2adf1-6f29-499b-a0dc-801275eb9e83","ios":"levelo://app?vid=c7d2adf1-6f29-499b-a0dc-801275eb9e83"},"vehicle_type_id":"4","last_reported":1747120268,"current_range_meters":22000,"station_id":"ce4bhp92rcd13ifvqhag","pricing_plan_id":"cebpf4jnsgd1na2vs0mg"},{"bike_id":"44f5a28e-85a9-4b29-a64d-2f1d7b383a71","system_id":"levelo_inurba_marseille","lat":43.25932,"lon":5.40905,"is_reserved":false,"is_disabled":false,"rental_uris":{"android":"levelo://app?vid=44f5a28e-85a9-4b29-a64d-2f1d7b383a71","ios":"levelo://app?vid=44f5a28e-85a9-4b29-a64d-2f1d7b383a71"},"vehicle_type_id":"4","last_reported":1747120268,"current_range_meters":22000,"station_id":"ce4bhm92rcd13ifvqglg","pricing_plan_id":"cebpf4jnsgd1na2vs0mg"},{"bike_id":"fe5c5cb1-0b46-464f-8ee8-8d670bbb61ec","system_id":"levelo_inurba_marseille","lat":43.255727,"lon":5.382524,"is_reserved":false,"is_disabled":false,"rental_uris":{"android":"levelo://app?vid=fe5c5cb1-0b46-464f-8ee8-8d670bbb61ec","ios":"levelo://app?vid=fe5c5cb1-0b46-464f-8ee8-8d670bbb61ec"},"vehicle_type_id":"4","last_reported":1747120268,"current_range_meters":22000,"station_id":"ce4bhih2rcd13ifvqfs0","pricing_plan_id":"cebpf4jnsgd1na2vs0mg"},{"bike_id":"4be5c5be-84ac-4ce3-92ee-5eb8e5fc9a49","system_id":"levelo_inurba_marseille","lat":43.30536,"lon":5.36719,"is_reserved":false,"is_disabled":false,"rental_uris":{"android":"levelo://app?vid=4be5c5be-84ac-4ce3-92ee-5eb8e5fc9a49","ios":"levelo://app?vid=4be5c5be-84ac-4ce3-92ee-5eb8e5fc9a49"},"vehicle_type_id":"4","last_reported":1747120268,"current_range_meters":22000,"station_id":"ce4bgrp2rcd13ifvqc9g","pricing_plan_id":"cebpf4jnsgd1na2vs0mg"},{"bike_id":"05669342-cb45-4c08-a397-74c64938fdba","system_id":"levelo_inurba_marseille","lat":43.25936,"lon":5.40905,"is_reserved":false,"is_disabled":false,"rental_uris":{"android":"levelo://app?vid=05669342-cb45-4c08-a397-74c64938fdba","ios":"levelo://app?vid=05669342-cb45-4c08-a397-74c64938fdba"},"vehicle_type_id":"4","last_reported":1747120268,"current_range_meters":22000,"station_id":"ce4bhm92rcd13ifvqglg","pricing_plan_id":"cebpf4jnsgd1na2vs0mg"},{"bike_id":"7d838a2d-6553-47c4-93b8-5cadf95d1a7d","system_id":"levelo_inurba_marseille","lat":43.241787,"lon":5.397313,"is_reserved":false,"is_disabled":false,"rental_uris":{"android":"levelo://app?vid=7d838a2d-6553-47c4-93b8-5cadf95d1a7d","ios":"levelo://app?vid=7d838a2d-6553-47c4-93b8-5cadf95d1a7d"},"vehicle_type_id":"4","last_reported":1747120268,"current_range_meters":22400,"station_id":"ce4bhn12rcd13ifvqgpg","pricing_plan_id":"cebpf4jnsgd1na2vs0mg"},{"bike_id":"7c3d38dc-b1a2-4dae-812f-10870efc06cf","system_id":"levelo_inurba_marseille","lat":43.23168,"lon":5.43725,"is_reserved":false,"is_disabled":false,"rental_uris":{"android":"levelo://app?vid=7c3d38dc-b1a2-4dae-812f-10870efc06cf","ios":"levelo://app?vid=7c3d38dc-b1a2-4dae-812f-10870efc06cf"},"vehicle_type_id":"4","last_reported":1747120268,"current_range_meters":22400,"station_id":"ce4bhmp2rcd13ifvqgog","pricing_plan_id":"cebpf4jnsgd1na2vs0mg"},{"bike_id":"1b7d212e-cba0-4822-898a-db176ec8e7ea","system_id":"levelo_inurba_marseille","lat":43.30441,"lon":5.38897,"is_reserved":false,"is_disabled":true,"rental_uris":{"android":"levelo://app?vid=1b7d212e-cba0-4822-898a-db176ec8e7ea","ios":"levelo://app?vid=1b7d212e-cba0-4822-898a-db176ec8e7ea"},"vehicle_type_id":"4","last_reported":1747120268,"current_range_meters":22400,"station_id":"ce4bgk12rcd13ifvqbi0","pricing_plan_id":"cebpf4jnsgd1na2vs0mg"},{"bike_id":"bb15afdf-add2-45f8-a725-adff291b7d59","system_id":"levelo_inurba_marseille","lat":43.30532,"lon":5.36725,"is_reserved":false,"is_disabled":false,"rental_uris":{"android":"levelo://app?vid=bb15afdf-add2-45f8-a725-adff291b7d59","ios":"levelo://app?vid=bb15afdf-add2-45f8-a725-adff291b7d59"},"vehicle_type_id":"4","last_reported":1747120268,"current_range_meters":22400,"station_id":"ce4bgrp2rcd13ifvqc9g","pricing_plan_id":"cebpf4jnsgd1na2vs0mg"},{"bike_id":"e70e47c0-7e35-45ee-b7f6-ab8a468ac3b7","system_id":"levelo_inurba_marseille","lat":43.30539,"lon":5.36698,"is_reserved":false,"is_disabled":false,"rental_uris":{"android":"levelo://app?vid=e70e47c0-7e35-45ee-b7f6-ab8a468ac3b7","ios":"levelo://app?vid=e70e47c0-7e35-45ee-b7f6-ab8a468ac3b7"},"vehicle_type_id":"4","last_reported":1747120268,"current_range_meters":20800,"station_id":"ce4bgrp2rcd13ifvqc9g","pricing_plan_id":"cebpf4jnsgd1na2vs0mg"},{"bike_id":"f171e2b3-b130-4863-9d91-60994ff9c8af","system_id":"levelo_inurba_marseille","lat":43.28574,"lon":5.39502,"is_reserved":false,"is_disabled":false,"rental_uris":{"android":"levelo://app?vid=f171e2b3-b130-4863-9d91-60994ff9c8af","ios":"levelo://app?vid=f171e2b3-b130-4863-9d91-60994ff9c8af"},"vehicle_type_id":"4","last_reported":1747120268,"current_range_meters":24000,"station_id":"ce4bh292rcd13ifvqdg0","pricing_plan_id":"cebpf4jnsgd1na2vs0mg"},{"bike_id":"377e5032-599c-4e55-9cd7-bb3c6e3e0fd8","system_id":"levelo_inurba_marseille","lat":43.341418,"lon":5.409058,"is_reserved":false,"is_disabled":false,"rental_uris":{"android":"levelo://app?vid=377e5032-599c-4e55-9cd7-bb3c6e3e0fd8","ios":"levelo://app?vid=377e5032-599c-4e55-9cd7-bb3c6e3e0fd8"},"vehicle_type_id":"4","last_reported":1747120268,"current_range_meters":22400,"station_id":"ce4bhqh2rcd13ifvqhlg","pricing_plan_id":"cebpf4jnsgd1na2vs0mg"},{"bike_id":"f2ac7eae-1989-4024-8480-23c489f655a2","system_id":"levelo_inurba_marseille","lat":43.30807,"lon":5.43525,"is_reserved":false,"is_disabled":true,"rental_uris":{"android":"levelo://app?vid=f2ac7eae-1989-4024-8480-23c489f655a2","ios":"levelo://app?vid=f2ac7eae-1989-4024-8480-23c489f655a2"},"vehicle_type_id":"4","last_reported":1747120268,"current_range_meters":22400,"station_id":"ce4bhph2rcd13ifvqheg","pricing_plan_id":"cebpf4jnsgd1na2vs0mg"},{"bike_id":"0f915506-bdda-41cd-b908-fd8d1b00fa4d","system_id":"levelo_inurba_marseille","lat":43.24998,"lon":5.38929,"is_reserved":false,"is_disabled":false,"rental_uris":{"android":"levelo://app?vid=0f915506-bdda-41cd-b908-fd8d1b00fa4d","ios":"levelo://app?vid=0f915506-bdda-41cd-b908-fd8d1b00fa4d"},"vehicle_type_id":"4","last_reported":1747120268,"current_range_meters":22000,"station_id":"ce4bhgp2rcd13ifvqfd0","pricing_plan_id":"cebpf4jnsgd1na2vs0mg"},{"bike_id":"d62e2a88-fcaa-4c47-88ab-5dfbf45316a8","system_id":"levelo_inurba_marseille","lat":43.3094,"lon":5.40138,"is_reserved":false,"is_disabled":false,"rental_uris":{"android":"levelo://app?vid=d62e2a88-fcaa-4c47-88ab-5dfbf45316a8","ios":"levelo://app?vid=d62e2a88-fcaa-4c47-88ab-5dfbf45316a8"},"vehicle_type_id":"4","last_reported":1747120268,"current_range_meters":22800,"station_id":"ce4bgvp2rcd13ifvqct0","pricing_plan_id":"cebpf4jnsgd1na2vs0mg"},{"bike_id":"e753fca7-77cd-4454-9e59-ee2ddd0637fc","system_id":"levelo_inurba_marseille","lat":43.274838,"lon":5.42433,"is_reserved":false,"is_disabled":false,"rental_uris":{"android":"levelo://app?vid=e753fca7-77cd-4454-9e59-ee2ddd0637fc","ios":"levelo://app?vid=e753fca7-77cd-4454-9e59-ee2ddd0637fc"},"vehicle_type_id":"4","last_reported":1747120268,"current_range_meters":22800,"station_id":"ce4bhn92rcd13ifvqgrg","pricing_plan_id":"cebpf4jnsgd1na2vs0mg"},{"bike_id":"5647a91f-31a6-41fb-82bb-83893a94fc73","system_id":"levelo_inurba_marseille","lat":43.21191,"lon":5.35078,"is_reserved":false,"is_disabled":false,"rental_uris":{"android":"levelo://app?vid=5647a91f-31a6-41fb-82bb-83893a94fc73","ios":"levelo://app?vid=5647a91f-31a6-41fb-82bb-83893a94fc73"},"vehicle_type_id":"4","last_reported":1747120268,"current_range_meters":22800,"station_id":"st_cvj6sg6p6f1abm77japg","pricing_plan_id":"cebpf4jnsgd1na2vs0mg"},{"bike_id":"0ba588c2-976a-4dd8-ae96-82420415e2c4","system_id":"levelo_inurba_marseille","lat":43.258639,"lon":5.398835,"is_reserved":false,"is_disabled":true,"rental_uris":{"android":"levelo://app?vid=0ba588c2-976a-4dd8-ae96-82420415e2c4","ios":"levelo://app?vid=0ba588c2-976a-4dd8-ae96-82420415e2c4"},"vehicle_type_id":"4","last_reported":1747120268,"current_range_meters":22800,"station_id":"ce4bhl92rcd13ifvqghg","pricing_plan_id":"cebpf4jnsgd1na2vs0mg"},{"bike_id":"b963eb7d-609a-45f1-bafd-6ea623ae7fbf","system_id":"levelo_inurba_marseille","lat":43.2816,"lon":5.42638,"is_reserved":false,"is_disabled":false,"rental_uris":{"android":"levelo://app?vid=b963eb7d-609a-45f1-bafd-6ea623ae7fbf","ios":"levelo://app?vid=b963eb7d-609a-45f1-bafd-6ea623ae7fbf"},"vehicle_type_id":"4","last_reported":1747120268,"current_range_meters":22800,"station_id":"ce4bhnh2rcd13ifvqgug","pricing_plan_id":"cebpf4jnsgd1na2vs0mg"},{"bike_id":"d1d887c7-f50f-4957-b86e-035892f34ffb","system_id":"levelo_inurba_marseille","lat":43.31335,"lon":5.36723,"is_reserved":false,"is_disabled":false,"rental_uris":{"android":"levelo://app?vid=d1d887c7-f50f-4957-b86e-035892f34ffb","ios":"levelo://app?vid=d1d887c7-f50f-4957-b86e-035892f34ffb"},"vehicle_type_id":"4","last_reported":1747120268,"current_range_meters":23200,"station_id":"ce4bgr92rcd13ifvqc6g","pricing_plan_id":"cebpf4jnsgd1na2vs0mg"},