{"last_updated":1732299213,"ttl":60,"version":"2.2","data":{"bikes":[{"bike_id":"39d10901-8d3d-400f-9f38-382d4a90a845","system_id":"levelo_inurba_marseille","lat":43.305951,"lon":5.372416,"is_reserved":false,"is_disabled":false,"rental_uris":{"android":"levelo://app?vid=39d10901-8d3d-400f-9f38-382d4a90a845","ios":"levelo://app?vid=39d10901-8d3d-400f-9f38-382d4a90a845"},"vehicle_type_id":"4","last_reported":1732299213,"current_range_meters":38000,"station_id":"ce4bgqh2rcd13ifvqc4g","pricing_plan_id":"cebpf4jnsgd1na2vs0mg"},{"bike_id":"e23b6c4c-d27e-407e-a72b-e3ea9129fcf8","system_id":"levelo_inurba_marseille","lat":43.32363,"lon":5.38884,"is_reserved":false,"is_disabled":false,"rental_uris":{"android":"levelo://app?vid=e23b6c4c-d27e-407e-a72b-e3ea9129fcf8","ios":"levelo://app?vid=e23b6c4c-d27e-407e-a72b-e3ea9129fcf8"},"vehicle_type_id":"4","last_reported":1732299213,"current_range_meters":33200,"station_id":"ce4bhqp2rcd13ifvqhog","pricing_plan_id":"cebpf4jnsgd1na2vs0mg"},{"bike_id":"216bffcf-1b87-4e7e-9ea8-7ffd8995fe38","system_id":"levelo_inurba_marseille","lat":43.28918,"lon":5.38392,"is_reserved":false,"is_disabled":true,"rental_uris":{"android":"levelo://app?vid=216bffcf-1b87-4e7e-9ea8-7ffd8995fe38","ios":"levelo://app?vid=216bffcf-1b87-4e7e-9ea8-7ffd8995fe38"},"vehicle_type_id":"4","last_reported":1732299213,"current_range_meters":17600,"station_id":"ce4bh612rcd13ifvqe6g","pricing_plan_id":"cebpf4jnsgd1na2vs0mg"},{"bike_id":"7e479fbd-7ecb-469c-ab80-e5716957f81b","system_id":"levelo_inurba_marseille","lat":43.29187,"lon":5.39314,"is_reserved":false,"is_disabled":true,"rental_uris":{"android":"levelo://app?vid=7e479fbd-7ecb-469c-ab80-e5716957f81b","ios":"levelo://app?vid=7e479fbd-7ecb-469c-ab80-e5716957f81b"},"vehicle_type_id":"4","last_reported":1732299213,"current_range_meters":0,"station_id":"ce4bh192rcd13ifvqdd0","pricing_plan_id":"cebpf4jnsgd1na2vs0mg"},{"bike_id":"08f392b7-fb0b-40fb-b32a-822f164ec237","system_id":"levelo_inurba_marseille","lat":43.2694,"lon":5.40243,"is_reserved":false,"is_disabled":false,"rental_uris":{"android":"levelo://app?vid=08f392b7-fb0b-40fb-b32a-822f164ec237","ios":"levelo://app?vid=08f392b7-fb0b-40fb-b32a-822f164ec237"},"vehicle_type_id":"4","last_reported":1732299213,"current_range_meters":10000,"station_id":"cjm6bp8fraef2m0cb0m0","pricing_plan_id":"cebpf4jnsgd1na2vs0mg"},{"bike_id":"14f9c2cf-aacf-4b67-838d-7115665ba4f3","system_id":"levelo_inurba_marseille","lat":43.24184,"lon":5.39732,"is_reserved":false,"is_disabled":false,"rental_uris":{"android":"levelo://app?vid=14f9c2cf-aacf-4b67-838d-7115665ba4f3","ios":"levelo://app?vid=14f9c2cf-aacf-4b67-838d-7115665ba4f3"},"vehicle_type_id":"4","last_reported":1732299213,"current_range_meters":26000,"station_id":"ce4bhn12rcd13ifvqgpg","pricing_plan_id":"cebpf4jnsgd1na2vs0mg"},{"bike_id":"6dd72399-4c36-4f79-acf1-4c5ee36d28ce","system_id":"levelo_inurba_marseille","lat":43.26064,"lon":5.39395,"is_reserved":false,"is_disabled":false,"rental_uris":{"android":"levelo://app?vid=6dd72399-4c36-4f79-acf1-4c5ee36d28ce","ios":"levelo://app?vid=6dd72399-4c36-4f79-acf1-4c5ee36d28ce"},"vehicle_type_id":"4","last_reported":1732299213,"current_range_meters":35200,"station_id":"ce4bhh92rcd13ifvqfj0","pricing_plan_id":"cebpf4jnsgd1na2vs0mg"},{"bike_id":"fca891bd-5eb2-41ff-9b48-d4714520d19d","system_id":"levelo_inurba_marseille","lat":43.3043,"lon":5.39748,"is_reserved":false,"is_disabled":false,"rental_uris":{"android":"levelo://app?vid=fca891bd-5eb2-41ff-9b48-d4714520d19d","ios":"levelo://app?vid=fca891bd-5eb2-41ff-9b48-d4714520d19d"},"vehicle_type_id":"4","last_reported":1732299213,"current_range_meters":18800,"station_id":"ce4bh092rcd13ifvqd20","pricing_plan_id":"cebpf4jnsgd1na2vs0mg"},{"bike_id":"11114092-3108-4d5a-be35-06e9090d2527","system_id":"levelo_inurba_marseille","lat":43.26841,"lon":5.41111,"is_reserved":false,"is_disabled":false,"rental_uris":{"android":"levelo://app?vid=11114092-3108-4d5a-be35-06e9090d2527","ios":"levelo://app?vid=11114092-3108-4d5a-be35-06e9090d2527"},"vehicle_type_id":"4","last_reported":1732299213,"current_range_meters":27600,"station_id":"","pricing_plan_id":"cebpf4jnsgd1na2vs0mg"},{"bike_id":"3cf96671-ab7f-46af-a79c-7b7f77f3124a","system_id":"levelo_inurba_marseille","lat":43.2963,"lon":5.40594,"is_reserved":false,"is_disabled":false,"rental_uris":{"android":"levelo://app?vid=3cf96671-ab7f-46af-a79c-7b7f77f3124a","ios":"levelo://app?vid=3cf96671-ab7f-46af-a79c-7b7f77f3124a"},"vehicle_type_id":"4","last_reported":1732299213,"current_range_meters":38800,"station_id":"ce4bh0h2rcd13ifvqd60","pricing_plan_id":"cebpf4jnsgd1na2vs0mg"},{"bike_id":"cc45001e-86ba-42cc-9993-ed5261abbfe0","system_id":"levelo_inurba_marseille","lat":43.32365,"lon":5.38883,"is_reserved":false,"is_disabled":false,"rental_uris":{"android":"levelo://app?vid=cc45001e-86ba-42cc-9993-ed5261abbfe0","ios":"levelo://app?vid=cc45001e-86ba-42cc-9993-ed5261abbfe0"},"vehicle_type_id":"4","last_reported":1732299213,"current_range_meters":12400,"station_id":"ce4bhqp2rcd13ifvqhog","pricing_plan_id":"cebpf4jnsgd1na2vs0mg"},{"bike_id":"76681a5e-d4d3-48cc-8e13-8277bff12ebc","system_id":"levelo_inurba_marseille","lat":43.27844,"lon":5.39207,"is_reserved":false,"is_disabled":false,"rental_uris":{"android":"levelo://app?vid=76681a5e-d4d3-48cc-8e13-8277bff12ebc","ios":"levelo://app?vid=76681a5e-d4d3-48cc-8e13-8277bff12ebc"},"vehicle_type_id":"4","last_reported":1732299213,"current_range_meters":28800,"station_id":"ce4bhjp2rcd13ifvqga0","pricing_plan_id":"cebpf4jnsgd1na2vs0mg"},{"bike_id":"b9276403-dd49-4178-ac3a-8fb925e6526c","system_id":"levelo_inurba_marseille","lat":43.24664,"lon":5.3817,"is_reserved":false,"is_disabled":true,"rental_uris":{"android":"levelo://app?vid=b9276403-dd49-4178-ac3a-8fb925e6526c","ios":"levelo://app?vid=b9276403-dd49-4178-ac3a-8fb925e6526c"},"vehicle_type_id":"4","last_reported":1732299213,"current_range_meters":1600,"station_id":"ce4bhih2rcd13ifvqfr0","pricing_plan_id":"cebpf4jnsgd1na2vs0mg"},{"bike_id":"c0755ad7-8353-40d1-98a4-bba43ca0e3ab","system_id":"levelo_inurba_marseille","lat":43.33729,"lon":5.39191,"is_reserved":false,"is_disabled":false,"rental_uris":{"android":"levelo://app?vid=c0755ad7-8353-40d1-98a4-bba43ca0e3ab","ios":"levelo://app?vid=c0755ad7-8353-40d1-98a4-bba43ca0e3ab"},"vehicle_type_id":"4","last_reported":1732299213,"current_range_meters":10800,"station_id":"ce4bhr92rcd13ifvqhsg","pricing_plan_id":"cebpf4jnsgd1na2vs0mg"},{"bike_id":"88eba2c0-6497-4d44-9139-2e81e8ca0ff2","system_id":"levelo_inurba_marseille","lat":43.25817,"lon":5.3943,"is_reserved":false,"is_disabled":false,"rental_uris":{"android":"levelo://app?vid=88eba2c0-6497-4d44-9139-2e81e8ca0ff2","ios":"levelo://app?vid=88eba2c0-6497-4d44-9139-2e81e8ca0ff2"},"vehicle_type_id":"4","last_reported":1732299213,"current_range_meters":39200,"station_id":"ce4bhip2rcd13ifvqft0","pricing_plan_id":"cebpf4jnsgd1na2vs0mg"},{"bike_id":"253d2ce6-caed-4854-89df-bb73cab6c29b","system_id":"levelo_inurba_marseille","lat":43.27673,"lon":5.38896,"is_reserved":false,"is_disabled":true,"rental_uris":{"android":"levelo://app?vid=253d2ce6-caed-4854-89df-bb73cab6c29b","ios":"levelo://app?vid=253d2ce6-caed-4854-89df-bb73cab6c29b"},"vehicle_type_id":"4","last_reported":1732299213,"current_range_meters":0,"station_id":"ce4bhi12rcd13ifvqfo0","pricing_plan_id":"cebpf4jnsgd1na2vs0mg"},{"bike_id":"648fea4c-d15a-4229-9feb-bafe88cbbe70","system_id":"levelo_inurba_marseille","lat":43.27951,"lon":5.41762,"is_reserved":false,"is_disabled":true,"rental_uris":{"android":"levelo://app?vid=648fea4c-d15a-4229-9feb-bafe88cbbe70","ios":"levelo://app?vid=648fea4c-d15a-4229-9feb-bafe88cbbe70"},"vehicle_type_id":"4","last_reported":1732299213,"current_range_meters":0,"station_id":"","pricing_plan_id":"cebpf4jnsgd1na2vs0mg"},{"bike_id":"6fd54a82-c167-4e34-b9be-a97971c293ac","system_id":"levelo_inurba_marseille","lat":43.29572,"lon":5.39979,"is_reserved":false,"is_disabled":false,"rental_uris":{"android":"levelo://app?vid=6fd54a82-c167-4e34-b9be-a97971c293ac","ios":"levelo://app?vid=6fd54a82-c167-4e34-b9be-a97971c293ac"},"vehicle_type_id":"4","last_reported":1732299213,"current_range_meters":2800,"station_id":"ce4bh312rcd13ifvqdj0","pricing_plan_id":"cebpf4jnsgd1na2vs0mg"},{"bike_id":"a3dfa29f-d880-4cbe-b909-b4e217158e03","system_id":"levelo_inurba_marseille","lat":43.27178,"lon":5.40994,"is_reserved":false,"is_disabled":true,"rental_uris":{"android":"levelo://app?vid=a3dfa29f-d880-4cbe-b909-b4e217158e03","ios":"levelo://app?vid=a3dfa29f-d880-4cbe-b909-b4e217158e03"},"vehicle_type_id":"4","last_reported":1732299213,"current_range_meters":34800,"station_id":"ce4bhl12rcd13ifvqgf0","pricing_plan_id":"cebpf4jnsgd1na2vs0mg"},{"bike_id":"d2321b4c-ae3a-4b43-8bcd-12cb7984481d","system_id":"levelo_inurba_marseille","lat":43.30742,"lon":5.37016,"is_reserved":false,"is_disabled":true,"rental_uris":{"android":"levelo://app?vid=d2321b4c-ae3a-4b43-8bcd-12cb7984481d","ios":"levelo://app?vid=d2321b4c-ae3a-4b43-8bcd-12cb7984481d"},"vehicle_type_id":"4","last_reported":1732299213,"current_range_meters":16400,"station_id":"","pricing_plan_id":"cebpf4jnsgd1na2vs0mg"},{"bike_id":"e0dcc654-e936-473c-9424-f16546e3bed3","system_id":"levelo_inurba_marseille","lat":43.29316,"lon":5.37175,"is_reserved":false,"is_disabled":false,"rental_uris":{"android":"levelo://app?vid=e0dcc654-e936-473c-9424-f16546e3bed3","ios":"levelo://app?vid=e0dcc654-e936-473c-9424-f16546e3bed3"},"vehicle_type_id":"4","last_reported":1732299213,"current_range_meters":22800,"station_id":"ce4bgh92rcd13ifvqb40","pricing_plan_id":"cebpf4jnsgd1na2vs0mg"},{"bike_id":"a1160e47-963c-487b-b4a8-41961bdec1c3","system_id":"levelo_inurba_marseille","lat":43.29793,"lon":5.40403,"is_reserved":false,"is_disabled":false,"rental_uris":{"android":"levelo://app?vid=a1160e47-963c-487b-b4a8-41961bdec1c3","ios":"levelo://app?vid=a1160e47-963c-487b-b4a8-41961bdec1c3"},"vehicle_type_id":"4","last_reported":1732299213,"current_range_meters":18000,"station_id":"ce4bh112rcd13ifvqd90","pricing_plan_id":"cebpf4jnsgd1na2vs0mg"},{"bike_id":"28cab644-6939-410a-baab-c1bdc4224832","system_id":"levelo_inurba_marseille","lat":43.32368,"lon":5.38881,"is_reserved":false,"is_disabled":false,"rental_uris":{"android":"levelo://app?vid=28cab644-6939-410a-baab-c1bdc4224832","ios":"levelo://app?vid=28cab644-6939-410a-baab-c1bdc4224832"},"vehicle_type_id":"4","last_reported":1732299213,"current_range_meters":34000,"station_id":"ce4bhqp2rcd13ifvqhog","pricing_plan_id":"cebpf4jnsgd1na2vs0mg"},{"bike_id":"5c3000a0-a190-4007-a723-aa2707fd1ce3","system_id":"levelo_inurba_marseille","lat":43.22932,"lon":5.35376,"is_reserved":false,"is_disabled":false,"rental_uris":{"android":"levelo://app?vid=5c3000a0-a190-4007-a723-aa2707fd1ce3","ios":"levelo://app?vid=5c3000a0-a190-4007-a723-aa2707fd1ce3"},"vehicle_type_id":"4","last_reported":1732299213,"current_range_meters":38800,"station_id":"cpo3532slgdg3j2ikp40","pricing_plan_id":"cebpf4jnsgd1na2vs0mg"},{"bike_id":"1c5fdcc2-ba84-4c46-bf38-3d224d434b52","system_id":"levelo_inurba_marseille","lat":43.32344,"lon":5.40633,"is_reserved":false,"is_disabled":false,"rental_uris":{"android":"levelo://app?vid=1c5fdcc2-ba84-4c46-bf38-3d224d434b52","ios":"levelo://app?vid=1c5fdcc2-ba84-4c46-bf38-3d224d434b52"},"vehicle_type_id":"4","last_reported":1732299213,"current_range_meters":38800,"station_id":"ce4bhq92rcd13ifvqhjg","pricing_plan_id":"cebpf4jnsgd1na2vs0mg"},{"bike_id":"12a5d556-e4f7-43fe-817b-4bb859344d34","system_id":"levelo_inurba_marseille","lat":43.27925,"lon":5.39579,"is_reserved":false,"is_disabled":false,"rental_uris":{"android":"levelo://app?vid=12a5d556-e4f7-43fe-817b-4bb859344d34","ios":"levelo://app?vid=12a5d556-e4f7-43fe-817b-4bb859344d34"},"vehicle_type_id":"4","last_reported":1732299213,"current_range_meters":8000,"station_id":"ce4bhf92rcd13ifvqf40","pricing_plan_id":"cebpf4jnsgd1na2vs0mg"},{"bike_id":"1f71c2f7-653f-46e6-9904-1c2a214963bc","system_id":"levelo_inurba_marseille","lat":43.30497,"lon":5.37318,"is_reserved":false,"is_disabled":false,"rental_uris":{"android":"levelo://app?vid=1f71c2f7-653f-46e6-9904-1c2a214963bc","ios":"levelo://app?vid=1f71c2f7-653f-46e6-9904-1c2a214963bc"},"vehicle_type_id":"4","last_reported":1732299213,"current_range_meters":6800,"station_id":"","pricing_plan_id":"cebpf4jnsgd1na2vs0mg"},{"bike_id":"1a91421a-8e61-461f-ae7c-b670091ea264","system_id":"levelo_inurba_marseille","lat":43.2987,"lon":5.39723,"is_reserved":false,"is_disabled":false,"rental_uris":{"android":"levelo://app?vid=1a91421a-8e61-461f-ae7c-b670091ea264","ios":"levelo://app?vid=1a91421a-8e61-461f-ae7c-b670091ea264"},"vehicle_type_id":"4","last_reported":1732299213,"current_range_meters":3600,"station_id":"ce4bh0h2rcd13ifvqd50","pricing_plan_id":"cebpf4jnsgd1na2vs0mg"},{"bike_id":"3f4b586a-f19b-437c-a62a-b21b76562db2","system_id":"levelo_inurba_marseille","lat":43.23187,"lon":5.39981,"is_reserved":false,"is_disabled":false,"rental_uris":{"android":"levelo://app?vid=3f4b586a-f19b-437c-a62a-b21b76562db2","ios":"levelo://app?vid=3f4b586a-f19b-437c-a62a-b21b76562db2"},"vehicle_type_id":"4","last_reported":1732299213,"current_range_meters":38800,"station_id":"ce4bhn12rcd13ifvqgqg","pricing_plan_id":"cebpf4jnsgd1na2vs0mg"},{"bike_id":"dcef609f-29ca-4582-b69d-53ae697c1ab3","system_id":"levelo_inurba_marseille","lat":43.27576,"lon":5.38416,"is_reserved":false,"is_disabled":false,"rental_uris":{"android":"levelo://app?vid=dcef609f-29ca-4582-b69d-53ae697c1ab3","ios":"levelo://app?vid=dcef609f-29ca-4582-b69d-53ae697c1ab3"},"vehicle_type_id":"4","last_reported":1732299213,"current_range_meters":9600,"station_id":"ce4bhh92rcd13ifvqfi0","pricing_plan_id":"cebpf4jnsgd1na2vs0mg"},{"bike_id":"0510ebcb-0f92-4bec-9e33-119b63d61a99","system_id":"levelo_inurba_marseille","lat":43.28405,"lon":5.37499,"is_reserved":false,"is_disabled":false,"rental_uris":{"android":"levelo://app?vid=0510ebcb-0f92-4bec-9e33-119b63d61a99","ios":"levelo://app?vid=0510ebcb-0f92-4bec-9e33-119b63d61a99"},"vehicle_type_id":"4","last_reported":1732299213,"current_range_meters":28800,"station_id":"ce4bh412rcd13ifvqds0","pricing_plan_id":"cebpf4jnsgd1na2vs0mg"},{"bike_id":"62b395b6-dcd4-4190-a05a-8f1359086f2d","system_id":"levelo_inurba_marseille","lat":43.24182,"lon":5.39724,"is_reserved":false,"is_disabled":false,"rental_uris":{"android":"levelo://app?vid=62b395b6-dcd4-4190-a05a-8f1359086f2d","ios":"levelo://app?vid=62b395b6-dcd4-4190-a05a-8f1359086f2d"},"vehicle_type_id":"4","last_reported":1732299213,"current_range_meters":16400,"station_id":"ce4bhn12rcd13ifvqgpg","pricing_plan_id":"cebpf4jnsgd1na2vs0mg"},{"bike_id":"74b5463a-01d7-428c-a87f-824daf27cde1","system_id":"levelo_inurba_marseille","lat":43.33022,"lon":5.39045,"is_reserved":false,"is_disabled":false,"rental_uris":{"android":"levelo://app?vid=74b5463a-01d7-428c-a87f-824daf27cde1","ios":"levelo://app?vid=74b5463a-01d7-428c-a87f-824daf27cde1"},"vehicle_type_id":"4","last_reported":1732299213,"current_range_meters":22400,"station_id":"ce4bhr92rcd13ifvqhrg","pricing_plan_id":"cebpf4jnsgd1na2vs0mg"},{"bike_id":"10cc4b12-404d-4a27-ae06-adb4da9506b4","system_id":"levelo_inurba_marseille","lat":43.3028,"lon":5.37699,"is_reserved":false,"is_disabled":false,"rental_uris":{"android":"levelo://app?vid=10cc4b12-404d-4a27-ae06-adb4da9506b4","ios":"levelo://app?vid=10cc4b12-404d-4a27-ae06-adb4da9506b4"},"vehicle_type_id":"4","last_reported":1732299213,"current_range_meters":26000,"station_id":"ce4bguh2rcd13ifvqcj0","pricing_plan_id":"cebpf4jnsgd1na2vs0mg"},{"bike_id":"db096ee3-a548-4661-a18a-686fcedc57f8","system_id":"levelo_inurba_marseille","lat":43.32635,"lon":5.41012,"is_reserved":false,"is_disabled":false,"rental_uris":{"android":"levelo://app?vid=db096ee3-a548-4661-a18a-686fcedc57f8","ios":"levelo://app?vid=db096ee3-a548-4661-a18a-686fcedc57f8"},"vehicle_type_id":"4","last_reported":1732299213,"current_range_meters":8000,"station_id":"ce4bhpp2rcd13ifvqhgg","pricing_plan_id":"cebpf4jnsgd1na2vs0mg"},{"bike_id":"1cd0daee-d68a-4e66-9883-fbe67fd8260f","system_id":"levelo_inurba_marseille","lat":43.305794,"lon":5.370686,"is_reserved":false,"is_disabled":true,"rental_uris":{"android":"levelo://app?vid=1cd0daee-d68a-4e66-9883-fbe67fd8260f","ios":"levelo://app?vid=1cd0daee-d68a-4e66-9883-fbe67fd8260f"},"vehicle_type_id":"4","last_reported":1732299213,"current_range_meters":0,"station_id":"","pricing_plan_id":"cebpf4jnsgd1na2vs0mg"},{"bike_id":"3ecd968f-1f7e-4bd4-968d-4e3b4005d51b","system_id":"levelo_inurba_marseille","lat":43.31057,"lon":5.37887,"is_reserved":false,"is_disabled":true,"rental_uris":{"android":"levelo://app?vid=3ecd968f-1f7e-4bd4-968d-4e3b4005d51b","ios":"levelo://app?vid=3ecd968f-1f7e-4bd4-968d-4e3b4005d51b"},"vehicle_type_id":"4","last_reported":1732299213,"current_range_meters":2800,"station_id":"","pricing_plan_id":"cebpf4jnsgd1na2vs0mg"},{"bike_id":"0ddfa46a-4055-4654-8da1-794fa513a354","system_id":"levelo_inurba_marseille","lat":43.26207,"lon":5.37932,"is_reserved":false,"is_disabled":false,"rental_uris":{"android":"levelo://app?vid=0ddfa46a-4055-4654-8da1-794fa513a354","ios":"levelo://app?vid=0ddfa46a-4055-4654-8da1-794fa513a354"},"vehicle_type_id":"4","last_reported":1732299213,"current_range_meters":9600,"station_id":"ce4bhjp2rcd13ifvqg90","pricing_plan_id":"cebpf4jnsgd1na2vs0mg"},{"bike_id":"ac39d077-6f20-4f7c-a28d-134261e93ccd","system_id":"levelo_inurba_marseille","lat":43.2804,"lon":5.36948,"is_reserved":false,"is_disabled":false,"rental_uris":{"android":"levelo://app?vid=ac39d077-6f20-4f7c-a28d-134261e93ccd","ios":"levelo://app?vid=ac39d077-6f20-4f7c-a28d-134261e93ccd"},"vehicle_type_id":"4","last_reported":1732299213,"current_range_meters":36000,"station_id":"ce4bha12rcd13ifvqef0","pricing_plan_id":"cebpf4jnsgd1na2vs0mg"},{"bike_id":"0a888c1c-922f-4973-9872-7cf0fdfa8c4f","system_id":"levelo_inurba_marseille","lat":43.30139,"lon":5.39879,"is_reserved":false,"is_disabled":false,"rental_uris":{"android":"levelo://app?vid=0a888c1c-922f-4973-9872-7cf0fdfa8c4f","ios":"levelo://app?vid=0a888c1c-922f-4973-9872-7cf0fdfa8c4f"},"vehicle_type_id":"4","last_reported":1732299213,"current_range_meters":36800,"station_id":"ce4bh0h2rcd13ifvqd40","pricing_plan_id":"cebpf4jnsgd1na2vs0mg"},{"bike_id":"a15d8850-d0f1-4355-9917-ac1e65d18b7a","system_id":"levelo_inurba_marseille","lat":43.29267,"lon":5.38437,"is_reserved":false,"is_disabled":false,"rental_uris":{"android":"levelo://app?vid=a15d8850-d0f1-4355-9917-ac1e65d18b7a","ios":"levelo://app?vid=a15d8850-d0f1-4355-9917-ac1e65d18b7a"},"vehicle_type_id":"4","last_reported":1732299213,"current_range_meters":3200,"station_id":"ce4bh692rcd13ifvqea0","pricing_plan_id":"cebpf4jnsgd1na2vs0mg"},{"bike_id":"7a8db3dc-7ed9-4c06-814c-f1b4ad393ca2","system_id":"levelo_inurba_marseille","lat":43.3196,"lon":5.38301,"is_reserved":false,"is_disabled":false,"rental_uris":{"android":"levelo://app?vid=7a8db3dc-7ed9-4c06-814c-f1b4ad393ca2","ios":"levelo://app?vid=7a8db3dc-7ed9-4c06-814c-f1b4ad393ca2"},"vehicle_type_id":"4","last_reported":1732299213,"current_range_meters":32400,"station_id":"","pricing_plan_id":"cebpf4jnsgd1na2vs0mg"},{"bike_id":"ac1b3788-b03a-4376-bf72-320fd033ea51","system_id":"levelo_inurba_marseille","lat":43.27667,"lon":5.38901,"is_reserved":false,"is_disabled":true,"rental_uris":{"android":"levelo://app?vid=ac1b3788-b03a-4376-bf72-320fd033ea51","ios":"levelo://app?vid=ac1b3788-b03a-4376-bf72-320fd033ea51"},"vehicle_type_id":"4","last_reported":1732299213,"current_range_meters":7200,"station_id":"ce4bhi12rcd13ifvqfo0","pricing_plan_id":"cebpf4jnsgd1na2vs0mg"},{"bike_id":"d9daeadf-8773-4027-91eb-b4134ba7ee7d","system_id":"levelo_inurba_marseille","lat":43.29613,"lon":5.36727,"is_reserved":false,"is_disabled":false,"rental_uris":{"android":"levelo://app?vid=d9daeadf-8773-4027-91eb-b4134ba7ee7d","ios":"levelo://app?vid=d9daeadf-8773-4027-91eb-b4134ba7ee7d"},"vehicle_type_id":"4","last_reported":1732299213,"current_range_meters":36800,"station_id":"ce4bgph2rcd13ifvqc2g","pricing_plan_id":"cebpf4jnsgd1na2vs0mg"},{"bike_id":"b45146c5-fd43-48cb-bc73-ed733648d902","system_id":"levelo_inurba_marseille","lat":43.28854,"lon":5.35852,"is_reserved":false,"is_disabled":false,"rental_uris":{"android":"levelo://app?vid=b45146c5-fd43-48cb-bc73-ed733648d902","ios":"levelo://app?vid=b45146c5-fd43-48cb-bc73-ed733648d902"},"vehicle_type_id":"4","last_reported":1732299213,"current_range_meters":23200,"station_id":"ce4bhb12rcd13ifvqem0","pricing_plan_id":"cebpf4jnsgd1na2vs0mg"},{"bike_id":"bb5cf9c6-c742-4f0c-87bc-88476a6eb64b","system_id":"levelo_inurba_marseille","lat":43.26787,"lon":5.39406,"is_reserved":false,"is_disabled":false,"rental_uris":{"android":"levelo://app?vid=bb5cf9c6-c742-4f0c-87bc-88476a6eb64b","ios":"levelo://app?vid=bb5cf9c6-c742-4f0c-87bc-88476a6eb64b"},"vehicle_type_id":"4","last_reported":1732299213,"current_range_meters":9600,"station_id":"ce4bhh12rcd13ifvqfg0","pricing_plan_id":"cebpf4jnsgd1na2vs0mg"},{"bike_id":"ebe2b43b-e5bb-4158-835b-e46b2ce0d167","system_id":"levelo_inurba_marseille","lat":43.22928,"lon":5.35372,"is_reserved":false,"is_disabled":false,"rental_uris":{"android":"levelo://app?vid=ebe2b43b-e5bb-4158-835b-e46b2ce0d167","ios":"levelo://app?vid=ebe2b43b-e5bb-4158-835b-e46b2ce0d167"},"vehicle_type_id":"4","last_reported":1732299213,"current_range_meters":33200,"station_id":"cpo3532slgdg3j2ikp40","pricing_plan_id":"cebpf4jnsgd1na2vs0mg"},{"bike_id":"830db305-47e1-4206-8f68-075e00446ad4","system_id":"levelo_inurba_marseille","lat":43.23152,"lon":5.43726,"is_reserved":false,"is_disabled":false,"rental_uris":{"android":"levelo://app?vid=830db305-47e1-4206-8f68-075e00446ad4","ios":"levelo://app?vid=830db305-47e1-4206-8f68-075e00446ad4"},"vehicle_type_id":"4","last_reported":1732299213,"current_range_meters":38800,"station_id":"ce4bhmp2rcd13ifvqgog","pricing_plan_id":"cebpf4jnsgd1na2vs0mg"},{"bike_id":"f4c54dd0-a013-4d39-8669-766de3dd4167","system_id":"levelo_inurba_marseille","lat":43.32373,"lon":5.38883,"is_reserved":false,"is_disabled":false,"rental_uris":{"android":"levelo://app?vid=f4c54dd0-a013-4d39-8669-766de3dd4167","ios":"levelo://app?vid=f4c54dd0-a013-4d39-8669-766de3dd4167"},"vehicle_type_id":"4","last_reported":1732299213,"current_range_meters":4400,"station_id":"ce4bhqp2rcd13ifvqhog","pricing_plan_id":"cebpf4jnsgd1na2vs0mg"},{"bike_id":"8cf97804-b268-4407-9021-3600f5716799","system_id":"levelo_inurba_marseille","lat":43.29976,"lon":5.38487,"is_reserved":false,"is_disabled":false,"rental_uris":{"android":"levelo://app?vid=8cf97804-b268-4407-9021-3600f5716799","ios":"levelo://app?vid=8cf97804-b268-4407-9021-3600f5716799"},"vehicle_type_id":"4","last_reported":1732299213,"current_range_meters":22400,"station_id":"ce4bgj92rcd13ifvqbd0","pricing_plan_id":"cebpf4jnsgd1na2vs0mg"},{"bike_id":"e9c0f855-8fd1-46d8-befb-a662b3cac240","system_id":"levelo_inurba_marseille","lat":43.28349,"lon":5.38091,"is_reserved":false,"is_disabled":false,"rental_uris":{"android":"levelo://app?vid=e9c0f855-8fd1-46d8-befb-a662b3cac240","ios":"levelo://app?vid=e9c0f855-8fd1-46d8-befb-a662b3cac240"},"vehicle_type_id":"4","last_reported":1732299213,"current_range_meters":9200,"station_id":"ce4bh412rcd13ifvqdr0","pricing_plan_id":"cebpf4jnsgd1na2vs0mg"},{"bike_id":"860c7cbc-b2e8-4472-a730-1f48e6444f46","system_id":"levelo_inurba_marseille","lat":43.27175,"lon":5.40993,"is_reserved":false,"is_disabled":false,"rental_uris":{"android":"levelo://app?vid=860c7cbc-b2e8-4472-a730-1f48e6444f46","ios":"levelo://app?vid=860c7cbc-b2e8-4472-a730-1f48e6444f46"},"vehicle_type_id":"4","last_reported":1732299213,"current_range_meters":30000,"station_id":"ce4bhl12rcd13ifvqgf0","pricing_plan_id":"cebpf4jnsgd1na2vs0mg"},{"bike_id":"ce224dd3-6e01-4dab-8962-28f849f60c70","system_id":"levelo_inurba_marseille","lat":43.23963,"lon":5.36636,"is_reserved":false,"is_disabled":false,"rental_uris":{"android":"levelo://app?vid=ce224dd3-6e01-4dab-8962-28f849f60c70","ios":"levelo://app?vid=ce224dd3-6e01-4dab-8962-28f849f60c70"},"vehicle_type_id":"4","last_reported":1732299213,"current_range_meters":28400,"station_id":"ce4bhi12rcd13ifvqfp0","pricing_plan_id":"cebpf4jnsgd1na2vs0mg"},{"bike_id":"fdbff9e5-5581-4300-9847-6aae3126a1b7","system_id":"levelo_inurba_marseille","lat":43.26198,"lon":5.37933,"is_reserved":false,"is_disabled":false,"rental_uris":{"android":"levelo://app?vid=fdbff9e5-5581-4300-9847-6aae3126a1b7","ios":"levelo://app?vid=fdbff9e5-5581-4300-9847-6aae3126a1b7"},"vehicle_type_id":"4","last_reported":1732299213,"current_range_meters":35600,"station_id":"ce4bhjp2rcd13ifvqg90","pricing_plan_id":"cebpf4jnsgd1na2vs0mg"},{"bike_id":"58a1d181-7d56-4699-a7f5-69fc7211a25a","system_id":"levelo_inurba_marseille","lat":43.31373,"lon":5.36726,"is_reserved":false,"is_disabled":false,"rental_uris":{"android":"levelo://app?vid=58a1d181-7d56-4699-a7f5-69fc7211a25a","ios":"levelo://app?vid=58a1d181-7d56-4699-a7f5-69fc7211a25a"},"vehicle_type_id":"4","last_reported":1732299213,"current_range_meters":9200,"station_id":"ce4bgr92rcd13ifvqc6g","pricing_plan_id":"cebpf4jnsgd1na2vs0mg"},{"bike_id":"86516b1e-3544-4c3e-8975-d29dc11340a0","system_id":"levelo_inurba_marseille","lat":43.31905,"lon":5.38196,"is_reserved":false,"is_disabled":false,"rental_uris":{"android":"levelo://app?vid=86516b1e-3544-4c3e-8975-d29dc11340a0","ios":"levelo://app?vid=86516b1e-3544-4c3e-8975-d29dc11340a0"},"vehicle_type_id":"4","last_reported":1732299213,"current_range_meters":25200,"station_id":"","pricing_plan_id":"cebpf4jnsgd1na2vs0mg"},{"bike_id":"195fb368-c5a5-46cf-8afb-5162611a6fa7","system_id":"levelo_inurba_marseille","lat":43.29899,"lon":5.38138,"is_reserved":false,"is_disabled":false,"rental_uris":{"android":"levelo://app?vid=195fb368-c5a5-46cf-8afb-5162611a6fa7","ios":"levelo://app?vid=195fb368-c5a5-46cf-8afb-5162611a6fa7"},"vehicle_type_id":"4","last_reported":1732299213,"current_range_meters":6000,"station_id":"ce4bgj12rcd13ifvqbc0","pricing_plan_id":"cebpf4jnsgd1na2vs0mg"},{"bike_id":"091cc9eb-8580-435f-ab25-55aa0962542e","system_id":"levelo_inurba_marseille","lat":43.26026,"lon":5.37552,"is_reserved":false,"is_disabled":false,"rental_uris":{"android":"levelo://app?vid=091cc9eb-8580-435f-ab25-55aa0962542e","ios":"levelo://app?vid=091cc9eb-8580-435f-ab25-55aa0962542e"},"vehicle_type_id":"4","last_reported":1732299213,"current_range_meters":30800,"station_id":"ce4bhgh2rcd13ifvqfa0","pricing_plan_id":"cebpf4jnsgd1na2vs0mg"},{"bike_id":"e5d141c6-b1f2-430e-a35a-ca4a0683f1da","system_id":"levelo_inurba_marseille","lat":43.25883,"lon":5.3989,"is_reserved":false,"is_disabled":false,"rental_uris":{"android":"levelo://app?vid=e5d141c6-b1f2-430e-a35a-ca4a0683f1da","ios":"levelo://app?vid=e5d141c6-b1f2-430e-a35a-ca4a0683f1da"},"vehicle_type_id":"4","last_reported":1732299213,"current_range_meters":36800,"station_id":"ce4bhl92rcd13ifvqghg","pricing_plan_id":"cebpf4jnsgd1na2vs0mg"},{"bike_id":"38c9b486-00d0-4829-876e-418f2a6304ad","system_id":"levelo_inurba_marseille","lat":43.29259,"lon":5.3844,"is_reserved":false,"is_disabled":false,"rental_uris":{"android":"levelo://app?vid=38c9b486-00d0-4829-876e-418f2a6304ad","ios":"levelo://app?vid=38c9b486-00d0-4829-876e-418f2a6304ad"},"vehicle_type_id":"4","last_reported":1732299213,"current_range_meters":16800,"station_id":"ce4bh692rcd13ifvqea0","pricing_plan_id":"cebpf4jnsgd1na2vs0mg"},{"bike_id":"161929c3-33a6-4b2a-8e1e-43cf8eda5a05","system_id":"levelo_inurba_marseille","lat":43.3302,"lon":5.3904,"is_reserved":false,"is_disabled":false,"rental_uris":{"android":"levelo://app?vid=161929c3-33a6-4b2a-8e1e-43cf8eda5a05","ios":"levelo://app?vid=161929c3-33a6-4b2a-8e1e-43cf8eda5a05"},"vehicle_type_id":"4","last_reported":1732299213,"current_range_meters":16000,"station_id":"ce4bhr92rcd13ifvqhrg","pricing_plan_id":"cebpf4jnsgd1na2vs0mg"},{"bike_id":"4f7d3bd8-cb5b-4851-ba85-ce63644618c3","system_id":"levelo_inurba_marseille","lat":43.31487,"lon":5.37311,"is_reserved":false,"is_disabled":false,"rental_uris":{"android":"levelo://app?vid=4f7d3bd8-cb5b-4851-ba85-ce63644618c3","ios":"levelo://app?vid=4f7d3bd8-cb5b-4851-ba85-ce63644618c3"},"vehicle_type_id":"4","last_reported":1732299213,"current_range_meters":28400,"station_id":"ce4bgt12rcd13ifvqcd0","pricing_plan_id":"cebpf4jnsgd1na2vs0mg"},{"bike_id":"f9e35db8-2f7a-4f43-8c70-83778761d42d","system_id":"levelo_inurba_marseille","lat":43.23198,"lon":5.35565,"is_reserved":false,"is_disabled":true,"rental_uris":{"android":"levelo://app?vid=f9e35db8-2f7a-4f43-8c70-83778761d42d","ios":"levelo://app?vid=f9e35db8-2f7a-4f43-8c70-83778761d42d"},"vehicle_type_id":"4","last_reported":1732299213,"current_range_meters":36400,"station_id":"ce4bhu92rcd13ifvqi70","pricing_plan_id":"cebpf4jnsgd1na2vs0mg"},{"bike_id":"8491425b-ba30-485a-80eb-417d25923c20","system_id":"levelo_inurba_marseille","lat":43.28939,"lon":5.36401,"is_reserved":false,"is_disabled":false,"rental_uris":{"android":"levelo://app?vid=8491425b-ba30-485a-80eb-417d25923c20","ios":"levelo://app?vid=8491425b-ba30-485a-80eb-417d25923c20"},"vehicle_type_id":"4","last_reported":1732299213,"current_range_meters":30000,"station_id":"ce4bhc92rcd13ifvqetg","pricing_plan_id":"cebpf4jnsgd1na2vs0mg"},{"bike_id":"4923c322-eb4a-4095-bc0c-aa6b225ff01a","system_id":"levelo_inurba_marseille","lat":43.31355,"lon":5.38503,"is_reserved":false,"is_disabled":true,"rental_uris":{"android":"levelo://app?vid=4923c322-eb4a-4095-bc0c-aa6b225ff01a","ios":"levelo://app?vid=4923c322-eb4a-4095-bc0c-aa6b225ff01a"},"vehicle_type_id":"4","last_reported":1732299213,"current_range_meters":29600,"station_id":"ce4bgt92rcd13ifvqcf0","pricing_plan_id":"cebpf4jnsgd1na2vs0mg"},{"bike_id":"1108659d-c798-48fb-a758-9ac015354e35","system_id":"levelo_inurba_marseille","lat":43.26204,"lon":5.37926,"is_reserved":false,"is_disabled":false,"rental_uris":{"android":"levelo://app?vid=1108659d-c798-48fb-a758-9ac015354e35","ios":"levelo://app?vid=1108659d-c798-48fb-a758-9ac015354e35"},"vehicle_type_id":"4","last_reported":1732299213,"current_range_meters":26800,"station_id":"ce4bhjp2rcd13ifvqg90","pricing_plan_id":"cebpf4jnsgd1na2vs0mg"},{"bike_id":"ea7f3f80-9b03-4d1d-b20b-5572051710de","system_id":"levelo_inurba_marseille","lat":43.294617,"lon":5.394099,"is_reserved":false,"is_disabled":false,"rental_uris":{"android":"levelo://app?vid=ea7f3f80-9b03-4d1d-b20b-5572051710de","ios":"levelo://app?vid=ea7f3f80-9b03-4d1d-b20b-5572051710de"},"vehicle_type_id":"4","last_reported":1732299213,"current_range_meters":22400,"station_id":"ce4bh292rcd13ifvqdf0","pricing_plan_id":"cebpf4jnsgd1na2vs0mg"},{"bike_id":"af6570c7-3160-46b3-9a4c-b0a02076a209","system_id":"levelo_inurba_marseille","lat":43.26949,"lon":5.40244,"is_reserved":false,"is_disabled":false,"rental_uris":{"android":"levelo://app?vid=af6570c7-3160-46b3-9a4c-b0a02076a209","ios":"levelo://app?vid=af6570c7-3160-46b3-9a4c-b0a02076a209"},"vehicle_type_id":"4","last_reported":1732299213,"current_range_meters":38800,"station_id":"cjm6bp8fraef2m0cb0m0","pricing_plan_id":"cebpf4jnsgd1na2vs0mg"},{"bike_id":"f8697fe7-c234-437e-97a9-d54fc89ce3fa","system_id":"levelo_inurba_marseille","lat":43.32368,"lon":5.38877,"is_reserved":false,"is_disabled":false,"rental_uris":{"android":"levelo://app?vid=f8697fe7-c234-437e-97a9-d54fc89ce3fa","ios":"levelo://app?vid=f8697fe7-c234-437e-97a9-d54fc89ce3fa"},"vehicle_type_id":"4","last_reported":1732299213,"current_range_meters":9200,"station_id":"ce4bhqp2rcd13ifvqhog","pricing_plan_id":"cebpf4jnsgd1na2vs0mg"},{"bike_id":"5bd9c5f0-4963-49ba-b09e-365a52dadc8b","system_id":"levelo_inurba_marseille","lat":43.29534,"lon":5.3854,"is_reserved":false,"is_disabled":false,"rental_uris":{"android":"levelo://app?vid=5bd9c5f0-4963-49ba-b09e-365a52dadc8b","ios":"levelo://app?vid=5bd9c5f0-4963-49ba-b09e-365a52dadc8b"},"vehicle_type_id":"4","last_reported":1732299213,"current_range_meters":38800,"station_id":"ce4bgih2rcd13ifvqba0","pricing_plan_id":"cebpf4jnsgd1na2vs0mg"},{"bike_id":"881f6cd7-c826-47e3-a178-ba8f9d4eb459","system_id":"levelo_inurba_marseille","lat":43.28665,"lon":5.3635,"is_reserved":false,"is_disabled":false,"rental_uris":{"android":"levelo://app?vid=881f6cd7-c826-47e3-a178-ba8f9d4eb459","ios":"levelo://app?vid=881f6cd7-c826-47e3-a178-ba8f9d4eb459"},"vehicle_type_id":"4","last_reported":1732299213,"current_range_meters":36000,"station_id":"ce4bhah2rcd13ifvqej0","pricing_plan_id":"cebpf4jnsgd1na2vs0mg"},{"bike_id":"70c74594-4963-4ad0-91bf-4f20fe02e74f","system_id":"levelo_inurba_marseille","lat":43.23191,"lon":5.39982,"is_reserved":false,"is_disabled":false,"rental_uris":{"android":"levelo://app?vid=70c74594-4963-4ad0-91bf-4f20fe02e74f","ios":"levelo://app?vid=70c74594-4963-4ad0-91bf-4f20fe02e74f"},"vehicle_type_id":"4","last_reported":1732299213,"current_range_meters":20000,"station_id":"ce4bhn12rcd13ifvqgqg","pricing_plan_id":"cebpf4jnsgd1na2vs0mg"},{"bike_id":"56974976-86ed-4198-bb39-2197077a0292","system_id":"levelo_inurba_marseille","lat":43.28941,"lon":5.36626,"is_reserved":false,"is_disabled":false,"rental_uris":{"android":"levelo://app?vid=56974976-86ed-4198-bb39-2197077a0292","ios":"levelo://app?vid=56974976-86ed-4198-bb39-2197077a0292"},"vehicle_type_id":"4","last_reported":1732299213,"current_range_meters":9600,"station_id":"ce4bhap2rcd13ifvqek0","pricing_plan_id":"cebpf4jnsgd1na2vs0mg"},{"bike_id":"20c90e68-c6af-4e47-81ff-371d93d51ad7","system_id":"levelo_inurba_marseille","lat":43.27313,"lon":5.39067,"is_reserved":false,"is_disabled":true,"rental_uris":{"android":"levelo://app?vid=20c90e68-c6af-4e47-81ff-371d93d51ad7","ios":"levelo://app?vid=20c90e68-c6af-4e47-81ff-371d93d51ad7"},"vehicle_type_id":"4","last_reported":1732299213,"current_range_meters":0,"station_id":"ce4bhgp2rcd13ifvqfe0","pricing_plan_id":"cebpf4jnsgd1na2vs0mg"},{"bike_id":"ff474302-046a-43ab-9883-c30610cb938a","system_id":"levelo_inurba_marseille","lat":43.28001,"lon":5.40006,"is_reserved":false,"is_disabled":false,"rental_uris":{"android":"levelo://app?vid=ff474302-046a-43ab-9883-c30610cb938a","ios":"levelo://app?vid=ff474302-046a-43ab-9883-c30610cb938a"},"vehicle_type_id":"4","last_reported":1732299213,"current_range_meters":10800,"station_id":"ce4bho92rcd13ifvqh4g","pricing_plan_id":"cebpf4jnsgd1na2vs0mg"},{"bike_id":"9c1e94c0-4b8d-4896-a3cc-f33d650fc523","system_id":"levelo_inurba_marseille","lat":43.30137,"lon":5.38778,"is_reserved":false,"is_disabled":false,"rental_uris":{"android":"levelo://app?vid=9c1e94c0-4b8d-4896-a3cc-f33d650fc523","ios":"levelo://app?vid=9c1e94c0-4b8d-4896-a3cc-f33d650fc523"},"vehicle_type_id":"4","last_reported":1732299213,"current_range_meters":30400,"station_id":"ce4bghh2rcd13ifvqb60","pricing_plan_id":"cebpf4jnsgd1na2vs0mg"},{"bike_id":"7eaa0e97-b9ad-4888-8625-5af49ff01b92","system_id":"levelo_inurba_marseille","lat":43.24389,"lon":5.37059,"is_reserved":false,"is_disabled":false,"rental_uris":{"android":"levelo://app?vid=7eaa0e97-b9ad-4888-8625-5af49ff01b92","ios":"levelo://app?vid=7eaa0e97-b9ad-4888-8625-5af49ff01b92"},"vehicle_type_id":"4","last_reported":1732299213,"current_range_meters":26800,"station_id":"ce4bhhh2rcd13ifvqfk0","pricing_plan_id":"cebpf4jnsgd1na2vs0mg"},{"bike_id":"faf224e6-4af1-4a19-a1aa-26b8648d7704","system_id":"levelo_inurba_marseille","lat":43.29582,"lon":5.39976,"is_reserved":false,"is_disabled":false,"rental_uris":{"android":"levelo://app?vid=faf224e6-4af1-4a19-a1aa-26b8648d7704","ios":"levelo://app?vid=faf224e6-4af1-4a19-a1aa-26b8648d7704"},"vehicle_type_id":"4","last_reported":1732299213,"current_range_meters":38800,"station_id":"ce4bh312rcd13ifvqdj0","pricing_plan_id":"cebpf4jnsgd1na2vs0mg"},{"bike_id":"c3d81767-e12c-425a-ae9d-9c658e853de9","system_id":"levelo_inurba_marseille","lat":43.29268,"lon":5.38431,"is_reserved":false,"is_disabled":false,"rental_uris":{"android":"levelo://app?vid=c3d81767-e12c-425a-ae9d-9c658e853de9","ios":"levelo://app?vid=c3d81767-e12c-425a-ae9d-9c658e853de9"},"vehicle_type_id":"4","last_reported":1732299213,"current_range_meters":10000,"station_id":"ce4bh692rcd13ifvqea0","pricing_plan_id":"cebpf4jnsgd1na2vs0mg"},{"bike_id":"99d5eeb3-6513-46db-81bf-de6e43866527","system_id":"levelo_inurba_marseille","lat":43.32366,"lon":5.38883,"is_reserved":false,"is_disabled":false,"rental_uris":{"android":"levelo://app?vid=99d5eeb3-6513-46db-81bf-de6e43866527","ios":"levelo://app?vid=99d5eeb3-6513-46db-81bf-de6e43866527"},"vehicle_type_id":"4","last_reported":1732299213,"current_range_meters":37600,"station_id":"ce4bhqp2rcd13ifvqhog","pricing_plan_id":"cebpf4jnsgd1na2vs0mg"},{"bike_id":"1ef17f0c-9df8-40aa-bad8-8fe504107889","system_id":"levelo_inurba_marseille","lat":43.31514,"lon":5.38703,"is_reserved":false,"is_disabled":false,"rental_uris":{"android":"levelo://app?vid=1ef17f0c-9df8-40aa-bad8-8fe504107889","ios":"levelo://app?vid=1ef17f0c-9df8-40aa-bad8-8fe504107889"},"vehicle_type_id":"4","last_reported":1732299213,"current_range_meters":38400,"station_id":"","pricing_plan_id":"cebpf4jnsgd1na2vs0mg"},{"bike_id":"155e9a30-207a-43fb-a132-7a4221c11bdb","system_id":"levelo_inurba_marseille","lat":43.27999,"lon":5.40012,"is_reserved":false,"is_disabled":false,"rental_uris":{"android":"levelo://app?vid=155e9a30-207a-43fb-a132-7a4221c11bdb","ios":"levelo://app?vid=155e9a30-207a-43fb-a132-7a4221c11bdb"},"vehicle_type_id":"4","last_reported":1732299213,"current_range_meters":28800,"station_id":"ce4bho92rcd13ifvqh4g","pricing_plan_id":"cebpf4jnsgd1na2vs0mg"},{"bike_id":"c1ed452a-1d5e-4beb-8d2e-8da53934a482","system_id":"levelo_inurba_marseille","lat":43.27956,"lon":5.38837,"is_reserved":false,"is_disabled":false,"rental_uris":{"android":"levelo://app?vid=c1ed452a-1d5e-4beb-8d2e-8da53934a482","ios":"levelo://app?vid=c1ed452a-1d5e-4beb-8d2e-8da53934a482"},"vehicle_type_id":"4","last_reported":1732299213,"current_range_meters":26000,"station_id":"ce4bhjp2rcd13ifvqga0","pricing_plan_id":"cebpf4jnsgd1na2vs0mg"},{"bike_id":"20588594-9636-4f40-ac6f-b9818be869d4","system_id":"levelo_inurba_marseille","lat":43.2679,"lon":5.39422,"is_reserved":false,"is_disabled":false,"rental_uris":{"android":"levelo://app?vid=20588594-9636-4f40-ac6f-b9818be869d4","ios":"levelo://app?vid=20588594-9636-4f40-ac6f-b9818be869d4"},"vehicle_type_id":"4","last_reported":1732299213,"current_range_meters":38800,"station_id":"ce4bhh12rcd13ifvqfg0","pricing_plan_id":"cebpf4jnsgd1na2vs0mg"},{"bike_id":"d7b6f087-a4ee-4886-9515-de27c79e1bf9","system_id":"levelo_inurba_marseille","lat":43.29581,"lon":5.36746,"is_reserved":false,"is_disabled":false,"rental_uris":{"android":"levelo://app?vid=d7b6f087-a4ee-4886-9515-de27c79e1bf9","ios":"levelo://app?vid=d7b6f087-a4ee-4886-9515-de27c79e1bf9"},"vehicle_type_id":"4","last_reported":1732299213,"current_range_meters":30400,"station_id":"ce4bgph2rcd13ifvqc2g","pricing_plan_id":"cebpf4jnsgd1na2vs0mg"},{"bike_id":"a76b0499-18a9-4cab-8de9-9364156c12e9","system_id":"levelo_inurba_marseille","lat":43.27995,"lon":5.40014,"is_reserved":false,"is_disabled":false,"rental_uris":{"android":"levelo://app?vid=a76b0499-18a9-4cab-8de9-9364156c12e9","ios":"levelo://app?vid=a76b0499-18a9-4cab-8de9-9364156c12e9"},"vehicle_type_id":"4","last_reported":1732299213,"current_range_meters":38800,"station_id":"ce4bho92rcd13ifvqh4g","pricing_plan_id":"cebpf4jnsgd1na2vs0mg"},{"bike_id":"f950215e-acc6-44ca-ac46-d5ea0b0bfabc","system_id":"levelo_inurba_marseille","lat":43.23188,"lon":5.39983,"is_reserved":false,"is_disabled":false,"rental_uris":{"android":"levelo://app?vid=f950215e-acc6-44ca-ac46-d5ea0b0bfabc","ios":"levelo://app?vid=f950215e-acc6-44ca-ac46-d5ea0b0bfabc"},"vehicle_type_id":"4","last_reported":1732299213,"current_range_meters":38800,"station_id":"ce4bhn12rcd13ifvqgqg","pricing_plan_id":"cebpf4jnsgd1na2vs0mg"},{"bike_id":"50977d30-a2db-4368-b63f-6504e3600b64","system_id":"levelo_inurba_marseille","lat":43.28854,"lon":5.39301,"is_reserved":false,"is_disabled":false,"rental_uris":{"android":"levelo://app?vid=50977d30-a2db-4368-b63f-6504e3600b64","ios":"levelo://app?vid=50977d30-a2db-4368-b63f-6504e3600b64"},"vehicle_type_id":"4","last_reported":1732299213,"current_range_meters":30800,"station_id":"ce4bh2p2rcd13ifvqdi0","pricing_plan_id":"cebpf4jnsgd1na2vs0mg"},{"bike_id":"dda70c14-561c-4751-939b-83f27427bdc1","system_id":"levelo_inurba_marseille","lat":43.29272,"lon":5.3845,"is_reserved":false,"is_disabled":false,"rental_uris":{"android":"levelo://app?vid=dda70c14-561c-4751-939b-83f27427bdc1","ios":"levelo://app?vid=dda70c14-561c-4751-939b-83f27427bdc1"},"vehicle_type_id":"4","last_reported":1732299213,"current_range_meters":24400,"station_id":"ce4bh692rcd13ifvqea0","pricing_plan_id":"cebpf4jnsgd1na2vs0mg"},{"bike_id":"cd78312a-142a-42d0-92e1-dbc654bf8bb4","system_id":"levelo_inurba_marseille","lat":43.24186,"lon":5.39718,"is_reserved":false,"is_disabled":true,"rental_uris":{"android":"levelo://app?vid=cd78312a-142a-42d0-92e1-dbc654bf8bb4","ios":"levelo://app?vid=cd78312a-142a-42d0-92e1-dbc654bf8bb4"},"vehicle_type_id":"4","last_reported":1732299213,"current_range_meters":19200,"station_id":"ce4bhn12rcd13ifvqgpg","pricing_plan_id":"cebpf4jnsgd1na2vs0mg"},{"bike_id":"26dbb135-9d0a-46f2-8550-e99fb4c2e042","system_id":"levelo_inurba_marseille","lat":43.2721,"lon":5.39197,"is_reserved":false,"is_disabled":true,"rental_uris":{"android":"levelo://app?vid=26dbb135-9d0a-46f2-8550-e99fb4c2e042","ios":"levelo://app?vid=26dbb135-9d0a-46f2-8550-e99fb4c2e042"},"vehicle_type_id":"4","last_reported":1732299213,"current_range_meters":400,"station_id":"ce4bhhp2rcd13ifvqfm0","pricing_plan_id":"cebpf4jnsgd1na2vs0mg"},{"bike_id":"11c5ed7c-dad2-4605-8db8-4918d0818190","system_id":"levelo_inurba_marseille","lat":43.31727,"lon":5.424,"is_reserved":false,"is_disabled":false,"rental_uris":{"android":"levelo://app?vid=11c5ed7c-dad2-4605-8db8-4918d0818190","ios":"levelo://app?vid=11c5ed7c-dad2-4605-8db8-4918d0818190"},"vehicle_type_id":"4","last_reported":1732299213,"current_range_meters":38800,"station_id":"ce4bhp92rcd13ifvqhbg","pricing_plan_id":"cebpf4jnsgd1na2vs0mg"},{"bike_id":"3dedd3a3-3784-47e0-bd52-94265bd44a24","system_id":"levelo_inurba_marseille","lat":43.24552,"lon":5.37334,"is_reserved":false,"is_disabled":true,"rental_uris":{"android":"levelo://app?vid=3dedd3a3-3784-47e0-bd52-94265bd44a24","ios":"levelo://app?vid=3dedd3a3-3784-47e0-bd52-94265bd44a24"},"vehicle_type_id":"4","last_reported":1732299213,"current_range_meters":0,"station_id":"","pricing_plan_id":"cebpf4jnsgd1na2vs0mg"},{"bike_id":"d20508ce-f385-4653-b15c-817cba0c6109","system_id":"levelo_inurba_marseille","lat":43.29421,"lon":5.38621,"is_reserved":false,"is_disabled":false,"rental_uris":{"android":"levelo://app?vid=d20508ce-f385-4653-b15c-817cba0c6109","ios":"levelo://app?vid=d20508ce-f385-4653-b15c-817cba0c6109"},"vehicle_type_id":"4","last_reported":1732299213,"current_range_meters":26800,"station_id":"ce4bh2h2rcd13ifvqdh0","pricing_plan_id":"cebpf4jnsgd1na2vs0mg"},{"bike_id":"b36f03e6-494c-4bd2-a2d3-5eb3c5a56aee","system_id":"levelo_inurba_marseille","lat":43.31042,"lon":5.37663,"is_reserved":false,"is_disabled":false,"rental_uris":{"android":"levelo://app?vid=b36f03e6-494c-4bd2-a2d3-5eb3c5a56aee","ios":"levelo://app?vid=b36f03e6-494c-4bd2-a2d3-5eb3c5a56aee"},"vehicle_type_id":"4","last_reported":1732299213,"current_range_meters":32400,"station_id":"","pricing_plan_id":"cebpf4jnsgd1na2vs0mg"},{"bike_id":"bcf5a7ef-45e7-40a2-a25a-d01db7f9684d","system_id":"levelo_inurba_marseille","lat":43.25309,"lon":5.40218,"is_reserved":false,"is_disabled":true,"rental_uris":{"android":"levelo://app?vid=bcf5a7ef-45e7-40a2-a25a-d01db7f9684d","ios":"levelo://app?vid=bcf5a7ef-45e7-40a2-a25a-d01db7f9684d"},"vehicle_type_id":"4","last_reported":1732299213,"current_range_meters":0,"station_id":"","pricing_plan_id":"cebpf4jnsgd1na2vs0mg"},{"bike_id":"3193222d-584b-4642-a1d8-0c04b2309736","system_id":"levelo_inurba_marseille","lat":43.33728,"lon":5.3919,"is_reserved":false,"is_disabled":false,"rental_uris":{"android":"levelo://app?vid=3193222d-584b-4642-a1d8-0c04b2309736","ios":"levelo://app?vid=3193222d-584b-4642-a1d8-0c04b2309736"},"vehicle_type_id":"4","last_reported":1732299213,"current_range_meters":36400,"station_id":"ce4bhr92rcd13ifvqhsg","pricing_plan_id":"cebpf4jnsgd1na2vs0mg"},{"bike_id":"7c2f19f3-5373-4c2a-87bb-e1fd3ef39822","system_id":"levelo_inurba_marseille","lat":43.26559,"lon":5.38997,"is_reserved":false,"is_disabled":true,"rental_uris":{"android":"levelo://app?vid=7c2f19f3-5373-4c2a-87bb-e1fd3ef39822","ios":"levelo://app?vid=7c2f19f3-5373-4c2a-87bb-e1fd3ef39822"},"vehicle_type_id":"4","last_reported":1732299213,"current_range_meters":29600,"station_id":"ce4bhe12rcd13ifvqf30","pricing_plan_id":"cebpf4jnsgd1na2vs0mg"},{"bike_id":"e0f8e8fe-1c8d-47f7-a953-225632c38715","system_id":"levelo_inurba_marseille","lat":43.33027,"lon":5.39045,"is_reserved":false,"is_disabled":false,"rental_uris":{"android":"levelo://app?vid=e0f8e8fe-1c8d-47f7-a953-225632c38715","ios":"levelo://app?vid=e0f8e8fe-1c8d-47f7-a953-225632c38715"},"vehicle_type_id":"4","last_reported":1732299213,"current_range_meters":39200,"station_id":"ce4bhr92rcd13ifvqhrg","pricing_plan_id":"cebpf4jnsgd1na2vs0mg"},{"bike_id":"870e3d5d-3eaf-4dde-960b-7b3e2630f331","system_id":"levelo_inurba_marseille","lat":43.29537,"lon":5.38544,"is_reserved":false,"is_disabled":false,"rental_uris":{"android":"levelo://app?vid=870e3d5d-3eaf-4dde-960b-7b3e2630f331","ios":"levelo://app?vid=870e3d5d-3eaf-4dde-960b-7b3e2630f331"},"vehicle_type_id":"4","last_reported":1732299213,"current_range_meters":36800,"station_id":"ce4bgih2rcd13ifvqba0","pricing_plan_id":"cebpf4jnsgd1na2vs0mg"},{"bike_id":"511bce7a-1a1a-4054-befa-73ac24a01f58","system_id":"levelo_inurba_marseille","lat":43.31079,"lon":5.38357,"is_reserved":false,"is_disabled":false,"rental_uris":{"android":"levelo://app?vid=511bce7a-1a1a-4054-befa-73ac24a01f58","ios":"levelo://app?vid=511bce7a-1a1a-4054-befa-73ac24a01f58"},"vehicle_type_id":"4","last_reported":1732299213,"current_range_meters":28800,"station_id":"ce4bgv92rcd13ifvqcr0","pricing_plan_id":"cebpf4jnsgd1na2vs0mg"},{"bike_id":"1fe36207-a189-42b7-a2ae-a1bed57e3dd0","system_id":"levelo_inurba_marseille","lat":43.2603,"lon":5.37555,"is_reserved":false,"is_disabled":false,"rental_uris":{"android":"levelo://app?vid=1fe36207-a189-42b7-a2ae-a1bed57e3dd0","ios":"levelo://app?vid=1fe36207-a189-42b7-a2ae-a1bed57e3dd0"},"vehicle_type_id":"4","last_reported":1732299213,"current_range_meters":18000,"station_id":"ce4bhgh2rcd13ifvqfa0","pricing_plan_id":"cebpf4jnsgd1na2vs0mg"},{"bike_id":"4ecdaf55-87e7-42ea-ac0e-a41de2a6b49d","system_id":"levelo_inurba_marseille","lat":43.31993,"lon":5.3815,"is_reserved":false,"is_disabled":false,"rental_uris":{"android":"levelo://app?vid=4ecdaf55-87e7-42ea-ac0e-a41de2a6b49d","ios":"levelo://app?vid=4ecdaf55-87e7-42ea-ac0e-a41de2a6b49d"},"vehicle_type_id":"4","last_reported":1732299213,"current_range_meters":26800,"station_id":"ce4bhr12rcd13ifvqhpg","pricing_plan_id":"cebpf4jnsgd1na2vs0mg"},{"bike_id":"51ce6112-ca51-4a26-8335-063dea88ee84","system_id":"levelo_inurba_marseille","lat":43.25993,"lon":5.39408,"is_reserved":false,"is_disabled":false,"rental_uris":{"android":"levelo://app?vid=51ce6112-ca51-4a26-8335-063dea88ee84","ios":"levelo://app?vid=51ce6112-ca51-4a26-8335-063dea88ee84"},"vehicle_type_id":"4","last_reported":1732299213,"current_range_meters":10000,"station_id":"","pricing_plan_id":"cebpf4jnsgd1na2vs0mg"},{"bike_id":"ebc8b8ce-d9c4-4356-b2ee-b349b609c3c6","system_id":"levelo_inurba_marseille","lat":43.28722,"lon":5.36085,"is_reserved":false,"is_disabled":false,"rental_uris":{"android":"levelo://app?vid=ebc8b8ce-d9c4-4356-b2ee-b349b609c3c6","ios":"levelo://app?vid=ebc8b8ce-d9c4-4356-b2ee-b349b609c3c6"},"vehicle_type_id":"4","last_reported":1732299213,"current_range_meters":17600,"station_id":"cki0cbj6b192h4jlfktg","pricing_plan_id":"cebpf4jnsgd1na2vs0mg"},{"bike_id":"fc0b1b0c-9a21-495d-be52-0d91f5503bfa","system_id":"levelo_inurba_marseille","lat":43.22928,"lon":5.3538,"is_reserved":false,"is_disabled":false,"rental_uris":{"android":"levelo://app?vid=fc0b1b0c-9a21-495d-be52-0d91f5503bfa","ios":"levelo://app?vid=fc0b1b0c-9a21-495d-be52-0d91f5503bfa"},"vehicle_type_id":"4","last_reported":1732299213,"current_range_meters":25200,"station_id":"cpo3532slgdg3j2ikp40","pricing_plan_id":"cebpf4jnsgd1na2vs0mg"},{"bike_id":"c2213440-5fe9-4139-b848-65a79755d9ec","system_id":"levelo_inurba_marseille","lat":43.24806,"lon":5.37459,"is_reserved":false,"is_disabled":false,"rental_uris":{"android":"levelo://app?vid=c2213440-5fe9-4139-b848-65a79755d9ec","ios":"levelo://app?vid=c2213440-5fe9-4139-b848-65a79755d9ec"},"vehicle_type_id":"4","last_reported":1732299213,"current_range_meters":19600,"station_id":"ce4bhgh2rcd13ifvqfb0","pricing_plan_id":"cebpf4jnsgd1na2vs0mg"},{"bike_id":"ffa3c9fa-b25b-476f-a457-4598667747f1","system_id":"levelo_inurba_marseille","lat":43.29229,"lon":5.36061,"is_reserved":false,"is_disabled":false,"rental_uris":{"android":"levelo://app?vid=ffa3c9fa-b25b-476f-a457-4598667747f1","ios":"levelo://app?vid=ffa3c9fa-b25b-476f-a457-4598667747f1"},"vehicle_type_id":"4","last_reported":1732299213,"current_range_meters":32000,"station_id":"ce4bhbh2rcd13ifvqeqg","pricing_plan_id":"cebpf4jnsgd1na2vs0mg"},{"bike_id":"c9024152-f7af-4dc4-bf28-acb0c891f1c7","system_id":"levelo_inurba_marseille","lat":43.27207,"lon":5.39182,"is_reserved":false,"is_disabled":true,"rental_uris":{"android":"levelo://app?vid=c9024152-f7af-4dc4-bf28-acb0c891f1c7","ios":"levelo://app?vid=c9024152-f7af-4dc4-bf28-acb0c891f1c7"},"vehicle_type_id":"4","last_reported":1732299213,"current_range_meters":800,"station_id":"ce4bhhp2rcd13ifvqfm0","pricing_plan_id":"cebpf4jnsgd1na2vs0mg"},{"bike_id":"7ca20c0a-0b0c-492b-b712-fdc0187051bf","system_id":"levelo_inurba_marseille","lat":43.29254,"lon":5.38443,"is_reserved":false,"is_disabled":false,"rental_uris":{"android":"levelo://app?vid=7ca20c0a-0b0c-492b-b712-fdc0187051bf","ios":"levelo://app?vid=7ca20c0a-0b0c-492b-b712-fdc0187051bf"},"vehicle_type_id":"4","last_reported":1732299213,"current_range_meters":25200,"station_id":"ce4bh692rcd13ifvqea0","pricing_plan_id":"cebpf4jnsgd1na2vs0mg"},{"bike_id":"68f9bc67-7a46-4c54-8555-1eed96ca8ef0","system_id":"levelo_inurba_marseille","lat":43.32107,"lon":5.36773,"is_reserved":false,"is_disabled":false,"rental_uris":{"android":"levelo://app?vid=68f9bc67-7a46-4c54-8555-1eed96ca8ef0","ios":"levelo://app?vid=68f9bc67-7a46-4c54-8555-1eed96ca8ef0"},"vehicle_type_id":"4","last_reported":1732299213,"current_range_meters":38800,"station_id":"ce4bhrh2rcd13ifvqhug","pricing_plan_id":"cebpf4jnsgd1na2vs0mg"},{"bike_id":"f1e818c1-b853-41c8-b01a-6f10cc9965d6","system_id":"levelo_inurba_marseille","lat":43.24997,"lon":5.38933,"is_reserved":false,"is_disabled":false,"rental_uris":{"android":"levelo://app?vid=f1e818c1-b853-41c8-b01a-6f10cc9965d6","ios":"levelo://app?vid=f1e818c1-b853-41c8-b01a-6f10cc9965d6"},"vehicle_type_id":"4","last_reported":1732299213,"current_range_meters":16000,"station_id":"ce4bhgp2rcd13ifvqfd0","pricing_plan_id":"cebpf4jnsgd1na2vs0mg"},{"bike_id":"7251622e-73a9-419f-947b-70fd7086d2b8","system_id":"levelo_inurba_marseille","lat":43.2962,"lon":5.36276,"is_reserved":false,"is_disabled":false,"rental_uris":{"android":"levelo://app?vid=7251622e-73a9-419f-947b-70fd7086d2b8","ios":"levelo://app?vid=7251622e-73a9-419f-947b-70fd7086d2b8"},"vehicle_type_id":"4","last_reported":1732299213,"current_range_meters":10000,"station_id":"","pricing_plan_id":"cebpf4jnsgd1na2vs0mg"},{"bike_id":"aadc1e68-ff6a-4dd4-8f79-23f678a530d7","system_id":"levelo_inurba_marseille","lat":43.27424,"lon":5.39418,"is_reserved":false,"is_disabled":false,"rental_uris":{"android":"levelo://app?vid=aadc1e68-ff6a-4dd4-8f79-23f678a530d7","ios":"levelo://app?vid=aadc1e68-ff6a-4dd4-8f79-23f678a530d7"},"vehicle_type_id":"4","last_reported":1732299213,"current_range_meters":3600,"station_id":"ce4bhdp2rcd13ifvqf20","pricing_plan_id":"cebpf4jnsgd1na2vs0mg"},{"bike_id":"d02cc784-6316-47df-81b0-22d82b4a344f","system_id":"levelo_inurba_marseille","lat":43.28004,"lon":5.40022,"is_reserved":false,"is_disabled":false,"rental_uris":{"android":"levelo://app?vid=d02cc784-6316-47df-81b0-22d82b4a344f","ios":"levelo://app?vid=d02cc784-6316-47df-81b0-22d82b4a344f"},"vehicle_type_id":"4","last_reported":1732299213,"current_range_meters":24400,"station_id":"ce4bho92rcd13ifvqh4g","pricing_plan_id":"cebpf4jnsgd1na2vs0mg"},{"bike_id":"2ce56eac-607f-4aee-97f1-1efe9a148076","system_id":"levelo_inurba_marseille","lat":43.22928,"lon":5.35378,"is_reserved":false,"is_disabled":false,"rental_uris":{"android":"levelo://app?vid=2ce56eac-607f-4aee-97f1-1efe9a148076","ios":"levelo://app?vid=2ce56eac-607f-4aee-97f1-1efe9a148076"},"vehicle_type_id":"4","last_reported":1732299213,"current_range_meters":14000,"station_id":"cpo3532slgdg3j2ikp40","pricing_plan_id":"cebpf4jnsgd1na2vs0mg"},{"bike_id":"3c5d0254-2542-44e0-aa08-1a8753e937a8","system_id":"levelo_inurba_marseille","lat":43.2669,"lon":5.38279,"is_reserved":false,"is_disabled":false,"rental_uris":{"android":"levelo://app?vid=3c5d0254-2542-44e0-aa08-1a8753e937a8","ios":"levelo://app?vid=3c5d0254-2542-44e0-aa08-1a8753e937a8"},"vehicle_type_id":"4","last_reported":1732299213,"current_range_meters":38400,"station_id":"ce4bhg92rcd13ifvqf90","pricing_plan_id":"cebpf4jnsgd1na2vs0mg"},{"bike_id":"b7f22744-0ca2-47c8-a3fd-f50fbb66246d","system_id":"levelo_inurba_marseille","lat":43.29267,"lon":5.38433,"is_reserved":false,"is_disabled":false,"rental_uris":{"android":"levelo://app?vid=b7f22744-0ca2-47c8-a3fd-f50fbb66246d","ios":"levelo://app?vid=b7f22744-0ca2-47c8-a3fd-f50fbb66246d"},"vehicle_type_id":"4","last_reported":1732299213,"current_range_meters":33200,"station_id":"ce4bh692rcd13ifvqea0","pricing_plan_id":"cebpf4jnsgd1na2vs0mg"},{"bike_id":"c74abcec-f83d-46ae-b5a9-0a57cc1c1c41","system_id":"levelo_inurba_marseille","lat":43.23195,"lon":5.35559,"is_reserved":false,"is_disabled":false,"rental_uris":{"android":"levelo://app?vid=c74abcec-f83d-46ae-b5a9-0a57cc1c1c41","ios":"levelo://app?vid=c74abcec-f83d-46ae-b5a9-0a57cc1c1c41"},"vehicle_type_id":"4","last_reported":1732299213,"current_range_meters":37600,"station_id":"ce4bhu92rcd13ifvqi70","pricing_plan_id":"cebpf4jnsgd1na2vs0mg"},{"bike_id":"60a4e053-6afd-4cb8-b4f3-08d9be360b93","system_id":"levelo_inurba_marseille","lat":43.25718,"lon":5.41114,"is_reserved":false,"is_disabled":false,"rental_uris":{"android":"levelo://app?vid=60a4e053-6afd-4cb8-b4f3-08d9be360b93","ios":"levelo://app?vid=60a4e053-6afd-4cb8-b4f3-08d9be360b93"},"vehicle_type_id":"4","last_reported":1732299213,"current_range_meters":16400,"station_id":"ce4bhkp2rcd13ifvqgd0","pricing_plan_id":"cebpf4jnsgd1na2vs0mg"},{"bike_id":"1f95b7bf-cda9-49b3-8eea-8d60d5718c7c","system_id":"levelo_inurba_marseille","lat":43.29028,"lon":5.37551,"is_reserved":false,"is_disabled":true,"rental_uris":{"android":"levelo://app?vid=1f95b7bf-cda9-49b3-8eea-8d60d5718c7c","ios":"levelo://app?vid=1f95b7bf-cda9-49b3-8eea-8d60d5718c7c"},"vehicle_type_id":"4","last_reported":1732299213,"current_range_meters":6000,"station_id":"ce4bh692rcd13ifvqe90","pricing_plan_id":"cebpf4jnsgd1na2vs0mg"},{"bike_id":"0c894cf7-368b-4988-baf8-2a6ab2402bbf","system_id":"levelo_inurba_marseille","lat":43.28862,"lon":5.35856,"is_reserved":false,"is_disabled":false,"rental_uris":{"android":"levelo://app?vid=0c894cf7-368b-4988-baf8-2a6ab2402bbf","ios":"levelo://app?vid=0c894cf7-368b-4988-baf8-2a6ab2402bbf"},"vehicle_type_id":"4","last_reported":1732299213,"current_range_meters":16400,"station_id":"ce4bhb12rcd13ifvqem0","pricing_plan_id":"cebpf4jnsgd1na2vs0mg"},{"bike_id":"1eff5ce5-2d56-4465-a12c-60db9ec2175a","system_id":"levelo_inurba_marseille","lat":43.22926,"lon":5.35375,"is_reserved":false,"is_disabled":false,"rental_uris":{"android":"levelo://app?vid=1eff5ce5-2d56-4465-a12c-60db9ec2175a","ios":"levelo://app?vid=1eff5ce5-2d56-4465-a12c-60db9ec2175a"},"vehicle_type_id":"4","last_reported":1732299213,"current_range_meters":3600,"station_id":"cpo3532slgdg3j2ikp40","pricing_plan_id":"cebpf4jnsgd1na2vs0mg"},{"bike_id":"dc815649-e3e3-48aa-b0fd-022cdb8ac58a","system_id":"levelo_inurba_marseille","lat":43.32366,"lon":5.38891,"is_reserved":false,"is_disabled":false,"rental_uris":{"android":"levelo://app?vid=dc815649-e3e3-48aa-b0fd-022cdb8ac58a","ios":"levelo://app?vid=dc815649-e3e3-48aa-b0fd-022cdb8ac58a"},"vehicle_type_id":"4","last_reported":1732299213,"current_range_meters":35600,"station_id":"ce4bhqp2rcd13ifvqhog","pricing_plan_id":"cebpf4jnsgd1na2vs0mg"},{"bike_id":"234ad942-13ad-43d3-b740-3e9f0bc28c87","system_id":"levelo_inurba_marseille","lat":43.30472,"lon":5.40175,"is_reserved":false,"is_disabled":false,"rental_uris":{"android":"levelo://app?vid=234ad942-13ad-43d3-b740-3e9f0bc28c87","ios":"levelo://app?vid=234ad942-13ad-43d3-b740-3e9f0bc28c87"},"vehicle_type_id":"4","last_reported":1732299213,"current_range_meters":16400,"station_id":"","pricing_plan_id":"cebpf4jnsgd1na2vs0mg"},{"bike_id":"9a535518-e2a2-4030-980a-d5f2bb08fe8e","system_id":"levelo_inurba_marseille","lat":43.27431,"lon":5.39415,"is_reserved":false,"is_disabled":false,"rental_uris":{"android":"levelo://app?vid=9a535518-e2a2-4030-980a-d5f2bb08fe8e","ios":"levelo://app?vid=9a535518-e2a2-4030-980a-d5f2bb08fe8e"},"vehicle_type_id":"4","last_reported":1732299213,"current_range_meters":37600,"station_id":"ce4bhdp2rcd13ifvqf20","pricing_plan_id":"cebpf4jnsgd1na2vs0mg"},{"bike_id":"bbff104a-c4ac-44be-8756-b2b60bb9d7b0","system_id":"levelo_inurba_marseille","lat":43.30595,"lon":5.39355,"is_reserved":false,"is_disabled":false,"rental_uris":{"android":"levelo://app?vid=bbff104a-c4ac-44be-8756-b2b60bb9d7b0","ios":"levelo://app?vid=bbff104a-c4ac-44be-8756-b2b60bb9d7b0"},"vehicle_type_id":"4","last_reported":1732299213,"current_range_meters":24000,"station_id":"ce4bh0p2rcd13ifvqd80","pricing_plan_id":"cebpf4jnsgd1na2vs0mg"},{"bike_id":"17a43134-b8eb-4256-a418-b3c2d37b0696","system_id":"levelo_inurba_marseille","lat":43.32338,"lon":5.40634,"is_reserved":false,"is_disabled":false,"rental_uris":{"android":"levelo://app?vid=17a43134-b8eb-4256-a418-b3c2d37b0696","ios":"levelo://app?vid=17a43134-b8eb-4256-a418-b3c2d37b0696"},"vehicle_type_id":"4","last_reported":1732299213,"current_range_meters":18000,"station_id":"ce4bhq92rcd13ifvqhjg","pricing_plan_id":"cebpf4jnsgd1na2vs0mg"},{"bike_id":"b75a51bd-96cf-40ff-97cc-35f21dfaec7d","system_id":"levelo_inurba_marseille","lat":43.29228,"lon":5.36076,"is_reserved":false,"is_disabled":false,"rental_uris":{"android":"levelo://app?vid=b75a51bd-96cf-40ff-97cc-35f21dfaec7d","ios":"levelo://app?vid=b75a51bd-96cf-40ff-97cc-35f21dfaec7d"},"vehicle_type_id":"4","last_reported":1732299213,"current_range_meters":26800,"station_id":"ce4bhbh2rcd13ifvqeqg","pricing_plan_id":"cebpf4jnsgd1na2vs0mg"},{"bike_id":"093de5c1-ca45-44c1-a60b-4d81fc927606","system_id":"levelo_inurba_marseille","lat":43.28934,"lon":5.3963,"is_reserved":false,"is_disabled":false,"rental_uris":{"android":"levelo://app?vid=093de5c1-ca45-44c1-a60b-4d81fc927606","ios":"levelo://app?vid=093de5c1-ca45-44c1-a60b-4d81fc927606"},"vehicle_type_id":"4","last_reported":1732299213,"current_range_meters":14000,"station_id":"ce4bh3h2rcd13ifvqdn0","pricing_plan_id":"cebpf4jnsgd1na2vs0mg"},{"bike_id":"4fef52eb-45c5-467b-9f81-43d72fe4c4ea","system_id":"levelo_inurba_marseille","lat":43.26959,"lon":5.38634,"is_reserved":false,"is_disabled":false,"rental_uris":{"android":"levelo://app?vid=4fef52eb-45c5-467b-9f81-43d72fe4c4ea","ios":"levelo://app?vid=4fef52eb-45c5-467b-9f81-43d72fe4c4ea"},"vehicle_type_id":"4","last_reported":1732299213,"current_range_meters":38800,"station_id":"ce4bhh92rcd13ifvqfh0","pricing_plan_id":"cebpf4jnsgd1na2vs0mg"},{"bike_id":"ec3d4681-e519-47ef-8aea-573852db7675","system_id":"levelo_inurba_marseille","lat":43.28003,"lon":5.40015,"is_reserved":false,"is_disabled":true,"rental_uris":{"android":"levelo://app?vid=ec3d4681-e519-47ef-8aea-573852db7675","ios":"levelo://app?vid=ec3d4681-e519-47ef-8aea-573852db7675"},"vehicle_type_id":"4","last_reported":1732299213,"current_range_meters":2000,"station_id":"ce4bho92rcd13ifvqh4g","pricing_plan_id":"cebpf4jnsgd1na2vs0mg"},{"bike_id":"fb46633f-9e00-469c-bbd0-67b423838002","system_id":"levelo_inurba_marseille","lat":43.26809,"lon":5.40263,"is_reserved":false,"is_disabled":false,"rental_uris":{"android":"levelo://app?vid=fb46633f-9e00-469c-bbd0-67b423838002","ios":"levelo://app?vid=fb46633f-9e00-469c-bbd0-67b423838002"},"vehicle_type_id":"4","last_reported":1732299213,"current_range_meters":38800,"station_id":"ce501612rcd8frsf0b60","pricing_plan_id":"cebpf4jnsgd1na2vs0mg"},{"bike_id":"f796b412-9140-415f-9f98-4b489dc2b14e","system_id":"levelo_inurba_marseille","lat":43.26944,"lon":5.40248,"is_reserved":false,"is_disabled":false,"rental_uris":{"android":"levelo://app?vid=f796b412-9140-415f-9f98-4b489dc2b14e","ios":"levelo://app?vid=f796b412-9140-415f-9f98-4b489dc2b14e"},"vehicle_type_id":"4","last_reported":1732299213,"current_range_meters":38400,"station_id":"cjm6bp8fraef2m0cb0m0","pricing_plan_id":"cebpf4jnsgd1na2vs0mg"},{"bike_id":"10f6ad27-68fb-4f74-8ee6-a99a95079edf","system_id":"levelo_inurba_marseille","lat":43.29416,"lon":5.38628,"is_reserved":false,"is_disabled":false,"rental_uris":{"android":"levelo://app?vid=10f6ad27-68fb-4f74-8ee6-a99a95079edf","ios":"levelo://app?vid=10f6ad27-68fb-4f74-8ee6-a99a95079edf"},"vehicle_type_id":"4","last_reported":1732299213,"current_range_meters":25200,"station_id":"ce4bh2h2rcd13ifvqdh0","pricing_plan_id":"cebpf4jnsgd1na2vs0mg"},{"bike_id":"75160751-1069-43f1-908c-f8a163732076","system_id":"levelo_inurba_marseille","lat":43.31713,"lon":5.43706,"is_reserved":false,"is_disabled":false,"rental_uris":{"android":"levelo://app?vid=75160751-1069-43f1-908c-f8a163732076","ios":"levelo://app?vid=75160751-1069-43f1-908c-f8a163732076"},"vehicle_type_id":"4","last_reported":1732299213,"current_range_meters":38800,"station_id":"ce4bhp92rcd13ifvqhcg","pricing_plan_id":"cebpf4jnsgd1na2vs0mg"},{"bike_id":"8a8f09f7-e3db-4c2a-b243-c7a9dba9d5df","system_id":"levelo_inurba_marseille","lat":43.24078,"lon":5.3776,"is_reserved":false,"is_disabled":false,"rental_uris":{"android":"levelo://app?vid=8a8f09f7-e3db-4c2a-b243-c7a9dba9d5df","ios":"levelo://app?vid=8a8f09f7-e3db-4c2a-b243-c7a9dba9d5df"},"vehicle_type_id":"4","last_reported":1732299213,"current_range_meters":4400,"station_id":"ce4bhnp2rcd13ifvqgvg","pricing_plan_id":"cebpf4jnsgd1na2vs0mg"},{"bike_id":"9284dc21-9ba2-4669-b8d7-ae7790be6a09","system_id":"levelo_inurba_marseille","lat":43.29841,"lon":5.36266,"is_reserved":false,"is_disabled":false,"rental_uris":{"android":"levelo://app?vid=9284dc21-9ba2-4669-b8d7-ae7790be6a09","ios":"levelo://app?vid=9284dc21-9ba2-4669-b8d7-ae7790be6a09"},"vehicle_type_id":"4","last_reported":1732299213,"current_range_meters":38800,"station_id":"ce4bgpp2rcd13ifvqc3g","pricing_plan_id":"cebpf4jnsgd1na2vs0mg"},{"bike_id":"b8134664-40a5-4b54-847d-be1e289bb20e","system_id":"levelo_inurba_marseille","lat":43.29628,"lon":5.37726,"is_reserved":false,"is_disabled":false,"rental_uris":{"android":"levelo://app?vid=b8134664-40a5-4b54-847d-be1e289bb20e","ios":"levelo://app?vid=b8134664-40a5-4b54-847d-be1e289bb20e"},"vehicle_type_id":"4","last_reported":1732299213,"current_range_meters":28400,"station_id":"ce4bgi92rcd13ifvqb90","pricing_plan_id":"cebpf4jnsgd1na2vs0mg"},{"bike_id":"dd4544df-eb9d-4c40-8b48-01c6ba03ca19","system_id":"levelo_inurba_marseille","lat":43.32003,"lon":5.38164,"is_reserved":false,"is_disabled":false,"rental_uris":{"android":"levelo://app?vid=dd4544df-eb9d-4c40-8b48-01c6ba03ca19","ios":"levelo://app?vid=dd4544df-eb9d-4c40-8b48-01c6ba03ca19"},"vehicle_type_id":"4","last_reported":1732299213,"current_range_meters":38800,"station_id":"ce4bhr12rcd13ifvqhpg","pricing_plan_id":"cebpf4jnsgd1na2vs0mg"},{"bike_id":"8268ca29-cc94-4b05-acb5-36a3938bdc45","system_id":"levelo_inurba_marseille","lat":43.28416,"lon":5.34988,"is_reserved":false,"is_disabled":false,"rental_uris":{"android":"levelo://app?vid=8268ca29-cc94-4b05-acb5-36a3938bdc45","ios":"levelo://app?vid=8268ca29-cc94-4b05-acb5-36a3938bdc45"},"vehicle_type_id":"4","last_reported":1732299213,"current_range_meters":38000,"station_id":"ce4bhbh2rcd13ifvqepg","pricing_plan_id":"cebpf4jnsgd1na2vs0mg"},{"bike_id":"555d58d5-47bb-4449-bc39-2dfeacac4a16","system_id":"levelo_inurba_marseille","lat":43.25504,"lon":5.37653,"is_reserved":false,"is_disabled":false,"rental_uris":{"android":"levelo://app?vid=555d58d5-47bb-4449-bc39-2dfeacac4a16","ios":"levelo://app?vid=555d58d5-47bb-4449-bc39-2dfeacac4a16"},"vehicle_type_id":"4","last_reported":1732299213,"current_range_meters":38800,"station_id":"ce4bhh12rcd13ifvqff0","pricing_plan_id":"cebpf4jnsgd1na2vs0mg"},{"bike_id":"d99d745a-edcb-4d3d-bf9d-7fa79bc2aaf5","system_id":"levelo_inurba_marseille","lat":43.31995,"lon":5.38147,"is_reserved":false,"is_disabled":false,"rental_uris":{"android":"levelo://app?vid=d99d745a-edcb-4d3d-bf9d-7fa79bc2aaf5","ios":"levelo://app?vid=d99d745a-edcb-4d3d-bf9d-7fa79bc2aaf5"},"vehicle_type_id":"4","last_reported":1732299213,"current_range_meters":16800,"station_id":"ce4bhr12rcd13ifvqhpg","pricing_plan_id":"cebpf4jnsgd1na2vs0mg"},{"bike_id":"89a125c3-0a5b-46e2-80a7-7c18e7f6a211","system_id":"levelo_inurba_marseille","lat":43.29271,"lon":5.38436,"is_reserved":false,"is_disabled":false,"rental_uris":{"android":"levelo://app?vid=89a125c3-0a5b-46e2-80a7-7c18e7f6a211","ios":"levelo://app?vid=89a125c3-0a5b-46e2-80a7-7c18e7f6a211"},"vehicle_type_id":"4","last_reported":1732299213,"current_range_meters":23200,"station_id":"ce4bh692rcd13ifvqea0","pricing_plan_id":"cebpf4jnsgd1na2vs0mg"},{"bike_id":"8db640b0-0205-49aa-a1c2-12e4b645a9fb","system_id":"levelo_inurba_marseille","lat":43.25091,"lon":5.39514,"is_reserved":false,"is_disabled":false,"rental_uris":{"android":"levelo://app?vid=8db640b0-0205-49aa-a1c2-12e4b645a9fb","ios":"levelo://app?vid=8db640b0-0205-49aa-a1c2-12e4b645a9fb"},"vehicle_type_id":"4","last_reported":1732299213,"current_range_meters":38800,"station_id":"ce4bhm12rcd13ifvqgkg","pricing_plan_id":"cebpf4jnsgd1na2vs0mg"},{"bike_id":"552ae1f9-34eb-4d70-a19b-3616d3661778","system_id":"levelo_inurba_marseille","lat":43.33727,"lon":5.39184,"is_reserved":false,"is_disabled":false,"rental_uris":{"android":"levelo://app?vid=552ae1f9-34eb-4d70-a19b-3616d3661778","ios":"levelo://app?vid=552ae1f9-34eb-4d70-a19b-3616d3661778"},"vehicle_type_id":"4","last_reported":1732299213,"current_range_meters":24400,"station_id":"ce4bhr92rcd13ifvqhsg","pricing_plan_id":"cebpf4jnsgd1na2vs0mg"},{"bike_id":"070d3908-99c6-40ba-b441-b61fb4af8f3a","system_id":"levelo_inurba_marseille","lat":43.27573,"lon":5.38416,"is_reserved":false,"is_disabled":false,"rental_uris":{"android":"levelo://app?vid=070d3908-99c6-40ba-b441-b61fb4af8f3a","ios":"levelo://app?vid=070d3908-99c6-40ba-b441-b61fb4af8f3a"},"vehicle_type_id":"4","last_reported":1732299213,"current_range_meters":38800,"station_id":"ce4bhh92rcd13ifvqfi0","pricing_plan_id":"cebpf4jnsgd1na2vs0mg"},{"bike_id":"f7f3756c-1ec7-4782-9c87-6273f87b6774","system_id":"levelo_inurba_marseille","lat":43.337444,"lon":5.374475,"is_reserved":false,"is_disabled":false,"rental_uris":{"android":"levelo://app?vid=f7f3756c-1ec7-4782-9c87-6273f87b6774","ios":"levelo://app?vid=f7f3756c-1ec7-4782-9c87-6273f87b6774"},"vehicle_type_id":"4","last_reported":1732299213,"current_range_meters":36400,"station_id":"","pricing_plan_id":"cebpf4jnsgd1na2vs0mg"},{"bike_id":"bdca9a5b-dace-4172-b957-73aa4aa4eeb4","system_id":"levelo_inurba_marseille","lat":43.26564,"lon":5.38996,"is_reserved":false,"is_disabled":true,"rental_uris":{"android":"levelo://app?vid=bdca9a5b-dace-4172-b957-73aa4aa4eeb4","ios":"levelo://app?vid=bdca9a5b-dace-4172-b957-73aa4aa4eeb4"},"vehicle_type_id":"4","last_reported":1732299213,"current_range_meters":38800,"station_id":"ce4bhe12rcd13ifvqf30","pricing_plan_id":"cebpf4jnsgd1na2vs0mg"},{"bike_id":"028e5427-36e2-49e1-b3db-260058fffb58","system_id":"levelo_inurba_marseille","lat":43.25576,"lon":5.38236,"is_reserved":false,"is_disabled":false,"rental_uris":{"android":"levelo://app?vid=028e5427-36e2-49e1-b3db-260058fffb58","ios":"levelo://app?vid=028e5427-36e2-49e1-b3db-260058fffb58"},"vehicle_type_id":"4","last_reported":1732299213,"current_range_meters":16000,"station_id":"ce4bhih2rcd13ifvqfs0","pricing_plan_id":"cebpf4jnsgd1na2vs0mg"},{"bike_id":"1572014c-9bc2-4922-8058-69d7a722af4a","system_id":"levelo_inurba_marseille","lat":43.27948,"lon":5.41046,"is_reserved":false,"is_disabled":false,"rental_uris":{"android":"levelo://app?vid=1572014c-9bc2-4922-8058-69d7a722af4a","ios":"levelo://app?vid=1572014c-9bc2-4922-8058-69d7a722af4a"},"vehicle_type_id":"4","last_reported":1732299213,"current_range_meters":8000,"station_id":"ce4bhnp2rcd13ifvqh0g","pricing_plan_id":"cebpf4jnsgd1na2vs0mg"},{"bike_id":"7321aabf-b088-45e0-9d91-8e497e6d692a","system_id":"levelo_inurba_marseille","lat":43.31763,"lon":5.39009,"is_reserved":false,"is_disabled":false,"rental_uris":{"android":"levelo://app?vid=7321aabf-b088-45e0-9d91-8e497e6d692a","ios":"levelo://app?vid=7321aabf-b088-45e0-9d91-8e497e6d692a"},"vehicle_type_id":"4","last_reported":1732299213,"current_range_meters":29600,"station_id":"ce4bhqp2rcd13ifvqhng","pricing_plan_id":"cebpf4jnsgd1na2vs0mg"},{"bike_id":"260ced2d-bf74-4ae1-816e-a57b8753180b","system_id":"levelo_inurba_marseille","lat":43.30955,"lon":5.39037,"is_reserved":false,"is_disabled":true,"rental_uris":{"android":"levelo://app?vid=260ced2d-bf74-4ae1-816e-a57b8753180b","ios":"levelo://app?vid=260ced2d-bf74-4ae1-816e-a57b8753180b"},"vehicle_type_id":"4","last_reported":1732299213,"current_range_meters":1600,"station_id":"ce4bgup2rcd13ifvqco0","pricing_plan_id":"cebpf4jnsgd1na2vs0mg"},{"bike_id":"0d5efe48-32bd-461f-be09-c1d5e2d6ef37","system_id":"levelo_inurba_marseille","lat":43.32364,"lon":5.38888,"is_reserved":false,"is_disabled":false,"rental_uris":{"android":"levelo://app?vid=0d5efe48-32bd-461f-be09-c1d5e2d6ef37","ios":"levelo://app?vid=0d5efe48-32bd-461f-be09-c1d5e2d6ef37"},"vehicle_type_id":"4","last_reported":1732299213,"current_range_meters":32000,"station_id":"ce4bhqp2rcd13ifvqhog","pricing_plan_id":"cebpf4jnsgd1na2vs0mg"},{"bike_id":"92951ea3-5841-4591-aa78-d22bb6a774f2","system_id":"levelo_inurba_marseille","lat":43.29622,"lon":5.37157,"is_reserved":false,"is_disabled":false,"rental_uris":{"android":"levelo://app?vid=92951ea3-5841-4591-aa78-d22bb6a774f2","ios":"levelo://app?vid=92951ea3-5841-4591-aa78-d22bb6a774f2"},"vehicle_type_id":"4","last_reported":1732299213,"current_range_meters":12400,"station_id":"ce4bgnh2rcd13ifvqc0g","pricing_plan_id":"cebpf4jnsgd1na2vs0mg"},{"bike_id":"4052bbcc-0539-4a4a-b519-9be00a1507f4","system_id":"levelo_inurba_marseille","lat":43.29801,"lon":5.38081,"is_reserved":false,"is_disabled":false,"rental_uris":{"android":"levelo://app?vid=4052bbcc-0539-4a4a-b519-9be00a1507f4","ios":"levelo://app?vid=4052bbcc-0539-4a4a-b519-9be00a1507f4"},"vehicle_type_id":"4","last_reported":1732299213,"current_range_meters":21600,"station_id":"ce4bgip2rcd13ifvqbb0","pricing_plan_id":"cebpf4jnsgd1na2vs0mg"},{"bike_id":"dc034b65-7f4c-4b53-a292-034928e7866e","system_id":"levelo_inurba_marseille","lat":43.31599,"lon":5.37237,"is_reserved":false,"is_disabled":false,"rental_uris":{"android":"levelo://app?vid=dc034b65-7f4c-4b53-a292-034928e7866e","ios":"levelo://app?vid=dc034b65-7f4c-4b53-a292-034928e7866e"},"vehicle_type_id":"4","last_reported":1732299213,"current_range_meters":9200,"station_id":"","pricing_plan_id":"cebpf4jnsgd1na2vs0mg"},{"bike_id":"a2c58c6c-a2f6-40b4-994d-3b31e7787b44","system_id":"levelo_inurba_marseille","lat":43.28414,"lon":5.34993,"is_reserved":false,"is_disabled":false,"rental_uris":{"android":"levelo://app?vid=a2c58c6c-a2f6-40b4-994d-3b31e7787b44","ios":"levelo://app?vid=a2c58c6c-a2f6-40b4-994d-3b31e7787b44"},"vehicle_type_id":"4","last_reported":1732299213,"current_range_meters":31200,"station_id":"ce4bhbh2rcd13ifvqepg","pricing_plan_id":"cebpf4jnsgd1na2vs0mg"},{"bike_id":"c2a59ab3-d6b8-4918-82c9-bfcce921601e","system_id":"levelo_inurba_marseille","lat":43.32476,"lon":5.36574,"is_reserved":false,"is_disabled":false,"rental_uris":{"android":"levelo://app?vid=c2a59ab3-d6b8-4918-82c9-bfcce921601e","ios":"levelo://app?vid=c2a59ab3-d6b8-4918-82c9-bfcce921601e"},"vehicle_type_id":"4","last_reported":1732299213,"current_range_meters":16800,"station_id":"ce4bhs12rcd13ifvqhvg","pricing_plan_id":"cebpf4jnsgd1na2vs0mg"},{"bike_id":"58c180dc-c06a-46fe-9701-0fd5163c8626","system_id":"levelo_inurba_marseille","lat":43.29584,"lon":5.42308,"is_reserved":false,"is_disabled":true,"rental_uris":{"android":"levelo://app?vid=58c180dc-c06a-46fe-9701-0fd5163c8626","ios":"levelo://app?vid=58c180dc-c06a-46fe-9701-0fd5163c8626"},"vehicle_type_id":"4","last_reported":1732299213,"current_range_meters":0,"station_id":"ce4bhph2rcd13ifvqhdg","pricing_plan_id":"cebpf4jnsgd1na2vs0mg"},{"bike_id":"2fbcbd1e-3b3a-4c2d-a596-009382ff779c","system_id":"levelo_inurba_marseille","lat":43.28573,"lon":5.39496,"is_reserved":false,"is_disabled":false,"rental_uris":{"android":"levelo://app?vid=2fbcbd1e-3b3a-4c2d-a596-009382ff779c","ios":"levelo://app?vid=2fbcbd1e-3b3a-4c2d-a596-009382ff779c"},"vehicle_type_id":"4","last_reported":1732299213,"current_range_meters":17200,"station_id":"ce4bh292rcd13ifvqdg0","pricing_plan_id":"cebpf4jnsgd1na2vs0mg"},{"bike_id":"f6545e94-c35d-4f31-85b6-4ac79ab44d7f","system_id":"levelo_inurba_marseille","lat":43.29252,"lon":5.3844,"is_reserved":false,"is_disabled":false,"rental_uris":{"android":"levelo://app?vid=f6545e94-c35d-4f31-85b6-4ac79ab44d7f","ios":"levelo://app?vid=f6545e94-c35d-4f31-85b6-4ac79ab44d7f"},"vehicle_type_id":"4","last_reported":1732299213,"current_range_meters":28800,"station_id":"ce4bh692rcd13ifvqea0","pricing_plan_id":"cebpf4jnsgd1na2vs0mg"},{"bike_id":"b60466ef-8514-4f53-ab0a-ebf1071dc205","system_id":"levelo_inurba_marseille","lat":43.32365,"lon":5.38884,"is_reserved":false,"is_disabled":false,"rental_uris":{"android":"levelo://app?vid=b60466ef-8514-4f53-ab0a-ebf1071dc205","ios":"levelo://app?vid=b60466ef-8514-4f53-ab0a-ebf1071dc205"},"vehicle_type_id":"4","last_reported":1732299213,"current_range_meters":33600,"station_id":"ce4bhqp2rcd13ifvqhog","pricing_plan_id":"cebpf4jnsgd1na2vs0mg"},{"bike_id":"59e78f69-1c24-4b23-a9c8-df4d64efcf2e","system_id":"levelo_inurba_marseille","lat":43.26565,"lon":5.39002,"is_reserved":false,"is_disabled":false,"rental_uris":{"android":"levelo://app?vid=59e78f69-1c24-4b23-a9c8-df4d64efcf2e","ios":"levelo://app?vid=59e78f69-1c24-4b23-a9c8-df4d64efcf2e"},"vehicle_type_id":"4","last_reported":1732299213,"current_range_meters":38400,"station_id":"ce4bhe12rcd13ifvqf30","pricing_plan_id":"cebpf4jnsgd1na2vs0mg"},{"bike_id":"20db0e6b-7fc1-4f13-aeb2-811ab390dd13","system_id":"levelo_inurba_marseille","lat":43.32489,"lon":5.36562,"is_reserved":false,"is_disabled":false,"rental_uris":{"android":"levelo://app?vid=20db0e6b-7fc1-4f13-aeb2-811ab390dd13","ios":"levelo://app?vid=20db0e6b-7fc1-4f13-aeb2-811ab390dd13"},"vehicle_type_id":"4","last_reported":1732299213,"current_range_meters":6800,"station_id":"ce4bhs12rcd13ifvqhvg","pricing_plan_id":"cebpf4jnsgd1na2vs0mg"},{"bike_id":"3affb453-be94-4a47-807b-ce5c0f782064","system_id":"levelo_inurba_marseille","lat":43.30219,"lon":5.39471,"is_reserved":false,"is_disabled":false,"rental_uris":{"android":"levelo://app?vid=3affb453-be94-4a47-807b-ce5c0f782064","ios":"levelo://app?vid=3affb453-be94-4a47-807b-ce5c0f782064"},"vehicle_type_id":"4","last_reported":1732299213,"current_range_meters":22000,"station_id":"ce4bh0p2rcd13ifvqd70","pricing_plan_id":"cebpf4jnsgd1na2vs0mg"},{"bike_id":"13b751d7-077d-4f29-8350-fc32ddaecb6a","system_id":"levelo_inurba_marseille","lat":43.26549,"lon":5.37289,"is_reserved":false,"is_disabled":false,"rental_uris":{"android":"levelo://app?vid=13b751d7-077d-4f29-8350-fc32ddaecb6a","ios":"levelo://app?vid=13b751d7-077d-4f29-8350-fc32ddaecb6a"},"vehicle_type_id":"4","last_reported":1732299213,"current_range_meters":37600,"station_id":"ce4bhg12rcd13ifvqf70","pricing_plan_id":"cebpf4jnsgd1na2vs0mg"},{"bike_id":"e5951ee3-4a5a-4ebb-b469-096c5188dfa3","system_id":"levelo_inurba_marseille","lat":43.23187,"lon":5.35555,"is_reserved":false,"is_disabled":false,"rental_uris":{"android":"levelo://app?vid=e5951ee3-4a5a-4ebb-b469-096c5188dfa3","ios":"levelo://app?vid=e5951ee3-4a5a-4ebb-b469-096c5188dfa3"},"vehicle_type_id":"4","last_reported":1732299213,"current_range_meters":27600,"station_id":"ce4bhu92rcd13ifvqi70","pricing_plan_id":"cebpf4jnsgd1na2vs0mg"},{"bike_id":"62e98bee-8da9-4bfb-8081-a40932637f33","system_id":"levelo_inurba_marseille","lat":43.28157,"lon":5.42641,"is_reserved":false,"is_disabled":true,"rental_uris":{"android":"levelo://app?vid=62e98bee-8da9-4bfb-8081-a40932637f33","ios":"levelo://app?vid=62e98bee-8da9-4bfb-8081-a40932637f33"},"vehicle_type_id":"4","last_reported":1732299213,"current_range_meters":400,"station_id":"ce4bhnh2rcd13ifvqgug","pricing_plan_id":"cebpf4jnsgd1na2vs0mg"},{"bike_id":"a35c5a7c-976f-409c-a680-d6b3303fe502","system_id":"levelo_inurba_marseille","lat":43.26936,"lon":5.40257,"is_reserved":false,"is_disabled":false,"rental_uris":{"android":"levelo://app?vid=a35c5a7c-976f-409c-a680-d6b3303fe502","ios":"levelo://app?vid=a35c5a7c-976f-409c-a680-d6b3303fe502"},"vehicle_type_id":"4","last_reported":1732299213,"current_range_meters":28800,"station_id":"cjm6bp8fraef2m0cb0m0","pricing_plan_id":"cebpf4jnsgd1na2vs0mg"},{"bike_id":"598543c3-4504-4ea3-976e-b45e767de5ed","system_id":"levelo_inurba_marseille","lat":43.32364,"lon":5.38887,"is_reserved":false,"is_disabled":false,"rental_uris":{"android":"levelo://app?vid=598543c3-4504-4ea3-976e-b45e767de5ed","ios":"levelo://app?vid=598543c3-4504-4ea3-976e-b45e767de5ed"},"vehicle_type_id":"4","last_reported":1732299213,"current_range_meters":35600,"station_id":"ce4bhqp2rcd13ifvqhog","pricing_plan_id":"cebpf4jnsgd1na2vs0mg"},{"bike_id":"44abef4f-7bb3-417f-9f17-632a234b6e5d","system_id":"levelo_inurba_marseille","lat":43.32109,"lon":5.3678,"is_reserved":false,"is_disabled":false,"rental_uris":{"android":"levelo://app?vid=44abef4f-7bb3-417f-9f17-632a234b6e5d","ios":"levelo://app?vid=44abef4f-7bb3-417f-9f17-632a234b6e5d"},"vehicle_type_id":"4","last_reported":1732299213,"current_range_meters":22000,"station_id":"ce4bhrh2rcd13ifvqhug","pricing_plan_id":"cebpf4jnsgd1na2vs0mg"},{"bike_id":"830ab6f1-9f97-4b81-a374-96032fba99d2","system_id":"levelo_inurba_marseille","lat":43.244775,"lon":5.36921,"is_reserved":false,"is_disabled":true,"rental_uris":{"android":"levelo://app?vid=830ab6f1-9f97-4b81-a374-96032fba99d2","ios":"levelo://app?vid=830ab6f1-9f97-4b81-a374-96032fba99d2"},"vehicle_type_id":"4","last_reported":1732299213,"current_range_meters":25200,"station_id":"","pricing_plan_id":"cebpf4jnsgd1na2vs0mg"},{"bike_id":"6c948e9c-d5b3-4fe5-a918-1bd2f7c83b02","system_id":"levelo_inurba_marseille","lat":43.32113,"lon":5.36777,"is_reserved":false,"is_disabled":false,"rental_uris":{"android":"levelo://app?vid=6c948e9c-d5b3-4fe5-a918-1bd2f7c83b02","ios":"levelo://app?vid=6c948e9c-d5b3-4fe5-a918-1bd2f7c83b02"},"vehicle_type_id":"4","last_reported":1732299213,"current_range_meters":36800,"station_id":"ce4bhrh2rcd13ifvqhug","pricing_plan_id":"cebpf4jnsgd1na2vs0mg"},{"bike_id":"9e620abf-d324-4f99-84fc-d67e71109f2a","system_id":"levelo_inurba_marseille","lat":43.31078,"lon":5.42428,"is_reserved":false,"is_disabled":true,"rental_uris":{"android":"levelo://app?vid=9e620abf-d324-4f99-84fc-d67e71109f2a","ios":"levelo://app?vid=9e620abf-d324-4f99-84fc-d67e71109f2a"},"vehicle_type_id":"4","last_reported":1732299213,"current_range_meters":2800,"station_id":"ce4bhp92rcd13ifvqhag","pricing_plan_id":"cebpf4jnsgd1na2vs0mg"},{"bike_id":"9388a7ff-9c5c-4c26-9899-39b2408cf7e3","system_id":"levelo_inurba_marseille","lat":43.31025,"lon":5.38342,"is_reserved":false,"is_disabled":true,"rental_uris":{"android":"levelo://app?vid=9388a7ff-9c5c-4c26-9899-39b2408cf7e3","ios":"levelo://app?vid=9388a7ff-9c5c-4c26-9899-39b2408cf7e3"},"vehicle_type_id":"4","last_reported":1732299213,"current_range_meters":0,"station_id":"","pricing_plan_id":"cebpf4jnsgd1na2vs0mg"},{"bike_id":"d2370773-25c9-473c-874c-1062738027bd","system_id":"levelo_inurba_marseille","lat":43.28981,"lon":5.37819,"is_reserved":false,"is_disabled":false,"rental_uris":{"android":"levelo://app?vid=d2370773-25c9-473c-874c-1062738027bd","ios":"levelo://app?vid=d2370773-25c9-473c-874c-1062738027bd"},"vehicle_type_id":"4","last_reported":1732299213,"current_range_meters":16800,"station_id":"ce4bh9p2rcd13ifvqed0","pricing_plan_id":"cebpf4jnsgd1na2vs0mg"},{"bike_id":"64d441b7-9ecb-42ea-b65d-8679e3c803af","system_id":"levelo_inurba_marseille","lat":43.29281,"lon":5.40121,"is_reserved":false,"is_disabled":false,"rental_uris":{"android":"levelo://app?vid=64d441b7-9ecb-42ea-b65d-8679e3c803af","ios":"levelo://app?vid=64d441b7-9ecb-42ea-b65d-8679e3c803af"},"vehicle_type_id":"4","last_reported":1732299213,"current_range_meters":33200,"station_id":"ce4bh312rcd13ifvqdk0","pricing_plan_id":"cebpf4jnsgd1na2vs0mg"},{"bike_id":"164d8ecf-9ef9-4eba-a6de-29c17c03ee13","system_id":"levelo_inurba_marseille","lat":43.26029,"lon":5.37553,"is_reserved":false,"is_disabled":false,"rental_uris":{"android":"levelo://app?vid=164d8ecf-9ef9-4eba-a6de-29c17c03ee13","ios":"levelo://app?vid=164d8ecf-9ef9-4eba-a6de-29c17c03ee13"},"vehicle_type_id":"4","last_reported":1732299213,"current_range_meters":14800,"station_id":"ce4bhgh2rcd13ifvqfa0","pricing_plan_id":"cebpf4jnsgd1na2vs0mg"},{"bike_id":"cb7d01f1-5106-4f8f-b54c-d58a5d1e5624","system_id":"levelo_inurba_marseille","lat":43.29794,"lon":5.40401,"is_reserved":false,"is_disabled":false,"rental_uris":{"android":"levelo://app?vid=cb7d01f1-5106-4f8f-b54c-d58a5d1e5624","ios":"levelo://app?vid=cb7d01f1-5106-4f8f-b54c-d58a5d1e5624"},"vehicle_type_id":"4","last_reported":1732299213,"current_range_meters":30800,"station_id":"ce4bh112rcd13ifvqd90","pricing_plan_id":"cebpf4jnsgd1na2vs0mg"},{"bike_id":"5c53cfbd-2547-413a-b79a-f8cc3b1ca992","system_id":"levelo_inurba_marseille","lat":43.32109,"lon":5.36781,"is_reserved":false,"is_disabled":false,"rental_uris":{"android":"levelo://app?vid=5c53cfbd-2547-413a-b79a-f8cc3b1ca992","ios":"levelo://app?vid=5c53cfbd-2547-413a-b79a-f8cc3b1ca992"},"vehicle_type_id":"4","last_reported":1732299213,"current_range_meters":15200,"station_id":"ce4bhrh2rcd13ifvqhug","pricing_plan_id":"cebpf4jnsgd1na2vs0mg"},{"bike_id":"3b663bbf-5c36-4319-870d-56eec0d53d01","system_id":"levelo_inurba_marseille","lat":43.30435,"lon":5.38883,"is_reserved":false,"is_disabled":false,"rental_uris":{"android":"levelo://app?vid=3b663bbf-5c36-4319-870d-56eec0d53d01","ios":"levelo://app?vid=3b663bbf-5c36-4319-870d-56eec0d53d01"},"vehicle_type_id":"4","last_reported":1732299213,"current_range_meters":29600,"station_id":"ce4bgk12rcd13ifvqbi0","pricing_plan_id":"cebpf4jnsgd1na2vs0mg"},{"bike_id":"85c01c0b-dd5c-4809-bf61-68287b12d903","system_id":"levelo_inurba_marseille","lat":43.32367,"lon":5.3889,"is_reserved":false,"is_disabled":false,"rental_uris":{"android":"levelo://app?vid=85c01c0b-dd5c-4809-bf61-68287b12d903","ios":"levelo://app?vid=85c01c0b-dd5c-4809-bf61-68287b12d903"},"vehicle_type_id":"4","last_reported":1732299213,"current_range_meters":35200,"station_id":"ce4bhqp2rcd13ifvqhog","pricing_plan_id":"cebpf4jnsgd1na2vs0mg"},{"bike_id":"ea188596-8a15-4c67-9fbb-ab7ba9487b25","system_id":"levelo_inurba_marseille","lat":43.27555,"lon":5.38412,"is_reserved":false,"is_disabled":true,"rental_uris":{"android":"levelo://app?vid=ea188596-8a15-4c67-9fbb-ab7ba9487b25","ios":"levelo://app?vid=ea188596-8a15-4c67-9fbb-ab7ba9487b25"},"vehicle_type_id":"4","last_reported":1732299213,"current_range_meters":0,"station_id":"ce4bhh92rcd13ifvqfi0","pricing_plan_id":"cebpf4jnsgd1na2vs0mg"},{"bike_id":"ec0c6679-0cd4-4b7a-aee8-4289c7d14d27","system_id":"levelo_inurba_marseille","lat":43.29037,"lon":5.3996,"is_reserved":false,"is_disabled":false,"rental_uris":{"android":"levelo://app?vid=ec0c6679-0cd4-4b7a-aee8-4289c7d14d27","ios":"levelo://app?vid=ec0c6679-0cd4-4b7a-aee8-4289c7d14d27"},"vehicle_type_id":"4","last_reported":1732299213,"current_range_meters":12400,"station_id":"ce4bh392rcd13ifvqdm0","pricing_plan_id":"cebpf4jnsgd1na2vs0mg"},{"bike_id":"21004fac-63b2-4285-a7c9-cfe9e78d69b2","system_id":"levelo_inurba_marseille","lat":43.30147,"lon":5.38058,"is_reserved":false,"is_disabled":false,"rental_uris":{"android":"levelo://app?vid=21004fac-63b2-4285-a7c9-cfe9e78d69b2","ios":"levelo://app?vid=21004fac-63b2-4285-a7c9-cfe9e78d69b2"},"vehicle_type_id":"4","last_reported":1732299213,"current_range_meters":24400,"station_id":"ce4bgjp2rcd13ifvqbh0","pricing_plan_id":"cebpf4jnsgd1na2vs0mg"},{"bike_id":"9efab7bb-b9af-4dfb-bd79-748c30966d28","system_id":"levelo_inurba_marseille","lat":43.31753,"lon":5.39015,"is_reserved":false,"is_disabled":false,"rental_uris":{"android":"levelo://app?vid=9efab7bb-b9af-4dfb-bd79-748c30966d28","ios":"levelo://app?vid=9efab7bb-b9af-4dfb-bd79-748c30966d28"},"vehicle_type_id":"4","last_reported":1732299213,"current_range_meters":38800,"station_id":"ce4bhqp2rcd13ifvqhng","pricing_plan_id":"cebpf4jnsgd1na2vs0mg"},{"bike_id":"e295127c-68a9-4d9a-ba7b-6f97b7551f8c","system_id":"levelo_inurba_marseille","lat":43.33731,"lon":5.39188,"is_reserved":false,"is_disabled":false,"rental_uris":{"android":"levelo://app?vid=e295127c-68a9-4d9a-ba7b-6f97b7551f8c","ios":"levelo://app?vid=e295127c-68a9-4d9a-ba7b-6f97b7551f8c"},"vehicle_type_id":"4","last_reported":1732299213,"current_range_meters":13600,"station_id":"ce4bhr92rcd13ifvqhsg","pricing_plan_id":"cebpf4jnsgd1na2vs0mg"},{"bike_id":"b389af88-c419-4869-afbf-0c33ed4fe6c8","system_id":"levelo_inurba_marseille","lat":43.25824,"lon":5.3943,"is_reserved":false,"is_disabled":false,"rental_uris":{"android":"levelo://app?vid=b389af88-c419-4869-afbf-0c33ed4fe6c8","ios":"levelo://app?vid=b389af88-c419-4869-afbf-0c33ed4fe6c8"},"vehicle_type_id":"4","last_reported":1732299213,"current_range_meters":38800,"station_id":"ce4bhip2rcd13ifvqft0","pricing_plan_id":"cebpf4jnsgd1na2vs0mg"},{"bike_id":"83337326-f5c3-42c2-859d-557e46247110","system_id":"levelo_inurba_marseille","lat":43.3237,"lon":5.38878,"is_reserved":false,"is_disabled":false,"rental_uris":{"android":"levelo://app?vid=83337326-f5c3-42c2-859d-557e46247110","ios":"levelo://app?vid=83337326-f5c3-42c2-859d-557e46247110"},"vehicle_type_id":"4","last_reported":1732299213,"current_range_meters":6800,"station_id":"ce4bhqp2rcd13ifvqhog","pricing_plan_id":"cebpf4jnsgd1na2vs0mg"},{"bike_id":"a72c651f-2774-4888-9c3f-6091bbf36990","system_id":"levelo_inurba_marseille","lat":43.29313,"lon":5.37173,"is_reserved":false,"is_disabled":false,"rental_uris":{"android":"levelo://app?vid=a72c651f-2774-4888-9c3f-6091bbf36990","ios":"levelo://app?vid=a72c651f-2774-4888-9c3f-6091bbf36990"},"vehicle_type_id":"4","last_reported":1732299213,"current_range_meters":25200,"station_id":"ce4bgh92rcd13ifvqb40","pricing_plan_id":"cebpf4jnsgd1na2vs0mg"},{"bike_id":"89429ed2-f839-4749-bcb9-3e5230fe3bfb","system_id":"levelo_inurba_marseille","lat":43.3373,"lon":5.39186,"is_reserved":false,"is_disabled":false,"rental_uris":{"android":"levelo://app?vid=89429ed2-f839-4749-bcb9-3e5230fe3bfb","ios":"levelo://app?vid=89429ed2-f839-4749-bcb9-3e5230fe3bfb"},"vehicle_type_id":"4","last_reported":1732299213,"current_range_meters":36800,"station_id":"ce4bhr92rcd13ifvqhsg","pricing_plan_id":"cebpf4jnsgd1na2vs0mg"},{"bike_id":"927005f5-b200-4e92-9d36-9f94c76ba2dd","system_id":"levelo_inurba_marseille","lat":43.30803,"lon":5.43523,"is_reserved":false,"is_disabled":true,"rental_uris":{"android":"levelo://app?vid=927005f5-b200-4e92-9d36-9f94c76ba2dd","ios":"levelo://app?vid=927005f5-b200-4e92-9d36-9f94c76ba2dd"},"vehicle_type_id":"4","last_reported":1732299213,"current_range_meters":0,"station_id":"ce4bhph2rcd13ifvqheg","pricing_plan_id":"cebpf4jnsgd1na2vs0mg"},{"bike_id":"24a502a8-44d3-4b2a-8dc9-1815319ca70b","system_id":"levelo_inurba_marseille","lat":43.29426,"lon":5.38622,"is_reserved":false,"is_disabled":false,"rental_uris":{"android":"levelo://app?vid=24a502a8-44d3-4b2a-8dc9-1815319ca70b","ios":"levelo://app?vid=24a502a8-44d3-4b2a-8dc9-1815319ca70b"},"vehicle_type_id":"4","last_reported":1732299213,"current_range_meters":6800,"station_id":"ce4bh2h2rcd13ifvqdh0","pricing_plan_id":"cebpf4jnsgd1na2vs0mg"},{"bike_id":"d025ef5c-f65f-45fe-af01-50b18a9fe250","system_id":"levelo_inurba_marseille","lat":43.26935,"lon":5.40248,"is_reserved":false,"is_disabled":false,"rental_uris":{"android":"levelo://app?vid=d025ef5c-f65f-45fe-af01-50b18a9fe250","ios":"levelo://app?vid=d025ef5c-f65f-45fe-af01-50b18a9fe250"},"vehicle_type_id":"4","last_reported":1732299213,"current_range_meters":4800,"station_id":"cjm6bp8fraef2m0cb0m0","pricing_plan_id":"cebpf4jnsgd1na2vs0mg"},{"bike_id":"35de914b-9c3a-4d35-84a1-f614669fd771","system_id":"levelo_inurba_marseille","lat":43.27998,"lon":5.40012,"is_reserved":false,"is_disabled":true,"rental_uris":{"android":"levelo://app?vid=35de914b-9c3a-4d35-84a1-f614669fd771","ios":"levelo://app?vid=35de914b-9c3a-4d35-84a1-f614669fd771"},"vehicle_type_id":"4","last_reported":1732299213,"current_range_meters":400,"station_id":"ce4bho92rcd13ifvqh4g","pricing_plan_id":"cebpf4jnsgd1na2vs0mg"},{"bike_id":"050ff910-f189-4012-80f4-5bdec5f34eb2","system_id":"levelo_inurba_marseille","lat":43.29808,"lon":5.42649,"is_reserved":false,"is_disabled":true,"rental_uris":{"android":"levelo://app?vid=050ff910-f189-4012-80f4-5bdec5f34eb2","ios":"levelo://app?vid=050ff910-f189-4012-80f4-5bdec5f34eb2"},"vehicle_type_id":"4","last_reported":1732299213,"current_range_meters":1600,"station_id":"","pricing_plan_id":"cebpf4jnsgd1na2vs0mg"},{"bike_id":"aff07642-27e3-4d97-bf2e-48ee672f2a1f","system_id":"levelo_inurba_marseille","lat":43.26203,"lon":5.37921,"is_reserved":false,"is_disabled":false,"rental_uris":{"android":"levelo://app?vid=aff07642-27e3-4d97-bf2e-48ee672f2a1f","ios":"levelo://app?vid=aff07642-27e3-4d97-bf2e-48ee672f2a1f"},"vehicle_type_id":"4","last_reported":1732299213,"current_range_meters":24400,"station_id":"ce4bhjp2rcd13ifvqg90","pricing_plan_id":"cebpf4jnsgd1na2vs0mg"},{"bike_id":"b21f426c-929c-4009-aec0-608f43ff4d1b","system_id":"levelo_inurba_marseille","lat":43.29973,"lon":5.38487,"is_reserved":false,"is_disabled":false,"rental_uris":{"android":"levelo://app?vid=b21f426c-929c-4009-aec0-608f43ff4d1b","ios":"levelo://app?vid=b21f426c-929c-4009-aec0-608f43ff4d1b"},"vehicle_type_id":"4","last_reported":1732299213,"current_range_meters":24800,"station_id":"ce4bgj92rcd13ifvqbd0","pricing_plan_id":"cebpf4jnsgd1na2vs0mg"},{"bike_id":"7770b1cc-2a54-4d08-8255-6bed2fc397aa","system_id":"levelo_inurba_marseille","lat":43.23193,"lon":5.35546,"is_reserved":false,"is_disabled":false,"rental_uris":{"android":"levelo://app?vid=7770b1cc-2a54-4d08-8255-6bed2fc397aa","ios":"levelo://app?vid=7770b1cc-2a54-4d08-8255-6bed2fc397aa"},"vehicle_type_id":"4","last_reported":1732299213,"current_range_meters":9200,"station_id":"ce4bhu92rcd13ifvqi70","pricing_plan_id":"cebpf4jnsgd1na2vs0mg"},{"bike_id":"9c52368a-56af-41c3-a3e2-b06415917118","system_id":"levelo_inurba_marseille","lat":43.29289,"lon":5.37447,"is_reserved":false,"is_disabled":false,"rental_uris":{"android":"levelo://app?vid=9c52368a-56af-41c3-a3e2-b06415917118","ios":"levelo://app?vid=9c52368a-56af-41c3-a3e2-b06415917118"},"vehicle_type_id":"4","last_reported":1732299213,"current_range_meters":32000,"station_id":"ce4bgi12rcd13ifvqb70","pricing_plan_id":"cebpf4jnsgd1na2vs0mg"},{"bike_id":"e2882f95-38f6-44df-99fb-c12fc0f9e818","system_id":"levelo_inurba_marseille","lat":43.29974,"lon":5.38487,"is_reserved":false,"is_disabled":false,"rental_uris":{"android":"levelo://app?vid=e2882f95-38f6-44df-99fb-c12fc0f9e818","ios":"levelo://app?vid=e2882f95-38f6-44df-99fb-c12fc0f9e818"},"vehicle_type_id":"4","last_reported":1732299213,"current_range_meters":17200,"station_id":"ce4bgj92rcd13ifvqbd0","pricing_plan_id":"cebpf4jnsgd1na2vs0mg"},{"bike_id":"26274e81-b462-421c-9d7c-5da62776864d","system_id":"levelo_inurba_marseille","lat":43.29801,"lon":5.38093,"is_reserved":false,"is_disabled":false,"rental_uris":{"android":"levelo://app?vid=26274e81-b462-421c-9d7c-5da62776864d","ios":"levelo://app?vid=26274e81-b462-421c-9d7c-5da62776864d"},"vehicle_type_id":"4","last_reported":1732299213,"current_range_meters":36400,"station_id":"ce4bgip2rcd13ifvqbb0","pricing_plan_id":"cebpf4jnsgd1na2vs0mg"},{"bike_id":"fdaf890b-328d-4c6c-b370-bc14721c2873","system_id":"levelo_inurba_marseille","lat":43.25825,"lon":5.39426,"is_reserved":false,"is_disabled":true,"rental_uris":{"android":"levelo://app?vid=fdaf890b-328d-4c6c-b370-bc14721c2873","ios":"levelo://app?vid=fdaf890b-328d-4c6c-b370-bc14721c2873"},"vehicle_type_id":"4","last_reported":1732299213,"current_range_meters":0,"station_id":"ce4bhip2rcd13ifvqft0","pricing_plan_id":"cebpf4jnsgd1na2vs0mg"},{"bike_id":"1ab4519b-c1c8-47d5-bca5-e407b78cd414","system_id":"levelo_inurba_marseille","lat":43.319974,"lon":5.381603,"is_reserved":false,"is_disabled":false,"rental_uris":{"android":"levelo://app?vid=1ab4519b-c1c8-47d5-bca5-e407b78cd414","ios":"levelo://app?vid=1ab4519b-c1c8-47d5-bca5-e407b78cd414"},"vehicle_type_id":"4","last_reported":1732299213,"current_range_meters":20400,"station_id":"ce4bhr12rcd13ifvqhpg","pricing_plan_id":"cebpf4jnsgd1na2vs0mg"},{"bike_id":"603df70c-5f3b-48db-9bf7-867dcecf88a2","system_id":"levelo_inurba_marseille","lat":43.30659,"lon":5.40092,"is_reserved":false,"is_disabled":false,"rental_uris":{"android":"levelo://app?vid=603df70c-5f3b-48db-9bf7-867dcecf88a2","ios":"levelo://app?vid=603df70c-5f3b-48db-9bf7-867dcecf88a2"},"vehicle_type_id":"4","last_reported":1732299213,"current_range_meters":9600,"station_id":"ce4bh112rcd13ifvqda0","pricing_plan_id":"cebpf4jnsgd1na2vs0mg"},{"bike_id":"96b2bed9-1689-46f5-a1b5-49ee6427aea3","system_id":"levelo_inurba_marseille","lat":43.3206,"lon":5.41536,"is_reserved":false,"is_disabled":false,"rental_uris":{"android":"levelo://app?vid=96b2bed9-1689-46f5-a1b5-49ee6427aea3","ios":"levelo://app?vid=96b2bed9-1689-46f5-a1b5-49ee6427aea3"},"vehicle_type_id":"4","last_reported":1732299213,"current_range_meters":25200,"station_id":"ce4bhq92rcd13ifvqhkg","pricing_plan_id":"cebpf4jnsgd1na2vs0mg"},{"bike_id":"dd71d331-0e51-4617-aee6-ac664effaa81","system_id":"levelo_inurba_marseille","lat":43.283766,"lon":5.380849,"is_reserved":false,"is_disabled":false,"rental_uris":{"android":"levelo://app?vid=dd71d331-0e51-4617-aee6-ac664effaa81","ios":"levelo://app?vid=dd71d331-0e51-4617-aee6-ac664effaa81"},"vehicle_type_id":"4","last_reported":1732299213,"current_range_meters":32000,"station_id":"ce4bh412rcd13ifvqdr0","pricing_plan_id":"cebpf4jnsgd1na2vs0mg"},{"bike_id":"3d4f5f68-20a4-4999-902a-9651f073dfa9","system_id":"levelo_inurba_marseille","lat":43.2951,"lon":5.3939,"is_reserved":false,"is_disabled":false,"rental_uris":{"android":"levelo://app?vid=3d4f5f68-20a4-4999-902a-9651f073dfa9","ios":"levelo://app?vid=3d4f5f68-20a4-4999-902a-9651f073dfa9"},"vehicle_type_id":"4","last_reported":1732299213,"current_range_meters":38800,"station_id":"ce4bh292rcd13ifvqdf0","pricing_plan_id":"cebpf4jnsgd1na2vs0mg"},{"bike_id":"98972151-75f5-469b-a2af-639c8766f784","system_id":"levelo_inurba_marseille","lat":43.27374,"lon":5.36252,"is_reserved":false,"is_disabled":false,"rental_uris":{"android":"levelo://app?vid=98972151-75f5-469b-a2af-639c8766f784","ios":"levelo://app?vid=98972151-75f5-469b-a2af-639c8766f784"},"vehicle_type_id":"4","last_reported":1732299213,"current_range_meters":38800,"station_id":"ce4bhbh2rcd13ifvqeo0","pricing_plan_id":"cebpf4jnsgd1na2vs0mg"},{"bike_id":"22546be2-2a29-4065-b56c-2a6087515972","system_id":"levelo_inurba_marseille","lat":43.30308,"lon":5.39209,"is_reserved":false,"is_disabled":true,"rental_uris":{"android":"levelo://app?vid=22546be2-2a29-4065-b56c-2a6087515972","ios":"levelo://app?vid=22546be2-2a29-4065-b56c-2a6087515972"},"vehicle_type_id":"4","last_reported":1732299213,"current_range_meters":0,"station_id":"ce4bgkh2rcd13ifvqbk0","pricing_plan_id":"cebpf4jnsgd1na2vs0mg"},{"bike_id":"482ae563-d782-452d-9c53-6fee7cbd98de","system_id":"levelo_inurba_marseille","lat":43.29421,"lon":5.38618,"is_reserved":false,"is_disabled":false,"rental_uris":{"android":"levelo://app?vid=482ae563-d782-452d-9c53-6fee7cbd98de","ios":"levelo://app?vid=482ae563-d782-452d-9c53-6fee7cbd98de"},"vehicle_type_id":"4","last_reported":1732299213,"current_range_meters":9200,"station_id":"ce4bh2h2rcd13ifvqdh0","pricing_plan_id":"cebpf4jnsgd1na2vs0mg"},{"bike_id":"9f002033-862d-4d3a-a303-7710d0d3132c","system_id":"levelo_inurba_marseille","lat":43.30329,"lon":5.40432,"is_reserved":false,"is_disabled":false,"rental_uris":{"android":"levelo://app?vid=9f002033-862d-4d3a-a303-7710d0d3132c","ios":"levelo://app?vid=9f002033-862d-4d3a-a303-7710d0d3132c"},"vehicle_type_id":"4","last_reported":1732299213,"current_range_meters":22400,"station_id":"ce4bh012rcd13ifvqd10","pricing_plan_id":"cebpf4jnsgd1na2vs0mg"},{"bike_id":"14d8cc12-5bb8-4b14-9b13-e9b5e15df83b","system_id":"levelo_inurba_marseille","lat":43.31758,"lon":5.39022,"is_reserved":false,"is_disabled":false,"rental_uris":{"android":"levelo://app?vid=14d8cc12-5bb8-4b14-9b13-e9b5e15df83b","ios":"levelo://app?vid=14d8cc12-5bb8-4b14-9b13-e9b5e15df83b"},"vehicle_type_id":"4","last_reported":1732299213,"current_range_meters":24400,"station_id":"ce4bhqp2rcd13ifvqhng","pricing_plan_id":"cebpf4jnsgd1na2vs0mg"},{"bike_id":"50e58ca2-0658-4fb3-81b0-918bc7154807","system_id":"levelo_inurba_marseille","lat":43.29211,"lon":5.3933,"is_reserved":false,"is_disabled":false,"rental_uris":{"android":"levelo://app?vid=50e58ca2-0658-4fb3-81b0-918bc7154807","ios":"levelo://app?vid=50e58ca2-0658-4fb3-81b0-918bc7154807"},"vehicle_type_id":"4","last_reported":1732299213,"current_range_meters":38800,"station_id":"ce4bh192rcd13ifvqdd0","pricing_plan_id":"cebpf4jnsgd1na2vs0mg"},{"bike_id":"ae89fa91-47cb-48a3-a6e2-358ac1009ba6","system_id":"levelo_inurba_marseille","lat":43.25834,"lon":5.39434,"is_reserved":false,"is_disabled":false,"rental_uris":{"android":"levelo://app?vid=ae89fa91-47cb-48a3-a6e2-358ac1009ba6","ios":"levelo://app?vid=ae89fa91-47cb-48a3-a6e2-358ac1009ba6"},"vehicle_type_id":"4","last_reported":1732299213,"current_range_meters":8400,"station_id":"ce4bhip2rcd13ifvqft0","pricing_plan_id":"cebpf4jnsgd1na2vs0mg"},{"bike_id":"20124686-db6b-41aa-803b-7e983651f7fe","system_id":"levelo_inurba_marseille","lat":43.29031,"lon":5.3591,"is_reserved":false,"is_disabled":false,"rental_uris":{"android":"levelo://app?vid=20124686-db6b-41aa-803b-7e983651f7fe","ios":"levelo://app?vid=20124686-db6b-41aa-803b-7e983651f7fe"},"vehicle_type_id":"4","last_reported":1732299213,"current_range_meters":14000,"station_id":"ce4bha92rcd13ifvqeg0","pricing_plan_id":"cebpf4jnsgd1na2vs0mg"},{"bike_id":"a66b9829-7186-4f9f-ab92-dffa2c2f162f","system_id":"levelo_inurba_marseille","lat":43.31778,"lon":5.3903,"is_reserved":false,"is_disabled":false,"rental_uris":{"android":"levelo://app?vid=a66b9829-7186-4f9f-ab92-dffa2c2f162f","ios":"levelo://app?vid=a66b9829-7186-4f9f-ab92-dffa2c2f162f"},"vehicle_type_id":"4","last_reported":1732299213,"current_range_meters":38800,"station_id":"ce4bhqp2rcd13ifvqhng","pricing_plan_id":"cebpf4jnsgd1na2vs0mg"},{"bike_id":"55f1f089-e055-4294-a196-4e2c9374fb8b","system_id":"levelo_inurba_marseille","lat":43.27917,"lon":5.39584,"is_reserved":false,"is_disabled":false,"rental_uris":{"android":"levelo://app?vid=55f1f089-e055-4294-a196-4e2c9374fb8b","ios":"levelo://app?vid=55f1f089-e055-4294-a196-4e2c9374fb8b"},"vehicle_type_id":"4","last_reported":1732299213,"current_range_meters":19600,"station_id":"ce4bhf92rcd13ifvqf40","pricing_plan_id":"cebpf4jnsgd1na2vs0mg"},{"bike_id":"2b806095-dd5d-4c98-bf23-a2fda8dd3be6","system_id":"levelo_inurba_marseille","lat":43.25006,"lon":5.38934,"is_reserved":false,"is_disabled":false,"rental_uris":{"android":"levelo://app?vid=2b806095-dd5d-4c98-bf23-a2fda8dd3be6","ios":"levelo://app?vid=2b806095-dd5d-4c98-bf23-a2fda8dd3be6"},