{"last_updated":1741018332,"ttl":60,"version":"2.2","data":{"bikes":[{"bike_id":"79dc2886-9457-4956-a315-0a4ca48ce21a","system_id":"levelo_inurba_marseille","lat":43.31258,"lon":5.3801,"is_reserved":false,"is_disabled":true,"rental_uris":{"android":"levelo://app?vid=79dc2886-9457-4956-a315-0a4ca48ce21a","ios":"levelo://app?vid=79dc2886-9457-4956-a315-0a4ca48ce21a"},"vehicle_type_id":"4","last_reported":1741018332,"current_range_meters":0,"station_id":"","pricing_plan_id":"cebpf4jnsgd1na2vs0mg"},{"bike_id":"6ca1fb82-9a0c-4ccb-a804-ed94272179fd","system_id":"levelo_inurba_marseille","lat":43.27617,"lon":5.4151,"is_reserved":false,"is_disabled":true,"rental_uris":{"android":"levelo://app?vid=6ca1fb82-9a0c-4ccb-a804-ed94272179fd","ios":"levelo://app?vid=6ca1fb82-9a0c-4ccb-a804-ed94272179fd"},"vehicle_type_id":"4","last_reported":1741018332,"current_range_meters":0,"station_id":"","pricing_plan_id":"cebpf4jnsgd1na2vs0mg"},{"bike_id":"d8853f37-2b2c-4fe9-9e03-d3b58d84b7c1","system_id":"levelo_inurba_marseille","lat":43.32533,"lon":5.38614,"is_reserved":false,"is_disabled":true,"rental_uris":{"android":"levelo://app?vid=d8853f37-2b2c-4fe9-9e03-d3b58d84b7c1","ios":"levelo://app?vid=d8853f37-2b2c-4fe9-9e03-d3b58d84b7c1"},"vehicle_type_id":"4","last_reported":1741018332,"current_range_meters":0,"station_id":"","pricing_plan_id":"cebpf4jnsgd1na2vs0mg"},{"bike_id":"1725064b-437c-4498-bcc1-ba8a123598d8","system_id":"levelo_inurba_marseille","lat":43.2734,"lon":5.39122,"is_reserved":false,"is_disabled":true,"rental_uris":{"android":"levelo://app?vid=1725064b-437c-4498-bcc1-ba8a123598d8","ios":"levelo://app?vid=1725064b-437c-4498-bcc1-ba8a123598d8"},"vehicle_type_id":"4","last_reported":1741018332,"current_range_meters":0,"station_id":"","pricing_plan_id":"cebpf4jnsgd1na2vs0mg"},{"bike_id":"000df070-cad4-4b66-a2dd-3720c4f363bf","system_id":"levelo_inurba_marseille","lat":43.33246,"lon":5.39833,"is_reserved":false,"is_disabled":true,"rental_uris":{"android":"levelo://app?vid=000df070-cad4-4b66-a2dd-3720c4f363bf","ios":"levelo://app?vid=000df070-cad4-4b66-a2dd-3720c4f363bf"},"vehicle_type_id":"4","last_reported":1741018332,"current_range_meters":0,"station_id":"","pricing_plan_id":"cebpf4jnsgd1na2vs0mg"},{"bike_id":"50d0da4d-e802-4113-9ad6-e12af0a98103","system_id":"levelo_inurba_marseille","lat":43.335408,"lon":5.399833,"is_reserved":false,"is_disabled":true,"rental_uris":{"android":"levelo://app?vid=50d0da4d-e802-4113-9ad6-e12af0a98103","ios":"levelo://app?vid=50d0da4d-e802-4113-9ad6-e12af0a98103"},"vehicle_type_id":"4","last_reported":1741018332,"current_range_meters":0,"station_id":"","pricing_plan_id":"cebpf4jnsgd1na2vs0mg"},{"bike_id":"7249c1af-9119-44a2-8355-2069e380de1e","system_id":"levelo_inurba_marseille","lat":43.309639,"lon":5.390474,"is_reserved":false,"is_disabled":true,"rental_uris":{"android":"levelo://app?vid=7249c1af-9119-44a2-8355-2069e380de1e","ios":"levelo://app?vid=7249c1af-9119-44a2-8355-2069e380de1e"},"vehicle_type_id":"4","last_reported":1741018332,"current_range_meters":0,"station_id":"ce4bgup2rcd13ifvqco0","pricing_plan_id":"cebpf4jnsgd1na2vs0mg"},{"bike_id":"77bb9e62-7b1d-4667-ba5d-f18352876bc8","system_id":"levelo_inurba_marseille","lat":43.30891,"lon":5.39638,"is_reserved":false,"is_disabled":true,"rental_uris":{"android":"levelo://app?vid=77bb9e62-7b1d-4667-ba5d-f18352876bc8","ios":"levelo://app?vid=77bb9e62-7b1d-4667-ba5d-f18352876bc8"},"vehicle_type_id":"4","last_reported":1741018332,"current_range_meters":0,"station_id":"ce4bh012rcd13ifvqcv0","pricing_plan_id":"cebpf4jnsgd1na2vs0mg"},{"bike_id":"c81dbe1c-a076-496b-acb2-0abc86f0a681","system_id":"levelo_inurba_marseille","lat":43.30131,"lon":5.39855,"is_reserved":false,"is_disabled":true,"rental_uris":{"android":"levelo://app?vid=c81dbe1c-a076-496b-acb2-0abc86f0a681","ios":"levelo://app?vid=c81dbe1c-a076-496b-acb2-0abc86f0a681"},"vehicle_type_id":"4","last_reported":1741018332,"current_range_meters":0,"station_id":"ce4bh0h2rcd13ifvqd40","pricing_plan_id":"cebpf4jnsgd1na2vs0mg"},{"bike_id":"d5d94c05-55bf-4576-aad8-da01a27ea721","system_id":"levelo_inurba_marseille","lat":43.30098,"lon":5.39086,"is_reserved":false,"is_disabled":true,"rental_uris":{"android":"levelo://app?vid=d5d94c05-55bf-4576-aad8-da01a27ea721","ios":"levelo://app?vid=d5d94c05-55bf-4576-aad8-da01a27ea721"},"vehicle_type_id":"4","last_reported":1741018332,"current_range_meters":0,"station_id":"ce4bh192rcd13ifvqdb0","pricing_plan_id":"cebpf4jnsgd1na2vs0mg"},{"bike_id":"89fca8ea-2ff9-4f2d-bbb1-750ea30fdc55","system_id":"levelo_inurba_marseille","lat":43.29022,"lon":5.38125,"is_reserved":false,"is_disabled":true,"rental_uris":{"android":"levelo://app?vid=89fca8ea-2ff9-4f2d-bbb1-750ea30fdc55","ios":"levelo://app?vid=89fca8ea-2ff9-4f2d-bbb1-750ea30fdc55"},"vehicle_type_id":"4","last_reported":1741018332,"current_range_meters":0,"station_id":"ce4bh4p2rcd13ifvqe1g","pricing_plan_id":"cebpf4jnsgd1na2vs0mg"},{"bike_id":"8f0f95d1-ef01-4e12-80ed-3829c760b7ab","system_id":"levelo_inurba_marseille","lat":43.28494,"lon":5.38411,"is_reserved":false,"is_disabled":true,"rental_uris":{"android":"levelo://app?vid=8f0f95d1-ef01-4e12-80ed-3829c760b7ab","ios":"levelo://app?vid=8f0f95d1-ef01-4e12-80ed-3829c760b7ab"},"vehicle_type_id":"4","last_reported":1741018332,"current_range_meters":0,"station_id":"ce4bh512rcd13ifvqe3g","pricing_plan_id":"cebpf4jnsgd1na2vs0mg"},{"bike_id":"72e36acb-b278-48d6-82a9-be561195b201","system_id":"levelo_inurba_marseille","lat":43.29032,"lon":5.37551,"is_reserved":false,"is_disabled":true,"rental_uris":{"android":"levelo://app?vid=72e36acb-b278-48d6-82a9-be561195b201","ios":"levelo://app?vid=72e36acb-b278-48d6-82a9-be561195b201"},"vehicle_type_id":"4","last_reported":1741018332,"current_range_meters":0,"station_id":"ce4bh692rcd13ifvqe90","pricing_plan_id":"cebpf4jnsgd1na2vs0mg"},{"bike_id":"cfde70ec-a508-414a-b60f-f6fabbea9ac6","system_id":"levelo_inurba_marseille","lat":43.28455,"lon":5.35883,"is_reserved":false,"is_disabled":true,"rental_uris":{"android":"levelo://app?vid=cfde70ec-a508-414a-b60f-f6fabbea9ac6","ios":"levelo://app?vid=cfde70ec-a508-414a-b60f-f6fabbea9ac6"},"vehicle_type_id":"4","last_reported":1741018332,"current_range_meters":0,"station_id":"ce4bhah2rcd13ifvqei0","pricing_plan_id":"cebpf4jnsgd1na2vs0mg"},{"bike_id":"8085e1f1-3396-4fee-b710-08f584652dab","system_id":"levelo_inurba_marseille","lat":43.24804,"lon":5.37455,"is_reserved":false,"is_disabled":true,"rental_uris":{"android":"levelo://app?vid=8085e1f1-3396-4fee-b710-08f584652dab","ios":"levelo://app?vid=8085e1f1-3396-4fee-b710-08f584652dab"},"vehicle_type_id":"4","last_reported":1741018332,"current_range_meters":0,"station_id":"ce4bhgh2rcd13ifvqfb0","pricing_plan_id":"cebpf4jnsgd1na2vs0mg"},{"bike_id":"662471cf-ab70-4567-94d2-b6d82a0045f8","system_id":"levelo_inurba_marseille","lat":43.27325,"lon":5.39088,"is_reserved":false,"is_disabled":true,"rental_uris":{"android":"levelo://app?vid=662471cf-ab70-4567-94d2-b6d82a0045f8","ios":"levelo://app?vid=662471cf-ab70-4567-94d2-b6d82a0045f8"},"vehicle_type_id":"4","last_reported":1741018332,"current_range_meters":0,"station_id":"ce4bhgp2rcd13ifvqfe0","pricing_plan_id":"cebpf4jnsgd1na2vs0mg"},{"bike_id":"53cc20e4-f8d2-49ef-8e13-e94414f6f17a","system_id":"levelo_inurba_marseille","lat":43.28444,"lon":5.39177,"is_reserved":false,"is_disabled":true,"rental_uris":{"android":"levelo://app?vid=53cc20e4-f8d2-49ef-8e13-e94414f6f17a","ios":"levelo://app?vid=53cc20e4-f8d2-49ef-8e13-e94414f6f17a"},"vehicle_type_id":"4","last_reported":1741018332,"current_range_meters":0,"station_id":"ce4bhoh2rcd13ifvqh5g","pricing_plan_id":"cebpf4jnsgd1na2vs0mg"},{"bike_id":"813fbe3e-3472-4d90-b7a3-d7829df39523","system_id":"levelo_inurba_marseille","lat":43.32363,"lon":5.3888,"is_reserved":false,"is_disabled":false,"rental_uris":{"android":"levelo://app?vid=813fbe3e-3472-4d90-b7a3-d7829df39523","ios":"levelo://app?vid=813fbe3e-3472-4d90-b7a3-d7829df39523"},"vehicle_type_id":"4","last_reported":1741018332,"current_range_meters":0,"station_id":"ce4bhqp2rcd13ifvqhog","pricing_plan_id":"cebpf4jnsgd1na2vs0mg"},{"bike_id":"9eb3cb5d-d9f5-4491-98ca-3b6f02b67afa","system_id":"levelo_inurba_marseille","lat":43.21775,"lon":5.3462,"is_reserved":false,"is_disabled":true,"rental_uris":{"android":"levelo://app?vid=9eb3cb5d-d9f5-4491-98ca-3b6f02b67afa","ios":"levelo://app?vid=9eb3cb5d-d9f5-4491-98ca-3b6f02b67afa"},"vehicle_type_id":"4","last_reported":1741018332,"current_range_meters":400,"station_id":"","pricing_plan_id":"cebpf4jnsgd1na2vs0mg"},{"bike_id":"ba7a3b6b-ffb1-4b7c-85b4-3fc3b13f51e9","system_id":"levelo_inurba_marseille","lat":43.33422,"lon":5.38253,"is_reserved":false,"is_disabled":true,"rental_uris":{"android":"levelo://app?vid=ba7a3b6b-ffb1-4b7c-85b4-3fc3b13f51e9","ios":"levelo://app?vid=ba7a3b6b-ffb1-4b7c-85b4-3fc3b13f51e9"},"vehicle_type_id":"4","last_reported":1741018332,"current_range_meters":400,"station_id":"","pricing_plan_id":"cebpf4jnsgd1na2vs0mg"},{"bike_id":"31acd2ca-9ec7-4b78-8653-2891fc913336","system_id":"levelo_inurba_marseille","lat":43.2843,"lon":5.34996,"is_reserved":false,"is_disabled":true,"rental_uris":{"android":"levelo://app?vid=31acd2ca-9ec7-4b78-8653-2891fc913336","ios":"levelo://app?vid=31acd2ca-9ec7-4b78-8653-2891fc913336"},"vehicle_type_id":"4","last_reported":1741018332,"current_range_meters":400,"station_id":"ce4bhbh2rcd13ifvqepg","pricing_plan_id":"cebpf4jnsgd1na2vs0mg"},{"bike_id":"9758ff88-8e5d-4cf0-91db-8783985f3a94","system_id":"levelo_inurba_marseille","lat":43.28442,"lon":5.3921,"is_reserved":false,"is_disabled":true,"rental_uris":{"android":"levelo://app?vid=9758ff88-8e5d-4cf0-91db-8783985f3a94","ios":"levelo://app?vid=9758ff88-8e5d-4cf0-91db-8783985f3a94"},"vehicle_type_id":"4","last_reported":1741018332,"current_range_meters":400,"station_id":"ce4bhoh2rcd13ifvqh5g","pricing_plan_id":"cebpf4jnsgd1na2vs0mg"},{"bike_id":"66eb69fc-2363-43c0-946a-258ce5d518e3","system_id":"levelo_inurba_marseille","lat":43.29643,"lon":5.40572,"is_reserved":false,"is_disabled":true,"rental_uris":{"android":"levelo://app?vid=66eb69fc-2363-43c0-946a-258ce5d518e3","ios":"levelo://app?vid=66eb69fc-2363-43c0-946a-258ce5d518e3"},"vehicle_type_id":"4","last_reported":1741018332,"current_range_meters":800,"station_id":"ce4bh0h2rcd13ifvqd60","pricing_plan_id":"cebpf4jnsgd1na2vs0mg"},{"bike_id":"f9887fc4-36c4-4d49-844b-20154b5ae6d8","system_id":"levelo_inurba_marseille","lat":43.27961,"lon":5.38719,"is_reserved":false,"is_disabled":true,"rental_uris":{"android":"levelo://app?vid=f9887fc4-36c4-4d49-844b-20154b5ae6d8","ios":"levelo://app?vid=f9887fc4-36c4-4d49-844b-20154b5ae6d8"},"vehicle_type_id":"4","last_reported":1741018332,"current_range_meters":800,"station_id":"ce4bhg12rcd13ifvqf80","pricing_plan_id":"cebpf4jnsgd1na2vs0mg"},{"bike_id":"6d6561ce-edea-43b4-b0c4-ad075ad61e69","system_id":"levelo_inurba_marseille","lat":43.32456,"lon":5.36553,"is_reserved":false,"is_disabled":true,"rental_uris":{"android":"levelo://app?vid=6d6561ce-edea-43b4-b0c4-ad075ad61e69","ios":"levelo://app?vid=6d6561ce-edea-43b4-b0c4-ad075ad61e69"},"vehicle_type_id":"4","last_reported":1741018332,"current_range_meters":800,"station_id":"ce4bhs12rcd13ifvqhvg","pricing_plan_id":"cebpf4jnsgd1na2vs0mg"},{"bike_id":"11621119-315f-4323-be96-60cd96283871","system_id":"levelo_inurba_marseille","lat":43.30133,"lon":5.38791,"is_reserved":false,"is_disabled":true,"rental_uris":{"android":"levelo://app?vid=11621119-315f-4323-be96-60cd96283871","ios":"levelo://app?vid=11621119-315f-4323-be96-60cd96283871"},"vehicle_type_id":"4","last_reported":1741018332,"current_range_meters":1200,"station_id":"ce4bghh2rcd13ifvqb60","pricing_plan_id":"cebpf4jnsgd1na2vs0mg"},{"bike_id":"a4e189fd-ad40-474c-9f80-3b62729e22b7","system_id":"levelo_inurba_marseille","lat":43.29633,"lon":5.37146,"is_reserved":false,"is_disabled":true,"rental_uris":{"android":"levelo://app?vid=a4e189fd-ad40-474c-9f80-3b62729e22b7","ios":"levelo://app?vid=a4e189fd-ad40-474c-9f80-3b62729e22b7"},"vehicle_type_id":"4","last_reported":1741018332,"current_range_meters":1200,"station_id":"ce4bgnh2rcd13ifvqc0g","pricing_plan_id":"cebpf4jnsgd1na2vs0mg"},{"bike_id":"a376ee84-8606-47f4-8ff1-6be1a2eb9299","system_id":"levelo_inurba_marseille","lat":43.28662,"lon":5.38691,"is_reserved":false,"is_disabled":true,"rental_uris":{"android":"levelo://app?vid=a376ee84-8606-47f4-8ff1-6be1a2eb9299","ios":"levelo://app?vid=a376ee84-8606-47f4-8ff1-6be1a2eb9299"},"vehicle_type_id":"4","last_reported":1741018332,"current_range_meters":1200,"station_id":"ce4bh492rcd13ifvqdug","pricing_plan_id":"cebpf4jnsgd1na2vs0mg"},{"bike_id":"80633a2d-acb2-41e4-ad6c-a83780dc3234","system_id":"levelo_inurba_marseille","lat":43.28453,"lon":5.35887,"is_reserved":false,"is_disabled":true,"rental_uris":{"android":"levelo://app?vid=80633a2d-acb2-41e4-ad6c-a83780dc3234","ios":"levelo://app?vid=80633a2d-acb2-41e4-ad6c-a83780dc3234"},"vehicle_type_id":"4","last_reported":1741018332,"current_range_meters":1200,"station_id":"ce4bhah2rcd13ifvqei0","pricing_plan_id":"cebpf4jnsgd1na2vs0mg"},{"bike_id":"469c1ad0-b1d4-4914-9db9-8bbd73ed7417","system_id":"levelo_inurba_marseille","lat":43.28925,"lon":5.3633,"is_reserved":false,"is_disabled":true,"rental_uris":{"android":"levelo://app?vid=469c1ad0-b1d4-4914-9db9-8bbd73ed7417","ios":"levelo://app?vid=469c1ad0-b1d4-4914-9db9-8bbd73ed7417"},"vehicle_type_id":"4","last_reported":1741018332,"current_range_meters":1200,"station_id":"ce4bhc92rcd13ifvqetg","pricing_plan_id":"cebpf4jnsgd1na2vs0mg"},{"bike_id":"cdac915e-5730-4e52-8b2b-237828ea05ba","system_id":"levelo_inurba_marseille","lat":43.30247,"lon":5.40006,"is_reserved":false,"is_disabled":true,"rental_uris":{"android":"levelo://app?vid=cdac915e-5730-4e52-8b2b-237828ea05ba","ios":"levelo://app?vid=cdac915e-5730-4e52-8b2b-237828ea05ba"},"vehicle_type_id":"4","last_reported":1741018332,"current_range_meters":1600,"station_id":"","pricing_plan_id":"cebpf4jnsgd1na2vs0mg"},{"bike_id":"cb70ed5a-2b0c-461d-a13b-f8f080eb653b","system_id":"levelo_inurba_marseille","lat":43.28419,"lon":5.34991,"is_reserved":false,"is_disabled":true,"rental_uris":{"android":"levelo://app?vid=cb70ed5a-2b0c-461d-a13b-f8f080eb653b","ios":"levelo://app?vid=cb70ed5a-2b0c-461d-a13b-f8f080eb653b"},"vehicle_type_id":"4","last_reported":1741018332,"current_range_meters":1600,"station_id":"ce4bhbh2rcd13ifvqepg","pricing_plan_id":"cebpf4jnsgd1na2vs0mg"},{"bike_id":"7e4bfe88-27e9-4dd3-9f34-407bf40e99fe","system_id":"levelo_inurba_marseille","lat":43.27568,"lon":5.38404,"is_reserved":false,"is_disabled":true,"rental_uris":{"android":"levelo://app?vid=7e4bfe88-27e9-4dd3-9f34-407bf40e99fe","ios":"levelo://app?vid=7e4bfe88-27e9-4dd3-9f34-407bf40e99fe"},"vehicle_type_id":"4","last_reported":1741018332,"current_range_meters":2000,"station_id":"ce4bhh92rcd13ifvqfi0","pricing_plan_id":"cebpf4jnsgd1na2vs0mg"},{"bike_id":"c441ad9f-2f94-4c94-bb96-12e04c4f0134","system_id":"levelo_inurba_marseille","lat":43.23178,"lon":5.39998,"is_reserved":false,"is_disabled":false,"rental_uris":{"android":"levelo://app?vid=c441ad9f-2f94-4c94-bb96-12e04c4f0134","ios":"levelo://app?vid=c441ad9f-2f94-4c94-bb96-12e04c4f0134"},"vehicle_type_id":"4","last_reported":1741018332,"current_range_meters":2800,"station_id":"ce4bhn12rcd13ifvqgqg","pricing_plan_id":"cebpf4jnsgd1na2vs0mg"},{"bike_id":"2776a9e6-bd4e-44d3-a027-04d62ad0f66b","system_id":"levelo_inurba_marseille","lat":43.28378,"lon":5.3862,"is_reserved":false,"is_disabled":false,"rental_uris":{"android":"levelo://app?vid=2776a9e6-bd4e-44d3-a027-04d62ad0f66b","ios":"levelo://app?vid=2776a9e6-bd4e-44d3-a027-04d62ad0f66b"},"vehicle_type_id":"4","last_reported":1741018332,"current_range_meters":3200,"station_id":"ce4bh492rcd13ifvqdvg","pricing_plan_id":"cebpf4jnsgd1na2vs0mg"},{"bike_id":"4ec339de-827d-45c1-a9ce-6e6a69074657","system_id":"levelo_inurba_marseille","lat":43.30322,"lon":5.40434,"is_reserved":false,"is_disabled":false,"rental_uris":{"android":"levelo://app?vid=4ec339de-827d-45c1-a9ce-6e6a69074657","ios":"levelo://app?vid=4ec339de-827d-45c1-a9ce-6e6a69074657"},"vehicle_type_id":"4","last_reported":1741018332,"current_range_meters":3600,"station_id":"ce4bh012rcd13ifvqd10","pricing_plan_id":"cebpf4jnsgd1na2vs0mg"},{"bike_id":"85fc743a-cd45-46fa-9d75-d47652777f1c","system_id":"levelo_inurba_marseille","lat":43.28351,"lon":5.38629,"is_reserved":false,"is_disabled":false,"rental_uris":{"android":"levelo://app?vid=85fc743a-cd45-46fa-9d75-d47652777f1c","ios":"levelo://app?vid=85fc743a-cd45-46fa-9d75-d47652777f1c"},"vehicle_type_id":"4","last_reported":1741018332,"current_range_meters":3600,"station_id":"ce4bh492rcd13ifvqdvg","pricing_plan_id":"cebpf4jnsgd1na2vs0mg"},{"bike_id":"d406c2eb-fa52-4dda-adff-40026b38c295","system_id":"levelo_inurba_marseille","lat":43.27555,"lon":5.38451,"is_reserved":false,"is_disabled":false,"rental_uris":{"android":"levelo://app?vid=d406c2eb-fa52-4dda-adff-40026b38c295","ios":"levelo://app?vid=d406c2eb-fa52-4dda-adff-40026b38c295"},"vehicle_type_id":"4","last_reported":1741018332,"current_range_meters":3600,"station_id":"ce4bhh92rcd13ifvqfi0","pricing_plan_id":"cebpf4jnsgd1na2vs0mg"},{"bike_id":"755f428f-0e4f-427c-9ae7-822289b10ec6","system_id":"levelo_inurba_marseille","lat":43.2681,"lon":5.40274,"is_reserved":false,"is_disabled":false,"rental_uris":{"android":"levelo://app?vid=755f428f-0e4f-427c-9ae7-822289b10ec6","ios":"levelo://app?vid=755f428f-0e4f-427c-9ae7-822289b10ec6"},"vehicle_type_id":"4","last_reported":1741018332,"current_range_meters":3600,"station_id":"ce501612rcd8frsf0b60","pricing_plan_id":"cebpf4jnsgd1na2vs0mg"},{"bike_id":"9a2cfcbc-052d-4c34-9fff-369b72072d59","system_id":"levelo_inurba_marseille","lat":43.28463,"lon":5.35883,"is_reserved":false,"is_disabled":false,"rental_uris":{"android":"levelo://app?vid=9a2cfcbc-052d-4c34-9fff-369b72072d59","ios":"levelo://app?vid=9a2cfcbc-052d-4c34-9fff-369b72072d59"},"vehicle_type_id":"4","last_reported":1741018332,"current_range_meters":4000,"station_id":"ce4bhah2rcd13ifvqei0","pricing_plan_id":"cebpf4jnsgd1na2vs0mg"},{"bike_id":"3dc7f799-bc46-44e7-bbb5-ad1a0666e85d","system_id":"levelo_inurba_marseille","lat":43.292,"lon":5.40902,"is_reserved":false,"is_disabled":false,"rental_uris":{"android":"levelo://app?vid=3dc7f799-bc46-44e7-bbb5-ad1a0666e85d","ios":"levelo://app?vid=3dc7f799-bc46-44e7-bbb5-ad1a0666e85d"},"vehicle_type_id":"4","last_reported":1741018332,"current_range_meters":4400,"station_id":"","pricing_plan_id":"cebpf4jnsgd1na2vs0mg"},{"bike_id":"7294fa1b-6789-4d34-92da-72d6801cf1aa","system_id":"levelo_inurba_marseille","lat":43.32724,"lon":5.36281,"is_reserved":false,"is_disabled":false,"rental_uris":{"android":"levelo://app?vid=7294fa1b-6789-4d34-92da-72d6801cf1aa","ios":"levelo://app?vid=7294fa1b-6789-4d34-92da-72d6801cf1aa"},"vehicle_type_id":"4","last_reported":1741018332,"current_range_meters":4800,"station_id":"","pricing_plan_id":"cebpf4jnsgd1na2vs0mg"},{"bike_id":"3ddc0e0c-c09a-4c8e-a767-08636e455eae","system_id":"levelo_inurba_marseille","lat":43.30432,"lon":5.3975,"is_reserved":false,"is_disabled":false,"rental_uris":{"android":"levelo://app?vid=3ddc0e0c-c09a-4c8e-a767-08636e455eae","ios":"levelo://app?vid=3ddc0e0c-c09a-4c8e-a767-08636e455eae"},"vehicle_type_id":"4","last_reported":1741018332,"current_range_meters":4800,"station_id":"ce4bh092rcd13ifvqd20","pricing_plan_id":"cebpf4jnsgd1na2vs0mg"},{"bike_id":"041eb77a-237b-4b60-9362-8e012a99965e","system_id":"levelo_inurba_marseille","lat":43.29969,"lon":5.38495,"is_reserved":false,"is_disabled":false,"rental_uris":{"android":"levelo://app?vid=041eb77a-237b-4b60-9362-8e012a99965e","ios":"levelo://app?vid=041eb77a-237b-4b60-9362-8e012a99965e"},"vehicle_type_id":"4","last_reported":1741018332,"current_range_meters":5600,"station_id":"ce4bgj92rcd13ifvqbd0","pricing_plan_id":"cebpf4jnsgd1na2vs0mg"},{"bike_id":"6b235702-9316-443f-8646-8cb94c835c1f","system_id":"levelo_inurba_marseille","lat":43.28278,"lon":5.35061,"is_reserved":false,"is_disabled":false,"rental_uris":{"android":"levelo://app?vid=6b235702-9316-443f-8646-8cb94c835c1f","ios":"levelo://app?vid=6b235702-9316-443f-8646-8cb94c835c1f"},"vehicle_type_id":"4","last_reported":1741018332,"current_range_meters":5600,"station_id":"ce4bhbp2rcd13ifvqerg","pricing_plan_id":"cebpf4jnsgd1na2vs0mg"},{"bike_id":"8f5c0afb-8566-4797-b808-91387e6cd37c","system_id":"levelo_inurba_marseille","lat":43.26801,"lon":5.40273,"is_reserved":false,"is_disabled":false,"rental_uris":{"android":"levelo://app?vid=8f5c0afb-8566-4797-b808-91387e6cd37c","ios":"levelo://app?vid=8f5c0afb-8566-4797-b808-91387e6cd37c"},"vehicle_type_id":"4","last_reported":1741018332,"current_range_meters":5600,"station_id":"ce501612rcd8frsf0b60","pricing_plan_id":"cebpf4jnsgd1na2vs0mg"},{"bike_id":"8a3d5b40-eb12-47f6-995f-1d20a56234be","system_id":"levelo_inurba_marseille","lat":43.30546,"lon":5.36538,"is_reserved":false,"is_disabled":false,"rental_uris":{"android":"levelo://app?vid=8a3d5b40-eb12-47f6-995f-1d20a56234be","ios":"levelo://app?vid=8a3d5b40-eb12-47f6-995f-1d20a56234be"},"vehicle_type_id":"4","last_reported":1741018332,"current_range_meters":6000,"station_id":"ce4bgs12rcd13ifvqcag","pricing_plan_id":"cebpf4jnsgd1na2vs0mg"},{"bike_id":"b79e9a12-491e-4c25-a97c-2e5befd48ff8","system_id":"levelo_inurba_marseille","lat":43.27929,"lon":5.39592,"is_reserved":false,"is_disabled":false,"rental_uris":{"android":"levelo://app?vid=b79e9a12-491e-4c25-a97c-2e5befd48ff8","ios":"levelo://app?vid=b79e9a12-491e-4c25-a97c-2e5befd48ff8"},"vehicle_type_id":"4","last_reported":1741018332,"current_range_meters":6000,"station_id":"ce4bhf92rcd13ifvqf40","pricing_plan_id":"cebpf4jnsgd1na2vs0mg"},{"bike_id":"86423c1d-a52a-4be0-b8c5-13d08a253021","system_id":"levelo_inurba_marseille","lat":43.2621,"lon":5.37446,"is_reserved":false,"is_disabled":false,"rental_uris":{"android":"levelo://app?vid=86423c1d-a52a-4be0-b8c5-13d08a253021","ios":"levelo://app?vid=86423c1d-a52a-4be0-b8c5-13d08a253021"},"vehicle_type_id":"4","last_reported":1741018332,"current_range_meters":6000,"station_id":"ce4bhgp2rcd13ifvqfc0","pricing_plan_id":"cebpf4jnsgd1na2vs0mg"},{"bike_id":"4516871f-8760-4b45-91c8-23b5a8526168","system_id":"levelo_inurba_marseille","lat":43.27175,"lon":5.40992,"is_reserved":false,"is_disabled":false,"rental_uris":{"android":"levelo://app?vid=4516871f-8760-4b45-91c8-23b5a8526168","ios":"levelo://app?vid=4516871f-8760-4b45-91c8-23b5a8526168"},"vehicle_type_id":"4","last_reported":1741018332,"current_range_meters":6000,"station_id":"ce4bhl12rcd13ifvqgf0","pricing_plan_id":"cebpf4jnsgd1na2vs0mg"},{"bike_id":"38c28c87-2db6-43ea-a2db-429724f2ded0","system_id":"levelo_inurba_marseille","lat":43.29302,"lon":5.4115,"is_reserved":false,"is_disabled":false,"rental_uris":{"android":"levelo://app?vid=38c28c87-2db6-43ea-a2db-429724f2ded0","ios":"levelo://app?vid=38c28c87-2db6-43ea-a2db-429724f2ded0"},"vehicle_type_id":"4","last_reported":1741018332,"current_range_meters":6400,"station_id":"","pricing_plan_id":"cebpf4jnsgd1na2vs0mg"},{"bike_id":"968b394f-eb98-4c29-86d8-c27851709f9e","system_id":"levelo_inurba_marseille","lat":43.29091,"lon":5.381405,"is_reserved":false,"is_disabled":false,"rental_uris":{"android":"levelo://app?vid=968b394f-eb98-4c29-86d8-c27851709f9e","ios":"levelo://app?vid=968b394f-eb98-4c29-86d8-c27851709f9e"},"vehicle_type_id":"4","last_reported":1741018332,"current_range_meters":6400,"station_id":"ce4bh512rcd13ifvqe2g","pricing_plan_id":"cebpf4jnsgd1na2vs0mg"},{"bike_id":"2c096d7f-ece2-4cc1-97c0-28c3104dc9a6","system_id":"levelo_inurba_marseille","lat":43.28457,"lon":5.35893,"is_reserved":false,"is_disabled":false,"rental_uris":{"android":"levelo://app?vid=2c096d7f-ece2-4cc1-97c0-28c3104dc9a6","ios":"levelo://app?vid=2c096d7f-ece2-4cc1-97c0-28c3104dc9a6"},"vehicle_type_id":"4","last_reported":1741018332,"current_range_meters":6400,"station_id":"ce4bhah2rcd13ifvqei0","pricing_plan_id":"cebpf4jnsgd1na2vs0mg"},{"bike_id":"c6e82cc7-0afe-46f8-b67b-9ca63f394cee","system_id":"levelo_inurba_marseille","lat":43.26564,"lon":5.37284,"is_reserved":false,"is_disabled":false,"rental_uris":{"android":"levelo://app?vid=c6e82cc7-0afe-46f8-b67b-9ca63f394cee","ios":"levelo://app?vid=c6e82cc7-0afe-46f8-b67b-9ca63f394cee"},"vehicle_type_id":"4","last_reported":1741018332,"current_range_meters":6400,"station_id":"ce4bhg12rcd13ifvqf70","pricing_plan_id":"cebpf4jnsgd1na2vs0mg"},{"bike_id":"c8fdc079-d48e-4721-b3b1-5e7a4aedabf5","system_id":"levelo_inurba_marseille","lat":43.27806,"lon":5.40696,"is_reserved":false,"is_disabled":false,"rental_uris":{"android":"levelo://app?vid=c8fdc079-d48e-4721-b3b1-5e7a4aedabf5","ios":"levelo://app?vid=c8fdc079-d48e-4721-b3b1-5e7a4aedabf5"},"vehicle_type_id":"4","last_reported":1741018332,"current_range_meters":6400,"station_id":"ce4bhnh2rcd13ifvqgtg","pricing_plan_id":"cebpf4jnsgd1na2vs0mg"},{"bike_id":"bf216286-fc10-4d65-8516-fc2a1a05bbbd","system_id":"levelo_inurba_marseille","lat":43.2717,"lon":5.40988,"is_reserved":false,"is_disabled":false,"rental_uris":{"android":"levelo://app?vid=bf216286-fc10-4d65-8516-fc2a1a05bbbd","ios":"levelo://app?vid=bf216286-fc10-4d65-8516-fc2a1a05bbbd"},"vehicle_type_id":"4","last_reported":1741018332,"current_range_meters":6800,"station_id":"ce4bhl12rcd13ifvqgf0","pricing_plan_id":"cebpf4jnsgd1na2vs0mg"},{"bike_id":"0449c436-a489-4f50-869f-43e40ff6cc2c","system_id":"levelo_inurba_marseille","lat":43.25107,"lon":5.40322,"is_reserved":false,"is_disabled":false,"rental_uris":{"android":"levelo://app?vid=0449c436-a489-4f50-869f-43e40ff6cc2c","ios":"levelo://app?vid=0449c436-a489-4f50-869f-43e40ff6cc2c"},"vehicle_type_id":"4","last_reported":1741018332,"current_range_meters":6800,"station_id":"ce4bhlh2rcd13ifvqgig","pricing_plan_id":"cebpf4jnsgd1na2vs0mg"},{"bike_id":"4a862d00-5a24-4271-8b2e-abd12b928210","system_id":"levelo_inurba_marseille","lat":43.24151,"lon":5.39732,"is_reserved":false,"is_disabled":false,"rental_uris":{"android":"levelo://app?vid=4a862d00-5a24-4271-8b2e-abd12b928210","ios":"levelo://app?vid=4a862d00-5a24-4271-8b2e-abd12b928210"},"vehicle_type_id":"4","last_reported":1741018332,"current_range_meters":6800,"station_id":"ce4bhn12rcd13ifvqgpg","pricing_plan_id":"cebpf4jnsgd1na2vs0mg"},{"bike_id":"abb78bd9-235b-46e2-b296-4679d25b30ab","system_id":"levelo_inurba_marseille","lat":43.23064,"lon":5.35494,"is_reserved":false,"is_disabled":false,"rental_uris":{"android":"levelo://app?vid=abb78bd9-235b-46e2-b296-4679d25b30ab","ios":"levelo://app?vid=abb78bd9-235b-46e2-b296-4679d25b30ab"},"vehicle_type_id":"4","last_reported":1741018332,"current_range_meters":6800,"station_id":"cpo3342slgdg3j2ifvpg","pricing_plan_id":"cebpf4jnsgd1na2vs0mg"},{"bike_id":"0d321e1f-cc3f-4197-bbfd-c91f1b0e7e47","system_id":"levelo_inurba_marseille","lat":43.29707,"lon":5.37706,"is_reserved":false,"is_disabled":false,"rental_uris":{"android":"levelo://app?vid=0d321e1f-cc3f-4197-bbfd-c91f1b0e7e47","ios":"levelo://app?vid=0d321e1f-cc3f-4197-bbfd-c91f1b0e7e47"},"vehicle_type_id":"4","last_reported":1741018332,"current_range_meters":7200,"station_id":"ce4bgkh2rcd13ifvqbl0","pricing_plan_id":"cebpf4jnsgd1na2vs0mg"},{"bike_id":"88c940e5-b32e-4846-9c8b-91c936111037","system_id":"levelo_inurba_marseille","lat":43.30877,"lon":5.39661,"is_reserved":false,"is_disabled":false,"rental_uris":{"android":"levelo://app?vid=88c940e5-b32e-4846-9c8b-91c936111037","ios":"levelo://app?vid=88c940e5-b32e-4846-9c8b-91c936111037"},"vehicle_type_id":"4","last_reported":1741018332,"current_range_meters":7200,"station_id":"ce4bh012rcd13ifvqcv0","pricing_plan_id":"cebpf4jnsgd1na2vs0mg"},{"bike_id":"6496907b-d4d5-4880-9aa3-fc3a9bc77e8a","system_id":"levelo_inurba_marseille","lat":43.28097,"lon":5.37829,"is_reserved":false,"is_disabled":false,"rental_uris":{"android":"levelo://app?vid=6496907b-d4d5-4880-9aa3-fc3a9bc77e8a","ios":"levelo://app?vid=6496907b-d4d5-4880-9aa3-fc3a9bc77e8a"},"vehicle_type_id":"4","last_reported":1741018332,"current_range_meters":7200,"station_id":"ce4bha12rcd13ifvqee0","pricing_plan_id":"cebpf4jnsgd1na2vs0mg"},{"bike_id":"796c3cdd-c783-48c2-b080-106ba34af980","system_id":"levelo_inurba_marseille","lat":43.28841,"lon":5.3585,"is_reserved":false,"is_disabled":false,"rental_uris":{"android":"levelo://app?vid=796c3cdd-c783-48c2-b080-106ba34af980","ios":"levelo://app?vid=796c3cdd-c783-48c2-b080-106ba34af980"},"vehicle_type_id":"4","last_reported":1741018332,"current_range_meters":7200,"station_id":"ce4bhb12rcd13ifvqem0","pricing_plan_id":"cebpf4jnsgd1na2vs0mg"},{"bike_id":"35181936-a764-4921-927a-59695dc3983a","system_id":"levelo_inurba_marseille","lat":43.28615,"lon":5.3511,"is_reserved":false,"is_disabled":false,"rental_uris":{"android":"levelo://app?vid=35181936-a764-4921-927a-59695dc3983a","ios":"levelo://app?vid=35181936-a764-4921-927a-59695dc3983a"},"vehicle_type_id":"4","last_reported":1741018332,"current_range_meters":7200,"station_id":"ce4bhch2rcd13ifvqeug","pricing_plan_id":"cebpf4jnsgd1na2vs0mg"},{"bike_id":"25eb343a-fbd9-441a-8834-980069854a8b","system_id":"levelo_inurba_marseille","lat":43.24394,"lon":5.37065,"is_reserved":false,"is_disabled":false,"rental_uris":{"android":"levelo://app?vid=25eb343a-fbd9-441a-8834-980069854a8b","ios":"levelo://app?vid=25eb343a-fbd9-441a-8834-980069854a8b"},"vehicle_type_id":"4","last_reported":1741018332,"current_range_meters":7200,"station_id":"ce4bhhh2rcd13ifvqfk0","pricing_plan_id":"cebpf4jnsgd1na2vs0mg"},{"bike_id":"6f8fe4bd-a020-4c9b-9c9b-b8acfc734683","system_id":"levelo_inurba_marseille","lat":43.27065,"lon":5.40263,"is_reserved":false,"is_disabled":false,"rental_uris":{"android":"levelo://app?vid=6f8fe4bd-a020-4c9b-9c9b-b8acfc734683","ios":"levelo://app?vid=6f8fe4bd-a020-4c9b-9c9b-b8acfc734683"},"vehicle_type_id":"4","last_reported":1741018332,"current_range_meters":7200,"station_id":"ce4bhk92rcd13ifvqgc0","pricing_plan_id":"cebpf4jnsgd1na2vs0mg"},{"bike_id":"d20bb22a-8700-411c-b7d1-5e8ce9870a6d","system_id":"levelo_inurba_marseille","lat":43.30323,"lon":5.40437,"is_reserved":false,"is_disabled":false,"rental_uris":{"android":"levelo://app?vid=d20bb22a-8700-411c-b7d1-5e8ce9870a6d","ios":"levelo://app?vid=d20bb22a-8700-411c-b7d1-5e8ce9870a6d"},"vehicle_type_id":"4","last_reported":1741018332,"current_range_meters":8000,"station_id":"ce4bh012rcd13ifvqd10","pricing_plan_id":"cebpf4jnsgd1na2vs0mg"},{"bike_id":"e4ad7509-374b-4f15-8eee-208e9c6b23fa","system_id":"levelo_inurba_marseille","lat":43.26566,"lon":5.39016,"is_reserved":false,"is_disabled":false,"rental_uris":{"android":"levelo://app?vid=e4ad7509-374b-4f15-8eee-208e9c6b23fa","ios":"levelo://app?vid=e4ad7509-374b-4f15-8eee-208e9c6b23fa"},"vehicle_type_id":"4","last_reported":1741018332,"current_range_meters":8000,"station_id":"ce4bhe12rcd13ifvqf30","pricing_plan_id":"cebpf4jnsgd1na2vs0mg"},{"bike_id":"bada5191-80fc-4746-8ac8-5f57b0593d90","system_id":"levelo_inurba_marseille","lat":43.2767,"lon":5.389,"is_reserved":false,"is_disabled":false,"rental_uris":{"android":"levelo://app?vid=bada5191-80fc-4746-8ac8-5f57b0593d90","ios":"levelo://app?vid=bada5191-80fc-4746-8ac8-5f57b0593d90"},"vehicle_type_id":"4","last_reported":1741018332,"current_range_meters":8000,"station_id":"ce4bhi12rcd13ifvqfo0","pricing_plan_id":"cebpf4jnsgd1na2vs0mg"},{"bike_id":"78e857c7-5d49-4349-88b4-37d0b9c30915","system_id":"levelo_inurba_marseille","lat":43.270647,"lon":5.402622,"is_reserved":false,"is_disabled":false,"rental_uris":{"android":"levelo://app?vid=78e857c7-5d49-4349-88b4-37d0b9c30915","ios":"levelo://app?vid=78e857c7-5d49-4349-88b4-37d0b9c30915"},"vehicle_type_id":"4","last_reported":1741018332,"current_range_meters":8000,"station_id":"ce4bhk92rcd13ifvqgc0","pricing_plan_id":"cebpf4jnsgd1na2vs0mg"},{"bike_id":"5cd0c11b-f9d6-428f-9f34-0abc9c264bfe","system_id":"levelo_inurba_marseille","lat":43.28004,"lon":5.41662,"is_reserved":false,"is_disabled":false,"rental_uris":{"android":"levelo://app?vid=5cd0c11b-f9d6-428f-9f34-0abc9c264bfe","ios":"levelo://app?vid=5cd0c11b-f9d6-428f-9f34-0abc9c264bfe"},"vehicle_type_id":"4","last_reported":1741018332,"current_range_meters":8000,"station_id":"ce4bho12rcd13ifvqh1g","pricing_plan_id":"cebpf4jnsgd1na2vs0mg"},{"bike_id":"002a3a03-5060-4155-bee2-6ac17e2db0c3","system_id":"levelo_inurba_marseille","lat":43.30431,"lon":5.38882,"is_reserved":false,"is_disabled":false,"rental_uris":{"android":"levelo://app?vid=002a3a03-5060-4155-bee2-6ac17e2db0c3","ios":"levelo://app?vid=002a3a03-5060-4155-bee2-6ac17e2db0c3"},"vehicle_type_id":"4","last_reported":1741018332,"current_range_meters":8400,"station_id":"ce4bgk12rcd13ifvqbi0","pricing_plan_id":"cebpf4jnsgd1na2vs0mg"},{"bike_id":"ed245fa5-018a-4ded-aa3f-9c2f62794eb4","system_id":"levelo_inurba_marseille","lat":43.28622,"lon":5.35102,"is_reserved":false,"is_disabled":false,"rental_uris":{"android":"levelo://app?vid=ed245fa5-018a-4ded-aa3f-9c2f62794eb4","ios":"levelo://app?vid=ed245fa5-018a-4ded-aa3f-9c2f62794eb4"},"vehicle_type_id":"4","last_reported":1741018332,"current_range_meters":8400,"station_id":"ce4bhch2rcd13ifvqeug","pricing_plan_id":"cebpf4jnsgd1na2vs0mg"},{"bike_id":"0a42b506-aec3-4369-808c-c91f0f7eb197","system_id":"levelo_inurba_marseille","lat":43.25584,"lon":5.38251,"is_reserved":false,"is_disabled":false,"rental_uris":{"android":"levelo://app?vid=0a42b506-aec3-4369-808c-c91f0f7eb197","ios":"levelo://app?vid=0a42b506-aec3-4369-808c-c91f0f7eb197"},"vehicle_type_id":"4","last_reported":1741018332,"current_range_meters":8400,"station_id":"ce4bhih2rcd13ifvqfs0","pricing_plan_id":"cebpf4jnsgd1na2vs0mg"},{"bike_id":"5da70b26-5045-4fcf-85cf-7f68a925e135","system_id":"levelo_inurba_marseille","lat":43.27989,"lon":5.41659,"is_reserved":false,"is_disabled":false,"rental_uris":{"android":"levelo://app?vid=5da70b26-5045-4fcf-85cf-7f68a925e135","ios":"levelo://app?vid=5da70b26-5045-4fcf-85cf-7f68a925e135"},"vehicle_type_id":"4","last_reported":1741018332,"current_range_meters":8400,"station_id":"ce4bho12rcd13ifvqh1g","pricing_plan_id":"cebpf4jnsgd1na2vs0mg"},{"bike_id":"f381c9bd-14fa-41ab-b589-3ecebd6dfe48","system_id":"levelo_inurba_marseille","lat":43.32363,"lon":5.36761,"is_reserved":false,"is_disabled":false,"rental_uris":{"android":"levelo://app?vid=f381c9bd-14fa-41ab-b589-3ecebd6dfe48","ios":"levelo://app?vid=f381c9bd-14fa-41ab-b589-3ecebd6dfe48"},"vehicle_type_id":"4","last_reported":1741018332,"current_range_meters":8400,"station_id":"ce4bhsh2rcd13ifvqi2g","pricing_plan_id":"cebpf4jnsgd1na2vs0mg"},{"bike_id":"cf1ff10c-6dc9-45e9-856b-d26e0adb01fa","system_id":"levelo_inurba_marseille","lat":43.2294,"lon":5.3538,"is_reserved":false,"is_disabled":false,"rental_uris":{"android":"levelo://app?vid=cf1ff10c-6dc9-45e9-856b-d26e0adb01fa","ios":"levelo://app?vid=cf1ff10c-6dc9-45e9-856b-d26e0adb01fa"},"vehicle_type_id":"4","last_reported":1741018332,"current_range_meters":8400,"station_id":"cpo3532slgdg3j2ikp40","pricing_plan_id":"cebpf4jnsgd1na2vs0mg"},{"bike_id":"a6f71a9d-4586-404b-a296-28eea5d34f55","system_id":"levelo_inurba_marseille","lat":43.30875,"lon":5.39646,"is_reserved":false,"is_disabled":false,"rental_uris":{"android":"levelo://app?vid=a6f71a9d-4586-404b-a296-28eea5d34f55","ios":"levelo://app?vid=a6f71a9d-4586-404b-a296-28eea5d34f55"},"vehicle_type_id":"4","last_reported":1741018332,"current_range_meters":8800,"station_id":"ce4bh012rcd13ifvqcv0","pricing_plan_id":"cebpf4jnsgd1na2vs0mg"},{"bike_id":"e3f642d8-1551-43c5-a547-a333fa663c2e","system_id":"levelo_inurba_marseille","lat":43.25495,"lon":5.3765,"is_reserved":false,"is_disabled":false,"rental_uris":{"android":"levelo://app?vid=e3f642d8-1551-43c5-a547-a333fa663c2e","ios":"levelo://app?vid=e3f642d8-1551-43c5-a547-a333fa663c2e"},"vehicle_type_id":"4","last_reported":1741018332,"current_range_meters":8800,"station_id":"ce4bhh12rcd13ifvqff0","pricing_plan_id":"cebpf4jnsgd1na2vs0mg"},{"bike_id":"1808ccc6-d295-4f5e-beb6-1400f13c98a2","system_id":"levelo_inurba_marseille","lat":43.28158,"lon":5.42611,"is_reserved":false,"is_disabled":false,"rental_uris":{"android":"levelo://app?vid=1808ccc6-d295-4f5e-beb6-1400f13c98a2","ios":"levelo://app?vid=1808ccc6-d295-4f5e-beb6-1400f13c98a2"},"vehicle_type_id":"4","last_reported":1741018332,"current_range_meters":8800,"station_id":"ce4bhnh2rcd13ifvqgug","pricing_plan_id":"cebpf4jnsgd1na2vs0mg"},{"bike_id":"df895f64-fc5a-4968-b441-06dda2fc6193","system_id":"levelo_inurba_marseille","lat":43.2841,"lon":5.37515,"is_reserved":false,"is_disabled":false,"rental_uris":{"android":"levelo://app?vid=df895f64-fc5a-4968-b441-06dda2fc6193","ios":"levelo://app?vid=df895f64-fc5a-4968-b441-06dda2fc6193"},"vehicle_type_id":"4","last_reported":1741018332,"current_range_meters":9200,"station_id":"ce4bh412rcd13ifvqds0","pricing_plan_id":"cebpf4jnsgd1na2vs0mg"},{"bike_id":"44c50a73-3958-4d44-bd7d-6c3cb45e635e","system_id":"levelo_inurba_marseille","lat":43.28424,"lon":5.35,"is_reserved":false,"is_disabled":false,"rental_uris":{"android":"levelo://app?vid=44c50a73-3958-4d44-bd7d-6c3cb45e635e","ios":"levelo://app?vid=44c50a73-3958-4d44-bd7d-6c3cb45e635e"},"vehicle_type_id":"4","last_reported":1741018332,"current_range_meters":9200,"station_id":"ce4bhbh2rcd13ifvqepg","pricing_plan_id":"cebpf4jnsgd1na2vs0mg"},{"bike_id":"0cbfe3cf-3c9c-454f-bc5c-d5edfe7b3247","system_id":"levelo_inurba_marseille","lat":43.28622,"lon":5.35097,"is_reserved":false,"is_disabled":false,"rental_uris":{"android":"levelo://app?vid=0cbfe3cf-3c9c-454f-bc5c-d5edfe7b3247","ios":"levelo://app?vid=0cbfe3cf-3c9c-454f-bc5c-d5edfe7b3247"},"vehicle_type_id":"4","last_reported":1741018332,"current_range_meters":9200,"station_id":"ce4bhch2rcd13ifvqeug","pricing_plan_id":"cebpf4jnsgd1na2vs0mg"},{"bike_id":"1d34f648-5239-430b-90b9-0227061e3556","system_id":"levelo_inurba_marseille","lat":43.28604,"lon":5.37066,"is_reserved":false,"is_disabled":false,"rental_uris":{"android":"levelo://app?vid=1d34f648-5239-430b-90b9-0227061e3556","ios":"levelo://app?vid=1d34f648-5239-430b-90b9-0227061e3556"},"vehicle_type_id":"4","last_reported":1741018332,"current_range_meters":9200,"station_id":"ce4bht12rcd13ifvqi60","pricing_plan_id":"cebpf4jnsgd1na2vs0mg"},{"bike_id":"964f17aa-a778-4e17-b11f-b5f7fae7ab28","system_id":"levelo_inurba_marseille","lat":43.23202,"lon":5.35551,"is_reserved":false,"is_disabled":false,"rental_uris":{"android":"levelo://app?vid=964f17aa-a778-4e17-b11f-b5f7fae7ab28","ios":"levelo://app?vid=964f17aa-a778-4e17-b11f-b5f7fae7ab28"},"vehicle_type_id":"4","last_reported":1741018332,"current_range_meters":9200,"station_id":"ce4bhu92rcd13ifvqi70","pricing_plan_id":"cebpf4jnsgd1na2vs0mg"},{"bike_id":"e41e0bb8-6c1c-4ce2-b18d-069e130ca183","system_id":"levelo_inurba_marseille","lat":43.2307,"lon":5.35489,"is_reserved":false,"is_disabled":false,"rental_uris":{"android":"levelo://app?vid=e41e0bb8-6c1c-4ce2-b18d-069e130ca183","ios":"levelo://app?vid=e41e0bb8-6c1c-4ce2-b18d-069e130ca183"},"vehicle_type_id":"4","last_reported":1741018332,"current_range_meters":9200,"station_id":"cpo3342slgdg3j2ifvpg","pricing_plan_id":"cebpf4jnsgd1na2vs0mg"},{"bike_id":"10a95bcb-a166-4d1f-ac5d-b3ebc8eb016b","system_id":"levelo_inurba_marseille","lat":43.29059,"lon":5.35919,"is_reserved":false,"is_disabled":false,"rental_uris":{"android":"levelo://app?vid=10a95bcb-a166-4d1f-ac5d-b3ebc8eb016b","ios":"levelo://app?vid=10a95bcb-a166-4d1f-ac5d-b3ebc8eb016b"},"vehicle_type_id":"4","last_reported":1741018332,"current_range_meters":9600,"station_id":"ce4bha92rcd13ifvqeg0","pricing_plan_id":"cebpf4jnsgd1na2vs0mg"},{"bike_id":"b21e25bd-5fe3-4b4c-9515-724946c2cde8","system_id":"levelo_inurba_marseille","lat":43.28458,"lon":5.35889,"is_reserved":false,"is_disabled":false,"rental_uris":{"android":"levelo://app?vid=b21e25bd-5fe3-4b4c-9515-724946c2cde8","ios":"levelo://app?vid=b21e25bd-5fe3-4b4c-9515-724946c2cde8"},"vehicle_type_id":"4","last_reported":1741018332,"current_range_meters":9600,"station_id":"ce4bhah2rcd13ifvqei0","pricing_plan_id":"cebpf4jnsgd1na2vs0mg"},{"bike_id":"6b09308f-1097-4ca9-90e4-570782cfe191","system_id":"levelo_inurba_marseille","lat":43.24376,"lon":5.37085,"is_reserved":false,"is_disabled":false,"rental_uris":{"android":"levelo://app?vid=6b09308f-1097-4ca9-90e4-570782cfe191","ios":"levelo://app?vid=6b09308f-1097-4ca9-90e4-570782cfe191"},"vehicle_type_id":"4","last_reported":1741018332,"current_range_meters":9600,"station_id":"ce4bhhh2rcd13ifvqfk0","pricing_plan_id":"cebpf4jnsgd1na2vs0mg"},{"bike_id":"6500699d-c4d0-43e8-8973-0f682c36684d","system_id":"levelo_inurba_marseille","lat":43.23153,"lon":5.43715,"is_reserved":false,"is_disabled":false,"rental_uris":{"android":"levelo://app?vid=6500699d-c4d0-43e8-8973-0f682c36684d","ios":"levelo://app?vid=6500699d-c4d0-43e8-8973-0f682c36684d"},"vehicle_type_id":"4","last_reported":1741018332,"current_range_meters":9600,"station_id":"ce4bhmp2rcd13ifvqgog","pricing_plan_id":"cebpf4jnsgd1na2vs0mg"},{"bike_id":"02ea5210-92e2-4a1d-9dcb-9d4b04e5741a","system_id":"levelo_inurba_marseille","lat":43.23067,"lon":5.35491,"is_reserved":false,"is_disabled":false,"rental_uris":{"android":"levelo://app?vid=02ea5210-92e2-4a1d-9dcb-9d4b04e5741a","ios":"levelo://app?vid=02ea5210-92e2-4a1d-9dcb-9d4b04e5741a"},"vehicle_type_id":"4","last_reported":1741018332,"current_range_meters":9600,"station_id":"cpo3342slgdg3j2ifvpg","pricing_plan_id":"cebpf4jnsgd1na2vs0mg"},{"bike_id":"c8c30254-af6a-4a88-b0b6-9a3a52022bea","system_id":"levelo_inurba_marseille","lat":43.32423,"lon":5.42687,"is_reserved":false,"is_disabled":false,"rental_uris":{"android":"levelo://app?vid=c8c30254-af6a-4a88-b0b6-9a3a52022bea","ios":"levelo://app?vid=c8c30254-af6a-4a88-b0b6-9a3a52022bea"},"vehicle_type_id":"4","last_reported":1741018332,"current_range_meters":10000,"station_id":"","pricing_plan_id":"cebpf4jnsgd1na2vs0mg"},{"bike_id":"8ade5181-cd88-4ece-8534-46a6372826ef","system_id":"levelo_inurba_marseille","lat":43.27695,"lon":5.41561,"is_reserved":false,"is_disabled":false,"rental_uris":{"android":"levelo://app?vid=8ade5181-cd88-4ece-8534-46a6372826ef","ios":"levelo://app?vid=8ade5181-cd88-4ece-8534-46a6372826ef"},"vehicle_type_id":"4","last_reported":1741018332,"current_range_meters":10000,"station_id":"","pricing_plan_id":"cebpf4jnsgd1na2vs0mg"},{"bike_id":"a303d5de-4f6b-4e6a-a282-77343dae1857","system_id":"levelo_inurba_marseille","lat":43.30309,"lon":5.36906,"is_reserved":false,"is_disabled":false,"rental_uris":{"android":"levelo://app?vid=a303d5de-4f6b-4e6a-a282-77343dae1857","ios":"levelo://app?vid=a303d5de-4f6b-4e6a-a282-77343dae1857"},"vehicle_type_id":"4","last_reported":1741018332,"current_range_meters":10000,"station_id":"ce4bgqh2rcd13ifvqc5g","pricing_plan_id":"cebpf4jnsgd1na2vs0mg"},{"bike_id":"97877b57-7853-4a58-b0b1-6aa4af1e67fa","system_id":"levelo_inurba_marseille","lat":43.305413,"lon":5.365475,"is_reserved":false,"is_disabled":false,"rental_uris":{"android":"levelo://app?vid=97877b57-7853-4a58-b0b1-6aa4af1e67fa","ios":"levelo://app?vid=97877b57-7853-4a58-b0b1-6aa4af1e67fa"},"vehicle_type_id":"4","last_reported":1741018332,"current_range_meters":10000,"station_id":"ce4bgs12rcd13ifvqcag","pricing_plan_id":"cebpf4jnsgd1na2vs0mg"},{"bike_id":"57d642e3-a63f-4ff1-bc8e-5c302a9a244f","system_id":"levelo_inurba_marseille","lat":43.27912,"lon":5.3958,"is_reserved":false,"is_disabled":false,"rental_uris":{"android":"levelo://app?vid=57d642e3-a63f-4ff1-bc8e-5c302a9a244f","ios":"levelo://app?vid=57d642e3-a63f-4ff1-bc8e-5c302a9a244f"},"vehicle_type_id":"4","last_reported":1741018332,"current_range_meters":10000,"station_id":"ce4bhf92rcd13ifvqf40","pricing_plan_id":"cebpf4jnsgd1na2vs0mg"},{"bike_id":"100fcaf6-edb5-4701-9431-b8defb642405","system_id":"levelo_inurba_marseille","lat":43.24382,"lon":5.37045,"is_reserved":false,"is_disabled":false,"rental_uris":{"android":"levelo://app?vid=100fcaf6-edb5-4701-9431-b8defb642405","ios":"levelo://app?vid=100fcaf6-edb5-4701-9431-b8defb642405"},"vehicle_type_id":"4","last_reported":1741018332,"current_range_meters":10000,"station_id":"ce4bhhh2rcd13ifvqfk0","pricing_plan_id":"cebpf4jnsgd1na2vs0mg"},{"bike_id":"9d16d8be-b5b4-4bab-b2ff-30c9080bdfe7","system_id":"levelo_inurba_marseille","lat":43.27072,"lon":5.4228,"is_reserved":false,"is_disabled":false,"rental_uris":{"android":"levelo://app?vid=9d16d8be-b5b4-4bab-b2ff-30c9080bdfe7","ios":"levelo://app?vid=9d16d8be-b5b4-4bab-b2ff-30c9080bdfe7"},"vehicle_type_id":"4","last_reported":1741018332,"current_range_meters":10000,"station_id":"ce4bhk92rcd13ifvqgb0","pricing_plan_id":"cebpf4jnsgd1na2vs0mg"},{"bike_id":"c11fdd45-99e0-4676-8c8e-e8f9d1bb40b5","system_id":"levelo_inurba_marseille","lat":43.2794,"lon":5.41048,"is_reserved":false,"is_disabled":false,"rental_uris":{"android":"levelo://app?vid=c11fdd45-99e0-4676-8c8e-e8f9d1bb40b5","ios":"levelo://app?vid=c11fdd45-99e0-4676-8c8e-e8f9d1bb40b5"},"vehicle_type_id":"4","last_reported":1741018332,"current_range_meters":10000,"station_id":"ce4bhnp2rcd13ifvqh0g","pricing_plan_id":"cebpf4jnsgd1na2vs0mg"},{"bike_id":"69c64ec9-e24d-4807-ad49-cbbbaf87179a","system_id":"levelo_inurba_marseille","lat":43.26945,"lon":5.40252,"is_reserved":false,"is_disabled":false,"rental_uris":{"android":"levelo://app?vid=69c64ec9-e24d-4807-ad49-cbbbaf87179a","ios":"levelo://app?vid=69c64ec9-e24d-4807-ad49-cbbbaf87179a"},"vehicle_type_id":"4","last_reported":1741018332,"current_range_meters":10000,"station_id":"cjm6bp8fraef2m0cb0m0","pricing_plan_id":"cebpf4jnsgd1na2vs0mg"},{"bike_id":"ce8ef3d2-07e3-4512-8813-bcde53a01429","system_id":"levelo_inurba_marseille","lat":43.24168,"lon":5.36396,"is_reserved":false,"is_disabled":false,"rental_uris":{"android":"levelo://app?vid=ce8ef3d2-07e3-4512-8813-bcde53a01429","ios":"levelo://app?vid=ce8ef3d2-07e3-4512-8813-bcde53a01429"},"vehicle_type_id":"4","last_reported":1741018332,"current_range_meters":10000,"station_id":"cpo36qri1sfpv3e86is0","pricing_plan_id":"cebpf4jnsgd1na2vs0mg"},{"bike_id":"71cd5d9d-c4a9-4d7f-b25c-bd7ceef0b27e","system_id":"levelo_inurba_marseille","lat":43.31284,"lon":5.37731,"is_reserved":false,"is_disabled":false,"rental_uris":{"android":"levelo://app?vid=71cd5d9d-c4a9-4d7f-b25c-bd7ceef0b27e","ios":"levelo://app?vid=71cd5d9d-c4a9-4d7f-b25c-bd7ceef0b27e"},"vehicle_type_id":"4","last_reported":1741018332,"current_range_meters":10800,"station_id":"","pricing_plan_id":"cebpf4jnsgd1na2vs0mg"},{"bike_id":"613f46c3-a866-4c46-900a-808789b57a2a","system_id":"levelo_inurba_marseille","lat":43.30807,"lon":5.37133,"is_reserved":false,"is_disabled":false,"rental_uris":{"android":"levelo://app?vid=613f46c3-a866-4c46-900a-808789b57a2a","ios":"levelo://app?vid=613f46c3-a866-4c46-900a-808789b57a2a"},"vehicle_type_id":"4","last_reported":1741018332,"current_range_meters":10800,"station_id":"","pricing_plan_id":"cebpf4jnsgd1na2vs0mg"},{"bike_id":"54645451-169f-452d-9eb7-9e36224ac436","system_id":"levelo_inurba_marseille","lat":43.29641,"lon":5.40591,"is_reserved":false,"is_disabled":false,"rental_uris":{"android":"levelo://app?vid=54645451-169f-452d-9eb7-9e36224ac436","ios":"levelo://app?vid=54645451-169f-452d-9eb7-9e36224ac436"},"vehicle_type_id":"4","last_reported":1741018332,"current_range_meters":10800,"station_id":"ce4bh0h2rcd13ifvqd60","pricing_plan_id":"cebpf4jnsgd1na2vs0mg"},{"bike_id":"5a9b4457-318a-44e2-9b66-c99d03745d75","system_id":"levelo_inurba_marseille","lat":43.2953,"lon":5.39031,"is_reserved":false,"is_disabled":false,"rental_uris":{"android":"levelo://app?vid=5a9b4457-318a-44e2-9b66-c99d03745d75","ios":"levelo://app?vid=5a9b4457-318a-44e2-9b66-c99d03745d75"},"vehicle_type_id":"4","last_reported":1741018332,"current_range_meters":10800,"station_id":"ce4bh3p2rcd13ifvqdp0","pricing_plan_id":"cebpf4jnsgd1na2vs0mg"},{"bike_id":"411dd7b4-e2ca-435b-adbf-27a8349bc185","system_id":"levelo_inurba_marseille","lat":43.28456,"lon":5.35882,"is_reserved":false,"is_disabled":false,"rental_uris":{"android":"levelo://app?vid=411dd7b4-e2ca-435b-adbf-27a8349bc185","ios":"levelo://app?vid=411dd7b4-e2ca-435b-adbf-27a8349bc185"},"vehicle_type_id":"4","last_reported":1741018332,"current_range_meters":10800,"station_id":"ce4bhah2rcd13ifvqei0","pricing_plan_id":"cebpf4jnsgd1na2vs0mg"},{"bike_id":"dcdda1b9-4944-460c-abdb-49d199ac18e1","system_id":"levelo_inurba_marseille","lat":43.28458,"lon":5.35895,"is_reserved":false,"is_disabled":false,"rental_uris":{"android":"levelo://app?vid=dcdda1b9-4944-460c-abdb-49d199ac18e1","ios":"levelo://app?vid=dcdda1b9-4944-460c-abdb-49d199ac18e1"},"vehicle_type_id":"4","last_reported":1741018332,"current_range_meters":10800,"station_id":"ce4bhah2rcd13ifvqei0","pricing_plan_id":"cebpf4jnsgd1na2vs0mg"},{"bike_id":"c3a49f30-1062-4024-aa2c-15d50e5be0e0","system_id":"levelo_inurba_marseille","lat":43.28854,"lon":5.35864,"is_reserved":false,"is_disabled":false,"rental_uris":{"android":"levelo://app?vid=c3a49f30-1062-4024-aa2c-15d50e5be0e0","ios":"levelo://app?vid=c3a49f30-1062-4024-aa2c-15d50e5be0e0"},"vehicle_type_id":"4","last_reported":1741018332,"current_range_meters":10800,"station_id":"ce4bhb12rcd13ifvqem0","pricing_plan_id":"cebpf4jnsgd1na2vs0mg"},{"bike_id":"ec74e8fa-7d1b-4c01-aa5f-1dbe1e343246","system_id":"levelo_inurba_marseille","lat":43.27904,"lon":5.38011,"is_reserved":false,"is_disabled":false,"rental_uris":{"android":"levelo://app?vid=ec74e8fa-7d1b-4c01-aa5f-1dbe1e343246","ios":"levelo://app?vid=ec74e8fa-7d1b-4c01-aa5f-1dbe1e343246"},"vehicle_type_id":"4","last_reported":1741018332,"current_range_meters":10800,"station_id":"ce4bhf92rcd13ifvqf50","pricing_plan_id":"cebpf4jnsgd1na2vs0mg"},{"bike_id":"e28ac462-9bca-47b2-ae29-8081e0f2b279","system_id":"levelo_inurba_marseille","lat":43.26566,"lon":5.37284,"is_reserved":false,"is_disabled":false,"rental_uris":{"android":"levelo://app?vid=e28ac462-9bca-47b2-ae29-8081e0f2b279","ios":"levelo://app?vid=e28ac462-9bca-47b2-ae29-8081e0f2b279"},"vehicle_type_id":"4","last_reported":1741018332,"current_range_meters":10800,"station_id":"ce4bhg12rcd13ifvqf70","pricing_plan_id":"cebpf4jnsgd1na2vs0mg"},{"bike_id":"b17160cc-2071-43fd-b821-4e34c3928b7f","system_id":"levelo_inurba_marseille","lat":43.26785,"lon":5.39412,"is_reserved":false,"is_disabled":false,"rental_uris":{"android":"levelo://app?vid=b17160cc-2071-43fd-b821-4e34c3928b7f","ios":"levelo://app?vid=b17160cc-2071-43fd-b821-4e34c3928b7f"},"vehicle_type_id":"4","last_reported":1741018332,"current_range_meters":10800,"station_id":"ce4bhh12rcd13ifvqfg0","pricing_plan_id":"cebpf4jnsgd1na2vs0mg"},{"bike_id":"218ed5ac-6703-4318-89bd-789d1d2d1841","system_id":"levelo_inurba_marseille","lat":43.27996,"lon":5.40009,"is_reserved":false,"is_disabled":false,"rental_uris":{"android":"levelo://app?vid=218ed5ac-6703-4318-89bd-789d1d2d1841","ios":"levelo://app?vid=218ed5ac-6703-4318-89bd-789d1d2d1841"},"vehicle_type_id":"4","last_reported":1741018332,"current_range_meters":10800,"station_id":"ce4bho92rcd13ifvqh4g","pricing_plan_id":"cebpf4jnsgd1na2vs0mg"},{"bike_id":"caedf473-9313-4874-87c8-230b4a1efdb8","system_id":"levelo_inurba_marseille","lat":43.32488,"lon":5.36574,"is_reserved":false,"is_disabled":false,"rental_uris":{"android":"levelo://app?vid=caedf473-9313-4874-87c8-230b4a1efdb8","ios":"levelo://app?vid=caedf473-9313-4874-87c8-230b4a1efdb8"},"vehicle_type_id":"4","last_reported":1741018332,"current_range_meters":10800,"station_id":"ce4bhs12rcd13ifvqhvg","pricing_plan_id":"cebpf4jnsgd1na2vs0mg"},{"bike_id":"fa97178a-c212-4138-aba1-4b5afb87e532","system_id":"levelo_inurba_marseille","lat":43.24169,"lon":5.36384,"is_reserved":false,"is_disabled":false,"rental_uris":{"android":"levelo://app?vid=fa97178a-c212-4138-aba1-4b5afb87e532","ios":"levelo://app?vid=fa97178a-c212-4138-aba1-4b5afb87e532"},"vehicle_type_id":"4","last_reported":1741018332,"current_range_meters":10800,"station_id":"cpo36qri1sfpv3e86is0","pricing_plan_id":"cebpf4jnsgd1na2vs0mg"},{"bike_id":"46568291-5fa7-4b74-bff3-2aea2e589562","system_id":"levelo_inurba_marseille","lat":43.245578,"lon":5.423026,"is_reserved":false,"is_disabled":false,"rental_uris":{"android":"levelo://app?vid=46568291-5fa7-4b74-bff3-2aea2e589562","ios":"levelo://app?vid=46568291-5fa7-4b74-bff3-2aea2e589562"},"vehicle_type_id":"4","last_reported":1741018332,"current_range_meters":11200,"station_id":"","pricing_plan_id":"cebpf4jnsgd1na2vs0mg"},{"bike_id":"767687d6-f7fc-43da-8d5c-42724c250c15","system_id":"levelo_inurba_marseille","lat":43.28937,"lon":5.36635,"is_reserved":false,"is_disabled":false,"rental_uris":{"android":"levelo://app?vid=767687d6-f7fc-43da-8d5c-42724c250c15","ios":"levelo://app?vid=767687d6-f7fc-43da-8d5c-42724c250c15"},"vehicle_type_id":"4","last_reported":1741018332,"current_range_meters":11200,"station_id":"ce4bhap2rcd13ifvqek0","pricing_plan_id":"cebpf4jnsgd1na2vs0mg"},{"bike_id":"3d82de55-87bd-44d6-a319-f08c6b888860","system_id":"levelo_inurba_marseille","lat":43.29007,"lon":5.35616,"is_reserved":false,"is_disabled":false,"rental_uris":{"android":"levelo://app?vid=3d82de55-87bd-44d6-a319-f08c6b888860","ios":"levelo://app?vid=3d82de55-87bd-44d6-a319-f08c6b888860"},"vehicle_type_id":"4","last_reported":1741018332,"current_range_meters":11200,"station_id":"ce4bhb92rcd13ifvqen0","pricing_plan_id":"cebpf4jnsgd1na2vs0mg"},{"bike_id":"20f28f92-adf9-48e3-a33b-83ded65127c5","system_id":"levelo_inurba_marseille","lat":43.23064,"lon":5.35497,"is_reserved":false,"is_disabled":false,"rental_uris":{"android":"levelo://app?vid=20f28f92-adf9-48e3-a33b-83ded65127c5","ios":"levelo://app?vid=20f28f92-adf9-48e3-a33b-83ded65127c5"},"vehicle_type_id":"4","last_reported":1741018332,"current_range_meters":11200,"station_id":"cpo3342slgdg3j2ifvpg","pricing_plan_id":"cebpf4jnsgd1na2vs0mg"},{"bike_id":"64953142-7637-42b4-b0d1-c449e63f1db7","system_id":"levelo_inurba_marseille","lat":43.29637,"lon":5.36023,"is_reserved":false,"is_disabled":false,"rental_uris":{"android":"levelo://app?vid=64953142-7637-42b4-b0d1-c449e63f1db7","ios":"levelo://app?vid=64953142-7637-42b4-b0d1-c449e63f1db7"},"vehicle_type_id":"4","last_reported":1741018332,"current_range_meters":11600,"station_id":"","pricing_plan_id":"cebpf4jnsgd1na2vs0mg"},{"bike_id":"32f2e140-12c5-4871-b961-ec090cb3ae3a","system_id":"levelo_inurba_marseille","lat":43.30927,"lon":5.40146,"is_reserved":false,"is_disabled":false,"rental_uris":{"android":"levelo://app?vid=32f2e140-12c5-4871-b961-ec090cb3ae3a","ios":"levelo://app?vid=32f2e140-12c5-4871-b961-ec090cb3ae3a"},"vehicle_type_id":"4","last_reported":1741018332,"current_range_meters":11600,"station_id":"ce4bgvp2rcd13ifvqct0","pricing_plan_id":"cebpf4jnsgd1na2vs0mg"},{"bike_id":"4c7ca1e3-239c-4bd4-a4b1-b2195dd98537","system_id":"levelo_inurba_marseille","lat":43.26563,"lon":5.37275,"is_reserved":false,"is_disabled":false,"rental_uris":{"android":"levelo://app?vid=4c7ca1e3-239c-4bd4-a4b1-b2195dd98537","ios":"levelo://app?vid=4c7ca1e3-239c-4bd4-a4b1-b2195dd98537"},"vehicle_type_id":"4","last_reported":1741018332,"current_range_meters":11600,"station_id":"ce4bhg12rcd13ifvqf70","pricing_plan_id":"cebpf4jnsgd1na2vs0mg"},{"bike_id":"f328a1bf-122e-45c1-b92f-4d80c546da13","system_id":"levelo_inurba_marseille","lat":43.25822,"lon":5.39455,"is_reserved":false,"is_disabled":false,"rental_uris":{"android":"levelo://app?vid=f328a1bf-122e-45c1-b92f-4d80c546da13","ios":"levelo://app?vid=f328a1bf-122e-45c1-b92f-4d80c546da13"},"vehicle_type_id":"4","last_reported":1741018332,"current_range_meters":11600,"station_id":"ce4bhip2rcd13ifvqft0","pricing_plan_id":"cebpf4jnsgd1na2vs0mg"},{"bike_id":"f71f9016-cd7a-4d2f-a244-6b67297b159e","system_id":"levelo_inurba_marseille","lat":43.27904,"lon":5.41667,"is_reserved":false,"is_disabled":false,"rental_uris":{"android":"levelo://app?vid=f71f9016-cd7a-4d2f-a244-6b67297b159e","ios":"levelo://app?vid=f71f9016-cd7a-4d2f-a244-6b67297b159e"},"vehicle_type_id":"4","last_reported":1741018332,"current_range_meters":12000,"station_id":"","pricing_plan_id":"cebpf4jnsgd1na2vs0mg"},{"bike_id":"41ed89d3-77cd-4311-8513-748a0ca63c4f","system_id":"levelo_inurba_marseille","lat":43.21256,"lon":5.35326,"is_reserved":false,"is_disabled":false,"rental_uris":{"android":"levelo://app?vid=41ed89d3-77cd-4311-8513-748a0ca63c4f","ios":"levelo://app?vid=41ed89d3-77cd-4311-8513-748a0ca63c4f"},"vehicle_type_id":"4","last_reported":1741018332,"current_range_meters":12000,"station_id":"","pricing_plan_id":"cebpf4jnsgd1na2vs0mg"},{"bike_id":"362b2e41-0f7d-42ca-85b4-447baad17196","system_id":"levelo_inurba_marseille","lat":43.27185,"lon":5.41896,"is_reserved":false,"is_disabled":false,"rental_uris":{"android":"levelo://app?vid=362b2e41-0f7d-42ca-85b4-447baad17196","ios":"levelo://app?vid=362b2e41-0f7d-42ca-85b4-447baad17196"},"vehicle_type_id":"4","last_reported":1741018332,"current_range_meters":12000,"station_id":"","pricing_plan_id":"cebpf4jnsgd1na2vs0mg"},{"bike_id":"442e17cf-9700-477c-a555-09fc8cf0081c","system_id":"levelo_inurba_marseille","lat":43.28456,"lon":5.35884,"is_reserved":false,"is_disabled":false,"rental_uris":{"android":"levelo://app?vid=442e17cf-9700-477c-a555-09fc8cf0081c","ios":"levelo://app?vid=442e17cf-9700-477c-a555-09fc8cf0081c"},"vehicle_type_id":"4","last_reported":1741018332,"current_range_meters":12000,"station_id":"ce4bhah2rcd13ifvqei0","pricing_plan_id":"cebpf4jnsgd1na2vs0mg"},{"bike_id":"60cbccc8-61e1-43e1-a542-556f9192321f","system_id":"levelo_inurba_marseille","lat":43.29006,"lon":5.35618,"is_reserved":false,"is_disabled":false,"rental_uris":{"android":"levelo://app?vid=60cbccc8-61e1-43e1-a542-556f9192321f","ios":"levelo://app?vid=60cbccc8-61e1-43e1-a542-556f9192321f"},"vehicle_type_id":"4","last_reported":1741018332,"current_range_meters":12000,"station_id":"ce4bhb92rcd13ifvqen0","pricing_plan_id":"cebpf4jnsgd1na2vs0mg"},{"bike_id":"a57a0e24-d53b-49ef-b981-b20b38ba32e0","system_id":"levelo_inurba_marseille","lat":43.2923,"lon":5.36072,"is_reserved":false,"is_disabled":false,"rental_uris":{"android":"levelo://app?vid=a57a0e24-d53b-49ef-b981-b20b38ba32e0","ios":"levelo://app?vid=a57a0e24-d53b-49ef-b981-b20b38ba32e0"},"vehicle_type_id":"4","last_reported":1741018332,"current_range_meters":12000,"station_id":"ce4bhbh2rcd13ifvqeqg","pricing_plan_id":"cebpf4jnsgd1na2vs0mg"},{"bike_id":"ec1b0cc5-0215-4468-8d35-19daee8da084","system_id":"levelo_inurba_marseille","lat":43.27414,"lon":5.39398,"is_reserved":false,"is_disabled":false,"rental_uris":{"android":"levelo://app?vid=ec1b0cc5-0215-4468-8d35-19daee8da084","ios":"levelo://app?vid=ec1b0cc5-0215-4468-8d35-19daee8da084"},"vehicle_type_id":"4","last_reported":1741018332,"current_range_meters":12000,"station_id":"ce4bhdp2rcd13ifvqf20","pricing_plan_id":"cebpf4jnsgd1na2vs0mg"},{"bike_id":"38658c88-48f1-44d7-92bd-94dfc27e434c","system_id":"levelo_inurba_marseille","lat":43.23156,"lon":5.43689,"is_reserved":false,"is_disabled":false,"rental_uris":{"android":"levelo://app?vid=38658c88-48f1-44d7-92bd-94dfc27e434c","ios":"levelo://app?vid=38658c88-48f1-44d7-92bd-94dfc27e434c"},"vehicle_type_id":"4","last_reported":1741018332,"current_range_meters":12000,"station_id":"ce4bhmp2rcd13ifvqgog","pricing_plan_id":"cebpf4jnsgd1na2vs0mg"},{"bike_id":"0b067905-1bf2-4b29-91a1-60a9edaddc2a","system_id":"levelo_inurba_marseille","lat":43.27817,"lon":5.40714,"is_reserved":false,"is_disabled":false,"rental_uris":{"android":"levelo://app?vid=0b067905-1bf2-4b29-91a1-60a9edaddc2a","ios":"levelo://app?vid=0b067905-1bf2-4b29-91a1-60a9edaddc2a"},"vehicle_type_id":"4","last_reported":1741018332,"current_range_meters":12000,"station_id":"ce4bhnh2rcd13ifvqgtg","pricing_plan_id":"cebpf4jnsgd1na2vs0mg"},{"bike_id":"9f2ba303-c039-4c51-9234-27cd738afaef","system_id":"levelo_inurba_marseille","lat":43.30541,"lon":5.38427,"is_reserved":false,"is_disabled":false,"rental_uris":{"android":"levelo://app?vid=9f2ba303-c039-4c51-9234-27cd738afaef","ios":"levelo://app?vid=9f2ba303-c039-4c51-9234-27cd738afaef"},"vehicle_type_id":"4","last_reported":1741018332,"current_range_meters":12400,"station_id":"ce4bgg92rcd13ifvqb30","pricing_plan_id":"cebpf4jnsgd1na2vs0mg"},{"bike_id":"4b53b728-c307-4374-88db-47f38f2770fd","system_id":"levelo_inurba_marseille","lat":43.31072,"lon":5.38363,"is_reserved":false,"is_disabled":false,"rental_uris":{"android":"levelo://app?vid=4b53b728-c307-4374-88db-47f38f2770fd","ios":"levelo://app?vid=4b53b728-c307-4374-88db-47f38f2770fd"},"vehicle_type_id":"4","last_reported":1741018332,"current_range_meters":12400,"station_id":"ce4bgv92rcd13ifvqcr0","pricing_plan_id":"cebpf4jnsgd1na2vs0mg"},{"bike_id":"9112184a-b06f-46c9-bfa2-e6c9ec0a29df","system_id":"levelo_inurba_marseille","lat":43.29174,"lon":5.37151,"is_reserved":false,"is_disabled":false,"rental_uris":{"android":"levelo://app?vid=9112184a-b06f-46c9-bfa2-e6c9ec0a29df","ios":"levelo://app?vid=9112184a-b06f-46c9-bfa2-e6c9ec0a29df"},"vehicle_type_id":"4","last_reported":1741018332,"current_range_meters":12400,"station_id":"ce4bha92rcd13ifvqeh0","pricing_plan_id":"cebpf4jnsgd1na2vs0mg"},{"bike_id":"9a386038-9cc6-4b52-b406-e6a33e3dcf23","system_id":"levelo_inurba_marseille","lat":43.28459,"lon":5.35877,"is_reserved":false,"is_disabled":false,"rental_uris":{"android":"levelo://app?vid=9a386038-9cc6-4b52-b406-e6a33e3dcf23","ios":"levelo://app?vid=9a386038-9cc6-4b52-b406-e6a33e3dcf23"},"vehicle_type_id":"4","last_reported":1741018332,"current_range_meters":12400,"station_id":"ce4bhah2rcd13ifvqei0","pricing_plan_id":"cebpf4jnsgd1na2vs0mg"},{"bike_id":"b45022ec-ca77-4b0b-80a9-5d5d9d740a41","system_id":"levelo_inurba_marseille","lat":43.27903,"lon":5.38007,"is_reserved":false,"is_disabled":false,"rental_uris":{"android":"levelo://app?vid=b45022ec-ca77-4b0b-80a9-5d5d9d740a41","ios":"levelo://app?vid=b45022ec-ca77-4b0b-80a9-5d5d9d740a41"},"vehicle_type_id":"4","last_reported":1741018332,"current_range_meters":12400,"station_id":"ce4bhf92rcd13ifvqf50","pricing_plan_id":"cebpf4jnsgd1na2vs0mg"},{"bike_id":"0d89586c-ec9e-4b88-ae49-2d57183c04ca","system_id":"levelo_inurba_marseille","lat":43.26498,"lon":5.3954,"is_reserved":false,"is_disabled":false,"rental_uris":{"android":"levelo://app?vid=0d89586c-ec9e-4b88-ae49-2d57183c04ca","ios":"levelo://app?vid=0d89586c-ec9e-4b88-ae49-2d57183c04ca"},"vehicle_type_id":"4","last_reported":1741018332,"current_range_meters":12400,"station_id":"ce4bhi12rcd13ifvqfq0","pricing_plan_id":"cebpf4jnsgd1na2vs0mg"},{"bike_id":"23b4d7b7-405c-4e1f-b5bc-57a10d80c95f","system_id":"levelo_inurba_marseille","lat":43.28703,"lon":5.39993,"is_reserved":false,"is_disabled":false,"rental_uris":{"android":"levelo://app?vid=23b4d7b7-405c-4e1f-b5bc-57a10d80c95f","ios":"levelo://app?vid=23b4d7b7-405c-4e1f-b5bc-57a10d80c95f"},"vehicle_type_id":"4","last_reported":1741018332,"current_range_meters":12800,"station_id":"ce4bho92rcd13ifvqh3g","pricing_plan_id":"cebpf4jnsgd1na2vs0mg"},{"bike_id":"b4918684-1da3-42af-a304-594e1caf27f7","system_id":"levelo_inurba_marseille","lat":43.301046,"lon":5.400682,"is_reserved":false,"is_disabled":false,"rental_uris":{"android":"levelo://app?vid=b4918684-1da3-42af-a304-594e1caf27f7","ios":"levelo://app?vid=b4918684-1da3-42af-a304-594e1caf27f7"},"vehicle_type_id":"4","last_reported":1741018332,"current_range_meters":12800,"station_id":"ce4bhq92rcd13ifvqhkg","pricing_plan_id":"cebpf4jnsgd1na2vs0mg"},{"bike_id":"fdb821c5-742a-4489-8b07-a7850870bd54","system_id":"levelo_inurba_marseille","lat":43.28459,"lon":5.35884,"is_reserved":false,"is_disabled":false,"rental_uris":{"android":"levelo://app?vid=fdb821c5-742a-4489-8b07-a7850870bd54","ios":"levelo://app?vid=fdb821c5-742a-4489-8b07-a7850870bd54"},"vehicle_type_id":"4","last_reported":1741018332,"current_range_meters":13600,"station_id":"ce4bhah2rcd13ifvqei0","pricing_plan_id":"cebpf4jnsgd1na2vs0mg"},{"bike_id":"102de46f-1f3d-42c6-b125-cb45380886c0","system_id":"levelo_inurba_marseille","lat":43.28459,"lon":5.3588,"is_reserved":false,"is_disabled":false,"rental_uris":{"android":"levelo://app?vid=102de46f-1f3d-42c6-b125-cb45380886c0","ios":"levelo://app?vid=102de46f-1f3d-42c6-b125-cb45380886c0"},"vehicle_type_id":"4","last_reported":1741018332,"current_range_meters":13600,"station_id":"ce4bhah2rcd13ifvqei0","pricing_plan_id":"cebpf4jnsgd1na2vs0mg"},{"bike_id":"7ec71891-18f7-49c4-bb3f-f18bb7528e5a","system_id":"levelo_inurba_marseille","lat":43.28409,"lon":5.34974,"is_reserved":false,"is_disabled":false,"rental_uris":{"android":"levelo://app?vid=7ec71891-18f7-49c4-bb3f-f18bb7528e5a","ios":"levelo://app?vid=7ec71891-18f7-49c4-bb3f-f18bb7528e5a"},"vehicle_type_id":"4","last_reported":1741018332,"current_range_meters":13600,"station_id":"ce4bhbh2rcd13ifvqepg","pricing_plan_id":"cebpf4jnsgd1na2vs0mg"},{"bike_id":"bce611a7-5044-470a-9dc2-ccdbc1151c5c","system_id":"levelo_inurba_marseille","lat":43.32494,"lon":5.36572,"is_reserved":false,"is_disabled":false,"rental_uris":{"android":"levelo://app?vid=bce611a7-5044-470a-9dc2-ccdbc1151c5c","ios":"levelo://app?vid=bce611a7-5044-470a-9dc2-ccdbc1151c5c"},"vehicle_type_id":"4","last_reported":1741018332,"current_range_meters":13600,"station_id":"ce4bhs12rcd13ifvqhvg","pricing_plan_id":"cebpf4jnsgd1na2vs0mg"},{"bike_id":"a9eb9414-2a65-4d88-b570-c89f28729dd2","system_id":"levelo_inurba_marseille","lat":43.23075,"lon":5.35499,"is_reserved":false,"is_disabled":false,"rental_uris":{"android":"levelo://app?vid=a9eb9414-2a65-4d88-b570-c89f28729dd2","ios":"levelo://app?vid=a9eb9414-2a65-4d88-b570-c89f28729dd2"},"vehicle_type_id":"4","last_reported":1741018332,"current_range_meters":13600,"station_id":"cpo3342slgdg3j2ifvpg","pricing_plan_id":"cebpf4jnsgd1na2vs0mg"},{"bike_id":"fa7beafc-22a9-44e9-8b79-d21526b778dc","system_id":"levelo_inurba_marseille","lat":43.30327,"lon":5.40424,"is_reserved":false,"is_disabled":false,"rental_uris":{"android":"levelo://app?vid=fa7beafc-22a9-44e9-8b79-d21526b778dc","ios":"levelo://app?vid=fa7beafc-22a9-44e9-8b79-d21526b778dc"},"vehicle_type_id":"4","last_reported":1741018332,"current_range_meters":14000,"station_id":"ce4bh012rcd13ifvqd10","pricing_plan_id":"cebpf4jnsgd1na2vs0mg"},{"bike_id":"e96befb5-2592-4223-88de-8263a1712a27","system_id":"levelo_inurba_marseille","lat":43.28413,"lon":5.3751,"is_reserved":false,"is_disabled":false,"rental_uris":{"android":"levelo://app?vid=e96befb5-2592-4223-88de-8263a1712a27","ios":"levelo://app?vid=e96befb5-2592-4223-88de-8263a1712a27"},"vehicle_type_id":"4","last_reported":1741018332,"current_range_meters":14000,"station_id":"ce4bh412rcd13ifvqds0","pricing_plan_id":"cebpf4jnsgd1na2vs0mg"},{"bike_id":"923a7320-a0a7-468e-97eb-20f12ca141af","system_id":"levelo_inurba_marseille","lat":43.25006,"lon":5.38911,"is_reserved":false,"is_disabled":false,"rental_uris":{"android":"levelo://app?vid=923a7320-a0a7-468e-97eb-20f12ca141af","ios":"levelo://app?vid=923a7320-a0a7-468e-97eb-20f12ca141af"},"vehicle_type_id":"4","last_reported":1741018332,"current_range_meters":14000,"station_id":"ce4bhgp2rcd13ifvqfd0","pricing_plan_id":"cebpf4jnsgd1na2vs0mg"},{"bike_id":"924cf8f9-8467-4f42-87fe-cdea8185e9f6","system_id":"levelo_inurba_marseille","lat":43.296326,"lon":5.422564,"is_reserved":false,"is_disabled":false,"rental_uris":{"android":"levelo://app?vid=924cf8f9-8467-4f42-87fe-cdea8185e9f6","ios":"levelo://app?vid=924cf8f9-8467-4f42-87fe-cdea8185e9f6"},"vehicle_type_id":"4","last_reported":1741018332,"current_range_meters":14000,"station_id":"ce4bhop2rcd13ifvqh7g","pricing_plan_id":"cebpf4jnsgd1na2vs0mg"},{"bike_id":"cb813df4-3836-4634-974a-d02d99a32d8a","system_id":"levelo_inurba_marseille","lat":43.32705,"lon":5.39232,"is_reserved":false,"is_disabled":false,"rental_uris":{"android":"levelo://app?vid=cb813df4-3836-4634-974a-d02d99a32d8a","ios":"levelo://app?vid=cb813df4-3836-4634-974a-d02d99a32d8a"},"vehicle_type_id":"4","last_reported":1741018332,"current_range_meters":14400,"station_id":"","pricing_plan_id":"cebpf4jnsgd1na2vs0mg"},{"bike_id":"e7ec1ac1-2323-47bd-a2b5-7cd3afb282cf","system_id":"levelo_inurba_marseille","lat":43.26553,"lon":5.37295,"is_reserved":false,"is_disabled":false,"rental_uris":{"android":"levelo://app?vid=e7ec1ac1-2323-47bd-a2b5-7cd3afb282cf","ios":"levelo://app?vid=e7ec1ac1-2323-47bd-a2b5-7cd3afb282cf"},"vehicle_type_id":"4","last_reported":1741018332,"current_range_meters":14400,"station_id":"ce4bhg12rcd13ifvqf70","pricing_plan_id":"cebpf4jnsgd1na2vs0mg"},{"bike_id":"9de42f25-f760-4086-9a08-2934eee1b520","system_id":"levelo_inurba_marseille","lat":43.21272,"lon":5.35344,"is_reserved":false,"is_disabled":false,"rental_uris":{"android":"levelo://app?vid=9de42f25-f760-4086-9a08-2934eee1b520","ios":"levelo://app?vid=9de42f25-f760-4086-9a08-2934eee1b520"},"vehicle_type_id":"4","last_reported":1741018332,"current_range_meters":14800,"station_id":"","pricing_plan_id":"cebpf4jnsgd1na2vs0mg"},{"bike_id":"33d78023-4d5b-48ce-9665-2809bebb67ae","system_id":"levelo_inurba_marseille","lat":43.28464,"lon":5.35866,"is_reserved":false,"is_disabled":false,"rental_uris":{"android":"levelo://app?vid=33d78023-4d5b-48ce-9665-2809bebb67ae","ios":"levelo://app?vid=33d78023-4d5b-48ce-9665-2809bebb67ae"},"vehicle_type_id":"4","last_reported":1741018332,"current_range_meters":14800,"station_id":"ce4bhah2rcd13ifvqei0","pricing_plan_id":"cebpf4jnsgd1na2vs0mg"},{"bike_id":"b4bd6386-be27-468e-9ef5-b7a6a01fd6a0","system_id":"levelo_inurba_marseille","lat":43.28619,"lon":5.351,"is_reserved":false,"is_disabled":false,"rental_uris":{"android":"levelo://app?vid=b4bd6386-be27-468e-9ef5-b7a6a01fd6a0","ios":"levelo://app?vid=b4bd6386-be27-468e-9ef5-b7a6a01fd6a0"},"vehicle_type_id":"4","last_reported":1741018332,"current_range_meters":14800,"station_id":"ce4bhch2rcd13ifvqeug","pricing_plan_id":"cebpf4jnsgd1na2vs0mg"},{"bike_id":"cb014a6b-6553-43cb-90ee-c6d22cf5883f","system_id":"levelo_inurba_marseille","lat":43.26065,"lon":5.393847,"is_reserved":false,"is_disabled":false,"rental_uris":{"android":"levelo://app?vid=cb014a6b-6553-43cb-90ee-c6d22cf5883f","ios":"levelo://app?vid=cb014a6b-6553-43cb-90ee-c6d22cf5883f"},"vehicle_type_id":"4","last_reported":1741018332,"current_range_meters":14800,"station_id":"ce4bhh92rcd13ifvqfj0","pricing_plan_id":"cebpf4jnsgd1na2vs0mg"},{"bike_id":"44a7153b-0fd7-4509-836b-676bbf84fb06","system_id":"levelo_inurba_marseille","lat":43.23194,"lon":5.35568,"is_reserved":false,"is_disabled":false,"rental_uris":{"android":"levelo://app?vid=44a7153b-0fd7-4509-836b-676bbf84fb06","ios":"levelo://app?vid=44a7153b-0fd7-4509-836b-676bbf84fb06"},"vehicle_type_id":"4","last_reported":1741018332,"current_range_meters":14800,"station_id":"ce4bhu92rcd13ifvqi70","pricing_plan_id":"cebpf4jnsgd1na2vs0mg"},{"bike_id":"e6c11360-818e-480f-8c1f-ade82f3a0f37","system_id":"levelo_inurba_marseille","lat":43.23155,"lon":5.43712,"is_reserved":false,"is_disabled":false,"rental_uris":{"android":"levelo://app?vid=e6c11360-818e-480f-8c1f-ade82f3a0f37","ios":"levelo://app?vid=e6c11360-818e-480f-8c1f-ade82f3a0f37"},"vehicle_type_id":"4","last_reported":1741018332,"current_range_meters":15200,"station_id":"ce4bhmp2rcd13ifvqgog","pricing_plan_id":"cebpf4jnsgd1na2vs0mg"},{"bike_id":"172b283a-f30f-46db-b1bb-42f003cdd762","system_id":"levelo_inurba_marseille","lat":43.31084,"lon":5.36785,"is_reserved":false,"is_disabled":false,"rental_uris":{"android":"levelo://app?vid=172b283a-f30f-46db-b1bb-42f003cdd762","ios":"levelo://app?vid=172b283a-f30f-46db-b1bb-42f003cdd762"},"vehicle_type_id":"4","last_reported":1741018332,"current_range_meters":16000,"station_id":"","pricing_plan_id":"cebpf4jnsgd1na2vs0mg"},{"bike_id":"ee1d2ad1-36ca-49dd-a328-f2a9a9994ecb","system_id":"levelo_inurba_marseille","lat":43.31063,"lon":5.38141,"is_reserved":false,"is_disabled":false,"rental_uris":{"android":"levelo://app?vid=ee1d2ad1-36ca-49dd-a328-f2a9a9994ecb","ios":"levelo://app?vid=ee1d2ad1-36ca-49dd-a328-f2a9a9994ecb"},"vehicle_type_id":"4","last_reported":1741018332,"current_range_meters":16000,"station_id":"","pricing_plan_id":"cebpf4jnsgd1na2vs0mg"},{"bike_id":"1c1e8097-5026-4ae8-b4fa-9adf704e6d9a","system_id":"levelo_inurba_marseille","lat":43.28617,"lon":5.35106,"is_reserved":false,"is_disabled":false,"rental_uris":{"android":"levelo://app?vid=1c1e8097-5026-4ae8-b4fa-9adf704e6d9a","ios":"levelo://app?vid=1c1e8097-5026-4ae8-b4fa-9adf704e6d9a"},"vehicle_type_id":"4","last_reported":1741018332,"current_range_meters":16000,"station_id":"ce4bhch2rcd13ifvqeug","pricing_plan_id":"cebpf4jnsgd1na2vs0mg"},{"bike_id":"b5d5d23f-f33e-462b-9e54-3157c718d4a1","system_id":"levelo_inurba_marseille","lat":43.26215,"lon":5.37444,"is_reserved":false,"is_disabled":false,"rental_uris":{"android":"levelo://app?vid=b5d5d23f-f33e-462b-9e54-3157c718d4a1","ios":"levelo://app?vid=b5d5d23f-f33e-462b-9e54-3157c718d4a1"},"vehicle_type_id":"4","last_reported":1741018332,"current_range_meters":16000,"station_id":"ce4bhgp2rcd13ifvqfc0","pricing_plan_id":"cebpf4jnsgd1na2vs0mg"},{"bike_id":"152cf979-241f-4ed7-8891-0a364bdf5c74","system_id":"levelo_inurba_marseille","lat":43.2781,"lon":5.40703,"is_reserved":false,"is_disabled":false,"rental_uris":{"android":"levelo://app?vid=152cf979-241f-4ed7-8891-0a364bdf5c74","ios":"levelo://app?vid=152cf979-241f-4ed7-8891-0a364bdf5c74"},"vehicle_type_id":"4","last_reported":1741018332,"current_range_meters":16000,"station_id":"ce4bhnh2rcd13ifvqgtg","pricing_plan_id":"cebpf4jnsgd1na2vs0mg"},{"bike_id":"86d22bff-a114-4024-9d5b-75b4292b6b49","system_id":"levelo_inurba_marseille","lat":43.28003,"lon":5.40024,"is_reserved":false,"is_disabled":false,"rental_uris":{"android":"levelo://app?vid=86d22bff-a114-4024-9d5b-75b4292b6b49","ios":"levelo://app?vid=86d22bff-a114-4024-9d5b-75b4292b6b49"},"vehicle_type_id":"4","last_reported":1741018332,"current_range_meters":16000,"station_id":"ce4bho92rcd13ifvqh4g","pricing_plan_id":"cebpf4jnsgd1na2vs0mg"},{"bike_id":"5e9b2fba-6403-4937-a892-60e4938c72e5","system_id":"levelo_inurba_marseille","lat":43.34137,"lon":5.4092,"is_reserved":false,"is_disabled":false,"rental_uris":{"android":"levelo://app?vid=5e9b2fba-6403-4937-a892-60e4938c72e5","ios":"levelo://app?vid=5e9b2fba-6403-4937-a892-60e4938c72e5"},"vehicle_type_id":"4","last_reported":1741018332,"current_range_meters":16000,"station_id":"ce4bhqh2rcd13ifvqhlg","pricing_plan_id":"cebpf4jnsgd1na2vs0mg"},{"bike_id":"2088d297-ac0e-4674-b1cb-86b29bb33a9f","system_id":"levelo_inurba_marseille","lat":43.25009,"lon":5.38925,"is_reserved":false,"is_disabled":false,"rental_uris":{"android":"levelo://app?vid=2088d297-ac0e-4674-b1cb-86b29bb33a9f","ios":"levelo://app?vid=2088d297-ac0e-4674-b1cb-86b29bb33a9f"},"vehicle_type_id":"4","last_reported":1741018332,"current_range_meters":16400,"station_id":"ce4bhgp2rcd13ifvqfd0","pricing_plan_id":"cebpf4jnsgd1na2vs0mg"},{"bike_id":"29b9226f-45a7-47ff-856e-eb7a55c2cf75","system_id":"levelo_inurba_marseille","lat":43.23965,"lon":5.36624,"is_reserved":false,"is_disabled":false,"rental_uris":{"android":"levelo://app?vid=29b9226f-45a7-47ff-856e-eb7a55c2cf75","ios":"levelo://app?vid=29b9226f-45a7-47ff-856e-eb7a55c2cf75"},"vehicle_type_id":"4","last_reported":1741018332,"current_range_meters":16400,"station_id":"ce4bhi12rcd13ifvqfp0","pricing_plan_id":"cebpf4jnsgd1na2vs0mg"},{"bike_id":"28e392b6-5b77-471a-97b1-6139d541f107","system_id":"levelo_inurba_marseille","lat":43.2933,"lon":5.399491,"is_reserved":false,"is_disabled":false,"rental_uris":{"android":"levelo://app?vid=28e392b6-5b77-471a-97b1-6139d541f107","ios":"levelo://app?vid=28e392b6-5b77-471a-97b1-6139d541f107"},"vehicle_type_id":"4","last_reported":1741018332,"current_range_meters":16800,"station_id":"ce4bgrp2rcd13ifvqc9g","pricing_plan_id":"cebpf4jnsgd1na2vs0mg"},{"bike_id":"6b3d8d85-9651-4c0b-988c-72085ff598bb","system_id":"levelo_inurba_marseille","lat":43.29039,"lon":5.39958,"is_reserved":false,"is_disabled":false,"rental_uris":{"android":"levelo://app?vid=6b3d8d85-9651-4c0b-988c-72085ff598bb","ios":"levelo://app?vid=6b3d8d85-9651-4c0b-988c-72085ff598bb"},"vehicle_type_id":"4","last_reported":1741018332,"current_range_meters":16800,"station_id":"ce4bh392rcd13ifvqdm0","pricing_plan_id":"cebpf4jnsgd1na2vs0mg"},{"bike_id":"63c9bd76-4f9c-474e-a828-b94928669e49","system_id":"levelo_inurba_marseille","lat":43.290684,"lon":5.372217,"is_reserved":false,"is_disabled":false,"rental_uris":{"android":"levelo://app?vid=63c9bd76-4f9c-474e-a828-b94928669e49","ios":"levelo://app?vid=63c9bd76-4f9c-474e-a828-b94928669e49"},"vehicle_type_id":"4","last_reported":1741018332,"current_range_meters":16800,"station_id":"ce4bhah2rcd13ifvqei0","pricing_plan_id":"cebpf4jnsgd1na2vs0mg"},{"bike_id":"d0b2a7d9-2ac3-4be1-a8da-4bf4503e5466","system_id":"levelo_inurba_marseille","lat":43.28624,"lon":5.35109,"is_reserved":false,"is_disabled":false,"rental_uris":{"android":"levelo://app?vid=d0b2a7d9-2ac3-4be1-a8da-4bf4503e5466","ios":"levelo://app?vid=d0b2a7d9-2ac3-4be1-a8da-4bf4503e5466"},"vehicle_type_id":"4","last_reported":1741018332,"current_range_meters":16800,"station_id":"ce4bhch2rcd13ifvqeug","pricing_plan_id":"cebpf4jnsgd1na2vs0mg"},{"bike_id":"6160fb56-c7f9-48dd-839d-2e9f744496e2","system_id":"levelo_inurba_marseille","lat":43.23182,"lon":5.3999,"is_reserved":false,"is_disabled":false,"rental_uris":{"android":"levelo://app?vid=6160fb56-c7f9-48dd-839d-2e9f744496e2","ios":"levelo://app?vid=6160fb56-c7f9-48dd-839d-2e9f744496e2"},"vehicle_type_id":"4","last_reported":1741018332,"current_range_meters":16800,"station_id":"ce4bhn12rcd13ifvqgqg","pricing_plan_id":"cebpf4jnsgd1na2vs0mg"},{"bike_id":"74ce45f9-6658-41b3-85dd-7152292cd679","system_id":"levelo_inurba_marseille","lat":43.30345,"lon":5.4187,"is_reserved":false,"is_disabled":false,"rental_uris":{"android":"levelo://app?vid=74ce45f9-6658-41b3-85dd-7152292cd679","ios":"levelo://app?vid=74ce45f9-6658-41b3-85dd-7152292cd679"},"vehicle_type_id":"4","last_reported":1741018332,"current_range_meters":16800,"station_id":"ce4bhop2rcd13ifvqh7g","pricing_plan_id":"cebpf4jnsgd1na2vs0mg"},{"bike_id":"e9806cc7-bdf0-40a4-88ca-370f31c3e9de","system_id":"levelo_inurba_marseille","lat":43.30531,"lon":5.36723,"is_reserved":false,"is_disabled":false,"rental_uris":{"android":"levelo://app?vid=e9806cc7-bdf0-40a4-88ca-370f31c3e9de","ios":"levelo://app?vid=e9806cc7-bdf0-40a4-88ca-370f31c3e9de"},"vehicle_type_id":"4","last_reported":1741018332,"current_range_meters":17200,"station_id":"ce4bgrp2rcd13ifvqc9g","pricing_plan_id":"cebpf4jnsgd1na2vs0mg"},{"bike_id":"31e8bd49-9d82-4485-bd12-3b4ff1304b2e","system_id":"levelo_inurba_marseille","lat":43.3055,"lon":5.36507,"is_reserved":false,"is_disabled":false,"rental_uris":{"android":"levelo://app?vid=31e8bd49-9d82-4485-bd12-3b4ff1304b2e","ios":"levelo://app?vid=31e8bd49-9d82-4485-bd12-3b4ff1304b2e"},"vehicle_type_id":"4","last_reported":1741018332,"current_range_meters":17200,"station_id":"ce4bgs12rcd13ifvqcag","pricing_plan_id":"cebpf4jnsgd1na2vs0mg"},{"bike_id":"eba754a0-2641-4f75-8880-ea27667b20b5","system_id":"levelo_inurba_marseille","lat":43.301473,"lon":5.374188,"is_reserved":false,"is_disabled":false,"rental_uris":{"android":"levelo://app?vid=eba754a0-2641-4f75-8880-ea27667b20b5","ios":"levelo://app?vid=eba754a0-2641-4f75-8880-ea27667b20b5"},"vehicle_type_id":"4","last_reported":1741018332,"current_range_meters":17200,"station_id":"ce4bgs92rcd13ifvqcc0","pricing_plan_id":"cebpf4jnsgd1na2vs0mg"},{"bike_id":"bceefa18-3210-470b-a055-75e2385cf62f","system_id":"levelo_inurba_marseille","lat":43.23147,"lon":5.43707,"is_reserved":false,"is_disabled":false,"rental_uris":{"android":"levelo://app?vid=bceefa18-3210-470b-a055-75e2385cf62f","ios":"levelo://app?vid=bceefa18-3210-470b-a055-75e2385cf62f"},"vehicle_type_id":"4","last_reported":1741018332,"current_range_meters":17200,"station_id":"ce4bhmp2rcd13ifvqgog","pricing_plan_id":"cebpf4jnsgd1na2vs0mg"},{"bike_id":"6b18c76e-242e-480b-aba1-dc08791e7f06","system_id":"levelo_inurba_marseille","lat":43.28447,"lon":5.3921,"is_reserved":false,"is_disabled":false,"rental_uris":{"android":"levelo://app?vid=6b18c76e-242e-480b-aba1-dc08791e7f06","ios":"levelo://app?vid=6b18c76e-242e-480b-aba1-dc08791e7f06"},"vehicle_type_id":"4","last_reported":1741018332,"current_range_meters":17200,"station_id":"ce4bhoh2rcd13ifvqh5g","pricing_plan_id":"cebpf4jnsgd1na2vs0mg"},{"bike_id":"e0bbd19f-dbed-424f-998c-e43cb85c9ec3","system_id":"levelo_inurba_marseille","lat":43.24155,"lon":5.36442,"is_reserved":false,"is_disabled":false,"rental_uris":{"android":"levelo://app?vid=e0bbd19f-dbed-424f-998c-e43cb85c9ec3","ios":"levelo://app?vid=e0bbd19f-dbed-424f-998c-e43cb85c9ec3"},"vehicle_type_id":"4","last_reported":1741018332,"current_range_meters":17200,"station_id":"cpo36qri1sfpv3e86is0","pricing_plan_id":"cebpf4jnsgd1na2vs0mg"},{"bike_id":"21d576ee-ad99-4344-99a6-48a7647dc728","system_id":"levelo_inurba_marseille","lat":43.32929,"lon":5.43018,"is_reserved":false,"is_disabled":false,"rental_uris":{"android":"levelo://app?vid=21d576ee-ad99-4344-99a6-48a7647dc728","ios":"levelo://app?vid=21d576ee-ad99-4344-99a6-48a7647dc728"},"vehicle_type_id":"4","last_reported":1741018332,"current_range_meters":17600,"station_id":"","pricing_plan_id":"cebpf4jnsgd1na2vs0mg"},{"bike_id":"d7ef5145-0bca-4f45-a0cf-6b1d49f6690d","system_id":"levelo_inurba_marseille","lat":43.3138,"lon":5.39181,"is_reserved":false,"is_disabled":false,"rental_uris":{"android":"levelo://app?vid=d7ef5145-0bca-4f45-a0cf-6b1d49f6690d","ios":"levelo://app?vid=d7ef5145-0bca-4f45-a0cf-6b1d49f6690d"},"vehicle_type_id":"4","last_reported":1741018332,"current_range_meters":17600,"station_id":"","pricing_plan_id":"cebpf4jnsgd1na2vs0mg"},{"bike_id":"4307548c-40fe-4b0f-bc3f-446e6e0e5c04","system_id":"levelo_inurba_marseille","lat":43.303192,"lon":5.404415,"is_reserved":false,"is_disabled":false,"rental_uris":{"android":"levelo://app?vid=4307548c-40fe-4b0f-bc3f-446e6e0e5c04","ios":"levelo://app?vid=4307548c-40fe-4b0f-bc3f-446e6e0e5c04"},"vehicle_type_id":"4","last_reported":1741018332,"current_range_meters":17600,"station_id":"ce4bh012rcd13ifvqd10","pricing_plan_id":"cebpf4jnsgd1na2vs0mg"},{"bike_id":"6e789d1d-c6da-46bf-bcc2-09cc02517071","system_id":"levelo_inurba_marseille","lat":43.287048,"lon":5.37382,"is_reserved":false,"is_disabled":false,"rental_uris":{"android":"levelo://app?vid=6e789d1d-c6da-46bf-bcc2-09cc02517071","ios":"levelo://app?vid=6e789d1d-c6da-46bf-bcc2-09cc02517071"},"vehicle_type_id":"4","last_reported":1741018332,"current_range_meters":17600,"station_id":"ce4bh3p2rcd13ifvqdq0","pricing_plan_id":"cebpf4jnsgd1na2vs0mg"},{"bike_id":"72780dc2-382e-409a-8618-df4d476a4786","system_id":"levelo_inurba_marseille","lat":43.292511,"lon":5.383838,"is_reserved":false,"is_disabled":false,"rental_uris":{"android":"levelo://app?vid=72780dc2-382e-409a-8618-df4d476a4786","ios":"levelo://app?vid=72780dc2-382e-409a-8618-df4d476a4786"},"vehicle_type_id":"4","last_reported":1741018332,"current_range_meters":17600,"station_id":"ce4bh692rcd13ifvqea0","pricing_plan_id":"cebpf4jnsgd1na2vs0mg"},{"bike_id":"fd909956-04a5-44e6-9c78-4864dbdc7d7b","system_id":"levelo_inurba_marseille","lat":43.28479,"lon":5.38545,"is_reserved":false,"is_disabled":false,"rental_uris":{"android":"levelo://app?vid=fd909956-04a5-44e6-9c78-4864dbdc7d7b","ios":"levelo://app?vid=fd909956-04a5-44e6-9c78-4864dbdc7d7b"},"vehicle_type_id":"4","last_reported":1741018332,"current_range_meters":17600,"station_id":"ce4bh8p2rcd13ifvqeb0","pricing_plan_id":"cebpf4jnsgd1na2vs0mg"},{"bike_id":"811bf25c-9b41-4fd0-9c9f-36e1e5f39574","system_id":"levelo_inurba_marseille","lat":43.28459,"lon":5.35887,"is_reserved":false,"is_disabled":false,"rental_uris":{"android":"levelo://app?vid=811bf25c-9b41-4fd0-9c9f-36e1e5f39574","ios":"levelo://app?vid=811bf25c-9b41-4fd0-9c9f-36e1e5f39574"},"vehicle_type_id":"4","last_reported":1741018332,"current_range_meters":17600,"station_id":"ce4bhah2rcd13ifvqei0","pricing_plan_id":"cebpf4jnsgd1na2vs0mg"},{"bike_id":"642c7792-3e94-4263-87b3-9666d4f3535e","system_id":"levelo_inurba_marseille","lat":43.25491,"lon":5.37648,"is_reserved":false,"is_disabled":false,"rental_uris":{"android":"levelo://app?vid=642c7792-3e94-4263-87b3-9666d4f3535e","ios":"levelo://app?vid=642c7792-3e94-4263-87b3-9666d4f3535e"},"vehicle_type_id":"4","last_reported":1741018332,"current_range_meters":17600,"station_id":"ce4bhh12rcd13ifvqff0","pricing_plan_id":"cebpf4jnsgd1na2vs0mg"},{"bike_id":"5515b2ed-d24a-4958-9699-245f169e22b6","system_id":"levelo_inurba_marseille","lat":43.29557,"lon":5.42278,"is_reserved":false,"is_disabled":false,"rental_uris":{"android":"levelo://app?vid=5515b2ed-d24a-4958-9699-245f169e22b6","ios":"levelo://app?vid=5515b2ed-d24a-4958-9699-245f169e22b6"},"vehicle_type_id":"4","last_reported":1741018332,"current_range_meters":18000,"station_id":"ce4bhph2rcd13ifvqhdg","pricing_plan_id":"cebpf4jnsgd1na2vs0mg"},{"bike_id":"b846147c-e426-4cdb-b475-3f73a9ab69e1","system_id":"levelo_inurba_marseille","lat":43.30501,"lon":5.3654,"is_reserved":false,"is_disabled":false,"rental_uris":{"android":"levelo://app?vid=b846147c-e426-4cdb-b475-3f73a9ab69e1","ios":"levelo://app?vid=b846147c-e426-4cdb-b475-3f73a9ab69e1"},"vehicle_type_id":"4","last_reported":1741018332,"current_range_meters":18800,"station_id":"","pricing_plan_id":"cebpf4jnsgd1na2vs0mg"},{"bike_id":"5a7a56bb-9be1-4ab6-a717-001c3d7eeed3","system_id":"levelo_inurba_marseille","lat":43.30884,"lon":5.39651,"is_reserved":false,"is_disabled":false,"rental_uris":{"android":"levelo://app?vid=5a7a56bb-9be1-4ab6-a717-001c3d7eeed3","ios":"levelo://app?vid=5a7a56bb-9be1-4ab6-a717-001c3d7eeed3"},"vehicle_type_id":"4","last_reported":1741018332,"current_range_meters":18800,"station_id":"ce4bh012rcd13ifvqcv0","pricing_plan_id":"cebpf4jnsgd1na2vs0mg"},{"bike_id":"6910a07e-fe4b-4b43-b720-63da8b05239f","system_id":"levelo_inurba_marseille","lat":43.29257,"lon":5.40906,"is_reserved":false,"is_disabled":false,"rental_uris":{"android":"levelo://app?vid=6910a07e-fe4b-4b43-b720-63da8b05239f","ios":"levelo://app?vid=6910a07e-fe4b-4b43-b720-63da8b05239f"},"vehicle_type_id":"4","last_reported":1741018332,"current_range_meters":18800,"station_id":"ce4bh192rcd13ifvqdc0","pricing_plan_id":"cebpf4jnsgd1na2vs0mg"},{"bike_id":"8a7d481a-8e52-4a2d-a0c3-fd8b06cc6c6c","system_id":"levelo_inurba_marseille","lat":43.28422,"lon":5.37496,"is_reserved":false,"is_disabled":false,"rental_uris":{"android":"levelo://app?vid=8a7d481a-8e52-4a2d-a0c3-fd8b06cc6c6c","ios":"levelo://app?vid=8a7d481a-8e52-4a2d-a0c3-fd8b06cc6c6c"},"vehicle_type_id":"4","last_reported":1741018332,"current_range_meters":18800,"station_id":"ce4bh412rcd13ifvqds0","pricing_plan_id":"cebpf4jnsgd1na2vs0mg"},{"bike_id":"39a77b89-b75f-4883-be75-087f10181b81","system_id":"levelo_inurba_marseille","lat":43.29038,"lon":5.38658,"is_reserved":false,"is_disabled":false,"rental_uris":{"android":"levelo://app?vid=39a77b89-b75f-4883-be75-087f10181b81","ios":"levelo://app?vid=39a77b89-b75f-4883-be75-087f10181b81"},"vehicle_type_id":"4","last_reported":1741018332,"current_range_meters":18800,"station_id":"ce4bh4p2rcd13ifvqe0g","pricing_plan_id":"cebpf4jnsgd1na2vs0mg"},{"bike_id":"65d20a91-b442-479f-b964-bd5571960ec1","system_id":"levelo_inurba_marseille","lat":43.28421,"lon":5.34974,"is_reserved":false,"is_disabled":false,"rental_uris":{"android":"levelo://app?vid=65d20a91-b442-479f-b964-bd5571960ec1","ios":"levelo://app?vid=65d20a91-b442-479f-b964-bd5571960ec1"},"vehicle_type_id":"4","last_reported":1741018332,"current_range_meters":18800,"station_id":"ce4bhbh2rcd13ifvqepg","pricing_plan_id":"cebpf4jnsgd1na2vs0mg"},{"bike_id":"e649adca-6d7b-40a5-be39-924cf99990fa","system_id":"levelo_inurba_marseille","lat":43.292306,"lon":5.360539,"is_reserved":false,"is_disabled":false,"rental_uris":{"android":"levelo://app?vid=e649adca-6d7b-40a5-be39-924cf99990fa","ios":"levelo://app?vid=e649adca-6d7b-40a5-be39-924cf99990fa"},"vehicle_type_id":"4","last_reported":1741018332,"current_range_meters":18800,"station_id":"ce4bhbh2rcd13ifvqeqg","pricing_plan_id":"cebpf4jnsgd1na2vs0mg"},{"bike_id":"88ff713f-e1c8-442c-9a45-ab7079761f30","system_id":"levelo_inurba_marseille","lat":43.26198,"lon":5.37931,"is_reserved":false,"is_disabled":false,"rental_uris":{"android":"levelo://app?vid=88ff713f-e1c8-442c-9a45-ab7079761f30","ios":"levelo://app?vid=88ff713f-e1c8-442c-9a45-ab7079761f30"},"vehicle_type_id":"4","last_reported":1741018332,"current_range_meters":18800,"station_id":"ce4bhjp2rcd13ifvqg90","pricing_plan_id":"cebpf4jnsgd1na2vs0mg"},{"bike_id":"d1ee12b9-92c2-4a0b-b2a8-8fc4862b773c","system_id":"levelo_inurba_marseille","lat":43.27064,"lon":5.40266,"is_reserved":false,"is_disabled":false,"rental_uris":{"android":"levelo://app?vid=d1ee12b9-92c2-4a0b-b2a8-8fc4862b773c","ios":"levelo://app?vid=d1ee12b9-92c2-4a0b-b2a8-8fc4862b773c"},"vehicle_type_id":"4","last_reported":1741018332,"current_range_meters":18800,"station_id":"ce4bhk92rcd13ifvqgc0","pricing_plan_id":"cebpf4jnsgd1na2vs0mg"},{"bike_id":"954be03c-bedc-4d79-b23c-ddf297b60e57","system_id":"levelo_inurba_marseille","lat":43.25085,"lon":5.39527,"is_reserved":false,"is_disabled":false,"rental_uris":{"android":"levelo://app?vid=954be03c-bedc-4d79-b23c-ddf297b60e57","ios":"levelo://app?vid=954be03c-bedc-4d79-b23c-ddf297b60e57"},"vehicle_type_id":"4","last_reported":1741018332,"current_range_meters":18800,"station_id":"ce4bhm12rcd13ifvqgkg","pricing_plan_id":"cebpf4jnsgd1na2vs0mg"},{"bike_id":"47ca7176-dcba-4b9e-8dbb-e2bb239319ab","system_id":"levelo_inurba_marseille","lat":43.31435,"lon":5.38546,"is_reserved":false,"is_disabled":false,"rental_uris":{"android":"levelo://app?vid=47ca7176-dcba-4b9e-8dbb-e2bb239319ab","ios":"levelo://app?vid=47ca7176-dcba-4b9e-8dbb-e2bb239319ab"},"vehicle_type_id":"4","last_reported":1741018332,"current_range_meters":19200,"station_id":"","pricing_plan_id":"cebpf4jnsgd1na2vs0mg"},{"bike_id":"f9556fbd-53f8-4d42-82ab-5e5f47121791","system_id":"levelo_inurba_marseille","lat":43.286133,"lon":5.370705,"is_reserved":false,"is_disabled":false,"rental_uris":{"android":"levelo://app?vid=f9556fbd-53f8-4d42-82ab-5e5f47121791","ios":"levelo://app?vid=f9556fbd-53f8-4d42-82ab-5e5f47121791"},"vehicle_type_id":"4","last_reported":1741018332,"current_range_meters":19200,"station_id":"ce4bgnh2rcd13ifvqc0g","pricing_plan_id":"cebpf4jnsgd1na2vs0mg"},{"bike_id":"4e1bed1b-287e-4f70-bc56-3ba91d26f28d","system_id":"levelo_inurba_marseille","lat":43.29985,"lon":5.37193,"is_reserved":false,"is_disabled":false,"rental_uris":{"android":"levelo://app?vid=4e1bed1b-287e-4f70-bc56-3ba91d26f28d","ios":"levelo://app?vid=4e1bed1b-287e-4f70-bc56-3ba91d26f28d"},"vehicle_type_id":"4","last_reported":1741018332,"current_range_meters":19200,"station_id":"ce4bgr92rcd13ifvqc7g","pricing_plan_id":"cebpf4jnsgd1na2vs0mg"},{"bike_id":"1b961fca-ba90-4c6d-b36e-722773178719","system_id":"levelo_inurba_marseille","lat":43.2669,"lon":5.38274,"is_reserved":false,"is_disabled":false,"rental_uris":{"android":"levelo://app?vid=1b961fca-ba90-4c6d-b36e-722773178719","ios":"levelo://app?vid=1b961fca-ba90-4c6d-b36e-722773178719"},"vehicle_type_id":"4","last_reported":1741018332,"current_range_meters":19200,"station_id":"ce4bhg92rcd13ifvqf90","pricing_plan_id":"cebpf4jnsgd1na2vs0mg"},{"bike_id":"a2b9d686-216a-4f50-ae4b-e7710a444cd6","system_id":"levelo_inurba_marseille","lat":43.2501,"lon":5.38916,"is_reserved":false,"is_disabled":false,"rental_uris":{"android":"levelo://app?vid=a2b9d686-216a-4f50-ae4b-e7710a444cd6","ios":"levelo://app?vid=a2b9d686-216a-4f50-ae4b-e7710a444cd6"},"vehicle_type_id":"4","last_reported":1741018332,"current_range_meters":19200,"station_id":"ce4bhgp2rcd13ifvqfd0","pricing_plan_id":"cebpf4jnsgd1na2vs0mg"},{"bike_id":"9f4efcde-86b9-4924-a0eb-09ac28dc80c3","system_id":"levelo_inurba_marseille","lat":43.25498,"lon":5.37649,"is_reserved":false,"is_disabled":false,"rental_uris":{"android":"levelo://app?vid=9f4efcde-86b9-4924-a0eb-09ac28dc80c3","ios":"levelo://app?vid=9f4efcde-86b9-4924-a0eb-09ac28dc80c3"},"vehicle_type_id":"4","last_reported":1741018332,"current_range_meters":19200,"station_id":"ce4bhh12rcd13ifvqff0","pricing_plan_id":"cebpf4jnsgd1na2vs0mg"},{"bike_id":"7bf597b2-8a01-452c-8ff0-3d5dc892d279","system_id":"levelo_inurba_marseille","lat":43.25103,"lon":5.40326,"is_reserved":false,"is_disabled":false,"rental_uris":{"android":"levelo://app?vid=7bf597b2-8a01-452c-8ff0-3d5dc892d279","ios":"levelo://app?vid=7bf597b2-8a01-452c-8ff0-3d5dc892d279"},"vehicle_type_id":"4","last_reported":1741018332,"current_range_meters":19200,"station_id":"ce4bhlh2rcd13ifvqgig","pricing_plan_id":"cebpf4jnsgd1na2vs0mg"},{"bike_id":"1b3da28a-3680-4bb8-9884-4513d3d6511c","system_id":"levelo_inurba_marseille","lat":43.28078,"lon":5.39665,"is_reserved":false,"is_disabled":false,"rental_uris":{"android":"levelo://app?vid=1b3da28a-3680-4bb8-9884-4513d3d6511c","ios":"levelo://app?vid=1b3da28a-3680-4bb8-9884-4513d3d6511c"},"vehicle_type_id":"4","last_reported":1741018332,"current_range_meters":19200,"station_id":"ce4bho12rcd13ifvqh2g","pricing_plan_id":"cebpf4jnsgd1na2vs0mg"},{"bike_id":"a24f5c4e-4211-4892-b9af-ba7857228c1b","system_id":"levelo_inurba_marseille","lat":43.34142,"lon":5.40909,"is_reserved":false,"is_disabled":false,"rental_uris":{"android":"levelo://app?vid=a24f5c4e-4211-4892-b9af-ba7857228c1b","ios":"levelo://app?vid=a24f5c4e-4211-4892-b9af-ba7857228c1b"},"vehicle_type_id":"4","last_reported":1741018332,"current_range_meters":19200,"station_id":"ce4bhqh2rcd13ifvqhlg","pricing_plan_id":"cebpf4jnsgd1na2vs0mg"},{"bike_id":"4f22ed03-3f01-49f0-87ec-77cf8c324e7e","system_id":"levelo_inurba_marseille","lat":43.30998,"lon":5.38457,"is_reserved":false,"is_disabled":false,"rental_uris":{"android":"levelo://app?vid=4f22ed03-3f01-49f0-87ec-77cf8c324e7e","ios":"levelo://app?vid=4f22ed03-3f01-49f0-87ec-77cf8c324e7e"},"vehicle_type_id":"4","last_reported":1741018332,"current_range_meters":19600,"station_id":"","pricing_plan_id":"cebpf4jnsgd1na2vs0mg"},{"bike_id":"7cd5e07c-ad2a-4af8-99d9-77c41335ce79","system_id":"levelo_inurba_marseille","lat":43.24171,"lon":5.36409,"is_reserved":false,"is_disabled":false,"rental_uris":{"android":"levelo://app?vid=7cd5e07c-ad2a-4af8-99d9-77c41335ce79","ios":"levelo://app?vid=7cd5e07c-ad2a-4af8-99d9-77c41335ce79"},"vehicle_type_id":"4","last_reported":1741018332,"current_range_meters":19600,"station_id":"cpo36qri1sfpv3e86is0","pricing_plan_id":"cebpf4jnsgd1na2vs0mg"},{"bike_id":"3478bdac-8694-4827-9174-5ea39fd02737","system_id":"levelo_inurba_marseille","lat":43.28669,"lon":5.38666,"is_reserved":false,"is_disabled":false,"rental_uris":{"android":"levelo://app?vid=3478bdac-8694-4827-9174-5ea39fd02737","ios":"levelo://app?vid=3478bdac-8694-4827-9174-5ea39fd02737"},"vehicle_type_id":"4","last_reported":1741018332,"current_range_meters":20000,"station_id":"ce4bh492rcd13ifvqdug","pricing_plan_id":"cebpf4jnsgd1na2vs0mg"},{"bike_id":"a0595b2e-dc3c-4f9a-9729-0446e00127e4","system_id":"levelo_inurba_marseille","lat":43.2862,"lon":5.35107,"is_reserved":false,"is_disabled":false,"rental_uris":{"android":"levelo://app?vid=a0595b2e-dc3c-4f9a-9729-0446e00127e4","ios":"levelo://app?vid=a0595b2e-dc3c-4f9a-9729-0446e00127e4"},"vehicle_type_id":"4","last_reported":1741018332,"current_range_meters":20000,"station_id":"ce4bhch2rcd13ifvqeug","pricing_plan_id":"cebpf4jnsgd1na2vs0mg"},{"bike_id":"a166c476-2b05-4738-a9e8-44715766d598","system_id":"levelo_inurba_marseille","lat":43.25495,"lon":5.3765,"is_reserved":false,"is_disabled":false,"rental_uris":{"android":"levelo://app?vid=a166c476-2b05-4738-a9e8-44715766d598","ios":"levelo://app?vid=a166c476-2b05-4738-a9e8-44715766d598"},"vehicle_type_id":"4","last_reported":1741018332,"current_range_meters":20000,"station_id":"ce4bhh12rcd13ifvqff0","pricing_plan_id":"cebpf4jnsgd1na2vs0mg"},{"bike_id":"1e2becb7-aff8-47dc-a38c-8c51d2016658","system_id":"levelo_inurba_marseille","lat":43.28157,"lon":5.42639,"is_reserved":false,"is_disabled":false,"rental_uris":{"android":"levelo://app?vid=1e2becb7-aff8-47dc-a38c-8c51d2016658","ios":"levelo://app?vid=1e2becb7-aff8-47dc-a38c-8c51d2016658"},"vehicle_type_id":"4","last_reported":1741018332,"current_range_meters":20000,"station_id":"ce4bhnh2rcd13ifvqgug","pricing_plan_id":"cebpf4jnsgd1na2vs0mg"},{"bike_id":"cb8f918e-c9fe-4f01-8f92-39117c8d749a","system_id":"levelo_inurba_marseille","lat":43.289348,"lon":5.396277,"is_reserved":false,"is_disabled":false,"rental_uris":{"android":"levelo://app?vid=cb8f918e-c9fe-4f01-8f92-39117c8d749a","ios":"levelo://app?vid=cb8f918e-c9fe-4f01-8f92-39117c8d749a"},"vehicle_type_id":"4","last_reported":1741018332,"current_range_meters":20000,"station_id":"ce4bhnh2rcd13ifvqgug","pricing_plan_id":"cebpf4jnsgd1na2vs0mg"},{"bike_id":"0ec27d6f-b876-4c34-ba71-7d1aea070692","system_id":"levelo_inurba_marseille","lat":43.28091,"lon":5.39659,"is_reserved":false,"is_disabled":false,"rental_uris":{"android":"levelo://app?vid=0ec27d6f-b876-4c34-ba71-7d1aea070692","ios":"levelo://app?vid=0ec27d6f-b876-4c34-ba71-7d1aea070692"},"vehicle_type_id":"4","last_reported":1741018332,"current_range_meters":20000,"station_id":"ce4bho12rcd13ifvqh2g","pricing_plan_id":"cebpf4jnsgd1na2vs0mg"},{"bike_id":"b5a21b71-41d8-4fa3-b32c-f530c5a43dcf","system_id":"levelo_inurba_marseille","lat":43.28081,"lon":5.39663,"is_reserved":false,"is_disabled":false,"rental_uris":{"android":"levelo://app?vid=b5a21b71-41d8-4fa3-b32c-f530c5a43dcf","ios":"levelo://app?vid=b5a21b71-41d8-4fa3-b32c-f530c5a43dcf"},"vehicle_type_id":"4","last_reported":1741018332,"current_range_meters":20000,"station_id":"ce4bho12rcd13ifvqh2g","pricing_plan_id":"cebpf4jnsgd1na2vs0mg"},{"bike_id":"e83fe1b4-c043-431b-bbbb-a67a412ce328","system_id":"levelo_inurba_marseille","lat":43.31999,"lon":5.38149,"is_reserved":false,"is_disabled":false,"rental_uris":{"android":"levelo://app?vid=e83fe1b4-c043-431b-bbbb-a67a412ce328","ios":"levelo://app?vid=e83fe1b4-c043-431b-bbbb-a67a412ce328"},"vehicle_type_id":"4","last_reported":1741018332,"current_range_meters":20000,"station_id":"ce4bhr12rcd13ifvqhpg","pricing_plan_id":"cebpf4jnsgd1na2vs0mg"},{"bike_id":"39e929d3-41ff-4ead-926e-015f85f5ebce","system_id":"levelo_inurba_marseille","lat":43.33023,"lon":5.39042,"is_reserved":false,"is_disabled":false,"rental_uris":{"android":"levelo://app?vid=39e929d3-41ff-4ead-926e-015f85f5ebce","ios":"levelo://app?vid=39e929d3-41ff-4ead-926e-015f85f5ebce"},"vehicle_type_id":"4","last_reported":1741018332,"current_range_meters":20000,"station_id":"ce4bhr92rcd13ifvqhrg","pricing_plan_id":"cebpf4jnsgd1na2vs0mg"},{"bike_id":"d1b0d8af-74ca-42c1-aee0-f3e74625a574","system_id":"levelo_inurba_marseille","lat":43.32462,"lon":5.36545,"is_reserved":false,"is_disabled":false,"rental_uris":{"android":"levelo://app?vid=d1b0d8af-74ca-42c1-aee0-f3e74625a574","ios":"levelo://app?vid=d1b0d8af-74ca-42c1-aee0-f3e74625a574"},"vehicle_type_id":"4","last_reported":1741018332,"current_range_meters":20000,"station_id":"ce4bhs12rcd13ifvqhvg","pricing_plan_id":"cebpf4jnsgd1na2vs0mg"},{"bike_id":"3a2fae29-76b8-42e7-9e2f-9793b2cc812b","system_id":"levelo_inurba_marseille","lat":43.31384,"lon":5.36691,"is_reserved":false,"is_disabled":false,"rental_uris":{"android":"levelo://app?vid=3a2fae29-76b8-42e7-9e2f-9793b2cc812b","ios":"levelo://app?vid=3a2fae29-76b8-42e7-9e2f-9793b2cc812b"},"vehicle_type_id":"4","last_reported":1741018332,"current_range_meters":20400,"station_id":"","pricing_plan_id":"cebpf4jnsgd1na2vs0mg"},{"bike_id":"a18c8560-48c1-45db-bead-93522d9f44cb","system_id":"levelo_inurba_marseille","lat":43.305369,"lon":5.367003,"is_reserved":false,"is_disabled":false,"rental_uris":{"android":"levelo://app?vid=a18c8560-48c1-45db-bead-93522d9f44cb","ios":"levelo://app?vid=a18c8560-48c1-45db-bead-93522d9f44cb"},"vehicle_type_id":"4","last_reported":1741018332,"current_range_meters":20400,"station_id":"ce4bgrp2rcd13ifvqc9g","pricing_plan_id":"cebpf4jnsgd1na2vs0mg"},{"bike_id":"6c98bd2b-8bb5-47a5-9ee0-da34c339f97f","system_id":"levelo_inurba_marseille","lat":43.28471,"lon":5.35864,"is_reserved":false,"is_disabled":false,"rental_uris":{"android":"levelo://app?vid=6c98bd2b-8bb5-47a5-9ee0-da34c339f97f","ios":"levelo://app?vid=6c98bd2b-8bb5-47a5-9ee0-da34c339f97f"},"vehicle_type_id":"4","last_reported":1741018332,"current_range_meters":20400,"station_id":"ce4bhah2rcd13ifvqei0","pricing_plan_id":"cebpf4jnsgd1na2vs0mg"},