{"last_updated":1735692686,"ttl":60,"version":"2.2","data":{"bikes":[{"bike_id":"2f56c5dc-0755-4629-adf9-4349a3b8ebb1","system_id":"levelo_inurba_marseille","lat":43.28169,"lon":5.42642,"is_reserved":false,"is_disabled":false,"rental_uris":{"android":"levelo://app?vid=2f56c5dc-0755-4629-adf9-4349a3b8ebb1","ios":"levelo://app?vid=2f56c5dc-0755-4629-adf9-4349a3b8ebb1"},"vehicle_type_id":"4","last_reported":1735692687,"current_range_meters":25200,"station_id":"ce4bhnh2rcd13ifvqgug","pricing_plan_id":"cebpf4jnsgd1na2vs0mg"},{"bike_id":"001d7466-df2f-4356-8b4b-983d8435ba0e","system_id":"levelo_inurba_marseille","lat":43.29013,"lon":5.38126,"is_reserved":false,"is_disabled":false,"rental_uris":{"android":"levelo://app?vid=001d7466-df2f-4356-8b4b-983d8435ba0e","ios":"levelo://app?vid=001d7466-df2f-4356-8b4b-983d8435ba0e"},"vehicle_type_id":"4","last_reported":1735692687,"current_range_meters":36000,"station_id":"ce4bh4p2rcd13ifvqe1g","pricing_plan_id":"cebpf4jnsgd1na2vs0mg"},{"bike_id":"eebc4850-6ef9-46e6-b48b-57b8c062b998","system_id":"levelo_inurba_marseille","lat":43.28716,"lon":5.37955,"is_reserved":false,"is_disabled":true,"rental_uris":{"android":"levelo://app?vid=eebc4850-6ef9-46e6-b48b-57b8c062b998","ios":"levelo://app?vid=eebc4850-6ef9-46e6-b48b-57b8c062b998"},"vehicle_type_id":"4","last_reported":1735692687,"current_range_meters":20000,"station_id":"ce4bh9p2rcd13ifvqec0","pricing_plan_id":"cebpf4jnsgd1na2vs0mg"},{"bike_id":"d06b5da1-2f20-4593-9d79-0cd21b76f9bd","system_id":"levelo_inurba_marseille","lat":43.27829,"lon":5.39215,"is_reserved":false,"is_disabled":false,"rental_uris":{"android":"levelo://app?vid=d06b5da1-2f20-4593-9d79-0cd21b76f9bd","ios":"levelo://app?vid=d06b5da1-2f20-4593-9d79-0cd21b76f9bd"},"vehicle_type_id":"4","last_reported":1735692687,"current_range_meters":38800,"station_id":"ce4bhjp2rcd13ifvqga0","pricing_plan_id":"cebpf4jnsgd1na2vs0mg"},{"bike_id":"4dbd558f-a25e-45d7-bf79-38d3817f23c4","system_id":"levelo_inurba_marseille","lat":43.30222,"lon":5.39476,"is_reserved":false,"is_disabled":false,"rental_uris":{"android":"levelo://app?vid=4dbd558f-a25e-45d7-bf79-38d3817f23c4","ios":"levelo://app?vid=4dbd558f-a25e-45d7-bf79-38d3817f23c4"},"vehicle_type_id":"4","last_reported":1735692687,"current_range_meters":38800,"station_id":"ce4bh0p2rcd13ifvqd70","pricing_plan_id":"cebpf4jnsgd1na2vs0mg"},{"bike_id":"30675ccc-9ef1-40b1-963e-228cee2b4741","system_id":"levelo_inurba_marseille","lat":43.27956,"lon":5.41052,"is_reserved":false,"is_disabled":true,"rental_uris":{"android":"levelo://app?vid=30675ccc-9ef1-40b1-963e-228cee2b4741","ios":"levelo://app?vid=30675ccc-9ef1-40b1-963e-228cee2b4741"},"vehicle_type_id":"4","last_reported":1735692687,"current_range_meters":23200,"station_id":"ce4bhnp2rcd13ifvqh0g","pricing_plan_id":"cebpf4jnsgd1na2vs0mg"},{"bike_id":"3c223dd6-9a72-4a6f-99b6-ff73313e4ede","system_id":"levelo_inurba_marseille","lat":43.30351,"lon":5.41878,"is_reserved":false,"is_disabled":false,"rental_uris":{"android":"levelo://app?vid=3c223dd6-9a72-4a6f-99b6-ff73313e4ede","ios":"levelo://app?vid=3c223dd6-9a72-4a6f-99b6-ff73313e4ede"},"vehicle_type_id":"4","last_reported":1735692687,"current_range_meters":10000,"station_id":"ce4bhop2rcd13ifvqh7g","pricing_plan_id":"cebpf4jnsgd1na2vs0mg"},{"bike_id":"919d90ff-217d-42a9-bd04-cc1f8e2a42b8","system_id":"levelo_inurba_marseille","lat":43.32532,"lon":5.41454,"is_reserved":false,"is_disabled":false,"rental_uris":{"android":"levelo://app?vid=919d90ff-217d-42a9-bd04-cc1f8e2a42b8","ios":"levelo://app?vid=919d90ff-217d-42a9-bd04-cc1f8e2a42b8"},"vehicle_type_id":"4","last_reported":1735692687,"current_range_meters":19600,"station_id":"ce4bhq12rcd13ifvqhhg","pricing_plan_id":"cebpf4jnsgd1na2vs0mg"},{"bike_id":"3991aac2-ec7f-43c8-801f-23e11845f2d6","system_id":"levelo_inurba_marseille","lat":43.28147,"lon":5.42656,"is_reserved":false,"is_disabled":false,"rental_uris":{"android":"levelo://app?vid=3991aac2-ec7f-43c8-801f-23e11845f2d6","ios":"levelo://app?vid=3991aac2-ec7f-43c8-801f-23e11845f2d6"},"vehicle_type_id":"4","last_reported":1735692687,"current_range_meters":38800,"station_id":"ce4bhnh2rcd13ifvqgug","pricing_plan_id":"cebpf4jnsgd1na2vs0mg"},{"bike_id":"7eb5d5df-4fbb-45f6-9c9b-b41c11f73006","system_id":"levelo_inurba_marseille","lat":43.30882,"lon":5.39657,"is_reserved":false,"is_disabled":false,"rental_uris":{"android":"levelo://app?vid=7eb5d5df-4fbb-45f6-9c9b-b41c11f73006","ios":"levelo://app?vid=7eb5d5df-4fbb-45f6-9c9b-b41c11f73006"},"vehicle_type_id":"4","last_reported":1735692687,"current_range_meters":18800,"station_id":"ce4bh012rcd13ifvqcv0","pricing_plan_id":"cebpf4jnsgd1na2vs0mg"},{"bike_id":"a84c903a-16f0-44ed-becd-c6849674ff70","system_id":"levelo_inurba_marseille","lat":43.22939,"lon":5.35388,"is_reserved":false,"is_disabled":false,"rental_uris":{"android":"levelo://app?vid=a84c903a-16f0-44ed-becd-c6849674ff70","ios":"levelo://app?vid=a84c903a-16f0-44ed-becd-c6849674ff70"},"vehicle_type_id":"4","last_reported":1735692687,"current_range_meters":7200,"station_id":"cpo3532slgdg3j2ikp40","pricing_plan_id":"cebpf4jnsgd1na2vs0mg"},{"bike_id":"fd8f4633-afe2-4be6-b0e9-8ae7cf81f111","system_id":"levelo_inurba_marseille","lat":43.28888,"lon":5.359,"is_reserved":false,"is_disabled":false,"rental_uris":{"android":"levelo://app?vid=fd8f4633-afe2-4be6-b0e9-8ae7cf81f111","ios":"levelo://app?vid=fd8f4633-afe2-4be6-b0e9-8ae7cf81f111"},"vehicle_type_id":"4","last_reported":1735692687,"current_range_meters":34800,"station_id":"","pricing_plan_id":"cebpf4jnsgd1na2vs0mg"},{"bike_id":"c5368e60-c06d-48c1-9101-c813b0e53eeb","system_id":"levelo_inurba_marseille","lat":43.29051,"lon":5.35645,"is_reserved":false,"is_disabled":false,"rental_uris":{"android":"levelo://app?vid=c5368e60-c06d-48c1-9101-c813b0e53eeb","ios":"levelo://app?vid=c5368e60-c06d-48c1-9101-c813b0e53eeb"},"vehicle_type_id":"4","last_reported":1735692687,"current_range_meters":28000,"station_id":"ce4bhb92rcd13ifvqen0","pricing_plan_id":"cebpf4jnsgd1na2vs0mg"},{"bike_id":"d3787518-fc78-4164-9629-25a6b98323d7","system_id":"levelo_inurba_marseille","lat":43.29726,"lon":5.37691,"is_reserved":false,"is_disabled":false,"rental_uris":{"android":"levelo://app?vid=d3787518-fc78-4164-9629-25a6b98323d7","ios":"levelo://app?vid=d3787518-fc78-4164-9629-25a6b98323d7"},"vehicle_type_id":"4","last_reported":1735692687,"current_range_meters":38400,"station_id":"ce4bgkh2rcd13ifvqbl0","pricing_plan_id":"cebpf4jnsgd1na2vs0mg"},{"bike_id":"8ad09b60-3a79-4fc1-9f8d-63dc687108f3","system_id":"levelo_inurba_marseille","lat":43.337444,"lon":5.374475,"is_reserved":false,"is_disabled":false,"rental_uris":{"android":"levelo://app?vid=8ad09b60-3a79-4fc1-9f8d-63dc687108f3","ios":"levelo://app?vid=8ad09b60-3a79-4fc1-9f8d-63dc687108f3"},"vehicle_type_id":"4","last_reported":1735692687,"current_range_meters":36800,"station_id":"","pricing_plan_id":"cebpf4jnsgd1na2vs0mg"},{"bike_id":"aaf2847c-1c33-449a-8a3d-243e799ec2b1","system_id":"levelo_inurba_marseille","lat":43.23968,"lon":5.3664,"is_reserved":false,"is_disabled":false,"rental_uris":{"android":"levelo://app?vid=aaf2847c-1c33-449a-8a3d-243e799ec2b1","ios":"levelo://app?vid=aaf2847c-1c33-449a-8a3d-243e799ec2b1"},"vehicle_type_id":"4","last_reported":1735692687,"current_range_meters":38800,"station_id":"ce4bhi12rcd13ifvqfp0","pricing_plan_id":"cebpf4jnsgd1na2vs0mg"},{"bike_id":"48834547-7fb9-4802-b7fe-caea1ee393b9","system_id":"levelo_inurba_marseille","lat":43.27904,"lon":5.37995,"is_reserved":false,"is_disabled":false,"rental_uris":{"android":"levelo://app?vid=48834547-7fb9-4802-b7fe-caea1ee393b9","ios":"levelo://app?vid=48834547-7fb9-4802-b7fe-caea1ee393b9"},"vehicle_type_id":"4","last_reported":1735692687,"current_range_meters":38800,"station_id":"ce4bhf92rcd13ifvqf50","pricing_plan_id":"cebpf4jnsgd1na2vs0mg"},{"bike_id":"5430a545-a0f1-45ad-a500-b4193006fdcf","system_id":"levelo_inurba_marseille","lat":43.23203,"lon":5.35518,"is_reserved":false,"is_disabled":false,"rental_uris":{"android":"levelo://app?vid=5430a545-a0f1-45ad-a500-b4193006fdcf","ios":"levelo://app?vid=5430a545-a0f1-45ad-a500-b4193006fdcf"},"vehicle_type_id":"4","last_reported":1735692687,"current_range_meters":28000,"station_id":"ce4bhu92rcd13ifvqi70","pricing_plan_id":"cebpf4jnsgd1na2vs0mg"},{"bike_id":"69cd2585-5330-4ff1-bebd-9e077966ee68","system_id":"levelo_inurba_marseille","lat":43.25502,"lon":5.37675,"is_reserved":false,"is_disabled":false,"rental_uris":{"android":"levelo://app?vid=69cd2585-5330-4ff1-bebd-9e077966ee68","ios":"levelo://app?vid=69cd2585-5330-4ff1-bebd-9e077966ee68"},"vehicle_type_id":"4","last_reported":1735692687,"current_range_meters":27200,"station_id":"ce4bhh12rcd13ifvqff0","pricing_plan_id":"cebpf4jnsgd1na2vs0mg"},{"bike_id":"aa4fcdb8-7919-4e96-9fad-bb7045a210c7","system_id":"levelo_inurba_marseille","lat":43.30888,"lon":5.3965,"is_reserved":false,"is_disabled":false,"rental_uris":{"android":"levelo://app?vid=aa4fcdb8-7919-4e96-9fad-bb7045a210c7","ios":"levelo://app?vid=aa4fcdb8-7919-4e96-9fad-bb7045a210c7"},"vehicle_type_id":"4","last_reported":1735692687,"current_range_meters":32800,"station_id":"ce4bh012rcd13ifvqcv0","pricing_plan_id":"cebpf4jnsgd1na2vs0mg"},{"bike_id":"ebb56956-e2e2-4f51-8f7a-80ccc26c078c","system_id":"levelo_inurba_marseille","lat":43.28154,"lon":5.42631,"is_reserved":false,"is_disabled":false,"rental_uris":{"android":"levelo://app?vid=ebb56956-e2e2-4f51-8f7a-80ccc26c078c","ios":"levelo://app?vid=ebb56956-e2e2-4f51-8f7a-80ccc26c078c"},"vehicle_type_id":"4","last_reported":1735692687,"current_range_meters":38800,"station_id":"ce4bhnh2rcd13ifvqgug","pricing_plan_id":"cebpf4jnsgd1na2vs0mg"},{"bike_id":"95eafe76-446b-4b24-b2e2-5597fd0c25f7","system_id":"levelo_inurba_marseille","lat":43.29925,"lon":5.37475,"is_reserved":false,"is_disabled":false,"rental_uris":{"android":"levelo://app?vid=95eafe76-446b-4b24-b2e2-5597fd0c25f7","ios":"levelo://app?vid=95eafe76-446b-4b24-b2e2-5597fd0c25f7"},"vehicle_type_id":"4","last_reported":1735692687,"current_range_meters":27200,"station_id":"ce4bgjh2rcd13ifvqbg0","pricing_plan_id":"cebpf4jnsgd1na2vs0mg"},{"bike_id":"d1b43656-444a-4c4e-9bbc-6942224e2fdb","system_id":"levelo_inurba_marseille","lat":43.29256,"lon":5.38441,"is_reserved":false,"is_disabled":false,"rental_uris":{"android":"levelo://app?vid=d1b43656-444a-4c4e-9bbc-6942224e2fdb","ios":"levelo://app?vid=d1b43656-444a-4c4e-9bbc-6942224e2fdb"},"vehicle_type_id":"4","last_reported":1735692687,"current_range_meters":24800,"station_id":"ce4bh692rcd13ifvqea0","pricing_plan_id":"cebpf4jnsgd1na2vs0mg"},{"bike_id":"130216fe-4347-436d-a9ad-8cc79303e7ce","system_id":"levelo_inurba_marseille","lat":43.23182,"lon":5.39996,"is_reserved":false,"is_disabled":false,"rental_uris":{"android":"levelo://app?vid=130216fe-4347-436d-a9ad-8cc79303e7ce","ios":"levelo://app?vid=130216fe-4347-436d-a9ad-8cc79303e7ce"},"vehicle_type_id":"4","last_reported":1735692687,"current_range_meters":27600,"station_id":"ce4bhn12rcd13ifvqgqg","pricing_plan_id":"cebpf4jnsgd1na2vs0mg"},{"bike_id":"406c72fc-c815-4840-861a-36d7f7f2fd01","system_id":"levelo_inurba_marseille","lat":43.23206,"lon":5.35549,"is_reserved":false,"is_disabled":false,"rental_uris":{"android":"levelo://app?vid=406c72fc-c815-4840-861a-36d7f7f2fd01","ios":"levelo://app?vid=406c72fc-c815-4840-861a-36d7f7f2fd01"},"vehicle_type_id":"4","last_reported":1735692687,"current_range_meters":38000,"station_id":"ce4bhu92rcd13ifvqi70","pricing_plan_id":"cebpf4jnsgd1na2vs0mg"},{"bike_id":"d08aed72-c4aa-4b14-9e94-1554d28646fc","system_id":"levelo_inurba_marseille","lat":43.23964,"lon":5.36638,"is_reserved":false,"is_disabled":false,"rental_uris":{"android":"levelo://app?vid=d08aed72-c4aa-4b14-9e94-1554d28646fc","ios":"levelo://app?vid=d08aed72-c4aa-4b14-9e94-1554d28646fc"},"vehicle_type_id":"4","last_reported":1735692687,"current_range_meters":39200,"station_id":"ce4bhi12rcd13ifvqfp0","pricing_plan_id":"cebpf4jnsgd1na2vs0mg"},{"bike_id":"76443485-bcd6-4607-9286-3a71978e6eb5","system_id":"levelo_inurba_marseille","lat":43.24389,"lon":5.3706,"is_reserved":false,"is_disabled":false,"rental_uris":{"android":"levelo://app?vid=76443485-bcd6-4607-9286-3a71978e6eb5","ios":"levelo://app?vid=76443485-bcd6-4607-9286-3a71978e6eb5"},"vehicle_type_id":"4","last_reported":1735692687,"current_range_meters":10800,"station_id":"ce4bhhh2rcd13ifvqfk0","pricing_plan_id":"cebpf4jnsgd1na2vs0mg"},{"bike_id":"bc0b7a53-aa70-45f9-9cca-ad6fb4c61877","system_id":"levelo_inurba_marseille","lat":43.29274,"lon":5.38444,"is_reserved":false,"is_disabled":false,"rental_uris":{"android":"levelo://app?vid=bc0b7a53-aa70-45f9-9cca-ad6fb4c61877","ios":"levelo://app?vid=bc0b7a53-aa70-45f9-9cca-ad6fb4c61877"},"vehicle_type_id":"4","last_reported":1735692687,"current_range_meters":37600,"station_id":"ce4bh692rcd13ifvqea0","pricing_plan_id":"cebpf4jnsgd1na2vs0mg"},{"bike_id":"cfe106c9-317a-4dfe-a370-65e124f77347","system_id":"levelo_inurba_marseille","lat":43.25727,"lon":5.41069,"is_reserved":false,"is_disabled":false,"rental_uris":{"android":"levelo://app?vid=cfe106c9-317a-4dfe-a370-65e124f77347","ios":"levelo://app?vid=cfe106c9-317a-4dfe-a370-65e124f77347"},"vehicle_type_id":"4","last_reported":1735692687,"current_range_meters":35600,"station_id":"ce4bhkp2rcd13ifvqgd0","pricing_plan_id":"cebpf4jnsgd1na2vs0mg"},{"bike_id":"29e41b02-be52-4633-b267-4292f5ed1d1a","system_id":"levelo_inurba_marseille","lat":43.25867,"lon":5.39898,"is_reserved":false,"is_disabled":false,"rental_uris":{"android":"levelo://app?vid=29e41b02-be52-4633-b267-4292f5ed1d1a","ios":"levelo://app?vid=29e41b02-be52-4633-b267-4292f5ed1d1a"},"vehicle_type_id":"4","last_reported":1735692687,"current_range_meters":6800,"station_id":"ce4bhl92rcd13ifvqghg","pricing_plan_id":"cebpf4jnsgd1na2vs0mg"},{"bike_id":"b0928a81-61c8-44a5-9776-8fe493d1a25a","system_id":"levelo_inurba_marseille","lat":43.30368,"lon":5.41911,"is_reserved":false,"is_disabled":false,"rental_uris":{"android":"levelo://app?vid=b0928a81-61c8-44a5-9776-8fe493d1a25a","ios":"levelo://app?vid=b0928a81-61c8-44a5-9776-8fe493d1a25a"},"vehicle_type_id":"4","last_reported":1735692687,"current_range_meters":18800,"station_id":"ce4bhop2rcd13ifvqh7g","pricing_plan_id":"cebpf4jnsgd1na2vs0mg"},{"bike_id":"46b5f36f-eca4-4e80-9d52-993cd0f33e71","system_id":"levelo_inurba_marseille","lat":43.32485,"lon":5.36573,"is_reserved":false,"is_disabled":false,"rental_uris":{"android":"levelo://app?vid=46b5f36f-eca4-4e80-9d52-993cd0f33e71","ios":"levelo://app?vid=46b5f36f-eca4-4e80-9d52-993cd0f33e71"},"vehicle_type_id":"4","last_reported":1735692687,"current_range_meters":6800,"station_id":"ce4bhs12rcd13ifvqhvg","pricing_plan_id":"cebpf4jnsgd1na2vs0mg"},{"bike_id":"8a8d2384-33d6-4e3f-befc-59293242646b","system_id":"levelo_inurba_marseille","lat":43.307867,"lon":5.376517,"is_reserved":false,"is_disabled":false,"rental_uris":{"android":"levelo://app?vid=8a8d2384-33d6-4e3f-befc-59293242646b","ios":"levelo://app?vid=8a8d2384-33d6-4e3f-befc-59293242646b"},"vehicle_type_id":"4","last_reported":1735692687,"current_range_meters":38800,"station_id":"ce4bgv92rcd13ifvqcq0","pricing_plan_id":"cebpf4jnsgd1na2vs0mg"},{"bike_id":"dd006384-15fd-4933-aa71-736562a193fd","system_id":"levelo_inurba_marseille","lat":43.29333,"lon":5.36837,"is_reserved":false,"is_disabled":false,"rental_uris":{"android":"levelo://app?vid=dd006384-15fd-4933-aa71-736562a193fd","ios":"levelo://app?vid=dd006384-15fd-4933-aa71-736562a193fd"},"vehicle_type_id":"4","last_reported":1735692687,"current_range_meters":27200,"station_id":"","pricing_plan_id":"cebpf4jnsgd1na2vs0mg"},{"bike_id":"ff49d49a-53c3-499a-b296-89a67f332a8a","system_id":"levelo_inurba_marseille","lat":43.24168,"lon":5.36398,"is_reserved":false,"is_disabled":false,"rental_uris":{"android":"levelo://app?vid=ff49d49a-53c3-499a-b296-89a67f332a8a","ios":"levelo://app?vid=ff49d49a-53c3-499a-b296-89a67f332a8a"},"vehicle_type_id":"4","last_reported":1735692687,"current_range_meters":34800,"station_id":"cpo36qri1sfpv3e86is0","pricing_plan_id":"cebpf4jnsgd1na2vs0mg"},{"bike_id":"f060fe60-43b5-4c23-8bc7-369e88e1b658","system_id":"levelo_inurba_marseille","lat":43.32363,"lon":5.38899,"is_reserved":false,"is_disabled":false,"rental_uris":{"android":"levelo://app?vid=f060fe60-43b5-4c23-8bc7-369e88e1b658","ios":"levelo://app?vid=f060fe60-43b5-4c23-8bc7-369e88e1b658"},"vehicle_type_id":"4","last_reported":1735692687,"current_range_meters":9600,"station_id":"ce4bhqp2rcd13ifvqhog","pricing_plan_id":"cebpf4jnsgd1na2vs0mg"},{"bike_id":"ed7d9e0f-da0c-4e3b-92b3-fd3afce87e08","system_id":"levelo_inurba_marseille","lat":43.3247,"lon":5.36572,"is_reserved":false,"is_disabled":false,"rental_uris":{"android":"levelo://app?vid=ed7d9e0f-da0c-4e3b-92b3-fd3afce87e08","ios":"levelo://app?vid=ed7d9e0f-da0c-4e3b-92b3-fd3afce87e08"},"vehicle_type_id":"4","last_reported":1735692687,"current_range_meters":31200,"station_id":"ce4bhs12rcd13ifvqhvg","pricing_plan_id":"cebpf4jnsgd1na2vs0mg"},{"bike_id":"d4256ea8-5d2e-4c4b-815e-7860952ea87b","system_id":"levelo_inurba_marseille","lat":43.30445,"lon":5.39751,"is_reserved":false,"is_disabled":false,"rental_uris":{"android":"levelo://app?vid=d4256ea8-5d2e-4c4b-815e-7860952ea87b","ios":"levelo://app?vid=d4256ea8-5d2e-4c4b-815e-7860952ea87b"},"vehicle_type_id":"4","last_reported":1735692687,"current_range_meters":25600,"station_id":"ce4bh092rcd13ifvqd20","pricing_plan_id":"cebpf4jnsgd1na2vs0mg"},{"bike_id":"c3ba5b5b-015c-4689-95a9-abcb1279b90e","system_id":"levelo_inurba_marseille","lat":43.246525,"lon":5.389005,"is_reserved":false,"is_disabled":false,"rental_uris":{"android":"levelo://app?vid=c3ba5b5b-015c-4689-95a9-abcb1279b90e","ios":"levelo://app?vid=c3ba5b5b-015c-4689-95a9-abcb1279b90e"},"vehicle_type_id":"4","last_reported":1735692687,"current_range_meters":39200,"station_id":"ce4bhg12rcd13ifvqf60","pricing_plan_id":"cebpf4jnsgd1na2vs0mg"},{"bike_id":"027085de-3c06-4c90-8099-b9537f78e863","system_id":"levelo_inurba_marseille","lat":43.23167,"lon":5.43673,"is_reserved":false,"is_disabled":false,"rental_uris":{"android":"levelo://app?vid=027085de-3c06-4c90-8099-b9537f78e863","ios":"levelo://app?vid=027085de-3c06-4c90-8099-b9537f78e863"},"vehicle_type_id":"4","last_reported":1735692687,"current_range_meters":36800,"station_id":"ce4bhmp2rcd13ifvqgog","pricing_plan_id":"cebpf4jnsgd1na2vs0mg"},{"bike_id":"924b8338-4a40-42e8-8ff9-5a56a6ed9db8","system_id":"levelo_inurba_marseille","lat":43.28705,"lon":5.39983,"is_reserved":false,"is_disabled":false,"rental_uris":{"android":"levelo://app?vid=924b8338-4a40-42e8-8ff9-5a56a6ed9db8","ios":"levelo://app?vid=924b8338-4a40-42e8-8ff9-5a56a6ed9db8"},"vehicle_type_id":"4","last_reported":1735692687,"current_range_meters":30400,"station_id":"ce4bho92rcd13ifvqh3g","pricing_plan_id":"cebpf4jnsgd1na2vs0mg"},{"bike_id":"dd43ec1a-328a-4f14-a1c5-2dfbd492ab23","system_id":"levelo_inurba_marseille","lat":43.31338,"lon":5.39706,"is_reserved":false,"is_disabled":true,"rental_uris":{"android":"levelo://app?vid=dd43ec1a-328a-4f14-a1c5-2dfbd492ab23","ios":"levelo://app?vid=dd43ec1a-328a-4f14-a1c5-2dfbd492ab23"},"vehicle_type_id":"4","last_reported":1735692687,"current_range_meters":36800,"station_id":"ce4bgvp2rcd13ifvqcu0","pricing_plan_id":"cebpf4jnsgd1na2vs0mg"},{"bike_id":"38d6fcde-f1ea-4ecc-bb23-079c2fa8b417","system_id":"levelo_inurba_marseille","lat":43.30147,"lon":5.39886,"is_reserved":false,"is_disabled":false,"rental_uris":{"android":"levelo://app?vid=38d6fcde-f1ea-4ecc-bb23-079c2fa8b417","ios":"levelo://app?vid=38d6fcde-f1ea-4ecc-bb23-079c2fa8b417"},"vehicle_type_id":"4","last_reported":1735692687,"current_range_meters":10000,"station_id":"ce4bh0h2rcd13ifvqd40","pricing_plan_id":"cebpf4jnsgd1na2vs0mg"},{"bike_id":"317bbece-85f5-4709-8e50-643ba25a75ff","system_id":"levelo_inurba_marseille","lat":43.33774,"lon":5.37436,"is_reserved":false,"is_disabled":false,"rental_uris":{"android":"levelo://app?vid=317bbece-85f5-4709-8e50-643ba25a75ff","ios":"levelo://app?vid=317bbece-85f5-4709-8e50-643ba25a75ff"},"vehicle_type_id":"4","last_reported":1735692687,"current_range_meters":33600,"station_id":"","pricing_plan_id":"cebpf4jnsgd1na2vs0mg"},{"bike_id":"e7774da4-c308-4bfa-aba8-31efca07b3a0","system_id":"levelo_inurba_marseille","lat":43.33741,"lon":5.37467,"is_reserved":false,"is_disabled":false,"rental_uris":{"android":"levelo://app?vid=e7774da4-c308-4bfa-aba8-31efca07b3a0","ios":"levelo://app?vid=e7774da4-c308-4bfa-aba8-31efca07b3a0"},"vehicle_type_id":"4","last_reported":1735692687,"current_range_meters":10000,"station_id":"","pricing_plan_id":"cebpf4jnsgd1na2vs0mg"},{"bike_id":"e4175cfc-38a5-43ed-9767-8b1ef3183563","system_id":"levelo_inurba_marseille","lat":43.2933,"lon":5.38294,"is_reserved":false,"is_disabled":false,"rental_uris":{"android":"levelo://app?vid=e4175cfc-38a5-43ed-9767-8b1ef3183563","ios":"levelo://app?vid=e4175cfc-38a5-43ed-9767-8b1ef3183563"},"vehicle_type_id":"4","last_reported":1735692687,"current_range_meters":30800,"station_id":"","pricing_plan_id":"cebpf4jnsgd1na2vs0mg"},{"bike_id":"ad09079b-2a66-443a-a13d-b1f84ab569d5","system_id":"levelo_inurba_marseille","lat":43.250006,"lon":5.389268,"is_reserved":false,"is_disabled":false,"rental_uris":{"android":"levelo://app?vid=ad09079b-2a66-443a-a13d-b1f84ab569d5","ios":"levelo://app?vid=ad09079b-2a66-443a-a13d-b1f84ab569d5"},"vehicle_type_id":"4","last_reported":1735692687,"current_range_meters":38800,"station_id":"ce4bhgp2rcd13ifvqfd0","pricing_plan_id":"cebpf4jnsgd1na2vs0mg"},{"bike_id":"55cdd24f-9e2e-41e5-9590-d69333b5dd4a","system_id":"levelo_inurba_marseille","lat":43.28878,"lon":5.35895,"is_reserved":false,"is_disabled":false,"rental_uris":{"android":"levelo://app?vid=55cdd24f-9e2e-41e5-9590-d69333b5dd4a","ios":"levelo://app?vid=55cdd24f-9e2e-41e5-9590-d69333b5dd4a"},"vehicle_type_id":"4","last_reported":1735692687,"current_range_meters":11600,"station_id":"ce4bhb12rcd13ifvqem0","pricing_plan_id":"cebpf4jnsgd1na2vs0mg"},{"bike_id":"e0a46ff2-b7c3-4696-9a9c-e701179b3896","system_id":"levelo_inurba_marseille","lat":43.29538,"lon":5.38539,"is_reserved":false,"is_disabled":false,"rental_uris":{"android":"levelo://app?vid=e0a46ff2-b7c3-4696-9a9c-e701179b3896","ios":"levelo://app?vid=e0a46ff2-b7c3-4696-9a9c-e701179b3896"},"vehicle_type_id":"4","last_reported":1735692687,"current_range_meters":38000,"station_id":"ce4bgih2rcd13ifvqba0","pricing_plan_id":"cebpf4jnsgd1na2vs0mg"},{"bike_id":"6f1ca680-cd82-46c7-9ed3-8bfc427bedf8","system_id":"levelo_inurba_marseille","lat":43.28124,"lon":5.37903,"is_reserved":false,"is_disabled":false,"rental_uris":{"android":"levelo://app?vid=6f1ca680-cd82-46c7-9ed3-8bfc427bedf8","ios":"levelo://app?vid=6f1ca680-cd82-46c7-9ed3-8bfc427bedf8"},"vehicle_type_id":"4","last_reported":1735692687,"current_range_meters":38400,"station_id":"ce4bha12rcd13ifvqee0","pricing_plan_id":"cebpf4jnsgd1na2vs0mg"},{"bike_id":"6be6f432-ecc0-4aa1-8d4e-d3696b626d06","system_id":"levelo_inurba_marseille","lat":43.27376,"lon":5.36258,"is_reserved":false,"is_disabled":false,"rental_uris":{"android":"levelo://app?vid=6be6f432-ecc0-4aa1-8d4e-d3696b626d06","ios":"levelo://app?vid=6be6f432-ecc0-4aa1-8d4e-d3696b626d06"},"vehicle_type_id":"4","last_reported":1735692687,"current_range_meters":34000,"station_id":"ce4bhbh2rcd13ifvqeo0","pricing_plan_id":"cebpf4jnsgd1na2vs0mg"},{"bike_id":"8aee6e51-ec03-4d1e-a7f9-0bc033449db3","system_id":"levelo_inurba_marseille","lat":43.28401,"lon":5.37497,"is_reserved":false,"is_disabled":false,"rental_uris":{"android":"levelo://app?vid=8aee6e51-ec03-4d1e-a7f9-0bc033449db3","ios":"levelo://app?vid=8aee6e51-ec03-4d1e-a7f9-0bc033449db3"},"vehicle_type_id":"4","last_reported":1735692687,"current_range_meters":34800,"station_id":"ce4bh412rcd13ifvqds0","pricing_plan_id":"cebpf4jnsgd1na2vs0mg"},{"bike_id":"fc9ca4dc-eb81-4943-ba4c-9803a0a93bbb","system_id":"levelo_inurba_marseille","lat":43.3248,"lon":5.36598,"is_reserved":false,"is_disabled":false,"rental_uris":{"android":"levelo://app?vid=fc9ca4dc-eb81-4943-ba4c-9803a0a93bbb","ios":"levelo://app?vid=fc9ca4dc-eb81-4943-ba4c-9803a0a93bbb"},"vehicle_type_id":"4","last_reported":1735692687,"current_range_meters":31200,"station_id":"ce4bhs12rcd13ifvqhvg","pricing_plan_id":"cebpf4jnsgd1na2vs0mg"},{"bike_id":"da3075ee-8070-42f9-8350-58e475a60c82","system_id":"levelo_inurba_marseille","lat":43.2755,"lon":5.38403,"is_reserved":false,"is_disabled":false,"rental_uris":{"android":"levelo://app?vid=da3075ee-8070-42f9-8350-58e475a60c82","ios":"levelo://app?vid=da3075ee-8070-42f9-8350-58e475a60c82"},"vehicle_type_id":"4","last_reported":1735692687,"current_range_meters":38800,"station_id":"ce4bhh92rcd13ifvqfi0","pricing_plan_id":"cebpf4jnsgd1na2vs0mg"},{"bike_id":"201d3095-2daa-41b3-a3b9-f477b54ffd04","system_id":"levelo_inurba_marseille","lat":43.30914,"lon":5.39685,"is_reserved":false,"is_disabled":false,"rental_uris":{"android":"levelo://app?vid=201d3095-2daa-41b3-a3b9-f477b54ffd04","ios":"levelo://app?vid=201d3095-2daa-41b3-a3b9-f477b54ffd04"},"vehicle_type_id":"4","last_reported":1735692687,"current_range_meters":31200,"station_id":"ce4bh012rcd13ifvqcv0","pricing_plan_id":"cebpf4jnsgd1na2vs0mg"},{"bike_id":"0a24ea9c-5e8e-40f5-887b-42964e2355e6","system_id":"levelo_inurba_marseille","lat":43.2903,"lon":5.3563,"is_reserved":false,"is_disabled":false,"rental_uris":{"android":"levelo://app?vid=0a24ea9c-5e8e-40f5-887b-42964e2355e6","ios":"levelo://app?vid=0a24ea9c-5e8e-40f5-887b-42964e2355e6"},"vehicle_type_id":"4","last_reported":1735692687,"current_range_meters":36400,"station_id":"ce4bhb92rcd13ifvqen0","pricing_plan_id":"cebpf4jnsgd1na2vs0mg"},{"bike_id":"c754264e-2257-42b1-89f9-0bf9a740ba42","system_id":"levelo_inurba_marseille","lat":43.27608,"lon":5.38465,"is_reserved":false,"is_disabled":false,"rental_uris":{"android":"levelo://app?vid=c754264e-2257-42b1-89f9-0bf9a740ba42","ios":"levelo://app?vid=c754264e-2257-42b1-89f9-0bf9a740ba42"},"vehicle_type_id":"4","last_reported":1735692687,"current_range_meters":28400,"station_id":"","pricing_plan_id":"cebpf4jnsgd1na2vs0mg"},{"bike_id":"e5fc90b8-f4d7-48fe-9b1b-e04042412667","system_id":"levelo_inurba_marseille","lat":43.32,"lon":5.381628,"is_reserved":false,"is_disabled":false,"rental_uris":{"android":"levelo://app?vid=e5fc90b8-f4d7-48fe-9b1b-e04042412667","ios":"levelo://app?vid=e5fc90b8-f4d7-48fe-9b1b-e04042412667"},"vehicle_type_id":"4","last_reported":1735692687,"current_range_meters":38000,"station_id":"ce4bhr12rcd13ifvqhpg","pricing_plan_id":"cebpf4jnsgd1na2vs0mg"},{"bike_id":"153a191c-c472-4cba-bc69-68d338935f0b","system_id":"levelo_inurba_marseille","lat":43.30933,"lon":5.37236,"is_reserved":false,"is_disabled":false,"rental_uris":{"android":"levelo://app?vid=153a191c-c472-4cba-bc69-68d338935f0b","ios":"levelo://app?vid=153a191c-c472-4cba-bc69-68d338935f0b"},"vehicle_type_id":"4","last_reported":1735692687,"current_range_meters":9200,"station_id":"","pricing_plan_id":"cebpf4jnsgd1na2vs0mg"},{"bike_id":"150419dd-aa2a-4b47-a61e-644c562b6296","system_id":"levelo_inurba_marseille","lat":43.29788,"lon":5.36152,"is_reserved":false,"is_disabled":false,"rental_uris":{"android":"levelo://app?vid=150419dd-aa2a-4b47-a61e-644c562b6296","ios":"levelo://app?vid=150419dd-aa2a-4b47-a61e-644c562b6296"},"vehicle_type_id":"4","last_reported":1735692687,"current_range_meters":17600,"station_id":"","pricing_plan_id":"cebpf4jnsgd1na2vs0mg"},{"bike_id":"b6c8d252-a8ce-43b1-a60c-c58406833311","system_id":"levelo_inurba_marseille","lat":43.271747,"lon":5.409915,"is_reserved":false,"is_disabled":false,"rental_uris":{"android":"levelo://app?vid=b6c8d252-a8ce-43b1-a60c-c58406833311","ios":"levelo://app?vid=b6c8d252-a8ce-43b1-a60c-c58406833311"},"vehicle_type_id":"4","last_reported":1735692687,"current_range_meters":14800,"station_id":"ce4bhl12rcd13ifvqgf0","pricing_plan_id":"cebpf4jnsgd1na2vs0mg"},{"bike_id":"b6daf7f7-9e92-49f6-9bd6-324d01a67477","system_id":"levelo_inurba_marseille","lat":43.30178,"lon":5.36613,"is_reserved":false,"is_disabled":false,"rental_uris":{"android":"levelo://app?vid=b6daf7f7-9e92-49f6-9bd6-324d01a67477","ios":"levelo://app?vid=b6daf7f7-9e92-49f6-9bd6-324d01a67477"},"vehicle_type_id":"4","last_reported":1735692687,"current_range_meters":24800,"station_id":"ce4bgrh2rcd13ifvqc8g","pricing_plan_id":"cebpf4jnsgd1na2vs0mg"},{"bike_id":"6611339c-c6f1-4ce8-9613-d42f5088a636","system_id":"levelo_inurba_marseille","lat":43.26809,"lon":5.40275,"is_reserved":false,"is_disabled":false,"rental_uris":{"android":"levelo://app?vid=6611339c-c6f1-4ce8-9613-d42f5088a636","ios":"levelo://app?vid=6611339c-c6f1-4ce8-9613-d42f5088a636"},"vehicle_type_id":"4","last_reported":1735692687,"current_range_meters":38800,"station_id":"ce501612rcd8frsf0b60","pricing_plan_id":"cebpf4jnsgd1na2vs0mg"},{"bike_id":"f1ae0bf8-0350-41dd-95ca-65a425c0e4b6","system_id":"levelo_inurba_marseille","lat":43.30282,"lon":5.36897,"is_reserved":false,"is_disabled":false,"rental_uris":{"android":"levelo://app?vid=f1ae0bf8-0350-41dd-95ca-65a425c0e4b6","ios":"levelo://app?vid=f1ae0bf8-0350-41dd-95ca-65a425c0e4b6"},"vehicle_type_id":"4","last_reported":1735692687,"current_range_meters":38800,"station_id":"ce4bgqh2rcd13ifvqc5g","pricing_plan_id":"cebpf4jnsgd1na2vs0mg"},{"bike_id":"7c1c026b-5922-433c-b8d0-4cb64aa175b2","system_id":"levelo_inurba_marseille","lat":43.29178,"lon":5.37168,"is_reserved":false,"is_disabled":false,"rental_uris":{"android":"levelo://app?vid=7c1c026b-5922-433c-b8d0-4cb64aa175b2","ios":"levelo://app?vid=7c1c026b-5922-433c-b8d0-4cb64aa175b2"},"vehicle_type_id":"4","last_reported":1735692687,"current_range_meters":38800,"station_id":"ce4bha92rcd13ifvqeh0","pricing_plan_id":"cebpf4jnsgd1na2vs0mg"},{"bike_id":"73951743-e2d8-48c8-9b4b-49f6b638eeb5","system_id":"levelo_inurba_marseille","lat":43.31116,"lon":5.3777,"is_reserved":false,"is_disabled":false,"rental_uris":{"android":"levelo://app?vid=73951743-e2d8-48c8-9b4b-49f6b638eeb5","ios":"levelo://app?vid=73951743-e2d8-48c8-9b4b-49f6b638eeb5"},"vehicle_type_id":"4","last_reported":1735692687,"current_range_meters":31200,"station_id":"ce4bgt92rcd13ifvqcg0","pricing_plan_id":"cebpf4jnsgd1na2vs0mg"},{"bike_id":"b59e74b2-dfe4-48d2-8495-b2ec63d61ba7","system_id":"levelo_inurba_marseille","lat":43.29913,"lon":5.38159,"is_reserved":false,"is_disabled":false,"rental_uris":{"android":"levelo://app?vid=b59e74b2-dfe4-48d2-8495-b2ec63d61ba7","ios":"levelo://app?vid=b59e74b2-dfe4-48d2-8495-b2ec63d61ba7"},"vehicle_type_id":"4","last_reported":1735692687,"current_range_meters":38800,"station_id":"ce4bgj12rcd13ifvqbc0","pricing_plan_id":"cebpf4jnsgd1na2vs0mg"},{"bike_id":"d625e588-11c3-4fb0-bbf8-82531f0a858d","system_id":"levelo_inurba_marseille","lat":43.28799,"lon":5.39315,"is_reserved":false,"is_disabled":false,"rental_uris":{"android":"levelo://app?vid=d625e588-11c3-4fb0-bbf8-82531f0a858d","ios":"levelo://app?vid=d625e588-11c3-4fb0-bbf8-82531f0a858d"},"vehicle_type_id":"4","last_reported":1735692687,"current_range_meters":38800,"station_id":"ce4bh2p2rcd13ifvqdi0","pricing_plan_id":"cebpf4jnsgd1na2vs0mg"},{"bike_id":"4e946ccd-6648-4aaa-ac0d-746ef34c5d06","system_id":"levelo_inurba_marseille","lat":43.308767,"lon":5.39646,"is_reserved":false,"is_disabled":false,"rental_uris":{"android":"levelo://app?vid=4e946ccd-6648-4aaa-ac0d-746ef34c5d06","ios":"levelo://app?vid=4e946ccd-6648-4aaa-ac0d-746ef34c5d06"},"vehicle_type_id":"4","last_reported":1735692687,"current_range_meters":14800,"station_id":"ce4bh012rcd13ifvqcv0","pricing_plan_id":"cebpf4jnsgd1na2vs0mg"},{"bike_id":"8cc07e4e-1218-41f4-a42d-7749547ad64d","system_id":"levelo_inurba_marseille","lat":43.31357,"lon":5.38496,"is_reserved":false,"is_disabled":false,"rental_uris":{"android":"levelo://app?vid=8cc07e4e-1218-41f4-a42d-7749547ad64d","ios":"levelo://app?vid=8cc07e4e-1218-41f4-a42d-7749547ad64d"},"vehicle_type_id":"4","last_reported":1735692687,"current_range_meters":38800,"station_id":"ce4bgt92rcd13ifvqcf0","pricing_plan_id":"cebpf4jnsgd1na2vs0mg"},{"bike_id":"ba936ddb-3421-4c87-83fc-05fd5470238a","system_id":"levelo_inurba_marseille","lat":43.29447,"lon":5.39752,"is_reserved":false,"is_disabled":false,"rental_uris":{"android":"levelo://app?vid=ba936ddb-3421-4c87-83fc-05fd5470238a","ios":"levelo://app?vid=ba936ddb-3421-4c87-83fc-05fd5470238a"},"vehicle_type_id":"4","last_reported":1735692687,"current_range_meters":39200,"station_id":"ce4bh3h2rcd13ifvqdo0","pricing_plan_id":"cebpf4jnsgd1na2vs0mg"},{"bike_id":"e07b4016-4bce-4410-a36f-6b33ecc70c7c","system_id":"levelo_inurba_marseille","lat":43.31226,"lon":5.36856,"is_reserved":false,"is_disabled":false,"rental_uris":{"android":"levelo://app?vid=e07b4016-4bce-4410-a36f-6b33ecc70c7c","ios":"levelo://app?vid=e07b4016-4bce-4410-a36f-6b33ecc70c7c"},"vehicle_type_id":"4","last_reported":1735692687,"current_range_meters":38400,"station_id":"ce4bgl92rcd13ifvqbq0","pricing_plan_id":"cebpf4jnsgd1na2vs0mg"},{"bike_id":"333f71b8-9213-4ae4-a8c7-09c4701b84bc","system_id":"levelo_inurba_marseille","lat":43.33017,"lon":5.39057,"is_reserved":false,"is_disabled":false,"rental_uris":{"android":"levelo://app?vid=333f71b8-9213-4ae4-a8c7-09c4701b84bc","ios":"levelo://app?vid=333f71b8-9213-4ae4-a8c7-09c4701b84bc"},"vehicle_type_id":"4","last_reported":1735692687,"current_range_meters":38000,"station_id":"ce4bhr92rcd13ifvqhrg","pricing_plan_id":"cebpf4jnsgd1na2vs0mg"},{"bike_id":"2f46ed5f-d621-4960-be21-137d8f9ca518","system_id":"levelo_inurba_marseille","lat":43.29271,"lon":5.38449,"is_reserved":false,"is_disabled":true,"rental_uris":{"android":"levelo://app?vid=2f46ed5f-d621-4960-be21-137d8f9ca518","ios":"levelo://app?vid=2f46ed5f-d621-4960-be21-137d8f9ca518"},"vehicle_type_id":"4","last_reported":1735692687,"current_range_meters":38800,"station_id":"ce4bh692rcd13ifvqea0","pricing_plan_id":"cebpf4jnsgd1na2vs0mg"},{"bike_id":"cc5ab863-37a3-4d9c-87e5-b15150741dee","system_id":"levelo_inurba_marseille","lat":43.295288,"lon":5.385453,"is_reserved":false,"is_disabled":false,"rental_uris":{"android":"levelo://app?vid=cc5ab863-37a3-4d9c-87e5-b15150741dee","ios":"levelo://app?vid=cc5ab863-37a3-4d9c-87e5-b15150741dee"},"vehicle_type_id":"4","last_reported":1735692687,"current_range_meters":38000,"station_id":"ce4bgih2rcd13ifvqba0","pricing_plan_id":"cebpf4jnsgd1na2vs0mg"},{"bike_id":"a87e4111-653d-4c79-b009-b173a2dd1186","system_id":"levelo_inurba_marseille","lat":43.29029,"lon":5.38641,"is_reserved":false,"is_disabled":false,"rental_uris":{"android":"levelo://app?vid=a87e4111-653d-4c79-b009-b173a2dd1186","ios":"levelo://app?vid=a87e4111-653d-4c79-b009-b173a2dd1186"},"vehicle_type_id":"4","last_reported":1735692687,"current_range_meters":12000,"station_id":"ce4bh4p2rcd13ifvqe0g","pricing_plan_id":"cebpf4jnsgd1na2vs0mg"},{"bike_id":"09ddc175-4718-41a5-92a3-9bec48d9d61e","system_id":"levelo_inurba_marseille","lat":43.29966,"lon":5.37186,"is_reserved":false,"is_disabled":false,"rental_uris":{"android":"levelo://app?vid=09ddc175-4718-41a5-92a3-9bec48d9d61e","ios":"levelo://app?vid=09ddc175-4718-41a5-92a3-9bec48d9d61e"},"vehicle_type_id":"4","last_reported":1735692687,"current_range_meters":38800,"station_id":"ce4bgr92rcd13ifvqc7g","pricing_plan_id":"cebpf4jnsgd1na2vs0mg"},{"bike_id":"f92e0b80-cd61-42c7-82b0-cf418b51b985","system_id":"levelo_inurba_marseille","lat":43.292552,"lon":5.417331,"is_reserved":false,"is_disabled":false,"rental_uris":{"android":"levelo://app?vid=f92e0b80-cd61-42c7-82b0-cf418b51b985","ios":"levelo://app?vid=f92e0b80-cd61-42c7-82b0-cf418b51b985"},"vehicle_type_id":"4","last_reported":1735692687,"current_range_meters":7200,"station_id":"","pricing_plan_id":"cebpf4jnsgd1na2vs0mg"},{"bike_id":"21348762-b24d-4b2d-bc68-84e9f0125c38","system_id":"levelo_inurba_marseille","lat":43.229308,"lon":5.35378,"is_reserved":false,"is_disabled":false,"rental_uris":{"android":"levelo://app?vid=21348762-b24d-4b2d-bc68-84e9f0125c38","ios":"levelo://app?vid=21348762-b24d-4b2d-bc68-84e9f0125c38"},"vehicle_type_id":"4","last_reported":1735692687,"current_range_meters":38000,"station_id":"cpo3532slgdg3j2ikp40","pricing_plan_id":"cebpf4jnsgd1na2vs0mg"},{"bike_id":"438f62e1-444c-47f0-807e-4b56363321fe","system_id":"levelo_inurba_marseille","lat":43.29036,"lon":5.38622,"is_reserved":false,"is_disabled":false,"rental_uris":{"android":"levelo://app?vid=438f62e1-444c-47f0-807e-4b56363321fe","ios":"levelo://app?vid=438f62e1-444c-47f0-807e-4b56363321fe"},"vehicle_type_id":"4","last_reported":1735692687,"current_range_meters":38000,"station_id":"ce4bh4p2rcd13ifvqe0g","pricing_plan_id":"cebpf4jnsgd1na2vs0mg"},{"bike_id":"9c017f86-baf5-4f45-8d53-2d2982a0c140","system_id":"levelo_inurba_marseille","lat":43.281068,"lon":5.378276,"is_reserved":false,"is_disabled":false,"rental_uris":{"android":"levelo://app?vid=9c017f86-baf5-4f45-8d53-2d2982a0c140","ios":"levelo://app?vid=9c017f86-baf5-4f45-8d53-2d2982a0c140"},"vehicle_type_id":"4","last_reported":1735692687,"current_range_meters":36800,"station_id":"ce4bha12rcd13ifvqee0","pricing_plan_id":"cebpf4jnsgd1na2vs0mg"},{"bike_id":"30a49652-d136-44e4-a4d9-d7c1b83f0627","system_id":"levelo_inurba_marseille","lat":43.337444,"lon":5.374475,"is_reserved":false,"is_disabled":false,"rental_uris":{"android":"levelo://app?vid=30a49652-d136-44e4-a4d9-d7c1b83f0627","ios":"levelo://app?vid=30a49652-d136-44e4-a4d9-d7c1b83f0627"},"vehicle_type_id":"4","last_reported":1735692687,"current_range_meters":16800,"station_id":"","pricing_plan_id":"cebpf4jnsgd1na2vs0mg"},{"bike_id":"397a5305-0886-429c-ac88-7e4cd3412bb5","system_id":"levelo_inurba_marseille","lat":43.29633,"lon":5.40603,"is_reserved":false,"is_disabled":false,"rental_uris":{"android":"levelo://app?vid=397a5305-0886-429c-ac88-7e4cd3412bb5","ios":"levelo://app?vid=397a5305-0886-429c-ac88-7e4cd3412bb5"},"vehicle_type_id":"4","last_reported":1735692687,"current_range_meters":20400,"station_id":"ce4bh0h2rcd13ifvqd60","pricing_plan_id":"cebpf4jnsgd1na2vs0mg"},{"bike_id":"72f25b4b-9ef6-4559-a874-28754cbe15c9","system_id":"levelo_inurba_marseille","lat":43.30586,"lon":5.39334,"is_reserved":false,"is_disabled":false,"rental_uris":{"android":"levelo://app?vid=72f25b4b-9ef6-4559-a874-28754cbe15c9","ios":"levelo://app?vid=72f25b4b-9ef6-4559-a874-28754cbe15c9"},"vehicle_type_id":"4","last_reported":1735692687,"current_range_meters":38400,"station_id":"ce4bh0p2rcd13ifvqd80","pricing_plan_id":"cebpf4jnsgd1na2vs0mg"},{"bike_id":"5b744b90-1060-437b-b3d1-3a60c6232327","system_id":"levelo_inurba_marseille","lat":43.27911,"lon":5.39587,"is_reserved":false,"is_disabled":false,"rental_uris":{"android":"levelo://app?vid=5b744b90-1060-437b-b3d1-3a60c6232327","ios":"levelo://app?vid=5b744b90-1060-437b-b3d1-3a60c6232327"},"vehicle_type_id":"4","last_reported":1735692687,"current_range_meters":18000,"station_id":"ce4bhf92rcd13ifvqf40","pricing_plan_id":"cebpf4jnsgd1na2vs0mg"},{"bike_id":"5bc0407a-d3dc-4879-8202-ae8e752e8859","system_id":"levelo_inurba_marseille","lat":43.2785,"lon":5.39218,"is_reserved":false,"is_disabled":false,"rental_uris":{"android":"levelo://app?vid=5bc0407a-d3dc-4879-8202-ae8e752e8859","ios":"levelo://app?vid=5bc0407a-d3dc-4879-8202-ae8e752e8859"},"vehicle_type_id":"4","last_reported":1735692687,"current_range_meters":38800,"station_id":"ce4bhjp2rcd13ifvqga0","pricing_plan_id":"cebpf4jnsgd1na2vs0mg"},{"bike_id":"d80e9bec-0f8d-442d-adeb-8a9f45ad9450","system_id":"levelo_inurba_marseille","lat":43.28332,"lon":5.38085,"is_reserved":false,"is_disabled":false,"rental_uris":{"android":"levelo://app?vid=d80e9bec-0f8d-442d-adeb-8a9f45ad9450","ios":"levelo://app?vid=d80e9bec-0f8d-442d-adeb-8a9f45ad9450"},"vehicle_type_id":"4","last_reported":1735692687,"current_range_meters":23200,"station_id":"ce4bh412rcd13ifvqdr0","pricing_plan_id":"cebpf4jnsgd1na2vs0mg"},{"bike_id":"d11d6c31-ec33-4962-b8cc-883f1ea2f1d6","system_id":"levelo_inurba_marseille","lat":43.31529,"lon":5.38046,"is_reserved":false,"is_disabled":false,"rental_uris":{"android":"levelo://app?vid=d11d6c31-ec33-4962-b8cc-883f1ea2f1d6","ios":"levelo://app?vid=d11d6c31-ec33-4962-b8cc-883f1ea2f1d6"},"vehicle_type_id":"4","last_reported":1735692687,"current_range_meters":17600,"station_id":"ce4bhsp2rcd13ifvqi50","pricing_plan_id":"cebpf4jnsgd1na2vs0mg"},{"bike_id":"ba43f564-6d63-49ef-830e-225fe528ef56","system_id":"levelo_inurba_marseille","lat":43.29801,"lon":5.38107,"is_reserved":false,"is_disabled":false,"rental_uris":{"android":"levelo://app?vid=ba43f564-6d63-49ef-830e-225fe528ef56","ios":"levelo://app?vid=ba43f564-6d63-49ef-830e-225fe528ef56"},"vehicle_type_id":"4","last_reported":1735692687,"current_range_meters":18000,"station_id":"ce4bgip2rcd13ifvqbb0","pricing_plan_id":"cebpf4jnsgd1na2vs0mg"},{"bike_id":"cd74a333-9a1d-4930-b287-4902bed467c1","system_id":"levelo_inurba_marseille","lat":43.30834,"lon":5.38126,"is_reserved":false,"is_disabled":false,"rental_uris":{"android":"levelo://app?vid=cd74a333-9a1d-4930-b287-4902bed467c1","ios":"levelo://app?vid=cd74a333-9a1d-4930-b287-4902bed467c1"},"vehicle_type_id":"4","last_reported":1735692687,"current_range_meters":6400,"station_id":"ce4bgt12rcd13ifvqce0","pricing_plan_id":"cebpf4jnsgd1na2vs0mg"},{"bike_id":"602066a0-2260-4df6-91ea-a3f6be32a7d2","system_id":"levelo_inurba_marseille","lat":43.31756,"lon":5.39002,"is_reserved":false,"is_disabled":false,"rental_uris":{"android":"levelo://app?vid=602066a0-2260-4df6-91ea-a3f6be32a7d2","ios":"levelo://app?vid=602066a0-2260-4df6-91ea-a3f6be32a7d2"},"vehicle_type_id":"4","last_reported":1735692687,"current_range_meters":38800,"station_id":"ce4bhqp2rcd13ifvqhng","pricing_plan_id":"cebpf4jnsgd1na2vs0mg"},{"bike_id":"d996ebe6-a085-4671-8aef-57e91ba860dc","system_id":"levelo_inurba_marseille","lat":43.26808,"lon":5.40268,"is_reserved":false,"is_disabled":false,"rental_uris":{"android":"levelo://app?vid=d996ebe6-a085-4671-8aef-57e91ba860dc","ios":"levelo://app?vid=d996ebe6-a085-4671-8aef-57e91ba860dc"},"vehicle_type_id":"4","last_reported":1735692687,"current_range_meters":30800,"station_id":"ce501612rcd8frsf0b60","pricing_plan_id":"cebpf4jnsgd1na2vs0mg"},{"bike_id":"1fa11319-427d-42b2-8f07-2d78d11bd9fa","system_id":"levelo_inurba_marseille","lat":43.31174,"lon":5.42276,"is_reserved":false,"is_disabled":false,"rental_uris":{"android":"levelo://app?vid=1fa11319-427d-42b2-8f07-2d78d11bd9fa","ios":"levelo://app?vid=1fa11319-427d-42b2-8f07-2d78d11bd9fa"},"vehicle_type_id":"4","last_reported":1735692687,"current_range_meters":26000,"station_id":"","pricing_plan_id":"cebpf4jnsgd1na2vs0mg"},{"bike_id":"f0759b16-cb79-495c-88bb-e0de73383a8f","system_id":"levelo_inurba_marseille","lat":43.25093,"lon":5.39485,"is_reserved":false,"is_disabled":false,"rental_uris":{"android":"levelo://app?vid=f0759b16-cb79-495c-88bb-e0de73383a8f","ios":"levelo://app?vid=f0759b16-cb79-495c-88bb-e0de73383a8f"},"vehicle_type_id":"4","last_reported":1735692687,"current_range_meters":22000,"station_id":"ce4bhm12rcd13ifvqgkg","pricing_plan_id":"cebpf4jnsgd1na2vs0mg"},{"bike_id":"7309249c-69b9-4a02-a1ea-a21a9b47b5b8","system_id":"levelo_inurba_marseille","lat":43.2756,"lon":5.38429,"is_reserved":false,"is_disabled":false,"rental_uris":{"android":"levelo://app?vid=7309249c-69b9-4a02-a1ea-a21a9b47b5b8","ios":"levelo://app?vid=7309249c-69b9-4a02-a1ea-a21a9b47b5b8"},"vehicle_type_id":"4","last_reported":1735692687,"current_range_meters":29600,"station_id":"ce4bhh92rcd13ifvqfi0","pricing_plan_id":"cebpf4jnsgd1na2vs0mg"},{"bike_id":"7f9e49d8-8213-48ff-8267-1347961734e7","system_id":"levelo_inurba_marseille","lat":43.27834,"lon":5.39204,"is_reserved":false,"is_disabled":false,"rental_uris":{"android":"levelo://app?vid=7f9e49d8-8213-48ff-8267-1347961734e7","ios":"levelo://app?vid=7f9e49d8-8213-48ff-8267-1347961734e7"},"vehicle_type_id":"4","last_reported":1735692687,"current_range_meters":28400,"station_id":"ce4bhjp2rcd13ifvqga0","pricing_plan_id":"cebpf4jnsgd1na2vs0mg"},{"bike_id":"f6c80ac2-5f19-4568-b083-ea8673e4c4bb","system_id":"levelo_inurba_marseille","lat":43.29404,"lon":5.38594,"is_reserved":false,"is_disabled":false,"rental_uris":{"android":"levelo://app?vid=f6c80ac2-5f19-4568-b083-ea8673e4c4bb","ios":"levelo://app?vid=f6c80ac2-5f19-4568-b083-ea8673e4c4bb"},"vehicle_type_id":"4","last_reported":1735692687,"current_range_meters":10800,"station_id":"ce4bh2h2rcd13ifvqdh0","pricing_plan_id":"cebpf4jnsgd1na2vs0mg"},{"bike_id":"a80ab412-c52a-467a-8ae8-b33a83691fc0","system_id":"levelo_inurba_marseille","lat":43.29532,"lon":5.385472,"is_reserved":false,"is_disabled":false,"rental_uris":{"android":"levelo://app?vid=a80ab412-c52a-467a-8ae8-b33a83691fc0","ios":"levelo://app?vid=a80ab412-c52a-467a-8ae8-b33a83691fc0"},"vehicle_type_id":"4","last_reported":1735692687,"current_range_meters":28400,"station_id":"ce4bgih2rcd13ifvqba0","pricing_plan_id":"cebpf4jnsgd1na2vs0mg"},{"bike_id":"ea990fc9-5f95-4acd-a2be-29105099e24e","system_id":"levelo_inurba_marseille","lat":43.23063,"lon":5.35489,"is_reserved":false,"is_disabled":false,"rental_uris":{"android":"levelo://app?vid=ea990fc9-5f95-4acd-a2be-29105099e24e","ios":"levelo://app?vid=ea990fc9-5f95-4acd-a2be-29105099e24e"},"vehicle_type_id":"4","last_reported":1735692687,"current_range_meters":33200,"station_id":"cpo3342slgdg3j2ifvpg","pricing_plan_id":"cebpf4jnsgd1na2vs0mg"},{"bike_id":"9c969c7e-74bc-4e10-a4da-07b7bc4fad80","system_id":"levelo_inurba_marseille","lat":43.32472,"lon":5.36578,"is_reserved":false,"is_disabled":false,"rental_uris":{"android":"levelo://app?vid=9c969c7e-74bc-4e10-a4da-07b7bc4fad80","ios":"levelo://app?vid=9c969c7e-74bc-4e10-a4da-07b7bc4fad80"},"vehicle_type_id":"4","last_reported":1735692687,"current_range_meters":20800,"station_id":"ce4bhs12rcd13ifvqhvg","pricing_plan_id":"cebpf4jnsgd1na2vs0mg"},{"bike_id":"711f1fd4-0cad-4b01-a65d-e868b4eef140","system_id":"levelo_inurba_marseille","lat":43.29249,"lon":5.40902,"is_reserved":false,"is_disabled":false,"rental_uris":{"android":"levelo://app?vid=711f1fd4-0cad-4b01-a65d-e868b4eef140","ios":"levelo://app?vid=711f1fd4-0cad-4b01-a65d-e868b4eef140"},"vehicle_type_id":"4","last_reported":1735692687,"current_range_meters":38400,"station_id":"ce4bh192rcd13ifvqdc0","pricing_plan_id":"cebpf4jnsgd1na2vs0mg"},{"bike_id":"875a1f95-fa28-45eb-8a15-cb8df7fccf00","system_id":"levelo_inurba_marseille","lat":43.32495,"lon":5.36564,"is_reserved":false,"is_disabled":false,"rental_uris":{"android":"levelo://app?vid=875a1f95-fa28-45eb-8a15-cb8df7fccf00","ios":"levelo://app?vid=875a1f95-fa28-45eb-8a15-cb8df7fccf00"},"vehicle_type_id":"4","last_reported":1735692687,"current_range_meters":36400,"station_id":"ce4bhs12rcd13ifvqhvg","pricing_plan_id":"cebpf4jnsgd1na2vs0mg"},{"bike_id":"818c2676-53ba-497a-8a78-5aed69c6a753","system_id":"levelo_inurba_marseille","lat":43.25875,"lon":5.39887,"is_reserved":false,"is_disabled":false,"rental_uris":{"android":"levelo://app?vid=818c2676-53ba-497a-8a78-5aed69c6a753","ios":"levelo://app?vid=818c2676-53ba-497a-8a78-5aed69c6a753"},"vehicle_type_id":"4","last_reported":1735692687,"current_range_meters":34800,"station_id":"ce4bhl92rcd13ifvqghg","pricing_plan_id":"cebpf4jnsgd1na2vs0mg"},{"bike_id":"d13b199e-e620-4f52-ae43-9a360f46ed32","system_id":"levelo_inurba_marseille","lat":43.2798,"lon":5.40011,"is_reserved":false,"is_disabled":false,"rental_uris":{"android":"levelo://app?vid=d13b199e-e620-4f52-ae43-9a360f46ed32","ios":"levelo://app?vid=d13b199e-e620-4f52-ae43-9a360f46ed32"},"vehicle_type_id":"4","last_reported":1735692687,"current_range_meters":8400,"station_id":"ce4bho92rcd13ifvqh4g","pricing_plan_id":"cebpf4jnsgd1na2vs0mg"},{"bike_id":"062bd3e7-a1b0-4a7b-be3e-67845610f912","system_id":"levelo_inurba_marseille","lat":43.31288,"lon":5.40166,"is_reserved":false,"is_disabled":false,"rental_uris":{"android":"levelo://app?vid=062bd3e7-a1b0-4a7b-be3e-67845610f912","ios":"levelo://app?vid=062bd3e7-a1b0-4a7b-be3e-67845610f912"},"vehicle_type_id":"4","last_reported":1735692687,"current_range_meters":30400,"station_id":"ce4bh092rcd13ifvqd30","pricing_plan_id":"cebpf4jnsgd1na2vs0mg"},{"bike_id":"6d76d4fe-816a-4fb7-b0ad-b766ffe61c05","system_id":"levelo_inurba_marseille","lat":43.29671,"lon":5.37286,"is_reserved":false,"is_disabled":false,"rental_uris":{"android":"levelo://app?vid=6d76d4fe-816a-4fb7-b0ad-b766ffe61c05","ios":"levelo://app?vid=6d76d4fe-816a-4fb7-b0ad-b766ffe61c05"},"vehicle_type_id":"4","last_reported":1735692687,"current_range_meters":37600,"station_id":"ce4bgk12rcd13ifvqbj0","pricing_plan_id":"cebpf4jnsgd1na2vs0mg"},{"bike_id":"a7daf19d-2310-4179-81d5-72b0df68f604","system_id":"levelo_inurba_marseille","lat":43.29355,"lon":5.3785,"is_reserved":false,"is_disabled":false,"rental_uris":{"android":"levelo://app?vid=a7daf19d-2310-4179-81d5-72b0df68f604","ios":"levelo://app?vid=a7daf19d-2310-4179-81d5-72b0df68f604"},"vehicle_type_id":"4","last_reported":1735692687,"current_range_meters":36000,"station_id":"ce4bgjh2rcd13ifvqbf0","pricing_plan_id":"cebpf4jnsgd1na2vs0mg"},{"bike_id":"32afc6cc-1544-4f88-ab5c-34496cc35b04","system_id":"levelo_inurba_marseille","lat":43.23059,"lon":5.35489,"is_reserved":false,"is_disabled":false,"rental_uris":{"android":"levelo://app?vid=32afc6cc-1544-4f88-ab5c-34496cc35b04","ios":"levelo://app?vid=32afc6cc-1544-4f88-ab5c-34496cc35b04"},"vehicle_type_id":"4","last_reported":1735692687,"current_range_meters":15200,"station_id":"cpo3342slgdg3j2ifvpg","pricing_plan_id":"cebpf4jnsgd1na2vs0mg"},{"bike_id":"34d20bf1-6aea-4179-808b-978c64e28d8c","system_id":"levelo_inurba_marseille","lat":43.27811,"lon":5.4072,"is_reserved":false,"is_disabled":false,"rental_uris":{"android":"levelo://app?vid=34d20bf1-6aea-4179-808b-978c64e28d8c","ios":"levelo://app?vid=34d20bf1-6aea-4179-808b-978c64e28d8c"},"vehicle_type_id":"4","last_reported":1735692687,"current_range_meters":39200,"station_id":"ce4bhnh2rcd13ifvqgtg","pricing_plan_id":"cebpf4jnsgd1na2vs0mg"},{"bike_id":"b2838581-a430-4e92-a319-537c0694319a","system_id":"levelo_inurba_marseille","lat":43.30892,"lon":5.39637,"is_reserved":false,"is_disabled":false,"rental_uris":{"android":"levelo://app?vid=b2838581-a430-4e92-a319-537c0694319a","ios":"levelo://app?vid=b2838581-a430-4e92-a319-537c0694319a"},"vehicle_type_id":"4","last_reported":1735692687,"current_range_meters":18800,"station_id":"ce4bh012rcd13ifvqcv0","pricing_plan_id":"cebpf4jnsgd1na2vs0mg"},{"bike_id":"bd9f29bd-6d5d-407e-b119-59aa8dc149e8","system_id":"levelo_inurba_marseille","lat":43.27672,"lon":5.3889,"is_reserved":false,"is_disabled":false,"rental_uris":{"android":"levelo://app?vid=bd9f29bd-6d5d-407e-b119-59aa8dc149e8","ios":"levelo://app?vid=bd9f29bd-6d5d-407e-b119-59aa8dc149e8"},"vehicle_type_id":"4","last_reported":1735692687,"current_range_meters":35600,"station_id":"ce4bhi12rcd13ifvqfo0","pricing_plan_id":"cebpf4jnsgd1na2vs0mg"},{"bike_id":"e5967929-b43d-4a0a-924e-13dc4eba2a6f","system_id":"levelo_inurba_marseille","lat":43.31755,"lon":5.39014,"is_reserved":false,"is_disabled":false,"rental_uris":{"android":"levelo://app?vid=e5967929-b43d-4a0a-924e-13dc4eba2a6f","ios":"levelo://app?vid=e5967929-b43d-4a0a-924e-13dc4eba2a6f"},"vehicle_type_id":"4","last_reported":1735692687,"current_range_meters":30800,"station_id":"ce4bhqp2rcd13ifvqhng","pricing_plan_id":"cebpf4jnsgd1na2vs0mg"},{"bike_id":"f0d45c44-2f67-4d12-863a-7c41f1f48a22","system_id":"levelo_inurba_marseille","lat":43.29223,"lon":5.36068,"is_reserved":false,"is_disabled":false,"rental_uris":{"android":"levelo://app?vid=f0d45c44-2f67-4d12-863a-7c41f1f48a22","ios":"levelo://app?vid=f0d45c44-2f67-4d12-863a-7c41f1f48a22"},"vehicle_type_id":"4","last_reported":1735692687,"current_range_meters":28400,"station_id":"ce4bhbh2rcd13ifvqeqg","pricing_plan_id":"cebpf4jnsgd1na2vs0mg"},{"bike_id":"b1e5eb72-81e6-47c8-81f0-5df7140b8a5b","system_id":"levelo_inurba_marseille","lat":43.31072,"lon":5.42453,"is_reserved":false,"is_disabled":false,"rental_uris":{"android":"levelo://app?vid=b1e5eb72-81e6-47c8-81f0-5df7140b8a5b","ios":"levelo://app?vid=b1e5eb72-81e6-47c8-81f0-5df7140b8a5b"},"vehicle_type_id":"4","last_reported":1735692687,"current_range_meters":38800,"station_id":"ce4bhp92rcd13ifvqhag","pricing_plan_id":"cebpf4jnsgd1na2vs0mg"},{"bike_id":"d9039fb6-1526-43a5-ab47-bf6c74051347","system_id":"levelo_inurba_marseille","lat":43.281506,"lon":5.426413,"is_reserved":false,"is_disabled":false,"rental_uris":{"android":"levelo://app?vid=d9039fb6-1526-43a5-ab47-bf6c74051347","ios":"levelo://app?vid=d9039fb6-1526-43a5-ab47-bf6c74051347"},"vehicle_type_id":"4","last_reported":1735692687,"current_range_meters":8800,"station_id":"ce4bhnh2rcd13ifvqgug","pricing_plan_id":"cebpf4jnsgd1na2vs0mg"},{"bike_id":"a433092e-b5db-42a1-877d-fb44f3443d8d","system_id":"levelo_inurba_marseille","lat":43.28565,"lon":5.39497,"is_reserved":false,"is_disabled":false,"rental_uris":{"android":"levelo://app?vid=a433092e-b5db-42a1-877d-fb44f3443d8d","ios":"levelo://app?vid=a433092e-b5db-42a1-877d-fb44f3443d8d"},"vehicle_type_id":"4","last_reported":1735692687,"current_range_meters":20400,"station_id":"ce4bh292rcd13ifvqdg0","pricing_plan_id":"cebpf4jnsgd1na2vs0mg"},{"bike_id":"41f82925-3aff-4ae8-bef1-2e85a078111b","system_id":"levelo_inurba_marseille","lat":43.3091,"lon":5.39756,"is_reserved":false,"is_disabled":false,"rental_uris":{"android":"levelo://app?vid=41f82925-3aff-4ae8-bef1-2e85a078111b","ios":"levelo://app?vid=41f82925-3aff-4ae8-bef1-2e85a078111b"},"vehicle_type_id":"4","last_reported":1735692687,"current_range_meters":30800,"station_id":"ce4bh012rcd13ifvqcv0","pricing_plan_id":"cebpf4jnsgd1na2vs0mg"},{"bike_id":"ce872ff4-1114-4dbb-a1cd-0587f9a75e23","system_id":"levelo_inurba_marseille","lat":43.24813,"lon":5.37446,"is_reserved":false,"is_disabled":false,"rental_uris":{"android":"levelo://app?vid=ce872ff4-1114-4dbb-a1cd-0587f9a75e23","ios":"levelo://app?vid=ce872ff4-1114-4dbb-a1cd-0587f9a75e23"},"vehicle_type_id":"4","last_reported":1735692687,"current_range_meters":38800,"station_id":"ce4bhgh2rcd13ifvqfb0","pricing_plan_id":"cebpf4jnsgd1na2vs0mg"},{"bike_id":"022d826a-d31d-48ef-b07e-f8dd0ceaa746","system_id":"levelo_inurba_marseille","lat":43.24996,"lon":5.38935,"is_reserved":false,"is_disabled":false,"rental_uris":{"android":"levelo://app?vid=022d826a-d31d-48ef-b07e-f8dd0ceaa746","ios":"levelo://app?vid=022d826a-d31d-48ef-b07e-f8dd0ceaa746"},"vehicle_type_id":"4","last_reported":1735692687,"current_range_meters":34800,"station_id":"ce4bhgp2rcd13ifvqfd0","pricing_plan_id":"cebpf4jnsgd1na2vs0mg"},{"bike_id":"4217ff41-e8ba-46f5-ac52-fc886c473e1a","system_id":"levelo_inurba_marseille","lat":43.29533,"lon":5.38544,"is_reserved":false,"is_disabled":false,"rental_uris":{"android":"levelo://app?vid=4217ff41-e8ba-46f5-ac52-fc886c473e1a","ios":"levelo://app?vid=4217ff41-e8ba-46f5-ac52-fc886c473e1a"},"vehicle_type_id":"4","last_reported":1735692687,"current_range_meters":36400,"station_id":"ce4bgih2rcd13ifvqba0","pricing_plan_id":"cebpf4jnsgd1na2vs0mg"},{"bike_id":"04e7867a-1371-4222-a6db-9d80083cea73","system_id":"levelo_inurba_marseille","lat":43.288456,"lon":5.358418,"is_reserved":false,"is_disabled":true,"rental_uris":{"android":"levelo://app?vid=04e7867a-1371-4222-a6db-9d80083cea73","ios":"levelo://app?vid=04e7867a-1371-4222-a6db-9d80083cea73"},"vehicle_type_id":"4","last_reported":1735692687,"current_range_meters":32800,"station_id":"ce4bhb12rcd13ifvqem0","pricing_plan_id":"cebpf4jnsgd1na2vs0mg"},{"bike_id":"0190ce3c-386e-49ba-aafe-189b86c25fb4","system_id":"levelo_inurba_marseille","lat":43.29421,"lon":5.38602,"is_reserved":false,"is_disabled":false,"rental_uris":{"android":"levelo://app?vid=0190ce3c-386e-49ba-aafe-189b86c25fb4","ios":"levelo://app?vid=0190ce3c-386e-49ba-aafe-189b86c25fb4"},"vehicle_type_id":"4","last_reported":1735692687,"current_range_meters":14000,"station_id":"ce4bh2h2rcd13ifvqdh0","pricing_plan_id":"cebpf4jnsgd1na2vs0mg"},{"bike_id":"4d1a84a8-b869-4c6c-a789-022dd0dc51b8","system_id":"levelo_inurba_marseille","lat":43.31279,"lon":5.40172,"is_reserved":false,"is_disabled":false,"rental_uris":{"android":"levelo://app?vid=4d1a84a8-b869-4c6c-a789-022dd0dc51b8","ios":"levelo://app?vid=4d1a84a8-b869-4c6c-a789-022dd0dc51b8"},"vehicle_type_id":"4","last_reported":1735692687,"current_range_meters":38800,"station_id":"ce4bh092rcd13ifvqd30","pricing_plan_id":"cebpf4jnsgd1na2vs0mg"},{"bike_id":"dacb31f4-90b7-43f7-bc2e-c7ea69b2bb33","system_id":"levelo_inurba_marseille","lat":43.31301,"lon":5.36819,"is_reserved":false,"is_disabled":true,"rental_uris":{"android":"levelo://app?vid=dacb31f4-90b7-43f7-bc2e-c7ea69b2bb33","ios":"levelo://app?vid=dacb31f4-90b7-43f7-bc2e-c7ea69b2bb33"},"vehicle_type_id":"4","last_reported":1735692687,"current_range_meters":38800,"station_id":"ce4bgl92rcd13ifvqbq0","pricing_plan_id":"cebpf4jnsgd1na2vs0mg"},{"bike_id":"e852781c-54cb-4091-94a4-40f5ee3c1da9","system_id":"levelo_inurba_marseille","lat":43.29541,"lon":5.38553,"is_reserved":false,"is_disabled":false,"rental_uris":{"android":"levelo://app?vid=e852781c-54cb-4091-94a4-40f5ee3c1da9","ios":"levelo://app?vid=e852781c-54cb-4091-94a4-40f5ee3c1da9"},"vehicle_type_id":"4","last_reported":1735692687,"current_range_meters":14000,"station_id":"ce4bgih2rcd13ifvqba0","pricing_plan_id":"cebpf4jnsgd1na2vs0mg"},{"bike_id":"7c918aa0-2882-4622-8b96-23b0b9c76213","system_id":"levelo_inurba_marseille","lat":43.28698,"lon":5.38679,"is_reserved":false,"is_disabled":false,"rental_uris":{"android":"levelo://app?vid=7c918aa0-2882-4622-8b96-23b0b9c76213","ios":"levelo://app?vid=7c918aa0-2882-4622-8b96-23b0b9c76213"},"vehicle_type_id":"4","last_reported":1735692687,"current_range_meters":37600,"station_id":"ce4bh492rcd13ifvqdug","pricing_plan_id":"cebpf4jnsgd1na2vs0mg"},{"bike_id":"20b437ee-8787-4ea2-8788-2d892062123a","system_id":"levelo_inurba_marseille","lat":43.31379,"lon":5.38506,"is_reserved":false,"is_disabled":false,"rental_uris":{"android":"levelo://app?vid=20b437ee-8787-4ea2-8788-2d892062123a","ios":"levelo://app?vid=20b437ee-8787-4ea2-8788-2d892062123a"},"vehicle_type_id":"4","last_reported":1735692687,"current_range_meters":14400,"station_id":"ce4bgt92rcd13ifvqcf0","pricing_plan_id":"cebpf4jnsgd1na2vs0mg"},{"bike_id":"a005e1bf-2999-4035-942d-1957469d29ca","system_id":"levelo_inurba_marseille","lat":43.24685,"lon":5.38191,"is_reserved":false,"is_disabled":true,"rental_uris":{"android":"levelo://app?vid=a005e1bf-2999-4035-942d-1957469d29ca","ios":"levelo://app?vid=a005e1bf-2999-4035-942d-1957469d29ca"},"vehicle_type_id":"4","last_reported":1735692687,"current_range_meters":35600,"station_id":"ce4bhih2rcd13ifvqfr0","pricing_plan_id":"cebpf4jnsgd1na2vs0mg"},{"bike_id":"9b0fe335-edea-4a50-a2ab-55b634cb8780","system_id":"levelo_inurba_marseille","lat":43.278942,"lon":5.353936,"is_reserved":false,"is_disabled":false,"rental_uris":{"android":"levelo://app?vid=9b0fe335-edea-4a50-a2ab-55b634cb8780","ios":"levelo://app?vid=9b0fe335-edea-4a50-a2ab-55b634cb8780"},"vehicle_type_id":"4","last_reported":1735692687,"current_range_meters":28800,"station_id":"ce4bhbp2rcd13ifvqerg","pricing_plan_id":"cebpf4jnsgd1na2vs0mg"},{"bike_id":"f6c3569e-efa4-4a1c-b75b-94ded8df3e64","system_id":"levelo_inurba_marseille","lat":43.27943,"lon":5.38675,"is_reserved":false,"is_disabled":false,"rental_uris":{"android":"levelo://app?vid=f6c3569e-efa4-4a1c-b75b-94ded8df3e64","ios":"levelo://app?vid=f6c3569e-efa4-4a1c-b75b-94ded8df3e64"},"vehicle_type_id":"4","last_reported":1735692687,"current_range_meters":30400,"station_id":"","pricing_plan_id":"cebpf4jnsgd1na2vs0mg"},{"bike_id":"b1950b19-ad60-4de3-a7b7-769bdcb5ac61","system_id":"levelo_inurba_marseille","lat":43.30592,"lon":5.37239,"is_reserved":false,"is_disabled":false,"rental_uris":{"android":"levelo://app?vid=b1950b19-ad60-4de3-a7b7-769bdcb5ac61","ios":"levelo://app?vid=b1950b19-ad60-4de3-a7b7-769bdcb5ac61"},"vehicle_type_id":"4","last_reported":1735692687,"current_range_meters":37600,"station_id":"ce4bgqh2rcd13ifvqc4g","pricing_plan_id":"cebpf4jnsgd1na2vs0mg"},{"bike_id":"5510f670-eb3d-4a9d-951e-27e21575eef2","system_id":"levelo_inurba_marseille","lat":43.32469,"lon":5.36605,"is_reserved":false,"is_disabled":false,"rental_uris":{"android":"levelo://app?vid=5510f670-eb3d-4a9d-951e-27e21575eef2","ios":"levelo://app?vid=5510f670-eb3d-4a9d-951e-27e21575eef2"},"vehicle_type_id":"4","last_reported":1735692687,"current_range_meters":38800,"station_id":"ce4bhs12rcd13ifvqhvg","pricing_plan_id":"cebpf4jnsgd1na2vs0mg"},{"bike_id":"5bcfad20-ed54-4b86-9743-4534fa6a6157","system_id":"levelo_inurba_marseille","lat":43.2962,"lon":5.37733,"is_reserved":false,"is_disabled":false,"rental_uris":{"android":"levelo://app?vid=5bcfad20-ed54-4b86-9743-4534fa6a6157","ios":"levelo://app?vid=5bcfad20-ed54-4b86-9743-4534fa6a6157"},"vehicle_type_id":"4","last_reported":1735692687,"current_range_meters":20000,"station_id":"ce4bgi92rcd13ifvqb90","pricing_plan_id":"cebpf4jnsgd1na2vs0mg"},{"bike_id":"00138e32-e492-49ec-8baf-715fb2b9afd1","system_id":"levelo_inurba_marseille","lat":43.28057,"lon":5.35292,"is_reserved":false,"is_disabled":false,"rental_uris":{"android":"levelo://app?vid=00138e32-e492-49ec-8baf-715fb2b9afd1","ios":"levelo://app?vid=00138e32-e492-49ec-8baf-715fb2b9afd1"},"vehicle_type_id":"4","last_reported":1735692687,"current_range_meters":23200,"station_id":"ce4bhbh2rcd13ifvqeo0","pricing_plan_id":"cebpf4jnsgd1na2vs0mg"},{"bike_id":"5c0b8e2d-3798-47d3-8d52-adaafc71dcda","system_id":"levelo_inurba_marseille","lat":43.26692,"lon":5.38271,"is_reserved":false,"is_disabled":false,"rental_uris":{"android":"levelo://app?vid=5c0b8e2d-3798-47d3-8d52-adaafc71dcda","ios":"levelo://app?vid=5c0b8e2d-3798-47d3-8d52-adaafc71dcda"},"vehicle_type_id":"4","last_reported":1735692687,"current_range_meters":29600,"station_id":"ce4bhg92rcd13ifvqf90","pricing_plan_id":"cebpf4jnsgd1na2vs0mg"},{"bike_id":"e7f232e6-9751-45f4-a24f-005b95d10947","system_id":"levelo_inurba_marseille","lat":43.29601,"lon":5.37731,"is_reserved":false,"is_disabled":true,"rental_uris":{"android":"levelo://app?vid=e7f232e6-9751-45f4-a24f-005b95d10947","ios":"levelo://app?vid=e7f232e6-9751-45f4-a24f-005b95d10947"},"vehicle_type_id":"4","last_reported":1735692687,"current_range_meters":800,"station_id":"ce4bgi92rcd13ifvqb90","pricing_plan_id":"cebpf4jnsgd1na2vs0mg"},{"bike_id":"b8d2b4df-e756-4052-ae5f-6c435a118c99","system_id":"levelo_inurba_marseille","lat":43.334146,"lon":5.361958,"is_reserved":false,"is_disabled":true,"rental_uris":{"android":"levelo://app?vid=b8d2b4df-e756-4052-ae5f-6c435a118c99","ios":"levelo://app?vid=b8d2b4df-e756-4052-ae5f-6c435a118c99"},"vehicle_type_id":"4","last_reported":1735692687,"current_range_meters":2000,"station_id":"","pricing_plan_id":"cebpf4jnsgd1na2vs0mg"},{"bike_id":"fcc654c9-6ac2-491c-9f15-83351aa2a5be","system_id":"levelo_inurba_marseille","lat":43.27967,"lon":5.4104,"is_reserved":false,"is_disabled":false,"rental_uris":{"android":"levelo://app?vid=fcc654c9-6ac2-491c-9f15-83351aa2a5be","ios":"levelo://app?vid=fcc654c9-6ac2-491c-9f15-83351aa2a5be"},"vehicle_type_id":"4","last_reported":1735692687,"current_range_meters":28800,"station_id":"ce4bhnp2rcd13ifvqh0g","pricing_plan_id":"cebpf4jnsgd1na2vs0mg"},{"bike_id":"2241734e-29b7-4c37-ae32-2588a0ac3a7c","system_id":"levelo_inurba_marseille","lat":43.32473,"lon":5.3657,"is_reserved":false,"is_disabled":false,"rental_uris":{"android":"levelo://app?vid=2241734e-29b7-4c37-ae32-2588a0ac3a7c","ios":"levelo://app?vid=2241734e-29b7-4c37-ae32-2588a0ac3a7c"},"vehicle_type_id":"4","last_reported":1735692687,"current_range_meters":38800,"station_id":"ce4bhs12rcd13ifvqhvg","pricing_plan_id":"cebpf4jnsgd1na2vs0mg"},{"bike_id":"fbf0a5e4-8cad-4a92-ae3b-23473d649101","system_id":"levelo_inurba_marseille","lat":43.25567,"lon":5.38245,"is_reserved":false,"is_disabled":false,"rental_uris":{"android":"levelo://app?vid=fbf0a5e4-8cad-4a92-ae3b-23473d649101","ios":"levelo://app?vid=fbf0a5e4-8cad-4a92-ae3b-23473d649101"},"vehicle_type_id":"4","last_reported":1735692687,"current_range_meters":38800,"station_id":"ce4bhih2rcd13ifvqfs0","pricing_plan_id":"cebpf4jnsgd1na2vs0mg"},{"bike_id":"160764fe-5997-4ea4-b1b4-d6847c2851e4","system_id":"levelo_inurba_marseille","lat":43.25566,"lon":5.38254,"is_reserved":false,"is_disabled":false,"rental_uris":{"android":"levelo://app?vid=160764fe-5997-4ea4-b1b4-d6847c2851e4","ios":"levelo://app?vid=160764fe-5997-4ea4-b1b4-d6847c2851e4"},"vehicle_type_id":"4","last_reported":1735692687,"current_range_meters":38800,"station_id":"ce4bhih2rcd13ifvqfs0","pricing_plan_id":"cebpf4jnsgd1na2vs0mg"},{"bike_id":"fbe8e10d-9efb-45e6-b150-3fec79e10f1d","system_id":"levelo_inurba_marseille","lat":43.31366,"lon":5.38497,"is_reserved":false,"is_disabled":false,"rental_uris":{"android":"levelo://app?vid=fbe8e10d-9efb-45e6-b150-3fec79e10f1d","ios":"levelo://app?vid=fbe8e10d-9efb-45e6-b150-3fec79e10f1d"},"vehicle_type_id":"4","last_reported":1735692687,"current_range_meters":32800,"station_id":"ce4bgt92rcd13ifvqcf0","pricing_plan_id":"cebpf4jnsgd1na2vs0mg"},{"bike_id":"e157af35-862f-4ff3-a971-0cec14143385","system_id":"levelo_inurba_marseille","lat":43.27947,"lon":5.41059,"is_reserved":false,"is_disabled":false,"rental_uris":{"android":"levelo://app?vid=e157af35-862f-4ff3-a971-0cec14143385","ios":"levelo://app?vid=e157af35-862f-4ff3-a971-0cec14143385"},"vehicle_type_id":"4","last_reported":1735692687,"current_range_meters":34800,"station_id":"ce4bhnp2rcd13ifvqh0g","pricing_plan_id":"cebpf4jnsgd1na2vs0mg"},{"bike_id":"5c2de9bd-86ba-44d1-aad3-0f54961df2b8","system_id":"levelo_inurba_marseille","lat":43.26808,"lon":5.40263,"is_reserved":false,"is_disabled":false,"rental_uris":{"android":"levelo://app?vid=5c2de9bd-86ba-44d1-aad3-0f54961df2b8","ios":"levelo://app?vid=5c2de9bd-86ba-44d1-aad3-0f54961df2b8"},"vehicle_type_id":"4","last_reported":1735692687,"current_range_meters":8000,"station_id":"ce501612rcd8frsf0b60","pricing_plan_id":"cebpf4jnsgd1na2vs0mg"},{"bike_id":"f5997a88-606e-48c9-933e-041b10894cea","system_id":"levelo_inurba_marseille","lat":43.2707,"lon":5.42281,"is_reserved":false,"is_disabled":false,"rental_uris":{"android":"levelo://app?vid=f5997a88-606e-48c9-933e-041b10894cea","ios":"levelo://app?vid=f5997a88-606e-48c9-933e-041b10894cea"},"vehicle_type_id":"4","last_reported":1735692687,"current_range_meters":20800,"station_id":"ce4bhk92rcd13ifvqgb0","pricing_plan_id":"cebpf4jnsgd1na2vs0mg"},{"bike_id":"be27c087-8760-4b20-a1b5-d6adf1caa60d","system_id":"levelo_inurba_marseille","lat":43.28043,"lon":5.36954,"is_reserved":false,"is_disabled":false,"rental_uris":{"android":"levelo://app?vid=be27c087-8760-4b20-a1b5-d6adf1caa60d","ios":"levelo://app?vid=be27c087-8760-4b20-a1b5-d6adf1caa60d"},"vehicle_type_id":"4","last_reported":1735692687,"current_range_meters":6000,"station_id":"ce4bha12rcd13ifvqef0","pricing_plan_id":"cebpf4jnsgd1na2vs0mg"},{"bike_id":"b2efc2c9-4c50-4ae0-9f7a-2ebbe60214c1","system_id":"levelo_inurba_marseille","lat":43.25112,"lon":5.40317,"is_reserved":false,"is_disabled":false,"rental_uris":{"android":"levelo://app?vid=b2efc2c9-4c50-4ae0-9f7a-2ebbe60214c1","ios":"levelo://app?vid=b2efc2c9-4c50-4ae0-9f7a-2ebbe60214c1"},"vehicle_type_id":"4","last_reported":1735692687,"current_range_meters":9600,"station_id":"ce4bhlh2rcd13ifvqgig","pricing_plan_id":"cebpf4jnsgd1na2vs0mg"},{"bike_id":"78b5c16e-8cc7-40d1-b9a4-94b51e4903c4","system_id":"levelo_inurba_marseille","lat":43.29418,"lon":5.38612,"is_reserved":false,"is_disabled":false,"rental_uris":{"android":"levelo://app?vid=78b5c16e-8cc7-40d1-b9a4-94b51e4903c4","ios":"levelo://app?vid=78b5c16e-8cc7-40d1-b9a4-94b51e4903c4"},"vehicle_type_id":"4","last_reported":1735692687,"current_range_meters":38800,"station_id":"ce4bh2h2rcd13ifvqdh0","pricing_plan_id":"cebpf4jnsgd1na2vs0mg"},{"bike_id":"236b3030-26dc-4d31-a5ec-3e724cdce4e6","system_id":"levelo_inurba_marseille","lat":43.30889,"lon":5.39649,"is_reserved":false,"is_disabled":false,"rental_uris":{"android":"levelo://app?vid=236b3030-26dc-4d31-a5ec-3e724cdce4e6","ios":"levelo://app?vid=236b3030-26dc-4d31-a5ec-3e724cdce4e6"},"vehicle_type_id":"4","last_reported":1735692687,"current_range_meters":38800,"station_id":"ce4bh012rcd13ifvqcv0","pricing_plan_id":"cebpf4jnsgd1na2vs0mg"},{"bike_id":"4ae90592-e920-400e-8a25-b327a1d3d78f","system_id":"levelo_inurba_marseille","lat":43.24655,"lon":5.38165,"is_reserved":false,"is_disabled":false,"rental_uris":{"android":"levelo://app?vid=4ae90592-e920-400e-8a25-b327a1d3d78f","ios":"levelo://app?vid=4ae90592-e920-400e-8a25-b327a1d3d78f"},"vehicle_type_id":"4","last_reported":1735692687,"current_range_meters":7200,"station_id":"ce4bhih2rcd13ifvqfr0","pricing_plan_id":"cebpf4jnsgd1na2vs0mg"},{"bike_id":"fee29b35-d5ab-40ef-aff7-4a8a451182c6","system_id":"levelo_inurba_marseille","lat":43.317233,"lon":5.423886,"is_reserved":false,"is_disabled":false,"rental_uris":{"android":"levelo://app?vid=fee29b35-d5ab-40ef-aff7-4a8a451182c6","ios":"levelo://app?vid=fee29b35-d5ab-40ef-aff7-4a8a451182c6"},"vehicle_type_id":"4","last_reported":1735692687,"current_range_meters":38800,"station_id":"ce4bhp92rcd13ifvqhbg","pricing_plan_id":"cebpf4jnsgd1na2vs0mg"},{"bike_id":"2fc8e17d-9495-4922-8d89-7dea2e5ea943","system_id":"levelo_inurba_marseille","lat":43.27058,"lon":5.40263,"is_reserved":false,"is_disabled":false,"rental_uris":{"android":"levelo://app?vid=2fc8e17d-9495-4922-8d89-7dea2e5ea943","ios":"levelo://app?vid=2fc8e17d-9495-4922-8d89-7dea2e5ea943"},"vehicle_type_id":"4","last_reported":1735692687,"current_range_meters":9600,"station_id":"ce4bhk92rcd13ifvqgc0","pricing_plan_id":"cebpf4jnsgd1na2vs0mg"},{"bike_id":"eaf838b7-144d-4291-9d25-0dcea3a4b36c","system_id":"levelo_inurba_marseille","lat":43.31106,"lon":5.37761,"is_reserved":false,"is_disabled":false,"rental_uris":{"android":"levelo://app?vid=eaf838b7-144d-4291-9d25-0dcea3a4b36c","ios":"levelo://app?vid=eaf838b7-144d-4291-9d25-0dcea3a4b36c"},"vehicle_type_id":"4","last_reported":1735692687,"current_range_meters":26800,"station_id":"ce4bgt92rcd13ifvqcg0","pricing_plan_id":"cebpf4jnsgd1na2vs0mg"},{"bike_id":"ea5509bb-8586-48e7-86a9-51af30e72fbf","system_id":"levelo_inurba_marseille","lat":43.25496,"lon":5.37657,"is_reserved":false,"is_disabled":false,"rental_uris":{"android":"levelo://app?vid=ea5509bb-8586-48e7-86a9-51af30e72fbf","ios":"levelo://app?vid=ea5509bb-8586-48e7-86a9-51af30e72fbf"},"vehicle_type_id":"4","last_reported":1735692687,"current_range_meters":36400,"station_id":"ce4bhh12rcd13ifvqff0","pricing_plan_id":"cebpf4jnsgd1na2vs0mg"},{"bike_id":"d42bc978-4b09-4a1a-a3f8-f73483d2bd7b","system_id":"levelo_inurba_marseille","lat":43.32488,"lon":5.36576,"is_reserved":false,"is_disabled":false,"rental_uris":{"android":"levelo://app?vid=d42bc978-4b09-4a1a-a3f8-f73483d2bd7b","ios":"levelo://app?vid=d42bc978-4b09-4a1a-a3f8-f73483d2bd7b"},"vehicle_type_id":"4","last_reported":1735692687,"current_range_meters":21600,"station_id":"ce4bhs12rcd13ifvqhvg","pricing_plan_id":"cebpf4jnsgd1na2vs0mg"},{"bike_id":"1ad2bbd9-5e69-4682-9dd4-e38192e7682a","system_id":"levelo_inurba_marseille","lat":43.30511,"lon":5.36619,"is_reserved":false,"is_disabled":false,"rental_uris":{"android":"levelo://app?vid=1ad2bbd9-5e69-4682-9dd4-e38192e7682a","ios":"levelo://app?vid=1ad2bbd9-5e69-4682-9dd4-e38192e7682a"},"vehicle_type_id":"4","last_reported":1735692687,"current_range_meters":29600,"station_id":"","pricing_plan_id":"cebpf4jnsgd1na2vs0mg"},{"bike_id":"913e749c-a796-4014-89da-7e2bdd46267c","system_id":"levelo_inurba_marseille","lat":43.32114,"lon":5.36763,"is_reserved":false,"is_disabled":false,"rental_uris":{"android":"levelo://app?vid=913e749c-a796-4014-89da-7e2bdd46267c","ios":"levelo://app?vid=913e749c-a796-4014-89da-7e2bdd46267c"},"vehicle_type_id":"4","last_reported":1735692687,"current_range_meters":32000,"station_id":"ce4bhrh2rcd13ifvqhug","pricing_plan_id":"cebpf4jnsgd1na2vs0mg"},{"bike_id":"ebbdb52f-ebba-4684-b557-d63f96169510","system_id":"levelo_inurba_marseille","lat":43.34146,"lon":5.40909,"is_reserved":false,"is_disabled":false,"rental_uris":{"android":"levelo://app?vid=ebbdb52f-ebba-4684-b557-d63f96169510","ios":"levelo://app?vid=ebbdb52f-ebba-4684-b557-d63f96169510"},"vehicle_type_id":"4","last_reported":1735692687,"current_range_meters":14000,"station_id":"ce4bhqh2rcd13ifvqhlg","pricing_plan_id":"cebpf4jnsgd1na2vs0mg"},{"bike_id":"91a6e730-82c6-456a-bbc7-e1611a3bab78","system_id":"levelo_inurba_marseille","lat":43.28397,"lon":5.37516,"is_reserved":false,"is_disabled":false,"rental_uris":{"android":"levelo://app?vid=91a6e730-82c6-456a-bbc7-e1611a3bab78","ios":"levelo://app?vid=91a6e730-82c6-456a-bbc7-e1611a3bab78"},"vehicle_type_id":"4","last_reported":1735692687,"current_range_meters":20800,"station_id":"ce4bh412rcd13ifvqds0","pricing_plan_id":"cebpf4jnsgd1na2vs0mg"},{"bike_id":"3c24cf58-dc47-4a05-a336-46b3393557cb","system_id":"levelo_inurba_marseille","lat":43.29628,"lon":5.38119,"is_reserved":false,"is_disabled":false,"rental_uris":{"android":"levelo://app?vid=3c24cf58-dc47-4a05-a336-46b3393557cb","ios":"levelo://app?vid=3c24cf58-dc47-4a05-a336-46b3393557cb"},"vehicle_type_id":"4","last_reported":1735692687,"current_range_meters":38800,"station_id":"ce4bgl12rcd13ifvqbo0","pricing_plan_id":"cebpf4jnsgd1na2vs0mg"},{"bike_id":"94e6dee2-3159-449e-9ee5-297188ebe26e","system_id":"levelo_inurba_marseille","lat":43.29914,"lon":5.3746,"is_reserved":false,"is_disabled":false,"rental_uris":{"android":"levelo://app?vid=94e6dee2-3159-449e-9ee5-297188ebe26e","ios":"levelo://app?vid=94e6dee2-3159-449e-9ee5-297188ebe26e"},"vehicle_type_id":"4","last_reported":1735692687,"current_range_meters":24400,"station_id":"ce4bgjh2rcd13ifvqbg0","pricing_plan_id":"cebpf4jnsgd1na2vs0mg"},{"bike_id":"abbfded5-56c2-44f5-8004-1e2a51b9d0ff","system_id":"levelo_inurba_marseille","lat":43.28153,"lon":5.42639,"is_reserved":false,"is_disabled":false,"rental_uris":{"android":"levelo://app?vid=abbfded5-56c2-44f5-8004-1e2a51b9d0ff","ios":"levelo://app?vid=abbfded5-56c2-44f5-8004-1e2a51b9d0ff"},"vehicle_type_id":"4","last_reported":1735692687,"current_range_meters":26800,"station_id":"ce4bhnh2rcd13ifvqgug","pricing_plan_id":"cebpf4jnsgd1na2vs0mg"},{"bike_id":"cd454331-c9b8-42dd-8bdc-efada06d55e4","system_id":"levelo_inurba_marseille","lat":43.29298,"lon":5.37164,"is_reserved":false,"is_disabled":false,"rental_uris":{"android":"levelo://app?vid=cd454331-c9b8-42dd-8bdc-efada06d55e4","ios":"levelo://app?vid=cd454331-c9b8-42dd-8bdc-efada06d55e4"},"vehicle_type_id":"4","last_reported":1735692687,"current_range_meters":36000,"station_id":"ce4bgh92rcd13ifvqb40","pricing_plan_id":"cebpf4jnsgd1na2vs0mg"},{"bike_id":"8cbc8b99-428c-4040-b86c-4e2c4fffea65","system_id":"levelo_inurba_marseille","lat":43.33761,"lon":5.37472,"is_reserved":false,"is_disabled":true,"rental_uris":{"android":"levelo://app?vid=8cbc8b99-428c-4040-b86c-4e2c4fffea65","ios":"levelo://app?vid=8cbc8b99-428c-4040-b86c-4e2c4fffea65"},"vehicle_type_id":"4","last_reported":1735692687,"current_range_meters":36000,"station_id":"","pricing_plan_id":"cebpf4jnsgd1na2vs0mg"},{"bike_id":"5098145a-de12-4723-8eeb-fdf1b4e4e884","system_id":"levelo_inurba_marseille","lat":43.28909,"lon":5.38385,"is_reserved":false,"is_disabled":false,"rental_uris":{"android":"levelo://app?vid=5098145a-de12-4723-8eeb-fdf1b4e4e884","ios":"levelo://app?vid=5098145a-de12-4723-8eeb-fdf1b4e4e884"},"vehicle_type_id":"4","last_reported":1735692687,"current_range_meters":38000,"station_id":"ce4bh612rcd13ifvqe6g","pricing_plan_id":"cebpf4jnsgd1na2vs0mg"},{"bike_id":"7cc7d65a-b957-4c8c-84a5-f9d97edb0047","system_id":"levelo_inurba_marseille","lat":43.303,"lon":5.39193,"is_reserved":false,"is_disabled":true,"rental_uris":{"android":"levelo://app?vid=7cc7d65a-b957-4c8c-84a5-f9d97edb0047","ios":"levelo://app?vid=7cc7d65a-b957-4c8c-84a5-f9d97edb0047"},"vehicle_type_id":"4","last_reported":1735692687,"current_range_meters":36000,"station_id":"ce4bgkh2rcd13ifvqbk0","pricing_plan_id":"cebpf4jnsgd1na2vs0mg"},{"bike_id":"7b589310-a324-46b8-9d2a-60f7c02b9eb9","system_id":"levelo_inurba_marseille","lat":43.31494,"lon":5.37308,"is_reserved":false,"is_disabled":false,"rental_uris":{"android":"levelo://app?vid=7b589310-a324-46b8-9d2a-60f7c02b9eb9","ios":"levelo://app?vid=7b589310-a324-46b8-9d2a-60f7c02b9eb9"},"vehicle_type_id":"4","last_reported":1735692687,"current_range_meters":4000,"station_id":"ce4bgt12rcd13ifvqcd0","pricing_plan_id":"cebpf4jnsgd1na2vs0mg"},{"bike_id":"62af83b8-0bcb-4a53-9c44-e8ad4810fed3","system_id":"levelo_inurba_marseille","lat":43.26481,"lon":5.39545,"is_reserved":false,"is_disabled":false,"rental_uris":{"android":"levelo://app?vid=62af83b8-0bcb-4a53-9c44-e8ad4810fed3","ios":"levelo://app?vid=62af83b8-0bcb-4a53-9c44-e8ad4810fed3"},"vehicle_type_id":"4","last_reported":1735692687,"current_range_meters":27200,"station_id":"ce4bhi12rcd13ifvqfq0","pricing_plan_id":"cebpf4jnsgd1na2vs0mg"},{"bike_id":"cfd9b0aa-0985-41bd-a744-766658df9439","system_id":"levelo_inurba_marseille","lat":43.29769,"lon":5.37544,"is_reserved":false,"is_disabled":true,"rental_uris":{"android":"levelo://app?vid=cfd9b0aa-0985-41bd-a744-766658df9439","ios":"levelo://app?vid=cfd9b0aa-0985-41bd-a744-766658df9439"},"vehicle_type_id":"4","last_reported":1735692687,"current_range_meters":0,"station_id":"","pricing_plan_id":"cebpf4jnsgd1na2vs0mg"},{"bike_id":"241064ff-27c5-4706-9532-739a8faf7045","system_id":"levelo_inurba_marseille","lat":43.31719,"lon":5.40477,"is_reserved":false,"is_disabled":false,"rental_uris":{"android":"levelo://app?vid=241064ff-27c5-4706-9532-739a8faf7045","ios":"levelo://app?vid=241064ff-27c5-4706-9532-739a8faf7045"},"vehicle_type_id":"4","last_reported":1735692687,"current_range_meters":4400,"station_id":"ce4bh012rcd13ifvqd00","pricing_plan_id":"cebpf4jnsgd1na2vs0mg"},{"bike_id":"d83b19dd-223a-44bd-a670-00c9c897bb1d","system_id":"levelo_inurba_marseille","lat":43.3107,"lon":5.38366,"is_reserved":false,"is_disabled":false,"rental_uris":{"android":"levelo://app?vid=d83b19dd-223a-44bd-a670-00c9c897bb1d","ios":"levelo://app?vid=d83b19dd-223a-44bd-a670-00c9c897bb1d"},"vehicle_type_id":"4","last_reported":1735692687,"current_range_meters":4000,"station_id":"ce4bgv92rcd13ifvqcr0","pricing_plan_id":"cebpf4jnsgd1na2vs0mg"},{"bike_id":"b1815487-383e-42be-8a0b-8b8db0c2ceef","system_id":"levelo_inurba_marseille","lat":43.32284,"lon":5.38267,"is_reserved":false,"is_disabled":false,"rental_uris":{"android":"levelo://app?vid=b1815487-383e-42be-8a0b-8b8db0c2ceef","ios":"levelo://app?vid=b1815487-383e-42be-8a0b-8b8db0c2ceef"},"vehicle_type_id":"4","last_reported":1735692687,"current_range_meters":39200,"station_id":"ce4bhr12rcd13ifvqhqg","pricing_plan_id":"cebpf4jnsgd1na2vs0mg"},{"bike_id":"2f71d5d0-4248-4fd8-90b9-7615dc7e3077","system_id":"levelo_inurba_marseille","lat":43.2511,"lon":5.40321,"is_reserved":false,"is_disabled":false,"rental_uris":{"android":"levelo://app?vid=2f71d5d0-4248-4fd8-90b9-7615dc7e3077","ios":"levelo://app?vid=2f71d5d0-4248-4fd8-90b9-7615dc7e3077"},"vehicle_type_id":"4","last_reported":1735692687,"current_range_meters":38800,"station_id":"ce4bhlh2rcd13ifvqgig","pricing_plan_id":"cebpf4jnsgd1na2vs0mg"},{"bike_id":"f46bd378-e30f-485c-b539-9d29fba578aa","system_id":"levelo_inurba_marseille","lat":43.34155,"lon":5.40889,"is_reserved":false,"is_disabled":false,"rental_uris":{"android":"levelo://app?vid=f46bd378-e30f-485c-b539-9d29fba578aa","ios":"levelo://app?vid=f46bd378-e30f-485c-b539-9d29fba578aa"},"vehicle_type_id":"4","last_reported":1735692687,"current_range_meters":39200,"station_id":"ce4bhqh2rcd13ifvqhlg","pricing_plan_id":"cebpf4jnsgd1na2vs0mg"},{"bike_id":"7ec4d381-79e4-4c43-b132-77d2c6adbb98","system_id":"levelo_inurba_marseille","lat":43.308896,"lon":5.396225,"is_reserved":false,"is_disabled":false,"rental_uris":{"android":"levelo://app?vid=7ec4d381-79e4-4c43-b132-77d2c6adbb98","ios":"levelo://app?vid=7ec4d381-79e4-4c43-b132-77d2c6adbb98"},"vehicle_type_id":"4","last_reported":1735692687,"current_range_meters":39200,"station_id":"ce4bh012rcd13ifvqcv0","pricing_plan_id":"cebpf4jnsgd1na2vs0mg"},{"bike_id":"dc636d2d-4d93-435b-a490-5297e6e661f0","system_id":"levelo_inurba_marseille","lat":43.29575,"lon":5.39971,"is_reserved":false,"is_disabled":false,"rental_uris":{"android":"levelo://app?vid=dc636d2d-4d93-435b-a490-5297e6e661f0","ios":"levelo://app?vid=dc636d2d-4d93-435b-a490-5297e6e661f0"},"vehicle_type_id":"4","last_reported":1735692687,"current_range_meters":30800,"station_id":"ce4bh312rcd13ifvqdj0","pricing_plan_id":"cebpf4jnsgd1na2vs0mg"},{"bike_id":"df334d50-4421-42a5-a762-fb7f39807cc1","system_id":"levelo_inurba_marseille","lat":43.337444,"lon":5.374475,"is_reserved":false,"is_disabled":false,"rental_uris":{"android":"levelo://app?vid=df334d50-4421-42a5-a762-fb7f39807cc1","ios":"levelo://app?vid=df334d50-4421-42a5-a762-fb7f39807cc1"},"vehicle_type_id":"4","last_reported":1735692687,"current_range_meters":36800,"station_id":"","pricing_plan_id":"cebpf4jnsgd1na2vs0mg"},{"bike_id":"b1ba8e46-6352-4028-bfeb-07e690b71bc4","system_id":"levelo_inurba_marseille","lat":43.31688,"lon":5.40463,"is_reserved":false,"is_disabled":false,"rental_uris":{"android":"levelo://app?vid=b1ba8e46-6352-4028-bfeb-07e690b71bc4","ios":"levelo://app?vid=b1ba8e46-6352-4028-bfeb-07e690b71bc4"},"vehicle_type_id":"4","last_reported":1735692687,"current_range_meters":38800,"station_id":"ce4bh012rcd13ifvqd00","pricing_plan_id":"cebpf4jnsgd1na2vs0mg"},{"bike_id":"35d7b981-f2f8-4e1f-bf58-6f3547d4e1f6","system_id":"levelo_inurba_marseille","lat":43.30306,"lon":5.36908,"is_reserved":false,"is_disabled":true,"rental_uris":{"android":"levelo://app?vid=35d7b981-f2f8-4e1f-bf58-6f3547d4e1f6","ios":"levelo://app?vid=35d7b981-f2f8-4e1f-bf58-6f3547d4e1f6"},"vehicle_type_id":"4","last_reported":1735692687,"current_range_meters":25600,"station_id":"ce4bgqh2rcd13ifvqc5g","pricing_plan_id":"cebpf4jnsgd1na2vs0mg"},{"bike_id":"93759eb2-9f3c-4592-8d30-9459f05e9f82","system_id":"levelo_inurba_marseille","lat":43.27989,"lon":5.41653,"is_reserved":false,"is_disabled":false,"rental_uris":{"android":"levelo://app?vid=93759eb2-9f3c-4592-8d30-9459f05e9f82","ios":"levelo://app?vid=93759eb2-9f3c-4592-8d30-9459f05e9f82"},"vehicle_type_id":"4","last_reported":1735692687,"current_range_meters":29600,"station_id":"ce4bho12rcd13ifvqh1g","pricing_plan_id":"cebpf4jnsgd1na2vs0mg"},{"bike_id":"847e09aa-0198-46d1-b907-778eecf50dd1","system_id":"levelo_inurba_marseille","lat":43.31473,"lon":5.37053,"is_reserved":false,"is_disabled":true,"rental_uris":{"android":"levelo://app?vid=847e09aa-0198-46d1-b907-778eecf50dd1","ios":"levelo://app?vid=847e09aa-0198-46d1-b907-778eecf50dd1"},"vehicle_type_id":"4","last_reported":1735692687,"current_range_meters":38800,"station_id":"ce4bgl92rcd13ifvqbq0","pricing_plan_id":"cebpf4jnsgd1na2vs0mg"},{"bike_id":"ee4b48b9-c213-4ba7-bb36-6f6493d502a8","system_id":"levelo_inurba_marseille","lat":43.27389,"lon":5.36257,"is_reserved":false,"is_disabled":false,"rental_uris":{"android":"levelo://app?vid=ee4b48b9-c213-4ba7-bb36-6f6493d502a8","ios":"levelo://app?vid=ee4b48b9-c213-4ba7-bb36-6f6493d502a8"},"vehicle_type_id":"4","last_reported":1735692687,"current_range_meters":30000,"station_id":"ce4bhbh2rcd13ifvqeo0","pricing_plan_id":"cebpf4jnsgd1na2vs0mg"},{"bike_id":"5367a292-5564-4681-91cd-97babb89fc00","system_id":"levelo_inurba_marseille","lat":43.22908,"lon":5.35393,"is_reserved":false,"is_disabled":false,"rental_uris":{"android":"levelo://app?vid=5367a292-5564-4681-91cd-97babb89fc00","ios":"levelo://app?vid=5367a292-5564-4681-91cd-97babb89fc00"},"vehicle_type_id":"4","last_reported":1735692687,"current_range_meters":25600,"station_id":"cpo3532slgdg3j2ikp40","pricing_plan_id":"cebpf4jnsgd1na2vs0mg"},{"bike_id":"1d5543c4-1c87-4447-ad2e-0cc64903ea75","system_id":"levelo_inurba_marseille","lat":43.25866,"lon":5.39896,"is_reserved":false,"is_disabled":false,"rental_uris":{"android":"levelo://app?vid=1d5543c4-1c87-4447-ad2e-0cc64903ea75","ios":"levelo://app?vid=1d5543c4-1c87-4447-ad2e-0cc64903ea75"},"vehicle_type_id":"4","last_reported":1735692687,"current_range_meters":38800,"station_id":"ce4bhl92rcd13ifvqghg","pricing_plan_id":"cebpf4jnsgd1na2vs0mg"},{"bike_id":"0483d5a5-12c2-4b90-8e6c-47d6d5a4b82c","system_id":"levelo_inurba_marseille","lat":43.25851,"lon":5.39434,"is_reserved":false,"is_disabled":false,"rental_uris":{"android":"levelo://app?vid=0483d5a5-12c2-4b90-8e6c-47d6d5a4b82c","ios":"levelo://app?vid=0483d5a5-12c2-4b90-8e6c-47d6d5a4b82c"},"vehicle_type_id":"4","last_reported":1735692687,"current_range_meters":38800,"station_id":"ce4bhip2rcd13ifvqft0","pricing_plan_id":"cebpf4jnsgd1na2vs0mg"},{"bike_id":"523f53b8-d5fa-4c60-a25e-8902b398e89d","system_id":"levelo_inurba_marseille","lat":43.29571,"lon":5.4229,"is_reserved":false,"is_disabled":false,"rental_uris":{"android":"levelo://app?vid=523f53b8-d5fa-4c60-a25e-8902b398e89d","ios":"levelo://app?vid=523f53b8-d5fa-4c60-a25e-8902b398e89d"},"vehicle_type_id":"4","last_reported":1735692687,"current_range_meters":38800,"station_id":"ce4bhph2rcd13ifvqhdg","pricing_plan_id":"cebpf4jnsgd1na2vs0mg"},{"bike_id":"bd47e449-c339-4576-ae3e-e185e66a3e93","system_id":"levelo_inurba_marseille","lat":43.29543,"lon":5.38548,"is_reserved":false,"is_disabled":false,"rental_uris":{"android":"levelo://app?vid=bd47e449-c339-4576-ae3e-e185e66a3e93","ios":"levelo://app?vid=bd47e449-c339-4576-ae3e-e185e66a3e93"},"vehicle_type_id":"4","last_reported":1735692687,"current_range_meters":22000,"station_id":"ce4bgih2rcd13ifvqba0","pricing_plan_id":"cebpf4jnsgd1na2vs0mg"},{"bike_id":"90ea32f2-8b16-412b-9028-e97b2dd7bfd3","system_id":"levelo_inurba_marseille","lat":43.31685,"lon":5.40341,"is_reserved":false,"is_disabled":false,"rental_uris":{"android":"levelo://app?vid=90ea32f2-8b16-412b-9028-e97b2dd7bfd3","ios":"levelo://app?vid=90ea32f2-8b16-412b-9028-e97b2dd7bfd3"},"vehicle_type_id":"4","last_reported":1735692687,"current_range_meters":38800,"station_id":"ce4bh012rcd13ifvqd00","pricing_plan_id":"cebpf4jnsgd1na2vs0mg"},{"bike_id":"6efc50cc-4611-4d8e-9840-7d4365485eb6","system_id":"levelo_inurba_marseille","lat":43.3081,"lon":5.38141,"is_reserved":false,"is_disabled":false,"rental_uris":{"android":"levelo://app?vid=6efc50cc-4611-4d8e-9840-7d4365485eb6","ios":"levelo://app?vid=6efc50cc-4611-4d8e-9840-7d4365485eb6"},"vehicle_type_id":"4","last_reported":1735692687,"current_range_meters":4800,"station_id":"ce4bgt12rcd13ifvqce0","pricing_plan_id":"cebpf4jnsgd1na2vs0mg"},{"bike_id":"2510b6a6-e1f5-4b0d-8b81-62dab8730a91","system_id":"levelo_inurba_marseille","lat":43.28712,"lon":5.3794,"is_reserved":false,"is_disabled":false,"rental_uris":{"android":"levelo://app?vid=2510b6a6-e1f5-4b0d-8b81-62dab8730a91","ios":"levelo://app?vid=2510b6a6-e1f5-4b0d-8b81-62dab8730a91"},"vehicle_type_id":"4","last_reported":1735692687,"current_range_meters":30000,"station_id":"ce4bh9p2rcd13ifvqec0","pricing_plan_id":"cebpf4jnsgd1na2vs0mg"},{"bike_id":"fd43e90a-0d3f-4c01-9e7a-84edd9379a72","system_id":"levelo_inurba_marseille","lat":43.26561,"lon":5.38997,"is_reserved":false,"is_disabled":false,"rental_uris":{"android":"levelo://app?vid=fd43e90a-0d3f-4c01-9e7a-84edd9379a72","ios":"levelo://app?vid=fd43e90a-0d3f-4c01-9e7a-84edd9379a72"},"vehicle_type_id":"4","last_reported":1735692687,"current_range_meters":17200,"station_id":"ce4bhe12rcd13ifvqf30","pricing_plan_id":"cebpf4jnsgd1na2vs0mg"},{"bike_id":"6164fd70-bd1e-4bfa-b09a-6196d7e0229b","system_id":"levelo_inurba_marseille","lat":43.243899,"lon":5.370586,"is_reserved":false,"is_disabled":false,"rental_uris":{"android":"levelo://app?vid=6164fd70-bd1e-4bfa-b09a-6196d7e0229b","ios":"levelo://app?vid=6164fd70-bd1e-4bfa-b09a-6196d7e0229b"},"vehicle_type_id":"4","last_reported":1735692687,"current_range_meters":38800,"station_id":"ce4bhhh2rcd13ifvqfk0","pricing_plan_id":"cebpf4jnsgd1na2vs0mg"},{"bike_id":"134672db-c3ab-45f3-80be-c3e2e0bdc3fb","system_id":"levelo_inurba_marseille","lat":43.30208,"lon":5.39461,"is_reserved":false,"is_disabled":false,"rental_uris":{"android":"levelo://app?vid=134672db-c3ab-45f3-80be-c3e2e0bdc3fb","ios":"levelo://app?vid=134672db-c3ab-45f3-80be-c3e2e0bdc3fb"},"vehicle_type_id":"4","last_reported":1735692687,"current_range_meters":38000,"station_id":"ce4bh0p2rcd13ifvqd70","pricing_plan_id":"cebpf4jnsgd1na2vs0mg"},{"bike_id":"5600542f-1491-4294-bd76-258204cc22be","system_id":"levelo_inurba_marseille","lat":43.2834,"lon":5.38104,"is_reserved":false,"is_disabled":false,"rental_uris":{"android":"levelo://app?vid=5600542f-1491-4294-bd76-258204cc22be","ios":"levelo://app?vid=5600542f-1491-4294-bd76-258204cc22be"},"vehicle_type_id":"4","last_reported":1735692687,"current_range_meters":33600,"station_id":"ce4bh412rcd13ifvqdr0","pricing_plan_id":"cebpf4jnsgd1na2vs0mg"},{"bike_id":"f2415c22-2773-470e-860e-7ecf74630163","system_id":"levelo_inurba_marseille","lat":43.26502,"lon":5.39612,"is_reserved":false,"is_disabled":false,"rental_uris":{"android":"levelo://app?vid=f2415c22-2773-470e-860e-7ecf74630163","ios":"levelo://app?vid=f2415c22-2773-470e-860e-7ecf74630163"},"vehicle_type_id":"4","last_reported":1735692687,"current_range_meters":38800,"station_id":"","pricing_plan_id":"cebpf4jnsgd1na2vs0mg"},{"bike_id":"ca497fc6-cd22-4171-8d71-508c45bf12cf","system_id":"levelo_inurba_marseille","lat":43.29638,"lon":5.37179,"is_reserved":false,"is_disabled":false,"rental_uris":{"android":"levelo://app?vid=ca497fc6-cd22-4171-8d71-508c45bf12cf","ios":"levelo://app?vid=ca497fc6-cd22-4171-8d71-508c45bf12cf"},"vehicle_type_id":"4","last_reported":1735692687,"current_range_meters":38000,"station_id":"ce4bgnh2rcd13ifvqc0g","pricing_plan_id":"cebpf4jnsgd1na2vs0mg"},{"bike_id":"297b2cd4-7ce0-49ae-b800-4cff08db0a1f","system_id":"levelo_inurba_marseille","lat":43.29969,"lon":5.37181,"is_reserved":false,"is_disabled":false,"rental_uris":{"android":"levelo://app?vid=297b2cd4-7ce0-49ae-b800-4cff08db0a1f","ios":"levelo://app?vid=297b2cd4-7ce0-49ae-b800-4cff08db0a1f"},"vehicle_type_id":"4","last_reported":1735692687,"current_range_meters":34800,"station_id":"ce4bgr92rcd13ifvqc7g","pricing_plan_id":"cebpf4jnsgd1na2vs0mg"},{"bike_id":"21cba4ef-9636-4b81-a418-95db6be87b7d","system_id":"levelo_inurba_marseille","lat":43.311168,"lon":5.377686,"is_reserved":false,"is_disabled":false,"rental_uris":{"android":"levelo://app?vid=21cba4ef-9636-4b81-a418-95db6be87b7d","ios":"levelo://app?vid=21cba4ef-9636-4b81-a418-95db6be87b7d"},"vehicle_type_id":"4","last_reported":1735692687,"current_range_meters":37600,"station_id":"ce4bgt92rcd13ifvqcg0","pricing_plan_id":"cebpf4jnsgd1na2vs0mg"},{"bike_id":"bbfc5010-5ad1-478a-9bf0-def17e142c1c","system_id":"levelo_inurba_marseille","lat":43.28025,"lon":5.36935,"is_reserved":false,"is_disabled":true,"rental_uris":{"android":"levelo://app?vid=bbfc5010-5ad1-478a-9bf0-def17e142c1c","ios":"levelo://app?vid=bbfc5010-5ad1-478a-9bf0-def17e142c1c"},"vehicle_type_id":"4","last_reported":1735692687,"current_range_meters":4400,"station_id":"ce4bha12rcd13ifvqef0","pricing_plan_id":"cebpf4jnsgd1na2vs0mg"},{"bike_id":"6c0fb134-9410-467e-b177-d5df5bf3c5c4","system_id":"levelo_inurba_marseille","lat":43.2862,"lon":5.35108,"is_reserved":false,"is_disabled":false,"rental_uris":{"android":"levelo://app?vid=6c0fb134-9410-467e-b177-d5df5bf3c5c4","ios":"levelo://app?vid=6c0fb134-9410-467e-b177-d5df5bf3c5c4"},"vehicle_type_id":"4","last_reported":1735692687,"current_range_meters":19600,"station_id":"ce4bhch2rcd13ifvqeug","pricing_plan_id":"cebpf4jnsgd1na2vs0mg"},{"bike_id":"f4d31bdd-067d-44f1-8dce-9df56d6287d9","system_id":"levelo_inurba_marseille","lat":43.2789,"lon":5.41017,"is_reserved":false,"is_disabled":false,"rental_uris":{"android":"levelo://app?vid=f4d31bdd-067d-44f1-8dce-9df56d6287d9","ios":"levelo://app?vid=f4d31bdd-067d-44f1-8dce-9df56d6287d9"},"vehicle_type_id":"4","last_reported":1735692687,"current_range_meters":12000,"station_id":"","pricing_plan_id":"cebpf4jnsgd1na2vs0mg"},{"bike_id":"dac94ecf-3203-4c89-acc0-21c14e979588","system_id":"levelo_inurba_marseille","lat":43.26684,"lon":5.38272,"is_reserved":false,"is_disabled":false,"rental_uris":{"android":"levelo://app?vid=dac94ecf-3203-4c89-acc0-21c14e979588","ios":"levelo://app?vid=dac94ecf-3203-4c89-acc0-21c14e979588"},"vehicle_type_id":"4","last_reported":1735692687,"current_range_meters":13600,"station_id":"ce4bhg92rcd13ifvqf90","pricing_plan_id":"cebpf4jnsgd1na2vs0mg"},{"bike_id":"560a082e-860d-453b-bdd6-7a868105718c","system_id":"levelo_inurba_marseille","lat":43.26819,"lon":5.40257,"is_reserved":false,"is_disabled":false,"rental_uris":{"android":"levelo://app?vid=560a082e-860d-453b-bdd6-7a868105718c","ios":"levelo://app?vid=560a082e-860d-453b-bdd6-7a868105718c"},"vehicle_type_id":"4","last_reported":1735692687,"current_range_meters":38000,"station_id":"ce501612rcd8frsf0b60","pricing_plan_id":"cebpf4jnsgd1na2vs0mg"},{"bike_id":"34c94d6b-e825-45a5-a340-625525b8066e","system_id":"levelo_inurba_marseille","lat":43.32281,"lon":5.38986,"is_reserved":false,"is_disabled":false,"rental_uris":{"android":"levelo://app?vid=34c94d6b-e825-45a5-a340-625525b8066e","ios":"levelo://app?vid=34c94d6b-e825-45a5-a340-625525b8066e"},"vehicle_type_id":"4","last_reported":1735692687,"current_range_meters":20400,"station_id":"ce4bhqp2rcd13ifvqhog","pricing_plan_id":"cebpf4jnsgd1na2vs0mg"},{"bike_id":"9c42c59a-a990-48ee-91ac-32ebebcaabf5","system_id":"levelo_inurba_marseille","lat":43.2757,"lon":5.38409,"is_reserved":false,"is_disabled":false,"rental_uris":{"android":"levelo://app?vid=9c42c59a-a990-48ee-91ac-32ebebcaabf5","ios":"levelo://app?vid=9c42c59a-a990-48ee-91ac-32ebebcaabf5"},"vehicle_type_id":"4","last_reported":1735692687,"current_range_meters":38800,"station_id":"ce4bhh92rcd13ifvqfi0","pricing_plan_id":"cebpf4jnsgd1na2vs0mg"},{"bike_id":"1183fb3d-73ae-4779-a76c-d9eac4c3cf71","system_id":"levelo_inurba_marseille","lat":43.28507,"lon":5.38444,"is_reserved":false,"is_disabled":false,"rental_uris":{"android":"levelo://app?vid=1183fb3d-73ae-4779-a76c-d9eac4c3cf71","ios":"levelo://app?vid=1183fb3d-73ae-4779-a76c-d9eac4c3cf71"},"vehicle_type_id":"4","last_reported":1735692687,"current_range_meters":27200,"station_id":"ce4bh512rcd13ifvqe3g","pricing_plan_id":"cebpf4jnsgd1na2vs0mg"},{"bike_id":"1793c5bc-f3cc-4c5b-bc53-bbaf531c71e9","system_id":"levelo_inurba_marseille","lat":43.30425,"lon":5.41358,"is_reserved":false,"is_disabled":false,"rental_uris":{"android":"levelo://app?vid=1793c5bc-f3cc-4c5b-bc53-bbaf531c71e9","ios":"levelo://app?vid=1793c5bc-f3cc-4c5b-bc53-bbaf531c71e9"},"vehicle_type_id":"4","last_reported":1735692687,"current_range_meters":32800,"station_id":"","pricing_plan_id":"cebpf4jnsgd1na2vs0mg"},{"bike_id":"257952b9-e033-4f44-8c86-0cbcf5c46b77","system_id":"levelo_inurba_marseille","lat":43.31108,"lon":5.37779,"is_reserved":false,"is_disabled":false,"rental_uris":{"android":"levelo://app?vid=257952b9-e033-4f44-8c86-0cbcf5c46b77","ios":"levelo://app?vid=257952b9-e033-4f44-8c86-0cbcf5c46b77"},"vehicle_type_id":"4","last_reported":1735692687,"current_range_meters":36000,"station_id":"ce4bgt92rcd13ifvqcg0","pricing_plan_id":"cebpf4jnsgd1na2vs0mg"},{"bike_id":"b08b44c9-4f43-459d-a0dd-d0fc0b2388a9","system_id":"levelo_inurba_marseille","lat":43.29613,"lon":5.37723,"is_reserved":false,"is_disabled":false,"rental_uris":{"android":"levelo://app?vid=b08b44c9-4f43-459d-a0dd-d0fc0b2388a9","ios":"levelo://app?vid=b08b44c9-4f43-459d-a0dd-d0fc0b2388a9"},"vehicle_type_id":"4","last_reported":1735692687,"current_range_meters":36800,"station_id":"ce4bgi92rcd13ifvqb90","pricing_plan_id":"cebpf4jnsgd1na2vs0mg"},{"bike_id":"6ab36650-f1a5-43bf-9236-abd33b3bd7be","system_id":"levelo_inurba_marseille","lat":43.29192,"lon":5.35805,"is_reserved":false,"is_disabled":false,"rental_uris":{"android":"levelo://app?vid=6ab36650-f1a5-43bf-9236-abd33b3bd7be","ios":"levelo://app?vid=6ab36650-f1a5-43bf-9236-abd33b3bd7be"},"vehicle_type_id":"4","last_reported":1735692687,"current_range_meters":14400,"station_id":"ce4bhb12rcd13ifvqel0","pricing_plan_id":"cebpf4jnsgd1na2vs0mg"},{"bike_id":"ab16d1bd-cc5a-492f-a523-fcc0f6376cad","system_id":"levelo_inurba_marseille","lat":43.24071,"lon":5.37761,"is_reserved":false,"is_disabled":false,"rental_uris":{"android":"levelo://app?vid=ab16d1bd-cc5a-492f-a523-fcc0f6376cad","ios":"levelo://app?vid=ab16d1bd-cc5a-492f-a523-fcc0f6376cad"},"vehicle_type_id":"4","last_reported":1735692687,"current_range_meters":22400,"station_id":"ce4bhnp2rcd13ifvqgvg","pricing_plan_id":"cebpf4jnsgd1na2vs0mg"},{"bike_id":"e1e92fa2-27c6-4d3a-a39e-c3735530c422","system_id":"levelo_inurba_marseille","lat":43.28472,"lon":5.38419,"is_reserved":false,"is_disabled":false,"rental_uris":{"android":"levelo://app?vid=e1e92fa2-27c6-4d3a-a39e-c3735530c422","ios":"levelo://app?vid=e1e92fa2-27c6-4d3a-a39e-c3735530c422"},"vehicle_type_id":"4","last_reported":1735692687,"current_range_meters":25600,"station_id":"ce4bh512rcd13ifvqe3g","pricing_plan_id":"cebpf4jnsgd1na2vs0mg"},{"bike_id":"3af081ff-ba1c-48ed-a05e-61b69c58eeab","system_id":"levelo_inurba_marseille","lat":43.2894,"lon":5.39633,"is_reserved":false,"is_disabled":false,"rental_uris":{"android":"levelo://app?vid=3af081ff-ba1c-48ed-a05e-61b69c58eeab","ios":"levelo://app?vid=3af081ff-ba1c-48ed-a05e-61b69c58eeab"},"vehicle_type_id":"4","last_reported":1735692687,"current_range_meters":37600,"station_id":"ce4bh3h2rcd13ifvqdn0","pricing_plan_id":"cebpf4jnsgd1na2vs0mg"},{"bike_id":"35574f6b-4167-408b-abb1-f2bf64bbac3a","system_id":"levelo_inurba_marseille","lat":43.31111,"lon":5.37778,"is_reserved":false,"is_disabled":false,"rental_uris":{"android":"levelo://app?vid=35574f6b-4167-408b-abb1-f2bf64bbac3a","ios":"levelo://app?vid=35574f6b-4167-408b-abb1-f2bf64bbac3a"},"vehicle_type_id":"4","last_reported":1735692687,"current_range_meters":16400,"station_id":"ce4bgt92rcd13ifvqcg0","pricing_plan_id":"cebpf4jnsgd1na2vs0mg"},{"bike_id":"1937c767-9a30-4821-8bc2-92dfe0b19ce1","system_id":"levelo_inurba_marseille","lat":43.30197,"lon":5.39402,"is_reserved":false,"is_disabled":false,"rental_uris":{"android":"levelo://app?vid=1937c767-9a30-4821-8bc2-92dfe0b19ce1","ios":"levelo://app?vid=1937c767-9a30-4821-8bc2-92dfe0b19ce1"},"vehicle_type_id":"4","last_reported":1735692687,"current_range_meters":35200,"station_id":"ce4bh0h2rcd13ifvqd40","pricing_plan_id":"cebpf4jnsgd1na2vs0mg"},{"bike_id":"0d02c513-ca2e-4e40-9108-e87868ca0473","system_id":"levelo_inurba_marseille","lat":43.28154,"lon":5.42677,"is_reserved":false,"is_disabled":false,"rental_uris":{"android":"levelo://app?vid=0d02c513-ca2e-4e40-9108-e87868ca0473","ios":"levelo://app?vid=0d02c513-ca2e-4e40-9108-e87868ca0473"},"vehicle_type_id":"4","last_reported":1735692687,"current_range_meters":26000,"station_id":"ce4bhnh2rcd13ifvqgug","pricing_plan_id":"cebpf4jnsgd1na2vs0mg"},{"bike_id":"c14d1989-a72f-4241-a582-39661d0bcfcf","system_id":"levelo_inurba_marseille","lat":43.23204,"lon":5.35546,"is_reserved":false,"is_disabled":false,"rental_uris":{"android":"levelo://app?vid=c14d1989-a72f-4241-a582-39661d0bcfcf","ios":"levelo://app?vid=c14d1989-a72f-4241-a582-39661d0bcfcf"},"vehicle_type_id":"4","last_reported":1735692687,"current_range_meters":38800,"station_id":"ce4bhu92rcd13ifvqi70","pricing_plan_id":"cebpf4jnsgd1na2vs0mg"},{"bike_id":"4ad8fb0c-9d51-474b-b663-201965528dce","system_id":"levelo_inurba_marseille","lat":43.270556,"lon":5.402522,"is_reserved":false,"is_disabled":false,"rental_uris":{"android":"levelo://app?vid=4ad8fb0c-9d51-474b-b663-201965528dce","ios":"levelo://app?vid=4ad8fb0c-9d51-474b-b663-201965528dce"},"vehicle_type_id":"4","last_reported":1735692687,"current_range_meters":36800,"station_id":"ce4bhk92rcd13ifvqgc0","pricing_plan_id":"cebpf4jnsgd1na2vs0mg"},{"bike_id":"a74c2d12-b57a-4ffa-b46f-df1bdb7d8918","system_id":"levelo_inurba_marseille","lat":43.230586,"lon":5.355027,"is_reserved":false,"is_disabled":false,"rental_uris":{"android":"levelo://app?vid=a74c2d12-b57a-4ffa-b46f-df1bdb7d8918","ios":"levelo://app?vid=a74c2d12-b57a-4ffa-b46f-df1bdb7d8918"},"vehicle_type_id":"4","last_reported":1735692687,"current_range_meters":38800,"station_id":"cpo3342slgdg3j2ifvpg","pricing_plan_id":"cebpf4jnsgd1na2vs0mg"},{"bike_id":"3d5f108f-e7fa-4ab0-b3df-275ed439881b","system_id":"levelo_inurba_marseille","lat":43.28723,"lon":5.374,"is_reserved":false,"is_disabled":false,"rental_uris":{"android":"levelo://app?vid=3d5f108f-e7fa-4ab0-b3df-275ed439881b","ios":"levelo://app?vid=3d5f108f-e7fa-4ab0-b3df-275ed439881b"},