{"last_updated":1750249332,"ttl":60,"version":"2.2","data":{"bikes":[{"bike_id":"3da29fb8-fc97-44c6-b9ac-31dd456b2fd4","system_id":"levelo_inurba_marseille","lat":43.33771,"lon":5.37424,"is_reserved":false,"is_disabled":true,"rental_uris":{"android":"levelo://app?vid=3da29fb8-fc97-44c6-b9ac-31dd456b2fd4","ios":"levelo://app?vid=3da29fb8-fc97-44c6-b9ac-31dd456b2fd4"},"vehicle_type_id":"4","last_reported":1750249332,"current_range_meters":0,"station_id":"","pricing_plan_id":"cebpf4jnsgd1na2vs0mg"},{"bike_id":"01861ad8-a8d7-4be6-816e-651927c87584","system_id":"levelo_inurba_marseille","lat":43.33751,"lon":5.37456,"is_reserved":false,"is_disabled":true,"rental_uris":{"android":"levelo://app?vid=01861ad8-a8d7-4be6-816e-651927c87584","ios":"levelo://app?vid=01861ad8-a8d7-4be6-816e-651927c87584"},"vehicle_type_id":"4","last_reported":1750249332,"current_range_meters":0,"station_id":"","pricing_plan_id":"cebpf4jnsgd1na2vs0mg"},{"bike_id":"dbfce7a3-3423-4296-b193-a177dea644ac","system_id":"levelo_inurba_marseille","lat":43.273,"lon":5.41643,"is_reserved":false,"is_disabled":true,"rental_uris":{"android":"levelo://app?vid=dbfce7a3-3423-4296-b193-a177dea644ac","ios":"levelo://app?vid=dbfce7a3-3423-4296-b193-a177dea644ac"},"vehicle_type_id":"4","last_reported":1750249332,"current_range_meters":0,"station_id":"","pricing_plan_id":"cebpf4jnsgd1na2vs0mg"},{"bike_id":"d2bd57c8-6b64-48db-ad24-5398eb3fd9d6","system_id":"levelo_inurba_marseille","lat":43.337444,"lon":5.374475,"is_reserved":false,"is_disabled":true,"rental_uris":{"android":"levelo://app?vid=d2bd57c8-6b64-48db-ad24-5398eb3fd9d6","ios":"levelo://app?vid=d2bd57c8-6b64-48db-ad24-5398eb3fd9d6"},"vehicle_type_id":"4","last_reported":1750249332,"current_range_meters":0,"station_id":"","pricing_plan_id":"cebpf4jnsgd1na2vs0mg"},{"bike_id":"62a493c7-4534-4419-ad43-0582de34a72a","system_id":"levelo_inurba_marseille","lat":43.21366,"lon":5.355183,"is_reserved":false,"is_disabled":true,"rental_uris":{"android":"levelo://app?vid=62a493c7-4534-4419-ad43-0582de34a72a","ios":"levelo://app?vid=62a493c7-4534-4419-ad43-0582de34a72a"},"vehicle_type_id":"4","last_reported":1750249332,"current_range_meters":0,"station_id":"","pricing_plan_id":"cebpf4jnsgd1na2vs0mg"},{"bike_id":"b9e37238-9abe-4b8b-b932-edaee33a7e59","system_id":"levelo_inurba_marseille","lat":43.274955,"lon":5.390054,"is_reserved":false,"is_disabled":true,"rental_uris":{"android":"levelo://app?vid=b9e37238-9abe-4b8b-b932-edaee33a7e59","ios":"levelo://app?vid=b9e37238-9abe-4b8b-b932-edaee33a7e59"},"vehicle_type_id":"4","last_reported":1750249332,"current_range_meters":0,"station_id":"","pricing_plan_id":"cebpf4jnsgd1na2vs0mg"},{"bike_id":"cba28a02-9f06-41dd-8645-e3bd321e07ba","system_id":"levelo_inurba_marseille","lat":43.28802,"lon":5.387065,"is_reserved":false,"is_disabled":true,"rental_uris":{"android":"levelo://app?vid=cba28a02-9f06-41dd-8645-e3bd321e07ba","ios":"levelo://app?vid=cba28a02-9f06-41dd-8645-e3bd321e07ba"},"vehicle_type_id":"4","last_reported":1750249332,"current_range_meters":0,"station_id":"","pricing_plan_id":"cebpf4jnsgd1na2vs0mg"},{"bike_id":"dba623ec-664c-4621-8832-8f9cf82566ea","system_id":"levelo_inurba_marseille","lat":43.2805,"lon":5.3687,"is_reserved":false,"is_disabled":true,"rental_uris":{"android":"levelo://app?vid=dba623ec-664c-4621-8832-8f9cf82566ea","ios":"levelo://app?vid=dba623ec-664c-4621-8832-8f9cf82566ea"},"vehicle_type_id":"4","last_reported":1750249332,"current_range_meters":0,"station_id":"","pricing_plan_id":"cebpf4jnsgd1na2vs0mg"},{"bike_id":"8ad9234e-001a-4549-8bba-9baf2ef98804","system_id":"levelo_inurba_marseille","lat":43.27417,"lon":5.39786,"is_reserved":false,"is_disabled":true,"rental_uris":{"android":"levelo://app?vid=8ad9234e-001a-4549-8bba-9baf2ef98804","ios":"levelo://app?vid=8ad9234e-001a-4549-8bba-9baf2ef98804"},"vehicle_type_id":"4","last_reported":1750249332,"current_range_meters":0,"station_id":"","pricing_plan_id":"cebpf4jnsgd1na2vs0mg"},{"bike_id":"93af304b-67b5-47b8-a3fd-e0775f7cde8c","system_id":"levelo_inurba_marseille","lat":43.215301,"lon":5.347406,"is_reserved":false,"is_disabled":true,"rental_uris":{"android":"levelo://app?vid=93af304b-67b5-47b8-a3fd-e0775f7cde8c","ios":"levelo://app?vid=93af304b-67b5-47b8-a3fd-e0775f7cde8c"},"vehicle_type_id":"4","last_reported":1750249332,"current_range_meters":0,"station_id":"","pricing_plan_id":"cebpf4jnsgd1na2vs0mg"},{"bike_id":"d6609b4f-333b-43c1-9ebe-8726f5e76e88","system_id":"levelo_inurba_marseille","lat":43.337444,"lon":5.374475,"is_reserved":false,"is_disabled":true,"rental_uris":{"android":"levelo://app?vid=d6609b4f-333b-43c1-9ebe-8726f5e76e88","ios":"levelo://app?vid=d6609b4f-333b-43c1-9ebe-8726f5e76e88"},"vehicle_type_id":"4","last_reported":1750249332,"current_range_meters":0,"station_id":"","pricing_plan_id":"cebpf4jnsgd1na2vs0mg"},{"bike_id":"57c83ce1-960e-466a-b6c5-d93bc130c53a","system_id":"levelo_inurba_marseille","lat":43.24923,"lon":5.38957,"is_reserved":false,"is_disabled":true,"rental_uris":{"android":"levelo://app?vid=57c83ce1-960e-466a-b6c5-d93bc130c53a","ios":"levelo://app?vid=57c83ce1-960e-466a-b6c5-d93bc130c53a"},"vehicle_type_id":"4","last_reported":1750249332,"current_range_meters":0,"station_id":"","pricing_plan_id":"cebpf4jnsgd1na2vs0mg"},{"bike_id":"fc2f6cc9-45b6-416e-97ea-3e3ffd75772e","system_id":"levelo_inurba_marseille","lat":43.312179,"lon":5.368602,"is_reserved":false,"is_disabled":true,"rental_uris":{"android":"levelo://app?vid=fc2f6cc9-45b6-416e-97ea-3e3ffd75772e","ios":"levelo://app?vid=fc2f6cc9-45b6-416e-97ea-3e3ffd75772e"},"vehicle_type_id":"4","last_reported":1750249332,"current_range_meters":0,"station_id":"ce4bgl92rcd13ifvqbq0","pricing_plan_id":"cebpf4jnsgd1na2vs0mg"},{"bike_id":"7c524447-6b49-45c8-bdf0-85ad1c55ea66","system_id":"levelo_inurba_marseille","lat":43.314856,"lon":5.37314,"is_reserved":false,"is_disabled":true,"rental_uris":{"android":"levelo://app?vid=7c524447-6b49-45c8-bdf0-85ad1c55ea66","ios":"levelo://app?vid=7c524447-6b49-45c8-bdf0-85ad1c55ea66"},"vehicle_type_id":"4","last_reported":1750249332,"current_range_meters":0,"station_id":"ce4bgt12rcd13ifvqcd0","pricing_plan_id":"cebpf4jnsgd1na2vs0mg"},{"bike_id":"adc14ea6-400b-4122-b590-7b594911cd66","system_id":"levelo_inurba_marseille","lat":43.30887,"lon":5.3966,"is_reserved":false,"is_disabled":true,"rental_uris":{"android":"levelo://app?vid=adc14ea6-400b-4122-b590-7b594911cd66","ios":"levelo://app?vid=adc14ea6-400b-4122-b590-7b594911cd66"},"vehicle_type_id":"4","last_reported":1750249332,"current_range_meters":0,"station_id":"ce4bh012rcd13ifvqcv0","pricing_plan_id":"cebpf4jnsgd1na2vs0mg"},{"bike_id":"d86228ca-d2fe-4406-a4b4-9e57ac8fe9c6","system_id":"levelo_inurba_marseille","lat":43.27382,"lon":5.36254,"is_reserved":false,"is_disabled":true,"rental_uris":{"android":"levelo://app?vid=d86228ca-d2fe-4406-a4b4-9e57ac8fe9c6","ios":"levelo://app?vid=d86228ca-d2fe-4406-a4b4-9e57ac8fe9c6"},"vehicle_type_id":"4","last_reported":1750249332,"current_range_meters":0,"station_id":"ce4bhbh2rcd13ifvqeo0","pricing_plan_id":"cebpf4jnsgd1na2vs0mg"},{"bike_id":"efcaa8ce-337e-488d-8e05-557decca329d","system_id":"levelo_inurba_marseille","lat":43.29239,"lon":5.36057,"is_reserved":false,"is_disabled":true,"rental_uris":{"android":"levelo://app?vid=efcaa8ce-337e-488d-8e05-557decca329d","ios":"levelo://app?vid=efcaa8ce-337e-488d-8e05-557decca329d"},"vehicle_type_id":"4","last_reported":1750249332,"current_range_meters":0,"station_id":"ce4bhbh2rcd13ifvqeqg","pricing_plan_id":"cebpf4jnsgd1na2vs0mg"},{"bike_id":"6d5856f5-fc3d-4dc5-9955-df114ea21e49","system_id":"levelo_inurba_marseille","lat":43.2481,"lon":5.37442,"is_reserved":false,"is_disabled":true,"rental_uris":{"android":"levelo://app?vid=6d5856f5-fc3d-4dc5-9955-df114ea21e49","ios":"levelo://app?vid=6d5856f5-fc3d-4dc5-9955-df114ea21e49"},"vehicle_type_id":"4","last_reported":1750249332,"current_range_meters":0,"station_id":"ce4bhgh2rcd13ifvqfb0","pricing_plan_id":"cebpf4jnsgd1na2vs0mg"},{"bike_id":"d33af23f-6948-4ebb-aba0-1cbef8e40086","system_id":"levelo_inurba_marseille","lat":43.25582,"lon":5.38239,"is_reserved":false,"is_disabled":true,"rental_uris":{"android":"levelo://app?vid=d33af23f-6948-4ebb-aba0-1cbef8e40086","ios":"levelo://app?vid=d33af23f-6948-4ebb-aba0-1cbef8e40086"},"vehicle_type_id":"4","last_reported":1750249332,"current_range_meters":0,"station_id":"ce4bhih2rcd13ifvqfs0","pricing_plan_id":"cebpf4jnsgd1na2vs0mg"},{"bike_id":"6ab1ca16-c4ac-44a0-8157-7fb72ffd7777","system_id":"levelo_inurba_marseille","lat":43.27067,"lon":5.42276,"is_reserved":false,"is_disabled":true,"rental_uris":{"android":"levelo://app?vid=6ab1ca16-c4ac-44a0-8157-7fb72ffd7777","ios":"levelo://app?vid=6ab1ca16-c4ac-44a0-8157-7fb72ffd7777"},"vehicle_type_id":"4","last_reported":1750249332,"current_range_meters":0,"station_id":"ce4bhk92rcd13ifvqgb0","pricing_plan_id":"cebpf4jnsgd1na2vs0mg"},{"bike_id":"55630a62-834a-43ac-b638-b660a386562d","system_id":"levelo_inurba_marseille","lat":43.23189,"lon":5.39989,"is_reserved":false,"is_disabled":true,"rental_uris":{"android":"levelo://app?vid=55630a62-834a-43ac-b638-b660a386562d","ios":"levelo://app?vid=55630a62-834a-43ac-b638-b660a386562d"},"vehicle_type_id":"4","last_reported":1750249332,"current_range_meters":0,"station_id":"ce4bhn12rcd13ifvqgqg","pricing_plan_id":"cebpf4jnsgd1na2vs0mg"},{"bike_id":"5d3b2aec-78f3-40aa-83db-c23461d194ff","system_id":"levelo_inurba_marseille","lat":43.242152,"lon":5.376093,"is_reserved":false,"is_disabled":true,"rental_uris":{"android":"levelo://app?vid=5d3b2aec-78f3-40aa-83db-c23461d194ff","ios":"levelo://app?vid=5d3b2aec-78f3-40aa-83db-c23461d194ff"},"vehicle_type_id":"4","last_reported":1750249332,"current_range_meters":0,"station_id":"ce4bhnp2rcd13ifvqgvg","pricing_plan_id":"cebpf4jnsgd1na2vs0mg"},{"bike_id":"408d7dc4-ea62-4603-97ab-b4b3c556c4ea","system_id":"levelo_inurba_marseille","lat":43.330233,"lon":5.390405,"is_reserved":false,"is_disabled":true,"rental_uris":{"android":"levelo://app?vid=408d7dc4-ea62-4603-97ab-b4b3c556c4ea","ios":"levelo://app?vid=408d7dc4-ea62-4603-97ab-b4b3c556c4ea"},"vehicle_type_id":"4","last_reported":1750249332,"current_range_meters":0,"station_id":"ce4bhr92rcd13ifvqhrg","pricing_plan_id":"cebpf4jnsgd1na2vs0mg"},{"bike_id":"d141a217-5179-4e40-b797-010aac862ba5","system_id":"levelo_inurba_marseille","lat":43.23965,"lon":5.36631,"is_reserved":false,"is_disabled":true,"rental_uris":{"android":"levelo://app?vid=d141a217-5179-4e40-b797-010aac862ba5","ios":"levelo://app?vid=d141a217-5179-4e40-b797-010aac862ba5"},"vehicle_type_id":"4","last_reported":1750249332,"current_range_meters":400,"station_id":"ce4bhi12rcd13ifvqfp0","pricing_plan_id":"cebpf4jnsgd1na2vs0mg"},{"bike_id":"314b0e4d-da54-4046-9b2a-70c2916cb6c8","system_id":"levelo_inurba_marseille","lat":43.29933,"lon":5.36543,"is_reserved":false,"is_disabled":true,"rental_uris":{"android":"levelo://app?vid=314b0e4d-da54-4046-9b2a-70c2916cb6c8","ios":"levelo://app?vid=314b0e4d-da54-4046-9b2a-70c2916cb6c8"},"vehicle_type_id":"4","last_reported":1750249332,"current_range_meters":800,"station_id":"ce4bgm92rcd13ifvqbr0","pricing_plan_id":"cebpf4jnsgd1na2vs0mg"},{"bike_id":"91ea9959-0604-4159-bfa1-922a3e143e9c","system_id":"levelo_inurba_marseille","lat":43.286818,"lon":5.386613,"is_reserved":false,"is_disabled":true,"rental_uris":{"android":"levelo://app?vid=91ea9959-0604-4159-bfa1-922a3e143e9c","ios":"levelo://app?vid=91ea9959-0604-4159-bfa1-922a3e143e9c"},"vehicle_type_id":"4","last_reported":1750249332,"current_range_meters":800,"station_id":"ce4bh492rcd13ifvqdug","pricing_plan_id":"cebpf4jnsgd1na2vs0mg"},{"bike_id":"97f35995-60d3-4e40-9067-8872304fe48c","system_id":"levelo_inurba_marseille","lat":43.24399,"lon":5.37066,"is_reserved":false,"is_disabled":true,"rental_uris":{"android":"levelo://app?vid=97f35995-60d3-4e40-9067-8872304fe48c","ios":"levelo://app?vid=97f35995-60d3-4e40-9067-8872304fe48c"},"vehicle_type_id":"4","last_reported":1750249332,"current_range_meters":1200,"station_id":"ce4bhhh2rcd13ifvqfk0","pricing_plan_id":"cebpf4jnsgd1na2vs0mg"},{"bike_id":"df248009-225c-4789-902b-ded0be819a6f","system_id":"levelo_inurba_marseille","lat":43.27203,"lon":5.3918,"is_reserved":false,"is_disabled":true,"rental_uris":{"android":"levelo://app?vid=df248009-225c-4789-902b-ded0be819a6f","ios":"levelo://app?vid=df248009-225c-4789-902b-ded0be819a6f"},"vehicle_type_id":"4","last_reported":1750249332,"current_range_meters":1200,"station_id":"ce4bhhp2rcd13ifvqfm0","pricing_plan_id":"cebpf4jnsgd1na2vs0mg"},{"bike_id":"886c73c9-a28e-49df-a144-3eefe0805fc4","system_id":"levelo_inurba_marseille","lat":43.29054,"lon":5.37009,"is_reserved":false,"is_disabled":true,"rental_uris":{"android":"levelo://app?vid=886c73c9-a28e-49df-a144-3eefe0805fc4","ios":"levelo://app?vid=886c73c9-a28e-49df-a144-3eefe0805fc4"},"vehicle_type_id":"4","last_reported":1750249332,"current_range_meters":1600,"station_id":"","pricing_plan_id":"cebpf4jnsgd1na2vs0mg"},{"bike_id":"ea1c61b2-a949-4eb1-9ea9-571787fc50ee","system_id":"levelo_inurba_marseille","lat":43.2416,"lon":5.36388,"is_reserved":false,"is_disabled":true,"rental_uris":{"android":"levelo://app?vid=ea1c61b2-a949-4eb1-9ea9-571787fc50ee","ios":"levelo://app?vid=ea1c61b2-a949-4eb1-9ea9-571787fc50ee"},"vehicle_type_id":"4","last_reported":1750249332,"current_range_meters":1600,"station_id":"cpo36qri1sfpv3e86is0","pricing_plan_id":"cebpf4jnsgd1na2vs0mg"},{"bike_id":"8772a721-db50-4875-b361-a1bf1ea5fb3a","system_id":"levelo_inurba_marseille","lat":43.286127,"lon":5.351083,"is_reserved":false,"is_disabled":true,"rental_uris":{"android":"levelo://app?vid=8772a721-db50-4875-b361-a1bf1ea5fb3a","ios":"levelo://app?vid=8772a721-db50-4875-b361-a1bf1ea5fb3a"},"vehicle_type_id":"4","last_reported":1750249332,"current_range_meters":2000,"station_id":"ce4bhbp2rcd13ifvqesg","pricing_plan_id":"cebpf4jnsgd1na2vs0mg"},{"bike_id":"c5484464-2ac7-43a7-b82e-79695085db3b","system_id":"levelo_inurba_marseille","lat":43.24801,"lon":5.37453,"is_reserved":false,"is_disabled":true,"rental_uris":{"android":"levelo://app?vid=c5484464-2ac7-43a7-b82e-79695085db3b","ios":"levelo://app?vid=c5484464-2ac7-43a7-b82e-79695085db3b"},"vehicle_type_id":"4","last_reported":1750249332,"current_range_meters":2000,"station_id":"ce4bhgh2rcd13ifvqfb0","pricing_plan_id":"cebpf4jnsgd1na2vs0mg"},{"bike_id":"c8f996a1-a953-4486-ac28-49dd25abc472","system_id":"levelo_inurba_marseille","lat":43.24083,"lon":5.3775,"is_reserved":false,"is_disabled":true,"rental_uris":{"android":"levelo://app?vid=c8f996a1-a953-4486-ac28-49dd25abc472","ios":"levelo://app?vid=c8f996a1-a953-4486-ac28-49dd25abc472"},"vehicle_type_id":"4","last_reported":1750249332,"current_range_meters":2000,"station_id":"ce4bhnp2rcd13ifvqgvg","pricing_plan_id":"cebpf4jnsgd1na2vs0mg"},{"bike_id":"2395248d-0fef-4e4f-ba8e-f8283c94ae53","system_id":"levelo_inurba_marseille","lat":43.312466,"lon":5.395006,"is_reserved":false,"is_disabled":false,"rental_uris":{"android":"levelo://app?vid=2395248d-0fef-4e4f-ba8e-f8283c94ae53","ios":"levelo://app?vid=2395248d-0fef-4e4f-ba8e-f8283c94ae53"},"vehicle_type_id":"4","last_reported":1750249332,"current_range_meters":2800,"station_id":"","pricing_plan_id":"cebpf4jnsgd1na2vs0mg"},{"bike_id":"47196f00-388f-4b3b-a4de-3dba126cd107","system_id":"levelo_inurba_marseille","lat":43.24349,"lon":5.41134,"is_reserved":false,"is_disabled":false,"rental_uris":{"android":"levelo://app?vid=47196f00-388f-4b3b-a4de-3dba126cd107","ios":"levelo://app?vid=47196f00-388f-4b3b-a4de-3dba126cd107"},"vehicle_type_id":"4","last_reported":1750249332,"current_range_meters":2800,"station_id":"","pricing_plan_id":"cebpf4jnsgd1na2vs0mg"},{"bike_id":"2559e2d3-fa6e-4460-9133-975cb77d2158","system_id":"levelo_inurba_marseille","lat":43.31759,"lon":5.39012,"is_reserved":false,"is_disabled":false,"rental_uris":{"android":"levelo://app?vid=2559e2d3-fa6e-4460-9133-975cb77d2158","ios":"levelo://app?vid=2559e2d3-fa6e-4460-9133-975cb77d2158"},"vehicle_type_id":"4","last_reported":1750249332,"current_range_meters":2800,"station_id":"ce4bhqp2rcd13ifvqhng","pricing_plan_id":"cebpf4jnsgd1na2vs0mg"},{"bike_id":"4641f4ba-ab39-46f4-8244-7e620855f22a","system_id":"levelo_inurba_marseille","lat":43.30535,"lon":5.36702,"is_reserved":false,"is_disabled":false,"rental_uris":{"android":"levelo://app?vid=4641f4ba-ab39-46f4-8244-7e620855f22a","ios":"levelo://app?vid=4641f4ba-ab39-46f4-8244-7e620855f22a"},"vehicle_type_id":"4","last_reported":1750249332,"current_range_meters":3200,"station_id":"ce4bgrp2rcd13ifvqc9g","pricing_plan_id":"cebpf4jnsgd1na2vs0mg"},{"bike_id":"0eb847d7-4aae-442a-857e-27d2ae6bcede","system_id":"levelo_inurba_marseille","lat":43.3012,"lon":5.37433,"is_reserved":false,"is_disabled":false,"rental_uris":{"android":"levelo://app?vid=0eb847d7-4aae-442a-857e-27d2ae6bcede","ios":"levelo://app?vid=0eb847d7-4aae-442a-857e-27d2ae6bcede"},"vehicle_type_id":"4","last_reported":1750249332,"current_range_meters":3200,"station_id":"ce4bgs92rcd13ifvqcc0","pricing_plan_id":"cebpf4jnsgd1na2vs0mg"},{"bike_id":"90ac4b42-3133-4d0d-95d4-30832b9457be","system_id":"levelo_inurba_marseille","lat":43.2886,"lon":5.35858,"is_reserved":false,"is_disabled":false,"rental_uris":{"android":"levelo://app?vid=90ac4b42-3133-4d0d-95d4-30832b9457be","ios":"levelo://app?vid=90ac4b42-3133-4d0d-95d4-30832b9457be"},"vehicle_type_id":"4","last_reported":1750249332,"current_range_meters":3200,"station_id":"ce4bhb12rcd13ifvqem0","pricing_plan_id":"cebpf4jnsgd1na2vs0mg"},{"bike_id":"c388ba51-fc3b-4acd-8c3f-9c34697c2e64","system_id":"levelo_inurba_marseille","lat":43.25747,"lon":5.41098,"is_reserved":false,"is_disabled":false,"rental_uris":{"android":"levelo://app?vid=c388ba51-fc3b-4acd-8c3f-9c34697c2e64","ios":"levelo://app?vid=c388ba51-fc3b-4acd-8c3f-9c34697c2e64"},"vehicle_type_id":"4","last_reported":1750249332,"current_range_meters":3200,"station_id":"ce4bhkp2rcd13ifvqgd0","pricing_plan_id":"cebpf4jnsgd1na2vs0mg"},{"bike_id":"7d5a1ef5-c109-4977-b182-4addb0e38b1d","system_id":"levelo_inurba_marseille","lat":43.30651,"lon":5.37288,"is_reserved":false,"is_disabled":false,"rental_uris":{"android":"levelo://app?vid=7d5a1ef5-c109-4977-b182-4addb0e38b1d","ios":"levelo://app?vid=7d5a1ef5-c109-4977-b182-4addb0e38b1d"},"vehicle_type_id":"4","last_reported":1750249332,"current_range_meters":3600,"station_id":"","pricing_plan_id":"cebpf4jnsgd1na2vs0mg"},{"bike_id":"f4fbabd6-8e02-42f9-92f3-c73fa896d4ca","system_id":"levelo_inurba_marseille","lat":43.31259,"lon":5.40169,"is_reserved":false,"is_disabled":false,"rental_uris":{"android":"levelo://app?vid=f4fbabd6-8e02-42f9-92f3-c73fa896d4ca","ios":"levelo://app?vid=f4fbabd6-8e02-42f9-92f3-c73fa896d4ca"},"vehicle_type_id":"4","last_reported":1750249332,"current_range_meters":3600,"station_id":"ce4bh092rcd13ifvqd30","pricing_plan_id":"cebpf4jnsgd1na2vs0mg"},{"bike_id":"c69d3231-c679-4c78-952d-57bddcd9ac64","system_id":"levelo_inurba_marseille","lat":43.312253,"lon":5.368622,"is_reserved":false,"is_disabled":false,"rental_uris":{"android":"levelo://app?vid=c69d3231-c679-4c78-952d-57bddcd9ac64","ios":"levelo://app?vid=c69d3231-c679-4c78-952d-57bddcd9ac64"},"vehicle_type_id":"4","last_reported":1750249332,"current_range_meters":4000,"station_id":"ce4bgl92rcd13ifvqbq0","pricing_plan_id":"cebpf4jnsgd1na2vs0mg"},{"bike_id":"c5992bef-2cab-4789-9e79-f5bec3656d3e","system_id":"levelo_inurba_marseille","lat":43.305301,"lon":5.365604,"is_reserved":false,"is_disabled":false,"rental_uris":{"android":"levelo://app?vid=c5992bef-2cab-4789-9e79-f5bec3656d3e","ios":"levelo://app?vid=c5992bef-2cab-4789-9e79-f5bec3656d3e"},"vehicle_type_id":"4","last_reported":1750249332,"current_range_meters":4000,"station_id":"ce4bgs12rcd13ifvqcag","pricing_plan_id":"cebpf4jnsgd1na2vs0mg"},{"bike_id":"48813852-4d81-429e-85f6-e4b79f0a9703","system_id":"levelo_inurba_marseille","lat":43.30893,"lon":5.39644,"is_reserved":false,"is_disabled":false,"rental_uris":{"android":"levelo://app?vid=48813852-4d81-429e-85f6-e4b79f0a9703","ios":"levelo://app?vid=48813852-4d81-429e-85f6-e4b79f0a9703"},"vehicle_type_id":"4","last_reported":1750249332,"current_range_meters":4000,"station_id":"ce4bh012rcd13ifvqcv0","pricing_plan_id":"cebpf4jnsgd1na2vs0mg"},{"bike_id":"7a5c5fcc-95ae-4f03-9774-df2adf3ed456","system_id":"levelo_inurba_marseille","lat":43.2924,"lon":5.36077,"is_reserved":false,"is_disabled":false,"rental_uris":{"android":"levelo://app?vid=7a5c5fcc-95ae-4f03-9774-df2adf3ed456","ios":"levelo://app?vid=7a5c5fcc-95ae-4f03-9774-df2adf3ed456"},"vehicle_type_id":"4","last_reported":1750249332,"current_range_meters":4000,"station_id":"ce4bhbh2rcd13ifvqeqg","pricing_plan_id":"cebpf4jnsgd1na2vs0mg"},{"bike_id":"9848fad5-5a08-4081-95b8-573e82048c96","system_id":"levelo_inurba_marseille","lat":43.2962,"lon":5.37153,"is_reserved":false,"is_disabled":false,"rental_uris":{"android":"levelo://app?vid=9848fad5-5a08-4081-95b8-573e82048c96","ios":"levelo://app?vid=9848fad5-5a08-4081-95b8-573e82048c96"},"vehicle_type_id":"4","last_reported":1750249332,"current_range_meters":4800,"station_id":"ce4bgnh2rcd13ifvqc0g","pricing_plan_id":"cebpf4jnsgd1na2vs0mg"},{"bike_id":"0e4bd249-3efe-471e-88df-fc6257633a8d","system_id":"levelo_inurba_marseille","lat":43.3046,"lon":5.37921,"is_reserved":false,"is_disabled":false,"rental_uris":{"android":"levelo://app?vid=0e4bd249-3efe-471e-88df-fc6257633a8d","ios":"levelo://app?vid=0e4bd249-3efe-471e-88df-fc6257633a8d"},"vehicle_type_id":"4","last_reported":1750249332,"current_range_meters":4800,"station_id":"ce4bgup2rcd13ifvqcn0","pricing_plan_id":"cebpf4jnsgd1na2vs0mg"},{"bike_id":"7fbc6ab3-e8af-4f37-bcf5-b805bd71b0c5","system_id":"levelo_inurba_marseille","lat":43.26684,"lon":5.38273,"is_reserved":false,"is_disabled":false,"rental_uris":{"android":"levelo://app?vid=7fbc6ab3-e8af-4f37-bcf5-b805bd71b0c5","ios":"levelo://app?vid=7fbc6ab3-e8af-4f37-bcf5-b805bd71b0c5"},"vehicle_type_id":"4","last_reported":1750249332,"current_range_meters":4800,"station_id":"ce4bhg92rcd13ifvqf90","pricing_plan_id":"cebpf4jnsgd1na2vs0mg"},{"bike_id":"cde78309-0217-44bb-bf0f-88763267654b","system_id":"levelo_inurba_marseille","lat":43.28975,"lon":5.37847,"is_reserved":false,"is_disabled":false,"rental_uris":{"android":"levelo://app?vid=cde78309-0217-44bb-bf0f-88763267654b","ios":"levelo://app?vid=cde78309-0217-44bb-bf0f-88763267654b"},"vehicle_type_id":"4","last_reported":1750249332,"current_range_meters":5600,"station_id":"ce4bh9p2rcd13ifvqed0","pricing_plan_id":"cebpf4jnsgd1na2vs0mg"},{"bike_id":"b2a412fd-12fe-473a-87df-f5d760c5451e","system_id":"levelo_inurba_marseille","lat":43.26565,"lon":5.39006,"is_reserved":false,"is_disabled":false,"rental_uris":{"android":"levelo://app?vid=b2a412fd-12fe-473a-87df-f5d760c5451e","ios":"levelo://app?vid=b2a412fd-12fe-473a-87df-f5d760c5451e"},"vehicle_type_id":"4","last_reported":1750249332,"current_range_meters":5600,"station_id":"ce4bhe12rcd13ifvqf30","pricing_plan_id":"cebpf4jnsgd1na2vs0mg"},{"bike_id":"6ba80795-26da-43fa-ab60-6831760385ff","system_id":"levelo_inurba_marseille","lat":43.325785,"lon":5.419623,"is_reserved":false,"is_disabled":false,"rental_uris":{"android":"levelo://app?vid=6ba80795-26da-43fa-ab60-6831760385ff","ios":"levelo://app?vid=6ba80795-26da-43fa-ab60-6831760385ff"},"vehicle_type_id":"4","last_reported":1750249332,"current_range_meters":6000,"station_id":"","pricing_plan_id":"cebpf4jnsgd1na2vs0mg"},{"bike_id":"41083208-d5f1-411f-88e3-9e646359b5a5","system_id":"levelo_inurba_marseille","lat":43.30146,"lon":5.38056,"is_reserved":false,"is_disabled":false,"rental_uris":{"android":"levelo://app?vid=41083208-d5f1-411f-88e3-9e646359b5a5","ios":"levelo://app?vid=41083208-d5f1-411f-88e3-9e646359b5a5"},"vehicle_type_id":"4","last_reported":1750249332,"current_range_meters":6000,"station_id":"ce4bgjp2rcd13ifvqbh0","pricing_plan_id":"cebpf4jnsgd1na2vs0mg"},{"bike_id":"d7884166-082b-454b-b333-eb998b323948","system_id":"levelo_inurba_marseille","lat":43.28268,"lon":5.35068,"is_reserved":false,"is_disabled":false,"rental_uris":{"android":"levelo://app?vid=d7884166-082b-454b-b333-eb998b323948","ios":"levelo://app?vid=d7884166-082b-454b-b333-eb998b323948"},"vehicle_type_id":"4","last_reported":1750249332,"current_range_meters":6000,"station_id":"ce4bhbp2rcd13ifvqerg","pricing_plan_id":"cebpf4jnsgd1na2vs0mg"},{"bike_id":"5290d46d-ccbe-4120-88b1-588c23a1e0f6","system_id":"levelo_inurba_marseille","lat":43.26684,"lon":5.3827,"is_reserved":false,"is_disabled":false,"rental_uris":{"android":"levelo://app?vid=5290d46d-ccbe-4120-88b1-588c23a1e0f6","ios":"levelo://app?vid=5290d46d-ccbe-4120-88b1-588c23a1e0f6"},"vehicle_type_id":"4","last_reported":1750249332,"current_range_meters":6000,"station_id":"ce4bhg92rcd13ifvqf90","pricing_plan_id":"cebpf4jnsgd1na2vs0mg"},{"bike_id":"e03a6d42-f362-4878-ab56-4b5afba95b0c","system_id":"levelo_inurba_marseille","lat":43.3148,"lon":5.36929,"is_reserved":false,"is_disabled":false,"rental_uris":{"android":"levelo://app?vid=e03a6d42-f362-4878-ab56-4b5afba95b0c","ios":"levelo://app?vid=e03a6d42-f362-4878-ab56-4b5afba95b0c"},"vehicle_type_id":"4","last_reported":1750249332,"current_range_meters":6400,"station_id":"","pricing_plan_id":"cebpf4jnsgd1na2vs0mg"},{"bike_id":"ac1c17be-32dc-4449-8610-ca5bfe2cd501","system_id":"levelo_inurba_marseille","lat":43.31281,"lon":5.36832,"is_reserved":false,"is_disabled":false,"rental_uris":{"android":"levelo://app?vid=ac1c17be-32dc-4449-8610-ca5bfe2cd501","ios":"levelo://app?vid=ac1c17be-32dc-4449-8610-ca5bfe2cd501"},"vehicle_type_id":"4","last_reported":1750249332,"current_range_meters":6400,"station_id":"","pricing_plan_id":"cebpf4jnsgd1na2vs0mg"},{"bike_id":"ae4a7bb6-19ec-4528-ba2f-4c58721d2ee8","system_id":"levelo_inurba_marseille","lat":43.23318,"lon":5.43608,"is_reserved":false,"is_disabled":false,"rental_uris":{"android":"levelo://app?vid=ae4a7bb6-19ec-4528-ba2f-4c58721d2ee8","ios":"levelo://app?vid=ae4a7bb6-19ec-4528-ba2f-4c58721d2ee8"},"vehicle_type_id":"4","last_reported":1750249332,"current_range_meters":6400,"station_id":"","pricing_plan_id":"cebpf4jnsgd1na2vs0mg"},{"bike_id":"33e9c9da-1cc0-4262-ad00-281d3e3f35fc","system_id":"levelo_inurba_marseille","lat":43.31272,"lon":5.36823,"is_reserved":false,"is_disabled":false,"rental_uris":{"android":"levelo://app?vid=33e9c9da-1cc0-4262-ad00-281d3e3f35fc","ios":"levelo://app?vid=33e9c9da-1cc0-4262-ad00-281d3e3f35fc"},"vehicle_type_id":"4","last_reported":1750249332,"current_range_meters":6400,"station_id":"","pricing_plan_id":"cebpf4jnsgd1na2vs0mg"},{"bike_id":"cc8b1bf3-1bff-453e-bb4f-cee6206ccb54","system_id":"levelo_inurba_marseille","lat":43.31244,"lon":5.36917,"is_reserved":false,"is_disabled":false,"rental_uris":{"android":"levelo://app?vid=cc8b1bf3-1bff-453e-bb4f-cee6206ccb54","ios":"levelo://app?vid=cc8b1bf3-1bff-453e-bb4f-cee6206ccb54"},"vehicle_type_id":"4","last_reported":1750249332,"current_range_meters":6400,"station_id":"ce4bgl92rcd13ifvqbq0","pricing_plan_id":"cebpf4jnsgd1na2vs0mg"},{"bike_id":"508a846e-eaa0-4fb1-b68c-7670a413d5f1","system_id":"levelo_inurba_marseille","lat":43.26687,"lon":5.38275,"is_reserved":false,"is_disabled":false,"rental_uris":{"android":"levelo://app?vid=508a846e-eaa0-4fb1-b68c-7670a413d5f1","ios":"levelo://app?vid=508a846e-eaa0-4fb1-b68c-7670a413d5f1"},"vehicle_type_id":"4","last_reported":1750249332,"current_range_meters":6400,"station_id":"ce4bhg92rcd13ifvqf90","pricing_plan_id":"cebpf4jnsgd1na2vs0mg"},{"bike_id":"857c245f-8ab5-4179-9a16-97db6aa6bebe","system_id":"levelo_inurba_marseille","lat":43.23148,"lon":5.43729,"is_reserved":false,"is_disabled":false,"rental_uris":{"android":"levelo://app?vid=857c245f-8ab5-4179-9a16-97db6aa6bebe","ios":"levelo://app?vid=857c245f-8ab5-4179-9a16-97db6aa6bebe"},"vehicle_type_id":"4","last_reported":1750249332,"current_range_meters":6400,"station_id":"ce4bhmp2rcd13ifvqgog","pricing_plan_id":"cebpf4jnsgd1na2vs0mg"},{"bike_id":"7c3c75bb-a62f-4620-b42a-1b96b9e03af4","system_id":"levelo_inurba_marseille","lat":43.289197,"lon":5.357876,"is_reserved":false,"is_disabled":false,"rental_uris":{"android":"levelo://app?vid=7c3c75bb-a62f-4620-b42a-1b96b9e03af4","ios":"levelo://app?vid=7c3c75bb-a62f-4620-b42a-1b96b9e03af4"},"vehicle_type_id":"4","last_reported":1750249332,"current_range_meters":6800,"station_id":"ce4bhah2rcd13ifvqei0","pricing_plan_id":"cebpf4jnsgd1na2vs0mg"},{"bike_id":"43b4bd94-b50e-4591-ae15-905c4525f2fa","system_id":"levelo_inurba_marseille","lat":43.2923,"lon":5.36072,"is_reserved":false,"is_disabled":false,"rental_uris":{"android":"levelo://app?vid=43b4bd94-b50e-4591-ae15-905c4525f2fa","ios":"levelo://app?vid=43b4bd94-b50e-4591-ae15-905c4525f2fa"},"vehicle_type_id":"4","last_reported":1750249332,"current_range_meters":6800,"station_id":"ce4bhbh2rcd13ifvqeqg","pricing_plan_id":"cebpf4jnsgd1na2vs0mg"},{"bike_id":"3b136301-d892-4bf1-aa15-695ec30464ca","system_id":"levelo_inurba_marseille","lat":43.32084,"lon":5.36762,"is_reserved":false,"is_disabled":false,"rental_uris":{"android":"levelo://app?vid=3b136301-d892-4bf1-aa15-695ec30464ca","ios":"levelo://app?vid=3b136301-d892-4bf1-aa15-695ec30464ca"},"vehicle_type_id":"4","last_reported":1750249332,"current_range_meters":6800,"station_id":"ce4bhrh2rcd13ifvqhug","pricing_plan_id":"cebpf4jnsgd1na2vs0mg"},{"bike_id":"6cdd4423-fb74-4f6d-937e-fb1f0776815f","system_id":"levelo_inurba_marseille","lat":43.29541,"lon":5.38548,"is_reserved":false,"is_disabled":false,"rental_uris":{"android":"levelo://app?vid=6cdd4423-fb74-4f6d-937e-fb1f0776815f","ios":"levelo://app?vid=6cdd4423-fb74-4f6d-937e-fb1f0776815f"},"vehicle_type_id":"4","last_reported":1750249332,"current_range_meters":7200,"station_id":"ce4bgih2rcd13ifvqba0","pricing_plan_id":"cebpf4jnsgd1na2vs0mg"},{"bike_id":"554ac305-1f70-4614-b5c6-d278097bb363","system_id":"levelo_inurba_marseille","lat":43.31262,"lon":5.36807,"is_reserved":false,"is_disabled":false,"rental_uris":{"android":"levelo://app?vid=554ac305-1f70-4614-b5c6-d278097bb363","ios":"levelo://app?vid=554ac305-1f70-4614-b5c6-d278097bb363"},"vehicle_type_id":"4","last_reported":1750249332,"current_range_meters":7200,"station_id":"ce4bgl92rcd13ifvqbq0","pricing_plan_id":"cebpf4jnsgd1na2vs0mg"},{"bike_id":"599edd48-0a29-4db2-9ab4-b98d5514d266","system_id":"levelo_inurba_marseille","lat":43.31381,"lon":5.36706,"is_reserved":false,"is_disabled":false,"rental_uris":{"android":"levelo://app?vid=599edd48-0a29-4db2-9ab4-b98d5514d266","ios":"levelo://app?vid=599edd48-0a29-4db2-9ab4-b98d5514d266"},"vehicle_type_id":"4","last_reported":1750249332,"current_range_meters":7200,"station_id":"ce4bgr92rcd13ifvqc6g","pricing_plan_id":"cebpf4jnsgd1na2vs0mg"},{"bike_id":"4611b6b4-e0b2-4c45-a066-3b83391bf65c","system_id":"levelo_inurba_marseille","lat":43.32106,"lon":5.3678,"is_reserved":false,"is_disabled":false,"rental_uris":{"android":"levelo://app?vid=4611b6b4-e0b2-4c45-a066-3b83391bf65c","ios":"levelo://app?vid=4611b6b4-e0b2-4c45-a066-3b83391bf65c"},"vehicle_type_id":"4","last_reported":1750249332,"current_range_meters":7200,"station_id":"ce4bhrh2rcd13ifvqhug","pricing_plan_id":"cebpf4jnsgd1na2vs0mg"},{"bike_id":"13603010-4ba6-45d8-8742-faf7a41367fa","system_id":"levelo_inurba_marseille","lat":43.292024,"lon":5.382964,"is_reserved":false,"is_disabled":false,"rental_uris":{"android":"levelo://app?vid=13603010-4ba6-45d8-8742-faf7a41367fa","ios":"levelo://app?vid=13603010-4ba6-45d8-8742-faf7a41367fa"},"vehicle_type_id":"4","last_reported":1750249332,"current_range_meters":8000,"station_id":"","pricing_plan_id":"cebpf4jnsgd1na2vs0mg"},{"bike_id":"4c613710-958e-4e29-b759-137d9d38e4ef","system_id":"levelo_inurba_marseille","lat":43.31259,"lon":5.36876,"is_reserved":false,"is_disabled":false,"rental_uris":{"android":"levelo://app?vid=4c613710-958e-4e29-b759-137d9d38e4ef","ios":"levelo://app?vid=4c613710-958e-4e29-b759-137d9d38e4ef"},"vehicle_type_id":"4","last_reported":1750249332,"current_range_meters":8000,"station_id":"ce4bgl92rcd13ifvqbq0","pricing_plan_id":"cebpf4jnsgd1na2vs0mg"},{"bike_id":"21de1be2-3505-4a35-913a-a1140a2f1e5d","system_id":"levelo_inurba_marseille","lat":43.298895,"lon":5.365159,"is_reserved":false,"is_disabled":false,"rental_uris":{"android":"levelo://app?vid=21de1be2-3505-4a35-913a-a1140a2f1e5d","ios":"levelo://app?vid=21de1be2-3505-4a35-913a-a1140a2f1e5d"},"vehicle_type_id":"4","last_reported":1750249332,"current_range_meters":8000,"station_id":"ce4bgn12rcd13ifvqbt0","pricing_plan_id":"cebpf4jnsgd1na2vs0mg"},{"bike_id":"820df921-69fc-426c-b325-82acf4918bb0","system_id":"levelo_inurba_marseille","lat":43.30604,"lon":5.372023,"is_reserved":false,"is_disabled":false,"rental_uris":{"android":"levelo://app?vid=820df921-69fc-426c-b325-82acf4918bb0","ios":"levelo://app?vid=820df921-69fc-426c-b325-82acf4918bb0"},"vehicle_type_id":"4","last_reported":1750249332,"current_range_meters":8000,"station_id":"ce4bgqh2rcd13ifvqc4g","pricing_plan_id":"cebpf4jnsgd1na2vs0mg"},{"bike_id":"9126f6d9-139c-45c7-bb86-2e5f3561096d","system_id":"levelo_inurba_marseille","lat":43.3032,"lon":5.40439,"is_reserved":false,"is_disabled":false,"rental_uris":{"android":"levelo://app?vid=9126f6d9-139c-45c7-bb86-2e5f3561096d","ios":"levelo://app?vid=9126f6d9-139c-45c7-bb86-2e5f3561096d"},"vehicle_type_id":"4","last_reported":1750249332,"current_range_meters":8000,"station_id":"ce4bh012rcd13ifvqd10","pricing_plan_id":"cebpf4jnsgd1na2vs0mg"},{"bike_id":"9e04cb29-20d5-45f1-b19b-4f5e7571a583","system_id":"levelo_inurba_marseille","lat":43.30139,"lon":5.39852,"is_reserved":false,"is_disabled":false,"rental_uris":{"android":"levelo://app?vid=9e04cb29-20d5-45f1-b19b-4f5e7571a583","ios":"levelo://app?vid=9e04cb29-20d5-45f1-b19b-4f5e7571a583"},"vehicle_type_id":"4","last_reported":1750249332,"current_range_meters":8000,"station_id":"ce4bh0h2rcd13ifvqd40","pricing_plan_id":"cebpf4jnsgd1na2vs0mg"},{"bike_id":"aa59b951-f74c-459a-a2aa-03ccd383eee9","system_id":"levelo_inurba_marseille","lat":43.21194,"lon":5.35062,"is_reserved":false,"is_disabled":false,"rental_uris":{"android":"levelo://app?vid=aa59b951-f74c-459a-a2aa-03ccd383eee9","ios":"levelo://app?vid=aa59b951-f74c-459a-a2aa-03ccd383eee9"},"vehicle_type_id":"4","last_reported":1750249332,"current_range_meters":8000,"station_id":"st_cvj6sg6p6f1abm77japg","pricing_plan_id":"cebpf4jnsgd1na2vs0mg"},{"bike_id":"0c2732ce-a727-46b0-af5a-af7ba2098b27","system_id":"levelo_inurba_marseille","lat":43.319885,"lon":5.381659,"is_reserved":false,"is_disabled":false,"rental_uris":{"android":"levelo://app?vid=0c2732ce-a727-46b0-af5a-af7ba2098b27","ios":"levelo://app?vid=0c2732ce-a727-46b0-af5a-af7ba2098b27"},"vehicle_type_id":"4","last_reported":1750249332,"current_range_meters":8400,"station_id":"","pricing_plan_id":"cebpf4jnsgd1na2vs0mg"},{"bike_id":"94bcc58f-7023-41cb-871b-3595da7eac8b","system_id":"levelo_inurba_marseille","lat":43.33148,"lon":5.38175,"is_reserved":false,"is_disabled":false,"rental_uris":{"android":"levelo://app?vid=94bcc58f-7023-41cb-871b-3595da7eac8b","ios":"levelo://app?vid=94bcc58f-7023-41cb-871b-3595da7eac8b"},"vehicle_type_id":"4","last_reported":1750249332,"current_range_meters":8400,"station_id":"","pricing_plan_id":"cebpf4jnsgd1na2vs0mg"},{"bike_id":"b8464b03-9e98-47e8-8318-d0af591fae68","system_id":"levelo_inurba_marseille","lat":43.31276,"lon":5.36748,"is_reserved":false,"is_disabled":false,"rental_uris":{"android":"levelo://app?vid=b8464b03-9e98-47e8-8318-d0af591fae68","ios":"levelo://app?vid=b8464b03-9e98-47e8-8318-d0af591fae68"},"vehicle_type_id":"4","last_reported":1750249332,"current_range_meters":8400,"station_id":"ce4bgl92rcd13ifvqbq0","pricing_plan_id":"cebpf4jnsgd1na2vs0mg"},{"bike_id":"669298b4-b5b1-460e-a37c-074e3262e7a5","system_id":"levelo_inurba_marseille","lat":43.291643,"lon":5.371483,"is_reserved":false,"is_disabled":false,"rental_uris":{"android":"levelo://app?vid=669298b4-b5b1-460e-a37c-074e3262e7a5","ios":"levelo://app?vid=669298b4-b5b1-460e-a37c-074e3262e7a5"},"vehicle_type_id":"4","last_reported":1750249332,"current_range_meters":8400,"station_id":"ce4bha92rcd13ifvqeh0","pricing_plan_id":"cebpf4jnsgd1na2vs0mg"},{"bike_id":"e480a42a-ae46-4c73-b5bc-592cd4a5b15a","system_id":"levelo_inurba_marseille","lat":43.24392,"lon":5.37049,"is_reserved":false,"is_disabled":false,"rental_uris":{"android":"levelo://app?vid=e480a42a-ae46-4c73-b5bc-592cd4a5b15a","ios":"levelo://app?vid=e480a42a-ae46-4c73-b5bc-592cd4a5b15a"},"vehicle_type_id":"4","last_reported":1750249332,"current_range_meters":8400,"station_id":"ce4bhhh2rcd13ifvqfk0","pricing_plan_id":"cebpf4jnsgd1na2vs0mg"},{"bike_id":"d31dee22-c0d2-4965-a7a3-04f95bc8c47c","system_id":"levelo_inurba_marseille","lat":43.27912,"lon":5.41217,"is_reserved":false,"is_disabled":false,"rental_uris":{"android":"levelo://app?vid=d31dee22-c0d2-4965-a7a3-04f95bc8c47c","ios":"levelo://app?vid=d31dee22-c0d2-4965-a7a3-04f95bc8c47c"},"vehicle_type_id":"4","last_reported":1750249332,"current_range_meters":8800,"station_id":"","pricing_plan_id":"cebpf4jnsgd1na2vs0mg"},{"bike_id":"6f3a0055-18ce-456d-886f-5dd53c809fc5","system_id":"levelo_inurba_marseille","lat":43.268,"lon":5.42511,"is_reserved":false,"is_disabled":false,"rental_uris":{"android":"levelo://app?vid=6f3a0055-18ce-456d-886f-5dd53c809fc5","ios":"levelo://app?vid=6f3a0055-18ce-456d-886f-5dd53c809fc5"},"vehicle_type_id":"4","last_reported":1750249332,"current_range_meters":8800,"station_id":"","pricing_plan_id":"cebpf4jnsgd1na2vs0mg"},{"bike_id":"fb7f0fca-328c-4590-8315-5fcf92aa068d","system_id":"levelo_inurba_marseille","lat":43.31256,"lon":5.36816,"is_reserved":false,"is_disabled":false,"rental_uris":{"android":"levelo://app?vid=fb7f0fca-328c-4590-8315-5fcf92aa068d","ios":"levelo://app?vid=fb7f0fca-328c-4590-8315-5fcf92aa068d"},"vehicle_type_id":"4","last_reported":1750249332,"current_range_meters":8800,"station_id":"","pricing_plan_id":"cebpf4jnsgd1na2vs0mg"},{"bike_id":"4be47418-a062-40c2-a4dc-93e3f1d927e8","system_id":"levelo_inurba_marseille","lat":43.298556,"lon":5.362899,"is_reserved":false,"is_disabled":false,"rental_uris":{"android":"levelo://app?vid=4be47418-a062-40c2-a4dc-93e3f1d927e8","ios":"levelo://app?vid=4be47418-a062-40c2-a4dc-93e3f1d927e8"},"vehicle_type_id":"4","last_reported":1750249332,"current_range_meters":8800,"station_id":"ce4bgpp2rcd13ifvqc3g","pricing_plan_id":"cebpf4jnsgd1na2vs0mg"},{"bike_id":"a8e9ee66-4ea2-4f69-81d3-388bc6513d7a","system_id":"levelo_inurba_marseille","lat":43.29976,"lon":5.37187,"is_reserved":false,"is_disabled":false,"rental_uris":{"android":"levelo://app?vid=a8e9ee66-4ea2-4f69-81d3-388bc6513d7a","ios":"levelo://app?vid=a8e9ee66-4ea2-4f69-81d3-388bc6513d7a"},"vehicle_type_id":"4","last_reported":1750249332,"current_range_meters":8800,"station_id":"ce4bgr92rcd13ifvqc7g","pricing_plan_id":"cebpf4jnsgd1na2vs0mg"},{"bike_id":"0c16fa7a-87bf-462a-bbfa-4a5736265631","system_id":"levelo_inurba_marseille","lat":43.30531,"lon":5.36548,"is_reserved":false,"is_disabled":false,"rental_uris":{"android":"levelo://app?vid=0c16fa7a-87bf-462a-bbfa-4a5736265631","ios":"levelo://app?vid=0c16fa7a-87bf-462a-bbfa-4a5736265631"},"vehicle_type_id":"4","last_reported":1750249332,"current_range_meters":8800,"station_id":"ce4bgs12rcd13ifvqcag","pricing_plan_id":"cebpf4jnsgd1na2vs0mg"},{"bike_id":"d46c6d43-c207-418f-bf70-967f735aa5b9","system_id":"levelo_inurba_marseille","lat":43.260255,"lon":5.375519,"is_reserved":false,"is_disabled":false,"rental_uris":{"android":"levelo://app?vid=d46c6d43-c207-418f-bf70-967f735aa5b9","ios":"levelo://app?vid=d46c6d43-c207-418f-bf70-967f735aa5b9"},"vehicle_type_id":"4","last_reported":1750249332,"current_range_meters":8800,"station_id":"ce4bhgh2rcd13ifvqfa0","pricing_plan_id":"cebpf4jnsgd1na2vs0mg"},{"bike_id":"c2ed3331-2acc-47c7-9fe5-2ae752ebac4e","system_id":"levelo_inurba_marseille","lat":43.24808,"lon":5.37466,"is_reserved":false,"is_disabled":false,"rental_uris":{"android":"levelo://app?vid=c2ed3331-2acc-47c7-9fe5-2ae752ebac4e","ios":"levelo://app?vid=c2ed3331-2acc-47c7-9fe5-2ae752ebac4e"},"vehicle_type_id":"4","last_reported":1750249332,"current_range_meters":8800,"station_id":"ce4bhgh2rcd13ifvqfb0","pricing_plan_id":"cebpf4jnsgd1na2vs0mg"},{"bike_id":"07f51de2-d355-4d61-9c23-dab949de879b","system_id":"levelo_inurba_marseille","lat":43.24081,"lon":5.37751,"is_reserved":false,"is_disabled":false,"rental_uris":{"android":"levelo://app?vid=07f51de2-d355-4d61-9c23-dab949de879b","ios":"levelo://app?vid=07f51de2-d355-4d61-9c23-dab949de879b"},"vehicle_type_id":"4","last_reported":1750249332,"current_range_meters":8800,"station_id":"ce4bhnp2rcd13ifvqgvg","pricing_plan_id":"cebpf4jnsgd1na2vs0mg"},{"bike_id":"b5002037-f4b0-4634-8bc4-796d0c74810e","system_id":"levelo_inurba_marseille","lat":43.24368,"lon":5.41155,"is_reserved":false,"is_disabled":false,"rental_uris":{"android":"levelo://app?vid=b5002037-f4b0-4634-8bc4-796d0c74810e","ios":"levelo://app?vid=b5002037-f4b0-4634-8bc4-796d0c74810e"},"vehicle_type_id":"4","last_reported":1750249332,"current_range_meters":9200,"station_id":"","pricing_plan_id":"cebpf4jnsgd1na2vs0mg"},{"bike_id":"3561babf-0bf4-4ae4-b838-e54edaaa378b","system_id":"levelo_inurba_marseille","lat":43.30562,"lon":5.38155,"is_reserved":false,"is_disabled":false,"rental_uris":{"android":"levelo://app?vid=3561babf-0bf4-4ae4-b838-e54edaaa378b","ios":"levelo://app?vid=3561babf-0bf4-4ae4-b838-e54edaaa378b"},"vehicle_type_id":"4","last_reported":1750249332,"current_range_meters":9200,"station_id":"","pricing_plan_id":"cebpf4jnsgd1na2vs0mg"},{"bike_id":"a45b70cd-3e6d-4814-a319-06790c1c1552","system_id":"levelo_inurba_marseille","lat":43.31242,"lon":5.36857,"is_reserved":false,"is_disabled":false,"rental_uris":{"android":"levelo://app?vid=a45b70cd-3e6d-4814-a319-06790c1c1552","ios":"levelo://app?vid=a45b70cd-3e6d-4814-a319-06790c1c1552"},"vehicle_type_id":"4","last_reported":1750249332,"current_range_meters":9200,"station_id":"ce4bgl92rcd13ifvqbq0","pricing_plan_id":"cebpf4jnsgd1na2vs0mg"},{"bike_id":"724fcf75-3711-40f2-b88e-70d997146c6f","system_id":"levelo_inurba_marseille","lat":43.30875,"lon":5.39654,"is_reserved":false,"is_disabled":false,"rental_uris":{"android":"levelo://app?vid=724fcf75-3711-40f2-b88e-70d997146c6f","ios":"levelo://app?vid=724fcf75-3711-40f2-b88e-70d997146c6f"},"vehicle_type_id":"4","last_reported":1750249332,"current_range_meters":9200,"station_id":"ce4bh012rcd13ifvqcv0","pricing_plan_id":"cebpf4jnsgd1na2vs0mg"},{"bike_id":"5f51d0de-84e8-4b51-aeb6-5a9279f08405","system_id":"levelo_inurba_marseille","lat":43.308253,"lon":5.396509,"is_reserved":false,"is_disabled":false,"rental_uris":{"android":"levelo://app?vid=5f51d0de-84e8-4b51-aeb6-5a9279f08405","ios":"levelo://app?vid=5f51d0de-84e8-4b51-aeb6-5a9279f08405"},"vehicle_type_id":"4","last_reported":1750249332,"current_range_meters":9200,"station_id":"ce4bh012rcd13ifvqcv0","pricing_plan_id":"cebpf4jnsgd1na2vs0mg"},{"bike_id":"1bc4f43e-7a8f-4036-9bff-9c676d105fd8","system_id":"levelo_inurba_marseille","lat":43.29049,"lon":5.35915,"is_reserved":false,"is_disabled":false,"rental_uris":{"android":"levelo://app?vid=1bc4f43e-7a8f-4036-9bff-9c676d105fd8","ios":"levelo://app?vid=1bc4f43e-7a8f-4036-9bff-9c676d105fd8"},"vehicle_type_id":"4","last_reported":1750249332,"current_range_meters":9200,"station_id":"ce4bha92rcd13ifvqeg0","pricing_plan_id":"cebpf4jnsgd1na2vs0mg"},{"bike_id":"920abe9b-32f3-498f-9215-00f0e0d8097a","system_id":"levelo_inurba_marseille","lat":43.29042,"lon":5.35922,"is_reserved":false,"is_disabled":false,"rental_uris":{"android":"levelo://app?vid=920abe9b-32f3-498f-9215-00f0e0d8097a","ios":"levelo://app?vid=920abe9b-32f3-498f-9215-00f0e0d8097a"},"vehicle_type_id":"4","last_reported":1750249332,"current_range_meters":9200,"station_id":"ce4bha92rcd13ifvqeg0","pricing_plan_id":"cebpf4jnsgd1na2vs0mg"},{"bike_id":"47c0e19d-e63a-45ab-bb21-05e9600800ca","system_id":"levelo_inurba_marseille","lat":43.29198,"lon":5.35812,"is_reserved":false,"is_disabled":false,"rental_uris":{"android":"levelo://app?vid=47c0e19d-e63a-45ab-bb21-05e9600800ca","ios":"levelo://app?vid=47c0e19d-e63a-45ab-bb21-05e9600800ca"},"vehicle_type_id":"4","last_reported":1750249332,"current_range_meters":9200,"station_id":"ce4bhb12rcd13ifvqel0","pricing_plan_id":"cebpf4jnsgd1na2vs0mg"},{"bike_id":"1afa29c8-dae0-4076-b7dd-2c28d4257699","system_id":"levelo_inurba_marseille","lat":43.28612,"lon":5.35104,"is_reserved":false,"is_disabled":false,"rental_uris":{"android":"levelo://app?vid=1afa29c8-dae0-4076-b7dd-2c28d4257699","ios":"levelo://app?vid=1afa29c8-dae0-4076-b7dd-2c28d4257699"},"vehicle_type_id":"4","last_reported":1750249332,"current_range_meters":9200,"station_id":"ce4bhch2rcd13ifvqeug","pricing_plan_id":"cebpf4jnsgd1na2vs0mg"},{"bike_id":"f9510f8f-16e3-4f5f-8af9-5defe5424fa3","system_id":"levelo_inurba_marseille","lat":43.28001,"lon":5.4001,"is_reserved":false,"is_disabled":false,"rental_uris":{"android":"levelo://app?vid=f9510f8f-16e3-4f5f-8af9-5defe5424fa3","ios":"levelo://app?vid=f9510f8f-16e3-4f5f-8af9-5defe5424fa3"},"vehicle_type_id":"4","last_reported":1750249332,"current_range_meters":9200,"station_id":"ce4bho92rcd13ifvqh4g","pricing_plan_id":"cebpf4jnsgd1na2vs0mg"},{"bike_id":"0c73076f-c883-41fc-8755-dcbbfa694d40","system_id":"levelo_inurba_marseille","lat":43.22938,"lon":5.35359,"is_reserved":false,"is_disabled":false,"rental_uris":{"android":"levelo://app?vid=0c73076f-c883-41fc-8755-dcbbfa694d40","ios":"levelo://app?vid=0c73076f-c883-41fc-8755-dcbbfa694d40"},"vehicle_type_id":"4","last_reported":1750249332,"current_range_meters":9200,"station_id":"cpo3532slgdg3j2ikp40","pricing_plan_id":"cebpf4jnsgd1na2vs0mg"},{"bike_id":"ccd9e06a-644b-4063-a702-0da0260a9594","system_id":"levelo_inurba_marseille","lat":43.29298,"lon":5.37452,"is_reserved":false,"is_disabled":false,"rental_uris":{"android":"levelo://app?vid=ccd9e06a-644b-4063-a702-0da0260a9594","ios":"levelo://app?vid=ccd9e06a-644b-4063-a702-0da0260a9594"},"vehicle_type_id":"4","last_reported":1750249332,"current_range_meters":9600,"station_id":"ce4bgi12rcd13ifvqb70","pricing_plan_id":"cebpf4jnsgd1na2vs0mg"},{"bike_id":"300ca1f9-c608-4982-82af-3f268e1aada5","system_id":"levelo_inurba_marseille","lat":43.30523,"lon":5.36548,"is_reserved":false,"is_disabled":false,"rental_uris":{"android":"levelo://app?vid=300ca1f9-c608-4982-82af-3f268e1aada5","ios":"levelo://app?vid=300ca1f9-c608-4982-82af-3f268e1aada5"},"vehicle_type_id":"4","last_reported":1750249332,"current_range_meters":9600,"station_id":"ce4bgs12rcd13ifvqcag","pricing_plan_id":"cebpf4jnsgd1na2vs0mg"},{"bike_id":"0735ef8f-c526-4b7c-842a-40f2241dffb7","system_id":"levelo_inurba_marseille","lat":43.30177,"lon":5.37405,"is_reserved":false,"is_disabled":false,"rental_uris":{"android":"levelo://app?vid=0735ef8f-c526-4b7c-842a-40f2241dffb7","ios":"levelo://app?vid=0735ef8f-c526-4b7c-842a-40f2241dffb7"},"vehicle_type_id":"4","last_reported":1750249332,"current_range_meters":9600,"station_id":"ce4bgs92rcd13ifvqcc0","pricing_plan_id":"cebpf4jnsgd1na2vs0mg"},{"bike_id":"c0da1462-d999-4ae0-ba17-c9c94700b21d","system_id":"levelo_inurba_marseille","lat":43.31363,"lon":5.38486,"is_reserved":false,"is_disabled":false,"rental_uris":{"android":"levelo://app?vid=c0da1462-d999-4ae0-ba17-c9c94700b21d","ios":"levelo://app?vid=c0da1462-d999-4ae0-ba17-c9c94700b21d"},"vehicle_type_id":"4","last_reported":1750249332,"current_range_meters":9600,"station_id":"ce4bgt92rcd13ifvqcf0","pricing_plan_id":"cebpf4jnsgd1na2vs0mg"},{"bike_id":"2c49226e-44b8-43a4-90f9-304e2e968ebb","system_id":"levelo_inurba_marseille","lat":43.24179,"lon":5.39711,"is_reserved":false,"is_disabled":false,"rental_uris":{"android":"levelo://app?vid=2c49226e-44b8-43a4-90f9-304e2e968ebb","ios":"levelo://app?vid=2c49226e-44b8-43a4-90f9-304e2e968ebb"},"vehicle_type_id":"4","last_reported":1750249332,"current_range_meters":9600,"station_id":"ce4bhn12rcd13ifvqgpg","pricing_plan_id":"cebpf4jnsgd1na2vs0mg"},{"bike_id":"83cfee7d-980d-496a-98c8-745c7e44c68d","system_id":"levelo_inurba_marseille","lat":43.32861,"lon":5.39107,"is_reserved":false,"is_disabled":false,"rental_uris":{"android":"levelo://app?vid=83cfee7d-980d-496a-98c8-745c7e44c68d","ios":"levelo://app?vid=83cfee7d-980d-496a-98c8-745c7e44c68d"},"vehicle_type_id":"4","last_reported":1750249332,"current_range_meters":10000,"station_id":"","pricing_plan_id":"cebpf4jnsgd1na2vs0mg"},{"bike_id":"04a4d042-848d-4c10-aa67-8fd1bc782796","system_id":"levelo_inurba_marseille","lat":43.293464,"lon":5.379436,"is_reserved":false,"is_disabled":false,"rental_uris":{"android":"levelo://app?vid=04a4d042-848d-4c10-aa67-8fd1bc782796","ios":"levelo://app?vid=04a4d042-848d-4c10-aa67-8fd1bc782796"},"vehicle_type_id":"4","last_reported":1750249332,"current_range_meters":10000,"station_id":"","pricing_plan_id":"cebpf4jnsgd1na2vs0mg"},{"bike_id":"d30f880b-8118-45d2-aac3-136366f21bb5","system_id":"levelo_inurba_marseille","lat":43.298482,"lon":5.36289,"is_reserved":false,"is_disabled":false,"rental_uris":{"android":"levelo://app?vid=d30f880b-8118-45d2-aac3-136366f21bb5","ios":"levelo://app?vid=d30f880b-8118-45d2-aac3-136366f21bb5"},"vehicle_type_id":"4","last_reported":1750249332,"current_range_meters":10000,"station_id":"ce4bgpp2rcd13ifvqc3g","pricing_plan_id":"cebpf4jnsgd1na2vs0mg"},{"bike_id":"7290eead-c567-40f4-b8a8-5b1d514a1135","system_id":"levelo_inurba_marseille","lat":43.31487,"lon":5.37308,"is_reserved":false,"is_disabled":false,"rental_uris":{"android":"levelo://app?vid=7290eead-c567-40f4-b8a8-5b1d514a1135","ios":"levelo://app?vid=7290eead-c567-40f4-b8a8-5b1d514a1135"},"vehicle_type_id":"4","last_reported":1750249332,"current_range_meters":10000,"station_id":"ce4bgt12rcd13ifvqcd0","pricing_plan_id":"cebpf4jnsgd1na2vs0mg"},{"bike_id":"75fd588d-acfb-46e9-8dd8-1fb428c7a2d5","system_id":"levelo_inurba_marseille","lat":43.31254,"lon":5.3686,"is_reserved":false,"is_disabled":false,"rental_uris":{"android":"levelo://app?vid=75fd588d-acfb-46e9-8dd8-1fb428c7a2d5","ios":"levelo://app?vid=75fd588d-acfb-46e9-8dd8-1fb428c7a2d5"},"vehicle_type_id":"4","last_reported":1750249332,"current_range_meters":10800,"station_id":"","pricing_plan_id":"cebpf4jnsgd1na2vs0mg"},{"bike_id":"3c1129a7-e3c2-43e4-b3d6-70bad27527cd","system_id":"levelo_inurba_marseille","lat":43.30152,"lon":5.37417,"is_reserved":false,"is_disabled":false,"rental_uris":{"android":"levelo://app?vid=3c1129a7-e3c2-43e4-b3d6-70bad27527cd","ios":"levelo://app?vid=3c1129a7-e3c2-43e4-b3d6-70bad27527cd"},"vehicle_type_id":"4","last_reported":1750249332,"current_range_meters":10800,"station_id":"ce4bgs92rcd13ifvqcc0","pricing_plan_id":"cebpf4jnsgd1na2vs0mg"},{"bike_id":"bfad0c77-1588-4a56-bbef-cf6a4407572e","system_id":"levelo_inurba_marseille","lat":43.28034,"lon":5.36936,"is_reserved":false,"is_disabled":false,"rental_uris":{"android":"levelo://app?vid=bfad0c77-1588-4a56-bbef-cf6a4407572e","ios":"levelo://app?vid=bfad0c77-1588-4a56-bbef-cf6a4407572e"},"vehicle_type_id":"4","last_reported":1750249332,"current_range_meters":10800,"station_id":"ce4bha12rcd13ifvqef0","pricing_plan_id":"cebpf4jnsgd1na2vs0mg"},{"bike_id":"e51e4df9-7b2b-4a92-b031-b221b1e20d07","system_id":"levelo_inurba_marseille","lat":43.273723,"lon":5.36262,"is_reserved":false,"is_disabled":false,"rental_uris":{"android":"levelo://app?vid=e51e4df9-7b2b-4a92-b031-b221b1e20d07","ios":"levelo://app?vid=e51e4df9-7b2b-4a92-b031-b221b1e20d07"},"vehicle_type_id":"4","last_reported":1750249332,"current_range_meters":10800,"station_id":"ce4bhbh2rcd13ifvqeo0","pricing_plan_id":"cebpf4jnsgd1na2vs0mg"},{"bike_id":"985082bb-596d-4e9d-b2bd-044cce100ceb","system_id":"levelo_inurba_marseille","lat":43.27377,"lon":5.36254,"is_reserved":false,"is_disabled":false,"rental_uris":{"android":"levelo://app?vid=985082bb-596d-4e9d-b2bd-044cce100ceb","ios":"levelo://app?vid=985082bb-596d-4e9d-b2bd-044cce100ceb"},"vehicle_type_id":"4","last_reported":1750249332,"current_range_meters":10800,"station_id":"ce4bhbh2rcd13ifvqeo0","pricing_plan_id":"cebpf4jnsgd1na2vs0mg"},{"bike_id":"8bdb2c6a-591a-4960-b5ed-805bab55ca73","system_id":"levelo_inurba_marseille","lat":43.28295,"lon":5.35095,"is_reserved":false,"is_disabled":false,"rental_uris":{"android":"levelo://app?vid=8bdb2c6a-591a-4960-b5ed-805bab55ca73","ios":"levelo://app?vid=8bdb2c6a-591a-4960-b5ed-805bab55ca73"},"vehicle_type_id":"4","last_reported":1750249332,"current_range_meters":10800,"station_id":"ce4bhbp2rcd13ifvqerg","pricing_plan_id":"cebpf4jnsgd1na2vs0mg"},{"bike_id":"5e4e8448-c1ec-4871-9f68-97a64eae6307","system_id":"levelo_inurba_marseille","lat":43.28614,"lon":5.35106,"is_reserved":false,"is_disabled":false,"rental_uris":{"android":"levelo://app?vid=5e4e8448-c1ec-4871-9f68-97a64eae6307","ios":"levelo://app?vid=5e4e8448-c1ec-4871-9f68-97a64eae6307"},"vehicle_type_id":"4","last_reported":1750249332,"current_range_meters":10800,"station_id":"ce4bhch2rcd13ifvqeug","pricing_plan_id":"cebpf4jnsgd1na2vs0mg"},{"bike_id":"17798934-524f-42c8-ba8e-4610b91fd1b7","system_id":"levelo_inurba_marseille","lat":43.26925,"lon":5.38925,"is_reserved":false,"is_disabled":false,"rental_uris":{"android":"levelo://app?vid=17798934-524f-42c8-ba8e-4610b91fd1b7","ios":"levelo://app?vid=17798934-524f-42c8-ba8e-4610b91fd1b7"},"vehicle_type_id":"4","last_reported":1750249332,"current_range_meters":10800,"station_id":"ce4bhhh2rcd13ifvqfl0","pricing_plan_id":"cebpf4jnsgd1na2vs0mg"},{"bike_id":"998d0538-52e0-477f-8e72-1b383baadd73","system_id":"levelo_inurba_marseille","lat":43.23151,"lon":5.43717,"is_reserved":false,"is_disabled":false,"rental_uris":{"android":"levelo://app?vid=998d0538-52e0-477f-8e72-1b383baadd73","ios":"levelo://app?vid=998d0538-52e0-477f-8e72-1b383baadd73"},"vehicle_type_id":"4","last_reported":1750249332,"current_range_meters":10800,"station_id":"ce4bhmp2rcd13ifvqgog","pricing_plan_id":"cebpf4jnsgd1na2vs0mg"},{"bike_id":"10ba2d44-1ddc-4945-9599-e7a0ba92944a","system_id":"levelo_inurba_marseille","lat":43.27997,"lon":5.40014,"is_reserved":false,"is_disabled":false,"rental_uris":{"android":"levelo://app?vid=10ba2d44-1ddc-4945-9599-e7a0ba92944a","ios":"levelo://app?vid=10ba2d44-1ddc-4945-9599-e7a0ba92944a"},"vehicle_type_id":"4","last_reported":1750249332,"current_range_meters":10800,"station_id":"ce4bho92rcd13ifvqh4g","pricing_plan_id":"cebpf4jnsgd1na2vs0mg"},{"bike_id":"ec791070-eafa-4c06-b970-7958cef6417d","system_id":"levelo_inurba_marseille","lat":43.23203,"lon":5.35563,"is_reserved":false,"is_disabled":false,"rental_uris":{"android":"levelo://app?vid=ec791070-eafa-4c06-b970-7958cef6417d","ios":"levelo://app?vid=ec791070-eafa-4c06-b970-7958cef6417d"},"vehicle_type_id":"4","last_reported":1750249332,"current_range_meters":10800,"station_id":"ce4bhu92rcd13ifvqi70","pricing_plan_id":"cebpf4jnsgd1na2vs0mg"},{"bike_id":"960c85a1-5973-4697-9a13-ccb47f1e6891","system_id":"levelo_inurba_marseille","lat":43.22929,"lon":5.3538,"is_reserved":false,"is_disabled":false,"rental_uris":{"android":"levelo://app?vid=960c85a1-5973-4697-9a13-ccb47f1e6891","ios":"levelo://app?vid=960c85a1-5973-4697-9a13-ccb47f1e6891"},"vehicle_type_id":"4","last_reported":1750249332,"current_range_meters":10800,"station_id":"cpo3532slgdg3j2ikp40","pricing_plan_id":"cebpf4jnsgd1na2vs0mg"},{"bike_id":"f97e3d06-ff04-4074-8a99-21de480985d1","system_id":"levelo_inurba_marseille","lat":43.30426,"lon":5.38902,"is_reserved":false,"is_disabled":false,"rental_uris":{"android":"levelo://app?vid=f97e3d06-ff04-4074-8a99-21de480985d1","ios":"levelo://app?vid=f97e3d06-ff04-4074-8a99-21de480985d1"},"vehicle_type_id":"4","last_reported":1750249332,"current_range_meters":11200,"station_id":"ce4bgk12rcd13ifvqbi0","pricing_plan_id":"cebpf4jnsgd1na2vs0mg"},{"bike_id":"251590bc-0526-4a3c-8ef4-f4fac39200e1","system_id":"levelo_inurba_marseille","lat":43.301326,"lon":5.374244,"is_reserved":false,"is_disabled":false,"rental_uris":{"android":"levelo://app?vid=251590bc-0526-4a3c-8ef4-f4fac39200e1","ios":"levelo://app?vid=251590bc-0526-4a3c-8ef4-f4fac39200e1"},"vehicle_type_id":"4","last_reported":1750249332,"current_range_meters":11200,"station_id":"ce4bgs92rcd13ifvqcc0","pricing_plan_id":"cebpf4jnsgd1na2vs0mg"},{"bike_id":"79a975a4-fea9-4285-80f5-e56d26d43c2b","system_id":"levelo_inurba_marseille","lat":43.28359,"lon":5.3863,"is_reserved":false,"is_disabled":false,"rental_uris":{"android":"levelo://app?vid=79a975a4-fea9-4285-80f5-e56d26d43c2b","ios":"levelo://app?vid=79a975a4-fea9-4285-80f5-e56d26d43c2b"},"vehicle_type_id":"4","last_reported":1750249332,"current_range_meters":11200,"station_id":"ce4bh492rcd13ifvqdvg","pricing_plan_id":"cebpf4jnsgd1na2vs0mg"},{"bike_id":"de0f7c2b-5974-4035-a240-8ed367c0e3f3","system_id":"levelo_inurba_marseille","lat":43.3197,"lon":5.37624,"is_reserved":false,"is_disabled":false,"rental_uris":{"android":"levelo://app?vid=de0f7c2b-5974-4035-a240-8ed367c0e3f3","ios":"levelo://app?vid=de0f7c2b-5974-4035-a240-8ed367c0e3f3"},"vehicle_type_id":"4","last_reported":1750249332,"current_range_meters":11600,"station_id":"","pricing_plan_id":"cebpf4jnsgd1na2vs0mg"},{"bike_id":"23473c5a-ff05-41d4-a194-b16ef02094df","system_id":"levelo_inurba_marseille","lat":43.30554,"lon":5.36566,"is_reserved":false,"is_disabled":false,"rental_uris":{"android":"levelo://app?vid=23473c5a-ff05-41d4-a194-b16ef02094df","ios":"levelo://app?vid=23473c5a-ff05-41d4-a194-b16ef02094df"},"vehicle_type_id":"4","last_reported":1750249332,"current_range_meters":11600,"station_id":"ce4bgs12rcd13ifvqcag","pricing_plan_id":"cebpf4jnsgd1na2vs0mg"},{"bike_id":"0ab838e2-9128-464a-baed-a153c1ac7668","system_id":"levelo_inurba_marseille","lat":43.30923,"lon":5.40146,"is_reserved":false,"is_disabled":false,"rental_uris":{"android":"levelo://app?vid=0ab838e2-9128-464a-baed-a153c1ac7668","ios":"levelo://app?vid=0ab838e2-9128-464a-baed-a153c1ac7668"},"vehicle_type_id":"4","last_reported":1750249332,"current_range_meters":11600,"station_id":"ce4bgvp2rcd13ifvqct0","pricing_plan_id":"cebpf4jnsgd1na2vs0mg"},{"bike_id":"c0f45a94-c6d7-478b-a59b-5431bf0369ce","system_id":"levelo_inurba_marseille","lat":43.26945,"lon":5.386315,"is_reserved":false,"is_disabled":false,"rental_uris":{"android":"levelo://app?vid=c0f45a94-c6d7-478b-a59b-5431bf0369ce","ios":"levelo://app?vid=c0f45a94-c6d7-478b-a59b-5431bf0369ce"},"vehicle_type_id":"4","last_reported":1750249332,"current_range_meters":11600,"station_id":"ce4bhh92rcd13ifvqfh0","pricing_plan_id":"cebpf4jnsgd1na2vs0mg"},{"bike_id":"df4e2464-49cf-4137-a654-97f7634a7442","system_id":"levelo_inurba_marseille","lat":43.24391,"lon":5.37051,"is_reserved":false,"is_disabled":false,"rental_uris":{"android":"levelo://app?vid=df4e2464-49cf-4137-a654-97f7634a7442","ios":"levelo://app?vid=df4e2464-49cf-4137-a654-97f7634a7442"},"vehicle_type_id":"4","last_reported":1750249332,"current_range_meters":11600,"station_id":"ce4bhhh2rcd13ifvqfk0","pricing_plan_id":"cebpf4jnsgd1na2vs0mg"},{"bike_id":"05e2e880-75f3-4a05-81f8-c1237d819b48","system_id":"levelo_inurba_marseille","lat":43.23191,"lon":5.35556,"is_reserved":false,"is_disabled":false,"rental_uris":{"android":"levelo://app?vid=05e2e880-75f3-4a05-81f8-c1237d819b48","ios":"levelo://app?vid=05e2e880-75f3-4a05-81f8-c1237d819b48"},"vehicle_type_id":"4","last_reported":1750249332,"current_range_meters":11600,"station_id":"ce4bhu92rcd13ifvqi70","pricing_plan_id":"cebpf4jnsgd1na2vs0mg"},{"bike_id":"ff375ab2-3e54-4447-a7e6-47511e020541","system_id":"levelo_inurba_marseille","lat":43.29729,"lon":5.37687,"is_reserved":false,"is_disabled":false,"rental_uris":{"android":"levelo://app?vid=ff375ab2-3e54-4447-a7e6-47511e020541","ios":"levelo://app?vid=ff375ab2-3e54-4447-a7e6-47511e020541"},"vehicle_type_id":"4","last_reported":1750249332,"current_range_meters":12000,"station_id":"ce4bgkh2rcd13ifvqbl0","pricing_plan_id":"cebpf4jnsgd1na2vs0mg"},{"bike_id":"f7fa858e-b7ee-404f-8191-6184cc003e2b","system_id":"levelo_inurba_marseille","lat":43.23194,"lon":5.35558,"is_reserved":false,"is_disabled":false,"rental_uris":{"android":"levelo://app?vid=f7fa858e-b7ee-404f-8191-6184cc003e2b","ios":"levelo://app?vid=f7fa858e-b7ee-404f-8191-6184cc003e2b"},"vehicle_type_id":"4","last_reported":1750249332,"current_range_meters":12000,"station_id":"ce4bhu92rcd13ifvqi70","pricing_plan_id":"cebpf4jnsgd1na2vs0mg"},{"bike_id":"e0a889cf-2327-4278-9b67-453fc8c6ae2a","system_id":"levelo_inurba_marseille","lat":43.30253,"lon":5.37424,"is_reserved":false,"is_disabled":false,"rental_uris":{"android":"levelo://app?vid=e0a889cf-2327-4278-9b67-453fc8c6ae2a","ios":"levelo://app?vid=e0a889cf-2327-4278-9b67-453fc8c6ae2a"},"vehicle_type_id":"4","last_reported":1750249332,"current_range_meters":12400,"station_id":"","pricing_plan_id":"cebpf4jnsgd1na2vs0mg"},{"bike_id":"3518210a-6d90-482f-a11b-11cb7c94acd1","system_id":"levelo_inurba_marseille","lat":43.26483,"lon":5.39197,"is_reserved":false,"is_disabled":false,"rental_uris":{"android":"levelo://app?vid=3518210a-6d90-482f-a11b-11cb7c94acd1","ios":"levelo://app?vid=3518210a-6d90-482f-a11b-11cb7c94acd1"},"vehicle_type_id":"4","last_reported":1750249332,"current_range_meters":12400,"station_id":"","pricing_plan_id":"cebpf4jnsgd1na2vs0mg"},{"bike_id":"34a2ba9a-1125-4feb-ab9c-58f669040010","system_id":"levelo_inurba_marseille","lat":43.26932,"lon":5.38942,"is_reserved":false,"is_disabled":false,"rental_uris":{"android":"levelo://app?vid=34a2ba9a-1125-4feb-ab9c-58f669040010","ios":"levelo://app?vid=34a2ba9a-1125-4feb-ab9c-58f669040010"},"vehicle_type_id":"4","last_reported":1750249332,"current_range_meters":12400,"station_id":"ce4bhhh2rcd13ifvqfl0","pricing_plan_id":"cebpf4jnsgd1na2vs0mg"},{"bike_id":"21c5a6e1-ee31-4c46-800b-dc6f7391485e","system_id":"levelo_inurba_marseille","lat":43.26486,"lon":5.39575,"is_reserved":false,"is_disabled":false,"rental_uris":{"android":"levelo://app?vid=21c5a6e1-ee31-4c46-800b-dc6f7391485e","ios":"levelo://app?vid=21c5a6e1-ee31-4c46-800b-dc6f7391485e"},"vehicle_type_id":"4","last_reported":1750249332,"current_range_meters":12400,"station_id":"ce4bhi12rcd13ifvqfq0","pricing_plan_id":"cebpf4jnsgd1na2vs0mg"},{"bike_id":"5fca8285-46cd-4a61-afa7-083de6991d10","system_id":"levelo_inurba_marseille","lat":43.23148,"lon":5.43712,"is_reserved":false,"is_disabled":false,"rental_uris":{"android":"levelo://app?vid=5fca8285-46cd-4a61-afa7-083de6991d10","ios":"levelo://app?vid=5fca8285-46cd-4a61-afa7-083de6991d10"},"vehicle_type_id":"4","last_reported":1750249332,"current_range_meters":12400,"station_id":"ce4bhmp2rcd13ifvqgog","pricing_plan_id":"cebpf4jnsgd1na2vs0mg"},{"bike_id":"4b8da722-ee9e-48a4-a5e5-3a8a10364708","system_id":"levelo_inurba_marseille","lat":43.312219,"lon":5.37807,"is_reserved":false,"is_disabled":false,"rental_uris":{"android":"levelo://app?vid=4b8da722-ee9e-48a4-a5e5-3a8a10364708","ios":"levelo://app?vid=4b8da722-ee9e-48a4-a5e5-3a8a10364708"},"vehicle_type_id":"4","last_reported":1750249332,"current_range_meters":13600,"station_id":"","pricing_plan_id":"cebpf4jnsgd1na2vs0mg"},{"bike_id":"d44811ec-e9b3-4d96-9419-14e330144d4b","system_id":"levelo_inurba_marseille","lat":43.30141,"lon":5.37431,"is_reserved":false,"is_disabled":false,"rental_uris":{"android":"levelo://app?vid=d44811ec-e9b3-4d96-9419-14e330144d4b","ios":"levelo://app?vid=d44811ec-e9b3-4d96-9419-14e330144d4b"},"vehicle_type_id":"4","last_reported":1750249332,"current_range_meters":13600,"station_id":"ce4bgs92rcd13ifvqcc0","pricing_plan_id":"cebpf4jnsgd1na2vs0mg"},{"bike_id":"823a0a62-1827-489e-8364-b540e07e5f8a","system_id":"levelo_inurba_marseille","lat":43.30335,"lon":5.40444,"is_reserved":false,"is_disabled":false,"rental_uris":{"android":"levelo://app?vid=823a0a62-1827-489e-8364-b540e07e5f8a","ios":"levelo://app?vid=823a0a62-1827-489e-8364-b540e07e5f8a"},"vehicle_type_id":"4","last_reported":1750249332,"current_range_meters":13600,"station_id":"ce4bh012rcd13ifvqd10","pricing_plan_id":"cebpf4jnsgd1na2vs0mg"},{"bike_id":"f96fac91-fcd6-4cf6-94db-3fb959156263","system_id":"levelo_inurba_marseille","lat":43.28275,"lon":5.35075,"is_reserved":false,"is_disabled":false,"rental_uris":{"android":"levelo://app?vid=f96fac91-fcd6-4cf6-94db-3fb959156263","ios":"levelo://app?vid=f96fac91-fcd6-4cf6-94db-3fb959156263"},"vehicle_type_id":"4","last_reported":1750249332,"current_range_meters":13600,"station_id":"ce4bhbp2rcd13ifvqerg","pricing_plan_id":"cebpf4jnsgd1na2vs0mg"},{"bike_id":"75fa638a-1a58-42a4-b4c8-b01bf79ff2fc","system_id":"levelo_inurba_marseille","lat":43.25583,"lon":5.38225,"is_reserved":false,"is_disabled":false,"rental_uris":{"android":"levelo://app?vid=75fa638a-1a58-42a4-b4c8-b01bf79ff2fc","ios":"levelo://app?vid=75fa638a-1a58-42a4-b4c8-b01bf79ff2fc"},"vehicle_type_id":"4","last_reported":1750249332,"current_range_meters":13600,"station_id":"ce4bhih2rcd13ifvqfs0","pricing_plan_id":"cebpf4jnsgd1na2vs0mg"},{"bike_id":"2221b76e-f960-492b-90db-07cc975c222a","system_id":"levelo_inurba_marseille","lat":43.27496,"lon":5.42456,"is_reserved":false,"is_disabled":false,"rental_uris":{"android":"levelo://app?vid=2221b76e-f960-492b-90db-07cc975c222a","ios":"levelo://app?vid=2221b76e-f960-492b-90db-07cc975c222a"},"vehicle_type_id":"4","last_reported":1750249332,"current_range_meters":13600,"station_id":"ce4bhn92rcd13ifvqgrg","pricing_plan_id":"cebpf4jnsgd1na2vs0mg"},{"bike_id":"3406832c-e87a-4c62-a111-78d66f271519","system_id":"levelo_inurba_marseille","lat":43.27507,"lon":5.42432,"is_reserved":false,"is_disabled":false,"rental_uris":{"android":"levelo://app?vid=3406832c-e87a-4c62-a111-78d66f271519","ios":"levelo://app?vid=3406832c-e87a-4c62-a111-78d66f271519"},"vehicle_type_id":"4","last_reported":1750249332,"current_range_meters":13600,"station_id":"ce4bhn92rcd13ifvqgrg","pricing_plan_id":"cebpf4jnsgd1na2vs0mg"},{"bike_id":"7029ca1d-7f38-483b-b91a-c903a50b411d","system_id":"levelo_inurba_marseille","lat":43.30416,"lon":5.41285,"is_reserved":false,"is_disabled":false,"rental_uris":{"android":"levelo://app?vid=7029ca1d-7f38-483b-b91a-c903a50b411d","ios":"levelo://app?vid=7029ca1d-7f38-483b-b91a-c903a50b411d"},"vehicle_type_id":"4","last_reported":1750249332,"current_range_meters":13600,"station_id":"ce4bhop2rcd13ifvqh8g","pricing_plan_id":"cebpf4jnsgd1na2vs0mg"},{"bike_id":"d1cf4809-6529-41e3-8cbc-570ff5bdad5f","system_id":"levelo_inurba_marseille","lat":43.32102,"lon":5.36782,"is_reserved":false,"is_disabled":false,"rental_uris":{"android":"levelo://app?vid=d1cf4809-6529-41e3-8cbc-570ff5bdad5f","ios":"levelo://app?vid=d1cf4809-6529-41e3-8cbc-570ff5bdad5f"},"vehicle_type_id":"4","last_reported":1750249332,"current_range_meters":13600,"station_id":"ce4bhrh2rcd13ifvqhug","pricing_plan_id":"cebpf4jnsgd1na2vs0mg"},{"bike_id":"b9740617-416c-49ef-a593-d345aa13726b","system_id":"levelo_inurba_marseille","lat":43.27005,"lon":5.43167,"is_reserved":false,"is_disabled":false,"rental_uris":{"android":"levelo://app?vid=b9740617-416c-49ef-a593-d345aa13726b","ios":"levelo://app?vid=b9740617-416c-49ef-a593-d345aa13726b"},"vehicle_type_id":"4","last_reported":1750249332,"current_range_meters":14000,"station_id":"","pricing_plan_id":"cebpf4jnsgd1na2vs0mg"},{"bike_id":"0dedb6f6-6801-483b-bfb8-9cd4533d158f","system_id":"levelo_inurba_marseille","lat":43.31151,"lon":5.3808,"is_reserved":false,"is_disabled":false,"rental_uris":{"android":"levelo://app?vid=0dedb6f6-6801-483b-bfb8-9cd4533d158f","ios":"levelo://app?vid=0dedb6f6-6801-483b-bfb8-9cd4533d158f"},"vehicle_type_id":"4","last_reported":1750249332,"current_range_meters":14000,"station_id":"","pricing_plan_id":"cebpf4jnsgd1na2vs0mg"},{"bike_id":"aa89758b-dbe8-4c87-9e77-ddc25bad72cf","system_id":"levelo_inurba_marseille","lat":43.30551,"lon":5.3656,"is_reserved":false,"is_disabled":false,"rental_uris":{"android":"levelo://app?vid=aa89758b-dbe8-4c87-9e77-ddc25bad72cf","ios":"levelo://app?vid=aa89758b-dbe8-4c87-9e77-ddc25bad72cf"},"vehicle_type_id":"4","last_reported":1750249332,"current_range_meters":14000,"station_id":"ce4bgs12rcd13ifvqcag","pricing_plan_id":"cebpf4jnsgd1na2vs0mg"},{"bike_id":"bf926316-c2d2-4b23-8f2b-109a2206ed7c","system_id":"levelo_inurba_marseille","lat":43.30169,"lon":5.37415,"is_reserved":false,"is_disabled":false,"rental_uris":{"android":"levelo://app?vid=bf926316-c2d2-4b23-8f2b-109a2206ed7c","ios":"levelo://app?vid=bf926316-c2d2-4b23-8f2b-109a2206ed7c"},"vehicle_type_id":"4","last_reported":1750249332,"current_range_meters":14000,"station_id":"ce4bgs92rcd13ifvqcc0","pricing_plan_id":"cebpf4jnsgd1na2vs0mg"},{"bike_id":"03b69e38-fd43-4672-9128-bfb8f4ce8ce2","system_id":"levelo_inurba_marseille","lat":43.30885,"lon":5.39657,"is_reserved":false,"is_disabled":false,"rental_uris":{"android":"levelo://app?vid=03b69e38-fd43-4672-9128-bfb8f4ce8ce2","ios":"levelo://app?vid=03b69e38-fd43-4672-9128-bfb8f4ce8ce2"},"vehicle_type_id":"4","last_reported":1750249332,"current_range_meters":14000,"station_id":"ce4bh012rcd13ifvqcv0","pricing_plan_id":"cebpf4jnsgd1na2vs0mg"},{"bike_id":"d5b1e3c6-6da6-4ef2-a4c4-f71ffaaacb39","system_id":"levelo_inurba_marseille","lat":43.290031,"lon":5.356128,"is_reserved":false,"is_disabled":false,"rental_uris":{"android":"levelo://app?vid=d5b1e3c6-6da6-4ef2-a4c4-f71ffaaacb39","ios":"levelo://app?vid=d5b1e3c6-6da6-4ef2-a4c4-f71ffaaacb39"},"vehicle_type_id":"4","last_reported":1750249332,"current_range_meters":14000,"station_id":"ce4bhb92rcd13ifvqen0","pricing_plan_id":"cebpf4jnsgd1na2vs0mg"},{"bike_id":"703d8cd3-7f1f-46bb-85f3-24d1e4814840","system_id":"levelo_inurba_marseille","lat":43.260804,"lon":5.394033,"is_reserved":false,"is_disabled":false,"rental_uris":{"android":"levelo://app?vid=703d8cd3-7f1f-46bb-85f3-24d1e4814840","ios":"levelo://app?vid=703d8cd3-7f1f-46bb-85f3-24d1e4814840"},"vehicle_type_id":"4","last_reported":1750249332,"current_range_meters":14000,"station_id":"ce4bhh92rcd13ifvqfj0","pricing_plan_id":"cebpf4jnsgd1na2vs0mg"},{"bike_id":"1e811d78-daec-4c78-861f-af8fd0de3a46","system_id":"levelo_inurba_marseille","lat":43.24178,"lon":5.39731,"is_reserved":false,"is_disabled":false,"rental_uris":{"android":"levelo://app?vid=1e811d78-daec-4c78-861f-af8fd0de3a46","ios":"levelo://app?vid=1e811d78-daec-4c78-861f-af8fd0de3a46"},"vehicle_type_id":"4","last_reported":1750249332,"current_range_meters":14000,"station_id":"ce4bhn12rcd13ifvqgpg","pricing_plan_id":"cebpf4jnsgd1na2vs0mg"},{"bike_id":"f2bed293-2f9e-463a-a34d-dc7d66b72389","system_id":"levelo_inurba_marseille","lat":43.29912,"lon":5.43675,"is_reserved":false,"is_disabled":false,"rental_uris":{"android":"levelo://app?vid=f2bed293-2f9e-463a-a34d-dc7d66b72389","ios":"levelo://app?vid=f2bed293-2f9e-463a-a34d-dc7d66b72389"},"vehicle_type_id":"4","last_reported":1750249332,"current_range_meters":14000,"station_id":"ce4bhpp2rcd13ifvqhfg","pricing_plan_id":"cebpf4jnsgd1na2vs0mg"},{"bike_id":"d0ea5802-b6e8-43d0-b059-3638fc1e3f44","system_id":"levelo_inurba_marseille","lat":43.28347,"lon":5.38105,"is_reserved":false,"is_disabled":false,"rental_uris":{"android":"levelo://app?vid=d0ea5802-b6e8-43d0-b059-3638fc1e3f44","ios":"levelo://app?vid=d0ea5802-b6e8-43d0-b059-3638fc1e3f44"},"vehicle_type_id":"4","last_reported":1750249332,"current_range_meters":14400,"station_id":"ce4bh412rcd13ifvqdr0","pricing_plan_id":"cebpf4jnsgd1na2vs0mg"},{"bike_id":"b82be50d-cad3-4548-8a9f-456d201fda74","system_id":"levelo_inurba_marseille","lat":43.289371,"lon":5.378514,"is_reserved":false,"is_disabled":false,"rental_uris":{"android":"levelo://app?vid=b82be50d-cad3-4548-8a9f-456d201fda74","ios":"levelo://app?vid=b82be50d-cad3-4548-8a9f-456d201fda74"},"vehicle_type_id":"4","last_reported":1750249332,"current_range_meters":14400,"station_id":"ce4bh9p2rcd13ifvqed0","pricing_plan_id":"cebpf4jnsgd1na2vs0mg"},{"bike_id":"78bae3e6-0eba-470a-85e8-93ed2d880bb4","system_id":"levelo_inurba_marseille","lat":43.25867,"lon":5.398959,"is_reserved":false,"is_disabled":false,"rental_uris":{"android":"levelo://app?vid=78bae3e6-0eba-470a-85e8-93ed2d880bb4","ios":"levelo://app?vid=78bae3e6-0eba-470a-85e8-93ed2d880bb4"},"vehicle_type_id":"4","last_reported":1750249332,"current_range_meters":14400,"station_id":"ce4bhi12rcd13ifvqfq0","pricing_plan_id":"cebpf4jnsgd1na2vs0mg"},{"bike_id":"ce6ee664-9566-4f20-abbc-0d5b116e9882","system_id":"levelo_inurba_marseille","lat":43.27491,"lon":5.4246,"is_reserved":false,"is_disabled":false,"rental_uris":{"android":"levelo://app?vid=ce6ee664-9566-4f20-abbc-0d5b116e9882","ios":"levelo://app?vid=ce6ee664-9566-4f20-abbc-0d5b116e9882"},"vehicle_type_id":"4","last_reported":1750249332,"current_range_meters":14400,"station_id":"ce4bhn92rcd13ifvqgrg","pricing_plan_id":"cebpf4jnsgd1na2vs0mg"},{"bike_id":"6b09cd8d-e419-4258-9c4c-1ce241affa14","system_id":"levelo_inurba_marseille","lat":43.24068,"lon":5.37789,"is_reserved":false,"is_disabled":false,"rental_uris":{"android":"levelo://app?vid=6b09cd8d-e419-4258-9c4c-1ce241affa14","ios":"levelo://app?vid=6b09cd8d-e419-4258-9c4c-1ce241affa14"},"vehicle_type_id":"4","last_reported":1750249332,"current_range_meters":14400,"station_id":"ce4bhnp2rcd13ifvqgvg","pricing_plan_id":"cebpf4jnsgd1na2vs0mg"},{"bike_id":"75bdddd2-5231-4b11-90bc-5b998201fdc4","system_id":"levelo_inurba_marseille","lat":43.24164,"lon":5.36396,"is_reserved":false,"is_disabled":false,"rental_uris":{"android":"levelo://app?vid=75bdddd2-5231-4b11-90bc-5b998201fdc4","ios":"levelo://app?vid=75bdddd2-5231-4b11-90bc-5b998201fdc4"},"vehicle_type_id":"4","last_reported":1750249332,"current_range_meters":14400,"station_id":"cpo36qri1sfpv3e86is0","pricing_plan_id":"cebpf4jnsgd1na2vs0mg"},{"bike_id":"323ea731-0e57-45c1-8138-e4bce00619bb","system_id":"levelo_inurba_marseille","lat":43.30157,"lon":5.38079,"is_reserved":false,"is_disabled":false,"rental_uris":{"android":"levelo://app?vid=323ea731-0e57-45c1-8138-e4bce00619bb","ios":"levelo://app?vid=323ea731-0e57-45c1-8138-e4bce00619bb"},"vehicle_type_id":"4","last_reported":1750249332,"current_range_meters":14800,"station_id":"ce4bgjp2rcd13ifvqbh0","pricing_plan_id":"cebpf4jnsgd1na2vs0mg"},{"bike_id":"d0b5a94b-7535-4167-99ae-940feace655a","system_id":"levelo_inurba_marseille","lat":43.30153,"lon":5.37415,"is_reserved":false,"is_disabled":false,"rental_uris":{"android":"levelo://app?vid=d0b5a94b-7535-4167-99ae-940feace655a","ios":"levelo://app?vid=d0b5a94b-7535-4167-99ae-940feace655a"},"vehicle_type_id":"4","last_reported":1750249332,"current_range_meters":14800,"station_id":"ce4bgs92rcd13ifvqcc0","pricing_plan_id":"cebpf4jnsgd1na2vs0mg"},{"bike_id":"5c691957-9977-4dbf-a655-63766c3a2d72","system_id":"levelo_inurba_marseille","lat":43.28272,"lon":5.3506,"is_reserved":false,"is_disabled":false,"rental_uris":{"android":"levelo://app?vid=5c691957-9977-4dbf-a655-63766c3a2d72","ios":"levelo://app?vid=5c691957-9977-4dbf-a655-63766c3a2d72"},"vehicle_type_id":"4","last_reported":1750249332,"current_range_meters":14800,"station_id":"ce4bhbp2rcd13ifvqerg","pricing_plan_id":"cebpf4jnsgd1na2vs0mg"},{"bike_id":"e694fbd3-29d7-4849-bd5f-ac7a4a6d1537","system_id":"levelo_inurba_marseille","lat":43.26553,"lon":5.39016,"is_reserved":false,"is_disabled":false,"rental_uris":{"android":"levelo://app?vid=e694fbd3-29d7-4849-bd5f-ac7a4a6d1537","ios":"levelo://app?vid=e694fbd3-29d7-4849-bd5f-ac7a4a6d1537"},"vehicle_type_id":"4","last_reported":1750249332,"current_range_meters":14800,"station_id":"ce4bhe12rcd13ifvqf30","pricing_plan_id":"cebpf4jnsgd1na2vs0mg"},{"bike_id":"62eabfaf-a230-4e72-8048-eee01bd78590","system_id":"levelo_inurba_marseille","lat":43.26558,"lon":5.37285,"is_reserved":false,"is_disabled":false,"rental_uris":{"android":"levelo://app?vid=62eabfaf-a230-4e72-8048-eee01bd78590","ios":"levelo://app?vid=62eabfaf-a230-4e72-8048-eee01bd78590"},"vehicle_type_id":"4","last_reported":1750249332,"current_range_meters":14800,"station_id":"ce4bhg12rcd13ifvqf70","pricing_plan_id":"cebpf4jnsgd1na2vs0mg"},{"bike_id":"713a1963-a9a8-4281-85d6-22027690e8f2","system_id":"levelo_inurba_marseille","lat":43.23149,"lon":5.43728,"is_reserved":false,"is_disabled":false,"rental_uris":{"android":"levelo://app?vid=713a1963-a9a8-4281-85d6-22027690e8f2","ios":"levelo://app?vid=713a1963-a9a8-4281-85d6-22027690e8f2"},"vehicle_type_id":"4","last_reported":1750249332,"current_range_meters":14800,"station_id":"ce4bhmp2rcd13ifvqgog","pricing_plan_id":"cebpf4jnsgd1na2vs0mg"},{"bike_id":"1edd31f8-0128-4621-925e-4decf3aa47f1","system_id":"levelo_inurba_marseille","lat":43.211913,"lon":5.350734,"is_reserved":false,"is_disabled":false,"rental_uris":{"android":"levelo://app?vid=1edd31f8-0128-4621-925e-4decf3aa47f1","ios":"levelo://app?vid=1edd31f8-0128-4621-925e-4decf3aa47f1"},"vehicle_type_id":"4","last_reported":1750249332,"current_range_meters":14800,"station_id":"st_cvj6sg6p6f1abm77japg","pricing_plan_id":"cebpf4jnsgd1na2vs0mg"},{"bike_id":"faf048f0-ef47-45f8-8544-8137d956151e","system_id":"levelo_inurba_marseille","lat":43.31252,"lon":5.37445,"is_reserved":false,"is_disabled":false,"rental_uris":{"android":"levelo://app?vid=faf048f0-ef47-45f8-8544-8137d956151e","ios":"levelo://app?vid=faf048f0-ef47-45f8-8544-8137d956151e"},"vehicle_type_id":"4","last_reported":1750249332,"current_range_meters":15200,"station_id":"","pricing_plan_id":"cebpf4jnsgd1na2vs0mg"},{"bike_id":"268aafb4-1331-426c-97bc-a7d6564caeb6","system_id":"levelo_inurba_marseille","lat":43.32933,"lon":5.37919,"is_reserved":false,"is_disabled":false,"rental_uris":{"android":"levelo://app?vid=268aafb4-1331-426c-97bc-a7d6564caeb6","ios":"levelo://app?vid=268aafb4-1331-426c-97bc-a7d6564caeb6"},"vehicle_type_id":"4","last_reported":1750249332,"current_range_meters":15200,"station_id":"","pricing_plan_id":"cebpf4jnsgd1na2vs0mg"},{"bike_id":"0d476d7d-86bf-44c8-9128-0b17821f2392","system_id":"levelo_inurba_marseille","lat":43.28926,"lon":5.36637,"is_reserved":false,"is_disabled":false,"rental_uris":{"android":"levelo://app?vid=0d476d7d-86bf-44c8-9128-0b17821f2392","ios":"levelo://app?vid=0d476d7d-86bf-44c8-9128-0b17821f2392"},"vehicle_type_id":"4","last_reported":1750249332,"current_range_meters":15200,"station_id":"ce4bhap2rcd13ifvqek0","pricing_plan_id":"cebpf4jnsgd1na2vs0mg"},{"bike_id":"35aadc3c-22ae-48f1-9037-06a0bb51bc26","system_id":"levelo_inurba_marseille","lat":43.27673,"lon":5.38878,"is_reserved":false,"is_disabled":false,"rental_uris":{"android":"levelo://app?vid=35aadc3c-22ae-48f1-9037-06a0bb51bc26","ios":"levelo://app?vid=35aadc3c-22ae-48f1-9037-06a0bb51bc26"},"vehicle_type_id":"4","last_reported":1750249332,"current_range_meters":15200,"station_id":"ce4bhi12rcd13ifvqfo0","pricing_plan_id":"cebpf4jnsgd1na2vs0mg"},{"bike_id":"009a4e6c-c62b-4905-8be8-25c9f44d8854","system_id":"levelo_inurba_marseille","lat":43.262,"lon":5.37931,"is_reserved":false,"is_disabled":false,"rental_uris":{"android":"levelo://app?vid=009a4e6c-c62b-4905-8be8-25c9f44d8854","ios":"levelo://app?vid=009a4e6c-c62b-4905-8be8-25c9f44d8854"},"vehicle_type_id":"4","last_reported":1750249332,"current_range_meters":15200,"station_id":"ce4bhjp2rcd13ifvqg90","pricing_plan_id":"cebpf4jnsgd1na2vs0mg"},{"bike_id":"9e6b6795-72a7-4c2f-ae9a-06b58fcd1632","system_id":"levelo_inurba_marseille","lat":43.259297,"lon":5.409086,"is_reserved":false,"is_disabled":false,"rental_uris":{"android":"levelo://app?vid=9e6b6795-72a7-4c2f-ae9a-06b58fcd1632","ios":"levelo://app?vid=9e6b6795-72a7-4c2f-ae9a-06b58fcd1632"},"vehicle_type_id":"4","last_reported":1750249332,"current_range_meters":15200,"station_id":"ce4bhm92rcd13ifvqglg","pricing_plan_id":"cebpf4jnsgd1na2vs0mg"},{"bike_id":"975d7472-abaa-40d3-8524-613626275fdc","system_id":"levelo_inurba_marseille","lat":43.23193,"lon":5.35558,"is_reserved":false,"is_disabled":false,"rental_uris":{"android":"levelo://app?vid=975d7472-abaa-40d3-8524-613626275fdc","ios":"levelo://app?vid=975d7472-abaa-40d3-8524-613626275fdc"},"vehicle_type_id":"4","last_reported":1750249332,"current_range_meters":15200,"station_id":"ce4bhu92rcd13ifvqi70","pricing_plan_id":"cebpf4jnsgd1na2vs0mg"},{"bike_id":"519791ae-fb2f-45a3-a2ff-6019a10f140d","system_id":"levelo_inurba_marseille","lat":43.31342,"lon":5.36714,"is_reserved":false,"is_disabled":false,"rental_uris":{"android":"levelo://app?vid=519791ae-fb2f-45a3-a2ff-6019a10f140d","ios":"levelo://app?vid=519791ae-fb2f-45a3-a2ff-6019a10f140d"},"vehicle_type_id":"4","last_reported":1750249332,"current_range_meters":16000,"station_id":"ce4bgr92rcd13ifvqc6g","pricing_plan_id":"cebpf4jnsgd1na2vs0mg"},{"bike_id":"1678d1c9-10e1-4099-b7e8-56f9d3c1433c","system_id":"levelo_inurba_marseille","lat":43.3014,"lon":5.37423,"is_reserved":false,"is_disabled":false,"rental_uris":{"android":"levelo://app?vid=1678d1c9-10e1-4099-b7e8-56f9d3c1433c","ios":"levelo://app?vid=1678d1c9-10e1-4099-b7e8-56f9d3c1433c"},"vehicle_type_id":"4","last_reported":1750249332,"current_range_meters":16000,"station_id":"ce4bgs92rcd13ifvqcc0","pricing_plan_id":"cebpf4jnsgd1na2vs0mg"},{"bike_id":"15229d06-862d-4dcb-9c54-f31e7432d78c","system_id":"levelo_inurba_marseille","lat":43.29528,"lon":5.39401,"is_reserved":false,"is_disabled":false,"rental_uris":{"android":"levelo://app?vid=15229d06-862d-4dcb-9c54-f31e7432d78c","ios":"levelo://app?vid=15229d06-862d-4dcb-9c54-f31e7432d78c"},"vehicle_type_id":"4","last_reported":1750249332,"current_range_meters":16000,"station_id":"ce4bh292rcd13ifvqdf0","pricing_plan_id":"cebpf4jnsgd1na2vs0mg"},{"bike_id":"9d2a90e7-394f-41d8-ae49-77712a22ee78","system_id":"levelo_inurba_marseille","lat":43.25495,"lon":5.37656,"is_reserved":false,"is_disabled":false,"rental_uris":{"android":"levelo://app?vid=9d2a90e7-394f-41d8-ae49-77712a22ee78","ios":"levelo://app?vid=9d2a90e7-394f-41d8-ae49-77712a22ee78"},"vehicle_type_id":"4","last_reported":1750249332,"current_range_meters":16000,"station_id":"ce4bhh12rcd13ifvqff0","pricing_plan_id":"cebpf4jnsgd1na2vs0mg"},{"bike_id":"5f512abd-8241-4d7f-bb7d-9d179e57b97b","system_id":"levelo_inurba_marseille","lat":43.27074,"lon":5.42282,"is_reserved":false,"is_disabled":false,"rental_uris":{"android":"levelo://app?vid=5f512abd-8241-4d7f-bb7d-9d179e57b97b","ios":"levelo://app?vid=5f512abd-8241-4d7f-bb7d-9d179e57b97b"},"vehicle_type_id":"4","last_reported":1750249332,"current_range_meters":16000,"station_id":"ce4bhk92rcd13ifvqgb0","pricing_plan_id":"cebpf4jnsgd1na2vs0mg"},{"bike_id":"d91d425f-bac8-4192-9846-0b58eda190fd","system_id":"levelo_inurba_marseille","lat":43.27942,"lon":5.41056,"is_reserved":false,"is_disabled":false,"rental_uris":{"android":"levelo://app?vid=d91d425f-bac8-4192-9846-0b58eda190fd","ios":"levelo://app?vid=d91d425f-bac8-4192-9846-0b58eda190fd"},"vehicle_type_id":"4","last_reported":1750249332,"current_range_meters":16000,"station_id":"ce4bhnp2rcd13ifvqh0g","pricing_plan_id":"cebpf4jnsgd1na2vs0mg"},{"bike_id":"ff899b15-fdd1-4c2d-9023-b38ebd1a6335","system_id":"levelo_inurba_marseille","lat":43.23196,"lon":5.35553,"is_reserved":false,"is_disabled":false,"rental_uris":{"android":"levelo://app?vid=ff899b15-fdd1-4c2d-9023-b38ebd1a6335","ios":"levelo://app?vid=ff899b15-fdd1-4c2d-9023-b38ebd1a6335"},"vehicle_type_id":"4","last_reported":1750249332,"current_range_meters":16000,"station_id":"ce4bhu92rcd13ifvqi70","pricing_plan_id":"cebpf4jnsgd1na2vs0mg"},{"bike_id":"8dc3f506-d8c7-45a7-8cc8-ec897678ea5f","system_id":"levelo_inurba_marseille","lat":43.24148,"lon":5.36423,"is_reserved":false,"is_disabled":false,"rental_uris":{"android":"levelo://app?vid=8dc3f506-d8c7-45a7-8cc8-ec897678ea5f","ios":"levelo://app?vid=8dc3f506-d8c7-45a7-8cc8-ec897678ea5f"},"vehicle_type_id":"4","last_reported":1750249332,"current_range_meters":16000,"station_id":"cpo36qri1sfpv3e86is0","pricing_plan_id":"cebpf4jnsgd1na2vs0mg"},{"bike_id":"9d993ade-3922-40c5-8263-dca4e469e9a1","system_id":"levelo_inurba_marseille","lat":43.21195,"lon":5.35072,"is_reserved":false,"is_disabled":false,"rental_uris":{"android":"levelo://app?vid=9d993ade-3922-40c5-8263-dca4e469e9a1","ios":"levelo://app?vid=9d993ade-3922-40c5-8263-dca4e469e9a1"},"vehicle_type_id":"4","last_reported":1750249332,"current_range_meters":16000,"station_id":"st_cvj6sg6p6f1abm77japg","pricing_plan_id":"cebpf4jnsgd1na2vs0mg"},{"bike_id":"f025e0b0-8595-426c-b214-cb9b74c5fcfd","system_id":"levelo_inurba_marseille","lat":43.32194,"lon":5.40581,"is_reserved":false,"is_disabled":false,"rental_uris":{"android":"levelo://app?vid=f025e0b0-8595-426c-b214-cb9b74c5fcfd","ios":"levelo://app?vid=f025e0b0-8595-426c-b214-cb9b74c5fcfd"},"vehicle_type_id":"4","last_reported":1750249332,"current_range_meters":16400,"station_id":"","pricing_plan_id":"cebpf4jnsgd1na2vs0mg"},{"bike_id":"ae2fdae3-50bf-4bd1-ba6e-560530838045","system_id":"levelo_inurba_marseille","lat":43.2632,"lon":5.37394,"is_reserved":false,"is_disabled":false,"rental_uris":{"android":"levelo://app?vid=ae2fdae3-50bf-4bd1-ba6e-560530838045","ios":"levelo://app?vid=ae2fdae3-50bf-4bd1-ba6e-560530838045"},"vehicle_type_id":"4","last_reported":1750249332,"current_range_meters":16400,"station_id":"","pricing_plan_id":"cebpf4jnsgd1na2vs0mg"},{"bike_id":"87b77436-40f4-4cec-b641-2b02c1ef82e6","system_id":"levelo_inurba_marseille","lat":43.30267,"lon":5.37742,"is_reserved":false,"is_disabled":false,"rental_uris":{"android":"levelo://app?vid=87b77436-40f4-4cec-b641-2b02c1ef82e6","ios":"levelo://app?vid=87b77436-40f4-4cec-b641-2b02c1ef82e6"},"vehicle_type_id":"4","last_reported":1750249332,"current_range_meters":16400,"station_id":"ce4bguh2rcd13ifvqcj0","pricing_plan_id":"cebpf4jnsgd1na2vs0mg"},{"bike_id":"3ae90069-694d-4f73-8c02-0eb64b66b28d","system_id":"levelo_inurba_marseille","lat":43.2658,"lon":5.39037,"is_reserved":false,"is_disabled":false,"rental_uris":{"android":"levelo://app?vid=3ae90069-694d-4f73-8c02-0eb64b66b28d","ios":"levelo://app?vid=3ae90069-694d-4f73-8c02-0eb64b66b28d"},"vehicle_type_id":"4","last_reported":1750249332,"current_range_meters":16400,"station_id":"ce4bhe12rcd13ifvqf30","pricing_plan_id":"cebpf4jnsgd1na2vs0mg"},{"bike_id":"a13fa7fa-d01c-4f05-8e93-7a2e336ae090","system_id":"levelo_inurba_marseille","lat":43.26957,"lon":5.38638,"is_reserved":false,"is_disabled":false,"rental_uris":{"android":"levelo://app?vid=a13fa7fa-d01c-4f05-8e93-7a2e336ae090","ios":"levelo://app?vid=a13fa7fa-d01c-4f05-8e93-7a2e336ae090"},"vehicle_type_id":"4","last_reported":1750249332,"current_range_meters":16400,"station_id":"ce4bhh92rcd13ifvqfh0","pricing_plan_id":"cebpf4jnsgd1na2vs0mg"},{"bike_id":"af47938b-704d-4a94-bf3c-b5df6c648547","system_id":"levelo_inurba_marseille","lat":43.2439,"lon":5.3706,"is_reserved":false,"is_disabled":false,"rental_uris":{"android":"levelo://app?vid=af47938b-704d-4a94-bf3c-b5df6c648547","ios":"levelo://app?vid=af47938b-704d-4a94-bf3c-b5df6c648547"},"vehicle_type_id":"4","last_reported":1750249332,"current_range_meters":16400,"station_id":"ce4bhhh2rcd13ifvqfk0","pricing_plan_id":"cebpf4jnsgd1na2vs0mg"},{"bike_id":"5c9878b4-89f1-4442-84b0-44598b017874","system_id":"levelo_inurba_marseille","lat":43.25933,"lon":5.4091,"is_reserved":false,"is_disabled":false,"rental_uris":{"android":"levelo://app?vid=5c9878b4-89f1-4442-84b0-44598b017874","ios":"levelo://app?vid=5c9878b4-89f1-4442-84b0-44598b017874"},"vehicle_type_id":"4","last_reported":1750249332,"current_range_meters":16400,"station_id":"ce4bhm92rcd13ifvqglg","pricing_plan_id":"cebpf4jnsgd1na2vs0mg"},{"bike_id":"d1a40c3e-44a4-4b9a-97c3-90a5bd273762","system_id":"levelo_inurba_marseille","lat":43.24181,"lon":5.39733,"is_reserved":false,"is_disabled":false,"rental_uris":{"android":"levelo://app?vid=d1a40c3e-44a4-4b9a-97c3-90a5bd273762","ios":"levelo://app?vid=d1a40c3e-44a4-4b9a-97c3-90a5bd273762"},"vehicle_type_id":"4","last_reported":1750249332,"current_range_meters":16400,"station_id":"ce4bhn12rcd13ifvqgpg","pricing_plan_id":"cebpf4jnsgd1na2vs0mg"},{"bike_id":"d6b59448-6161-4e70-befd-235ecc0fb1fc","system_id":"levelo_inurba_marseille","lat":43.23192,"lon":5.35554,"is_reserved":false,"is_disabled":false,"rental_uris":{"android":"levelo://app?vid=d6b59448-6161-4e70-befd-235ecc0fb1fc","ios":"levelo://app?vid=d6b59448-6161-4e70-befd-235ecc0fb1fc"},"vehicle_type_id":"4","last_reported":1750249332,"current_range_meters":16400,"station_id":"ce4bhu92rcd13ifvqi70","pricing_plan_id":"cebpf4jnsgd1na2vs0mg"},{"bike_id":"eaaa9fcd-34d4-4d0b-8f90-fbf605a0610f","system_id":"levelo_inurba_marseille","lat":43.21192,"lon":5.35083,"is_reserved":false,"is_disabled":false,"rental_uris":{"android":"levelo://app?vid=eaaa9fcd-34d4-4d0b-8f90-fbf605a0610f","ios":"levelo://app?vid=eaaa9fcd-34d4-4d0b-8f90-fbf605a0610f"},"vehicle_type_id":"4","last_reported":1750249332,"current_range_meters":16400,"station_id":"st_cvj6sg6p6f1abm77japg","pricing_plan_id":"cebpf4jnsgd1na2vs0mg"},{"bike_id":"e921cee3-b8ce-4c00-b7eb-8ab335b5e125","system_id":"levelo_inurba_marseille","lat":43.30188,"lon":5.42254,"is_reserved":false,"is_disabled":false,"rental_uris":{"android":"levelo://app?vid=e921cee3-b8ce-4c00-b7eb-8ab335b5e125","ios":"levelo://app?vid=e921cee3-b8ce-4c00-b7eb-8ab335b5e125"},"vehicle_type_id":"4","last_reported":1750249332,"current_range_meters":16800,"station_id":"","pricing_plan_id":"cebpf4jnsgd1na2vs0mg"},{"bike_id":"fa84b247-3db5-4ee3-bfdd-ea86cc8f349e","system_id":"levelo_inurba_marseille","lat":43.30164,"lon":5.37423,"is_reserved":false,"is_disabled":false,"rental_uris":{"android":"levelo://app?vid=fa84b247-3db5-4ee3-bfdd-ea86cc8f349e","ios":"levelo://app?vid=fa84b247-3db5-4ee3-bfdd-ea86cc8f349e"},"vehicle_type_id":"4","last_reported":1750249332,"current_range_meters":16800,"station_id":"ce4bgs92rcd13ifvqcc0","pricing_plan_id":"cebpf4jnsgd1na2vs0mg"},{"bike_id":"e7686c58-35e2-4b3b-9612-c98b89e3da0b","system_id":"levelo_inurba_marseille","lat":43.26566,"lon":5.39003,"is_reserved":false,"is_disabled":false,"rental_uris":{"android":"levelo://app?vid=e7686c58-35e2-4b3b-9612-c98b89e3da0b","ios":"levelo://app?vid=e7686c58-35e2-4b3b-9612-c98b89e3da0b"},"vehicle_type_id":"4","last_reported":1750249332,"current_range_meters":16800,"station_id":"ce4bhe12rcd13ifvqf30","pricing_plan_id":"cebpf4jnsgd1na2vs0mg"},{"bike_id":"caa7a473-a728-4942-9155-61ec407abffe","system_id":"levelo_inurba_marseille","lat":43.26201,"lon":5.37929,"is_reserved":false,"is_disabled":false,"rental_uris":{"android":"levelo://app?vid=caa7a473-a728-4942-9155-61ec407abffe","ios":"levelo://app?vid=caa7a473-a728-4942-9155-61ec407abffe"},"vehicle_type_id":"4","last_reported":1750249332,"current_range_meters":16800,"station_id":"ce4bhjp2rcd13ifvqg90","pricing_plan_id":"cebpf4jnsgd1na2vs0mg"},{"bike_id":"57221a3e-e581-4597-9855-74ceabcf362e","system_id":"levelo_inurba_marseille","lat":43.31754,"lon":5.39018,"is_reserved":false,"is_disabled":false,"rental_uris":{"android":"levelo://app?vid=57221a3e-e581-4597-9855-74ceabcf362e","ios":"levelo://app?vid=57221a3e-e581-4597-9855-74ceabcf362e"},"vehicle_type_id":"4","last_reported":1750249332,"current_range_meters":16800,"station_id":"ce4bhqp2rcd13ifvqhng","pricing_plan_id":"cebpf4jnsgd1na2vs0mg"},{"bike_id":"390b8ed5-abf6-4fcf-9370-66dd64d65ab8","system_id":"levelo_inurba_marseille","lat":43.21754,"lon":5.34615,"is_reserved":false,"is_disabled":false,"rental_uris":{"android":"levelo://app?vid=390b8ed5-abf6-4fcf-9370-66dd64d65ab8","ios":"levelo://app?vid=390b8ed5-abf6-4fcf-9370-66dd64d65ab8"},"vehicle_type_id":"4","last_reported":1750249332,"current_range_meters":16800,"station_id":"st_cvj6r9ubvosntc0bgbag","pricing_plan_id":"cebpf4jnsgd1na2vs0mg"},{"bike_id":"4b6b2a2b-d3c4-4663-8ea1-de4eff39b7b2","system_id":"levelo_inurba_marseille","lat":43.211892,"lon":5.350737,"is_reserved":false,"is_disabled":false,"rental_uris":{"android":"levelo://app?vid=4b6b2a2b-d3c4-4663-8ea1-de4eff39b7b2","ios":"levelo://app?vid=4b6b2a2b-d3c4-4663-8ea1-de4eff39b7b2"},"vehicle_type_id":"4","last_reported":1750249332,"current_range_meters":16800,"station_id":"st_cvj6sg6p6f1abm77japg","pricing_plan_id":"cebpf4jnsgd1na2vs0mg"},{"bike_id":"ffcdd0c7-f6bc-4f7f-beae-4f3500206a43","system_id":"levelo_inurba_marseille","lat":43.31692,"lon":5.40477,"is_reserved":false,"is_disabled":false,"rental_uris":{"android":"levelo://app?vid=ffcdd0c7-f6bc-4f7f-beae-4f3500206a43","ios":"levelo://app?vid=ffcdd0c7-f6bc-4f7f-beae-4f3500206a43"},"vehicle_type_id":"4","last_reported":1750249332,"current_range_meters":17200,"station_id":"ce4bh012rcd13ifvqd00","pricing_plan_id":"cebpf4jnsgd1na2vs0mg"},{"bike_id":"9ef1cc38-f2bd-466a-81d6-dc24a133258a","system_id":"levelo_inurba_marseille","lat":43.29628,"lon":5.40596,"is_reserved":false,"is_disabled":false,"rental_uris":{"android":"levelo://app?vid=9ef1cc38-f2bd-466a-81d6-dc24a133258a","ios":"levelo://app?vid=9ef1cc38-f2bd-466a-81d6-dc24a133258a"},"vehicle_type_id":"4","last_reported":1750249332,"current_range_meters":17200,"station_id":"ce4bh0h2rcd13ifvqd60","pricing_plan_id":"cebpf4jnsgd1na2vs0mg"},{"bike_id":"04cc8c59-399d-4dab-a820-0bb11c73ed96","system_id":"levelo_inurba_marseille","lat":43.28352,"lon":5.38112,"is_reserved":false,"is_disabled":false,"rental_uris":{"android":"levelo://app?vid=04cc8c59-399d-4dab-a820-0bb11c73ed96","ios":"levelo://app?vid=04cc8c59-399d-4dab-a820-0bb11c73ed96"},"vehicle_type_id":"4","last_reported":1750249332,"current_range_meters":17200,"station_id":"ce4bh412rcd13ifvqdr0","pricing_plan_id":"cebpf4jnsgd1na2vs0mg"},{"bike_id":"e7dad37e-e27e-45a3-98af-53555fde6281","system_id":"levelo_inurba_marseille","lat":43.2828,"lon":5.35067,"is_reserved":false,"is_disabled":false,"rental_uris":{"android":"levelo://app?vid=e7dad37e-e27e-45a3-98af-53555fde6281","ios":"levelo://app?vid=e7dad37e-e27e-45a3-98af-53555fde6281"},"vehicle_type_id":"4","last_reported":1750249332,"current_range_meters":17200,"station_id":"ce4bhbp2rcd13ifvqerg","pricing_plan_id":"cebpf4jnsgd1na2vs0mg"},{"bike_id":"cfef7392-1433-476b-a989-3fb180315ec3","system_id":"levelo_inurba_marseille","lat":43.2418,"lon":5.3975,"is_reserved":false,"is_disabled":false,"rental_uris":{"android":"levelo://app?vid=cfef7392-1433-476b-a989-3fb180315ec3","ios":"levelo://app?vid=cfef7392-1433-476b-a989-3fb180315ec3"},"vehicle_type_id":"4","last_reported":1750249332,"current_range_meters":17200,"station_id":"ce4bhn12rcd13ifvqgpg","pricing_plan_id":"cebpf4jnsgd1na2vs0mg"},{"bike_id":"bc23166e-55f9-473c-ba93-87dd12173a65","system_id":"levelo_inurba_marseille","lat":43.24069,"lon":5.37766,"is_reserved":false,"is_disabled":false,"rental_uris":{"android":"levelo://app?vid=bc23166e-55f9-473c-ba93-87dd12173a65","ios":"levelo://app?vid=bc23166e-55f9-473c-ba93-87dd12173a65"},"vehicle_type_id":"4","last_reported":1750249332,"current_range_meters":17200,"station_id":"ce4bhnp2rcd13ifvqgvg","pricing_plan_id":"cebpf4jnsgd1na2vs0mg"},{"bike_id":"a85b2000-e3ea-4c9d-8512-f632fbae13d6","system_id":"levelo_inurba_marseille","lat":43.30156,"lon":5.40091,"is_reserved":false,"is_disabled":false,"rental_uris":{"android":"levelo://app?vid=a85b2000-e3ea-4c9d-8512-f632fbae13d6","ios":"levelo://app?vid=a85b2000-e3ea-4c9d-8512-f632fbae13d6"},"vehicle_type_id":"4","last_reported":1750249332,"current_range_meters":17600,"station_id":"","pricing_plan_id":"cebpf4jnsgd1na2vs0mg"},{"bike_id":"77ac8037-3c3c-493a-82c2-904a9ad6c7d0","system_id":"levelo_inurba_marseille","lat":43.26823,"lon":5.39063,"is_reserved":false,"is_disabled":false,"rental_uris":{"android":"levelo://app?vid=77ac8037-3c3c-493a-82c2-904a9ad6c7d0","ios":"levelo://app?vid=77ac8037-3c3c-493a-82c2-904a9ad6c7d0"},"vehicle_type_id":"4","last_reported":1750249332,"current_range_meters":17600,"station_id":"","pricing_plan_id":"cebpf4jnsgd1na2vs0mg"},{"bike_id":"a43da8b1-54d1-4d4d-80a0-0d1413f9877c","system_id":"levelo_inurba_marseille","lat":43.30532,"lon":5.36551,"is_reserved":false,"is_disabled":false,"rental_uris":{"android":"levelo://app?vid=a43da8b1-54d1-4d4d-80a0-0d1413f9877c","ios":"levelo://app?vid=a43da8b1-54d1-4d4d-80a0-0d1413f9877c"},"vehicle_type_id":"4","last_reported":1750249332,"current_range_meters":17600,"station_id":"ce4bgs12rcd13ifvqcag","pricing_plan_id":"cebpf4jnsgd1na2vs0mg"},{"bike_id":"5a242b56-9a77-4b2d-8918-0de7327de96c","system_id":"levelo_inurba_marseille","lat":43.29036,"lon":5.37566,"is_reserved":false,"is_disabled":false,"rental_uris":{"android":"levelo://app?vid=5a242b56-9a77-4b2d-8918-0de7327de96c","ios":"levelo://app?vid=5a242b56-9a77-4b2d-8918-0de7327de96c"},"vehicle_type_id":"4","last_reported":1750249332,"current_range_meters":17600,"station_id":"ce4bh692rcd13ifvqe90","pricing_plan_id":"cebpf4jnsgd1na2vs0mg"},{"bike_id":"4051dcf0-8453-434b-a586-1dcab5e6bd7c","system_id":"levelo_inurba_marseille","lat":43.2884,"lon":5.35883,"is_reserved":false,"is_disabled":false,"rental_uris":{"android":"levelo://app?vid=4051dcf0-8453-434b-a586-1dcab5e6bd7c","ios":"levelo://app?vid=4051dcf0-8453-434b-a586-1dcab5e6bd7c"},"vehicle_type_id":"4","last_reported":1750249332,"current_range_meters":17600,"station_id":"ce4bhb12rcd13ifvqem0","pricing_plan_id":"cebpf4jnsgd1na2vs0mg"},{"bike_id":"73e60e02-e6a7-4b89-9541-57b7de048bfb","system_id":"levelo_inurba_marseille","lat":43.25603,"lon":5.38211,"is_reserved":false,"is_disabled":false,"rental_uris":{"android":"levelo://app?vid=73e60e02-e6a7-4b89-9541-57b7de048bfb","ios":"levelo://app?vid=73e60e02-e6a7-4b89-9541-57b7de048bfb"},"vehicle_type_id":"4","last_reported":1750249332,"current_range_meters":17600,"station_id":"ce4bhih2rcd13ifvqfs0","pricing_plan_id":"cebpf4jnsgd1na2vs0mg"},{"bike_id":"0cc2d31d-2e59-42f7-a78d-654f620ce421","system_id":"levelo_inurba_marseille","lat":43.2594,"lon":5.40898,"is_reserved":false,"is_disabled":false,"rental_uris":{"android":"levelo://app?vid=0cc2d31d-2e59-42f7-a78d-654f620ce421","ios":"levelo://app?vid=0cc2d31d-2e59-42f7-a78d-654f620ce421"},"vehicle_type_id":"4","last_reported":1750249332,"current_range_meters":17600,"station_id":"ce4bhm92rcd13ifvqglg","pricing_plan_id":"cebpf4jnsgd1na2vs0mg"},{"bike_id":"a004d7f2-75e1-49e9-b073-ad13bcf23d1e","system_id":"levelo_inurba_marseille","lat":43.2319,"lon":5.35564,"is_reserved":false,"is_disabled":false,"rental_uris":{"android":"levelo://app?vid=a004d7f2-75e1-49e9-b073-ad13bcf23d1e","ios":"levelo://app?vid=a004d7f2-75e1-49e9-b073-ad13bcf23d1e"},"vehicle_type_id":"4","last_reported":1750249332,"current_range_meters":17600,"station_id":"ce4bhu92rcd13ifvqi70","pricing_plan_id":"cebpf4jnsgd1na2vs0mg"},{"bike_id":"744b1c90-170f-4e99-8fd9-ae1376712de0","system_id":"levelo_inurba_marseille","lat":43.217523,"lon":5.346008,"is_reserved":false,"is_disabled":false,"rental_uris":{"android":"levelo://app?vid=744b1c90-170f-4e99-8fd9-ae1376712de0","ios":"levelo://app?vid=744b1c90-170f-4e99-8fd9-ae1376712de0"},"vehicle_type_id":"4","last_reported":1750249332,"current_range_meters":17600,"station_id":"st_cvj6r9ubvosntc0bgbag","pricing_plan_id":"cebpf4jnsgd1na2vs0mg"},{"bike_id":"4ce5b165-f22d-40cf-abd3-1cb294861955","system_id":"levelo_inurba_marseille","lat":43.21198,"lon":5.35079,"is_reserved":false,"is_disabled":false,"rental_uris":{"android":"levelo://app?vid=4ce5b165-f22d-40cf-abd3-1cb294861955","ios":"levelo://app?vid=4ce5b165-f22d-40cf-abd3-1cb294861955"},"vehicle_type_id":"4","last_reported":1750249332,"current_range_meters":18000,"station_id":"","pricing_plan_id":"cebpf4jnsgd1na2vs0mg"},{"bike_id":"80d90dac-b0d2-42a6-8c08-24f6d53dad18","system_id":"levelo_inurba_marseille","lat":43.29568,"lon":5.3753,"is_reserved":false,"is_disabled":false,"rental_uris":{"android":"levelo://app?vid=80d90dac-b0d2-42a6-8c08-24f6d53dad18","ios":"levelo://app?vid=80d90dac-b0d2-42a6-8c08-24f6d53dad18"},"vehicle_type_id":"4","last_reported":1750249332,"current_range_meters":18000,"station_id":"ce4bgh92rcd13ifvqb50","pricing_plan_id":"cebpf4jnsgd1na2vs0mg"},{"bike_id":"9a1e29c4-a04d-421d-b4e9-7ffe7fb1290b","system_id":"levelo_inurba_marseille","lat":43.30146,"lon":5.37424,"is_reserved":false,"is_disabled":false,"rental_uris":{"android":"levelo://app?vid=9a1e29c4-a04d-421d-b4e9-7ffe7fb1290b","ios":"levelo://app?vid=9a1e29c4-a04d-421d-b4e9-7ffe7fb1290b"},"vehicle_type_id":"4","last_reported":1750249332,"current_range_meters":18000,"station_id":"ce4bgs92rcd13ifvqcc0","pricing_plan_id":"cebpf4jnsgd1na2vs0mg"},{"bike_id":"a4a1f81d-f1d3-4a18-91ac-e86adf4b0027","system_id":"levelo_inurba_marseille","lat":43.28282,"lon":5.35072,"is_reserved":false,"is_disabled":false,"rental_uris":{"android":"levelo://app?vid=a4a1f81d-f1d3-4a18-91ac-e86adf4b0027","ios":"levelo://app?vid=a4a1f81d-f1d3-4a18-91ac-e86adf4b0027"},"vehicle_type_id":"4","last_reported":1750249332,"current_range_meters":18000,"station_id":"ce4bhbp2rcd13ifvqerg","pricing_plan_id":"cebpf4jnsgd1na2vs0mg"},