{"last_updated":1729778936,"ttl":60,"version":"2.2","data":{"bikes":[{"bike_id":"6eca4932-bf39-49c8-a7b9-5d2c2e0d05a1","system_id":"levelo_inurba_marseille","lat":43.24545,"lon":5.39522,"is_reserved":false,"is_disabled":false,"rental_uris":{"android":"levelo://app?vid=6eca4932-bf39-49c8-a7b9-5d2c2e0d05a1","ios":"levelo://app?vid=6eca4932-bf39-49c8-a7b9-5d2c2e0d05a1"},"vehicle_type_id":"4","last_reported":1729778936,"current_range_meters":3200,"station_id":"ce4bhlp2rcd13ifvqgjg","pricing_plan_id":"cebpf4jnsgd1na2vs0mg"},{"bike_id":"af235180-af0b-4923-8467-7abce2c5ab50","system_id":"levelo_inurba_marseille","lat":43.30419,"lon":5.41282,"is_reserved":false,"is_disabled":false,"rental_uris":{"android":"levelo://app?vid=af235180-af0b-4923-8467-7abce2c5ab50","ios":"levelo://app?vid=af235180-af0b-4923-8467-7abce2c5ab50"},"vehicle_type_id":"4","last_reported":1729778936,"current_range_meters":25200,"station_id":"ce4bhop2rcd13ifvqh8g","pricing_plan_id":"cebpf4jnsgd1na2vs0mg"},{"bike_id":"15e024aa-5f70-4c31-a027-57ab922e559b","system_id":"levelo_inurba_marseille","lat":43.30884,"lon":5.3718,"is_reserved":false,"is_disabled":false,"rental_uris":{"android":"levelo://app?vid=15e024aa-5f70-4c31-a027-57ab922e559b","ios":"levelo://app?vid=15e024aa-5f70-4c31-a027-57ab922e559b"},"vehicle_type_id":"4","last_reported":1729778936,"current_range_meters":6800,"station_id":"ce4bguh2rcd13ifvqckg","pricing_plan_id":"cebpf4jnsgd1na2vs0mg"},{"bike_id":"4e718520-217c-4986-8e4a-4dbcae9b7210","system_id":"levelo_inurba_marseille","lat":43.28004,"lon":5.41662,"is_reserved":false,"is_disabled":false,"rental_uris":{"android":"levelo://app?vid=4e718520-217c-4986-8e4a-4dbcae9b7210","ios":"levelo://app?vid=4e718520-217c-4986-8e4a-4dbcae9b7210"},"vehicle_type_id":"4","last_reported":1729778936,"current_range_meters":8800,"station_id":"ce4bho12rcd13ifvqh1g","pricing_plan_id":"cebpf4jnsgd1na2vs0mg"},{"bike_id":"3ed5ab04-6d92-453e-987d-31806f3099fc","system_id":"levelo_inurba_marseille","lat":43.29009,"lon":5.35617,"is_reserved":false,"is_disabled":false,"rental_uris":{"android":"levelo://app?vid=3ed5ab04-6d92-453e-987d-31806f3099fc","ios":"levelo://app?vid=3ed5ab04-6d92-453e-987d-31806f3099fc"},"vehicle_type_id":"4","last_reported":1729778936,"current_range_meters":38800,"station_id":"ce4bhb92rcd13ifvqen0","pricing_plan_id":"cebpf4jnsgd1na2vs0mg"},{"bike_id":"bc47a4ad-ae87-4178-b08f-72d36f4975b0","system_id":"levelo_inurba_marseille","lat":43.26804,"lon":5.40264,"is_reserved":false,"is_disabled":false,"rental_uris":{"android":"levelo://app?vid=bc47a4ad-ae87-4178-b08f-72d36f4975b0","ios":"levelo://app?vid=bc47a4ad-ae87-4178-b08f-72d36f4975b0"},"vehicle_type_id":"4","last_reported":1729778936,"current_range_meters":38800,"station_id":"ce501612rcd8frsf0b60","pricing_plan_id":"cebpf4jnsgd1na2vs0mg"},{"bike_id":"56125f4f-f05d-4466-b7d6-3d5413cd6123","system_id":"levelo_inurba_marseille","lat":43.29678,"lon":5.37292,"is_reserved":false,"is_disabled":false,"rental_uris":{"android":"levelo://app?vid=56125f4f-f05d-4466-b7d6-3d5413cd6123","ios":"levelo://app?vid=56125f4f-f05d-4466-b7d6-3d5413cd6123"},"vehicle_type_id":"4","last_reported":1729778936,"current_range_meters":35200,"station_id":"ce4bgk12rcd13ifvqbj0","pricing_plan_id":"cebpf4jnsgd1na2vs0mg"},{"bike_id":"3642910f-fc85-4f86-9578-98882b1edb9a","system_id":"levelo_inurba_marseille","lat":43.284973,"lon":5.370875,"is_reserved":false,"is_disabled":false,"rental_uris":{"android":"levelo://app?vid=3642910f-fc85-4f86-9578-98882b1edb9a","ios":"levelo://app?vid=3642910f-fc85-4f86-9578-98882b1edb9a"},"vehicle_type_id":"4","last_reported":1729778936,"current_range_meters":14400,"station_id":"","pricing_plan_id":"cebpf4jnsgd1na2vs0mg"},{"bike_id":"5c11c7b0-4d99-45e4-9246-c3a2d43dcc47","system_id":"levelo_inurba_marseille","lat":43.29967,"lon":5.38492,"is_reserved":false,"is_disabled":false,"rental_uris":{"android":"levelo://app?vid=5c11c7b0-4d99-45e4-9246-c3a2d43dcc47","ios":"levelo://app?vid=5c11c7b0-4d99-45e4-9246-c3a2d43dcc47"},"vehicle_type_id":"4","last_reported":1729778936,"current_range_meters":35200,"station_id":"ce4bgj92rcd13ifvqbd0","pricing_plan_id":"cebpf4jnsgd1na2vs0mg"},{"bike_id":"9379528d-dc27-4009-8b9a-b522c1a3eceb","system_id":"levelo_inurba_marseille","lat":43.33725,"lon":5.39183,"is_reserved":false,"is_disabled":false,"rental_uris":{"android":"levelo://app?vid=9379528d-dc27-4009-8b9a-b522c1a3eceb","ios":"levelo://app?vid=9379528d-dc27-4009-8b9a-b522c1a3eceb"},"vehicle_type_id":"4","last_reported":1729778936,"current_range_meters":11600,"station_id":"ce4bhr92rcd13ifvqhsg","pricing_plan_id":"cebpf4jnsgd1na2vs0mg"},{"bike_id":"37c161bd-8ff7-4d16-b21b-7cd64f9bbe15","system_id":"levelo_inurba_marseille","lat":43.284548,"lon":5.358806,"is_reserved":false,"is_disabled":false,"rental_uris":{"android":"levelo://app?vid=37c161bd-8ff7-4d16-b21b-7cd64f9bbe15","ios":"levelo://app?vid=37c161bd-8ff7-4d16-b21b-7cd64f9bbe15"},"vehicle_type_id":"4","last_reported":1729778936,"current_range_meters":19600,"station_id":"ce4bhah2rcd13ifvqei0","pricing_plan_id":"cebpf4jnsgd1na2vs0mg"},{"bike_id":"2e844c07-c9fb-48b1-8724-43f5b2356ec9","system_id":"levelo_inurba_marseille","lat":43.33766,"lon":5.37446,"is_reserved":false,"is_disabled":false,"rental_uris":{"android":"levelo://app?vid=2e844c07-c9fb-48b1-8724-43f5b2356ec9","ios":"levelo://app?vid=2e844c07-c9fb-48b1-8724-43f5b2356ec9"},"vehicle_type_id":"4","last_reported":1729778936,"current_range_meters":38400,"station_id":"","pricing_plan_id":"cebpf4jnsgd1na2vs0mg"},{"bike_id":"93b004d5-e088-4995-a4b0-f34bd0d548c5","system_id":"levelo_inurba_marseille","lat":43.3372,"lon":5.39174,"is_reserved":false,"is_disabled":false,"rental_uris":{"android":"levelo://app?vid=93b004d5-e088-4995-a4b0-f34bd0d548c5","ios":"levelo://app?vid=93b004d5-e088-4995-a4b0-f34bd0d548c5"},"vehicle_type_id":"4","last_reported":1729778936,"current_range_meters":26800,"station_id":"ce4bhr92rcd13ifvqhsg","pricing_plan_id":"cebpf4jnsgd1na2vs0mg"},{"bike_id":"13c9c0ac-d6a2-4139-af16-c63b66043d7f","system_id":"levelo_inurba_marseille","lat":43.29195,"lon":5.35809,"is_reserved":false,"is_disabled":false,"rental_uris":{"android":"levelo://app?vid=13c9c0ac-d6a2-4139-af16-c63b66043d7f","ios":"levelo://app?vid=13c9c0ac-d6a2-4139-af16-c63b66043d7f"},"vehicle_type_id":"4","last_reported":1729778936,"current_range_meters":35200,"station_id":"ce4bhb12rcd13ifvqel0","pricing_plan_id":"cebpf4jnsgd1na2vs0mg"},{"bike_id":"3407ace2-a94c-41f8-8299-456633019e91","system_id":"levelo_inurba_marseille","lat":43.28462,"lon":5.35885,"is_reserved":false,"is_disabled":false,"rental_uris":{"android":"levelo://app?vid=3407ace2-a94c-41f8-8299-456633019e91","ios":"levelo://app?vid=3407ace2-a94c-41f8-8299-456633019e91"},"vehicle_type_id":"4","last_reported":1729778936,"current_range_meters":18000,"station_id":"ce4bhah2rcd13ifvqei0","pricing_plan_id":"cebpf4jnsgd1na2vs0mg"},{"bike_id":"7a632fec-0e5c-4d95-9f73-b6a9f3a4cd45","system_id":"levelo_inurba_marseille","lat":43.31993,"lon":5.38145,"is_reserved":false,"is_disabled":false,"rental_uris":{"android":"levelo://app?vid=7a632fec-0e5c-4d95-9f73-b6a9f3a4cd45","ios":"levelo://app?vid=7a632fec-0e5c-4d95-9f73-b6a9f3a4cd45"},"vehicle_type_id":"4","last_reported":1729778936,"current_range_meters":6400,"station_id":"ce4bhr12rcd13ifvqhpg","pricing_plan_id":"cebpf4jnsgd1na2vs0mg"},{"bike_id":"7d2f2d72-0156-45b5-b56b-dba967a96287","system_id":"levelo_inurba_marseille","lat":43.30531,"lon":5.36706,"is_reserved":false,"is_disabled":false,"rental_uris":{"android":"levelo://app?vid=7d2f2d72-0156-45b5-b56b-dba967a96287","ios":"levelo://app?vid=7d2f2d72-0156-45b5-b56b-dba967a96287"},"vehicle_type_id":"4","last_reported":1729778936,"current_range_meters":6800,"station_id":"ce4bgrp2rcd13ifvqc9g","pricing_plan_id":"cebpf4jnsgd1na2vs0mg"},{"bike_id":"c4ecd3ae-30b9-4854-b5c2-b3f0e18bd148","system_id":"levelo_inurba_marseille","lat":43.29569,"lon":5.37512,"is_reserved":false,"is_disabled":false,"rental_uris":{"android":"levelo://app?vid=c4ecd3ae-30b9-4854-b5c2-b3f0e18bd148","ios":"levelo://app?vid=c4ecd3ae-30b9-4854-b5c2-b3f0e18bd148"},"vehicle_type_id":"4","last_reported":1729778936,"current_range_meters":11200,"station_id":"ce4bgh92rcd13ifvqb50","pricing_plan_id":"cebpf4jnsgd1na2vs0mg"},{"bike_id":"95b15052-c6a7-4006-9817-8093ae1cc839","system_id":"levelo_inurba_marseille","lat":43.30901,"lon":5.372,"is_reserved":false,"is_disabled":false,"rental_uris":{"android":"levelo://app?vid=95b15052-c6a7-4006-9817-8093ae1cc839","ios":"levelo://app?vid=95b15052-c6a7-4006-9817-8093ae1cc839"},"vehicle_type_id":"4","last_reported":1729778936,"current_range_meters":6400,"station_id":"ce4bguh2rcd13ifvqckg","pricing_plan_id":"cebpf4jnsgd1na2vs0mg"},{"bike_id":"5d7e855d-d0e4-4cc3-8449-d0b666ee367d","system_id":"levelo_inurba_marseille","lat":43.337444,"lon":5.374475,"is_reserved":false,"is_disabled":false,"rental_uris":{"android":"levelo://app?vid=5d7e855d-d0e4-4cc3-8449-d0b666ee367d","ios":"levelo://app?vid=5d7e855d-d0e4-4cc3-8449-d0b666ee367d"},"vehicle_type_id":"4","last_reported":1729778936,"current_range_meters":3600,"station_id":"","pricing_plan_id":"cebpf4jnsgd1na2vs0mg"},{"bike_id":"6b8602cc-4eb5-44a5-bf3c-7af9a7b25d57","system_id":"levelo_inurba_marseille","lat":43.28008,"lon":5.41664,"is_reserved":false,"is_disabled":false,"rental_uris":{"android":"levelo://app?vid=6b8602cc-4eb5-44a5-bf3c-7af9a7b25d57","ios":"levelo://app?vid=6b8602cc-4eb5-44a5-bf3c-7af9a7b25d57"},"vehicle_type_id":"4","last_reported":1729778936,"current_range_meters":35600,"station_id":"ce4bho12rcd13ifvqh1g","pricing_plan_id":"cebpf4jnsgd1na2vs0mg"},{"bike_id":"3e6dacef-7721-4fd6-908f-05fbf9bc0354","system_id":"levelo_inurba_marseille","lat":43.23197,"lon":5.35559,"is_reserved":false,"is_disabled":false,"rental_uris":{"android":"levelo://app?vid=3e6dacef-7721-4fd6-908f-05fbf9bc0354","ios":"levelo://app?vid=3e6dacef-7721-4fd6-908f-05fbf9bc0354"},"vehicle_type_id":"4","last_reported":1729778936,"current_range_meters":39200,"station_id":"ce4bhu92rcd13ifvqi70","pricing_plan_id":"cebpf4jnsgd1na2vs0mg"},{"bike_id":"e07687f3-ff74-4a2f-ade8-49bdf3792fe5","system_id":"levelo_inurba_marseille","lat":43.27994,"lon":5.40004,"is_reserved":false,"is_disabled":false,"rental_uris":{"android":"levelo://app?vid=e07687f3-ff74-4a2f-ade8-49bdf3792fe5","ios":"levelo://app?vid=e07687f3-ff74-4a2f-ade8-49bdf3792fe5"},"vehicle_type_id":"4","last_reported":1729778936,"current_range_meters":38800,"station_id":"ce4bho92rcd13ifvqh4g","pricing_plan_id":"cebpf4jnsgd1na2vs0mg"},{"bike_id":"97ce6431-cdfe-4c86-8575-534875aed7f5","system_id":"levelo_inurba_marseille","lat":43.3053,"lon":5.36659,"is_reserved":false,"is_disabled":false,"rental_uris":{"android":"levelo://app?vid=97ce6431-cdfe-4c86-8575-534875aed7f5","ios":"levelo://app?vid=97ce6431-cdfe-4c86-8575-534875aed7f5"},"vehicle_type_id":"4","last_reported":1729778936,"current_range_meters":6800,"station_id":"","pricing_plan_id":"cebpf4jnsgd1na2vs0mg"},{"bike_id":"8f703631-4ec7-48e9-8b5c-f106111b51c5","system_id":"levelo_inurba_marseille","lat":43.28853,"lon":5.35847,"is_reserved":false,"is_disabled":false,"rental_uris":{"android":"levelo://app?vid=8f703631-4ec7-48e9-8b5c-f106111b51c5","ios":"levelo://app?vid=8f703631-4ec7-48e9-8b5c-f106111b51c5"},"vehicle_type_id":"4","last_reported":1729778936,"current_range_meters":34800,"station_id":"ce4bhb12rcd13ifvqem0","pricing_plan_id":"cebpf4jnsgd1na2vs0mg"},{"bike_id":"394fca57-6b2f-41e7-9f33-f9746445cac8","system_id":"levelo_inurba_marseille","lat":43.30438,"lon":5.38888,"is_reserved":false,"is_disabled":false,"rental_uris":{"android":"levelo://app?vid=394fca57-6b2f-41e7-9f33-f9746445cac8","ios":"levelo://app?vid=394fca57-6b2f-41e7-9f33-f9746445cac8"},"vehicle_type_id":"4","last_reported":1729778936,"current_range_meters":38800,"station_id":"ce4bgk12rcd13ifvqbi0","pricing_plan_id":"cebpf4jnsgd1na2vs0mg"},{"bike_id":"b20aa8c9-4f11-4644-9c66-8cce43a79c83","system_id":"levelo_inurba_marseille","lat":43.25932,"lon":5.40908,"is_reserved":false,"is_disabled":false,"rental_uris":{"android":"levelo://app?vid=b20aa8c9-4f11-4644-9c66-8cce43a79c83","ios":"levelo://app?vid=b20aa8c9-4f11-4644-9c66-8cce43a79c83"},"vehicle_type_id":"4","last_reported":1729778936,"current_range_meters":34000,"station_id":"ce4bhm92rcd13ifvqglg","pricing_plan_id":"cebpf4jnsgd1na2vs0mg"},{"bike_id":"b69d0c64-0724-4563-ab4e-cdb5166b1cd5","system_id":"levelo_inurba_marseille","lat":43.33112,"lon":5.38209,"is_reserved":false,"is_disabled":false,"rental_uris":{"android":"levelo://app?vid=b69d0c64-0724-4563-ab4e-cdb5166b1cd5","ios":"levelo://app?vid=b69d0c64-0724-4563-ab4e-cdb5166b1cd5"},"vehicle_type_id":"4","last_reported":1729778936,"current_range_meters":20000,"station_id":"","pricing_plan_id":"cebpf4jnsgd1na2vs0mg"},{"bike_id":"2edeae9a-edb3-4918-aedd-838866551aa9","system_id":"levelo_inurba_marseille","lat":43.27062,"lon":5.40264,"is_reserved":false,"is_disabled":false,"rental_uris":{"android":"levelo://app?vid=2edeae9a-edb3-4918-aedd-838866551aa9","ios":"levelo://app?vid=2edeae9a-edb3-4918-aedd-838866551aa9"},"vehicle_type_id":"4","last_reported":1729778936,"current_range_meters":24000,"station_id":"ce4bhk92rcd13ifvqgc0","pricing_plan_id":"cebpf4jnsgd1na2vs0mg"},{"bike_id":"1d1a19ef-cf21-4fcc-bba3-5108f583f5d5","system_id":"levelo_inurba_marseille","lat":43.2721,"lon":5.39176,"is_reserved":false,"is_disabled":false,"rental_uris":{"android":"levelo://app?vid=1d1a19ef-cf21-4fcc-bba3-5108f583f5d5","ios":"levelo://app?vid=1d1a19ef-cf21-4fcc-bba3-5108f583f5d5"},"vehicle_type_id":"4","last_reported":1729778936,"current_range_meters":39200,"station_id":"ce4bhhp2rcd13ifvqfm0","pricing_plan_id":"cebpf4jnsgd1na2vs0mg"},{"bike_id":"866da92f-eb6c-4428-8396-b0ce1ce7d1d1","system_id":"levelo_inurba_marseille","lat":43.26561,"lon":5.37291,"is_reserved":false,"is_disabled":false,"rental_uris":{"android":"levelo://app?vid=866da92f-eb6c-4428-8396-b0ce1ce7d1d1","ios":"levelo://app?vid=866da92f-eb6c-4428-8396-b0ce1ce7d1d1"},"vehicle_type_id":"4","last_reported":1729778936,"current_range_meters":35600,"station_id":"ce4bhg12rcd13ifvqf70","pricing_plan_id":"cebpf4jnsgd1na2vs0mg"},{"bike_id":"4c0ba162-7d20-4ded-94e5-9c4a6038e863","system_id":"levelo_inurba_marseille","lat":43.312226,"lon":5.368549,"is_reserved":false,"is_disabled":false,"rental_uris":{"android":"levelo://app?vid=4c0ba162-7d20-4ded-94e5-9c4a6038e863","ios":"levelo://app?vid=4c0ba162-7d20-4ded-94e5-9c4a6038e863"},"vehicle_type_id":"4","last_reported":1729778936,"current_range_meters":20000,"station_id":"ce4bgl92rcd13ifvqbq0","pricing_plan_id":"cebpf4jnsgd1na2vs0mg"},{"bike_id":"c8c041f7-96f0-4029-9928-9e123fc7d6cf","system_id":"levelo_inurba_marseille","lat":43.26783,"lon":5.39417,"is_reserved":false,"is_disabled":false,"rental_uris":{"android":"levelo://app?vid=c8c041f7-96f0-4029-9928-9e123fc7d6cf","ios":"levelo://app?vid=c8c041f7-96f0-4029-9928-9e123fc7d6cf"},"vehicle_type_id":"4","last_reported":1729778936,"current_range_meters":32000,"station_id":"ce4bhh12rcd13ifvqfg0","pricing_plan_id":"cebpf4jnsgd1na2vs0mg"},{"bike_id":"019e84c0-7846-45ba-8d19-cd8784abbf49","system_id":"levelo_inurba_marseille","lat":43.26934,"lon":5.38923,"is_reserved":false,"is_disabled":false,"rental_uris":{"android":"levelo://app?vid=019e84c0-7846-45ba-8d19-cd8784abbf49","ios":"levelo://app?vid=019e84c0-7846-45ba-8d19-cd8784abbf49"},"vehicle_type_id":"4","last_reported":1729778936,"current_range_meters":38800,"station_id":"ce4bhhh2rcd13ifvqfl0","pricing_plan_id":"cebpf4jnsgd1na2vs0mg"},{"bike_id":"dc7b5260-5489-4a77-93d2-b6ea31ef4d13","system_id":"levelo_inurba_marseille","lat":43.2861,"lon":5.37062,"is_reserved":false,"is_disabled":false,"rental_uris":{"android":"levelo://app?vid=dc7b5260-5489-4a77-93d2-b6ea31ef4d13","ios":"levelo://app?vid=dc7b5260-5489-4a77-93d2-b6ea31ef4d13"},"vehicle_type_id":"4","last_reported":1729778936,"current_range_meters":22800,"station_id":"ce4bht12rcd13ifvqi60","pricing_plan_id":"cebpf4jnsgd1na2vs0mg"},{"bike_id":"d559dc1b-ba63-4390-a50c-92e4adeb1a9d","system_id":"levelo_inurba_marseille","lat":43.25941,"lon":5.40904,"is_reserved":false,"is_disabled":false,"rental_uris":{"android":"levelo://app?vid=d559dc1b-ba63-4390-a50c-92e4adeb1a9d","ios":"levelo://app?vid=d559dc1b-ba63-4390-a50c-92e4adeb1a9d"},"vehicle_type_id":"4","last_reported":1729778936,"current_range_meters":8000,"station_id":"ce4bhm92rcd13ifvqglg","pricing_plan_id":"cebpf4jnsgd1na2vs0mg"},{"bike_id":"c08db3c6-fc8c-47b7-b47e-1febbb595ade","system_id":"levelo_inurba_marseille","lat":43.29075,"lon":5.37178,"is_reserved":false,"is_disabled":false,"rental_uris":{"android":"levelo://app?vid=c08db3c6-fc8c-47b7-b47e-1febbb595ade","ios":"levelo://app?vid=c08db3c6-fc8c-47b7-b47e-1febbb595ade"},"vehicle_type_id":"4","last_reported":1729778936,"current_range_meters":12000,"station_id":"ce4bh5p2rcd13ifvqe4g","pricing_plan_id":"cebpf4jnsgd1na2vs0mg"},{"bike_id":"2d38a287-b00c-4b53-a2ad-7428f22ce0a2","system_id":"levelo_inurba_marseille","lat":43.29573,"lon":5.37507,"is_reserved":false,"is_disabled":false,"rental_uris":{"android":"levelo://app?vid=2d38a287-b00c-4b53-a2ad-7428f22ce0a2","ios":"levelo://app?vid=2d38a287-b00c-4b53-a2ad-7428f22ce0a2"},"vehicle_type_id":"4","last_reported":1729778936,"current_range_meters":29600,"station_id":"ce4bgh92rcd13ifvqb50","pricing_plan_id":"cebpf4jnsgd1na2vs0mg"},{"bike_id":"fef99bb7-6196-4290-8d1e-6b69d8da99c0","system_id":"levelo_inurba_marseille","lat":43.29792,"lon":5.38106,"is_reserved":false,"is_disabled":false,"rental_uris":{"android":"levelo://app?vid=fef99bb7-6196-4290-8d1e-6b69d8da99c0","ios":"levelo://app?vid=fef99bb7-6196-4290-8d1e-6b69d8da99c0"},"vehicle_type_id":"4","last_reported":1729778936,"current_range_meters":37600,"station_id":"ce4bgip2rcd13ifvqbb0","pricing_plan_id":"cebpf4jnsgd1na2vs0mg"},{"bike_id":"21a6af25-478e-4faa-ba5f-f92fc8f24b29","system_id":"levelo_inurba_marseille","lat":43.29192,"lon":5.35803,"is_reserved":false,"is_disabled":false,"rental_uris":{"android":"levelo://app?vid=21a6af25-478e-4faa-ba5f-f92fc8f24b29","ios":"levelo://app?vid=21a6af25-478e-4faa-ba5f-f92fc8f24b29"},"vehicle_type_id":"4","last_reported":1729778936,"current_range_meters":36400,"station_id":"ce4bhb12rcd13ifvqel0","pricing_plan_id":"cebpf4jnsgd1na2vs0mg"},{"bike_id":"bc45a63d-b524-4916-983c-c451ac1c70a9","system_id":"levelo_inurba_marseille","lat":43.28268,"lon":5.35076,"is_reserved":false,"is_disabled":false,"rental_uris":{"android":"levelo://app?vid=bc45a63d-b524-4916-983c-c451ac1c70a9","ios":"levelo://app?vid=bc45a63d-b524-4916-983c-c451ac1c70a9"},"vehicle_type_id":"4","last_reported":1729778936,"current_range_meters":24400,"station_id":"ce4bhbp2rcd13ifvqerg","pricing_plan_id":"cebpf4jnsgd1na2vs0mg"},{"bike_id":"53ba9a22-7ffa-4965-bc3b-722f678b34a9","system_id":"levelo_inurba_marseille","lat":43.25871,"lon":5.39896,"is_reserved":false,"is_disabled":false,"rental_uris":{"android":"levelo://app?vid=53ba9a22-7ffa-4965-bc3b-722f678b34a9","ios":"levelo://app?vid=53ba9a22-7ffa-4965-bc3b-722f678b34a9"},"vehicle_type_id":"4","last_reported":1729778936,"current_range_meters":2000,"station_id":"ce4bhl92rcd13ifvqghg","pricing_plan_id":"cebpf4jnsgd1na2vs0mg"},{"bike_id":"c90bbc70-0617-4d68-b929-237f7c1d4121","system_id":"levelo_inurba_marseille","lat":43.267885,"lon":5.394193,"is_reserved":false,"is_disabled":false,"rental_uris":{"android":"levelo://app?vid=c90bbc70-0617-4d68-b929-237f7c1d4121","ios":"levelo://app?vid=c90bbc70-0617-4d68-b929-237f7c1d4121"},"vehicle_type_id":"4","last_reported":1729778936,"current_range_meters":30400,"station_id":"ce4bhh12rcd13ifvqfg0","pricing_plan_id":"cebpf4jnsgd1na2vs0mg"},{"bike_id":"8c71dfa7-3435-4c76-a9ed-1de183118e5d","system_id":"levelo_inurba_marseille","lat":43.3123,"lon":5.36859,"is_reserved":false,"is_disabled":false,"rental_uris":{"android":"levelo://app?vid=8c71dfa7-3435-4c76-a9ed-1de183118e5d","ios":"levelo://app?vid=8c71dfa7-3435-4c76-a9ed-1de183118e5d"},"vehicle_type_id":"4","last_reported":1729778936,"current_range_meters":28800,"station_id":"ce4bgl92rcd13ifvqbq0","pricing_plan_id":"cebpf4jnsgd1na2vs0mg"},{"bike_id":"d4c96e24-4bae-4c1a-bd3a-5bdabc26251e","system_id":"levelo_inurba_marseille","lat":43.25495,"lon":5.37651,"is_reserved":false,"is_disabled":false,"rental_uris":{"android":"levelo://app?vid=d4c96e24-4bae-4c1a-bd3a-5bdabc26251e","ios":"levelo://app?vid=d4c96e24-4bae-4c1a-bd3a-5bdabc26251e"},"vehicle_type_id":"4","last_reported":1729778936,"current_range_meters":34800,"station_id":"ce4bhh12rcd13ifvqff0","pricing_plan_id":"cebpf4jnsgd1na2vs0mg"},{"bike_id":"feed0774-dfe8-433f-be87-b932dc870530","system_id":"levelo_inurba_marseille","lat":43.292938,"lon":5.368262,"is_reserved":false,"is_disabled":false,"rental_uris":{"android":"levelo://app?vid=feed0774-dfe8-433f-be87-b932dc870530","ios":"levelo://app?vid=feed0774-dfe8-433f-be87-b932dc870530"},"vehicle_type_id":"4","last_reported":1729778936,"current_range_meters":31200,"station_id":"ce4bhb92rcd13ifvqen0","pricing_plan_id":"cebpf4jnsgd1na2vs0mg"},{"bike_id":"8f40f5a1-dff7-42c7-90d7-c956ea526b89","system_id":"levelo_inurba_marseille","lat":43.30143,"lon":5.37414,"is_reserved":false,"is_disabled":false,"rental_uris":{"android":"levelo://app?vid=8f40f5a1-dff7-42c7-90d7-c956ea526b89","ios":"levelo://app?vid=8f40f5a1-dff7-42c7-90d7-c956ea526b89"},"vehicle_type_id":"4","last_reported":1729778936,"current_range_meters":35200,"station_id":"ce4bgs92rcd13ifvqcc0","pricing_plan_id":"cebpf4jnsgd1na2vs0mg"},{"bike_id":"a4d41fc4-cc11-4514-907b-a0e2268defd7","system_id":"levelo_inurba_marseille","lat":43.29007,"lon":5.35621,"is_reserved":false,"is_disabled":false,"rental_uris":{"android":"levelo://app?vid=a4d41fc4-cc11-4514-907b-a0e2268defd7","ios":"levelo://app?vid=a4d41fc4-cc11-4514-907b-a0e2268defd7"},"vehicle_type_id":"4","last_reported":1729778936,"current_range_meters":38800,"station_id":"ce4bhb92rcd13ifvqen0","pricing_plan_id":"cebpf4jnsgd1na2vs0mg"},{"bike_id":"be8fbca4-3dcd-4e0e-96d2-8c570f59713c","system_id":"levelo_inurba_marseille","lat":43.32485,"lon":5.36559,"is_reserved":false,"is_disabled":false,"rental_uris":{"android":"levelo://app?vid=be8fbca4-3dcd-4e0e-96d2-8c570f59713c","ios":"levelo://app?vid=be8fbca4-3dcd-4e0e-96d2-8c570f59713c"},"vehicle_type_id":"4","last_reported":1729778936,"current_range_meters":24800,"station_id":"ce4bhs12rcd13ifvqhvg","pricing_plan_id":"cebpf4jnsgd1na2vs0mg"},{"bike_id":"ee2895c0-9a5e-409e-ba79-132a5a797c5e","system_id":"levelo_inurba_marseille","lat":43.30546,"lon":5.36521,"is_reserved":false,"is_disabled":false,"rental_uris":{"android":"levelo://app?vid=ee2895c0-9a5e-409e-ba79-132a5a797c5e","ios":"levelo://app?vid=ee2895c0-9a5e-409e-ba79-132a5a797c5e"},"vehicle_type_id":"4","last_reported":1729778936,"current_range_meters":17200,"station_id":"ce4bgs12rcd13ifvqcag","pricing_plan_id":"cebpf4jnsgd1na2vs0mg"},{"bike_id":"677a26f0-a8b9-43c0-a2aa-8b4d07896f2e","system_id":"levelo_inurba_marseille","lat":43.25086,"lon":5.39519,"is_reserved":false,"is_disabled":false,"rental_uris":{"android":"levelo://app?vid=677a26f0-a8b9-43c0-a2aa-8b4d07896f2e","ios":"levelo://app?vid=677a26f0-a8b9-43c0-a2aa-8b4d07896f2e"},"vehicle_type_id":"4","last_reported":1729778936,"current_range_meters":21600,"station_id":"ce4bhm12rcd13ifvqgkg","pricing_plan_id":"cebpf4jnsgd1na2vs0mg"},{"bike_id":"4dd517db-98c2-4f74-b439-cbf3c49a9a6a","system_id":"levelo_inurba_marseille","lat":43.25498,"lon":5.37648,"is_reserved":false,"is_disabled":false,"rental_uris":{"android":"levelo://app?vid=4dd517db-98c2-4f74-b439-cbf3c49a9a6a","ios":"levelo://app?vid=4dd517db-98c2-4f74-b439-cbf3c49a9a6a"},"vehicle_type_id":"4","last_reported":1729778936,"current_range_meters":36400,"station_id":"ce4bhh12rcd13ifvqff0","pricing_plan_id":"cebpf4jnsgd1na2vs0mg"},{"bike_id":"32745b13-c55b-4aa9-82ac-9fbdcc1e90be","system_id":"levelo_inurba_marseille","lat":43.23669,"lon":5.37779,"is_reserved":false,"is_disabled":false,"rental_uris":{"android":"levelo://app?vid=32745b13-c55b-4aa9-82ac-9fbdcc1e90be","ios":"levelo://app?vid=32745b13-c55b-4aa9-82ac-9fbdcc1e90be"},"vehicle_type_id":"4","last_reported":1729778936,"current_range_meters":20400,"station_id":"","pricing_plan_id":"cebpf4jnsgd1na2vs0mg"},{"bike_id":"b094d4a5-f8e8-4ea5-91a8-7ddf088acd32","system_id":"levelo_inurba_marseille","lat":43.30536,"lon":5.36534,"is_reserved":false,"is_disabled":false,"rental_uris":{"android":"levelo://app?vid=b094d4a5-f8e8-4ea5-91a8-7ddf088acd32","ios":"levelo://app?vid=b094d4a5-f8e8-4ea5-91a8-7ddf088acd32"},"vehicle_type_id":"4","last_reported":1729778936,"current_range_meters":36400,"station_id":"ce4bgs12rcd13ifvqcag","pricing_plan_id":"cebpf4jnsgd1na2vs0mg"},{"bike_id":"a95624cf-2cfe-4360-83bb-93d7c7ccfb31","system_id":"levelo_inurba_marseille","lat":43.29305,"lon":5.37179,"is_reserved":false,"is_disabled":false,"rental_uris":{"android":"levelo://app?vid=a95624cf-2cfe-4360-83bb-93d7c7ccfb31","ios":"levelo://app?vid=a95624cf-2cfe-4360-83bb-93d7c7ccfb31"},"vehicle_type_id":"4","last_reported":1729778936,"current_range_meters":38000,"station_id":"ce4bgh92rcd13ifvqb40","pricing_plan_id":"cebpf4jnsgd1na2vs0mg"},{"bike_id":"88578b7f-d9ef-4959-850f-348090c3a13b","system_id":"levelo_inurba_marseille","lat":43.29628,"lon":5.40597,"is_reserved":false,"is_disabled":false,"rental_uris":{"android":"levelo://app?vid=88578b7f-d9ef-4959-850f-348090c3a13b","ios":"levelo://app?vid=88578b7f-d9ef-4959-850f-348090c3a13b"},"vehicle_type_id":"4","last_reported":1729778936,"current_range_meters":8800,"station_id":"ce4bh0h2rcd13ifvqd60","pricing_plan_id":"cebpf4jnsgd1na2vs0mg"},{"bike_id":"452b900a-8bcb-4fcb-a68d-48650a39aad6","system_id":"levelo_inurba_marseille","lat":43.2904,"lon":5.37573,"is_reserved":false,"is_disabled":false,"rental_uris":{"android":"levelo://app?vid=452b900a-8bcb-4fcb-a68d-48650a39aad6","ios":"levelo://app?vid=452b900a-8bcb-4fcb-a68d-48650a39aad6"},"vehicle_type_id":"4","last_reported":1729778936,"current_range_meters":39200,"station_id":"ce4bh692rcd13ifvqe90","pricing_plan_id":"cebpf4jnsgd1na2vs0mg"},{"bike_id":"432b852b-08c0-4e53-90bd-cc44efad338d","system_id":"levelo_inurba_marseille","lat":43.30959,"lon":5.39036,"is_reserved":false,"is_disabled":false,"rental_uris":{"android":"levelo://app?vid=432b852b-08c0-4e53-90bd-cc44efad338d","ios":"levelo://app?vid=432b852b-08c0-4e53-90bd-cc44efad338d"},"vehicle_type_id":"4","last_reported":1729778936,"current_range_meters":34000,"station_id":"ce4bgup2rcd13ifvqco0","pricing_plan_id":"cebpf4jnsgd1na2vs0mg"},{"bike_id":"70452adc-eac9-4152-93fa-9cf135d33fd1","system_id":"levelo_inurba_marseille","lat":43.23182,"lon":5.39996,"is_reserved":false,"is_disabled":false,"rental_uris":{"android":"levelo://app?vid=70452adc-eac9-4152-93fa-9cf135d33fd1","ios":"levelo://app?vid=70452adc-eac9-4152-93fa-9cf135d33fd1"},"vehicle_type_id":"4","last_reported":1729778936,"current_range_meters":24400,"station_id":"ce4bhn12rcd13ifvqgqg","pricing_plan_id":"cebpf4jnsgd1na2vs0mg"},{"bike_id":"7fe1488d-af2f-40a8-b538-adab4aa02879","system_id":"levelo_inurba_marseille","lat":43.29693,"lon":5.37304,"is_reserved":false,"is_disabled":false,"rental_uris":{"android":"levelo://app?vid=7fe1488d-af2f-40a8-b538-adab4aa02879","ios":"levelo://app?vid=7fe1488d-af2f-40a8-b538-adab4aa02879"},"vehicle_type_id":"4","last_reported":1729778936,"current_range_meters":8000,"station_id":"ce4bgk12rcd13ifvqbj0","pricing_plan_id":"cebpf4jnsgd1na2vs0mg"},{"bike_id":"5d88a9b6-ebb6-498a-ba1b-fccdf74c849b","system_id":"levelo_inurba_marseille","lat":43.255,"lon":5.3765,"is_reserved":false,"is_disabled":false,"rental_uris":{"android":"levelo://app?vid=5d88a9b6-ebb6-498a-ba1b-fccdf74c849b","ios":"levelo://app?vid=5d88a9b6-ebb6-498a-ba1b-fccdf74c849b"},"vehicle_type_id":"4","last_reported":1729778936,"current_range_meters":38800,"station_id":"ce4bhh12rcd13ifvqff0","pricing_plan_id":"cebpf4jnsgd1na2vs0mg"},{"bike_id":"0d52efbb-17b7-437f-af1d-9e98a7856128","system_id":"levelo_inurba_marseille","lat":43.29275,"lon":5.4011,"is_reserved":false,"is_disabled":false,"rental_uris":{"android":"levelo://app?vid=0d52efbb-17b7-437f-af1d-9e98a7856128","ios":"levelo://app?vid=0d52efbb-17b7-437f-af1d-9e98a7856128"},"vehicle_type_id":"4","last_reported":1729778936,"current_range_meters":33200,"station_id":"ce4bh312rcd13ifvqdk0","pricing_plan_id":"cebpf4jnsgd1na2vs0mg"},{"bike_id":"5f5156f0-b0a6-45b9-88d9-0e707f33a0fd","system_id":"levelo_inurba_marseille","lat":43.28931,"lon":5.38403,"is_reserved":false,"is_disabled":false,"rental_uris":{"android":"levelo://app?vid=5f5156f0-b0a6-45b9-88d9-0e707f33a0fd","ios":"levelo://app?vid=5f5156f0-b0a6-45b9-88d9-0e707f33a0fd"},"vehicle_type_id":"4","last_reported":1729778936,"current_range_meters":8000,"station_id":"ce4bh612rcd13ifvqe6g","pricing_plan_id":"cebpf4jnsgd1na2vs0mg"},{"bike_id":"4a47f5a8-fec5-4732-9adc-2d7f113d6611","system_id":"levelo_inurba_marseille","lat":43.30471,"lon":5.37915,"is_reserved":false,"is_disabled":false,"rental_uris":{"android":"levelo://app?vid=4a47f5a8-fec5-4732-9adc-2d7f113d6611","ios":"levelo://app?vid=4a47f5a8-fec5-4732-9adc-2d7f113d6611"},"vehicle_type_id":"4","last_reported":1729778936,"current_range_meters":9200,"station_id":"ce4bgup2rcd13ifvqcn0","pricing_plan_id":"cebpf4jnsgd1na2vs0mg"},{"bike_id":"cbb47b1a-8cea-43cf-aa56-84e8f2c0e0dd","system_id":"levelo_inurba_marseille","lat":43.30797,"lon":5.3815,"is_reserved":false,"is_disabled":false,"rental_uris":{"android":"levelo://app?vid=cbb47b1a-8cea-43cf-aa56-84e8f2c0e0dd","ios":"levelo://app?vid=cbb47b1a-8cea-43cf-aa56-84e8f2c0e0dd"},"vehicle_type_id":"4","last_reported":1729778936,"current_range_meters":37600,"station_id":"ce4bgt12rcd13ifvqce0","pricing_plan_id":"cebpf4jnsgd1na2vs0mg"},{"bike_id":"115538b4-1e53-4806-af5a-345bc6aa6b63","system_id":"levelo_inurba_marseille","lat":43.26214,"lon":5.37448,"is_reserved":false,"is_disabled":false,"rental_uris":{"android":"levelo://app?vid=115538b4-1e53-4806-af5a-345bc6aa6b63","ios":"levelo://app?vid=115538b4-1e53-4806-af5a-345bc6aa6b63"},"vehicle_type_id":"4","last_reported":1729778936,"current_range_meters":7200,"station_id":"ce4bhgp2rcd13ifvqfc0","pricing_plan_id":"cebpf4jnsgd1na2vs0mg"},{"bike_id":"95f70a23-3f9b-4773-a61e-dff0d3b06c5e","system_id":"levelo_inurba_marseille","lat":43.3014,"lon":5.37423,"is_reserved":false,"is_disabled":false,"rental_uris":{"android":"levelo://app?vid=95f70a23-3f9b-4773-a61e-dff0d3b06c5e","ios":"levelo://app?vid=95f70a23-3f9b-4773-a61e-dff0d3b06c5e"},"vehicle_type_id":"4","last_reported":1729778936,"current_range_meters":36400,"station_id":"ce4bgs92rcd13ifvqcc0","pricing_plan_id":"cebpf4jnsgd1na2vs0mg"},{"bike_id":"15461a9d-07bb-47aa-9e20-59ba25871227","system_id":"levelo_inurba_marseille","lat":43.27813,"lon":5.40713,"is_reserved":false,"is_disabled":false,"rental_uris":{"android":"levelo://app?vid=15461a9d-07bb-47aa-9e20-59ba25871227","ios":"levelo://app?vid=15461a9d-07bb-47aa-9e20-59ba25871227"},"vehicle_type_id":"4","last_reported":1729778936,"current_range_meters":36400,"station_id":"ce4bhnh2rcd13ifvqgtg","pricing_plan_id":"cebpf4jnsgd1na2vs0mg"},{"bike_id":"9f938143-228e-494a-a420-8a628cf681b0","system_id":"levelo_inurba_marseille","lat":43.30474,"lon":5.3791,"is_reserved":false,"is_disabled":false,"rental_uris":{"android":"levelo://app?vid=9f938143-228e-494a-a420-8a628cf681b0","ios":"levelo://app?vid=9f938143-228e-494a-a420-8a628cf681b0"},"vehicle_type_id":"4","last_reported":1729778936,"current_range_meters":38800,"station_id":"ce4bgup2rcd13ifvqcn0","pricing_plan_id":"cebpf4jnsgd1na2vs0mg"},{"bike_id":"ee56864d-0289-4ab0-b1d9-4e118a6c50f5","system_id":"levelo_inurba_marseille","lat":43.34142,"lon":5.408984,"is_reserved":false,"is_disabled":false,"rental_uris":{"android":"levelo://app?vid=ee56864d-0289-4ab0-b1d9-4e118a6c50f5","ios":"levelo://app?vid=ee56864d-0289-4ab0-b1d9-4e118a6c50f5"},"vehicle_type_id":"4","last_reported":1729778936,"current_range_meters":39200,"station_id":"ce4bhqh2rcd13ifvqhlg","pricing_plan_id":"cebpf4jnsgd1na2vs0mg"},{"bike_id":"1c80993d-7860-4f87-9d2f-010765abd095","system_id":"levelo_inurba_marseille","lat":43.30313,"lon":5.36908,"is_reserved":false,"is_disabled":false,"rental_uris":{"android":"levelo://app?vid=1c80993d-7860-4f87-9d2f-010765abd095","ios":"levelo://app?vid=1c80993d-7860-4f87-9d2f-010765abd095"},"vehicle_type_id":"4","last_reported":1729778936,"current_range_meters":38000,"station_id":"ce4bgqh2rcd13ifvqc5g","pricing_plan_id":"cebpf4jnsgd1na2vs0mg"},{"bike_id":"3da9b360-54de-4f25-8af7-9b3f8004742e","system_id":"levelo_inurba_marseille","lat":43.30145,"lon":5.38081,"is_reserved":false,"is_disabled":false,"rental_uris":{"android":"levelo://app?vid=3da9b360-54de-4f25-8af7-9b3f8004742e","ios":"levelo://app?vid=3da9b360-54de-4f25-8af7-9b3f8004742e"},"vehicle_type_id":"4","last_reported":1729778936,"current_range_meters":35200,"station_id":"ce4bgjp2rcd13ifvqbh0","pricing_plan_id":"cebpf4jnsgd1na2vs0mg"},{"bike_id":"d9447c08-1a7c-4b4b-b968-d6c7901f21e4","system_id":"levelo_inurba_marseille","lat":43.29575,"lon":5.37515,"is_reserved":false,"is_disabled":false,"rental_uris":{"android":"levelo://app?vid=d9447c08-1a7c-4b4b-b968-d6c7901f21e4","ios":"levelo://app?vid=d9447c08-1a7c-4b4b-b968-d6c7901f21e4"},"vehicle_type_id":"4","last_reported":1729778936,"current_range_meters":38800,"station_id":"ce4bgh92rcd13ifvqb50","pricing_plan_id":"cebpf4jnsgd1na2vs0mg"},{"bike_id":"e875f3da-1dda-4b60-9052-fa1b16be0251","system_id":"levelo_inurba_marseille","lat":43.31712,"lon":5.43705,"is_reserved":false,"is_disabled":false,"rental_uris":{"android":"levelo://app?vid=e875f3da-1dda-4b60-9052-fa1b16be0251","ios":"levelo://app?vid=e875f3da-1dda-4b60-9052-fa1b16be0251"},"vehicle_type_id":"4","last_reported":1729778936,"current_range_meters":14000,"station_id":"ce4bhp92rcd13ifvqhcg","pricing_plan_id":"cebpf4jnsgd1na2vs0mg"},{"bike_id":"de8ff9aa-dff0-4791-b508-e685cc02f940","system_id":"levelo_inurba_marseille","lat":43.29007,"lon":5.35616,"is_reserved":false,"is_disabled":false,"rental_uris":{"android":"levelo://app?vid=de8ff9aa-dff0-4791-b508-e685cc02f940","ios":"levelo://app?vid=de8ff9aa-dff0-4791-b508-e685cc02f940"},"vehicle_type_id":"4","last_reported":1729778936,"current_range_meters":12000,"station_id":"ce4bhb92rcd13ifvqen0","pricing_plan_id":"cebpf4jnsgd1na2vs0mg"},{"bike_id":"7f1325d9-6a04-4015-a7b1-0fbeeb0a447c","system_id":"levelo_inurba_marseille","lat":43.28721,"lon":5.37925,"is_reserved":false,"is_disabled":false,"rental_uris":{"android":"levelo://app?vid=7f1325d9-6a04-4015-a7b1-0fbeeb0a447c","ios":"levelo://app?vid=7f1325d9-6a04-4015-a7b1-0fbeeb0a447c"},"vehicle_type_id":"4","last_reported":1729778936,"current_range_meters":9200,"station_id":"ce4bh9p2rcd13ifvqec0","pricing_plan_id":"cebpf4jnsgd1na2vs0mg"},{"bike_id":"b71376ed-71a2-41be-b6e8-a68e1b8a9c4e","system_id":"levelo_inurba_marseille","lat":43.29606,"lon":5.38105,"is_reserved":false,"is_disabled":false,"rental_uris":{"android":"levelo://app?vid=b71376ed-71a2-41be-b6e8-a68e1b8a9c4e","ios":"levelo://app?vid=b71376ed-71a2-41be-b6e8-a68e1b8a9c4e"},"vehicle_type_id":"4","last_reported":1729778936,"current_range_meters":16000,"station_id":"ce4bgl12rcd13ifvqbo0","pricing_plan_id":"cebpf4jnsgd1na2vs0mg"},{"bike_id":"3a904881-c49f-42f3-ab29-bca1bed304a9","system_id":"levelo_inurba_marseille","lat":43.25938,"lon":5.40899,"is_reserved":false,"is_disabled":false,"rental_uris":{"android":"levelo://app?vid=3a904881-c49f-42f3-ab29-bca1bed304a9","ios":"levelo://app?vid=3a904881-c49f-42f3-ab29-bca1bed304a9"},"vehicle_type_id":"4","last_reported":1729778936,"current_range_meters":26800,"station_id":"ce4bhm92rcd13ifvqglg","pricing_plan_id":"cebpf4jnsgd1na2vs0mg"},{"bike_id":"5f120777-a767-4e0d-af7e-e4fc1aeb29f7","system_id":"levelo_inurba_marseille","lat":43.2396,"lon":5.3663,"is_reserved":false,"is_disabled":false,"rental_uris":{"android":"levelo://app?vid=5f120777-a767-4e0d-af7e-e4fc1aeb29f7","ios":"levelo://app?vid=5f120777-a767-4e0d-af7e-e4fc1aeb29f7"},"vehicle_type_id":"4","last_reported":1729778936,"current_range_meters":14400,"station_id":"ce4bhi12rcd13ifvqfp0","pricing_plan_id":"cebpf4jnsgd1na2vs0mg"},{"bike_id":"f7748faf-34ae-4d56-bdad-91026e7f5156","system_id":"levelo_inurba_marseille","lat":43.32111,"lon":5.36769,"is_reserved":false,"is_disabled":false,"rental_uris":{"android":"levelo://app?vid=f7748faf-34ae-4d56-bdad-91026e7f5156","ios":"levelo://app?vid=f7748faf-34ae-4d56-bdad-91026e7f5156"},"vehicle_type_id":"4","last_reported":1729778936,"current_range_meters":21600,"station_id":"ce4bhrh2rcd13ifvqhug","pricing_plan_id":"cebpf4jnsgd1na2vs0mg"},{"bike_id":"8233cd9f-c33f-42b2-9dc9-0af8cab0170d","system_id":"levelo_inurba_marseille","lat":43.31086,"lon":5.38353,"is_reserved":false,"is_disabled":false,"rental_uris":{"android":"levelo://app?vid=8233cd9f-c33f-42b2-9dc9-0af8cab0170d","ios":"levelo://app?vid=8233cd9f-c33f-42b2-9dc9-0af8cab0170d"},"vehicle_type_id":"4","last_reported":1729778936,"current_range_meters":8000,"station_id":"ce4bgv92rcd13ifvqcr0","pricing_plan_id":"cebpf4jnsgd1na2vs0mg"},{"bike_id":"5413c4fe-5182-499e-9264-9c10d407acb3","system_id":"levelo_inurba_marseille","lat":43.32539,"lon":5.4143,"is_reserved":false,"is_disabled":false,"rental_uris":{"android":"levelo://app?vid=5413c4fe-5182-499e-9264-9c10d407acb3","ios":"levelo://app?vid=5413c4fe-5182-499e-9264-9c10d407acb3"},"vehicle_type_id":"4","last_reported":1729778936,"current_range_meters":9200,"station_id":"ce4bhq12rcd13ifvqhhg","pricing_plan_id":"cebpf4jnsgd1na2vs0mg"},{"bike_id":"91bfa645-9cfa-4568-8072-595cbd3b9c72","system_id":"levelo_inurba_marseille","lat":43.28903,"lon":5.36101,"is_reserved":false,"is_disabled":false,"rental_uris":{"android":"levelo://app?vid=91bfa645-9cfa-4568-8072-595cbd3b9c72","ios":"levelo://app?vid=91bfa645-9cfa-4568-8072-595cbd3b9c72"},"vehicle_type_id":"4","last_reported":1729778936,"current_range_meters":23200,"station_id":"","pricing_plan_id":"cebpf4jnsgd1na2vs0mg"},{"bike_id":"7ac878d5-7464-47b0-8096-73b091a39903","system_id":"levelo_inurba_marseille","lat":43.30527,"lon":5.36525,"is_reserved":false,"is_disabled":false,"rental_uris":{"android":"levelo://app?vid=7ac878d5-7464-47b0-8096-73b091a39903","ios":"levelo://app?vid=7ac878d5-7464-47b0-8096-73b091a39903"},"vehicle_type_id":"4","last_reported":1729778936,"current_range_meters":22800,"station_id":"ce4bgs12rcd13ifvqcag","pricing_plan_id":"cebpf4jnsgd1na2vs0mg"},{"bike_id":"678de949-9c97-4c29-87e5-9f0dabf6b6c1","system_id":"levelo_inurba_marseille","lat":43.25504,"lon":5.37658,"is_reserved":false,"is_disabled":false,"rental_uris":{"android":"levelo://app?vid=678de949-9c97-4c29-87e5-9f0dabf6b6c1","ios":"levelo://app?vid=678de949-9c97-4c29-87e5-9f0dabf6b6c1"},"vehicle_type_id":"4","last_reported":1729778936,"current_range_meters":40000,"station_id":"ce4bhh12rcd13ifvqff0","pricing_plan_id":"cebpf4jnsgd1na2vs0mg"},{"bike_id":"4a969d9a-a2f7-4482-9d72-f6a3a46a8b8b","system_id":"levelo_inurba_marseille","lat":43.30142,"lon":5.37415,"is_reserved":false,"is_disabled":false,"rental_uris":{"android":"levelo://app?vid=4a969d9a-a2f7-4482-9d72-f6a3a46a8b8b","ios":"levelo://app?vid=4a969d9a-a2f7-4482-9d72-f6a3a46a8b8b"},"vehicle_type_id":"4","last_reported":1729778936,"current_range_meters":28800,"station_id":"ce4bgs92rcd13ifvqcc0","pricing_plan_id":"cebpf4jnsgd1na2vs0mg"},{"bike_id":"ac607088-0940-44e0-bd2e-4aa6d1e40af8","system_id":"levelo_inurba_marseille","lat":43.29005,"lon":5.35607,"is_reserved":false,"is_disabled":false,"rental_uris":{"android":"levelo://app?vid=ac607088-0940-44e0-bd2e-4aa6d1e40af8","ios":"levelo://app?vid=ac607088-0940-44e0-bd2e-4aa6d1e40af8"},"vehicle_type_id":"4","last_reported":1729778936,"current_range_meters":12000,"station_id":"ce4bhb92rcd13ifvqen0","pricing_plan_id":"cebpf4jnsgd1na2vs0mg"},{"bike_id":"0300ae8c-d89e-4fc9-94c4-e4571dd93d5f","system_id":"levelo_inurba_marseille","lat":43.25929,"lon":5.40908,"is_reserved":false,"is_disabled":false,"rental_uris":{"android":"levelo://app?vid=0300ae8c-d89e-4fc9-94c4-e4571dd93d5f","ios":"levelo://app?vid=0300ae8c-d89e-4fc9-94c4-e4571dd93d5f"},"vehicle_type_id":"4","last_reported":1729778936,"current_range_meters":30800,"station_id":"ce4bhm92rcd13ifvqglg","pricing_plan_id":"cebpf4jnsgd1na2vs0mg"},{"bike_id":"a137fc11-95c8-48f4-9f0f-a2367a1407d0","system_id":"levelo_inurba_marseille","lat":43.308881,"lon":5.371928,"is_reserved":false,"is_disabled":false,"rental_uris":{"android":"levelo://app?vid=a137fc11-95c8-48f4-9f0f-a2367a1407d0","ios":"levelo://app?vid=a137fc11-95c8-48f4-9f0f-a2367a1407d0"},"vehicle_type_id":"4","last_reported":1729778936,"current_range_meters":4400,"station_id":"ce4bguh2rcd13ifvqckg","pricing_plan_id":"cebpf4jnsgd1na2vs0mg"},{"bike_id":"fd3db175-ebd2-4c07-bbf4-7e8a5e9c8a78","system_id":"levelo_inurba_marseille","lat":43.25115,"lon":5.40317,"is_reserved":false,"is_disabled":false,"rental_uris":{"android":"levelo://app?vid=fd3db175-ebd2-4c07-bbf4-7e8a5e9c8a78","ios":"levelo://app?vid=fd3db175-ebd2-4c07-bbf4-7e8a5e9c8a78"},"vehicle_type_id":"4","last_reported":1729778936,"current_range_meters":4400,"station_id":"ce4bhlh2rcd13ifvqgig","pricing_plan_id":"cebpf4jnsgd1na2vs0mg"},{"bike_id":"cdea4aca-3bdc-43f7-b0f5-c5a3f7e0a307","system_id":"levelo_inurba_marseille","lat":43.29583,"lon":5.36734,"is_reserved":false,"is_disabled":false,"rental_uris":{"android":"levelo://app?vid=cdea4aca-3bdc-43f7-b0f5-c5a3f7e0a307","ios":"levelo://app?vid=cdea4aca-3bdc-43f7-b0f5-c5a3f7e0a307"},"vehicle_type_id":"4","last_reported":1729778936,"current_range_meters":38400,"station_id":"ce4bgph2rcd13ifvqc2g","pricing_plan_id":"cebpf4jnsgd1na2vs0mg"},{"bike_id":"a862bbde-4593-4c97-9fe8-68bf87e18ec2","system_id":"levelo_inurba_marseille","lat":43.29627,"lon":5.40592,"is_reserved":false,"is_disabled":false,"rental_uris":{"android":"levelo://app?vid=a862bbde-4593-4c97-9fe8-68bf87e18ec2","ios":"levelo://app?vid=a862bbde-4593-4c97-9fe8-68bf87e18ec2"},"vehicle_type_id":"4","last_reported":1729778936,"current_range_meters":31200,"station_id":"ce4bh0h2rcd13ifvqd60","pricing_plan_id":"cebpf4jnsgd1na2vs0mg"},{"bike_id":"63298a7c-aefd-45e5-b3f1-d13a42ed58ce","system_id":"levelo_inurba_marseille","lat":43.33776,"lon":5.37441,"is_reserved":false,"is_disabled":false,"rental_uris":{"android":"levelo://app?vid=63298a7c-aefd-45e5-b3f1-d13a42ed58ce","ios":"levelo://app?vid=63298a7c-aefd-45e5-b3f1-d13a42ed58ce"},"vehicle_type_id":"4","last_reported":1729778936,"current_range_meters":31200,"station_id":"","pricing_plan_id":"cebpf4jnsgd1na2vs0mg"},{"bike_id":"9c980766-3696-42be-8e1a-d22fb6edb5c5","system_id":"levelo_inurba_marseille","lat":43.30655,"lon":5.38186,"is_reserved":false,"is_disabled":false,"rental_uris":{"android":"levelo://app?vid=9c980766-3696-42be-8e1a-d22fb6edb5c5","ios":"levelo://app?vid=9c980766-3696-42be-8e1a-d22fb6edb5c5"},"vehicle_type_id":"4","last_reported":1729778936,"current_range_meters":28000,"station_id":"","pricing_plan_id":"cebpf4jnsgd1na2vs0mg"},{"bike_id":"3b65ae1b-7a9f-48f9-a271-9dce26f02699","system_id":"levelo_inurba_marseille","lat":43.2842,"lon":5.34998,"is_reserved":false,"is_disabled":false,"rental_uris":{"android":"levelo://app?vid=3b65ae1b-7a9f-48f9-a271-9dce26f02699","ios":"levelo://app?vid=3b65ae1b-7a9f-48f9-a271-9dce26f02699"},"vehicle_type_id":"4","last_reported":1729778936,"current_range_meters":38800,"station_id":"ce4bhbh2rcd13ifvqepg","pricing_plan_id":"cebpf4jnsgd1na2vs0mg"},{"bike_id":"d8655792-5834-4f3c-af3f-18edc8c1f2a6","system_id":"levelo_inurba_marseille","lat":43.28273,"lon":5.35082,"is_reserved":false,"is_disabled":false,"rental_uris":{"android":"levelo://app?vid=d8655792-5834-4f3c-af3f-18edc8c1f2a6","ios":"levelo://app?vid=d8655792-5834-4f3c-af3f-18edc8c1f2a6"},"vehicle_type_id":"4","last_reported":1729778936,"current_range_meters":20400,"station_id":"ce4bhbp2rcd13ifvqerg","pricing_plan_id":"cebpf4jnsgd1na2vs0mg"},{"bike_id":"29344995-3b8b-4942-8deb-0866f8f4ad89","system_id":"levelo_inurba_marseille","lat":43.25867,"lon":5.3989,"is_reserved":false,"is_disabled":false,"rental_uris":{"android":"levelo://app?vid=29344995-3b8b-4942-8deb-0866f8f4ad89","ios":"levelo://app?vid=29344995-3b8b-4942-8deb-0866f8f4ad89"},"vehicle_type_id":"4","last_reported":1729778936,"current_range_meters":32400,"station_id":"ce4bhl92rcd13ifvqghg","pricing_plan_id":"cebpf4jnsgd1na2vs0mg"},{"bike_id":"0cdbb134-96fa-4d9b-af27-8018256ef8c7","system_id":"levelo_inurba_marseille","lat":43.23182,"lon":5.39978,"is_reserved":false,"is_disabled":false,"rental_uris":{"android":"levelo://app?vid=0cdbb134-96fa-4d9b-af27-8018256ef8c7","ios":"levelo://app?vid=0cdbb134-96fa-4d9b-af27-8018256ef8c7"},"vehicle_type_id":"4","last_reported":1729778936,"current_range_meters":22400,"station_id":"ce4bhn12rcd13ifvqgqg","pricing_plan_id":"cebpf4jnsgd1na2vs0mg"},{"bike_id":"624fe77a-eea3-45c5-8705-7034c073ec0f","system_id":"levelo_inurba_marseille","lat":43.30531,"lon":5.36539,"is_reserved":false,"is_disabled":false,"rental_uris":{"android":"levelo://app?vid=624fe77a-eea3-45c5-8705-7034c073ec0f","ios":"levelo://app?vid=624fe77a-eea3-45c5-8705-7034c073ec0f"},"vehicle_type_id":"4","last_reported":1729778936,"current_range_meters":16000,"station_id":"ce4bgs12rcd13ifvqcag","pricing_plan_id":"cebpf4jnsgd1na2vs0mg"},{"bike_id":"7e2e10ba-08b7-4942-9fc0-a32db26adb37","system_id":"levelo_inurba_marseille","lat":43.29007,"lon":5.35618,"is_reserved":false,"is_disabled":false,"rental_uris":{"android":"levelo://app?vid=7e2e10ba-08b7-4942-9fc0-a32db26adb37","ios":"levelo://app?vid=7e2e10ba-08b7-4942-9fc0-a32db26adb37"},"vehicle_type_id":"4","last_reported":1729778936,"current_range_meters":33600,"station_id":"ce4bhb92rcd13ifvqen0","pricing_plan_id":"cebpf4jnsgd1na2vs0mg"},{"bike_id":"5c94f4f0-f0cd-4179-8b32-cf5ce3cee721","system_id":"levelo_inurba_marseille","lat":43.27375,"lon":5.36251,"is_reserved":false,"is_disabled":false,"rental_uris":{"android":"levelo://app?vid=5c94f4f0-f0cd-4179-8b32-cf5ce3cee721","ios":"levelo://app?vid=5c94f4f0-f0cd-4179-8b32-cf5ce3cee721"},"vehicle_type_id":"4","last_reported":1729778936,"current_range_meters":9200,"station_id":"ce4bhbh2rcd13ifvqeo0","pricing_plan_id":"cebpf4jnsgd1na2vs0mg"},{"bike_id":"05fafca5-b07f-46bd-936e-6dd4c612c493","system_id":"levelo_inurba_marseille","lat":43.2958,"lon":5.3752,"is_reserved":false,"is_disabled":false,"rental_uris":{"android":"levelo://app?vid=05fafca5-b07f-46bd-936e-6dd4c612c493","ios":"levelo://app?vid=05fafca5-b07f-46bd-936e-6dd4c612c493"},"vehicle_type_id":"4","last_reported":1729778936,"current_range_meters":16400,"station_id":"ce4bgh92rcd13ifvqb50","pricing_plan_id":"cebpf4jnsgd1na2vs0mg"},{"bike_id":"79566339-3756-47e0-ab72-85e0d3e3abb1","system_id":"levelo_inurba_marseille","lat":43.29929,"lon":5.36525,"is_reserved":false,"is_disabled":false,"rental_uris":{"android":"levelo://app?vid=79566339-3756-47e0-ab72-85e0d3e3abb1","ios":"levelo://app?vid=79566339-3756-47e0-ab72-85e0d3e3abb1"},"vehicle_type_id":"4","last_reported":1729778936,"current_range_meters":27200,"station_id":"ce4bgm92rcd13ifvqbr0","pricing_plan_id":"cebpf4jnsgd1na2vs0mg"},{"bike_id":"3fa4e7fe-c8c6-44bd-ac1e-792642cbde06","system_id":"levelo_inurba_marseille","lat":43.29621,"lon":5.37164,"is_reserved":false,"is_disabled":false,"rental_uris":{"android":"levelo://app?vid=3fa4e7fe-c8c6-44bd-ac1e-792642cbde06","ios":"levelo://app?vid=3fa4e7fe-c8c6-44bd-ac1e-792642cbde06"},"vehicle_type_id":"4","last_reported":1729778936,"current_range_meters":32000,"station_id":"ce4bgnh2rcd13ifvqc0g","pricing_plan_id":"cebpf4jnsgd1na2vs0mg"},{"bike_id":"9a000ba2-47b5-4f07-980c-11a03583e4c8","system_id":"levelo_inurba_marseille","lat":43.29,"lon":5.35619,"is_reserved":false,"is_disabled":false,"rental_uris":{"android":"levelo://app?vid=9a000ba2-47b5-4f07-980c-11a03583e4c8","ios":"levelo://app?vid=9a000ba2-47b5-4f07-980c-11a03583e4c8"},"vehicle_type_id":"4","last_reported":1729778936,"current_range_meters":26800,"station_id":"ce4bhb92rcd13ifvqen0","pricing_plan_id":"cebpf4jnsgd1na2vs0mg"},{"bike_id":"7510be9e-9c9f-4d25-8b07-a01a2ed1e26b","system_id":"levelo_inurba_marseille","lat":43.31079,"lon":5.38359,"is_reserved":false,"is_disabled":false,"rental_uris":{"android":"levelo://app?vid=7510be9e-9c9f-4d25-8b07-a01a2ed1e26b","ios":"levelo://app?vid=7510be9e-9c9f-4d25-8b07-a01a2ed1e26b"},"vehicle_type_id":"4","last_reported":1729778936,"current_range_meters":38800,"station_id":"ce4bgv92rcd13ifvqcr0","pricing_plan_id":"cebpf4jnsgd1na2vs0mg"},{"bike_id":"b61613ac-0748-4108-8037-3d7940c77f58","system_id":"levelo_inurba_marseille","lat":43.26803,"lon":5.40265,"is_reserved":false,"is_disabled":false,"rental_uris":{"android":"levelo://app?vid=b61613ac-0748-4108-8037-3d7940c77f58","ios":"levelo://app?vid=b61613ac-0748-4108-8037-3d7940c77f58"},"vehicle_type_id":"4","last_reported":1729778936,"current_range_meters":38800,"station_id":"ce501612rcd8frsf0b60","pricing_plan_id":"cebpf4jnsgd1na2vs0mg"},{"bike_id":"3329b6da-e063-482c-9774-f6250ffbb190","system_id":"levelo_inurba_marseille","lat":43.26678,"lon":5.38268,"is_reserved":false,"is_disabled":false,"rental_uris":{"android":"levelo://app?vid=3329b6da-e063-482c-9774-f6250ffbb190","ios":"levelo://app?vid=3329b6da-e063-482c-9774-f6250ffbb190"},"vehicle_type_id":"4","last_reported":1729778936,"current_range_meters":26000,"station_id":"ce4bhg92rcd13ifvqf90","pricing_plan_id":"cebpf4jnsgd1na2vs0mg"},{"bike_id":"d1b42cfa-1c25-4cb0-97a5-e058593983bc","system_id":"levelo_inurba_marseille","lat":43.29616,"lon":5.37717,"is_reserved":false,"is_disabled":false,"rental_uris":{"android":"levelo://app?vid=d1b42cfa-1c25-4cb0-97a5-e058593983bc","ios":"levelo://app?vid=d1b42cfa-1c25-4cb0-97a5-e058593983bc"},"vehicle_type_id":"4","last_reported":1729778936,"current_range_meters":7200,"station_id":"ce4bgi92rcd13ifvqb90","pricing_plan_id":"cebpf4jnsgd1na2vs0mg"},{"bike_id":"bae05bed-7868-4671-bd2d-aae8e3c65058","system_id":"levelo_inurba_marseille","lat":43.29308,"lon":5.37173,"is_reserved":false,"is_disabled":false,"rental_uris":{"android":"levelo://app?vid=bae05bed-7868-4671-bd2d-aae8e3c65058","ios":"levelo://app?vid=bae05bed-7868-4671-bd2d-aae8e3c65058"},"vehicle_type_id":"4","last_reported":1729778936,"current_range_meters":4400,"station_id":"ce4bgh92rcd13ifvqb40","pricing_plan_id":"cebpf4jnsgd1na2vs0mg"},{"bike_id":"900de3b6-b5f6-4296-bb6d-21387b94e68c","system_id":"levelo_inurba_marseille","lat":43.29282,"lon":5.40112,"is_reserved":false,"is_disabled":false,"rental_uris":{"android":"levelo://app?vid=900de3b6-b5f6-4296-bb6d-21387b94e68c","ios":"levelo://app?vid=900de3b6-b5f6-4296-bb6d-21387b94e68c"},"vehicle_type_id":"4","last_reported":1729778936,"current_range_meters":6000,"station_id":"ce4bh312rcd13ifvqdk0","pricing_plan_id":"cebpf4jnsgd1na2vs0mg"},{"bike_id":"21701b7d-56e0-412f-8ee0-233be34d09f6","system_id":"levelo_inurba_marseille","lat":43.27379,"lon":5.36253,"is_reserved":false,"is_disabled":false,"rental_uris":{"android":"levelo://app?vid=21701b7d-56e0-412f-8ee0-233be34d09f6","ios":"levelo://app?vid=21701b7d-56e0-412f-8ee0-233be34d09f6"},"vehicle_type_id":"4","last_reported":1729778936,"current_range_meters":27600,"station_id":"ce4bhbh2rcd13ifvqeo0","pricing_plan_id":"cebpf4jnsgd1na2vs0mg"},{"bike_id":"a3dc257f-67a4-4f57-a9f2-c08c142ac49e","system_id":"levelo_inurba_marseille","lat":43.299616,"lon":5.412973,"is_reserved":false,"is_disabled":false,"rental_uris":{"android":"levelo://app?vid=a3dc257f-67a4-4f57-a9f2-c08c142ac49e","ios":"levelo://app?vid=a3dc257f-67a4-4f57-a9f2-c08c142ac49e"},"vehicle_type_id":"4","last_reported":1729778936,"current_range_meters":8400,"station_id":"ce4bhp12rcd13ifvqh9g","pricing_plan_id":"cebpf4jnsgd1na2vs0mg"},{"bike_id":"ae6117f6-24f8-4939-8561-592474de13e6","system_id":"levelo_inurba_marseille","lat":43.31987,"lon":5.3814,"is_reserved":false,"is_disabled":false,"rental_uris":{"android":"levelo://app?vid=ae6117f6-24f8-4939-8561-592474de13e6","ios":"levelo://app?vid=ae6117f6-24f8-4939-8561-592474de13e6"},"vehicle_type_id":"4","last_reported":1729778936,"current_range_meters":17200,"station_id":"ce4bhr12rcd13ifvqhpg","pricing_plan_id":"cebpf4jnsgd1na2vs0mg"},{"bike_id":"a858b701-a29d-49ed-a3f6-c45c03dd2695","system_id":"levelo_inurba_marseille","lat":43.28277,"lon":5.35059,"is_reserved":false,"is_disabled":false,"rental_uris":{"android":"levelo://app?vid=a858b701-a29d-49ed-a3f6-c45c03dd2695","ios":"levelo://app?vid=a858b701-a29d-49ed-a3f6-c45c03dd2695"},"vehicle_type_id":"4","last_reported":1729778936,"current_range_meters":37600,"station_id":"ce4bhbp2rcd13ifvqerg","pricing_plan_id":"cebpf4jnsgd1na2vs0mg"},{"bike_id":"51e0486f-2014-47ee-b593-0dd3ffd98f9e","system_id":"levelo_inurba_marseille","lat":43.27434,"lon":5.39408,"is_reserved":false,"is_disabled":false,"rental_uris":{"android":"levelo://app?vid=51e0486f-2014-47ee-b593-0dd3ffd98f9e","ios":"levelo://app?vid=51e0486f-2014-47ee-b593-0dd3ffd98f9e"},"vehicle_type_id":"4","last_reported":1729778936,"current_range_meters":37600,"station_id":"ce4bhdp2rcd13ifvqf20","pricing_plan_id":"cebpf4jnsgd1na2vs0mg"},{"bike_id":"c9b0dcb8-fce8-4a14-8ed6-90abd944a394","system_id":"levelo_inurba_marseille","lat":43.29723,"lon":5.37693,"is_reserved":false,"is_disabled":false,"rental_uris":{"android":"levelo://app?vid=c9b0dcb8-fce8-4a14-8ed6-90abd944a394","ios":"levelo://app?vid=c9b0dcb8-fce8-4a14-8ed6-90abd944a394"},"vehicle_type_id":"4","last_reported":1729778936,"current_range_meters":10000,"station_id":"ce4bgkh2rcd13ifvqbl0","pricing_plan_id":"cebpf4jnsgd1na2vs0mg"},{"bike_id":"20bd57f0-225f-40f6-9609-9009aed954fa","system_id":"levelo_inurba_marseille","lat":43.29051,"lon":5.35899,"is_reserved":false,"is_disabled":false,"rental_uris":{"android":"levelo://app?vid=20bd57f0-225f-40f6-9609-9009aed954fa","ios":"levelo://app?vid=20bd57f0-225f-40f6-9609-9009aed954fa"},"vehicle_type_id":"4","last_reported":1729778936,"current_range_meters":17200,"station_id":"ce4bha92rcd13ifvqeg0","pricing_plan_id":"cebpf4jnsgd1na2vs0mg"},{"bike_id":"70e306d5-4d61-414e-b44b-c7cf498eea27","system_id":"levelo_inurba_marseille","lat":43.314874,"lon":5.373046,"is_reserved":false,"is_disabled":false,"rental_uris":{"android":"levelo://app?vid=70e306d5-4d61-414e-b44b-c7cf498eea27","ios":"levelo://app?vid=70e306d5-4d61-414e-b44b-c7cf498eea27"},"vehicle_type_id":"4","last_reported":1729778936,"current_range_meters":30000,"station_id":"ce4bgt12rcd13ifvqcd0","pricing_plan_id":"cebpf4jnsgd1na2vs0mg"},{"bike_id":"caa9cc04-1679-4042-8b0a-6027a64f2cc6","system_id":"levelo_inurba_marseille","lat":43.30284,"lon":5.37713,"is_reserved":false,"is_disabled":false,"rental_uris":{"android":"levelo://app?vid=caa9cc04-1679-4042-8b0a-6027a64f2cc6","ios":"levelo://app?vid=caa9cc04-1679-4042-8b0a-6027a64f2cc6"},"vehicle_type_id":"4","last_reported":1729778936,"current_range_meters":27600,"station_id":"ce4bguh2rcd13ifvqcj0","pricing_plan_id":"cebpf4jnsgd1na2vs0mg"},{"bike_id":"4df04c78-fd2a-47f7-92cf-69e9c021f757","system_id":"levelo_inurba_marseille","lat":43.27913,"lon":5.39572,"is_reserved":false,"is_disabled":false,"rental_uris":{"android":"levelo://app?vid=4df04c78-fd2a-47f7-92cf-69e9c021f757","ios":"levelo://app?vid=4df04c78-fd2a-47f7-92cf-69e9c021f757"},"vehicle_type_id":"4","last_reported":1729778936,"current_range_meters":4800,"station_id":"ce4bhf92rcd13ifvqf40","pricing_plan_id":"cebpf4jnsgd1na2vs0mg"},{"bike_id":"0f0b1737-217f-40c0-9dea-d8f3aa6e4fcb","system_id":"levelo_inurba_marseille","lat":43.29574,"lon":5.37527,"is_reserved":false,"is_disabled":false,"rental_uris":{"android":"levelo://app?vid=0f0b1737-217f-40c0-9dea-d8f3aa6e4fcb","ios":"levelo://app?vid=0f0b1737-217f-40c0-9dea-d8f3aa6e4fcb"},"vehicle_type_id":"4","last_reported":1729778936,"current_range_meters":20400,"station_id":"ce4bgh92rcd13ifvqb50","pricing_plan_id":"cebpf4jnsgd1na2vs0mg"},{"bike_id":"228c2a65-a88a-474e-baae-39029ce20359","system_id":"levelo_inurba_marseille","lat":43.24076,"lon":5.37743,"is_reserved":false,"is_disabled":false,"rental_uris":{"android":"levelo://app?vid=228c2a65-a88a-474e-baae-39029ce20359","ios":"levelo://app?vid=228c2a65-a88a-474e-baae-39029ce20359"},"vehicle_type_id":"4","last_reported":1729778936,"current_range_meters":19600,"station_id":"ce4bhnp2rcd13ifvqgvg","pricing_plan_id":"cebpf4jnsgd1na2vs0mg"},{"bike_id":"ac1f2afe-f721-4f4e-978a-8924046a0505","system_id":"levelo_inurba_marseille","lat":43.28462,"lon":5.35898,"is_reserved":false,"is_disabled":false,"rental_uris":{"android":"levelo://app?vid=ac1f2afe-f721-4f4e-978a-8924046a0505","ios":"levelo://app?vid=ac1f2afe-f721-4f4e-978a-8924046a0505"},"vehicle_type_id":"4","last_reported":1729778936,"current_range_meters":14800,"station_id":"ce4bhah2rcd13ifvqei0","pricing_plan_id":"cebpf4jnsgd1na2vs0mg"},{"bike_id":"6e5b04dd-7605-4664-93fa-296435ba11b2","system_id":"levelo_inurba_marseille","lat":43.31235,"lon":5.36859,"is_reserved":false,"is_disabled":false,"rental_uris":{"android":"levelo://app?vid=6e5b04dd-7605-4664-93fa-296435ba11b2","ios":"levelo://app?vid=6e5b04dd-7605-4664-93fa-296435ba11b2"},"vehicle_type_id":"4","last_reported":1729778936,"current_range_meters":38800,"station_id":"ce4bgl92rcd13ifvqbq0","pricing_plan_id":"cebpf4jnsgd1na2vs0mg"},{"bike_id":"4a6df651-d777-43d3-86b7-7fa1c99ff793","system_id":"levelo_inurba_marseille","lat":43.30899,"lon":5.3719,"is_reserved":false,"is_disabled":false,"rental_uris":{"android":"levelo://app?vid=4a6df651-d777-43d3-86b7-7fa1c99ff793","ios":"levelo://app?vid=4a6df651-d777-43d3-86b7-7fa1c99ff793"},"vehicle_type_id":"4","last_reported":1729778936,"current_range_meters":19600,"station_id":"ce4bguh2rcd13ifvqckg","pricing_plan_id":"cebpf4jnsgd1na2vs0mg"},{"bike_id":"4b6769f0-9d52-4427-92eb-85214df0463d","system_id":"levelo_inurba_marseille","lat":43.23192,"lon":5.35552,"is_reserved":false,"is_disabled":false,"rental_uris":{"android":"levelo://app?vid=4b6769f0-9d52-4427-92eb-85214df0463d","ios":"levelo://app?vid=4b6769f0-9d52-4427-92eb-85214df0463d"},"vehicle_type_id":"4","last_reported":1729778936,"current_range_meters":35200,"station_id":"ce4bhu92rcd13ifvqi70","pricing_plan_id":"cebpf4jnsgd1na2vs0mg"},{"bike_id":"4ec25af9-2c50-4187-b3b7-1dc66bf6c68a","system_id":"levelo_inurba_marseille","lat":43.28657,"lon":5.42524,"is_reserved":false,"is_disabled":false,"rental_uris":{"android":"levelo://app?vid=4ec25af9-2c50-4187-b3b7-1dc66bf6c68a","ios":"levelo://app?vid=4ec25af9-2c50-4187-b3b7-1dc66bf6c68a"},"vehicle_type_id":"4","last_reported":1729778936,"current_range_meters":7200,"station_id":"","pricing_plan_id":"cebpf4jnsgd1na2vs0mg"},{"bike_id":"d907287b-a10f-4552-86f6-54604e8e0fa8","system_id":"levelo_inurba_marseille","lat":43.29601,"lon":5.38105,"is_reserved":false,"is_disabled":false,"rental_uris":{"android":"levelo://app?vid=d907287b-a10f-4552-86f6-54604e8e0fa8","ios":"levelo://app?vid=d907287b-a10f-4552-86f6-54604e8e0fa8"},"vehicle_type_id":"4","last_reported":1729778936,"current_range_meters":36400,"station_id":"ce4bgl12rcd13ifvqbo0","pricing_plan_id":"cebpf4jnsgd1na2vs0mg"},{"bike_id":"6e61c137-feee-4997-a796-11964e059225","system_id":"levelo_inurba_marseille","lat":43.29732,"lon":5.37695,"is_reserved":false,"is_disabled":false,"rental_uris":{"android":"levelo://app?vid=6e61c137-feee-4997-a796-11964e059225","ios":"levelo://app?vid=6e61c137-feee-4997-a796-11964e059225"},"vehicle_type_id":"4","last_reported":1729778936,"current_range_meters":31200,"station_id":"ce4bgkh2rcd13ifvqbl0","pricing_plan_id":"cebpf4jnsgd1na2vs0mg"},{"bike_id":"303bfd12-09b7-400e-9f0e-8535d468050c","system_id":"levelo_inurba_marseille","lat":43.284222,"lon":5.349754,"is_reserved":false,"is_disabled":false,"rental_uris":{"android":"levelo://app?vid=303bfd12-09b7-400e-9f0e-8535d468050c","ios":"levelo://app?vid=303bfd12-09b7-400e-9f0e-8535d468050c"},"vehicle_type_id":"4","last_reported":1729778936,"current_range_meters":17600,"station_id":"ce4bhbh2rcd13ifvqepg","pricing_plan_id":"cebpf4jnsgd1na2vs0mg"},{"bike_id":"103ed008-6f4b-4142-8ae0-e6b210d9a427","system_id":"levelo_inurba_marseille","lat":43.22928,"lon":5.35374,"is_reserved":false,"is_disabled":false,"rental_uris":{"android":"levelo://app?vid=103ed008-6f4b-4142-8ae0-e6b210d9a427","ios":"levelo://app?vid=103ed008-6f4b-4142-8ae0-e6b210d9a427"},"vehicle_type_id":"4","last_reported":1729778936,"current_range_meters":10000,"station_id":"cpo3532slgdg3j2ikp40","pricing_plan_id":"cebpf4jnsgd1na2vs0mg"},{"bike_id":"87b19505-061a-49fa-9f88-8f458d22c0b2","system_id":"levelo_inurba_marseille","lat":43.25755,"lon":5.39438,"is_reserved":false,"is_disabled":false,"rental_uris":{"android":"levelo://app?vid=87b19505-061a-49fa-9f88-8f458d22c0b2","ios":"levelo://app?vid=87b19505-061a-49fa-9f88-8f458d22c0b2"},"vehicle_type_id":"4","last_reported":1729778936,"current_range_meters":2800,"station_id":"ce4bhip2rcd13ifvqft0","pricing_plan_id":"cebpf4jnsgd1na2vs0mg"},{"bike_id":"e8bd7517-3ba9-481c-9a84-5ae9b883b285","system_id":"levelo_inurba_marseille","lat":43.29874,"lon":5.39725,"is_reserved":false,"is_disabled":false,"rental_uris":{"android":"levelo://app?vid=e8bd7517-3ba9-481c-9a84-5ae9b883b285","ios":"levelo://app?vid=e8bd7517-3ba9-481c-9a84-5ae9b883b285"},"vehicle_type_id":"4","last_reported":1729778936,"current_range_meters":38800,"station_id":"ce4bh0h2rcd13ifvqd50","pricing_plan_id":"cebpf4jnsgd1na2vs0mg"},{"bike_id":"e93d0849-6889-4c3b-b756-5d2c77aee686","system_id":"levelo_inurba_marseille","lat":43.27995,"lon":5.41664,"is_reserved":false,"is_disabled":false,"rental_uris":{"android":"levelo://app?vid=e93d0849-6889-4c3b-b756-5d2c77aee686","ios":"levelo://app?vid=e93d0849-6889-4c3b-b756-5d2c77aee686"},"vehicle_type_id":"4","last_reported":1729778936,"current_range_meters":37600,"station_id":"ce4bho12rcd13ifvqh1g","pricing_plan_id":"cebpf4jnsgd1na2vs0mg"},{"bike_id":"cc46052e-fdcd-45f1-8ff2-94620d683ac9","system_id":"levelo_inurba_marseille","lat":43.28486,"lon":5.38429,"is_reserved":false,"is_disabled":false,"rental_uris":{"android":"levelo://app?vid=cc46052e-fdcd-45f1-8ff2-94620d683ac9","ios":"levelo://app?vid=cc46052e-fdcd-45f1-8ff2-94620d683ac9"},"vehicle_type_id":"4","last_reported":1729778936,"current_range_meters":31200,"station_id":"ce4bh512rcd13ifvqe3g","pricing_plan_id":"cebpf4jnsgd1na2vs0mg"},{"bike_id":"58ba1283-0ff2-478a-8c24-4381f06eccbe","system_id":"levelo_inurba_marseille","lat":43.25722,"lon":5.41114,"is_reserved":false,"is_disabled":false,"rental_uris":{"android":"levelo://app?vid=58ba1283-0ff2-478a-8c24-4381f06eccbe","ios":"levelo://app?vid=58ba1283-0ff2-478a-8c24-4381f06eccbe"},"vehicle_type_id":"4","last_reported":1729778936,"current_range_meters":38800,"station_id":"ce4bhkp2rcd13ifvqgd0","pricing_plan_id":"cebpf4jnsgd1na2vs0mg"},{"bike_id":"f7ba84fb-2306-468d-b7f2-80fa6ee2ee40","system_id":"levelo_inurba_marseille","lat":43.29003,"lon":5.35611,"is_reserved":false,"is_disabled":false,"rental_uris":{"android":"levelo://app?vid=f7ba84fb-2306-468d-b7f2-80fa6ee2ee40","ios":"levelo://app?vid=f7ba84fb-2306-468d-b7f2-80fa6ee2ee40"},"vehicle_type_id":"4","last_reported":1729778936,"current_range_meters":30800,"station_id":"ce4bhb92rcd13ifvqen0","pricing_plan_id":"cebpf4jnsgd1na2vs0mg"},{"bike_id":"dc9a765b-b0a7-4ba4-b3d9-747e3f62e985","system_id":"levelo_inurba_marseille","lat":43.30257,"lon":5.39664,"is_reserved":false,"is_disabled":false,"rental_uris":{"android":"levelo://app?vid=dc9a765b-b0a7-4ba4-b3d9-747e3f62e985","ios":"levelo://app?vid=dc9a765b-b0a7-4ba4-b3d9-747e3f62e985"},"vehicle_type_id":"4","last_reported":1729778936,"current_range_meters":9600,"station_id":"","pricing_plan_id":"cebpf4jnsgd1na2vs0mg"},{"bike_id":"4f3fba6e-f09a-4699-b865-3917317555cd","system_id":"levelo_inurba_marseille","lat":43.26203,"lon":5.37933,"is_reserved":false,"is_disabled":false,"rental_uris":{"android":"levelo://app?vid=4f3fba6e-f09a-4699-b865-3917317555cd","ios":"levelo://app?vid=4f3fba6e-f09a-4699-b865-3917317555cd"},"vehicle_type_id":"4","last_reported":1729778936,"current_range_meters":38000,"station_id":"ce4bhjp2rcd13ifvqg90","pricing_plan_id":"cebpf4jnsgd1na2vs0mg"},{"bike_id":"0bc90dc2-cf8c-457e-a6aa-9b91de95f992","system_id":"levelo_inurba_marseille","lat":43.22771,"lon":5.41603,"is_reserved":false,"is_disabled":false,"rental_uris":{"android":"levelo://app?vid=0bc90dc2-cf8c-457e-a6aa-9b91de95f992","ios":"levelo://app?vid=0bc90dc2-cf8c-457e-a6aa-9b91de95f992"},"vehicle_type_id":"4","last_reported":1729778936,"current_range_meters":32800,"station_id":"","pricing_plan_id":"cebpf4jnsgd1na2vs0mg"},{"bike_id":"e5180d85-1676-42ee-877e-be6dd78d14c4","system_id":"levelo_inurba_marseille","lat":43.31226,"lon":5.36853,"is_reserved":false,"is_disabled":false,"rental_uris":{"android":"levelo://app?vid=e5180d85-1676-42ee-877e-be6dd78d14c4","ios":"levelo://app?vid=e5180d85-1676-42ee-877e-be6dd78d14c4"},"vehicle_type_id":"4","last_reported":1729778936,"current_range_meters":12400,"station_id":"ce4bgl92rcd13ifvqbq0","pricing_plan_id":"cebpf4jnsgd1na2vs0mg"},{"bike_id":"fd23bb78-c3f6-42df-80f6-113a2ffd2426","system_id":"levelo_inurba_marseille","lat":43.31369,"lon":5.38488,"is_reserved":false,"is_disabled":false,"rental_uris":{"android":"levelo://app?vid=fd23bb78-c3f6-42df-80f6-113a2ffd2426","ios":"levelo://app?vid=fd23bb78-c3f6-42df-80f6-113a2ffd2426"},"vehicle_type_id":"4","last_reported":1729778936,"current_range_meters":28800,"station_id":"ce4bgt92rcd13ifvqcf0","pricing_plan_id":"cebpf4jnsgd1na2vs0mg"},{"bike_id":"8595ff02-e4f9-451e-8625-8f6e2a437cc3","system_id":"levelo_inurba_marseille","lat":43.3054,"lon":5.36535,"is_reserved":false,"is_disabled":false,"rental_uris":{"android":"levelo://app?vid=8595ff02-e4f9-451e-8625-8f6e2a437cc3","ios":"levelo://app?vid=8595ff02-e4f9-451e-8625-8f6e2a437cc3"},"vehicle_type_id":"4","last_reported":1729778936,"current_range_meters":3600,"station_id":"ce4bgs12rcd13ifvqcag","pricing_plan_id":"cebpf4jnsgd1na2vs0mg"},{"bike_id":"bb2a666e-d4fd-434c-9930-bd52d9e92c1d","system_id":"levelo_inurba_marseille","lat":43.2594,"lon":5.40904,"is_reserved":false,"is_disabled":false,"rental_uris":{"android":"levelo://app?vid=bb2a666e-d4fd-434c-9930-bd52d9e92c1d","ios":"levelo://app?vid=bb2a666e-d4fd-434c-9930-bd52d9e92c1d"},"vehicle_type_id":"4","last_reported":1729778936,"current_range_meters":36800,"station_id":"ce4bhm92rcd13ifvqglg","pricing_plan_id":"cebpf4jnsgd1na2vs0mg"},{"bike_id":"6c25b8c8-6fca-4958-8da6-f8a4c7e4ec36","system_id":"levelo_inurba_marseille","lat":43.29576,"lon":5.37505,"is_reserved":false,"is_disabled":false,"rental_uris":{"android":"levelo://app?vid=6c25b8c8-6fca-4958-8da6-f8a4c7e4ec36","ios":"levelo://app?vid=6c25b8c8-6fca-4958-8da6-f8a4c7e4ec36"},"vehicle_type_id":"4","last_reported":1729778936,"current_range_meters":39200,"station_id":"ce4bgh92rcd13ifvqb50","pricing_plan_id":"cebpf4jnsgd1na2vs0mg"},{"bike_id":"9050aa27-210e-4a00-99a6-53ce385deffc","system_id":"levelo_inurba_marseille","lat":43.29624,"lon":5.37151,"is_reserved":false,"is_disabled":false,"rental_uris":{"android":"levelo://app?vid=9050aa27-210e-4a00-99a6-53ce385deffc","ios":"levelo://app?vid=9050aa27-210e-4a00-99a6-53ce385deffc"},"vehicle_type_id":"4","last_reported":1729778936,"current_range_meters":38800,"station_id":"ce4bgnh2rcd13ifvqc0g","pricing_plan_id":"cebpf4jnsgd1na2vs0mg"},{"bike_id":"3a5434f0-436d-4022-b83d-0f54fd6611f1","system_id":"levelo_inurba_marseille","lat":43.30542,"lon":5.36516,"is_reserved":false,"is_disabled":false,"rental_uris":{"android":"levelo://app?vid=3a5434f0-436d-4022-b83d-0f54fd6611f1","ios":"levelo://app?vid=3a5434f0-436d-4022-b83d-0f54fd6611f1"},"vehicle_type_id":"4","last_reported":1729778936,"current_range_meters":30400,"station_id":"ce4bgs12rcd13ifvqcag","pricing_plan_id":"cebpf4jnsgd1na2vs0mg"},{"bike_id":"c1555606-dbe7-458c-b892-9c01346afde6","system_id":"levelo_inurba_marseille","lat":43.27558,"lon":5.38428,"is_reserved":false,"is_disabled":false,"rental_uris":{"android":"levelo://app?vid=c1555606-dbe7-458c-b892-9c01346afde6","ios":"levelo://app?vid=c1555606-dbe7-458c-b892-9c01346afde6"},"vehicle_type_id":"4","last_reported":1729778936,"current_range_meters":22800,"station_id":"ce4bhh92rcd13ifvqfi0","pricing_plan_id":"cebpf4jnsgd1na2vs0mg"},{"bike_id":"56a2b9b3-d26a-4191-aaa0-705759c50012","system_id":"levelo_inurba_marseille","lat":43.32368,"lon":5.3888,"is_reserved":false,"is_disabled":false,"rental_uris":{"android":"levelo://app?vid=56a2b9b3-d26a-4191-aaa0-705759c50012","ios":"levelo://app?vid=56a2b9b3-d26a-4191-aaa0-705759c50012"},"vehicle_type_id":"4","last_reported":1729778936,"current_range_meters":25200,"station_id":"ce4bhqp2rcd13ifvqhog","pricing_plan_id":"cebpf4jnsgd1na2vs0mg"},{"bike_id":"9cc86360-5eab-45ae-a458-952e8a91e43e","system_id":"levelo_inurba_marseille","lat":43.22933,"lon":5.35379,"is_reserved":false,"is_disabled":false,"rental_uris":{"android":"levelo://app?vid=9cc86360-5eab-45ae-a458-952e8a91e43e","ios":"levelo://app?vid=9cc86360-5eab-45ae-a458-952e8a91e43e"},"vehicle_type_id":"4","last_reported":1729778936,"current_range_meters":16400,"station_id":"cpo3532slgdg3j2ikp40","pricing_plan_id":"cebpf4jnsgd1na2vs0mg"},{"bike_id":"f7a0de5f-0ab0-462c-9f8c-f233935f432b","system_id":"levelo_inurba_marseille","lat":43.23192,"lon":5.35551,"is_reserved":false,"is_disabled":false,"rental_uris":{"android":"levelo://app?vid=f7a0de5f-0ab0-462c-9f8c-f233935f432b","ios":"levelo://app?vid=f7a0de5f-0ab0-462c-9f8c-f233935f432b"},"vehicle_type_id":"4","last_reported":1729778936,"current_range_meters":34800,"station_id":"ce4bhu92rcd13ifvqi70","pricing_plan_id":"cebpf4jnsgd1na2vs0mg"},{"bike_id":"17468fef-c5cc-48c3-aa6a-1f10321d81d1","system_id":"levelo_inurba_marseille","lat":43.30419,"lon":5.41276,"is_reserved":false,"is_disabled":false,"rental_uris":{"android":"levelo://app?vid=17468fef-c5cc-48c3-aa6a-1f10321d81d1","ios":"levelo://app?vid=17468fef-c5cc-48c3-aa6a-1f10321d81d1"},"vehicle_type_id":"4","last_reported":1729778936,"current_range_meters":3600,"station_id":"ce4bhop2rcd13ifvqh8g","pricing_plan_id":"cebpf4jnsgd1na2vs0mg"},{"bike_id":"78ecf39d-b6fa-488a-9650-26219243c887","system_id":"levelo_inurba_marseille","lat":43.30134,"lon":5.39874,"is_reserved":false,"is_disabled":false,"rental_uris":{"android":"levelo://app?vid=78ecf39d-b6fa-488a-9650-26219243c887","ios":"levelo://app?vid=78ecf39d-b6fa-488a-9650-26219243c887"},"vehicle_type_id":"4","last_reported":1729778936,"current_range_meters":28000,"station_id":"ce4bh0h2rcd13ifvqd40","pricing_plan_id":"cebpf4jnsgd1na2vs0mg"},{"bike_id":"7b01ac9b-e92e-491d-ac31-4b5a9b8216e6","system_id":"levelo_inurba_marseille","lat":43.2838,"lon":5.38633,"is_reserved":false,"is_disabled":false,"rental_uris":{"android":"levelo://app?vid=7b01ac9b-e92e-491d-ac31-4b5a9b8216e6","ios":"levelo://app?vid=7b01ac9b-e92e-491d-ac31-4b5a9b8216e6"},"vehicle_type_id":"4","last_reported":1729778936,"current_range_meters":38800,"station_id":"ce4bh492rcd13ifvqdvg","pricing_plan_id":"cebpf4jnsgd1na2vs0mg"},{"bike_id":"5e6ac9f1-ad63-45d4-989d-6452a3cad704","system_id":"levelo_inurba_marseille","lat":43.2668,"lon":5.38263,"is_reserved":false,"is_disabled":false,"rental_uris":{"android":"levelo://app?vid=5e6ac9f1-ad63-45d4-989d-6452a3cad704","ios":"levelo://app?vid=5e6ac9f1-ad63-45d4-989d-6452a3cad704"},"vehicle_type_id":"4","last_reported":1729778936,"current_range_meters":13600,"station_id":"ce4bhg92rcd13ifvqf90","pricing_plan_id":"cebpf4jnsgd1na2vs0mg"},{"bike_id":"4f207004-e5ce-4e07-b9eb-2fb97efdbc05","system_id":"levelo_inurba_marseille","lat":43.2757,"lon":5.38409,"is_reserved":false,"is_disabled":false,"rental_uris":{"android":"levelo://app?vid=4f207004-e5ce-4e07-b9eb-2fb97efdbc05","ios":"levelo://app?vid=4f207004-e5ce-4e07-b9eb-2fb97efdbc05"},"vehicle_type_id":"4","last_reported":1729778936,"current_range_meters":18800,"station_id":"ce4bhh92rcd13ifvqfi0","pricing_plan_id":"cebpf4jnsgd1na2vs0mg"},{"bike_id":"2d04a835-c598-4dcb-8af6-352cec469dd2","system_id":"levelo_inurba_marseille","lat":43.32366,"lon":5.38889,"is_reserved":false,"is_disabled":false,"rental_uris":{"android":"levelo://app?vid=2d04a835-c598-4dcb-8af6-352cec469dd2","ios":"levelo://app?vid=2d04a835-c598-4dcb-8af6-352cec469dd2"},"vehicle_type_id":"4","last_reported":1729778936,"current_range_meters":38400,"station_id":"ce4bhqp2rcd13ifvqhog","pricing_plan_id":"cebpf4jnsgd1na2vs0mg"},{"bike_id":"3c758af3-c6cc-4140-950d-1e20604deede","system_id":"levelo_inurba_marseille","lat":43.31704,"lon":5.37755,"is_reserved":false,"is_disabled":false,"rental_uris":{"android":"levelo://app?vid=3c758af3-c6cc-4140-950d-1e20604deede","ios":"levelo://app?vid=3c758af3-c6cc-4140-950d-1e20604deede"},"vehicle_type_id":"4","last_reported":1729778936,"current_range_meters":38400,"station_id":"ce4bgth2rcd13ifvqch0","pricing_plan_id":"cebpf4jnsgd1na2vs0mg"},{"bike_id":"cfcebfa7-3f59-4d32-a8f1-45e59f6e2f26","system_id":"levelo_inurba_marseille","lat":43.22932,"lon":5.35378,"is_reserved":false,"is_disabled":false,"rental_uris":{"android":"levelo://app?vid=cfcebfa7-3f59-4d32-a8f1-45e59f6e2f26","ios":"levelo://app?vid=cfcebfa7-3f59-4d32-a8f1-45e59f6e2f26"},"vehicle_type_id":"4","last_reported":1729778936,"current_range_meters":30800,"station_id":"cpo3532slgdg3j2ikp40","pricing_plan_id":"cebpf4jnsgd1na2vs0mg"},{"bike_id":"b8ec400a-2808-43cc-95a6-dea8cd5a18ba","system_id":"levelo_inurba_marseille","lat":43.32117,"lon":5.36773,"is_reserved":false,"is_disabled":false,"rental_uris":{"android":"levelo://app?vid=b8ec400a-2808-43cc-95a6-dea8cd5a18ba","ios":"levelo://app?vid=b8ec400a-2808-43cc-95a6-dea8cd5a18ba"},"vehicle_type_id":"4","last_reported":1729778936,"current_range_meters":18000,"station_id":"ce4bhrh2rcd13ifvqhug","pricing_plan_id":"cebpf4jnsgd1na2vs0mg"},{"bike_id":"3e381e9b-65a4-436a-a571-b4ba1ee13663","system_id":"levelo_inurba_marseille","lat":43.32485,"lon":5.36556,"is_reserved":false,"is_disabled":false,"rental_uris":{"android":"levelo://app?vid=3e381e9b-65a4-436a-a571-b4ba1ee13663","ios":"levelo://app?vid=3e381e9b-65a4-436a-a571-b4ba1ee13663"},"vehicle_type_id":"4","last_reported":1729778936,"current_range_meters":16800,"station_id":"ce4bhs12rcd13ifvqhvg","pricing_plan_id":"cebpf4jnsgd1na2vs0mg"},{"bike_id":"f2e6444b-e9e3-48ee-a052-8571a92cb215","system_id":"levelo_inurba_marseille","lat":43.27496,"lon":5.42449,"is_reserved":false,"is_disabled":false,"rental_uris":{"android":"levelo://app?vid=f2e6444b-e9e3-48ee-a052-8571a92cb215","ios":"levelo://app?vid=f2e6444b-e9e3-48ee-a052-8571a92cb215"},"vehicle_type_id":"4","last_reported":1729778936,"current_range_meters":39200,"station_id":"ce4bhn92rcd13ifvqgrg","pricing_plan_id":"cebpf4jnsgd1na2vs0mg"},{"bike_id":"3a526fc6-5f14-429c-8829-287dc38ef285","system_id":"levelo_inurba_marseille","lat":43.22931,"lon":5.35374,"is_reserved":false,"is_disabled":false,"rental_uris":{"android":"levelo://app?vid=3a526fc6-5f14-429c-8829-287dc38ef285","ios":"levelo://app?vid=3a526fc6-5f14-429c-8829-287dc38ef285"},"vehicle_type_id":"4","last_reported":1729778936,"current_range_meters":30800,"station_id":"cpo3532slgdg3j2ikp40","pricing_plan_id":"cebpf4jnsgd1na2vs0mg"},{"bike_id":"ed51ba6f-d8d5-4e39-8c63-d7a482a33181","system_id":"levelo_inurba_marseille","lat":43.28935,"lon":5.36635,"is_reserved":false,"is_disabled":false,"rental_uris":{"android":"levelo://app?vid=ed51ba6f-d8d5-4e39-8c63-d7a482a33181","ios":"levelo://app?vid=ed51ba6f-d8d5-4e39-8c63-d7a482a33181"},"vehicle_type_id":"4","last_reported":1729778936,"current_range_meters":10800,"station_id":"ce4bhap2rcd13ifvqek0","pricing_plan_id":"cebpf4jnsgd1na2vs0mg"},{"bike_id":"589bc915-2d01-4b10-923a-94d1db32cc58","system_id":"levelo_inurba_marseille","lat":43.25088,"lon":5.3952,"is_reserved":false,"is_disabled":false,"rental_uris":{"android":"levelo://app?vid=589bc915-2d01-4b10-923a-94d1db32cc58","ios":"levelo://app?vid=589bc915-2d01-4b10-923a-94d1db32cc58"},"vehicle_type_id":"4","last_reported":1729778936,"current_range_meters":8400,"station_id":"ce4bhm12rcd13ifvqgkg","pricing_plan_id":"cebpf4jnsgd1na2vs0mg"},{"bike_id":"5c5fedb6-5a4f-4881-ad56-c5bac3af94b4","system_id":"levelo_inurba_marseille","lat":43.26946,"lon":5.40251,"is_reserved":false,"is_disabled":false,"rental_uris":{"android":"levelo://app?vid=5c5fedb6-5a4f-4881-ad56-c5bac3af94b4","ios":"levelo://app?vid=5c5fedb6-5a4f-4881-ad56-c5bac3af94b4"},"vehicle_type_id":"4","last_reported":1729778936,"current_range_meters":9600,"station_id":"cjm6bp8fraef2m0cb0m0","pricing_plan_id":"cebpf4jnsgd1na2vs0mg"},{"bike_id":"365a5e76-e012-4983-b8a9-1a07480bde83","system_id":"levelo_inurba_marseille","lat":43.23192,"lon":5.35547,"is_reserved":false,"is_disabled":false,"rental_uris":{"android":"levelo://app?vid=365a5e76-e012-4983-b8a9-1a07480bde83","ios":"levelo://app?vid=365a5e76-e012-4983-b8a9-1a07480bde83"},"vehicle_type_id":"4","last_reported":1729778936,"current_range_meters":38800,"station_id":"ce4bhu92rcd13ifvqi70","pricing_plan_id":"cebpf4jnsgd1na2vs0mg"},{"bike_id":"1ad7f701-094e-42e8-ae74-9698b435f7cc","system_id":"levelo_inurba_marseille","lat":43.29716,"lon":5.36604,"is_reserved":false,"is_disabled":false,"rental_uris":{"android":"levelo://app?vid=1ad7f701-094e-42e8-ae74-9698b435f7cc","ios":"levelo://app?vid=1ad7f701-094e-42e8-ae74-9698b435f7cc"},"vehicle_type_id":"4","last_reported":1729778936,"current_range_meters":33600,"station_id":"ce4bgn12rcd13ifvqbt0","pricing_plan_id":"cebpf4jnsgd1na2vs0mg"},{"bike_id":"cf2c95e6-be3b-42d1-8c6a-4a2d0880ccad","system_id":"levelo_inurba_marseille","lat":43.3234,"lon":5.40624,"is_reserved":false,"is_disabled":false,"rental_uris":{"android":"levelo://app?vid=cf2c95e6-be3b-42d1-8c6a-4a2d0880ccad","ios":"levelo://app?vid=cf2c95e6-be3b-42d1-8c6a-4a2d0880ccad"},"vehicle_type_id":"4","last_reported":1729778936,"current_range_meters":24400,"station_id":"ce4bhq92rcd13ifvqhjg","pricing_plan_id":"cebpf4jnsgd1na2vs0mg"},{"bike_id":"8ed8191e-88bc-4db2-8ba1-7afeb048934a","system_id":"levelo_inurba_marseille","lat":43.2901,"lon":5.35626,"is_reserved":false,"is_disabled":false,"rental_uris":{"android":"levelo://app?vid=8ed8191e-88bc-4db2-8ba1-7afeb048934a","ios":"levelo://app?vid=8ed8191e-88bc-4db2-8ba1-7afeb048934a"},"vehicle_type_id":"4","last_reported":1729778936,"current_range_meters":38800,"station_id":"ce4bhb92rcd13ifvqen0","pricing_plan_id":"cebpf4jnsgd1na2vs0mg"},{"bike_id":"065033bf-3ae5-4f61-bdd6-f04c642389a3","system_id":"levelo_inurba_marseille","lat":43.29842,"lon":5.36265,"is_reserved":false,"is_disabled":false,"rental_uris":{"android":"levelo://app?vid=065033bf-3ae5-4f61-bdd6-f04c642389a3","ios":"levelo://app?vid=065033bf-3ae5-4f61-bdd6-f04c642389a3"},"vehicle_type_id":"4","last_reported":1729778936,"current_range_meters":30800,"station_id":"ce4bgpp2rcd13ifvqc3g","pricing_plan_id":"cebpf4jnsgd1na2vs0mg"},{"bike_id":"3dc2eb7e-15a4-47fb-81be-d850bbd51ccf","system_id":"levelo_inurba_marseille","lat":43.33767,"lon":5.37425,"is_reserved":false,"is_disabled":false,"rental_uris":{"android":"levelo://app?vid=3dc2eb7e-15a4-47fb-81be-d850bbd51ccf","ios":"levelo://app?vid=3dc2eb7e-15a4-47fb-81be-d850bbd51ccf"},"vehicle_type_id":"4","last_reported":1729778936,"current_range_meters":35600,"station_id":"","pricing_plan_id":"cebpf4jnsgd1na2vs0mg"},{"bike_id":"bafae436-90b0-4672-b165-ea45f818fefa","system_id":"levelo_inurba_marseille","lat":43.29733,"lon":5.37699,"is_reserved":false,"is_disabled":false,"rental_uris":{"android":"levelo://app?vid=bafae436-90b0-4672-b165-ea45f818fefa","ios":"levelo://app?vid=bafae436-90b0-4672-b165-ea45f818fefa"},"vehicle_type_id":"4","last_reported":1729778936,"current_range_meters":37600,"station_id":"ce4bgkh2rcd13ifvqbl0","pricing_plan_id":"cebpf4jnsgd1na2vs0mg"},{"bike_id":"8f20c90d-ac36-40d0-bb2f-f170a888d7d0","system_id":"levelo_inurba_marseille","lat":43.29895,"lon":5.4365,"is_reserved":false,"is_disabled":false,"rental_uris":{"android":"levelo://app?vid=8f20c90d-ac36-40d0-bb2f-f170a888d7d0","ios":"levelo://app?vid=8f20c90d-ac36-40d0-bb2f-f170a888d7d0"},"vehicle_type_id":"4","last_reported":1729778936,"current_range_meters":38800,"station_id":"ce4bhpp2rcd13ifvqhfg","pricing_plan_id":"cebpf4jnsgd1na2vs0mg"},{"bike_id":"03e8e373-dc03-4cdb-8279-5a04c155655f","system_id":"levelo_inurba_marseille","lat":43.2417,"lon":5.36393,"is_reserved":false,"is_disabled":false,"rental_uris":{"android":"levelo://app?vid=03e8e373-dc03-4cdb-8279-5a04c155655f","ios":"levelo://app?vid=03e8e373-dc03-4cdb-8279-5a04c155655f"},"vehicle_type_id":"4","last_reported":1729778936,"current_range_meters":28400,"station_id":"cpo36qri1sfpv3e86is0","pricing_plan_id":"cebpf4jnsgd1na2vs0mg"},{"bike_id":"b8428c66-6a49-4f2a-891e-3789581c6cd5","system_id":"levelo_inurba_marseille","lat":43.24548,"lon":5.39519,"is_reserved":false,"is_disabled":false,"rental_uris":{"android":"levelo://app?vid=b8428c66-6a49-4f2a-891e-3789581c6cd5","ios":"levelo://app?vid=b8428c66-6a49-4f2a-891e-3789581c6cd5"},"vehicle_type_id":"4","last_reported":1729778936,"current_range_meters":19200,"station_id":"ce4bhlp2rcd13ifvqgjg","pricing_plan_id":"cebpf4jnsgd1na2vs0mg"},{"bike_id":"6ae03549-5478-4731-b9e3-9ceeba8b2934","system_id":"levelo_inurba_marseille","lat":43.32366,"lon":5.38875,"is_reserved":false,"is_disabled":false,"rental_uris":{"android":"levelo://app?vid=6ae03549-5478-4731-b9e3-9ceeba8b2934","ios":"levelo://app?vid=6ae03549-5478-4731-b9e3-9ceeba8b2934"},"vehicle_type_id":"4","last_reported":1729778936,"current_range_meters":17200,"station_id":"ce4bhqp2rcd13ifvqhog","pricing_plan_id":"cebpf4jnsgd1na2vs0mg"},{"bike_id":"49e1ce75-cbc0-40d8-b38b-24a6cbca7aba","system_id":"levelo_inurba_marseille","lat":43.29932,"lon":5.36537,"is_reserved":false,"is_disabled":false,"rental_uris":{"android":"levelo://app?vid=49e1ce75-cbc0-40d8-b38b-24a6cbca7aba","ios":"levelo://app?vid=49e1ce75-cbc0-40d8-b38b-24a6cbca7aba"},"vehicle_type_id":"4","last_reported":1729778936,"current_range_meters":25200,"station_id":"ce4bgm92rcd13ifvqbr0","pricing_plan_id":"cebpf4jnsgd1na2vs0mg"},{"bike_id":"a0b3968f-e125-4ee8-97d3-b5a37c262c3e","system_id":"levelo_inurba_marseille","lat":43.297046,"lon":5.376946,"is_reserved":false,"is_disabled":false,"rental_uris":{"android":"levelo://app?vid=a0b3968f-e125-4ee8-97d3-b5a37c262c3e","ios":"levelo://app?vid=a0b3968f-e125-4ee8-97d3-b5a37c262c3e"},"vehicle_type_id":"4","last_reported":1729778936,"current_range_meters":4000,"station_id":"ce4bgkh2rcd13ifvqbl0","pricing_plan_id":"cebpf4jnsgd1na2vs0mg"},{"bike_id":"09cbc056-7ac4-4b3b-8b0f-811e84ea4022","system_id":"levelo_inurba_marseille","lat":43.296223,"lon":5.371759,"is_reserved":false,"is_disabled":false,"rental_uris":{"android":"levelo://app?vid=09cbc056-7ac4-4b3b-8b0f-811e84ea4022","ios":"levelo://app?vid=09cbc056-7ac4-4b3b-8b0f-811e84ea4022"},"vehicle_type_id":"4","last_reported":1729778936,"current_range_meters":38800,"station_id":"ce4bgnh2rcd13ifvqc0g","pricing_plan_id":"cebpf4jnsgd1na2vs0mg"},{"bike_id":"1d180020-2774-494a-9712-55fe63b19d77","system_id":"levelo_inurba_marseille","lat":43.25937,"lon":5.40897,"is_reserved":false,"is_disabled":false,"rental_uris":{"android":"levelo://app?vid=1d180020-2774-494a-9712-55fe63b19d77","ios":"levelo://app?vid=1d180020-2774-494a-9712-55fe63b19d77"},"vehicle_type_id":"4","last_reported":1729778936,"current_range_meters":12000,"station_id":"ce4bhm92rcd13ifvqglg","pricing_plan_id":"cebpf4jnsgd1na2vs0mg"},{"bike_id":"223b8e12-1073-4d99-a2d6-03a1784e6788","system_id":"levelo_inurba_marseille","lat":43.29788,"lon":5.37104,"is_reserved":false,"is_disabled":false,"rental_uris":{"android":"levelo://app?vid=223b8e12-1073-4d99-a2d6-03a1784e6788","ios":"levelo://app?vid=223b8e12-1073-4d99-a2d6-03a1784e6788"},"vehicle_type_id":"4","last_reported":1729778936,"current_range_meters":24400,"station_id":"ce4bgop2rcd13ifvqc1g","pricing_plan_id":"cebpf4jnsgd1na2vs0mg"},{"bike_id":"f7049507-45c2-41d7-9262-0fb171be7c82","system_id":"levelo_inurba_marseille","lat":43.32477,"lon":5.36568,"is_reserved":false,"is_disabled":false,"rental_uris":{"android":"levelo://app?vid=f7049507-45c2-41d7-9262-0fb171be7c82","ios":"levelo://app?vid=f7049507-45c2-41d7-9262-0fb171be7c82"},"vehicle_type_id":"4","last_reported":1729778936,"current_range_meters":6800,"station_id":"ce4bhs12rcd13ifvqhvg","pricing_plan_id":"cebpf4jnsgd1na2vs0mg"},{"bike_id":"ec80d900-1660-476e-958d-05a408ed7741","system_id":"levelo_inurba_marseille","lat":43.29798,"lon":5.40396,"is_reserved":false,"is_disabled":false,"rental_uris":{"android":"levelo://app?vid=ec80d900-1660-476e-958d-05a408ed7741","ios":"levelo://app?vid=ec80d900-1660-476e-958d-05a408ed7741"},"vehicle_type_id":"4","last_reported":1729778936,"current_range_meters":24000,"station_id":"ce4bho92rcd13ifvqh4g","pricing_plan_id":"cebpf4jnsgd1na2vs0mg"},{"bike_id":"ab91bd8e-344c-49f9-8a45-b6e25f2c6045","system_id":"levelo_inurba_marseille","lat":43.307709,"lon":5.381575,"is_reserved":false,"is_disabled":false,"rental_uris":{"android":"levelo://app?vid=ab91bd8e-344c-49f9-8a45-b6e25f2c6045","ios":"levelo://app?vid=ab91bd8e-344c-49f9-8a45-b6e25f2c6045"},"vehicle_type_id":"4","last_reported":1729778936,"current_range_meters":33600,"station_id":"ce4bgt12rcd13ifvqce0","pricing_plan_id":"cebpf4jnsgd1na2vs0mg"},{"bike_id":"2dcc1e35-5ea4-4aeb-82c4-4f3e4e4e009d","system_id":"levelo_inurba_marseille","lat":43.31075,"lon":5.38361,"is_reserved":false,"is_disabled":false,"rental_uris":{"android":"levelo://app?vid=2dcc1e35-5ea4-4aeb-82c4-4f3e4e4e009d","ios":"levelo://app?vid=2dcc1e35-5ea4-4aeb-82c4-4f3e4e4e009d"},"vehicle_type_id":"4","last_reported":1729778936,"current_range_meters":36400,"station_id":"ce4bgv92rcd13ifvqcr0","pricing_plan_id":"cebpf4jnsgd1na2vs0mg"},{"bike_id":"e17a9897-556e-4450-be3b-dcd534d1bed2","system_id":"levelo_inurba_marseille","lat":43.26938,"lon":5.40253,"is_reserved":false,"is_disabled":false,"rental_uris":{"android":"levelo://app?vid=e17a9897-556e-4450-be3b-dcd534d1bed2","ios":"levelo://app?vid=e17a9897-556e-4450-be3b-dcd534d1bed2"},"vehicle_type_id":"4","last_reported":1729778936,"current_range_meters":8000,"station_id":"cjm6bp8fraef2m0cb0m0","pricing_plan_id":"cebpf4jnsgd1na2vs0mg"},{"bike_id":"4fcf215b-7636-47da-9a6d-c06f88da5435","system_id":"levelo_inurba_marseille","lat":43.27432,"lon":5.39413,"is_reserved":false,"is_disabled":false,"rental_uris":{"android":"levelo://app?vid=4fcf215b-7636-47da-9a6d-c06f88da5435","ios":"levelo://app?vid=4fcf215b-7636-47da-9a6d-c06f88da5435"},"vehicle_type_id":"4","last_reported":1729778936,"current_range_meters":37600,"station_id":"ce4bhdp2rcd13ifvqf20","pricing_plan_id":"cebpf4jnsgd1na2vs0mg"},{"bike_id":"2c4a684a-b69b-4a59-9f8f-3e61716fa58f","system_id":"levelo_inurba_marseille","lat":43.30542,"lon":5.36521,"is_reserved":false,"is_disabled":false,"rental_uris":{"android":"levelo://app?vid=2c4a684a-b69b-4a59-9f8f-3e61716fa58f","ios":"levelo://app?vid=2c4a684a-b69b-4a59-9f8f-3e61716fa58f"},"vehicle_type_id":"4","last_reported":1729778936,"current_range_meters":39200,"station_id":"ce4bgs12rcd13ifvqcag","pricing_plan_id":"cebpf4jnsgd1na2vs0mg"},{"bike_id":"c46cb589-dfca-4471-b55d-8a1b7546b6a7","system_id":"levelo_inurba_marseille","lat":43.29581,"lon":5.36735,"is_reserved":false,"is_disabled":false,"rental_uris":{"android":"levelo://app?vid=c46cb589-dfca-4471-b55d-8a1b7546b6a7","ios":"levelo://app?vid=c46cb589-dfca-4471-b55d-8a1b7546b6a7"},"vehicle_type_id":"4","last_reported":1729778936,"current_range_meters":26800,"station_id":"ce4bgph2rcd13ifvqc2g","pricing_plan_id":"cebpf4jnsgd1na2vs0mg"},{"bike_id":"65f982f2-2455-4027-8f00-27da3b66fb21","system_id":"levelo_inurba_marseille","lat":43.27494,"lon":5.42446,"is_reserved":false,"is_disabled":false,"rental_uris":{"android":"levelo://app?vid=65f982f2-2455-4027-8f00-27da3b66fb21","ios":"levelo://app?vid=65f982f2-2455-4027-8f00-27da3b66fb21"},"vehicle_type_id":"4","last_reported":1729778936,"current_range_meters":20800,"station_id":"ce4bhn92rcd13ifvqgrg","pricing_plan_id":"cebpf4jnsgd1na2vs0mg"},{"bike_id":"64b170f8-2500-48ef-96a3-25f7c0707542","system_id":"levelo_inurba_marseille","lat":43.337444,"lon":5.374475,"is_reserved":false,"is_disabled":false,"rental_uris":{"android":"levelo://app?vid=64b170f8-2500-48ef-96a3-25f7c0707542","ios":"levelo://app?vid=64b170f8-2500-48ef-96a3-25f7c0707542"},"vehicle_type_id":"4","last_reported":1729778936,"current_range_meters":6400,"station_id":"","pricing_plan_id":"cebpf4jnsgd1na2vs0mg"},{"bike_id":"30c9eabb-175e-4efb-85f8-b6a89c6fe395","system_id":"levelo_inurba_marseille","lat":43.308838,"lon":5.396562,"is_reserved":false,"is_disabled":false,"rental_uris":{"android":"levelo://app?vid=30c9eabb-175e-4efb-85f8-b6a89c6fe395","ios":"levelo://app?vid=30c9eabb-175e-4efb-85f8-b6a89c6fe395"},"vehicle_type_id":"4","last_reported":1729778936,"current_range_meters":35200,"station_id":"ce4bh012rcd13ifvqcv0","pricing_plan_id":"cebpf4jnsgd1na2vs0mg"},{"bike_id":"4f409860-e0f7-4877-99ee-a24fed7f0e97","system_id":"levelo_inurba_marseille","lat":43.2781,"lon":5.40718,"is_reserved":false,"is_disabled":false,"rental_uris":{"android":"levelo://app?vid=4f409860-e0f7-4877-99ee-a24fed7f0e97","ios":"levelo://app?vid=4f409860-e0f7-4877-99ee-a24fed7f0e97"},"vehicle_type_id":"4","last_reported":1729778936,"current_range_meters":36400,"station_id":"ce4bhnh2rcd13ifvqgtg","pricing_plan_id":"cebpf4jnsgd1na2vs0mg"},{"bike_id":"2fcdd798-e778-4442-9a04-c4ae9c6da565","system_id":"levelo_inurba_marseille","lat":43.29262,"lon":5.40914,"is_reserved":false,"is_disabled":false,"rental_uris":{"android":"levelo://app?vid=2fcdd798-e778-4442-9a04-c4ae9c6da565","ios":"levelo://app?vid=2fcdd798-e778-4442-9a04-c4ae9c6da565"},"vehicle_type_id":"4","last_reported":1729778936,"current_range_meters":19200,"station_id":"ce4bh192rcd13ifvqdc0","pricing_plan_id":"cebpf4jnsgd1na2vs0mg"},{"bike_id":"d86d9b25-9894-4853-a422-1be6249c8c5b","system_id":"levelo_inurba_marseille","lat":43.28422,"lon":5.34983,"is_reserved":false,"is_disabled":false,"rental_uris":{"android":"levelo://app?vid=d86d9b25-9894-4853-a422-1be6249c8c5b","ios":"levelo://app?vid=d86d9b25-9894-4853-a422-1be6249c8c5b"},"vehicle_type_id":"4","last_reported":1729778936,"current_range_meters":36000,"station_id":"ce4bhbh2rcd13ifvqepg","pricing_plan_id":"cebpf4jnsgd1na2vs0mg"},{"bike_id":"d8b58bf5-4f14-4f2a-9c9d-8813ef66d50d","system_id":"levelo_inurba_marseille","lat":43.25002,"lon":5.3892,"is_reserved":false,"is_disabled":false,"rental_uris":{"android":"levelo://app?vid=d8b58bf5-4f14-4f2a-9c9d-8813ef66d50d","ios":"levelo://app?vid=d8b58bf5-4f14-4f2a-9c9d-8813ef66d50d"},"vehicle_type_id":"4","last_reported":1729778936,"current_range_meters":38800,"station_id":"ce4bhgp2rcd13ifvqfd0","pricing_plan_id":"cebpf4jnsgd1na2vs0mg"},{"bike_id":"5c61fa31-2f6b-4794-9d44-e315b4a0f902","system_id":"levelo_inurba_marseille","lat":43.28464,"lon":5.35884,"is_reserved":false,"is_disabled":false,"rental_uris":{"android":"levelo://app?vid=5c61fa31-2f6b-4794-9d44-e315b4a0f902","ios":"levelo://app?vid=5c61fa31-2f6b-4794-9d44-e315b4a0f902"},"vehicle_type_id":"4","last_reported":1729778936,"current_range_meters":19200,"station_id":"ce4bhah2rcd13ifvqei0","pricing_plan_id":"cebpf4jnsgd1na2vs0mg"},{"bike_id":"a122ef01-710f-45a5-bdd5-3714ce703bba","system_id":"levelo_inurba_marseille","lat":43.28931,"lon":5.38405,"is_reserved":false,"is_disabled":false,"rental_uris":{"android":"levelo://app?vid=a122ef01-710f-45a5-bdd5-3714ce703bba","ios":"levelo://app?vid=a122ef01-710f-45a5-bdd5-3714ce703bba"},"vehicle_type_id":"4","last_reported":1729778936,"current_range_meters":30000,"station_id":"ce4bh612rcd13ifvqe6g","pricing_plan_id":"cebpf4jnsgd1na2vs0mg"},{"bike_id":"4ea1a6c8-290b-49e6-900b-8ca6cd4202f8","system_id":"levelo_inurba_marseille","lat":43.28109,"lon":5.37835,"is_reserved":false,"is_disabled":false,"rental_uris":{"android":"levelo://app?vid=4ea1a6c8-290b-49e6-900b-8ca6cd4202f8","ios":"levelo://app?vid=4ea1a6c8-290b-49e6-900b-8ca6cd4202f8"},"vehicle_type_id":"4","last_reported":1729778936,"current_range_meters":24000,"station_id":"ce4bha12rcd13ifvqee0","pricing_plan_id":"cebpf4jnsgd1na2vs0mg"},{"bike_id":"d08713f8-e2d9-413a-b878-9ee35db195b2","system_id":"levelo_inurba_marseille","lat":43.30544,"lon":5.36695,"is_reserved":false,"is_disabled":false,"rental_uris":{"android":"levelo://app?vid=d08713f8-e2d9-413a-b878-9ee35db195b2","ios":"levelo://app?vid=d08713f8-e2d9-413a-b878-9ee35db195b2"},"vehicle_type_id":"4","last_reported":1729778936,"current_range_meters":36400,"station_id":"ce4bgrp2rcd13ifvqc9g","pricing_plan_id":"cebpf4jnsgd1na2vs0mg"},{"bike_id":"b4e6ddf4-e94c-4cf2-9931-296d9ca0f55e","system_id":"levelo_inurba_marseille","lat":43.25942,"lon":5.40893,"is_reserved":false,"is_disabled":false,"rental_uris":{"android":"levelo://app?vid=b4e6ddf4-e94c-4cf2-9931-296d9ca0f55e","ios":"levelo://app?vid=b4e6ddf4-e94c-4cf2-9931-296d9ca0f55e"},"vehicle_type_id":"4","last_reported":1729778936,"current_range_meters":12400,"station_id":"ce4bhm92rcd13ifvqglg","pricing_plan_id":"cebpf4jnsgd1na2vs0mg"},{"bike_id":"7c8d4baa-c23c-4e68-acb6-a017e364ec0d","system_id":"levelo_inurba_marseille","lat":43.3043,"lon":5.39749,"is_reserved":false,"is_disabled":false,"rental_uris":{"android":"levelo://app?vid=7c8d4baa-c23c-4e68-acb6-a017e364ec0d","ios":"levelo://app?vid=7c8d4baa-c23c-4e68-acb6-a017e364ec0d"},"vehicle_type_id":"4","last_reported":1729778936,"current_range_meters":38800,"station_id":"ce4bh092rcd13ifvqd20","pricing_plan_id":"cebpf4jnsgd1na2vs0mg"},{"bike_id":"0d936df8-b1de-49f9-acec-f0a0227a545f","system_id":"levelo_inurba_marseille","lat":43.319977,"lon":5.381566,"is_reserved":false,"is_disabled":false,"rental_uris":{"android":"levelo://app?vid=0d936df8-b1de-49f9-acec-f0a0227a545f","ios":"levelo://app?vid=0d936df8-b1de-49f9-acec-f0a0227a545f"},"vehicle_type_id":"4","last_reported":1729778936,"current_range_meters":8400,"station_id":"ce4bhr12rcd13ifvqhpg","pricing_plan_id":"cebpf4jnsgd1na2vs0mg"},{"bike_id":"41536422-cfce-435e-8b60-4ee8e327b85e","system_id":"levelo_inurba_marseille","lat":43.29579,"lon":5.36734,"is_reserved":false,"is_disabled":false,"rental_uris":{"android":"levelo://app?vid=41536422-cfce-435e-8b60-4ee8e327b85e","ios":"levelo://app?vid=41536422-cfce-435e-8b60-4ee8e327b85e"},"vehicle_type_id":"4","last_reported":1729778936,"current_range_meters":2000,"station_id":"ce4bgph2rcd13ifvqc2g","pricing_plan_id":"cebpf4jnsgd1na2vs0mg"},{"bike_id":"aa1d5d0e-e57f-47d9-b42a-ffa7cbaf8a85","system_id":"levelo_inurba_marseille","lat":43.26684,"lon":5.38279,"is_reserved":false,"is_disabled":false,"rental_uris":{"android":"levelo://app?vid=aa1d5d0e-e57f-47d9-b42a-ffa7cbaf8a85","ios":"levelo://app?vid=aa1d5d0e-e57f-47d9-b42a-ffa7cbaf8a85"},"vehicle_type_id":"4","last_reported":1729778936,"current_range_meters":38800,"station_id":"ce4bhg92rcd13ifvqf90","pricing_plan_id":"cebpf4jnsgd1na2vs0mg"},{"bike_id":"1e6ad4bb-a9a9-4984-aa12-147cb8ba15a8","system_id":"levelo_inurba_marseille","lat":43.30912,"lon":5.3685,"is_reserved":false,"is_disabled":false,"rental_uris":{"android":"levelo://app?vid=1e6ad4bb-a9a9-4984-aa12-147cb8ba15a8","ios":"levelo://app?vid=1e6ad4bb-a9a9-4984-aa12-147cb8ba15a8"},"vehicle_type_id":"4","last_reported":1729778936,"current_range_meters":27200,"station_id":"ce4bgn92rcd13ifvqbvg","pricing_plan_id":"cebpf4jnsgd1na2vs0mg"},{"bike_id":"807e98e3-c05c-42d0-b77c-7c8989c5bdc4","system_id":"levelo_inurba_marseille","lat":43.32479,"lon":5.36565,"is_reserved":false,"is_disabled":false,"rental_uris":{"android":"levelo://app?vid=807e98e3-c05c-42d0-b77c-7c8989c5bdc4","ios":"levelo://app?vid=807e98e3-c05c-42d0-b77c-7c8989c5bdc4"},"vehicle_type_id":"4","last_reported":1729778936,"current_range_meters":39200,"station_id":"ce4bhs12rcd13ifvqhvg","pricing_plan_id":"cebpf4jnsgd1na2vs0mg"},{"bike_id":"4f46e13c-6488-4434-bd1a-9f417ab97b99","system_id":"levelo_inurba_marseille","lat":43.246857,"lon":5.373873,"is_reserved":false,"is_disabled":false,"rental_uris":{"android":"levelo://app?vid=4f46e13c-6488-4434-bd1a-9f417ab97b99","ios":"levelo://app?vid=4f46e13c-6488-4434-bd1a-9f417ab97b99"},"vehicle_type_id":"4","last_reported":1729778936,"current_range_meters":9600,"station_id":"ce4bhih2rcd13ifvqfr0","pricing_plan_id":"cebpf4jnsgd1na2vs0mg"},{"bike_id":"4644c21a-040e-4007-9a3d-3f693d2c3ea6","system_id":"levelo_inurba_marseille","lat":43.29615,"lon":5.37721,"is_reserved":false,"is_disabled":false,"rental_uris":{"android":"levelo://app?vid=4644c21a-040e-4007-9a3d-3f693d2c3ea6","ios":"levelo://app?vid=4644c21a-040e-4007-9a3d-3f693d2c3ea6"},"vehicle_type_id":"4","last_reported":1729778936,"current_range_meters":28000,"station_id":"ce4bgi92rcd13ifvqb90","pricing_plan_id":"cebpf4jnsgd1na2vs0mg"},{"bike_id":"6c5e0e54-165e-4325-96c9-66a8e483f89a","system_id":"levelo_inurba_marseille","lat":43.29959,"lon":5.41316,"is_reserved":false,"is_disabled":false,"rental_uris":{"android":"levelo://app?vid=6c5e0e54-165e-4325-96c9-66a8e483f89a","ios":"levelo://app?vid=6c5e0e54-165e-4325-96c9-66a8e483f89a"},"vehicle_type_id":"4","last_reported":1729778936,"current_range_meters":37600,"station_id":"ce4bhp12rcd13ifvqh9g","pricing_plan_id":"cebpf4jnsgd1na2vs0mg"},{"bike_id":"8f7856b2-c668-4f5d-940a-4d5f309812ca","system_id":"levelo_inurba_marseille","lat":43.24073,"lon":5.37759,"is_reserved":false,"is_disabled":false,"rental_uris":{"android":"levelo://app?vid=8f7856b2-c668-4f5d-940a-4d5f309812ca","ios":"levelo://app?vid=8f7856b2-c668-4f5d-940a-4d5f309812ca"},"vehicle_type_id":"4","last_reported":1729778936,"current_range_meters":33600,"station_id":"ce4bhnp2rcd13ifvqgvg","pricing_plan_id":"cebpf4jnsgd1na2vs0mg"},{"bike_id":"958e6c8c-b045-4c9e-b8c0-d2954888915e","system_id":"levelo_inurba_marseille","lat":43.30088,"lon":5.39073,"is_reserved":false,"is_disabled":false,"rental_uris":{"android":"levelo://app?vid=958e6c8c-b045-4c9e-b8c0-d2954888915e","ios":"levelo://app?vid=958e6c8c-b045-4c9e-b8c0-d2954888915e"},"vehicle_type_id":"4","last_reported":1729778936,"current_range_meters":32000,"station_id":"ce4bh192rcd13ifvqdb0","pricing_plan_id":"cebpf4jnsgd1na2vs0mg"},{"bike_id":"6cfdba63-8d9e-4269-ad76-b68735b73eaf","system_id":"levelo_inurba_marseille","lat":43.32478,"lon":5.36555,"is_reserved":false,"is_disabled":false,"rental_uris":{"android":"levelo://app?vid=6cfdba63-8d9e-4269-ad76-b68735b73eaf","ios":"levelo://app?vid=6cfdba63-8d9e-4269-ad76-b68735b73eaf"},"vehicle_type_id":"4","last_reported":1729778936,"current_range_meters":38800,"station_id":"ce4bhs12rcd13ifvqhvg","pricing_plan_id":"cebpf4jnsgd1na2vs0mg"},{"bike_id":"a88860bb-ba79-487c-88d4-831b43c5ce5b","system_id":"levelo_inurba_marseille","lat":43.31334,"lon":5.39701,"is_reserved":false,"is_disabled":false,"rental_uris":{"android":"levelo://app?vid=a88860bb-ba79-487c-88d4-831b43c5ce5b","ios":"levelo://app?vid=a88860bb-ba79-487c-88d4-831b43c5ce5b"},"vehicle_type_id":"4","last_reported":1729778936,"current_range_meters":20400,"station_id":"ce4bgvp2rcd13ifvqcu0","pricing_plan_id":"cebpf4jnsgd1na2vs0mg"},{"bike_id":"ba787b38-6bff-4cf7-9c14-843fbd512afe","system_id":"levelo_inurba_marseille","lat":43.31692,"lon":5.40465,"is_reserved":false,"is_disabled":false,"rental_uris":{"android":"levelo://app?vid=ba787b38-6bff-4cf7-9c14-843fbd512afe","ios":"levelo://app?vid=ba787b38-6bff-4cf7-9c14-843fbd512afe"},"vehicle_type_id":"4","last_reported":1729778936,"current_range_meters":30800,"station_id":"ce4bh012rcd13ifvqd00","pricing_plan_id":"cebpf4jnsgd1na2vs0mg"},{"bike_id":"aba42095-8547-4667-81b1-9d73c73a5753","system_id":"levelo_inurba_marseille","lat":43.2572,"lon":5.41113,"is_reserved":false,"is_disabled":false,"rental_uris":{"android":"levelo://app?vid=aba42095-8547-4667-81b1-9d73c73a5753","ios":"levelo://app?vid=aba42095-8547-4667-81b1-9d73c73a5753"},"vehicle_type_id":"4","last_reported":1729778936,"current_range_meters":38800,"station_id":"ce4bhkp2rcd13ifvqgd0","pricing_plan_id":"cebpf4jnsgd1na2vs0mg"},{"bike_id":"f7e4c143-7f5a-442e-97f4-37ff14a78ff4","system_id":"levelo_inurba_marseille","lat":43.280026,"lon":5.400126,"is_reserved":false,"is_disabled":false,"rental_uris":{"android":"levelo://app?vid=f7e4c143-7f5a-442e-97f4-37ff14a78ff4","ios":"levelo://app?vid=f7e4c143-7f5a-442e-97f4-37ff14a78ff4"},"vehicle_type_id":"4","last_reported":1729778936,"current_range_meters":38800,"station_id":"ce4bho92rcd13ifvqh4g","pricing_plan_id":"cebpf4jnsgd1na2vs0mg"},